{"last_updated":1725293459,"ttl":30,"version":"2.2","data":{"bikes":[{"bike_id":"67d0c600-186f-4929-b227-2c1e3017b2a2","system_id":"levelo_inurba_marseille","lat":43.31222,"lon":5.368603,"is_reserved":false,"is_disabled":false,"rental_uris":{"android":"levelo://app?vid=67d0c600-186f-4929-b227-2c1e3017b2a2","ios":"levelo://app?vid=67d0c600-186f-4929-b227-2c1e3017b2a2"},"vehicle_type_id":"4","last_reported":1725293459,"current_range_meters":0,"station_id":"ce4bgl92rcd13ifvqbq0","pricing_plan_id":"cebpf4jnsgd1na2vs0mg"},{"bike_id":"8158fa0d-bd51-4f12-b055-67171e7048a3","system_id":"levelo_inurba_marseille","lat":43.314811,"lon":5.373103,"is_reserved":false,"is_disabled":false,"rental_uris":{"android":"levelo://app?vid=8158fa0d-bd51-4f12-b055-67171e7048a3","ios":"levelo://app?vid=8158fa0d-bd51-4f12-b055-67171e7048a3"},"vehicle_type_id":"4","last_reported":1725293459,"current_range_meters":23200,"station_id":"ce4bgt12rcd13ifvqcd0","pricing_plan_id":"cebpf4jnsgd1na2vs0mg"},{"bike_id":"de0c9be7-0ff9-4169-8e4e-190179ede6e8","system_id":"levelo_inurba_marseille","lat":43.31491,"lon":5.37306,"is_reserved":false,"is_disabled":false,"rental_uris":{"android":"levelo://app?vid=de0c9be7-0ff9-4169-8e4e-190179ede6e8","ios":"levelo://app?vid=de0c9be7-0ff9-4169-8e4e-190179ede6e8"},"vehicle_type_id":"4","last_reported":1725293459,"current_range_meters":0,"station_id":"ce4bgt12rcd13ifvqcd0","pricing_plan_id":"cebpf4jnsgd1na2vs0mg"},{"bike_id":"256b39d9-ccc7-4efa-8229-16e9760900c6","system_id":"levelo_inurba_marseille","lat":43.31492,"lon":5.37309,"is_reserved":false,"is_disabled":false,"rental_uris":{"android":"levelo://app?vid=256b39d9-ccc7-4efa-8229-16e9760900c6","ios":"levelo://app?vid=256b39d9-ccc7-4efa-8229-16e9760900c6"},"vehicle_type_id":"4","last_reported":1725293459,"current_range_meters":0,"station_id":"ce4bgt12rcd13ifvqcd0","pricing_plan_id":"cebpf4jnsgd1na2vs0mg"},{"bike_id":"4c63de82-5d96-4aaf-a814-65824a2e4e89","system_id":"levelo_inurba_marseille","lat":43.309034,"lon":5.371783,"is_reserved":false,"is_disabled":false,"rental_uris":{"android":"levelo://app?vid=4c63de82-5d96-4aaf-a814-65824a2e4e89","ios":"levelo://app?vid=4c63de82-5d96-4aaf-a814-65824a2e4e89"},"vehicle_type_id":"4","last_reported":1725293459,"current_range_meters":24000,"station_id":"ce4bguh2rcd13ifvqckg","pricing_plan_id":"cebpf4jnsgd1na2vs0mg"},{"bike_id":"781d6ce3-0a89-41af-a18c-62c21a1b9e13","system_id":"levelo_inurba_marseille","lat":43.311131,"lon":5.377651,"is_reserved":false,"is_disabled":false,"rental_uris":{"android":"levelo://app?vid=781d6ce3-0a89-41af-a18c-62c21a1b9e13","ios":"levelo://app?vid=781d6ce3-0a89-41af-a18c-62c21a1b9e13"},"vehicle_type_id":"4","last_reported":1725293459,"current_range_meters":12400,"station_id":"ce4bgt92rcd13ifvqcg0","pricing_plan_id":"cebpf4jnsgd1na2vs0mg"},{"bike_id":"84eef969-386f-4b7c-aa8e-3040433b36b7","system_id":"levelo_inurba_marseille","lat":43.31132,"lon":5.37782,"is_reserved":false,"is_disabled":false,"rental_uris":{"android":"levelo://app?vid=84eef969-386f-4b7c-aa8e-3040433b36b7","ios":"levelo://app?vid=84eef969-386f-4b7c-aa8e-3040433b36b7"},"vehicle_type_id":"4","last_reported":1725293459,"current_range_meters":400,"station_id":"ce4bgt92rcd13ifvqcg0","pricing_plan_id":"cebpf4jnsgd1na2vs0mg"},{"bike_id":"98aa1ce0-dcee-4401-ba16-9dbf91ccddaa","system_id":"levelo_inurba_marseille","lat":43.30788,"lon":5.37645,"is_reserved":false,"is_disabled":false,"rental_uris":{"android":"levelo://app?vid=98aa1ce0-dcee-4401-ba16-9dbf91ccddaa","ios":"levelo://app?vid=98aa1ce0-dcee-4401-ba16-9dbf91ccddaa"},"vehicle_type_id":"4","last_reported":1725293459,"current_range_meters":0,"station_id":"","pricing_plan_id":"cebpf4jnsgd1na2vs0mg"},{"bike_id":"b5e39e1f-2ca6-49c1-9af8-7a7dd6ada0a5","system_id":"levelo_inurba_marseille","lat":43.307945,"lon":5.376487,"is_reserved":false,"is_disabled":false,"rental_uris":{"android":"levelo://app?vid=b5e39e1f-2ca6-49c1-9af8-7a7dd6ada0a5","ios":"levelo://app?vid=b5e39e1f-2ca6-49c1-9af8-7a7dd6ada0a5"},"vehicle_type_id":"4","last_reported":1725293459,"current_range_meters":0,"station_id":"ce4bgv92rcd13ifvqcq0","pricing_plan_id":"cebpf4jnsgd1na2vs0mg"},{"bike_id":"f8a83ffe-be13-4284-8f9c-d913260f5bba","system_id":"levelo_inurba_marseille","lat":43.317075,"lon":5.377367,"is_reserved":false,"is_disabled":false,"rental_uris":{"android":"levelo://app?vid=f8a83ffe-be13-4284-8f9c-d913260f5bba","ios":"levelo://app?vid=f8a83ffe-be13-4284-8f9c-d913260f5bba"},"vehicle_type_id":"4","last_reported":1725293459,"current_range_meters":0,"station_id":"ce4bgth2rcd13ifvqch0","pricing_plan_id":"cebpf4jnsgd1na2vs0mg"},{"bike_id":"d3ff672c-fa80-4c92-8893-813caaccb550","system_id":"levelo_inurba_marseille","lat":43.315289,"lon":5.380349,"is_reserved":false,"is_disabled":false,"rental_uris":{"android":"levelo://app?vid=d3ff672c-fa80-4c92-8893-813caaccb550","ios":"levelo://app?vid=d3ff672c-fa80-4c92-8893-813caaccb550"},"vehicle_type_id":"4","last_reported":1725293459,"current_range_meters":4400,"station_id":"ce4bhsp2rcd13ifvqi50","pricing_plan_id":"cebpf4jnsgd1na2vs0mg"},{"bike_id":"e8e71965-0a71-4311-b978-463b1ff43a31","system_id":"levelo_inurba_marseille","lat":43.30786,"lon":5.3801,"is_reserved":false,"is_disabled":false,"rental_uris":{"android":"levelo://app?vid=e8e71965-0a71-4311-b978-463b1ff43a31","ios":"levelo://app?vid=e8e71965-0a71-4311-b978-463b1ff43a31"},"vehicle_type_id":"4","last_reported":1725293459,"current_range_meters":5600,"station_id":"","pricing_plan_id":"cebpf4jnsgd1na2vs0mg"},{"bike_id":"08dc5ede-2487-4924-99e1-7cf764c48da5","system_id":"levelo_inurba_marseille","lat":43.308012,"lon":5.381511,"is_reserved":false,"is_disabled":false,"rental_uris":{"android":"levelo://app?vid=08dc5ede-2487-4924-99e1-7cf764c48da5","ios":"levelo://app?vid=08dc5ede-2487-4924-99e1-7cf764c48da5"},"vehicle_type_id":"4","last_reported":1725293459,"current_range_meters":16800,"station_id":"ce4bgt12rcd13ifvqce0","pricing_plan_id":"cebpf4jnsgd1na2vs0mg"},{"bike_id":"1e14ead0-40e3-47a5-844d-29295d989f00","system_id":"levelo_inurba_marseille","lat":43.30794,"lon":5.38147,"is_reserved":false,"is_disabled":false,"rental_uris":{"android":"levelo://app?vid=1e14ead0-40e3-47a5-844d-29295d989f00","ios":"levelo://app?vid=1e14ead0-40e3-47a5-844d-29295d989f00"},"vehicle_type_id":"4","last_reported":1725293459,"current_range_meters":27200,"station_id":"ce4bgt12rcd13ifvqce0","pricing_plan_id":"cebpf4jnsgd1na2vs0mg"},{"bike_id":"fdea2f26-523b-4427-8f4b-39fcfe082cfd","system_id":"levelo_inurba_marseille","lat":43.308012,"lon":5.381511,"is_reserved":false,"is_disabled":false,"rental_uris":{"android":"levelo://app?vid=fdea2f26-523b-4427-8f4b-39fcfe082cfd","ios":"levelo://app?vid=fdea2f26-523b-4427-8f4b-39fcfe082cfd"},"vehicle_type_id":"4","last_reported":1725293459,"current_range_meters":21600,"station_id":"ce4bgt12rcd13ifvqce0","pricing_plan_id":"cebpf4jnsgd1na2vs0mg"},{"bike_id":"1a6c664d-e0d8-4822-98fc-eac504bd589e","system_id":"levelo_inurba_marseille","lat":43.308012,"lon":5.381511,"is_reserved":false,"is_disabled":false,"rental_uris":{"android":"levelo://app?vid=1a6c664d-e0d8-4822-98fc-eac504bd589e","ios":"levelo://app?vid=1a6c664d-e0d8-4822-98fc-eac504bd589e"},"vehicle_type_id":"4","last_reported":1725293459,"current_range_meters":16800,"station_id":"ce4bgt12rcd13ifvqce0","pricing_plan_id":"cebpf4jnsgd1na2vs0mg"},{"bike_id":"0ab5a6d7-35c4-44db-b65d-f7a960ad087b","system_id":"levelo_inurba_marseille","lat":43.32476,"lon":5.3656,"is_reserved":false,"is_disabled":false,"rental_uris":{"android":"levelo://app?vid=0ab5a6d7-35c4-44db-b65d-f7a960ad087b","ios":"levelo://app?vid=0ab5a6d7-35c4-44db-b65d-f7a960ad087b"},"vehicle_type_id":"4","last_reported":1725293459,"current_range_meters":0,"station_id":"ce4bhs12rcd13ifvqhvg","pricing_plan_id":"cebpf4jnsgd1na2vs0mg"},{"bike_id":"3e151a1c-5b64-40fe-bb7f-f940bd35829f","system_id":"levelo_inurba_marseille","lat":43.324771,"lon":5.36557,"is_reserved":false,"is_disabled":false,"rental_uris":{"android":"levelo://app?vid=3e151a1c-5b64-40fe-bb7f-f940bd35829f","ios":"levelo://app?vid=3e151a1c-5b64-40fe-bb7f-f940bd35829f"},"vehicle_type_id":"4","last_reported":1725293459,"current_range_meters":28800,"station_id":"ce4bhs12rcd13ifvqhvg","pricing_plan_id":"cebpf4jnsgd1na2vs0mg"},{"bike_id":"6586b1f7-bf00-45ea-ae11-cd2f548048ab","system_id":"levelo_inurba_marseille","lat":43.31989,"lon":5.38136,"is_reserved":false,"is_disabled":false,"rental_uris":{"android":"levelo://app?vid=6586b1f7-bf00-45ea-ae11-cd2f548048ab","ios":"levelo://app?vid=6586b1f7-bf00-45ea-ae11-cd2f548048ab"},"vehicle_type_id":"4","last_reported":1725293459,"current_range_meters":19600,"station_id":"ce4bhr12rcd13ifvqhpg","pricing_plan_id":"cebpf4jnsgd1na2vs0mg"},{"bike_id":"743c8c87-c1c3-438f-9be4-ea89b9c23645","system_id":"levelo_inurba_marseille","lat":43.319935,"lon":5.381699,"is_reserved":false,"is_disabled":false,"rental_uris":{"android":"levelo://app?vid=743c8c87-c1c3-438f-9be4-ea89b9c23645","ios":"levelo://app?vid=743c8c87-c1c3-438f-9be4-ea89b9c23645"},"vehicle_type_id":"4","last_reported":1725293459,"current_range_meters":14400,"station_id":"ce4bhr12rcd13ifvqhpg","pricing_plan_id":"cebpf4jnsgd1na2vs0mg"},{"bike_id":"731a647c-34db-4780-9705-8cb82a3475dd","system_id":"levelo_inurba_marseille","lat":43.319935,"lon":5.381699,"is_reserved":false,"is_disabled":false,"rental_uris":{"android":"levelo://app?vid=731a647c-34db-4780-9705-8cb82a3475dd","ios":"levelo://app?vid=731a647c-34db-4780-9705-8cb82a3475dd"},"vehicle_type_id":"4","last_reported":1725293459,"current_range_meters":7200,"station_id":"ce4bhr12rcd13ifvqhpg","pricing_plan_id":"cebpf4jnsgd1na2vs0mg"},{"bike_id":"6d30151f-7d93-4c8f-b00b-688c78614f01","system_id":"levelo_inurba_marseille","lat":43.32,"lon":5.38155,"is_reserved":false,"is_disabled":false,"rental_uris":{"android":"levelo://app?vid=6d30151f-7d93-4c8f-b00b-688c78614f01","ios":"levelo://app?vid=6d30151f-7d93-4c8f-b00b-688c78614f01"},"vehicle_type_id":"4","last_reported":1725293459,"current_range_meters":21200,"station_id":"ce4bhr12rcd13ifvqhpg","pricing_plan_id":"cebpf4jnsgd1na2vs0mg"},{"bike_id":"f9666617-bcaa-408d-b981-d766aa7cc41e","system_id":"levelo_inurba_marseille","lat":43.319935,"lon":5.381699,"is_reserved":false,"is_disabled":false,"rental_uris":{"android":"levelo://app?vid=f9666617-bcaa-408d-b981-d766aa7cc41e","ios":"levelo://app?vid=f9666617-bcaa-408d-b981-d766aa7cc41e"},"vehicle_type_id":"4","last_reported":1725293459,"current_range_meters":6800,"station_id":"ce4bhr12rcd13ifvqhpg","pricing_plan_id":"cebpf4jnsgd1na2vs0mg"},{"bike_id":"6c011bdb-d6ba-47b7-8fe4-ce727f8bd302","system_id":"levelo_inurba_marseille","lat":43.319935,"lon":5.381699,"is_reserved":false,"is_disabled":false,"rental_uris":{"android":"levelo://app?vid=6c011bdb-d6ba-47b7-8fe4-ce727f8bd302","ios":"levelo://app?vid=6c011bdb-d6ba-47b7-8fe4-ce727f8bd302"},"vehicle_type_id":"4","last_reported":1725293459,"current_range_meters":9200,"station_id":"ce4bhr12rcd13ifvqhpg","pricing_plan_id":"cebpf4jnsgd1na2vs0mg"},{"bike_id":"efda6918-09fc-4b9b-8a21-b9c0475f3a14","system_id":"levelo_inurba_marseille","lat":43.299724,"lon":5.371829,"is_reserved":false,"is_disabled":false,"rental_uris":{"android":"levelo://app?vid=efda6918-09fc-4b9b-8a21-b9c0475f3a14","ios":"levelo://app?vid=efda6918-09fc-4b9b-8a21-b9c0475f3a14"},"vehicle_type_id":"4","last_reported":1725293459,"current_range_meters":8400,"station_id":"ce4bgr92rcd13ifvqc7g","pricing_plan_id":"cebpf4jnsgd1na2vs0mg"},{"bike_id":"a4b549ff-bcc3-4285-a626-483113cf5bdc","system_id":"levelo_inurba_marseille","lat":43.2998,"lon":5.37179,"is_reserved":false,"is_disabled":false,"rental_uris":{"android":"levelo://app?vid=a4b549ff-bcc3-4285-a626-483113cf5bdc","ios":"levelo://app?vid=a4b549ff-bcc3-4285-a626-483113cf5bdc"},"vehicle_type_id":"4","last_reported":1725293459,"current_range_meters":0,"station_id":"ce4bgr92rcd13ifvqc7g","pricing_plan_id":"cebpf4jnsgd1na2vs0mg"},{"bike_id":"fe962307-121e-4757-b354-df17b16dadd5","system_id":"levelo_inurba_marseille","lat":43.299222,"lon":5.365554,"is_reserved":false,"is_disabled":false,"rental_uris":{"android":"levelo://app?vid=fe962307-121e-4757-b354-df17b16dadd5","ios":"levelo://app?vid=fe962307-121e-4757-b354-df17b16dadd5"},"vehicle_type_id":"4","last_reported":1725293459,"current_range_meters":0,"station_id":"ce4bgm92rcd13ifvqbr0","pricing_plan_id":"cebpf4jnsgd1na2vs0mg"},{"bike_id":"94f73949-d854-4982-81f2-2c5a35ab95cc","system_id":"levelo_inurba_marseille","lat":43.311722,"lon":5.387247,"is_reserved":false,"is_disabled":false,"rental_uris":{"android":"levelo://app?vid=94f73949-d854-4982-81f2-2c5a35ab95cc","ios":"levelo://app?vid=94f73949-d854-4982-81f2-2c5a35ab95cc"},"vehicle_type_id":"4","last_reported":1725293459,"current_range_meters":10400,"station_id":"ce4bgv12rcd13ifvqcp0","pricing_plan_id":"cebpf4jnsgd1na2vs0mg"},{"bike_id":"08b74d72-581a-4605-adb4-faa6680b30d7","system_id":"levelo_inurba_marseille","lat":43.298433,"lon":5.362774,"is_reserved":false,"is_disabled":false,"rental_uris":{"android":"levelo://app?vid=08b74d72-581a-4605-adb4-faa6680b30d7","ios":"levelo://app?vid=08b74d72-581a-4605-adb4-faa6680b30d7"},"vehicle_type_id":"4","last_reported":1725293459,"current_range_meters":17200,"station_id":"ce4bgpp2rcd13ifvqc3g","pricing_plan_id":"cebpf4jnsgd1na2vs0mg"},{"bike_id":"634a1285-79e8-4b3b-8f51-38712db24576","system_id":"levelo_inurba_marseille","lat":43.305368,"lon":5.367343,"is_reserved":false,"is_disabled":false,"rental_uris":{"android":"levelo://app?vid=634a1285-79e8-4b3b-8f51-38712db24576","ios":"levelo://app?vid=634a1285-79e8-4b3b-8f51-38712db24576"},"vehicle_type_id":"4","last_reported":1725293459,"current_range_meters":7600,"station_id":"ce4bgrp2rcd13ifvqc9g","pricing_plan_id":"cebpf4jnsgd1na2vs0mg"},{"bike_id":"f5db91c2-bebd-44a6-9698-a8192f59ed28","system_id":"levelo_inurba_marseille","lat":43.297855,"lon":5.371004,"is_reserved":false,"is_disabled":false,"rental_uris":{"android":"levelo://app?vid=f5db91c2-bebd-44a6-9698-a8192f59ed28","ios":"levelo://app?vid=f5db91c2-bebd-44a6-9698-a8192f59ed28"},"vehicle_type_id":"4","last_reported":1725293459,"current_range_meters":15200,"station_id":"","pricing_plan_id":"cebpf4jnsgd1na2vs0mg"},{"bike_id":"269543b6-b20b-4f74-b995-517d422f7746","system_id":"levelo_inurba_marseille","lat":43.32292,"lon":5.38275,"is_reserved":false,"is_disabled":false,"rental_uris":{"android":"levelo://app?vid=269543b6-b20b-4f74-b995-517d422f7746","ios":"levelo://app?vid=269543b6-b20b-4f74-b995-517d422f7746"},"vehicle_type_id":"4","last_reported":1725293459,"current_range_meters":0,"station_id":"ce4bhr12rcd13ifvqhqg","pricing_plan_id":"cebpf4jnsgd1na2vs0mg"},{"bike_id":"a0774b57-06e0-4ce1-bf97-543291fb109a","system_id":"levelo_inurba_marseille","lat":43.296812,"lon":5.368692,"is_reserved":false,"is_disabled":false,"rental_uris":{"android":"levelo://app?vid=a0774b57-06e0-4ce1-bf97-543291fb109a","ios":"levelo://app?vid=a0774b57-06e0-4ce1-bf97-543291fb109a"},"vehicle_type_id":"4","last_reported":1725293459,"current_range_meters":7600,"station_id":"","pricing_plan_id":"cebpf4jnsgd1na2vs0mg"},{"bike_id":"b6526665-543d-4c7f-a849-6c678ece708a","system_id":"levelo_inurba_marseille","lat":43.31503,"lon":5.38873,"is_reserved":false,"is_disabled":false,"rental_uris":{"android":"levelo://app?vid=b6526665-543d-4c7f-a849-6c678ece708a","ios":"levelo://app?vid=b6526665-543d-4c7f-a849-6c678ece708a"},"vehicle_type_id":"4","last_reported":1725293459,"current_range_meters":2000,"station_id":"","pricing_plan_id":"cebpf4jnsgd1na2vs0mg"},{"bike_id":"8a8887de-5c7d-4b1c-91b2-78e9c920b48d","system_id":"levelo_inurba_marseille","lat":43.2968,"lon":5.37291,"is_reserved":false,"is_disabled":false,"rental_uris":{"android":"levelo://app?vid=8a8887de-5c7d-4b1c-91b2-78e9c920b48d","ios":"levelo://app?vid=8a8887de-5c7d-4b1c-91b2-78e9c920b48d"},"vehicle_type_id":"4","last_reported":1725293459,"current_range_meters":31200,"station_id":"ce4bgk12rcd13ifvqbj0","pricing_plan_id":"cebpf4jnsgd1na2vs0mg"},{"bike_id":"69fe5107-779c-41e8-9889-703c208f9418","system_id":"levelo_inurba_marseille","lat":43.296131,"lon":5.370773,"is_reserved":false,"is_disabled":false,"rental_uris":{"android":"levelo://app?vid=69fe5107-779c-41e8-9889-703c208f9418","ios":"levelo://app?vid=69fe5107-779c-41e8-9889-703c208f9418"},"vehicle_type_id":"4","last_reported":1725293459,"current_range_meters":13200,"station_id":"ce4bgnh2rcd13ifvqc0g","pricing_plan_id":"cebpf4jnsgd1na2vs0mg"},{"bike_id":"f4cb9440-4b53-4875-b78c-78594444012c","system_id":"levelo_inurba_marseille","lat":43.309589,"lon":5.390258,"is_reserved":false,"is_disabled":false,"rental_uris":{"android":"levelo://app?vid=f4cb9440-4b53-4875-b78c-78594444012c","ios":"levelo://app?vid=f4cb9440-4b53-4875-b78c-78594444012c"},"vehicle_type_id":"4","last_reported":1725293459,"current_range_meters":14800,"station_id":"ce4bgup2rcd13ifvqco0","pricing_plan_id":"cebpf4jnsgd1na2vs0mg"},{"bike_id":"f6c66f23-569a-4cc9-b7a4-2af2bb5d7a88","system_id":"levelo_inurba_marseille","lat":43.29708,"lon":5.37709,"is_reserved":false,"is_disabled":false,"rental_uris":{"android":"levelo://app?vid=f6c66f23-569a-4cc9-b7a4-2af2bb5d7a88","ios":"levelo://app?vid=f6c66f23-569a-4cc9-b7a4-2af2bb5d7a88"},"vehicle_type_id":"4","last_reported":1725293459,"current_range_meters":16000,"station_id":"","pricing_plan_id":"cebpf4jnsgd1na2vs0mg"},{"bike_id":"435eb7ec-120a-42f4-81b3-2e5341a050a1","system_id":"levelo_inurba_marseille","lat":43.31759,"lon":5.39009,"is_reserved":false,"is_disabled":false,"rental_uris":{"android":"levelo://app?vid=435eb7ec-120a-42f4-81b3-2e5341a050a1","ios":"levelo://app?vid=435eb7ec-120a-42f4-81b3-2e5341a050a1"},"vehicle_type_id":"4","last_reported":1725293459,"current_range_meters":0,"station_id":"ce4bhqp2rcd13ifvqhng","pricing_plan_id":"cebpf4jnsgd1na2vs0mg"},{"bike_id":"27ff040a-7cc3-40f7-832e-020e7fe95fea","system_id":"levelo_inurba_marseille","lat":43.317557,"lon":5.390173,"is_reserved":false,"is_disabled":false,"rental_uris":{"android":"levelo://app?vid=27ff040a-7cc3-40f7-832e-020e7fe95fea","ios":"levelo://app?vid=27ff040a-7cc3-40f7-832e-020e7fe95fea"},"vehicle_type_id":"4","last_reported":1725293459,"current_range_meters":28400,"station_id":"ce4bhqp2rcd13ifvqhng","pricing_plan_id":"cebpf4jnsgd1na2vs0mg"},{"bike_id":"0c20c9e2-a5db-4bf8-90c1-41b24d542fc2","system_id":"levelo_inurba_marseille","lat":43.317557,"lon":5.390173,"is_reserved":false,"is_disabled":false,"rental_uris":{"android":"levelo://app?vid=0c20c9e2-a5db-4bf8-90c1-41b24d542fc2","ios":"levelo://app?vid=0c20c9e2-a5db-4bf8-90c1-41b24d542fc2"},"vehicle_type_id":"4","last_reported":1725293459,"current_range_meters":19600,"station_id":"ce4bhqp2rcd13ifvqhng","pricing_plan_id":"cebpf4jnsgd1na2vs0mg"},{"bike_id":"02977fe5-2a38-4d05-980a-72b48f0c0aa5","system_id":"levelo_inurba_marseille","lat":43.317557,"lon":5.390173,"is_reserved":false,"is_disabled":false,"rental_uris":{"android":"levelo://app?vid=02977fe5-2a38-4d05-980a-72b48f0c0aa5","ios":"levelo://app?vid=02977fe5-2a38-4d05-980a-72b48f0c0aa5"},"vehicle_type_id":"4","last_reported":1725293459,"current_range_meters":30000,"station_id":"ce4bhqp2rcd13ifvqhng","pricing_plan_id":"cebpf4jnsgd1na2vs0mg"},{"bike_id":"7561f521-c511-40cd-b9c4-de55f9a0e533","system_id":"levelo_inurba_marseille","lat":43.29572,"lon":5.37506,"is_reserved":false,"is_disabled":false,"rental_uris":{"android":"levelo://app?vid=7561f521-c511-40cd-b9c4-de55f9a0e533","ios":"levelo://app?vid=7561f521-c511-40cd-b9c4-de55f9a0e533"},"vehicle_type_id":"4","last_reported":1725293459,"current_range_meters":30000,"station_id":"ce4bgh92rcd13ifvqb50","pricing_plan_id":"cebpf4jnsgd1na2vs0mg"},{"bike_id":"124c92cd-fa69-4636-9147-5b1093f3848a","system_id":"levelo_inurba_marseille","lat":43.296263,"lon":5.377094,"is_reserved":false,"is_disabled":false,"rental_uris":{"android":"levelo://app?vid=124c92cd-fa69-4636-9147-5b1093f3848a","ios":"levelo://app?vid=124c92cd-fa69-4636-9147-5b1093f3848a"},"vehicle_type_id":"4","last_reported":1725293459,"current_range_meters":14400,"station_id":"ce4bgi92rcd13ifvqb90","pricing_plan_id":"cebpf4jnsgd1na2vs0mg"},{"bike_id":"9ddf5295-d2c8-4826-bfe8-895d4d0aedc5","system_id":"levelo_inurba_marseille","lat":43.296263,"lon":5.377094,"is_reserved":false,"is_disabled":false,"rental_uris":{"android":"levelo://app?vid=9ddf5295-d2c8-4826-bfe8-895d4d0aedc5","ios":"levelo://app?vid=9ddf5295-d2c8-4826-bfe8-895d4d0aedc5"},"vehicle_type_id":"4","last_reported":1725293459,"current_range_meters":10800,"station_id":"ce4bgi92rcd13ifvqb90","pricing_plan_id":"cebpf4jnsgd1na2vs0mg"},{"bike_id":"300c639b-e1ff-41b9-bc19-a4ed559b8bd8","system_id":"levelo_inurba_marseille","lat":43.296263,"lon":5.377094,"is_reserved":false,"is_disabled":false,"rental_uris":{"android":"levelo://app?vid=300c639b-e1ff-41b9-bc19-a4ed559b8bd8","ios":"levelo://app?vid=300c639b-e1ff-41b9-bc19-a4ed559b8bd8"},"vehicle_type_id":"4","last_reported":1725293459,"current_range_meters":2400,"station_id":"ce4bgi92rcd13ifvqb90","pricing_plan_id":"cebpf4jnsgd1na2vs0mg"},{"bike_id":"e34b5d0e-2f81-4f23-8448-50465399b7f7","system_id":"levelo_inurba_marseille","lat":43.29979,"lon":5.38474,"is_reserved":false,"is_disabled":false,"rental_uris":{"android":"levelo://app?vid=e34b5d0e-2f81-4f23-8448-50465399b7f7","ios":"levelo://app?vid=e34b5d0e-2f81-4f23-8448-50465399b7f7"},"vehicle_type_id":"4","last_reported":1725293459,"current_range_meters":0,"station_id":"ce4bgj92rcd13ifvqbd0","pricing_plan_id":"cebpf4jnsgd1na2vs0mg"},{"bike_id":"4f7d838f-cd96-4974-bb8a-d301bf7b891b","system_id":"levelo_inurba_marseille","lat":43.29978,"lon":5.3848,"is_reserved":false,"is_disabled":false,"rental_uris":{"android":"levelo://app?vid=4f7d838f-cd96-4974-bb8a-d301bf7b891b","ios":"levelo://app?vid=4f7d838f-cd96-4974-bb8a-d301bf7b891b"},"vehicle_type_id":"4","last_reported":1725293459,"current_range_meters":0,"station_id":"ce4bgj92rcd13ifvqbd0","pricing_plan_id":"cebpf4jnsgd1na2vs0mg"},{"bike_id":"02e1b0fe-7eec-4027-aafe-24981ab0fb01","system_id":"levelo_inurba_marseille","lat":43.29971,"lon":5.38487,"is_reserved":false,"is_disabled":false,"rental_uris":{"android":"levelo://app?vid=02e1b0fe-7eec-4027-aafe-24981ab0fb01","ios":"levelo://app?vid=02e1b0fe-7eec-4027-aafe-24981ab0fb01"},"vehicle_type_id":"4","last_reported":1725293459,"current_range_meters":0,"station_id":"ce4bgj92rcd13ifvqbd0","pricing_plan_id":"cebpf4jnsgd1na2vs0mg"},{"bike_id":"f8120331-f9db-433a-9716-f7980c35d308","system_id":"levelo_inurba_marseille","lat":43.299724,"lon":5.384848,"is_reserved":false,"is_disabled":false,"rental_uris":{"android":"levelo://app?vid=f8120331-f9db-433a-9716-f7980c35d308","ios":"levelo://app?vid=f8120331-f9db-433a-9716-f7980c35d308"},"vehicle_type_id":"4","last_reported":1725293459,"current_range_meters":0,"station_id":"ce4bgj92rcd13ifvqbd0","pricing_plan_id":"cebpf4jnsgd1na2vs0mg"},{"bike_id":"6c786fbf-9614-4a9e-90d7-509a6a20d4fa","system_id":"levelo_inurba_marseille","lat":43.32223,"lon":5.38929,"is_reserved":false,"is_disabled":false,"rental_uris":{"android":"levelo://app?vid=6c786fbf-9614-4a9e-90d7-509a6a20d4fa","ios":"levelo://app?vid=6c786fbf-9614-4a9e-90d7-509a6a20d4fa"},"vehicle_type_id":"4","last_reported":1725293459,"current_range_meters":27200,"station_id":"","pricing_plan_id":"cebpf4jnsgd1na2vs0mg"},{"bike_id":"38f3c47d-3359-49b2-a839-92a61e33ac72","system_id":"levelo_inurba_marseille","lat":43.29601,"lon":5.381084,"is_reserved":false,"is_disabled":false,"rental_uris":{"android":"levelo://app?vid=38f3c47d-3359-49b2-a839-92a61e33ac72","ios":"levelo://app?vid=38f3c47d-3359-49b2-a839-92a61e33ac72"},"vehicle_type_id":"4","last_reported":1725293459,"current_range_meters":400,"station_id":"ce4bgl12rcd13ifvqbo0","pricing_plan_id":"cebpf4jnsgd1na2vs0mg"},{"bike_id":"3fc82fcd-eae8-46c0-b39a-3a53a5b9c96a","system_id":"levelo_inurba_marseille","lat":43.323996,"lon":5.389252,"is_reserved":false,"is_disabled":false,"rental_uris":{"android":"levelo://app?vid=3fc82fcd-eae8-46c0-b39a-3a53a5b9c96a","ios":"levelo://app?vid=3fc82fcd-eae8-46c0-b39a-3a53a5b9c96a"},"vehicle_type_id":"4","last_reported":1725293459,"current_range_meters":20800,"station_id":"","pricing_plan_id":"cebpf4jnsgd1na2vs0mg"},{"bike_id":"56a830bd-141c-4021-83cf-3d35b2171129","system_id":"levelo_inurba_marseille","lat":43.29295,"lon":5.37446,"is_reserved":false,"is_disabled":false,"rental_uris":{"android":"levelo://app?vid=56a830bd-141c-4021-83cf-3d35b2171129","ios":"levelo://app?vid=56a830bd-141c-4021-83cf-3d35b2171129"},"vehicle_type_id":"4","last_reported":1725293459,"current_range_meters":0,"station_id":"ce4bgi12rcd13ifvqb70","pricing_plan_id":"cebpf4jnsgd1na2vs0mg"},{"bike_id":"203c1fc5-6b56-4ae1-87c5-f64e6313a758","system_id":"levelo_inurba_marseille","lat":43.293009,"lon":5.374584,"is_reserved":false,"is_disabled":false,"rental_uris":{"android":"levelo://app?vid=203c1fc5-6b56-4ae1-87c5-f64e6313a758","ios":"levelo://app?vid=203c1fc5-6b56-4ae1-87c5-f64e6313a758"},"vehicle_type_id":"4","last_reported":1725293459,"current_range_meters":24800,"station_id":"ce4bgi12rcd13ifvqb70","pricing_plan_id":"cebpf4jnsgd1na2vs0mg"},{"bike_id":"bd791de8-9564-4862-8c5e-b9fddc2a2914","system_id":"levelo_inurba_marseille","lat":43.303002,"lon":5.392142,"is_reserved":false,"is_disabled":false,"rental_uris":{"android":"levelo://app?vid=bd791de8-9564-4862-8c5e-b9fddc2a2914","ios":"levelo://app?vid=bd791de8-9564-4862-8c5e-b9fddc2a2914"},"vehicle_type_id":"4","last_reported":1725293459,"current_range_meters":0,"station_id":"ce4bgkh2rcd13ifvqbk0","pricing_plan_id":"cebpf4jnsgd1na2vs0mg"},{"bike_id":"41be6409-d656-4266-8b0b-53136d391711","system_id":"levelo_inurba_marseille","lat":43.302992,"lon":5.392136,"is_reserved":false,"is_disabled":false,"rental_uris":{"android":"levelo://app?vid=41be6409-d656-4266-8b0b-53136d391711","ios":"levelo://app?vid=41be6409-d656-4266-8b0b-53136d391711"},"vehicle_type_id":"4","last_reported":1725293459,"current_range_meters":5600,"station_id":"ce4bgkh2rcd13ifvqbk0","pricing_plan_id":"cebpf4jnsgd1na2vs0mg"},{"bike_id":"a97f436e-e775-4372-885d-90d0af8d605d","system_id":"levelo_inurba_marseille","lat":43.302992,"lon":5.392136,"is_reserved":false,"is_disabled":false,"rental_uris":{"android":"levelo://app?vid=a97f436e-e775-4372-885d-90d0af8d605d","ios":"levelo://app?vid=a97f436e-e775-4372-885d-90d0af8d605d"},"vehicle_type_id":"4","last_reported":1725293459,"current_range_meters":2400,"station_id":"ce4bgkh2rcd13ifvqbk0","pricing_plan_id":"cebpf4jnsgd1na2vs0mg"},{"bike_id":"29065a4c-c38f-4767-bdd3-20383d88a6ae","system_id":"levelo_inurba_marseille","lat":43.2936,"lon":5.37835,"is_reserved":false,"is_disabled":false,"rental_uris":{"android":"levelo://app?vid=29065a4c-c38f-4767-bdd3-20383d88a6ae","ios":"levelo://app?vid=29065a4c-c38f-4767-bdd3-20383d88a6ae"},"vehicle_type_id":"4","last_reported":1725293459,"current_range_meters":0,"station_id":"ce4bgjh2rcd13ifvqbf0","pricing_plan_id":"cebpf4jnsgd1na2vs0mg"},{"bike_id":"d727ebd4-24bf-4db9-aa1a-9297884c3fa0","system_id":"levelo_inurba_marseille","lat":43.2937,"lon":5.378563,"is_reserved":false,"is_disabled":false,"rental_uris":{"android":"levelo://app?vid=d727ebd4-24bf-4db9-aa1a-9297884c3fa0","ios":"levelo://app?vid=d727ebd4-24bf-4db9-aa1a-9297884c3fa0"},"vehicle_type_id":"4","last_reported":1725293459,"current_range_meters":0,"station_id":"ce4bgjh2rcd13ifvqbf0","pricing_plan_id":"cebpf4jnsgd1na2vs0mg"},{"bike_id":"b76154fc-3900-4742-a40c-98aa73c6abd8","system_id":"levelo_inurba_marseille","lat":43.295523,"lon":5.422926,"is_reserved":false,"is_disabled":false,"rental_uris":{"android":"levelo://app?vid=b76154fc-3900-4742-a40c-98aa73c6abd8","ios":"levelo://app?vid=b76154fc-3900-4742-a40c-98aa73c6abd8"},"vehicle_type_id":"4","last_reported":1725293459,"current_range_meters":29200,"station_id":"ce4bhph2rcd13ifvqhdg","pricing_plan_id":"cebpf4jnsgd1na2vs0mg"},{"bike_id":"4b7be8e8-4137-4339-8adf-e95e31b0f4ce","system_id":"levelo_inurba_marseille","lat":43.292311,"lon":5.360731,"is_reserved":false,"is_disabled":false,"rental_uris":{"android":"levelo://app?vid=4b7be8e8-4137-4339-8adf-e95e31b0f4ce","ios":"levelo://app?vid=4b7be8e8-4137-4339-8adf-e95e31b0f4ce"},"vehicle_type_id":"4","last_reported":1725293459,"current_range_meters":0,"station_id":"ce4bhbh2rcd13ifvqeqg","pricing_plan_id":"cebpf4jnsgd1na2vs0mg"},{"bike_id":"a7239564-dc16-4834-afdd-33157f842305","system_id":"levelo_inurba_marseille","lat":43.29227,"lon":5.36055,"is_reserved":false,"is_disabled":false,"rental_uris":{"android":"levelo://app?vid=a7239564-dc16-4834-afdd-33157f842305","ios":"levelo://app?vid=a7239564-dc16-4834-afdd-33157f842305"},"vehicle_type_id":"4","last_reported":1725293459,"current_range_meters":0,"station_id":"ce4bhbh2rcd13ifvqeqg","pricing_plan_id":"cebpf4jnsgd1na2vs0mg"},{"bike_id":"af6fbb33-9148-48ef-99de-80a6533ea359","system_id":"levelo_inurba_marseille","lat":43.292206,"lon":5.360834,"is_reserved":false,"is_disabled":false,"rental_uris":{"android":"levelo://app?vid=af6fbb33-9148-48ef-99de-80a6533ea359","ios":"levelo://app?vid=af6fbb33-9148-48ef-99de-80a6533ea359"},"vehicle_type_id":"4","last_reported":1725293459,"current_range_meters":0,"station_id":"","pricing_plan_id":"cebpf4jnsgd1na2vs0mg"},{"bike_id":"fea1d3b1-ab0c-4ee8-8ffe-304c5e7bd86f","system_id":"levelo_inurba_marseille","lat":43.292311,"lon":5.360731,"is_reserved":false,"is_disabled":false,"rental_uris":{"android":"levelo://app?vid=fea1d3b1-ab0c-4ee8-8ffe-304c5e7bd86f","ios":"levelo://app?vid=fea1d3b1-ab0c-4ee8-8ffe-304c5e7bd86f"},"vehicle_type_id":"4","last_reported":1725293459,"current_range_meters":30000,"station_id":"ce4bhbh2rcd13ifvqeqg","pricing_plan_id":"cebpf4jnsgd1na2vs0mg"},{"bike_id":"e4a63fc1-1ffe-4f20-916a-b72b1a6d529c","system_id":"levelo_inurba_marseille","lat":43.29215,"lon":5.35978,"is_reserved":false,"is_disabled":false,"rental_uris":{"android":"levelo://app?vid=e4a63fc1-1ffe-4f20-916a-b72b1a6d529c","ios":"levelo://app?vid=e4a63fc1-1ffe-4f20-916a-b72b1a6d529c"},"vehicle_type_id":"4","last_reported":1725293459,"current_range_meters":19600,"station_id":"","pricing_plan_id":"cebpf4jnsgd1na2vs0mg"},{"bike_id":"dee6175e-cd0d-4691-a44c-a092974e28b5","system_id":"levelo_inurba_marseille","lat":43.32586,"lon":5.39005,"is_reserved":false,"is_disabled":false,"rental_uris":{"android":"levelo://app?vid=dee6175e-cd0d-4691-a44c-a092974e28b5","ios":"levelo://app?vid=dee6175e-cd0d-4691-a44c-a092974e28b5"},"vehicle_type_id":"4","last_reported":1725293459,"current_range_meters":7200,"station_id":"","pricing_plan_id":"cebpf4jnsgd1na2vs0mg"},{"bike_id":"61084d4a-94a9-4cb1-a20a-c0bf8e34c0cf","system_id":"levelo_inurba_marseille","lat":43.298738,"lon":5.389078,"is_reserved":false,"is_disabled":false,"rental_uris":{"android":"levelo://app?vid=61084d4a-94a9-4cb1-a20a-c0bf8e34c0cf","ios":"levelo://app?vid=61084d4a-94a9-4cb1-a20a-c0bf8e34c0cf"},"vehicle_type_id":"4","last_reported":1725293459,"current_range_meters":9600,"station_id":"ce4bh392rcd13ifvqdl0","pricing_plan_id":"cebpf4jnsgd1na2vs0mg"},{"bike_id":"bfe3916b-38e7-437e-b630-438f4103b2ea","system_id":"levelo_inurba_marseille","lat":43.2987,"lon":5.38915,"is_reserved":false,"is_disabled":false,"rental_uris":{"android":"levelo://app?vid=bfe3916b-38e7-437e-b630-438f4103b2ea","ios":"levelo://app?vid=bfe3916b-38e7-437e-b630-438f4103b2ea"},"vehicle_type_id":"4","last_reported":1725293459,"current_range_meters":0,"station_id":"ce4bh392rcd13ifvqdl0","pricing_plan_id":"cebpf4jnsgd1na2vs0mg"},{"bike_id":"20ede0bd-f447-40a8-8a03-7cca190dabeb","system_id":"levelo_inurba_marseille","lat":43.29197,"lon":5.35809,"is_reserved":false,"is_disabled":false,"rental_uris":{"android":"levelo://app?vid=20ede0bd-f447-40a8-8a03-7cca190dabeb","ios":"levelo://app?vid=20ede0bd-f447-40a8-8a03-7cca190dabeb"},"vehicle_type_id":"4","last_reported":1725293459,"current_range_meters":0,"station_id":"ce4bhb12rcd13ifvqel0","pricing_plan_id":"cebpf4jnsgd1na2vs0mg"},{"bike_id":"cf2f2f18-671e-49ab-9c32-b019f6d3b38a","system_id":"levelo_inurba_marseille","lat":43.292005,"lon":5.357875,"is_reserved":false,"is_disabled":false,"rental_uris":{"android":"levelo://app?vid=cf2f2f18-671e-49ab-9c32-b019f6d3b38a","ios":"levelo://app?vid=cf2f2f18-671e-49ab-9c32-b019f6d3b38a"},"vehicle_type_id":"4","last_reported":1725293459,"current_range_meters":0,"station_id":"ce4bhb12rcd13ifvqel0","pricing_plan_id":"cebpf4jnsgd1na2vs0mg"},{"bike_id":"6f5bc846-a726-45d0-a9e6-8c51befb89d6","system_id":"levelo_inurba_marseille","lat":43.313291,"lon":5.396838,"is_reserved":false,"is_disabled":false,"rental_uris":{"android":"levelo://app?vid=6f5bc846-a726-45d0-a9e6-8c51befb89d6","ios":"levelo://app?vid=6f5bc846-a726-45d0-a9e6-8c51befb89d6"},"vehicle_type_id":"4","last_reported":1725293459,"current_range_meters":4800,"station_id":"ce4bgvp2rcd13ifvqcu0","pricing_plan_id":"cebpf4jnsgd1na2vs0mg"},{"bike_id":"82ac752b-c3fb-469b-8b98-451d43b3b335","system_id":"levelo_inurba_marseille","lat":43.290624,"lon":5.359245,"is_reserved":false,"is_disabled":false,"rental_uris":{"android":"levelo://app?vid=82ac752b-c3fb-469b-8b98-451d43b3b335","ios":"levelo://app?vid=82ac752b-c3fb-469b-8b98-451d43b3b335"},"vehicle_type_id":"4","last_reported":1725293459,"current_range_meters":0,"station_id":"ce4bha92rcd13ifvqeg0","pricing_plan_id":"cebpf4jnsgd1na2vs0mg"},{"bike_id":"019dff55-9be9-426b-952f-e3756846e1a9","system_id":"levelo_inurba_marseille","lat":43.29195,"lon":5.35783,"is_reserved":false,"is_disabled":false,"rental_uris":{"android":"levelo://app?vid=019dff55-9be9-426b-952f-e3756846e1a9","ios":"levelo://app?vid=019dff55-9be9-426b-952f-e3756846e1a9"},"vehicle_type_id":"4","last_reported":1725293459,"current_range_meters":6800,"station_id":"ce4bhb12rcd13ifvqel0","pricing_plan_id":"cebpf4jnsgd1na2vs0mg"},{"bike_id":"b425384f-2ecb-4366-91f0-ec99ff78a539","system_id":"levelo_inurba_marseille","lat":43.313291,"lon":5.396838,"is_reserved":false,"is_disabled":false,"rental_uris":{"android":"levelo://app?vid=b425384f-2ecb-4366-91f0-ec99ff78a539","ios":"levelo://app?vid=b425384f-2ecb-4366-91f0-ec99ff78a539"},"vehicle_type_id":"4","last_reported":1725293459,"current_range_meters":10000,"station_id":"ce4bgvp2rcd13ifvqcu0","pricing_plan_id":"cebpf4jnsgd1na2vs0mg"},{"bike_id":"fc3951d0-7ef3-4e83-bb0a-54c43082596e","system_id":"levelo_inurba_marseille","lat":43.309047,"lon":5.396551,"is_reserved":false,"is_disabled":false,"rental_uris":{"android":"levelo://app?vid=fc3951d0-7ef3-4e83-bb0a-54c43082596e","ios":"levelo://app?vid=fc3951d0-7ef3-4e83-bb0a-54c43082596e"},"vehicle_type_id":"4","last_reported":1725293459,"current_range_meters":2000,"station_id":"ce4bh012rcd13ifvqcv0","pricing_plan_id":"cebpf4jnsgd1na2vs0mg"},{"bike_id":"8746bfdb-cbe2-4e76-a2e3-abd3254d0e33","system_id":"levelo_inurba_marseille","lat":43.29182,"lon":5.35798,"is_reserved":false,"is_disabled":false,"rental_uris":{"android":"levelo://app?vid=8746bfdb-cbe2-4e76-a2e3-abd3254d0e33","ios":"levelo://app?vid=8746bfdb-cbe2-4e76-a2e3-abd3254d0e33"},"vehicle_type_id":"4","last_reported":1725293459,"current_range_meters":0,"station_id":"ce4bhb12rcd13ifvqel0","pricing_plan_id":"cebpf4jnsgd1na2vs0mg"},{"bike_id":"b35b600b-409e-43a3-9d2b-2dd5d2028ecd","system_id":"levelo_inurba_marseille","lat":43.29529,"lon":5.385581,"is_reserved":false,"is_disabled":false,"rental_uris":{"android":"levelo://app?vid=b35b600b-409e-43a3-9d2b-2dd5d2028ecd","ios":"levelo://app?vid=b35b600b-409e-43a3-9d2b-2dd5d2028ecd"},"vehicle_type_id":"4","last_reported":1725293459,"current_range_meters":30000,"station_id":"ce4bgih2rcd13ifvqba0","pricing_plan_id":"cebpf4jnsgd1na2vs0mg"},{"bike_id":"b9c21e82-c443-4bb6-86a9-753331813c9e","system_id":"levelo_inurba_marseille","lat":43.29529,"lon":5.385581,"is_reserved":false,"is_disabled":false,"rental_uris":{"android":"levelo://app?vid=b9c21e82-c443-4bb6-86a9-753331813c9e","ios":"levelo://app?vid=b9c21e82-c443-4bb6-86a9-753331813c9e"},"vehicle_type_id":"4","last_reported":1725293459,"current_range_meters":31200,"station_id":"ce4bgih2rcd13ifvqba0","pricing_plan_id":"cebpf4jnsgd1na2vs0mg"},{"bike_id":"a7e92cc8-6830-4bdc-baae-a22b734ff40c","system_id":"levelo_inurba_marseille","lat":43.29533,"lon":5.38545,"is_reserved":false,"is_disabled":false,"rental_uris":{"android":"levelo://app?vid=a7e92cc8-6830-4bdc-baae-a22b734ff40c","ios":"levelo://app?vid=a7e92cc8-6830-4bdc-baae-a22b734ff40c"},"vehicle_type_id":"4","last_reported":1725293459,"current_range_meters":31200,"station_id":"ce4bgih2rcd13ifvqba0","pricing_plan_id":"cebpf4jnsgd1na2vs0mg"},{"bike_id":"a51ba9d1-7a90-4494-b296-c140d492bf06","system_id":"levelo_inurba_marseille","lat":43.29531,"lon":5.38544,"is_reserved":false,"is_disabled":false,"rental_uris":{"android":"levelo://app?vid=a51ba9d1-7a90-4494-b296-c140d492bf06","ios":"levelo://app?vid=a51ba9d1-7a90-4494-b296-c140d492bf06"},"vehicle_type_id":"4","last_reported":1725293459,"current_range_meters":31200,"station_id":"ce4bgih2rcd13ifvqba0","pricing_plan_id":"cebpf4jnsgd1na2vs0mg"},{"bike_id":"61ae2210-7228-484d-a342-228144af8e76","system_id":"levelo_inurba_marseille","lat":43.29529,"lon":5.385581,"is_reserved":false,"is_disabled":false,"rental_uris":{"android":"levelo://app?vid=61ae2210-7228-484d-a342-228144af8e76","ios":"levelo://app?vid=61ae2210-7228-484d-a342-228144af8e76"},"vehicle_type_id":"4","last_reported":1725293459,"current_range_meters":24400,"station_id":"ce4bgih2rcd13ifvqba0","pricing_plan_id":"cebpf4jnsgd1na2vs0mg"},{"bike_id":"5530ae1d-6fee-403d-8b7e-7ba7ffca0d2c","system_id":"levelo_inurba_marseille","lat":43.29529,"lon":5.385581,"is_reserved":false,"is_disabled":false,"rental_uris":{"android":"levelo://app?vid=5530ae1d-6fee-403d-8b7e-7ba7ffca0d2c","ios":"levelo://app?vid=5530ae1d-6fee-403d-8b7e-7ba7ffca0d2c"},"vehicle_type_id":"4","last_reported":1725293459,"current_range_meters":29200,"station_id":"ce4bgih2rcd13ifvqba0","pricing_plan_id":"cebpf4jnsgd1na2vs0mg"},{"bike_id":"70b4be85-6b7a-4c3d-8427-82b94fcbeca9","system_id":"levelo_inurba_marseille","lat":43.30213,"lon":5.39455,"is_reserved":false,"is_disabled":false,"rental_uris":{"android":"levelo://app?vid=70b4be85-6b7a-4c3d-8427-82b94fcbeca9","ios":"levelo://app?vid=70b4be85-6b7a-4c3d-8427-82b94fcbeca9"},"vehicle_type_id":"4","last_reported":1725293459,"current_range_meters":6400,"station_id":"ce4bh0p2rcd13ifvqd70","pricing_plan_id":"cebpf4jnsgd1na2vs0mg"},{"bike_id":"ec46fa6f-969c-4690-a920-46ec8563890a","system_id":"levelo_inurba_marseille","lat":43.302008,"lon":5.394694,"is_reserved":false,"is_disabled":false,"rental_uris":{"android":"levelo://app?vid=ec46fa6f-969c-4690-a920-46ec8563890a","ios":"levelo://app?vid=ec46fa6f-969c-4690-a920-46ec8563890a"},"vehicle_type_id":"4","last_reported":1725293459,"current_range_meters":17200,"station_id":"ce4bh0p2rcd13ifvqd70","pricing_plan_id":"cebpf4jnsgd1na2vs0mg"},{"bike_id":"f9622930-214c-434c-a7d5-2447f3a33fd9","system_id":"levelo_inurba_marseille","lat":43.294153,"lon":5.386305,"is_reserved":false,"is_disabled":false,"rental_uris":{"android":"levelo://app?vid=f9622930-214c-434c-a7d5-2447f3a33fd9","ios":"levelo://app?vid=f9622930-214c-434c-a7d5-2447f3a33fd9"},"vehicle_type_id":"4","last_reported":1725293459,"current_range_meters":800,"station_id":"ce4bh2h2rcd13ifvqdh0","pricing_plan_id":"cebpf4jnsgd1na2vs0mg"},{"bike_id":"05b8dc18-de91-4db5-a170-152202b5cbb6","system_id":"levelo_inurba_marseille","lat":43.29418,"lon":5.38626,"is_reserved":false,"is_disabled":false,"rental_uris":{"android":"levelo://app?vid=05b8dc18-de91-4db5-a170-152202b5cbb6","ios":"levelo://app?vid=05b8dc18-de91-4db5-a170-152202b5cbb6"},"vehicle_type_id":"4","last_reported":1725293459,"current_range_meters":0,"station_id":"ce4bh2h2rcd13ifvqdh0","pricing_plan_id":"cebpf4jnsgd1na2vs0mg"},{"bike_id":"ed86c6ea-6420-4e29-9ed8-e179771a63da","system_id":"levelo_inurba_marseille","lat":43.294162,"lon":5.386292,"is_reserved":false,"is_disabled":false,"rental_uris":{"android":"levelo://app?vid=ed86c6ea-6420-4e29-9ed8-e179771a63da","ios":"levelo://app?vid=ed86c6ea-6420-4e29-9ed8-e179771a63da"},"vehicle_type_id":"4","last_reported":1725293459,"current_range_meters":1600,"station_id":"ce4bh2h2rcd13ifvqdh0","pricing_plan_id":"cebpf4jnsgd1na2vs0mg"},{"bike_id":"2e09323b-4a8c-487a-a97c-92e0d30d10dc","system_id":"levelo_inurba_marseille","lat":43.29416,"lon":5.38624,"is_reserved":false,"is_disabled":false,"rental_uris":{"android":"levelo://app?vid=2e09323b-4a8c-487a-a97c-92e0d30d10dc","ios":"levelo://app?vid=2e09323b-4a8c-487a-a97c-92e0d30d10dc"},"vehicle_type_id":"4","last_reported":1725293459,"current_range_meters":0,"station_id":"ce4bh2h2rcd13ifvqdh0","pricing_plan_id":"cebpf4jnsgd1na2vs0mg"},{"bike_id":"3883150d-1057-4be0-a70a-337677c75921","system_id":"levelo_inurba_marseille","lat":43.29414,"lon":5.38625,"is_reserved":false,"is_disabled":false,"rental_uris":{"android":"levelo://app?vid=3883150d-1057-4be0-a70a-337677c75921","ios":"levelo://app?vid=3883150d-1057-4be0-a70a-337677c75921"},"vehicle_type_id":"4","last_reported":1725293459,"current_range_meters":0,"station_id":"ce4bh2h2rcd13ifvqdh0","pricing_plan_id":"cebpf4jnsgd1na2vs0mg"},{"bike_id":"108d5e26-5672-4cfd-a3c8-bdccd6290440","system_id":"levelo_inurba_marseille","lat":43.294162,"lon":5.386292,"is_reserved":false,"is_disabled":false,"rental_uris":{"android":"levelo://app?vid=108d5e26-5672-4cfd-a3c8-bdccd6290440","ios":"levelo://app?vid=108d5e26-5672-4cfd-a3c8-bdccd6290440"},"vehicle_type_id":"4","last_reported":1725293459,"current_range_meters":16800,"station_id":"ce4bh2h2rcd13ifvqdh0","pricing_plan_id":"cebpf4jnsgd1na2vs0mg"},{"bike_id":"430e55c7-6251-431b-850b-1d7b3e0b5af8","system_id":"levelo_inurba_marseille","lat":43.289184,"lon":5.366408,"is_reserved":false,"is_disabled":false,"rental_uris":{"android":"levelo://app?vid=430e55c7-6251-431b-850b-1d7b3e0b5af8","ios":"levelo://app?vid=430e55c7-6251-431b-850b-1d7b3e0b5af8"},"vehicle_type_id":"4","last_reported":1725293459,"current_range_meters":4400,"station_id":"ce4bhap2rcd13ifvqek0","pricing_plan_id":"cebpf4jnsgd1na2vs0mg"},{"bike_id":"959bce3c-cb4a-4f7b-8f14-0c2eb0aa6829","system_id":"levelo_inurba_marseille","lat":43.294162,"lon":5.386292,"is_reserved":false,"is_disabled":false,"rental_uris":{"android":"levelo://app?vid=959bce3c-cb4a-4f7b-8f14-0c2eb0aa6829","ios":"levelo://app?vid=959bce3c-cb4a-4f7b-8f14-0c2eb0aa6829"},"vehicle_type_id":"4","last_reported":1725293459,"current_range_meters":11600,"station_id":"ce4bh2h2rcd13ifvqdh0","pricing_plan_id":"cebpf4jnsgd1na2vs0mg"},{"bike_id":"4aae528f-058c-4324-9b48-edb8b0668867","system_id":"levelo_inurba_marseille","lat":43.28932,"lon":5.36635,"is_reserved":false,"is_disabled":false,"rental_uris":{"android":"levelo://app?vid=4aae528f-058c-4324-9b48-edb8b0668867","ios":"levelo://app?vid=4aae528f-058c-4324-9b48-edb8b0668867"},"vehicle_type_id":"4","last_reported":1725293459,"current_range_meters":0,"station_id":"ce4bhap2rcd13ifvqek0","pricing_plan_id":"cebpf4jnsgd1na2vs0mg"},{"bike_id":"43258146-b6d8-4e1a-8efd-0db23a7da690","system_id":"levelo_inurba_marseille","lat":43.292644,"lon":5.384257,"is_reserved":false,"is_disabled":false,"rental_uris":{"android":"levelo://app?vid=43258146-b6d8-4e1a-8efd-0db23a7da690","ios":"levelo://app?vid=43258146-b6d8-4e1a-8efd-0db23a7da690"},"vehicle_type_id":"4","last_reported":1725293459,"current_range_meters":8400,"station_id":"ce4bh692rcd13ifvqea0","pricing_plan_id":"cebpf4jnsgd1na2vs0mg"},{"bike_id":"81b26339-e0d5-4a0e-81a8-0a0fd6d8fa82","system_id":"levelo_inurba_marseille","lat":43.292644,"lon":5.384257,"is_reserved":false,"is_disabled":false,"rental_uris":{"android":"levelo://app?vid=81b26339-e0d5-4a0e-81a8-0a0fd6d8fa82","ios":"levelo://app?vid=81b26339-e0d5-4a0e-81a8-0a0fd6d8fa82"},"vehicle_type_id":"4","last_reported":1725293459,"current_range_meters":0,"station_id":"ce4bh692rcd13ifvqea0","pricing_plan_id":"cebpf4jnsgd1na2vs0mg"},{"bike_id":"0c5cfe6b-5d16-4fae-a810-d9609260cf0b","system_id":"levelo_inurba_marseille","lat":43.290104,"lon":5.356111,"is_reserved":false,"is_disabled":false,"rental_uris":{"android":"levelo://app?vid=0c5cfe6b-5d16-4fae-a810-d9609260cf0b","ios":"levelo://app?vid=0c5cfe6b-5d16-4fae-a810-d9609260cf0b"},"vehicle_type_id":"4","last_reported":1725293459,"current_range_meters":0,"station_id":"ce4bhb92rcd13ifvqen0","pricing_plan_id":"cebpf4jnsgd1na2vs0mg"},{"bike_id":"94afc67b-392b-4827-b031-d85b37f99458","system_id":"levelo_inurba_marseille","lat":43.29002,"lon":5.35609,"is_reserved":false,"is_disabled":false,"rental_uris":{"android":"levelo://app?vid=94afc67b-392b-4827-b031-d85b37f99458","ios":"levelo://app?vid=94afc67b-392b-4827-b031-d85b37f99458"},"vehicle_type_id":"4","last_reported":1725293459,"current_range_meters":0,"station_id":"ce4bhb92rcd13ifvqen0","pricing_plan_id":"cebpf4jnsgd1na2vs0mg"},{"bike_id":"2be7d2b5-9fcd-4c86-ae8e-5cabd13a810a","system_id":"levelo_inurba_marseille","lat":43.290995,"lon":5.381361,"is_reserved":false,"is_disabled":false,"rental_uris":{"android":"levelo://app?vid=2be7d2b5-9fcd-4c86-ae8e-5cabd13a810a","ios":"levelo://app?vid=2be7d2b5-9fcd-4c86-ae8e-5cabd13a810a"},"vehicle_type_id":"4","last_reported":1725293459,"current_range_meters":6800,"station_id":"ce4bh512rcd13ifvqe2g","pricing_plan_id":"cebpf4jnsgd1na2vs0mg"},{"bike_id":"1e7bbc6c-4d45-4933-8254-bd01dc48599d","system_id":"levelo_inurba_marseille","lat":43.290963,"lon":5.381378,"is_reserved":false,"is_disabled":false,"rental_uris":{"android":"levelo://app?vid=1e7bbc6c-4d45-4933-8254-bd01dc48599d","ios":"levelo://app?vid=1e7bbc6c-4d45-4933-8254-bd01dc48599d"},"vehicle_type_id":"4","last_reported":1725293459,"current_range_meters":0,"station_id":"ce4bh512rcd13ifvqe2g","pricing_plan_id":"cebpf4jnsgd1na2vs0mg"},{"bike_id":"18fea5b4-6bb7-41cb-a7fa-1505d4b05ed3","system_id":"levelo_inurba_marseille","lat":43.290995,"lon":5.381361,"is_reserved":false,"is_disabled":false,"rental_uris":{"android":"levelo://app?vid=18fea5b4-6bb7-41cb-a7fa-1505d4b05ed3","ios":"levelo://app?vid=18fea5b4-6bb7-41cb-a7fa-1505d4b05ed3"},"vehicle_type_id":"4","last_reported":1725293459,"current_range_meters":30400,"station_id":"ce4bh512rcd13ifvqe2g","pricing_plan_id":"cebpf4jnsgd1na2vs0mg"},{"bike_id":"f35c98ce-4178-4e75-9035-2d1c8a0aaafc","system_id":"levelo_inurba_marseille","lat":43.295169,"lon":5.390426,"is_reserved":false,"is_disabled":false,"rental_uris":{"android":"levelo://app?vid=f35c98ce-4178-4e75-9035-2d1c8a0aaafc","ios":"levelo://app?vid=f35c98ce-4178-4e75-9035-2d1c8a0aaafc"},"vehicle_type_id":"4","last_reported":1725293459,"current_range_meters":12800,"station_id":"ce4bh3p2rcd13ifvqdp0","pricing_plan_id":"cebpf4jnsgd1na2vs0mg"},{"bike_id":"09a64628-9add-4060-9ae8-191008c61cb3","system_id":"levelo_inurba_marseille","lat":43.297807,"lon":5.393533,"is_reserved":false,"is_disabled":false,"rental_uris":{"android":"levelo://app?vid=09a64628-9add-4060-9ae8-191008c61cb3","ios":"levelo://app?vid=09a64628-9add-4060-9ae8-191008c61cb3"},"vehicle_type_id":"4","last_reported":1725293459,"current_range_meters":400,"station_id":"chh1huq6cuj3fo74tm60","pricing_plan_id":"cebpf4jnsgd1na2vs0mg"},{"bike_id":"b6410296-b6fb-4051-b2ff-726195a8690a","system_id":"levelo_inurba_marseille","lat":43.3302,"lon":5.39035,"is_reserved":false,"is_disabled":false,"rental_uris":{"android":"levelo://app?vid=b6410296-b6fb-4051-b2ff-726195a8690a","ios":"levelo://app?vid=b6410296-b6fb-4051-b2ff-726195a8690a"},"vehicle_type_id":"4","last_reported":1725293459,"current_range_meters":8400,"station_id":"ce4bhr92rcd13ifvqhrg","pricing_plan_id":"cebpf4jnsgd1na2vs0mg"},{"bike_id":"ae8a7b32-d92e-4cdd-b85a-2e18cdc3e0f2","system_id":"levelo_inurba_marseille","lat":43.330442,"lon":5.389148,"is_reserved":false,"is_disabled":false,"rental_uris":{"android":"levelo://app?vid=ae8a7b32-d92e-4cdd-b85a-2e18cdc3e0f2","ios":"levelo://app?vid=ae8a7b32-d92e-4cdd-b85a-2e18cdc3e0f2"},"vehicle_type_id":"4","last_reported":1725293459,"current_range_meters":26400,"station_id":"ce4bhr92rcd13ifvqhrg","pricing_plan_id":"cebpf4jnsgd1na2vs0mg"},{"bike_id":"d3daf3b2-8126-4f65-89e8-0e5f7710267e","system_id":"levelo_inurba_marseille","lat":43.330442,"lon":5.389148,"is_reserved":false,"is_disabled":false,"rental_uris":{"android":"levelo://app?vid=d3daf3b2-8126-4f65-89e8-0e5f7710267e","ios":"levelo://app?vid=d3daf3b2-8126-4f65-89e8-0e5f7710267e"},"vehicle_type_id":"4","last_reported":1725293459,"current_range_meters":22000,"station_id":"ce4bhr92rcd13ifvqhrg","pricing_plan_id":"cebpf4jnsgd1na2vs0mg"},{"bike_id":"df570b05-880b-45ad-9a80-b206290cf518","system_id":"levelo_inurba_marseille","lat":43.330442,"lon":5.389148,"is_reserved":false,"is_disabled":false,"rental_uris":{"android":"levelo://app?vid=df570b05-880b-45ad-9a80-b206290cf518","ios":"levelo://app?vid=df570b05-880b-45ad-9a80-b206290cf518"},"vehicle_type_id":"4","last_reported":1725293459,"current_range_meters":3200,"station_id":"ce4bhr92rcd13ifvqhrg","pricing_plan_id":"cebpf4jnsgd1na2vs0mg"},{"bike_id":"52d8a012-8286-4d28-aae6-f3bad10205bd","system_id":"levelo_inurba_marseille","lat":43.330233,"lon":5.390383,"is_reserved":false,"is_disabled":false,"rental_uris":{"android":"levelo://app?vid=52d8a012-8286-4d28-aae6-f3bad10205bd","ios":"levelo://app?vid=52d8a012-8286-4d28-aae6-f3bad10205bd"},"vehicle_type_id":"4","last_reported":1725293459,"current_range_meters":21600,"station_id":"ce4bhr92rcd13ifvqhrg","pricing_plan_id":"cebpf4jnsgd1na2vs0mg"},{"bike_id":"17b8423f-32ab-4c41-a884-dce269672c87","system_id":"levelo_inurba_marseille","lat":43.305813,"lon":5.39915,"is_reserved":false,"is_disabled":false,"rental_uris":{"android":"levelo://app?vid=17b8423f-32ab-4c41-a884-dce269672c87","ios":"levelo://app?vid=17b8423f-32ab-4c41-a884-dce269672c87"},"vehicle_type_id":"4","last_reported":1725293459,"current_range_meters":2000,"station_id":"","pricing_plan_id":"cebpf4jnsgd1na2vs0mg"},{"bike_id":"d08efa48-9a0c-4766-ba89-908ab3df66c2","system_id":"levelo_inurba_marseille","lat":43.33023,"lon":5.39041,"is_reserved":false,"is_disabled":false,"rental_uris":{"android":"levelo://app?vid=d08efa48-9a0c-4766-ba89-908ab3df66c2","ios":"levelo://app?vid=d08efa48-9a0c-4766-ba89-908ab3df66c2"},"vehicle_type_id":"4","last_reported":1725293459,"current_range_meters":4000,"station_id":"ce4bhr92rcd13ifvqhrg","pricing_plan_id":"cebpf4jnsgd1na2vs0mg"},{"bike_id":"e74ecfe6-eb2e-4c31-b8da-544da791e5bd","system_id":"levelo_inurba_marseille","lat":43.330442,"lon":5.389148,"is_reserved":false,"is_disabled":false,"rental_uris":{"android":"levelo://app?vid=e74ecfe6-eb2e-4c31-b8da-544da791e5bd","ios":"levelo://app?vid=e74ecfe6-eb2e-4c31-b8da-544da791e5bd"},"vehicle_type_id":"4","last_reported":1725293459,"current_range_meters":30000,"station_id":"ce4bhr92rcd13ifvqhrg","pricing_plan_id":"cebpf4jnsgd1na2vs0mg"},{"bike_id":"4488b4b6-e5fb-4ece-8ba9-335437cf10d5","system_id":"levelo_inurba_marseille","lat":43.33025,"lon":5.39043,"is_reserved":false,"is_disabled":false,"rental_uris":{"android":"levelo://app?vid=4488b4b6-e5fb-4ece-8ba9-335437cf10d5","ios":"levelo://app?vid=4488b4b6-e5fb-4ece-8ba9-335437cf10d5"},"vehicle_type_id":"4","last_reported":1725293459,"current_range_meters":11600,"station_id":"ce4bhr92rcd13ifvqhrg","pricing_plan_id":"cebpf4jnsgd1na2vs0mg"},{"bike_id":"6e51196e-d8f4-4102-9034-57e435fc78b1","system_id":"levelo_inurba_marseille","lat":43.33028,"lon":5.39039,"is_reserved":false,"is_disabled":false,"rental_uris":{"android":"levelo://app?vid=6e51196e-d8f4-4102-9034-57e435fc78b1","ios":"levelo://app?vid=6e51196e-d8f4-4102-9034-57e435fc78b1"},"vehicle_type_id":"4","last_reported":1725293459,"current_range_meters":1600,"station_id":"ce4bhr92rcd13ifvqhrg","pricing_plan_id":"cebpf4jnsgd1na2vs0mg"},{"bike_id":"412f6830-ef0d-4421-a421-c52edee2f9ff","system_id":"levelo_inurba_marseille","lat":43.330442,"lon":5.389148,"is_reserved":false,"is_disabled":false,"rental_uris":{"android":"levelo://app?vid=412f6830-ef0d-4421-a421-c52edee2f9ff","ios":"levelo://app?vid=412f6830-ef0d-4421-a421-c52edee2f9ff"},"vehicle_type_id":"4","last_reported":1725293459,"current_range_meters":10400,"station_id":"ce4bhr92rcd13ifvqhrg","pricing_plan_id":"cebpf4jnsgd1na2vs0mg"},{"bike_id":"b05a3fe5-1524-4c3a-bb09-142a84e2ca56","system_id":"levelo_inurba_marseille","lat":43.33024,"lon":5.39045,"is_reserved":false,"is_disabled":false,"rental_uris":{"android":"levelo://app?vid=b05a3fe5-1524-4c3a-bb09-142a84e2ca56","ios":"levelo://app?vid=b05a3fe5-1524-4c3a-bb09-142a84e2ca56"},"vehicle_type_id":"4","last_reported":1725293459,"current_range_meters":8800,"station_id":"ce4bhr92rcd13ifvqhrg","pricing_plan_id":"cebpf4jnsgd1na2vs0mg"},{"bike_id":"693ab049-37fa-47c7-bc56-e7d31d402a35","system_id":"levelo_inurba_marseille","lat":43.330442,"lon":5.389148,"is_reserved":false,"is_disabled":false,"rental_uris":{"android":"levelo://app?vid=693ab049-37fa-47c7-bc56-e7d31d402a35","ios":"levelo://app?vid=693ab049-37fa-47c7-bc56-e7d31d402a35"},"vehicle_type_id":"4","last_reported":1725293459,"current_range_meters":31600,"station_id":"ce4bhr92rcd13ifvqhrg","pricing_plan_id":"cebpf4jnsgd1na2vs0mg"},{"bike_id":"d3574a6d-5b30-4769-a276-1f3d0e6c48a0","system_id":"levelo_inurba_marseille","lat":43.330442,"lon":5.389148,"is_reserved":false,"is_disabled":false,"rental_uris":{"android":"levelo://app?vid=d3574a6d-5b30-4769-a276-1f3d0e6c48a0","ios":"levelo://app?vid=d3574a6d-5b30-4769-a276-1f3d0e6c48a0"},"vehicle_type_id":"4","last_reported":1725293459,"current_range_meters":1600,"station_id":"ce4bhr92rcd13ifvqhrg","pricing_plan_id":"cebpf4jnsgd1na2vs0mg"},{"bike_id":"31e919b8-fd1f-4a78-b2ee-d480b640f4e4","system_id":"levelo_inurba_marseille","lat":43.330442,"lon":5.389148,"is_reserved":false,"is_disabled":false,"rental_uris":{"android":"levelo://app?vid=31e919b8-fd1f-4a78-b2ee-d480b640f4e4","ios":"levelo://app?vid=31e919b8-fd1f-4a78-b2ee-d480b640f4e4"},"vehicle_type_id":"4","last_reported":1725293459,"current_range_meters":8000,"station_id":"ce4bhr92rcd13ifvqhrg","pricing_plan_id":"cebpf4jnsgd1na2vs0mg"},{"bike_id":"859318b7-26b4-47ec-a105-1abbeb82c548","system_id":"levelo_inurba_marseille","lat":43.33027,"lon":5.39042,"is_reserved":false,"is_disabled":false,"rental_uris":{"android":"levelo://app?vid=859318b7-26b4-47ec-a105-1abbeb82c548","ios":"levelo://app?vid=859318b7-26b4-47ec-a105-1abbeb82c548"},"vehicle_type_id":"4","last_reported":1725293459,"current_range_meters":20400,"station_id":"ce4bhr92rcd13ifvqhrg","pricing_plan_id":"cebpf4jnsgd1na2vs0mg"},{"bike_id":"3fd3d0a2-d485-4e22-aa4a-afbff6e2c224","system_id":"levelo_inurba_marseille","lat":43.295169,"lon":5.390426,"is_reserved":false,"is_disabled":false,"rental_uris":{"android":"levelo://app?vid=3fd3d0a2-d485-4e22-aa4a-afbff6e2c224","ios":"levelo://app?vid=3fd3d0a2-d485-4e22-aa4a-afbff6e2c224"},"vehicle_type_id":"4","last_reported":1725293459,"current_range_meters":0,"station_id":"ce4bh3p2rcd13ifvqdp0","pricing_plan_id":"cebpf4jnsgd1na2vs0mg"},{"bike_id":"b69835c4-d336-40f4-80d6-c65f5041f6cd","system_id":"levelo_inurba_marseille","lat":43.330442,"lon":5.389148,"is_reserved":false,"is_disabled":false,"rental_uris":{"android":"levelo://app?vid=b69835c4-d336-40f4-80d6-c65f5041f6cd","ios":"levelo://app?vid=b69835c4-d336-40f4-80d6-c65f5041f6cd"},"vehicle_type_id":"4","last_reported":1725293459,"current_range_meters":800,"station_id":"ce4bhr92rcd13ifvqhrg","pricing_plan_id":"cebpf4jnsgd1na2vs0mg"},{"bike_id":"b8b07b57-29a1-4df1-9f82-d47c5502a2d0","system_id":"levelo_inurba_marseille","lat":43.3303,"lon":5.39039,"is_reserved":false,"is_disabled":false,"rental_uris":{"android":"levelo://app?vid=b8b07b57-29a1-4df1-9f82-d47c5502a2d0","ios":"levelo://app?vid=b8b07b57-29a1-4df1-9f82-d47c5502a2d0"},"vehicle_type_id":"4","last_reported":1725293459,"current_range_meters":20000,"station_id":"ce4bhr92rcd13ifvqhrg","pricing_plan_id":"cebpf4jnsgd1na2vs0mg"},{"bike_id":"6a144e36-ead0-4b6f-8c8a-7191d8499cf0","system_id":"levelo_inurba_marseille","lat":43.330442,"lon":5.389148,"is_reserved":false,"is_disabled":false,"rental_uris":{"android":"levelo://app?vid=6a144e36-ead0-4b6f-8c8a-7191d8499cf0","ios":"levelo://app?vid=6a144e36-ead0-4b6f-8c8a-7191d8499cf0"},"vehicle_type_id":"4","last_reported":1725293459,"current_range_meters":31600,"station_id":"ce4bhr92rcd13ifvqhrg","pricing_plan_id":"cebpf4jnsgd1na2vs0mg"},{"bike_id":"fe158b8b-6992-4416-bfbf-9a08611e6a3a","system_id":"levelo_inurba_marseille","lat":43.33027,"lon":5.39048,"is_reserved":false,"is_disabled":false,"rental_uris":{"android":"levelo://app?vid=fe158b8b-6992-4416-bfbf-9a08611e6a3a","ios":"levelo://app?vid=fe158b8b-6992-4416-bfbf-9a08611e6a3a"},"vehicle_type_id":"4","last_reported":1725293459,"current_range_meters":15200,"station_id":"ce4bhr92rcd13ifvqhrg","pricing_plan_id":"cebpf4jnsgd1na2vs0mg"},{"bike_id":"f89bd0f6-6f2f-451c-8831-2e09ddfcfea8","system_id":"levelo_inurba_marseille","lat":43.28856,"lon":5.358371,"is_reserved":false,"is_disabled":false,"rental_uris":{"android":"levelo://app?vid=f89bd0f6-6f2f-451c-8831-2e09ddfcfea8","ios":"levelo://app?vid=f89bd0f6-6f2f-451c-8831-2e09ddfcfea8"},"vehicle_type_id":"4","last_reported":1725293459,"current_range_meters":0,"station_id":"ce4bhb12rcd13ifvqem0","pricing_plan_id":"cebpf4jnsgd1na2vs0mg"},{"bike_id":"b01a01c5-d56c-4296-a7dc-429fdc891066","system_id":"levelo_inurba_marseille","lat":43.284538,"lon":5.358657,"is_reserved":false,"is_disabled":false,"rental_uris":{"android":"levelo://app?vid=b01a01c5-d56c-4296-a7dc-429fdc891066","ios":"levelo://app?vid=b01a01c5-d56c-4296-a7dc-429fdc891066"},"vehicle_type_id":"4","last_reported":1725293459,"current_range_meters":8400,"station_id":"ce4bhah2rcd13ifvqei0","pricing_plan_id":"cebpf4jnsgd1na2vs0mg"},{"bike_id":"415b170f-a7bd-4685-9787-b7d211f04513","system_id":"levelo_inurba_marseille","lat":43.28849,"lon":5.35789,"is_reserved":false,"is_disabled":false,"rental_uris":{"android":"levelo://app?vid=415b170f-a7bd-4685-9787-b7d211f04513","ios":"levelo://app?vid=415b170f-a7bd-4685-9787-b7d211f04513"},"vehicle_type_id":"4","last_reported":1725293459,"current_range_meters":4800,"station_id":"ce4bhb12rcd13ifvqem0","pricing_plan_id":"cebpf4jnsgd1na2vs0mg"},{"bike_id":"8215b997-5dda-4a75-a46c-824d5c3e479c","system_id":"levelo_inurba_marseille","lat":43.31275,"lon":5.40167,"is_reserved":false,"is_disabled":false,"rental_uris":{"android":"levelo://app?vid=8215b997-5dda-4a75-a46c-824d5c3e479c","ios":"levelo://app?vid=8215b997-5dda-4a75-a46c-824d5c3e479c"},"vehicle_type_id":"4","last_reported":1725293459,"current_range_meters":0,"station_id":"ce4bh092rcd13ifvqd30","pricing_plan_id":"cebpf4jnsgd1na2vs0mg"},{"bike_id":"e83342bf-da94-4222-a4f1-c491f2671db9","system_id":"levelo_inurba_marseille","lat":43.309371,"lon":5.401449,"is_reserved":false,"is_disabled":false,"rental_uris":{"android":"levelo://app?vid=e83342bf-da94-4222-a4f1-c491f2671db9","ios":"levelo://app?vid=e83342bf-da94-4222-a4f1-c491f2671db9"},"vehicle_type_id":"4","last_reported":1725293459,"current_range_meters":0,"station_id":"ce4bgvp2rcd13ifvqct0","pricing_plan_id":"cebpf4jnsgd1na2vs0mg"},{"bike_id":"3cb4fec9-04db-47b7-8a4e-45a5d42e20da","system_id":"levelo_inurba_marseille","lat":43.33752,"lon":5.37439,"is_reserved":false,"is_disabled":false,"rental_uris":{"android":"levelo://app?vid=3cb4fec9-04db-47b7-8a4e-45a5d42e20da","ios":"levelo://app?vid=3cb4fec9-04db-47b7-8a4e-45a5d42e20da"},"vehicle_type_id":"4","last_reported":1725293459,"current_range_meters":18400,"station_id":"","pricing_plan_id":"cebpf4jnsgd1na2vs0mg"},{"bike_id":"d01a3708-b82e-4752-857d-9dd8beb6bf91","system_id":"levelo_inurba_marseille","lat":43.33753,"lon":5.3746,"is_reserved":false,"is_disabled":false,"rental_uris":{"android":"levelo://app?vid=d01a3708-b82e-4752-857d-9dd8beb6bf91","ios":"levelo://app?vid=d01a3708-b82e-4752-857d-9dd8beb6bf91"},"vehicle_type_id":"4","last_reported":1725293459,"current_range_meters":5200,"station_id":"","pricing_plan_id":"cebpf4jnsgd1na2vs0mg"},{"bike_id":"5066cc93-89d6-4182-9bd3-fc6e69b9cc76","system_id":"levelo_inurba_marseille","lat":43.306487,"lon":5.400873,"is_reserved":false,"is_disabled":false,"rental_uris":{"android":"levelo://app?vid=5066cc93-89d6-4182-9bd3-fc6e69b9cc76","ios":"levelo://app?vid=5066cc93-89d6-4182-9bd3-fc6e69b9cc76"},"vehicle_type_id":"4","last_reported":1725293459,"current_range_meters":26400,"station_id":"ce4bh112rcd13ifvqda0","pricing_plan_id":"cebpf4jnsgd1na2vs0mg"},{"bike_id":"d7891734-ee62-4194-bc41-e76a382b3bc6","system_id":"levelo_inurba_marseille","lat":43.306412,"lon":5.401035,"is_reserved":false,"is_disabled":false,"rental_uris":{"android":"levelo://app?vid=d7891734-ee62-4194-bc41-e76a382b3bc6","ios":"levelo://app?vid=d7891734-ee62-4194-bc41-e76a382b3bc6"},"vehicle_type_id":"4","last_reported":1725293459,"current_range_meters":4400,"station_id":"ce4bh112rcd13ifvqda0","pricing_plan_id":"cebpf4jnsgd1na2vs0mg"},{"bike_id":"d793c00a-a13b-42ee-96b3-f39e0957889d","system_id":"levelo_inurba_marseille","lat":43.306412,"lon":5.401035,"is_reserved":false,"is_disabled":false,"rental_uris":{"android":"levelo://app?vid=d793c00a-a13b-42ee-96b3-f39e0957889d","ios":"levelo://app?vid=d793c00a-a13b-42ee-96b3-f39e0957889d"},"vehicle_type_id":"4","last_reported":1725293459,"current_range_meters":2800,"station_id":"ce4bh112rcd13ifvqda0","pricing_plan_id":"cebpf4jnsgd1na2vs0mg"},{"bike_id":"e99f8401-918b-4ceb-8ce3-ce97a259acc1","system_id":"levelo_inurba_marseille","lat":43.30642,"lon":5.401031,"is_reserved":false,"is_disabled":false,"rental_uris":{"android":"levelo://app?vid=e99f8401-918b-4ceb-8ce3-ce97a259acc1","ios":"levelo://app?vid=e99f8401-918b-4ceb-8ce3-ce97a259acc1"},"vehicle_type_id":"4","last_reported":1725293459,"current_range_meters":0,"station_id":"ce4bh112rcd13ifvqda0","pricing_plan_id":"cebpf4jnsgd1na2vs0mg"},{"bike_id":"88889890-766e-4262-bd91-69a9eb9440e2","system_id":"levelo_inurba_marseille","lat":43.306412,"lon":5.401035,"is_reserved":false,"is_disabled":false,"rental_uris":{"android":"levelo://app?vid=88889890-766e-4262-bd91-69a9eb9440e2","ios":"levelo://app?vid=88889890-766e-4262-bd91-69a9eb9440e2"},"vehicle_type_id":"4","last_reported":1725293459,"current_range_meters":16800,"station_id":"ce4bh112rcd13ifvqda0","pricing_plan_id":"cebpf4jnsgd1na2vs0mg"},{"bike_id":"08e76707-ea30-4781-8a40-e4eca5230968","system_id":"levelo_inurba_marseille","lat":43.301117,"lon":5.398795,"is_reserved":false,"is_disabled":false,"rental_uris":{"android":"levelo://app?vid=08e76707-ea30-4781-8a40-e4eca5230968","ios":"levelo://app?vid=08e76707-ea30-4781-8a40-e4eca5230968"},"vehicle_type_id":"4","last_reported":1725293459,"current_range_meters":0,"station_id":"ce4bh0h2rcd13ifvqd40","pricing_plan_id":"cebpf4jnsgd1na2vs0mg"},{"bike_id":"81612cb5-94da-48a7-bd6f-8399b8c5c5d6","system_id":"levelo_inurba_marseille","lat":43.301117,"lon":5.398795,"is_reserved":false,"is_disabled":false,"rental_uris":{"android":"levelo://app?vid=81612cb5-94da-48a7-bd6f-8399b8c5c5d6","ios":"levelo://app?vid=81612cb5-94da-48a7-bd6f-8399b8c5c5d6"},"vehicle_type_id":"4","last_reported":1725293459,"current_range_meters":16000,"station_id":"ce4bh0h2rcd13ifvqd40","pricing_plan_id":"cebpf4jnsgd1na2vs0mg"},{"bike_id":"1fe3ac2e-af31-43b1-b2e7-3270fde20c0e","system_id":"levelo_inurba_marseille","lat":43.30131,"lon":5.39868,"is_reserved":false,"is_disabled":false,"rental_uris":{"android":"levelo://app?vid=1fe3ac2e-af31-43b1-b2e7-3270fde20c0e","ios":"levelo://app?vid=1fe3ac2e-af31-43b1-b2e7-3270fde20c0e"},"vehicle_type_id":"4","last_reported":1725293459,"current_range_meters":0,"station_id":"ce4bh0h2rcd13ifvqd40","pricing_plan_id":"cebpf4jnsgd1na2vs0mg"},{"bike_id":"3766da0c-af0a-4e01-98ae-83c35cbcf115","system_id":"levelo_inurba_marseille","lat":43.28702,"lon":5.37375,"is_reserved":false,"is_disabled":false,"rental_uris":{"android":"levelo://app?vid=3766da0c-af0a-4e01-98ae-83c35cbcf115","ios":"levelo://app?vid=3766da0c-af0a-4e01-98ae-83c35cbcf115"},"vehicle_type_id":"4","last_reported":1725293459,"current_range_meters":0,"station_id":"ce4bh3p2rcd13ifvqdq0","pricing_plan_id":"cebpf4jnsgd1na2vs0mg"},{"bike_id":"6010a8e0-7307-4270-84cf-5d19c7c46518","system_id":"levelo_inurba_marseille","lat":43.28705,"lon":5.37398,"is_reserved":false,"is_disabled":false,"rental_uris":{"android":"levelo://app?vid=6010a8e0-7307-4270-84cf-5d19c7c46518","ios":"levelo://app?vid=6010a8e0-7307-4270-84cf-5d19c7c46518"},"vehicle_type_id":"4","last_reported":1725293459,"current_range_meters":4000,"station_id":"ce4bh3p2rcd13ifvqdq0","pricing_plan_id":"cebpf4jnsgd1na2vs0mg"},{"bike_id":"b5dad30f-3c1b-4d12-863b-daf478f6c14c","system_id":"levelo_inurba_marseille","lat":43.286961,"lon":5.373785,"is_reserved":false,"is_disabled":false,"rental_uris":{"android":"levelo://app?vid=b5dad30f-3c1b-4d12-863b-daf478f6c14c","ios":"levelo://app?vid=b5dad30f-3c1b-4d12-863b-daf478f6c14c"},"vehicle_type_id":"4","last_reported":1725293459,"current_range_meters":0,"station_id":"ce4bh3p2rcd13ifvqdq0","pricing_plan_id":"cebpf4jnsgd1na2vs0mg"},{"bike_id":"35392a16-08d6-4fa6-9ed3-2c63b254b043","system_id":"levelo_inurba_marseille","lat":43.289184,"lon":5.366408,"is_reserved":false,"is_disabled":false,"rental_uris":{"android":"levelo://app?vid=35392a16-08d6-4fa6-9ed3-2c63b254b043","ios":"levelo://app?vid=35392a16-08d6-4fa6-9ed3-2c63b254b043"},"vehicle_type_id":"4","last_reported":1725293459,"current_range_meters":4800,"station_id":"ce4bhap2rcd13ifvqek0","pricing_plan_id":"cebpf4jnsgd1na2vs0mg"},{"bike_id":"034262b7-7f24-4fe2-b970-4c6e754f35e5","system_id":"levelo_inurba_marseille","lat":43.302759,"lon":5.400793,"is_reserved":false,"is_disabled":false,"rental_uris":{"android":"levelo://app?vid=034262b7-7f24-4fe2-b970-4c6e754f35e5","ios":"levelo://app?vid=034262b7-7f24-4fe2-b970-4c6e754f35e5"},"vehicle_type_id":"4","last_reported":1725293459,"current_range_meters":22000,"station_id":"ce4bgvh2rcd13ifvqcs0","pricing_plan_id":"cebpf4jnsgd1na2vs0mg"},{"bike_id":"9a3ca4ac-3ca2-4ef2-842d-f44c4002ebd1","system_id":"levelo_inurba_marseille","lat":43.302495,"lon":5.400485,"is_reserved":false,"is_disabled":false,"rental_uris":{"android":"levelo://app?vid=9a3ca4ac-3ca2-4ef2-842d-f44c4002ebd1","ios":"levelo://app?vid=9a3ca4ac-3ca2-4ef2-842d-f44c4002ebd1"},"vehicle_type_id":"4","last_reported":1725293459,"current_range_meters":2000,"station_id":"ce4bgvh2rcd13ifvqcs0","pricing_plan_id":"cebpf4jnsgd1na2vs0mg"},{"bike_id":"bf8b8373-9987-445a-b14e-045ceece4553","system_id":"levelo_inurba_marseille","lat":43.290345,"lon":5.38646,"is_reserved":false,"is_disabled":false,"rental_uris":{"android":"levelo://app?vid=bf8b8373-9987-445a-b14e-045ceece4553","ios":"levelo://app?vid=bf8b8373-9987-445a-b14e-045ceece4553"},"vehicle_type_id":"4","last_reported":1725293459,"current_range_meters":0,"station_id":"ce4bh4p2rcd13ifvqe0g","pricing_plan_id":"cebpf4jnsgd1na2vs0mg"},{"bike_id":"3a727557-ba25-414c-a76a-56a097de4d02","system_id":"levelo_inurba_marseille","lat":43.298037,"lon":5.381066,"is_reserved":false,"is_disabled":false,"rental_uris":{"android":"levelo://app?vid=3a727557-ba25-414c-a76a-56a097de4d02","ios":"levelo://app?vid=3a727557-ba25-414c-a76a-56a097de4d02"},"vehicle_type_id":"4","last_reported":1725293459,"current_range_meters":23600,"station_id":"ce4bgip2rcd13ifvqbb0","pricing_plan_id":"cebpf4jnsgd1na2vs0mg"},{"bike_id":"598a804c-ba1a-4568-8f41-788cc5262dbc","system_id":"levelo_inurba_marseille","lat":43.286039,"lon":5.370679,"is_reserved":false,"is_disabled":false,"rental_uris":{"android":"levelo://app?vid=598a804c-ba1a-4568-8f41-788cc5262dbc","ios":"levelo://app?vid=598a804c-ba1a-4568-8f41-788cc5262dbc"},"vehicle_type_id":"4","last_reported":1725293459,"current_range_meters":12800,"station_id":"ce4bht12rcd13ifvqi60","pricing_plan_id":"cebpf4jnsgd1na2vs0mg"},{"bike_id":"6b3b88da-ad63-420a-a222-04f11c9d6e13","system_id":"levelo_inurba_marseille","lat":43.287184,"lon":5.37937,"is_reserved":false,"is_disabled":false,"rental_uris":{"android":"levelo://app?vid=6b3b88da-ad63-420a-a222-04f11c9d6e13","ios":"levelo://app?vid=6b3b88da-ad63-420a-a222-04f11c9d6e13"},"vehicle_type_id":"4","last_reported":1725293459,"current_range_meters":8000,"station_id":"ce4bh9p2rcd13ifvqec0","pricing_plan_id":"cebpf4jnsgd1na2vs0mg"},{"bike_id":"d105f25a-9803-4e2d-b255-6cfeec218119","system_id":"levelo_inurba_marseille","lat":43.28721,"lon":5.37933,"is_reserved":false,"is_disabled":false,"rental_uris":{"android":"levelo://app?vid=d105f25a-9803-4e2d-b255-6cfeec218119","ios":"levelo://app?vid=d105f25a-9803-4e2d-b255-6cfeec218119"},"vehicle_type_id":"4","last_reported":1725293459,"current_range_meters":25600,"station_id":"ce4bh9p2rcd13ifvqec0","pricing_plan_id":"cebpf4jnsgd1na2vs0mg"},{"bike_id":"391678df-011e-4b3c-83be-256c7b63c24e","system_id":"levelo_inurba_marseille","lat":43.287185,"lon":5.379373,"is_reserved":false,"is_disabled":false,"rental_uris":{"android":"levelo://app?vid=391678df-011e-4b3c-83be-256c7b63c24e","ios":"levelo://app?vid=391678df-011e-4b3c-83be-256c7b63c24e"},"vehicle_type_id":"4","last_reported":1725293459,"current_range_meters":15600,"station_id":"ce4bh9p2rcd13ifvqec0","pricing_plan_id":"cebpf4jnsgd1na2vs0mg"},{"bike_id":"2be6819c-c632-4162-9d01-083c5272666b","system_id":"levelo_inurba_marseille","lat":43.32745,"lon":5.39875,"is_reserved":false,"is_disabled":false,"rental_uris":{"android":"levelo://app?vid=2be6819c-c632-4162-9d01-083c5272666b","ios":"levelo://app?vid=2be6819c-c632-4162-9d01-083c5272666b"},"vehicle_type_id":"4","last_reported":1725293459,"current_range_meters":10400,"station_id":"","pricing_plan_id":"cebpf4jnsgd1na2vs0mg"},{"bike_id":"5d2cb7e2-552d-476e-b5b7-417e7cbb442e","system_id":"levelo_inurba_marseille","lat":43.316821,"lon":5.404737,"is_reserved":false,"is_disabled":false,"rental_uris":{"android":"levelo://app?vid=5d2cb7e2-552d-476e-b5b7-417e7cbb442e","ios":"levelo://app?vid=5d2cb7e2-552d-476e-b5b7-417e7cbb442e"},"vehicle_type_id":"4","last_reported":1725293459,"current_range_meters":1200,"station_id":"ce4bh012rcd13ifvqd00","pricing_plan_id":"cebpf4jnsgd1na2vs0mg"},{"bike_id":"1324ea53-7cbb-49f6-88e0-97c6eaa4dc83","system_id":"levelo_inurba_marseille","lat":43.31714,"lon":5.40507,"is_reserved":false,"is_disabled":false,"rental_uris":{"android":"levelo://app?vid=1324ea53-7cbb-49f6-88e0-97c6eaa4dc83","ios":"levelo://app?vid=1324ea53-7cbb-49f6-88e0-97c6eaa4dc83"},"vehicle_type_id":"4","last_reported":1725293459,"current_range_meters":24800,"station_id":"ce4bh012rcd13ifvqd00","pricing_plan_id":"cebpf4jnsgd1na2vs0mg"},{"bike_id":"7ad53569-d49b-4e92-8172-b4cf70a8115a","system_id":"levelo_inurba_marseille","lat":43.291998,"lon":5.393192,"is_reserved":false,"is_disabled":false,"rental_uris":{"android":"levelo://app?vid=7ad53569-d49b-4e92-8172-b4cf70a8115a","ios":"levelo://app?vid=7ad53569-d49b-4e92-8172-b4cf70a8115a"},"vehicle_type_id":"4","last_reported":1725293459,"current_range_meters":0,"station_id":"ce4bh192rcd13ifvqdd0","pricing_plan_id":"cebpf4jnsgd1na2vs0mg"},{"bike_id":"e829bcfa-d0b4-4385-8efd-bec7c63504f8","system_id":"levelo_inurba_marseille","lat":43.28467,"lon":5.35885,"is_reserved":false,"is_disabled":false,"rental_uris":{"android":"levelo://app?vid=e829bcfa-d0b4-4385-8efd-bec7c63504f8","ios":"levelo://app?vid=e829bcfa-d0b4-4385-8efd-bec7c63504f8"},"vehicle_type_id":"4","last_reported":1725293459,"current_range_meters":7200,"station_id":"ce4bhah2rcd13ifvqei0","pricing_plan_id":"cebpf4jnsgd1na2vs0mg"},{"bike_id":"0c6cd2e1-8017-48c3-a96c-cdc5a0025d7a","system_id":"levelo_inurba_marseille","lat":43.284538,"lon":5.358657,"is_reserved":false,"is_disabled":false,"rental_uris":{"android":"levelo://app?vid=0c6cd2e1-8017-48c3-a96c-cdc5a0025d7a","ios":"levelo://app?vid=0c6cd2e1-8017-48c3-a96c-cdc5a0025d7a"},"vehicle_type_id":"4","last_reported":1725293459,"current_range_meters":4400,"station_id":"ce4bhah2rcd13ifvqei0","pricing_plan_id":"cebpf4jnsgd1na2vs0mg"},{"bike_id":"55d0fee8-31bb-484d-bec4-651706d1287d","system_id":"levelo_inurba_marseille","lat":43.303256,"lon":5.404389,"is_reserved":false,"is_disabled":false,"rental_uris":{"android":"levelo://app?vid=55d0fee8-31bb-484d-bec4-651706d1287d","ios":"levelo://app?vid=55d0fee8-31bb-484d-bec4-651706d1287d"},"vehicle_type_id":"4","last_reported":1725293459,"current_range_meters":27200,"station_id":"ce4bh012rcd13ifvqd10","pricing_plan_id":"cebpf4jnsgd1na2vs0mg"},{"bike_id":"ca599891-ae71-4118-915c-a608e276fe18","system_id":"levelo_inurba_marseille","lat":43.303256,"lon":5.404389,"is_reserved":false,"is_disabled":false,"rental_uris":{"android":"levelo://app?vid=ca599891-ae71-4118-915c-a608e276fe18","ios":"levelo://app?vid=ca599891-ae71-4118-915c-a608e276fe18"},"vehicle_type_id":"4","last_reported":1725293459,"current_range_meters":12000,"station_id":"ce4bh012rcd13ifvqd10","pricing_plan_id":"cebpf4jnsgd1na2vs0mg"},{"bike_id":"3f5b609a-4c63-41d0-a83e-592eb96a3405","system_id":"levelo_inurba_marseille","lat":43.303256,"lon":5.404389,"is_reserved":false,"is_disabled":false,"rental_uris":{"android":"levelo://app?vid=3f5b609a-4c63-41d0-a83e-592eb96a3405","ios":"levelo://app?vid=3f5b609a-4c63-41d0-a83e-592eb96a3405"},"vehicle_type_id":"4","last_reported":1725293459,"current_range_meters":5600,"station_id":"ce4bh012rcd13ifvqd10","pricing_plan_id":"cebpf4jnsgd1na2vs0mg"},{"bike_id":"01e706b2-057a-477c-bf90-4244a5ae607e","system_id":"levelo_inurba_marseille","lat":43.294314,"lon":5.397498,"is_reserved":false,"is_disabled":false,"rental_uris":{"android":"levelo://app?vid=01e706b2-057a-477c-bf90-4244a5ae607e","ios":"levelo://app?vid=01e706b2-057a-477c-bf90-4244a5ae607e"},"vehicle_type_id":"4","last_reported":1725293459,"current_range_meters":16000,"station_id":"ce4bh3h2rcd13ifvqdo0","pricing_plan_id":"cebpf4jnsgd1na2vs0mg"},{"bike_id":"def39d71-8109-429f-895c-d7cdd4c18201","system_id":"levelo_inurba_marseille","lat":43.28622,"lon":5.35105,"is_reserved":false,"is_disabled":false,"rental_uris":{"android":"levelo://app?vid=def39d71-8109-429f-895c-d7cdd4c18201","ios":"levelo://app?vid=def39d71-8109-429f-895c-d7cdd4c18201"},"vehicle_type_id":"4","last_reported":1725293459,"current_range_meters":20400,"station_id":"ce4bhch2rcd13ifvqeug","pricing_plan_id":"cebpf4jnsgd1na2vs0mg"},{"bike_id":"37a06ad2-73fe-427d-ac85-85b17707516a","system_id":"levelo_inurba_marseille","lat":43.28619,"lon":5.35112,"is_reserved":false,"is_disabled":false,"rental_uris":{"android":"levelo://app?vid=37a06ad2-73fe-427d-ac85-85b17707516a","ios":"levelo://app?vid=37a06ad2-73fe-427d-ac85-85b17707516a"},"vehicle_type_id":"4","last_reported":1725293459,"current_range_meters":0,"station_id":"ce4bhch2rcd13ifvqeug","pricing_plan_id":"cebpf4jnsgd1na2vs0mg"},{"bike_id":"187717e6-c378-488c-867f-a8a6859d9d53","system_id":"levelo_inurba_marseille","lat":43.28621,"lon":5.35103,"is_reserved":false,"is_disabled":false,"rental_uris":{"android":"levelo://app?vid=187717e6-c378-488c-867f-a8a6859d9d53","ios":"levelo://app?vid=187717e6-c378-488c-867f-a8a6859d9d53"},"vehicle_type_id":"4","last_reported":1725293459,"current_range_meters":17200,"station_id":"ce4bhch2rcd13ifvqeug","pricing_plan_id":"cebpf4jnsgd1na2vs0mg"},{"bike_id":"178f5e90-85ca-43c6-8a08-7d9c1800c6ba","system_id":"levelo_inurba_marseille","lat":43.28621,"lon":5.35101,"is_reserved":false,"is_disabled":false,"rental_uris":{"android":"levelo://app?vid=178f5e90-85ca-43c6-8a08-7d9c1800c6ba","ios":"levelo://app?vid=178f5e90-85ca-43c6-8a08-7d9c1800c6ba"},"vehicle_type_id":"4","last_reported":1725293459,"current_range_meters":11600,"station_id":"ce4bhch2rcd13ifvqeug","pricing_plan_id":"cebpf4jnsgd1na2vs0mg"},{"bike_id":"67859470-b5cf-41e8-950f-f36d46027375","system_id":"levelo_inurba_marseille","lat":43.2862,"lon":5.35103,"is_reserved":false,"is_disabled":false,"rental_uris":{"android":"levelo://app?vid=67859470-b5cf-41e8-950f-f36d46027375","ios":"levelo://app?vid=67859470-b5cf-41e8-950f-f36d46027375"},"vehicle_type_id":"4","last_reported":1725293459,"current_range_meters":25600,"station_id":"ce4bhch2rcd13ifvqeug","pricing_plan_id":"cebpf4jnsgd1na2vs0mg"},{"bike_id":"87cd9347-d056-4438-9702-3493f7d65360","system_id":"levelo_inurba_marseille","lat":43.28619,"lon":5.35106,"is_reserved":false,"is_disabled":false,"rental_uris":{"android":"levelo://app?vid=87cd9347-d056-4438-9702-3493f7d65360","ios":"levelo://app?vid=87cd9347-d056-4438-9702-3493f7d65360"},"vehicle_type_id":"4","last_reported":1725293459,"current_range_meters":16800,"station_id":"ce4bhch2rcd13ifvqeug","pricing_plan_id":"cebpf4jnsgd1na2vs0mg"},{"bike_id":"5566c4df-afe2-4622-994f-f925fd662da3","system_id":"levelo_inurba_marseille","lat":43.28619,"lon":5.35105,"is_reserved":false,"is_disabled":false,"rental_uris":{"android":"levelo://app?vid=5566c4df-afe2-4622-994f-f925fd662da3","ios":"levelo://app?vid=5566c4df-afe2-4622-994f-f925fd662da3"},"vehicle_type_id":"4","last_reported":1725293459,"current_range_meters":12000,"station_id":"ce4bhch2rcd13ifvqeug","pricing_plan_id":"cebpf4jnsgd1na2vs0mg"},{"bike_id":"6b3d9e68-6de1-4377-9523-c097fa690eb8","system_id":"levelo_inurba_marseille","lat":43.28619,"lon":5.35104,"is_reserved":false,"is_disabled":false,"rental_uris":{"android":"levelo://app?vid=6b3d9e68-6de1-4377-9523-c097fa690eb8","ios":"levelo://app?vid=6b3d9e68-6de1-4377-9523-c097fa690eb8"},"vehicle_type_id":"4","last_reported":1725293459,"current_range_meters":24800,"station_id":"ce4bhch2rcd13ifvqeug","pricing_plan_id":"cebpf4jnsgd1na2vs0mg"},{"bike_id":"3ef972e5-4895-4ad5-a7e7-a77e810749e7","system_id":"levelo_inurba_marseille","lat":43.28617,"lon":5.35109,"is_reserved":false,"is_disabled":false,"rental_uris":{"android":"levelo://app?vid=3ef972e5-4895-4ad5-a7e7-a77e810749e7","ios":"levelo://app?vid=3ef972e5-4895-4ad5-a7e7-a77e810749e7"},"vehicle_type_id":"4","last_reported":1725293459,"current_range_meters":10000,"station_id":"ce4bhch2rcd13ifvqeug","pricing_plan_id":"cebpf4jnsgd1na2vs0mg"},{"bike_id":"942e0e02-73a5-4be3-bc40-d291a310d646","system_id":"levelo_inurba_marseille","lat":43.28616,"lon":5.35111,"is_reserved":false,"is_disabled":false,"rental_uris":{"android":"levelo://app?vid=942e0e02-73a5-4be3-bc40-d291a310d646","ios":"levelo://app?vid=942e0e02-73a5-4be3-bc40-d291a310d646"},"vehicle_type_id":"4","last_reported":1725293459,"current_range_meters":0,"station_id":"ce4bhch2rcd13ifvqeug","pricing_plan_id":"cebpf4jnsgd1na2vs0mg"},{"bike_id":"2cbe6e22-2699-4d89-b5ce-b596667308ef","system_id":"levelo_inurba_marseille","lat":43.28616,"lon":5.3511,"is_reserved":false,"is_disabled":false,"rental_uris":{"android":"levelo://app?vid=2cbe6e22-2699-4d89-b5ce-b596667308ef","ios":"levelo://app?vid=2cbe6e22-2699-4d89-b5ce-b596667308ef"},"vehicle_type_id":"4","last_reported":1725293459,"current_range_meters":23200,"station_id":"ce4bhch2rcd13ifvqeug","pricing_plan_id":"cebpf4jnsgd1na2vs0mg"},{"bike_id":"446f1f17-8605-465f-b8f6-107a579ad854","system_id":"levelo_inurba_marseille","lat":43.28618,"lon":5.35102,"is_reserved":false,"is_disabled":false,"rental_uris":{"android":"levelo://app?vid=446f1f17-8605-465f-b8f6-107a579ad854","ios":"levelo://app?vid=446f1f17-8605-465f-b8f6-107a579ad854"},"vehicle_type_id":"4","last_reported":1725293459,"current_range_meters":30400,"station_id":"ce4bhch2rcd13ifvqeug","pricing_plan_id":"cebpf4jnsgd1na2vs0mg"},{"bike_id":"db219914-3563-46ea-b2bd-ffb51c41a73e","system_id":"levelo_inurba_marseille","lat":43.28617,"lon":5.35104,"is_reserved":false,"is_disabled":false,"rental_uris":{"android":"levelo://app?vid=db219914-3563-46ea-b2bd-ffb51c41a73e","ios":"levelo://app?vid=db219914-3563-46ea-b2bd-ffb51c41a73e"},"vehicle_type_id":"4","last_reported":1725293459,"current_range_meters":19600,"station_id":"ce4bhch2rcd13ifvqeug","pricing_plan_id":"cebpf4jnsgd1na2vs0mg"},{"bike_id":"f596573f-13b8-4936-b45b-2f86976ea614","system_id":"levelo_inurba_marseille","lat":43.28617,"lon":5.35102,"is_reserved":false,"is_disabled":false,"rental_uris":{"android":"levelo://app?vid=f596573f-13b8-4936-b45b-2f86976ea614","ios":"levelo://app?vid=f596573f-13b8-4936-b45b-2f86976ea614"},"vehicle_type_id":"4","last_reported":1725293459,"current_range_meters":0,"station_id":"ce4bhch2rcd13ifvqeug","pricing_plan_id":"cebpf4jnsgd1na2vs0mg"},{"bike_id":"1ee64cb3-6a5a-4ee0-80a8-bf56256cf51e","system_id":"levelo_inurba_marseille","lat":43.28616,"lon":5.35104,"is_reserved":false,"is_disabled":false,"rental_uris":{"android":"levelo://app?vid=1ee64cb3-6a5a-4ee0-80a8-bf56256cf51e","ios":"levelo://app?vid=1ee64cb3-6a5a-4ee0-80a8-bf56256cf51e"},"vehicle_type_id":"4","last_reported":1725293459,"current_range_meters":6400,"station_id":"ce4bhch2rcd13ifvqeug","pricing_plan_id":"cebpf4jnsgd1na2vs0mg"},{"bike_id":"d9e52b97-db1a-4ae1-8b0f-547cc84a6c20","system_id":"levelo_inurba_marseille","lat":43.28615,"lon":5.35106,"is_reserved":false,"is_disabled":false,"rental_uris":{"android":"levelo://app?vid=d9e52b97-db1a-4ae1-8b0f-547cc84a6c20","ios":"levelo://app?vid=d9e52b97-db1a-4ae1-8b0f-547cc84a6c20"},"vehicle_type_id":"4","last_reported":1725293459,"current_range_meters":16400,"station_id":"ce4bhch2rcd13ifvqeug","pricing_plan_id":"cebpf4jnsgd1na2vs0mg"},{"bike_id":"1c7fbf86-05b3-462a-b71f-b0adad9de24d","system_id":"levelo_inurba_marseille","lat":43.28615,"lon":5.35105,"is_reserved":false,"is_disabled":false,"rental_uris":{"android":"levelo://app?vid=1c7fbf86-05b3-462a-b71f-b0adad9de24d","ios":"levelo://app?vid=1c7fbf86-05b3-462a-b71f-b0adad9de24d"},"vehicle_type_id":"4","last_reported":1725293459,"current_range_meters":22000,"station_id":"ce4bhch2rcd13ifvqeug","pricing_plan_id":"cebpf4jnsgd1na2vs0mg"},{"bike_id":"63bc87d1-dd32-43ff-b683-67646ca8d0b0","system_id":"levelo_inurba_marseille","lat":43.28616,"lon":5.35101,"is_reserved":false,"is_disabled":false,"rental_uris":{"android":"levelo://app?vid=63bc87d1-dd32-43ff-b683-67646ca8d0b0","ios":"levelo://app?vid=63bc87d1-dd32-43ff-b683-67646ca8d0b0"},"vehicle_type_id":"4","last_reported":1725293459,"current_range_meters":1600,"station_id":"ce4bhch2rcd13ifvqeug","pricing_plan_id":"cebpf4jnsgd1na2vs0mg"},{"bike_id":"d08a5f2a-d937-4dd6-b476-ae06c2b9daf5","system_id":"levelo_inurba_marseille","lat":43.28615,"lon":5.35104,"is_reserved":false,"is_disabled":false,"rental_uris":{"android":"levelo://app?vid=d08a5f2a-d937-4dd6-b476-ae06c2b9daf5","ios":"levelo://app?vid=d08a5f2a-d937-4dd6-b476-ae06c2b9daf5"},"vehicle_type_id":"4","last_reported":1725293459,"current_range_meters":3600,"station_id":"ce4bhch2rcd13ifvqeug","pricing_plan_id":"cebpf4jnsgd1na2vs0mg"},{"bike_id":"667a2f5e-9473-49a4-a620-cdf5d08f66fa","system_id":"levelo_inurba_marseille","lat":43.28614,"lon":5.35102,"is_reserved":false,"is_disabled":false,"rental_uris":{"android":"levelo://app?vid=667a2f5e-9473-49a4-a620-cdf5d08f66fa","ios":"levelo://app?vid=667a2f5e-9473-49a4-a620-cdf5d08f66fa"},"vehicle_type_id":"4","last_reported":1725293459,"current_range_meters":7200,"station_id":"ce4bhch2rcd13ifvqeug","pricing_plan_id":"cebpf4jnsgd1na2vs0mg"},{"bike_id":"51908e28-40c8-418b-bb4c-36e18e6b9ae7","system_id":"levelo_inurba_marseille","lat":43.28612,"lon":5.35108,"is_reserved":false,"is_disabled":false,"rental_uris":{"android":"levelo://app?vid=51908e28-40c8-418b-bb4c-36e18e6b9ae7","ios":"levelo://app?vid=51908e28-40c8-418b-bb4c-36e18e6b9ae7"},"vehicle_type_id":"4","last_reported":1725293459,"current_range_meters":11200,"station_id":"ce4bhch2rcd13ifvqeug","pricing_plan_id":"cebpf4jnsgd1na2vs0mg"},{"bike_id":"59554db1-8f51-414f-9adf-1339b6571f99","system_id":"levelo_inurba_marseille","lat":43.28613,"lon":5.35103,"is_reserved":false,"is_disabled":false,"rental_uris":{"android":"levelo://app?vid=59554db1-8f51-414f-9adf-1339b6571f99","ios":"levelo://app?vid=59554db1-8f51-414f-9adf-1339b6571f99"},"vehicle_type_id":"4","last_reported":1725293459,"current_range_meters":16000,"station_id":"ce4bhch2rcd13ifvqeug","pricing_plan_id":"cebpf4jnsgd1na2vs0mg"},{"bike_id":"efee7187-953b-4dea-8609-ad9e4a3f02a8","system_id":"levelo_inurba_marseille","lat":43.28612,"lon":5.35104,"is_reserved":false,"is_disabled":false,"rental_uris":{"android":"levelo://app?vid=efee7187-953b-4dea-8609-ad9e4a3f02a8","ios":"levelo://app?vid=efee7187-953b-4dea-8609-ad9e4a3f02a8"},"vehicle_type_id":"4","last_reported":1725293459,"current_range_meters":16000,"station_id":"ce4bhch2rcd13ifvqeug","pricing_plan_id":"cebpf4jnsgd1na2vs0mg"},{"bike_id":"b774a334-a616-4393-86b0-a234a06660f1","system_id":"levelo_inurba_marseille","lat":43.28613,"lon":5.35099,"is_reserved":false,"is_disabled":false,"rental_uris":{"android":"levelo://app?vid=b774a334-a616-4393-86b0-a234a06660f1","ios":"levelo://app?vid=b774a334-a616-4393-86b0-a234a06660f1"},"vehicle_type_id":"4","last_reported":1725293459,"current_range_meters":9600,"station_id":"ce4bhch2rcd13ifvqeug","pricing_plan_id":"cebpf4jnsgd1na2vs0mg"},{"bike_id":"1f676681-8bec-46d1-9008-f8cec1d1fc5a","system_id":"levelo_inurba_marseille","lat":43.285856,"lon":5.350771,"is_reserved":false,"is_disabled":false,"rental_uris":{"android":"levelo://app?vid=1f676681-8bec-46d1-9008-f8cec1d1fc5a","ios":"levelo://app?vid=1f676681-8bec-46d1-9008-f8cec1d1fc5a"},"vehicle_type_id":"4","last_reported":1725293459,"current_range_meters":27600,"station_id":"ce4bhch2rcd13ifvqeug","pricing_plan_id":"cebpf4jnsgd1na2vs0mg"},{"bike_id":"50dc8f74-ad8f-4adc-b2c3-e112d479d6d4","system_id":"levelo_inurba_marseille","lat":43.283998,"lon":5.375062,"is_reserved":false,"is_disabled":false,"rental_uris":{"android":"levelo://app?vid=50dc8f74-ad8f-4adc-b2c3-e112d479d6d4","ios":"levelo://app?vid=50dc8f74-ad8f-4adc-b2c3-e112d479d6d4"},"vehicle_type_id":"4","last_reported":1725293459,"current_range_meters":0,"station_id":"ce4bh412rcd13ifvqds0","pricing_plan_id":"cebpf4jnsgd1na2vs0mg"},{"bike_id":"69e55117-12cb-48b4-bff9-7ef26adfe3b0","system_id":"levelo_inurba_marseille","lat":43.283998,"lon":5.375062,"is_reserved":false,"is_disabled":false,"rental_uris":{"android":"levelo://app?vid=69e55117-12cb-48b4-bff9-7ef26adfe3b0","ios":"levelo://app?vid=69e55117-12cb-48b4-bff9-7ef26adfe3b0"},"vehicle_type_id":"4","last_reported":1725293459,"current_range_meters":2400,"station_id":"ce4bh412rcd13ifvqds0","pricing_plan_id":"cebpf4jnsgd1na2vs0mg"},{"bike_id":"73fa7d93-c6fc-4e7b-a33e-898d6c8fd103","system_id":"levelo_inurba_marseille","lat":43.283998,"lon":5.375062,"is_reserved":false,"is_disabled":false,"rental_uris":{"android":"levelo://app?vid=73fa7d93-c6fc-4e7b-a33e-898d6c8fd103","ios":"levelo://app?vid=73fa7d93-c6fc-4e7b-a33e-898d6c8fd103"},"vehicle_type_id":"4","last_reported":1725293459,"current_range_meters":6400,"station_id":"ce4bh412rcd13ifvqds0","pricing_plan_id":"cebpf4jnsgd1na2vs0mg"},{"bike_id":"5b61f3fa-199d-4bae-9e50-df9446b45c56","system_id":"levelo_inurba_marseille","lat":43.28401,"lon":5.37509,"is_reserved":false,"is_disabled":false,"rental_uris":{"android":"levelo://app?vid=5b61f3fa-199d-4bae-9e50-df9446b45c56","ios":"levelo://app?vid=5b61f3fa-199d-4bae-9e50-df9446b45c56"},"vehicle_type_id":"4","last_reported":1725293459,"current_range_meters":12800,"station_id":"ce4bh412rcd13ifvqds0","pricing_plan_id":"cebpf4jnsgd1na2vs0mg"},{"bike_id":"3e19023f-0d7e-4b6d-a8a6-c229625821a8","system_id":"levelo_inurba_marseille","lat":43.286595,"lon":5.386795,"is_reserved":false,"is_disabled":false,"rental_uris":{"android":"levelo://app?vid=3e19023f-0d7e-4b6d-a8a6-c229625821a8","ios":"levelo://app?vid=3e19023f-0d7e-4b6d-a8a6-c229625821a8"},"vehicle_type_id":"4","last_reported":1725293459,"current_range_meters":0,"station_id":"ce4bh492rcd13ifvqdug","pricing_plan_id":"cebpf4jnsgd1na2vs0mg"},{"bike_id":"f43e0cac-69ea-4037-9db9-4cacfdbb9f79","system_id":"levelo_inurba_marseille","lat":43.319179,"lon":5.407725,"is_reserved":false,"is_disabled":false,"rental_uris":{"android":"levelo://app?vid=f43e0cac-69ea-4037-9db9-4cacfdbb9f79","ios":"levelo://app?vid=f43e0cac-69ea-4037-9db9-4cacfdbb9f79"},"vehicle_type_id":"4","last_reported":1725293459,"current_range_meters":14800,"station_id":"ce4bhq12rcd13ifvqhig","pricing_plan_id":"cebpf4jnsgd1na2vs0mg"},{"bike_id":"d31744e6-0c8a-4793-8b78-9690b3551528","system_id":"levelo_inurba_marseille","lat":43.28809,"lon":5.39143,"is_reserved":false,"is_disabled":false,"rental_uris":{"android":"levelo://app?vid=d31744e6-0c8a-4793-8b78-9690b3551528","ios":"levelo://app?vid=d31744e6-0c8a-4793-8b78-9690b3551528"},"vehicle_type_id":"4","last_reported":1725293459,"current_range_meters":7200,"station_id":"","pricing_plan_id":"cebpf4jnsgd1na2vs0mg"},{"bike_id":"69e04aaf-0af0-476d-bb51-28a24243859c","system_id":"levelo_inurba_marseille","lat":43.337301,"lon":5.39179,"is_reserved":false,"is_disabled":false,"rental_uris":{"android":"levelo://app?vid=69e04aaf-0af0-476d-bb51-28a24243859c","ios":"levelo://app?vid=69e04aaf-0af0-476d-bb51-28a24243859c"},"vehicle_type_id":"4","last_reported":1725293459,"current_range_meters":16000,"station_id":"ce4bhr92rcd13ifvqhsg","pricing_plan_id":"cebpf4jnsgd1na2vs0mg"},{"bike_id":"104fed8d-03fa-4ba3-a4c3-f09bbb80ccf0","system_id":"levelo_inurba_marseille","lat":43.33727,"lon":5.39188,"is_reserved":false,"is_disabled":false,"rental_uris":{"android":"levelo://app?vid=104fed8d-03fa-4ba3-a4c3-f09bbb80ccf0","ios":"levelo://app?vid=104fed8d-03fa-4ba3-a4c3-f09bbb80ccf0"},"vehicle_type_id":"4","last_reported":1725293459,"current_range_meters":12400,"station_id":"ce4bhr92rcd13ifvqhsg","pricing_plan_id":"cebpf4jnsgd1na2vs0mg"},{"bike_id":"74e7421d-f56a-4ea2-9784-8fd2175425bc","system_id":"levelo_inurba_marseille","lat":43.288501,"lon":5.393087,"is_reserved":false,"is_disabled":false,"rental_uris":{"android":"levelo://app?vid=74e7421d-f56a-4ea2-9784-8fd2175425bc","ios":"levelo://app?vid=74e7421d-f56a-4ea2-9784-8fd2175425bc"},"vehicle_type_id":"4","last_reported":1725293459,"current_range_meters":21200,"station_id":"ce4bh2p2rcd13ifvqdi0","pricing_plan_id":"cebpf4jnsgd1na2vs0mg"},{"bike_id":"fea068bd-75ab-4df6-952d-b2566c001e8d","system_id":"levelo_inurba_marseille","lat":43.28472,"lon":5.38412,"is_reserved":false,"is_disabled":false,"rental_uris":{"android":"levelo://app?vid=fea068bd-75ab-4df6-952d-b2566c001e8d","ios":"levelo://app?vid=fea068bd-75ab-4df6-952d-b2566c001e8d"},"vehicle_type_id":"4","last_reported":1725293459,"current_range_meters":0,"station_id":"ce4bh512rcd13ifvqe3g","pricing_plan_id":"cebpf4jnsgd1na2vs0mg"},{"bike_id":"452bf95e-9996-4b7b-ae77-4695cf7422bb","system_id":"levelo_inurba_marseille","lat":43.284793,"lon":5.384119,"is_reserved":false,"is_disabled":false,"rental_uris":{"android":"levelo://app?vid=452bf95e-9996-4b7b-ae77-4695cf7422bb","ios":"levelo://app?vid=452bf95e-9996-4b7b-ae77-4695cf7422bb"},"vehicle_type_id":"4","last_reported":1725293459,"current_range_meters":12000,"station_id":"ce4bh512rcd13ifvqe3g","pricing_plan_id":"cebpf4jnsgd1na2vs0mg"},{"bike_id":"c6464505-eade-4ba2-9713-93480b13d6ca","system_id":"levelo_inurba_marseille","lat":43.283494,"lon":5.380945,"is_reserved":false,"is_disabled":false,"rental_uris":{"android":"levelo://app?vid=c6464505-eade-4ba2-9713-93480b13d6ca","ios":"levelo://app?vid=c6464505-eade-4ba2-9713-93480b13d6ca"},"vehicle_type_id":"4","last_reported":1725293459,"current_range_meters":31200,"station_id":"ce4bh412rcd13ifvqdr0","pricing_plan_id":"cebpf4jnsgd1na2vs0mg"},{"bike_id":"57edccc7-6c1d-4b0f-b76e-f8b0afd85f1d","system_id":"levelo_inurba_marseille","lat":43.283494,"lon":5.380945,"is_reserved":false,"is_disabled":false,"rental_uris":{"android":"levelo://app?vid=57edccc7-6c1d-4b0f-b76e-f8b0afd85f1d","ios":"levelo://app?vid=57edccc7-6c1d-4b0f-b76e-f8b0afd85f1d"},"vehicle_type_id":"4","last_reported":1725293459,"current_range_meters":11600,"station_id":"ce4bh412rcd13ifvqdr0","pricing_plan_id":"cebpf4jnsgd1na2vs0mg"},{"bike_id":"30b56882-03a5-472e-8599-924c4077aa52","system_id":"levelo_inurba_marseille","lat":43.283494,"lon":5.380945,"is_reserved":false,"is_disabled":false,"rental_uris":{"android":"levelo://app?vid=30b56882-03a5-472e-8599-924c4077aa52","ios":"levelo://app?vid=30b56882-03a5-472e-8599-924c4077aa52"},"vehicle_type_id":"4","last_reported":1725293459,"current_range_meters":24000,"station_id":"ce4bh412rcd13ifvqdr0","pricing_plan_id":"cebpf4jnsgd1na2vs0mg"},{"bike_id":"c1b86480-70ec-4e9a-84a8-ab389ce14069","system_id":"levelo_inurba_marseille","lat":43.283494,"lon":5.380945,"is_reserved":false,"is_disabled":false,"rental_uris":{"android":"levelo://app?vid=c1b86480-70ec-4e9a-84a8-ab389ce14069","ios":"levelo://app?vid=c1b86480-70ec-4e9a-84a8-ab389ce14069"},"vehicle_type_id":"4","last_reported":1725293459,"current_range_meters":6000,"station_id":"ce4bh412rcd13ifvqdr0","pricing_plan_id":"cebpf4jnsgd1na2vs0mg"},{"bike_id":"d5d7dfb3-13e9-47fd-8721-a62e080ba502","system_id":"levelo_inurba_marseille","lat":43.284219,"lon":5.3497,"is_reserved":false,"is_disabled":false,"rental_uris":{"android":"levelo://app?vid=d5d7dfb3-13e9-47fd-8721-a62e080ba502","ios":"levelo://app?vid=d5d7dfb3-13e9-47fd-8721-a62e080ba502"},"vehicle_type_id":"4","last_reported":1725293459,"current_range_meters":21200,"station_id":"ce4bhbh2rcd13ifvqepg","pricing_plan_id":"cebpf4jnsgd1na2vs0mg"},{"bike_id":"c8b3febc-633e-40ed-ae69-617a1bb11c75","system_id":"levelo_inurba_marseille","lat":43.283494,"lon":5.380945,"is_reserved":false,"is_disabled":false,"rental_uris":{"android":"levelo://app?vid=c8b3febc-633e-40ed-ae69-617a1bb11c75","ios":"levelo://app?vid=c8b3febc-633e-40ed-ae69-617a1bb11c75"},"vehicle_type_id":"4","last_reported":1725293459,"current_range_meters":0,"station_id":"ce4bh412rcd13ifvqdr0","pricing_plan_id":"cebpf4jnsgd1na2vs0mg"},{"bike_id":"b41c2a2f-72c8-4273-a079-824085f049ae","system_id":"levelo_inurba_marseille","lat":43.284219,"lon":5.3497,"is_reserved":false,"is_disabled":false,"rental_uris":{"android":"levelo://app?vid=b41c2a2f-72c8-4273-a079-824085f049ae","ios":"levelo://app?vid=b41c2a2f-72c8-4273-a079-824085f049ae"},"vehicle_type_id":"4","last_reported":1725293459,"current_range_meters":18400,"station_id":"ce4bhbh2rcd13ifvqepg","pricing_plan_id":"cebpf4jnsgd1na2vs0mg"},{"bike_id":"88e47ae2-8c43-4be4-9225-fd9c2979eebd","system_id":"levelo_inurba_marseille","lat":43.28426,"lon":5.34986,"is_reserved":false,"is_disabled":false,"rental_uris":{"android":"levelo://app?vid=88e47ae2-8c43-4be4-9225-fd9c2979eebd","ios":"levelo://app?vid=88e47ae2-8c43-4be4-9225-fd9c2979eebd"},"vehicle_type_id":"4","last_reported":1725293459,"current_range_meters":0,"station_id":"ce4bhbh2rcd13ifvqepg","pricing_plan_id":"cebpf4jnsgd1na2vs0mg"},{"bike_id":"cb3d3597-bd5a-4015-be75-3881da8b0561","system_id":"levelo_inurba_marseille","lat":43.284219,"lon":5.3497,"is_reserved":false,"is_disabled":false,"rental_uris":{"android":"levelo://app?vid=cb3d3597-bd5a-4015-be75-3881da8b0561","ios":"levelo://app?vid=cb3d3597-bd5a-4015-be75-3881da8b0561"},"vehicle_type_id":"4","last_reported":1725293459,"current_range_meters":14000,"station_id":"ce4bhbh2rcd13ifvqepg","pricing_plan_id":"cebpf4jnsgd1na2vs0mg"},{"bike_id":"88fa7f27-0bcd-4e14-9844-6dff69447fc6","system_id":"levelo_inurba_marseille","lat":43.284219,"lon":5.3497,"is_reserved":false,"is_disabled":false,"rental_uris":{"android":"levelo://app?vid=88fa7f27-0bcd-4e14-9844-6dff69447fc6","ios":"levelo://app?vid=88fa7f27-0bcd-4e14-9844-6dff69447fc6"},"vehicle_type_id":"4","last_reported":1725293459,"current_range_meters":14400,"station_id":"ce4bhbh2rcd13ifvqepg","pricing_plan_id":"cebpf4jnsgd1na2vs0mg"},{"bike_id":"e4c41b59-81fd-43e0-a631-954ba5b6bb48","system_id":"levelo_inurba_marseille","lat":43.284219,"lon":5.3497,"is_reserved":false,"is_disabled":false,"rental_uris":{"android":"levelo://app?vid=e4c41b59-81fd-43e0-a631-954ba5b6bb48","ios":"levelo://app?vid=e4c41b59-81fd-43e0-a631-954ba5b6bb48"},"vehicle_type_id":"4","last_reported":1725293459,"current_range_meters":21600,"station_id":"ce4bhbh2rcd13ifvqepg","pricing_plan_id":"cebpf4jnsgd1na2vs0mg"},{"bike_id":"fe7bef1d-764f-4cf1-b5f1-563605e80ecc","system_id":"levelo_inurba_marseille","lat":43.284219,"lon":5.3497,"is_reserved":false,"is_disabled":false,"rental_uris":{"android":"levelo://app?vid=fe7bef1d-764f-4cf1-b5f1-563605e80ecc","ios":"levelo://app?vid=fe7bef1d-764f-4cf1-b5f1-563605e80ecc"},"vehicle_type_id":"4","last_reported":1725293459,"current_range_meters":30400,"station_id":"ce4bhbh2rcd13ifvqepg","pricing_plan_id":"cebpf4jnsgd1na2vs0mg"},{"bike_id":"2671735c-0873-43b3-b4d3-618a823c8c78","system_id":"levelo_inurba_marseille","lat":43.28421,"lon":5.34993,"is_reserved":false,"is_disabled":false,"rental_uris":{"android":"levelo://app?vid=2671735c-0873-43b3-b4d3-618a823c8c78","ios":"levelo://app?vid=2671735c-0873-43b3-b4d3-618a823c8c78"},"vehicle_type_id":"4","last_reported":1725293459,"current_range_meters":24400,"station_id":"ce4bhbh2rcd13ifvqepg","pricing_plan_id":"cebpf4jnsgd1na2vs0mg"},{"bike_id":"2bfa89aa-b0fd-4d48-b15e-a2304d0427d8","system_id":"levelo_inurba_marseille","lat":43.284219,"lon":5.3497,"is_reserved":false,"is_disabled":false,"rental_uris":{"android":"levelo://app?vid=2bfa89aa-b0fd-4d48-b15e-a2304d0427d8","ios":"levelo://app?vid=2bfa89aa-b0fd-4d48-b15e-a2304d0427d8"},"vehicle_type_id":"4","last_reported":1725293459,"current_range_meters":11600,"station_id":"ce4bhbh2rcd13ifvqepg","pricing_plan_id":"cebpf4jnsgd1na2vs0mg"},{"bike_id":"3df184f9-3f5d-45f3-941e-841412603bcf","system_id":"levelo_inurba_marseille","lat":43.284214,"lon":5.349706,"is_reserved":false,"is_disabled":false,"rental_uris":{"android":"levelo://app?vid=3df184f9-3f5d-45f3-941e-841412603bcf","ios":"levelo://app?vid=3df184f9-3f5d-45f3-941e-841412603bcf"},"vehicle_type_id":"4","last_reported":1725293459,"current_range_meters":26800,"station_id":"ce4bhbh2rcd13ifvqepg","pricing_plan_id":"cebpf4jnsgd1na2vs0mg"},{"bike_id":"edb34b2d-1670-49af-9394-d9787bc96f37","system_id":"levelo_inurba_marseille","lat":43.284188,"lon":5.349956,"is_reserved":false,"is_disabled":false,"rental_uris":{"android":"levelo://app?vid=edb34b2d-1670-49af-9394-d9787bc96f37","ios":"levelo://app?vid=edb34b2d-1670-49af-9394-d9787bc96f37"},"vehicle_type_id":"4","last_reported":1725293459,"current_range_meters":30800,"station_id":"ce4bhbh2rcd13ifvqepg","pricing_plan_id":"cebpf4jnsgd1na2vs0mg"},{"bike_id":"2e8ebb57-df12-4bc6-9c68-b98fafdbb332","system_id":"levelo_inurba_marseille","lat":43.284214,"lon":5.349706,"is_reserved":false,"is_disabled":false,"rental_uris":{"android":"levelo://app?vid=2e8ebb57-df12-4bc6-9c68-b98fafdbb332","ios":"levelo://app?vid=2e8ebb57-df12-4bc6-9c68-b98fafdbb332"},"vehicle_type_id":"4","last_reported":1725293459,"current_range_meters":21200,"station_id":"ce4bhbh2rcd13ifvqepg","pricing_plan_id":"cebpf4jnsgd1na2vs0mg"},{"bike_id":"f3bcd93e-792f-4e72-a78f-6a5a9940a8a0","system_id":"levelo_inurba_marseille","lat":43.284214,"lon":5.349706,"is_reserved":false,"is_disabled":false,"rental_uris":{"android":"levelo://app?vid=f3bcd93e-792f-4e72-a78f-6a5a9940a8a0","ios":"levelo://app?vid=f3bcd93e-792f-4e72-a78f-6a5a9940a8a0"},"vehicle_type_id":"4","last_reported":1725293459,"current_range_meters":24000,"station_id":"ce4bhbh2rcd13ifvqepg","pricing_plan_id":"cebpf4jnsgd1na2vs0mg"},{"bike_id":"d1fdc8b4-5c61-43b5-b070-40c06afc2647","system_id":"levelo_inurba_marseille","lat":43.2842,"lon":5.34985,"is_reserved":false,"is_disabled":false,"rental_uris":{"android":"levelo://app?vid=d1fdc8b4-5c61-43b5-b070-40c06afc2647","ios":"levelo://app?vid=d1fdc8b4-5c61-43b5-b070-40c06afc2647"},"vehicle_type_id":"4","last_reported":1725293459,"current_range_meters":27600,"station_id":"ce4bhbh2rcd13ifvqepg","pricing_plan_id":"cebpf4jnsgd1na2vs0mg"},{"bike_id":"e6d67499-9e12-48bf-b6e8-563f72a8899d","system_id":"levelo_inurba_marseille","lat":43.284219,"lon":5.3497,"is_reserved":false,"is_disabled":false,"rental_uris":{"android":"levelo://app?vid=e6d67499-9e12-48bf-b6e8-563f72a8899d","ios":"levelo://app?vid=e6d67499-9e12-48bf-b6e8-563f72a8899d"},"vehicle_type_id":"4","last_reported":1725293459,"current_range_meters":30400,"station_id":"ce4bhbh2rcd13ifvqepg","pricing_plan_id":"cebpf4jnsgd1na2vs0mg"},{"bike_id":"c892dcb6-7b3a-4703-ade5-2f91d698c2b6","system_id":"levelo_inurba_marseille","lat":43.28421,"lon":5.34981,"is_reserved":false,"is_disabled":false,"rental_uris":{"android":"levelo://app?vid=c892dcb6-7b3a-4703-ade5-2f91d698c2b6","ios":"levelo://app?vid=c892dcb6-7b3a-4703-ade5-2f91d698c2b6"},"vehicle_type_id":"4","last_reported":1725293459,"current_range_meters":6000,"station_id":"ce4bhbh2rcd13ifvqepg","pricing_plan_id":"cebpf4jnsgd1na2vs0mg"},