{"last_updated":1745352698,"ttl":60,"version":"2.2","data":{"bikes":[{"bike_id":"f5d35cf8-9b5b-42c9-83c1-4710f0d682af","system_id":"levelo_inurba_marseille","lat":43.2681,"lon":5.39438,"is_reserved":false,"is_disabled":false,"rental_uris":{"android":"levelo://app?vid=f5d35cf8-9b5b-42c9-83c1-4710f0d682af","ios":"levelo://app?vid=f5d35cf8-9b5b-42c9-83c1-4710f0d682af"},"vehicle_type_id":"4","last_reported":1745352699,"current_range_meters":2800,"station_id":"ce4bhh12rcd13ifvqfg0","pricing_plan_id":"cebpf4jnsgd1na2vs0mg"},{"bike_id":"08adba7b-eac3-4cfc-9923-2ccf0cc4ffef","system_id":"levelo_inurba_marseille","lat":43.2456,"lon":5.41305,"is_reserved":false,"is_disabled":false,"rental_uris":{"android":"levelo://app?vid=08adba7b-eac3-4cfc-9923-2ccf0cc4ffef","ios":"levelo://app?vid=08adba7b-eac3-4cfc-9923-2ccf0cc4ffef"},"vehicle_type_id":"4","last_reported":1745352699,"current_range_meters":2800,"station_id":"","pricing_plan_id":"cebpf4jnsgd1na2vs0mg"},{"bike_id":"5977fb24-213f-4b3a-8467-0ab4942650ce","system_id":"levelo_inurba_marseille","lat":43.28405,"lon":5.37535,"is_reserved":false,"is_disabled":true,"rental_uris":{"android":"levelo://app?vid=5977fb24-213f-4b3a-8467-0ab4942650ce","ios":"levelo://app?vid=5977fb24-213f-4b3a-8467-0ab4942650ce"},"vehicle_type_id":"4","last_reported":1745352699,"current_range_meters":2800,"station_id":"ce4bh412rcd13ifvqds0","pricing_plan_id":"cebpf4jnsgd1na2vs0mg"},{"bike_id":"c712a562-aa83-4b6a-a7b0-67fb4d6a7319","system_id":"levelo_inurba_marseille","lat":43.21209,"lon":5.3506,"is_reserved":false,"is_disabled":false,"rental_uris":{"android":"levelo://app?vid=c712a562-aa83-4b6a-a7b0-67fb4d6a7319","ios":"levelo://app?vid=c712a562-aa83-4b6a-a7b0-67fb4d6a7319"},"vehicle_type_id":"4","last_reported":1745352699,"current_range_meters":2800,"station_id":"st_cvj6sg6p6f1abm77japg","pricing_plan_id":"cebpf4jnsgd1na2vs0mg"},{"bike_id":"9bdd0dec-b741-4fce-9940-06cc2ae8cb71","system_id":"levelo_inurba_marseille","lat":43.28453,"lon":5.3589,"is_reserved":false,"is_disabled":false,"rental_uris":{"android":"levelo://app?vid=9bdd0dec-b741-4fce-9940-06cc2ae8cb71","ios":"levelo://app?vid=9bdd0dec-b741-4fce-9940-06cc2ae8cb71"},"vehicle_type_id":"4","last_reported":1745352699,"current_range_meters":2800,"station_id":"ce4bhah2rcd13ifvqei0","pricing_plan_id":"cebpf4jnsgd1na2vs0mg"},{"bike_id":"0ef23631-dbd2-4c68-adc1-77243fd0c5dd","system_id":"levelo_inurba_marseille","lat":43.292723,"lon":5.385346,"is_reserved":false,"is_disabled":false,"rental_uris":{"android":"levelo://app?vid=0ef23631-dbd2-4c68-adc1-77243fd0c5dd","ios":"levelo://app?vid=0ef23631-dbd2-4c68-adc1-77243fd0c5dd"},"vehicle_type_id":"4","last_reported":1745352699,"current_range_meters":3200,"station_id":"","pricing_plan_id":"cebpf4jnsgd1na2vs0mg"},{"bike_id":"c8a2cbcb-f27f-4ce5-a484-589fc97505e1","system_id":"levelo_inurba_marseille","lat":43.299365,"lon":5.36781,"is_reserved":false,"is_disabled":false,"rental_uris":{"android":"levelo://app?vid=c8a2cbcb-f27f-4ce5-a484-589fc97505e1","ios":"levelo://app?vid=c8a2cbcb-f27f-4ce5-a484-589fc97505e1"},"vehicle_type_id":"4","last_reported":1745352699,"current_range_meters":3600,"station_id":"ce4bhh92rcd13ifvqfh0","pricing_plan_id":"cebpf4jnsgd1na2vs0mg"},{"bike_id":"83268ad3-bcc8-4050-b757-593f2defded7","system_id":"levelo_inurba_marseille","lat":43.302614,"lon":5.400776,"is_reserved":false,"is_disabled":false,"rental_uris":{"android":"levelo://app?vid=83268ad3-bcc8-4050-b757-593f2defded7","ios":"levelo://app?vid=83268ad3-bcc8-4050-b757-593f2defded7"},"vehicle_type_id":"4","last_reported":1745352699,"current_range_meters":3600,"station_id":"ce4bgvh2rcd13ifvqcs0","pricing_plan_id":"cebpf4jnsgd1na2vs0mg"},{"bike_id":"167543d6-d27f-4218-a54a-9465ff1aa670","system_id":"levelo_inurba_marseille","lat":43.27814,"lon":5.40714,"is_reserved":false,"is_disabled":false,"rental_uris":{"android":"levelo://app?vid=167543d6-d27f-4218-a54a-9465ff1aa670","ios":"levelo://app?vid=167543d6-d27f-4218-a54a-9465ff1aa670"},"vehicle_type_id":"4","last_reported":1745352699,"current_range_meters":3600,"station_id":"ce4bhnh2rcd13ifvqgtg","pricing_plan_id":"cebpf4jnsgd1na2vs0mg"},{"bike_id":"cb33acc2-5eea-45c0-9b15-8f533d6ae3df","system_id":"levelo_inurba_marseille","lat":43.28544,"lon":5.38729,"is_reserved":false,"is_disabled":false,"rental_uris":{"android":"levelo://app?vid=cb33acc2-5eea-45c0-9b15-8f533d6ae3df","ios":"levelo://app?vid=cb33acc2-5eea-45c0-9b15-8f533d6ae3df"},"vehicle_type_id":"4","last_reported":1745352699,"current_range_meters":3600,"station_id":"","pricing_plan_id":"cebpf4jnsgd1na2vs0mg"},{"bike_id":"f046c1b6-498f-45ac-9e7e-ee7fbfd7c5d3","system_id":"levelo_inurba_marseille","lat":43.27911,"lon":5.39582,"is_reserved":false,"is_disabled":false,"rental_uris":{"android":"levelo://app?vid=f046c1b6-498f-45ac-9e7e-ee7fbfd7c5d3","ios":"levelo://app?vid=f046c1b6-498f-45ac-9e7e-ee7fbfd7c5d3"},"vehicle_type_id":"4","last_reported":1745352699,"current_range_meters":4000,"station_id":"ce4bhf92rcd13ifvqf40","pricing_plan_id":"cebpf4jnsgd1na2vs0mg"},{"bike_id":"39b7ee85-9cbf-4904-a10a-75042515f95d","system_id":"levelo_inurba_marseille","lat":43.36225,"lon":5.34775,"is_reserved":false,"is_disabled":false,"rental_uris":{"android":"levelo://app?vid=39b7ee85-9cbf-4904-a10a-75042515f95d","ios":"levelo://app?vid=39b7ee85-9cbf-4904-a10a-75042515f95d"},"vehicle_type_id":"4","last_reported":1745352699,"current_range_meters":4000,"station_id":"","pricing_plan_id":"cebpf4jnsgd1na2vs0mg"},{"bike_id":"6f0ff3df-91b5-4299-98e0-3c49587cb61d","system_id":"levelo_inurba_marseille","lat":43.22966,"lon":5.35364,"is_reserved":false,"is_disabled":false,"rental_uris":{"android":"levelo://app?vid=6f0ff3df-91b5-4299-98e0-3c49587cb61d","ios":"levelo://app?vid=6f0ff3df-91b5-4299-98e0-3c49587cb61d"},"vehicle_type_id":"4","last_reported":1745352699,"current_range_meters":4400,"station_id":"cpo3532slgdg3j2ikp40","pricing_plan_id":"cebpf4jnsgd1na2vs0mg"},{"bike_id":"412c8200-3791-4688-8a64-2b8c184c5f37","system_id":"levelo_inurba_marseille","lat":43.24634,"lon":5.38883,"is_reserved":false,"is_disabled":false,"rental_uris":{"android":"levelo://app?vid=412c8200-3791-4688-8a64-2b8c184c5f37","ios":"levelo://app?vid=412c8200-3791-4688-8a64-2b8c184c5f37"},"vehicle_type_id":"4","last_reported":1745352699,"current_range_meters":4400,"station_id":"ce4bhg12rcd13ifvqf60","pricing_plan_id":"cebpf4jnsgd1na2vs0mg"},{"bike_id":"ce0bac2e-ba34-4877-beab-bb7afd16882f","system_id":"levelo_inurba_marseille","lat":43.295288,"lon":5.394117,"is_reserved":false,"is_disabled":false,"rental_uris":{"android":"levelo://app?vid=ce0bac2e-ba34-4877-beab-bb7afd16882f","ios":"levelo://app?vid=ce0bac2e-ba34-4877-beab-bb7afd16882f"},"vehicle_type_id":"4","last_reported":1745352699,"current_range_meters":4400,"station_id":"ce4bh9p2rcd13ifvqec0","pricing_plan_id":"cebpf4jnsgd1na2vs0mg"},{"bike_id":"c6b9caaf-85ad-42fe-a85b-41a4e6f02d6e","system_id":"levelo_inurba_marseille","lat":43.28422,"lon":5.34986,"is_reserved":false,"is_disabled":false,"rental_uris":{"android":"levelo://app?vid=c6b9caaf-85ad-42fe-a85b-41a4e6f02d6e","ios":"levelo://app?vid=c6b9caaf-85ad-42fe-a85b-41a4e6f02d6e"},"vehicle_type_id":"4","last_reported":1745352699,"current_range_meters":4800,"station_id":"ce4bhbh2rcd13ifvqepg","pricing_plan_id":"cebpf4jnsgd1na2vs0mg"},{"bike_id":"915677f8-86f8-4ea4-8e4c-f57a336edee3","system_id":"levelo_inurba_marseille","lat":43.30134,"lon":5.38769,"is_reserved":false,"is_disabled":false,"rental_uris":{"android":"levelo://app?vid=915677f8-86f8-4ea4-8e4c-f57a336edee3","ios":"levelo://app?vid=915677f8-86f8-4ea4-8e4c-f57a336edee3"},"vehicle_type_id":"4","last_reported":1745352699,"current_range_meters":4800,"station_id":"ce4bghh2rcd13ifvqb60","pricing_plan_id":"cebpf4jnsgd1na2vs0mg"},{"bike_id":"0d70057a-b0bc-4bd9-af46-f5cd52d14822","system_id":"levelo_inurba_marseille","lat":43.295135,"lon":5.393973,"is_reserved":false,"is_disabled":false,"rental_uris":{"android":"levelo://app?vid=0d70057a-b0bc-4bd9-af46-f5cd52d14822","ios":"levelo://app?vid=0d70057a-b0bc-4bd9-af46-f5cd52d14822"},"vehicle_type_id":"4","last_reported":1745352699,"current_range_meters":4800,"station_id":"","pricing_plan_id":"cebpf4jnsgd1na2vs0mg"},{"bike_id":"b6e66b51-4cf3-41df-ba02-044bb1d13403","system_id":"levelo_inurba_marseille","lat":43.283386,"lon":5.381122,"is_reserved":false,"is_disabled":true,"rental_uris":{"android":"levelo://app?vid=b6e66b51-4cf3-41df-ba02-044bb1d13403","ios":"levelo://app?vid=b6e66b51-4cf3-41df-ba02-044bb1d13403"},"vehicle_type_id":"4","last_reported":1745352699,"current_range_meters":5600,"station_id":"ce4bh412rcd13ifvqdr0","pricing_plan_id":"cebpf4jnsgd1na2vs0mg"},{"bike_id":"2e72a4c1-89d6-48d4-97fd-de9aa5e54a8a","system_id":"levelo_inurba_marseille","lat":43.30788,"lon":5.37644,"is_reserved":false,"is_disabled":false,"rental_uris":{"android":"levelo://app?vid=2e72a4c1-89d6-48d4-97fd-de9aa5e54a8a","ios":"levelo://app?vid=2e72a4c1-89d6-48d4-97fd-de9aa5e54a8a"},"vehicle_type_id":"4","last_reported":1745352699,"current_range_meters":6000,"station_id":"ce4bgv92rcd13ifvqcq0","pricing_plan_id":"cebpf4jnsgd1na2vs0mg"},{"bike_id":"a8836573-6708-43a7-b506-2c81c7063ba2","system_id":"levelo_inurba_marseille","lat":43.25122,"lon":5.40339,"is_reserved":false,"is_disabled":false,"rental_uris":{"android":"levelo://app?vid=a8836573-6708-43a7-b506-2c81c7063ba2","ios":"levelo://app?vid=a8836573-6708-43a7-b506-2c81c7063ba2"},"vehicle_type_id":"4","last_reported":1745352699,"current_range_meters":6000,"station_id":"ce4bhlh2rcd13ifvqgig","pricing_plan_id":"cebpf4jnsgd1na2vs0mg"},{"bike_id":"f232544d-a366-4720-8200-0fbeee56940d","system_id":"levelo_inurba_marseille","lat":43.26218,"lon":5.40439,"is_reserved":false,"is_disabled":false,"rental_uris":{"android":"levelo://app?vid=f232544d-a366-4720-8200-0fbeee56940d","ios":"levelo://app?vid=f232544d-a366-4720-8200-0fbeee56940d"},"vehicle_type_id":"4","last_reported":1745352699,"current_range_meters":6000,"station_id":"ce4bhmh2rcd13ifvqgmg","pricing_plan_id":"cebpf4jnsgd1na2vs0mg"},{"bike_id":"f416d0ef-f853-49ab-9358-9525a7ed6c57","system_id":"levelo_inurba_marseille","lat":43.32001,"lon":5.38166,"is_reserved":false,"is_disabled":false,"rental_uris":{"android":"levelo://app?vid=f416d0ef-f853-49ab-9358-9525a7ed6c57","ios":"levelo://app?vid=f416d0ef-f853-49ab-9358-9525a7ed6c57"},"vehicle_type_id":"4","last_reported":1745352699,"current_range_meters":6000,"station_id":"ce4bhr12rcd13ifvqhpg","pricing_plan_id":"cebpf4jnsgd1na2vs0mg"},{"bike_id":"ff87b3c6-774a-4043-bc8a-2523570864ac","system_id":"levelo_inurba_marseille","lat":43.32369,"lon":5.38884,"is_reserved":false,"is_disabled":false,"rental_uris":{"android":"levelo://app?vid=ff87b3c6-774a-4043-bc8a-2523570864ac","ios":"levelo://app?vid=ff87b3c6-774a-4043-bc8a-2523570864ac"},"vehicle_type_id":"4","last_reported":1745352699,"current_range_meters":6400,"station_id":"ce4bhqp2rcd13ifvqhog","pricing_plan_id":"cebpf4jnsgd1na2vs0mg"},{"bike_id":"da24ae5e-6744-4ba9-8a6c-c375426f57b5","system_id":"levelo_inurba_marseille","lat":43.25114,"lon":5.40317,"is_reserved":false,"is_disabled":false,"rental_uris":{"android":"levelo://app?vid=da24ae5e-6744-4ba9-8a6c-c375426f57b5","ios":"levelo://app?vid=da24ae5e-6744-4ba9-8a6c-c375426f57b5"},"vehicle_type_id":"4","last_reported":1745352699,"current_range_meters":6400,"station_id":"ce4bhlh2rcd13ifvqgig","pricing_plan_id":"cebpf4jnsgd1na2vs0mg"},{"bike_id":"199ca947-1f84-416c-b8c8-da032bcbcefb","system_id":"levelo_inurba_marseille","lat":43.27994,"lon":5.40014,"is_reserved":false,"is_disabled":false,"rental_uris":{"android":"levelo://app?vid=199ca947-1f84-416c-b8c8-da032bcbcefb","ios":"levelo://app?vid=199ca947-1f84-416c-b8c8-da032bcbcefb"},"vehicle_type_id":"4","last_reported":1745352699,"current_range_meters":6800,"station_id":"ce4bho92rcd13ifvqh4g","pricing_plan_id":"cebpf4jnsgd1na2vs0mg"},{"bike_id":"6b87ccdc-66bd-42a1-bad7-6615d0405689","system_id":"levelo_inurba_marseille","lat":43.23963,"lon":5.36637,"is_reserved":false,"is_disabled":false,"rental_uris":{"android":"levelo://app?vid=6b87ccdc-66bd-42a1-bad7-6615d0405689","ios":"levelo://app?vid=6b87ccdc-66bd-42a1-bad7-6615d0405689"},"vehicle_type_id":"4","last_reported":1745352699,"current_range_meters":6800,"station_id":"ce4bhi12rcd13ifvqfp0","pricing_plan_id":"cebpf4jnsgd1na2vs0mg"},{"bike_id":"eb613738-fcdb-4c92-a9d3-e5b2de692e33","system_id":"levelo_inurba_marseille","lat":43.229301,"lon":5.353763,"is_reserved":false,"is_disabled":false,"rental_uris":{"android":"levelo://app?vid=eb613738-fcdb-4c92-a9d3-e5b2de692e33","ios":"levelo://app?vid=eb613738-fcdb-4c92-a9d3-e5b2de692e33"},"vehicle_type_id":"4","last_reported":1745352699,"current_range_meters":6800,"station_id":"cpo3532slgdg3j2ikp40","pricing_plan_id":"cebpf4jnsgd1na2vs0mg"},{"bike_id":"c7a6aebe-1226-4b98-bfe6-877a88d0542a","system_id":"levelo_inurba_marseille","lat":43.30147,"lon":5.39873,"is_reserved":false,"is_disabled":false,"rental_uris":{"android":"levelo://app?vid=c7a6aebe-1226-4b98-bfe6-877a88d0542a","ios":"levelo://app?vid=c7a6aebe-1226-4b98-bfe6-877a88d0542a"},"vehicle_type_id":"4","last_reported":1745352699,"current_range_meters":6800,"station_id":"ce4bh0h2rcd13ifvqd40","pricing_plan_id":"cebpf4jnsgd1na2vs0mg"},{"bike_id":"d5760980-2fda-45ee-a715-c15175e75e39","system_id":"levelo_inurba_marseille","lat":43.30886,"lon":5.39649,"is_reserved":false,"is_disabled":false,"rental_uris":{"android":"levelo://app?vid=d5760980-2fda-45ee-a715-c15175e75e39","ios":"levelo://app?vid=d5760980-2fda-45ee-a715-c15175e75e39"},"vehicle_type_id":"4","last_reported":1745352699,"current_range_meters":6800,"station_id":"ce4bh012rcd13ifvqcv0","pricing_plan_id":"cebpf4jnsgd1na2vs0mg"},{"bike_id":"4de92fcb-5cae-4f4e-a6fa-7c761de0b676","system_id":"levelo_inurba_marseille","lat":43.3005,"lon":5.36766,"is_reserved":false,"is_disabled":false,"rental_uris":{"android":"levelo://app?vid=4de92fcb-5cae-4f4e-a6fa-7c761de0b676","ios":"levelo://app?vid=4de92fcb-5cae-4f4e-a6fa-7c761de0b676"},"vehicle_type_id":"4","last_reported":1745352699,"current_range_meters":7200,"station_id":"","pricing_plan_id":"cebpf4jnsgd1na2vs0mg"},{"bike_id":"d42da8b3-5312-4608-a60b-fef54c0c16d1","system_id":"levelo_inurba_marseille","lat":43.28075,"lon":5.3966,"is_reserved":false,"is_disabled":false,"rental_uris":{"android":"levelo://app?vid=d42da8b3-5312-4608-a60b-fef54c0c16d1","ios":"levelo://app?vid=d42da8b3-5312-4608-a60b-fef54c0c16d1"},"vehicle_type_id":"4","last_reported":1745352699,"current_range_meters":7200,"station_id":"ce4bho12rcd13ifvqh2g","pricing_plan_id":"cebpf4jnsgd1na2vs0mg"},{"bike_id":"1c755526-7610-4241-9257-348acde561d3","system_id":"levelo_inurba_marseille","lat":43.24878,"lon":5.382,"is_reserved":false,"is_disabled":false,"rental_uris":{"android":"levelo://app?vid=1c755526-7610-4241-9257-348acde561d3","ios":"levelo://app?vid=1c755526-7610-4241-9257-348acde561d3"},"vehicle_type_id":"4","last_reported":1745352699,"current_range_meters":7200,"station_id":"","pricing_plan_id":"cebpf4jnsgd1na2vs0mg"},{"bike_id":"569ae23c-e2d7-4466-bfb0-c675586f3d62","system_id":"levelo_inurba_marseille","lat":43.28372,"lon":5.41843,"is_reserved":false,"is_disabled":false,"rental_uris":{"android":"levelo://app?vid=569ae23c-e2d7-4466-bfb0-c675586f3d62","ios":"levelo://app?vid=569ae23c-e2d7-4466-bfb0-c675586f3d62"},"vehicle_type_id":"4","last_reported":1745352699,"current_range_meters":7200,"station_id":"","pricing_plan_id":"cebpf4jnsgd1na2vs0mg"},{"bike_id":"ebbb54aa-1934-44d2-be62-e3d9badc20c3","system_id":"levelo_inurba_marseille","lat":43.2815,"lon":5.42646,"is_reserved":false,"is_disabled":false,"rental_uris":{"android":"levelo://app?vid=ebbb54aa-1934-44d2-be62-e3d9badc20c3","ios":"levelo://app?vid=ebbb54aa-1934-44d2-be62-e3d9badc20c3"},"vehicle_type_id":"4","last_reported":1745352699,"current_range_meters":7200,"station_id":"ce4bhnh2rcd13ifvqgug","pricing_plan_id":"cebpf4jnsgd1na2vs0mg"},{"bike_id":"6604993b-aba8-465b-953d-c4bbe6c429f6","system_id":"levelo_inurba_marseille","lat":43.26381,"lon":5.39576,"is_reserved":false,"is_disabled":false,"rental_uris":{"android":"levelo://app?vid=6604993b-aba8-465b-953d-c4bbe6c429f6","ios":"levelo://app?vid=6604993b-aba8-465b-953d-c4bbe6c429f6"},"vehicle_type_id":"4","last_reported":1745352699,"current_range_meters":7200,"station_id":"","pricing_plan_id":"cebpf4jnsgd1na2vs0mg"},{"bike_id":"cecbf6dc-203a-4587-8a83-3eb8a35176fb","system_id":"levelo_inurba_marseille","lat":43.30103,"lon":5.39079,"is_reserved":false,"is_disabled":false,"rental_uris":{"android":"levelo://app?vid=cecbf6dc-203a-4587-8a83-3eb8a35176fb","ios":"levelo://app?vid=cecbf6dc-203a-4587-8a83-3eb8a35176fb"},"vehicle_type_id":"4","last_reported":1745352699,"current_range_meters":7200,"station_id":"ce4bh192rcd13ifvqdb0","pricing_plan_id":"cebpf4jnsgd1na2vs0mg"},{"bike_id":"927ebabc-1cd7-4390-b5bd-5646fe25ec01","system_id":"levelo_inurba_marseille","lat":43.29994,"lon":5.37239,"is_reserved":false,"is_disabled":false,"rental_uris":{"android":"levelo://app?vid=927ebabc-1cd7-4390-b5bd-5646fe25ec01","ios":"levelo://app?vid=927ebabc-1cd7-4390-b5bd-5646fe25ec01"},"vehicle_type_id":"4","last_reported":1745352699,"current_range_meters":7200,"station_id":"","pricing_plan_id":"cebpf4jnsgd1na2vs0mg"},{"bike_id":"28dbeddd-838b-456e-82ff-c5881d62245f","system_id":"levelo_inurba_marseille","lat":43.22943,"lon":5.35396,"is_reserved":false,"is_disabled":false,"rental_uris":{"android":"levelo://app?vid=28dbeddd-838b-456e-82ff-c5881d62245f","ios":"levelo://app?vid=28dbeddd-838b-456e-82ff-c5881d62245f"},"vehicle_type_id":"4","last_reported":1745352699,"current_range_meters":8000,"station_id":"cpo3532slgdg3j2ikp40","pricing_plan_id":"cebpf4jnsgd1na2vs0mg"},{"bike_id":"8ce0f4d4-d1e9-4b66-8858-329508f298a0","system_id":"levelo_inurba_marseille","lat":43.3055,"lon":5.38429,"is_reserved":false,"is_disabled":false,"rental_uris":{"android":"levelo://app?vid=8ce0f4d4-d1e9-4b66-8858-329508f298a0","ios":"levelo://app?vid=8ce0f4d4-d1e9-4b66-8858-329508f298a0"},"vehicle_type_id":"4","last_reported":1745352699,"current_range_meters":7200,"station_id":"ce4bgg92rcd13ifvqb30","pricing_plan_id":"cebpf4jnsgd1na2vs0mg"},{"bike_id":"49454987-63e1-48fb-8366-812d15a5c496","system_id":"levelo_inurba_marseille","lat":43.24079,"lon":5.37781,"is_reserved":false,"is_disabled":false,"rental_uris":{"android":"levelo://app?vid=49454987-63e1-48fb-8366-812d15a5c496","ios":"levelo://app?vid=49454987-63e1-48fb-8366-812d15a5c496"},"vehicle_type_id":"4","last_reported":1745352699,"current_range_meters":8000,"station_id":"ce4bhnp2rcd13ifvqgvg","pricing_plan_id":"cebpf4jnsgd1na2vs0mg"},{"bike_id":"c542ea12-8121-49cc-97f6-20faa529896c","system_id":"levelo_inurba_marseille","lat":43.28035,"lon":5.3694,"is_reserved":false,"is_disabled":false,"rental_uris":{"android":"levelo://app?vid=c542ea12-8121-49cc-97f6-20faa529896c","ios":"levelo://app?vid=c542ea12-8121-49cc-97f6-20faa529896c"},"vehicle_type_id":"4","last_reported":1745352699,"current_range_meters":8000,"station_id":"ce4bha12rcd13ifvqef0","pricing_plan_id":"cebpf4jnsgd1na2vs0mg"},{"bike_id":"501baeae-95e3-4572-a587-54c84aeb2005","system_id":"levelo_inurba_marseille","lat":43.30535,"lon":5.36695,"is_reserved":false,"is_disabled":false,"rental_uris":{"android":"levelo://app?vid=501baeae-95e3-4572-a587-54c84aeb2005","ios":"levelo://app?vid=501baeae-95e3-4572-a587-54c84aeb2005"},"vehicle_type_id":"4","last_reported":1745352699,"current_range_meters":8000,"station_id":"ce4bgrp2rcd13ifvqc9g","pricing_plan_id":"cebpf4jnsgd1na2vs0mg"},{"bike_id":"3a978624-d3a6-4f0e-b9f7-3879a24f998c","system_id":"levelo_inurba_marseille","lat":43.28083,"lon":5.39649,"is_reserved":false,"is_disabled":false,"rental_uris":{"android":"levelo://app?vid=3a978624-d3a6-4f0e-b9f7-3879a24f998c","ios":"levelo://app?vid=3a978624-d3a6-4f0e-b9f7-3879a24f998c"},"vehicle_type_id":"4","last_reported":1745352699,"current_range_meters":8000,"station_id":"ce4bho12rcd13ifvqh2g","pricing_plan_id":"cebpf4jnsgd1na2vs0mg"},{"bike_id":"f882010f-ebbf-4f14-a8a8-858fc3192343","system_id":"levelo_inurba_marseille","lat":43.26203,"lon":5.40462,"is_reserved":false,"is_disabled":false,"rental_uris":{"android":"levelo://app?vid=f882010f-ebbf-4f14-a8a8-858fc3192343","ios":"levelo://app?vid=f882010f-ebbf-4f14-a8a8-858fc3192343"},"vehicle_type_id":"4","last_reported":1745352699,"current_range_meters":8400,"station_id":"ce4bhmh2rcd13ifvqgmg","pricing_plan_id":"cebpf4jnsgd1na2vs0mg"},{"bike_id":"5a849cc8-4556-4fa1-89eb-be93114c8b13","system_id":"levelo_inurba_marseille","lat":43.29206,"lon":5.358,"is_reserved":false,"is_disabled":false,"rental_uris":{"android":"levelo://app?vid=5a849cc8-4556-4fa1-89eb-be93114c8b13","ios":"levelo://app?vid=5a849cc8-4556-4fa1-89eb-be93114c8b13"},"vehicle_type_id":"4","last_reported":1745352699,"current_range_meters":8400,"station_id":"ce4bhb12rcd13ifvqel0","pricing_plan_id":"cebpf4jnsgd1na2vs0mg"},{"bike_id":"a4ca347f-8a2d-4e80-828a-d0a6d49b1e68","system_id":"levelo_inurba_marseille","lat":43.30597,"lon":5.3935,"is_reserved":false,"is_disabled":false,"rental_uris":{"android":"levelo://app?vid=a4ca347f-8a2d-4e80-828a-d0a6d49b1e68","ios":"levelo://app?vid=a4ca347f-8a2d-4e80-828a-d0a6d49b1e68"},"vehicle_type_id":"4","last_reported":1745352699,"current_range_meters":8800,"station_id":"ce4bh0p2rcd13ifvqd80","pricing_plan_id":"cebpf4jnsgd1na2vs0mg"},{"bike_id":"22e3ed21-936d-4292-a78f-e871a8bbc15e","system_id":"levelo_inurba_marseille","lat":43.32092,"lon":5.41581,"is_reserved":false,"is_disabled":false,"rental_uris":{"android":"levelo://app?vid=22e3ed21-936d-4292-a78f-e871a8bbc15e","ios":"levelo://app?vid=22e3ed21-936d-4292-a78f-e871a8bbc15e"},"vehicle_type_id":"4","last_reported":1745352699,"current_range_meters":8800,"station_id":"ce4bhq92rcd13ifvqhkg","pricing_plan_id":"cebpf4jnsgd1na2vs0mg"},{"bike_id":"2dc4e79a-33a8-48b0-bf03-f6328f1dc1f6","system_id":"levelo_inurba_marseille","lat":43.3238,"lon":5.38879,"is_reserved":false,"is_disabled":true,"rental_uris":{"android":"levelo://app?vid=2dc4e79a-33a8-48b0-bf03-f6328f1dc1f6","ios":"levelo://app?vid=2dc4e79a-33a8-48b0-bf03-f6328f1dc1f6"},"vehicle_type_id":"4","last_reported":1745352699,"current_range_meters":8800,"station_id":"ce4bhqp2rcd13ifvqhog","pricing_plan_id":"cebpf4jnsgd1na2vs0mg"},{"bike_id":"729a2a6f-b27e-4b84-bd4d-5c7d76d41db6","system_id":"levelo_inurba_marseille","lat":43.31069,"lon":5.38343,"is_reserved":false,"is_disabled":false,"rental_uris":{"android":"levelo://app?vid=729a2a6f-b27e-4b84-bd4d-5c7d76d41db6","ios":"levelo://app?vid=729a2a6f-b27e-4b84-bd4d-5c7d76d41db6"},"vehicle_type_id":"4","last_reported":1745352699,"current_range_meters":8800,"station_id":"ce4bgv92rcd13ifvqcr0","pricing_plan_id":"cebpf4jnsgd1na2vs0mg"},{"bike_id":"e398c7f5-3587-459f-99fe-8a326e7304d0","system_id":"levelo_inurba_marseille","lat":43.23196,"lon":5.3998,"is_reserved":false,"is_disabled":false,"rental_uris":{"android":"levelo://app?vid=e398c7f5-3587-459f-99fe-8a326e7304d0","ios":"levelo://app?vid=e398c7f5-3587-459f-99fe-8a326e7304d0"},"vehicle_type_id":"4","last_reported":1745352699,"current_range_meters":8800,"station_id":"ce4bhn12rcd13ifvqgqg","pricing_plan_id":"cebpf4jnsgd1na2vs0mg"},{"bike_id":"c084153a-d378-4bc7-b059-665ff2008ae1","system_id":"levelo_inurba_marseille","lat":43.25106,"lon":5.39499,"is_reserved":false,"is_disabled":false,"rental_uris":{"android":"levelo://app?vid=c084153a-d378-4bc7-b059-665ff2008ae1","ios":"levelo://app?vid=c084153a-d378-4bc7-b059-665ff2008ae1"},"vehicle_type_id":"4","last_reported":1745352699,"current_range_meters":9600,"station_id":"ce4bhm12rcd13ifvqgkg","pricing_plan_id":"cebpf4jnsgd1na2vs0mg"},{"bike_id":"3d130e26-859c-4f1b-92c6-e24751f8fc6e","system_id":"levelo_inurba_marseille","lat":43.29411,"lon":5.38616,"is_reserved":false,"is_disabled":false,"rental_uris":{"android":"levelo://app?vid=3d130e26-859c-4f1b-92c6-e24751f8fc6e","ios":"levelo://app?vid=3d130e26-859c-4f1b-92c6-e24751f8fc6e"},"vehicle_type_id":"4","last_reported":1745352699,"current_range_meters":9200,"station_id":"ce4bh2h2rcd13ifvqdh0","pricing_plan_id":"cebpf4jnsgd1na2vs0mg"},{"bike_id":"5661cb6b-7770-499c-9289-efad8bde2b38","system_id":"levelo_inurba_marseille","lat":43.292816,"lon":5.368425,"is_reserved":false,"is_disabled":false,"rental_uris":{"android":"levelo://app?vid=5661cb6b-7770-499c-9289-efad8bde2b38","ios":"levelo://app?vid=5661cb6b-7770-499c-9289-efad8bde2b38"},"vehicle_type_id":"4","last_reported":1745352699,"current_range_meters":8800,"station_id":"ce4bgqh2rcd13ifvqc5g","pricing_plan_id":"cebpf4jnsgd1na2vs0mg"},{"bike_id":"c1d6e6a7-33c5-4405-a4a7-39a5701a1992","system_id":"levelo_inurba_marseille","lat":43.29314,"lon":5.37185,"is_reserved":false,"is_disabled":true,"rental_uris":{"android":"levelo://app?vid=c1d6e6a7-33c5-4405-a4a7-39a5701a1992","ios":"levelo://app?vid=c1d6e6a7-33c5-4405-a4a7-39a5701a1992"},"vehicle_type_id":"4","last_reported":1745352699,"current_range_meters":9200,"station_id":"ce4bgh92rcd13ifvqb40","pricing_plan_id":"cebpf4jnsgd1na2vs0mg"},{"bike_id":"2e220e88-4ed8-4c0b-bc1b-44a13f9e87a2","system_id":"levelo_inurba_marseille","lat":43.29628,"lon":5.37718,"is_reserved":false,"is_disabled":false,"rental_uris":{"android":"levelo://app?vid=2e220e88-4ed8-4c0b-bc1b-44a13f9e87a2","ios":"levelo://app?vid=2e220e88-4ed8-4c0b-bc1b-44a13f9e87a2"},"vehicle_type_id":"4","last_reported":1745352699,"current_range_meters":9200,"station_id":"ce4bgi92rcd13ifvqb90","pricing_plan_id":"cebpf4jnsgd1na2vs0mg"},{"bike_id":"ecbdb4d8-c80c-4a11-b50b-aff98695a59d","system_id":"levelo_inurba_marseille","lat":43.27919,"lon":5.39577,"is_reserved":false,"is_disabled":false,"rental_uris":{"android":"levelo://app?vid=ecbdb4d8-c80c-4a11-b50b-aff98695a59d","ios":"levelo://app?vid=ecbdb4d8-c80c-4a11-b50b-aff98695a59d"},"vehicle_type_id":"4","last_reported":1745352699,"current_range_meters":9200,"station_id":"ce4bhf92rcd13ifvqf40","pricing_plan_id":"cebpf4jnsgd1na2vs0mg"},{"bike_id":"b3086abf-bb22-45c4-9b1f-7b184b297aee","system_id":"levelo_inurba_marseille","lat":43.26489,"lon":5.3955,"is_reserved":false,"is_disabled":false,"rental_uris":{"android":"levelo://app?vid=b3086abf-bb22-45c4-9b1f-7b184b297aee","ios":"levelo://app?vid=b3086abf-bb22-45c4-9b1f-7b184b297aee"},"vehicle_type_id":"4","last_reported":1745352699,"current_range_meters":9200,"station_id":"ce4bhi12rcd13ifvqfq0","pricing_plan_id":"cebpf4jnsgd1na2vs0mg"},{"bike_id":"d8d27387-fb66-4c0a-90dc-eef7a69dc87d","system_id":"levelo_inurba_marseille","lat":43.21206,"lon":5.3507,"is_reserved":false,"is_disabled":false,"rental_uris":{"android":"levelo://app?vid=d8d27387-fb66-4c0a-90dc-eef7a69dc87d","ios":"levelo://app?vid=d8d27387-fb66-4c0a-90dc-eef7a69dc87d"},"vehicle_type_id":"4","last_reported":1745352699,"current_range_meters":9200,"station_id":"ce4bgh92rcd13ifvqb40","pricing_plan_id":"cebpf4jnsgd1na2vs0mg"},{"bike_id":"7c37adeb-bcad-4680-af38-7a7daddfd96c","system_id":"levelo_inurba_marseille","lat":43.262623,"lon":5.378616,"is_reserved":false,"is_disabled":false,"rental_uris":{"android":"levelo://app?vid=7c37adeb-bcad-4680-af38-7a7daddfd96c","ios":"levelo://app?vid=7c37adeb-bcad-4680-af38-7a7daddfd96c"},"vehicle_type_id":"4","last_reported":1745352699,"current_range_meters":8800,"station_id":"ce4bhjp2rcd13ifvqg90","pricing_plan_id":"cebpf4jnsgd1na2vs0mg"},{"bike_id":"a45ae1a9-c8cc-4065-9f5d-cdcd6714c67f","system_id":"levelo_inurba_marseille","lat":43.33741,"lon":5.39179,"is_reserved":false,"is_disabled":false,"rental_uris":{"android":"levelo://app?vid=a45ae1a9-c8cc-4065-9f5d-cdcd6714c67f","ios":"levelo://app?vid=a45ae1a9-c8cc-4065-9f5d-cdcd6714c67f"},"vehicle_type_id":"4","last_reported":1745352699,"current_range_meters":9600,"station_id":"ce4bhr92rcd13ifvqhsg","pricing_plan_id":"cebpf4jnsgd1na2vs0mg"},{"bike_id":"81d77fcb-8f24-4079-9c51-181359394190","system_id":"levelo_inurba_marseille","lat":43.28611,"lon":5.351,"is_reserved":false,"is_disabled":false,"rental_uris":{"android":"levelo://app?vid=81d77fcb-8f24-4079-9c51-181359394190","ios":"levelo://app?vid=81d77fcb-8f24-4079-9c51-181359394190"},"vehicle_type_id":"4","last_reported":1745352699,"current_range_meters":9600,"station_id":"ce4bhch2rcd13ifvqeug","pricing_plan_id":"cebpf4jnsgd1na2vs0mg"},{"bike_id":"9c46adb1-239c-42fd-8b74-d7e168838caa","system_id":"levelo_inurba_marseille","lat":43.300824,"lon":5.390787,"is_reserved":false,"is_disabled":false,"rental_uris":{"android":"levelo://app?vid=9c46adb1-239c-42fd-8b74-d7e168838caa","ios":"levelo://app?vid=9c46adb1-239c-42fd-8b74-d7e168838caa"},"vehicle_type_id":"4","last_reported":1745352699,"current_range_meters":9600,"station_id":"ce4bh192rcd13ifvqdb0","pricing_plan_id":"cebpf4jnsgd1na2vs0mg"},{"bike_id":"cee1878f-b1bd-451c-9225-a51e25740ce4","system_id":"levelo_inurba_marseille","lat":43.29044,"lon":5.35927,"is_reserved":false,"is_disabled":false,"rental_uris":{"android":"levelo://app?vid=cee1878f-b1bd-451c-9225-a51e25740ce4","ios":"levelo://app?vid=cee1878f-b1bd-451c-9225-a51e25740ce4"},"vehicle_type_id":"4","last_reported":1745352699,"current_range_meters":9600,"station_id":"ce4bha92rcd13ifvqeg0","pricing_plan_id":"cebpf4jnsgd1na2vs0mg"},{"bike_id":"030fec9f-1f22-4552-a81b-a3830b2d71b8","system_id":"levelo_inurba_marseille","lat":43.29037,"lon":5.3997,"is_reserved":false,"is_disabled":false,"rental_uris":{"android":"levelo://app?vid=030fec9f-1f22-4552-a81b-a3830b2d71b8","ios":"levelo://app?vid=030fec9f-1f22-4552-a81b-a3830b2d71b8"},"vehicle_type_id":"4","last_reported":1745352699,"current_range_meters":14400,"station_id":"ce4bh392rcd13ifvqdm0","pricing_plan_id":"cebpf4jnsgd1na2vs0mg"},{"bike_id":"31d2cca3-350f-4c8c-81c6-164749e6f45c","system_id":"levelo_inurba_marseille","lat":43.30818,"lon":5.38144,"is_reserved":false,"is_disabled":false,"rental_uris":{"android":"levelo://app?vid=31d2cca3-350f-4c8c-81c6-164749e6f45c","ios":"levelo://app?vid=31d2cca3-350f-4c8c-81c6-164749e6f45c"},"vehicle_type_id":"4","last_reported":1745352699,"current_range_meters":9600,"station_id":"ce4bgt12rcd13ifvqce0","pricing_plan_id":"cebpf4jnsgd1na2vs0mg"},{"bike_id":"0edd0516-c62c-4685-98ce-3c60046dc81d","system_id":"levelo_inurba_marseille","lat":43.30321,"lon":5.40435,"is_reserved":false,"is_disabled":false,"rental_uris":{"android":"levelo://app?vid=0edd0516-c62c-4685-98ce-3c60046dc81d","ios":"levelo://app?vid=0edd0516-c62c-4685-98ce-3c60046dc81d"},"vehicle_type_id":"4","last_reported":1745352699,"current_range_meters":9600,"station_id":"ce4bh012rcd13ifvqd10","pricing_plan_id":"cebpf4jnsgd1na2vs0mg"},{"bike_id":"f912db2b-6a7d-49cf-b3de-1f63d7acb852","system_id":"levelo_inurba_marseille","lat":43.2987,"lon":5.39734,"is_reserved":false,"is_disabled":false,"rental_uris":{"android":"levelo://app?vid=f912db2b-6a7d-49cf-b3de-1f63d7acb852","ios":"levelo://app?vid=f912db2b-6a7d-49cf-b3de-1f63d7acb852"},"vehicle_type_id":"4","last_reported":1745352699,"current_range_meters":9600,"station_id":"ce4bh0h2rcd13ifvqd50","pricing_plan_id":"cebpf4jnsgd1na2vs0mg"},{"bike_id":"953cf4f7-f476-4d54-8e3c-cb82e5fb43bc","system_id":"levelo_inurba_marseille","lat":43.3089,"lon":5.37192,"is_reserved":false,"is_disabled":false,"rental_uris":{"android":"levelo://app?vid=953cf4f7-f476-4d54-8e3c-cb82e5fb43bc","ios":"levelo://app?vid=953cf4f7-f476-4d54-8e3c-cb82e5fb43bc"},"vehicle_type_id":"4","last_reported":1745352699,"current_range_meters":9600,"station_id":"ce4bguh2rcd13ifvqckg","pricing_plan_id":"cebpf4jnsgd1na2vs0mg"},{"bike_id":"8cce0c1f-eda5-4492-b123-7b5f8882efd7","system_id":"levelo_inurba_marseille","lat":43.23146,"lon":5.43727,"is_reserved":false,"is_disabled":false,"rental_uris":{"android":"levelo://app?vid=8cce0c1f-eda5-4492-b123-7b5f8882efd7","ios":"levelo://app?vid=8cce0c1f-eda5-4492-b123-7b5f8882efd7"},"vehicle_type_id":"4","last_reported":1745352699,"current_range_meters":9200,"station_id":"ce4bhmp2rcd13ifvqgog","pricing_plan_id":"cebpf4jnsgd1na2vs0mg"},{"bike_id":"16fc8586-ee6f-4dcd-aa11-7776ae64bb27","system_id":"levelo_inurba_marseille","lat":43.26062,"lon":5.39394,"is_reserved":false,"is_disabled":false,"rental_uris":{"android":"levelo://app?vid=16fc8586-ee6f-4dcd-aa11-7776ae64bb27","ios":"levelo://app?vid=16fc8586-ee6f-4dcd-aa11-7776ae64bb27"},"vehicle_type_id":"4","last_reported":1745352699,"current_range_meters":9600,"station_id":"ce4bhh92rcd13ifvqfj0","pricing_plan_id":"cebpf4jnsgd1na2vs0mg"},{"bike_id":"0536d872-69ab-4295-a82e-b96823db24da","system_id":"levelo_inurba_marseille","lat":43.29077,"lon":5.37167,"is_reserved":false,"is_disabled":false,"rental_uris":{"android":"levelo://app?vid=0536d872-69ab-4295-a82e-b96823db24da","ios":"levelo://app?vid=0536d872-69ab-4295-a82e-b96823db24da"},"vehicle_type_id":"4","last_reported":1745352699,"current_range_meters":9600,"station_id":"ce4bh5p2rcd13ifvqe4g","pricing_plan_id":"cebpf4jnsgd1na2vs0mg"},{"bike_id":"5998d8fc-5a1e-406c-9371-48ef06c26faf","system_id":"levelo_inurba_marseille","lat":43.29537,"lon":5.38543,"is_reserved":false,"is_disabled":false,"rental_uris":{"android":"levelo://app?vid=5998d8fc-5a1e-406c-9371-48ef06c26faf","ios":"levelo://app?vid=5998d8fc-5a1e-406c-9371-48ef06c26faf"},"vehicle_type_id":"4","last_reported":1745352699,"current_range_meters":10000,"station_id":"ce4bgih2rcd13ifvqba0","pricing_plan_id":"cebpf4jnsgd1na2vs0mg"},{"bike_id":"0423c9dc-3e51-463a-b8dd-bb9257ea7b74","system_id":"levelo_inurba_marseille","lat":43.28856,"lon":5.35846,"is_reserved":false,"is_disabled":false,"rental_uris":{"android":"levelo://app?vid=0423c9dc-3e51-463a-b8dd-bb9257ea7b74","ios":"levelo://app?vid=0423c9dc-3e51-463a-b8dd-bb9257ea7b74"},"vehicle_type_id":"4","last_reported":1745352699,"current_range_meters":10000,"station_id":"ce4bhb12rcd13ifvqem0","pricing_plan_id":"cebpf4jnsgd1na2vs0mg"},{"bike_id":"a93b798e-b788-4fed-a455-cac7895dd43a","system_id":"levelo_inurba_marseille","lat":43.32345,"lon":5.40613,"is_reserved":false,"is_disabled":false,"rental_uris":{"android":"levelo://app?vid=a93b798e-b788-4fed-a455-cac7895dd43a","ios":"levelo://app?vid=a93b798e-b788-4fed-a455-cac7895dd43a"},"vehicle_type_id":"4","last_reported":1745352699,"current_range_meters":10000,"station_id":"ce4bhq92rcd13ifvqhjg","pricing_plan_id":"cebpf4jnsgd1na2vs0mg"},{"bike_id":"c0fb0b84-1d3f-49e7-9bd7-b4e6ede415b7","system_id":"levelo_inurba_marseille","lat":43.30305,"lon":5.39214,"is_reserved":false,"is_disabled":false,"rental_uris":{"android":"levelo://app?vid=c0fb0b84-1d3f-49e7-9bd7-b4e6ede415b7","ios":"levelo://app?vid=c0fb0b84-1d3f-49e7-9bd7-b4e6ede415b7"},"vehicle_type_id":"4","last_reported":1745352699,"current_range_meters":10000,"station_id":"ce4bgkh2rcd13ifvqbk0","pricing_plan_id":"cebpf4jnsgd1na2vs0mg"},{"bike_id":"9955afde-6d4b-4dfb-9249-7e1b507b3c52","system_id":"levelo_inurba_marseille","lat":43.250859,"lon":5.39513,"is_reserved":false,"is_disabled":false,"rental_uris":{"android":"levelo://app?vid=9955afde-6d4b-4dfb-9249-7e1b507b3c52","ios":"levelo://app?vid=9955afde-6d4b-4dfb-9249-7e1b507b3c52"},"vehicle_type_id":"4","last_reported":1745352699,"current_range_meters":10800,"station_id":"ce4bhm12rcd13ifvqgkg","pricing_plan_id":"cebpf4jnsgd1na2vs0mg"},{"bike_id":"0d1ebedd-3512-4ce4-87fe-745c17edfd96","system_id":"levelo_inurba_marseille","lat":43.27877,"lon":5.35459,"is_reserved":false,"is_disabled":true,"rental_uris":{"android":"levelo://app?vid=0d1ebedd-3512-4ce4-87fe-745c17edfd96","ios":"levelo://app?vid=0d1ebedd-3512-4ce4-87fe-745c17edfd96"},"vehicle_type_id":"4","last_reported":1745352699,"current_range_meters":10800,"station_id":"","pricing_plan_id":"cebpf4jnsgd1na2vs0mg"},{"bike_id":"f1300840-291d-4ece-a09c-172514b0678c","system_id":"levelo_inurba_marseille","lat":43.294536,"lon":5.397575,"is_reserved":false,"is_disabled":true,"rental_uris":{"android":"levelo://app?vid=f1300840-291d-4ece-a09c-172514b0678c","ios":"levelo://app?vid=f1300840-291d-4ece-a09c-172514b0678c"},"vehicle_type_id":"4","last_reported":1745352699,"current_range_meters":10800,"station_id":"ce4bh3h2rcd13ifvqdo0","pricing_plan_id":"cebpf4jnsgd1na2vs0mg"},{"bike_id":"47768a28-4fff-4fc1-b4c4-b5ec8d452deb","system_id":"levelo_inurba_marseille","lat":43.29596,"lon":5.3811,"is_reserved":false,"is_disabled":true,"rental_uris":{"android":"levelo://app?vid=47768a28-4fff-4fc1-b4c4-b5ec8d452deb","ios":"levelo://app?vid=47768a28-4fff-4fc1-b4c4-b5ec8d452deb"},"vehicle_type_id":"4","last_reported":1745352699,"current_range_meters":10800,"station_id":"ce4bgl12rcd13ifvqbo0","pricing_plan_id":"cebpf4jnsgd1na2vs0mg"},{"bike_id":"7feed048-446b-4184-86b1-00f6eb29920f","system_id":"levelo_inurba_marseille","lat":43.243845,"lon":5.37052,"is_reserved":false,"is_disabled":false,"rental_uris":{"android":"levelo://app?vid=7feed048-446b-4184-86b1-00f6eb29920f","ios":"levelo://app?vid=7feed048-446b-4184-86b1-00f6eb29920f"},"vehicle_type_id":"4","last_reported":1745352699,"current_range_meters":10800,"station_id":"ce4bhhh2rcd13ifvqfk0","pricing_plan_id":"cebpf4jnsgd1na2vs0mg"},{"bike_id":"febbc2fd-718a-491b-ad0a-b134be334ec1","system_id":"levelo_inurba_marseille","lat":43.28937,"lon":5.36613,"is_reserved":false,"is_disabled":false,"rental_uris":{"android":"levelo://app?vid=febbc2fd-718a-491b-ad0a-b134be334ec1","ios":"levelo://app?vid=febbc2fd-718a-491b-ad0a-b134be334ec1"},"vehicle_type_id":"4","last_reported":1745352699,"current_range_meters":10800,"station_id":"ce4bhap2rcd13ifvqek0","pricing_plan_id":"cebpf4jnsgd1na2vs0mg"},{"bike_id":"192e5b58-fdd0-4d69-8650-e31ffe281e6a","system_id":"levelo_inurba_marseille","lat":43.295339,"lon":5.385316,"is_reserved":false,"is_disabled":false,"rental_uris":{"android":"levelo://app?vid=192e5b58-fdd0-4d69-8650-e31ffe281e6a","ios":"levelo://app?vid=192e5b58-fdd0-4d69-8650-e31ffe281e6a"},"vehicle_type_id":"4","last_reported":1745352699,"current_range_meters":11600,"station_id":"ce4bgih2rcd13ifvqba0","pricing_plan_id":"cebpf4jnsgd1na2vs0mg"},{"bike_id":"09ae223a-994b-439c-971f-33f9527e88b3","system_id":"levelo_inurba_marseille","lat":43.28932,"lon":5.36619,"is_reserved":false,"is_disabled":false,"rental_uris":{"android":"levelo://app?vid=09ae223a-994b-439c-971f-33f9527e88b3","ios":"levelo://app?vid=09ae223a-994b-439c-971f-33f9527e88b3"},"vehicle_type_id":"4","last_reported":1745352699,"current_range_meters":10800,"station_id":"ce4bhap2rcd13ifvqek0","pricing_plan_id":"cebpf4jnsgd1na2vs0mg"},{"bike_id":"cde58abb-e471-49a0-b5b1-fcfce4e67920","system_id":"levelo_inurba_marseille","lat":43.31997,"lon":5.38152,"is_reserved":false,"is_disabled":false,"rental_uris":{"android":"levelo://app?vid=cde58abb-e471-49a0-b5b1-fcfce4e67920","ios":"levelo://app?vid=cde58abb-e471-49a0-b5b1-fcfce4e67920"},"vehicle_type_id":"4","last_reported":1745352699,"current_range_meters":11200,"station_id":"ce4bhr12rcd13ifvqhpg","pricing_plan_id":"cebpf4jnsgd1na2vs0mg"},{"bike_id":"66a2a2c4-0158-4f03-8055-1d70c652fc79","system_id":"levelo_inurba_marseille","lat":43.25061,"lon":5.39524,"is_reserved":false,"is_disabled":false,"rental_uris":{"android":"levelo://app?vid=66a2a2c4-0158-4f03-8055-1d70c652fc79","ios":"levelo://app?vid=66a2a2c4-0158-4f03-8055-1d70c652fc79"},"vehicle_type_id":"4","last_reported":1745352699,"current_range_meters":11200,"station_id":"ce4bhm12rcd13ifvqgkg","pricing_plan_id":"cebpf4jnsgd1na2vs0mg"},{"bike_id":"d5fa6a7e-ae6f-48cd-8dc8-6ec1473fc099","system_id":"levelo_inurba_marseille","lat":43.31387,"lon":5.36705,"is_reserved":false,"is_disabled":true,"rental_uris":{"android":"levelo://app?vid=d5fa6a7e-ae6f-48cd-8dc8-6ec1473fc099","ios":"levelo://app?vid=d5fa6a7e-ae6f-48cd-8dc8-6ec1473fc099"},"vehicle_type_id":"4","last_reported":1745352699,"current_range_meters":11200,"station_id":"ce4bgr92rcd13ifvqc6g","pricing_plan_id":"cebpf4jnsgd1na2vs0mg"},{"bike_id":"838691b5-3b6b-42d9-ba48-99727c692d23","system_id":"levelo_inurba_marseille","lat":43.29262,"lon":5.40908,"is_reserved":false,"is_disabled":false,"rental_uris":{"android":"levelo://app?vid=838691b5-3b6b-42d9-ba48-99727c692d23","ios":"levelo://app?vid=838691b5-3b6b-42d9-ba48-99727c692d23"},"vehicle_type_id":"4","last_reported":1745352699,"current_range_meters":11200,"station_id":"ce4bh192rcd13ifvqdc0","pricing_plan_id":"cebpf4jnsgd1na2vs0mg"},{"bike_id":"d5792b7b-f82b-46ee-81a3-5e128342d580","system_id":"levelo_inurba_marseille","lat":43.28102,"lon":5.37843,"is_reserved":false,"is_disabled":false,"rental_uris":{"android":"levelo://app?vid=d5792b7b-f82b-46ee-81a3-5e128342d580","ios":"levelo://app?vid=d5792b7b-f82b-46ee-81a3-5e128342d580"},"vehicle_type_id":"4","last_reported":1745352699,"current_range_meters":11600,"station_id":"ce4bha12rcd13ifvqee0","pricing_plan_id":"cebpf4jnsgd1na2vs0mg"},{"bike_id":"8da45441-0f39-4665-ba43-cdfddf67fe67","system_id":"levelo_inurba_marseille","lat":43.33006,"lon":5.4386,"is_reserved":false,"is_disabled":false,"rental_uris":{"android":"levelo://app?vid=8da45441-0f39-4665-ba43-cdfddf67fe67","ios":"levelo://app?vid=8da45441-0f39-4665-ba43-cdfddf67fe67"},"vehicle_type_id":"4","last_reported":1745352699,"current_range_meters":11600,"station_id":"","pricing_plan_id":"cebpf4jnsgd1na2vs0mg"},{"bike_id":"04e7ef20-6f3c-45c7-abbf-bbc81edf1116","system_id":"levelo_inurba_marseille","lat":43.2867,"lon":5.36339,"is_reserved":false,"is_disabled":false,"rental_uris":{"android":"levelo://app?vid=04e7ef20-6f3c-45c7-abbf-bbc81edf1116","ios":"levelo://app?vid=04e7ef20-6f3c-45c7-abbf-bbc81edf1116"},"vehicle_type_id":"4","last_reported":1745352699,"current_range_meters":11600,"station_id":"ce4bhah2rcd13ifvqej0","pricing_plan_id":"cebpf4jnsgd1na2vs0mg"},{"bike_id":"a756bae3-49c1-4d6c-89e8-fcb7b0e7d2e2","system_id":"levelo_inurba_marseille","lat":43.29038,"lon":5.35916,"is_reserved":false,"is_disabled":true,"rental_uris":{"android":"levelo://app?vid=a756bae3-49c1-4d6c-89e8-fcb7b0e7d2e2","ios":"levelo://app?vid=a756bae3-49c1-4d6c-89e8-fcb7b0e7d2e2"},"vehicle_type_id":"4","last_reported":1745352699,"current_range_meters":11600,"station_id":"ce4bha92rcd13ifvqeg0","pricing_plan_id":"cebpf4jnsgd1na2vs0mg"},{"bike_id":"c10256a6-8742-4a70-8e64-f2c56713d90b","system_id":"levelo_inurba_marseille","lat":43.28408,"lon":5.37511,"is_reserved":false,"is_disabled":false,"rental_uris":{"android":"levelo://app?vid=c10256a6-8742-4a70-8e64-f2c56713d90b","ios":"levelo://app?vid=c10256a6-8742-4a70-8e64-f2c56713d90b"},"vehicle_type_id":"4","last_reported":1745352699,"current_range_meters":11600,"station_id":"ce4bh412rcd13ifvqds0","pricing_plan_id":"cebpf4jnsgd1na2vs0mg"},{"bike_id":"8c0d14bb-4242-4f4f-8a62-e312c5b2bf57","system_id":"levelo_inurba_marseille","lat":43.29417,"lon":5.38648,"is_reserved":false,"is_disabled":false,"rental_uris":{"android":"levelo://app?vid=8c0d14bb-4242-4f4f-8a62-e312c5b2bf57","ios":"levelo://app?vid=8c0d14bb-4242-4f4f-8a62-e312c5b2bf57"},"vehicle_type_id":"4","last_reported":1745352699,"current_range_meters":11600,"station_id":"ce4bh2h2rcd13ifvqdh0","pricing_plan_id":"cebpf4jnsgd1na2vs0mg"},{"bike_id":"fd2e0540-d18a-47bf-b590-0dc2425e62b6","system_id":"levelo_inurba_marseille","lat":43.297,"lon":5.36608,"is_reserved":false,"is_disabled":false,"rental_uris":{"android":"levelo://app?vid=fd2e0540-d18a-47bf-b590-0dc2425e62b6","ios":"levelo://app?vid=fd2e0540-d18a-47bf-b590-0dc2425e62b6"},"vehicle_type_id":"4","last_reported":1745352699,"current_range_meters":11600,"station_id":"ce4bgn12rcd13ifvqbt0","pricing_plan_id":"cebpf4jnsgd1na2vs0mg"},{"bike_id":"4ffb491f-099a-46f4-b062-324b1005b615","system_id":"levelo_inurba_marseille","lat":43.31074,"lon":5.38354,"is_reserved":false,"is_disabled":false,"rental_uris":{"android":"levelo://app?vid=4ffb491f-099a-46f4-b062-324b1005b615","ios":"levelo://app?vid=4ffb491f-099a-46f4-b062-324b1005b615"},"vehicle_type_id":"4","last_reported":1745352699,"current_range_meters":11600,"station_id":"ce4bgv92rcd13ifvqcr0","pricing_plan_id":"cebpf4jnsgd1na2vs0mg"},{"bike_id":"ecd9c509-3120-4166-8927-f60518d66aaa","system_id":"levelo_inurba_marseille","lat":43.295343,"lon":5.39417,"is_reserved":false,"is_disabled":true,"rental_uris":{"android":"levelo://app?vid=ecd9c509-3120-4166-8927-f60518d66aaa","ios":"levelo://app?vid=ecd9c509-3120-4166-8927-f60518d66aaa"},"vehicle_type_id":"4","last_reported":1745352699,"current_range_meters":11600,"station_id":"ce4bh292rcd13ifvqdf0","pricing_plan_id":"cebpf4jnsgd1na2vs0mg"},{"bike_id":"87eddfbb-29fa-41ac-b58d-d295d10c3e2b","system_id":"levelo_inurba_marseille","lat":43.279805,"lon":5.387637,"is_reserved":false,"is_disabled":false,"rental_uris":{"android":"levelo://app?vid=87eddfbb-29fa-41ac-b58d-d295d10c3e2b","ios":"levelo://app?vid=87eddfbb-29fa-41ac-b58d-d295d10c3e2b"},"vehicle_type_id":"4","last_reported":1745352699,"current_range_meters":12000,"station_id":"ce4bhg92rcd13ifvqf90","pricing_plan_id":"cebpf4jnsgd1na2vs0mg"},{"bike_id":"dfa00e81-f24d-4799-a072-5c5b4e571bc5","system_id":"levelo_inurba_marseille","lat":43.28652,"lon":5.36359,"is_reserved":false,"is_disabled":false,"rental_uris":{"android":"levelo://app?vid=dfa00e81-f24d-4799-a072-5c5b4e571bc5","ios":"levelo://app?vid=dfa00e81-f24d-4799-a072-5c5b4e571bc5"},"vehicle_type_id":"4","last_reported":1745352699,"current_range_meters":12000,"station_id":"ce4bhah2rcd13ifvqej0","pricing_plan_id":"cebpf4jnsgd1na2vs0mg"},{"bike_id":"031fc59c-474c-403b-9639-80d296715ee7","system_id":"levelo_inurba_marseille","lat":43.31727,"lon":5.42398,"is_reserved":false,"is_disabled":false,"rental_uris":{"android":"levelo://app?vid=031fc59c-474c-403b-9639-80d296715ee7","ios":"levelo://app?vid=031fc59c-474c-403b-9639-80d296715ee7"},"vehicle_type_id":"4","last_reported":1745352699,"current_range_meters":12000,"station_id":"ce4bhp92rcd13ifvqhbg","pricing_plan_id":"cebpf4jnsgd1na2vs0mg"},{"bike_id":"90b4484c-984f-48ef-a595-1fe72c96dd94","system_id":"levelo_inurba_marseille","lat":43.30931,"lon":5.40142,"is_reserved":false,"is_disabled":false,"rental_uris":{"android":"levelo://app?vid=90b4484c-984f-48ef-a595-1fe72c96dd94","ios":"levelo://app?vid=90b4484c-984f-48ef-a595-1fe72c96dd94"},"vehicle_type_id":"4","last_reported":1745352699,"current_range_meters":12000,"station_id":"ce4bgvp2rcd13ifvqct0","pricing_plan_id":"cebpf4jnsgd1na2vs0mg"},{"bike_id":"60464d5f-3697-4d6a-9b36-bfa2a993e90a","system_id":"levelo_inurba_marseille","lat":43.30617,"lon":5.37258,"is_reserved":false,"is_disabled":false,"rental_uris":{"android":"levelo://app?vid=60464d5f-3697-4d6a-9b36-bfa2a993e90a","ios":"levelo://app?vid=60464d5f-3697-4d6a-9b36-bfa2a993e90a"},"vehicle_type_id":"4","last_reported":1745352699,"current_range_meters":12000,"station_id":"ce4bgqh2rcd13ifvqc4g","pricing_plan_id":"cebpf4jnsgd1na2vs0mg"},{"bike_id":"6ea1c678-c1ac-47b3-938d-3529262ed0b6","system_id":"levelo_inurba_marseille","lat":43.27993,"lon":5.40006,"is_reserved":false,"is_disabled":false,"rental_uris":{"android":"levelo://app?vid=6ea1c678-c1ac-47b3-938d-3529262ed0b6","ios":"levelo://app?vid=6ea1c678-c1ac-47b3-938d-3529262ed0b6"},"vehicle_type_id":"4","last_reported":1745352699,"current_range_meters":12000,"station_id":"ce4bho92rcd13ifvqh4g","pricing_plan_id":"cebpf4jnsgd1na2vs0mg"},{"bike_id":"49c0f902-eac7-4a79-adf0-d142aff51e11","system_id":"levelo_inurba_marseille","lat":43.24172,"lon":5.36392,"is_reserved":false,"is_disabled":false,"rental_uris":{"android":"levelo://app?vid=49c0f902-eac7-4a79-adf0-d142aff51e11","ios":"levelo://app?vid=49c0f902-eac7-4a79-adf0-d142aff51e11"},"vehicle_type_id":"4","last_reported":1745352699,"current_range_meters":12000,"station_id":"cpo36qri1sfpv3e86is0","pricing_plan_id":"cebpf4jnsgd1na2vs0mg"},{"bike_id":"bcf59123-c0ca-4689-b22c-166c9c055995","system_id":"levelo_inurba_marseille","lat":43.32011,"lon":5.41583,"is_reserved":false,"is_disabled":false,"rental_uris":{"android":"levelo://app?vid=bcf59123-c0ca-4689-b22c-166c9c055995","ios":"levelo://app?vid=bcf59123-c0ca-4689-b22c-166c9c055995"},"vehicle_type_id":"4","last_reported":1745352699,"current_range_meters":12000,"station_id":"ce4bhq92rcd13ifvqhkg","pricing_plan_id":"cebpf4jnsgd1na2vs0mg"},{"bike_id":"8d7533b3-5585-4b66-b684-60807f9907c2","system_id":"levelo_inurba_marseille","lat":43.28845,"lon":5.35858,"is_reserved":false,"is_disabled":false,"rental_uris":{"android":"levelo://app?vid=8d7533b3-5585-4b66-b684-60807f9907c2","ios":"levelo://app?vid=8d7533b3-5585-4b66-b684-60807f9907c2"},"vehicle_type_id":"4","last_reported":1745352699,"current_range_meters":12400,"station_id":"ce4bhb12rcd13ifvqem0","pricing_plan_id":"cebpf4jnsgd1na2vs0mg"},{"bike_id":"ae2462e3-d741-44b9-8175-77a134aeac56","system_id":"levelo_inurba_marseille","lat":43.27942,"lon":5.38659,"is_reserved":false,"is_disabled":true,"rental_uris":{"android":"levelo://app?vid=ae2462e3-d741-44b9-8175-77a134aeac56","ios":"levelo://app?vid=ae2462e3-d741-44b9-8175-77a134aeac56"},"vehicle_type_id":"4","last_reported":1745352699,"current_range_meters":12800,"station_id":"","pricing_plan_id":"cebpf4jnsgd1na2vs0mg"},{"bike_id":"1be6a0eb-e7bb-4f1b-8976-c00356d99362","system_id":"levelo_inurba_marseille","lat":43.28295,"lon":5.35081,"is_reserved":false,"is_disabled":true,"rental_uris":{"android":"levelo://app?vid=1be6a0eb-e7bb-4f1b-8976-c00356d99362","ios":"levelo://app?vid=1be6a0eb-e7bb-4f1b-8976-c00356d99362"},"vehicle_type_id":"4","last_reported":1745352699,"current_range_meters":12800,"station_id":"ce4bhbp2rcd13ifvqerg","pricing_plan_id":"cebpf4jnsgd1na2vs0mg"},{"bike_id":"e2f0266b-40eb-48f3-9155-a49dac84ee70","system_id":"levelo_inurba_marseille","lat":43.292815,"lon":5.401134,"is_reserved":false,"is_disabled":false,"rental_uris":{"android":"levelo://app?vid=e2f0266b-40eb-48f3-9155-a49dac84ee70","ios":"levelo://app?vid=e2f0266b-40eb-48f3-9155-a49dac84ee70"},"vehicle_type_id":"4","last_reported":1745352699,"current_range_meters":12800,"station_id":"ce4bhh12rcd13ifvqff0","pricing_plan_id":"cebpf4jnsgd1na2vs0mg"},{"bike_id":"f98bcad6-534d-4647-9654-acf13ee2a765","system_id":"levelo_inurba_marseille","lat":43.304932,"lon":5.373049,"is_reserved":false,"is_disabled":false,"rental_uris":{"android":"levelo://app?vid=f98bcad6-534d-4647-9654-acf13ee2a765","ios":"levelo://app?vid=f98bcad6-534d-4647-9654-acf13ee2a765"},"vehicle_type_id":"4","last_reported":1745352699,"current_range_meters":12800,"station_id":"","pricing_plan_id":"cebpf4jnsgd1na2vs0mg"},{"bike_id":"476a9fe5-6154-4202-b562-28b0995b6b4c","system_id":"levelo_inurba_marseille","lat":43.23195,"lon":5.39982,"is_reserved":false,"is_disabled":false,"rental_uris":{"android":"levelo://app?vid=476a9fe5-6154-4202-b562-28b0995b6b4c","ios":"levelo://app?vid=476a9fe5-6154-4202-b562-28b0995b6b4c"},"vehicle_type_id":"4","last_reported":1745352699,"current_range_meters":12800,"station_id":"ce4bhn12rcd13ifvqgqg","pricing_plan_id":"cebpf4jnsgd1na2vs0mg"},{"bike_id":"a1d2c54b-b333-496c-a72c-10a072c70acc","system_id":"levelo_inurba_marseille","lat":43.28618,"lon":5.35084,"is_reserved":false,"is_disabled":false,"rental_uris":{"android":"levelo://app?vid=a1d2c54b-b333-496c-a72c-10a072c70acc","ios":"levelo://app?vid=a1d2c54b-b333-496c-a72c-10a072c70acc"},"vehicle_type_id":"4","last_reported":1745352699,"current_range_meters":14000,"station_id":"ce4bhch2rcd13ifvqeug","pricing_plan_id":"cebpf4jnsgd1na2vs0mg"},{"bike_id":"acd1a0ad-0d28-47bf-a972-629e3cea2976","system_id":"levelo_inurba_marseille","lat":43.28935,"lon":5.36641,"is_reserved":false,"is_disabled":false,"rental_uris":{"android":"levelo://app?vid=acd1a0ad-0d28-47bf-a972-629e3cea2976","ios":"levelo://app?vid=acd1a0ad-0d28-47bf-a972-629e3cea2976"},"vehicle_type_id":"4","last_reported":1745352699,"current_range_meters":13600,"station_id":"ce4bhap2rcd13ifvqek0","pricing_plan_id":"cebpf4jnsgd1na2vs0mg"},{"bike_id":"afc1a72d-f3cd-4039-8f8e-8907957e6ee0","system_id":"levelo_inurba_marseille","lat":43.284197,"lon":5.375086,"is_reserved":false,"is_disabled":false,"rental_uris":{"android":"levelo://app?vid=afc1a72d-f3cd-4039-8f8e-8907957e6ee0","ios":"levelo://app?vid=afc1a72d-f3cd-4039-8f8e-8907957e6ee0"},"vehicle_type_id":"4","last_reported":1745352699,"current_range_meters":13600,"station_id":"ce4bh412rcd13ifvqds0","pricing_plan_id":"cebpf4jnsgd1na2vs0mg"},{"bike_id":"48939965-4329-495f-a3f1-b5cf562d2ecf","system_id":"levelo_inurba_marseille","lat":43.30669,"lon":5.40075,"is_reserved":false,"is_disabled":true,"rental_uris":{"android":"levelo://app?vid=48939965-4329-495f-a3f1-b5cf562d2ecf","ios":"levelo://app?vid=48939965-4329-495f-a3f1-b5cf562d2ecf"},"vehicle_type_id":"4","last_reported":1745352699,"current_range_meters":13600,"station_id":"ce4bh112rcd13ifvqda0","pricing_plan_id":"cebpf4jnsgd1na2vs0mg"},{"bike_id":"ea3653a9-85ab-4e4d-99be-20b8f183c5a4","system_id":"levelo_inurba_marseille","lat":43.29532,"lon":5.38547,"is_reserved":false,"is_disabled":false,"rental_uris":{"android":"levelo://app?vid=ea3653a9-85ab-4e4d-99be-20b8f183c5a4","ios":"levelo://app?vid=ea3653a9-85ab-4e4d-99be-20b8f183c5a4"},"vehicle_type_id":"4","last_reported":1745352699,"current_range_meters":13600,"station_id":"ce4bgih2rcd13ifvqba0","pricing_plan_id":"cebpf4jnsgd1na2vs0mg"},{"bike_id":"caccf6b1-eff9-41fc-9278-5e6f421f5468","system_id":"levelo_inurba_marseille","lat":43.28404,"lon":5.34996,"is_reserved":false,"is_disabled":false,"rental_uris":{"android":"levelo://app?vid=caccf6b1-eff9-41fc-9278-5e6f421f5468","ios":"levelo://app?vid=caccf6b1-eff9-41fc-9278-5e6f421f5468"},"vehicle_type_id":"4","last_reported":1745352699,"current_range_meters":14000,"station_id":"ce4bhbh2rcd13ifvqepg","pricing_plan_id":"cebpf4jnsgd1na2vs0mg"},{"bike_id":"678d1ff2-b92f-437a-a478-0a2f054c08e9","system_id":"levelo_inurba_marseille","lat":43.30348,"lon":5.36839,"is_reserved":false,"is_disabled":false,"rental_uris":{"android":"levelo://app?vid=678d1ff2-b92f-437a-a478-0a2f054c08e9","ios":"levelo://app?vid=678d1ff2-b92f-437a-a478-0a2f054c08e9"},"vehicle_type_id":"4","last_reported":1745352699,"current_range_meters":14000,"station_id":"","pricing_plan_id":"cebpf4jnsgd1na2vs0mg"},{"bike_id":"5411c9c0-eb3a-475d-9e43-a89c6557a708","system_id":"levelo_inurba_marseille","lat":43.27979,"lon":5.41671,"is_reserved":false,"is_disabled":false,"rental_uris":{"android":"levelo://app?vid=5411c9c0-eb3a-475d-9e43-a89c6557a708","ios":"levelo://app?vid=5411c9c0-eb3a-475d-9e43-a89c6557a708"},"vehicle_type_id":"4","last_reported":1745352699,"current_range_meters":14000,"station_id":"ce4bho12rcd13ifvqh1g","pricing_plan_id":"cebpf4jnsgd1na2vs0mg"},{"bike_id":"de48a635-da88-4fcc-8749-c56c951dd46b","system_id":"levelo_inurba_marseille","lat":43.28459,"lon":5.35887,"is_reserved":false,"is_disabled":false,"rental_uris":{"android":"levelo://app?vid=de48a635-da88-4fcc-8749-c56c951dd46b","ios":"levelo://app?vid=de48a635-da88-4fcc-8749-c56c951dd46b"},"vehicle_type_id":"4","last_reported":1745352699,"current_range_meters":14000,"station_id":"ce4bhah2rcd13ifvqei0","pricing_plan_id":"cebpf4jnsgd1na2vs0mg"},{"bike_id":"8d219110-3ba8-41b6-a521-913d51e6491c","system_id":"levelo_inurba_marseille","lat":43.27679,"lon":5.38873,"is_reserved":false,"is_disabled":false,"rental_uris":{"android":"levelo://app?vid=8d219110-3ba8-41b6-a521-913d51e6491c","ios":"levelo://app?vid=8d219110-3ba8-41b6-a521-913d51e6491c"},"vehicle_type_id":"4","last_reported":1745352699,"current_range_meters":14000,"station_id":"ce4bhi12rcd13ifvqfo0","pricing_plan_id":"cebpf4jnsgd1na2vs0mg"},{"bike_id":"08576c41-37a4-4ed4-9b66-3ca708d7b6be","system_id":"levelo_inurba_marseille","lat":43.28073,"lon":5.39659,"is_reserved":false,"is_disabled":false,"rental_uris":{"android":"levelo://app?vid=08576c41-37a4-4ed4-9b66-3ca708d7b6be","ios":"levelo://app?vid=08576c41-37a4-4ed4-9b66-3ca708d7b6be"},"vehicle_type_id":"4","last_reported":1745352699,"current_range_meters":14400,"station_id":"ce4bho12rcd13ifvqh2g","pricing_plan_id":"cebpf4jnsgd1na2vs0mg"},{"bike_id":"e2a72ecb-0cb4-49cf-9b28-1424281bac89","system_id":"levelo_inurba_marseille","lat":43.27971,"lon":5.38725,"is_reserved":false,"is_disabled":false,"rental_uris":{"android":"levelo://app?vid=e2a72ecb-0cb4-49cf-9b28-1424281bac89","ios":"levelo://app?vid=e2a72ecb-0cb4-49cf-9b28-1424281bac89"},"vehicle_type_id":"4","last_reported":1745352699,"current_range_meters":14400,"station_id":"ce4bhg12rcd13ifvqf80","pricing_plan_id":"cebpf4jnsgd1na2vs0mg"},{"bike_id":"d6ec6626-1eea-4009-a3d4-2192bcd122e3","system_id":"levelo_inurba_marseille","lat":43.27673,"lon":5.38873,"is_reserved":false,"is_disabled":false,"rental_uris":{"android":"levelo://app?vid=d6ec6626-1eea-4009-a3d4-2192bcd122e3","ios":"levelo://app?vid=d6ec6626-1eea-4009-a3d4-2192bcd122e3"},"vehicle_type_id":"4","last_reported":1745352699,"current_range_meters":14400,"station_id":"ce4bhi12rcd13ifvqfo0","pricing_plan_id":"cebpf4jnsgd1na2vs0mg"},{"bike_id":"9b36c9bc-1f5b-4bf6-8c71-373a06c68118","system_id":"levelo_inurba_marseille","lat":43.26554,"lon":5.37284,"is_reserved":false,"is_disabled":false,"rental_uris":{"android":"levelo://app?vid=9b36c9bc-1f5b-4bf6-8c71-373a06c68118","ios":"levelo://app?vid=9b36c9bc-1f5b-4bf6-8c71-373a06c68118"},"vehicle_type_id":"4","last_reported":1745352699,"current_range_meters":14400,"station_id":"ce4bhg12rcd13ifvqf70","pricing_plan_id":"cebpf4jnsgd1na2vs0mg"},{"bike_id":"4e187655-ea25-4a18-8297-af3e6c0e8273","system_id":"levelo_inurba_marseille","lat":43.24546,"lon":5.39521,"is_reserved":false,"is_disabled":false,"rental_uris":{"android":"levelo://app?vid=4e187655-ea25-4a18-8297-af3e6c0e8273","ios":"levelo://app?vid=4e187655-ea25-4a18-8297-af3e6c0e8273"},"vehicle_type_id":"4","last_reported":1745352699,"current_range_meters":14400,"station_id":"ce4bhlp2rcd13ifvqgjg","pricing_plan_id":"cebpf4jnsgd1na2vs0mg"},{"bike_id":"5189c0bc-347f-45f5-8baa-95e865befafc","system_id":"levelo_inurba_marseille","lat":43.30418,"lon":5.41274,"is_reserved":false,"is_disabled":false,"rental_uris":{"android":"levelo://app?vid=5189c0bc-347f-45f5-8baa-95e865befafc","ios":"levelo://app?vid=5189c0bc-347f-45f5-8baa-95e865befafc"},"vehicle_type_id":"4","last_reported":1745352699,"current_range_meters":14400,"station_id":"ce4bhop2rcd13ifvqh8g","pricing_plan_id":"cebpf4jnsgd1na2vs0mg"},{"bike_id":"7b06842b-c7e4-46fa-8690-c33864396d7d","system_id":"levelo_inurba_marseille","lat":43.25111,"lon":5.40322,"is_reserved":false,"is_disabled":false,"rental_uris":{"android":"levelo://app?vid=7b06842b-c7e4-46fa-8690-c33864396d7d","ios":"levelo://app?vid=7b06842b-c7e4-46fa-8690-c33864396d7d"},"vehicle_type_id":"4","last_reported":1745352699,"current_range_meters":14000,"station_id":"ce4bhlh2rcd13ifvqgig","pricing_plan_id":"cebpf4jnsgd1na2vs0mg"},{"bike_id":"f99a5ab2-5b8c-442c-a148-f1ce6b214dc9","system_id":"levelo_inurba_marseille","lat":43.2841,"lon":5.37525,"is_reserved":false,"is_disabled":false,"rental_uris":{"android":"levelo://app?vid=f99a5ab2-5b8c-442c-a148-f1ce6b214dc9","ios":"levelo://app?vid=f99a5ab2-5b8c-442c-a148-f1ce6b214dc9"},"vehicle_type_id":"4","last_reported":1745352699,"current_range_meters":14800,"station_id":"ce4bh412rcd13ifvqds0","pricing_plan_id":"cebpf4jnsgd1na2vs0mg"},{"bike_id":"d5a555f3-d76e-4247-a3a9-241521647a6f","system_id":"levelo_inurba_marseille","lat":43.282645,"lon":5.350526,"is_reserved":false,"is_disabled":false,"rental_uris":{"android":"levelo://app?vid=d5a555f3-d76e-4247-a3a9-241521647a6f","ios":"levelo://app?vid=d5a555f3-d76e-4247-a3a9-241521647a6f"},"vehicle_type_id":"4","last_reported":1745352699,"current_range_meters":14800,"station_id":"ce4bhbp2rcd13ifvqerg","pricing_plan_id":"cebpf4jnsgd1na2vs0mg"},{"bike_id":"c2e6c72b-8970-4f1b-8d45-b5609a50a1bb","system_id":"levelo_inurba_marseille","lat":43.27883,"lon":5.38036,"is_reserved":false,"is_disabled":false,"rental_uris":{"android":"levelo://app?vid=c2e6c72b-8970-4f1b-8d45-b5609a50a1bb","ios":"levelo://app?vid=c2e6c72b-8970-4f1b-8d45-b5609a50a1bb"},"vehicle_type_id":"4","last_reported":1745352699,"current_range_meters":14800,"station_id":"ce4bhf92rcd13ifvqf50","pricing_plan_id":"cebpf4jnsgd1na2vs0mg"},{"bike_id":"20a79b79-5512-4b0c-9aa8-676ddbc216c5","system_id":"levelo_inurba_marseille","lat":43.29447,"lon":5.39791,"is_reserved":false,"is_disabled":false,"rental_uris":{"android":"levelo://app?vid=20a79b79-5512-4b0c-9aa8-676ddbc216c5","ios":"levelo://app?vid=20a79b79-5512-4b0c-9aa8-676ddbc216c5"},"vehicle_type_id":"4","last_reported":1745352699,"current_range_meters":14800,"station_id":"ce4bh3h2rcd13ifvqdo0","pricing_plan_id":"cebpf4jnsgd1na2vs0mg"},{"bike_id":"761ae269-6b1f-4092-8e33-c55e4d5d8dff","system_id":"levelo_inurba_marseille","lat":43.22928,"lon":5.35378,"is_reserved":false,"is_disabled":false,"rental_uris":{"android":"levelo://app?vid=761ae269-6b1f-4092-8e33-c55e4d5d8dff","ios":"levelo://app?vid=761ae269-6b1f-4092-8e33-c55e4d5d8dff"},"vehicle_type_id":"4","last_reported":1745352699,"current_range_meters":14800,"station_id":"cpo3532slgdg3j2ikp40","pricing_plan_id":"cebpf4jnsgd1na2vs0mg"},{"bike_id":"be218f89-8917-4041-9488-f81416c926e3","system_id":"levelo_inurba_marseille","lat":43.28662,"lon":5.36364,"is_reserved":false,"is_disabled":false,"rental_uris":{"android":"levelo://app?vid=be218f89-8917-4041-9488-f81416c926e3","ios":"levelo://app?vid=be218f89-8917-4041-9488-f81416c926e3"},"vehicle_type_id":"4","last_reported":1745352699,"current_range_meters":14800,"station_id":"ce4bhah2rcd13ifvqej0","pricing_plan_id":"cebpf4jnsgd1na2vs0mg"},{"bike_id":"2d1d695f-1f0b-4b6c-99d0-5c6fa54205cd","system_id":"levelo_inurba_marseille","lat":43.29198,"lon":5.35809,"is_reserved":false,"is_disabled":false,"rental_uris":{"android":"levelo://app?vid=2d1d695f-1f0b-4b6c-99d0-5c6fa54205cd","ios":"levelo://app?vid=2d1d695f-1f0b-4b6c-99d0-5c6fa54205cd"},"vehicle_type_id":"4","last_reported":1745352699,"current_range_meters":15200,"station_id":"ce4bhb12rcd13ifvqel0","pricing_plan_id":"cebpf4jnsgd1na2vs0mg"},{"bike_id":"0d028917-b925-4e0d-973c-90a3e752d812","system_id":"levelo_inurba_marseille","lat":43.26489,"lon":5.39549,"is_reserved":false,"is_disabled":false,"rental_uris":{"android":"levelo://app?vid=0d028917-b925-4e0d-973c-90a3e752d812","ios":"levelo://app?vid=0d028917-b925-4e0d-973c-90a3e752d812"},"vehicle_type_id":"4","last_reported":1745352699,"current_range_meters":15200,"station_id":"ce4bhi12rcd13ifvqfq0","pricing_plan_id":"cebpf4jnsgd1na2vs0mg"},{"bike_id":"1e2cc1b2-544f-40a6-9711-53b33fe8529b","system_id":"levelo_inurba_marseille","lat":43.31964,"lon":5.38139,"is_reserved":false,"is_disabled":false,"rental_uris":{"android":"levelo://app?vid=1e2cc1b2-544f-40a6-9711-53b33fe8529b","ios":"levelo://app?vid=1e2cc1b2-544f-40a6-9711-53b33fe8529b"},"vehicle_type_id":"4","last_reported":1745352699,"current_range_meters":15200,"station_id":"ce4bhr12rcd13ifvqhpg","pricing_plan_id":"cebpf4jnsgd1na2vs0mg"},{"bike_id":"4410d923-b6fb-43f7-985e-8066a470ff37","system_id":"levelo_inurba_marseille","lat":43.28279,"lon":5.35074,"is_reserved":false,"is_disabled":false,"rental_uris":{"android":"levelo://app?vid=4410d923-b6fb-43f7-985e-8066a470ff37","ios":"levelo://app?vid=4410d923-b6fb-43f7-985e-8066a470ff37"},"vehicle_type_id":"4","last_reported":1745352699,"current_range_meters":15200,"station_id":"ce4bhbp2rcd13ifvqerg","pricing_plan_id":"cebpf4jnsgd1na2vs0mg"},{"bike_id":"aea211e0-1d31-4606-aa81-705aeffb9b93","system_id":"levelo_inurba_marseille","lat":43.29892,"lon":5.38917,"is_reserved":false,"is_disabled":false,"rental_uris":{"android":"levelo://app?vid=aea211e0-1d31-4606-aa81-705aeffb9b93","ios":"levelo://app?vid=aea211e0-1d31-4606-aa81-705aeffb9b93"},"vehicle_type_id":"4","last_reported":1745352699,"current_range_meters":15200,"station_id":"ce4bh392rcd13ifvqdl0","pricing_plan_id":"cebpf4jnsgd1na2vs0mg"},{"bike_id":"602b5f96-6a4b-4aa5-bb1e-7ed29f4a890c","system_id":"levelo_inurba_marseille","lat":43.28666,"lon":5.36377,"is_reserved":false,"is_disabled":false,"rental_uris":{"android":"levelo://app?vid=602b5f96-6a4b-4aa5-bb1e-7ed29f4a890c","ios":"levelo://app?vid=602b5f96-6a4b-4aa5-bb1e-7ed29f4a890c"},"vehicle_type_id":"4","last_reported":1745352699,"current_range_meters":16000,"station_id":"ce4bhah2rcd13ifvqej0","pricing_plan_id":"cebpf4jnsgd1na2vs0mg"},{"bike_id":"73a8b86c-6957-4272-b7f5-6e20a470ac03","system_id":"levelo_inurba_marseille","lat":43.29385,"lon":5.38649,"is_reserved":false,"is_disabled":false,"rental_uris":{"android":"levelo://app?vid=73a8b86c-6957-4272-b7f5-6e20a470ac03","ios":"levelo://app?vid=73a8b86c-6957-4272-b7f5-6e20a470ac03"},"vehicle_type_id":"4","last_reported":1745352699,"current_range_meters":16000,"station_id":"ce4bh2h2rcd13ifvqdh0","pricing_plan_id":"cebpf4jnsgd1na2vs0mg"},{"bike_id":"5b2a268a-61f7-4771-8e04-d26f66abbacf","system_id":"levelo_inurba_marseille","lat":43.29498,"lon":5.39042,"is_reserved":false,"is_disabled":false,"rental_uris":{"android":"levelo://app?vid=5b2a268a-61f7-4771-8e04-d26f66abbacf","ios":"levelo://app?vid=5b2a268a-61f7-4771-8e04-d26f66abbacf"},"vehicle_type_id":"4","last_reported":1745352699,"current_range_meters":16000,"station_id":"ce4bh3p2rcd13ifvqdp0","pricing_plan_id":"cebpf4jnsgd1na2vs0mg"},{"bike_id":"8e20898e-f4a5-4e7c-b50a-4ab43a31e9df","system_id":"levelo_inurba_marseille","lat":43.29416,"lon":5.38604,"is_reserved":false,"is_disabled":false,"rental_uris":{"android":"levelo://app?vid=8e20898e-f4a5-4e7c-b50a-4ab43a31e9df","ios":"levelo://app?vid=8e20898e-f4a5-4e7c-b50a-4ab43a31e9df"},"vehicle_type_id":"4","last_reported":1745352699,"current_range_meters":16000,"station_id":"ce4bh2h2rcd13ifvqdh0","pricing_plan_id":"cebpf4jnsgd1na2vs0mg"},{"bike_id":"abd226a8-d003-4133-b9d2-b7c952b7ead1","system_id":"levelo_inurba_marseille","lat":43.23055,"lon":5.35513,"is_reserved":false,"is_disabled":false,"rental_uris":{"android":"levelo://app?vid=abd226a8-d003-4133-b9d2-b7c952b7ead1","ios":"levelo://app?vid=abd226a8-d003-4133-b9d2-b7c952b7ead1"},"vehicle_type_id":"4","last_reported":1745352699,"current_range_meters":16000,"station_id":"cpo3342slgdg3j2ifvpg","pricing_plan_id":"cebpf4jnsgd1na2vs0mg"},{"bike_id":"df6ffc41-ed4d-4c2c-af47-12b33fc50735","system_id":"levelo_inurba_marseille","lat":43.25101,"lon":5.40347,"is_reserved":false,"is_disabled":false,"rental_uris":{"android":"levelo://app?vid=df6ffc41-ed4d-4c2c-af47-12b33fc50735","ios":"levelo://app?vid=df6ffc41-ed4d-4c2c-af47-12b33fc50735"},"vehicle_type_id":"4","last_reported":1745352699,"current_range_meters":16000,"station_id":"ce4bhlh2rcd13ifvqgig","pricing_plan_id":"cebpf4jnsgd1na2vs0mg"},{"bike_id":"0c3e333c-b568-4eec-9922-c34e4bb2d84a","system_id":"levelo_inurba_marseille","lat":43.29263,"lon":5.40907,"is_reserved":false,"is_disabled":false,"rental_uris":{"android":"levelo://app?vid=0c3e333c-b568-4eec-9922-c34e4bb2d84a","ios":"levelo://app?vid=0c3e333c-b568-4eec-9922-c34e4bb2d84a"},"vehicle_type_id":"4","last_reported":1745352699,"current_range_meters":16000,"station_id":"ce4bh192rcd13ifvqdc0","pricing_plan_id":"cebpf4jnsgd1na2vs0mg"},{"bike_id":"1ac6168d-ffde-4909-b796-9c425696102c","system_id":"levelo_inurba_marseille","lat":43.29254,"lon":5.38443,"is_reserved":false,"is_disabled":false,"rental_uris":{"android":"levelo://app?vid=1ac6168d-ffde-4909-b796-9c425696102c","ios":"levelo://app?vid=1ac6168d-ffde-4909-b796-9c425696102c"},"vehicle_type_id":"4","last_reported":1745352699,"current_range_meters":13600,"station_id":"ce4bh692rcd13ifvqea0","pricing_plan_id":"cebpf4jnsgd1na2vs0mg"},{"bike_id":"7a93f214-e369-420b-90b3-c0c05b34e7a9","system_id":"levelo_inurba_marseille","lat":43.28311,"lon":5.38075,"is_reserved":false,"is_disabled":false,"rental_uris":{"android":"levelo://app?vid=7a93f214-e369-420b-90b3-c0c05b34e7a9","ios":"levelo://app?vid=7a93f214-e369-420b-90b3-c0c05b34e7a9"},"vehicle_type_id":"4","last_reported":1745352699,"current_range_meters":16400,"station_id":"ce4bh412rcd13ifvqdr0","pricing_plan_id":"cebpf4jnsgd1na2vs0mg"},{"bike_id":"9c5758bf-33b5-4a52-afd2-c8734b4dca48","system_id":"levelo_inurba_marseille","lat":43.31066,"lon":5.38336,"is_reserved":false,"is_disabled":false,"rental_uris":{"android":"levelo://app?vid=9c5758bf-33b5-4a52-afd2-c8734b4dca48","ios":"levelo://app?vid=9c5758bf-33b5-4a52-afd2-c8734b4dca48"},"vehicle_type_id":"4","last_reported":1745352699,"current_range_meters":16400,"station_id":"ce4bgv92rcd13ifvqcr0","pricing_plan_id":"cebpf4jnsgd1na2vs0mg"},{"bike_id":"b3a8fcab-2cbb-4241-8df1-178d0e212912","system_id":"levelo_inurba_marseille","lat":43.25395,"lon":5.41856,"is_reserved":false,"is_disabled":false,"rental_uris":{"android":"levelo://app?vid=b3a8fcab-2cbb-4241-8df1-178d0e212912","ios":"levelo://app?vid=b3a8fcab-2cbb-4241-8df1-178d0e212912"},"vehicle_type_id":"4","last_reported":1745352699,"current_range_meters":16400,"station_id":"","pricing_plan_id":"cebpf4jnsgd1na2vs0mg"},{"bike_id":"090ea79f-5dc1-4f76-8a9c-a95ed8a5af5c","system_id":"levelo_inurba_marseille","lat":43.27821,"lon":5.4072,"is_reserved":false,"is_disabled":false,"rental_uris":{"android":"levelo://app?vid=090ea79f-5dc1-4f76-8a9c-a95ed8a5af5c","ios":"levelo://app?vid=090ea79f-5dc1-4f76-8a9c-a95ed8a5af5c"},"vehicle_type_id":"4","last_reported":1745352699,"current_range_meters":16400,"station_id":"ce4bhnh2rcd13ifvqgtg","pricing_plan_id":"cebpf4jnsgd1na2vs0mg"},{"bike_id":"1b903b38-38de-4714-9a2c-59836acfa168","system_id":"levelo_inurba_marseille","lat":43.31704,"lon":5.43697,"is_reserved":false,"is_disabled":true,"rental_uris":{"android":"levelo://app?vid=1b903b38-38de-4714-9a2c-59836acfa168","ios":"levelo://app?vid=1b903b38-38de-4714-9a2c-59836acfa168"},"vehicle_type_id":"4","last_reported":1745352699,"current_range_meters":16400,"station_id":"ce4bhp92rcd13ifvqhcg","pricing_plan_id":"cebpf4jnsgd1na2vs0mg"},{"bike_id":"7c110556-51f7-4ebc-a93b-d3e946a92a50","system_id":"levelo_inurba_marseille","lat":43.31706,"lon":5.43678,"is_reserved":false,"is_disabled":false,"rental_uris":{"android":"levelo://app?vid=7c110556-51f7-4ebc-a93b-d3e946a92a50","ios":"levelo://app?vid=7c110556-51f7-4ebc-a93b-d3e946a92a50"},"vehicle_type_id":"4","last_reported":1745352699,"current_range_meters":16400,"station_id":"ce4bhp92rcd13ifvqhcg","pricing_plan_id":"cebpf4jnsgd1na2vs0mg"},{"bike_id":"4058f62d-ca8f-492f-8fca-74ec3189f044","system_id":"levelo_inurba_marseille","lat":43.29875,"lon":5.39741,"is_reserved":false,"is_disabled":false,"rental_uris":{"android":"levelo://app?vid=4058f62d-ca8f-492f-8fca-74ec3189f044","ios":"levelo://app?vid=4058f62d-ca8f-492f-8fca-74ec3189f044"},"vehicle_type_id":"4","last_reported":1745352699,"current_range_meters":16800,"station_id":"ce4bh0h2rcd13ifvqd50","pricing_plan_id":"cebpf4jnsgd1na2vs0mg"},{"bike_id":"9f1e349e-7f44-420f-95ec-c319dae210f6","system_id":"levelo_inurba_marseille","lat":43.292113,"lon":5.383859,"is_reserved":false,"is_disabled":true,"rental_uris":{"android":"levelo://app?vid=9f1e349e-7f44-420f-95ec-c319dae210f6","ios":"levelo://app?vid=9f1e349e-7f44-420f-95ec-c319dae210f6"},"vehicle_type_id":"4","last_reported":1745352699,"current_range_meters":16800,"station_id":"","pricing_plan_id":"cebpf4jnsgd1na2vs0mg"},{"bike_id":"d962937d-a2c0-4f7f-9d5f-d2025eec3422","system_id":"levelo_inurba_marseille","lat":43.25402,"lon":5.4185,"is_reserved":false,"is_disabled":false,"rental_uris":{"android":"levelo://app?vid=d962937d-a2c0-4f7f-9d5f-d2025eec3422","ios":"levelo://app?vid=d962937d-a2c0-4f7f-9d5f-d2025eec3422"},"vehicle_type_id":"4","last_reported":1745352699,"current_range_meters":16800,"station_id":"","pricing_plan_id":"cebpf4jnsgd1na2vs0mg"},{"bike_id":"189892d5-6682-45fb-a8c1-fe0939832067","system_id":"levelo_inurba_marseille","lat":43.25112,"lon":5.40323,"is_reserved":false,"is_disabled":false,"rental_uris":{"android":"levelo://app?vid=189892d5-6682-45fb-a8c1-fe0939832067","ios":"levelo://app?vid=189892d5-6682-45fb-a8c1-fe0939832067"},"vehicle_type_id":"4","last_reported":1745352699,"current_range_meters":16800,"station_id":"ce4bhlh2rcd13ifvqgig","pricing_plan_id":"cebpf4jnsgd1na2vs0mg"},{"bike_id":"f0faa908-a572-4056-abc6-bcca8beff2f2","system_id":"levelo_inurba_marseille","lat":43.29203,"lon":5.39316,"is_reserved":false,"is_disabled":false,"rental_uris":{"android":"levelo://app?vid=f0faa908-a572-4056-abc6-bcca8beff2f2","ios":"levelo://app?vid=f0faa908-a572-4056-abc6-bcca8beff2f2"},"vehicle_type_id":"4","last_reported":1745352699,"current_range_meters":16800,"station_id":"ce4bh192rcd13ifvqdd0","pricing_plan_id":"cebpf4jnsgd1na2vs0mg"},{"bike_id":"365a3d37-dda1-4d7f-bae0-8b4fc78d2c98","system_id":"levelo_inurba_marseille","lat":43.29577,"lon":5.38094,"is_reserved":false,"is_disabled":false,"rental_uris":{"android":"levelo://app?vid=365a3d37-dda1-4d7f-bae0-8b4fc78d2c98","ios":"levelo://app?vid=365a3d37-dda1-4d7f-bae0-8b4fc78d2c98"},"vehicle_type_id":"4","last_reported":1745352699,"current_range_meters":16800,"station_id":"ce4bgl12rcd13ifvqbo0","pricing_plan_id":"cebpf4jnsgd1na2vs0mg"},{"bike_id":"9f2e2972-dc86-4c24-8a83-22c0ee111c3e","system_id":"levelo_inurba_marseille","lat":43.312135,"lon":5.36891,"is_reserved":false,"is_disabled":true,"rental_uris":{"android":"levelo://app?vid=9f2e2972-dc86-4c24-8a83-22c0ee111c3e","ios":"levelo://app?vid=9f2e2972-dc86-4c24-8a83-22c0ee111c3e"},"vehicle_type_id":"4","last_reported":1745352699,"current_range_meters":17200,"station_id":"ce4bgl92rcd13ifvqbq0","pricing_plan_id":"cebpf4jnsgd1na2vs0mg"},{"bike_id":"b96d48d5-fc65-423b-9a30-5d2c864e8939","system_id":"levelo_inurba_marseille","lat":43.22488,"lon":5.34796,"is_reserved":false,"is_disabled":false,"rental_uris":{"android":"levelo://app?vid=b96d48d5-fc65-423b-9a30-5d2c864e8939","ios":"levelo://app?vid=b96d48d5-fc65-423b-9a30-5d2c864e8939"},"vehicle_type_id":"4","last_reported":1745352699,"current_range_meters":17200,"station_id":"st_cvj5dfep6f1abm77gieg","pricing_plan_id":"cebpf4jnsgd1na2vs0mg"},{"bike_id":"2958702b-6f60-4c23-88d4-37649b2b931b","system_id":"levelo_inurba_marseille","lat":43.29867,"lon":5.39763,"is_reserved":false,"is_disabled":false,"rental_uris":{"android":"levelo://app?vid=2958702b-6f60-4c23-88d4-37649b2b931b","ios":"levelo://app?vid=2958702b-6f60-4c23-88d4-37649b2b931b"},"vehicle_type_id":"4","last_reported":1745352699,"current_range_meters":17200,"station_id":"ce4bh0h2rcd13ifvqd50","pricing_plan_id":"cebpf4jnsgd1na2vs0mg"},{"bike_id":"15de27a9-dd72-4ea4-bde9-75d6aa3004b2","system_id":"levelo_inurba_marseille","lat":43.26983,"lon":5.39103,"is_reserved":false,"is_disabled":false,"rental_uris":{"android":"levelo://app?vid=15de27a9-dd72-4ea4-bde9-75d6aa3004b2","ios":"levelo://app?vid=15de27a9-dd72-4ea4-bde9-75d6aa3004b2"},"vehicle_type_id":"4","last_reported":1745352699,"current_range_meters":17200,"station_id":"","pricing_plan_id":"cebpf4jnsgd1na2vs0mg"},{"bike_id":"6ab2ad6a-ea0d-40e1-919f-8650377c19c0","system_id":"levelo_inurba_marseille","lat":43.31175,"lon":5.38719,"is_reserved":false,"is_disabled":false,"rental_uris":{"android":"levelo://app?vid=6ab2ad6a-ea0d-40e1-919f-8650377c19c0","ios":"levelo://app?vid=6ab2ad6a-ea0d-40e1-919f-8650377c19c0"},"vehicle_type_id":"4","last_reported":1745352699,"current_range_meters":17200,"station_id":"ce4bgv12rcd13ifvqcp0","pricing_plan_id":"cebpf4jnsgd1na2vs0mg"},{"bike_id":"4d5e0647-8546-4c45-9174-2f4266c95ca8","system_id":"levelo_inurba_marseille","lat":43.244,"lon":5.37042,"is_reserved":false,"is_disabled":false,"rental_uris":{"android":"levelo://app?vid=4d5e0647-8546-4c45-9174-2f4266c95ca8","ios":"levelo://app?vid=4d5e0647-8546-4c45-9174-2f4266c95ca8"},"vehicle_type_id":"4","last_reported":1745352699,"current_range_meters":17600,"station_id":"ce4bhhh2rcd13ifvqfk0","pricing_plan_id":"cebpf4jnsgd1na2vs0mg"},{"bike_id":"ee875282-58d8-4f00-94e1-25d75e41f7cd","system_id":"levelo_inurba_marseille","lat":43.25721,"lon":5.41116,"is_reserved":false,"is_disabled":false,"rental_uris":{"android":"levelo://app?vid=ee875282-58d8-4f00-94e1-25d75e41f7cd","ios":"levelo://app?vid=ee875282-58d8-4f00-94e1-25d75e41f7cd"},"vehicle_type_id":"4","last_reported":1745352699,"current_range_meters":17600,"station_id":"ce4bhkp2rcd13ifvqgd0","pricing_plan_id":"cebpf4jnsgd1na2vs0mg"},{"bike_id":"9397a6bb-7010-489e-bda6-146bdeb4d6d1","system_id":"levelo_inurba_marseille","lat":43.28106,"lon":5.37851,"is_reserved":false,"is_disabled":false,"rental_uris":{"android":"levelo://app?vid=9397a6bb-7010-489e-bda6-146bdeb4d6d1","ios":"levelo://app?vid=9397a6bb-7010-489e-bda6-146bdeb4d6d1"},"vehicle_type_id":"4","last_reported":1745352699,"current_range_meters":17200,"station_id":"ce4bha12rcd13ifvqee0","pricing_plan_id":"cebpf4jnsgd1na2vs0mg"},{"bike_id":"87d559ff-4f71-4677-b138-1cd076d06e68","system_id":"levelo_inurba_marseille","lat":43.309,"lon":5.39652,"is_reserved":false,"is_disabled":false,"rental_uris":{"android":"levelo://app?vid=87d559ff-4f71-4677-b138-1cd076d06e68","ios":"levelo://app?vid=87d559ff-4f71-4677-b138-1cd076d06e68"},"vehicle_type_id":"4","last_reported":1745352699,"current_range_meters":17600,"station_id":"ce4bh012rcd13ifvqcv0","pricing_plan_id":"cebpf4jnsgd1na2vs0mg"},{"bike_id":"97b8c65c-bdcc-4cd4-94d2-e5c51a97a10a","system_id":"levelo_inurba_marseille","lat":43.30188,"lon":5.39894,"is_reserved":false,"is_disabled":false,"rental_uris":{"android":"levelo://app?vid=97b8c65c-bdcc-4cd4-94d2-e5c51a97a10a","ios":"levelo://app?vid=97b8c65c-bdcc-4cd4-94d2-e5c51a97a10a"},"vehicle_type_id":"4","last_reported":1745352699,"current_range_meters":17600,"station_id":"","pricing_plan_id":"cebpf4jnsgd1na2vs0mg"},{"bike_id":"4f6948c2-c31a-4dbb-a645-2573068de740","system_id":"levelo_inurba_marseille","lat":43.3093,"lon":5.4016,"is_reserved":false,"is_disabled":false,"rental_uris":{"android":"levelo://app?vid=4f6948c2-c31a-4dbb-a645-2573068de740","ios":"levelo://app?vid=4f6948c2-c31a-4dbb-a645-2573068de740"},"vehicle_type_id":"4","last_reported":1745352699,"current_range_meters":17200,"station_id":"ce4bgvp2rcd13ifvqct0","pricing_plan_id":"cebpf4jnsgd1na2vs0mg"},{"bike_id":"8dd9cf00-fe8c-4a4f-8031-0ca58d3c3974","system_id":"levelo_inurba_marseille","lat":43.30299,"lon":5.39216,"is_reserved":false,"is_disabled":false,"rental_uris":{"android":"levelo://app?vid=8dd9cf00-fe8c-4a4f-8031-0ca58d3c3974","ios":"levelo://app?vid=8dd9cf00-fe8c-4a4f-8031-0ca58d3c3974"},"vehicle_type_id":"4","last_reported":1745352699,"current_range_meters":17600,"station_id":"ce4bgkh2rcd13ifvqbk0","pricing_plan_id":"cebpf4jnsgd1na2vs0mg"},{"bike_id":"60f2968d-7f75-4c3f-9fcc-c66c23c024f3","system_id":"levelo_inurba_marseille","lat":43.31885,"lon":5.40725,"is_reserved":false,"is_disabled":false,"rental_uris":{"android":"levelo://app?vid=60f2968d-7f75-4c3f-9fcc-c66c23c024f3","ios":"levelo://app?vid=60f2968d-7f75-4c3f-9fcc-c66c23c024f3"},"vehicle_type_id":"4","last_reported":1745352699,"current_range_meters":17200,"station_id":"ce4bhq12rcd13ifvqhig","pricing_plan_id":"cebpf4jnsgd1na2vs0mg"},{"bike_id":"2edc8615-adb9-4764-bba8-80b8c3bc3223","system_id":"levelo_inurba_marseille","lat":43.27169,"lon":5.40988,"is_reserved":false,"is_disabled":false,"rental_uris":{"android":"levelo://app?vid=2edc8615-adb9-4764-bba8-80b8c3bc3223","ios":"levelo://app?vid=2edc8615-adb9-4764-bba8-80b8c3bc3223"},"vehicle_type_id":"4","last_reported":1745352699,"current_range_meters":17600,"station_id":"ce4bhl12rcd13ifvqgf0","pricing_plan_id":"cebpf4jnsgd1na2vs0mg"},{"bike_id":"bc7666a4-a160-4d1b-87bc-1a26085ab181","system_id":"levelo_inurba_marseille","lat":43.285,"lon":5.38443,"is_reserved":false,"is_disabled":false,"rental_uris":{"android":"levelo://app?vid=bc7666a4-a160-4d1b-87bc-1a26085ab181","ios":"levelo://app?vid=bc7666a4-a160-4d1b-87bc-1a26085ab181"},"vehicle_type_id":"4","last_reported":1745352699,"current_range_meters":18000,"station_id":"ce4bh512rcd13ifvqe3g","pricing_plan_id":"cebpf4jnsgd1na2vs0mg"},{"bike_id":"319b73cf-ced5-4016-a621-739a21526b94","system_id":"levelo_inurba_marseille","lat":43.3228,"lon":5.38245,"is_reserved":false,"is_disabled":false,"rental_uris":{"android":"levelo://app?vid=319b73cf-ced5-4016-a621-739a21526b94","ios":"levelo://app?vid=319b73cf-ced5-4016-a621-739a21526b94"},"vehicle_type_id":"4","last_reported":1745352699,"current_range_meters":17600,"station_id":"ce4bhr12rcd13ifvqhqg","pricing_plan_id":"cebpf4jnsgd1na2vs0mg"},{"bike_id":"a1835b16-9e05-4b53-baf5-10eeb04320bb","system_id":"levelo_inurba_marseille","lat":43.28699,"lon":5.37401,"is_reserved":false,"is_disabled":true,"rental_uris":{"android":"levelo://app?vid=a1835b16-9e05-4b53-baf5-10eeb04320bb","ios":"levelo://app?vid=a1835b16-9e05-4b53-baf5-10eeb04320bb"},"vehicle_type_id":"4","last_reported":1745352699,"current_range_meters":18000,"station_id":"ce4bh3p2rcd13ifvqdq0","pricing_plan_id":"cebpf4jnsgd1na2vs0mg"},{"bike_id":"7b2dc864-a4e9-468c-9cee-f3075a20977d","system_id":"levelo_inurba_marseille","lat":43.31427,"lon":5.3739,"is_reserved":false,"is_disabled":false,"rental_uris":{"android":"levelo://app?vid=7b2dc864-a4e9-468c-9cee-f3075a20977d","ios":"levelo://app?vid=7b2dc864-a4e9-468c-9cee-f3075a20977d"},"vehicle_type_id":"4","last_reported":1745352699,"current_range_meters":18000,"station_id":"","pricing_plan_id":"cebpf4jnsgd1na2vs0mg"},{"bike_id":"fc3d2ab0-bdd4-4aaa-87b1-f549a28d510f","system_id":"levelo_inurba_marseille","lat":43.30321,"lon":5.40439,"is_reserved":false,"is_disabled":false,"rental_uris":{"android":"levelo://app?vid=fc3d2ab0-bdd4-4aaa-87b1-f549a28d510f","ios":"levelo://app?vid=fc3d2ab0-bdd4-4aaa-87b1-f549a28d510f"},"vehicle_type_id":"4","last_reported":1745352699,"current_range_meters":18000,"station_id":"ce4bh012rcd13ifvqd10","pricing_plan_id":"cebpf4jnsgd1na2vs0mg"},{"bike_id":"0529d891-2d9b-4d93-af79-27336fdd5c7e","system_id":"levelo_inurba_marseille","lat":43.28054,"lon":5.36943,"is_reserved":false,"is_disabled":false,"rental_uris":{"android":"levelo://app?vid=0529d891-2d9b-4d93-af79-27336fdd5c7e","ios":"levelo://app?vid=0529d891-2d9b-4d93-af79-27336fdd5c7e"},"vehicle_type_id":"4","last_reported":1745352699,"current_range_meters":18000,"station_id":"ce4bha12rcd13ifvqef0","pricing_plan_id":"cebpf4jnsgd1na2vs0mg"},{"bike_id":"e954e2cd-48db-49d5-b8c3-76c1dae8719a","system_id":"levelo_inurba_marseille","lat":43.31322,"lon":5.39697,"is_reserved":false,"is_disabled":false,"rental_uris":{"android":"levelo://app?vid=e954e2cd-48db-49d5-b8c3-76c1dae8719a","ios":"levelo://app?vid=e954e2cd-48db-49d5-b8c3-76c1dae8719a"},"vehicle_type_id":"4","last_reported":1745352699,"current_range_meters":18000,"station_id":"ce4bgvp2rcd13ifvqcu0","pricing_plan_id":"cebpf4jnsgd1na2vs0mg"},{"bike_id":"601f51a2-26f2-4128-9e8e-c630a77d295b","system_id":"levelo_inurba_marseille","lat":43.28465,"lon":5.35897,"is_reserved":false,"is_disabled":false,"rental_uris":{"android":"levelo://app?vid=601f51a2-26f2-4128-9e8e-c630a77d295b","ios":"levelo://app?vid=601f51a2-26f2-4128-9e8e-c630a77d295b"},"vehicle_type_id":"4","last_reported":1745352699,"current_range_meters":18000,"station_id":"ce4bhah2rcd13ifvqei0","pricing_plan_id":"cebpf4jnsgd1na2vs0mg"},{"bike_id":"e52263de-f4c1-4bfb-bf0f-4c29ad7553d6","system_id":"levelo_inurba_marseille","lat":43.33688,"lon":5.392034,"is_reserved":false,"is_disabled":false,"rental_uris":{"android":"levelo://app?vid=e52263de-f4c1-4bfb-bf0f-4c29ad7553d6","ios":"levelo://app?vid=e52263de-f4c1-4bfb-bf0f-4c29ad7553d6"},"vehicle_type_id":"4","last_reported":1745352699,"current_range_meters":18000,"station_id":"","pricing_plan_id":"cebpf4jnsgd1na2vs0mg"},{"bike_id":"d20e929c-75aa-460a-a593-efd1da3a752a","system_id":"levelo_inurba_marseille","lat":43.28079,"lon":5.39655,"is_reserved":false,"is_disabled":false,"rental_uris":{"android":"levelo://app?vid=d20e929c-75aa-460a-a593-efd1da3a752a","ios":"levelo://app?vid=d20e929c-75aa-460a-a593-efd1da3a752a"},"vehicle_type_id":"4","last_reported":1745352699,"current_range_meters":18000,"station_id":"ce4bho12rcd13ifvqh2g","pricing_plan_id":"cebpf4jnsgd1na2vs0mg"},{"bike_id":"a24962a5-f455-4c13-91da-db4f79c4f155","system_id":"levelo_inurba_marseille","lat":43.29526,"lon":5.39047,"is_reserved":false,"is_disabled":false,"rental_uris":{"android":"levelo://app?vid=a24962a5-f455-4c13-91da-db4f79c4f155","ios":"levelo://app?vid=a24962a5-f455-4c13-91da-db4f79c4f155"},"vehicle_type_id":"4","last_reported":1745352699,"current_range_meters":18000,"station_id":"ce4bh3p2rcd13ifvqdp0","pricing_plan_id":"cebpf4jnsgd1na2vs0mg"},{"bike_id":"b5d609bf-0c9b-49e3-9426-ce02cb8383b8","system_id":"levelo_inurba_marseille","lat":43.34156,"lon":5.40914,"is_reserved":false,"is_disabled":true,"rental_uris":{"android":"levelo://app?vid=b5d609bf-0c9b-49e3-9426-ce02cb8383b8","ios":"levelo://app?vid=b5d609bf-0c9b-49e3-9426-ce02cb8383b8"},"vehicle_type_id":"4","last_reported":1745352699,"current_range_meters":18800,"station_id":"ce4bhqh2rcd13ifvqhlg","pricing_plan_id":"cebpf4jnsgd1na2vs0mg"},{"bike_id":"553dda1c-949c-4d11-8340-925a19b94429","system_id":"levelo_inurba_marseille","lat":43.27815,"lon":5.40714,"is_reserved":false,"is_disabled":false,"rental_uris":{"android":"levelo://app?vid=553dda1c-949c-4d11-8340-925a19b94429","ios":"levelo://app?vid=553dda1c-949c-4d11-8340-925a19b94429"},"vehicle_type_id":"4","last_reported":1745352699,"current_range_meters":18800,"station_id":"ce4bhnh2rcd13ifvqgtg","pricing_plan_id":"cebpf4jnsgd1na2vs0mg"},{"bike_id":"52bf6fcb-f2fd-4886-896a-eef5683d542f","system_id":"levelo_inurba_marseille","lat":43.28615,"lon":5.35097,"is_reserved":false,"is_disabled":false,"rental_uris":{"android":"levelo://app?vid=52bf6fcb-f2fd-4886-896a-eef5683d542f","ios":"levelo://app?vid=52bf6fcb-f2fd-4886-896a-eef5683d542f"},"vehicle_type_id":"4","last_reported":1745352699,"current_range_meters":18800,"station_id":"ce4bhch2rcd13ifvqeug","pricing_plan_id":"cebpf4jnsgd1na2vs0mg"},{"bike_id":"3ab8cdcc-5253-49df-8c95-1020ea600ee3","system_id":"levelo_inurba_marseille","lat":43.297882,"lon":5.371016,"is_reserved":false,"is_disabled":false,"rental_uris":{"android":"levelo://app?vid=3ab8cdcc-5253-49df-8c95-1020ea600ee3","ios":"levelo://app?vid=3ab8cdcc-5253-49df-8c95-1020ea600ee3"},"vehicle_type_id":"4","last_reported":1745352699,"current_range_meters":18800,"station_id":"ce4bgl92rcd13ifvqbq0","pricing_plan_id":"cebpf4jnsgd1na2vs0mg"},{"bike_id":"78411ca9-678c-4127-91e1-f07e3bee6ff8","system_id":"levelo_inurba_marseille","lat":43.297109,"lon":5.397697,"is_reserved":false,"is_disabled":false,"rental_uris":{"android":"levelo://app?vid=78411ca9-678c-4127-91e1-f07e3bee6ff8","ios":"levelo://app?vid=78411ca9-678c-4127-91e1-f07e3bee6ff8"},"vehicle_type_id":"4","last_reported":1745352699,"current_range_meters":18800,"station_id":"ce4bh0h2rcd13ifvqd50","pricing_plan_id":"cebpf4jnsgd1na2vs0mg"},{"bike_id":"8685f803-9540-48b7-ada4-e11db8ff78f8","system_id":"levelo_inurba_marseille","lat":43.30143,"lon":5.39865,"is_reserved":false,"is_disabled":false,"rental_uris":{"android":"levelo://app?vid=8685f803-9540-48b7-ada4-e11db8ff78f8","ios":"levelo://app?vid=8685f803-9540-48b7-ada4-e11db8ff78f8"},"vehicle_type_id":"4","last_reported":1745352699,"current_range_meters":18800,"station_id":"ce4bh0h2rcd13ifvqd40","pricing_plan_id":"cebpf4jnsgd1na2vs0mg"},{"bike_id":"2f20e822-0a70-4928-9aa6-4b3727afe02f","system_id":"levelo_inurba_marseille","lat":43.29717,"lon":5.36619,"is_reserved":false,"is_disabled":true,"rental_uris":{"android":"levelo://app?vid=2f20e822-0a70-4928-9aa6-4b3727afe02f","ios":"levelo://app?vid=2f20e822-0a70-4928-9aa6-4b3727afe02f"},"vehicle_type_id":"4","last_reported":1745352699,"current_range_meters":18800,"station_id":"ce4bgn12rcd13ifvqbt0","pricing_plan_id":"cebpf4jnsgd1na2vs0mg"},{"bike_id":"4170ce52-6fe6-40c9-b8a4-3be5b864a335","system_id":"levelo_inurba_marseille","lat":43.310791,"lon":5.383476,"is_reserved":false,"is_disabled":false,"rental_uris":{"android":"levelo://app?vid=4170ce52-6fe6-40c9-b8a4-3be5b864a335","ios":"levelo://app?vid=4170ce52-6fe6-40c9-b8a4-3be5b864a335"},"vehicle_type_id":"4","last_reported":1745352699,"current_range_meters":18800,"station_id":"ce4bgv92rcd13ifvqcr0","pricing_plan_id":"cebpf4jnsgd1na2vs0mg"},{"bike_id":"b0370074-4005-41fe-9fe6-25d552f353af","system_id":"levelo_inurba_marseille","lat":43.2978,"lon":5.37103,"is_reserved":false,"is_disabled":false,"rental_uris":{"android":"levelo://app?vid=b0370074-4005-41fe-9fe6-25d552f353af","ios":"levelo://app?vid=b0370074-4005-41fe-9fe6-25d552f353af"},"vehicle_type_id":"4","last_reported":1745352699,"current_range_meters":18800,"station_id":"ce4bgop2rcd13ifvqc1g","pricing_plan_id":"cebpf4jnsgd1na2vs0mg"},{"bike_id":"3efed236-291b-4126-b6ae-09683e664526","system_id":"levelo_inurba_marseille","lat":43.29262,"lon":5.40902,"is_reserved":false,"is_disabled":false,"rental_uris":{"android":"levelo://app?vid=3efed236-291b-4126-b6ae-09683e664526","ios":"levelo://app?vid=3efed236-291b-4126-b6ae-09683e664526"},"vehicle_type_id":"4","last_reported":1745352699,"current_range_meters":18800,"station_id":"ce4bh192rcd13ifvqdc0","pricing_plan_id":"cebpf4jnsgd1na2vs0mg"},{"bike_id":"e9bfc791-d140-43b1-b0a3-c2737658d5de","system_id":"levelo_inurba_marseille","lat":43.22936,"lon":5.35382,"is_reserved":false,"is_disabled":false,"rental_uris":{"android":"levelo://app?vid=e9bfc791-d140-43b1-b0a3-c2737658d5de","ios":"levelo://app?vid=e9bfc791-d140-43b1-b0a3-c2737658d5de"},"vehicle_type_id":"4","last_reported":1745352699,"current_range_meters":19200,"station_id":"cpo3532slgdg3j2ikp40","pricing_plan_id":"cebpf4jnsgd1na2vs0mg"},{"bike_id":"a5588965-43f6-457c-a175-2d7ddf9f4595","system_id":"levelo_inurba_marseille","lat":43.31997,"lon":5.38153,"is_reserved":false,"is_disabled":false,"rental_uris":{"android":"levelo://app?vid=a5588965-43f6-457c-a175-2d7ddf9f4595","ios":"levelo://app?vid=a5588965-43f6-457c-a175-2d7ddf9f4595"},"vehicle_type_id":"4","last_reported":1745352699,"current_range_meters":19600,"station_id":"ce4bhr12rcd13ifvqhpg","pricing_plan_id":"cebpf4jnsgd1na2vs0mg"},{"bike_id":"fb8d2f81-984e-4aad-b200-ee43e29d4c7d","system_id":"levelo_inurba_marseille","lat":43.28032,"lon":5.36941,"is_reserved":false,"is_disabled":false,"rental_uris":{"android":"levelo://app?vid=fb8d2f81-984e-4aad-b200-ee43e29d4c7d","ios":"levelo://app?vid=fb8d2f81-984e-4aad-b200-ee43e29d4c7d"},"vehicle_type_id":"4","last_reported":1745352699,"current_range_meters":19200,"station_id":"ce4bha12rcd13ifvqef0","pricing_plan_id":"cebpf4jnsgd1na2vs0mg"},{"bike_id":"46374c49-3adc-4c5a-8966-e00f056c0d57","system_id":"levelo_inurba_marseille","lat":43.27846,"lon":5.35442,"is_reserved":false,"is_disabled":false,"rental_uris":{"android":"levelo://app?vid=46374c49-3adc-4c5a-8966-e00f056c0d57","ios":"levelo://app?vid=46374c49-3adc-4c5a-8966-e00f056c0d57"},"vehicle_type_id":"4","last_reported":1745352699,"current_range_meters":19600,"station_id":"","pricing_plan_id":"cebpf4jnsgd1na2vs0mg"},{"bike_id":"239a6419-3e2e-4895-abf7-a4328d11319e","system_id":"levelo_inurba_marseille","lat":43.30773,"lon":5.37648,"is_reserved":false,"is_disabled":false,"rental_uris":{"android":"levelo://app?vid=239a6419-3e2e-4895-abf7-a4328d11319e","ios":"levelo://app?vid=239a6419-3e2e-4895-abf7-a4328d11319e"},"vehicle_type_id":"4","last_reported":1745352699,"current_range_meters":19600,"station_id":"ce4bgv92rcd13ifvqcq0","pricing_plan_id":"cebpf4jnsgd1na2vs0mg"},{"bike_id":"d5e26789-4b3f-427d-ac2d-c442d3cbf1fb","system_id":"levelo_inurba_marseille","lat":43.284,"lon":5.3754,"is_reserved":false,"is_disabled":false,"rental_uris":{"android":"levelo://app?vid=d5e26789-4b3f-427d-ac2d-c442d3cbf1fb","ios":"levelo://app?vid=d5e26789-4b3f-427d-ac2d-c442d3cbf1fb"},"vehicle_type_id":"4","last_reported":1745352699,"current_range_meters":19600,"station_id":"ce4bh412rcd13ifvqds0","pricing_plan_id":"cebpf4jnsgd1na2vs0mg"},{"bike_id":"446c3b31-2788-4688-a240-56482e00aeba","system_id":"levelo_inurba_marseille","lat":43.30132,"lon":5.39858,"is_reserved":false,"is_disabled":false,"rental_uris":{"android":"levelo://app?vid=446c3b31-2788-4688-a240-56482e00aeba","ios":"levelo://app?vid=446c3b31-2788-4688-a240-56482e00aeba"},"vehicle_type_id":"4","last_reported":1745352699,"current_range_meters":19600,"station_id":"ce4bh0h2rcd13ifvqd40","pricing_plan_id":"cebpf4jnsgd1na2vs0mg"},{"bike_id":"4da3a0ea-4964-4d5a-91a1-51e09855f6c3","system_id":"levelo_inurba_marseille","lat":43.32637,"lon":5.4102,"is_reserved":false,"is_disabled":false,"rental_uris":{"android":"levelo://app?vid=4da3a0ea-4964-4d5a-91a1-51e09855f6c3","ios":"levelo://app?vid=4da3a0ea-4964-4d5a-91a1-51e09855f6c3"},"vehicle_type_id":"4","last_reported":1745352699,"current_range_meters":19600,"station_id":"ce4bhpp2rcd13ifvqhgg","pricing_plan_id":"cebpf4jnsgd1na2vs0mg"},{"bike_id":"634a3616-ccac-4462-b5ee-9c72516d63ee","system_id":"levelo_inurba_marseille","lat":43.288377,"lon":5.358425,"is_reserved":false,"is_disabled":false,"rental_uris":{"android":"levelo://app?vid=634a3616-ccac-4462-b5ee-9c72516d63ee","ios":"levelo://app?vid=634a3616-ccac-4462-b5ee-9c72516d63ee"},"vehicle_type_id":"4","last_reported":1745352699,"current_range_meters":20000,"station_id":"ce4bhb12rcd13ifvqem0","pricing_plan_id":"cebpf4jnsgd1na2vs0mg"},{"bike_id":"06a7d8fd-e91a-4bfc-90c7-ecd4ef537301","system_id":"levelo_inurba_marseille","lat":43.31326,"lon":5.39712,"is_reserved":false,"is_disabled":false,"rental_uris":{"android":"levelo://app?vid=06a7d8fd-e91a-4bfc-90c7-ecd4ef537301","ios":"levelo://app?vid=06a7d8fd-e91a-4bfc-90c7-ecd4ef537301"},"vehicle_type_id":"4","last_reported":1745352699,"current_range_meters":20000,"station_id":"ce4bgvp2rcd13ifvqcu0","pricing_plan_id":"cebpf4jnsgd1na2vs0mg"},{"bike_id":"52b69f7a-9560-44fc-a047-c946dc3d6077","system_id":"levelo_inurba_marseille","lat":43.29896,"lon":5.39737,"is_reserved":false,"is_disabled":false,"rental_uris":{"android":"levelo://app?vid=52b69f7a-9560-44fc-a047-c946dc3d6077","ios":"levelo://app?vid=52b69f7a-9560-44fc-a047-c946dc3d6077"},"vehicle_type_id":"4","last_reported":1745352699,"current_range_meters":20000,"station_id":"ce4bh0h2rcd13ifvqd50","pricing_plan_id":"cebpf4jnsgd1na2vs0mg"},{"bike_id":"bc7ff014-0aa7-491b-9064-252bdd5a5870","system_id":"levelo_inurba_marseille","lat":43.28854,"lon":5.35842,"is_reserved":false,"is_disabled":false,"rental_uris":{"android":"levelo://app?vid=bc7ff014-0aa7-491b-9064-252bdd5a5870","ios":"levelo://app?vid=bc7ff014-0aa7-491b-9064-252bdd5a5870"},"vehicle_type_id":"4","last_reported":1745352699,"current_range_meters":20000,"station_id":"ce4bhb12rcd13ifvqem0","pricing_plan_id":"cebpf4jnsgd1na2vs0mg"},{"bike_id":"25591650-a494-4d8a-9db1-4f31db76974a","system_id":"levelo_inurba_marseille","lat":43.30371,"lon":5.41901,"is_reserved":false,"is_disabled":false,"rental_uris":{"android":"levelo://app?vid=25591650-a494-4d8a-9db1-4f31db76974a","ios":"levelo://app?vid=25591650-a494-4d8a-9db1-4f31db76974a"},"vehicle_type_id":"4","last_reported":1745352699,"current_range_meters":20000,"station_id":"ce4bhop2rcd13ifvqh7g","pricing_plan_id":"cebpf4jnsgd1na2vs0mg"},{"bike_id":"9966e2c4-c438-4020-9570-af75c54f7699","system_id":"levelo_inurba_marseille","lat":43.25122,"lon":5.4031,"is_reserved":false,"is_disabled":false,"rental_uris":{"android":"levelo://app?vid=9966e2c4-c438-4020-9570-af75c54f7699","ios":"levelo://app?vid=9966e2c4-c438-4020-9570-af75c54f7699"},"vehicle_type_id":"4","last_reported":1745352699,"current_range_meters":20000,"station_id":"ce4bhlh2rcd13ifvqgig","pricing_plan_id":"cebpf4jnsgd1na2vs0mg"},{"bike_id":"6c0c09fa-9fff-4447-83dd-386cfd7509c5","system_id":"levelo_inurba_marseille","lat":43.29028,"lon":5.38648,"is_reserved":false,"is_disabled":false,"rental_uris":{"android":"levelo://app?vid=6c0c09fa-9fff-4447-83dd-386cfd7509c5","ios":"levelo://app?vid=6c0c09fa-9fff-4447-83dd-386cfd7509c5"},"vehicle_type_id":"4","last_reported":1745352699,"current_range_meters":20000,"station_id":"ce4bh4p2rcd13ifvqe0g","pricing_plan_id":"cebpf4jnsgd1na2vs0mg"},{"bike_id":"b244cdd7-891e-41d3-bbdf-d6e3de24d190","system_id":"levelo_inurba_marseille","lat":43.29192,"lon":5.35771,"is_reserved":false,"is_disabled":true,"rental_uris":{"android":"levelo://app?vid=b244cdd7-891e-41d3-bbdf-d6e3de24d190","ios":"levelo://app?vid=b244cdd7-891e-41d3-bbdf-d6e3de24d190"},"vehicle_type_id":"4","last_reported":1745352699,"current_range_meters":20400,"station_id":"ce4bhb12rcd13ifvqel0","pricing_plan_id":"cebpf4jnsgd1na2vs0mg"},{"bike_id":"9bd24143-7046-472c-b30c-fa7808af552e","system_id":"levelo_inurba_marseille","lat":43.28714,"lon":5.3615,"is_reserved":false,"is_disabled":false,"rental_uris":{"android":"levelo://app?vid=9bd24143-7046-472c-b30c-fa7808af552e","ios":"levelo://app?vid=9bd24143-7046-472c-b30c-fa7808af552e"},"vehicle_type_id":"4","last_reported":1745352699,"current_range_meters":20400,"station_id":"cki0cbj6b192h4jlfktg","pricing_plan_id":"cebpf4jnsgd1na2vs0mg"},{"bike_id":"dc0a47a3-e95c-4b5c-91ea-602c9dce4fa5","system_id":"levelo_inurba_marseille","lat":43.2321,"lon":5.39965,"is_reserved":false,"is_disabled":false,"rental_uris":{"android":"levelo://app?vid=dc0a47a3-e95c-4b5c-91ea-602c9dce4fa5","ios":"levelo://app?vid=dc0a47a3-e95c-4b5c-91ea-602c9dce4fa5"},"vehicle_type_id":"4","last_reported":1745352699,"current_range_meters":20400,"station_id":"ce4bhn12rcd13ifvqgqg","pricing_plan_id":"cebpf4jnsgd1na2vs0mg"},{"bike_id":"2c210749-934e-4075-8f69-64b44da87771","system_id":"levelo_inurba_marseille","lat":43.30317,"lon":5.39218,"is_reserved":false,"is_disabled":true,"rental_uris":{"android":"levelo://app?vid=2c210749-934e-4075-8f69-64b44da87771","ios":"levelo://app?vid=2c210749-934e-4075-8f69-64b44da87771"},"vehicle_type_id":"4","last_reported":1745352699,"current_range_meters":20400,"station_id":"ce4bgkh2rcd13ifvqbk0","pricing_plan_id":"cebpf4jnsgd1na2vs0mg"},{"bike_id":"f14e05df-6b48-48e9-a4b2-0a922790be98","system_id":"levelo_inurba_marseille","lat":43.29267,"lon":5.36842,"is_reserved":false,"is_disabled":true,"rental_uris":{"android":"levelo://app?vid=f14e05df-6b48-48e9-a4b2-0a922790be98","ios":"levelo://app?vid=f14e05df-6b48-48e9-a4b2-0a922790be98"},"vehicle_type_id":"4","last_reported":1745352699,"current_range_meters":20400,"station_id":"ce4bhbp2rcd13ifvqesg","pricing_plan_id":"cebpf4jnsgd1na2vs0mg"},{"bike_id":"fff8421f-1be9-4530-b6dc-ade24ab09bb2","system_id":"levelo_inurba_marseille","lat":43.28728,"lon":5.36077,"is_reserved":false,"is_disabled":false,"rental_uris":{"android":"levelo://app?vid=fff8421f-1be9-4530-b6dc-ade24ab09bb2","ios":"levelo://app?vid=fff8421f-1be9-4530-b6dc-ade24ab09bb2"},"vehicle_type_id":"4","last_reported":1745352699,"current_range_meters":20400,"station_id":"cki0cbj6b192h4jlfktg","pricing_plan_id":"cebpf4jnsgd1na2vs0mg"},{"bike_id":"fa1b8df1-200a-4ca6-b142-7dbd04e3329c","system_id":"levelo_inurba_marseille","lat":43.29271,"lon":5.38438,"is_reserved":false,"is_disabled":false,"rental_uris":{"android":"levelo://app?vid=fa1b8df1-200a-4ca6-b142-7dbd04e3329c","ios":"levelo://app?vid=fa1b8df1-200a-4ca6-b142-7dbd04e3329c"},"vehicle_type_id":"4","last_reported":1745352699,"current_range_meters":20400,"station_id":"ce4bh692rcd13ifvqea0","pricing_plan_id":"cebpf4jnsgd1na2vs0mg"},{"bike_id":"2cd35bb3-f0e9-414f-b226-4923242f161c","system_id":"levelo_inurba_marseille","lat":43.28077,"lon":5.39653,"is_reserved":false,"is_disabled":false,"rental_uris":{"android":"levelo://app?vid=2cd35bb3-f0e9-414f-b226-4923242f161c","ios":"levelo://app?vid=2cd35bb3-f0e9-414f-b226-4923242f161c"},"vehicle_type_id":"4","last_reported":1745352699,"current_range_meters":20400,"station_id":"ce4bho12rcd13ifvqh2g","pricing_plan_id":"cebpf4jnsgd1na2vs0mg"},{"bike_id":"f0e73378-0ff3-49b6-a925-f8d02dfbf622","system_id":"levelo_inurba_marseille","lat":43.24662,"lon":5.38165,"is_reserved":false,"is_disabled":false,"rental_uris":{"android":"levelo://app?vid=f0e73378-0ff3-49b6-a925-f8d02dfbf622","ios":"levelo://app?vid=f0e73378-0ff3-49b6-a925-f8d02dfbf622"},"vehicle_type_id":"4","last_reported":1745352699,"current_range_meters":20400,"station_id":"ce4bhih2rcd13ifvqfr0","pricing_plan_id":"cebpf4jnsgd1na2vs0mg"},{"bike_id":"6684d717-5a53-4e9c-b416-bdbb41f90363","system_id":"levelo_inurba_marseille","lat":43.25177,"lon":5.37559,"is_reserved":false,"is_disabled":false,"rental_uris":{"android":"levelo://app?vid=6684d717-5a53-4e9c-b416-bdbb41f90363","ios":"levelo://app?vid=6684d717-5a53-4e9c-b416-bdbb41f90363"},"vehicle_type_id":"4","last_reported":1745352699,"current_range_meters":20800,"station_id":"","pricing_plan_id":"cebpf4jnsgd1na2vs0mg"},{"bike_id":"d765f6ff-5fec-4472-81a2-f1942b67ca90","system_id":"levelo_inurba_marseille","lat":43.30325,"lon":5.40434,"is_reserved":false,"is_disabled":false,"rental_uris":{"android":"levelo://app?vid=d765f6ff-5fec-4472-81a2-f1942b67ca90","ios":"levelo://app?vid=d765f6ff-5fec-4472-81a2-f1942b67ca90"},