{"last_updated":1747920306,"ttl":60,"version":"2.2","data":{"bikes":[{"bike_id":"c0b9fd4f-e181-46ce-b0bf-f5119973334f","system_id":"levelo_inurba_marseille","lat":43.33771,"lon":5.37424,"is_reserved":false,"is_disabled":true,"rental_uris":{"android":"levelo://app?vid=c0b9fd4f-e181-46ce-b0bf-f5119973334f","ios":"levelo://app?vid=c0b9fd4f-e181-46ce-b0bf-f5119973334f"},"vehicle_type_id":"4","last_reported":1747920306,"current_range_meters":0,"station_id":"","pricing_plan_id":"cebpf4jnsgd1na2vs0mg"},{"bike_id":"99f73d8c-ff21-451c-8082-80384eaeabfc","system_id":"levelo_inurba_marseille","lat":43.305591,"lon":5.401547,"is_reserved":false,"is_disabled":true,"rental_uris":{"android":"levelo://app?vid=99f73d8c-ff21-451c-8082-80384eaeabfc","ios":"levelo://app?vid=99f73d8c-ff21-451c-8082-80384eaeabfc"},"vehicle_type_id":"4","last_reported":1747920306,"current_range_meters":0,"station_id":"","pricing_plan_id":"cebpf4jnsgd1na2vs0mg"},{"bike_id":"c306fa7d-481e-4ae3-9585-ff4c1f5ddcb9","system_id":"levelo_inurba_marseille","lat":43.34949,"lon":5.37913,"is_reserved":false,"is_disabled":true,"rental_uris":{"android":"levelo://app?vid=c306fa7d-481e-4ae3-9585-ff4c1f5ddcb9","ios":"levelo://app?vid=c306fa7d-481e-4ae3-9585-ff4c1f5ddcb9"},"vehicle_type_id":"4","last_reported":1747920306,"current_range_meters":0,"station_id":"","pricing_plan_id":"cebpf4jnsgd1na2vs0mg"},{"bike_id":"c2b4a03e-0b64-4ca0-8ea3-612bc6668100","system_id":"levelo_inurba_marseille","lat":43.31407,"lon":5.37576,"is_reserved":false,"is_disabled":true,"rental_uris":{"android":"levelo://app?vid=c2b4a03e-0b64-4ca0-8ea3-612bc6668100","ios":"levelo://app?vid=c2b4a03e-0b64-4ca0-8ea3-612bc6668100"},"vehicle_type_id":"4","last_reported":1747920306,"current_range_meters":0,"station_id":"","pricing_plan_id":"cebpf4jnsgd1na2vs0mg"},{"bike_id":"8f0f531d-6a65-4647-8a6f-baa3d982f42f","system_id":"levelo_inurba_marseille","lat":43.28109,"lon":5.42614,"is_reserved":false,"is_disabled":true,"rental_uris":{"android":"levelo://app?vid=8f0f531d-6a65-4647-8a6f-baa3d982f42f","ios":"levelo://app?vid=8f0f531d-6a65-4647-8a6f-baa3d982f42f"},"vehicle_type_id":"4","last_reported":1747920306,"current_range_meters":0,"station_id":"","pricing_plan_id":"cebpf4jnsgd1na2vs0mg"},{"bike_id":"355afe86-9952-44b7-b67d-2ee2e6e28c19","system_id":"levelo_inurba_marseille","lat":43.295405,"lon":5.374945,"is_reserved":false,"is_disabled":true,"rental_uris":{"android":"levelo://app?vid=355afe86-9952-44b7-b67d-2ee2e6e28c19","ios":"levelo://app?vid=355afe86-9952-44b7-b67d-2ee2e6e28c19"},"vehicle_type_id":"4","last_reported":1747920306,"current_range_meters":0,"station_id":"","pricing_plan_id":"cebpf4jnsgd1na2vs0mg"},{"bike_id":"70c5c5ad-5e66-4a49-9450-c4d67d96b788","system_id":"levelo_inurba_marseille","lat":43.2708,"lon":5.42699,"is_reserved":false,"is_disabled":true,"rental_uris":{"android":"levelo://app?vid=70c5c5ad-5e66-4a49-9450-c4d67d96b788","ios":"levelo://app?vid=70c5c5ad-5e66-4a49-9450-c4d67d96b788"},"vehicle_type_id":"4","last_reported":1747920306,"current_range_meters":0,"station_id":"","pricing_plan_id":"cebpf4jnsgd1na2vs0mg"},{"bike_id":"e9dd3aa4-b5e7-4480-926d-d7f537719bfa","system_id":"levelo_inurba_marseille","lat":43.230331,"lon":5.401847,"is_reserved":false,"is_disabled":true,"rental_uris":{"android":"levelo://app?vid=e9dd3aa4-b5e7-4480-926d-d7f537719bfa","ios":"levelo://app?vid=e9dd3aa4-b5e7-4480-926d-d7f537719bfa"},"vehicle_type_id":"4","last_reported":1747920306,"current_range_meters":0,"station_id":"","pricing_plan_id":"cebpf4jnsgd1na2vs0mg"},{"bike_id":"14603e41-b2dd-4757-a53c-2e366aa4f983","system_id":"levelo_inurba_marseille","lat":43.26998,"lon":5.42833,"is_reserved":false,"is_disabled":true,"rental_uris":{"android":"levelo://app?vid=14603e41-b2dd-4757-a53c-2e366aa4f983","ios":"levelo://app?vid=14603e41-b2dd-4757-a53c-2e366aa4f983"},"vehicle_type_id":"4","last_reported":1747920306,"current_range_meters":0,"station_id":"","pricing_plan_id":"cebpf4jnsgd1na2vs0mg"},{"bike_id":"c7affdfe-ecd2-480a-ab0d-274ff7309f29","system_id":"levelo_inurba_marseille","lat":43.29073,"lon":5.37171,"is_reserved":false,"is_disabled":true,"rental_uris":{"android":"levelo://app?vid=c7affdfe-ecd2-480a-ab0d-274ff7309f29","ios":"levelo://app?vid=c7affdfe-ecd2-480a-ab0d-274ff7309f29"},"vehicle_type_id":"4","last_reported":1747920306,"current_range_meters":0,"station_id":"ce4bh5p2rcd13ifvqe4g","pricing_plan_id":"cebpf4jnsgd1na2vs0mg"},{"bike_id":"28f5641c-3b88-45e6-8a4e-c4db2aff452a","system_id":"levelo_inurba_marseille","lat":43.28027,"lon":5.36945,"is_reserved":false,"is_disabled":true,"rental_uris":{"android":"levelo://app?vid=28f5641c-3b88-45e6-8a4e-c4db2aff452a","ios":"levelo://app?vid=28f5641c-3b88-45e6-8a4e-c4db2aff452a"},"vehicle_type_id":"4","last_reported":1747920306,"current_range_meters":0,"station_id":"ce4bha12rcd13ifvqef0","pricing_plan_id":"cebpf4jnsgd1na2vs0mg"},{"bike_id":"52c94fc7-3ab6-4eb1-acc1-dd9a3446901a","system_id":"levelo_inurba_marseille","lat":43.28264,"lon":5.35065,"is_reserved":false,"is_disabled":true,"rental_uris":{"android":"levelo://app?vid=52c94fc7-3ab6-4eb1-acc1-dd9a3446901a","ios":"levelo://app?vid=52c94fc7-3ab6-4eb1-acc1-dd9a3446901a"},"vehicle_type_id":"4","last_reported":1747920306,"current_range_meters":0,"station_id":"ce4bhbp2rcd13ifvqerg","pricing_plan_id":"cebpf4jnsgd1na2vs0mg"},{"bike_id":"9913adaa-d53d-44af-8cc0-e1c41d052752","system_id":"levelo_inurba_marseille","lat":43.27956,"lon":5.38708,"is_reserved":false,"is_disabled":true,"rental_uris":{"android":"levelo://app?vid=9913adaa-d53d-44af-8cc0-e1c41d052752","ios":"levelo://app?vid=9913adaa-d53d-44af-8cc0-e1c41d052752"},"vehicle_type_id":"4","last_reported":1747920306,"current_range_meters":0,"station_id":"ce4bhg12rcd13ifvqf80","pricing_plan_id":"cebpf4jnsgd1na2vs0mg"},{"bike_id":"492b3e01-94b4-479c-9fcc-068974b23c2d","system_id":"levelo_inurba_marseille","lat":43.2559,"lon":5.38248,"is_reserved":false,"is_disabled":true,"rental_uris":{"android":"levelo://app?vid=492b3e01-94b4-479c-9fcc-068974b23c2d","ios":"levelo://app?vid=492b3e01-94b4-479c-9fcc-068974b23c2d"},"vehicle_type_id":"4","last_reported":1747920306,"current_range_meters":0,"station_id":"ce4bhih2rcd13ifvqfs0","pricing_plan_id":"cebpf4jnsgd1na2vs0mg"},{"bike_id":"6370a696-239f-4994-b8e2-75747d97f22b","system_id":"levelo_inurba_marseille","lat":43.25116,"lon":5.39528,"is_reserved":false,"is_disabled":true,"rental_uris":{"android":"levelo://app?vid=6370a696-239f-4994-b8e2-75747d97f22b","ios":"levelo://app?vid=6370a696-239f-4994-b8e2-75747d97f22b"},"vehicle_type_id":"4","last_reported":1747920306,"current_range_meters":0,"station_id":"ce4bhm12rcd13ifvqgkg","pricing_plan_id":"cebpf4jnsgd1na2vs0mg"},{"bike_id":"b8530293-f35c-4cb4-885f-720c113d23a6","system_id":"levelo_inurba_marseille","lat":43.25077,"lon":5.39527,"is_reserved":false,"is_disabled":true,"rental_uris":{"android":"levelo://app?vid=b8530293-f35c-4cb4-885f-720c113d23a6","ios":"levelo://app?vid=b8530293-f35c-4cb4-885f-720c113d23a6"},"vehicle_type_id":"4","last_reported":1747920306,"current_range_meters":0,"station_id":"ce4bhm12rcd13ifvqgkg","pricing_plan_id":"cebpf4jnsgd1na2vs0mg"},{"bike_id":"d631aa88-7f0e-4246-8847-478536b6d58b","system_id":"levelo_inurba_marseille","lat":43.25931,"lon":5.40918,"is_reserved":false,"is_disabled":true,"rental_uris":{"android":"levelo://app?vid=d631aa88-7f0e-4246-8847-478536b6d58b","ios":"levelo://app?vid=d631aa88-7f0e-4246-8847-478536b6d58b"},"vehicle_type_id":"4","last_reported":1747920306,"current_range_meters":0,"station_id":"ce4bhm92rcd13ifvqglg","pricing_plan_id":"cebpf4jnsgd1na2vs0mg"},{"bike_id":"20bee342-4a3f-4f34-940d-bb6cf00d52ae","system_id":"levelo_inurba_marseille","lat":43.25934,"lon":5.40925,"is_reserved":false,"is_disabled":true,"rental_uris":{"android":"levelo://app?vid=20bee342-4a3f-4f34-940d-bb6cf00d52ae","ios":"levelo://app?vid=20bee342-4a3f-4f34-940d-bb6cf00d52ae"},"vehicle_type_id":"4","last_reported":1747920306,"current_range_meters":0,"station_id":"ce4bhm92rcd13ifvqglg","pricing_plan_id":"cebpf4jnsgd1na2vs0mg"},{"bike_id":"e6443527-757d-4b43-946e-ae12740f228a","system_id":"levelo_inurba_marseille","lat":43.29897,"lon":5.43672,"is_reserved":false,"is_disabled":true,"rental_uris":{"android":"levelo://app?vid=e6443527-757d-4b43-946e-ae12740f228a","ios":"levelo://app?vid=e6443527-757d-4b43-946e-ae12740f228a"},"vehicle_type_id":"4","last_reported":1747920306,"current_range_meters":0,"station_id":"ce4bhpp2rcd13ifvqhfg","pricing_plan_id":"cebpf4jnsgd1na2vs0mg"},{"bike_id":"56ae3812-e361-4564-b157-4dc0683e3b6f","system_id":"levelo_inurba_marseille","lat":43.26572,"lon":5.39017,"is_reserved":false,"is_disabled":true,"rental_uris":{"android":"levelo://app?vid=56ae3812-e361-4564-b157-4dc0683e3b6f","ios":"levelo://app?vid=56ae3812-e361-4564-b157-4dc0683e3b6f"},"vehicle_type_id":"4","last_reported":1747920306,"current_range_meters":400,"station_id":"ce4bhe12rcd13ifvqf30","pricing_plan_id":"cebpf4jnsgd1na2vs0mg"},{"bike_id":"7650a227-739c-4ff6-9b95-bdc9ebc80080","system_id":"levelo_inurba_marseille","lat":43.279,"lon":5.38011,"is_reserved":false,"is_disabled":true,"rental_uris":{"android":"levelo://app?vid=7650a227-739c-4ff6-9b95-bdc9ebc80080","ios":"levelo://app?vid=7650a227-739c-4ff6-9b95-bdc9ebc80080"},"vehicle_type_id":"4","last_reported":1747920306,"current_range_meters":400,"station_id":"ce4bhf92rcd13ifvqf50","pricing_plan_id":"cebpf4jnsgd1na2vs0mg"},{"bike_id":"8c16412f-000a-4d05-ae03-fe945c1764e6","system_id":"levelo_inurba_marseille","lat":43.26804,"lon":5.40265,"is_reserved":false,"is_disabled":true,"rental_uris":{"android":"levelo://app?vid=8c16412f-000a-4d05-ae03-fe945c1764e6","ios":"levelo://app?vid=8c16412f-000a-4d05-ae03-fe945c1764e6"},"vehicle_type_id":"4","last_reported":1747920306,"current_range_meters":400,"station_id":"ce501612rcd8frsf0b60","pricing_plan_id":"cebpf4jnsgd1na2vs0mg"},{"bike_id":"6717570a-c9ea-4337-9f01-be7be6237ebe","system_id":"levelo_inurba_marseille","lat":43.30002,"lon":5.38558,"is_reserved":false,"is_disabled":true,"rental_uris":{"android":"levelo://app?vid=6717570a-c9ea-4337-9f01-be7be6237ebe","ios":"levelo://app?vid=6717570a-c9ea-4337-9f01-be7be6237ebe"},"vehicle_type_id":"4","last_reported":1747920306,"current_range_meters":800,"station_id":"","pricing_plan_id":"cebpf4jnsgd1na2vs0mg"},{"bike_id":"5281ff50-15a3-4882-a775-51088d6a98cc","system_id":"levelo_inurba_marseille","lat":43.31549,"lon":5.36994,"is_reserved":false,"is_disabled":true,"rental_uris":{"android":"levelo://app?vid=5281ff50-15a3-4882-a775-51088d6a98cc","ios":"levelo://app?vid=5281ff50-15a3-4882-a775-51088d6a98cc"},"vehicle_type_id":"4","last_reported":1747920306,"current_range_meters":800,"station_id":"","pricing_plan_id":"cebpf4jnsgd1na2vs0mg"},{"bike_id":"15dcdbbd-a41e-43eb-9ed6-26ec15ce7a50","system_id":"levelo_inurba_marseille","lat":43.21413,"lon":5.34108,"is_reserved":false,"is_disabled":true,"rental_uris":{"android":"levelo://app?vid=15dcdbbd-a41e-43eb-9ed6-26ec15ce7a50","ios":"levelo://app?vid=15dcdbbd-a41e-43eb-9ed6-26ec15ce7a50"},"vehicle_type_id":"4","last_reported":1747920306,"current_range_meters":800,"station_id":"","pricing_plan_id":"cebpf4jnsgd1na2vs0mg"},{"bike_id":"bc4f0aca-ca4c-4c81-97a4-84cf27882b90","system_id":"levelo_inurba_marseille","lat":43.262143,"lon":5.374393,"is_reserved":false,"is_disabled":true,"rental_uris":{"android":"levelo://app?vid=bc4f0aca-ca4c-4c81-97a4-84cf27882b90","ios":"levelo://app?vid=bc4f0aca-ca4c-4c81-97a4-84cf27882b90"},"vehicle_type_id":"4","last_reported":1747920306,"current_range_meters":1200,"station_id":"ce4bhgp2rcd13ifvqfc0","pricing_plan_id":"cebpf4jnsgd1na2vs0mg"},{"bike_id":"93d57386-132b-4c4e-9e4f-544682924965","system_id":"levelo_inurba_marseille","lat":43.26788,"lon":5.394175,"is_reserved":false,"is_disabled":true,"rental_uris":{"android":"levelo://app?vid=93d57386-132b-4c4e-9e4f-544682924965","ios":"levelo://app?vid=93d57386-132b-4c4e-9e4f-544682924965"},"vehicle_type_id":"4","last_reported":1747920306,"current_range_meters":1200,"station_id":"ce4bhh12rcd13ifvqfg0","pricing_plan_id":"cebpf4jnsgd1na2vs0mg"},{"bike_id":"04a18a29-7f80-4050-a953-de6cbe2ec780","system_id":"levelo_inurba_marseille","lat":43.27218,"lon":5.39189,"is_reserved":false,"is_disabled":true,"rental_uris":{"android":"levelo://app?vid=04a18a29-7f80-4050-a953-de6cbe2ec780","ios":"levelo://app?vid=04a18a29-7f80-4050-a953-de6cbe2ec780"},"vehicle_type_id":"4","last_reported":1747920306,"current_range_meters":1200,"station_id":"ce4bhhp2rcd13ifvqfm0","pricing_plan_id":"cebpf4jnsgd1na2vs0mg"},{"bike_id":"b39b5564-25b6-482c-a8ed-75595ba2f676","system_id":"levelo_inurba_marseille","lat":43.271013,"lon":5.42343,"is_reserved":false,"is_disabled":true,"rental_uris":{"android":"levelo://app?vid=b39b5564-25b6-482c-a8ed-75595ba2f676","ios":"levelo://app?vid=b39b5564-25b6-482c-a8ed-75595ba2f676"},"vehicle_type_id":"4","last_reported":1747920306,"current_range_meters":1200,"station_id":"ce4bhk92rcd13ifvqgb0","pricing_plan_id":"cebpf4jnsgd1na2vs0mg"},{"bike_id":"80629a02-9b76-4c16-8f31-441fc5220c0e","system_id":"levelo_inurba_marseille","lat":43.25004,"lon":5.38932,"is_reserved":false,"is_disabled":true,"rental_uris":{"android":"levelo://app?vid=80629a02-9b76-4c16-8f31-441fc5220c0e","ios":"levelo://app?vid=80629a02-9b76-4c16-8f31-441fc5220c0e"},"vehicle_type_id":"4","last_reported":1747920306,"current_range_meters":1600,"station_id":"ce4bhgp2rcd13ifvqfd0","pricing_plan_id":"cebpf4jnsgd1na2vs0mg"},{"bike_id":"bea239ec-65a6-40ae-80b8-fb67e616d573","system_id":"levelo_inurba_marseille","lat":43.274059,"lon":5.407454,"is_reserved":false,"is_disabled":true,"rental_uris":{"android":"levelo://app?vid=bea239ec-65a6-40ae-80b8-fb67e616d573","ios":"levelo://app?vid=bea239ec-65a6-40ae-80b8-fb67e616d573"},"vehicle_type_id":"4","last_reported":1747920306,"current_range_meters":1600,"station_id":"ce4bhh12rcd13ifvqfg0","pricing_plan_id":"cebpf4jnsgd1na2vs0mg"},{"bike_id":"addacb63-eaa1-4b88-b2d5-f495030c26ce","system_id":"levelo_inurba_marseille","lat":43.23151,"lon":5.4372,"is_reserved":false,"is_disabled":true,"rental_uris":{"android":"levelo://app?vid=addacb63-eaa1-4b88-b2d5-f495030c26ce","ios":"levelo://app?vid=addacb63-eaa1-4b88-b2d5-f495030c26ce"},"vehicle_type_id":"4","last_reported":1747920306,"current_range_meters":1600,"station_id":"ce4bhmp2rcd13ifvqgog","pricing_plan_id":"cebpf4jnsgd1na2vs0mg"},{"bike_id":"16347b3a-da6f-466c-892a-3d1d6a18d33c","system_id":"levelo_inurba_marseille","lat":43.287223,"lon":5.3609,"is_reserved":false,"is_disabled":true,"rental_uris":{"android":"levelo://app?vid=16347b3a-da6f-466c-892a-3d1d6a18d33c","ios":"levelo://app?vid=16347b3a-da6f-466c-892a-3d1d6a18d33c"},"vehicle_type_id":"4","last_reported":1747920306,"current_range_meters":1600,"station_id":"cki0cbj6b192h4jlfktg","pricing_plan_id":"cebpf4jnsgd1na2vs0mg"},{"bike_id":"f59358dd-8069-4dd4-b094-3ee016c20e17","system_id":"levelo_inurba_marseille","lat":43.30205,"lon":5.36622,"is_reserved":false,"is_disabled":true,"rental_uris":{"android":"levelo://app?vid=f59358dd-8069-4dd4-b094-3ee016c20e17","ios":"levelo://app?vid=f59358dd-8069-4dd4-b094-3ee016c20e17"},"vehicle_type_id":"4","last_reported":1747920306,"current_range_meters":2000,"station_id":"ce4bgrh2rcd13ifvqc8g","pricing_plan_id":"cebpf4jnsgd1na2vs0mg"},{"bike_id":"ca1ef42c-a88e-4a5c-bdc1-61570156b583","system_id":"levelo_inurba_marseille","lat":43.2314,"lon":5.43728,"is_reserved":false,"is_disabled":true,"rental_uris":{"android":"levelo://app?vid=ca1ef42c-a88e-4a5c-bdc1-61570156b583","ios":"levelo://app?vid=ca1ef42c-a88e-4a5c-bdc1-61570156b583"},"vehicle_type_id":"4","last_reported":1747920306,"current_range_meters":2000,"station_id":"ce4bhmp2rcd13ifvqgog","pricing_plan_id":"cebpf4jnsgd1na2vs0mg"},{"bike_id":"d9180345-c606-4400-b8ec-f5385573604a","system_id":"levelo_inurba_marseille","lat":43.25583,"lon":5.38228,"is_reserved":false,"is_disabled":false,"rental_uris":{"android":"levelo://app?vid=d9180345-c606-4400-b8ec-f5385573604a","ios":"levelo://app?vid=d9180345-c606-4400-b8ec-f5385573604a"},"vehicle_type_id":"4","last_reported":1747920306,"current_range_meters":2800,"station_id":"ce4bhih2rcd13ifvqfs0","pricing_plan_id":"cebpf4jnsgd1na2vs0mg"},{"bike_id":"b8b511c7-6f48-45be-97af-1e0036b54cc5","system_id":"levelo_inurba_marseille","lat":43.27387,"lon":5.42357,"is_reserved":false,"is_disabled":false,"rental_uris":{"android":"levelo://app?vid=b8b511c7-6f48-45be-97af-1e0036b54cc5","ios":"levelo://app?vid=b8b511c7-6f48-45be-97af-1e0036b54cc5"},"vehicle_type_id":"4","last_reported":1747920306,"current_range_meters":3200,"station_id":"","pricing_plan_id":"cebpf4jnsgd1na2vs0mg"},{"bike_id":"aaa6f3f5-67b4-4ad0-a92e-c4cf164d36c4","system_id":"levelo_inurba_marseille","lat":43.25132,"lon":5.40344,"is_reserved":false,"is_disabled":false,"rental_uris":{"android":"levelo://app?vid=aaa6f3f5-67b4-4ad0-a92e-c4cf164d36c4","ios":"levelo://app?vid=aaa6f3f5-67b4-4ad0-a92e-c4cf164d36c4"},"vehicle_type_id":"4","last_reported":1747920306,"current_range_meters":3200,"station_id":"ce4bhlh2rcd13ifvqgig","pricing_plan_id":"cebpf4jnsgd1na2vs0mg"},{"bike_id":"e8162579-a5ad-485f-ad83-fec8a2ebe7e1","system_id":"levelo_inurba_marseille","lat":43.26826,"lon":5.39099,"is_reserved":false,"is_disabled":false,"rental_uris":{"android":"levelo://app?vid=e8162579-a5ad-485f-ad83-fec8a2ebe7e1","ios":"levelo://app?vid=e8162579-a5ad-485f-ad83-fec8a2ebe7e1"},"vehicle_type_id":"4","last_reported":1747920306,"current_range_meters":3600,"station_id":"","pricing_plan_id":"cebpf4jnsgd1na2vs0mg"},{"bike_id":"cf6a7fe6-9ce3-465c-abc1-19f4bd515959","system_id":"levelo_inurba_marseille","lat":43.30893,"lon":5.39654,"is_reserved":false,"is_disabled":false,"rental_uris":{"android":"levelo://app?vid=cf6a7fe6-9ce3-465c-abc1-19f4bd515959","ios":"levelo://app?vid=cf6a7fe6-9ce3-465c-abc1-19f4bd515959"},"vehicle_type_id":"4","last_reported":1747920306,"current_range_meters":3600,"station_id":"ce4bh012rcd13ifvqcv0","pricing_plan_id":"cebpf4jnsgd1na2vs0mg"},{"bike_id":"1ff4dd87-bf56-4ab1-8365-aad71fcb827c","system_id":"levelo_inurba_marseille","lat":43.32678,"lon":5.42543,"is_reserved":false,"is_disabled":false,"rental_uris":{"android":"levelo://app?vid=1ff4dd87-bf56-4ab1-8365-aad71fcb827c","ios":"levelo://app?vid=1ff4dd87-bf56-4ab1-8365-aad71fcb827c"},"vehicle_type_id":"4","last_reported":1747920306,"current_range_meters":4000,"station_id":"","pricing_plan_id":"cebpf4jnsgd1na2vs0mg"},{"bike_id":"ebe1c4f5-f154-44f9-b1d4-0b7c8a38d46d","system_id":"levelo_inurba_marseille","lat":43.2512,"lon":5.40318,"is_reserved":false,"is_disabled":false,"rental_uris":{"android":"levelo://app?vid=ebe1c4f5-f154-44f9-b1d4-0b7c8a38d46d","ios":"levelo://app?vid=ebe1c4f5-f154-44f9-b1d4-0b7c8a38d46d"},"vehicle_type_id":"4","last_reported":1747920306,"current_range_meters":4000,"station_id":"ce4bhlh2rcd13ifvqgig","pricing_plan_id":"cebpf4jnsgd1na2vs0mg"},{"bike_id":"68f83afe-9ed5-45a8-b071-35fcb805cfc7","system_id":"levelo_inurba_marseille","lat":43.30468,"lon":5.379,"is_reserved":false,"is_disabled":false,"rental_uris":{"android":"levelo://app?vid=68f83afe-9ed5-45a8-b071-35fcb805cfc7","ios":"levelo://app?vid=68f83afe-9ed5-45a8-b071-35fcb805cfc7"},"vehicle_type_id":"4","last_reported":1747920306,"current_range_meters":4400,"station_id":"ce4bgup2rcd13ifvqcn0","pricing_plan_id":"cebpf4jnsgd1na2vs0mg"},{"bike_id":"7b19ae3d-375f-484a-ac22-3d52f30e632f","system_id":"levelo_inurba_marseille","lat":43.23188,"lon":5.39984,"is_reserved":false,"is_disabled":false,"rental_uris":{"android":"levelo://app?vid=7b19ae3d-375f-484a-ac22-3d52f30e632f","ios":"levelo://app?vid=7b19ae3d-375f-484a-ac22-3d52f30e632f"},"vehicle_type_id":"4","last_reported":1747920306,"current_range_meters":4400,"station_id":"ce4bhn12rcd13ifvqgqg","pricing_plan_id":"cebpf4jnsgd1na2vs0mg"},{"bike_id":"71b02a8d-c17f-4c9c-8519-f7cb00d39224","system_id":"levelo_inurba_marseille","lat":43.2439,"lon":5.37054,"is_reserved":false,"is_disabled":false,"rental_uris":{"android":"levelo://app?vid=71b02a8d-c17f-4c9c-8519-f7cb00d39224","ios":"levelo://app?vid=71b02a8d-c17f-4c9c-8519-f7cb00d39224"},"vehicle_type_id":"4","last_reported":1747920306,"current_range_meters":4800,"station_id":"ce4bhhh2rcd13ifvqfk0","pricing_plan_id":"cebpf4jnsgd1na2vs0mg"},{"bike_id":"4f891411-1116-4ca4-a1e7-0372793ee4c8","system_id":"levelo_inurba_marseille","lat":43.29583,"lon":5.37499,"is_reserved":false,"is_disabled":false,"rental_uris":{"android":"levelo://app?vid=4f891411-1116-4ca4-a1e7-0372793ee4c8","ios":"levelo://app?vid=4f891411-1116-4ca4-a1e7-0372793ee4c8"},"vehicle_type_id":"4","last_reported":1747920306,"current_range_meters":5600,"station_id":"ce4bgh92rcd13ifvqb50","pricing_plan_id":"cebpf4jnsgd1na2vs0mg"},{"bike_id":"ebbe8594-c888-4081-a401-34532a7eb478","system_id":"levelo_inurba_marseille","lat":43.26789,"lon":5.39414,"is_reserved":false,"is_disabled":false,"rental_uris":{"android":"levelo://app?vid=ebbe8594-c888-4081-a401-34532a7eb478","ios":"levelo://app?vid=ebbe8594-c888-4081-a401-34532a7eb478"},"vehicle_type_id":"4","last_reported":1747920306,"current_range_meters":5600,"station_id":"ce4bhh12rcd13ifvqfg0","pricing_plan_id":"cebpf4jnsgd1na2vs0mg"},{"bike_id":"7ea6c921-41b4-4899-be57-102c36b48890","system_id":"levelo_inurba_marseille","lat":43.3108,"lon":5.38354,"is_reserved":false,"is_disabled":false,"rental_uris":{"android":"levelo://app?vid=7ea6c921-41b4-4899-be57-102c36b48890","ios":"levelo://app?vid=7ea6c921-41b4-4899-be57-102c36b48890"},"vehicle_type_id":"4","last_reported":1747920306,"current_range_meters":6000,"station_id":"ce4bgv92rcd13ifvqcr0","pricing_plan_id":"cebpf4jnsgd1na2vs0mg"},{"bike_id":"ff54086b-ac4d-4d08-b50b-ee5ff11a72cb","system_id":"levelo_inurba_marseille","lat":43.28927,"lon":5.38385,"is_reserved":false,"is_disabled":false,"rental_uris":{"android":"levelo://app?vid=ff54086b-ac4d-4d08-b50b-ee5ff11a72cb","ios":"levelo://app?vid=ff54086b-ac4d-4d08-b50b-ee5ff11a72cb"},"vehicle_type_id":"4","last_reported":1747920306,"current_range_meters":6000,"station_id":"ce4bh612rcd13ifvqe6g","pricing_plan_id":"cebpf4jnsgd1na2vs0mg"},{"bike_id":"68ab961e-728f-4b98-bfac-72596716cc63","system_id":"levelo_inurba_marseille","lat":43.28464,"lon":5.35887,"is_reserved":false,"is_disabled":false,"rental_uris":{"android":"levelo://app?vid=68ab961e-728f-4b98-bfac-72596716cc63","ios":"levelo://app?vid=68ab961e-728f-4b98-bfac-72596716cc63"},"vehicle_type_id":"4","last_reported":1747920306,"current_range_meters":6000,"station_id":"ce4bhah2rcd13ifvqei0","pricing_plan_id":"cebpf4jnsgd1na2vs0mg"},{"bike_id":"c883606a-a070-4242-b1b1-39d68ef71e2d","system_id":"levelo_inurba_marseille","lat":43.21751,"lon":5.34607,"is_reserved":false,"is_disabled":false,"rental_uris":{"android":"levelo://app?vid=c883606a-a070-4242-b1b1-39d68ef71e2d","ios":"levelo://app?vid=c883606a-a070-4242-b1b1-39d68ef71e2d"},"vehicle_type_id":"4","last_reported":1747920306,"current_range_meters":6000,"station_id":"st_cvj6r9ubvosntc0bgbag","pricing_plan_id":"cebpf4jnsgd1na2vs0mg"},{"bike_id":"c172b8b2-6068-4ecd-9788-1fbcc3584e8e","system_id":"levelo_inurba_marseille","lat":43.28209,"lon":5.3906,"is_reserved":false,"is_disabled":false,"rental_uris":{"android":"levelo://app?vid=c172b8b2-6068-4ecd-9788-1fbcc3584e8e","ios":"levelo://app?vid=c172b8b2-6068-4ecd-9788-1fbcc3584e8e"},"vehicle_type_id":"4","last_reported":1747920306,"current_range_meters":6400,"station_id":"","pricing_plan_id":"cebpf4jnsgd1na2vs0mg"},{"bike_id":"df106770-a124-4ecf-95cd-288da587773b","system_id":"levelo_inurba_marseille","lat":43.28667,"lon":5.38297,"is_reserved":false,"is_disabled":false,"rental_uris":{"android":"levelo://app?vid=df106770-a124-4ecf-95cd-288da587773b","ios":"levelo://app?vid=df106770-a124-4ecf-95cd-288da587773b"},"vehicle_type_id":"4","last_reported":1747920306,"current_range_meters":6400,"station_id":"","pricing_plan_id":"cebpf4jnsgd1na2vs0mg"},{"bike_id":"20d9c878-913e-4663-a56c-7a527fb806e2","system_id":"levelo_inurba_marseille","lat":43.29607,"lon":5.38088,"is_reserved":false,"is_disabled":false,"rental_uris":{"android":"levelo://app?vid=20d9c878-913e-4663-a56c-7a527fb806e2","ios":"levelo://app?vid=20d9c878-913e-4663-a56c-7a527fb806e2"},"vehicle_type_id":"4","last_reported":1747920306,"current_range_meters":6400,"station_id":"ce4bgl12rcd13ifvqbo0","pricing_plan_id":"cebpf4jnsgd1na2vs0mg"},{"bike_id":"9645a885-00fd-442d-b379-2794aa64ee52","system_id":"levelo_inurba_marseille","lat":43.3095,"lon":5.39027,"is_reserved":false,"is_disabled":false,"rental_uris":{"android":"levelo://app?vid=9645a885-00fd-442d-b379-2794aa64ee52","ios":"levelo://app?vid=9645a885-00fd-442d-b379-2794aa64ee52"},"vehicle_type_id":"4","last_reported":1747920306,"current_range_meters":6400,"station_id":"ce4bgup2rcd13ifvqco0","pricing_plan_id":"cebpf4jnsgd1na2vs0mg"},{"bike_id":"639e9fb7-3101-4fba-9859-684f92387a4f","system_id":"levelo_inurba_marseille","lat":43.28466,"lon":5.35895,"is_reserved":false,"is_disabled":false,"rental_uris":{"android":"levelo://app?vid=639e9fb7-3101-4fba-9859-684f92387a4f","ios":"levelo://app?vid=639e9fb7-3101-4fba-9859-684f92387a4f"},"vehicle_type_id":"4","last_reported":1747920306,"current_range_meters":6400,"station_id":"ce4bhah2rcd13ifvqei0","pricing_plan_id":"cebpf4jnsgd1na2vs0mg"},{"bike_id":"7ac99038-6586-4263-9d56-cebe528bf4dd","system_id":"levelo_inurba_marseille","lat":43.24997,"lon":5.38932,"is_reserved":false,"is_disabled":false,"rental_uris":{"android":"levelo://app?vid=7ac99038-6586-4263-9d56-cebe528bf4dd","ios":"levelo://app?vid=7ac99038-6586-4263-9d56-cebe528bf4dd"},"vehicle_type_id":"4","last_reported":1747920306,"current_range_meters":6400,"station_id":"ce4bhgp2rcd13ifvqfd0","pricing_plan_id":"cebpf4jnsgd1na2vs0mg"},{"bike_id":"8ea6434c-dc18-4de8-9a6c-f543a6df71a8","system_id":"levelo_inurba_marseille","lat":43.23144,"lon":5.43688,"is_reserved":false,"is_disabled":false,"rental_uris":{"android":"levelo://app?vid=8ea6434c-dc18-4de8-9a6c-f543a6df71a8","ios":"levelo://app?vid=8ea6434c-dc18-4de8-9a6c-f543a6df71a8"},"vehicle_type_id":"4","last_reported":1747920306,"current_range_meters":6400,"station_id":"ce4bhmp2rcd13ifvqgog","pricing_plan_id":"cebpf4jnsgd1na2vs0mg"},{"bike_id":"a965f51f-aafb-4afe-bfe3-121b43346203","system_id":"levelo_inurba_marseille","lat":43.27998,"lon":5.40028,"is_reserved":false,"is_disabled":false,"rental_uris":{"android":"levelo://app?vid=a965f51f-aafb-4afe-bfe3-121b43346203","ios":"levelo://app?vid=a965f51f-aafb-4afe-bfe3-121b43346203"},"vehicle_type_id":"4","last_reported":1747920306,"current_range_meters":6400,"station_id":"ce4bho92rcd13ifvqh4g","pricing_plan_id":"cebpf4jnsgd1na2vs0mg"},{"bike_id":"c59660a7-f300-4b9b-a58b-f2bc724bb7a8","system_id":"levelo_inurba_marseille","lat":43.32097,"lon":5.36835,"is_reserved":false,"is_disabled":false,"rental_uris":{"android":"levelo://app?vid=c59660a7-f300-4b9b-a58b-f2bc724bb7a8","ios":"levelo://app?vid=c59660a7-f300-4b9b-a58b-f2bc724bb7a8"},"vehicle_type_id":"4","last_reported":1747920306,"current_range_meters":6800,"station_id":"","pricing_plan_id":"cebpf4jnsgd1na2vs0mg"},{"bike_id":"05fa85e3-b298-40c4-8c56-97030d8ca2a9","system_id":"levelo_inurba_marseille","lat":43.29629,"lon":5.3771,"is_reserved":false,"is_disabled":false,"rental_uris":{"android":"levelo://app?vid=05fa85e3-b298-40c4-8c56-97030d8ca2a9","ios":"levelo://app?vid=05fa85e3-b298-40c4-8c56-97030d8ca2a9"},"vehicle_type_id":"4","last_reported":1747920306,"current_range_meters":6800,"station_id":"ce4bgi92rcd13ifvqb90","pricing_plan_id":"cebpf4jnsgd1na2vs0mg"},{"bike_id":"341f4f5e-297d-4894-87e9-75948380def5","system_id":"levelo_inurba_marseille","lat":43.310807,"lon":5.38357,"is_reserved":false,"is_disabled":false,"rental_uris":{"android":"levelo://app?vid=341f4f5e-297d-4894-87e9-75948380def5","ios":"levelo://app?vid=341f4f5e-297d-4894-87e9-75948380def5"},"vehicle_type_id":"4","last_reported":1747920306,"current_range_meters":6800,"station_id":"ce4bgv92rcd13ifvqcr0","pricing_plan_id":"cebpf4jnsgd1na2vs0mg"},{"bike_id":"a443991b-cdea-4422-a0c2-351ea92aca3e","system_id":"levelo_inurba_marseille","lat":43.28454,"lon":5.35883,"is_reserved":false,"is_disabled":false,"rental_uris":{"android":"levelo://app?vid=a443991b-cdea-4422-a0c2-351ea92aca3e","ios":"levelo://app?vid=a443991b-cdea-4422-a0c2-351ea92aca3e"},"vehicle_type_id":"4","last_reported":1747920306,"current_range_meters":6800,"station_id":"ce4bhah2rcd13ifvqei0","pricing_plan_id":"cebpf4jnsgd1na2vs0mg"},{"bike_id":"87c37c14-8780-451e-bf3f-8825721121e6","system_id":"levelo_inurba_marseille","lat":43.26956,"lon":5.3864,"is_reserved":false,"is_disabled":false,"rental_uris":{"android":"levelo://app?vid=87c37c14-8780-451e-bf3f-8825721121e6","ios":"levelo://app?vid=87c37c14-8780-451e-bf3f-8825721121e6"},"vehicle_type_id":"4","last_reported":1747920306,"current_range_meters":6800,"station_id":"ce4bhh92rcd13ifvqfh0","pricing_plan_id":"cebpf4jnsgd1na2vs0mg"},{"bike_id":"b032db85-a602-42bb-bc9a-65b3dfd9e2fe","system_id":"levelo_inurba_marseille","lat":43.25589,"lon":5.38232,"is_reserved":false,"is_disabled":false,"rental_uris":{"android":"levelo://app?vid=b032db85-a602-42bb-bc9a-65b3dfd9e2fe","ios":"levelo://app?vid=b032db85-a602-42bb-bc9a-65b3dfd9e2fe"},"vehicle_type_id":"4","last_reported":1747920306,"current_range_meters":6800,"station_id":"ce4bhih2rcd13ifvqfs0","pricing_plan_id":"cebpf4jnsgd1na2vs0mg"},{"bike_id":"c45a8bac-f7e2-42b5-8179-043616a5119c","system_id":"levelo_inurba_marseille","lat":43.31759,"lon":5.39013,"is_reserved":false,"is_disabled":false,"rental_uris":{"android":"levelo://app?vid=c45a8bac-f7e2-42b5-8179-043616a5119c","ios":"levelo://app?vid=c45a8bac-f7e2-42b5-8179-043616a5119c"},"vehicle_type_id":"4","last_reported":1747920306,"current_range_meters":6800,"station_id":"ce4bhqp2rcd13ifvqhng","pricing_plan_id":"cebpf4jnsgd1na2vs0mg"},{"bike_id":"325a04d7-0c6c-4a4d-804e-27b29ba6514b","system_id":"levelo_inurba_marseille","lat":43.23966,"lon":5.3663,"is_reserved":false,"is_disabled":false,"rental_uris":{"android":"levelo://app?vid=325a04d7-0c6c-4a4d-804e-27b29ba6514b","ios":"levelo://app?vid=325a04d7-0c6c-4a4d-804e-27b29ba6514b"},"vehicle_type_id":"4","last_reported":1747920306,"current_range_meters":7200,"station_id":"ce4bhi12rcd13ifvqfp0","pricing_plan_id":"cebpf4jnsgd1na2vs0mg"},{"bike_id":"099f4a13-c8e8-4934-a018-18074c742431","system_id":"levelo_inurba_marseille","lat":43.24071,"lon":5.37764,"is_reserved":false,"is_disabled":false,"rental_uris":{"android":"levelo://app?vid=099f4a13-c8e8-4934-a018-18074c742431","ios":"levelo://app?vid=099f4a13-c8e8-4934-a018-18074c742431"},"vehicle_type_id":"4","last_reported":1747920306,"current_range_meters":7200,"station_id":"ce4bhnp2rcd13ifvqgvg","pricing_plan_id":"cebpf4jnsgd1na2vs0mg"},{"bike_id":"eebfa399-9785-4fc2-b66a-eed62a9fa6a0","system_id":"levelo_inurba_marseille","lat":43.3234,"lon":5.4063,"is_reserved":false,"is_disabled":false,"rental_uris":{"android":"levelo://app?vid=eebfa399-9785-4fc2-b66a-eed62a9fa6a0","ios":"levelo://app?vid=eebfa399-9785-4fc2-b66a-eed62a9fa6a0"},"vehicle_type_id":"4","last_reported":1747920306,"current_range_meters":7200,"station_id":"ce4bhq92rcd13ifvqhjg","pricing_plan_id":"cebpf4jnsgd1na2vs0mg"},{"bike_id":"441250a3-cca8-496e-97c9-263252c09958","system_id":"levelo_inurba_marseille","lat":43.3014,"lon":5.38782,"is_reserved":false,"is_disabled":false,"rental_uris":{"android":"levelo://app?vid=441250a3-cca8-496e-97c9-263252c09958","ios":"levelo://app?vid=441250a3-cca8-496e-97c9-263252c09958"},"vehicle_type_id":"4","last_reported":1747920306,"current_range_meters":8000,"station_id":"ce4bghh2rcd13ifvqb60","pricing_plan_id":"cebpf4jnsgd1na2vs0mg"},{"bike_id":"a80edf89-93e0-4aa3-a288-fa92e585b900","system_id":"levelo_inurba_marseille","lat":43.273145,"lon":5.390898,"is_reserved":false,"is_disabled":false,"rental_uris":{"android":"levelo://app?vid=a80edf89-93e0-4aa3-a288-fa92e585b900","ios":"levelo://app?vid=a80edf89-93e0-4aa3-a288-fa92e585b900"},"vehicle_type_id":"4","last_reported":1747920306,"current_range_meters":8000,"station_id":"ce4bhgp2rcd13ifvqfe0","pricing_plan_id":"cebpf4jnsgd1na2vs0mg"},{"bike_id":"0ec75f10-15ef-49ef-9ae5-ef5325d62709","system_id":"levelo_inurba_marseille","lat":43.27286,"lon":5.39235,"is_reserved":false,"is_disabled":false,"rental_uris":{"android":"levelo://app?vid=0ec75f10-15ef-49ef-9ae5-ef5325d62709","ios":"levelo://app?vid=0ec75f10-15ef-49ef-9ae5-ef5325d62709"},"vehicle_type_id":"4","last_reported":1747920306,"current_range_meters":8000,"station_id":"ce4bhhp2rcd13ifvqfm0","pricing_plan_id":"cebpf4jnsgd1na2vs0mg"},{"bike_id":"8625351c-d9c2-4954-a399-1e0c3dda812b","system_id":"levelo_inurba_marseille","lat":43.25868,"lon":5.39894,"is_reserved":false,"is_disabled":false,"rental_uris":{"android":"levelo://app?vid=8625351c-d9c2-4954-a399-1e0c3dda812b","ios":"levelo://app?vid=8625351c-d9c2-4954-a399-1e0c3dda812b"},"vehicle_type_id":"4","last_reported":1747920306,"current_range_meters":8000,"station_id":"ce4bhl92rcd13ifvqghg","pricing_plan_id":"cebpf4jnsgd1na2vs0mg"},{"bike_id":"3ef079d7-212d-413d-9b77-a29c053a38fc","system_id":"levelo_inurba_marseille","lat":43.27489,"lon":5.42475,"is_reserved":false,"is_disabled":false,"rental_uris":{"android":"levelo://app?vid=3ef079d7-212d-413d-9b77-a29c053a38fc","ios":"levelo://app?vid=3ef079d7-212d-413d-9b77-a29c053a38fc"},"vehicle_type_id":"4","last_reported":1747920306,"current_range_meters":8000,"station_id":"ce4bhn92rcd13ifvqgrg","pricing_plan_id":"cebpf4jnsgd1na2vs0mg"},{"bike_id":"3fe3d6c4-138a-47df-b6b4-e6f19e8f7d46","system_id":"levelo_inurba_marseille","lat":43.214322,"lon":5.341184,"is_reserved":false,"is_disabled":false,"rental_uris":{"android":"levelo://app?vid=3fe3d6c4-138a-47df-b6b4-e6f19e8f7d46","ios":"levelo://app?vid=3fe3d6c4-138a-47df-b6b4-e6f19e8f7d46"},"vehicle_type_id":"4","last_reported":1747920306,"current_range_meters":8400,"station_id":"","pricing_plan_id":"cebpf4jnsgd1na2vs0mg"},{"bike_id":"b1d091af-2681-4504-ad07-e89ed008fbab","system_id":"levelo_inurba_marseille","lat":43.29611,"lon":5.38105,"is_reserved":false,"is_disabled":false,"rental_uris":{"android":"levelo://app?vid=b1d091af-2681-4504-ad07-e89ed008fbab","ios":"levelo://app?vid=b1d091af-2681-4504-ad07-e89ed008fbab"},"vehicle_type_id":"4","last_reported":1747920306,"current_range_meters":8400,"station_id":"ce4bgl12rcd13ifvqbo0","pricing_plan_id":"cebpf4jnsgd1na2vs0mg"},{"bike_id":"9f966ced-bd35-4512-9834-35d6ae555834","system_id":"levelo_inurba_marseille","lat":43.30778,"lon":5.37652,"is_reserved":false,"is_disabled":false,"rental_uris":{"android":"levelo://app?vid=9f966ced-bd35-4512-9834-35d6ae555834","ios":"levelo://app?vid=9f966ced-bd35-4512-9834-35d6ae555834"},"vehicle_type_id":"4","last_reported":1747920306,"current_range_meters":8400,"station_id":"ce4bgv92rcd13ifvqcq0","pricing_plan_id":"cebpf4jnsgd1na2vs0mg"},{"bike_id":"48f0e6bf-b0e4-40d6-8115-e60ff9f1bc93","system_id":"levelo_inurba_marseille","lat":43.26783,"lon":5.3941,"is_reserved":false,"is_disabled":false,"rental_uris":{"android":"levelo://app?vid=48f0e6bf-b0e4-40d6-8115-e60ff9f1bc93","ios":"levelo://app?vid=48f0e6bf-b0e4-40d6-8115-e60ff9f1bc93"},"vehicle_type_id":"4","last_reported":1747920306,"current_range_meters":8400,"station_id":"ce4bhh12rcd13ifvqfg0","pricing_plan_id":"cebpf4jnsgd1na2vs0mg"},{"bike_id":"d858f44b-9c17-42bd-95f4-9a76461b956c","system_id":"levelo_inurba_marseille","lat":43.27161,"lon":5.41001,"is_reserved":false,"is_disabled":false,"rental_uris":{"android":"levelo://app?vid=d858f44b-9c17-42bd-95f4-9a76461b956c","ios":"levelo://app?vid=d858f44b-9c17-42bd-95f4-9a76461b956c"},"vehicle_type_id":"4","last_reported":1747920306,"current_range_meters":8400,"station_id":"ce4bhl12rcd13ifvqgf0","pricing_plan_id":"cebpf4jnsgd1na2vs0mg"},{"bike_id":"8e1b2c24-993d-4371-ad7b-064f0f55763e","system_id":"levelo_inurba_marseille","lat":43.28156,"lon":5.42642,"is_reserved":false,"is_disabled":false,"rental_uris":{"android":"levelo://app?vid=8e1b2c24-993d-4371-ad7b-064f0f55763e","ios":"levelo://app?vid=8e1b2c24-993d-4371-ad7b-064f0f55763e"},"vehicle_type_id":"4","last_reported":1747920306,"current_range_meters":8400,"station_id":"ce4bhnh2rcd13ifvqgug","pricing_plan_id":"cebpf4jnsgd1na2vs0mg"},{"bike_id":"2f34c329-54fe-438b-a307-b47c6ac8481c","system_id":"levelo_inurba_marseille","lat":43.298966,"lon":5.436601,"is_reserved":false,"is_disabled":false,"rental_uris":{"android":"levelo://app?vid=2f34c329-54fe-438b-a307-b47c6ac8481c","ios":"levelo://app?vid=2f34c329-54fe-438b-a307-b47c6ac8481c"},"vehicle_type_id":"4","last_reported":1747920306,"current_range_meters":8400,"station_id":"ce4bhpp2rcd13ifvqhfg","pricing_plan_id":"cebpf4jnsgd1na2vs0mg"},{"bike_id":"eb6c6849-85ec-425b-bbf2-a1c4f9f30636","system_id":"levelo_inurba_marseille","lat":43.28214,"lon":5.39067,"is_reserved":false,"is_disabled":false,"rental_uris":{"android":"levelo://app?vid=eb6c6849-85ec-425b-bbf2-a1c4f9f30636","ios":"levelo://app?vid=eb6c6849-85ec-425b-bbf2-a1c4f9f30636"},"vehicle_type_id":"4","last_reported":1747920306,"current_range_meters":8800,"station_id":"","pricing_plan_id":"cebpf4jnsgd1na2vs0mg"},{"bike_id":"4d220435-47a8-4d82-80db-a1284cf3e4c5","system_id":"levelo_inurba_marseille","lat":43.28669,"lon":5.38754,"is_reserved":false,"is_disabled":false,"rental_uris":{"android":"levelo://app?vid=4d220435-47a8-4d82-80db-a1284cf3e4c5","ios":"levelo://app?vid=4d220435-47a8-4d82-80db-a1284cf3e4c5"},"vehicle_type_id":"4","last_reported":1747920306,"current_range_meters":8800,"station_id":"","pricing_plan_id":"cebpf4jnsgd1na2vs0mg"},{"bike_id":"b91980aa-60ff-467c-bd75-7d53cde9d475","system_id":"levelo_inurba_marseille","lat":43.25108,"lon":5.40327,"is_reserved":false,"is_disabled":false,"rental_uris":{"android":"levelo://app?vid=b91980aa-60ff-467c-bd75-7d53cde9d475","ios":"levelo://app?vid=b91980aa-60ff-467c-bd75-7d53cde9d475"},"vehicle_type_id":"4","last_reported":1747920306,"current_range_meters":8800,"station_id":"ce4bhlh2rcd13ifvqgig","pricing_plan_id":"cebpf4jnsgd1na2vs0mg"},{"bike_id":"14feda73-7baf-4b64-8ae9-79f4fe7d4a5f","system_id":"levelo_inurba_marseille","lat":43.32326,"lon":5.36734,"is_reserved":false,"is_disabled":false,"rental_uris":{"android":"levelo://app?vid=14feda73-7baf-4b64-8ae9-79f4fe7d4a5f","ios":"levelo://app?vid=14feda73-7baf-4b64-8ae9-79f4fe7d4a5f"},"vehicle_type_id":"4","last_reported":1747920306,"current_range_meters":8800,"station_id":"ce4bhsh2rcd13ifvqi2g","pricing_plan_id":"cebpf4jnsgd1na2vs0mg"},{"bike_id":"e556f496-5a3c-4193-8a6e-47c89f34776d","system_id":"levelo_inurba_marseille","lat":43.28921,"lon":5.37832,"is_reserved":false,"is_disabled":false,"rental_uris":{"android":"levelo://app?vid=e556f496-5a3c-4193-8a6e-47c89f34776d","ios":"levelo://app?vid=e556f496-5a3c-4193-8a6e-47c89f34776d"},"vehicle_type_id":"4","last_reported":1747920306,"current_range_meters":9200,"station_id":"","pricing_plan_id":"cebpf4jnsgd1na2vs0mg"},{"bike_id":"e015743e-cdd5-445a-b0e7-b5e96aa2b287","system_id":"levelo_inurba_marseille","lat":43.27624,"lon":5.36112,"is_reserved":false,"is_disabled":false,"rental_uris":{"android":"levelo://app?vid=e015743e-cdd5-445a-b0e7-b5e96aa2b287","ios":"levelo://app?vid=e015743e-cdd5-445a-b0e7-b5e96aa2b287"},"vehicle_type_id":"4","last_reported":1747920306,"current_range_meters":9200,"station_id":"ce4bgj92rcd13ifvqbe0","pricing_plan_id":"cebpf4jnsgd1na2vs0mg"},{"bike_id":"4e600890-7a0a-4504-89a8-047524a1f649","system_id":"levelo_inurba_marseille","lat":43.302923,"lon":5.376962,"is_reserved":false,"is_disabled":false,"rental_uris":{"android":"levelo://app?vid=4e600890-7a0a-4504-89a8-047524a1f649","ios":"levelo://app?vid=4e600890-7a0a-4504-89a8-047524a1f649"},"vehicle_type_id":"4","last_reported":1747920306,"current_range_meters":9200,"station_id":"ce4bguh2rcd13ifvqcj0","pricing_plan_id":"cebpf4jnsgd1na2vs0mg"},{"bike_id":"159396de-a386-418a-93e0-809a02474885","system_id":"levelo_inurba_marseille","lat":43.27427,"lon":5.39422,"is_reserved":false,"is_disabled":false,"rental_uris":{"android":"levelo://app?vid=159396de-a386-418a-93e0-809a02474885","ios":"levelo://app?vid=159396de-a386-418a-93e0-809a02474885"},"vehicle_type_id":"4","last_reported":1747920306,"current_range_meters":9200,"station_id":"ce4bhdp2rcd13ifvqf20","pricing_plan_id":"cebpf4jnsgd1na2vs0mg"},{"bike_id":"2f6d3903-6414-426a-bdc1-7b07009de06f","system_id":"levelo_inurba_marseille","lat":43.25003,"lon":5.38926,"is_reserved":false,"is_disabled":false,"rental_uris":{"android":"levelo://app?vid=2f6d3903-6414-426a-bdc1-7b07009de06f","ios":"levelo://app?vid=2f6d3903-6414-426a-bdc1-7b07009de06f"},"vehicle_type_id":"4","last_reported":1747920306,"current_range_meters":9200,"station_id":"ce4bhgp2rcd13ifvqfd0","pricing_plan_id":"cebpf4jnsgd1na2vs0mg"},{"bike_id":"e2fb855a-6930-43c2-9392-96ef711af040","system_id":"levelo_inurba_marseille","lat":43.23967,"lon":5.36626,"is_reserved":false,"is_disabled":false,"rental_uris":{"android":"levelo://app?vid=e2fb855a-6930-43c2-9392-96ef711af040","ios":"levelo://app?vid=e2fb855a-6930-43c2-9392-96ef711af040"},"vehicle_type_id":"4","last_reported":1747920306,"current_range_meters":9200,"station_id":"ce4bhi12rcd13ifvqfp0","pricing_plan_id":"cebpf4jnsgd1na2vs0mg"},{"bike_id":"95cafc23-dcd8-4c41-bf1a-8e9f49a1bb06","system_id":"levelo_inurba_marseille","lat":43.25693,"lon":5.41048,"is_reserved":false,"is_disabled":false,"rental_uris":{"android":"levelo://app?vid=95cafc23-dcd8-4c41-bf1a-8e9f49a1bb06","ios":"levelo://app?vid=95cafc23-dcd8-4c41-bf1a-8e9f49a1bb06"},"vehicle_type_id":"4","last_reported":1747920306,"current_range_meters":9200,"station_id":"ce4bhkp2rcd13ifvqgd0","pricing_plan_id":"cebpf4jnsgd1na2vs0mg"},{"bike_id":"40082cca-a7a2-4d69-9727-bd72824c6c32","system_id":"levelo_inurba_marseille","lat":43.2719,"lon":5.4102,"is_reserved":false,"is_disabled":false,"rental_uris":{"android":"levelo://app?vid=40082cca-a7a2-4d69-9727-bd72824c6c32","ios":"levelo://app?vid=40082cca-a7a2-4d69-9727-bd72824c6c32"},"vehicle_type_id":"4","last_reported":1747920306,"current_range_meters":9200,"station_id":"ce4bhl12rcd13ifvqgf0","pricing_plan_id":"cebpf4jnsgd1na2vs0mg"},{"bike_id":"1c1dc960-9be2-4f0c-9e1e-b4ca0afbf496","system_id":"levelo_inurba_marseille","lat":43.25124,"lon":5.40331,"is_reserved":false,"is_disabled":false,"rental_uris":{"android":"levelo://app?vid=1c1dc960-9be2-4f0c-9e1e-b4ca0afbf496","ios":"levelo://app?vid=1c1dc960-9be2-4f0c-9e1e-b4ca0afbf496"},"vehicle_type_id":"4","last_reported":1747920306,"current_range_meters":9200,"station_id":"ce4bhlh2rcd13ifvqgig","pricing_plan_id":"cebpf4jnsgd1na2vs0mg"},{"bike_id":"19ad6a04-9891-49cf-8d05-7dde295fdcc2","system_id":"levelo_inurba_marseille","lat":43.279972,"lon":5.400113,"is_reserved":false,"is_disabled":false,"rental_uris":{"android":"levelo://app?vid=19ad6a04-9891-49cf-8d05-7dde295fdcc2","ios":"levelo://app?vid=19ad6a04-9891-49cf-8d05-7dde295fdcc2"},"vehicle_type_id":"4","last_reported":1747920306,"current_range_meters":9200,"station_id":"ce4bho92rcd13ifvqh4g","pricing_plan_id":"cebpf4jnsgd1na2vs0mg"},{"bike_id":"f9fb40c0-1fcd-48cb-8e26-3f2dc0fb2451","system_id":"levelo_inurba_marseille","lat":43.33751,"lon":5.37509,"is_reserved":false,"is_disabled":false,"rental_uris":{"android":"levelo://app?vid=f9fb40c0-1fcd-48cb-8e26-3f2dc0fb2451","ios":"levelo://app?vid=f9fb40c0-1fcd-48cb-8e26-3f2dc0fb2451"},"vehicle_type_id":"4","last_reported":1747920306,"current_range_meters":9600,"station_id":"","pricing_plan_id":"cebpf4jnsgd1na2vs0mg"},{"bike_id":"27653dcd-dec9-4f13-b172-8968c20c1725","system_id":"levelo_inurba_marseille","lat":43.23861,"lon":5.43097,"is_reserved":false,"is_disabled":false,"rental_uris":{"android":"levelo://app?vid=27653dcd-dec9-4f13-b172-8968c20c1725","ios":"levelo://app?vid=27653dcd-dec9-4f13-b172-8968c20c1725"},"vehicle_type_id":"4","last_reported":1747920306,"current_range_meters":9600,"station_id":"","pricing_plan_id":"cebpf4jnsgd1na2vs0mg"},{"bike_id":"b3b06548-4c88-4715-bcc6-63475ac916bc","system_id":"levelo_inurba_marseille","lat":43.30953,"lon":5.39032,"is_reserved":false,"is_disabled":false,"rental_uris":{"android":"levelo://app?vid=b3b06548-4c88-4715-bcc6-63475ac916bc","ios":"levelo://app?vid=b3b06548-4c88-4715-bcc6-63475ac916bc"},"vehicle_type_id":"4","last_reported":1747920306,"current_range_meters":9600,"station_id":"ce4bgup2rcd13ifvqco0","pricing_plan_id":"cebpf4jnsgd1na2vs0mg"},{"bike_id":"0ae933e6-6f2d-4c0f-9e1e-4fbce29e20e6","system_id":"levelo_inurba_marseille","lat":43.30953,"lon":5.39035,"is_reserved":false,"is_disabled":false,"rental_uris":{"android":"levelo://app?vid=0ae933e6-6f2d-4c0f-9e1e-4fbce29e20e6","ios":"levelo://app?vid=0ae933e6-6f2d-4c0f-9e1e-4fbce29e20e6"},"vehicle_type_id":"4","last_reported":1747920306,"current_range_meters":9600,"station_id":"ce4bgup2rcd13ifvqco0","pricing_plan_id":"cebpf4jnsgd1na2vs0mg"},{"bike_id":"f1b9a0a8-e2a4-4d08-a8d7-59d963185764","system_id":"levelo_inurba_marseille","lat":43.28935,"lon":5.36623,"is_reserved":false,"is_disabled":false,"rental_uris":{"android":"levelo://app?vid=f1b9a0a8-e2a4-4d08-a8d7-59d963185764","ios":"levelo://app?vid=f1b9a0a8-e2a4-4d08-a8d7-59d963185764"},"vehicle_type_id":"4","last_reported":1747920306,"current_range_meters":9600,"station_id":"ce4bhap2rcd13ifvqek0","pricing_plan_id":"cebpf4jnsgd1na2vs0mg"},{"bike_id":"5f2f379d-f5c2-4683-a7c2-af2f78665a34","system_id":"levelo_inurba_marseille","lat":43.27497,"lon":5.42457,"is_reserved":false,"is_disabled":false,"rental_uris":{"android":"levelo://app?vid=5f2f379d-f5c2-4683-a7c2-af2f78665a34","ios":"levelo://app?vid=5f2f379d-f5c2-4683-a7c2-af2f78665a34"},"vehicle_type_id":"4","last_reported":1747920306,"current_range_meters":9600,"station_id":"ce4bhn92rcd13ifvqgrg","pricing_plan_id":"cebpf4jnsgd1na2vs0mg"},{"bike_id":"971c8a5c-db56-48ea-b476-188519cb0562","system_id":"levelo_inurba_marseille","lat":43.30082,"lon":5.40505,"is_reserved":false,"is_disabled":false,"rental_uris":{"android":"levelo://app?vid=971c8a5c-db56-48ea-b476-188519cb0562","ios":"levelo://app?vid=971c8a5c-db56-48ea-b476-188519cb0562"},"vehicle_type_id":"4","last_reported":1747920306,"current_range_meters":10000,"station_id":"","pricing_plan_id":"cebpf4jnsgd1na2vs0mg"},{"bike_id":"b0e5ee23-ae4d-4f5a-9293-55d01c7f4579","system_id":"levelo_inurba_marseille","lat":43.29878,"lon":5.38905,"is_reserved":false,"is_disabled":false,"rental_uris":{"android":"levelo://app?vid=b0e5ee23-ae4d-4f5a-9293-55d01c7f4579","ios":"levelo://app?vid=b0e5ee23-ae4d-4f5a-9293-55d01c7f4579"},"vehicle_type_id":"4","last_reported":1747920306,"current_range_meters":10000,"station_id":"ce4bh392rcd13ifvqdl0","pricing_plan_id":"cebpf4jnsgd1na2vs0mg"},{"bike_id":"7a5bbfb1-dafb-4777-8f4b-4b1e0e7c5d19","system_id":"levelo_inurba_marseille","lat":43.273854,"lon":5.362061,"is_reserved":false,"is_disabled":false,"rental_uris":{"android":"levelo://app?vid=7a5bbfb1-dafb-4777-8f4b-4b1e0e7c5d19","ios":"levelo://app?vid=7a5bbfb1-dafb-4777-8f4b-4b1e0e7c5d19"},"vehicle_type_id":"4","last_reported":1747920306,"current_range_meters":10000,"station_id":"ce4bhbh2rcd13ifvqeo0","pricing_plan_id":"cebpf4jnsgd1na2vs0mg"},{"bike_id":"c87f2817-7f53-435a-9b2c-9985876a283f","system_id":"levelo_inurba_marseille","lat":43.29301,"lon":5.3745,"is_reserved":false,"is_disabled":false,"rental_uris":{"android":"levelo://app?vid=c87f2817-7f53-435a-9b2c-9985876a283f","ios":"levelo://app?vid=c87f2817-7f53-435a-9b2c-9985876a283f"},"vehicle_type_id":"4","last_reported":1747920306,"current_range_meters":10800,"station_id":"ce4bgi12rcd13ifvqb70","pricing_plan_id":"cebpf4jnsgd1na2vs0mg"},{"bike_id":"ac8c7c81-6a0e-49a4-a65a-c88eba9d251a","system_id":"levelo_inurba_marseille","lat":43.29853,"lon":5.36291,"is_reserved":false,"is_disabled":false,"rental_uris":{"android":"levelo://app?vid=ac8c7c81-6a0e-49a4-a65a-c88eba9d251a","ios":"levelo://app?vid=ac8c7c81-6a0e-49a4-a65a-c88eba9d251a"},"vehicle_type_id":"4","last_reported":1747920306,"current_range_meters":10800,"station_id":"ce4bgpp2rcd13ifvqc3g","pricing_plan_id":"cebpf4jnsgd1na2vs0mg"},{"bike_id":"192a2d3d-158a-4b3f-b88b-fad4c63e5d0f","system_id":"levelo_inurba_marseille","lat":43.2997,"lon":5.37164,"is_reserved":false,"is_disabled":false,"rental_uris":{"android":"levelo://app?vid=192a2d3d-158a-4b3f-b88b-fad4c63e5d0f","ios":"levelo://app?vid=192a2d3d-158a-4b3f-b88b-fad4c63e5d0f"},"vehicle_type_id":"4","last_reported":1747920306,"current_range_meters":10800,"station_id":"ce4bgr92rcd13ifvqc7g","pricing_plan_id":"cebpf4jnsgd1na2vs0mg"},{"bike_id":"bb534ed4-d73c-41f9-8af1-5d93027ec84e","system_id":"levelo_inurba_marseille","lat":43.286062,"lon":5.350945,"is_reserved":false,"is_disabled":false,"rental_uris":{"android":"levelo://app?vid=bb534ed4-d73c-41f9-8af1-5d93027ec84e","ios":"levelo://app?vid=bb534ed4-d73c-41f9-8af1-5d93027ec84e"},"vehicle_type_id":"4","last_reported":1747920306,"current_range_meters":10800,"station_id":"ce4bhch2rcd13ifvqeug","pricing_plan_id":"cebpf4jnsgd1na2vs0mg"},{"bike_id":"4ad770ab-f129-4de2-889c-7fa4bb24a833","system_id":"levelo_inurba_marseille","lat":43.26951,"lon":5.3862,"is_reserved":false,"is_disabled":false,"rental_uris":{"android":"levelo://app?vid=4ad770ab-f129-4de2-889c-7fa4bb24a833","ios":"levelo://app?vid=4ad770ab-f129-4de2-889c-7fa4bb24a833"},"vehicle_type_id":"4","last_reported":1747920306,"current_range_meters":10800,"station_id":"ce4bhh92rcd13ifvqfh0","pricing_plan_id":"cebpf4jnsgd1na2vs0mg"},{"bike_id":"5804e3f5-d25f-450c-ace5-9cc5b44c5b01","system_id":"levelo_inurba_marseille","lat":43.27937,"lon":5.41046,"is_reserved":false,"is_disabled":false,"rental_uris":{"android":"levelo://app?vid=5804e3f5-d25f-450c-ace5-9cc5b44c5b01","ios":"levelo://app?vid=5804e3f5-d25f-450c-ace5-9cc5b44c5b01"},"vehicle_type_id":"4","last_reported":1747920306,"current_range_meters":10800,"station_id":"ce4bhnp2rcd13ifvqh0g","pricing_plan_id":"cebpf4jnsgd1na2vs0mg"},{"bike_id":"7dfdfdc8-9c79-46b6-9a4b-924773b53f29","system_id":"levelo_inurba_marseille","lat":43.268561,"lon":5.39173,"is_reserved":false,"is_disabled":false,"rental_uris":{"android":"levelo://app?vid=7dfdfdc8-9c79-46b6-9a4b-924773b53f29","ios":"levelo://app?vid=7dfdfdc8-9c79-46b6-9a4b-924773b53f29"},"vehicle_type_id":"4","last_reported":1747920306,"current_range_meters":11200,"station_id":"","pricing_plan_id":"cebpf4jnsgd1na2vs0mg"},{"bike_id":"1503400b-e2b9-4983-a4c2-60f44e46556f","system_id":"levelo_inurba_marseille","lat":43.29198,"lon":5.39216,"is_reserved":false,"is_disabled":false,"rental_uris":{"android":"levelo://app?vid=1503400b-e2b9-4983-a4c2-60f44e46556f","ios":"levelo://app?vid=1503400b-e2b9-4983-a4c2-60f44e46556f"},"vehicle_type_id":"4","last_reported":1747920306,"current_range_meters":11200,"station_id":"ce4bh192rcd13ifvqdd0","pricing_plan_id":"cebpf4jnsgd1na2vs0mg"},{"bike_id":"8a9416d3-2a37-4312-9622-494ce1845d80","system_id":"levelo_inurba_marseille","lat":43.32344,"lon":5.36741,"is_reserved":false,"is_disabled":false,"rental_uris":{"android":"levelo://app?vid=8a9416d3-2a37-4312-9622-494ce1845d80","ios":"levelo://app?vid=8a9416d3-2a37-4312-9622-494ce1845d80"},"vehicle_type_id":"4","last_reported":1747920306,"current_range_meters":11200,"station_id":"ce4bhsh2rcd13ifvqi2g","pricing_plan_id":"cebpf4jnsgd1na2vs0mg"},{"bike_id":"54a46507-c9df-470d-8a60-ee1edf4b2780","system_id":"levelo_inurba_marseille","lat":43.286041,"lon":5.370652,"is_reserved":false,"is_disabled":false,"rental_uris":{"android":"levelo://app?vid=54a46507-c9df-470d-8a60-ee1edf4b2780","ios":"levelo://app?vid=54a46507-c9df-470d-8a60-ee1edf4b2780"},"vehicle_type_id":"4","last_reported":1747920306,"current_range_meters":11200,"station_id":"ce4bht12rcd13ifvqi60","pricing_plan_id":"cebpf4jnsgd1na2vs0mg"},{"bike_id":"4707b93c-3570-4099-89f2-4a91b763f7da","system_id":"levelo_inurba_marseille","lat":43.31713,"lon":5.37744,"is_reserved":false,"is_disabled":false,"rental_uris":{"android":"levelo://app?vid=4707b93c-3570-4099-89f2-4a91b763f7da","ios":"levelo://app?vid=4707b93c-3570-4099-89f2-4a91b763f7da"},"vehicle_type_id":"4","last_reported":1747920306,"current_range_meters":11600,"station_id":"ce4bgth2rcd13ifvqch0","pricing_plan_id":"cebpf4jnsgd1na2vs0mg"},{"bike_id":"f6ba5d38-c157-4053-9287-44108b68764f","system_id":"levelo_inurba_marseille","lat":43.29199,"lon":5.358055,"is_reserved":false,"is_disabled":false,"rental_uris":{"android":"levelo://app?vid=f6ba5d38-c157-4053-9287-44108b68764f","ios":"levelo://app?vid=f6ba5d38-c157-4053-9287-44108b68764f"},"vehicle_type_id":"4","last_reported":1747920306,"current_range_meters":11600,"station_id":"ce4bhb12rcd13ifvqel0","pricing_plan_id":"cebpf4jnsgd1na2vs0mg"},{"bike_id":"b034088a-4329-46b1-9b7d-635eec733cbb","system_id":"levelo_inurba_marseille","lat":43.26789,"lon":5.39423,"is_reserved":false,"is_disabled":false,"rental_uris":{"android":"levelo://app?vid=b034088a-4329-46b1-9b7d-635eec733cbb","ios":"levelo://app?vid=b034088a-4329-46b1-9b7d-635eec733cbb"},"vehicle_type_id":"4","last_reported":1747920306,"current_range_meters":11600,"station_id":"ce4bhh12rcd13ifvqfg0","pricing_plan_id":"cebpf4jnsgd1na2vs0mg"},{"bike_id":"a44a5ccb-3d58-417c-9bc9-618f4d03cb1d","system_id":"levelo_inurba_marseille","lat":43.27519,"lon":5.42451,"is_reserved":false,"is_disabled":false,"rental_uris":{"android":"levelo://app?vid=a44a5ccb-3d58-417c-9bc9-618f4d03cb1d","ios":"levelo://app?vid=a44a5ccb-3d58-417c-9bc9-618f4d03cb1d"},"vehicle_type_id":"4","last_reported":1747920306,"current_range_meters":11600,"station_id":"ce4bhn92rcd13ifvqgrg","pricing_plan_id":"cebpf4jnsgd1na2vs0mg"},{"bike_id":"e75389f6-919f-4165-ae31-bdd131757190","system_id":"levelo_inurba_marseille","lat":43.30748,"lon":5.42471,"is_reserved":false,"is_disabled":false,"rental_uris":{"android":"levelo://app?vid=e75389f6-919f-4165-ae31-bdd131757190","ios":"levelo://app?vid=e75389f6-919f-4165-ae31-bdd131757190"},"vehicle_type_id":"4","last_reported":1747920306,"current_range_meters":11600,"station_id":"st_cvj6ca6bvosntc0bfgr0","pricing_plan_id":"cebpf4jnsgd1na2vs0mg"},{"bike_id":"9082ebba-d3d9-450d-a3be-063ef4dde8db","system_id":"levelo_inurba_marseille","lat":43.27403,"lon":5.42411,"is_reserved":false,"is_disabled":false,"rental_uris":{"android":"levelo://app?vid=9082ebba-d3d9-450d-a3be-063ef4dde8db","ios":"levelo://app?vid=9082ebba-d3d9-450d-a3be-063ef4dde8db"},"vehicle_type_id":"4","last_reported":1747920306,"current_range_meters":12000,"station_id":"","pricing_plan_id":"cebpf4jnsgd1na2vs0mg"},{"bike_id":"00693ead-fee0-4869-9a9d-53b71276edb4","system_id":"levelo_inurba_marseille","lat":43.29971,"lon":5.38494,"is_reserved":false,"is_disabled":false,"rental_uris":{"android":"levelo://app?vid=00693ead-fee0-4869-9a9d-53b71276edb4","ios":"levelo://app?vid=00693ead-fee0-4869-9a9d-53b71276edb4"},"vehicle_type_id":"4","last_reported":1747920306,"current_range_meters":12000,"station_id":"ce4bgj92rcd13ifvqbd0","pricing_plan_id":"cebpf4jnsgd1na2vs0mg"},{"bike_id":"59a49c40-e6d1-455d-8e0d-4650bc834db8","system_id":"levelo_inurba_marseille","lat":43.31497,"lon":5.37289,"is_reserved":false,"is_disabled":false,"rental_uris":{"android":"levelo://app?vid=59a49c40-e6d1-455d-8e0d-4650bc834db8","ios":"levelo://app?vid=59a49c40-e6d1-455d-8e0d-4650bc834db8"},"vehicle_type_id":"4","last_reported":1747920306,"current_range_meters":12000,"station_id":"ce4bgt12rcd13ifvqcd0","pricing_plan_id":"cebpf4jnsgd1na2vs0mg"},{"bike_id":"de0fb914-815f-496e-b265-257c322a0437","system_id":"levelo_inurba_marseille","lat":43.26559,"lon":5.37294,"is_reserved":false,"is_disabled":false,"rental_uris":{"android":"levelo://app?vid=de0fb914-815f-496e-b265-257c322a0437","ios":"levelo://app?vid=de0fb914-815f-496e-b265-257c322a0437"},"vehicle_type_id":"4","last_reported":1747920306,"current_range_meters":12000,"station_id":"ce4bhg12rcd13ifvqf70","pricing_plan_id":"cebpf4jnsgd1na2vs0mg"},{"bike_id":"97cefe16-8a9e-44aa-b4cb-d578d05e2968","system_id":"levelo_inurba_marseille","lat":43.268045,"lon":5.402648,"is_reserved":false,"is_disabled":false,"rental_uris":{"android":"levelo://app?vid=97cefe16-8a9e-44aa-b4cb-d578d05e2968","ios":"levelo://app?vid=97cefe16-8a9e-44aa-b4cb-d578d05e2968"},"vehicle_type_id":"4","last_reported":1747920306,"current_range_meters":12000,"station_id":"ce501612rcd8frsf0b60","pricing_plan_id":"cebpf4jnsgd1na2vs0mg"},{"bike_id":"bdb6ff00-aa85-4363-a069-cd56c1469518","system_id":"levelo_inurba_marseille","lat":43.29301,"lon":5.37459,"is_reserved":false,"is_disabled":false,"rental_uris":{"android":"levelo://app?vid=bdb6ff00-aa85-4363-a069-cd56c1469518","ios":"levelo://app?vid=bdb6ff00-aa85-4363-a069-cd56c1469518"},"vehicle_type_id":"4","last_reported":1747920306,"current_range_meters":12400,"station_id":"ce4bgi12rcd13ifvqb70","pricing_plan_id":"cebpf4jnsgd1na2vs0mg"},{"bike_id":"655d4419-eee4-4d88-96d4-ddf2cdc35027","system_id":"levelo_inurba_marseille","lat":43.30156,"lon":5.37416,"is_reserved":false,"is_disabled":false,"rental_uris":{"android":"levelo://app?vid=655d4419-eee4-4d88-96d4-ddf2cdc35027","ios":"levelo://app?vid=655d4419-eee4-4d88-96d4-ddf2cdc35027"},"vehicle_type_id":"4","last_reported":1747920306,"current_range_meters":12400,"station_id":"ce4bgs92rcd13ifvqcc0","pricing_plan_id":"cebpf4jnsgd1na2vs0mg"},{"bike_id":"a7a8cbc2-4da4-4a20-8e72-6045a3d24d51","system_id":"levelo_inurba_marseille","lat":43.3112,"lon":5.37767,"is_reserved":false,"is_disabled":false,"rental_uris":{"android":"levelo://app?vid=a7a8cbc2-4da4-4a20-8e72-6045a3d24d51","ios":"levelo://app?vid=a7a8cbc2-4da4-4a20-8e72-6045a3d24d51"},"vehicle_type_id":"4","last_reported":1747920306,"current_range_meters":12400,"station_id":"ce4bgt92rcd13ifvqcg0","pricing_plan_id":"cebpf4jnsgd1na2vs0mg"},{"bike_id":"1835c8cf-48e2-40fa-b7eb-294598ebcb43","system_id":"levelo_inurba_marseille","lat":43.30463,"lon":5.37901,"is_reserved":false,"is_disabled":false,"rental_uris":{"android":"levelo://app?vid=1835c8cf-48e2-40fa-b7eb-294598ebcb43","ios":"levelo://app?vid=1835c8cf-48e2-40fa-b7eb-294598ebcb43"},"vehicle_type_id":"4","last_reported":1747920306,"current_range_meters":12400,"station_id":"ce4bgup2rcd13ifvqcn0","pricing_plan_id":"cebpf4jnsgd1na2vs0mg"},{"bike_id":"7ad5230c-034a-413a-b71d-ac3ceb09e04a","system_id":"levelo_inurba_marseille","lat":43.30218,"lon":5.3947,"is_reserved":false,"is_disabled":false,"rental_uris":{"android":"levelo://app?vid=7ad5230c-034a-413a-b71d-ac3ceb09e04a","ios":"levelo://app?vid=7ad5230c-034a-413a-b71d-ac3ceb09e04a"},"vehicle_type_id":"4","last_reported":1747920306,"current_range_meters":12400,"station_id":"ce4bh0p2rcd13ifvqd70","pricing_plan_id":"cebpf4jnsgd1na2vs0mg"},{"bike_id":"80e046b0-1745-430b-b517-7490cfb7eef2","system_id":"levelo_inurba_marseille","lat":43.28856,"lon":5.35853,"is_reserved":false,"is_disabled":false,"rental_uris":{"android":"levelo://app?vid=80e046b0-1745-430b-b517-7490cfb7eef2","ios":"levelo://app?vid=80e046b0-1745-430b-b517-7490cfb7eef2"},"vehicle_type_id":"4","last_reported":1747920306,"current_range_meters":12400,"station_id":"ce4bhb12rcd13ifvqem0","pricing_plan_id":"cebpf4jnsgd1na2vs0mg"},{"bike_id":"d8ef93ab-6594-4205-bec9-cbf07e2aa23e","system_id":"levelo_inurba_marseille","lat":43.24171,"lon":5.36403,"is_reserved":false,"is_disabled":false,"rental_uris":{"android":"levelo://app?vid=d8ef93ab-6594-4205-bec9-cbf07e2aa23e","ios":"levelo://app?vid=d8ef93ab-6594-4205-bec9-cbf07e2aa23e"},"vehicle_type_id":"4","last_reported":1747920306,"current_range_meters":12400,"station_id":"cpo36qri1sfpv3e86is0","pricing_plan_id":"cebpf4jnsgd1na2vs0mg"},{"bike_id":"1b070888-ec79-4da1-a4f7-600e7cbb42ab","system_id":"levelo_inurba_marseille","lat":43.265597,"lon":5.372793,"is_reserved":false,"is_disabled":false,"rental_uris":{"android":"levelo://app?vid=1b070888-ec79-4da1-a4f7-600e7cbb42ab","ios":"levelo://app?vid=1b070888-ec79-4da1-a4f7-600e7cbb42ab"},"vehicle_type_id":"4","last_reported":1747920306,"current_range_meters":12800,"station_id":"ce4bhg12rcd13ifvqf70","pricing_plan_id":"cebpf4jnsgd1na2vs0mg"},{"bike_id":"f9223343-51dd-4eb0-a255-7d7bd8e5d0ef","system_id":"levelo_inurba_marseille","lat":43.31179,"lon":5.40163,"is_reserved":false,"is_disabled":false,"rental_uris":{"android":"levelo://app?vid=f9223343-51dd-4eb0-a255-7d7bd8e5d0ef","ios":"levelo://app?vid=f9223343-51dd-4eb0-a255-7d7bd8e5d0ef"},"vehicle_type_id":"4","last_reported":1747920306,"current_range_meters":13600,"station_id":"","pricing_plan_id":"cebpf4jnsgd1na2vs0mg"},{"bike_id":"d7e0b948-8e13-4499-9f1f-6ae9f7d6bb06","system_id":"levelo_inurba_marseille","lat":43.26781,"lon":5.39418,"is_reserved":false,"is_disabled":false,"rental_uris":{"android":"levelo://app?vid=d7e0b948-8e13-4499-9f1f-6ae9f7d6bb06","ios":"levelo://app?vid=d7e0b948-8e13-4499-9f1f-6ae9f7d6bb06"},"vehicle_type_id":"4","last_reported":1747920306,"current_range_meters":13600,"station_id":"ce4bhh12rcd13ifvqfg0","pricing_plan_id":"cebpf4jnsgd1na2vs0mg"},{"bike_id":"38dc466e-417a-4036-b85e-27c0642ee6d5","system_id":"levelo_inurba_marseille","lat":43.26809,"lon":5.40264,"is_reserved":false,"is_disabled":false,"rental_uris":{"android":"levelo://app?vid=38dc466e-417a-4036-b85e-27c0642ee6d5","ios":"levelo://app?vid=38dc466e-417a-4036-b85e-27c0642ee6d5"},"vehicle_type_id":"4","last_reported":1747920306,"current_range_meters":13600,"station_id":"ce501612rcd8frsf0b60","pricing_plan_id":"cebpf4jnsgd1na2vs0mg"},{"bike_id":"9ed434cc-85f3-4e41-90d1-b4e7ce899749","system_id":"levelo_inurba_marseille","lat":43.217537,"lon":5.346017,"is_reserved":false,"is_disabled":false,"rental_uris":{"android":"levelo://app?vid=9ed434cc-85f3-4e41-90d1-b4e7ce899749","ios":"levelo://app?vid=9ed434cc-85f3-4e41-90d1-b4e7ce899749"},"vehicle_type_id":"4","last_reported":1747920306,"current_range_meters":13600,"station_id":"st_cvj6r9ubvosntc0bgbag","pricing_plan_id":"cebpf4jnsgd1na2vs0mg"},{"bike_id":"d0c51f2c-c787-47da-9754-e407ad5b920f","system_id":"levelo_inurba_marseille","lat":43.314818,"lon":5.373242,"is_reserved":false,"is_disabled":false,"rental_uris":{"android":"levelo://app?vid=d0c51f2c-c787-47da-9754-e407ad5b920f","ios":"levelo://app?vid=d0c51f2c-c787-47da-9754-e407ad5b920f"},"vehicle_type_id":"4","last_reported":1747920306,"current_range_meters":14000,"station_id":"","pricing_plan_id":"cebpf4jnsgd1na2vs0mg"},{"bike_id":"d871b8e4-69c9-4da5-ab75-fc123f7492aa","system_id":"levelo_inurba_marseille","lat":43.312305,"lon":5.368576,"is_reserved":false,"is_disabled":false,"rental_uris":{"android":"levelo://app?vid=d871b8e4-69c9-4da5-ab75-fc123f7492aa","ios":"levelo://app?vid=d871b8e4-69c9-4da5-ab75-fc123f7492aa"},"vehicle_type_id":"4","last_reported":1747920306,"current_range_meters":14000,"station_id":"ce4bgl92rcd13ifvqbq0","pricing_plan_id":"cebpf4jnsgd1na2vs0mg"},{"bike_id":"27df3d17-b91f-435e-a933-0fb37222aa50","system_id":"levelo_inurba_marseille","lat":43.29706,"lon":5.36602,"is_reserved":false,"is_disabled":false,"rental_uris":{"android":"levelo://app?vid=27df3d17-b91f-435e-a933-0fb37222aa50","ios":"levelo://app?vid=27df3d17-b91f-435e-a933-0fb37222aa50"},"vehicle_type_id":"4","last_reported":1747920306,"current_range_meters":14000,"station_id":"ce4bgn12rcd13ifvqbt0","pricing_plan_id":"cebpf4jnsgd1na2vs0mg"},{"bike_id":"1b762b5a-5144-4532-8c85-fbeeb93e497b","system_id":"levelo_inurba_marseille","lat":43.2958,"lon":5.36738,"is_reserved":false,"is_disabled":false,"rental_uris":{"android":"levelo://app?vid=1b762b5a-5144-4532-8c85-fbeeb93e497b","ios":"levelo://app?vid=1b762b5a-5144-4532-8c85-fbeeb93e497b"},"vehicle_type_id":"4","last_reported":1747920306,"current_range_meters":14000,"station_id":"ce4bgph2rcd13ifvqc2g","pricing_plan_id":"cebpf4jnsgd1na2vs0mg"},{"bike_id":"70beb563-a50f-4edb-904d-bbc615ef6581","system_id":"levelo_inurba_marseille","lat":43.309457,"lon":5.390372,"is_reserved":false,"is_disabled":false,"rental_uris":{"android":"levelo://app?vid=70beb563-a50f-4edb-904d-bbc615ef6581","ios":"levelo://app?vid=70beb563-a50f-4edb-904d-bbc615ef6581"},"vehicle_type_id":"4","last_reported":1747920306,"current_range_meters":14000,"station_id":"ce4bgup2rcd13ifvqco0","pricing_plan_id":"cebpf4jnsgd1na2vs0mg"},{"bike_id":"6777b959-9cf4-49f0-991a-e522241590c2","system_id":"levelo_inurba_marseille","lat":43.26557,"lon":5.37307,"is_reserved":false,"is_disabled":false,"rental_uris":{"android":"levelo://app?vid=6777b959-9cf4-49f0-991a-e522241590c2","ios":"levelo://app?vid=6777b959-9cf4-49f0-991a-e522241590c2"},"vehicle_type_id":"4","last_reported":1747920306,"current_range_meters":14000,"station_id":"ce4bhg12rcd13ifvqf70","pricing_plan_id":"cebpf4jnsgd1na2vs0mg"},{"bike_id":"7da06f34-e019-4b18-921d-8f77e54cc2f1","system_id":"levelo_inurba_marseille","lat":43.248979,"lon":5.394097,"is_reserved":false,"is_disabled":false,"rental_uris":{"android":"levelo://app?vid=7da06f34-e019-4b18-921d-8f77e54cc2f1","ios":"levelo://app?vid=7da06f34-e019-4b18-921d-8f77e54cc2f1"},"vehicle_type_id":"4","last_reported":1747920306,"current_range_meters":14400,"station_id":"","pricing_plan_id":"cebpf4jnsgd1na2vs0mg"},{"bike_id":"05b2827c-9a32-4032-ba9e-7a9b671b11e2","system_id":"levelo_inurba_marseille","lat":43.30553,"lon":5.36545,"is_reserved":false,"is_disabled":false,"rental_uris":{"android":"levelo://app?vid=05b2827c-9a32-4032-ba9e-7a9b671b11e2","ios":"levelo://app?vid=05b2827c-9a32-4032-ba9e-7a9b671b11e2"},"vehicle_type_id":"4","last_reported":1747920306,"current_range_meters":14400,"station_id":"ce4bgs12rcd13ifvqcag","pricing_plan_id":"cebpf4jnsgd1na2vs0mg"},{"bike_id":"5570537f-fdf8-4d28-9c73-c87ffc7f96cb","system_id":"levelo_inurba_marseille","lat":43.26569,"lon":5.39008,"is_reserved":false,"is_disabled":false,"rental_uris":{"android":"levelo://app?vid=5570537f-fdf8-4d28-9c73-c87ffc7f96cb","ios":"levelo://app?vid=5570537f-fdf8-4d28-9c73-c87ffc7f96cb"},"vehicle_type_id":"4","last_reported":1747920306,"current_range_meters":14400,"station_id":"ce4bhe12rcd13ifvqf30","pricing_plan_id":"cebpf4jnsgd1na2vs0mg"},{"bike_id":"84f00b51-2429-41be-8a43-83978d7764de","system_id":"levelo_inurba_marseille","lat":43.27971,"lon":5.4008,"is_reserved":false,"is_disabled":false,"rental_uris":{"android":"levelo://app?vid=84f00b51-2429-41be-8a43-83978d7764de","ios":"levelo://app?vid=84f00b51-2429-41be-8a43-83978d7764de"},"vehicle_type_id":"4","last_reported":1747920306,"current_range_meters":14400,"station_id":"ce4bho92rcd13ifvqh4g","pricing_plan_id":"cebpf4jnsgd1na2vs0mg"},{"bike_id":"fce99fc9-87d6-4554-a296-1a9ea30dfd16","system_id":"levelo_inurba_marseille","lat":43.25761,"lon":5.41105,"is_reserved":false,"is_disabled":false,"rental_uris":{"android":"levelo://app?vid=fce99fc9-87d6-4554-a296-1a9ea30dfd16","ios":"levelo://app?vid=fce99fc9-87d6-4554-a296-1a9ea30dfd16"},"vehicle_type_id":"4","last_reported":1747920306,"current_range_meters":14800,"station_id":"","pricing_plan_id":"cebpf4jnsgd1na2vs0mg"},{"bike_id":"ddf7049b-0f7b-48ef-8aa7-d2e3669aebab","system_id":"levelo_inurba_marseille","lat":43.28224,"lon":5.39068,"is_reserved":false,"is_disabled":false,"rental_uris":{"android":"levelo://app?vid=ddf7049b-0f7b-48ef-8aa7-d2e3669aebab","ios":"levelo://app?vid=ddf7049b-0f7b-48ef-8aa7-d2e3669aebab"},"vehicle_type_id":"4","last_reported":1747920306,"current_range_meters":14800,"station_id":"","pricing_plan_id":"cebpf4jnsgd1na2vs0mg"},{"bike_id":"e7c8cc89-f1fd-4b27-ae8c-206dbef44dff","system_id":"levelo_inurba_marseille","lat":43.26556,"lon":5.37264,"is_reserved":false,"is_disabled":false,"rental_uris":{"android":"levelo://app?vid=e7c8cc89-f1fd-4b27-ae8c-206dbef44dff","ios":"levelo://app?vid=e7c8cc89-f1fd-4b27-ae8c-206dbef44dff"},"vehicle_type_id":"4","last_reported":1747920306,"current_range_meters":14800,"station_id":"ce4bhg12rcd13ifvqf70","pricing_plan_id":"cebpf4jnsgd1na2vs0mg"},{"bike_id":"0be3bdf5-aa07-4f5b-b16c-172c4d6c5ad8","system_id":"levelo_inurba_marseille","lat":43.27316,"lon":5.39064,"is_reserved":false,"is_disabled":false,"rental_uris":{"android":"levelo://app?vid=0be3bdf5-aa07-4f5b-b16c-172c4d6c5ad8","ios":"levelo://app?vid=0be3bdf5-aa07-4f5b-b16c-172c4d6c5ad8"},"vehicle_type_id":"4","last_reported":1747920306,"current_range_meters":14800,"station_id":"ce4bhgp2rcd13ifvqfe0","pricing_plan_id":"cebpf4jnsgd1na2vs0mg"},{"bike_id":"e3e19b90-9823-4b53-b8a7-4c599b3176c2","system_id":"levelo_inurba_marseille","lat":43.251122,"lon":5.403241,"is_reserved":false,"is_disabled":false,"rental_uris":{"android":"levelo://app?vid=e3e19b90-9823-4b53-b8a7-4c599b3176c2","ios":"levelo://app?vid=e3e19b90-9823-4b53-b8a7-4c599b3176c2"},"vehicle_type_id":"4","last_reported":1747920306,"current_range_meters":14800,"station_id":"ce4bhlh2rcd13ifvqgig","pricing_plan_id":"cebpf4jnsgd1na2vs0mg"},{"bike_id":"c1ca5f99-c898-4099-842f-66f219fb70d6","system_id":"levelo_inurba_marseille","lat":43.31367,"lon":5.36726,"is_reserved":false,"is_disabled":false,"rental_uris":{"android":"levelo://app?vid=c1ca5f99-c898-4099-842f-66f219fb70d6","ios":"levelo://app?vid=c1ca5f99-c898-4099-842f-66f219fb70d6"},"vehicle_type_id":"4","last_reported":1747920306,"current_range_meters":15200,"station_id":"ce4bgr92rcd13ifvqc6g","pricing_plan_id":"cebpf4jnsgd1na2vs0mg"},{"bike_id":"1ea7585b-6526-4872-b045-a263e84d0c10","system_id":"levelo_inurba_marseille","lat":43.28994,"lon":5.356,"is_reserved":false,"is_disabled":false,"rental_uris":{"android":"levelo://app?vid=1ea7585b-6526-4872-b045-a263e84d0c10","ios":"levelo://app?vid=1ea7585b-6526-4872-b045-a263e84d0c10"},"vehicle_type_id":"4","last_reported":1747920306,"current_range_meters":15200,"station_id":"ce4bhb92rcd13ifvqen0","pricing_plan_id":"cebpf4jnsgd1na2vs0mg"},{"bike_id":"16d0152a-be05-4c45-b2b7-622113417c8a","system_id":"levelo_inurba_marseille","lat":43.26948,"lon":5.38674,"is_reserved":false,"is_disabled":false,"rental_uris":{"android":"levelo://app?vid=16d0152a-be05-4c45-b2b7-622113417c8a","ios":"levelo://app?vid=16d0152a-be05-4c45-b2b7-622113417c8a"},"vehicle_type_id":"4","last_reported":1747920306,"current_range_meters":15200,"station_id":"ce4bhh92rcd13ifvqfh0","pricing_plan_id":"cebpf4jnsgd1na2vs0mg"},{"bike_id":"d5c22bd8-bd85-4efe-9877-d80e379dde93","system_id":"levelo_inurba_marseille","lat":43.30284,"lon":5.37706,"is_reserved":false,"is_disabled":false,"rental_uris":{"android":"levelo://app?vid=d5c22bd8-bd85-4efe-9877-d80e379dde93","ios":"levelo://app?vid=d5c22bd8-bd85-4efe-9877-d80e379dde93"},"vehicle_type_id":"4","last_reported":1747920306,"current_range_meters":16000,"station_id":"ce4bguh2rcd13ifvqcj0","pricing_plan_id":"cebpf4jnsgd1na2vs0mg"},{"bike_id":"7f8badc0-768b-4129-ba0a-3373a98411e5","system_id":"levelo_inurba_marseille","lat":43.31072,"lon":5.38346,"is_reserved":false,"is_disabled":false,"rental_uris":{"android":"levelo://app?vid=7f8badc0-768b-4129-ba0a-3373a98411e5","ios":"levelo://app?vid=7f8badc0-768b-4129-ba0a-3373a98411e5"},"vehicle_type_id":"4","last_reported":1747920306,"current_range_meters":16000,"station_id":"ce4bgv92rcd13ifvqcr0","pricing_plan_id":"cebpf4jnsgd1na2vs0mg"},{"bike_id":"64e8d141-7d8b-48cf-90b9-b154ac715691","system_id":"levelo_inurba_marseille","lat":43.29731,"lon":5.38108,"is_reserved":false,"is_disabled":false,"rental_uris":{"android":"levelo://app?vid=64e8d141-7d8b-48cf-90b9-b154ac715691","ios":"levelo://app?vid=64e8d141-7d8b-48cf-90b9-b154ac715691"},"vehicle_type_id":"4","last_reported":1747920306,"current_range_meters":16400,"station_id":"","pricing_plan_id":"cebpf4jnsgd1na2vs0mg"},{"bike_id":"41bef200-0210-46a9-afd1-c001d345c4b0","system_id":"levelo_inurba_marseille","lat":43.33666,"lon":5.3786,"is_reserved":false,"is_disabled":false,"rental_uris":{"android":"levelo://app?vid=41bef200-0210-46a9-afd1-c001d345c4b0","ios":"levelo://app?vid=41bef200-0210-46a9-afd1-c001d345c4b0"},"vehicle_type_id":"4","last_reported":1747920306,"current_range_meters":16400,"station_id":"","pricing_plan_id":"cebpf4jnsgd1na2vs0mg"},{"bike_id":"50b2229c-39da-488c-8613-7a6e1003d957","system_id":"levelo_inurba_marseille","lat":43.3052,"lon":5.3669,"is_reserved":false,"is_disabled":false,"rental_uris":{"android":"levelo://app?vid=50b2229c-39da-488c-8613-7a6e1003d957","ios":"levelo://app?vid=50b2229c-39da-488c-8613-7a6e1003d957"},"vehicle_type_id":"4","last_reported":1747920306,"current_range_meters":16400,"station_id":"ce4bgrp2rcd13ifvqc9g","pricing_plan_id":"cebpf4jnsgd1na2vs0mg"},{"bike_id":"dee19f16-dc1c-43a0-a7e6-f62d171e520b","system_id":"levelo_inurba_marseille","lat":43.3047,"lon":5.37896,"is_reserved":false,"is_disabled":false,"rental_uris":{"android":"levelo://app?vid=dee19f16-dc1c-43a0-a7e6-f62d171e520b","ios":"levelo://app?vid=dee19f16-dc1c-43a0-a7e6-f62d171e520b"},"vehicle_type_id":"4","last_reported":1747920306,"current_range_meters":16400,"station_id":"ce4bgup2rcd13ifvqcn0","pricing_plan_id":"cebpf4jnsgd1na2vs0mg"},{"bike_id":"f2ba65ce-c257-4d50-a354-2926b3680de8","system_id":"levelo_inurba_marseille","lat":43.29264,"lon":5.40911,"is_reserved":false,"is_disabled":false,"rental_uris":{"android":"levelo://app?vid=f2ba65ce-c257-4d50-a354-2926b3680de8","ios":"levelo://app?vid=f2ba65ce-c257-4d50-a354-2926b3680de8"},"vehicle_type_id":"4","last_reported":1747920306,"current_range_meters":16400,"station_id":"ce4bh192rcd13ifvqdc0","pricing_plan_id":"cebpf4jnsgd1na2vs0mg"},{"bike_id":"800a4ee9-8078-4ad6-8ded-b296a93ca9bc","system_id":"levelo_inurba_marseille","lat":43.24674,"lon":5.38153,"is_reserved":false,"is_disabled":false,"rental_uris":{"android":"levelo://app?vid=800a4ee9-8078-4ad6-8ded-b296a93ca9bc","ios":"levelo://app?vid=800a4ee9-8078-4ad6-8ded-b296a93ca9bc"},"vehicle_type_id":"4","last_reported":1747920306,"current_range_meters":16400,"station_id":"ce4bhih2rcd13ifvqfr0","pricing_plan_id":"cebpf4jnsgd1na2vs0mg"},{"bike_id":"605be4bf-deee-4b33-a4cb-0294e9797557","system_id":"levelo_inurba_marseille","lat":43.230567,"lon":5.35488,"is_reserved":false,"is_disabled":false,"rental_uris":{"android":"levelo://app?vid=605be4bf-deee-4b33-a4cb-0294e9797557","ios":"levelo://app?vid=605be4bf-deee-4b33-a4cb-0294e9797557"},"vehicle_type_id":"4","last_reported":1747920306,"current_range_meters":16400,"station_id":"cpo3342slgdg3j2ifvpg","pricing_plan_id":"cebpf4jnsgd1na2vs0mg"},{"bike_id":"817348e2-fb05-4de7-96f6-c8b207cb8ed8","system_id":"levelo_inurba_marseille","lat":43.21195,"lon":5.3507,"is_reserved":false,"is_disabled":false,"rental_uris":{"android":"levelo://app?vid=817348e2-fb05-4de7-96f6-c8b207cb8ed8","ios":"levelo://app?vid=817348e2-fb05-4de7-96f6-c8b207cb8ed8"},"vehicle_type_id":"4","last_reported":1747920306,"current_range_meters":16400,"station_id":"st_cvj6sg6p6f1abm77japg","pricing_plan_id":"cebpf4jnsgd1na2vs0mg"},{"bike_id":"c7c1c4b6-27f9-4c6c-87a5-60167d508e9a","system_id":"levelo_inurba_marseille","lat":43.2963,"lon":5.37722,"is_reserved":false,"is_disabled":false,"rental_uris":{"android":"levelo://app?vid=c7c1c4b6-27f9-4c6c-87a5-60167d508e9a","ios":"levelo://app?vid=c7c1c4b6-27f9-4c6c-87a5-60167d508e9a"},"vehicle_type_id":"4","last_reported":1747920306,"current_range_meters":16800,"station_id":"ce4bgi92rcd13ifvqb90","pricing_plan_id":"cebpf4jnsgd1na2vs0mg"},{"bike_id":"59f58d73-20a5-43ad-b64f-a6693384bb73","system_id":"levelo_inurba_marseille","lat":43.30547,"lon":5.36554,"is_reserved":false,"is_disabled":false,"rental_uris":{"android":"levelo://app?vid=59f58d73-20a5-43ad-b64f-a6693384bb73","ios":"levelo://app?vid=59f58d73-20a5-43ad-b64f-a6693384bb73"},"vehicle_type_id":"4","last_reported":1747920306,"current_range_meters":16800,"station_id":"ce4bgs12rcd13ifvqcag","pricing_plan_id":"cebpf4jnsgd1na2vs0mg"},{"bike_id":"6dde22b3-be2c-4353-838d-05c85608e4d3","system_id":"levelo_inurba_marseille","lat":43.32357,"lon":5.36754,"is_reserved":false,"is_disabled":false,"rental_uris":{"android":"levelo://app?vid=6dde22b3-be2c-4353-838d-05c85608e4d3","ios":"levelo://app?vid=6dde22b3-be2c-4353-838d-05c85608e4d3"},"vehicle_type_id":"4","last_reported":1747920306,"current_range_meters":16800,"station_id":"ce4bhsh2rcd13ifvqi2g","pricing_plan_id":"cebpf4jnsgd1na2vs0mg"},{"bike_id":"c0a363d1-3bb5-4d7a-a4e8-50a1272c1a00","system_id":"levelo_inurba_marseille","lat":43.23201,"lon":5.35579,"is_reserved":false,"is_disabled":false,"rental_uris":{"android":"levelo://app?vid=c0a363d1-3bb5-4d7a-a4e8-50a1272c1a00","ios":"levelo://app?vid=c0a363d1-3bb5-4d7a-a4e8-50a1272c1a00"},"vehicle_type_id":"4","last_reported":1747920306,"current_range_meters":16800,"station_id":"ce4bhu92rcd13ifvqi70","pricing_plan_id":"cebpf4jnsgd1na2vs0mg"},{"bike_id":"37844bcf-e6b5-4f86-9cc0-88711b06431d","system_id":"levelo_inurba_marseille","lat":43.30277,"lon":5.37299,"is_reserved":false,"is_disabled":false,"rental_uris":{"android":"levelo://app?vid=37844bcf-e6b5-4f86-9cc0-88711b06431d","ios":"levelo://app?vid=37844bcf-e6b5-4f86-9cc0-88711b06431d"},"vehicle_type_id":"4","last_reported":1747920306,"current_range_meters":17200,"station_id":"","pricing_plan_id":"cebpf4jnsgd1na2vs0mg"},{"bike_id":"316a8939-6843-4b61-bb96-546f4bfa5c57","system_id":"levelo_inurba_marseille","lat":43.31359,"lon":5.38496,"is_reserved":false,"is_disabled":false,"rental_uris":{"android":"levelo://app?vid=316a8939-6843-4b61-bb96-546f4bfa5c57","ios":"levelo://app?vid=316a8939-6843-4b61-bb96-546f4bfa5c57"},"vehicle_type_id":"4","last_reported":1747920306,"current_range_meters":17200,"station_id":"ce4bgt92rcd13ifvqcf0","pricing_plan_id":"cebpf4jnsgd1na2vs0mg"},{"bike_id":"9033ff02-68b2-4117-8570-8c14d7d33598","system_id":"levelo_inurba_marseille","lat":43.288594,"lon":5.393129,"is_reserved":false,"is_disabled":false,"rental_uris":{"android":"levelo://app?vid=9033ff02-68b2-4117-8570-8c14d7d33598","ios":"levelo://app?vid=9033ff02-68b2-4117-8570-8c14d7d33598"},"vehicle_type_id":"4","last_reported":1747920306,"current_range_meters":17200,"station_id":"ce4bh2p2rcd13ifvqdi0","pricing_plan_id":"cebpf4jnsgd1na2vs0mg"},{"bike_id":"12312cb8-e991-4b6e-9e36-5053a5e49a80","system_id":"levelo_inurba_marseille","lat":43.26687,"lon":5.38258,"is_reserved":false,"is_disabled":false,"rental_uris":{"android":"levelo://app?vid=12312cb8-e991-4b6e-9e36-5053a5e49a80","ios":"levelo://app?vid=12312cb8-e991-4b6e-9e36-5053a5e49a80"},"vehicle_type_id":"4","last_reported":1747920306,"current_range_meters":17200,"station_id":"ce4bhg92rcd13ifvqf90","pricing_plan_id":"cebpf4jnsgd1na2vs0mg"},{"bike_id":"8cbf5851-dbe6-4d00-b387-472f645cdce9","system_id":"levelo_inurba_marseille","lat":43.25721,"lon":5.41109,"is_reserved":false,"is_disabled":false,"rental_uris":{"android":"levelo://app?vid=8cbf5851-dbe6-4d00-b387-472f645cdce9","ios":"levelo://app?vid=8cbf5851-dbe6-4d00-b387-472f645cdce9"},"vehicle_type_id":"4","last_reported":1747920306,"current_range_meters":17200,"station_id":"ce4bhkp2rcd13ifvqgd0","pricing_plan_id":"cebpf4jnsgd1na2vs0mg"},{"bike_id":"328dba15-93e3-416f-8e4c-50a2f5e1a1e8","system_id":"levelo_inurba_marseille","lat":43.23156,"lon":5.43708,"is_reserved":false,"is_disabled":false,"rental_uris":{"android":"levelo://app?vid=328dba15-93e3-416f-8e4c-50a2f5e1a1e8","ios":"levelo://app?vid=328dba15-93e3-416f-8e4c-50a2f5e1a1e8"},"vehicle_type_id":"4","last_reported":1747920306,"current_range_meters":17200,"station_id":"ce4bhmp2rcd13ifvqgog","pricing_plan_id":"cebpf4jnsgd1na2vs0mg"},{"bike_id":"7a174cf0-49bb-442b-9787-ed977ba34ca4","system_id":"levelo_inurba_marseille","lat":43.241786,"lon":5.397327,"is_reserved":false,"is_disabled":false,"rental_uris":{"android":"levelo://app?vid=7a174cf0-49bb-442b-9787-ed977ba34ca4","ios":"levelo://app?vid=7a174cf0-49bb-442b-9787-ed977ba34ca4"},"vehicle_type_id":"4","last_reported":1747920306,"current_range_meters":17200,"station_id":"ce4bhn12rcd13ifvqgpg","pricing_plan_id":"cebpf4jnsgd1na2vs0mg"},{"bike_id":"6445ae30-b0bf-4a4a-b814-8adb7528a014","system_id":"levelo_inurba_marseille","lat":43.28442,"lon":5.39194,"is_reserved":false,"is_disabled":false,"rental_uris":{"android":"levelo://app?vid=6445ae30-b0bf-4a4a-b814-8adb7528a014","ios":"levelo://app?vid=6445ae30-b0bf-4a4a-b814-8adb7528a014"},"vehicle_type_id":"4","last_reported":1747920306,"current_range_meters":17200,"station_id":"ce4bhoh2rcd13ifvqh5g","pricing_plan_id":"cebpf4jnsgd1na2vs0mg"},{"bike_id":"1a340bac-8012-4c7c-b50a-247d19f083a9","system_id":"levelo_inurba_marseille","lat":43.22506,"lon":5.34792,"is_reserved":false,"is_disabled":false,"rental_uris":{"android":"levelo://app?vid=1a340bac-8012-4c7c-b50a-247d19f083a9","ios":"levelo://app?vid=1a340bac-8012-4c7c-b50a-247d19f083a9"},"vehicle_type_id":"4","last_reported":1747920306,"current_range_meters":17200,"station_id":"st_cvj5dfep6f1abm77gieg","pricing_plan_id":"cebpf4jnsgd1na2vs0mg"},{"bike_id":"87b77e4c-ea88-4586-b697-0909bd9b1ce9","system_id":"levelo_inurba_marseille","lat":43.29631,"lon":5.37146,"is_reserved":false,"is_disabled":false,"rental_uris":{"android":"levelo://app?vid=87b77e4c-ea88-4586-b697-0909bd9b1ce9","ios":"levelo://app?vid=87b77e4c-ea88-4586-b697-0909bd9b1ce9"},"vehicle_type_id":"4","last_reported":1747920306,"current_range_meters":17600,"station_id":"ce4bgnh2rcd13ifvqc0g","pricing_plan_id":"cebpf4jnsgd1na2vs0mg"},{"bike_id":"bd69eaf5-3f03-496d-a60a-3a167131e845","system_id":"levelo_inurba_marseille","lat":43.29805,"lon":5.37117,"is_reserved":false,"is_disabled":false,"rental_uris":{"android":"levelo://app?vid=bd69eaf5-3f03-496d-a60a-3a167131e845","ios":"levelo://app?vid=bd69eaf5-3f03-496d-a60a-3a167131e845"},"vehicle_type_id":"4","last_reported":1747920306,"current_range_meters":17600,"station_id":"ce4bgop2rcd13ifvqc1g","pricing_plan_id":"cebpf4jnsgd1na2vs0mg"},{"bike_id":"f2f1fa57-1102-4643-a398-51c618cf1ac7","system_id":"levelo_inurba_marseille","lat":43.29796,"lon":5.37114,"is_reserved":false,"is_disabled":false,"rental_uris":{"android":"levelo://app?vid=f2f1fa57-1102-4643-a398-51c618cf1ac7","ios":"levelo://app?vid=f2f1fa57-1102-4643-a398-51c618cf1ac7"},"vehicle_type_id":"4","last_reported":1747920306,"current_range_meters":17600,"station_id":"ce4bgop2rcd13ifvqc1g","pricing_plan_id":"cebpf4jnsgd1na2vs0mg"},{"bike_id":"290bbae9-6bca-4332-b92d-6e1d7b85a746","system_id":"levelo_inurba_marseille","lat":43.29882,"lon":5.36271,"is_reserved":false,"is_disabled":false,"rental_uris":{"android":"levelo://app?vid=290bbae9-6bca-4332-b92d-6e1d7b85a746","ios":"levelo://app?vid=290bbae9-6bca-4332-b92d-6e1d7b85a746"},"vehicle_type_id":"4","last_reported":1747920306,"current_range_meters":17600,"station_id":"ce4bgpp2rcd13ifvqc3g","pricing_plan_id":"cebpf4jnsgd1na2vs0mg"},{"bike_id":"708195e0-bc68-4e1e-94ca-f71b3a844bf0","system_id":"levelo_inurba_marseille","lat":43.29842,"lon":5.36266,"is_reserved":false,"is_disabled":false,"rental_uris":{"android":"levelo://app?vid=708195e0-bc68-4e1e-94ca-f71b3a844bf0","ios":"levelo://app?vid=708195e0-bc68-4e1e-94ca-f71b3a844bf0"},"vehicle_type_id":"4","last_reported":1747920306,"current_range_meters":17600,"station_id":"ce4bgpp2rcd13ifvqc3g","pricing_plan_id":"cebpf4jnsgd1na2vs0mg"},{"bike_id":"1d373b64-9e90-4299-b14f-33098283515f","system_id":"levelo_inurba_marseille","lat":43.31355,"lon":5.36724,"is_reserved":false,"is_disabled":false,"rental_uris":{"android":"levelo://app?vid=1d373b64-9e90-4299-b14f-33098283515f","ios":"levelo://app?vid=1d373b64-9e90-4299-b14f-33098283515f"},"vehicle_type_id":"4","last_reported":1747920306,"current_range_meters":17600,"station_id":"ce4bgr92rcd13ifvqc6g","pricing_plan_id":"cebpf4jnsgd1na2vs0mg"},{"bike_id":"3aac78bd-1299-467f-b167-80194009dc41","system_id":"levelo_inurba_marseille","lat":43.26788,"lon":5.3942,"is_reserved":false,"is_disabled":false,"rental_uris":{"android":"levelo://app?vid=3aac78bd-1299-467f-b167-80194009dc41","ios":"levelo://app?vid=3aac78bd-1299-467f-b167-80194009dc41"},"vehicle_type_id":"4","last_reported":1747920306,"current_range_meters":17600,"station_id":"ce4bhh12rcd13ifvqfg0","pricing_plan_id":"cebpf4jnsgd1na2vs0mg"},{"bike_id":"03c812a5-62e2-43ea-8462-7667c3c90999","system_id":"levelo_inurba_marseille","lat":43.26952,"lon":5.38636,"is_reserved":false,"is_disabled":false,"rental_uris":{"android":"levelo://app?vid=03c812a5-62e2-43ea-8462-7667c3c90999","ios":"levelo://app?vid=03c812a5-62e2-43ea-8462-7667c3c90999"},"vehicle_type_id":"4","last_reported":1747920306,"current_range_meters":17600,"station_id":"ce4bhh92rcd13ifvqfh0","pricing_plan_id":"cebpf4jnsgd1na2vs0mg"},{"bike_id":"dba9a0b4-5ec6-4662-ac31-d6b0c11c94b9","system_id":"levelo_inurba_marseille","lat":43.27202,"lon":5.39184,"is_reserved":false,"is_disabled":false,"rental_uris":{"android":"levelo://app?vid=dba9a0b4-5ec6-4662-ac31-d6b0c11c94b9","ios":"levelo://app?vid=dba9a0b4-5ec6-4662-ac31-d6b0c11c94b9"},"vehicle_type_id":"4","last_reported":1747920306,"current_range_meters":17600,"station_id":"ce4bhhp2rcd13ifvqfm0","pricing_plan_id":"cebpf4jnsgd1na2vs0mg"},{"bike_id":"091eb497-efeb-46d9-a1df-6ac79792f26f","system_id":"levelo_inurba_marseille","lat":43.2861,"lon":5.37064,"is_reserved":false,"is_disabled":false,"rental_uris":{"android":"levelo://app?vid=091eb497-efeb-46d9-a1df-6ac79792f26f","ios":"levelo://app?vid=091eb497-efeb-46d9-a1df-6ac79792f26f"},"vehicle_type_id":"4","last_reported":1747920306,"current_range_meters":17600,"station_id":"ce4bht12rcd13ifvqi60","pricing_plan_id":"cebpf4jnsgd1na2vs0mg"},{"bike_id":"6ff70347-3dd2-45a7-9919-8717ca33f555","system_id":"levelo_inurba_marseille","lat":43.26942,"lon":5.40251,"is_reserved":false,"is_disabled":false,"rental_uris":{"android":"levelo://app?vid=6ff70347-3dd2-45a7-9919-8717ca33f555","ios":"levelo://app?vid=6ff70347-3dd2-45a7-9919-8717ca33f555"},"vehicle_type_id":"4","last_reported":1747920306,"current_range_meters":17600,"station_id":"cjm6bp8fraef2m0cb0m0","pricing_plan_id":"cebpf4jnsgd1na2vs0mg"},{"bike_id":"beb93ece-8a2b-401d-b7e3-ad77b01ce941","system_id":"levelo_inurba_marseille","lat":43.21749,"lon":5.3461,"is_reserved":false,"is_disabled":false,"rental_uris":{"android":"levelo://app?vid=beb93ece-8a2b-401d-b7e3-ad77b01ce941","ios":"levelo://app?vid=beb93ece-8a2b-401d-b7e3-ad77b01ce941"},"vehicle_type_id":"4","last_reported":1747920306,"current_range_meters":17600,"station_id":"st_cvj6r9ubvosntc0bgbag","pricing_plan_id":"cebpf4jnsgd1na2vs0mg"},{"bike_id":"9d6a96b0-9380-420d-a85d-76eceb91d477","system_id":"levelo_inurba_marseille","lat":43.217499,"lon":5.34593,"is_reserved":false,"is_disabled":false,"rental_uris":{"android":"levelo://app?vid=9d6a96b0-9380-420d-a85d-76eceb91d477","ios":"levelo://app?vid=9d6a96b0-9380-420d-a85d-76eceb91d477"},"vehicle_type_id":"4","last_reported":1747920306,"current_range_meters":17600,"station_id":"st_cvj6r9ubvosntc0bgbag","pricing_plan_id":"cebpf4jnsgd1na2vs0mg"},{"bike_id":"0e27a530-5aca-4bdb-bcfe-2711f03311f8","system_id":"levelo_inurba_marseille","lat":43.21751,"lon":5.34601,"is_reserved":false,"is_disabled":false,"rental_uris":{"android":"levelo://app?vid=0e27a530-5aca-4bdb-bcfe-2711f03311f8","ios":"levelo://app?vid=0e27a530-5aca-4bdb-bcfe-2711f03311f8"},"vehicle_type_id":"4","last_reported":1747920306,"current_range_meters":17600,"station_id":"st_cvj6r9ubvosntc0bgbag","pricing_plan_id":"cebpf4jnsgd1na2vs0mg"},{"bike_id":"9fec8102-7898-49e1-82b8-75025119b5ad","system_id":"levelo_inurba_marseille","lat":43.29573,"lon":5.36722,"is_reserved":false,"is_disabled":false,"rental_uris":{"android":"levelo://app?vid=9fec8102-7898-49e1-82b8-75025119b5ad","ios":"levelo://app?vid=9fec8102-7898-49e1-82b8-75025119b5ad"},"vehicle_type_id":"4","last_reported":1747920306,"current_range_meters":18000,"station_id":"ce4bgph2rcd13ifvqc2g","pricing_plan_id":"cebpf4jnsgd1na2vs0mg"},{"bike_id":"d1f73e05-5ed4-4e71-817f-a8de467751b5","system_id":"levelo_inurba_marseille","lat":43.2827,"lon":5.35072,"is_reserved":false,"is_disabled":false,"rental_uris":{"android":"levelo://app?vid=d1f73e05-5ed4-4e71-817f-a8de467751b5","ios":"levelo://app?vid=d1f73e05-5ed4-4e71-817f-a8de467751b5"},"vehicle_type_id":"4","last_reported":1747920306,"current_range_meters":18000,"station_id":"ce4bhbp2rcd13ifvqerg","pricing_plan_id":"cebpf4jnsgd1na2vs0mg"},{"bike_id":"1f6bca8b-903e-498d-8ef0-7f16f5de50b5","system_id":"levelo_inurba_marseille","lat":43.28935,"lon":5.36393,"is_reserved":false,"is_disabled":false,"rental_uris":{"android":"levelo://app?vid=1f6bca8b-903e-498d-8ef0-7f16f5de50b5","ios":"levelo://app?vid=1f6bca8b-903e-498d-8ef0-7f16f5de50b5"},"vehicle_type_id":"4","last_reported":1747920306,"current_range_meters":18000,"station_id":"ce4bhc92rcd13ifvqetg","pricing_plan_id":"cebpf4jnsgd1na2vs0mg"},{"bike_id":"26af1b1b-9162-436f-b245-d479c1ef9779","system_id":"levelo_inurba_marseille","lat":43.31887,"lon":5.40733,"is_reserved":false,"is_disabled":false,"rental_uris":{"android":"levelo://app?vid=26af1b1b-9162-436f-b245-d479c1ef9779","ios":"levelo://app?vid=26af1b1b-9162-436f-b245-d479c1ef9779"},"vehicle_type_id":"4","last_reported":1747920306,"current_range_meters":18000,"station_id":"ce4bhq12rcd13ifvqhig","pricing_plan_id":"cebpf4jnsgd1na2vs0mg"},{"bike_id":"c6bf2e46-fb2f-4485-b1e5-f93500b0678b","system_id":"levelo_inurba_marseille","lat":43.230641,"lon":5.354862,"is_reserved":false,"is_disabled":false,"rental_uris":{"android":"levelo://app?vid=c6bf2e46-fb2f-4485-b1e5-f93500b0678b","ios":"levelo://app?vid=c6bf2e46-fb2f-4485-b1e5-f93500b0678b"},"vehicle_type_id":"4","last_reported":1747920306,"current_range_meters":18000,"station_id":"cpo3342slgdg3j2ifvpg","pricing_plan_id":"cebpf4jnsgd1na2vs0mg"},{"bike_id":"31c1bcaf-8d5e-4a27-9ab1-85564724fdde","system_id":"levelo_inurba_marseille","lat":43.3054,"lon":5.38429,"is_reserved":false,"is_disabled":false,"rental_uris":{"android":"levelo://app?vid=31c1bcaf-8d5e-4a27-9ab1-85564724fdde","ios":"levelo://app?vid=31c1bcaf-8d5e-4a27-9ab1-85564724fdde"},"vehicle_type_id":"4","last_reported":1747920306,"current_range_meters":18800,"station_id":"ce4bgg92rcd13ifvqb30","pricing_plan_id":"cebpf4jnsgd1na2vs0mg"},{"bike_id":"6dae983d-86a1-49db-b4c0-a0190c812cda","system_id":"levelo_inurba_marseille","lat":43.29261,"lon":5.37617,"is_reserved":false,"is_disabled":false,"rental_uris":{"android":"levelo://app?vid=6dae983d-86a1-49db-b4c0-a0190c812cda","ios":"levelo://app?vid=6dae983d-86a1-49db-b4c0-a0190c812cda"},"vehicle_type_id":"4","last_reported":1747920306,"current_range_meters":18800,"station_id":"ce4bgi12rcd13ifvqb80","pricing_plan_id":"cebpf4jnsgd1na2vs0mg"},{"bike_id":"be7fc669-8819-42e0-8238-48f6fe8a7303","system_id":"levelo_inurba_marseille","lat":43.2971,"lon":5.37689,"is_reserved":false,"is_disabled":false,"rental_uris":{"android":"levelo://app?vid=be7fc669-8819-42e0-8238-48f6fe8a7303","ios":"levelo://app?vid=be7fc669-8819-42e0-8238-48f6fe8a7303"},"vehicle_type_id":"4","last_reported":1747920306,"current_range_meters":18800,"station_id":"ce4bgkh2rcd13ifvqbl0","pricing_plan_id":"cebpf4jnsgd1na2vs0mg"},{"bike_id":"0fc0b079-c425-47dd-9286-85489c778492","system_id":"levelo_inurba_marseille","lat":43.29937,"lon":5.36532,"is_reserved":false,"is_disabled":false,"rental_uris":{"android":"levelo://app?vid=0fc0b079-c425-47dd-9286-85489c778492","ios":"levelo://app?vid=0fc0b079-c425-47dd-9286-85489c778492"},"vehicle_type_id":"4","last_reported":1747920306,"current_range_meters":18800,"station_id":"ce4bgm92rcd13ifvqbr0","pricing_plan_id":"cebpf4jnsgd1na2vs0mg"},{"bike_id":"5642c154-6f1b-4a58-bfab-e770d9e36c9f","system_id":"levelo_inurba_marseille","lat":43.31123,"lon":5.37766,"is_reserved":false,"is_disabled":false,"rental_uris":{"android":"levelo://app?vid=5642c154-6f1b-4a58-bfab-e770d9e36c9f","ios":"levelo://app?vid=5642c154-6f1b-4a58-bfab-e770d9e36c9f"},"vehicle_type_id":"4","last_reported":1747920306,"current_range_meters":18800,"station_id":"ce4bgt92rcd13ifvqcg0","pricing_plan_id":"cebpf4jnsgd1na2vs0mg"},{"bike_id":"1f6f0b5e-1f8c-4a09-af8d-5cd9a84fdaac","system_id":"levelo_inurba_marseille","lat":43.28857,"lon":5.35855,"is_reserved":false,"is_disabled":false,"rental_uris":{"android":"levelo://app?vid=1f6f0b5e-1f8c-4a09-af8d-5cd9a84fdaac","ios":"levelo://app?vid=1f6f0b5e-1f8c-4a09-af8d-5cd9a84fdaac"},"vehicle_type_id":"4","last_reported":1747920306,"current_range_meters":18800,"station_id":"ce4bhb12rcd13ifvqem0","pricing_plan_id":"cebpf4jnsgd1na2vs0mg"},{"bike_id":"e3938353-cdc7-4649-ae91-1dd94b0253b5","system_id":"levelo_inurba_marseille","lat":43.262329,"lon":5.404541,"is_reserved":false,"is_disabled":false,"rental_uris":{"android":"levelo://app?vid=e3938353-cdc7-4649-ae91-1dd94b0253b5","ios":"levelo://app?vid=e3938353-cdc7-4649-ae91-1dd94b0253b5"},"vehicle_type_id":"4","last_reported":1747920306,"current_range_meters":18800,"station_id":"ce4bhmh2rcd13ifvqgmg","pricing_plan_id":"cebpf4jnsgd1na2vs0mg"},{"bike_id":"03c27706-dafc-4e44-b173-3742dda15e11","system_id":"levelo_inurba_marseille","lat":43.23188,"lon":5.35557,"is_reserved":false,"is_disabled":false,"rental_uris":{"android":"levelo://app?vid=03c27706-dafc-4e44-b173-3742dda15e11","ios":"levelo://app?vid=03c27706-dafc-4e44-b173-3742dda15e11"},"vehicle_type_id":"4","last_reported":1747920306,"current_range_meters":18800,"station_id":"ce4bhu92rcd13ifvqi70","pricing_plan_id":"cebpf4jnsgd1na2vs0mg"},{"bike_id":"c8d6319f-35a1-45f1-a95a-5f43450f05ab","system_id":"levelo_inurba_marseille","lat":43.28694,"lon":5.37911,"is_reserved":false,"is_disabled":false,"rental_uris":{"android":"levelo://app?vid=c8d6319f-35a1-45f1-a95a-5f43450f05ab","ios":"levelo://app?vid=c8d6319f-35a1-45f1-a95a-5f43450f05ab"},"vehicle_type_id":"4","last_reported":1747920306,"current_range_meters":19200,"station_id":"","pricing_plan_id":"cebpf4jnsgd1na2vs0mg"},{"bike_id":"b6a39d90-1dcd-455b-b3b8-b4391b529601","system_id":"levelo_inurba_marseille","lat":43.30883,"lon":5.36902,"is_reserved":false,"is_disabled":false,"rental_uris":{"android":"levelo://app?vid=b6a39d90-1dcd-455b-b3b8-b4391b529601","ios":"levelo://app?vid=b6a39d90-1dcd-455b-b3b8-b4391b529601"},"vehicle_type_id":"4","last_reported":1747920306,"current_range_meters":19200,"station_id":"ce4bgn92rcd13ifvqbvg","pricing_plan_id":"cebpf4jnsgd1na2vs0mg"},{"bike_id":"eb884091-43ec-4558-a367-fe5b240504e1","system_id":"levelo_inurba_marseille","lat":43.30659,"lon":5.3996,"is_reserved":false,"is_disabled":false,"rental_uris":{"android":"levelo://app?vid=eb884091-43ec-4558-a367-fe5b240504e1","ios":"levelo://app?vid=eb884091-43ec-4558-a367-fe5b240504e1"},"vehicle_type_id":"4","last_reported":1747920306,"current_range_meters":19200,"station_id":"ce4bh112rcd13ifvqda0","pricing_plan_id":"cebpf4jnsgd1na2vs0mg"},{"bike_id":"a0e27224-9604-47a8-9e19-e79ecb31c3fb","system_id":"levelo_inurba_marseille","lat":43.29889,"lon":5.38924,"is_reserved":false,"is_disabled":false,"rental_uris":{"android":"levelo://app?vid=a0e27224-9604-47a8-9e19-e79ecb31c3fb","ios":"levelo://app?vid=a0e27224-9604-47a8-9e19-e79ecb31c3fb"},"vehicle_type_id":"4","last_reported":1747920306,"current_range_meters":19200,"station_id":"ce4bh392rcd13ifvqdl0","pricing_plan_id":"cebpf4jnsgd1na2vs0mg"},{"bike_id":"1099fcd3-c254-43ef-acbb-d6599d6c4f83","system_id":"levelo_inurba_marseille","lat":43.28421,"lon":5.37503,"is_reserved":false,"is_disabled":false,"rental_uris":{"android":"levelo://app?vid=1099fcd3-c254-43ef-acbb-d6599d6c4f83","ios":"levelo://app?vid=1099fcd3-c254-43ef-acbb-d6599d6c4f83"},"vehicle_type_id":"4","last_reported":1747920306,"current_range_meters":19200,"station_id":"ce4bh412rcd13ifvqds0","pricing_plan_id":"cebpf4jnsgd1na2vs0mg"},{"bike_id":"c06851de-cf5e-46a6-a53c-3ba4d6dc5b43","system_id":"levelo_inurba_marseille","lat":43.26551,"lon":5.37296,"is_reserved":false,"is_disabled":false,"rental_uris":{"android":"levelo://app?vid=c06851de-cf5e-46a6-a53c-3ba4d6dc5b43","ios":"levelo://app?vid=c06851de-cf5e-46a6-a53c-3ba4d6dc5b43"},"vehicle_type_id":"4","last_reported":1747920306,"current_range_meters":19200,"station_id":"ce4bhg12rcd13ifvqf70","pricing_plan_id":"cebpf4jnsgd1na2vs0mg"},{"bike_id":"2e1568ca-c7e6-488f-a02d-598b84f8055d","system_id":"levelo_inurba_marseille","lat":43.23146,"lon":5.43722,"is_reserved":false,"is_disabled":false,"rental_uris":{"android":"levelo://app?vid=2e1568ca-c7e6-488f-a02d-598b84f8055d","ios":"levelo://app?vid=2e1568ca-c7e6-488f-a02d-598b84f8055d"},"vehicle_type_id":"4","last_reported":1747920306,"current_range_meters":19200,"station_id":"ce4bhmp2rcd13ifvqgog","pricing_plan_id":"cebpf4jnsgd1na2vs0mg"},{"bike_id":"a90f8e9a-f6e2-4b3d-9d6c-5156fa8f0a33","system_id":"levelo_inurba_marseille","lat":43.23196,"lon":5.35587,"is_reserved":false,"is_disabled":false,"rental_uris":{"android":"levelo://app?vid=a90f8e9a-f6e2-4b3d-9d6c-5156fa8f0a33","ios":"levelo://app?vid=a90f8e9a-f6e2-4b3d-9d6c-5156fa8f0a33"},"vehicle_type_id":"4","last_reported":1747920306,"current_range_meters":19200,"station_id":"ce4bhu92rcd13ifvqi70","pricing_plan_id":"cebpf4jnsgd1na2vs0mg"},{"bike_id":"59e86a7a-e8b9-481c-93cf-968bdb5ba166","system_id":"levelo_inurba_marseille","lat":43.212,"lon":5.35081,"is_reserved":false,"is_disabled":false,"rental_uris":{"android":"levelo://app?vid=59e86a7a-e8b9-481c-93cf-968bdb5ba166","ios":"levelo://app?vid=59e86a7a-e8b9-481c-93cf-968bdb5ba166"},"vehicle_type_id":"4","last_reported":1747920306,"current_range_meters":19200,"station_id":"st_cvj6sg6p6f1abm77japg","pricing_plan_id":"cebpf4jnsgd1na2vs0mg"},{"bike_id":"8cbf1614-2d53-4678-857d-d03337570520","system_id":"levelo_inurba_marseille","lat":43.29623,"lon":5.36736,"is_reserved":false,"is_disabled":false,"rental_uris":{"android":"levelo://app?vid=8cbf1614-2d53-4678-857d-d03337570520","ios":"levelo://app?vid=8cbf1614-2d53-4678-857d-d03337570520"},"vehicle_type_id":"4","last_reported":1747920306,"current_range_meters":19600,"station_id":"","pricing_plan_id":"cebpf4jnsgd1na2vs0mg"},{"bike_id":"5a1d758d-f31b-438c-b2fc-0a9ac576a3a9","system_id":"levelo_inurba_marseille","lat":43.30188,"lon":5.36637,"is_reserved":false,"is_disabled":false,"rental_uris":{"android":"levelo://app?vid=5a1d758d-f31b-438c-b2fc-0a9ac576a3a9","ios":"levelo://app?vid=5a1d758d-f31b-438c-b2fc-0a9ac576a3a9"},"vehicle_type_id":"4","last_reported":1747920306,"current_range_meters":19600,"station_id":"ce4bgrh2rcd13ifvqc8g","pricing_plan_id":"cebpf4jnsgd1na2vs0mg"},{"bike_id":"e9d0d5f2-2efd-4ec1-8306-5d88dfacfaf8","system_id":"levelo_inurba_marseille","lat":43.24805,"lon":5.37457,"is_reserved":false,"is_disabled":false,"rental_uris":{"android":"levelo://app?vid=e9d0d5f2-2efd-4ec1-8306-5d88dfacfaf8","ios":"levelo://app?vid=e9d0d5f2-2efd-4ec1-8306-5d88dfacfaf8"},"vehicle_type_id":"4","last_reported":1747920306,"current_range_meters":19600,"station_id":"ce4bhgh2rcd13ifvqfb0","pricing_plan_id":"cebpf4jnsgd1na2vs0mg"},{"bike_id":"09bd4578-4568-4993-b051-5e33d74711c9","system_id":"levelo_inurba_marseille","lat":43.29536,"lon":5.42262,"is_reserved":false,"is_disabled":false,"rental_uris":{"android":"levelo://app?vid=09bd4578-4568-4993-b051-5e33d74711c9","ios":"levelo://app?vid=09bd4578-4568-4993-b051-5e33d74711c9"},"vehicle_type_id":"4","last_reported":1747920306,"current_range_meters":19600,"station_id":"ce4bhph2rcd13ifvqhdg","pricing_plan_id":"cebpf4jnsgd1na2vs0mg"},{"bike_id":"5a8aa8a5-101c-4559-9f7c-de92455ffc35","system_id":"levelo_inurba_marseille","lat":43.30925,"lon":5.40141,"is_reserved":false,"is_disabled":false,"rental_uris":{"android":"levelo://app?vid=5a8aa8a5-101c-4559-9f7c-de92455ffc35","ios":"levelo://app?vid=5a8aa8a5-101c-4559-9f7c-de92455ffc35"},"vehicle_type_id":"4","last_reported":1747920306,"current_range_meters":20000,"station_id":"ce4bgvp2rcd13ifvqct0","pricing_plan_id":"cebpf4jnsgd1na2vs0mg"},{"bike_id":"dd568a5c-0268-48c0-bbf6-03a8b78dcae9","system_id":"levelo_inurba_marseille","lat":43.31689,"lon":5.40472,"is_reserved":false,"is_disabled":false,"rental_uris":{"android":"levelo://app?vid=dd568a5c-0268-48c0-bbf6-03a8b78dcae9","ios":"levelo://app?vid=dd568a5c-0268-48c0-bbf6-03a8b78dcae9"},"vehicle_type_id":"4","last_reported":1747920306,"current_range_meters":20000,"station_id":"ce4bh012rcd13ifvqd00","pricing_plan_id":"cebpf4jnsgd1na2vs0mg"},{"bike_id":"5b5106b3-0d4b-477e-88a2-594773c42bee","system_id":"levelo_inurba_marseille","lat":43.2318,"lon":5.39991,"is_reserved":false,"is_disabled":false,"rental_uris":{"android":"levelo://app?vid=5b5106b3-0d4b-477e-88a2-594773c42bee","ios":"levelo://app?vid=5b5106b3-0d4b-477e-88a2-594773c42bee"},"vehicle_type_id":"4","last_reported":1747920306,"current_range_meters":20000,"station_id":"ce4bhn12rcd13ifvqgqg","pricing_plan_id":"cebpf4jnsgd1na2vs0mg"},