{"last_updated":1725289749,"ttl":30,"version":"2.2","data":{"bikes":[{"bike_id":"cf955e03-0c5d-4f71-a7f7-63789562dbe7","system_id":"levelo_inurba_marseille","lat":43.312239,"lon":5.368562,"is_reserved":false,"is_disabled":false,"rental_uris":{"android":"levelo://app?vid=cf955e03-0c5d-4f71-a7f7-63789562dbe7","ios":"levelo://app?vid=cf955e03-0c5d-4f71-a7f7-63789562dbe7"},"vehicle_type_id":"4","last_reported":1725289749,"current_range_meters":18400,"station_id":"ce4bgl92rcd13ifvqbq0","pricing_plan_id":"cebpf4jnsgd1na2vs0mg"},{"bike_id":"a113aa96-eef6-4f8a-8e12-432eac68ab75","system_id":"levelo_inurba_marseille","lat":43.312239,"lon":5.368562,"is_reserved":false,"is_disabled":false,"rental_uris":{"android":"levelo://app?vid=a113aa96-eef6-4f8a-8e12-432eac68ab75","ios":"levelo://app?vid=a113aa96-eef6-4f8a-8e12-432eac68ab75"},"vehicle_type_id":"4","last_reported":1725289749,"current_range_meters":28000,"station_id":"ce4bgl92rcd13ifvqbq0","pricing_plan_id":"cebpf4jnsgd1na2vs0mg"},{"bike_id":"2402d2e8-b932-4413-baee-33f76648ef67","system_id":"levelo_inurba_marseille","lat":43.312239,"lon":5.368562,"is_reserved":false,"is_disabled":false,"rental_uris":{"android":"levelo://app?vid=2402d2e8-b932-4413-baee-33f76648ef67","ios":"levelo://app?vid=2402d2e8-b932-4413-baee-33f76648ef67"},"vehicle_type_id":"4","last_reported":1725289749,"current_range_meters":6800,"station_id":"ce4bgl92rcd13ifvqbq0","pricing_plan_id":"cebpf4jnsgd1na2vs0mg"},{"bike_id":"628ba8b6-0922-43fa-b567-afd604e5ef61","system_id":"levelo_inurba_marseille","lat":43.309076,"lon":5.368465,"is_reserved":false,"is_disabled":false,"rental_uris":{"android":"levelo://app?vid=628ba8b6-0922-43fa-b567-afd604e5ef61","ios":"levelo://app?vid=628ba8b6-0922-43fa-b567-afd604e5ef61"},"vehicle_type_id":"4","last_reported":1725289749,"current_range_meters":24800,"station_id":"ce4bgn92rcd13ifvqbvg","pricing_plan_id":"cebpf4jnsgd1na2vs0mg"},{"bike_id":"32d0a790-4f90-48d2-b9f0-c71b23bea2ce","system_id":"levelo_inurba_marseille","lat":43.309076,"lon":5.368465,"is_reserved":false,"is_disabled":false,"rental_uris":{"android":"levelo://app?vid=32d0a790-4f90-48d2-b9f0-c71b23bea2ce","ios":"levelo://app?vid=32d0a790-4f90-48d2-b9f0-c71b23bea2ce"},"vehicle_type_id":"4","last_reported":1725289749,"current_range_meters":28000,"station_id":"ce4bgn92rcd13ifvqbvg","pricing_plan_id":"cebpf4jnsgd1na2vs0mg"},{"bike_id":"52a6adcc-576a-4f73-88da-c678b2c09554","system_id":"levelo_inurba_marseille","lat":43.314811,"lon":5.373103,"is_reserved":false,"is_disabled":false,"rental_uris":{"android":"levelo://app?vid=52a6adcc-576a-4f73-88da-c678b2c09554","ios":"levelo://app?vid=52a6adcc-576a-4f73-88da-c678b2c09554"},"vehicle_type_id":"4","last_reported":1725289749,"current_range_meters":0,"station_id":"ce4bgt12rcd13ifvqcd0","pricing_plan_id":"cebpf4jnsgd1na2vs0mg"},{"bike_id":"256b39d9-ccc7-4efa-8229-16e9760900c6","system_id":"levelo_inurba_marseille","lat":43.31483,"lon":5.37306,"is_reserved":false,"is_disabled":false,"rental_uris":{"android":"levelo://app?vid=256b39d9-ccc7-4efa-8229-16e9760900c6","ios":"levelo://app?vid=256b39d9-ccc7-4efa-8229-16e9760900c6"},"vehicle_type_id":"4","last_reported":1725289749,"current_range_meters":0,"station_id":"ce4bgt12rcd13ifvqcd0","pricing_plan_id":"cebpf4jnsgd1na2vs0mg"},{"bike_id":"de0c9be7-0ff9-4169-8e4e-190179ede6e8","system_id":"levelo_inurba_marseille","lat":43.31495,"lon":5.37305,"is_reserved":false,"is_disabled":false,"rental_uris":{"android":"levelo://app?vid=de0c9be7-0ff9-4169-8e4e-190179ede6e8","ios":"levelo://app?vid=de0c9be7-0ff9-4169-8e4e-190179ede6e8"},"vehicle_type_id":"4","last_reported":1725289749,"current_range_meters":0,"station_id":"ce4bgt12rcd13ifvqcd0","pricing_plan_id":"cebpf4jnsgd1na2vs0mg"},{"bike_id":"65500873-66a2-4030-9947-1f49112905f5","system_id":"levelo_inurba_marseille","lat":43.314983,"lon":5.373065,"is_reserved":false,"is_disabled":false,"rental_uris":{"android":"levelo://app?vid=65500873-66a2-4030-9947-1f49112905f5","ios":"levelo://app?vid=65500873-66a2-4030-9947-1f49112905f5"},"vehicle_type_id":"4","last_reported":1725289749,"current_range_meters":0,"station_id":"ce4bgt12rcd13ifvqcd0","pricing_plan_id":"cebpf4jnsgd1na2vs0mg"},{"bike_id":"c9aba7aa-bdf0-45f9-8564-08899635b0d6","system_id":"levelo_inurba_marseille","lat":43.309039,"lon":5.371797,"is_reserved":false,"is_disabled":false,"rental_uris":{"android":"levelo://app?vid=c9aba7aa-bdf0-45f9-8564-08899635b0d6","ios":"levelo://app?vid=c9aba7aa-bdf0-45f9-8564-08899635b0d6"},"vehicle_type_id":"4","last_reported":1725289749,"current_range_meters":4800,"station_id":"ce4bguh2rcd13ifvqckg","pricing_plan_id":"cebpf4jnsgd1na2vs0mg"},{"bike_id":"d3662010-7bea-40fb-a8a8-78d041042784","system_id":"levelo_inurba_marseille","lat":43.30548,"lon":5.3671,"is_reserved":false,"is_disabled":false,"rental_uris":{"android":"levelo://app?vid=d3662010-7bea-40fb-a8a8-78d041042784","ios":"levelo://app?vid=d3662010-7bea-40fb-a8a8-78d041042784"},"vehicle_type_id":"4","last_reported":1725289749,"current_range_meters":30000,"station_id":"ce4bgrp2rcd13ifvqc9g","pricing_plan_id":"cebpf4jnsgd1na2vs0mg"},{"bike_id":"cffe8b3c-a066-4bab-b200-f91a1b168163","system_id":"levelo_inurba_marseille","lat":43.30537,"lon":5.367345,"is_reserved":false,"is_disabled":false,"rental_uris":{"android":"levelo://app?vid=cffe8b3c-a066-4bab-b200-f91a1b168163","ios":"levelo://app?vid=cffe8b3c-a066-4bab-b200-f91a1b168163"},"vehicle_type_id":"4","last_reported":1725289749,"current_range_meters":8800,"station_id":"ce4bgrp2rcd13ifvqc9g","pricing_plan_id":"cebpf4jnsgd1na2vs0mg"},{"bike_id":"ba04d876-b893-445b-87b7-038afc72e814","system_id":"levelo_inurba_marseille","lat":43.305714,"lon":5.365633,"is_reserved":false,"is_disabled":false,"rental_uris":{"android":"levelo://app?vid=ba04d876-b893-445b-87b7-038afc72e814","ios":"levelo://app?vid=ba04d876-b893-445b-87b7-038afc72e814"},"vehicle_type_id":"4","last_reported":1725289749,"current_range_meters":30800,"station_id":"ce4bgs12rcd13ifvqcag","pricing_plan_id":"cebpf4jnsgd1na2vs0mg"},{"bike_id":"dec431fb-b35b-4199-a416-8117caa857ea","system_id":"levelo_inurba_marseille","lat":43.30537,"lon":5.36542,"is_reserved":false,"is_disabled":false,"rental_uris":{"android":"levelo://app?vid=dec431fb-b35b-4199-a416-8117caa857ea","ios":"levelo://app?vid=dec431fb-b35b-4199-a416-8117caa857ea"},"vehicle_type_id":"4","last_reported":1725289749,"current_range_meters":0,"station_id":"ce4bgs12rcd13ifvqcag","pricing_plan_id":"cebpf4jnsgd1na2vs0mg"},{"bike_id":"34549ae4-85a8-4acf-ba9e-7d2d8211d093","system_id":"levelo_inurba_marseille","lat":43.305706,"lon":5.365654,"is_reserved":false,"is_disabled":false,"rental_uris":{"android":"levelo://app?vid=34549ae4-85a8-4acf-ba9e-7d2d8211d093","ios":"levelo://app?vid=34549ae4-85a8-4acf-ba9e-7d2d8211d093"},"vehicle_type_id":"4","last_reported":1725289749,"current_range_meters":31200,"station_id":"ce4bgs12rcd13ifvqcag","pricing_plan_id":"cebpf4jnsgd1na2vs0mg"},{"bike_id":"281766ce-4bd7-4ada-b596-526621e38091","system_id":"levelo_inurba_marseille","lat":43.31116,"lon":5.37765,"is_reserved":false,"is_disabled":false,"rental_uris":{"android":"levelo://app?vid=281766ce-4bd7-4ada-b596-526621e38091","ios":"levelo://app?vid=281766ce-4bd7-4ada-b596-526621e38091"},"vehicle_type_id":"4","last_reported":1725289749,"current_range_meters":0,"station_id":"ce4bgt92rcd13ifvqcg0","pricing_plan_id":"cebpf4jnsgd1na2vs0mg"},{"bike_id":"cc55bfbd-8c55-4b91-87c9-09813917bc04","system_id":"levelo_inurba_marseille","lat":43.311125,"lon":5.377624,"is_reserved":false,"is_disabled":false,"rental_uris":{"android":"levelo://app?vid=cc55bfbd-8c55-4b91-87c9-09813917bc04","ios":"levelo://app?vid=cc55bfbd-8c55-4b91-87c9-09813917bc04"},"vehicle_type_id":"4","last_reported":1725289749,"current_range_meters":3600,"station_id":"ce4bgt92rcd13ifvqcg0","pricing_plan_id":"cebpf4jnsgd1na2vs0mg"},{"bike_id":"252b8fb6-36bc-41df-8f52-cfd52a72de30","system_id":"levelo_inurba_marseille","lat":43.311131,"lon":5.377651,"is_reserved":false,"is_disabled":false,"rental_uris":{"android":"levelo://app?vid=252b8fb6-36bc-41df-8f52-cfd52a72de30","ios":"levelo://app?vid=252b8fb6-36bc-41df-8f52-cfd52a72de30"},"vehicle_type_id":"4","last_reported":1725289749,"current_range_meters":22800,"station_id":"ce4bgt92rcd13ifvqcg0","pricing_plan_id":"cebpf4jnsgd1na2vs0mg"},{"bike_id":"c82d08e3-93d9-432a-9cbd-21ce2d8d7375","system_id":"levelo_inurba_marseille","lat":43.307945,"lon":5.376487,"is_reserved":false,"is_disabled":false,"rental_uris":{"android":"levelo://app?vid=c82d08e3-93d9-432a-9cbd-21ce2d8d7375","ios":"levelo://app?vid=c82d08e3-93d9-432a-9cbd-21ce2d8d7375"},"vehicle_type_id":"4","last_reported":1725289749,"current_range_meters":1600,"station_id":"ce4bgv92rcd13ifvqcq0","pricing_plan_id":"cebpf4jnsgd1na2vs0mg"},{"bike_id":"9aca4a05-1f4f-4607-b848-b19e065da92b","system_id":"levelo_inurba_marseille","lat":43.307945,"lon":5.376487,"is_reserved":false,"is_disabled":false,"rental_uris":{"android":"levelo://app?vid=9aca4a05-1f4f-4607-b848-b19e065da92b","ios":"levelo://app?vid=9aca4a05-1f4f-4607-b848-b19e065da92b"},"vehicle_type_id":"4","last_reported":1725289749,"current_range_meters":11200,"station_id":"ce4bgv92rcd13ifvqcq0","pricing_plan_id":"cebpf4jnsgd1na2vs0mg"},{"bike_id":"98aa1ce0-dcee-4401-ba16-9dbf91ccddaa","system_id":"levelo_inurba_marseille","lat":43.30788,"lon":5.37645,"is_reserved":false,"is_disabled":false,"rental_uris":{"android":"levelo://app?vid=98aa1ce0-dcee-4401-ba16-9dbf91ccddaa","ios":"levelo://app?vid=98aa1ce0-dcee-4401-ba16-9dbf91ccddaa"},"vehicle_type_id":"4","last_reported":1725289749,"current_range_meters":0,"station_id":"","pricing_plan_id":"cebpf4jnsgd1na2vs0mg"},{"bike_id":"bbb301ef-0e4c-4b95-9cd6-76c8023465fa","system_id":"levelo_inurba_marseille","lat":43.30302,"lon":5.36862,"is_reserved":false,"is_disabled":false,"rental_uris":{"android":"levelo://app?vid=bbb301ef-0e4c-4b95-9cd6-76c8023465fa","ios":"levelo://app?vid=bbb301ef-0e4c-4b95-9cd6-76c8023465fa"},"vehicle_type_id":"4","last_reported":1725289749,"current_range_meters":22000,"station_id":"ce4bgqh2rcd13ifvqc5g","pricing_plan_id":"cebpf4jnsgd1na2vs0mg"},{"bike_id":"356fac63-8013-4c9d-b911-9a24bf1b02d5","system_id":"levelo_inurba_marseille","lat":43.315289,"lon":5.380349,"is_reserved":false,"is_disabled":false,"rental_uris":{"android":"levelo://app?vid=356fac63-8013-4c9d-b911-9a24bf1b02d5","ios":"levelo://app?vid=356fac63-8013-4c9d-b911-9a24bf1b02d5"},"vehicle_type_id":"4","last_reported":1725289749,"current_range_meters":6000,"station_id":"ce4bhsp2rcd13ifvqi50","pricing_plan_id":"cebpf4jnsgd1na2vs0mg"},{"bike_id":"7db6caf0-0aff-458d-a932-f19e57cf169f","system_id":"levelo_inurba_marseille","lat":43.315289,"lon":5.380349,"is_reserved":false,"is_disabled":false,"rental_uris":{"android":"levelo://app?vid=7db6caf0-0aff-458d-a932-f19e57cf169f","ios":"levelo://app?vid=7db6caf0-0aff-458d-a932-f19e57cf169f"},"vehicle_type_id":"4","last_reported":1725289749,"current_range_meters":17600,"station_id":"ce4bhsp2rcd13ifvqi50","pricing_plan_id":"cebpf4jnsgd1na2vs0mg"},{"bike_id":"e8e71965-0a71-4311-b978-463b1ff43a31","system_id":"levelo_inurba_marseille","lat":43.30786,"lon":5.3801,"is_reserved":false,"is_disabled":false,"rental_uris":{"android":"levelo://app?vid=e8e71965-0a71-4311-b978-463b1ff43a31","ios":"levelo://app?vid=e8e71965-0a71-4311-b978-463b1ff43a31"},"vehicle_type_id":"4","last_reported":1725289749,"current_range_meters":5600,"station_id":"","pricing_plan_id":"cebpf4jnsgd1na2vs0mg"},{"bike_id":"96018fe3-8c77-4868-b25c-54117d855291","system_id":"levelo_inurba_marseille","lat":43.304606,"lon":5.379026,"is_reserved":false,"is_disabled":false,"rental_uris":{"android":"levelo://app?vid=96018fe3-8c77-4868-b25c-54117d855291","ios":"levelo://app?vid=96018fe3-8c77-4868-b25c-54117d855291"},"vehicle_type_id":"4","last_reported":1725289749,"current_range_meters":0,"station_id":"ce4bgup2rcd13ifvqcn0","pricing_plan_id":"cebpf4jnsgd1na2vs0mg"},{"bike_id":"0aabd017-e29d-41ef-806d-5d1e75bf42f5","system_id":"levelo_inurba_marseille","lat":43.324771,"lon":5.36557,"is_reserved":false,"is_disabled":false,"rental_uris":{"android":"levelo://app?vid=0aabd017-e29d-41ef-806d-5d1e75bf42f5","ios":"levelo://app?vid=0aabd017-e29d-41ef-806d-5d1e75bf42f5"},"vehicle_type_id":"4","last_reported":1725289749,"current_range_meters":28800,"station_id":"ce4bhs12rcd13ifvqhvg","pricing_plan_id":"cebpf4jnsgd1na2vs0mg"},{"bike_id":"6649cacf-c012-4f9f-ab24-9a80c95824a3","system_id":"levelo_inurba_marseille","lat":43.310804,"lon":5.38359,"is_reserved":false,"is_disabled":false,"rental_uris":{"android":"levelo://app?vid=6649cacf-c012-4f9f-ab24-9a80c95824a3","ios":"levelo://app?vid=6649cacf-c012-4f9f-ab24-9a80c95824a3"},"vehicle_type_id":"4","last_reported":1725289749,"current_range_meters":14000,"station_id":"ce4bgv92rcd13ifvqcr0","pricing_plan_id":"cebpf4jnsgd1na2vs0mg"},{"bike_id":"ce3ed08f-840a-4e94-9714-df467ae348ff","system_id":"levelo_inurba_marseille","lat":43.30143,"lon":5.37413,"is_reserved":false,"is_disabled":false,"rental_uris":{"android":"levelo://app?vid=ce3ed08f-840a-4e94-9714-df467ae348ff","ios":"levelo://app?vid=ce3ed08f-840a-4e94-9714-df467ae348ff"},"vehicle_type_id":"4","last_reported":1725289749,"current_range_meters":7600,"station_id":"ce4bgs92rcd13ifvqcc0","pricing_plan_id":"cebpf4jnsgd1na2vs0mg"},{"bike_id":"6586b1f7-bf00-45ea-ae11-cd2f548048ab","system_id":"levelo_inurba_marseille","lat":43.32003,"lon":5.38151,"is_reserved":false,"is_disabled":false,"rental_uris":{"android":"levelo://app?vid=6586b1f7-bf00-45ea-ae11-cd2f548048ab","ios":"levelo://app?vid=6586b1f7-bf00-45ea-ae11-cd2f548048ab"},"vehicle_type_id":"4","last_reported":1725289749,"current_range_meters":20400,"station_id":"ce4bhr12rcd13ifvqhpg","pricing_plan_id":"cebpf4jnsgd1na2vs0mg"},{"bike_id":"743c8c87-c1c3-438f-9be4-ea89b9c23645","system_id":"levelo_inurba_marseille","lat":43.319935,"lon":5.381699,"is_reserved":false,"is_disabled":false,"rental_uris":{"android":"levelo://app?vid=743c8c87-c1c3-438f-9be4-ea89b9c23645","ios":"levelo://app?vid=743c8c87-c1c3-438f-9be4-ea89b9c23645"},"vehicle_type_id":"4","last_reported":1725289749,"current_range_meters":14800,"station_id":"ce4bhr12rcd13ifvqhpg","pricing_plan_id":"cebpf4jnsgd1na2vs0mg"},{"bike_id":"90b7a747-d0d2-42d0-9a16-feade2a04aad","system_id":"levelo_inurba_marseille","lat":43.319935,"lon":5.381699,"is_reserved":false,"is_disabled":false,"rental_uris":{"android":"levelo://app?vid=90b7a747-d0d2-42d0-9a16-feade2a04aad","ios":"levelo://app?vid=90b7a747-d0d2-42d0-9a16-feade2a04aad"},"vehicle_type_id":"4","last_reported":1725289749,"current_range_meters":25200,"station_id":"ce4bhr12rcd13ifvqhpg","pricing_plan_id":"cebpf4jnsgd1na2vs0mg"},{"bike_id":"9c09eba7-43f4-4832-9456-81e37b2a5bdf","system_id":"levelo_inurba_marseille","lat":43.319935,"lon":5.381699,"is_reserved":false,"is_disabled":false,"rental_uris":{"android":"levelo://app?vid=9c09eba7-43f4-4832-9456-81e37b2a5bdf","ios":"levelo://app?vid=9c09eba7-43f4-4832-9456-81e37b2a5bdf"},"vehicle_type_id":"4","last_reported":1725289749,"current_range_meters":11600,"station_id":"ce4bhr12rcd13ifvqhpg","pricing_plan_id":"cebpf4jnsgd1na2vs0mg"},{"bike_id":"62c4f50a-cebf-45b5-bb57-a591a1f947dd","system_id":"levelo_inurba_marseille","lat":43.319935,"lon":5.381699,"is_reserved":false,"is_disabled":false,"rental_uris":{"android":"levelo://app?vid=62c4f50a-cebf-45b5-bb57-a591a1f947dd","ios":"levelo://app?vid=62c4f50a-cebf-45b5-bb57-a591a1f947dd"},"vehicle_type_id":"4","last_reported":1725289749,"current_range_meters":21200,"station_id":"ce4bhr12rcd13ifvqhpg","pricing_plan_id":"cebpf4jnsgd1na2vs0mg"},{"bike_id":"1d74a406-c4e5-44d4-8f4f-a77573627c20","system_id":"levelo_inurba_marseille","lat":43.313571,"lon":5.384829,"is_reserved":false,"is_disabled":false,"rental_uris":{"android":"levelo://app?vid=1d74a406-c4e5-44d4-8f4f-a77573627c20","ios":"levelo://app?vid=1d74a406-c4e5-44d4-8f4f-a77573627c20"},"vehicle_type_id":"4","last_reported":1725289749,"current_range_meters":29200,"station_id":"ce4bgt92rcd13ifvqcf0","pricing_plan_id":"cebpf4jnsgd1na2vs0mg"},{"bike_id":"d2c23db2-39a1-4b99-96a1-7dfc2b7bc9af","system_id":"levelo_inurba_marseille","lat":43.313571,"lon":5.384829,"is_reserved":false,"is_disabled":false,"rental_uris":{"android":"levelo://app?vid=d2c23db2-39a1-4b99-96a1-7dfc2b7bc9af","ios":"levelo://app?vid=d2c23db2-39a1-4b99-96a1-7dfc2b7bc9af"},"vehicle_type_id":"4","last_reported":1725289749,"current_range_meters":13600,"station_id":"ce4bgt92rcd13ifvqcf0","pricing_plan_id":"cebpf4jnsgd1na2vs0mg"},{"bike_id":"cf534656-dc5c-4b2b-ba49-bb5c42a05880","system_id":"levelo_inurba_marseille","lat":43.299724,"lon":5.371829,"is_reserved":false,"is_disabled":false,"rental_uris":{"android":"levelo://app?vid=cf534656-dc5c-4b2b-ba49-bb5c42a05880","ios":"levelo://app?vid=cf534656-dc5c-4b2b-ba49-bb5c42a05880"},"vehicle_type_id":"4","last_reported":1725289749,"current_range_meters":19600,"station_id":"ce4bgr92rcd13ifvqc7g","pricing_plan_id":"cebpf4jnsgd1na2vs0mg"},{"bike_id":"761ad7a9-500b-49cf-91fd-6441889da847","system_id":"levelo_inurba_marseille","lat":43.299724,"lon":5.371829,"is_reserved":false,"is_disabled":false,"rental_uris":{"android":"levelo://app?vid=761ad7a9-500b-49cf-91fd-6441889da847","ios":"levelo://app?vid=761ad7a9-500b-49cf-91fd-6441889da847"},"vehicle_type_id":"4","last_reported":1725289749,"current_range_meters":7600,"station_id":"ce4bgr92rcd13ifvqc7g","pricing_plan_id":"cebpf4jnsgd1na2vs0mg"},{"bike_id":"1084d612-4b3e-4f7e-bf98-849315e98df4","system_id":"levelo_inurba_marseille","lat":43.299724,"lon":5.371829,"is_reserved":false,"is_disabled":false,"rental_uris":{"android":"levelo://app?vid=1084d612-4b3e-4f7e-bf98-849315e98df4","ios":"levelo://app?vid=1084d612-4b3e-4f7e-bf98-849315e98df4"},"vehicle_type_id":"4","last_reported":1725289749,"current_range_meters":0,"station_id":"ce4bgr92rcd13ifvqc7g","pricing_plan_id":"cebpf4jnsgd1na2vs0mg"},{"bike_id":"e4e9b705-6241-489e-9dc6-cd25474bf416","system_id":"levelo_inurba_marseille","lat":43.305364,"lon":5.384119,"is_reserved":false,"is_disabled":false,"rental_uris":{"android":"levelo://app?vid=e4e9b705-6241-489e-9dc6-cd25474bf416","ios":"levelo://app?vid=e4e9b705-6241-489e-9dc6-cd25474bf416"},"vehicle_type_id":"4","last_reported":1725289749,"current_range_meters":2400,"station_id":"ce4bgg92rcd13ifvqb30","pricing_plan_id":"cebpf4jnsgd1na2vs0mg"},{"bike_id":"64a9cb69-c5b4-452b-8522-9b72dc6df062","system_id":"levelo_inurba_marseille","lat":43.29922,"lon":5.37463,"is_reserved":false,"is_disabled":false,"rental_uris":{"android":"levelo://app?vid=64a9cb69-c5b4-452b-8522-9b72dc6df062","ios":"levelo://app?vid=64a9cb69-c5b4-452b-8522-9b72dc6df062"},"vehicle_type_id":"4","last_reported":1725289749,"current_range_meters":0,"station_id":"ce4bgjh2rcd13ifvqbg0","pricing_plan_id":"cebpf4jnsgd1na2vs0mg"},{"bike_id":"700c1121-d680-43ab-908b-415c8a58352f","system_id":"levelo_inurba_marseille","lat":43.311722,"lon":5.387247,"is_reserved":false,"is_disabled":false,"rental_uris":{"android":"levelo://app?vid=700c1121-d680-43ab-908b-415c8a58352f","ios":"levelo://app?vid=700c1121-d680-43ab-908b-415c8a58352f"},"vehicle_type_id":"4","last_reported":1725289749,"current_range_meters":12800,"station_id":"ce4bgv12rcd13ifvqcp0","pricing_plan_id":"cebpf4jnsgd1na2vs0mg"},{"bike_id":"634a1285-79e8-4b3b-8f51-38712db24576","system_id":"levelo_inurba_marseille","lat":43.305368,"lon":5.367343,"is_reserved":false,"is_disabled":false,"rental_uris":{"android":"levelo://app?vid=634a1285-79e8-4b3b-8f51-38712db24576","ios":"levelo://app?vid=634a1285-79e8-4b3b-8f51-38712db24576"},"vehicle_type_id":"4","last_reported":1725289749,"current_range_meters":7600,"station_id":"ce4bgrp2rcd13ifvqc9g","pricing_plan_id":"cebpf4jnsgd1na2vs0mg"},{"bike_id":"24e4cc05-fabc-4162-9f50-f6c7d561f70b","system_id":"levelo_inurba_marseille","lat":43.301417,"lon":5.3809,"is_reserved":false,"is_disabled":false,"rental_uris":{"android":"levelo://app?vid=24e4cc05-fabc-4162-9f50-f6c7d561f70b","ios":"levelo://app?vid=24e4cc05-fabc-4162-9f50-f6c7d561f70b"},"vehicle_type_id":"4","last_reported":1725289749,"current_range_meters":14400,"station_id":"ce4bgjp2rcd13ifvqbh0","pricing_plan_id":"cebpf4jnsgd1na2vs0mg"},{"bike_id":"30e1cebe-be63-4009-b2f6-6a9829616a77","system_id":"levelo_inurba_marseille","lat":43.297774,"lon":5.370875,"is_reserved":false,"is_disabled":false,"rental_uris":{"android":"levelo://app?vid=30e1cebe-be63-4009-b2f6-6a9829616a77","ios":"levelo://app?vid=30e1cebe-be63-4009-b2f6-6a9829616a77"},"vehicle_type_id":"4","last_reported":1725289749,"current_range_meters":21200,"station_id":"ce4bgop2rcd13ifvqc1g","pricing_plan_id":"cebpf4jnsgd1na2vs0mg"},{"bike_id":"62811bb4-0a8e-4996-8796-25cb0b450ce0","system_id":"levelo_inurba_marseille","lat":43.322872,"lon":5.382756,"is_reserved":false,"is_disabled":false,"rental_uris":{"android":"levelo://app?vid=62811bb4-0a8e-4996-8796-25cb0b450ce0","ios":"levelo://app?vid=62811bb4-0a8e-4996-8796-25cb0b450ce0"},"vehicle_type_id":"4","last_reported":1725289749,"current_range_meters":20000,"station_id":"ce4bhr12rcd13ifvqhqg","pricing_plan_id":"cebpf4jnsgd1na2vs0mg"},{"bike_id":"269543b6-b20b-4f74-b995-517d422f7746","system_id":"levelo_inurba_marseille","lat":43.32291,"lon":5.38268,"is_reserved":false,"is_disabled":false,"rental_uris":{"android":"levelo://app?vid=269543b6-b20b-4f74-b995-517d422f7746","ios":"levelo://app?vid=269543b6-b20b-4f74-b995-517d422f7746"},"vehicle_type_id":"4","last_reported":1725289749,"current_range_meters":0,"station_id":"ce4bhr12rcd13ifvqhqg","pricing_plan_id":"cebpf4jnsgd1na2vs0mg"},{"bike_id":"e663c466-478a-4f86-9c28-26609e578dd5","system_id":"levelo_inurba_marseille","lat":43.297163,"lon":5.365866,"is_reserved":false,"is_disabled":false,"rental_uris":{"android":"levelo://app?vid=e663c466-478a-4f86-9c28-26609e578dd5","ios":"levelo://app?vid=e663c466-478a-4f86-9c28-26609e578dd5"},"vehicle_type_id":"4","last_reported":1725289749,"current_range_meters":12800,"station_id":"ce4bgn12rcd13ifvqbt0","pricing_plan_id":"cebpf4jnsgd1na2vs0mg"},{"bike_id":"f4080620-c377-4e0b-ab8a-e52474cb8bb9","system_id":"levelo_inurba_marseille","lat":43.297163,"lon":5.365866,"is_reserved":false,"is_disabled":false,"rental_uris":{"android":"levelo://app?vid=f4080620-c377-4e0b-ab8a-e52474cb8bb9","ios":"levelo://app?vid=f4080620-c377-4e0b-ab8a-e52474cb8bb9"},"vehicle_type_id":"4","last_reported":1725289749,"current_range_meters":29200,"station_id":"ce4bgn12rcd13ifvqbt0","pricing_plan_id":"cebpf4jnsgd1na2vs0mg"},{"bike_id":"a0774b57-06e0-4ce1-bf97-543291fb109a","system_id":"levelo_inurba_marseille","lat":43.296796,"lon":5.368707,"is_reserved":false,"is_disabled":false,"rental_uris":{"android":"levelo://app?vid=a0774b57-06e0-4ce1-bf97-543291fb109a","ios":"levelo://app?vid=a0774b57-06e0-4ce1-bf97-543291fb109a"},"vehicle_type_id":"4","last_reported":1725289749,"current_range_meters":7600,"station_id":"","pricing_plan_id":"cebpf4jnsgd1na2vs0mg"},{"bike_id":"b6526665-543d-4c7f-a849-6c678ece708a","system_id":"levelo_inurba_marseille","lat":43.31512,"lon":5.38868,"is_reserved":false,"is_disabled":false,"rental_uris":{"android":"levelo://app?vid=b6526665-543d-4c7f-a849-6c678ece708a","ios":"levelo://app?vid=b6526665-543d-4c7f-a849-6c678ece708a"},"vehicle_type_id":"4","last_reported":1725289749,"current_range_meters":2400,"station_id":"","pricing_plan_id":"cebpf4jnsgd1na2vs0mg"},{"bike_id":"30c81247-241f-4330-9e25-0bdf81d5f71d","system_id":"levelo_inurba_marseille","lat":43.2968,"lon":5.37291,"is_reserved":false,"is_disabled":false,"rental_uris":{"android":"levelo://app?vid=30c81247-241f-4330-9e25-0bdf81d5f71d","ios":"levelo://app?vid=30c81247-241f-4330-9e25-0bdf81d5f71d"},"vehicle_type_id":"4","last_reported":1725289749,"current_range_meters":12800,"station_id":"ce4bgk12rcd13ifvqbj0","pricing_plan_id":"cebpf4jnsgd1na2vs0mg"},{"bike_id":"8a8887de-5c7d-4b1c-91b2-78e9c920b48d","system_id":"levelo_inurba_marseille","lat":43.2968,"lon":5.37291,"is_reserved":false,"is_disabled":false,"rental_uris":{"android":"levelo://app?vid=8a8887de-5c7d-4b1c-91b2-78e9c920b48d","ios":"levelo://app?vid=8a8887de-5c7d-4b1c-91b2-78e9c920b48d"},"vehicle_type_id":"4","last_reported":1725289749,"current_range_meters":31200,"station_id":"ce4bgk12rcd13ifvqbj0","pricing_plan_id":"cebpf4jnsgd1na2vs0mg"},{"bike_id":"342c5243-a75f-412f-9339-19b6b67a39f7","system_id":"levelo_inurba_marseille","lat":43.2968,"lon":5.37291,"is_reserved":false,"is_disabled":false,"rental_uris":{"android":"levelo://app?vid=342c5243-a75f-412f-9339-19b6b67a39f7","ios":"levelo://app?vid=342c5243-a75f-412f-9339-19b6b67a39f7"},"vehicle_type_id":"4","last_reported":1725289749,"current_range_meters":0,"station_id":"ce4bgk12rcd13ifvqbj0","pricing_plan_id":"cebpf4jnsgd1na2vs0mg"},{"bike_id":"3398c273-21eb-4124-96e9-66a505ee2515","system_id":"levelo_inurba_marseille","lat":43.29776,"lon":5.37713,"is_reserved":false,"is_disabled":false,"rental_uris":{"android":"levelo://app?vid=3398c273-21eb-4124-96e9-66a505ee2515","ios":"levelo://app?vid=3398c273-21eb-4124-96e9-66a505ee2515"},"vehicle_type_id":"4","last_reported":1725289749,"current_range_meters":23600,"station_id":"","pricing_plan_id":"cebpf4jnsgd1na2vs0mg"},{"bike_id":"6b2320ed-b280-4991-9790-137e2265ab0f","system_id":"levelo_inurba_marseille","lat":43.296131,"lon":5.370791,"is_reserved":false,"is_disabled":false,"rental_uris":{"android":"levelo://app?vid=6b2320ed-b280-4991-9790-137e2265ab0f","ios":"levelo://app?vid=6b2320ed-b280-4991-9790-137e2265ab0f"},"vehicle_type_id":"4","last_reported":1725289749,"current_range_meters":2400,"station_id":"ce4bgnh2rcd13ifvqc0g","pricing_plan_id":"cebpf4jnsgd1na2vs0mg"},{"bike_id":"f32fdb34-a14b-4491-b538-afa68e843383","system_id":"levelo_inurba_marseille","lat":43.296131,"lon":5.370773,"is_reserved":false,"is_disabled":false,"rental_uris":{"android":"levelo://app?vid=f32fdb34-a14b-4491-b538-afa68e843383","ios":"levelo://app?vid=f32fdb34-a14b-4491-b538-afa68e843383"},"vehicle_type_id":"4","last_reported":1725289749,"current_range_meters":21200,"station_id":"ce4bgnh2rcd13ifvqc0g","pricing_plan_id":"cebpf4jnsgd1na2vs0mg"},{"bike_id":"ffdb5f21-cd82-4e76-8312-0be6c46be51b","system_id":"levelo_inurba_marseille","lat":43.29573,"lon":5.367355,"is_reserved":false,"is_disabled":false,"rental_uris":{"android":"levelo://app?vid=ffdb5f21-cd82-4e76-8312-0be6c46be51b","ios":"levelo://app?vid=ffdb5f21-cd82-4e76-8312-0be6c46be51b"},"vehicle_type_id":"4","last_reported":1725289749,"current_range_meters":13200,"station_id":"ce4bgph2rcd13ifvqc2g","pricing_plan_id":"cebpf4jnsgd1na2vs0mg"},{"bike_id":"04f919f4-a75d-423b-b271-cef4acd40ed6","system_id":"levelo_inurba_marseille","lat":43.2958,"lon":5.36747,"is_reserved":false,"is_disabled":false,"rental_uris":{"android":"levelo://app?vid=04f919f4-a75d-423b-b271-cef4acd40ed6","ios":"levelo://app?vid=04f919f4-a75d-423b-b271-cef4acd40ed6"},"vehicle_type_id":"4","last_reported":1725289749,"current_range_meters":9600,"station_id":"ce4bgph2rcd13ifvqc2g","pricing_plan_id":"cebpf4jnsgd1na2vs0mg"},{"bike_id":"0982a506-a5c8-4bde-b051-8b984a63d74a","system_id":"levelo_inurba_marseille","lat":43.29577,"lon":5.36755,"is_reserved":false,"is_disabled":false,"rental_uris":{"android":"levelo://app?vid=0982a506-a5c8-4bde-b051-8b984a63d74a","ios":"levelo://app?vid=0982a506-a5c8-4bde-b051-8b984a63d74a"},"vehicle_type_id":"4","last_reported":1725289749,"current_range_meters":29600,"station_id":"ce4bgph2rcd13ifvqc2g","pricing_plan_id":"cebpf4jnsgd1na2vs0mg"},{"bike_id":"10672ac0-1c60-478d-ace2-a92d68a10a62","system_id":"levelo_inurba_marseille","lat":43.304278,"lon":5.388868,"is_reserved":false,"is_disabled":false,"rental_uris":{"android":"levelo://app?vid=10672ac0-1c60-478d-ace2-a92d68a10a62","ios":"levelo://app?vid=10672ac0-1c60-478d-ace2-a92d68a10a62"},"vehicle_type_id":"4","last_reported":1725289749,"current_range_meters":7600,"station_id":"ce4bgk12rcd13ifvqbi0","pricing_plan_id":"cebpf4jnsgd1na2vs0mg"},{"bike_id":"27ff040a-7cc3-40f7-832e-020e7fe95fea","system_id":"levelo_inurba_marseille","lat":43.31758,"lon":5.39013,"is_reserved":false,"is_disabled":false,"rental_uris":{"android":"levelo://app?vid=27ff040a-7cc3-40f7-832e-020e7fe95fea","ios":"levelo://app?vid=27ff040a-7cc3-40f7-832e-020e7fe95fea"},"vehicle_type_id":"4","last_reported":1725289749,"current_range_meters":25600,"station_id":"ce4bhqp2rcd13ifvqhng","pricing_plan_id":"cebpf4jnsgd1na2vs0mg"},{"bike_id":"06149583-e43b-4a43-a1f1-032767fd5cd7","system_id":"levelo_inurba_marseille","lat":43.31756,"lon":5.39018,"is_reserved":false,"is_disabled":false,"rental_uris":{"android":"levelo://app?vid=06149583-e43b-4a43-a1f1-032767fd5cd7","ios":"levelo://app?vid=06149583-e43b-4a43-a1f1-032767fd5cd7"},"vehicle_type_id":"4","last_reported":1725289749,"current_range_meters":10400,"station_id":"ce4bhqp2rcd13ifvqhng","pricing_plan_id":"cebpf4jnsgd1na2vs0mg"},{"bike_id":"02977fe5-2a38-4d05-980a-72b48f0c0aa5","system_id":"levelo_inurba_marseille","lat":43.317557,"lon":5.390173,"is_reserved":false,"is_disabled":false,"rental_uris":{"android":"levelo://app?vid=02977fe5-2a38-4d05-980a-72b48f0c0aa5","ios":"levelo://app?vid=02977fe5-2a38-4d05-980a-72b48f0c0aa5"},"vehicle_type_id":"4","last_reported":1725289749,"current_range_meters":27600,"station_id":"ce4bhqp2rcd13ifvqhng","pricing_plan_id":"cebpf4jnsgd1na2vs0mg"},{"bike_id":"e6271e16-2c8d-4531-9a67-24b188a59817","system_id":"levelo_inurba_marseille","lat":43.31759,"lon":5.39018,"is_reserved":false,"is_disabled":false,"rental_uris":{"android":"levelo://app?vid=e6271e16-2c8d-4531-9a67-24b188a59817","ios":"levelo://app?vid=e6271e16-2c8d-4531-9a67-24b188a59817"},"vehicle_type_id":"4","last_reported":1725289749,"current_range_meters":12400,"station_id":"ce4bhqp2rcd13ifvqhng","pricing_plan_id":"cebpf4jnsgd1na2vs0mg"},{"bike_id":"1edfef97-57d1-427d-9a27-3aef02dd2ce8","system_id":"levelo_inurba_marseille","lat":43.296263,"lon":5.377094,"is_reserved":false,"is_disabled":false,"rental_uris":{"android":"levelo://app?vid=1edfef97-57d1-427d-9a27-3aef02dd2ce8","ios":"levelo://app?vid=1edfef97-57d1-427d-9a27-3aef02dd2ce8"},"vehicle_type_id":"4","last_reported":1725289749,"current_range_meters":0,"station_id":"ce4bgi92rcd13ifvqb90","pricing_plan_id":"cebpf4jnsgd1na2vs0mg"},{"bike_id":"69e89067-0f53-4c9c-a264-b91a585d12db","system_id":"levelo_inurba_marseille","lat":43.304274,"lon":5.388873,"is_reserved":false,"is_disabled":false,"rental_uris":{"android":"levelo://app?vid=69e89067-0f53-4c9c-a264-b91a585d12db","ios":"levelo://app?vid=69e89067-0f53-4c9c-a264-b91a585d12db"},"vehicle_type_id":"4","last_reported":1725289749,"current_range_meters":21200,"station_id":"ce4bgk12rcd13ifvqbi0","pricing_plan_id":"cebpf4jnsgd1na2vs0mg"},{"bike_id":"7d702231-1629-4317-811f-e5baa2b5ac05","system_id":"levelo_inurba_marseille","lat":43.304274,"lon":5.388873,"is_reserved":false,"is_disabled":false,"rental_uris":{"android":"levelo://app?vid=7d702231-1629-4317-811f-e5baa2b5ac05","ios":"levelo://app?vid=7d702231-1629-4317-811f-e5baa2b5ac05"},"vehicle_type_id":"4","last_reported":1725289749,"current_range_meters":8000,"station_id":"ce4bgk12rcd13ifvqbi0","pricing_plan_id":"cebpf4jnsgd1na2vs0mg"},{"bike_id":"31121383-ddec-4222-8c40-74a19d7dd414","system_id":"levelo_inurba_marseille","lat":43.304274,"lon":5.388873,"is_reserved":false,"is_disabled":false,"rental_uris":{"android":"levelo://app?vid=31121383-ddec-4222-8c40-74a19d7dd414","ios":"levelo://app?vid=31121383-ddec-4222-8c40-74a19d7dd414"},"vehicle_type_id":"4","last_reported":1725289749,"current_range_meters":400,"station_id":"ce4bgk12rcd13ifvqbi0","pricing_plan_id":"cebpf4jnsgd1na2vs0mg"},{"bike_id":"e4839828-bffc-484e-9484-89e382b7f2bb","system_id":"levelo_inurba_marseille","lat":43.304278,"lon":5.388868,"is_reserved":false,"is_disabled":false,"rental_uris":{"android":"levelo://app?vid=e4839828-bffc-484e-9484-89e382b7f2bb","ios":"levelo://app?vid=e4839828-bffc-484e-9484-89e382b7f2bb"},"vehicle_type_id":"4","last_reported":1725289749,"current_range_meters":30800,"station_id":"ce4bgk12rcd13ifvqbi0","pricing_plan_id":"cebpf4jnsgd1na2vs0mg"},{"bike_id":"c2f70240-d6da-4233-a5c6-ea008434ee3e","system_id":"levelo_inurba_marseille","lat":43.304274,"lon":5.388873,"is_reserved":false,"is_disabled":false,"rental_uris":{"android":"levelo://app?vid=c2f70240-d6da-4233-a5c6-ea008434ee3e","ios":"levelo://app?vid=c2f70240-d6da-4233-a5c6-ea008434ee3e"},"vehicle_type_id":"4","last_reported":1725289749,"current_range_meters":12400,"station_id":"ce4bgk12rcd13ifvqbi0","pricing_plan_id":"cebpf4jnsgd1na2vs0mg"},{"bike_id":"a8d889ba-8c79-4a07-bf87-06fa17a24b7b","system_id":"levelo_inurba_marseille","lat":43.296263,"lon":5.377094,"is_reserved":false,"is_disabled":false,"rental_uris":{"android":"levelo://app?vid=a8d889ba-8c79-4a07-bf87-06fa17a24b7b","ios":"levelo://app?vid=a8d889ba-8c79-4a07-bf87-06fa17a24b7b"},"vehicle_type_id":"4","last_reported":1725289749,"current_range_meters":0,"station_id":"ce4bgi92rcd13ifvqb90","pricing_plan_id":"cebpf4jnsgd1na2vs0mg"},{"bike_id":"0c74630b-f3a0-4484-9d28-eeed15f7d4c4","system_id":"levelo_inurba_marseille","lat":43.295279,"lon":5.375048,"is_reserved":false,"is_disabled":false,"rental_uris":{"android":"levelo://app?vid=0c74630b-f3a0-4484-9d28-eeed15f7d4c4","ios":"levelo://app?vid=0c74630b-f3a0-4484-9d28-eeed15f7d4c4"},"vehicle_type_id":"4","last_reported":1725289749,"current_range_meters":17600,"station_id":"ce4bgkp2rcd13ifvqbmg","pricing_plan_id":"cebpf4jnsgd1na2vs0mg"},{"bike_id":"31496f1b-0d02-4591-a808-441f30f1d2b9","system_id":"levelo_inurba_marseille","lat":43.2998,"lon":5.38491,"is_reserved":false,"is_disabled":false,"rental_uris":{"android":"levelo://app?vid=31496f1b-0d02-4591-a808-441f30f1d2b9","ios":"levelo://app?vid=31496f1b-0d02-4591-a808-441f30f1d2b9"},"vehicle_type_id":"4","last_reported":1725289749,"current_range_meters":25200,"station_id":"","pricing_plan_id":"cebpf4jnsgd1na2vs0mg"},{"bike_id":"21a7de51-2d66-4598-b480-f64fe6afd8bd","system_id":"levelo_inurba_marseille","lat":43.295279,"lon":5.375048,"is_reserved":false,"is_disabled":false,"rental_uris":{"android":"levelo://app?vid=21a7de51-2d66-4598-b480-f64fe6afd8bd","ios":"levelo://app?vid=21a7de51-2d66-4598-b480-f64fe6afd8bd"},"vehicle_type_id":"4","last_reported":1725289749,"current_range_meters":31200,"station_id":"ce4bgkp2rcd13ifvqbmg","pricing_plan_id":"cebpf4jnsgd1na2vs0mg"},{"bike_id":"ca2a7ed3-0250-43b9-9a56-786974e486ed","system_id":"levelo_inurba_marseille","lat":43.299707,"lon":5.384859,"is_reserved":false,"is_disabled":false,"rental_uris":{"android":"levelo://app?vid=ca2a7ed3-0250-43b9-9a56-786974e486ed","ios":"levelo://app?vid=ca2a7ed3-0250-43b9-9a56-786974e486ed"},"vehicle_type_id":"4","last_reported":1725289749,"current_range_meters":11200,"station_id":"ce4bgj92rcd13ifvqbd0","pricing_plan_id":"cebpf4jnsgd1na2vs0mg"},{"bike_id":"53ec7328-e40a-4032-a621-b25f7caadb1b","system_id":"levelo_inurba_marseille","lat":43.299717,"lon":5.384845,"is_reserved":false,"is_disabled":false,"rental_uris":{"android":"levelo://app?vid=53ec7328-e40a-4032-a621-b25f7caadb1b","ios":"levelo://app?vid=53ec7328-e40a-4032-a621-b25f7caadb1b"},"vehicle_type_id":"4","last_reported":1725289749,"current_range_meters":1200,"station_id":"ce4bgj92rcd13ifvqbd0","pricing_plan_id":"cebpf4jnsgd1na2vs0mg"},{"bike_id":"d6004cdc-9ae2-4e29-a339-618bd876ca34","system_id":"levelo_inurba_marseille","lat":43.299724,"lon":5.384848,"is_reserved":false,"is_disabled":false,"rental_uris":{"android":"levelo://app?vid=d6004cdc-9ae2-4e29-a339-618bd876ca34","ios":"levelo://app?vid=d6004cdc-9ae2-4e29-a339-618bd876ca34"},"vehicle_type_id":"4","last_reported":1725289749,"current_range_meters":24000,"station_id":"ce4bgj92rcd13ifvqbd0","pricing_plan_id":"cebpf4jnsgd1na2vs0mg"},{"bike_id":"79d7a8de-13fe-4a8d-984f-635ea61bf6db","system_id":"levelo_inurba_marseille","lat":43.30461,"lon":5.38982,"is_reserved":false,"is_disabled":false,"rental_uris":{"android":"levelo://app?vid=79d7a8de-13fe-4a8d-984f-635ea61bf6db","ios":"levelo://app?vid=79d7a8de-13fe-4a8d-984f-635ea61bf6db"},"vehicle_type_id":"4","last_reported":1725289749,"current_range_meters":17600,"station_id":"","pricing_plan_id":"cebpf4jnsgd1na2vs0mg"},{"bike_id":"34447af7-2920-4af5-9b4a-4c8bc2d40a46","system_id":"levelo_inurba_marseille","lat":43.310804,"lon":5.38359,"is_reserved":false,"is_disabled":false,"rental_uris":{"android":"levelo://app?vid=34447af7-2920-4af5-9b4a-4c8bc2d40a46","ios":"levelo://app?vid=34447af7-2920-4af5-9b4a-4c8bc2d40a46"},"vehicle_type_id":"4","last_reported":1725289749,"current_range_meters":15200,"station_id":"ce4bgv92rcd13ifvqcr0","pricing_plan_id":"cebpf4jnsgd1na2vs0mg"},{"bike_id":"a1807aa7-c852-4c40-8cb5-e734e4333b9c","system_id":"levelo_inurba_marseille","lat":43.295279,"lon":5.375048,"is_reserved":false,"is_disabled":false,"rental_uris":{"android":"levelo://app?vid=a1807aa7-c852-4c40-8cb5-e734e4333b9c","ios":"levelo://app?vid=a1807aa7-c852-4c40-8cb5-e734e4333b9c"},"vehicle_type_id":"4","last_reported":1725289749,"current_range_meters":6800,"station_id":"ce4bgkp2rcd13ifvqbmg","pricing_plan_id":"cebpf4jnsgd1na2vs0mg"},{"bike_id":"6c786fbf-9614-4a9e-90d7-509a6a20d4fa","system_id":"levelo_inurba_marseille","lat":43.32223,"lon":5.38929,"is_reserved":false,"is_disabled":false,"rental_uris":{"android":"levelo://app?vid=6c786fbf-9614-4a9e-90d7-509a6a20d4fa","ios":"levelo://app?vid=6c786fbf-9614-4a9e-90d7-509a6a20d4fa"},"vehicle_type_id":"4","last_reported":1725289749,"current_range_meters":27600,"station_id":"","pricing_plan_id":"cebpf4jnsgd1na2vs0mg"},{"bike_id":"c6bba7df-2724-4d23-b080-cffc815b71bf","system_id":"levelo_inurba_marseille","lat":43.32367,"lon":5.388836,"is_reserved":false,"is_disabled":false,"rental_uris":{"android":"levelo://app?vid=c6bba7df-2724-4d23-b080-cffc815b71bf","ios":"levelo://app?vid=c6bba7df-2724-4d23-b080-cffc815b71bf"},"vehicle_type_id":"4","last_reported":1725289749,"current_range_meters":19600,"station_id":"ce4bhqp2rcd13ifvqhog","pricing_plan_id":"cebpf4jnsgd1na2vs0mg"},{"bike_id":"3fc82fcd-eae8-46c0-b39a-3a53a5b9c96a","system_id":"levelo_inurba_marseille","lat":43.32367,"lon":5.388836,"is_reserved":false,"is_disabled":false,"rental_uris":{"android":"levelo://app?vid=3fc82fcd-eae8-46c0-b39a-3a53a5b9c96a","ios":"levelo://app?vid=3fc82fcd-eae8-46c0-b39a-3a53a5b9c96a"},"vehicle_type_id":"4","last_reported":1725289749,"current_range_meters":21200,"station_id":"ce4bhqp2rcd13ifvqhog","pricing_plan_id":"cebpf4jnsgd1na2vs0mg"},{"bike_id":"74553337-a9dc-4627-9f3a-3397f0b67666","system_id":"levelo_inurba_marseille","lat":43.32367,"lon":5.388836,"is_reserved":false,"is_disabled":false,"rental_uris":{"android":"levelo://app?vid=74553337-a9dc-4627-9f3a-3397f0b67666","ios":"levelo://app?vid=74553337-a9dc-4627-9f3a-3397f0b67666"},"vehicle_type_id":"4","last_reported":1725289749,"current_range_meters":0,"station_id":"ce4bhqp2rcd13ifvqhog","pricing_plan_id":"cebpf4jnsgd1na2vs0mg"},{"bike_id":"b1aabbad-b802-4780-a0d2-836038c6c412","system_id":"levelo_inurba_marseille","lat":43.32367,"lon":5.388836,"is_reserved":false,"is_disabled":false,"rental_uris":{"android":"levelo://app?vid=b1aabbad-b802-4780-a0d2-836038c6c412","ios":"levelo://app?vid=b1aabbad-b802-4780-a0d2-836038c6c412"},"vehicle_type_id":"4","last_reported":1725289749,"current_range_meters":1200,"station_id":"ce4bhqp2rcd13ifvqhog","pricing_plan_id":"cebpf4jnsgd1na2vs0mg"},{"bike_id":"b52e8ed1-ea22-44fe-ae59-0b5f74a167d2","system_id":"levelo_inurba_marseille","lat":43.293249,"lon":5.371578,"is_reserved":false,"is_disabled":false,"rental_uris":{"android":"levelo://app?vid=b52e8ed1-ea22-44fe-ae59-0b5f74a167d2","ios":"levelo://app?vid=b52e8ed1-ea22-44fe-ae59-0b5f74a167d2"},"vehicle_type_id":"4","last_reported":1725289749,"current_range_meters":12800,"station_id":"ce4bgh92rcd13ifvqb40","pricing_plan_id":"cebpf4jnsgd1na2vs0mg"},{"bike_id":"ad588a30-f6dd-46a7-a6b4-aab47578fd90","system_id":"levelo_inurba_marseille","lat":43.293259,"lon":5.371586,"is_reserved":false,"is_disabled":false,"rental_uris":{"android":"levelo://app?vid=ad588a30-f6dd-46a7-a6b4-aab47578fd90","ios":"levelo://app?vid=ad588a30-f6dd-46a7-a6b4-aab47578fd90"},"vehicle_type_id":"4","last_reported":1725289749,"current_range_meters":22400,"station_id":"ce4bgh92rcd13ifvqb40","pricing_plan_id":"cebpf4jnsgd1na2vs0mg"},{"bike_id":"8e48a6c1-3d2a-418a-a9fb-a16bdc136848","system_id":"levelo_inurba_marseille","lat":43.293259,"lon":5.371586,"is_reserved":false,"is_disabled":false,"rental_uris":{"android":"levelo://app?vid=8e48a6c1-3d2a-418a-a9fb-a16bdc136848","ios":"levelo://app?vid=8e48a6c1-3d2a-418a-a9fb-a16bdc136848"},"vehicle_type_id":"4","last_reported":1725289749,"current_range_meters":25200,"station_id":"ce4bgh92rcd13ifvqb40","pricing_plan_id":"cebpf4jnsgd1na2vs0mg"},{"bike_id":"612343ea-79fd-41f6-b7ab-22391dc1d5f4","system_id":"levelo_inurba_marseille","lat":43.292749,"lon":5.368398,"is_reserved":false,"is_disabled":false,"rental_uris":{"android":"levelo://app?vid=612343ea-79fd-41f6-b7ab-22391dc1d5f4","ios":"levelo://app?vid=612343ea-79fd-41f6-b7ab-22391dc1d5f4"},"vehicle_type_id":"4","last_reported":1725289749,"current_range_meters":10800,"station_id":"ce4bhbp2rcd13ifvqesg","pricing_plan_id":"cebpf4jnsgd1na2vs0mg"},{"bike_id":"c660ee5b-d127-4bf4-b459-73c1f8825a43","system_id":"levelo_inurba_marseille","lat":43.293009,"lon":5.374584,"is_reserved":false,"is_disabled":false,"rental_uris":{"android":"levelo://app?vid=c660ee5b-d127-4bf4-b459-73c1f8825a43","ios":"levelo://app?vid=c660ee5b-d127-4bf4-b459-73c1f8825a43"},"vehicle_type_id":"4","last_reported":1725289749,"current_range_meters":24400,"station_id":"ce4bgi12rcd13ifvqb70","pricing_plan_id":"cebpf4jnsgd1na2vs0mg"},{"bike_id":"85df4883-6ab6-4952-bed6-1c6855e24aec","system_id":"levelo_inurba_marseille","lat":43.29296,"lon":5.37461,"is_reserved":false,"is_disabled":false,"rental_uris":{"android":"levelo://app?vid=85df4883-6ab6-4952-bed6-1c6855e24aec","ios":"levelo://app?vid=85df4883-6ab6-4952-bed6-1c6855e24aec"},"vehicle_type_id":"4","last_reported":1725289749,"current_range_meters":0,"station_id":"ce4bgi12rcd13ifvqb70","pricing_plan_id":"cebpf4jnsgd1na2vs0mg"},{"bike_id":"f34e915e-bedc-4f92-951e-95a9b7458075","system_id":"levelo_inurba_marseille","lat":43.29296,"lon":5.37461,"is_reserved":false,"is_disabled":false,"rental_uris":{"android":"levelo://app?vid=f34e915e-bedc-4f92-951e-95a9b7458075","ios":"levelo://app?vid=f34e915e-bedc-4f92-951e-95a9b7458075"},"vehicle_type_id":"4","last_reported":1725289749,"current_range_meters":8800,"station_id":"ce4bgi12rcd13ifvqb70","pricing_plan_id":"cebpf4jnsgd1na2vs0mg"},{"bike_id":"3202c20c-f65c-4ee8-82da-07c547cfe552","system_id":"levelo_inurba_marseille","lat":43.293009,"lon":5.374584,"is_reserved":false,"is_disabled":false,"rental_uris":{"android":"levelo://app?vid=3202c20c-f65c-4ee8-82da-07c547cfe552","ios":"levelo://app?vid=3202c20c-f65c-4ee8-82da-07c547cfe552"},"vehicle_type_id":"4","last_reported":1725289749,"current_range_meters":800,"station_id":"ce4bgi12rcd13ifvqb70","pricing_plan_id":"cebpf4jnsgd1na2vs0mg"},{"bike_id":"1865e746-3cd6-48e9-adb0-d32eaafdee1f","system_id":"levelo_inurba_marseille","lat":43.293009,"lon":5.374584,"is_reserved":false,"is_disabled":false,"rental_uris":{"android":"levelo://app?vid=1865e746-3cd6-48e9-adb0-d32eaafdee1f","ios":"levelo://app?vid=1865e746-3cd6-48e9-adb0-d32eaafdee1f"},"vehicle_type_id":"4","last_reported":1725289749,"current_range_meters":2400,"station_id":"ce4bgi12rcd13ifvqb70","pricing_plan_id":"cebpf4jnsgd1na2vs0mg"},{"bike_id":"0e0ffb44-883e-464d-9813-8a3a9b93e802","system_id":"levelo_inurba_marseille","lat":43.305994,"lon":5.393687,"is_reserved":false,"is_disabled":false,"rental_uris":{"android":"levelo://app?vid=0e0ffb44-883e-464d-9813-8a3a9b93e802","ios":"levelo://app?vid=0e0ffb44-883e-464d-9813-8a3a9b93e802"},"vehicle_type_id":"4","last_reported":1725289749,"current_range_meters":28400,"station_id":"ce4bh0p2rcd13ifvqd80","pricing_plan_id":"cebpf4jnsgd1na2vs0mg"},{"bike_id":"32eac057-33f5-42ea-9097-6e0e5e6e5814","system_id":"levelo_inurba_marseille","lat":43.29284,"lon":5.37459,"is_reserved":false,"is_disabled":false,"rental_uris":{"android":"levelo://app?vid=32eac057-33f5-42ea-9097-6e0e5e6e5814","ios":"levelo://app?vid=32eac057-33f5-42ea-9097-6e0e5e6e5814"},"vehicle_type_id":"4","last_reported":1725289749,"current_range_meters":20000,"station_id":"ce4bgi12rcd13ifvqb70","pricing_plan_id":"cebpf4jnsgd1na2vs0mg"},{"bike_id":"bd78a6f8-e8d1-4961-8f25-9745d6ea8e4d","system_id":"levelo_inurba_marseille","lat":43.2936,"lon":5.37835,"is_reserved":false,"is_disabled":false,"rental_uris":{"android":"levelo://app?vid=bd78a6f8-e8d1-4961-8f25-9745d6ea8e4d","ios":"levelo://app?vid=bd78a6f8-e8d1-4961-8f25-9745d6ea8e4d"},"vehicle_type_id":"4","last_reported":1725289749,"current_range_meters":26400,"station_id":"ce4bgjh2rcd13ifvqbf0","pricing_plan_id":"cebpf4jnsgd1na2vs0mg"},{"bike_id":"f4e0dddc-34f0-483d-8cdc-6bcac4b568fb","system_id":"levelo_inurba_marseille","lat":43.30085,"lon":5.390856,"is_reserved":false,"is_disabled":false,"rental_uris":{"android":"levelo://app?vid=f4e0dddc-34f0-483d-8cdc-6bcac4b568fb","ios":"levelo://app?vid=f4e0dddc-34f0-483d-8cdc-6bcac4b568fb"},"vehicle_type_id":"4","last_reported":1725289749,"current_range_meters":30800,"station_id":"ce4bh192rcd13ifvqdb0","pricing_plan_id":"cebpf4jnsgd1na2vs0mg"},{"bike_id":"6a652dfb-6e14-4ef6-bc45-de2b7878d79b","system_id":"levelo_inurba_marseille","lat":43.2936,"lon":5.37835,"is_reserved":false,"is_disabled":false,"rental_uris":{"android":"levelo://app?vid=6a652dfb-6e14-4ef6-bc45-de2b7878d79b","ios":"levelo://app?vid=6a652dfb-6e14-4ef6-bc45-de2b7878d79b"},"vehicle_type_id":"4","last_reported":1725289749,"current_range_meters":0,"station_id":"ce4bgjh2rcd13ifvqbf0","pricing_plan_id":"cebpf4jnsgd1na2vs0mg"},{"bike_id":"a7239564-dc16-4834-afdd-33157f842305","system_id":"levelo_inurba_marseille","lat":43.29227,"lon":5.36055,"is_reserved":false,"is_disabled":false,"rental_uris":{"android":"levelo://app?vid=a7239564-dc16-4834-afdd-33157f842305","ios":"levelo://app?vid=a7239564-dc16-4834-afdd-33157f842305"},"vehicle_type_id":"4","last_reported":1725289749,"current_range_meters":0,"station_id":"ce4bhbh2rcd13ifvqeqg","pricing_plan_id":"cebpf4jnsgd1na2vs0mg"},{"bike_id":"af6fbb33-9148-48ef-99de-80a6533ea359","system_id":"levelo_inurba_marseille","lat":43.292206,"lon":5.360834,"is_reserved":false,"is_disabled":false,"rental_uris":{"android":"levelo://app?vid=af6fbb33-9148-48ef-99de-80a6533ea359","ios":"levelo://app?vid=af6fbb33-9148-48ef-99de-80a6533ea359"},"vehicle_type_id":"4","last_reported":1725289749,"current_range_meters":0,"station_id":"","pricing_plan_id":"cebpf4jnsgd1na2vs0mg"},{"bike_id":"ec8f1790-35bd-446f-8f17-99951e066888","system_id":"levelo_inurba_marseille","lat":43.292311,"lon":5.360731,"is_reserved":false,"is_disabled":false,"rental_uris":{"android":"levelo://app?vid=ec8f1790-35bd-446f-8f17-99951e066888","ios":"levelo://app?vid=ec8f1790-35bd-446f-8f17-99951e066888"},"vehicle_type_id":"4","last_reported":1725289749,"current_range_meters":20400,"station_id":"ce4bhbh2rcd13ifvqeqg","pricing_plan_id":"cebpf4jnsgd1na2vs0mg"},{"bike_id":"a500d0ee-f317-4fe3-b56a-0704b24f4afc","system_id":"levelo_inurba_marseille","lat":43.292311,"lon":5.360731,"is_reserved":false,"is_disabled":false,"rental_uris":{"android":"levelo://app?vid=a500d0ee-f317-4fe3-b56a-0704b24f4afc","ios":"levelo://app?vid=a500d0ee-f317-4fe3-b56a-0704b24f4afc"},"vehicle_type_id":"4","last_reported":1725289749,"current_range_meters":20800,"station_id":"ce4bhbh2rcd13ifvqeqg","pricing_plan_id":"cebpf4jnsgd1na2vs0mg"},{"bike_id":"60e88a3b-4664-4fb5-b764-2f453e8ece35","system_id":"levelo_inurba_marseille","lat":43.298764,"lon":5.388973,"is_reserved":false,"is_disabled":false,"rental_uris":{"android":"levelo://app?vid=60e88a3b-4664-4fb5-b764-2f453e8ece35","ios":"levelo://app?vid=60e88a3b-4664-4fb5-b764-2f453e8ece35"},"vehicle_type_id":"4","last_reported":1725289749,"current_range_meters":4400,"station_id":"ce4bh392rcd13ifvqdl0","pricing_plan_id":"cebpf4jnsgd1na2vs0mg"},{"bike_id":"34db9375-85f2-4a1d-8d55-c3872e98d261","system_id":"levelo_inurba_marseille","lat":43.29885,"lon":5.38906,"is_reserved":false,"is_disabled":false,"rental_uris":{"android":"levelo://app?vid=34db9375-85f2-4a1d-8d55-c3872e98d261","ios":"levelo://app?vid=34db9375-85f2-4a1d-8d55-c3872e98d261"},"vehicle_type_id":"4","last_reported":1725289749,"current_range_meters":0,"station_id":"ce4bh392rcd13ifvqdl0","pricing_plan_id":"cebpf4jnsgd1na2vs0mg"},{"bike_id":"e9127d34-a92f-49df-ba0d-3ad3a98defa9","system_id":"levelo_inurba_marseille","lat":43.30084,"lon":5.39143,"is_reserved":false,"is_disabled":false,"rental_uris":{"android":"levelo://app?vid=e9127d34-a92f-49df-ba0d-3ad3a98defa9","ios":"levelo://app?vid=e9127d34-a92f-49df-ba0d-3ad3a98defa9"},"vehicle_type_id":"4","last_reported":1725289749,"current_range_meters":15600,"station_id":"ce4bh192rcd13ifvqdb0","pricing_plan_id":"cebpf4jnsgd1na2vs0mg"},{"bike_id":"8746bfdb-cbe2-4e76-a2e3-abd3254d0e33","system_id":"levelo_inurba_marseille","lat":43.29201,"lon":5.35801,"is_reserved":false,"is_disabled":false,"rental_uris":{"android":"levelo://app?vid=8746bfdb-cbe2-4e76-a2e3-abd3254d0e33","ios":"levelo://app?vid=8746bfdb-cbe2-4e76-a2e3-abd3254d0e33"},"vehicle_type_id":"4","last_reported":1725289749,"current_range_meters":0,"station_id":"ce4bhb12rcd13ifvqel0","pricing_plan_id":"cebpf4jnsgd1na2vs0mg"},{"bike_id":"aeadf638-fe9f-4ed4-b27a-0a01947db0f1","system_id":"levelo_inurba_marseille","lat":43.309038,"lon":5.396546,"is_reserved":false,"is_disabled":false,"rental_uris":{"android":"levelo://app?vid=aeadf638-fe9f-4ed4-b27a-0a01947db0f1","ios":"levelo://app?vid=aeadf638-fe9f-4ed4-b27a-0a01947db0f1"},"vehicle_type_id":"4","last_reported":1725289749,"current_range_meters":800,"station_id":"ce4bh012rcd13ifvqcv0","pricing_plan_id":"cebpf4jnsgd1na2vs0mg"},{"bike_id":"76f36d32-0ea2-4e4d-bbb1-e339b08bc23f","system_id":"levelo_inurba_marseille","lat":43.313291,"lon":5.396838,"is_reserved":false,"is_disabled":false,"rental_uris":{"android":"levelo://app?vid=76f36d32-0ea2-4e4d-bbb1-e339b08bc23f","ios":"levelo://app?vid=76f36d32-0ea2-4e4d-bbb1-e339b08bc23f"},"vehicle_type_id":"4","last_reported":1725289749,"current_range_meters":11600,"station_id":"ce4bgvp2rcd13ifvqcu0","pricing_plan_id":"cebpf4jnsgd1na2vs0mg"},{"bike_id":"80991335-1464-4f9e-bc96-f91e331a1284","system_id":"levelo_inurba_marseille","lat":43.313291,"lon":5.396838,"is_reserved":false,"is_disabled":false,"rental_uris":{"android":"levelo://app?vid=80991335-1464-4f9e-bc96-f91e331a1284","ios":"levelo://app?vid=80991335-1464-4f9e-bc96-f91e331a1284"},"vehicle_type_id":"4","last_reported":1725289749,"current_range_meters":30000,"station_id":"ce4bgvp2rcd13ifvqcu0","pricing_plan_id":"cebpf4jnsgd1na2vs0mg"},{"bike_id":"8bfa86f0-912d-4791-aa80-02cb54c7b6ce","system_id":"levelo_inurba_marseille","lat":43.313291,"lon":5.396838,"is_reserved":false,"is_disabled":false,"rental_uris":{"android":"levelo://app?vid=8bfa86f0-912d-4791-aa80-02cb54c7b6ce","ios":"levelo://app?vid=8bfa86f0-912d-4791-aa80-02cb54c7b6ce"},"vehicle_type_id":"4","last_reported":1725289749,"current_range_meters":29600,"station_id":"ce4bgvp2rcd13ifvqcu0","pricing_plan_id":"cebpf4jnsgd1na2vs0mg"},{"bike_id":"abc8afe3-1df2-4f94-914a-d625df1ad180","system_id":"levelo_inurba_marseille","lat":43.29189,"lon":5.35794,"is_reserved":false,"is_disabled":false,"rental_uris":{"android":"levelo://app?vid=abc8afe3-1df2-4f94-914a-d625df1ad180","ios":"levelo://app?vid=abc8afe3-1df2-4f94-914a-d625df1ad180"},"vehicle_type_id":"4","last_reported":1725289749,"current_range_meters":0,"station_id":"ce4bhb12rcd13ifvqel0","pricing_plan_id":"cebpf4jnsgd1na2vs0mg"},{"bike_id":"6572ace7-8d48-4e10-b30a-a3d8a4c06d42","system_id":"levelo_inurba_marseille","lat":43.29529,"lon":5.385581,"is_reserved":false,"is_disabled":false,"rental_uris":{"android":"levelo://app?vid=6572ace7-8d48-4e10-b30a-a3d8a4c06d42","ios":"levelo://app?vid=6572ace7-8d48-4e10-b30a-a3d8a4c06d42"},"vehicle_type_id":"4","last_reported":1725289749,"current_range_meters":3600,"station_id":"ce4bgih2rcd13ifvqba0","pricing_plan_id":"cebpf4jnsgd1na2vs0mg"},{"bike_id":"b9c21e82-c443-4bb6-86a9-753331813c9e","system_id":"levelo_inurba_marseille","lat":43.29534,"lon":5.38546,"is_reserved":false,"is_disabled":false,"rental_uris":{"android":"levelo://app?vid=b9c21e82-c443-4bb6-86a9-753331813c9e","ios":"levelo://app?vid=b9c21e82-c443-4bb6-86a9-753331813c9e"},"vehicle_type_id":"4","last_reported":1725289749,"current_range_meters":0,"station_id":"ce4bgih2rcd13ifvqba0","pricing_plan_id":"cebpf4jnsgd1na2vs0mg"},{"bike_id":"0a7657f9-b3b7-43db-bd78-b2d4ddb0ca7a","system_id":"levelo_inurba_marseille","lat":43.290327,"lon":5.375711,"is_reserved":false,"is_disabled":false,"rental_uris":{"android":"levelo://app?vid=0a7657f9-b3b7-43db-bd78-b2d4ddb0ca7a","ios":"levelo://app?vid=0a7657f9-b3b7-43db-bd78-b2d4ddb0ca7a"},"vehicle_type_id":"4","last_reported":1725289749,"current_range_meters":0,"station_id":"ce4bh692rcd13ifvqe90","pricing_plan_id":"cebpf4jnsgd1na2vs0mg"},{"bike_id":"c462a999-f036-47bf-9daa-748af69e6e84","system_id":"levelo_inurba_marseille","lat":43.294153,"lon":5.386305,"is_reserved":false,"is_disabled":false,"rental_uris":{"android":"levelo://app?vid=c462a999-f036-47bf-9daa-748af69e6e84","ios":"levelo://app?vid=c462a999-f036-47bf-9daa-748af69e6e84"},"vehicle_type_id":"4","last_reported":1725289749,"current_range_meters":0,"station_id":"ce4bh2h2rcd13ifvqdh0","pricing_plan_id":"cebpf4jnsgd1na2vs0mg"},{"bike_id":"70df4197-0a0b-485c-b118-941bc8424d65","system_id":"levelo_inurba_marseille","lat":43.294153,"lon":5.386305,"is_reserved":false,"is_disabled":false,"rental_uris":{"android":"levelo://app?vid=70df4197-0a0b-485c-b118-941bc8424d65","ios":"levelo://app?vid=70df4197-0a0b-485c-b118-941bc8424d65"},"vehicle_type_id":"4","last_reported":1725289749,"current_range_meters":12400,"station_id":"ce4bh2h2rcd13ifvqdh0","pricing_plan_id":"cebpf4jnsgd1na2vs0mg"},{"bike_id":"05b8dc18-de91-4db5-a170-152202b5cbb6","system_id":"levelo_inurba_marseille","lat":43.29418,"lon":5.38626,"is_reserved":false,"is_disabled":false,"rental_uris":{"android":"levelo://app?vid=05b8dc18-de91-4db5-a170-152202b5cbb6","ios":"levelo://app?vid=05b8dc18-de91-4db5-a170-152202b5cbb6"},"vehicle_type_id":"4","last_reported":1725289749,"current_range_meters":0,"station_id":"ce4bh2h2rcd13ifvqdh0","pricing_plan_id":"cebpf4jnsgd1na2vs0mg"},{"bike_id":"76295e56-6e50-48d2-a23f-fc141258cd85","system_id":"levelo_inurba_marseille","lat":43.294153,"lon":5.386305,"is_reserved":false,"is_disabled":false,"rental_uris":{"android":"levelo://app?vid=76295e56-6e50-48d2-a23f-fc141258cd85","ios":"levelo://app?vid=76295e56-6e50-48d2-a23f-fc141258cd85"},"vehicle_type_id":"4","last_reported":1725289749,"current_range_meters":12400,"station_id":"ce4bh2h2rcd13ifvqdh0","pricing_plan_id":"cebpf4jnsgd1na2vs0mg"},{"bike_id":"ab8fec87-d1f6-4ae6-a9a2-9b5557ef9114","system_id":"levelo_inurba_marseille","lat":43.294162,"lon":5.386292,"is_reserved":false,"is_disabled":false,"rental_uris":{"android":"levelo://app?vid=ab8fec87-d1f6-4ae6-a9a2-9b5557ef9114","ios":"levelo://app?vid=ab8fec87-d1f6-4ae6-a9a2-9b5557ef9114"},"vehicle_type_id":"4","last_reported":1725289749,"current_range_meters":12800,"station_id":"ce4bh2h2rcd13ifvqdh0","pricing_plan_id":"cebpf4jnsgd1na2vs0mg"},{"bike_id":"ff4fe167-70aa-40e0-afc1-27d04c6d2fe7","system_id":"levelo_inurba_marseille","lat":43.290319,"lon":5.375732,"is_reserved":false,"is_disabled":false,"rental_uris":{"android":"levelo://app?vid=ff4fe167-70aa-40e0-afc1-27d04c6d2fe7","ios":"levelo://app?vid=ff4fe167-70aa-40e0-afc1-27d04c6d2fe7"},"vehicle_type_id":"4","last_reported":1725289749,"current_range_meters":2800,"station_id":"ce4bh692rcd13ifvqe90","pricing_plan_id":"cebpf4jnsgd1na2vs0mg"},{"bike_id":"73205d8e-6a0d-44bd-bbdf-1c2594f8e0bb","system_id":"levelo_inurba_marseille","lat":43.294162,"lon":5.386292,"is_reserved":false,"is_disabled":false,"rental_uris":{"android":"levelo://app?vid=73205d8e-6a0d-44bd-bbdf-1c2594f8e0bb","ios":"levelo://app?vid=73205d8e-6a0d-44bd-bbdf-1c2594f8e0bb"},"vehicle_type_id":"4","last_reported":1725289749,"current_range_meters":0,"station_id":"ce4bh2h2rcd13ifvqdh0","pricing_plan_id":"cebpf4jnsgd1na2vs0mg"},{"bike_id":"848c8715-5c3c-4092-aa4d-68682fbf9137","system_id":"levelo_inurba_marseille","lat":43.289184,"lon":5.366408,"is_reserved":false,"is_disabled":false,"rental_uris":{"android":"levelo://app?vid=848c8715-5c3c-4092-aa4d-68682fbf9137","ios":"levelo://app?vid=848c8715-5c3c-4092-aa4d-68682fbf9137"},"vehicle_type_id":"4","last_reported":1725289749,"current_range_meters":6000,"station_id":"ce4bhap2rcd13ifvqek0","pricing_plan_id":"cebpf4jnsgd1na2vs0mg"},{"bike_id":"aca7ccbc-e401-41da-aef3-ceefd9323179","system_id":"levelo_inurba_marseille","lat":43.289184,"lon":5.366408,"is_reserved":false,"is_disabled":false,"rental_uris":{"android":"levelo://app?vid=aca7ccbc-e401-41da-aef3-ceefd9323179","ios":"levelo://app?vid=aca7ccbc-e401-41da-aef3-ceefd9323179"},"vehicle_type_id":"4","last_reported":1725289749,"current_range_meters":0,"station_id":"ce4bhap2rcd13ifvqek0","pricing_plan_id":"cebpf4jnsgd1na2vs0mg"},{"bike_id":"cff8a871-bfc6-487a-8620-0adbbbbce702","system_id":"levelo_inurba_marseille","lat":43.290319,"lon":5.375732,"is_reserved":false,"is_disabled":false,"rental_uris":{"android":"levelo://app?vid=cff8a871-bfc6-487a-8620-0adbbbbce702","ios":"levelo://app?vid=cff8a871-bfc6-487a-8620-0adbbbbce702"},"vehicle_type_id":"4","last_reported":1725289749,"current_range_meters":11200,"station_id":"ce4bh692rcd13ifvqe90","pricing_plan_id":"cebpf4jnsgd1na2vs0mg"},{"bike_id":"b494f1bb-3f6e-4a24-b808-e6f2d2ae54e6","system_id":"levelo_inurba_marseille","lat":43.2893,"lon":5.3663,"is_reserved":false,"is_disabled":false,"rental_uris":{"android":"levelo://app?vid=b494f1bb-3f6e-4a24-b808-e6f2d2ae54e6","ios":"levelo://app?vid=b494f1bb-3f6e-4a24-b808-e6f2d2ae54e6"},"vehicle_type_id":"4","last_reported":1725289749,"current_range_meters":0,"station_id":"ce4bhap2rcd13ifvqek0","pricing_plan_id":"cebpf4jnsgd1na2vs0mg"},{"bike_id":"a6af9bbb-ec5d-47fe-bb09-3c718af70f8b","system_id":"levelo_inurba_marseille","lat":43.304274,"lon":5.397513,"is_reserved":false,"is_disabled":false,"rental_uris":{"android":"levelo://app?vid=a6af9bbb-ec5d-47fe-bb09-3c718af70f8b","ios":"levelo://app?vid=a6af9bbb-ec5d-47fe-bb09-3c718af70f8b"},"vehicle_type_id":"4","last_reported":1725289749,"current_range_meters":16800,"station_id":"ce4bh092rcd13ifvqd20","pricing_plan_id":"cebpf4jnsgd1na2vs0mg"},{"bike_id":"c784138b-100c-48f5-865d-dfa2864d23b9","system_id":"levelo_inurba_marseille","lat":43.29264,"lon":5.38446,"is_reserved":false,"is_disabled":false,"rental_uris":{"android":"levelo://app?vid=c784138b-100c-48f5-865d-dfa2864d23b9","ios":"levelo://app?vid=c784138b-100c-48f5-865d-dfa2864d23b9"},"vehicle_type_id":"4","last_reported":1725289749,"current_range_meters":0,"station_id":"ce4bh692rcd13ifvqea0","pricing_plan_id":"cebpf4jnsgd1na2vs0mg"},{"bike_id":"9cbae486-6251-470b-ac2b-d7c240e55e7a","system_id":"levelo_inurba_marseille","lat":43.289468,"lon":5.363719,"is_reserved":false,"is_disabled":false,"rental_uris":{"android":"levelo://app?vid=9cbae486-6251-470b-ac2b-d7c240e55e7a","ios":"levelo://app?vid=9cbae486-6251-470b-ac2b-d7c240e55e7a"},"vehicle_type_id":"4","last_reported":1725289749,"current_range_meters":8000,"station_id":"ce4bhc92rcd13ifvqetg","pricing_plan_id":"cebpf4jnsgd1na2vs0mg"},{"bike_id":"94afc67b-392b-4827-b031-d85b37f99458","system_id":"levelo_inurba_marseille","lat":43.29002,"lon":5.35609,"is_reserved":false,"is_disabled":false,"rental_uris":{"android":"levelo://app?vid=94afc67b-392b-4827-b031-d85b37f99458","ios":"levelo://app?vid=94afc67b-392b-4827-b031-d85b37f99458"},"vehicle_type_id":"4","last_reported":1725289749,"current_range_meters":0,"station_id":"ce4bhb92rcd13ifvqen0","pricing_plan_id":"cebpf4jnsgd1na2vs0mg"},{"bike_id":"3df184f9-3f5d-45f3-941e-841412603bcf","system_id":"levelo_inurba_marseille","lat":43.284214,"lon":5.349706,"is_reserved":false,"is_disabled":false,"rental_uris":{"android":"levelo://app?vid=3df184f9-3f5d-45f3-941e-841412603bcf","ios":"levelo://app?vid=3df184f9-3f5d-45f3-941e-841412603bcf"},"vehicle_type_id":"4","last_reported":1725289749,"current_range_meters":27200,"station_id":"ce4bhbh2rcd13ifvqepg","pricing_plan_id":"cebpf4jnsgd1na2vs0mg"},{"bike_id":"1e7bbc6c-4d45-4933-8254-bd01dc48599d","system_id":"levelo_inurba_marseille","lat":43.290995,"lon":5.381361,"is_reserved":false,"is_disabled":false,"rental_uris":{"android":"levelo://app?vid=1e7bbc6c-4d45-4933-8254-bd01dc48599d","ios":"levelo://app?vid=1e7bbc6c-4d45-4933-8254-bd01dc48599d"},"vehicle_type_id":"4","last_reported":1725289749,"current_range_meters":0,"station_id":"ce4bh512rcd13ifvqe2g","pricing_plan_id":"cebpf4jnsgd1na2vs0mg"},{"bike_id":"b73ac82e-fc48-4cb5-bc33-3daed9fc1dd4","system_id":"levelo_inurba_marseille","lat":43.297807,"lon":5.393533,"is_reserved":false,"is_disabled":false,"rental_uris":{"android":"levelo://app?vid=b73ac82e-fc48-4cb5-bc33-3daed9fc1dd4","ios":"levelo://app?vid=b73ac82e-fc48-4cb5-bc33-3daed9fc1dd4"},"vehicle_type_id":"4","last_reported":1725289749,"current_range_meters":0,"station_id":"chh1huq6cuj3fo74tm60","pricing_plan_id":"cebpf4jnsgd1na2vs0mg"},{"bike_id":"b6410296-b6fb-4051-b2ff-726195a8690a","system_id":"levelo_inurba_marseille","lat":43.33023,"lon":5.39034,"is_reserved":false,"is_disabled":false,"rental_uris":{"android":"levelo://app?vid=b6410296-b6fb-4051-b2ff-726195a8690a","ios":"levelo://app?vid=b6410296-b6fb-4051-b2ff-726195a8690a"},"vehicle_type_id":"4","last_reported":1725289749,"current_range_meters":8800,"station_id":"ce4bhr92rcd13ifvqhrg","pricing_plan_id":"cebpf4jnsgd1na2vs0mg"},{"bike_id":"e4ffacb5-f013-4125-a4ef-025e6e1d680c","system_id":"levelo_inurba_marseille","lat":43.289741,"lon":5.378306,"is_reserved":false,"is_disabled":false,"rental_uris":{"android":"levelo://app?vid=e4ffacb5-f013-4125-a4ef-025e6e1d680c","ios":"levelo://app?vid=e4ffacb5-f013-4125-a4ef-025e6e1d680c"},"vehicle_type_id":"4","last_reported":1725289749,"current_range_meters":4800,"station_id":"ce4bh9p2rcd13ifvqed0","pricing_plan_id":"cebpf4jnsgd1na2vs0mg"},{"bike_id":"d08efa48-9a0c-4766-ba89-908ab3df66c2","system_id":"levelo_inurba_marseille","lat":43.33023,"lon":5.39041,"is_reserved":false,"is_disabled":false,"rental_uris":{"android":"levelo://app?vid=d08efa48-9a0c-4766-ba89-908ab3df66c2","ios":"levelo://app?vid=d08efa48-9a0c-4766-ba89-908ab3df66c2"},"vehicle_type_id":"4","last_reported":1725289749,"current_range_meters":4400,"station_id":"ce4bhr92rcd13ifvqhrg","pricing_plan_id":"cebpf4jnsgd1na2vs0mg"},{"bike_id":"e74ecfe6-eb2e-4c31-b8da-544da791e5bd","system_id":"levelo_inurba_marseille","lat":43.330442,"lon":5.389148,"is_reserved":false,"is_disabled":false,"rental_uris":{"android":"levelo://app?vid=e74ecfe6-eb2e-4c31-b8da-544da791e5bd","ios":"levelo://app?vid=e74ecfe6-eb2e-4c31-b8da-544da791e5bd"},"vehicle_type_id":"4","last_reported":1725289749,"current_range_meters":26400,"station_id":"ce4bhr92rcd13ifvqhrg","pricing_plan_id":"cebpf4jnsgd1na2vs0mg"},{"bike_id":"52d8a012-8286-4d28-aae6-f3bad10205bd","system_id":"levelo_inurba_marseille","lat":43.33025,"lon":5.39042,"is_reserved":false,"is_disabled":false,"rental_uris":{"android":"levelo://app?vid=52d8a012-8286-4d28-aae6-f3bad10205bd","ios":"levelo://app?vid=52d8a012-8286-4d28-aae6-f3bad10205bd"},"vehicle_type_id":"4","last_reported":1725289749,"current_range_meters":22000,"station_id":"ce4bhr92rcd13ifvqhrg","pricing_plan_id":"cebpf4jnsgd1na2vs0mg"},{"bike_id":"6e51196e-d8f4-4102-9034-57e435fc78b1","system_id":"levelo_inurba_marseille","lat":43.33028,"lon":5.39039,"is_reserved":false,"is_disabled":false,"rental_uris":{"android":"levelo://app?vid=6e51196e-d8f4-4102-9034-57e435fc78b1","ios":"levelo://app?vid=6e51196e-d8f4-4102-9034-57e435fc78b1"},"vehicle_type_id":"4","last_reported":1725289749,"current_range_meters":2000,"station_id":"ce4bhr92rcd13ifvqhrg","pricing_plan_id":"cebpf4jnsgd1na2vs0mg"},{"bike_id":"412f6830-ef0d-4421-a421-c52edee2f9ff","system_id":"levelo_inurba_marseille","lat":43.330442,"lon":5.389148,"is_reserved":false,"is_disabled":false,"rental_uris":{"android":"levelo://app?vid=412f6830-ef0d-4421-a421-c52edee2f9ff","ios":"levelo://app?vid=412f6830-ef0d-4421-a421-c52edee2f9ff"},"vehicle_type_id":"4","last_reported":1725289749,"current_range_meters":10400,"station_id":"ce4bhr92rcd13ifvqhrg","pricing_plan_id":"cebpf4jnsgd1na2vs0mg"},{"bike_id":"b05a3fe5-1524-4c3a-bb09-142a84e2ca56","system_id":"levelo_inurba_marseille","lat":43.33024,"lon":5.39045,"is_reserved":false,"is_disabled":false,"rental_uris":{"android":"levelo://app?vid=b05a3fe5-1524-4c3a-bb09-142a84e2ca56","ios":"levelo://app?vid=b05a3fe5-1524-4c3a-bb09-142a84e2ca56"},"vehicle_type_id":"4","last_reported":1725289749,"current_range_meters":9200,"station_id":"ce4bhr92rcd13ifvqhrg","pricing_plan_id":"cebpf4jnsgd1na2vs0mg"},{"bike_id":"693ab049-37fa-47c7-bc56-e7d31d402a35","system_id":"levelo_inurba_marseille","lat":43.330442,"lon":5.389148,"is_reserved":false,"is_disabled":false,"rental_uris":{"android":"levelo://app?vid=693ab049-37fa-47c7-bc56-e7d31d402a35","ios":"levelo://app?vid=693ab049-37fa-47c7-bc56-e7d31d402a35"},"vehicle_type_id":"4","last_reported":1725289749,"current_range_meters":31600,"station_id":"ce4bhr92rcd13ifvqhrg","pricing_plan_id":"cebpf4jnsgd1na2vs0mg"},{"bike_id":"d3574a6d-5b30-4769-a276-1f3d0e6c48a0","system_id":"levelo_inurba_marseille","lat":43.330442,"lon":5.389148,"is_reserved":false,"is_disabled":false,"rental_uris":{"android":"levelo://app?vid=d3574a6d-5b30-4769-a276-1f3d0e6c48a0","ios":"levelo://app?vid=d3574a6d-5b30-4769-a276-1f3d0e6c48a0"},"vehicle_type_id":"4","last_reported":1725289749,"current_range_meters":1600,"station_id":"ce4bhr92rcd13ifvqhrg","pricing_plan_id":"cebpf4jnsgd1na2vs0mg"},{"bike_id":"31e919b8-fd1f-4a78-b2ee-d480b640f4e4","system_id":"levelo_inurba_marseille","lat":43.330442,"lon":5.389148,"is_reserved":false,"is_disabled":false,"rental_uris":{"android":"levelo://app?vid=31e919b8-fd1f-4a78-b2ee-d480b640f4e4","ios":"levelo://app?vid=31e919b8-fd1f-4a78-b2ee-d480b640f4e4"},"vehicle_type_id":"4","last_reported":1725289749,"current_range_meters":8400,"station_id":"ce4bhr92rcd13ifvqhrg","pricing_plan_id":"cebpf4jnsgd1na2vs0mg"},{"bike_id":"859318b7-26b4-47ec-a105-1abbeb82c548","system_id":"levelo_inurba_marseille","lat":43.33027,"lon":5.39042,"is_reserved":false,"is_disabled":false,"rental_uris":{"android":"levelo://app?vid=859318b7-26b4-47ec-a105-1abbeb82c548","ios":"levelo://app?vid=859318b7-26b4-47ec-a105-1abbeb82c548"},"vehicle_type_id":"4","last_reported":1725289749,"current_range_meters":20400,"station_id":"ce4bhr92rcd13ifvqhrg","pricing_plan_id":"cebpf4jnsgd1na2vs0mg"},{"bike_id":"b69835c4-d336-40f4-80d6-c65f5041f6cd","system_id":"levelo_inurba_marseille","lat":43.330442,"lon":5.389148,"is_reserved":false,"is_disabled":false,"rental_uris":{"android":"levelo://app?vid=b69835c4-d336-40f4-80d6-c65f5041f6cd","ios":"levelo://app?vid=b69835c4-d336-40f4-80d6-c65f5041f6cd"},"vehicle_type_id":"4","last_reported":1725289749,"current_range_meters":800,"station_id":"ce4bhr92rcd13ifvqhrg","pricing_plan_id":"cebpf4jnsgd1na2vs0mg"},{"bike_id":"b8b07b57-29a1-4df1-9f82-d47c5502a2d0","system_id":"levelo_inurba_marseille","lat":43.3303,"lon":5.39039,"is_reserved":false,"is_disabled":false,"rental_uris":{"android":"levelo://app?vid=b8b07b57-29a1-4df1-9f82-d47c5502a2d0","ios":"levelo://app?vid=b8b07b57-29a1-4df1-9f82-d47c5502a2d0"},"vehicle_type_id":"4","last_reported":1725289749,"current_range_meters":20000,"station_id":"ce4bhr92rcd13ifvqhrg","pricing_plan_id":"cebpf4jnsgd1na2vs0mg"},{"bike_id":"6a144e36-ead0-4b6f-8c8a-7191d8499cf0","system_id":"levelo_inurba_marseille","lat":43.330442,"lon":5.389148,"is_reserved":false,"is_disabled":false,"rental_uris":{"android":"levelo://app?vid=6a144e36-ead0-4b6f-8c8a-7191d8499cf0","ios":"levelo://app?vid=6a144e36-ead0-4b6f-8c8a-7191d8499cf0"},"vehicle_type_id":"4","last_reported":1725289749,"current_range_meters":30000,"station_id":"ce4bhr92rcd13ifvqhrg","pricing_plan_id":"cebpf4jnsgd1na2vs0mg"},{"bike_id":"fe158b8b-6992-4416-bfbf-9a08611e6a3a","system_id":"levelo_inurba_marseille","lat":43.33027,"lon":5.39048,"is_reserved":false,"is_disabled":false,"rental_uris":{"android":"levelo://app?vid=fe158b8b-6992-4416-bfbf-9a08611e6a3a","ios":"levelo://app?vid=fe158b8b-6992-4416-bfbf-9a08611e6a3a"},"vehicle_type_id":"4","last_reported":1725289749,"current_range_meters":14800,"station_id":"ce4bhr92rcd13ifvqhrg","pricing_plan_id":"cebpf4jnsgd1na2vs0mg"},{"bike_id":"a03946ea-4a70-48fc-8c11-415688f6392a","system_id":"levelo_inurba_marseille","lat":43.295169,"lon":5.390426,"is_reserved":false,"is_disabled":false,"rental_uris":{"android":"levelo://app?vid=a03946ea-4a70-48fc-8c11-415688f6392a","ios":"levelo://app?vid=a03946ea-4a70-48fc-8c11-415688f6392a"},"vehicle_type_id":"4","last_reported":1725289749,"current_range_meters":0,"station_id":"ce4bh3p2rcd13ifvqdp0","pricing_plan_id":"cebpf4jnsgd1na2vs0mg"},{"bike_id":"17b8423f-32ab-4c41-a884-dce269672c87","system_id":"levelo_inurba_marseille","lat":43.31059,"lon":5.40101,"is_reserved":false,"is_disabled":false,"rental_uris":{"android":"levelo://app?vid=17b8423f-32ab-4c41-a884-dce269672c87","ios":"levelo://app?vid=17b8423f-32ab-4c41-a884-dce269672c87"},"vehicle_type_id":"4","last_reported":1725289749,"current_range_meters":2400,"station_id":"","pricing_plan_id":"cebpf4jnsgd1na2vs0mg"},{"bike_id":"d7c2c22a-be41-4668-9a87-7242e247c4ac","system_id":"levelo_inurba_marseille","lat":43.28856,"lon":5.358371,"is_reserved":false,"is_disabled":false,"rental_uris":{"android":"levelo://app?vid=d7c2c22a-be41-4668-9a87-7242e247c4ac","ios":"levelo://app?vid=d7c2c22a-be41-4668-9a87-7242e247c4ac"},"vehicle_type_id":"4","last_reported":1725289749,"current_range_meters":10000,"station_id":"ce4bhb12rcd13ifvqem0","pricing_plan_id":"cebpf4jnsgd1na2vs0mg"},{"bike_id":"415b170f-a7bd-4685-9787-b7d211f04513","system_id":"levelo_inurba_marseille","lat":43.28849,"lon":5.35789,"is_reserved":false,"is_disabled":false,"rental_uris":{"android":"levelo://app?vid=415b170f-a7bd-4685-9787-b7d211f04513","ios":"levelo://app?vid=415b170f-a7bd-4685-9787-b7d211f04513"},"vehicle_type_id":"4","last_reported":1725289749,"current_range_meters":5200,"station_id":"ce4bhb12rcd13ifvqem0","pricing_plan_id":"cebpf4jnsgd1na2vs0mg"},{"bike_id":"d01a3708-b82e-4752-857d-9dd8beb6bf91","system_id":"levelo_inurba_marseille","lat":43.33741,"lon":5.37447,"is_reserved":false,"is_disabled":false,"rental_uris":{"android":"levelo://app?vid=d01a3708-b82e-4752-857d-9dd8beb6bf91","ios":"levelo://app?vid=d01a3708-b82e-4752-857d-9dd8beb6bf91"},"vehicle_type_id":"4","last_reported":1725289749,"current_range_meters":5600,"station_id":"","pricing_plan_id":"cebpf4jnsgd1na2vs0mg"},{"bike_id":"b57423dc-d912-4953-8d4b-21befade773a","system_id":"levelo_inurba_marseille","lat":43.312609,"lon":5.401662,"is_reserved":false,"is_disabled":false,"rental_uris":{"android":"levelo://app?vid=b57423dc-d912-4953-8d4b-21befade773a","ios":"levelo://app?vid=b57423dc-d912-4953-8d4b-21befade773a"},"vehicle_type_id":"4","last_reported":1725289749,"current_range_meters":8800,"station_id":"ce4bh092rcd13ifvqd30","pricing_plan_id":"cebpf4jnsgd1na2vs0mg"},{"bike_id":"5066cc93-89d6-4182-9bd3-fc6e69b9cc76","system_id":"levelo_inurba_marseille","lat":43.306666,"lon":5.400745,"is_reserved":false,"is_disabled":false,"rental_uris":{"android":"levelo://app?vid=5066cc93-89d6-4182-9bd3-fc6e69b9cc76","ios":"levelo://app?vid=5066cc93-89d6-4182-9bd3-fc6e69b9cc76"},"vehicle_type_id":"4","last_reported":1725289749,"current_range_meters":26800,"station_id":"ce4bh112rcd13ifvqda0","pricing_plan_id":"cebpf4jnsgd1na2vs0mg"},{"bike_id":"3cb4fec9-04db-47b7-8a4e-45a5d42e20da","system_id":"levelo_inurba_marseille","lat":43.3375,"lon":5.37439,"is_reserved":false,"is_disabled":false,"rental_uris":{"android":"levelo://app?vid=3cb4fec9-04db-47b7-8a4e-45a5d42e20da","ios":"levelo://app?vid=3cb4fec9-04db-47b7-8a4e-45a5d42e20da"},"vehicle_type_id":"4","last_reported":1725289749,"current_range_meters":18800,"station_id":"","pricing_plan_id":"cebpf4jnsgd1na2vs0mg"},{"bike_id":"7a97bb24-fe3d-4a2c-acb9-4958df00589c","system_id":"levelo_inurba_marseille","lat":43.312609,"lon":5.401662,"is_reserved":false,"is_disabled":false,"rental_uris":{"android":"levelo://app?vid=7a97bb24-fe3d-4a2c-acb9-4958df00589c","ios":"levelo://app?vid=7a97bb24-fe3d-4a2c-acb9-4958df00589c"},"vehicle_type_id":"4","last_reported":1725289749,"current_range_meters":8400,"station_id":"ce4bh092rcd13ifvqd30","pricing_plan_id":"cebpf4jnsgd1na2vs0mg"},{"bike_id":"c776565e-942a-4b6d-b4e4-7d3ec7f3ae0d","system_id":"levelo_inurba_marseille","lat":43.33747,"lon":5.37462,"is_reserved":false,"is_disabled":false,"rental_uris":{"android":"levelo://app?vid=c776565e-942a-4b6d-b4e4-7d3ec7f3ae0d","ios":"levelo://app?vid=c776565e-942a-4b6d-b4e4-7d3ec7f3ae0d"},"vehicle_type_id":"4","last_reported":1725289749,"current_range_meters":28400,"station_id":"","pricing_plan_id":"cebpf4jnsgd1na2vs0mg"},{"bike_id":"0386a592-86e0-45cb-8dc5-cf44dca4b4c3","system_id":"levelo_inurba_marseille","lat":43.30933,"lon":5.40147,"is_reserved":false,"is_disabled":false,"rental_uris":{"android":"levelo://app?vid=0386a592-86e0-45cb-8dc5-cf44dca4b4c3","ios":"levelo://app?vid=0386a592-86e0-45cb-8dc5-cf44dca4b4c3"},"vehicle_type_id":"4","last_reported":1725289749,"current_range_meters":24400,"station_id":"ce4bgvp2rcd13ifvqct0","pricing_plan_id":"cebpf4jnsgd1na2vs0mg"},{"bike_id":"86f98fa6-15ec-4dd1-856e-597e7e3fc677","system_id":"levelo_inurba_marseille","lat":43.306412,"lon":5.401035,"is_reserved":false,"is_disabled":false,"rental_uris":{"android":"levelo://app?vid=86f98fa6-15ec-4dd1-856e-597e7e3fc677","ios":"levelo://app?vid=86f98fa6-15ec-4dd1-856e-597e7e3fc677"},"vehicle_type_id":"4","last_reported":1725289749,"current_range_meters":19600,"station_id":"ce4bh112rcd13ifvqda0","pricing_plan_id":"cebpf4jnsgd1na2vs0mg"},{"bike_id":"f2e9afa3-4795-4f32-bf04-c65403c6b5b7","system_id":"levelo_inurba_marseille","lat":43.30642,"lon":5.401031,"is_reserved":false,"is_disabled":false,"rental_uris":{"android":"levelo://app?vid=f2e9afa3-4795-4f32-bf04-c65403c6b5b7","ios":"levelo://app?vid=f2e9afa3-4795-4f32-bf04-c65403c6b5b7"},"vehicle_type_id":"4","last_reported":1725289749,"current_range_meters":30000,"station_id":"ce4bh112rcd13ifvqda0","pricing_plan_id":"cebpf4jnsgd1na2vs0mg"},{"bike_id":"5ae253df-f97c-4ef8-bbe8-449b9df27bad","system_id":"levelo_inurba_marseille","lat":43.306412,"lon":5.401035,"is_reserved":false,"is_disabled":false,"rental_uris":{"android":"levelo://app?vid=5ae253df-f97c-4ef8-bbe8-449b9df27bad","ios":"levelo://app?vid=5ae253df-f97c-4ef8-bbe8-449b9df27bad"},"vehicle_type_id":"4","last_reported":1725289749,"current_range_meters":15600,"station_id":"ce4bh112rcd13ifvqda0","pricing_plan_id":"cebpf4jnsgd1na2vs0mg"},{"bike_id":"929891a9-755c-4c74-bd8a-8582b62d6ef3","system_id":"levelo_inurba_marseille","lat":43.30642,"lon":5.401031,"is_reserved":false,"is_disabled":false,"rental_uris":{"android":"levelo://app?vid=929891a9-755c-4c74-bd8a-8582b62d6ef3","ios":"levelo://app?vid=929891a9-755c-4c74-bd8a-8582b62d6ef3"},"vehicle_type_id":"4","last_reported":1725289749,"current_range_meters":23600,"station_id":"ce4bh112rcd13ifvqda0","pricing_plan_id":"cebpf4jnsgd1na2vs0mg"},{"bike_id":"08e76707-ea30-4781-8a40-e4eca5230968","system_id":"levelo_inurba_marseille","lat":43.301117,"lon":5.398795,"is_reserved":false,"is_disabled":false,"rental_uris":{"android":"levelo://app?vid=08e76707-ea30-4781-8a40-e4eca5230968","ios":"levelo://app?vid=08e76707-ea30-4781-8a40-e4eca5230968"},"vehicle_type_id":"4","last_reported":1725289749,"current_range_meters":0,"station_id":"ce4bh0h2rcd13ifvqd40","pricing_plan_id":"cebpf4jnsgd1na2vs0mg"},{"bike_id":"f47d04fd-9066-4da4-acde-c913c1be07ae","system_id":"levelo_inurba_marseille","lat":43.28727,"lon":5.36078,"is_reserved":false,"is_disabled":false,"rental_uris":{"android":"levelo://app?vid=f47d04fd-9066-4da4-acde-c913c1be07ae","ios":"levelo://app?vid=f47d04fd-9066-4da4-acde-c913c1be07ae"},"vehicle_type_id":"4","last_reported":1725289749,"current_range_meters":30000,"station_id":"cki0cbj6b192h4jlfktg","pricing_plan_id":"cebpf4jnsgd1na2vs0mg"},{"bike_id":"bae97ce6-1a8b-46a5-bf12-7334eec0e80d","system_id":"levelo_inurba_marseille","lat":43.28727,"lon":5.36078,"is_reserved":false,"is_disabled":false,"rental_uris":{"android":"levelo://app?vid=bae97ce6-1a8b-46a5-bf12-7334eec0e80d","ios":"levelo://app?vid=bae97ce6-1a8b-46a5-bf12-7334eec0e80d"},"vehicle_type_id":"4","last_reported":1725289749,"current_range_meters":10800,"station_id":"cki0cbj6b192h4jlfktg","pricing_plan_id":"cebpf4jnsgd1na2vs0mg"},{"bike_id":"e4cc837e-52bb-42fb-a41a-5f0f6e0339fa","system_id":"levelo_inurba_marseille","lat":43.2988,"lon":5.39743,"is_reserved":false,"is_disabled":false,"rental_uris":{"android":"levelo://app?vid=e4cc837e-52bb-42fb-a41a-5f0f6e0339fa","ios":"levelo://app?vid=e4cc837e-52bb-42fb-a41a-5f0f6e0339fa"},"vehicle_type_id":"4","last_reported":1725289749,"current_range_meters":0,"station_id":"ce4bh0h2rcd13ifvqd50","pricing_plan_id":"cebpf4jnsgd1na2vs0mg"},{"bike_id":"151b039e-0570-43f1-ac07-7d25a96faf48","system_id":"levelo_inurba_marseille","lat":43.28934,"lon":5.38415,"is_reserved":false,"is_disabled":false,"rental_uris":{"android":"levelo://app?vid=151b039e-0570-43f1-ac07-7d25a96faf48","ios":"levelo://app?vid=151b039e-0570-43f1-ac07-7d25a96faf48"},"vehicle_type_id":"4","last_reported":1725289749,"current_range_meters":0,"station_id":"ce4bh612rcd13ifvqe6g","pricing_plan_id":"cebpf4jnsgd1na2vs0mg"},{"bike_id":"63928066-af4c-4bbf-8671-0bb3cb294389","system_id":"levelo_inurba_marseille","lat":43.289307,"lon":5.38406,"is_reserved":false,"is_disabled":false,"rental_uris":{"android":"levelo://app?vid=63928066-af4c-4bbf-8671-0bb3cb294389","ios":"levelo://app?vid=63928066-af4c-4bbf-8671-0bb3cb294389"},"vehicle_type_id":"4","last_reported":1725289749,"current_range_meters":19200,"station_id":"ce4bh612rcd13ifvqe6g","pricing_plan_id":"cebpf4jnsgd1na2vs0mg"},{"bike_id":"037f8f48-9502-49dd-ac72-328f1bcd69c5","system_id":"levelo_inurba_marseille","lat":43.290345,"lon":5.38646,"is_reserved":false,"is_disabled":false,"rental_uris":{"android":"levelo://app?vid=037f8f48-9502-49dd-ac72-328f1bcd69c5","ios":"levelo://app?vid=037f8f48-9502-49dd-ac72-328f1bcd69c5"},"vehicle_type_id":"4","last_reported":1725289749,"current_range_meters":8400,"station_id":"ce4bh4p2rcd13ifvqe0g","pricing_plan_id":"cebpf4jnsgd1na2vs0mg"},{"bike_id":"7ad32f19-304d-435d-8f63-2e2d0be0bf1b","system_id":"levelo_inurba_marseille","lat":43.290336,"lon":5.386425,"is_reserved":false,"is_disabled":false,"rental_uris":{"android":"levelo://app?vid=7ad32f19-304d-435d-8f63-2e2d0be0bf1b","ios":"levelo://app?vid=7ad32f19-304d-435d-8f63-2e2d0be0bf1b"},"vehicle_type_id":"4","last_reported":1725289749,"current_range_meters":26800,"station_id":"ce4bh4p2rcd13ifvqe0g","pricing_plan_id":"cebpf4jnsgd1na2vs0mg"},{"bike_id":"4d1c465a-0767-4d9f-aae4-e2d435c58fda","system_id":"levelo_inurba_marseille","lat":43.286039,"lon":5.370679,"is_reserved":false,"is_disabled":false,"rental_uris":{"android":"levelo://app?vid=4d1c465a-0767-4d9f-aae4-e2d435c58fda","ios":"levelo://app?vid=4d1c465a-0767-4d9f-aae4-e2d435c58fda"},"vehicle_type_id":"4","last_reported":1725289749,"current_range_meters":12800,"station_id":"ce4bht12rcd13ifvqi60","pricing_plan_id":"cebpf4jnsgd1na2vs0mg"},{"bike_id":"07de07e3-2871-4ea6-a0df-4210a24439fc","system_id":"levelo_inurba_marseille","lat":43.30262,"lon":5.40092,"is_reserved":false,"is_disabled":false,"rental_uris":{"android":"levelo://app?vid=07de07e3-2871-4ea6-a0df-4210a24439fc","ios":"levelo://app?vid=07de07e3-2871-4ea6-a0df-4210a24439fc"},"vehicle_type_id":"4","last_reported":1725289749,"current_range_meters":20800,"station_id":"ce4bgvh2rcd13ifvqcs0","pricing_plan_id":"cebpf4jnsgd1na2vs0mg"},{"bike_id":"7f492f90-4da4-46fc-b3aa-42b0871e5c3e","system_id":"levelo_inurba_marseille","lat":43.286039,"lon":5.370681,"is_reserved":false,"is_disabled":false,"rental_uris":{"android":"levelo://app?vid=7f492f90-4da4-46fc-b3aa-42b0871e5c3e","ios":"levelo://app?vid=7f492f90-4da4-46fc-b3aa-42b0871e5c3e"},"vehicle_type_id":"4","last_reported":1725289749,"current_range_meters":25200,"station_id":"ce4bht12rcd13ifvqi60","pricing_plan_id":"cebpf4jnsgd1na2vs0mg"},{"bike_id":"79df767d-f837-44d1-ae52-a4588340d04f","system_id":"levelo_inurba_marseille","lat":43.290345,"lon":5.38646,"is_reserved":false,"is_disabled":false,"rental_uris":{"android":"levelo://app?vid=79df767d-f837-44d1-ae52-a4588340d04f","ios":"levelo://app?vid=79df767d-f837-44d1-ae52-a4588340d04f"},"vehicle_type_id":"4","last_reported":1725289749,"current_range_meters":4800,"station_id":"ce4bh4p2rcd13ifvqe0g","pricing_plan_id":"cebpf4jnsgd1na2vs0mg"},{"bike_id":"2be6819c-c632-4162-9d01-083c5272666b","system_id":"levelo_inurba_marseille","lat":43.327434,"lon":5.398768,"is_reserved":false,"is_disabled":false,"rental_uris":{"android":"levelo://app?vid=2be6819c-c632-4162-9d01-083c5272666b","ios":"levelo://app?vid=2be6819c-c632-4162-9d01-083c5272666b"},"vehicle_type_id":"4","last_reported":1725289749,"current_range_meters":10800,"station_id":"","pricing_plan_id":"cebpf4jnsgd1na2vs0mg"},{"bike_id":"fe2534c0-f223-44a4-92ab-013861d53cdf","system_id":"levelo_inurba_marseille","lat":43.31688,"lon":5.40475,"is_reserved":false,"is_disabled":false,"rental_uris":{"android":"levelo://app?vid=fe2534c0-f223-44a4-92ab-013861d53cdf","ios":"levelo://app?vid=fe2534c0-f223-44a4-92ab-013861d53cdf"},"vehicle_type_id":"4","last_reported":1725289749,"current_range_meters":28800,"station_id":"ce4bh012rcd13ifvqd00","pricing_plan_id":"cebpf4jnsgd1na2vs0mg"},{"bike_id":"1324ea53-7cbb-49f6-88e0-97c6eaa4dc83","system_id":"levelo_inurba_marseille","lat":43.31714,"lon":5.40507,"is_reserved":false,"is_disabled":false,"rental_uris":{"android":"levelo://app?vid=1324ea53-7cbb-49f6-88e0-97c6eaa4dc83","ios":"levelo://app?vid=1324ea53-7cbb-49f6-88e0-97c6eaa4dc83"},"vehicle_type_id":"4","last_reported":1725289749,"current_range_meters":24800,"station_id":"ce4bh012rcd13ifvqd00","pricing_plan_id":"cebpf4jnsgd1na2vs0mg"},{"bike_id":"7ad53569-d49b-4e92-8172-b4cf70a8115a","system_id":"levelo_inurba_marseille","lat":43.292,"lon":5.3932,"is_reserved":false,"is_disabled":false,"rental_uris":{"android":"levelo://app?vid=7ad53569-d49b-4e92-8172-b4cf70a8115a","ios":"levelo://app?vid=7ad53569-d49b-4e92-8172-b4cf70a8115a"},"vehicle_type_id":"4","last_reported":1725289749,"current_range_meters":0,"station_id":"ce4bh192rcd13ifvqdd0","pricing_plan_id":"cebpf4jnsgd1na2vs0mg"},{"bike_id":"a38e3f51-b5f0-4991-912f-c365425d371b","system_id":"levelo_inurba_marseille","lat":43.284534,"lon":5.358662,"is_reserved":false,"is_disabled":false,"rental_uris":{"android":"levelo://app?vid=a38e3f51-b5f0-4991-912f-c365425d371b","ios":"levelo://app?vid=a38e3f51-b5f0-4991-912f-c365425d371b"},"vehicle_type_id":"4","last_reported":1725289749,"current_range_meters":5200,"station_id":"ce4bhah2rcd13ifvqei0","pricing_plan_id":"cebpf4jnsgd1na2vs0mg"},{"bike_id":"7b5dc9ba-76f0-4ba9-b778-3b4d173062eb","system_id":"levelo_inurba_marseille","lat":43.284538,"lon":5.358657,"is_reserved":false,"is_disabled":false,"rental_uris":{"android":"levelo://app?vid=7b5dc9ba-76f0-4ba9-b778-3b4d173062eb","ios":"levelo://app?vid=7b5dc9ba-76f0-4ba9-b778-3b4d173062eb"},"vehicle_type_id":"4","last_reported":1725289749,"current_range_meters":12000,"station_id":"ce4bhah2rcd13ifvqei0","pricing_plan_id":"cebpf4jnsgd1na2vs0mg"},{"bike_id":"ca599891-ae71-4118-915c-a608e276fe18","system_id":"levelo_inurba_marseille","lat":43.303256,"lon":5.404389,"is_reserved":false,"is_disabled":false,"rental_uris":{"android":"levelo://app?vid=ca599891-ae71-4118-915c-a608e276fe18","ios":"levelo://app?vid=ca599891-ae71-4118-915c-a608e276fe18"},"vehicle_type_id":"4","last_reported":1725289749,"current_range_meters":12400,"station_id":"ce4bh012rcd13ifvqd10","pricing_plan_id":"cebpf4jnsgd1na2vs0mg"},{"bike_id":"c151d778-9e04-470c-9ba6-d27b20d73d8c","system_id":"levelo_inurba_marseille","lat":43.303256,"lon":5.404389,"is_reserved":false,"is_disabled":false,"rental_uris":{"android":"levelo://app?vid=c151d778-9e04-470c-9ba6-d27b20d73d8c","ios":"levelo://app?vid=c151d778-9e04-470c-9ba6-d27b20d73d8c"},"vehicle_type_id":"4","last_reported":1725289749,"current_range_meters":11600,"station_id":"ce4bh012rcd13ifvqd10","pricing_plan_id":"cebpf4jnsgd1na2vs0mg"},{"bike_id":"f72d685a-6a80-424c-abbc-237580ae5619","system_id":"levelo_inurba_marseille","lat":43.28625,"lon":5.35105,"is_reserved":false,"is_disabled":false,"rental_uris":{"android":"levelo://app?vid=f72d685a-6a80-424c-abbc-237580ae5619","ios":"levelo://app?vid=f72d685a-6a80-424c-abbc-237580ae5619"},"vehicle_type_id":"4","last_reported":1725289749,"current_range_meters":22400,"station_id":"ce4bhch2rcd13ifvqeug","pricing_plan_id":"cebpf4jnsgd1na2vs0mg"},{"bike_id":"0171d718-a724-4889-94c0-2818a8165c09","system_id":"levelo_inurba_marseille","lat":43.28623,"lon":5.35106,"is_reserved":false,"is_disabled":false,"rental_uris":{"android":"levelo://app?vid=0171d718-a724-4889-94c0-2818a8165c09","ios":"levelo://app?vid=0171d718-a724-4889-94c0-2818a8165c09"},"vehicle_type_id":"4","last_reported":1725289749,"current_range_meters":14800,"station_id":"ce4bhch2rcd13ifvqeug","pricing_plan_id":"cebpf4jnsgd1na2vs0mg"},{"bike_id":"67c8248c-1b43-40eb-85f4-765fc1e2fbef","system_id":"levelo_inurba_marseille","lat":43.28621,"lon":5.35111,"is_reserved":false,"is_disabled":false,"rental_uris":{"android":"levelo://app?vid=67c8248c-1b43-40eb-85f4-765fc1e2fbef","ios":"levelo://app?vid=67c8248c-1b43-40eb-85f4-765fc1e2fbef"},"vehicle_type_id":"4","last_reported":1725289749,"current_range_meters":22400,"station_id":"ce4bhch2rcd13ifvqeug","pricing_plan_id":"cebpf4jnsgd1na2vs0mg"},{"bike_id":"f032c6fc-c44e-4a71-8841-a596d4a36f3f","system_id":"levelo_inurba_marseille","lat":43.28623,"lon":5.35103,"is_reserved":false,"is_disabled":false,"rental_uris":{"android":"levelo://app?vid=f032c6fc-c44e-4a71-8841-a596d4a36f3f","ios":"levelo://app?vid=f032c6fc-c44e-4a71-8841-a596d4a36f3f"},"vehicle_type_id":"4","last_reported":1725289749,"current_range_meters":28000,"station_id":"ce4bhch2rcd13ifvqeug","pricing_plan_id":"cebpf4jnsgd1na2vs0mg"},{"bike_id":"def39d71-8109-429f-895c-d7cdd4c18201","system_id":"levelo_inurba_marseille","lat":43.28622,"lon":5.35105,"is_reserved":false,"is_disabled":false,"rental_uris":{"android":"levelo://app?vid=def39d71-8109-429f-895c-d7cdd4c18201","ios":"levelo://app?vid=def39d71-8109-429f-895c-d7cdd4c18201"},"vehicle_type_id":"4","last_reported":1725289749,"current_range_meters":20800,"station_id":"ce4bhch2rcd13ifvqeug","pricing_plan_id":"cebpf4jnsgd1na2vs0mg"},{"bike_id":"37a06ad2-73fe-427d-ac85-85b17707516a","system_id":"levelo_inurba_marseille","lat":43.28619,"lon":5.35112,"is_reserved":false,"is_disabled":false,"rental_uris":{"android":"levelo://app?vid=37a06ad2-73fe-427d-ac85-85b17707516a","ios":"levelo://app?vid=37a06ad2-73fe-427d-ac85-85b17707516a"},"vehicle_type_id":"4","last_reported":1725289749,"current_range_meters":400,"station_id":"ce4bhch2rcd13ifvqeug","pricing_plan_id":"cebpf4jnsgd1na2vs0mg"},{"bike_id":"05af0e65-75c5-453c-842c-919fdac4fa41","system_id":"levelo_inurba_marseille","lat":43.28623,"lon":5.35099,"is_reserved":false,"is_disabled":false,"rental_uris":{"android":"levelo://app?vid=05af0e65-75c5-453c-842c-919fdac4fa41","ios":"levelo://app?vid=05af0e65-75c5-453c-842c-919fdac4fa41"},"vehicle_type_id":"4","last_reported":1725289749,"current_range_meters":30800,"station_id":"ce4bhch2rcd13ifvqeug","pricing_plan_id":"cebpf4jnsgd1na2vs0mg"},{"bike_id":"563fc311-91a0-4b2f-a6ea-6ccf489b5678","system_id":"levelo_inurba_marseille","lat":43.28618,"lon":5.35112,"is_reserved":false,"is_disabled":false,"rental_uris":{"android":"levelo://app?vid=563fc311-91a0-4b2f-a6ea-6ccf489b5678","ios":"levelo://app?vid=563fc311-91a0-4b2f-a6ea-6ccf489b5678"},"vehicle_type_id":"4","last_reported":1725289749,"current_range_meters":14000,"station_id":"ce4bhch2rcd13ifvqeug","pricing_plan_id":"cebpf4jnsgd1na2vs0mg"},{"bike_id":"4ee6a4ab-d9db-4ecf-b14c-08545d4375bd","system_id":"levelo_inurba_marseille","lat":43.2862,"lon":5.351047,"is_reserved":false,"is_disabled":false,"rental_uris":{"android":"levelo://app?vid=4ee6a4ab-d9db-4ecf-b14c-08545d4375bd","ios":"levelo://app?vid=4ee6a4ab-d9db-4ecf-b14c-08545d4375bd"},"vehicle_type_id":"4","last_reported":1725289749,"current_range_meters":30800,"station_id":"ce4bhch2rcd13ifvqeug","pricing_plan_id":"cebpf4jnsgd1na2vs0mg"},{"bike_id":"67859470-b5cf-41e8-950f-f36d46027375","system_id":"levelo_inurba_marseille","lat":43.2862,"lon":5.35103,"is_reserved":false,"is_disabled":false,"rental_uris":{"android":"levelo://app?vid=67859470-b5cf-41e8-950f-f36d46027375","ios":"levelo://app?vid=67859470-b5cf-41e8-950f-f36d46027375"},"vehicle_type_id":"4","last_reported":1725289749,"current_range_meters":26000,"station_id":"ce4bhch2rcd13ifvqeug","pricing_plan_id":"cebpf4jnsgd1na2vs0mg"},{"bike_id":"600bac48-55b5-4d02-9504-aa8406013645","system_id":"levelo_inurba_marseille","lat":43.2862,"lon":5.35103,"is_reserved":false,"is_disabled":false,"rental_uris":{"android":"levelo://app?vid=600bac48-55b5-4d02-9504-aa8406013645","ios":"levelo://app?vid=600bac48-55b5-4d02-9504-aa8406013645"},"vehicle_type_id":"4","last_reported":1725289749,"current_range_meters":1200,"station_id":"ce4bhch2rcd13ifvqeug","pricing_plan_id":"cebpf4jnsgd1na2vs0mg"},{"bike_id":"5566c4df-afe2-4622-994f-f925fd662da3","system_id":"levelo_inurba_marseille","lat":43.28619,"lon":5.35105,"is_reserved":false,"is_disabled":false,"rental_uris":{"android":"levelo://app?vid=5566c4df-afe2-4622-994f-f925fd662da3","ios":"levelo://app?vid=5566c4df-afe2-4622-994f-f925fd662da3"},"vehicle_type_id":"4","last_reported":1725289749,"current_range_meters":12400,"station_id":"ce4bhch2rcd13ifvqeug","pricing_plan_id":"cebpf4jnsgd1na2vs0mg"},{"bike_id":"6b3d9e68-6de1-4377-9523-c097fa690eb8","system_id":"levelo_inurba_marseille","lat":43.28619,"lon":5.35104,"is_reserved":false,"is_disabled":false,"rental_uris":{"android":"levelo://app?vid=6b3d9e68-6de1-4377-9523-c097fa690eb8","ios":"levelo://app?vid=6b3d9e68-6de1-4377-9523-c097fa690eb8"},"vehicle_type_id":"4","last_reported":1725289749,"current_range_meters":24800,"station_id":"ce4bhch2rcd13ifvqeug","pricing_plan_id":"cebpf4jnsgd1na2vs0mg"},{"bike_id":"bcbd242d-31ae-4649-8683-58e3986b204f","system_id":"levelo_inurba_marseille","lat":43.2862,"lon":5.351,"is_reserved":false,"is_disabled":false,"rental_uris":{"android":"levelo://app?vid=bcbd242d-31ae-4649-8683-58e3986b204f","ios":"levelo://app?vid=bcbd242d-31ae-4649-8683-58e3986b204f"},"vehicle_type_id":"4","last_reported":1725289749,"current_range_meters":31200,"station_id":"ce4bhch2rcd13ifvqeug","pricing_plan_id":"cebpf4jnsgd1na2vs0mg"},{"bike_id":"942e0e02-73a5-4be3-bc40-d291a310d646","system_id":"levelo_inurba_marseille","lat":43.28616,"lon":5.35111,"is_reserved":false,"is_disabled":false,"rental_uris":{"android":"levelo://app?vid=942e0e02-73a5-4be3-bc40-d291a310d646","ios":"levelo://app?vid=942e0e02-73a5-4be3-bc40-d291a310d646"},"vehicle_type_id":"4","last_reported":1725289749,"current_range_meters":0,"station_id":"ce4bhch2rcd13ifvqeug","pricing_plan_id":"cebpf4jnsgd1na2vs0mg"},{"bike_id":"46c1ed2a-8489-4b47-b183-1256f8017011","system_id":"levelo_inurba_marseille","lat":43.28616,"lon":5.3511,"is_reserved":false,"is_disabled":false,"rental_uris":{"android":"levelo://app?vid=46c1ed2a-8489-4b47-b183-1256f8017011","ios":"levelo://app?vid=46c1ed2a-8489-4b47-b183-1256f8017011"},"vehicle_type_id":"4","last_reported":1725289749,"current_range_meters":22800,"station_id":"ce4bhch2rcd13ifvqeug","pricing_plan_id":"cebpf4jnsgd1na2vs0mg"},{"bike_id":"2cbe6e22-2699-4d89-b5ce-b596667308ef","system_id":"levelo_inurba_marseille","lat":43.28616,"lon":5.3511,"is_reserved":false,"is_disabled":false,"rental_uris":{"android":"levelo://app?vid=2cbe6e22-2699-4d89-b5ce-b596667308ef","ios":"levelo://app?vid=2cbe6e22-2699-4d89-b5ce-b596667308ef"},"vehicle_type_id":"4","last_reported":1725289749,"current_range_meters":23200,"station_id":"ce4bhch2rcd13ifvqeug","pricing_plan_id":"cebpf4jnsgd1na2vs0mg"},{"bike_id":"4e2160c9-0902-4c99-89c4-5fcb48671360","system_id":"levelo_inurba_marseille","lat":43.28616,"lon":5.35107,"is_reserved":false,"is_disabled":false,"rental_uris":{"android":"levelo://app?vid=4e2160c9-0902-4c99-89c4-5fcb48671360","ios":"levelo://app?vid=4e2160c9-0902-4c99-89c4-5fcb48671360"},"vehicle_type_id":"4","last_reported":1725289749,"current_range_meters":26000,"station_id":"ce4bhch2rcd13ifvqeug","pricing_plan_id":"cebpf4jnsgd1na2vs0mg"},{"bike_id":"34ceadff-e720-4462-b3ff-f3fecd3c0961","system_id":"levelo_inurba_marseille","lat":43.28617,"lon":5.35103,"is_reserved":false,"is_disabled":false,"rental_uris":{"android":"levelo://app?vid=34ceadff-e720-4462-b3ff-f3fecd3c0961","ios":"levelo://app?vid=34ceadff-e720-4462-b3ff-f3fecd3c0961"},"vehicle_type_id":"4","last_reported":1725289749,"current_range_meters":30800,"station_id":"ce4bhch2rcd13ifvqeug","pricing_plan_id":"cebpf4jnsgd1na2vs0mg"},{"bike_id":"ae6843cd-b8a7-41b4-b5a7-6dababa35e4d","system_id":"levelo_inurba_marseille","lat":43.28616,"lon":5.35105,"is_reserved":false,"is_disabled":false,"rental_uris":{"android":"levelo://app?vid=ae6843cd-b8a7-41b4-b5a7-6dababa35e4d","ios":"levelo://app?vid=ae6843cd-b8a7-41b4-b5a7-6dababa35e4d"},"vehicle_type_id":"4","last_reported":1725289749,"current_range_meters":28800,"station_id":"ce4bhch2rcd13ifvqeug","pricing_plan_id":"cebpf4jnsgd1na2vs0mg"},{"bike_id":"044bc662-a9b6-45c9-9bb3-be426b6efe80","system_id":"levelo_inurba_marseille","lat":43.28616,"lon":5.351,"is_reserved":false,"is_disabled":false,"rental_uris":{"android":"levelo://app?vid=044bc662-a9b6-45c9-9bb3-be426b6efe80","ios":"levelo://app?vid=044bc662-a9b6-45c9-9bb3-be426b6efe80"},"vehicle_type_id":"4","last_reported":1725289749,"current_range_meters":30800,"station_id":"ce4bhch2rcd13ifvqeug","pricing_plan_id":"cebpf4jnsgd1na2vs0mg"},{"bike_id":"2c9ad6ce-b5ac-4908-b6aa-eb3c96763e0d","system_id":"levelo_inurba_marseille","lat":43.28614,"lon":5.35105,"is_reserved":false,"is_disabled":false,"rental_uris":{"android":"levelo://app?vid=2c9ad6ce-b5ac-4908-b6aa-eb3c96763e0d","ios":"levelo://app?vid=2c9ad6ce-b5ac-4908-b6aa-eb3c96763e0d"},"vehicle_type_id":"4","last_reported":1725289749,"current_range_meters":30800,"station_id":"ce4bhch2rcd13ifvqeug","pricing_plan_id":"cebpf4jnsgd1na2vs0mg"},{"bike_id":"e24d81d4-5025-45b9-9803-e229bbba5a74","system_id":"levelo_inurba_marseille","lat":43.285856,"lon":5.350771,"is_reserved":false,"is_disabled":false,"rental_uris":{"android":"levelo://app?vid=e24d81d4-5025-45b9-9803-e229bbba5a74","ios":"levelo://app?vid=e24d81d4-5025-45b9-9803-e229bbba5a74"},"vehicle_type_id":"4","last_reported":1725289749,"current_range_meters":3600,"station_id":"ce4bhch2rcd13ifvqeug","pricing_plan_id":"cebpf4jnsgd1na2vs0mg"},{"bike_id":"97d72cea-239a-4d89-96c6-d8e9f6076a01","system_id":"levelo_inurba_marseille","lat":43.28614,"lon":5.35104,"is_reserved":false,"is_disabled":false,"rental_uris":{"android":"levelo://app?vid=97d72cea-239a-4d89-96c6-d8e9f6076a01","ios":"levelo://app?vid=97d72cea-239a-4d89-96c6-d8e9f6076a01"},"vehicle_type_id":"4","last_reported":1725289749,"current_range_meters":31200,"station_id":"ce4bhch2rcd13ifvqeug","pricing_plan_id":"cebpf4jnsgd1na2vs0mg"},{"bike_id":"7f922ead-49f1-419b-8478-2f0a4f02d530","system_id":"levelo_inurba_marseille","lat":43.2861,"lon":5.35105,"is_reserved":false,"is_disabled":false,"rental_uris":{"android":"levelo://app?vid=7f922ead-49f1-419b-8478-2f0a4f02d530","ios":"levelo://app?vid=7f922ead-49f1-419b-8478-2f0a4f02d530"},"vehicle_type_id":"4","last_reported":1725289749,"current_range_meters":30800,"station_id":"ce4bhch2rcd13ifvqeug","pricing_plan_id":"cebpf4jnsgd1na2vs0mg"},{"bike_id":"50dc8f74-ad8f-4adc-b2c3-e112d479d6d4","system_id":"levelo_inurba_marseille","lat":43.283998,"lon":5.375062,"is_reserved":false,"is_disabled":false,"rental_uris":{"android":"levelo://app?vid=50dc8f74-ad8f-4adc-b2c3-e112d479d6d4","ios":"levelo://app?vid=50dc8f74-ad8f-4adc-b2c3-e112d479d6d4"},"vehicle_type_id":"4","last_reported":1725289749,"current_range_meters":0,"station_id":"ce4bh412rcd13ifvqds0","pricing_plan_id":"cebpf4jnsgd1na2vs0mg"},{"bike_id":"c9ca572e-1654-4410-9423-c8ce21dac16b","system_id":"levelo_inurba_marseille","lat":43.283998,"lon":5.375062,"is_reserved":false,"is_disabled":false,"rental_uris":{"android":"levelo://app?vid=c9ca572e-1654-4410-9423-c8ce21dac16b","ios":"levelo://app?vid=c9ca572e-1654-4410-9423-c8ce21dac16b"},"vehicle_type_id":"4","last_reported":1725289749,"current_range_meters":18000,"station_id":"ce4bh412rcd13ifvqds0","pricing_plan_id":"cebpf4jnsgd1na2vs0mg"},{"bike_id":"71c5d066-0fbc-435c-a88c-ac0112fc633d","system_id":"levelo_inurba_marseille","lat":43.295713,"lon":5.399639,"is_reserved":false,"is_disabled":false,"rental_uris":{"android":"levelo://app?vid=71c5d066-0fbc-435c-a88c-ac0112fc633d","ios":"levelo://app?vid=71c5d066-0fbc-435c-a88c-ac0112fc633d"},"vehicle_type_id":"4","last_reported":1725289749,"current_range_meters":10800,"station_id":"ce4bh312rcd13ifvqdj0","pricing_plan_id":"cebpf4jnsgd1na2vs0mg"},{"bike_id":"01fadf71-72fc-47f1-bc83-c78cfdb265e1","system_id":"levelo_inurba_marseille","lat":43.295713,"lon":5.399639,"is_reserved":false,"is_disabled":false,"rental_uris":{"android":"levelo://app?vid=01fadf71-72fc-47f1-bc83-c78cfdb265e1","ios":"levelo://app?vid=01fadf71-72fc-47f1-bc83-c78cfdb265e1"},"vehicle_type_id":"4","last_reported":1725289749,"current_range_meters":6800,"station_id":"ce4bh312rcd13ifvqdj0","pricing_plan_id":"cebpf4jnsgd1na2vs0mg"},{"bike_id":"d31744e6-0c8a-4793-8b78-9690b3551528","system_id":"levelo_inurba_marseille","lat":43.28809,"lon":5.39143,"is_reserved":false,"is_disabled":false,"rental_uris":{"android":"levelo://app?vid=d31744e6-0c8a-4793-8b78-9690b3551528","ios":"levelo://app?vid=d31744e6-0c8a-4793-8b78-9690b3551528"},"vehicle_type_id":"4","last_reported":1725289749,"current_range_meters":7600,"station_id":"","pricing_plan_id":"cebpf4jnsgd1na2vs0mg"},{"bike_id":"73f3ecbc-897e-4790-bb75-7e07e1c3622e","system_id":"levelo_inurba_marseille","lat":43.33717,"lon":5.391857,"is_reserved":false,"is_disabled":false,"rental_uris":{"android":"levelo://app?vid=73f3ecbc-897e-4790-bb75-7e07e1c3622e","ios":"levelo://app?vid=73f3ecbc-897e-4790-bb75-7e07e1c3622e"},"vehicle_type_id":"4","last_reported":1725289749,"current_range_meters":21600,"station_id":"ce4bhr92rcd13ifvqhsg","pricing_plan_id":"cebpf4jnsgd1na2vs0mg"},{"bike_id":"d48b4aac-2d7e-47a1-90ac-3cbf9dd5d732","system_id":"levelo_inurba_marseille","lat":43.323464,"lon":5.406297,"is_reserved":false,"is_disabled":false,"rental_uris":{"android":"levelo://app?vid=d48b4aac-2d7e-47a1-90ac-3cbf9dd5d732","ios":"levelo://app?vid=d48b4aac-2d7e-47a1-90ac-3cbf9dd5d732"},"vehicle_type_id":"4","last_reported":1725289749,"current_range_meters":12400,"station_id":"ce4bhq92rcd13ifvqhjg","pricing_plan_id":"cebpf4jnsgd1na2vs0mg"},{"bike_id":"4fc1c102-4868-428f-9f2a-97f783a1e7b0","system_id":"levelo_inurba_marseille","lat":43.33717,"lon":5.391857,"is_reserved":false,"is_disabled":false,"rental_uris":{"android":"levelo://app?vid=4fc1c102-4868-428f-9f2a-97f783a1e7b0","ios":"levelo://app?vid=4fc1c102-4868-428f-9f2a-97f783a1e7b0"},"vehicle_type_id":"4","last_reported":1725289749,"current_range_meters":30400,"station_id":"ce4bhr92rcd13ifvqhsg","pricing_plan_id":"cebpf4jnsgd1na2vs0mg"},{"bike_id":"69e04aaf-0af0-476d-bb51-28a24243859c","system_id":"levelo_inurba_marseille","lat":43.33731,"lon":5.39178,"is_reserved":false,"is_disabled":false,"rental_uris":{"android":"levelo://app?vid=69e04aaf-0af0-476d-bb51-28a24243859c","ios":"levelo://app?vid=69e04aaf-0af0-476d-bb51-28a24243859c"},"vehicle_type_id":"4","last_reported":1725289749,"current_range_meters":16400,"station_id":"ce4bhr92rcd13ifvqhsg","pricing_plan_id":"cebpf4jnsgd1na2vs0mg"},