{"last_updated":1760897586,"ttl":60,"version":"2.2","data":{"bikes":[{"bike_id":"1ca9a135-89ff-4166-9f0f-90a212191b24","system_id":"levelo_inurba_marseille","lat":43.27995,"lon":5.41659,"is_reserved":false,"is_disabled":false,"rental_uris":{"android":"levelo://app?vid=1ca9a135-89ff-4166-9f0f-90a212191b24","ios":"levelo://app?vid=1ca9a135-89ff-4166-9f0f-90a212191b24"},"vehicle_type_id":"4","last_reported":1760897586,"current_range_meters":2800,"station_id":"ce4bho12rcd13ifvqh1g","pricing_plan_id":"cebpf4jnsgd1na2vs0mg"},{"bike_id":"fc6f7a61-87b2-45d8-9586-9e2a76532c0d","system_id":"levelo_inurba_marseille","lat":43.29274,"lon":5.40148,"is_reserved":false,"is_disabled":true,"rental_uris":{"android":"levelo://app?vid=fc6f7a61-87b2-45d8-9586-9e2a76532c0d","ios":"levelo://app?vid=fc6f7a61-87b2-45d8-9586-9e2a76532c0d"},"vehicle_type_id":"4","last_reported":1760897586,"current_range_meters":2800,"station_id":"ce4bh312rcd13ifvqdk0","pricing_plan_id":"cebpf4jnsgd1na2vs0mg"},{"bike_id":"2b436428-23be-46fe-abb4-2835089593b8","system_id":"levelo_inurba_marseille","lat":43.211932,"lon":5.35072,"is_reserved":false,"is_disabled":false,"rental_uris":{"android":"levelo://app?vid=2b436428-23be-46fe-abb4-2835089593b8","ios":"levelo://app?vid=2b436428-23be-46fe-abb4-2835089593b8"},"vehicle_type_id":"4","last_reported":1760897586,"current_range_meters":2800,"station_id":"st_cvj6sg6p6f1abm77japg","pricing_plan_id":"cebpf4jnsgd1na2vs0mg"},{"bike_id":"fc836fe2-b0af-4321-8a54-9d5b666bba12","system_id":"levelo_inurba_marseille","lat":43.28045,"lon":5.36943,"is_reserved":false,"is_disabled":false,"rental_uris":{"android":"levelo://app?vid=fc836fe2-b0af-4321-8a54-9d5b666bba12","ios":"levelo://app?vid=fc836fe2-b0af-4321-8a54-9d5b666bba12"},"vehicle_type_id":"4","last_reported":1760897586,"current_range_meters":2800,"station_id":"ce4bha12rcd13ifvqef0","pricing_plan_id":"cebpf4jnsgd1na2vs0mg"},{"bike_id":"21b621f9-bc26-44b9-95c8-12025a5f55fc","system_id":"levelo_inurba_marseille","lat":43.297408,"lon":5.371573,"is_reserved":false,"is_disabled":false,"rental_uris":{"android":"levelo://app?vid=21b621f9-bc26-44b9-95c8-12025a5f55fc","ios":"levelo://app?vid=21b621f9-bc26-44b9-95c8-12025a5f55fc"},"vehicle_type_id":"4","last_reported":1760897586,"current_range_meters":2800,"station_id":"","pricing_plan_id":"cebpf4jnsgd1na2vs0mg"},{"bike_id":"620f19db-e929-4071-8a7a-fb5114fd2597","system_id":"levelo_inurba_marseille","lat":43.273127,"lon":5.391181,"is_reserved":false,"is_disabled":true,"rental_uris":{"android":"levelo://app?vid=620f19db-e929-4071-8a7a-fb5114fd2597","ios":"levelo://app?vid=620f19db-e929-4071-8a7a-fb5114fd2597"},"vehicle_type_id":"4","last_reported":1760897586,"current_range_meters":2800,"station_id":"ce4bhgp2rcd13ifvqfe0","pricing_plan_id":"cebpf4jnsgd1na2vs0mg"},{"bike_id":"cf1fccb8-7c5b-496c-b334-79d05dcc0c1d","system_id":"levelo_inurba_marseille","lat":43.24638,"lon":5.43147,"is_reserved":false,"is_disabled":false,"rental_uris":{"android":"levelo://app?vid=cf1fccb8-7c5b-496c-b334-79d05dcc0c1d","ios":"levelo://app?vid=cf1fccb8-7c5b-496c-b334-79d05dcc0c1d"},"vehicle_type_id":"4","last_reported":1760897586,"current_range_meters":2800,"station_id":"st_d2m6c4gdas8pm72e190g","pricing_plan_id":"cebpf4jnsgd1na2vs0mg"},{"bike_id":"ded1af05-f227-457f-b407-8aa071dfff40","system_id":"levelo_inurba_marseille","lat":43.2872,"lon":5.36086,"is_reserved":false,"is_disabled":false,"rental_uris":{"android":"levelo://app?vid=ded1af05-f227-457f-b407-8aa071dfff40","ios":"levelo://app?vid=ded1af05-f227-457f-b407-8aa071dfff40"},"vehicle_type_id":"4","last_reported":1760897586,"current_range_meters":2800,"station_id":"cki0cbj6b192h4jlfktg","pricing_plan_id":"cebpf4jnsgd1na2vs0mg"},{"bike_id":"8b67ed96-f9df-4c7a-9b42-f3b964458848","system_id":"levelo_inurba_marseille","lat":43.27845,"lon":5.40724,"is_reserved":false,"is_disabled":false,"rental_uris":{"android":"levelo://app?vid=8b67ed96-f9df-4c7a-9b42-f3b964458848","ios":"levelo://app?vid=8b67ed96-f9df-4c7a-9b42-f3b964458848"},"vehicle_type_id":"4","last_reported":1760897586,"current_range_meters":2800,"station_id":"ce4bhnh2rcd13ifvqgtg","pricing_plan_id":"cebpf4jnsgd1na2vs0mg"},{"bike_id":"f9012dd3-193f-40f2-b15e-c5dbcdedfbb3","system_id":"levelo_inurba_marseille","lat":43.336,"lon":5.41038,"is_reserved":false,"is_disabled":false,"rental_uris":{"android":"levelo://app?vid=f9012dd3-193f-40f2-b15e-c5dbcdedfbb3","ios":"levelo://app?vid=f9012dd3-193f-40f2-b15e-c5dbcdedfbb3"},"vehicle_type_id":"4","last_reported":1760897586,"current_range_meters":3200,"station_id":"ce4bhqh2rcd13ifvqhmg","pricing_plan_id":"cebpf4jnsgd1na2vs0mg"},{"bike_id":"d0057ba9-b233-440f-8490-e26f02f1a1dd","system_id":"levelo_inurba_marseille","lat":43.28649,"lon":5.36344,"is_reserved":false,"is_disabled":true,"rental_uris":{"android":"levelo://app?vid=d0057ba9-b233-440f-8490-e26f02f1a1dd","ios":"levelo://app?vid=d0057ba9-b233-440f-8490-e26f02f1a1dd"},"vehicle_type_id":"4","last_reported":1760897586,"current_range_meters":3200,"station_id":"ce4bhah2rcd13ifvqej0","pricing_plan_id":"cebpf4jnsgd1na2vs0mg"},{"bike_id":"9b10259d-2474-4f6a-ad82-e0c125ccd24a","system_id":"levelo_inurba_marseille","lat":43.27053,"lon":5.40264,"is_reserved":false,"is_disabled":false,"rental_uris":{"android":"levelo://app?vid=9b10259d-2474-4f6a-ad82-e0c125ccd24a","ios":"levelo://app?vid=9b10259d-2474-4f6a-ad82-e0c125ccd24a"},"vehicle_type_id":"4","last_reported":1760897586,"current_range_meters":3200,"station_id":"ce4bhk92rcd13ifvqgc0","pricing_plan_id":"cebpf4jnsgd1na2vs0mg"},{"bike_id":"b4d80e22-e098-4189-a259-c2bf00446d9c","system_id":"levelo_inurba_marseille","lat":43.284423,"lon":5.391768,"is_reserved":false,"is_disabled":false,"rental_uris":{"android":"levelo://app?vid=b4d80e22-e098-4189-a259-c2bf00446d9c","ios":"levelo://app?vid=b4d80e22-e098-4189-a259-c2bf00446d9c"},"vehicle_type_id":"4","last_reported":1760897586,"current_range_meters":3200,"station_id":"ce4bhoh2rcd13ifvqh5g","pricing_plan_id":"cebpf4jnsgd1na2vs0mg"},{"bike_id":"2994e66b-945a-47a9-87e4-01ade17b17e7","system_id":"levelo_inurba_marseille","lat":43.318836,"lon":5.407395,"is_reserved":false,"is_disabled":false,"rental_uris":{"android":"levelo://app?vid=2994e66b-945a-47a9-87e4-01ade17b17e7","ios":"levelo://app?vid=2994e66b-945a-47a9-87e4-01ade17b17e7"},"vehicle_type_id":"4","last_reported":1760897586,"current_range_meters":3600,"station_id":"ce4bhq12rcd13ifvqhig","pricing_plan_id":"cebpf4jnsgd1na2vs0mg"},{"bike_id":"01235aaa-bc55-4615-a165-9c86f2ac9be0","system_id":"levelo_inurba_marseille","lat":43.29803,"lon":5.40389,"is_reserved":false,"is_disabled":false,"rental_uris":{"android":"levelo://app?vid=01235aaa-bc55-4615-a165-9c86f2ac9be0","ios":"levelo://app?vid=01235aaa-bc55-4615-a165-9c86f2ac9be0"},"vehicle_type_id":"4","last_reported":1760897586,"current_range_meters":3600,"station_id":"ce4bh112rcd13ifvqd90","pricing_plan_id":"cebpf4jnsgd1na2vs0mg"},{"bike_id":"b71334b8-5d1e-4b6c-bc54-3c67b2b93802","system_id":"levelo_inurba_marseille","lat":43.24651,"lon":5.3889,"is_reserved":false,"is_disabled":false,"rental_uris":{"android":"levelo://app?vid=b71334b8-5d1e-4b6c-bc54-3c67b2b93802","ios":"levelo://app?vid=b71334b8-5d1e-4b6c-bc54-3c67b2b93802"},"vehicle_type_id":"4","last_reported":1760897586,"current_range_meters":3600,"station_id":"ce4bhg12rcd13ifvqf60","pricing_plan_id":"cebpf4jnsgd1na2vs0mg"},{"bike_id":"41942155-c028-41d2-9da5-da9a718711fd","system_id":"levelo_inurba_marseille","lat":43.21191,"lon":5.35085,"is_reserved":false,"is_disabled":true,"rental_uris":{"android":"levelo://app?vid=41942155-c028-41d2-9da5-da9a718711fd","ios":"levelo://app?vid=41942155-c028-41d2-9da5-da9a718711fd"},"vehicle_type_id":"4","last_reported":1760897586,"current_range_meters":4000,"station_id":"st_cvj6sg6p6f1abm77japg","pricing_plan_id":"cebpf4jnsgd1na2vs0mg"},{"bike_id":"72df73ef-07a6-40f9-b4f0-48584596463d","system_id":"levelo_inurba_marseille","lat":43.27196,"lon":5.40972,"is_reserved":false,"is_disabled":false,"rental_uris":{"android":"levelo://app?vid=72df73ef-07a6-40f9-b4f0-48584596463d","ios":"levelo://app?vid=72df73ef-07a6-40f9-b4f0-48584596463d"},"vehicle_type_id":"4","last_reported":1760897586,"current_range_meters":4000,"station_id":"ce4bhl12rcd13ifvqgf0","pricing_plan_id":"cebpf4jnsgd1na2vs0mg"},{"bike_id":"0c8e0c98-654f-4560-bc30-cef2a82e7615","system_id":"levelo_inurba_marseille","lat":43.29296,"lon":5.37465,"is_reserved":false,"is_disabled":false,"rental_uris":{"android":"levelo://app?vid=0c8e0c98-654f-4560-bc30-cef2a82e7615","ios":"levelo://app?vid=0c8e0c98-654f-4560-bc30-cef2a82e7615"},"vehicle_type_id":"4","last_reported":1760897586,"current_range_meters":4000,"station_id":"ce4bgi12rcd13ifvqb70","pricing_plan_id":"cebpf4jnsgd1na2vs0mg"},{"bike_id":"3477caed-9da3-4b46-8401-81eff030be88","system_id":"levelo_inurba_marseille","lat":43.25335,"lon":5.42179,"is_reserved":false,"is_disabled":false,"rental_uris":{"android":"levelo://app?vid=3477caed-9da3-4b46-8401-81eff030be88","ios":"levelo://app?vid=3477caed-9da3-4b46-8401-81eff030be88"},"vehicle_type_id":"4","last_reported":1760897586,"current_range_meters":4400,"station_id":"st_d2m65c5bi1j21697t3ng","pricing_plan_id":"cebpf4jnsgd1na2vs0mg"},{"bike_id":"bfa5d6fa-5303-450c-8deb-bf365f94a097","system_id":"levelo_inurba_marseille","lat":43.212032,"lon":5.350841,"is_reserved":false,"is_disabled":false,"rental_uris":{"android":"levelo://app?vid=bfa5d6fa-5303-450c-8deb-bf365f94a097","ios":"levelo://app?vid=bfa5d6fa-5303-450c-8deb-bf365f94a097"},"vehicle_type_id":"4","last_reported":1760897586,"current_range_meters":4400,"station_id":"st_cvj6sg6p6f1abm77japg","pricing_plan_id":"cebpf4jnsgd1na2vs0mg"},{"bike_id":"f0ea24dc-45dc-4b90-8bc1-597502357f8a","system_id":"levelo_inurba_marseille","lat":43.30885,"lon":5.39658,"is_reserved":false,"is_disabled":false,"rental_uris":{"android":"levelo://app?vid=f0ea24dc-45dc-4b90-8bc1-597502357f8a","ios":"levelo://app?vid=f0ea24dc-45dc-4b90-8bc1-597502357f8a"},"vehicle_type_id":"4","last_reported":1760897586,"current_range_meters":4400,"station_id":"ce4bh012rcd13ifvqcv0","pricing_plan_id":"cebpf4jnsgd1na2vs0mg"},{"bike_id":"42a4a80d-0a2c-400c-b855-57b597db3b48","system_id":"levelo_inurba_marseille","lat":43.28479,"lon":5.384163,"is_reserved":false,"is_disabled":false,"rental_uris":{"android":"levelo://app?vid=42a4a80d-0a2c-400c-b855-57b597db3b48","ios":"levelo://app?vid=42a4a80d-0a2c-400c-b855-57b597db3b48"},"vehicle_type_id":"4","last_reported":1760897586,"current_range_meters":4400,"station_id":"ce4bh512rcd13ifvqe3g","pricing_plan_id":"cebpf4jnsgd1na2vs0mg"},{"bike_id":"924ac669-be8b-47aa-9a8e-6f22baf815eb","system_id":"levelo_inurba_marseille","lat":43.337692,"lon":5.374734,"is_reserved":false,"is_disabled":false,"rental_uris":{"android":"levelo://app?vid=924ac669-be8b-47aa-9a8e-6f22baf815eb","ios":"levelo://app?vid=924ac669-be8b-47aa-9a8e-6f22baf815eb"},"vehicle_type_id":"4","last_reported":1760897586,"current_range_meters":4800,"station_id":"","pricing_plan_id":"cebpf4jnsgd1na2vs0mg"},{"bike_id":"e6cfe784-cb39-4f50-bc11-2e3c7639a4b7","system_id":"levelo_inurba_marseille","lat":43.22537,"lon":5.34827,"is_reserved":false,"is_disabled":false,"rental_uris":{"android":"levelo://app?vid=e6cfe784-cb39-4f50-bc11-2e3c7639a4b7","ios":"levelo://app?vid=e6cfe784-cb39-4f50-bc11-2e3c7639a4b7"},"vehicle_type_id":"4","last_reported":1760897586,"current_range_meters":4800,"station_id":"","pricing_plan_id":"cebpf4jnsgd1na2vs0mg"},{"bike_id":"f55709e0-4b78-4850-8db3-b4d73728152f","system_id":"levelo_inurba_marseille","lat":43.3516,"lon":5.36464,"is_reserved":false,"is_disabled":false,"rental_uris":{"android":"levelo://app?vid=f55709e0-4b78-4850-8db3-b4d73728152f","ios":"levelo://app?vid=f55709e0-4b78-4850-8db3-b4d73728152f"},"vehicle_type_id":"4","last_reported":1760897586,"current_range_meters":4800,"station_id":"","pricing_plan_id":"cebpf4jnsgd1na2vs0mg"},{"bike_id":"180497c9-45d3-4860-b3dd-3df8f47b98da","system_id":"levelo_inurba_marseille","lat":43.28413,"lon":5.37512,"is_reserved":false,"is_disabled":false,"rental_uris":{"android":"levelo://app?vid=180497c9-45d3-4860-b3dd-3df8f47b98da","ios":"levelo://app?vid=180497c9-45d3-4860-b3dd-3df8f47b98da"},"vehicle_type_id":"4","last_reported":1760897586,"current_range_meters":5600,"station_id":"ce4bh412rcd13ifvqds0","pricing_plan_id":"cebpf4jnsgd1na2vs0mg"},{"bike_id":"29deeaa9-e77a-408d-b13e-b6abc21d5df6","system_id":"levelo_inurba_marseille","lat":43.3321,"lon":5.36235,"is_reserved":false,"is_disabled":false,"rental_uris":{"android":"levelo://app?vid=29deeaa9-e77a-408d-b13e-b6abc21d5df6","ios":"levelo://app?vid=29deeaa9-e77a-408d-b13e-b6abc21d5df6"},"vehicle_type_id":"4","last_reported":1760897586,"current_range_meters":5600,"station_id":"","pricing_plan_id":"cebpf4jnsgd1na2vs0mg"},{"bike_id":"aa8f20ba-9369-4af7-a38a-887c63d2f3cd","system_id":"levelo_inurba_marseille","lat":43.23177,"lon":5.39987,"is_reserved":false,"is_disabled":false,"rental_uris":{"android":"levelo://app?vid=aa8f20ba-9369-4af7-a38a-887c63d2f3cd","ios":"levelo://app?vid=aa8f20ba-9369-4af7-a38a-887c63d2f3cd"},"vehicle_type_id":"4","last_reported":1760897586,"current_range_meters":5600,"station_id":"ce4bhn12rcd13ifvqgqg","pricing_plan_id":"cebpf4jnsgd1na2vs0mg"},{"bike_id":"6fe1ad47-4378-419c-8bfa-236a6cac6691","system_id":"levelo_inurba_marseille","lat":43.28268,"lon":5.3506,"is_reserved":false,"is_disabled":false,"rental_uris":{"android":"levelo://app?vid=6fe1ad47-4378-419c-8bfa-236a6cac6691","ios":"levelo://app?vid=6fe1ad47-4378-419c-8bfa-236a6cac6691"},"vehicle_type_id":"4","last_reported":1760897586,"current_range_meters":6000,"station_id":"ce4bhbp2rcd13ifvqerg","pricing_plan_id":"cebpf4jnsgd1na2vs0mg"},{"bike_id":"1382b748-840e-4ecc-afc5-0fb4eeaeb841","system_id":"levelo_inurba_marseille","lat":43.30602,"lon":5.37486,"is_reserved":false,"is_disabled":false,"rental_uris":{"android":"levelo://app?vid=1382b748-840e-4ecc-afc5-0fb4eeaeb841","ios":"levelo://app?vid=1382b748-840e-4ecc-afc5-0fb4eeaeb841"},"vehicle_type_id":"4","last_reported":1760897586,"current_range_meters":6000,"station_id":"","pricing_plan_id":"cebpf4jnsgd1na2vs0mg"},{"bike_id":"ef1d3efc-4e43-438c-8f55-8e29754b02e8","system_id":"levelo_inurba_marseille","lat":43.28897,"lon":5.46018,"is_reserved":false,"is_disabled":false,"rental_uris":{"android":"levelo://app?vid=ef1d3efc-4e43-438c-8f55-8e29754b02e8","ios":"levelo://app?vid=ef1d3efc-4e43-438c-8f55-8e29754b02e8"},"vehicle_type_id":"4","last_reported":1760897586,"current_range_meters":6000,"station_id":"","pricing_plan_id":"cebpf4jnsgd1na2vs0mg"},{"bike_id":"d57e0331-7a42-456a-9607-9c42137746d7","system_id":"levelo_inurba_marseille","lat":43.25719,"lon":5.411163,"is_reserved":false,"is_disabled":false,"rental_uris":{"android":"levelo://app?vid=d57e0331-7a42-456a-9607-9c42137746d7","ios":"levelo://app?vid=d57e0331-7a42-456a-9607-9c42137746d7"},"vehicle_type_id":"4","last_reported":1760897586,"current_range_meters":6000,"station_id":"ce4bhkp2rcd13ifvqgd0","pricing_plan_id":"cebpf4jnsgd1na2vs0mg"},{"bike_id":"75b02a51-1325-435e-9661-29bb451a696a","system_id":"levelo_inurba_marseille","lat":43.31448,"lon":5.38488,"is_reserved":false,"is_disabled":false,"rental_uris":{"android":"levelo://app?vid=75b02a51-1325-435e-9661-29bb451a696a","ios":"levelo://app?vid=75b02a51-1325-435e-9661-29bb451a696a"},"vehicle_type_id":"4","last_reported":1760897586,"current_range_meters":6000,"station_id":"","pricing_plan_id":"cebpf4jnsgd1na2vs0mg"},{"bike_id":"1a670b59-1a18-4522-9e18-76f58dd6380d","system_id":"levelo_inurba_marseille","lat":43.2885,"lon":5.39316,"is_reserved":false,"is_disabled":false,"rental_uris":{"android":"levelo://app?vid=1a670b59-1a18-4522-9e18-76f58dd6380d","ios":"levelo://app?vid=1a670b59-1a18-4522-9e18-76f58dd6380d"},"vehicle_type_id":"4","last_reported":1760897586,"current_range_meters":6400,"station_id":"ce4bh2p2rcd13ifvqdi0","pricing_plan_id":"cebpf4jnsgd1na2vs0mg"},{"bike_id":"4a724b7d-3c4f-4d04-9556-dd7fbf9d1770","system_id":"levelo_inurba_marseille","lat":43.22562,"lon":5.41642,"is_reserved":false,"is_disabled":false,"rental_uris":{"android":"levelo://app?vid=4a724b7d-3c4f-4d04-9556-dd7fbf9d1770","ios":"levelo://app?vid=4a724b7d-3c4f-4d04-9556-dd7fbf9d1770"},"vehicle_type_id":"4","last_reported":1760897586,"current_range_meters":6800,"station_id":"st_d2o4gvlbi1j2169b742g","pricing_plan_id":"cebpf4jnsgd1na2vs0mg"},{"bike_id":"0b170382-a38a-48fc-b060-b901de311f1a","system_id":"levelo_inurba_marseille","lat":43.33047,"lon":5.39024,"is_reserved":false,"is_disabled":true,"rental_uris":{"android":"levelo://app?vid=0b170382-a38a-48fc-b060-b901de311f1a","ios":"levelo://app?vid=0b170382-a38a-48fc-b060-b901de311f1a"},"vehicle_type_id":"4","last_reported":1760897586,"current_range_meters":6800,"station_id":"ce4bhr92rcd13ifvqhrg","pricing_plan_id":"cebpf4jnsgd1na2vs0mg"},{"bike_id":"676fd588-494b-4028-8203-f37ef89d1fbb","system_id":"levelo_inurba_marseille","lat":43.22562,"lon":5.41636,"is_reserved":false,"is_disabled":false,"rental_uris":{"android":"levelo://app?vid=676fd588-494b-4028-8203-f37ef89d1fbb","ios":"levelo://app?vid=676fd588-494b-4028-8203-f37ef89d1fbb"},"vehicle_type_id":"4","last_reported":1760897586,"current_range_meters":6800,"station_id":"st_d2o4gvlbi1j2169b742g","pricing_plan_id":"cebpf4jnsgd1na2vs0mg"},{"bike_id":"e4aae2ac-2d8c-407b-93d1-f646ae2e9aba","system_id":"levelo_inurba_marseille","lat":43.33613,"lon":5.41025,"is_reserved":false,"is_disabled":false,"rental_uris":{"android":"levelo://app?vid=e4aae2ac-2d8c-407b-93d1-f646ae2e9aba","ios":"levelo://app?vid=e4aae2ac-2d8c-407b-93d1-f646ae2e9aba"},"vehicle_type_id":"4","last_reported":1760897586,"current_range_meters":6800,"station_id":"ce4bhqh2rcd13ifvqhmg","pricing_plan_id":"cebpf4jnsgd1na2vs0mg"},{"bike_id":"fc98f019-2b4d-45f5-b664-5928e89fb440","system_id":"levelo_inurba_marseille","lat":43.2175,"lon":5.34632,"is_reserved":false,"is_disabled":false,"rental_uris":{"android":"levelo://app?vid=fc98f019-2b4d-45f5-b664-5928e89fb440","ios":"levelo://app?vid=fc98f019-2b4d-45f5-b664-5928e89fb440"},"vehicle_type_id":"4","last_reported":1760897586,"current_range_meters":6800,"station_id":"st_cvj6r9ubvosntc0bgbag","pricing_plan_id":"cebpf4jnsgd1na2vs0mg"},{"bike_id":"84e1265a-59e6-4d93-988c-b52c825b177d","system_id":"levelo_inurba_marseille","lat":43.28938,"lon":5.39632,"is_reserved":false,"is_disabled":false,"rental_uris":{"android":"levelo://app?vid=84e1265a-59e6-4d93-988c-b52c825b177d","ios":"levelo://app?vid=84e1265a-59e6-4d93-988c-b52c825b177d"},"vehicle_type_id":"4","last_reported":1760897586,"current_range_meters":6800,"station_id":"ce4bh3h2rcd13ifvqdn0","pricing_plan_id":"cebpf4jnsgd1na2vs0mg"},{"bike_id":"5ec36f29-a595-43fb-81bc-e1f6ecf04525","system_id":"levelo_inurba_marseille","lat":43.211968,"lon":5.35078,"is_reserved":false,"is_disabled":true,"rental_uris":{"android":"levelo://app?vid=5ec36f29-a595-43fb-81bc-e1f6ecf04525","ios":"levelo://app?vid=5ec36f29-a595-43fb-81bc-e1f6ecf04525"},"vehicle_type_id":"4","last_reported":1760897586,"current_range_meters":6800,"station_id":"st_cvj6sg6p6f1abm77japg","pricing_plan_id":"cebpf4jnsgd1na2vs0mg"},{"bike_id":"05b24708-aded-441b-a777-b3d774ec5906","system_id":"levelo_inurba_marseille","lat":43.30948,"lon":5.39045,"is_reserved":false,"is_disabled":false,"rental_uris":{"android":"levelo://app?vid=05b24708-aded-441b-a777-b3d774ec5906","ios":"levelo://app?vid=05b24708-aded-441b-a777-b3d774ec5906"},"vehicle_type_id":"4","last_reported":1760897586,"current_range_meters":6800,"station_id":"ce4bgup2rcd13ifvqco0","pricing_plan_id":"cebpf4jnsgd1na2vs0mg"},{"bike_id":"322363fc-3b0f-4052-be49-620d3efe6840","system_id":"levelo_inurba_marseille","lat":43.3088,"lon":5.39652,"is_reserved":false,"is_disabled":false,"rental_uris":{"android":"levelo://app?vid=322363fc-3b0f-4052-be49-620d3efe6840","ios":"levelo://app?vid=322363fc-3b0f-4052-be49-620d3efe6840"},"vehicle_type_id":"4","last_reported":1760897586,"current_range_meters":7200,"station_id":"ce4bh012rcd13ifvqcv0","pricing_plan_id":"cebpf4jnsgd1na2vs0mg"},{"bike_id":"383132c7-6568-4b3f-85e0-394f17b8ed8c","system_id":"levelo_inurba_marseille","lat":43.246416,"lon":5.388892,"is_reserved":false,"is_disabled":true,"rental_uris":{"android":"levelo://app?vid=383132c7-6568-4b3f-85e0-394f17b8ed8c","ios":"levelo://app?vid=383132c7-6568-4b3f-85e0-394f17b8ed8c"},"vehicle_type_id":"4","last_reported":1760897586,"current_range_meters":7200,"station_id":"ce4bhg12rcd13ifvqf60","pricing_plan_id":"cebpf4jnsgd1na2vs0mg"},{"bike_id":"d15a00a7-adef-4170-baff-a7fa16b2cee6","system_id":"levelo_inurba_marseille","lat":43.28982,"lon":5.35619,"is_reserved":false,"is_disabled":true,"rental_uris":{"android":"levelo://app?vid=d15a00a7-adef-4170-baff-a7fa16b2cee6","ios":"levelo://app?vid=d15a00a7-adef-4170-baff-a7fa16b2cee6"},"vehicle_type_id":"4","last_reported":1760897586,"current_range_meters":7200,"station_id":"ce4bhb92rcd13ifvqen0","pricing_plan_id":"cebpf4jnsgd1na2vs0mg"},{"bike_id":"373b5146-7278-4f2b-bf11-7002287258c8","system_id":"levelo_inurba_marseille","lat":43.2777,"lon":5.4296,"is_reserved":false,"is_disabled":false,"rental_uris":{"android":"levelo://app?vid=373b5146-7278-4f2b-bf11-7002287258c8","ios":"levelo://app?vid=373b5146-7278-4f2b-bf11-7002287258c8"},"vehicle_type_id":"4","last_reported":1760897586,"current_range_meters":7200,"station_id":"ce4bhn92rcd13ifvqgrg","pricing_plan_id":"cebpf4jnsgd1na2vs0mg"},{"bike_id":"9b35f520-b47c-4550-9804-23f27fab5ce9","system_id":"levelo_inurba_marseille","lat":43.25442,"lon":5.38152,"is_reserved":false,"is_disabled":true,"rental_uris":{"android":"levelo://app?vid=9b35f520-b47c-4550-9804-23f27fab5ce9","ios":"levelo://app?vid=9b35f520-b47c-4550-9804-23f27fab5ce9"},"vehicle_type_id":"4","last_reported":1760897586,"current_range_meters":7200,"station_id":"","pricing_plan_id":"cebpf4jnsgd1na2vs0mg"},{"bike_id":"341025ca-ef2d-442d-80ac-78ca83dc4a7c","system_id":"levelo_inurba_marseille","lat":43.29913,"lon":5.37088,"is_reserved":false,"is_disabled":false,"rental_uris":{"android":"levelo://app?vid=341025ca-ef2d-442d-80ac-78ca83dc4a7c","ios":"levelo://app?vid=341025ca-ef2d-442d-80ac-78ca83dc4a7c"},"vehicle_type_id":"4","last_reported":1760897586,"current_range_meters":7200,"station_id":"","pricing_plan_id":"cebpf4jnsgd1na2vs0mg"},{"bike_id":"8e6781bb-2e20-454e-8191-54182f17bdfc","system_id":"levelo_inurba_marseille","lat":43.21743,"lon":5.34616,"is_reserved":false,"is_disabled":true,"rental_uris":{"android":"levelo://app?vid=8e6781bb-2e20-454e-8191-54182f17bdfc","ios":"levelo://app?vid=8e6781bb-2e20-454e-8191-54182f17bdfc"},"vehicle_type_id":"4","last_reported":1760897586,"current_range_meters":7200,"station_id":"st_cvj6r9ubvosntc0bgbag","pricing_plan_id":"cebpf4jnsgd1na2vs0mg"},{"bike_id":"652ffa2d-3f80-417c-b120-53f6d27baf96","system_id":"levelo_inurba_marseille","lat":43.29264,"lon":5.38445,"is_reserved":false,"is_disabled":false,"rental_uris":{"android":"levelo://app?vid=652ffa2d-3f80-417c-b120-53f6d27baf96","ios":"levelo://app?vid=652ffa2d-3f80-417c-b120-53f6d27baf96"},"vehicle_type_id":"4","last_reported":1760897586,"current_range_meters":8000,"station_id":"ce4bh692rcd13ifvqea0","pricing_plan_id":"cebpf4jnsgd1na2vs0mg"},{"bike_id":"0a414463-fe1a-4833-8a11-178a3c2c879a","system_id":"levelo_inurba_marseille","lat":43.29852,"lon":5.37897,"is_reserved":false,"is_disabled":false,"rental_uris":{"android":"levelo://app?vid=0a414463-fe1a-4833-8a11-178a3c2c879a","ios":"levelo://app?vid=0a414463-fe1a-4833-8a11-178a3c2c879a"},"vehicle_type_id":"4","last_reported":1760897586,"current_range_meters":8000,"station_id":"","pricing_plan_id":"cebpf4jnsgd1na2vs0mg"},{"bike_id":"e7e8b93c-02d4-466b-82b5-3f4c4f15c2ae","system_id":"levelo_inurba_marseille","lat":43.28823,"lon":5.43848,"is_reserved":false,"is_disabled":false,"rental_uris":{"android":"levelo://app?vid=e7e8b93c-02d4-466b-82b5-3f4c4f15c2ae","ios":"levelo://app?vid=e7e8b93c-02d4-466b-82b5-3f4c4f15c2ae"},"vehicle_type_id":"4","last_reported":1760897586,"current_range_meters":8000,"station_id":"","pricing_plan_id":"cebpf4jnsgd1na2vs0mg"},{"bike_id":"652ba88f-0144-4e8d-af53-1ed08874f9bd","system_id":"levelo_inurba_marseille","lat":43.29525,"lon":5.3855,"is_reserved":false,"is_disabled":false,"rental_uris":{"android":"levelo://app?vid=652ba88f-0144-4e8d-af53-1ed08874f9bd","ios":"levelo://app?vid=652ba88f-0144-4e8d-af53-1ed08874f9bd"},"vehicle_type_id":"4","last_reported":1760897586,"current_range_meters":8000,"station_id":"ce4bgih2rcd13ifvqba0","pricing_plan_id":"cebpf4jnsgd1na2vs0mg"},{"bike_id":"245a030c-0c43-41f8-a4cc-088d55252b06","system_id":"levelo_inurba_marseille","lat":43.244728,"lon":5.369338,"is_reserved":false,"is_disabled":false,"rental_uris":{"android":"levelo://app?vid=245a030c-0c43-41f8-a4cc-088d55252b06","ios":"levelo://app?vid=245a030c-0c43-41f8-a4cc-088d55252b06"},"vehicle_type_id":"4","last_reported":1760897586,"current_range_meters":8000,"station_id":"","pricing_plan_id":"cebpf4jnsgd1na2vs0mg"},{"bike_id":"ab6b106f-a4de-43a2-813b-bfb55bf62288","system_id":"levelo_inurba_marseille","lat":43.2972,"lon":5.37159,"is_reserved":false,"is_disabled":false,"rental_uris":{"android":"levelo://app?vid=ab6b106f-a4de-43a2-813b-bfb55bf62288","ios":"levelo://app?vid=ab6b106f-a4de-43a2-813b-bfb55bf62288"},"vehicle_type_id":"4","last_reported":1760897586,"current_range_meters":8000,"station_id":"","pricing_plan_id":"cebpf4jnsgd1na2vs0mg"},{"bike_id":"3bef3ebd-4144-4ade-b055-4bd6dd02b683","system_id":"levelo_inurba_marseille","lat":43.29297,"lon":5.37475,"is_reserved":false,"is_disabled":false,"rental_uris":{"android":"levelo://app?vid=3bef3ebd-4144-4ade-b055-4bd6dd02b683","ios":"levelo://app?vid=3bef3ebd-4144-4ade-b055-4bd6dd02b683"},"vehicle_type_id":"4","last_reported":1760897586,"current_range_meters":8000,"station_id":"ce4bgi12rcd13ifvqb70","pricing_plan_id":"cebpf4jnsgd1na2vs0mg"},{"bike_id":"f7c8f693-1cb9-4f45-a809-cd76181c6642","system_id":"levelo_inurba_marseille","lat":43.22528,"lon":5.3483,"is_reserved":false,"is_disabled":false,"rental_uris":{"android":"levelo://app?vid=f7c8f693-1cb9-4f45-a809-cd76181c6642","ios":"levelo://app?vid=f7c8f693-1cb9-4f45-a809-cd76181c6642"},"vehicle_type_id":"4","last_reported":1760897586,"current_range_meters":8000,"station_id":"ce4bhoh2rcd13ifvqh5g","pricing_plan_id":"cebpf4jnsgd1na2vs0mg"},{"bike_id":"3bd71b45-b509-4f58-aa05-62c6a9443b18","system_id":"levelo_inurba_marseille","lat":43.281632,"lon":5.426525,"is_reserved":false,"is_disabled":false,"rental_uris":{"android":"levelo://app?vid=3bd71b45-b509-4f58-aa05-62c6a9443b18","ios":"levelo://app?vid=3bd71b45-b509-4f58-aa05-62c6a9443b18"},"vehicle_type_id":"4","last_reported":1760897586,"current_range_meters":8000,"station_id":"ce4bhnh2rcd13ifvqgug","pricing_plan_id":"cebpf4jnsgd1na2vs0mg"},{"bike_id":"c09b81d5-de11-4df6-b250-c72751cd5002","system_id":"levelo_inurba_marseille","lat":43.27616,"lon":5.36114,"is_reserved":false,"is_disabled":false,"rental_uris":{"android":"levelo://app?vid=c09b81d5-de11-4df6-b250-c72751cd5002","ios":"levelo://app?vid=c09b81d5-de11-4df6-b250-c72751cd5002"},"vehicle_type_id":"4","last_reported":1760897586,"current_range_meters":8400,"station_id":"ce4bgj92rcd13ifvqbe0","pricing_plan_id":"cebpf4jnsgd1na2vs0mg"},{"bike_id":"5aff87b3-ab9e-4016-b74f-cb3079fd7934","system_id":"levelo_inurba_marseille","lat":43.28485,"lon":5.3841,"is_reserved":false,"is_disabled":false,"rental_uris":{"android":"levelo://app?vid=5aff87b3-ab9e-4016-b74f-cb3079fd7934","ios":"levelo://app?vid=5aff87b3-ab9e-4016-b74f-cb3079fd7934"},"vehicle_type_id":"4","last_reported":1760897586,"current_range_meters":8400,"station_id":"ce4bh512rcd13ifvqe3g","pricing_plan_id":"cebpf4jnsgd1na2vs0mg"},{"bike_id":"964f3dc4-0dde-40bc-a0d0-244b250844c7","system_id":"levelo_inurba_marseille","lat":43.32107,"lon":5.3677,"is_reserved":false,"is_disabled":false,"rental_uris":{"android":"levelo://app?vid=964f3dc4-0dde-40bc-a0d0-244b250844c7","ios":"levelo://app?vid=964f3dc4-0dde-40bc-a0d0-244b250844c7"},"vehicle_type_id":"4","last_reported":1760897586,"current_range_meters":8400,"station_id":"ce4bhrh2rcd13ifvqhug","pricing_plan_id":"cebpf4jnsgd1na2vs0mg"},{"bike_id":"1ed2ee85-88e8-4e74-ad7a-15af0028c4ea","system_id":"levelo_inurba_marseille","lat":43.25938,"lon":5.40905,"is_reserved":false,"is_disabled":false,"rental_uris":{"android":"levelo://app?vid=1ed2ee85-88e8-4e74-ad7a-15af0028c4ea","ios":"levelo://app?vid=1ed2ee85-88e8-4e74-ad7a-15af0028c4ea"},"vehicle_type_id":"4","last_reported":1760897586,"current_range_meters":8400,"station_id":"ce4bhm92rcd13ifvqglg","pricing_plan_id":"cebpf4jnsgd1na2vs0mg"},{"bike_id":"bd1e4826-bafe-4ee1-8902-15c144805362","system_id":"levelo_inurba_marseille","lat":43.30944,"lon":5.3904,"is_reserved":false,"is_disabled":false,"rental_uris":{"android":"levelo://app?vid=bd1e4826-bafe-4ee1-8902-15c144805362","ios":"levelo://app?vid=bd1e4826-bafe-4ee1-8902-15c144805362"},"vehicle_type_id":"4","last_reported":1760897586,"current_range_meters":8400,"station_id":"ce4bgup2rcd13ifvqco0","pricing_plan_id":"cebpf4jnsgd1na2vs0mg"},{"bike_id":"9aca6410-dfe2-4f0b-8309-4bbe61aef318","system_id":"levelo_inurba_marseille","lat":43.33015,"lon":5.39028,"is_reserved":false,"is_disabled":false,"rental_uris":{"android":"levelo://app?vid=9aca6410-dfe2-4f0b-8309-4bbe61aef318","ios":"levelo://app?vid=9aca6410-dfe2-4f0b-8309-4bbe61aef318"},"vehicle_type_id":"4","last_reported":1760897586,"current_range_meters":8800,"station_id":"ce4bhr92rcd13ifvqhrg","pricing_plan_id":"cebpf4jnsgd1na2vs0mg"},{"bike_id":"7294338b-7dce-479b-864e-4720fa193e38","system_id":"levelo_inurba_marseille","lat":43.28373,"lon":5.35523,"is_reserved":false,"is_disabled":false,"rental_uris":{"android":"levelo://app?vid=7294338b-7dce-479b-864e-4720fa193e38","ios":"levelo://app?vid=7294338b-7dce-479b-864e-4720fa193e38"},"vehicle_type_id":"4","last_reported":1760897586,"current_range_meters":8800,"station_id":"","pricing_plan_id":"cebpf4jnsgd1na2vs0mg"},{"bike_id":"9d1ccac9-9104-465c-b9ad-dcf829719ce7","system_id":"levelo_inurba_marseille","lat":43.28929,"lon":5.36398,"is_reserved":false,"is_disabled":false,"rental_uris":{"android":"levelo://app?vid=9d1ccac9-9104-465c-b9ad-dcf829719ce7","ios":"levelo://app?vid=9d1ccac9-9104-465c-b9ad-dcf829719ce7"},"vehicle_type_id":"4","last_reported":1760897586,"current_range_meters":8800,"station_id":"ce4bhc92rcd13ifvqetg","pricing_plan_id":"cebpf4jnsgd1na2vs0mg"},{"bike_id":"fc43fb19-0347-4752-a015-1efd4fcf9954","system_id":"levelo_inurba_marseille","lat":43.31116,"lon":5.37782,"is_reserved":false,"is_disabled":false,"rental_uris":{"android":"levelo://app?vid=fc43fb19-0347-4752-a015-1efd4fcf9954","ios":"levelo://app?vid=fc43fb19-0347-4752-a015-1efd4fcf9954"},"vehicle_type_id":"4","last_reported":1760897586,"current_range_meters":8800,"station_id":"ce4bgt92rcd13ifvqcg0","pricing_plan_id":"cebpf4jnsgd1na2vs0mg"},{"bike_id":"3586afa5-19c6-4385-ae3b-80726606c1bb","system_id":"levelo_inurba_marseille","lat":43.2641,"lon":5.39898,"is_reserved":false,"is_disabled":false,"rental_uris":{"android":"levelo://app?vid=3586afa5-19c6-4385-ae3b-80726606c1bb","ios":"levelo://app?vid=3586afa5-19c6-4385-ae3b-80726606c1bb"},"vehicle_type_id":"4","last_reported":1760897586,"current_range_meters":8800,"station_id":"","pricing_plan_id":"cebpf4jnsgd1na2vs0mg"},{"bike_id":"8c331f1a-1370-4346-9779-52f608ad41cf","system_id":"levelo_inurba_marseille","lat":43.299698,"lon":5.384923,"is_reserved":false,"is_disabled":false,"rental_uris":{"android":"levelo://app?vid=8c331f1a-1370-4346-9779-52f608ad41cf","ios":"levelo://app?vid=8c331f1a-1370-4346-9779-52f608ad41cf"},"vehicle_type_id":"4","last_reported":1760897586,"current_range_meters":8800,"station_id":"ce4bgj92rcd13ifvqbd0","pricing_plan_id":"cebpf4jnsgd1na2vs0mg"},{"bike_id":"e978660f-731d-4a95-8df5-e0a54d8fe8be","system_id":"levelo_inurba_marseille","lat":43.211837,"lon":5.350814,"is_reserved":false,"is_disabled":true,"rental_uris":{"android":"levelo://app?vid=e978660f-731d-4a95-8df5-e0a54d8fe8be","ios":"levelo://app?vid=e978660f-731d-4a95-8df5-e0a54d8fe8be"},"vehicle_type_id":"4","last_reported":1760897586,"current_range_meters":8800,"station_id":"st_cvj6sg6p6f1abm77japg","pricing_plan_id":"cebpf4jnsgd1na2vs0mg"},{"bike_id":"01631119-7160-4843-9224-8e6830b019a0","system_id":"levelo_inurba_marseille","lat":43.259363,"lon":5.409125,"is_reserved":false,"is_disabled":false,"rental_uris":{"android":"levelo://app?vid=01631119-7160-4843-9224-8e6830b019a0","ios":"levelo://app?vid=01631119-7160-4843-9224-8e6830b019a0"},"vehicle_type_id":"4","last_reported":1760897586,"current_range_meters":8800,"station_id":"ce4bhm92rcd13ifvqglg","pricing_plan_id":"cebpf4jnsgd1na2vs0mg"},{"bike_id":"9dd1d8fe-c2a8-4a70-a175-61f5f9fe7fd2","system_id":"levelo_inurba_marseille","lat":43.315658,"lon":5.390293,"is_reserved":false,"is_disabled":false,"rental_uris":{"android":"levelo://app?vid=9dd1d8fe-c2a8-4a70-a175-61f5f9fe7fd2","ios":"levelo://app?vid=9dd1d8fe-c2a8-4a70-a175-61f5f9fe7fd2"},"vehicle_type_id":"4","last_reported":1760897586,"current_range_meters":9200,"station_id":"","pricing_plan_id":"cebpf4jnsgd1na2vs0mg"},{"bike_id":"6655967b-abc9-4508-98d8-c9a890eb560f","system_id":"levelo_inurba_marseille","lat":43.29612,"lon":5.3671,"is_reserved":false,"is_disabled":false,"rental_uris":{"android":"levelo://app?vid=6655967b-abc9-4508-98d8-c9a890eb560f","ios":"levelo://app?vid=6655967b-abc9-4508-98d8-c9a890eb560f"},"vehicle_type_id":"4","last_reported":1760897586,"current_range_meters":9200,"station_id":"","pricing_plan_id":"cebpf4jnsgd1na2vs0mg"},{"bike_id":"a80c0d8c-4441-4654-ad60-f40da12d3b4b","system_id":"levelo_inurba_marseille","lat":43.30424,"lon":5.38894,"is_reserved":false,"is_disabled":false,"rental_uris":{"android":"levelo://app?vid=a80c0d8c-4441-4654-ad60-f40da12d3b4b","ios":"levelo://app?vid=a80c0d8c-4441-4654-ad60-f40da12d3b4b"},"vehicle_type_id":"4","last_reported":1760897586,"current_range_meters":9200,"station_id":"ce4bgk12rcd13ifvqbi0","pricing_plan_id":"cebpf4jnsgd1na2vs0mg"},{"bike_id":"037e260c-63fd-48d0-9f57-5681fadca189","system_id":"levelo_inurba_marseille","lat":43.29032,"lon":5.3865,"is_reserved":false,"is_disabled":false,"rental_uris":{"android":"levelo://app?vid=037e260c-63fd-48d0-9f57-5681fadca189","ios":"levelo://app?vid=037e260c-63fd-48d0-9f57-5681fadca189"},"vehicle_type_id":"4","last_reported":1760897586,"current_range_meters":9200,"station_id":"ce4bh4p2rcd13ifvqe0g","pricing_plan_id":"cebpf4jnsgd1na2vs0mg"},{"bike_id":"19cac4a3-3a12-42dc-9173-1a31d3d89e9e","system_id":"levelo_inurba_marseille","lat":43.29977,"lon":5.384867,"is_reserved":false,"is_disabled":false,"rental_uris":{"android":"levelo://app?vid=19cac4a3-3a12-42dc-9173-1a31d3d89e9e","ios":"levelo://app?vid=19cac4a3-3a12-42dc-9173-1a31d3d89e9e"},"vehicle_type_id":"4","last_reported":1760897586,"current_range_meters":9200,"station_id":"ce4bgj92rcd13ifvqbd0","pricing_plan_id":"cebpf4jnsgd1na2vs0mg"},{"bike_id":"7b65513b-d019-4bcf-81f1-f99eb9bdf2a6","system_id":"levelo_inurba_marseille","lat":43.30088,"lon":5.39081,"is_reserved":false,"is_disabled":false,"rental_uris":{"android":"levelo://app?vid=7b65513b-d019-4bcf-81f1-f99eb9bdf2a6","ios":"levelo://app?vid=7b65513b-d019-4bcf-81f1-f99eb9bdf2a6"},"vehicle_type_id":"4","last_reported":1760897586,"current_range_meters":9200,"station_id":"ce4bh192rcd13ifvqdb0","pricing_plan_id":"cebpf4jnsgd1na2vs0mg"},{"bike_id":"ac6d2c4d-74a8-443d-a9f9-0d9807feacda","system_id":"levelo_inurba_marseille","lat":43.33772,"lon":5.37469,"is_reserved":false,"is_disabled":false,"rental_uris":{"android":"levelo://app?vid=ac6d2c4d-74a8-443d-a9f9-0d9807feacda","ios":"levelo://app?vid=ac6d2c4d-74a8-443d-a9f9-0d9807feacda"},"vehicle_type_id":"4","last_reported":1760897586,"current_range_meters":9600,"station_id":"","pricing_plan_id":"cebpf4jnsgd1na2vs0mg"},{"bike_id":"6f76b7b1-d10b-4af1-8341-c6e59ebe06d6","system_id":"levelo_inurba_marseille","lat":43.33024,"lon":5.39044,"is_reserved":false,"is_disabled":false,"rental_uris":{"android":"levelo://app?vid=6f76b7b1-d10b-4af1-8341-c6e59ebe06d6","ios":"levelo://app?vid=6f76b7b1-d10b-4af1-8341-c6e59ebe06d6"},"vehicle_type_id":"4","last_reported":1760897586,"current_range_meters":9600,"station_id":"ce4bhr92rcd13ifvqhrg","pricing_plan_id":"cebpf4jnsgd1na2vs0mg"},{"bike_id":"59247dbe-bd2d-4cd0-9b31-cd5009ef299f","system_id":"levelo_inurba_marseille","lat":43.2927,"lon":5.40126,"is_reserved":false,"is_disabled":false,"rental_uris":{"android":"levelo://app?vid=59247dbe-bd2d-4cd0-9b31-cd5009ef299f","ios":"levelo://app?vid=59247dbe-bd2d-4cd0-9b31-cd5009ef299f"},"vehicle_type_id":"4","last_reported":1760897586,"current_range_meters":9600,"station_id":"ce4bh312rcd13ifvqdk0","pricing_plan_id":"cebpf4jnsgd1na2vs0mg"},{"bike_id":"0d935fb0-5dda-45d6-8d1b-6ef789ab968d","system_id":"levelo_inurba_marseille","lat":43.27987,"lon":5.41648,"is_reserved":false,"is_disabled":false,"rental_uris":{"android":"levelo://app?vid=0d935fb0-5dda-45d6-8d1b-6ef789ab968d","ios":"levelo://app?vid=0d935fb0-5dda-45d6-8d1b-6ef789ab968d"},"vehicle_type_id":"4","last_reported":1760897586,"current_range_meters":10000,"station_id":"ce4bho12rcd13ifvqh1g","pricing_plan_id":"cebpf4jnsgd1na2vs0mg"},{"bike_id":"6426e4fa-7f79-410d-acfa-0a51b3b2658a","system_id":"levelo_inurba_marseille","lat":43.31256,"lon":5.40413,"is_reserved":false,"is_disabled":false,"rental_uris":{"android":"levelo://app?vid=6426e4fa-7f79-410d-acfa-0a51b3b2658a","ios":"levelo://app?vid=6426e4fa-7f79-410d-acfa-0a51b3b2658a"},"vehicle_type_id":"4","last_reported":1760897586,"current_range_meters":10000,"station_id":"","pricing_plan_id":"cebpf4jnsgd1na2vs0mg"},{"bike_id":"735ee941-2738-40d7-bc81-29301d69a34b","system_id":"levelo_inurba_marseille","lat":43.30877,"lon":5.39652,"is_reserved":false,"is_disabled":false,"rental_uris":{"android":"levelo://app?vid=735ee941-2738-40d7-bc81-29301d69a34b","ios":"levelo://app?vid=735ee941-2738-40d7-bc81-29301d69a34b"},"vehicle_type_id":"4","last_reported":1760897586,"current_range_meters":10000,"station_id":"ce4bh012rcd13ifvqcv0","pricing_plan_id":"cebpf4jnsgd1na2vs0mg"},{"bike_id":"365b1110-8604-4b2d-ad9b-3263b8a258f2","system_id":"levelo_inurba_marseille","lat":43.28655,"lon":5.3634,"is_reserved":false,"is_disabled":false,"rental_uris":{"android":"levelo://app?vid=365b1110-8604-4b2d-ad9b-3263b8a258f2","ios":"levelo://app?vid=365b1110-8604-4b2d-ad9b-3263b8a258f2"},"vehicle_type_id":"4","last_reported":1760897586,"current_range_meters":10000,"station_id":"ce4bhah2rcd13ifvqej0","pricing_plan_id":"cebpf4jnsgd1na2vs0mg"},{"bike_id":"d712d0ff-3096-41ad-87d0-b640167ff060","system_id":"levelo_inurba_marseille","lat":43.31541,"lon":5.38512,"is_reserved":false,"is_disabled":false,"rental_uris":{"android":"levelo://app?vid=d712d0ff-3096-41ad-87d0-b640167ff060","ios":"levelo://app?vid=d712d0ff-3096-41ad-87d0-b640167ff060"},"vehicle_type_id":"4","last_reported":1760897586,"current_range_meters":10000,"station_id":"","pricing_plan_id":"cebpf4jnsgd1na2vs0mg"},{"bike_id":"a3f863ca-1551-43ec-abd9-e0073f7aad15","system_id":"levelo_inurba_marseille","lat":43.29256,"lon":5.37615,"is_reserved":false,"is_disabled":true,"rental_uris":{"android":"levelo://app?vid=a3f863ca-1551-43ec-abd9-e0073f7aad15","ios":"levelo://app?vid=a3f863ca-1551-43ec-abd9-e0073f7aad15"},"vehicle_type_id":"4","last_reported":1760897586,"current_range_meters":10000,"station_id":"ce4bgi12rcd13ifvqb80","pricing_plan_id":"cebpf4jnsgd1na2vs0mg"},{"bike_id":"5d740315-e13c-45a6-9763-5811c4b98e67","system_id":"levelo_inurba_marseille","lat":43.24632,"lon":5.43142,"is_reserved":false,"is_disabled":false,"rental_uris":{"android":"levelo://app?vid=5d740315-e13c-45a6-9763-5811c4b98e67","ios":"levelo://app?vid=5d740315-e13c-45a6-9763-5811c4b98e67"},"vehicle_type_id":"4","last_reported":1760897586,"current_range_meters":10000,"station_id":"st_d2m6c4gdas8pm72e190g","pricing_plan_id":"cebpf4jnsgd1na2vs0mg"},{"bike_id":"82c468a7-612e-4058-a058-48ce4c218b56","system_id":"levelo_inurba_marseille","lat":43.27066,"lon":5.42279,"is_reserved":false,"is_disabled":false,"rental_uris":{"android":"levelo://app?vid=82c468a7-612e-4058-a058-48ce4c218b56","ios":"levelo://app?vid=82c468a7-612e-4058-a058-48ce4c218b56"},"vehicle_type_id":"4","last_reported":1760897586,"current_range_meters":10000,"station_id":"ce4bhk92rcd13ifvqgb0","pricing_plan_id":"cebpf4jnsgd1na2vs0mg"},{"bike_id":"a22a5d4d-4f19-4e8a-8b2b-83d720f5dbb7","system_id":"levelo_inurba_marseille","lat":43.26932,"lon":5.38913,"is_reserved":false,"is_disabled":false,"rental_uris":{"android":"levelo://app?vid=a22a5d4d-4f19-4e8a-8b2b-83d720f5dbb7","ios":"levelo://app?vid=a22a5d4d-4f19-4e8a-8b2b-83d720f5dbb7"},"vehicle_type_id":"4","last_reported":1760897586,"current_range_meters":10000,"station_id":"ce4bhhh2rcd13ifvqfl0","pricing_plan_id":"cebpf4jnsgd1na2vs0mg"},{"bike_id":"ab7bf195-ad5f-4058-9730-c9358a4473ec","system_id":"levelo_inurba_marseille","lat":43.28148,"lon":5.42639,"is_reserved":false,"is_disabled":false,"rental_uris":{"android":"levelo://app?vid=ab7bf195-ad5f-4058-9730-c9358a4473ec","ios":"levelo://app?vid=ab7bf195-ad5f-4058-9730-c9358a4473ec"},"vehicle_type_id":"4","last_reported":1760897586,"current_range_meters":10000,"station_id":"ce4bhnh2rcd13ifvqgug","pricing_plan_id":"cebpf4jnsgd1na2vs0mg"},{"bike_id":"5793a4e7-a0d4-4ea3-bbbf-fca538505134","system_id":"levelo_inurba_marseille","lat":43.27811,"lon":5.40708,"is_reserved":false,"is_disabled":false,"rental_uris":{"android":"levelo://app?vid=5793a4e7-a0d4-4ea3-bbbf-fca538505134","ios":"levelo://app?vid=5793a4e7-a0d4-4ea3-bbbf-fca538505134"},"vehicle_type_id":"4","last_reported":1760897586,"current_range_meters":10000,"station_id":"ce4bhnh2rcd13ifvqgtg","pricing_plan_id":"cebpf4jnsgd1na2vs0mg"},{"bike_id":"17381ede-2885-434f-b8d5-419cbc10857a","system_id":"levelo_inurba_marseille","lat":43.30124,"lon":5.38943,"is_reserved":false,"is_disabled":false,"rental_uris":{"android":"levelo://app?vid=17381ede-2885-434f-b8d5-419cbc10857a","ios":"levelo://app?vid=17381ede-2885-434f-b8d5-419cbc10857a"},"vehicle_type_id":"4","last_reported":1760897586,"current_range_meters":10000,"station_id":"","pricing_plan_id":"cebpf4jnsgd1na2vs0mg"},{"bike_id":"5bd9155f-156c-49c8-8b0f-833732c1c592","system_id":"levelo_inurba_marseille","lat":43.2854,"lon":5.44074,"is_reserved":false,"is_disabled":false,"rental_uris":{"android":"levelo://app?vid=5bd9155f-156c-49c8-8b0f-833732c1c592","ios":"levelo://app?vid=5bd9155f-156c-49c8-8b0f-833732c1c592"},"vehicle_type_id":"4","last_reported":1760897586,"current_range_meters":10800,"station_id":"st_d3j3df2ikq2c7380ej80","pricing_plan_id":"cebpf4jnsgd1na2vs0mg"},{"bike_id":"000e5c43-1da4-4f5b-bc53-8b872a67588b","system_id":"levelo_inurba_marseille","lat":43.27976,"lon":5.38751,"is_reserved":false,"is_disabled":false,"rental_uris":{"android":"levelo://app?vid=000e5c43-1da4-4f5b-bc53-8b872a67588b","ios":"levelo://app?vid=000e5c43-1da4-4f5b-bc53-8b872a67588b"},"vehicle_type_id":"4","last_reported":1760897586,"current_range_meters":10800,"station_id":"ce4bhg12rcd13ifvqf80","pricing_plan_id":"cebpf4jnsgd1na2vs0mg"},{"bike_id":"81ca0cf9-7047-428a-9072-3e13596df636","system_id":"levelo_inurba_marseille","lat":43.290172,"lon":5.386323,"is_reserved":false,"is_disabled":true,"rental_uris":{"android":"levelo://app?vid=81ca0cf9-7047-428a-9072-3e13596df636","ios":"levelo://app?vid=81ca0cf9-7047-428a-9072-3e13596df636"},"vehicle_type_id":"4","last_reported":1760897586,"current_range_meters":10800,"station_id":"ce4bh4p2rcd13ifvqe0g","pricing_plan_id":"cebpf4jnsgd1na2vs0mg"},{"bike_id":"f124915a-92bb-41f0-b378-e621414db54a","system_id":"levelo_inurba_marseille","lat":43.30317,"lon":5.36897,"is_reserved":false,"is_disabled":false,"rental_uris":{"android":"levelo://app?vid=f124915a-92bb-41f0-b378-e621414db54a","ios":"levelo://app?vid=f124915a-92bb-41f0-b378-e621414db54a"},"vehicle_type_id":"4","last_reported":1760897586,"current_range_meters":10800,"station_id":"ce4bgqh2rcd13ifvqc5g","pricing_plan_id":"cebpf4jnsgd1na2vs0mg"},{"bike_id":"cf4c14bf-7635-4f96-a4b6-ee6481db3804","system_id":"levelo_inurba_marseille","lat":43.32293,"lon":5.38287,"is_reserved":false,"is_disabled":false,"rental_uris":{"android":"levelo://app?vid=cf4c14bf-7635-4f96-a4b6-ee6481db3804","ios":"levelo://app?vid=cf4c14bf-7635-4f96-a4b6-ee6481db3804"},"vehicle_type_id":"4","last_reported":1760897586,"current_range_meters":10800,"station_id":"ce4bhr12rcd13ifvqhqg","pricing_plan_id":"cebpf4jnsgd1na2vs0mg"},{"bike_id":"d828275b-9fd3-432c-a2f7-087975d8a6aa","system_id":"levelo_inurba_marseille","lat":43.29631,"lon":5.40598,"is_reserved":false,"is_disabled":false,"rental_uris":{"android":"levelo://app?vid=d828275b-9fd3-432c-a2f7-087975d8a6aa","ios":"levelo://app?vid=d828275b-9fd3-432c-a2f7-087975d8a6aa"},"vehicle_type_id":"4","last_reported":1760897586,"current_range_meters":10800,"station_id":"ce4bh0h2rcd13ifvqd60","pricing_plan_id":"cebpf4jnsgd1na2vs0mg"},{"bike_id":"f5eda7fc-872e-4f8e-9d95-c0a57bf82381","system_id":"levelo_inurba_marseille","lat":43.292287,"lon":5.360602,"is_reserved":false,"is_disabled":false,"rental_uris":{"android":"levelo://app?vid=f5eda7fc-872e-4f8e-9d95-c0a57bf82381","ios":"levelo://app?vid=f5eda7fc-872e-4f8e-9d95-c0a57bf82381"},"vehicle_type_id":"4","last_reported":1760897586,"current_range_meters":10800,"station_id":"","pricing_plan_id":"cebpf4jnsgd1na2vs0mg"},{"bike_id":"2c59cc86-a348-4735-8f6f-75bf0e4aac2c","system_id":"levelo_inurba_marseille","lat":43.3333,"lon":5.39875,"is_reserved":false,"is_disabled":false,"rental_uris":{"android":"levelo://app?vid=2c59cc86-a348-4735-8f6f-75bf0e4aac2c","ios":"levelo://app?vid=2c59cc86-a348-4735-8f6f-75bf0e4aac2c"},"vehicle_type_id":"4","last_reported":1760897586,"current_range_meters":10800,"station_id":"","pricing_plan_id":"cebpf4jnsgd1na2vs0mg"},{"bike_id":"b9f4c452-f1a0-4b31-854c-2325a5b73556","system_id":"levelo_inurba_marseille","lat":43.21461,"lon":5.3432,"is_reserved":false,"is_disabled":false,"rental_uris":{"android":"levelo://app?vid=b9f4c452-f1a0-4b31-854c-2325a5b73556","ios":"levelo://app?vid=b9f4c452-f1a0-4b31-854c-2325a5b73556"},"vehicle_type_id":"4","last_reported":1760897586,"current_range_meters":10800,"station_id":"","pricing_plan_id":"cebpf4jnsgd1na2vs0mg"},{"bike_id":"bd22288f-66c3-4f5f-8057-2ae34cf63646","system_id":"levelo_inurba_marseille","lat":43.29185,"lon":5.39327,"is_reserved":false,"is_disabled":false,"rental_uris":{"android":"levelo://app?vid=bd22288f-66c3-4f5f-8057-2ae34cf63646","ios":"levelo://app?vid=bd22288f-66c3-4f5f-8057-2ae34cf63646"},"vehicle_type_id":"4","last_reported":1760897586,"current_range_meters":11200,"station_id":"ce4bh192rcd13ifvqdd0","pricing_plan_id":"cebpf4jnsgd1na2vs0mg"},{"bike_id":"15e60a39-5ff9-497f-97df-179f2e64d01b","system_id":"levelo_inurba_marseille","lat":43.27943,"lon":5.41052,"is_reserved":false,"is_disabled":false,"rental_uris":{"android":"levelo://app?vid=15e60a39-5ff9-497f-97df-179f2e64d01b","ios":"levelo://app?vid=15e60a39-5ff9-497f-97df-179f2e64d01b"},"vehicle_type_id":"4","last_reported":1760897586,"current_range_meters":11200,"station_id":"ce4bhnp2rcd13ifvqh0g","pricing_plan_id":"cebpf4jnsgd1na2vs0mg"},{"bike_id":"c05ca698-bf02-4aa2-bc91-e21d99556187","system_id":"levelo_inurba_marseille","lat":43.305939,"lon":5.393716,"is_reserved":false,"is_disabled":true,"rental_uris":{"android":"levelo://app?vid=c05ca698-bf02-4aa2-bc91-e21d99556187","ios":"levelo://app?vid=c05ca698-bf02-4aa2-bc91-e21d99556187"},"vehicle_type_id":"4","last_reported":1760897586,"current_range_meters":11200,"station_id":"ce4bh0p2rcd13ifvqd80","pricing_plan_id":"cebpf4jnsgd1na2vs0mg"},{"bike_id":"847e9856-ae8a-4c49-a85a-fec204e571f6","system_id":"levelo_inurba_marseille","lat":43.29002,"lon":5.39031,"is_reserved":false,"is_disabled":false,"rental_uris":{"android":"levelo://app?vid=847e9856-ae8a-4c49-a85a-fec204e571f6","ios":"levelo://app?vid=847e9856-ae8a-4c49-a85a-fec204e571f6"},"vehicle_type_id":"4","last_reported":1760897586,"current_range_meters":11600,"station_id":"","pricing_plan_id":"cebpf4jnsgd1na2vs0mg"},{"bike_id":"3cab6837-9492-4b2f-9f11-6d7fb4de0695","system_id":"levelo_inurba_marseille","lat":43.29601,"lon":5.36751,"is_reserved":false,"is_disabled":true,"rental_uris":{"android":"levelo://app?vid=3cab6837-9492-4b2f-9f11-6d7fb4de0695","ios":"levelo://app?vid=3cab6837-9492-4b2f-9f11-6d7fb4de0695"},"vehicle_type_id":"4","last_reported":1760897586,"current_range_meters":11600,"station_id":"ce4bgph2rcd13ifvqc2g","pricing_plan_id":"cebpf4jnsgd1na2vs0mg"},{"bike_id":"f40d27d3-437a-4df7-8d9f-6d2c4165af4e","system_id":"levelo_inurba_marseille","lat":43.29077,"lon":5.3717,"is_reserved":false,"is_disabled":false,"rental_uris":{"android":"levelo://app?vid=f40d27d3-437a-4df7-8d9f-6d2c4165af4e","ios":"levelo://app?vid=f40d27d3-437a-4df7-8d9f-6d2c4165af4e"},"vehicle_type_id":"4","last_reported":1760897586,"current_range_meters":11600,"station_id":"ce4bh5p2rcd13ifvqe4g","pricing_plan_id":"cebpf4jnsgd1na2vs0mg"},{"bike_id":"86ce52f8-f590-4694-90e1-216ddc477b29","system_id":"levelo_inurba_marseille","lat":43.30968,"lon":5.3812,"is_reserved":false,"is_disabled":false,"rental_uris":{"android":"levelo://app?vid=86ce52f8-f590-4694-90e1-216ddc477b29","ios":"levelo://app?vid=86ce52f8-f590-4694-90e1-216ddc477b29"},"vehicle_type_id":"4","last_reported":1760897586,"current_range_meters":11600,"station_id":"","pricing_plan_id":"cebpf4jnsgd1na2vs0mg"},{"bike_id":"fbe586dc-ebc7-45f2-b699-4812fb9ca15d","system_id":"levelo_inurba_marseille","lat":43.25487,"lon":5.37654,"is_reserved":false,"is_disabled":true,"rental_uris":{"android":"levelo://app?vid=fbe586dc-ebc7-45f2-b699-4812fb9ca15d","ios":"levelo://app?vid=fbe586dc-ebc7-45f2-b699-4812fb9ca15d"},"vehicle_type_id":"4","last_reported":1760897586,"current_range_meters":11600,"station_id":"ce4bhh12rcd13ifvqff0","pricing_plan_id":"cebpf4jnsgd1na2vs0mg"},{"bike_id":"fc762ec2-c0da-4a6c-b37d-cf94fda5114d","system_id":"levelo_inurba_marseille","lat":43.286652,"lon":5.386751,"is_reserved":false,"is_disabled":false,"rental_uris":{"android":"levelo://app?vid=fc762ec2-c0da-4a6c-b37d-cf94fda5114d","ios":"levelo://app?vid=fc762ec2-c0da-4a6c-b37d-cf94fda5114d"},"vehicle_type_id":"4","last_reported":1760897586,"current_range_meters":11600,"station_id":"","pricing_plan_id":"cebpf4jnsgd1na2vs0mg"},{"bike_id":"0a6f2b50-0216-4608-89db-52aef6a47ee3","system_id":"levelo_inurba_marseille","lat":43.25581,"lon":5.3824,"is_reserved":false,"is_disabled":false,"rental_uris":{"android":"levelo://app?vid=0a6f2b50-0216-4608-89db-52aef6a47ee3","ios":"levelo://app?vid=0a6f2b50-0216-4608-89db-52aef6a47ee3"},"vehicle_type_id":"4","last_reported":1760897586,"current_range_meters":11600,"station_id":"ce4bhih2rcd13ifvqfs0","pricing_plan_id":"cebpf4jnsgd1na2vs0mg"},{"bike_id":"44a53207-af00-43ac-81c7-e054cced6408","system_id":"levelo_inurba_marseille","lat":43.25584,"lon":5.38234,"is_reserved":false,"is_disabled":false,"rental_uris":{"android":"levelo://app?vid=44a53207-af00-43ac-81c7-e054cced6408","ios":"levelo://app?vid=44a53207-af00-43ac-81c7-e054cced6408"},"vehicle_type_id":"4","last_reported":1760897586,"current_range_meters":12000,"station_id":"ce4bhih2rcd13ifvqfs0","pricing_plan_id":"cebpf4jnsgd1na2vs0mg"},{"bike_id":"de4bec27-297c-4e65-9415-36d899af2286","system_id":"levelo_inurba_marseille","lat":43.25925,"lon":5.40848,"is_reserved":false,"is_disabled":false,"rental_uris":{"android":"levelo://app?vid=de4bec27-297c-4e65-9415-36d899af2286","ios":"levelo://app?vid=de4bec27-297c-4e65-9415-36d899af2286"},"vehicle_type_id":"4","last_reported":1760897586,"current_range_meters":12000,"station_id":"ce4bhm92rcd13ifvqglg","pricing_plan_id":"cebpf4jnsgd1na2vs0mg"},{"bike_id":"676d88a8-f06e-4192-886d-e52926318b91","system_id":"levelo_inurba_marseille","lat":43.21186,"lon":5.35086,"is_reserved":false,"is_disabled":false,"rental_uris":{"android":"levelo://app?vid=676d88a8-f06e-4192-886d-e52926318b91","ios":"levelo://app?vid=676d88a8-f06e-4192-886d-e52926318b91"},"vehicle_type_id":"4","last_reported":1760897586,"current_range_meters":12000,"station_id":"st_cvj6sg6p6f1abm77japg","pricing_plan_id":"cebpf4jnsgd1na2vs0mg"},{"bike_id":"8cd818e3-a9e2-4f48-92b2-26306f507696","system_id":"levelo_inurba_marseille","lat":43.31349,"lon":5.37913,"is_reserved":false,"is_disabled":false,"rental_uris":{"android":"levelo://app?vid=8cd818e3-a9e2-4f48-92b2-26306f507696","ios":"levelo://app?vid=8cd818e3-a9e2-4f48-92b2-26306f507696"},"vehicle_type_id":"4","last_reported":1760897586,"current_range_meters":12000,"station_id":"","pricing_plan_id":"cebpf4jnsgd1na2vs0mg"},{"bike_id":"1eb4dcf2-197d-46a1-91ef-57137ac9e2dd","system_id":"levelo_inurba_marseille","lat":43.28688,"lon":5.3998,"is_reserved":false,"is_disabled":false,"rental_uris":{"android":"levelo://app?vid=1eb4dcf2-197d-46a1-91ef-57137ac9e2dd","ios":"levelo://app?vid=1eb4dcf2-197d-46a1-91ef-57137ac9e2dd"},"vehicle_type_id":"4","last_reported":1760897586,"current_range_meters":12000,"station_id":"ce4bho92rcd13ifvqh3g","pricing_plan_id":"cebpf4jnsgd1na2vs0mg"},{"bike_id":"22314047-2734-41a2-bd16-51f935a16a26","system_id":"levelo_inurba_marseille","lat":43.30265,"lon":5.40049,"is_reserved":false,"is_disabled":false,"rental_uris":{"android":"levelo://app?vid=22314047-2734-41a2-bd16-51f935a16a26","ios":"levelo://app?vid=22314047-2734-41a2-bd16-51f935a16a26"},"vehicle_type_id":"4","last_reported":1760897586,"current_range_meters":12000,"station_id":"ce4bgvh2rcd13ifvqcs0","pricing_plan_id":"cebpf4jnsgd1na2vs0mg"},{"bike_id":"f543f00a-16cf-445f-958b-9584c017dec8","system_id":"levelo_inurba_marseille","lat":43.279053,"lon":5.380142,"is_reserved":false,"is_disabled":false,"rental_uris":{"android":"levelo://app?vid=f543f00a-16cf-445f-958b-9584c017dec8","ios":"levelo://app?vid=f543f00a-16cf-445f-958b-9584c017dec8"},"vehicle_type_id":"4","last_reported":1760897586,"current_range_meters":12000,"station_id":"ce4bhf92rcd13ifvqf50","pricing_plan_id":"cebpf4jnsgd1na2vs0mg"},{"bike_id":"778ccbfb-369b-40e2-98f2-f17901dc7e11","system_id":"levelo_inurba_marseille","lat":43.284235,"lon":5.349869,"is_reserved":false,"is_disabled":true,"rental_uris":{"android":"levelo://app?vid=778ccbfb-369b-40e2-98f2-f17901dc7e11","ios":"levelo://app?vid=778ccbfb-369b-40e2-98f2-f17901dc7e11"},"vehicle_type_id":"4","last_reported":1760897586,"current_range_meters":12000,"station_id":"ce4bhbh2rcd13ifvqepg","pricing_plan_id":"cebpf4jnsgd1na2vs0mg"},{"bike_id":"aa66ca81-902d-40e0-b95d-18e1d51d8ccb","system_id":"levelo_inurba_marseille","lat":43.29193,"lon":5.39314,"is_reserved":false,"is_disabled":false,"rental_uris":{"android":"levelo://app?vid=aa66ca81-902d-40e0-b95d-18e1d51d8ccb","ios":"levelo://app?vid=aa66ca81-902d-40e0-b95d-18e1d51d8ccb"},"vehicle_type_id":"4","last_reported":1760897586,"current_range_meters":12000,"station_id":"ce4bh192rcd13ifvqdd0","pricing_plan_id":"cebpf4jnsgd1na2vs0mg"},{"bike_id":"c22e92c8-3fe0-4c56-ab21-210e12f7f0b4","system_id":"levelo_inurba_marseille","lat":43.319481,"lon":5.415337,"is_reserved":false,"is_disabled":false,"rental_uris":{"android":"levelo://app?vid=c22e92c8-3fe0-4c56-ab21-210e12f7f0b4","ios":"levelo://app?vid=c22e92c8-3fe0-4c56-ab21-210e12f7f0b4"},"vehicle_type_id":"4","last_reported":1760897586,"current_range_meters":12400,"station_id":"","pricing_plan_id":"cebpf4jnsgd1na2vs0mg"},{"bike_id":"45bafe17-4438-496e-8895-26917f85a768","system_id":"levelo_inurba_marseille","lat":43.29599,"lon":5.38109,"is_reserved":false,"is_disabled":false,"rental_uris":{"android":"levelo://app?vid=45bafe17-4438-496e-8895-26917f85a768","ios":"levelo://app?vid=45bafe17-4438-496e-8895-26917f85a768"},"vehicle_type_id":"4","last_reported":1760897586,"current_range_meters":12400,"station_id":"ce4bgl12rcd13ifvqbo0","pricing_plan_id":"cebpf4jnsgd1na2vs0mg"},{"bike_id":"1c6900b1-8bbb-4b21-85db-520d26802f21","system_id":"levelo_inurba_marseille","lat":43.30784,"lon":5.37644,"is_reserved":false,"is_disabled":false,"rental_uris":{"android":"levelo://app?vid=1c6900b1-8bbb-4b21-85db-520d26802f21","ios":"levelo://app?vid=1c6900b1-8bbb-4b21-85db-520d26802f21"},"vehicle_type_id":"4","last_reported":1760897586,"current_range_meters":12400,"station_id":"ce4bgv92rcd13ifvqcq0","pricing_plan_id":"cebpf4jnsgd1na2vs0mg"},{"bike_id":"44bf323c-252e-4119-820e-507dee8c378c","system_id":"levelo_inurba_marseille","lat":43.259557,"lon":5.413753,"is_reserved":false,"is_disabled":false,"rental_uris":{"android":"levelo://app?vid=44bf323c-252e-4119-820e-507dee8c378c","ios":"levelo://app?vid=44bf323c-252e-4119-820e-507dee8c378c"},"vehicle_type_id":"4","last_reported":1760897586,"current_range_meters":12400,"station_id":"","pricing_plan_id":"cebpf4jnsgd1na2vs0mg"},{"bike_id":"0f135457-4db8-4bf9-90ac-c9047599a24b","system_id":"levelo_inurba_marseille","lat":43.30329,"lon":5.40434,"is_reserved":false,"is_disabled":false,"rental_uris":{"android":"levelo://app?vid=0f135457-4db8-4bf9-90ac-c9047599a24b","ios":"levelo://app?vid=0f135457-4db8-4bf9-90ac-c9047599a24b"},"vehicle_type_id":"4","last_reported":1760897586,"current_range_meters":12400,"station_id":"ce4bh012rcd13ifvqd10","pricing_plan_id":"cebpf4jnsgd1na2vs0mg"},{"bike_id":"0f787efd-37ca-4060-a03d-15d3c3ce389f","system_id":"levelo_inurba_marseille","lat":43.29997,"lon":5.37352,"is_reserved":false,"is_disabled":false,"rental_uris":{"android":"levelo://app?vid=0f787efd-37ca-4060-a03d-15d3c3ce389f","ios":"levelo://app?vid=0f787efd-37ca-4060-a03d-15d3c3ce389f"},"vehicle_type_id":"4","last_reported":1760897586,"current_range_meters":12400,"station_id":"","pricing_plan_id":"cebpf4jnsgd1na2vs0mg"},{"bike_id":"38cf1609-41b8-43e3-84f6-8fa7780b47f0","system_id":"levelo_inurba_marseille","lat":43.34143,"lon":5.40906,"is_reserved":false,"is_disabled":false,"rental_uris":{"android":"levelo://app?vid=38cf1609-41b8-43e3-84f6-8fa7780b47f0","ios":"levelo://app?vid=38cf1609-41b8-43e3-84f6-8fa7780b47f0"},"vehicle_type_id":"4","last_reported":1760897586,"current_range_meters":12800,"station_id":"ce4bhqh2rcd13ifvqhlg","pricing_plan_id":"cebpf4jnsgd1na2vs0mg"},{"bike_id":"23cf98d2-7c2e-4dc7-a839-3fa430d0a479","system_id":"levelo_inurba_marseille","lat":43.24951,"lon":5.40491,"is_reserved":false,"is_disabled":false,"rental_uris":{"android":"levelo://app?vid=23cf98d2-7c2e-4dc7-a839-3fa430d0a479","ios":"levelo://app?vid=23cf98d2-7c2e-4dc7-a839-3fa430d0a479"},"vehicle_type_id":"4","last_reported":1760897586,"current_range_meters":12800,"station_id":"st_d2ngiaodas8pm72gd1h0","pricing_plan_id":"cebpf4jnsgd1na2vs0mg"},{"bike_id":"7fd36eea-805d-4dce-89b5-46f277eaf158","system_id":"levelo_inurba_marseille","lat":43.305097,"lon":5.366695,"is_reserved":false,"is_disabled":false,"rental_uris":{"android":"levelo://app?vid=7fd36eea-805d-4dce-89b5-46f277eaf158","ios":"levelo://app?vid=7fd36eea-805d-4dce-89b5-46f277eaf158"},"vehicle_type_id":"4","last_reported":1760897586,"current_range_meters":12800,"station_id":"","pricing_plan_id":"cebpf4jnsgd1na2vs0mg"},{"bike_id":"f4dddbe2-bf18-4114-a448-7d21826cd03a","system_id":"levelo_inurba_marseille","lat":43.29987,"lon":5.38497,"is_reserved":false,"is_disabled":false,"rental_uris":{"android":"levelo://app?vid=f4dddbe2-bf18-4114-a448-7d21826cd03a","ios":"levelo://app?vid=f4dddbe2-bf18-4114-a448-7d21826cd03a"},"vehicle_type_id":"4","last_reported":1760897586,"current_range_meters":12800,"station_id":"ce4bgj92rcd13ifvqbd0","pricing_plan_id":"cebpf4jnsgd1na2vs0mg"},{"bike_id":"7a8ac50b-c3a4-490a-8f96-9c005f89ed5d","system_id":"levelo_inurba_marseille","lat":43.26521,"lon":5.39049,"is_reserved":false,"is_disabled":false,"rental_uris":{"android":"levelo://app?vid=7a8ac50b-c3a4-490a-8f96-9c005f89ed5d","ios":"levelo://app?vid=7a8ac50b-c3a4-490a-8f96-9c005f89ed5d"},"vehicle_type_id":"4","last_reported":1760897586,"current_range_meters":13600,"station_id":"","pricing_plan_id":"cebpf4jnsgd1na2vs0mg"},{"bike_id":"6f5458d3-9f2a-47d5-b18c-590daf6a6f7f","system_id":"levelo_inurba_marseille","lat":43.291288,"lon":5.358158,"is_reserved":false,"is_disabled":true,"rental_uris":{"android":"levelo://app?vid=6f5458d3-9f2a-47d5-b18c-590daf6a6f7f","ios":"levelo://app?vid=6f5458d3-9f2a-47d5-b18c-590daf6a6f7f"},"vehicle_type_id":"4","last_reported":1760897586,"current_range_meters":13600,"station_id":"","pricing_plan_id":"cebpf4jnsgd1na2vs0mg"},{"bike_id":"6c065587-f970-4c8d-a529-1ea57f0b7dae","system_id":"levelo_inurba_marseille","lat":43.23184,"lon":5.3556,"is_reserved":false,"is_disabled":false,"rental_uris":{"android":"levelo://app?vid=6c065587-f970-4c8d-a529-1ea57f0b7dae","ios":"levelo://app?vid=6c065587-f970-4c8d-a529-1ea57f0b7dae"},"vehicle_type_id":"4","last_reported":1760897586,"current_range_meters":13600,"station_id":"ce4bhu92rcd13ifvqi70","pricing_plan_id":"cebpf4jnsgd1na2vs0mg"},{"bike_id":"679c3c1f-72e8-4456-b0d9-4c2ad9c70dd9","system_id":"levelo_inurba_marseille","lat":43.211953,"lon":5.350788,"is_reserved":false,"is_disabled":false,"rental_uris":{"android":"levelo://app?vid=679c3c1f-72e8-4456-b0d9-4c2ad9c70dd9","ios":"levelo://app?vid=679c3c1f-72e8-4456-b0d9-4c2ad9c70dd9"},"vehicle_type_id":"4","last_reported":1760897586,"current_range_meters":13600,"station_id":"st_cvj6sg6p6f1abm77japg","pricing_plan_id":"cebpf4jnsgd1na2vs0mg"},{"bike_id":"6fa9c6dd-20e7-4d05-bf8c-388116fd8eb1","system_id":"levelo_inurba_marseille","lat":43.2952,"lon":5.38542,"is_reserved":false,"is_disabled":false,"rental_uris":{"android":"levelo://app?vid=6fa9c6dd-20e7-4d05-bf8c-388116fd8eb1","ios":"levelo://app?vid=6fa9c6dd-20e7-4d05-bf8c-388116fd8eb1"},"vehicle_type_id":"4","last_reported":1760897586,"current_range_meters":13600,"station_id":"ce4bgih2rcd13ifvqba0","pricing_plan_id":"cebpf4jnsgd1na2vs0mg"},{"bike_id":"e015a312-f4e2-4fa5-962c-4dc7593461dd","system_id":"levelo_inurba_marseille","lat":43.27377,"lon":5.36251,"is_reserved":false,"is_disabled":false,"rental_uris":{"android":"levelo://app?vid=e015a312-f4e2-4fa5-962c-4dc7593461dd","ios":"levelo://app?vid=e015a312-f4e2-4fa5-962c-4dc7593461dd"},"vehicle_type_id":"4","last_reported":1760897586,"current_range_meters":13600,"station_id":"","pricing_plan_id":"cebpf4jnsgd1na2vs0mg"},{"bike_id":"0a950a0d-01ce-40b2-be0e-ad7894fd72f2","system_id":"levelo_inurba_marseille","lat":43.32091,"lon":5.3677,"is_reserved":false,"is_disabled":true,"rental_uris":{"android":"levelo://app?vid=0a950a0d-01ce-40b2-be0e-ad7894fd72f2","ios":"levelo://app?vid=0a950a0d-01ce-40b2-be0e-ad7894fd72f2"},"vehicle_type_id":"4","last_reported":1760897586,"current_range_meters":13600,"station_id":"ce4bhrh2rcd13ifvqhug","pricing_plan_id":"cebpf4jnsgd1na2vs0mg"},{"bike_id":"9652283e-21f4-4490-ac9e-ffa9429f0005","system_id":"levelo_inurba_marseille","lat":43.28999,"lon":5.40392,"is_reserved":false,"is_disabled":false,"rental_uris":{"android":"levelo://app?vid=9652283e-21f4-4490-ac9e-ffa9429f0005","ios":"levelo://app?vid=9652283e-21f4-4490-ac9e-ffa9429f0005"},"vehicle_type_id":"4","last_reported":1760897586,"current_range_meters":13600,"station_id":"","pricing_plan_id":"cebpf4jnsgd1na2vs0mg"},{"bike_id":"d1668fd5-d05d-42a9-b5d1-4388db8ac6a3","system_id":"levelo_inurba_marseille","lat":43.31764,"lon":5.39029,"is_reserved":false,"is_disabled":false,"rental_uris":{"android":"levelo://app?vid=d1668fd5-d05d-42a9-b5d1-4388db8ac6a3","ios":"levelo://app?vid=d1668fd5-d05d-42a9-b5d1-4388db8ac6a3"},"vehicle_type_id":"4","last_reported":1760897586,"current_range_meters":13600,"station_id":"ce4bhqp2rcd13ifvqhng","pricing_plan_id":"cebpf4jnsgd1na2vs0mg"},{"bike_id":"fe932639-62c3-46db-92a3-393a6fac7a0b","system_id":"levelo_inurba_marseille","lat":43.28113,"lon":5.37839,"is_reserved":false,"is_disabled":false,"rental_uris":{"android":"levelo://app?vid=fe932639-62c3-46db-92a3-393a6fac7a0b","ios":"levelo://app?vid=fe932639-62c3-46db-92a3-393a6fac7a0b"},"vehicle_type_id":"4","last_reported":1760897586,"current_range_meters":13600,"station_id":"ce4bha12rcd13ifvqee0","pricing_plan_id":"cebpf4jnsgd1na2vs0mg"},{"bike_id":"d7c2ff2d-80c2-4bd2-8a3e-d2125ee8c463","system_id":"levelo_inurba_marseille","lat":43.25103,"lon":5.40333,"is_reserved":false,"is_disabled":false,"rental_uris":{"android":"levelo://app?vid=d7c2ff2d-80c2-4bd2-8a3e-d2125ee8c463","ios":"levelo://app?vid=d7c2ff2d-80c2-4bd2-8a3e-d2125ee8c463"},"vehicle_type_id":"4","last_reported":1760897586,"current_range_meters":13600,"station_id":"ce4bhlh2rcd13ifvqgig","pricing_plan_id":"cebpf4jnsgd1na2vs0mg"},{"bike_id":"703401b8-e576-4a54-9b9d-4e5804912d35","system_id":"levelo_inurba_marseille","lat":43.23958,"lon":5.36641,"is_reserved":false,"is_disabled":false,"rental_uris":{"android":"levelo://app?vid=703401b8-e576-4a54-9b9d-4e5804912d35","ios":"levelo://app?vid=703401b8-e576-4a54-9b9d-4e5804912d35"},"vehicle_type_id":"4","last_reported":1760897586,"current_range_meters":14000,"station_id":"ce4bhi12rcd13ifvqfp0","pricing_plan_id":"cebpf4jnsgd1na2vs0mg"},{"bike_id":"2cb42842-4b5a-46af-b5f4-86e668950671","system_id":"levelo_inurba_marseille","lat":43.302856,"lon":5.400566,"is_reserved":false,"is_disabled":false,"rental_uris":{"android":"levelo://app?vid=2cb42842-4b5a-46af-b5f4-86e668950671","ios":"levelo://app?vid=2cb42842-4b5a-46af-b5f4-86e668950671"},"vehicle_type_id":"4","last_reported":1760897586,"current_range_meters":14000,"station_id":"ce4bgvh2rcd13ifvqcs0","pricing_plan_id":"cebpf4jnsgd1na2vs0mg"},{"bike_id":"11ec9e57-dc7c-425d-b02d-3a2848b35c28","system_id":"levelo_inurba_marseille","lat":43.28935,"lon":5.39633,"is_reserved":false,"is_disabled":false,"rental_uris":{"android":"levelo://app?vid=11ec9e57-dc7c-425d-b02d-3a2848b35c28","ios":"levelo://app?vid=11ec9e57-dc7c-425d-b02d-3a2848b35c28"},"vehicle_type_id":"4","last_reported":1760897586,"current_range_meters":14000,"station_id":"ce4bh3h2rcd13ifvqdn0","pricing_plan_id":"cebpf4jnsgd1na2vs0mg"},{"bike_id":"54e865c6-7f5d-4146-940c-785799296be3","system_id":"levelo_inurba_marseille","lat":43.28719,"lon":5.36086,"is_reserved":false,"is_disabled":false,"rental_uris":{"android":"levelo://app?vid=54e865c6-7f5d-4146-940c-785799296be3","ios":"levelo://app?vid=54e865c6-7f5d-4146-940c-785799296be3"},"vehicle_type_id":"4","last_reported":1760897586,"current_range_meters":14000,"station_id":"cki0cbj6b192h4jlfktg","pricing_plan_id":"cebpf4jnsgd1na2vs0mg"},{"bike_id":"b3d737bf-7b7c-4c18-b56f-57a16bdf0746","system_id":"levelo_inurba_marseille","lat":43.301426,"lon":5.374056,"is_reserved":false,"is_disabled":false,"rental_uris":{"android":"levelo://app?vid=b3d737bf-7b7c-4c18-b56f-57a16bdf0746","ios":"levelo://app?vid=b3d737bf-7b7c-4c18-b56f-57a16bdf0746"},"vehicle_type_id":"4","last_reported":1760897586,"current_range_meters":14000,"station_id":"ce4bgs92rcd13ifvqcc0","pricing_plan_id":"cebpf4jnsgd1na2vs0mg"},{"bike_id":"a5c644b1-0b92-4745-9d09-ddc428fc751e","system_id":"levelo_inurba_marseille","lat":43.29617,"lon":5.37151,"is_reserved":false,"is_disabled":false,"rental_uris":{"android":"levelo://app?vid=a5c644b1-0b92-4745-9d09-ddc428fc751e","ios":"levelo://app?vid=a5c644b1-0b92-4745-9d09-ddc428fc751e"},"vehicle_type_id":"4","last_reported":1760897586,"current_range_meters":14400,"station_id":"ce4bgnh2rcd13ifvqc0g","pricing_plan_id":"cebpf4jnsgd1na2vs0mg"},{"bike_id":"2661caeb-c1dd-4c13-b88b-12acc9c01335","system_id":"levelo_inurba_marseille","lat":43.32369,"lon":5.3887,"is_reserved":false,"is_disabled":false,"rental_uris":{"android":"levelo://app?vid=2661caeb-c1dd-4c13-b88b-12acc9c01335","ios":"levelo://app?vid=2661caeb-c1dd-4c13-b88b-12acc9c01335"},"vehicle_type_id":"4","last_reported":1760897586,"current_range_meters":14400,"station_id":"ce4bhqp2rcd13ifvqhog","pricing_plan_id":"cebpf4jnsgd1na2vs0mg"},{"bike_id":"62f27eb7-c7be-49c3-a52e-6b1bedc8587c","system_id":"levelo_inurba_marseille","lat":43.29269,"lon":5.38457,"is_reserved":false,"is_disabled":true,"rental_uris":{"android":"levelo://app?vid=62f27eb7-c7be-49c3-a52e-6b1bedc8587c","ios":"levelo://app?vid=62f27eb7-c7be-49c3-a52e-6b1bedc8587c"},"vehicle_type_id":"4","last_reported":1760897586,"current_range_meters":14400,"station_id":"ce4bh692rcd13ifvqea0","pricing_plan_id":"cebpf4jnsgd1na2vs0mg"},{"bike_id":"b4257610-1429-4239-9645-cdbcaaae6132","system_id":"levelo_inurba_marseille","lat":43.29058,"lon":5.37149,"is_reserved":false,"is_disabled":false,"rental_uris":{"android":"levelo://app?vid=b4257610-1429-4239-9645-cdbcaaae6132","ios":"levelo://app?vid=b4257610-1429-4239-9645-cdbcaaae6132"},"vehicle_type_id":"4","last_reported":1760897586,"current_range_meters":14400,"station_id":"ce4bh5p2rcd13ifvqe4g","pricing_plan_id":"cebpf4jnsgd1na2vs0mg"},{"bike_id":"4bbd6801-e86f-4670-a08c-5a08e1dabb92","system_id":"levelo_inurba_marseille","lat":43.29217,"lon":5.38085,"is_reserved":false,"is_disabled":false,"rental_uris":{"android":"levelo://app?vid=4bbd6801-e86f-4670-a08c-5a08e1dabb92","ios":"levelo://app?vid=4bbd6801-e86f-4670-a08c-5a08e1dabb92"},"vehicle_type_id":"4","last_reported":1760897586,"current_range_meters":14400,"station_id":"","pricing_plan_id":"cebpf4jnsgd1na2vs0mg"},{"bike_id":"f3efa22c-2579-4853-893c-124b5973ae90","system_id":"levelo_inurba_marseille","lat":43.30786,"lon":5.37648,"is_reserved":false,"is_disabled":false,"rental_uris":{"android":"levelo://app?vid=f3efa22c-2579-4853-893c-124b5973ae90","ios":"levelo://app?vid=f3efa22c-2579-4853-893c-124b5973ae90"},"vehicle_type_id":"4","last_reported":1760897586,"current_range_meters":14400,"station_id":"ce4bgv92rcd13ifvqcq0","pricing_plan_id":"cebpf4jnsgd1na2vs0mg"},{"bike_id":"4cd7f0e3-19cf-4577-aad7-3fd3b301cddf","system_id":"levelo_inurba_marseille","lat":43.31217,"lon":5.36886,"is_reserved":false,"is_disabled":false,"rental_uris":{"android":"levelo://app?vid=4cd7f0e3-19cf-4577-aad7-3fd3b301cddf","ios":"levelo://app?vid=4cd7f0e3-19cf-4577-aad7-3fd3b301cddf"},"vehicle_type_id":"4","last_reported":1760897586,"current_range_meters":14800,"station_id":"ce4bgl92rcd13ifvqbq0","pricing_plan_id":"cebpf4jnsgd1na2vs0mg"},{"bike_id":"6a46a288-2346-4f53-812a-065af653a6c3","system_id":"levelo_inurba_marseille","lat":43.290381,"lon":5.399757,"is_reserved":false,"is_disabled":false,"rental_uris":{"android":"levelo://app?vid=6a46a288-2346-4f53-812a-065af653a6c3","ios":"levelo://app?vid=6a46a288-2346-4f53-812a-065af653a6c3"},"vehicle_type_id":"4","last_reported":1760897586,"current_range_meters":14800,"station_id":"ce4bgj92rcd13ifvqbe0","pricing_plan_id":"cebpf4jnsgd1na2vs0mg"},{"bike_id":"5745a3e7-e75e-4201-9a9e-0cd15c9db81a","system_id":"levelo_inurba_marseille","lat":43.3095,"lon":5.39031,"is_reserved":false,"is_disabled":false,"rental_uris":{"android":"levelo://app?vid=5745a3e7-e75e-4201-9a9e-0cd15c9db81a","ios":"levelo://app?vid=5745a3e7-e75e-4201-9a9e-0cd15c9db81a"},"vehicle_type_id":"4","last_reported":1760897586,"current_range_meters":14800,"station_id":"ce4bgup2rcd13ifvqco0","pricing_plan_id":"cebpf4jnsgd1na2vs0mg"},{"bike_id":"f7f28c4c-51a6-4da6-a8bf-607b55f01fe5","system_id":"levelo_inurba_marseille","lat":43.25087,"lon":5.3952,"is_reserved":false,"is_disabled":false,"rental_uris":{"android":"levelo://app?vid=f7f28c4c-51a6-4da6-a8bf-607b55f01fe5","ios":"levelo://app?vid=f7f28c4c-51a6-4da6-a8bf-607b55f01fe5"},"vehicle_type_id":"4","last_reported":1760897586,"current_range_meters":14800,"station_id":"ce4bhm12rcd13ifvqgkg","pricing_plan_id":"cebpf4jnsgd1na2vs0mg"},{"bike_id":"5a35347d-1dbb-434c-8651-0148cd77cd1e","system_id":"levelo_inurba_marseille","lat":43.316718,"lon":5.389522,"is_reserved":false,"is_disabled":false,"rental_uris":{"android":"levelo://app?vid=5a35347d-1dbb-434c-8651-0148cd77cd1e","ios":"levelo://app?vid=5a35347d-1dbb-434c-8651-0148cd77cd1e"},"vehicle_type_id":"4","last_reported":1760897586,"current_range_meters":14800,"station_id":"","pricing_plan_id":"cebpf4jnsgd1na2vs0mg"},{"bike_id":"da22a6bb-ece8-4168-87fa-39fdca8adc0a","system_id":"levelo_inurba_marseille","lat":43.248064,"lon":5.374574,"is_reserved":false,"is_disabled":false,"rental_uris":{"android":"levelo://app?vid=da22a6bb-ece8-4168-87fa-39fdca8adc0a","ios":"levelo://app?vid=da22a6bb-ece8-4168-87fa-39fdca8adc0a"},"vehicle_type_id":"4","last_reported":1760897586,"current_range_meters":14800,"station_id":"ce4bhgh2rcd13ifvqfb0","pricing_plan_id":"cebpf4jnsgd1na2vs0mg"},{"bike_id":"fbf45233-5b2e-47b2-8f6d-b078fe72be0d","system_id":"levelo_inurba_marseille","lat":43.298121,"lon":5.440671,"is_reserved":false,"is_disabled":false,"rental_uris":{"android":"levelo://app?vid=fbf45233-5b2e-47b2-8f6d-b078fe72be0d","ios":"levelo://app?vid=fbf45233-5b2e-47b2-8f6d-b078fe72be0d"},"vehicle_type_id":"4","last_reported":1760897586,"current_range_meters":15200,"station_id":"","pricing_plan_id":"cebpf4jnsgd1na2vs0mg"},{"bike_id":"4ca1a358-8c1c-4f7e-9010-0b012c65e17b","system_id":"levelo_inurba_marseille","lat":43.28765,"lon":5.38508,"is_reserved":false,"is_disabled":false,"rental_uris":{"android":"levelo://app?vid=4ca1a358-8c1c-4f7e-9010-0b012c65e17b","ios":"levelo://app?vid=4ca1a358-8c1c-4f7e-9010-0b012c65e17b"},"vehicle_type_id":"4","last_reported":1760897586,"current_range_meters":15200,"station_id":"","pricing_plan_id":"cebpf4jnsgd1na2vs0mg"},{"bike_id":"9aa893ee-1807-4639-a1a7-1714b8f2dc9d","system_id":"levelo_inurba_marseille","lat":43.274936,"lon":5.42438,"is_reserved":false,"is_disabled":false,"rental_uris":{"android":"levelo://app?vid=9aa893ee-1807-4639-a1a7-1714b8f2dc9d","ios":"levelo://app?vid=9aa893ee-1807-4639-a1a7-1714b8f2dc9d"},"vehicle_type_id":"4","last_reported":1760897586,"current_range_meters":16000,"station_id":"ce4bhn92rcd13ifvqgrg","pricing_plan_id":"cebpf4jnsgd1na2vs0mg"},{"bike_id":"e66fe696-1fc0-49e9-a884-8cb640dc737a","system_id":"levelo_inurba_marseille","lat":43.30136,"lon":5.39882,"is_reserved":false,"is_disabled":true,"rental_uris":{"android":"levelo://app?vid=e66fe696-1fc0-49e9-a884-8cb640dc737a","ios":"levelo://app?vid=e66fe696-1fc0-49e9-a884-8cb640dc737a"},"vehicle_type_id":"4","last_reported":1760897586,"current_range_meters":16000,"station_id":"ce4bh0h2rcd13ifvqd40","pricing_plan_id":"cebpf4jnsgd1na2vs0mg"},{"bike_id":"c530e950-50a8-4b2f-81e6-a5f7e6f752e8","system_id":"levelo_inurba_marseille","lat":43.33759,"lon":5.37473,"is_reserved":false,"is_disabled":false,"rental_uris":{"android":"levelo://app?vid=c530e950-50a8-4b2f-81e6-a5f7e6f752e8","ios":"levelo://app?vid=c530e950-50a8-4b2f-81e6-a5f7e6f752e8"},"vehicle_type_id":"4","last_reported":1760897586,"current_range_meters":16000,"station_id":"","pricing_plan_id":"cebpf4jnsgd1na2vs0mg"},{"bike_id":"f9c8e874-f965-4f84-8f8c-9cbdb4518520","system_id":"levelo_inurba_marseille","lat":43.2465,"lon":5.38893,"is_reserved":false,"is_disabled":false,"rental_uris":{"android":"levelo://app?vid=f9c8e874-f965-4f84-8f8c-9cbdb4518520","ios":"levelo://app?vid=f9c8e874-f965-4f84-8f8c-9cbdb4518520"},"vehicle_type_id":"4","last_reported":1760897586,"current_range_meters":16000,"station_id":"ce4bhg12rcd13ifvqf60","pricing_plan_id":"cebpf4jnsgd1na2vs0mg"},{"bike_id":"551b071f-6296-4762-bf09-1f1114253086","system_id":"levelo_inurba_marseille","lat":43.29968,"lon":5.3718,"is_reserved":false,"is_disabled":true,"rental_uris":{"android":"levelo://app?vid=551b071f-6296-4762-bf09-1f1114253086","ios":"levelo://app?vid=551b071f-6296-4762-bf09-1f1114253086"},"vehicle_type_id":"4","last_reported":1760897586,"current_range_meters":16000,"station_id":"ce4bgr92rcd13ifvqc7g","pricing_plan_id":"cebpf4jnsgd1na2vs0mg"},{"bike_id":"ff583c36-00a4-4d50-bb61-be62254234cd","system_id":"levelo_inurba_marseille","lat":43.26786,"lon":5.39415,"is_reserved":false,"is_disabled":false,"rental_uris":{"android":"levelo://app?vid=ff583c36-00a4-4d50-bb61-be62254234cd","ios":"levelo://app?vid=ff583c36-00a4-4d50-bb61-be62254234cd"},"vehicle_type_id":"4","last_reported":1760897586,"current_range_meters":16000,"station_id":"ce4bhh12rcd13ifvqfg0","pricing_plan_id":"cebpf4jnsgd1na2vs0mg"},{"bike_id":"dfba2b1d-7203-40d7-90e5-17b2b5bce387","system_id":"levelo_inurba_marseille","lat":43.298982,"lon":5.381514,"is_reserved":false,"is_disabled":false,"rental_uris":{"android":"levelo://app?vid=dfba2b1d-7203-40d7-90e5-17b2b5bce387","ios":"levelo://app?vid=dfba2b1d-7203-40d7-90e5-17b2b5bce387"},"vehicle_type_id":"4","last_reported":1760897586,"current_range_meters":16000,"station_id":"ce4bgj12rcd13ifvqbc0","pricing_plan_id":"cebpf4jnsgd1na2vs0mg"},{"bike_id":"e88d9ed4-a202-4004-93fe-a9bb180e3643","system_id":"levelo_inurba_marseille","lat":43.295168,"lon":5.364152,"is_reserved":false,"is_disabled":false,"rental_uris":{"android":"levelo://app?vid=e88d9ed4-a202-4004-93fe-a9bb180e3643","ios":"levelo://app?vid=e88d9ed4-a202-4004-93fe-a9bb180e3643"},"vehicle_type_id":"4","last_reported":1760897586,"current_range_meters":16400,"station_id":"ce4bgm92rcd13ifvqbr0","pricing_plan_id":"cebpf4jnsgd1na2vs0mg"},{"bike_id":"a7f622a2-6ca5-44d3-8d46-aaf6c74ce817","system_id":"levelo_inurba_marseille","lat":43.3059,"lon":5.39359,"is_reserved":false,"is_disabled":false,"rental_uris":{"android":"levelo://app?vid=a7f622a2-6ca5-44d3-8d46-aaf6c74ce817","ios":"levelo://app?vid=a7f622a2-6ca5-44d3-8d46-aaf6c74ce817"},"vehicle_type_id":"4","last_reported":1760897586,"current_range_meters":16400,"station_id":"ce4bh0p2rcd13ifvqd80","pricing_plan_id":"cebpf4jnsgd1na2vs0mg"},{"bike_id":"b64f5a90-0c5f-4ae5-b1e4-8d412cb049d3","system_id":"levelo_inurba_marseille","lat":43.273575,"lon":5.415187,"is_reserved":false,"is_disabled":false,"rental_uris":{"android":"levelo://app?vid=b64f5a90-0c5f-4ae5-b1e4-8d412cb049d3","ios":"levelo://app?vid=b64f5a90-0c5f-4ae5-b1e4-8d412cb049d3"},"vehicle_type_id":"4","last_reported":1760897586,"current_range_meters":16400,"station_id":"","pricing_plan_id":"cebpf4jnsgd1na2vs0mg"},{"bike_id":"8f5b4e3f-d0c8-438b-955e-3fd6c08bc9d3","system_id":"levelo_inurba_marseille","lat":43.241704,"lon":5.36397,"is_reserved":false,"is_disabled":false,"rental_uris":{"android":"levelo://app?vid=8f5b4e3f-d0c8-438b-955e-3fd6c08bc9d3","ios":"levelo://app?vid=8f5b4e3f-d0c8-438b-955e-3fd6c08bc9d3"},"vehicle_type_id":"4","last_reported":1760897586,"current_range_meters":16400,"station_id":"cpo36qri1sfpv3e86is0","pricing_plan_id":"cebpf4jnsgd1na2vs0mg"},{"bike_id":"faf83fdc-d4d8-49e9-981d-f80ed57cdac5","system_id":"levelo_inurba_marseille","lat":43.298,"lon":5.39342,"is_reserved":false,"is_disabled":false,"rental_uris":{"android":"levelo://app?vid=faf83fdc-d4d8-49e9-981d-f80ed57cdac5","ios":"levelo://app?vid=faf83fdc-d4d8-49e9-981d-f80ed57cdac5"},"vehicle_type_id":"4","last_reported":1760897586,"current_range_meters":16400,"station_id":"chh1huq6cuj3fo74tm60","pricing_plan_id":"cebpf4jnsgd1na2vs0mg"},{"bike_id":"e343fae2-abdd-419f-add3-4252cf1a7c5a","system_id":"levelo_inurba_marseille","lat":43.30482,"lon":5.40078,"is_reserved":false,"is_disabled":false,"rental_uris":{"android":"levelo://app?vid=e343fae2-abdd-419f-add3-4252cf1a7c5a","ios":"levelo://app?vid=e343fae2-abdd-419f-add3-4252cf1a7c5a"},"vehicle_type_id":"4","last_reported":1760897586,"current_range_meters":16400,"station_id":"","pricing_plan_id":"cebpf4jnsgd1na2vs0mg"},{"bike_id":"4fd7871f-2852-42a2-85f5-19067502927c","system_id":"levelo_inurba_marseille","lat":43.28107,"lon":5.3784,"is_reserved":false,"is_disabled":false,"rental_uris":{"android":"levelo://app?vid=4fd7871f-2852-42a2-85f5-19067502927c","ios":"levelo://app?vid=4fd7871f-2852-42a2-85f5-19067502927c"},"vehicle_type_id":"4","last_reported":1760897586,"current_range_meters":16400,"station_id":"ce4bha12rcd13ifvqee0","pricing_plan_id":"cebpf4jnsgd1na2vs0mg"},{"bike_id":"f3503101-7882-4fd6-ac3d-70aefcd7e458","system_id":"levelo_inurba_marseille","lat":43.30886,"lon":5.37199,"is_reserved":false,"is_disabled":false,"rental_uris":{"android":"levelo://app?vid=f3503101-7882-4fd6-ac3d-70aefcd7e458","ios":"levelo://app?vid=f3503101-7882-4fd6-ac3d-70aefcd7e458"},"vehicle_type_id":"4","last_reported":1760897586,"current_range_meters":16400,"station_id":"ce4bguh2rcd13ifvqckg","pricing_plan_id":"cebpf4jnsgd1na2vs0mg"},{"bike_id":"9d93f482-0538-43c2-ad9c-29e39f36a436","system_id":"levelo_inurba_marseille","lat":43.28703,"lon":5.39981,"is_reserved":false,"is_disabled":false,"rental_uris":{"android":"levelo://app?vid=9d93f482-0538-43c2-ad9c-29e39f36a436","ios":"levelo://app?vid=9d93f482-0538-43c2-ad9c-29e39f36a436"},"vehicle_type_id":"4","last_reported":1760897586,"current_range_meters":16400,"station_id":"ce4bho92rcd13ifvqh3g","pricing_plan_id":"cebpf4jnsgd1na2vs0mg"},{"bike_id":"6d9392ed-1417-4737-be7f-20b2cefaa83e","system_id":"levelo_inurba_marseille","lat":43.28612,"lon":5.37066,"is_reserved":false,"is_disabled":true,"rental_uris":{"android":"levelo://app?vid=6d9392ed-1417-4737-be7f-20b2cefaa83e","ios":"levelo://app?vid=6d9392ed-1417-4737-be7f-20b2cefaa83e"},"vehicle_type_id":"4","last_reported":1760897586,"current_range_meters":16400,"station_id":"ce4bht12rcd13ifvqi60","pricing_plan_id":"cebpf4jnsgd1na2vs0mg"},{"bike_id":"ad9ff92d-a73f-4591-b6d4-bb3f850fa8bd","system_id":"levelo_inurba_marseille","lat":43.30923,"lon":5.40053,"is_reserved":false,"is_disabled":false,"rental_uris":{"android":"levelo://app?vid=ad9ff92d-a73f-4591-b6d4-bb3f850fa8bd","ios":"levelo://app?vid=ad9ff92d-a73f-4591-b6d4-bb3f850fa8bd"},"vehicle_type_id":"4","last_reported":1760897586,"current_range_meters":16400,"station_id":"","pricing_plan_id":"cebpf4jnsgd1na2vs0mg"},{"bike_id":"59aed43f-13a8-4014-b2c4-38bf40a4080c","system_id":"levelo_inurba_marseille","lat":43.26802,"lon":5.40294,"is_reserved":false,"is_disabled":true,"rental_uris":{"android":"levelo://app?vid=59aed43f-13a8-4014-b2c4-38bf40a4080c","ios":"levelo://app?vid=59aed43f-13a8-4014-b2c4-38bf40a4080c"},"vehicle_type_id":"4","last_reported":1760897586,"current_range_meters":16800,"station_id":"ce501612rcd8frsf0b60","pricing_plan_id":"cebpf4jnsgd1na2vs0mg"},{"bike_id":"b7ddea43-28dc-4fbe-a7ed-b00d6badff2a","system_id":"levelo_inurba_marseille","lat":43.29029,"lon":5.3755,"is_reserved":false,"is_disabled":true,"rental_uris":{"android":"levelo://app?vid=b7ddea43-28dc-4fbe-a7ed-b00d6badff2a","ios":"levelo://app?vid=b7ddea43-28dc-4fbe-a7ed-b00d6badff2a"},"vehicle_type_id":"4","last_reported":1760897586,"current_range_meters":16800,"station_id":"ce4bh692rcd13ifvqe90","pricing_plan_id":"cebpf4jnsgd1na2vs0mg"},{"bike_id":"0000b6d3-e83a-4149-90d5-c0999f573ff8","system_id":"levelo_inurba_marseille","lat":43.321058,"lon":5.367851,"is_reserved":false,"is_disabled":false,"rental_uris":{"android":"levelo://app?vid=0000b6d3-e83a-4149-90d5-c0999f573ff8","ios":"levelo://app?vid=0000b6d3-e83a-4149-90d5-c0999f573ff8"},"vehicle_type_id":"4","last_reported":1760897586,"current_range_meters":16800,"station_id":"ce4bhrh2rcd13ifvqhug","pricing_plan_id":"cebpf4jnsgd1na2vs0mg"},{"bike_id":"bb211116-29a7-4e48-93ed-d4ab1a1c4665","system_id":"levelo_inurba_marseille","lat":43.25944,"lon":5.40899,"is_reserved":false,"is_disabled":false,"rental_uris":{"android":"levelo://app?vid=bb211116-29a7-4e48-93ed-d4ab1a1c4665","ios":"levelo://app?vid=bb211116-29a7-4e48-93ed-d4ab1a1c4665"},"vehicle_type_id":"4","last_reported":1760897586,"current_range_meters":16800,"station_id":"ce4bhm92rcd13ifvqglg","pricing_plan_id":"cebpf4jnsgd1na2vs0mg"},{"bike_id":"348ab8cc-81cc-4702-b12d-7027572c1935","system_id":"levelo_inurba_marseille","lat":43.27379,"lon":5.36249,"is_reserved":false,"is_disabled":true,"rental_uris":{"android":"levelo://app?vid=348ab8cc-81cc-4702-b12d-7027572c1935","ios":"levelo://app?vid=348ab8cc-81cc-4702-b12d-7027572c1935"},"vehicle_type_id":"4","last_reported":1760897586,"current_range_meters":16800,"station_id":"ce4bhbh2rcd13ifvqeo0","pricing_plan_id":"cebpf4jnsgd1na2vs0mg"},{"bike_id":"a760002f-1daa-4500-8098-01bfc277af06","system_id":"levelo_inurba_marseille","lat":43.29597,"lon":5.38112,"is_reserved":false,"is_disabled":false,"rental_uris":{"android":"levelo://app?vid=a760002f-1daa-4500-8098-01bfc277af06","ios":"levelo://app?vid=a760002f-1daa-4500-8098-01bfc277af06"},"vehicle_type_id":"4","last_reported":1760897586,"current_range_meters":16800,"station_id":"ce4bgl12rcd13ifvqbo0","pricing_plan_id":"cebpf4jnsgd1na2vs0mg"},{"bike_id":"e39e93bb-e749-4aea-a741-a62275bee518","system_id":"levelo_inurba_marseille","lat":43.29261,"lon":5.38447,"is_reserved":false,"is_disabled":false,"rental_uris":{"android":"levelo://app?vid=e39e93bb-e749-4aea-a741-a62275bee518","ios":"levelo://app?vid=e39e93bb-e749-4aea-a741-a62275bee518"},"vehicle_type_id":"4","last_reported":1760897586,"current_range_meters":16800,"station_id":"ce4bh692rcd13ifvqea0","pricing_plan_id":"cebpf4jnsgd1na2vs0mg"},{"bike_id":"10d8f9b2-43ec-44c7-ac26-a2089e0bb2c8","system_id":"levelo_inurba_marseille","lat":43.24663,"lon":5.38157,"is_reserved":false,"is_disabled":false,"rental_uris":{"android":"levelo://app?vid=10d8f9b2-43ec-44c7-ac26-a2089e0bb2c8","ios":"levelo://app?vid=10d8f9b2-43ec-44c7-ac26-a2089e0bb2c8"},"vehicle_type_id":"4","last_reported":1760897586,"current_range_meters":16800,"station_id":"ce4bhih2rcd13ifvqfr0","pricing_plan_id":"cebpf4jnsgd1na2vs0mg"},{"bike_id":"dc410b44-38c3-4551-9af1-92aa39f91aec","system_id":"levelo_inurba_marseille","lat":43.28411,"lon":5.37512,"is_reserved":false,"is_disabled":false,"rental_uris":{"android":"levelo://app?vid=dc410b44-38c3-4551-9af1-92aa39f91aec","ios":"levelo://app?vid=dc410b44-38c3-4551-9af1-92aa39f91aec"},"vehicle_type_id":"4","last_reported":1760897586,"current_range_meters":16800,"station_id":"ce4bh412rcd13ifvqds0","pricing_plan_id":"cebpf4jnsgd1na2vs0mg"},{"bike_id":"f5ff96d6-ded9-4dc6-96f4-997a5f2d210e","system_id":"levelo_inurba_marseille","lat":43.27813,"lon":5.40709,"is_reserved":false,"is_disabled":false,"rental_uris":{"android":"levelo://app?vid=f5ff96d6-ded9-4dc6-96f4-997a5f2d210e","ios":"levelo://app?vid=f5ff96d6-ded9-4dc6-96f4-997a5f2d210e"},"vehicle_type_id":"4","last_reported":1760897586,"current_range_meters":17200,"station_id":"ce4bhnh2rcd13ifvqgtg","pricing_plan_id":"cebpf4jnsgd1na2vs0mg"},{"bike_id":"2236e871-d5a5-4988-a8c2-2a4c7bb2ba15","system_id":"levelo_inurba_marseille","lat":43.30543,"lon":5.3843,"is_reserved":false,"is_disabled":false,"rental_uris":{"android":"levelo://app?vid=2236e871-d5a5-4988-a8c2-2a4c7bb2ba15","ios":"levelo://app?vid=2236e871-d5a5-4988-a8c2-2a4c7bb2ba15"},"vehicle_type_id":"4","last_reported":1760897586,"current_range_meters":17200,"station_id":"ce4bgg92rcd13ifvqb30","pricing_plan_id":"cebpf4jnsgd1na2vs0mg"},{"bike_id":"d80a8315-5108-453f-a407-278f47d1bb18","system_id":"levelo_inurba_marseille","lat":43.2319,"lon":5.35566,"is_reserved":false,"is_disabled":false,"rental_uris":{"android":"levelo://app?vid=d80a8315-5108-453f-a407-278f47d1bb18","ios":"levelo://app?vid=d80a8315-5108-453f-a407-278f47d1bb18"},"vehicle_type_id":"4","last_reported":1760897586,"current_range_meters":17200,"station_id":"ce4bhu92rcd13ifvqi70","pricing_plan_id":"cebpf4jnsgd1na2vs0mg"},{"bike_id":"78fe83c7-5376-41e5-afa1-483e220954a6","system_id":"levelo_inurba_marseille","lat":43.29152,"lon":5.37091,"is_reserved":false,"is_disabled":false,"rental_uris":{"android":"levelo://app?vid=78fe83c7-5376-41e5-afa1-483e220954a6","ios":"levelo://app?vid=78fe83c7-5376-41e5-afa1-483e220954a6"},"vehicle_type_id":"4","last_reported":1760897586,"current_range_meters":17200,"station_id":"","pricing_plan_id":"cebpf4jnsgd1na2vs0mg"},{"bike_id":"f2b55ca7-bf59-4d73-b143-8391a150a32c","system_id":"levelo_inurba_marseille","lat":43.28985,"lon":5.37827,"is_reserved":false,"is_disabled":false,"rental_uris":{"android":"levelo://app?vid=f2b55ca7-bf59-4d73-b143-8391a150a32c","ios":"levelo://app?vid=f2b55ca7-bf59-4d73-b143-8391a150a32c"},"vehicle_type_id":"4","last_reported":1760897586,"current_range_meters":17200,"station_id":"ce4bh9p2rcd13ifvqed0","pricing_plan_id":"cebpf4jnsgd1na2vs0mg"},{"bike_id":"6e8ed827-a6f7-46f1-ad28-2f0468b71691","system_id":"levelo_inurba_marseille","lat":43.321,"lon":5.36786,"is_reserved":false,"is_disabled":true,"rental_uris":{"android":"levelo://app?vid=6e8ed827-a6f7-46f1-ad28-2f0468b71691","ios":"levelo://app?vid=6e8ed827-a6f7-46f1-ad28-2f0468b71691"},"vehicle_type_id":"4","last_reported":1760897586,"current_range_meters":17200,"station_id":"ce4bhrh2rcd13ifvqhug","pricing_plan_id":"cebpf4jnsgd1na2vs0mg"},{"bike_id":"c38d4779-18e1-43c4-a71d-5d81c3a33a62","system_id":"levelo_inurba_marseille","lat":43.2979,"lon":5.38101,"is_reserved":false,"is_disabled":true,"rental_uris":{"android":"levelo://app?vid=c38d4779-18e1-43c4-a71d-5d81c3a33a62","ios":"levelo://app?vid=c38d4779-18e1-43c4-a71d-5d81c3a33a62"},"vehicle_type_id":"4","last_reported":1760897586,"current_range_meters":17200,"station_id":"ce4bgip2rcd13ifvqbb0","pricing_plan_id":"cebpf4jnsgd1na2vs0mg"},{"bike_id":"909d1a0f-5535-4e0e-bef7-264d0b64c3ae","system_id":"levelo_inurba_marseille","lat":43.30238,"lon":5.40057,"is_reserved":false,"is_disabled":true,"rental_uris":{"android":"levelo://app?vid=909d1a0f-5535-4e0e-bef7-264d0b64c3ae","ios":"levelo://app?vid=909d1a0f-5535-4e0e-bef7-264d0b64c3ae"},"vehicle_type_id":"4","last_reported":1760897586,"current_range_meters":17600,"station_id":"ce4bgvh2rcd13ifvqcs0","pricing_plan_id":"cebpf4jnsgd1na2vs0mg"},{"bike_id":"4c75c86c-e723-424c-8e02-51c2dc13eae9","system_id":"levelo_inurba_marseille","lat":43.28696,"lon":5.39975,"is_reserved":false,"is_disabled":false,"rental_uris":{"android":"levelo://app?vid=4c75c86c-e723-424c-8e02-51c2dc13eae9","ios":"levelo://app?vid=4c75c86c-e723-424c-8e02-51c2dc13eae9"},"vehicle_type_id":"4","last_reported":1760897586,"current_range_meters":17600,"station_id":"ce4bho92rcd13ifvqh3g","pricing_plan_id":"cebpf4jnsgd1na2vs0mg"},{"bike_id":"d6318f9e-0184-4ff6-931a-ee0c5a28c2b7","system_id":"levelo_inurba_marseille","lat":43.23112,"lon":5.35582,"is_reserved":false,"is_disabled":false,"rental_uris":{"android":"levelo://app?vid=d6318f9e-0184-4ff6-931a-ee0c5a28c2b7","ios":"levelo://app?vid=d6318f9e-0184-4ff6-931a-ee0c5a28c2b7"},"vehicle_type_id":"4","last_reported":1760897586,"current_range_meters":17600,"station_id":"ce4bhu92rcd13ifvqi70","pricing_plan_id":"cebpf4jnsgd1na2vs0mg"},{"bike_id":"468a574e-5d33-49d9-a38d-bcd727157cca","system_id":"levelo_inurba_marseille","lat":43.29877,"lon":5.38903,"is_reserved":false,"is_disabled":false,"rental_uris":{"android":"levelo://app?vid=468a574e-5d33-49d9-a38d-bcd727157cca","ios":"levelo://app?vid=468a574e-5d33-49d9-a38d-bcd727157cca"},"vehicle_type_id":"4","last_reported":1760897586,"current_range_meters":17600,"station_id":"ce4bh392rcd13ifvqdl0","pricing_plan_id":"cebpf4jnsgd1na2vs0mg"},{"bike_id":"a470e1e9-0594-4b5c-9b26-2114268fb06d","system_id":"levelo_inurba_marseille","lat":43.29864,"lon":5.36291,"is_reserved":false,"is_disabled":true,"rental_uris":{"android":"levelo://app?vid=a470e1e9-0594-4b5c-9b26-2114268fb06d","ios":"levelo://app?vid=a470e1e9-0594-4b5c-9b26-2114268fb06d"},"vehicle_type_id":"4","last_reported":1760897586,"current_range_meters":17600,"station_id":"ce4bgpp2rcd13ifvqc3g","pricing_plan_id":"cebpf4jnsgd1na2vs0mg"},{"bike_id":"faa3e668-6719-4125-8206-72a0a37494c0","system_id":"levelo_inurba_marseille","lat":43.26932,"lon":5.4025,"is_reserved":false,"is_disabled":true,"rental_uris":{"android":"levelo://app?vid=faa3e668-6719-4125-8206-72a0a37494c0","ios":"levelo://app?vid=faa3e668-6719-4125-8206-72a0a37494c0"},"vehicle_type_id":"4","last_reported":1760897586,"current_range_meters":17600,"station_id":"cjm6bp8fraef2m0cb0m0","pricing_plan_id":"cebpf4jnsgd1na2vs0mg"},{"bike_id":"dc5f0855-4e05-4d2b-9e12-61a2cbf4643f","system_id":"levelo_inurba_marseille","lat":43.253057,"lon":5.40215,"is_reserved":false,"is_disabled":false,"rental_uris":{"android":"levelo://app?vid=dc5f0855-4e05-4d2b-9e12-61a2cbf4643f","ios":"levelo://app?vid=dc5f0855-4e05-4d2b-9e12-61a2cbf4643f"},"vehicle_type_id":"4","last_reported":1760897586,"current_range_meters":17600,"station_id":"ce4bhlh2rcd13ifvqgig","pricing_plan_id":"cebpf4jnsgd1na2vs0mg"},{"bike_id":"793bd619-12af-4bc1-a674-b70d86b415bd","system_id":"levelo_inurba_marseille","lat":43.331387,"lon":5.391298,"is_reserved":false,"is_disabled":false,"rental_uris":{"android":"levelo://app?vid=793bd619-12af-4bc1-a674-b70d86b415bd","ios":"levelo://app?vid=793bd619-12af-4bc1-a674-b70d86b415bd"},"vehicle_type_id":"4","last_reported":1760897586,"current_range_meters":17600,"station_id":"","pricing_plan_id":"cebpf4jnsgd1na2vs0mg"},{"bike_id":"2df613ee-cb5d-45b4-97b2-17091212e21b","system_id":"levelo_inurba_marseille","lat":43.320433,"lon":5.41561,"is_reserved":false,"is_disabled":false,"rental_uris":{"android":"levelo://app?vid=2df613ee-cb5d-45b4-97b2-17091212e21b","ios":"levelo://app?vid=2df613ee-cb5d-45b4-97b2-17091212e21b"},"vehicle_type_id":"4","last_reported":1760897586,"current_range_meters":17600,"station_id":"ce4bhq92rcd13ifvqhkg","pricing_plan_id":"cebpf4jnsgd1na2vs0mg"},{"bike_id":"3e5cf2f9-f1ab-45a9-899a-fc310b723421","system_id":"levelo_inurba_marseille","lat":43.270479,"lon":5.423196,"is_reserved":false,"is_disabled":false,"rental_uris":{"android":"levelo://app?vid=3e5cf2f9-f1ab-45a9-899a-fc310b723421","ios":"levelo://app?vid=3e5cf2f9-f1ab-45a9-899a-fc310b723421"},"vehicle_type_id":"4","last_reported":1760897586,"current_range_meters":17600,"station_id":"ce4bhk92rcd13ifvqgb0","pricing_plan_id":"cebpf4jnsgd1na2vs0mg"},{"bike_id":"6bcb6b62-d14f-4196-a106-f348f238b9c9","system_id":"levelo_inurba_marseille","lat":43.28152,"lon":5.42643,"is_reserved":false,"is_disabled":false,"rental_uris":{"android":"levelo://app?vid=6bcb6b62-d14f-4196-a106-f348f238b9c9","ios":"levelo://app?vid=6bcb6b62-d14f-4196-a106-f348f238b9c9"},"vehicle_type_id":"4","last_reported":1760897586,"current_range_meters":17600,"station_id":"ce4bhnh2rcd13ifvqgug","pricing_plan_id":"cebpf4jnsgd1na2vs0mg"},{"bike_id":"6e749a81-5b32-4f83-be54-446f2d8a3e2e","system_id":"levelo_inurba_marseille","lat":43.28423,"lon":5.34989,"is_reserved":false,"is_disabled":true,"rental_uris":{"android":"levelo://app?vid=6e749a81-5b32-4f83-be54-446f2d8a3e2e","ios":"levelo://app?vid=6e749a81-5b32-4f83-be54-446f2d8a3e2e"},"vehicle_type_id":"4","last_reported":1760897586,"current_range_meters":18000,"station_id":"ce4bhbh2rcd13ifvqepg","pricing_plan_id":"cebpf4jnsgd1na2vs0mg"},{"bike_id":"81fee18c-da25-4715-ae44-9f4e3a7b4702","system_id":"levelo_inurba_marseille","lat":43.28405,"lon":5.3495,"is_reserved":false,"is_disabled":false,"rental_uris":{"android":"levelo://app?vid=81fee18c-da25-4715-ae44-9f4e3a7b4702","ios":"levelo://app?vid=81fee18c-da25-4715-ae44-9f4e3a7b4702"},"vehicle_type_id":"4","last_reported":1760897586,"current_range_meters":18000,"station_id":"","pricing_plan_id":"cebpf4jnsgd1na2vs0mg"},{"bike_id":"5767cc7b-e609-46b6-a9f9-bb84446076db","system_id":"levelo_inurba_marseille","lat":43.28421,"lon":5.34992,"is_reserved":false,"is_disabled":true,"rental_uris":{"android":"levelo://app?vid=5767cc7b-e609-46b6-a9f9-bb84446076db","ios":"levelo://app?vid=5767cc7b-e609-46b6-a9f9-bb84446076db"},"vehicle_type_id":"4","last_reported":1760897586,"current_range_meters":18000,"station_id":"ce4bhbh2rcd13ifvqepg","pricing_plan_id":"cebpf4jnsgd1na2vs0mg"},{"bike_id":"44def8bb-fc22-46bb-a308-b8e670ec5dfd","system_id":"levelo_inurba_marseille","lat":43.30131,"lon":5.37428,"is_reserved":false,"is_disabled":true,"rental_uris":{"android":"levelo://app?vid=44def8bb-fc22-46bb-a308-b8e670ec5dfd","ios":"levelo://app?vid=44def8bb-fc22-46bb-a308-b8e670ec5dfd"},"vehicle_type_id":"4","last_reported":1760897586,"current_range_meters":18000,"station_id":"ce4bgs92rcd13ifvqcc0","pricing_plan_id":"cebpf4jnsgd1na2vs0mg"},{"bike_id":"9c105d16-acfb-498a-abfa-fa70eb502c28","system_id":"levelo_inurba_marseille","lat":43.28711,"lon":5.374,"is_reserved":false,"is_disabled":false,"rental_uris":{"android":"levelo://app?vid=9c105d16-acfb-498a-abfa-fa70eb502c28","ios":"levelo://app?vid=9c105d16-acfb-498a-abfa-fa70eb502c28"},"vehicle_type_id":"4","last_reported":1760897586,"current_range_meters":18000,"station_id":"ce4bh3p2rcd13ifvqdq0","pricing_plan_id":"cebpf4jnsgd1na2vs0mg"},{"bike_id":"fbcfed57-b4c5-419e-a267-5917b68d1c17","system_id":"levelo_inurba_marseille","lat":43.301341,"lon":5.398777,"is_reserved":false,"is_disabled":false,"rental_uris":{"android":"levelo://app?vid=fbcfed57-b4c5-419e-a267-5917b68d1c17","ios":"levelo://app?vid=fbcfed57-b4c5-419e-a267-5917b68d1c17"},"vehicle_type_id":"4","last_reported":1760897586,"current_range_meters":18000,"station_id":"ce4bh3p2rcd13ifvqdq0","pricing_plan_id":"cebpf4jnsgd1na2vs0mg"},{"bike_id":"cd4d510a-0b4d-4447-87eb-57f73626591f","system_id":"levelo_inurba_marseille","lat":43.28726,"lon":5.3609,"is_reserved":false,"is_disabled":false,"rental_uris":{"android":"levelo://app?vid=cd4d510a-0b4d-4447-87eb-57f73626591f","ios":"levelo://app?vid=cd4d510a-0b4d-4447-87eb-57f73626591f"},"vehicle_type_id":"4","last_reported":1760897586,"current_range_meters":18000,"station_id":"cki0cbj6b192h4jlfktg","pricing_plan_id":"cebpf4jnsgd1na2vs0mg"},{"bike_id":"06c84d1b-6e81-4ab2-ab43-e166647822bc","system_id":"levelo_inurba_marseille","lat":43.28939,"lon":5.3685,"is_reserved":false,"is_disabled":false,"rental_uris":{"android":"levelo://app?vid=06c84d1b-6e81-4ab2-ab43-e166647822bc","ios":"levelo://app?vid=06c84d1b-6e81-4ab2-ab43-e166647822bc"},"vehicle_type_id":"4","last_reported":1760897586,"current_range_meters":18800,"station_id":"","pricing_plan_id":"cebpf4jnsgd1na2vs0mg"},{"bike_id":"4396f30b-73df-41b8-9935-6653631e6251","system_id":"levelo_inurba_marseille","lat":43.28449,"lon":5.39204,"is_reserved":false,"is_disabled":false,"rental_uris":{"android":"levelo://app?vid=4396f30b-73df-41b8-9935-6653631e6251","ios":"levelo://app?vid=4396f30b-73df-41b8-9935-6653631e6251"},"vehicle_type_id":"4","last_reported":1760897586,"current_range_meters":18800,"station_id":"ce4bhoh2rcd13ifvqh5g","pricing_plan_id":"cebpf4jnsgd1na2vs0mg"},{"bike_id":"490c187a-0098-44bd-9010-902ebf6f6ea9","system_id":"levelo_inurba_marseille","lat":43.28272,"lon":5.35078,"is_reserved":false,"is_disabled":true,"rental_uris":{"android":"levelo://app?vid=490c187a-0098-44bd-9010-902ebf6f6ea9","ios":"levelo://app?vid=490c187a-0098-44bd-9010-902ebf6f6ea9"},"vehicle_type_id":"4","last_reported":1760897586,"current_range_meters":18800,"station_id":"ce4bhbp2rcd13ifvqerg","pricing_plan_id":"cebpf4jnsgd1na2vs0mg"},{"bike_id":"f5dd8c8f-f69d-4b71-a464-f99d6c377cce","system_id":"levelo_inurba_marseille","lat":43.29517,"lon":5.39048,"is_reserved":false,"is_disabled":false,"rental_uris":{"android":"levelo://app?vid=f5dd8c8f-f69d-4b71-a464-f99d6c377cce","ios":"levelo://app?vid=f5dd8c8f-f69d-4b71-a464-f99d6c377cce"},"vehicle_type_id":"4","last_reported":1760897586,"current_range_meters":18800,"station_id":"ce4bh3p2rcd13ifvqdp0","pricing_plan_id":"cebpf4jnsgd1na2vs0mg"},{"bike_id":"12759272-9ae9-4531-88bf-492c68a538d1","system_id":"levelo_inurba_marseille","lat":43.30546,"lon":5.38427,"is_reserved":false,"is_disabled":true,"rental_uris":{"android":"levelo://app?vid=12759272-9ae9-4531-88bf-492c68a538d1","ios":"levelo://app?vid=12759272-9ae9-4531-88bf-492c68a538d1"},"vehicle_type_id":"4","last_reported":1760897586,"current_range_meters":18800,"station_id":"ce4bgg92rcd13ifvqb30","pricing_plan_id":"cebpf4jnsgd1na2vs0mg"},{"bike_id":"8758806c-a775-4e20-b8bd-1fb9bd76f1c5","system_id":"levelo_inurba_marseille","lat":43.296666,"lon":5.387036,"is_reserved":false,"is_disabled":false,"rental_uris":{"android":"levelo://app?vid=8758806c-a775-4e20-b8bd-1fb9bd76f1c5","ios":"levelo://app?vid=8758806c-a775-4e20-b8bd-1fb9bd76f1c5"},"vehicle_type_id":"4","last_reported":1760897586,"current_range_meters":18800,"station_id":"","pricing_plan_id":"cebpf4jnsgd1na2vs0mg"},{"bike_id":"f1b8e04f-457e-461e-a0a7-0d512845fe50","system_id":"levelo_inurba_marseille","lat":43.33897,"lon":5.40689,"is_reserved":false,"is_disabled":false,"rental_uris":{"android":"levelo://app?vid=f1b8e04f-457e-461e-a0a7-0d512845fe50","ios":"levelo://app?vid=f1b8e04f-457e-461e-a0a7-0d512845fe50"},"vehicle_type_id":"4","last_reported":1760897586,"current_range_meters":18800,"station_id":"","pricing_plan_id":"cebpf4jnsgd1na2vs0mg"},{"bike_id":"af5d1707-a71a-4278-bc07-3fbb96bfaae0","system_id":"levelo_inurba_marseille","lat":43.31689,"lon":5.40478,"is_reserved":false,"is_disabled":false,"rental_uris":{"android":"levelo://app?vid=af5d1707-a71a-4278-bc07-3fbb96bfaae0","ios":"levelo://app?vid=af5d1707-a71a-4278-bc07-3fbb96bfaae0"},