{"last_updated":1773905940,"ttl":60,"version":"2.2","data":{"bikes":[{"bike_id":"868b6b1f-1ef3-42fb-aad3-5de824dd533d","system_id":"levelo_inurba_marseille","lat":43.27214,"lon":5.39187,"is_reserved":false,"is_disabled":false,"rental_uris":{"android":"levelo://app?vid=868b6b1f-1ef3-42fb-aad3-5de824dd533d","ios":"levelo://app?vid=868b6b1f-1ef3-42fb-aad3-5de824dd533d"},"vehicle_type_id":"4","last_reported":1773905941,"current_range_meters":2800,"station_id":"ce4bhhp2rcd13ifvqfm0","pricing_plan_id":"cebpf4jnsgd1na2vs0mg"},{"bike_id":"34f2f833-a5de-40d5-8f4d-0a2f83ae8f57","system_id":"levelo_inurba_marseille","lat":43.29231,"lon":5.36088,"is_reserved":false,"is_disabled":false,"rental_uris":{"android":"levelo://app?vid=34f2f833-a5de-40d5-8f4d-0a2f83ae8f57","ios":"levelo://app?vid=34f2f833-a5de-40d5-8f4d-0a2f83ae8f57"},"vehicle_type_id":"4","last_reported":1773905941,"current_range_meters":2800,"station_id":"ce4bhbh2rcd13ifvqeqg","pricing_plan_id":"cebpf4jnsgd1na2vs0mg"},{"bike_id":"f45d7712-3fd6-4c81-b832-9bf9f4621523","system_id":"levelo_inurba_marseille","lat":43.29618,"lon":5.37941,"is_reserved":false,"is_disabled":false,"rental_uris":{"android":"levelo://app?vid=f45d7712-3fd6-4c81-b832-9bf9f4621523","ios":"levelo://app?vid=f45d7712-3fd6-4c81-b832-9bf9f4621523"},"vehicle_type_id":"4","last_reported":1773905941,"current_range_meters":2800,"station_id":"","pricing_plan_id":"cebpf4jnsgd1na2vs0mg"},{"bike_id":"f7cad0dd-4929-454b-8848-7575c69435e1","system_id":"levelo_inurba_marseille","lat":43.25859,"lon":5.39901,"is_reserved":false,"is_disabled":true,"rental_uris":{"android":"levelo://app?vid=f7cad0dd-4929-454b-8848-7575c69435e1","ios":"levelo://app?vid=f7cad0dd-4929-454b-8848-7575c69435e1"},"vehicle_type_id":"4","last_reported":1773905941,"current_range_meters":2800,"station_id":"ce4bhl92rcd13ifvqghg","pricing_plan_id":"cebpf4jnsgd1na2vs0mg"},{"bike_id":"3206c205-26ee-44dd-92a5-e4e72860753f","system_id":"levelo_inurba_marseille","lat":43.30497,"lon":5.37952,"is_reserved":false,"is_disabled":false,"rental_uris":{"android":"levelo://app?vid=3206c205-26ee-44dd-92a5-e4e72860753f","ios":"levelo://app?vid=3206c205-26ee-44dd-92a5-e4e72860753f"},"vehicle_type_id":"4","last_reported":1773905941,"current_range_meters":2800,"station_id":"","pricing_plan_id":"cebpf4jnsgd1na2vs0mg"},{"bike_id":"e86a3546-f0dc-4b35-827f-9e1628b653d3","system_id":"levelo_inurba_marseille","lat":43.29722,"lon":5.36573,"is_reserved":false,"is_disabled":false,"rental_uris":{"android":"levelo://app?vid=e86a3546-f0dc-4b35-827f-9e1628b653d3","ios":"levelo://app?vid=e86a3546-f0dc-4b35-827f-9e1628b653d3"},"vehicle_type_id":"4","last_reported":1773905941,"current_range_meters":2800,"station_id":"","pricing_plan_id":"cebpf4jnsgd1na2vs0mg"},{"bike_id":"4f063170-64cb-4f5d-9cb6-c37fe1121ba7","system_id":"levelo_inurba_marseille","lat":43.32512,"lon":5.36576,"is_reserved":false,"is_disabled":false,"rental_uris":{"android":"levelo://app?vid=4f063170-64cb-4f5d-9cb6-c37fe1121ba7","ios":"levelo://app?vid=4f063170-64cb-4f5d-9cb6-c37fe1121ba7"},"vehicle_type_id":"4","last_reported":1773905941,"current_range_meters":2800,"station_id":"ce4bhs12rcd13ifvqhvg","pricing_plan_id":"cebpf4jnsgd1na2vs0mg"},{"bike_id":"e0d66154-72b7-4bdd-980a-af9bf9fd7239","system_id":"levelo_inurba_marseille","lat":43.31536,"lon":5.3804,"is_reserved":false,"is_disabled":false,"rental_uris":{"android":"levelo://app?vid=e0d66154-72b7-4bdd-980a-af9bf9fd7239","ios":"levelo://app?vid=e0d66154-72b7-4bdd-980a-af9bf9fd7239"},"vehicle_type_id":"4","last_reported":1773905941,"current_range_meters":2800,"station_id":"ce4bhsp2rcd13ifvqi50","pricing_plan_id":"cebpf4jnsgd1na2vs0mg"},{"bike_id":"3feb4c73-6e63-47f9-927f-446525b49f72","system_id":"levelo_inurba_marseille","lat":43.31891,"lon":5.3682,"is_reserved":false,"is_disabled":false,"rental_uris":{"android":"levelo://app?vid=3feb4c73-6e63-47f9-927f-446525b49f72","ios":"levelo://app?vid=3feb4c73-6e63-47f9-927f-446525b49f72"},"vehicle_type_id":"4","last_reported":1773905941,"current_range_meters":2800,"station_id":"st_d6o2h0d0559c73evc1b0","pricing_plan_id":"cebpf4jnsgd1na2vs0mg"},{"bike_id":"422c52ca-0f76-4fae-8f02-ab45dc8c524b","system_id":"levelo_inurba_marseille","lat":43.2973,"lon":5.37695,"is_reserved":false,"is_disabled":false,"rental_uris":{"android":"levelo://app?vid=422c52ca-0f76-4fae-8f02-ab45dc8c524b","ios":"levelo://app?vid=422c52ca-0f76-4fae-8f02-ab45dc8c524b"},"vehicle_type_id":"4","last_reported":1773905941,"current_range_meters":3200,"station_id":"ce4bgkh2rcd13ifvqbl0","pricing_plan_id":"cebpf4jnsgd1na2vs0mg"},{"bike_id":"27210af3-11d0-4433-b034-ad7d68690f23","system_id":"levelo_inurba_marseille","lat":43.2781,"lon":5.40712,"is_reserved":false,"is_disabled":false,"rental_uris":{"android":"levelo://app?vid=27210af3-11d0-4433-b034-ad7d68690f23","ios":"levelo://app?vid=27210af3-11d0-4433-b034-ad7d68690f23"},"vehicle_type_id":"4","last_reported":1773905941,"current_range_meters":3200,"station_id":"ce4bhnh2rcd13ifvqgtg","pricing_plan_id":"cebpf4jnsgd1na2vs0mg"},{"bike_id":"f75ebc4e-f853-4d2e-92fb-efbf753b5c17","system_id":"levelo_inurba_marseille","lat":43.29041,"lon":5.39955,"is_reserved":false,"is_disabled":false,"rental_uris":{"android":"levelo://app?vid=f75ebc4e-f853-4d2e-92fb-efbf753b5c17","ios":"levelo://app?vid=f75ebc4e-f853-4d2e-92fb-efbf753b5c17"},"vehicle_type_id":"4","last_reported":1773905941,"current_range_meters":3200,"station_id":"ce4bh392rcd13ifvqdm0","pricing_plan_id":"cebpf4jnsgd1na2vs0mg"},{"bike_id":"02bd53dc-3ddc-49c4-ac59-47730033b5ac","system_id":"levelo_inurba_marseille","lat":43.33596,"lon":5.41035,"is_reserved":false,"is_disabled":false,"rental_uris":{"android":"levelo://app?vid=02bd53dc-3ddc-49c4-ac59-47730033b5ac","ios":"levelo://app?vid=02bd53dc-3ddc-49c4-ac59-47730033b5ac"},"vehicle_type_id":"4","last_reported":1773905941,"current_range_meters":3200,"station_id":"ce4bhqh2rcd13ifvqhmg","pricing_plan_id":"cebpf4jnsgd1na2vs0mg"},{"bike_id":"b372e9b7-cab4-4a52-a098-286e2f1a8b02","system_id":"levelo_inurba_marseille","lat":43.29933,"lon":5.36521,"is_reserved":false,"is_disabled":false,"rental_uris":{"android":"levelo://app?vid=b372e9b7-cab4-4a52-a098-286e2f1a8b02","ios":"levelo://app?vid=b372e9b7-cab4-4a52-a098-286e2f1a8b02"},"vehicle_type_id":"4","last_reported":1773905941,"current_range_meters":3200,"station_id":"ce4bgm92rcd13ifvqbr0","pricing_plan_id":"cebpf4jnsgd1na2vs0mg"},{"bike_id":"e563383a-8a89-4304-b11f-18268886193e","system_id":"levelo_inurba_marseille","lat":43.25572,"lon":5.3824,"is_reserved":false,"is_disabled":false,"rental_uris":{"android":"levelo://app?vid=e563383a-8a89-4304-b11f-18268886193e","ios":"levelo://app?vid=e563383a-8a89-4304-b11f-18268886193e"},"vehicle_type_id":"4","last_reported":1773905941,"current_range_meters":3200,"station_id":"ce4bhih2rcd13ifvqfs0","pricing_plan_id":"cebpf4jnsgd1na2vs0mg"},{"bike_id":"032692c2-e8ca-40e7-9c05-3713e043006b","system_id":"levelo_inurba_marseille","lat":43.23894,"lon":5.37453,"is_reserved":false,"is_disabled":false,"rental_uris":{"android":"levelo://app?vid=032692c2-e8ca-40e7-9c05-3713e043006b","ios":"levelo://app?vid=032692c2-e8ca-40e7-9c05-3713e043006b"},"vehicle_type_id":"4","last_reported":1773905941,"current_range_meters":3200,"station_id":"st_d6sm7csbq4hs73f8fpjg","pricing_plan_id":"cebpf4jnsgd1na2vs0mg"},{"bike_id":"51130f5c-24e8-4dd0-80b8-58fa109ebc72","system_id":"levelo_inurba_marseille","lat":43.29701,"lon":5.36578,"is_reserved":false,"is_disabled":false,"rental_uris":{"android":"levelo://app?vid=51130f5c-24e8-4dd0-80b8-58fa109ebc72","ios":"levelo://app?vid=51130f5c-24e8-4dd0-80b8-58fa109ebc72"},"vehicle_type_id":"4","last_reported":1773905941,"current_range_meters":3200,"station_id":"","pricing_plan_id":"cebpf4jnsgd1na2vs0mg"},{"bike_id":"11f54238-2c62-445a-b9d5-08503e7a2cce","system_id":"levelo_inurba_marseille","lat":43.288615,"lon":5.358469,"is_reserved":false,"is_disabled":false,"rental_uris":{"android":"levelo://app?vid=11f54238-2c62-445a-b9d5-08503e7a2cce","ios":"levelo://app?vid=11f54238-2c62-445a-b9d5-08503e7a2cce"},"vehicle_type_id":"4","last_reported":1773905941,"current_range_meters":3200,"station_id":"ce4bhb12rcd13ifvqem0","pricing_plan_id":"cebpf4jnsgd1na2vs0mg"},{"bike_id":"4d008753-4ea3-4717-8159-19530f8068af","system_id":"levelo_inurba_marseille","lat":43.31366,"lon":5.38488,"is_reserved":false,"is_disabled":false,"rental_uris":{"android":"levelo://app?vid=4d008753-4ea3-4717-8159-19530f8068af","ios":"levelo://app?vid=4d008753-4ea3-4717-8159-19530f8068af"},"vehicle_type_id":"4","last_reported":1773905941,"current_range_meters":3200,"station_id":"ce4bgt92rcd13ifvqcf0","pricing_plan_id":"cebpf4jnsgd1na2vs0mg"},{"bike_id":"f7315d1e-73c8-4876-9e17-aedad5ed61d7","system_id":"levelo_inurba_marseille","lat":43.31126,"lon":5.38649,"is_reserved":false,"is_disabled":false,"rental_uris":{"android":"levelo://app?vid=f7315d1e-73c8-4876-9e17-aedad5ed61d7","ios":"levelo://app?vid=f7315d1e-73c8-4876-9e17-aedad5ed61d7"},"vehicle_type_id":"4","last_reported":1773905941,"current_range_meters":3200,"station_id":"","pricing_plan_id":"cebpf4jnsgd1na2vs0mg"},{"bike_id":"2706db3b-3f01-4b6b-a1e9-42e6bda22571","system_id":"levelo_inurba_marseille","lat":43.2616,"lon":5.37286,"is_reserved":false,"is_disabled":false,"rental_uris":{"android":"levelo://app?vid=2706db3b-3f01-4b6b-a1e9-42e6bda22571","ios":"levelo://app?vid=2706db3b-3f01-4b6b-a1e9-42e6bda22571"},"vehicle_type_id":"4","last_reported":1773905941,"current_range_meters":3200,"station_id":"","pricing_plan_id":"cebpf4jnsgd1na2vs0mg"},{"bike_id":"b1678298-3f5b-4e9b-bb34-63fa7c9d9c9c","system_id":"levelo_inurba_marseille","lat":43.2847,"lon":5.48392,"is_reserved":false,"is_disabled":false,"rental_uris":{"android":"levelo://app?vid=b1678298-3f5b-4e9b-bb34-63fa7c9d9c9c","ios":"levelo://app?vid=b1678298-3f5b-4e9b-bb34-63fa7c9d9c9c"},"vehicle_type_id":"4","last_reported":1773905941,"current_range_meters":3600,"station_id":"","pricing_plan_id":"cebpf4jnsgd1na2vs0mg"},{"bike_id":"641fadc8-18c8-4da9-af42-22c7c4e3360c","system_id":"levelo_inurba_marseille","lat":43.24815,"lon":5.37459,"is_reserved":false,"is_disabled":false,"rental_uris":{"android":"levelo://app?vid=641fadc8-18c8-4da9-af42-22c7c4e3360c","ios":"levelo://app?vid=641fadc8-18c8-4da9-af42-22c7c4e3360c"},"vehicle_type_id":"4","last_reported":1773905941,"current_range_meters":3600,"station_id":"ce4bhgh2rcd13ifvqfb0","pricing_plan_id":"cebpf4jnsgd1na2vs0mg"},{"bike_id":"9d99e656-43f9-4521-b575-035a903587ec","system_id":"levelo_inurba_marseille","lat":43.28543,"lon":5.39499,"is_reserved":false,"is_disabled":true,"rental_uris":{"android":"levelo://app?vid=9d99e656-43f9-4521-b575-035a903587ec","ios":"levelo://app?vid=9d99e656-43f9-4521-b575-035a903587ec"},"vehicle_type_id":"4","last_reported":1773905941,"current_range_meters":3600,"station_id":"ce4bh292rcd13ifvqdg0","pricing_plan_id":"cebpf4jnsgd1na2vs0mg"},{"bike_id":"8ffa06ae-b4c3-4139-b95e-aafe549f6920","system_id":"levelo_inurba_marseille","lat":43.24068,"lon":5.37733,"is_reserved":false,"is_disabled":false,"rental_uris":{"android":"levelo://app?vid=8ffa06ae-b4c3-4139-b95e-aafe549f6920","ios":"levelo://app?vid=8ffa06ae-b4c3-4139-b95e-aafe549f6920"},"vehicle_type_id":"4","last_reported":1773905941,"current_range_meters":3600,"station_id":"ce4bhnp2rcd13ifvqgvg","pricing_plan_id":"cebpf4jnsgd1na2vs0mg"},{"bike_id":"e031742e-c7b0-49cd-af5c-4f2af9e6c9bd","system_id":"levelo_inurba_marseille","lat":43.291603,"lon":5.396205,"is_reserved":false,"is_disabled":false,"rental_uris":{"android":"levelo://app?vid=e031742e-c7b0-49cd-af5c-4f2af9e6c9bd","ios":"levelo://app?vid=e031742e-c7b0-49cd-af5c-4f2af9e6c9bd"},"vehicle_type_id":"4","last_reported":1773905941,"current_range_meters":3600,"station_id":"ce4bh3h2rcd13ifvqdn0","pricing_plan_id":"cebpf4jnsgd1na2vs0mg"},{"bike_id":"b479353b-fe14-4392-b2d7-5de9d2a8735a","system_id":"levelo_inurba_marseille","lat":43.32239,"lon":5.43823,"is_reserved":false,"is_disabled":false,"rental_uris":{"android":"levelo://app?vid=b479353b-fe14-4392-b2d7-5de9d2a8735a","ios":"levelo://app?vid=b479353b-fe14-4392-b2d7-5de9d2a8735a"},"vehicle_type_id":"4","last_reported":1773905941,"current_range_meters":3600,"station_id":"","pricing_plan_id":"cebpf4jnsgd1na2vs0mg"},{"bike_id":"c3c9b761-6b45-440b-85aa-2a49388433d7","system_id":"levelo_inurba_marseille","lat":43.30436,"lon":5.38882,"is_reserved":false,"is_disabled":false,"rental_uris":{"android":"levelo://app?vid=c3c9b761-6b45-440b-85aa-2a49388433d7","ios":"levelo://app?vid=c3c9b761-6b45-440b-85aa-2a49388433d7"},"vehicle_type_id":"4","last_reported":1773905941,"current_range_meters":3600,"station_id":"ce4bgk12rcd13ifvqbi0","pricing_plan_id":"cebpf4jnsgd1na2vs0mg"},{"bike_id":"7c245f6b-63fb-4c36-8493-afb8fd5288f8","system_id":"levelo_inurba_marseille","lat":43.31187,"lon":5.39094,"is_reserved":false,"is_disabled":false,"rental_uris":{"android":"levelo://app?vid=7c245f6b-63fb-4c36-8493-afb8fd5288f8","ios":"levelo://app?vid=7c245f6b-63fb-4c36-8493-afb8fd5288f8"},"vehicle_type_id":"4","last_reported":1773905941,"current_range_meters":3600,"station_id":"","pricing_plan_id":"cebpf4jnsgd1na2vs0mg"},{"bike_id":"50e0584e-4dc0-49b6-950a-79953725031f","system_id":"levelo_inurba_marseille","lat":43.23065,"lon":5.35491,"is_reserved":false,"is_disabled":false,"rental_uris":{"android":"levelo://app?vid=50e0584e-4dc0-49b6-950a-79953725031f","ios":"levelo://app?vid=50e0584e-4dc0-49b6-950a-79953725031f"},"vehicle_type_id":"4","last_reported":1773905941,"current_range_meters":3600,"station_id":"cpo3342slgdg3j2ifvpg","pricing_plan_id":"cebpf4jnsgd1na2vs0mg"},{"bike_id":"b4bdf51d-6567-42e7-bb61-db2c8ec0d144","system_id":"levelo_inurba_marseille","lat":43.24094,"lon":5.37766,"is_reserved":false,"is_disabled":false,"rental_uris":{"android":"levelo://app?vid=b4bdf51d-6567-42e7-bb61-db2c8ec0d144","ios":"levelo://app?vid=b4bdf51d-6567-42e7-bb61-db2c8ec0d144"},"vehicle_type_id":"4","last_reported":1773905941,"current_range_meters":3600,"station_id":"ce4bhnp2rcd13ifvqgvg","pricing_plan_id":"cebpf4jnsgd1na2vs0mg"},{"bike_id":"5032ee4c-643b-4fa7-8a5c-8d5e764831f6","system_id":"levelo_inurba_marseille","lat":43.2175,"lon":5.34596,"is_reserved":false,"is_disabled":false,"rental_uris":{"android":"levelo://app?vid=5032ee4c-643b-4fa7-8a5c-8d5e764831f6","ios":"levelo://app?vid=5032ee4c-643b-4fa7-8a5c-8d5e764831f6"},"vehicle_type_id":"4","last_reported":1773905941,"current_range_meters":4000,"station_id":"st_cvj6r9ubvosntc0bgbag","pricing_plan_id":"cebpf4jnsgd1na2vs0mg"},{"bike_id":"74807e9c-7061-43ed-a53a-8f5de62805e4","system_id":"levelo_inurba_marseille","lat":43.26357,"lon":5.41079,"is_reserved":false,"is_disabled":false,"rental_uris":{"android":"levelo://app?vid=74807e9c-7061-43ed-a53a-8f5de62805e4","ios":"levelo://app?vid=74807e9c-7061-43ed-a53a-8f5de62805e4"},"vehicle_type_id":"4","last_reported":1773905941,"current_range_meters":4000,"station_id":"st_d4e5ca6na9uc73bfl5fg","pricing_plan_id":"cebpf4jnsgd1na2vs0mg"},{"bike_id":"cbc8599d-0f53-4276-b29f-85b323d36cb9","system_id":"levelo_inurba_marseille","lat":43.255,"lon":5.37657,"is_reserved":false,"is_disabled":false,"rental_uris":{"android":"levelo://app?vid=cbc8599d-0f53-4276-b29f-85b323d36cb9","ios":"levelo://app?vid=cbc8599d-0f53-4276-b29f-85b323d36cb9"},"vehicle_type_id":"4","last_reported":1773905941,"current_range_meters":4000,"station_id":"ce4bhh12rcd13ifvqff0","pricing_plan_id":"cebpf4jnsgd1na2vs0mg"},{"bike_id":"5f48b784-ccd6-4c4d-ba2a-b915cab8937a","system_id":"levelo_inurba_marseille","lat":43.24068,"lon":5.37738,"is_reserved":false,"is_disabled":false,"rental_uris":{"android":"levelo://app?vid=5f48b784-ccd6-4c4d-ba2a-b915cab8937a","ios":"levelo://app?vid=5f48b784-ccd6-4c4d-ba2a-b915cab8937a"},"vehicle_type_id":"4","last_reported":1773905941,"current_range_meters":4000,"station_id":"ce4bhnp2rcd13ifvqgvg","pricing_plan_id":"cebpf4jnsgd1na2vs0mg"},{"bike_id":"d86f7f17-c40c-40d2-9445-70d30fa0ef64","system_id":"levelo_inurba_marseille","lat":43.21754,"lon":5.34618,"is_reserved":false,"is_disabled":true,"rental_uris":{"android":"levelo://app?vid=d86f7f17-c40c-40d2-9445-70d30fa0ef64","ios":"levelo://app?vid=d86f7f17-c40c-40d2-9445-70d30fa0ef64"},"vehicle_type_id":"4","last_reported":1773905941,"current_range_meters":4000,"station_id":"st_cvj6r9ubvosntc0bgbag","pricing_plan_id":"cebpf4jnsgd1na2vs0mg"},{"bike_id":"4e968e52-3d61-422a-ae95-1e77e5c0ca5c","system_id":"levelo_inurba_marseille","lat":43.30787,"lon":5.3765,"is_reserved":false,"is_disabled":false,"rental_uris":{"android":"levelo://app?vid=4e968e52-3d61-422a-ae95-1e77e5c0ca5c","ios":"levelo://app?vid=4e968e52-3d61-422a-ae95-1e77e5c0ca5c"},"vehicle_type_id":"4","last_reported":1773905941,"current_range_meters":4000,"station_id":"ce4bgv92rcd13ifvqcq0","pricing_plan_id":"cebpf4jnsgd1na2vs0mg"},{"bike_id":"eaa9d3c5-f89d-4396-8235-4030217e81cb","system_id":"levelo_inurba_marseille","lat":43.25488,"lon":5.37652,"is_reserved":false,"is_disabled":false,"rental_uris":{"android":"levelo://app?vid=eaa9d3c5-f89d-4396-8235-4030217e81cb","ios":"levelo://app?vid=eaa9d3c5-f89d-4396-8235-4030217e81cb"},"vehicle_type_id":"4","last_reported":1773905941,"current_range_meters":4000,"station_id":"ce4bhh12rcd13ifvqff0","pricing_plan_id":"cebpf4jnsgd1na2vs0mg"},{"bike_id":"3064287c-8ed3-41e8-93b5-31fa274eed05","system_id":"levelo_inurba_marseille","lat":43.29516,"lon":5.40117,"is_reserved":false,"is_disabled":true,"rental_uris":{"android":"levelo://app?vid=3064287c-8ed3-41e8-93b5-31fa274eed05","ios":"levelo://app?vid=3064287c-8ed3-41e8-93b5-31fa274eed05"},"vehicle_type_id":"4","last_reported":1773905941,"current_range_meters":4000,"station_id":"","pricing_plan_id":"cebpf4jnsgd1na2vs0mg"},{"bike_id":"15d16198-178f-4581-9c99-d0f097b847d4","system_id":"levelo_inurba_marseille","lat":43.28675,"lon":5.44223,"is_reserved":false,"is_disabled":false,"rental_uris":{"android":"levelo://app?vid=15d16198-178f-4581-9c99-d0f097b847d4","ios":"levelo://app?vid=15d16198-178f-4581-9c99-d0f097b847d4"},"vehicle_type_id":"4","last_reported":1773905941,"current_range_meters":4000,"station_id":"","pricing_plan_id":"cebpf4jnsgd1na2vs0mg"},{"bike_id":"7c98476d-e558-421b-ba02-479d66617ae3","system_id":"levelo_inurba_marseille","lat":43.29275,"lon":5.36852,"is_reserved":false,"is_disabled":false,"rental_uris":{"android":"levelo://app?vid=7c98476d-e558-421b-ba02-479d66617ae3","ios":"levelo://app?vid=7c98476d-e558-421b-ba02-479d66617ae3"},"vehicle_type_id":"4","last_reported":1773905941,"current_range_meters":4000,"station_id":"ce4bhbp2rcd13ifvqesg","pricing_plan_id":"cebpf4jnsgd1na2vs0mg"},{"bike_id":"4cb6ad81-5494-4e4b-921c-b1bc303d077b","system_id":"levelo_inurba_marseille","lat":43.30172,"lon":5.3809,"is_reserved":false,"is_disabled":false,"rental_uris":{"android":"levelo://app?vid=4cb6ad81-5494-4e4b-921c-b1bc303d077b","ios":"levelo://app?vid=4cb6ad81-5494-4e4b-921c-b1bc303d077b"},"vehicle_type_id":"4","last_reported":1773905941,"current_range_meters":4000,"station_id":"ce4bgjp2rcd13ifvqbh0","pricing_plan_id":"cebpf4jnsgd1na2vs0mg"},{"bike_id":"a39c2269-c1be-4679-b7ec-7b13e4b25bad","system_id":"levelo_inurba_marseille","lat":43.32483,"lon":5.38775,"is_reserved":false,"is_disabled":true,"rental_uris":{"android":"levelo://app?vid=a39c2269-c1be-4679-b7ec-7b13e4b25bad","ios":"levelo://app?vid=a39c2269-c1be-4679-b7ec-7b13e4b25bad"},"vehicle_type_id":"4","last_reported":1773905941,"current_range_meters":4000,"station_id":"","pricing_plan_id":"cebpf4jnsgd1na2vs0mg"},{"bike_id":"4c564179-132a-4381-a5da-be89f4e5d1a7","system_id":"levelo_inurba_marseille","lat":43.29711,"lon":5.36623,"is_reserved":false,"is_disabled":false,"rental_uris":{"android":"levelo://app?vid=4c564179-132a-4381-a5da-be89f4e5d1a7","ios":"levelo://app?vid=4c564179-132a-4381-a5da-be89f4e5d1a7"},"vehicle_type_id":"4","last_reported":1773905941,"current_range_meters":4400,"station_id":"ce4bgn12rcd13ifvqbt0","pricing_plan_id":"cebpf4jnsgd1na2vs0mg"},{"bike_id":"b4e54967-4eb4-45f5-a80e-01baddc6b232","system_id":"levelo_inurba_marseille","lat":43.29284,"lon":5.40133,"is_reserved":false,"is_disabled":true,"rental_uris":{"android":"levelo://app?vid=b4e54967-4eb4-45f5-a80e-01baddc6b232","ios":"levelo://app?vid=b4e54967-4eb4-45f5-a80e-01baddc6b232"},"vehicle_type_id":"4","last_reported":1773905941,"current_range_meters":4400,"station_id":"ce4bh312rcd13ifvqdk0","pricing_plan_id":"cebpf4jnsgd1na2vs0mg"},{"bike_id":"ccf4cbaf-a48e-4a3a-bd43-50421be7ff22","system_id":"levelo_inurba_marseille","lat":43.273315,"lon":5.390669,"is_reserved":false,"is_disabled":true,"rental_uris":{"android":"levelo://app?vid=ccf4cbaf-a48e-4a3a-bd43-50421be7ff22","ios":"levelo://app?vid=ccf4cbaf-a48e-4a3a-bd43-50421be7ff22"},"vehicle_type_id":"4","last_reported":1773905941,"current_range_meters":4400,"station_id":"ce4bhgp2rcd13ifvqfe0","pricing_plan_id":"cebpf4jnsgd1na2vs0mg"},{"bike_id":"459db0c9-829e-4eb8-969b-e2acd7f6eb85","system_id":"levelo_inurba_marseille","lat":43.2815,"lon":5.42646,"is_reserved":false,"is_disabled":false,"rental_uris":{"android":"levelo://app?vid=459db0c9-829e-4eb8-969b-e2acd7f6eb85","ios":"levelo://app?vid=459db0c9-829e-4eb8-969b-e2acd7f6eb85"},"vehicle_type_id":"4","last_reported":1773905941,"current_range_meters":4400,"station_id":"ce4bhnh2rcd13ifvqgug","pricing_plan_id":"cebpf4jnsgd1na2vs0mg"},{"bike_id":"e107cb22-a13d-4c03-93ce-8114e06b9a0f","system_id":"levelo_inurba_marseille","lat":43.28475,"lon":5.48392,"is_reserved":false,"is_disabled":false,"rental_uris":{"android":"levelo://app?vid=e107cb22-a13d-4c03-93ce-8114e06b9a0f","ios":"levelo://app?vid=e107cb22-a13d-4c03-93ce-8114e06b9a0f"},"vehicle_type_id":"4","last_reported":1773905941,"current_range_meters":4400,"station_id":"","pricing_plan_id":"cebpf4jnsgd1na2vs0mg"},{"bike_id":"779b8a3c-1846-46b5-9cab-bf0ec2b1118f","system_id":"levelo_inurba_marseille","lat":43.28485,"lon":5.48389,"is_reserved":false,"is_disabled":false,"rental_uris":{"android":"levelo://app?vid=779b8a3c-1846-46b5-9cab-bf0ec2b1118f","ios":"levelo://app?vid=779b8a3c-1846-46b5-9cab-bf0ec2b1118f"},"vehicle_type_id":"4","last_reported":1773905941,"current_range_meters":4400,"station_id":"st_d3svhcjqgbts73a3dn0g","pricing_plan_id":"cebpf4jnsgd1na2vs0mg"},{"bike_id":"31e5fe70-8cb7-4014-8225-8ae6146674ce","system_id":"levelo_inurba_marseille","lat":43.2755,"lon":5.38408,"is_reserved":false,"is_disabled":false,"rental_uris":{"android":"levelo://app?vid=31e5fe70-8cb7-4014-8225-8ae6146674ce","ios":"levelo://app?vid=31e5fe70-8cb7-4014-8225-8ae6146674ce"},"vehicle_type_id":"4","last_reported":1773905941,"current_range_meters":4800,"station_id":"ce4bhh92rcd13ifvqfi0","pricing_plan_id":"cebpf4jnsgd1na2vs0mg"},{"bike_id":"9ef9fd3b-08e1-41bf-bbd1-087477917b48","system_id":"levelo_inurba_marseille","lat":43.31193,"lon":5.36865,"is_reserved":false,"is_disabled":false,"rental_uris":{"android":"levelo://app?vid=9ef9fd3b-08e1-41bf-bbd1-087477917b48","ios":"levelo://app?vid=9ef9fd3b-08e1-41bf-bbd1-087477917b48"},"vehicle_type_id":"4","last_reported":1773905941,"current_range_meters":4800,"station_id":"ce4bgl92rcd13ifvqbq0","pricing_plan_id":"cebpf4jnsgd1na2vs0mg"},{"bike_id":"f992aeeb-d813-4a07-b667-bac32cecf243","system_id":"levelo_inurba_marseille","lat":43.2815,"lon":5.42636,"is_reserved":false,"is_disabled":false,"rental_uris":{"android":"levelo://app?vid=f992aeeb-d813-4a07-b667-bac32cecf243","ios":"levelo://app?vid=f992aeeb-d813-4a07-b667-bac32cecf243"},"vehicle_type_id":"4","last_reported":1773905941,"current_range_meters":4800,"station_id":"ce4bhnh2rcd13ifvqgug","pricing_plan_id":"cebpf4jnsgd1na2vs0mg"},{"bike_id":"a9d31829-7e0d-482f-af05-97ddd320ae16","system_id":"levelo_inurba_marseille","lat":43.29769,"lon":5.42701,"is_reserved":false,"is_disabled":true,"rental_uris":{"android":"levelo://app?vid=a9d31829-7e0d-482f-af05-97ddd320ae16","ios":"levelo://app?vid=a9d31829-7e0d-482f-af05-97ddd320ae16"},"vehicle_type_id":"4","last_reported":1773905941,"current_range_meters":4800,"station_id":"","pricing_plan_id":"cebpf4jnsgd1na2vs0mg"},{"bike_id":"8eae30fa-cb6c-4f22-a643-10cbbaf45032","system_id":"levelo_inurba_marseille","lat":43.30778,"lon":5.37645,"is_reserved":false,"is_disabled":false,"rental_uris":{"android":"levelo://app?vid=8eae30fa-cb6c-4f22-a643-10cbbaf45032","ios":"levelo://app?vid=8eae30fa-cb6c-4f22-a643-10cbbaf45032"},"vehicle_type_id":"4","last_reported":1773905941,"current_range_meters":4800,"station_id":"ce4bgv92rcd13ifvqcq0","pricing_plan_id":"cebpf4jnsgd1na2vs0mg"},{"bike_id":"447b11a1-21b5-4523-80dc-ebe593853403","system_id":"levelo_inurba_marseille","lat":43.29206,"lon":5.4267,"is_reserved":false,"is_disabled":false,"rental_uris":{"android":"levelo://app?vid=447b11a1-21b5-4523-80dc-ebe593853403","ios":"levelo://app?vid=447b11a1-21b5-4523-80dc-ebe593853403"},"vehicle_type_id":"4","last_reported":1773905941,"current_range_meters":4800,"station_id":"","pricing_plan_id":"cebpf4jnsgd1na2vs0mg"},{"bike_id":"768a8c01-41df-42a9-9687-055ac84fde99","system_id":"levelo_inurba_marseille","lat":43.24648,"lon":5.38892,"is_reserved":false,"is_disabled":false,"rental_uris":{"android":"levelo://app?vid=768a8c01-41df-42a9-9687-055ac84fde99","ios":"levelo://app?vid=768a8c01-41df-42a9-9687-055ac84fde99"},"vehicle_type_id":"4","last_reported":1773905941,"current_range_meters":4800,"station_id":"ce4bhg12rcd13ifvqf60","pricing_plan_id":"cebpf4jnsgd1na2vs0mg"},{"bike_id":"923ccd38-238a-49be-a080-1cd9c13d55b3","system_id":"levelo_inurba_marseille","lat":43.29542,"lon":5.37507,"is_reserved":false,"is_disabled":false,"rental_uris":{"android":"levelo://app?vid=923ccd38-238a-49be-a080-1cd9c13d55b3","ios":"levelo://app?vid=923ccd38-238a-49be-a080-1cd9c13d55b3"},"vehicle_type_id":"4","last_reported":1773905941,"current_range_meters":4800,"station_id":"ce4bgkp2rcd13ifvqbmg","pricing_plan_id":"cebpf4jnsgd1na2vs0mg"},{"bike_id":"ad261fab-7885-4780-a277-e4835ccf8740","system_id":"levelo_inurba_marseille","lat":43.291229,"lon":5.386764,"is_reserved":false,"is_disabled":false,"rental_uris":{"android":"levelo://app?vid=ad261fab-7885-4780-a277-e4835ccf8740","ios":"levelo://app?vid=ad261fab-7885-4780-a277-e4835ccf8740"},"vehicle_type_id":"4","last_reported":1773905941,"current_range_meters":4800,"station_id":"cjm6bp8fraef2m0cb0m0","pricing_plan_id":"cebpf4jnsgd1na2vs0mg"},{"bike_id":"2cd6d2c4-9839-4b08-8d75-805c4c2214dc","system_id":"levelo_inurba_marseille","lat":43.23047,"lon":5.35497,"is_reserved":false,"is_disabled":false,"rental_uris":{"android":"levelo://app?vid=2cd6d2c4-9839-4b08-8d75-805c4c2214dc","ios":"levelo://app?vid=2cd6d2c4-9839-4b08-8d75-805c4c2214dc"},"vehicle_type_id":"4","last_reported":1773905941,"current_range_meters":5600,"station_id":"cpo3342slgdg3j2ifvpg","pricing_plan_id":"cebpf4jnsgd1na2vs0mg"},{"bike_id":"d0b1f448-6af4-4ef1-a755-e03baf4488aa","system_id":"levelo_inurba_marseille","lat":43.29168,"lon":5.3573,"is_reserved":false,"is_disabled":false,"rental_uris":{"android":"levelo://app?vid=d0b1f448-6af4-4ef1-a755-e03baf4488aa","ios":"levelo://app?vid=d0b1f448-6af4-4ef1-a755-e03baf4488aa"},"vehicle_type_id":"4","last_reported":1773905941,"current_range_meters":5600,"station_id":"","pricing_plan_id":"cebpf4jnsgd1na2vs0mg"},{"bike_id":"ea4af6cb-8db6-423a-94a5-7039e2704ff5","system_id":"levelo_inurba_marseille","lat":43.27065,"lon":5.42285,"is_reserved":false,"is_disabled":false,"rental_uris":{"android":"levelo://app?vid=ea4af6cb-8db6-423a-94a5-7039e2704ff5","ios":"levelo://app?vid=ea4af6cb-8db6-423a-94a5-7039e2704ff5"},"vehicle_type_id":"4","last_reported":1773905941,"current_range_meters":5600,"station_id":"ce4bhk92rcd13ifvqgb0","pricing_plan_id":"cebpf4jnsgd1na2vs0mg"},{"bike_id":"fe5c801f-68be-46bc-a966-92199c3574ea","system_id":"levelo_inurba_marseille","lat":43.28167,"lon":5.42647,"is_reserved":false,"is_disabled":false,"rental_uris":{"android":"levelo://app?vid=fe5c801f-68be-46bc-a966-92199c3574ea","ios":"levelo://app?vid=fe5c801f-68be-46bc-a966-92199c3574ea"},"vehicle_type_id":"4","last_reported":1773905941,"current_range_meters":5600,"station_id":"ce4bhnh2rcd13ifvqgug","pricing_plan_id":"cebpf4jnsgd1na2vs0mg"},{"bike_id":"f84b01ca-a305-48c8-abb1-5fe4887deffc","system_id":"levelo_inurba_marseille","lat":43.23154,"lon":5.43698,"is_reserved":false,"is_disabled":false,"rental_uris":{"android":"levelo://app?vid=f84b01ca-a305-48c8-abb1-5fe4887deffc","ios":"levelo://app?vid=f84b01ca-a305-48c8-abb1-5fe4887deffc"},"vehicle_type_id":"4","last_reported":1773905941,"current_range_meters":5600,"station_id":"ce4bhmp2rcd13ifvqgog","pricing_plan_id":"cebpf4jnsgd1na2vs0mg"},{"bike_id":"ad10368c-32ab-437f-b5c0-19ed302c022f","system_id":"levelo_inurba_marseille","lat":43.28224,"lon":5.39055,"is_reserved":false,"is_disabled":false,"rental_uris":{"android":"levelo://app?vid=ad10368c-32ab-437f-b5c0-19ed302c022f","ios":"levelo://app?vid=ad10368c-32ab-437f-b5c0-19ed302c022f"},"vehicle_type_id":"4","last_reported":1773905941,"current_range_meters":6000,"station_id":"ce4bhn92rcd13ifvqgsg","pricing_plan_id":"cebpf4jnsgd1na2vs0mg"},{"bike_id":"297ea5c7-d4f5-4227-8f1c-678dec5e8fc2","system_id":"levelo_inurba_marseille","lat":43.28806,"lon":5.39332,"is_reserved":false,"is_disabled":false,"rental_uris":{"android":"levelo://app?vid=297ea5c7-d4f5-4227-8f1c-678dec5e8fc2","ios":"levelo://app?vid=297ea5c7-d4f5-4227-8f1c-678dec5e8fc2"},"vehicle_type_id":"4","last_reported":1773905941,"current_range_meters":6000,"station_id":"ce4bh2p2rcd13ifvqdi0","pricing_plan_id":"cebpf4jnsgd1na2vs0mg"},{"bike_id":"c0ce446a-9085-4968-895d-00725cc652ae","system_id":"levelo_inurba_marseille","lat":43.29547,"lon":5.42301,"is_reserved":false,"is_disabled":false,"rental_uris":{"android":"levelo://app?vid=c0ce446a-9085-4968-895d-00725cc652ae","ios":"levelo://app?vid=c0ce446a-9085-4968-895d-00725cc652ae"},"vehicle_type_id":"4","last_reported":1773905941,"current_range_meters":6000,"station_id":"ce4bhph2rcd13ifvqhdg","pricing_plan_id":"cebpf4jnsgd1na2vs0mg"},{"bike_id":"07d60567-2528-4e84-9148-74d1d4501456","system_id":"levelo_inurba_marseille","lat":43.32032,"lon":5.4156,"is_reserved":false,"is_disabled":false,"rental_uris":{"android":"levelo://app?vid=07d60567-2528-4e84-9148-74d1d4501456","ios":"levelo://app?vid=07d60567-2528-4e84-9148-74d1d4501456"},"vehicle_type_id":"4","last_reported":1773905941,"current_range_meters":6000,"station_id":"ce4bhq92rcd13ifvqhkg","pricing_plan_id":"cebpf4jnsgd1na2vs0mg"},{"bike_id":"88db41f5-96f3-4155-a4d0-ecc56f594edb","system_id":"levelo_inurba_marseille","lat":43.22934,"lon":5.35377,"is_reserved":false,"is_disabled":false,"rental_uris":{"android":"levelo://app?vid=88db41f5-96f3-4155-a4d0-ecc56f594edb","ios":"levelo://app?vid=88db41f5-96f3-4155-a4d0-ecc56f594edb"},"vehicle_type_id":"4","last_reported":1773905941,"current_range_meters":6000,"station_id":"cpo3532slgdg3j2ikp40","pricing_plan_id":"cebpf4jnsgd1na2vs0mg"},{"bike_id":"fad8e96d-acb2-4874-9608-7180f6b034b8","system_id":"levelo_inurba_marseille","lat":43.29172,"lon":5.40812,"is_reserved":false,"is_disabled":false,"rental_uris":{"android":"levelo://app?vid=fad8e96d-acb2-4874-9608-7180f6b034b8","ios":"levelo://app?vid=fad8e96d-acb2-4874-9608-7180f6b034b8"},"vehicle_type_id":"4","last_reported":1773905941,"current_range_meters":6000,"station_id":"","pricing_plan_id":"cebpf4jnsgd1na2vs0mg"},{"bike_id":"1e07f4f9-2b85-4e7e-957d-9984e59dee74","system_id":"levelo_inurba_marseille","lat":43.29857,"lon":5.3815,"is_reserved":false,"is_disabled":false,"rental_uris":{"android":"levelo://app?vid=1e07f4f9-2b85-4e7e-957d-9984e59dee74","ios":"levelo://app?vid=1e07f4f9-2b85-4e7e-957d-9984e59dee74"},"vehicle_type_id":"4","last_reported":1773905941,"current_range_meters":6000,"station_id":"","pricing_plan_id":"cebpf4jnsgd1na2vs0mg"},{"bike_id":"a5d7a922-fa93-4b5a-85d5-d874d92b0a20","system_id":"levelo_inurba_marseille","lat":43.30598,"lon":5.39856,"is_reserved":false,"is_disabled":false,"rental_uris":{"android":"levelo://app?vid=a5d7a922-fa93-4b5a-85d5-d874d92b0a20","ios":"levelo://app?vid=a5d7a922-fa93-4b5a-85d5-d874d92b0a20"},"vehicle_type_id":"4","last_reported":1773905941,"current_range_meters":6000,"station_id":"","pricing_plan_id":"cebpf4jnsgd1na2vs0mg"},{"bike_id":"1c51670a-46e5-4a0c-9d9c-3c2806d077a8","system_id":"levelo_inurba_marseille","lat":43.29021,"lon":5.38131,"is_reserved":false,"is_disabled":true,"rental_uris":{"android":"levelo://app?vid=1c51670a-46e5-4a0c-9d9c-3c2806d077a8","ios":"levelo://app?vid=1c51670a-46e5-4a0c-9d9c-3c2806d077a8"},"vehicle_type_id":"4","last_reported":1773905941,"current_range_meters":6400,"station_id":"ce4bh4p2rcd13ifvqe1g","pricing_plan_id":"cebpf4jnsgd1na2vs0mg"},{"bike_id":"2942ce7f-9ca5-44d5-aaee-f6f6d34bb0b6","system_id":"levelo_inurba_marseille","lat":43.30206,"lon":5.39471,"is_reserved":false,"is_disabled":false,"rental_uris":{"android":"levelo://app?vid=2942ce7f-9ca5-44d5-aaee-f6f6d34bb0b6","ios":"levelo://app?vid=2942ce7f-9ca5-44d5-aaee-f6f6d34bb0b6"},"vehicle_type_id":"4","last_reported":1773905941,"current_range_meters":6400,"station_id":"ce4bh0p2rcd13ifvqd70","pricing_plan_id":"cebpf4jnsgd1na2vs0mg"},{"bike_id":"1ab1e486-d329-4dc0-9165-063f2abe9d7a","system_id":"levelo_inurba_marseille","lat":43.31104,"lon":5.37776,"is_reserved":false,"is_disabled":false,"rental_uris":{"android":"levelo://app?vid=1ab1e486-d329-4dc0-9165-063f2abe9d7a","ios":"levelo://app?vid=1ab1e486-d329-4dc0-9165-063f2abe9d7a"},"vehicle_type_id":"4","last_reported":1773905941,"current_range_meters":6400,"station_id":"ce4bgt92rcd13ifvqcg0","pricing_plan_id":"cebpf4jnsgd1na2vs0mg"},{"bike_id":"20efb3b1-4cf9-43ed-8def-69982177d42a","system_id":"levelo_inurba_marseille","lat":43.30153,"lon":5.38096,"is_reserved":false,"is_disabled":false,"rental_uris":{"android":"levelo://app?vid=20efb3b1-4cf9-43ed-8def-69982177d42a","ios":"levelo://app?vid=20efb3b1-4cf9-43ed-8def-69982177d42a"},"vehicle_type_id":"4","last_reported":1773905941,"current_range_meters":6400,"station_id":"ce4bgjp2rcd13ifvqbh0","pricing_plan_id":"cebpf4jnsgd1na2vs0mg"},{"bike_id":"dad8e642-31cf-42cb-9956-38b0d6be95d6","system_id":"levelo_inurba_marseille","lat":43.33537,"lon":5.37468,"is_reserved":false,"is_disabled":false,"rental_uris":{"android":"levelo://app?vid=dad8e642-31cf-42cb-9956-38b0d6be95d6","ios":"levelo://app?vid=dad8e642-31cf-42cb-9956-38b0d6be95d6"},"vehicle_type_id":"4","last_reported":1773905941,"current_range_meters":6400,"station_id":"st_d46tts09ee8s73dlu43g","pricing_plan_id":"cebpf4jnsgd1na2vs0mg"},{"bike_id":"d532de73-31b0-408e-96ce-6676e6435a22","system_id":"levelo_inurba_marseille","lat":43.21122,"lon":5.35058,"is_reserved":false,"is_disabled":false,"rental_uris":{"android":"levelo://app?vid=d532de73-31b0-408e-96ce-6676e6435a22","ios":"levelo://app?vid=d532de73-31b0-408e-96ce-6676e6435a22"},"vehicle_type_id":"4","last_reported":1773905941,"current_range_meters":6800,"station_id":"","pricing_plan_id":"cebpf4jnsgd1na2vs0mg"},{"bike_id":"a918d57a-c48c-4085-ac42-61882623bc55","system_id":"levelo_inurba_marseille","lat":43.24471,"lon":5.42531,"is_reserved":false,"is_disabled":false,"rental_uris":{"android":"levelo://app?vid=a918d57a-c48c-4085-ac42-61882623bc55","ios":"levelo://app?vid=a918d57a-c48c-4085-ac42-61882623bc55"},"vehicle_type_id":"4","last_reported":1773905941,"current_range_meters":6800,"station_id":"st_d4a3vfp97mjs738cd8kg","pricing_plan_id":"cebpf4jnsgd1na2vs0mg"},{"bike_id":"3903529a-97cf-43f8-9c3a-f35f9c9bbdf2","system_id":"levelo_inurba_marseille","lat":43.31379,"lon":5.36756,"is_reserved":false,"is_disabled":true,"rental_uris":{"android":"levelo://app?vid=3903529a-97cf-43f8-9c3a-f35f9c9bbdf2","ios":"levelo://app?vid=3903529a-97cf-43f8-9c3a-f35f9c9bbdf2"},"vehicle_type_id":"4","last_reported":1773905941,"current_range_meters":6800,"station_id":"","pricing_plan_id":"cebpf4jnsgd1na2vs0mg"},{"bike_id":"1fdbd032-af28-4158-a02e-01bb107fd2a7","system_id":"levelo_inurba_marseille","lat":43.337444,"lon":5.374475,"is_reserved":false,"is_disabled":false,"rental_uris":{"android":"levelo://app?vid=1fdbd032-af28-4158-a02e-01bb107fd2a7","ios":"levelo://app?vid=1fdbd032-af28-4158-a02e-01bb107fd2a7"},"vehicle_type_id":"4","last_reported":1773905941,"current_range_meters":6800,"station_id":"","pricing_plan_id":"cebpf4jnsgd1na2vs0mg"},{"bike_id":"13ad50bf-7f2f-4ad1-a82f-209db682ff58","system_id":"levelo_inurba_marseille","lat":43.2657,"lon":5.39016,"is_reserved":false,"is_disabled":true,"rental_uris":{"android":"levelo://app?vid=13ad50bf-7f2f-4ad1-a82f-209db682ff58","ios":"levelo://app?vid=13ad50bf-7f2f-4ad1-a82f-209db682ff58"},"vehicle_type_id":"4","last_reported":1773905941,"current_range_meters":6800,"station_id":"ce4bhe12rcd13ifvqf30","pricing_plan_id":"cebpf4jnsgd1na2vs0mg"},{"bike_id":"db8208d8-7471-4d51-bb93-62ac819aca03","system_id":"levelo_inurba_marseille","lat":43.30022,"lon":5.38647,"is_reserved":false,"is_disabled":false,"rental_uris":{"android":"levelo://app?vid=db8208d8-7471-4d51-bb93-62ac819aca03","ios":"levelo://app?vid=db8208d8-7471-4d51-bb93-62ac819aca03"},"vehicle_type_id":"4","last_reported":1773905941,"current_range_meters":6800,"station_id":"","pricing_plan_id":"cebpf4jnsgd1na2vs0mg"},{"bike_id":"95d31319-d36d-403e-adf6-0b51cdaa5b1b","system_id":"levelo_inurba_marseille","lat":43.31407,"lon":5.39291,"is_reserved":false,"is_disabled":true,"rental_uris":{"android":"levelo://app?vid=95d31319-d36d-403e-adf6-0b51cdaa5b1b","ios":"levelo://app?vid=95d31319-d36d-403e-adf6-0b51cdaa5b1b"},"vehicle_type_id":"4","last_reported":1773905941,"current_range_meters":6800,"station_id":"","pricing_plan_id":"cebpf4jnsgd1na2vs0mg"},{"bike_id":"506661fa-d7d4-473c-8038-c16d45410fe8","system_id":"levelo_inurba_marseille","lat":43.28868,"lon":5.42527,"is_reserved":false,"is_disabled":false,"rental_uris":{"android":"levelo://app?vid=506661fa-d7d4-473c-8038-c16d45410fe8","ios":"levelo://app?vid=506661fa-d7d4-473c-8038-c16d45410fe8"},"vehicle_type_id":"4","last_reported":1773905941,"current_range_meters":6800,"station_id":"","pricing_plan_id":"cebpf4jnsgd1na2vs0mg"},{"bike_id":"8ffeb841-8b6e-4a8e-b35a-32911522f286","system_id":"levelo_inurba_marseille","lat":43.27051,"lon":5.40266,"is_reserved":false,"is_disabled":false,"rental_uris":{"android":"levelo://app?vid=8ffeb841-8b6e-4a8e-b35a-32911522f286","ios":"levelo://app?vid=8ffeb841-8b6e-4a8e-b35a-32911522f286"},"vehicle_type_id":"4","last_reported":1773905941,"current_range_meters":6800,"station_id":"ce4bhk92rcd13ifvqgc0","pricing_plan_id":"cebpf4jnsgd1na2vs0mg"},{"bike_id":"1593e546-8c57-4631-9165-1a9d3d4a37b7","system_id":"levelo_inurba_marseille","lat":43.28907,"lon":5.36667,"is_reserved":false,"is_disabled":false,"rental_uris":{"android":"levelo://app?vid=1593e546-8c57-4631-9165-1a9d3d4a37b7","ios":"levelo://app?vid=1593e546-8c57-4631-9165-1a9d3d4a37b7"},"vehicle_type_id":"4","last_reported":1773905941,"current_range_meters":6800,"station_id":"ce4bhap2rcd13ifvqek0","pricing_plan_id":"cebpf4jnsgd1na2vs0mg"},{"bike_id":"0ee4ce16-829f-49ee-9a2a-4b4670dfbc6f","system_id":"levelo_inurba_marseille","lat":43.28478,"lon":5.48403,"is_reserved":false,"is_disabled":false,"rental_uris":{"android":"levelo://app?vid=0ee4ce16-829f-49ee-9a2a-4b4670dfbc6f","ios":"levelo://app?vid=0ee4ce16-829f-49ee-9a2a-4b4670dfbc6f"},"vehicle_type_id":"4","last_reported":1773905941,"current_range_meters":6800,"station_id":"st_d3svhcjqgbts73a3dn0g","pricing_plan_id":"cebpf4jnsgd1na2vs0mg"},{"bike_id":"caf5e45c-f3f2-43eb-99a6-b11ec33451e8","system_id":"levelo_inurba_marseille","lat":43.24006,"lon":5.36642,"is_reserved":false,"is_disabled":false,"rental_uris":{"android":"levelo://app?vid=caf5e45c-f3f2-43eb-99a6-b11ec33451e8","ios":"levelo://app?vid=caf5e45c-f3f2-43eb-99a6-b11ec33451e8"},"vehicle_type_id":"4","last_reported":1773905941,"current_range_meters":6800,"station_id":"","pricing_plan_id":"cebpf4jnsgd1na2vs0mg"},{"bike_id":"f7b71c94-a999-4c84-945e-d10f6256f7b1","system_id":"levelo_inurba_marseille","lat":43.2927,"lon":5.38452,"is_reserved":false,"is_disabled":false,"rental_uris":{"android":"levelo://app?vid=f7b71c94-a999-4c84-945e-d10f6256f7b1","ios":"levelo://app?vid=f7b71c94-a999-4c84-945e-d10f6256f7b1"},"vehicle_type_id":"4","last_reported":1773905941,"current_range_meters":6800,"station_id":"ce4bh692rcd13ifvqea0","pricing_plan_id":"cebpf4jnsgd1na2vs0mg"},{"bike_id":"72a1402b-d8db-44a2-83e4-6c2a4e4e7c1e","system_id":"levelo_inurba_marseille","lat":43.28071,"lon":5.41769,"is_reserved":false,"is_disabled":false,"rental_uris":{"android":"levelo://app?vid=72a1402b-d8db-44a2-83e4-6c2a4e4e7c1e","ios":"levelo://app?vid=72a1402b-d8db-44a2-83e4-6c2a4e4e7c1e"},"vehicle_type_id":"4","last_reported":1773905941,"current_range_meters":6800,"station_id":"","pricing_plan_id":"cebpf4jnsgd1na2vs0mg"},{"bike_id":"c5b4f8a5-5a6c-40ba-9197-52b134bfa2c4","system_id":"levelo_inurba_marseille","lat":43.30451,"lon":5.38978,"is_reserved":false,"is_disabled":false,"rental_uris":{"android":"levelo://app?vid=c5b4f8a5-5a6c-40ba-9197-52b134bfa2c4","ios":"levelo://app?vid=c5b4f8a5-5a6c-40ba-9197-52b134bfa2c4"},"vehicle_type_id":"4","last_reported":1773905941,"current_range_meters":6800,"station_id":"","pricing_plan_id":"cebpf4jnsgd1na2vs0mg"},{"bike_id":"73e44213-1cd8-4593-a09e-a9c4a914a5d2","system_id":"levelo_inurba_marseille","lat":43.28479,"lon":5.4839,"is_reserved":false,"is_disabled":false,"rental_uris":{"android":"levelo://app?vid=73e44213-1cd8-4593-a09e-a9c4a914a5d2","ios":"levelo://app?vid=73e44213-1cd8-4593-a09e-a9c4a914a5d2"},"vehicle_type_id":"4","last_reported":1773905941,"current_range_meters":6800,"station_id":"","pricing_plan_id":"cebpf4jnsgd1na2vs0mg"},{"bike_id":"dd8390c9-eed9-4b5d-95df-1b40250bc11f","system_id":"levelo_inurba_marseille","lat":43.2161,"lon":5.34552,"is_reserved":false,"is_disabled":false,"rental_uris":{"android":"levelo://app?vid=dd8390c9-eed9-4b5d-95df-1b40250bc11f","ios":"levelo://app?vid=dd8390c9-eed9-4b5d-95df-1b40250bc11f"},"vehicle_type_id":"4","last_reported":1773905941,"current_range_meters":6800,"station_id":"","pricing_plan_id":"cebpf4jnsgd1na2vs0mg"},{"bike_id":"633db3df-2ee3-45b8-848f-6d3a98ffba27","system_id":"levelo_inurba_marseille","lat":43.29629,"lon":5.37735,"is_reserved":false,"is_disabled":false,"rental_uris":{"android":"levelo://app?vid=633db3df-2ee3-45b8-848f-6d3a98ffba27","ios":"levelo://app?vid=633db3df-2ee3-45b8-848f-6d3a98ffba27"},"vehicle_type_id":"4","last_reported":1773905941,"current_range_meters":6800,"station_id":"ce4bgi92rcd13ifvqb90","pricing_plan_id":"cebpf4jnsgd1na2vs0mg"},{"bike_id":"92019429-72ad-45ba-acfc-ff0e403577dd","system_id":"levelo_inurba_marseille","lat":43.25002,"lon":5.38956,"is_reserved":false,"is_disabled":false,"rental_uris":{"android":"levelo://app?vid=92019429-72ad-45ba-acfc-ff0e403577dd","ios":"levelo://app?vid=92019429-72ad-45ba-acfc-ff0e403577dd"},"vehicle_type_id":"4","last_reported":1773905941,"current_range_meters":6800,"station_id":"ce4bhgp2rcd13ifvqfd0","pricing_plan_id":"cebpf4jnsgd1na2vs0mg"},{"bike_id":"fe60c2d5-e253-4f41-9836-c9334fcff724","system_id":"levelo_inurba_marseille","lat":43.29717,"lon":5.36578,"is_reserved":false,"is_disabled":false,"rental_uris":{"android":"levelo://app?vid=fe60c2d5-e253-4f41-9836-c9334fcff724","ios":"levelo://app?vid=fe60c2d5-e253-4f41-9836-c9334fcff724"},"vehicle_type_id":"4","last_reported":1773905941,"current_range_meters":6800,"station_id":"","pricing_plan_id":"cebpf4jnsgd1na2vs0mg"},{"bike_id":"0c506fac-9822-4d55-93b9-ec283cf22639","system_id":"levelo_inurba_marseille","lat":43.26964,"lon":5.40512,"is_reserved":false,"is_disabled":false,"rental_uris":{"android":"levelo://app?vid=0c506fac-9822-4d55-93b9-ec283cf22639","ios":"levelo://app?vid=0c506fac-9822-4d55-93b9-ec283cf22639"},"vehicle_type_id":"4","last_reported":1773905941,"current_range_meters":6800,"station_id":"","pricing_plan_id":"cebpf4jnsgd1na2vs0mg"},{"bike_id":"e48e6d48-d180-4130-952c-74c2f53a8488","system_id":"levelo_inurba_marseille","lat":43.28939,"lon":5.36429,"is_reserved":false,"is_disabled":false,"rental_uris":{"android":"levelo://app?vid=e48e6d48-d180-4130-952c-74c2f53a8488","ios":"levelo://app?vid=e48e6d48-d180-4130-952c-74c2f53a8488"},"vehicle_type_id":"4","last_reported":1773905941,"current_range_meters":7200,"station_id":"ce4bhc92rcd13ifvqetg","pricing_plan_id":"cebpf4jnsgd1na2vs0mg"},{"bike_id":"94f8f466-8e71-4f87-978f-df55f1bc6e54","system_id":"levelo_inurba_marseille","lat":43.21194,"lon":5.3511,"is_reserved":false,"is_disabled":false,"rental_uris":{"android":"levelo://app?vid=94f8f466-8e71-4f87-978f-df55f1bc6e54","ios":"levelo://app?vid=94f8f466-8e71-4f87-978f-df55f1bc6e54"},"vehicle_type_id":"4","last_reported":1773905941,"current_range_meters":7200,"station_id":"st_cvj6sg6p6f1abm77japg","pricing_plan_id":"cebpf4jnsgd1na2vs0mg"},{"bike_id":"69eb8448-c0e0-496f-831c-8ada77fd31e2","system_id":"levelo_inurba_marseille","lat":43.2306,"lon":5.35487,"is_reserved":false,"is_disabled":false,"rental_uris":{"android":"levelo://app?vid=69eb8448-c0e0-496f-831c-8ada77fd31e2","ios":"levelo://app?vid=69eb8448-c0e0-496f-831c-8ada77fd31e2"},"vehicle_type_id":"4","last_reported":1773905941,"current_range_meters":7200,"station_id":"cpo3342slgdg3j2ifvpg","pricing_plan_id":"cebpf4jnsgd1na2vs0mg"},{"bike_id":"bd60a6ec-18d4-4476-ab1b-f354043c4b72","system_id":"levelo_inurba_marseille","lat":43.29775,"lon":5.4268,"is_reserved":false,"is_disabled":false,"rental_uris":{"android":"levelo://app?vid=bd60a6ec-18d4-4476-ab1b-f354043c4b72","ios":"levelo://app?vid=bd60a6ec-18d4-4476-ab1b-f354043c4b72"},"vehicle_type_id":"4","last_reported":1773905941,"current_range_meters":7200,"station_id":"","pricing_plan_id":"cebpf4jnsgd1na2vs0mg"},{"bike_id":"719e9861-af82-4022-a2ea-bd7d6f00ff5f","system_id":"levelo_inurba_marseille","lat":43.28739,"lon":5.42515,"is_reserved":false,"is_disabled":true,"rental_uris":{"android":"levelo://app?vid=719e9861-af82-4022-a2ea-bd7d6f00ff5f","ios":"levelo://app?vid=719e9861-af82-4022-a2ea-bd7d6f00ff5f"},"vehicle_type_id":"4","last_reported":1773905941,"current_range_meters":7200,"station_id":"","pricing_plan_id":"cebpf4jnsgd1na2vs0mg"},{"bike_id":"8c29270d-5d11-446e-a3f0-f5c56ae9c816","system_id":"levelo_inurba_marseille","lat":43.27558,"lon":5.43316,"is_reserved":false,"is_disabled":false,"rental_uris":{"android":"levelo://app?vid=8c29270d-5d11-446e-a3f0-f5c56ae9c816","ios":"levelo://app?vid=8c29270d-5d11-446e-a3f0-f5c56ae9c816"},"vehicle_type_id":"4","last_reported":1773905941,"current_range_meters":7200,"station_id":"","pricing_plan_id":"cebpf4jnsgd1na2vs0mg"},{"bike_id":"fe84594a-cdc2-4e5f-83a2-4d80f9f5966d","system_id":"levelo_inurba_marseille","lat":43.28981,"lon":5.35619,"is_reserved":false,"is_disabled":true,"rental_uris":{"android":"levelo://app?vid=fe84594a-cdc2-4e5f-83a2-4d80f9f5966d","ios":"levelo://app?vid=fe84594a-cdc2-4e5f-83a2-4d80f9f5966d"},"vehicle_type_id":"4","last_reported":1773905941,"current_range_meters":7200,"station_id":"ce4bhb92rcd13ifvqen0","pricing_plan_id":"cebpf4jnsgd1na2vs0mg"},{"bike_id":"dea66f93-d072-4029-b0e0-76ffc72863ee","system_id":"levelo_inurba_marseille","lat":43.28465,"lon":5.3842,"is_reserved":false,"is_disabled":true,"rental_uris":{"android":"levelo://app?vid=dea66f93-d072-4029-b0e0-76ffc72863ee","ios":"levelo://app?vid=dea66f93-d072-4029-b0e0-76ffc72863ee"},"vehicle_type_id":"4","last_reported":1773905941,"current_range_meters":7200,"station_id":"ce4bh512rcd13ifvqe3g","pricing_plan_id":"cebpf4jnsgd1na2vs0mg"},{"bike_id":"f9cbb5c0-15f3-4ddf-b4f4-fe1b0d0a2d4c","system_id":"levelo_inurba_marseille","lat":43.311786,"lon":5.387154,"is_reserved":false,"is_disabled":true,"rental_uris":{"android":"levelo://app?vid=f9cbb5c0-15f3-4ddf-b4f4-fe1b0d0a2d4c","ios":"levelo://app?vid=f9cbb5c0-15f3-4ddf-b4f4-fe1b0d0a2d4c"},"vehicle_type_id":"4","last_reported":1773905941,"current_range_meters":7200,"station_id":"","pricing_plan_id":"cebpf4jnsgd1na2vs0mg"},{"bike_id":"c630e9fc-07eb-44fb-b665-baf3e779b83f","system_id":"levelo_inurba_marseille","lat":43.2853,"lon":5.44103,"is_reserved":false,"is_disabled":false,"rental_uris":{"android":"levelo://app?vid=c630e9fc-07eb-44fb-b665-baf3e779b83f","ios":"levelo://app?vid=c630e9fc-07eb-44fb-b665-baf3e779b83f"},"vehicle_type_id":"4","last_reported":1773905941,"current_range_meters":7200,"station_id":"st_d3j3df2ikq2c7380ej80","pricing_plan_id":"cebpf4jnsgd1na2vs0mg"},{"bike_id":"09c6bd8c-631e-428d-95ab-99a2c53a3ed5","system_id":"levelo_inurba_marseille","lat":43.27502,"lon":5.41639,"is_reserved":false,"is_disabled":false,"rental_uris":{"android":"levelo://app?vid=09c6bd8c-631e-428d-95ab-99a2c53a3ed5","ios":"levelo://app?vid=09c6bd8c-631e-428d-95ab-99a2c53a3ed5"},"vehicle_type_id":"4","last_reported":1773905941,"current_range_meters":7200,"station_id":"st_d6im8g6chgec73a5pndg","pricing_plan_id":"cebpf4jnsgd1na2vs0mg"},{"bike_id":"8101e18b-77e8-465f-aedf-9e3a128ab51b","system_id":"levelo_inurba_marseille","lat":43.27043,"lon":5.4228,"is_reserved":false,"is_disabled":false,"rental_uris":{"android":"levelo://app?vid=8101e18b-77e8-465f-aedf-9e3a128ab51b","ios":"levelo://app?vid=8101e18b-77e8-465f-aedf-9e3a128ab51b"},"vehicle_type_id":"4","last_reported":1773905941,"current_range_meters":7200,"station_id":"ce4bhk92rcd13ifvqgb0","pricing_plan_id":"cebpf4jnsgd1na2vs0mg"},{"bike_id":"c4a7c7b1-3352-4651-8271-b0b071e8a40f","system_id":"levelo_inurba_marseille","lat":43.27489,"lon":5.42444,"is_reserved":false,"is_disabled":false,"rental_uris":{"android":"levelo://app?vid=c4a7c7b1-3352-4651-8271-b0b071e8a40f","ios":"levelo://app?vid=c4a7c7b1-3352-4651-8271-b0b071e8a40f"},"vehicle_type_id":"4","last_reported":1773905941,"current_range_meters":7200,"station_id":"","pricing_plan_id":"cebpf4jnsgd1na2vs0mg"},{"bike_id":"339d8a7a-00e0-4680-bbd1-667e0b11dcd0","system_id":"levelo_inurba_marseille","lat":43.282324,"lon":5.390686,"is_reserved":false,"is_disabled":false,"rental_uris":{"android":"levelo://app?vid=339d8a7a-00e0-4680-bbd1-667e0b11dcd0","ios":"levelo://app?vid=339d8a7a-00e0-4680-bbd1-667e0b11dcd0"},"vehicle_type_id":"4","last_reported":1773905941,"current_range_meters":7200,"station_id":"ce4bhn92rcd13ifvqgsg","pricing_plan_id":"cebpf4jnsgd1na2vs0mg"},{"bike_id":"78c86868-a79f-4f2a-bb9a-961b0f22d36b","system_id":"levelo_inurba_marseille","lat":43.29998,"lon":5.38688,"is_reserved":false,"is_disabled":false,"rental_uris":{"android":"levelo://app?vid=78c86868-a79f-4f2a-bb9a-961b0f22d36b","ios":"levelo://app?vid=78c86868-a79f-4f2a-bb9a-961b0f22d36b"},"vehicle_type_id":"4","last_reported":1773905941,"current_range_meters":7200,"station_id":"","pricing_plan_id":"cebpf4jnsgd1na2vs0mg"},{"bike_id":"0f0f3f3e-0b16-46b6-a723-9cf6c82a3bfc","system_id":"levelo_inurba_marseille","lat":43.27493,"lon":5.41614,"is_reserved":false,"is_disabled":false,"rental_uris":{"android":"levelo://app?vid=0f0f3f3e-0b16-46b6-a723-9cf6c82a3bfc","ios":"levelo://app?vid=0f0f3f3e-0b16-46b6-a723-9cf6c82a3bfc"},"vehicle_type_id":"4","last_reported":1773905941,"current_range_meters":7200,"station_id":"st_d6im8g6chgec73a5pndg","pricing_plan_id":"cebpf4jnsgd1na2vs0mg"},{"bike_id":"24dc1ce5-2db6-421b-869a-69d6f082b300","system_id":"levelo_inurba_marseille","lat":43.29831,"lon":5.36244,"is_reserved":false,"is_disabled":false,"rental_uris":{"android":"levelo://app?vid=24dc1ce5-2db6-421b-869a-69d6f082b300","ios":"levelo://app?vid=24dc1ce5-2db6-421b-869a-69d6f082b300"},"vehicle_type_id":"4","last_reported":1773905941,"current_range_meters":8000,"station_id":"ce4bgpp2rcd13ifvqc3g","pricing_plan_id":"cebpf4jnsgd1na2vs0mg"},{"bike_id":"04b3c352-6662-4d85-9cdb-e58baf38ee9f","system_id":"levelo_inurba_marseille","lat":43.33589,"lon":5.37439,"is_reserved":false,"is_disabled":false,"rental_uris":{"android":"levelo://app?vid=04b3c352-6662-4d85-9cdb-e58baf38ee9f","ios":"levelo://app?vid=04b3c352-6662-4d85-9cdb-e58baf38ee9f"},"vehicle_type_id":"4","last_reported":1773905941,"current_range_meters":8000,"station_id":"st_d46tts09ee8s73dlu43g","pricing_plan_id":"cebpf4jnsgd1na2vs0mg"},{"bike_id":"a6e9d3cd-1b73-40fb-aa50-83d3cd885fa6","system_id":"levelo_inurba_marseille","lat":43.30503,"lon":5.37956,"is_reserved":false,"is_disabled":false,"rental_uris":{"android":"levelo://app?vid=a6e9d3cd-1b73-40fb-aa50-83d3cd885fa6","ios":"levelo://app?vid=a6e9d3cd-1b73-40fb-aa50-83d3cd885fa6"},"vehicle_type_id":"4","last_reported":1773905941,"current_range_meters":8000,"station_id":"","pricing_plan_id":"cebpf4jnsgd1na2vs0mg"},{"bike_id":"2518bae7-c776-42cd-b319-3c6b0327da59","system_id":"levelo_inurba_marseille","lat":43.28479,"lon":5.35894,"is_reserved":false,"is_disabled":false,"rental_uris":{"android":"levelo://app?vid=2518bae7-c776-42cd-b319-3c6b0327da59","ios":"levelo://app?vid=2518bae7-c776-42cd-b319-3c6b0327da59"},"vehicle_type_id":"4","last_reported":1773905941,"current_range_meters":8000,"station_id":"ce4bhah2rcd13ifvqei0","pricing_plan_id":"cebpf4jnsgd1na2vs0mg"},{"bike_id":"f7e79517-161a-451a-8a95-bb710b1b4d21","system_id":"levelo_inurba_marseille","lat":43.29854,"lon":5.37905,"is_reserved":false,"is_disabled":false,"rental_uris":{"android":"levelo://app?vid=f7e79517-161a-451a-8a95-bb710b1b4d21","ios":"levelo://app?vid=f7e79517-161a-451a-8a95-bb710b1b4d21"},"vehicle_type_id":"4","last_reported":1773905941,"current_range_meters":8000,"station_id":"","pricing_plan_id":"cebpf4jnsgd1na2vs0mg"},{"bike_id":"081a0881-89b6-4aec-8d87-38fd39de8439","system_id":"levelo_inurba_marseille","lat":43.28507,"lon":5.44133,"is_reserved":false,"is_disabled":false,"rental_uris":{"android":"levelo://app?vid=081a0881-89b6-4aec-8d87-38fd39de8439","ios":"levelo://app?vid=081a0881-89b6-4aec-8d87-38fd39de8439"},"vehicle_type_id":"4","last_reported":1773905941,"current_range_meters":8000,"station_id":"st_d3j3df2ikq2c7380ej80","pricing_plan_id":"cebpf4jnsgd1na2vs0mg"},{"bike_id":"ef4d97a8-b27e-4ee9-b1dd-4c9b85711d4a","system_id":"levelo_inurba_marseille","lat":43.24398,"lon":5.37065,"is_reserved":false,"is_disabled":false,"rental_uris":{"android":"levelo://app?vid=ef4d97a8-b27e-4ee9-b1dd-4c9b85711d4a","ios":"levelo://app?vid=ef4d97a8-b27e-4ee9-b1dd-4c9b85711d4a"},"vehicle_type_id":"4","last_reported":1773905941,"current_range_meters":8000,"station_id":"ce4bhhh2rcd13ifvqfk0","pricing_plan_id":"cebpf4jnsgd1na2vs0mg"},{"bike_id":"c8b23fef-b945-46b0-895c-337553264a7e","system_id":"levelo_inurba_marseille","lat":43.30541,"lon":5.38442,"is_reserved":false,"is_disabled":false,"rental_uris":{"android":"levelo://app?vid=c8b23fef-b945-46b0-895c-337553264a7e","ios":"levelo://app?vid=c8b23fef-b945-46b0-895c-337553264a7e"},"vehicle_type_id":"4","last_reported":1773905941,"current_range_meters":8000,"station_id":"ce4bgg92rcd13ifvqb30","pricing_plan_id":"cebpf4jnsgd1na2vs0mg"},{"bike_id":"1eeb8fd8-3c0c-40ec-bab7-6b173acf9405","system_id":"levelo_inurba_marseille","lat":43.22912,"lon":5.35407,"is_reserved":false,"is_disabled":false,"rental_uris":{"android":"levelo://app?vid=1eeb8fd8-3c0c-40ec-bab7-6b173acf9405","ios":"levelo://app?vid=1eeb8fd8-3c0c-40ec-bab7-6b173acf9405"},"vehicle_type_id":"4","last_reported":1773905941,"current_range_meters":8000,"station_id":"cpo3532slgdg3j2ikp40","pricing_plan_id":"cebpf4jnsgd1na2vs0mg"},{"bike_id":"0effcb86-530f-422c-9f0e-4d242751570e","system_id":"levelo_inurba_marseille","lat":43.30577,"lon":5.36638,"is_reserved":false,"is_disabled":false,"rental_uris":{"android":"levelo://app?vid=0effcb86-530f-422c-9f0e-4d242751570e","ios":"levelo://app?vid=0effcb86-530f-422c-9f0e-4d242751570e"},"vehicle_type_id":"4","last_reported":1773905941,"current_range_meters":8000,"station_id":"","pricing_plan_id":"cebpf4jnsgd1na2vs0mg"},{"bike_id":"00dc1094-ab95-4b56-9796-2c944d98c0e7","system_id":"levelo_inurba_marseille","lat":43.30462,"lon":5.37911,"is_reserved":false,"is_disabled":false,"rental_uris":{"android":"levelo://app?vid=00dc1094-ab95-4b56-9796-2c944d98c0e7","ios":"levelo://app?vid=00dc1094-ab95-4b56-9796-2c944d98c0e7"},"vehicle_type_id":"4","last_reported":1773905941,"current_range_meters":8000,"station_id":"","pricing_plan_id":"cebpf4jnsgd1na2vs0mg"},{"bike_id":"a11c8cfa-453a-4892-a974-6a22bafa8290","system_id":"levelo_inurba_marseille","lat":43.23179,"lon":5.35548,"is_reserved":false,"is_disabled":false,"rental_uris":{"android":"levelo://app?vid=a11c8cfa-453a-4892-a974-6a22bafa8290","ios":"levelo://app?vid=a11c8cfa-453a-4892-a974-6a22bafa8290"},"vehicle_type_id":"4","last_reported":1773905941,"current_range_meters":8400,"station_id":"ce4bhu92rcd13ifvqi70","pricing_plan_id":"cebpf4jnsgd1na2vs0mg"},{"bike_id":"7603f9a5-a91f-4dd4-884d-ad1569e71bd2","system_id":"levelo_inurba_marseille","lat":43.31136,"lon":5.37284,"is_reserved":false,"is_disabled":false,"rental_uris":{"android":"levelo://app?vid=7603f9a5-a91f-4dd4-884d-ad1569e71bd2","ios":"levelo://app?vid=7603f9a5-a91f-4dd4-884d-ad1569e71bd2"},"vehicle_type_id":"4","last_reported":1773905941,"current_range_meters":8400,"station_id":"st_d4kl2rp97mjs73e7tdfg","pricing_plan_id":"cebpf4jnsgd1na2vs0mg"},{"bike_id":"347a0133-45d3-4213-ae48-606f4453bbf3","system_id":"levelo_inurba_marseille","lat":43.23049,"lon":5.35494,"is_reserved":false,"is_disabled":false,"rental_uris":{"android":"levelo://app?vid=347a0133-45d3-4213-ae48-606f4453bbf3","ios":"levelo://app?vid=347a0133-45d3-4213-ae48-606f4453bbf3"},"vehicle_type_id":"4","last_reported":1773905941,"current_range_meters":8400,"station_id":"cpo3342slgdg3j2ifvpg","pricing_plan_id":"cebpf4jnsgd1na2vs0mg"},{"bike_id":"08fc3c5d-1001-4b26-87a3-2f0e44438f4d","system_id":"levelo_inurba_marseille","lat":43.24682,"lon":5.38165,"is_reserved":false,"is_disabled":false,"rental_uris":{"android":"levelo://app?vid=08fc3c5d-1001-4b26-87a3-2f0e44438f4d","ios":"levelo://app?vid=08fc3c5d-1001-4b26-87a3-2f0e44438f4d"},"vehicle_type_id":"4","last_reported":1773905941,"current_range_meters":8400,"station_id":"ce4bhih2rcd13ifvqfr0","pricing_plan_id":"cebpf4jnsgd1na2vs0mg"},{"bike_id":"baaeb2b2-9b00-4409-aebf-97133f4e4792","system_id":"levelo_inurba_marseille","lat":43.27902,"lon":5.41077,"is_reserved":false,"is_disabled":false,"rental_uris":{"android":"levelo://app?vid=baaeb2b2-9b00-4409-aebf-97133f4e4792","ios":"levelo://app?vid=baaeb2b2-9b00-4409-aebf-97133f4e4792"},"vehicle_type_id":"4","last_reported":1773905941,"current_range_meters":8400,"station_id":"","pricing_plan_id":"cebpf4jnsgd1na2vs0mg"},{"bike_id":"6b218720-7d53-4c1e-b1c9-5dbfa513b086","system_id":"levelo_inurba_marseille","lat":43.23973,"lon":5.36615,"is_reserved":false,"is_disabled":false,"rental_uris":{"android":"levelo://app?vid=6b218720-7d53-4c1e-b1c9-5dbfa513b086","ios":"levelo://app?vid=6b218720-7d53-4c1e-b1c9-5dbfa513b086"},"vehicle_type_id":"4","last_reported":1773905941,"current_range_meters":8400,"station_id":"ce4bhi12rcd13ifvqfp0","pricing_plan_id":"cebpf4jnsgd1na2vs0mg"},{"bike_id":"dd10efc5-28b9-436a-be78-8011941e89fc","system_id":"levelo_inurba_marseille","lat":43.28473,"lon":5.48389,"is_reserved":false,"is_disabled":false,"rental_uris":{"android":"levelo://app?vid=dd10efc5-28b9-436a-be78-8011941e89fc","ios":"levelo://app?vid=dd10efc5-28b9-436a-be78-8011941e89fc"},"vehicle_type_id":"4","last_reported":1773905941,"current_range_meters":8400,"station_id":"st_d3svhcjqgbts73a3dn0g","pricing_plan_id":"cebpf4jnsgd1na2vs0mg"},{"bike_id":"6c1bba4a-dad8-40c3-a3c8-46d0efdfcbbe","system_id":"levelo_inurba_marseille","lat":43.23893,"lon":5.37463,"is_reserved":false,"is_disabled":false,"rental_uris":{"android":"levelo://app?vid=6c1bba4a-dad8-40c3-a3c8-46d0efdfcbbe","ios":"levelo://app?vid=6c1bba4a-dad8-40c3-a3c8-46d0efdfcbbe"},"vehicle_type_id":"4","last_reported":1773905941,"current_range_meters":8400,"station_id":"st_d6sm7csbq4hs73f8fpjg","pricing_plan_id":"cebpf4jnsgd1na2vs0mg"},{"bike_id":"5d426646-1dfd-423a-8357-cbae22705137","system_id":"levelo_inurba_marseille","lat":43.28953,"lon":5.39633,"is_reserved":false,"is_disabled":false,"rental_uris":{"android":"levelo://app?vid=5d426646-1dfd-423a-8357-cbae22705137","ios":"levelo://app?vid=5d426646-1dfd-423a-8357-cbae22705137"},"vehicle_type_id":"4","last_reported":1773905941,"current_range_meters":8400,"station_id":"ce4bh3h2rcd13ifvqdn0","pricing_plan_id":"cebpf4jnsgd1na2vs0mg"},{"bike_id":"a7589a93-7e92-46e3-9adb-33c382fc7b2d","system_id":"levelo_inurba_marseille","lat":43.23953,"lon":5.36607,"is_reserved":false,"is_disabled":false,"rental_uris":{"android":"levelo://app?vid=a7589a93-7e92-46e3-9adb-33c382fc7b2d","ios":"levelo://app?vid=a7589a93-7e92-46e3-9adb-33c382fc7b2d"},"vehicle_type_id":"4","last_reported":1773905941,"current_range_meters":8400,"station_id":"ce4bhi12rcd13ifvqfp0","pricing_plan_id":"cebpf4jnsgd1na2vs0mg"},{"bike_id":"d51fe815-5335-4e1f-8e42-efe91c7e85aa","system_id":"levelo_inurba_marseille","lat":43.2294,"lon":5.35385,"is_reserved":false,"is_disabled":false,"rental_uris":{"android":"levelo://app?vid=d51fe815-5335-4e1f-8e42-efe91c7e85aa","ios":"levelo://app?vid=d51fe815-5335-4e1f-8e42-efe91c7e85aa"},"vehicle_type_id":"4","last_reported":1773905941,"current_range_meters":8400,"station_id":"cpo3532slgdg3j2ikp40","pricing_plan_id":"cebpf4jnsgd1na2vs0mg"},{"bike_id":"e84409cd-ab11-47ab-92ac-0bad50daf5c3","system_id":"levelo_inurba_marseille","lat":43.31918,"lon":5.36826,"is_reserved":false,"is_disabled":false,"rental_uris":{"android":"levelo://app?vid=e84409cd-ab11-47ab-92ac-0bad50daf5c3","ios":"levelo://app?vid=e84409cd-ab11-47ab-92ac-0bad50daf5c3"},"vehicle_type_id":"4","last_reported":1773905941,"current_range_meters":8400,"station_id":"st_d6o2h0d0559c73evc1b0","pricing_plan_id":"cebpf4jnsgd1na2vs0mg"},{"bike_id":"b7e87515-c3ea-478e-bf01-a70f86b2f092","system_id":"levelo_inurba_marseille","lat":43.2417,"lon":5.36405,"is_reserved":false,"is_disabled":false,"rental_uris":{"android":"levelo://app?vid=b7e87515-c3ea-478e-bf01-a70f86b2f092","ios":"levelo://app?vid=b7e87515-c3ea-478e-bf01-a70f86b2f092"},"vehicle_type_id":"4","last_reported":1773905941,"current_range_meters":8400,"station_id":"cpo36qri1sfpv3e86is0","pricing_plan_id":"cebpf4jnsgd1na2vs0mg"},{"bike_id":"591637eb-a256-445f-b11a-47e07652d095","system_id":"levelo_inurba_marseille","lat":43.28156,"lon":5.42665,"is_reserved":false,"is_disabled":false,"rental_uris":{"android":"levelo://app?vid=591637eb-a256-445f-b11a-47e07652d095","ios":"levelo://app?vid=591637eb-a256-445f-b11a-47e07652d095"},"vehicle_type_id":"4","last_reported":1773905941,"current_range_meters":8400,"station_id":"ce4bhnh2rcd13ifvqgug","pricing_plan_id":"cebpf4jnsgd1na2vs0mg"},{"bike_id":"1da057a6-7f5f-4ac2-969c-cb81ad5a7b1a","system_id":"levelo_inurba_marseille","lat":43.33164,"lon":5.37617,"is_reserved":false,"is_disabled":false,"rental_uris":{"android":"levelo://app?vid=1da057a6-7f5f-4ac2-969c-cb81ad5a7b1a","ios":"levelo://app?vid=1da057a6-7f5f-4ac2-969c-cb81ad5a7b1a"},"vehicle_type_id":"4","last_reported":1773905941,"current_range_meters":8400,"station_id":"st_d46cu089ee8s73dldbu0","pricing_plan_id":"cebpf4jnsgd1na2vs0mg"},{"bike_id":"0f988d7c-199c-45b5-ba6e-7ba5bd7d524c","system_id":"levelo_inurba_marseille","lat":43.30745,"lon":5.37655,"is_reserved":false,"is_disabled":false,"rental_uris":{"android":"levelo://app?vid=0f988d7c-199c-45b5-ba6e-7ba5bd7d524c","ios":"levelo://app?vid=0f988d7c-199c-45b5-ba6e-7ba5bd7d524c"},"vehicle_type_id":"4","last_reported":1773905941,"current_range_meters":8400,"station_id":"","pricing_plan_id":"cebpf4jnsgd1na2vs0mg"},{"bike_id":"995be6d6-1522-4cd5-9330-6f4ca9c82ccf","system_id":"levelo_inurba_marseille","lat":43.28533,"lon":5.44089,"is_reserved":false,"is_disabled":false,"rental_uris":{"android":"levelo://app?vid=995be6d6-1522-4cd5-9330-6f4ca9c82ccf","ios":"levelo://app?vid=995be6d6-1522-4cd5-9330-6f4ca9c82ccf"},"vehicle_type_id":"4","last_reported":1773905941,"current_range_meters":8400,"station_id":"st_d3j3df2ikq2c7380ej80","pricing_plan_id":"cebpf4jnsgd1na2vs0mg"},{"bike_id":"13ece891-29b9-4ae9-a4c4-ae3da55ec954","system_id":"levelo_inurba_marseille","lat":43.23186,"lon":5.35549,"is_reserved":false,"is_disabled":false,"rental_uris":{"android":"levelo://app?vid=13ece891-29b9-4ae9-a4c4-ae3da55ec954","ios":"levelo://app?vid=13ece891-29b9-4ae9-a4c4-ae3da55ec954"},"vehicle_type_id":"4","last_reported":1773905941,"current_range_meters":8800,"station_id":"ce4bhu92rcd13ifvqi70","pricing_plan_id":"cebpf4jnsgd1na2vs0mg"},{"bike_id":"864f588c-6c9a-47f2-bf8a-559a5ddb02ea","system_id":"levelo_inurba_marseille","lat":43.32099,"lon":5.36771,"is_reserved":false,"is_disabled":false,"rental_uris":{"android":"levelo://app?vid=864f588c-6c9a-47f2-bf8a-559a5ddb02ea","ios":"levelo://app?vid=864f588c-6c9a-47f2-bf8a-559a5ddb02ea"},"vehicle_type_id":"4","last_reported":1773905941,"current_range_meters":8800,"station_id":"ce4bhrh2rcd13ifvqhug","pricing_plan_id":"cebpf4jnsgd1na2vs0mg"},{"bike_id":"b0aae7c9-1bd6-4f1c-a33d-9d6ff662c2a9","system_id":"levelo_inurba_marseille","lat":43.24803,"lon":5.37458,"is_reserved":false,"is_disabled":false,"rental_uris":{"android":"levelo://app?vid=b0aae7c9-1bd6-4f1c-a33d-9d6ff662c2a9","ios":"levelo://app?vid=b0aae7c9-1bd6-4f1c-a33d-9d6ff662c2a9"},"vehicle_type_id":"4","last_reported":1773905941,"current_range_meters":8800,"station_id":"ce4bhgh2rcd13ifvqfb0","pricing_plan_id":"cebpf4jnsgd1na2vs0mg"},{"bike_id":"addd9e53-bfde-4c2f-8c89-4a891b6a7add","system_id":"levelo_inurba_marseille","lat":43.31392,"lon":5.37923,"is_reserved":false,"is_disabled":false,"rental_uris":{"android":"levelo://app?vid=addd9e53-bfde-4c2f-8c89-4a891b6a7add","ios":"levelo://app?vid=addd9e53-bfde-4c2f-8c89-4a891b6a7add"},"vehicle_type_id":"4","last_reported":1773905941,"current_range_meters":8800,"station_id":"","pricing_plan_id":"cebpf4jnsgd1na2vs0mg"},{"bike_id":"246116f5-3d79-44ba-8658-b8f1bbaeb3d6","system_id":"levelo_inurba_marseille","lat":43.299807,"lon":5.371855,"is_reserved":false,"is_disabled":true,"rental_uris":{"android":"levelo://app?vid=246116f5-3d79-44ba-8658-b8f1bbaeb3d6","ios":"levelo://app?vid=246116f5-3d79-44ba-8658-b8f1bbaeb3d6"},"vehicle_type_id":"4","last_reported":1773905941,"current_range_meters":8800,"station_id":"ce4bgr92rcd13ifvqc7g","pricing_plan_id":"cebpf4jnsgd1na2vs0mg"},{"bike_id":"52f6a6b9-7af9-4956-b458-baf5061e66bf","system_id":"levelo_inurba_marseille","lat":43.23338,"lon":5.4447,"is_reserved":false,"is_disabled":false,"rental_uris":{"android":"levelo://app?vid=52f6a6b9-7af9-4956-b458-baf5061e66bf","ios":"levelo://app?vid=52f6a6b9-7af9-4956-b458-baf5061e66bf"},"vehicle_type_id":"4","last_reported":1773905941,"current_range_meters":8800,"station_id":"","pricing_plan_id":"cebpf4jnsgd1na2vs0mg"},{"bike_id":"d0f50a6b-aa0d-4c35-bde4-ea58ce38721b","system_id":"levelo_inurba_marseille","lat":43.2998,"lon":5.37134,"is_reserved":false,"is_disabled":false,"rental_uris":{"android":"levelo://app?vid=d0f50a6b-aa0d-4c35-bde4-ea58ce38721b","ios":"levelo://app?vid=d0f50a6b-aa0d-4c35-bde4-ea58ce38721b"},"vehicle_type_id":"4","last_reported":1773905941,"current_range_meters":8800,"station_id":"ce4bgr92rcd13ifvqc7g","pricing_plan_id":"cebpf4jnsgd1na2vs0mg"},{"bike_id":"48d56448-be59-46a7-88f4-1b7e52e63b27","system_id":"levelo_inurba_marseille","lat":43.31049,"lon":5.37172,"is_reserved":false,"is_disabled":false,"rental_uris":{"android":"levelo://app?vid=48d56448-be59-46a7-88f4-1b7e52e63b27","ios":"levelo://app?vid=48d56448-be59-46a7-88f4-1b7e52e63b27"},"vehicle_type_id":"4","last_reported":1773905941,"current_range_meters":8800,"station_id":"st_d4kl2rp97mjs73e7tdfg","pricing_plan_id":"cebpf4jnsgd1na2vs0mg"},{"bike_id":"47b958a5-a9e9-4494-8472-abb0f760256b","system_id":"levelo_inurba_marseille","lat":43.23762,"lon":5.36634,"is_reserved":false,"is_disabled":false,"rental_uris":{"android":"levelo://app?vid=47b958a5-a9e9-4494-8472-abb0f760256b","ios":"levelo://app?vid=47b958a5-a9e9-4494-8472-abb0f760256b"},"vehicle_type_id":"4","last_reported":1773905941,"current_range_meters":8800,"station_id":"st_d3nk18o9ro0c73en2l3g","pricing_plan_id":"cebpf4jnsgd1na2vs0mg"},{"bike_id":"bd8be341-b829-490b-8d68-391bf2327f60","system_id":"levelo_inurba_marseille","lat":43.2319,"lon":5.39978,"is_reserved":false,"is_disabled":false,"rental_uris":{"android":"levelo://app?vid=bd8be341-b829-490b-8d68-391bf2327f60","ios":"levelo://app?vid=bd8be341-b829-490b-8d68-391bf2327f60"},"vehicle_type_id":"4","last_reported":1773905941,"current_range_meters":8800,"station_id":"ce4bhn12rcd13ifvqgqg","pricing_plan_id":"cebpf4jnsgd1na2vs0mg"},{"bike_id":"2b63f6d8-75c9-4e2b-880d-e442e3da9570","system_id":"levelo_inurba_marseille","lat":43.32541,"lon":5.41436,"is_reserved":false,"is_disabled":false,"rental_uris":{"android":"levelo://app?vid=2b63f6d8-75c9-4e2b-880d-e442e3da9570","ios":"levelo://app?vid=2b63f6d8-75c9-4e2b-880d-e442e3da9570"},"vehicle_type_id":"4","last_reported":1773905941,"current_range_meters":8800,"station_id":"","pricing_plan_id":"cebpf4jnsgd1na2vs0mg"},{"bike_id":"910782e5-6393-4e90-9766-736d8c09f613","system_id":"levelo_inurba_marseille","lat":43.30956,"lon":5.39038,"is_reserved":false,"is_disabled":false,"rental_uris":{"android":"levelo://app?vid=910782e5-6393-4e90-9766-736d8c09f613","ios":"levelo://app?vid=910782e5-6393-4e90-9766-736d8c09f613"},"vehicle_type_id":"4","last_reported":1773905941,"current_range_meters":8800,"station_id":"ce4bgup2rcd13ifvqco0","pricing_plan_id":"cebpf4jnsgd1na2vs0mg"},{"bike_id":"1a35434d-c9e2-448e-ab11-b763a506a6ff","system_id":"levelo_inurba_marseille","lat":43.29928,"lon":5.38091,"is_reserved":false,"is_disabled":true,"rental_uris":{"android":"levelo://app?vid=1a35434d-c9e2-448e-ab11-b763a506a6ff","ios":"levelo://app?vid=1a35434d-c9e2-448e-ab11-b763a506a6ff"},"vehicle_type_id":"4","last_reported":1773905941,"current_range_meters":8800,"station_id":"","pricing_plan_id":"cebpf4jnsgd1na2vs0mg"},{"bike_id":"92331320-de6a-4a51-8ebb-f9d1b76d5747","system_id":"levelo_inurba_marseille","lat":43.30114,"lon":5.38096,"is_reserved":false,"is_disabled":false,"rental_uris":{"android":"levelo://app?vid=92331320-de6a-4a51-8ebb-f9d1b76d5747","ios":"levelo://app?vid=92331320-de6a-4a51-8ebb-f9d1b76d5747"},"vehicle_type_id":"4","last_reported":1773905941,"current_range_meters":8800,"station_id":"ce4bgjp2rcd13ifvqbh0","pricing_plan_id":"cebpf4jnsgd1na2vs0mg"},{"bike_id":"be523ae7-f0fc-4e2a-970b-30a3029fa717","system_id":"levelo_inurba_marseille","lat":43.28478,"lon":5.48397,"is_reserved":false,"is_disabled":false,"rental_uris":{"android":"levelo://app?vid=be523ae7-f0fc-4e2a-970b-30a3029fa717","ios":"levelo://app?vid=be523ae7-f0fc-4e2a-970b-30a3029fa717"},"vehicle_type_id":"4","last_reported":1773905941,"current_range_meters":8800,"station_id":"","pricing_plan_id":"cebpf4jnsgd1na2vs0mg"},{"bike_id":"15750178-4f9b-426f-bafa-493e04eb7e36","system_id":"levelo_inurba_marseille","lat":43.30817,"lon":5.40682,"is_reserved":false,"is_disabled":false,"rental_uris":{"android":"levelo://app?vid=15750178-4f9b-426f-bafa-493e04eb7e36","ios":"levelo://app?vid=15750178-4f9b-426f-bafa-493e04eb7e36"},"vehicle_type_id":"4","last_reported":1773905941,"current_range_meters":8800,"station_id":"","pricing_plan_id":"cebpf4jnsgd1na2vs0mg"},{"bike_id":"6e312198-c530-414e-8f88-168b10974032","system_id":"levelo_inurba_marseille","lat":43.22562,"lon":5.41659,"is_reserved":false,"is_disabled":false,"rental_uris":{"android":"levelo://app?vid=6e312198-c530-414e-8f88-168b10974032","ios":"levelo://app?vid=6e312198-c530-414e-8f88-168b10974032"},"vehicle_type_id":"4","last_reported":1773905941,"current_range_meters":8800,"station_id":"st_d2o4gvlbi1j2169b742g","pricing_plan_id":"cebpf4jnsgd1na2vs0mg"},{"bike_id":"3bcd3f37-7909-4e8a-be03-a9562a2c0e45","system_id":"levelo_inurba_marseille","lat":43.28466,"lon":5.48383,"is_reserved":false,"is_disabled":false,"rental_uris":{"android":"levelo://app?vid=3bcd3f37-7909-4e8a-be03-a9562a2c0e45","ios":"levelo://app?vid=3bcd3f37-7909-4e8a-be03-a9562a2c0e45"},"vehicle_type_id":"4","last_reported":1773905941,"current_range_meters":9200,"station_id":"","pricing_plan_id":"cebpf4jnsgd1na2vs0mg"},{"bike_id":"b790cc6c-beda-4dcd-96dd-e541806c10fa","system_id":"levelo_inurba_marseille","lat":43.27498,"lon":5.41643,"is_reserved":false,"is_disabled":false,"rental_uris":{"android":"levelo://app?vid=b790cc6c-beda-4dcd-96dd-e541806c10fa","ios":"levelo://app?vid=b790cc6c-beda-4dcd-96dd-e541806c10fa"},"vehicle_type_id":"4","last_reported":1773905941,"current_range_meters":9200,"station_id":"st_d6im8g6chgec73a5pndg","pricing_plan_id":"cebpf4jnsgd1na2vs0mg"},{"bike_id":"81504fcd-b1a8-4689-8b51-229e0fdebee1","system_id":"levelo_inurba_marseille","lat":43.27724,"lon":5.39895,"is_reserved":false,"is_disabled":false,"rental_uris":{"android":"levelo://app?vid=81504fcd-b1a8-4689-8b51-229e0fdebee1","ios":"levelo://app?vid=81504fcd-b1a8-4689-8b51-229e0fdebee1"},"vehicle_type_id":"4","last_reported":1773905941,"current_range_meters":9200,"station_id":"","pricing_plan_id":"cebpf4jnsgd1na2vs0mg"},{"bike_id":"91754ca3-cd5e-47a5-b17b-b94faa181426","system_id":"levelo_inurba_marseille","lat":43.32148,"lon":5.36802,"is_reserved":false,"is_disabled":false,"rental_uris":{"android":"levelo://app?vid=91754ca3-cd5e-47a5-b17b-b94faa181426","ios":"levelo://app?vid=91754ca3-cd5e-47a5-b17b-b94faa181426"},"vehicle_type_id":"4","last_reported":1773905941,"current_range_meters":9200,"station_id":"ce4bhrh2rcd13ifvqhug","pricing_plan_id":"cebpf4jnsgd1na2vs0mg"},{"bike_id":"a28c166b-a5fe-420e-81da-77e5be97a8e5","system_id":"levelo_inurba_marseille","lat":43.29113,"lon":5.38146,"is_reserved":false,"is_disabled":true,"rental_uris":{"android":"levelo://app?vid=a28c166b-a5fe-420e-81da-77e5be97a8e5","ios":"levelo://app?vid=a28c166b-a5fe-420e-81da-77e5be97a8e5"},"vehicle_type_id":"4","last_reported":1773905941,"current_range_meters":9200,"station_id":"ce4bh512rcd13ifvqe2g","pricing_plan_id":"cebpf4jnsgd1na2vs0mg"},{"bike_id":"6b4c6e8e-6b4b-4ce5-bab0-87f29768d749","system_id":"levelo_inurba_marseille","lat":43.25,"lon":5.38932,"is_reserved":false,"is_disabled":false,"rental_uris":{"android":"levelo://app?vid=6b4c6e8e-6b4b-4ce5-bab0-87f29768d749","ios":"levelo://app?vid=6b4c6e8e-6b4b-4ce5-bab0-87f29768d749"},"vehicle_type_id":"4","last_reported":1773905941,"current_range_meters":9200,"station_id":"ce4bhgp2rcd13ifvqfd0","pricing_plan_id":"cebpf4jnsgd1na2vs0mg"},{"bike_id":"5b633a99-6e6c-40eb-b51a-c5e14db697a0","system_id":"levelo_inurba_marseille","lat":43.2708,"lon":5.42285,"is_reserved":false,"is_disabled":false,"rental_uris":{"android":"levelo://app?vid=5b633a99-6e6c-40eb-b51a-c5e14db697a0","ios":"levelo://app?vid=5b633a99-6e6c-40eb-b51a-c5e14db697a0"},"vehicle_type_id":"4","last_reported":1773905941,"current_range_meters":9200,"station_id":"ce4bhk92rcd13ifvqgb0","pricing_plan_id":"cebpf4jnsgd1na2vs0mg"},{"bike_id":"57d1ada9-1a9f-44a6-9752-b843732a3f40","system_id":"levelo_inurba_marseille","lat":43.29957,"lon":5.37172,"is_reserved":false,"is_disabled":false,"rental_uris":{"android":"levelo://app?vid=57d1ada9-1a9f-44a6-9752-b843732a3f40","ios":"levelo://app?vid=57d1ada9-1a9f-44a6-9752-b843732a3f40"},"vehicle_type_id":"4","last_reported":1773905941,"current_range_meters":9200,"station_id":"ce4bgr92rcd13ifvqc7g","pricing_plan_id":"cebpf4jnsgd1na2vs0mg"},{"bike_id":"94c2774e-0e80-49a5-a48d-27354f95f394","system_id":"levelo_inurba_marseille","lat":43.22947,"lon":5.35366,"is_reserved":false,"is_disabled":false,"rental_uris":{"android":"levelo://app?vid=94c2774e-0e80-49a5-a48d-27354f95f394","ios":"levelo://app?vid=94c2774e-0e80-49a5-a48d-27354f95f394"},"vehicle_type_id":"4","last_reported":1773905941,"current_range_meters":9200,"station_id":"cpo3532slgdg3j2ikp40","pricing_plan_id":"cebpf4jnsgd1na2vs0mg"},{"bike_id":"574e6790-e991-42f5-87e7-5708c7f53c76","system_id":"levelo_inurba_marseille","lat":43.30951,"lon":5.39039,"is_reserved":false,"is_disabled":false,"rental_uris":{"android":"levelo://app?vid=574e6790-e991-42f5-87e7-5708c7f53c76","ios":"levelo://app?vid=574e6790-e991-42f5-87e7-5708c7f53c76"},"vehicle_type_id":"4","last_reported":1773905941,"current_range_meters":9200,"station_id":"ce4bgup2rcd13ifvqco0","pricing_plan_id":"cebpf4jnsgd1na2vs0mg"},{"bike_id":"9162cba1-8569-4f1d-a407-8791858cf04a","system_id":"levelo_inurba_marseille","lat":43.29035,"lon":5.39991,"is_reserved":false,"is_disabled":false,"rental_uris":{"android":"levelo://app?vid=9162cba1-8569-4f1d-a407-8791858cf04a","ios":"levelo://app?vid=9162cba1-8569-4f1d-a407-8791858cf04a"},"vehicle_type_id":"4","last_reported":1773905941,"current_range_meters":9200,"station_id":"ce4bh392rcd13ifvqdm0","pricing_plan_id":"cebpf4jnsgd1na2vs0mg"},{"bike_id":"dbe0e345-bc0f-410a-84f8-fbc1e14a43ae","system_id":"levelo_inurba_marseille","lat":43.26943,"lon":5.38718,"is_reserved":false,"is_disabled":false,"rental_uris":{"android":"levelo://app?vid=dbe0e345-bc0f-410a-84f8-fbc1e14a43ae","ios":"levelo://app?vid=dbe0e345-bc0f-410a-84f8-fbc1e14a43ae"},"vehicle_type_id":"4","last_reported":1773905941,"current_range_meters":9200,"station_id":"ce4bhh92rcd13ifvqfh0","pricing_plan_id":"cebpf4jnsgd1na2vs0mg"},{"bike_id":"533bbf6c-bcec-49c2-94d9-91e8d7880421","system_id":"levelo_inurba_marseille","lat":43.29249,"lon":5.40133,"is_reserved":false,"is_disabled":false,"rental_uris":{"android":"levelo://app?vid=533bbf6c-bcec-49c2-94d9-91e8d7880421","ios":"levelo://app?vid=533bbf6c-bcec-49c2-94d9-91e8d7880421"},"vehicle_type_id":"4","last_reported":1773905941,"current_range_meters":9200,"station_id":"ce4bh312rcd13ifvqdk0","pricing_plan_id":"cebpf4jnsgd1na2vs0mg"},{"bike_id":"78bb54cf-5275-4554-9f53-8437367c33f2","system_id":"levelo_inurba_marseille","lat":43.23206,"lon":5.35562,"is_reserved":false,"is_disabled":false,"rental_uris":{"android":"levelo://app?vid=78bb54cf-5275-4554-9f53-8437367c33f2","ios":"levelo://app?vid=78bb54cf-5275-4554-9f53-8437367c33f2"},"vehicle_type_id":"4","last_reported":1773905941,"current_range_meters":9200,"station_id":"ce4bhu92rcd13ifvqi70","pricing_plan_id":"cebpf4jnsgd1na2vs0mg"},{"bike_id":"91472141-3427-4a3c-8d44-aa322d033af6","system_id":"levelo_inurba_marseille","lat":43.29016,"lon":5.38349,"is_reserved":false,"is_disabled":false,"rental_uris":{"android":"levelo://app?vid=91472141-3427-4a3c-8d44-aa322d033af6","ios":"levelo://app?vid=91472141-3427-4a3c-8d44-aa322d033af6"},"vehicle_type_id":"4","last_reported":1773905941,"current_range_meters":9200,"station_id":"","pricing_plan_id":"cebpf4jnsgd1na2vs0mg"},{"bike_id":"3072c2b7-499e-4858-9501-6070c7badbaf","system_id":"levelo_inurba_marseille","lat":43.23947,"lon":5.36639,"is_reserved":false,"is_disabled":false,"rental_uris":{"android":"levelo://app?vid=3072c2b7-499e-4858-9501-6070c7badbaf","ios":"levelo://app?vid=3072c2b7-499e-4858-9501-6070c7badbaf"},"vehicle_type_id":"4","last_reported":1773905941,"current_range_meters":9600,"station_id":"ce4bhi12rcd13ifvqfp0","pricing_plan_id":"cebpf4jnsgd1na2vs0mg"},{"bike_id":"1613d7d4-1f73-4ab3-9a1b-bac415288207","system_id":"levelo_inurba_marseille","lat":43.26034,"lon":5.37562,"is_reserved":false,"is_disabled":false,"rental_uris":{"android":"levelo://app?vid=1613d7d4-1f73-4ab3-9a1b-bac415288207","ios":"levelo://app?vid=1613d7d4-1f73-4ab3-9a1b-bac415288207"},"vehicle_type_id":"4","last_reported":1773905941,"current_range_meters":9600,"station_id":"ce4bhgh2rcd13ifvqfa0","pricing_plan_id":"cebpf4jnsgd1na2vs0mg"},{"bike_id":"0264288d-82fa-4432-8751-6c08c0e54bb7","system_id":"levelo_inurba_marseille","lat":43.30303,"lon":5.42465,"is_reserved":false,"is_disabled":false,"rental_uris":{"android":"levelo://app?vid=0264288d-82fa-4432-8751-6c08c0e54bb7","ios":"levelo://app?vid=0264288d-82fa-4432-8751-6c08c0e54bb7"},"vehicle_type_id":"4","last_reported":1773905941,"current_range_meters":9600,"station_id":"","pricing_plan_id":"cebpf4jnsgd1na2vs0mg"},{"bike_id":"b78efe34-9c51-4bda-ac14-0652399b0549","system_id":"levelo_inurba_marseille","lat":43.26813,"lon":5.40222,"is_reserved":false,"is_disabled":false,"rental_uris":{"android":"levelo://app?vid=b78efe34-9c51-4bda-ac14-0652399b0549","ios":"levelo://app?vid=b78efe34-9c51-4bda-ac14-0652399b0549"},"vehicle_type_id":"4","last_reported":1773905941,"current_range_meters":9600,"station_id":"ce501612rcd8frsf0b60","pricing_plan_id":"cebpf4jnsgd1na2vs0mg"},{"bike_id":"dd74091b-705a-4531-bc39-afff2195d9a1","system_id":"levelo_inurba_marseille","lat":43.24797,"lon":5.37464,"is_reserved":false,"is_disabled":false,"rental_uris":{"android":"levelo://app?vid=dd74091b-705a-4531-bc39-afff2195d9a1","ios":"levelo://app?vid=dd74091b-705a-4531-bc39-afff2195d9a1"},"vehicle_type_id":"4","last_reported":1773905941,"current_range_meters":9600,"station_id":"ce4bhgh2rcd13ifvqfb0","pricing_plan_id":"cebpf4jnsgd1na2vs0mg"},{"bike_id":"b50e93c9-47b0-4fff-b4c5-42460e683cce","system_id":"levelo_inurba_marseille","lat":43.31349,"lon":5.36708,"is_reserved":false,"is_disabled":false,"rental_uris":{"android":"levelo://app?vid=b50e93c9-47b0-4fff-b4c5-42460e683cce","ios":"levelo://app?vid=b50e93c9-47b0-4fff-b4c5-42460e683cce"},"vehicle_type_id":"4","last_reported":1773905941,"current_range_meters":9600,"station_id":"ce4bgr92rcd13ifvqc6g","pricing_plan_id":"cebpf4jnsgd1na2vs0mg"},{"bike_id":"ff871007-e5d8-43b1-85e4-36bdd2615b13","system_id":"levelo_inurba_marseille","lat":43.24174,"lon":5.36411,"is_reserved":false,"is_disabled":false,"rental_uris":{"android":"levelo://app?vid=ff871007-e5d8-43b1-85e4-36bdd2615b13","ios":"levelo://app?vid=ff871007-e5d8-43b1-85e4-36bdd2615b13"},"vehicle_type_id":"4","last_reported":1773905941,"current_range_meters":9600,"station_id":"cpo36qri1sfpv3e86is0","pricing_plan_id":"cebpf4jnsgd1na2vs0mg"},{"bike_id":"e08d225b-8f4a-4ce0-895d-d9f7f842408c","system_id":"levelo_inurba_marseille","lat":43.2416,"lon":5.36419,"is_reserved":false,"is_disabled":false,"rental_uris":{"android":"levelo://app?vid=e08d225b-8f4a-4ce0-895d-d9f7f842408c","ios":"levelo://app?vid=e08d225b-8f4a-4ce0-895d-d9f7f842408c"},"vehicle_type_id":"4","last_reported":1773905941,"current_range_meters":9600,"station_id":"cpo36qri1sfpv3e86is0","pricing_plan_id":"cebpf4jnsgd1na2vs0mg"},{"bike_id":"c29e6317-56e4-48e9-ba82-d8c21f00da4f","system_id":"levelo_inurba_marseille","lat":43.30477,"lon":5.37903,"is_reserved":false,"is_disabled":false,"rental_uris":{"android":"levelo://app?vid=c29e6317-56e4-48e9-ba82-d8c21f00da4f","ios":"levelo://app?vid=c29e6317-56e4-48e9-ba82-d8c21f00da4f"},"vehicle_type_id":"4","last_reported":1773905941,"current_range_meters":9600,"station_id":"","pricing_plan_id":"cebpf4jnsgd1na2vs0mg"},{"bike_id":"d7e6a82e-9176-4df7-9bb6-8cf697140a06","system_id":"levelo_inurba_marseille","lat":43.28877,"lon":5.42507,"is_reserved":false,"is_disabled":false,"rental_uris":{"android":"levelo://app?vid=d7e6a82e-9176-4df7-9bb6-8cf697140a06","ios":"levelo://app?vid=d7e6a82e-9176-4df7-9bb6-8cf697140a06"},"vehicle_type_id":"4","last_reported":1773905941,"current_range_meters":10000,"station_id":"","pricing_plan_id":"cebpf4jnsgd1na2vs0mg"},{"bike_id":"a775511c-9985-4a58-8c4c-775aad7f3e36","system_id":"levelo_inurba_marseille","lat":43.29888,"lon":5.43655,"is_reserved":false,"is_disabled":false,"rental_uris":{"android":"levelo://app?vid=a775511c-9985-4a58-8c4c-775aad7f3e36","ios":"levelo://app?vid=a775511c-9985-4a58-8c4c-775aad7f3e36"},"vehicle_type_id":"4","last_reported":1773905941,"current_range_meters":10000,"station_id":"ce4bhpp2rcd13ifvqhfg","pricing_plan_id":"cebpf4jnsgd1na2vs0mg"},{"bike_id":"a9bd2e4b-ff76-42f8-906d-699b0d60df12","system_id":"levelo_inurba_marseille","lat":43.3014,"lon":5.38082,"is_reserved":false,"is_disabled":false,"rental_uris":{"android":"levelo://app?vid=a9bd2e4b-ff76-42f8-906d-699b0d60df12","ios":"levelo://app?vid=a9bd2e4b-ff76-42f8-906d-699b0d60df12"},"vehicle_type_id":"4","last_reported":1773905941,"current_range_meters":10000,"station_id":"ce4bgjp2rcd13ifvqbh0","pricing_plan_id":"cebpf4jnsgd1na2vs0mg"},{"bike_id":"cea613a5-7ada-402e-8fad-7e6c2f0b5eee","system_id":"levelo_inurba_marseille","lat":43.30667,"lon":5.42445,"is_reserved":false,"is_disabled":true,"rental_uris":{"android":"levelo://app?vid=cea613a5-7ada-402e-8fad-7e6c2f0b5eee","ios":"levelo://app?vid=cea613a5-7ada-402e-8fad-7e6c2f0b5eee"},"vehicle_type_id":"4","last_reported":1773905941,"current_range_meters":10000,"station_id":"st_cvj6ca6bvosntc0bfgr0","pricing_plan_id":"cebpf4jnsgd1na2vs0mg"},{"bike_id":"6018d565-5c8a-4bab-ba5d-0061fbbaec08","system_id":"levelo_inurba_marseille","lat":43.22936,"lon":5.35379,"is_reserved":false,"is_disabled":false,"rental_uris":{"android":"levelo://app?vid=6018d565-5c8a-4bab-ba5d-0061fbbaec08","ios":"levelo://app?vid=6018d565-5c8a-4bab-ba5d-0061fbbaec08"},"vehicle_type_id":"4","last_reported":1773905941,"current_range_meters":10000,"station_id":"cpo3532slgdg3j2ikp40","pricing_plan_id":"cebpf4jnsgd1na2vs0mg"},{"bike_id":"713aa61d-56d7-46e4-81d3-0ccc3b785b48","system_id":"levelo_inurba_marseille","lat":43.23384,"lon":5.41222,"is_reserved":false,"is_disabled":false,"rental_uris":{"android":"levelo://app?vid=713aa61d-56d7-46e4-81d3-0ccc3b785b48","ios":"levelo://app?vid=713aa61d-56d7-46e4-81d3-0ccc3b785b48"},"vehicle_type_id":"4","last_reported":1773905941,"current_range_meters":10000,"station_id":"","pricing_plan_id":"cebpf4jnsgd1na2vs0mg"},{"bike_id":"63156f0c-ece8-4a1c-8328-d5a4afa67128","system_id":"levelo_inurba_marseille","lat":43.28645,"lon":5.48011,"is_reserved":false,"is_disabled":false,"rental_uris":{"android":"levelo://app?vid=63156f0c-ece8-4a1c-8328-d5a4afa67128","ios":"levelo://app?vid=63156f0c-ece8-4a1c-8328-d5a4afa67128"},"vehicle_type_id":"4","last_reported":1773905941,"current_range_meters":10000,"station_id":"","pricing_plan_id":"cebpf4jnsgd1na2vs0mg"},{"bike_id":"aa3a38c4-7c1e-4017-80d2-dd8d19ad1c09","system_id":"levelo_inurba_marseille","lat":43.29842,"lon":5.3628,"is_reserved":false,"is_disabled":false,"rental_uris":{"android":"levelo://app?vid=aa3a38c4-7c1e-4017-80d2-dd8d19ad1c09","ios":"levelo://app?vid=aa3a38c4-7c1e-4017-80d2-dd8d19ad1c09"},"vehicle_type_id":"4","last_reported":1773905941,"current_range_meters":10000,"station_id":"ce4bgpp2rcd13ifvqc3g","pricing_plan_id":"cebpf4jnsgd1na2vs0mg"},{"bike_id":"bd67607b-9fd2-4715-9c4a-5f8f06790731","system_id":"levelo_inurba_marseille","lat":43.29619,"lon":5.40175,"is_reserved":false,"is_disabled":false,"rental_uris":{"android":"levelo://app?vid=bd67607b-9fd2-4715-9c4a-5f8f06790731","ios":"levelo://app?vid=bd67607b-9fd2-4715-9c4a-5f8f06790731"},"vehicle_type_id":"4","last_reported":1773905941,"current_range_meters":10000,"station_id":"","pricing_plan_id":"cebpf4jnsgd1na2vs0mg"},{"bike_id":"44815613-bfa3-44b9-bf54-47beafac777a","system_id":"levelo_inurba_marseille","lat":43.28735,"lon":5.37912,"is_reserved":false,"is_disabled":false,"rental_uris":{"android":"levelo://app?vid=44815613-bfa3-44b9-bf54-47beafac777a","ios":"levelo://app?vid=44815613-bfa3-44b9-bf54-47beafac777a"},"vehicle_type_id":"4","last_reported":1773905941,"current_range_meters":10000,"station_id":"ce4bh9p2rcd13ifvqec0","pricing_plan_id":"cebpf4jnsgd1na2vs0mg"},{"bike_id":"33e015f6-34a2-44b9-a37e-fd5fd3630f6d","system_id":"levelo_inurba_marseille","lat":43.24163,"lon":5.36402,"is_reserved":false,"is_disabled":false,"rental_uris":{"android":"levelo://app?vid=33e015f6-34a2-44b9-a37e-fd5fd3630f6d","ios":"levelo://app?vid=33e015f6-34a2-44b9-a37e-fd5fd3630f6d"},"vehicle_type_id":"4","last_reported":1773905941,"current_range_meters":10000,"station_id":"cpo36qri1sfpv3e86is0","pricing_plan_id":"cebpf4jnsgd1na2vs0mg"},{"bike_id":"b1f54c1d-65b4-40f8-b62a-edcc7028f7f4","system_id":"levelo_inurba_marseille","lat":43.24638,"lon":5.39834,"is_reserved":false,"is_disabled":false,"rental_uris":{"android":"levelo://app?vid=b1f54c1d-65b4-40f8-b62a-edcc7028f7f4","ios":"levelo://app?vid=b1f54c1d-65b4-40f8-b62a-edcc7028f7f4"},"vehicle_type_id":"4","last_reported":1773905941,"current_range_meters":10000,"station_id":"","pricing_plan_id":"cebpf4jnsgd1na2vs0mg"},{"bike_id":"29ceb06a-4df8-4e2a-9dd9-b070e185b37f","system_id":"levelo_inurba_marseille","lat":43.28465,"lon":5.48395,"is_reserved":false,"is_disabled":false,"rental_uris":{"android":"levelo://app?vid=29ceb06a-4df8-4e2a-9dd9-b070e185b37f","ios":"levelo://app?vid=29ceb06a-4df8-4e2a-9dd9-b070e185b37f"},"vehicle_type_id":"4","last_reported":1773905941,"current_range_meters":10000,"station_id":"st_d3svhcjqgbts73a3dn0g","pricing_plan_id":"cebpf4jnsgd1na2vs0mg"},{"bike_id":"123153ac-7f5b-4ef7-8e17-94d041040d48","system_id":"levelo_inurba_marseille","lat":43.31501,"lon":5.37304,"is_reserved":false,"is_disabled":false,"rental_uris":{"android":"levelo://app?vid=123153ac-7f5b-4ef7-8e17-94d041040d48","ios":"levelo://app?vid=123153ac-7f5b-4ef7-8e17-94d041040d48"},"vehicle_type_id":"4","last_reported":1773905941,"current_range_meters":10000,"station_id":"ce4bgt12rcd13ifvqcd0","pricing_plan_id":"cebpf4jnsgd1na2vs0mg"},{"bike_id":"9d7d6495-9f08-4a8f-9cb2-f434fe09cc90","system_id":"levelo_inurba_marseille","lat":43.29812,"lon":5.42734,"is_reserved":false,"is_disabled":false,"rental_uris":{"android":"levelo://app?vid=9d7d6495-9f08-4a8f-9cb2-f434fe09cc90","ios":"levelo://app?vid=9d7d6495-9f08-4a8f-9cb2-f434fe09cc90"},"vehicle_type_id":"4","last_reported":1773905941,"current_range_meters":10000,"station_id":"","pricing_plan_id":"cebpf4jnsgd1na2vs0mg"},{"bike_id":"e5eba928-e3a4-441b-9540-937747ee47b9","system_id":"levelo_inurba_marseille","lat":43.22566,"lon":5.41637,"is_reserved":false,"is_disabled":false,"rental_uris":{"android":"levelo://app?vid=e5eba928-e3a4-441b-9540-937747ee47b9","ios":"levelo://app?vid=e5eba928-e3a4-441b-9540-937747ee47b9"},"vehicle_type_id":"4","last_reported":1773905941,"current_range_meters":10000,"station_id":"st_d2o4gvlbi1j2169b742g","pricing_plan_id":"cebpf4jnsgd1na2vs0mg"},{"bike_id":"78ef72c9-6f66-4bf1-a8f0-404183378bc7","system_id":"levelo_inurba_marseille","lat":43.27984,"lon":5.40037,"is_reserved":false,"is_disabled":true,"rental_uris":{"android":"levelo://app?vid=78ef72c9-6f66-4bf1-a8f0-404183378bc7","ios":"levelo://app?vid=78ef72c9-6f66-4bf1-a8f0-404183378bc7"},"vehicle_type_id":"4","last_reported":1773905941,"current_range_meters":10000,"station_id":"ce4bho92rcd13ifvqh4g","pricing_plan_id":"cebpf4jnsgd1na2vs0mg"},{"bike_id":"f2d4c0c2-780f-4ff3-ab99-2dad40289397","system_id":"levelo_inurba_marseille","lat":43.25289,"lon":5.42219,"is_reserved":false,"is_disabled":false,"rental_uris":{"android":"levelo://app?vid=f2d4c0c2-780f-4ff3-ab99-2dad40289397","ios":"levelo://app?vid=f2d4c0c2-780f-4ff3-ab99-2dad40289397"},"vehicle_type_id":"4","last_reported":1773905941,"current_range_meters":10000,"station_id":"","pricing_plan_id":"cebpf4jnsgd1na2vs0mg"},{"bike_id":"eabf4d2f-073c-41a2-a840-9f5f81a65f64","system_id":"levelo_inurba_marseille","lat":43.29078,"lon":5.42672,"is_reserved":false,"is_disabled":false,"rental_uris":{"android":"levelo://app?vid=eabf4d2f-073c-41a2-a840-9f5f81a65f64","ios":"levelo://app?vid=eabf4d2f-073c-41a2-a840-9f5f81a65f64"},"vehicle_type_id":"4","last_reported":1773905941,"current_range_meters":10000,"station_id":"","pricing_plan_id":"cebpf4jnsgd1na2vs0mg"},{"bike_id":"783f7f57-4b8f-4f75-b786-133a2fb2f668","system_id":"levelo_inurba_marseille","lat":43.22562,"lon":5.41624,"is_reserved":false,"is_disabled":false,"rental_uris":{"android":"levelo://app?vid=783f7f57-4b8f-4f75-b786-133a2fb2f668","ios":"levelo://app?vid=783f7f57-4b8f-4f75-b786-133a2fb2f668"},"vehicle_type_id":"4","last_reported":1773905941,"current_range_meters":10000,"station_id":"st_d2o4gvlbi1j2169b742g","pricing_plan_id":"cebpf4jnsgd1na2vs0mg"},{"bike_id":"b44f796d-bfdc-4d1d-837e-057ebc8e52dd","system_id":"levelo_inurba_marseille","lat":43.30121,"lon":5.43115,"is_reserved":false,"is_disabled":false,"rental_uris":{"android":"levelo://app?vid=b44f796d-bfdc-4d1d-837e-057ebc8e52dd","ios":"levelo://app?vid=b44f796d-bfdc-4d1d-837e-057ebc8e52dd"},"vehicle_type_id":"4","last_reported":1773905941,"current_range_meters":10800,"station_id":"st_d3js3co5814s73ftftug","pricing_plan_id":"cebpf4jnsgd1na2vs0mg"},{"bike_id":"ec30e0eb-4d38-4550-bdc3-59841ed36867","system_id":"levelo_inurba_marseille","lat":43.31174,"lon":5.36769,"is_reserved":false,"is_disabled":false,"rental_uris":{"android":"levelo://app?vid=ec30e0eb-4d38-4550-bdc3-59841ed36867","ios":"levelo://app?vid=ec30e0eb-4d38-4550-bdc3-59841ed36867"},"vehicle_type_id":"4","last_reported":1773905941,"current_range_meters":10800,"station_id":"","pricing_plan_id":"cebpf4jnsgd1na2vs0mg"},{"bike_id":"f64e1a5e-f857-4dfd-9875-3eaf29ad100c","system_id":"levelo_inurba_marseille","lat":43.24083,"lon":5.37777,"is_reserved":false,"is_disabled":false,"rental_uris":{"android":"levelo://app?vid=f64e1a5e-f857-4dfd-9875-3eaf29ad100c","ios":"levelo://app?vid=f64e1a5e-f857-4dfd-9875-3eaf29ad100c"},"vehicle_type_id":"4","last_reported":1773905941,"current_range_meters":10800,"station_id":"ce4bhnp2rcd13ifvqgvg","pricing_plan_id":"cebpf4jnsgd1na2vs0mg"},{"bike_id":"53f48266-4564-420b-96ab-d243233055dc","system_id":"levelo_inurba_marseille","lat":43.28468,"lon":5.48408,"is_reserved":false,"is_disabled":false,"rental_uris":{"android":"levelo://app?vid=53f48266-4564-420b-96ab-d243233055dc","ios":"levelo://app?vid=53f48266-4564-420b-96ab-d243233055dc"},"vehicle_type_id":"4","last_reported":1773905941,"current_range_meters":10800,"station_id":"","pricing_plan_id":"cebpf4jnsgd1na2vs0mg"},{"bike_id":"a7dd1c2f-1863-4db6-9064-755a90a3283b","system_id":"levelo_inurba_marseille","lat":43.29761,"lon":5.42784,"is_reserved":false,"is_disabled":false,"rental_uris":{"android":"levelo://app?vid=a7dd1c2f-1863-4db6-9064-755a90a3283b","ios":"levelo://app?vid=a7dd1c2f-1863-4db6-9064-755a90a3283b"},"vehicle_type_id":"4","last_reported":1773905941,"current_range_meters":10800,"station_id":"st_d3md5207bmas73dh9klg","pricing_plan_id":"cebpf4jnsgd1na2vs0mg"},{"bike_id":"3ea2847b-ff2a-40bd-a180-54cbd3248a95","system_id":"levelo_inurba_marseille","lat":43.24823,"lon":5.37461,"is_reserved":false,"is_disabled":false,"rental_uris":{"android":"levelo://app?vid=3ea2847b-ff2a-40bd-a180-54cbd3248a95","ios":"levelo://app?vid=3ea2847b-ff2a-40bd-a180-54cbd3248a95"},"vehicle_type_id":"4","last_reported":1773905941,"current_range_meters":10800,"station_id":"ce4bhgh2rcd13ifvqfb0","pricing_plan_id":"cebpf4jnsgd1na2vs0mg"},{"bike_id":"6e73d656-5ab7-46b0-bdb5-5e3f0b4b0535","system_id":"levelo_inurba_marseille","lat":43.29283,"lon":5.36851,"is_reserved":false,"is_disabled":false,"rental_uris":{"android":"levelo://app?vid=6e73d656-5ab7-46b0-bdb5-5e3f0b4b0535","ios":"levelo://app?vid=6e73d656-5ab7-46b0-bdb5-5e3f0b4b0535"},"vehicle_type_id":"4","last_reported":1773905941,"current_range_meters":10800,"station_id":"ce4bhbp2rcd13ifvqesg","pricing_plan_id":"cebpf4jnsgd1na2vs0mg"},{"bike_id":"7bcbafff-a787-4b1d-bd9a-6e85220ef588","system_id":"levelo_inurba_marseille","lat":43.27312,"lon":5.39083,"is_reserved":false,"is_disabled":false,"rental_uris":{"android":"levelo://app?vid=7bcbafff-a787-4b1d-bd9a-6e85220ef588","ios":"levelo://app?vid=7bcbafff-a787-4b1d-bd9a-6e85220ef588"},"vehicle_type_id":"4","last_reported":1773905941,"current_range_meters":10800,"station_id":"ce4bhgp2rcd13ifvqfe0","pricing_plan_id":"cebpf4jnsgd1na2vs0mg"},{"bike_id":"c4c606fa-e98e-40e4-8818-f439f721fc0a","system_id":"levelo_inurba_marseille","lat":43.24065,"lon":5.3778,"is_reserved":false,"is_disabled":true,"rental_uris":{"android":"levelo://app?vid=c4c606fa-e98e-40e4-8818-f439f721fc0a","ios":"levelo://app?vid=c4c606fa-e98e-40e4-8818-f439f721fc0a"},"vehicle_type_id":"4","last_reported":1773905941,"current_range_meters":10800,"station_id":"ce4bhnp2rcd13ifvqgvg","pricing_plan_id":"cebpf4jnsgd1na2vs0mg"},{"bike_id":"89ad46cf-ad84-4e5e-be57-87ac2cebe69c","system_id":"levelo_inurba_marseille","lat":43.28462,"lon":5.4839,"is_reserved":false,"is_disabled":false,"rental_uris":{"android":"levelo://app?vid=89ad46cf-ad84-4e5e-be57-87ac2cebe69c","ios":"levelo://app?vid=89ad46cf-ad84-4e5e-be57-87ac2cebe69c"},"vehicle_type_id":"4","last_reported":1773905941,"current_range_meters":10800,"station_id":"st_d3svhcjqgbts73a3dn0g","pricing_plan_id":"cebpf4jnsgd1na2vs0mg"},{"bike_id":"61c58fc0-3318-4add-8ec9-5047360fdd0d","system_id":"levelo_inurba_marseille","lat":43.2533,"lon":5.42146,"is_reserved":false,"is_disabled":false,"rental_uris":{"android":"levelo://app?vid=61c58fc0-3318-4add-8ec9-5047360fdd0d","ios":"levelo://app?vid=61c58fc0-3318-4add-8ec9-5047360fdd0d"},"vehicle_type_id":"4","last_reported":1773905941,"current_range_meters":10800,"station_id":"st_d2m65c5bi1j21697t3ng","pricing_plan_id":"cebpf4jnsgd1na2vs0mg"},{"bike_id":"7e77126d-4367-40ad-aa10-44fec01b3afc","system_id":"levelo_inurba_marseille","lat":43.2294,"lon":5.35392,"is_reserved":false,"is_disabled":false,"rental_uris":{"android":"levelo://app?vid=7e77126d-4367-40ad-aa10-44fec01b3afc","ios":"levelo://app?vid=7e77126d-4367-40ad-aa10-44fec01b3afc"},"vehicle_type_id":"4","last_reported":1773905941,"current_range_meters":10800,"station_id":"cpo3532slgdg3j2ikp40","pricing_plan_id":"cebpf4jnsgd1na2vs0mg"},{"bike_id":"2f7f75ba-f923-43dc-a5ce-a111f2e631a5","system_id":"levelo_inurba_marseille","lat":43.27809,"lon":5.40716,"is_reserved":false,"is_disabled":false,"rental_uris":{"android":"levelo://app?vid=2f7f75ba-f923-43dc-a5ce-a111f2e631a5","ios":"levelo://app?vid=2f7f75ba-f923-43dc-a5ce-a111f2e631a5"},"vehicle_type_id":"4","last_reported":1773905941,"current_range_meters":10800,"station_id":"ce4bhnh2rcd13ifvqgtg","pricing_plan_id":"cebpf4jnsgd1na2vs0mg"},{"bike_id":"c37d7dba-1b35-4836-9628-3a7bf03ac96f","system_id":"levelo_inurba_marseille","lat":43.23401,"lon":5.41231,"is_reserved":false,"is_disabled":false,"rental_uris":{"android":"levelo://app?vid=c37d7dba-1b35-4836-9628-3a7bf03ac96f","ios":"levelo://app?vid=c37d7dba-1b35-4836-9628-3a7bf03ac96f"},"vehicle_type_id":"4","last_reported":1773905941,"current_range_meters":11200,"station_id":"","pricing_plan_id":"cebpf4jnsgd1na2vs0mg"},{"bike_id":"d20fe808-e687-447e-bd57-e26f24a89071","system_id":"levelo_inurba_marseille","lat":43.24175,"lon":5.36399,"is_reserved":false,"is_disabled":false,"rental_uris":{"android":"levelo://app?vid=d20fe808-e687-447e-bd57-e26f24a89071","ios":"levelo://app?vid=d20fe808-e687-447e-bd57-e26f24a89071"},"vehicle_type_id":"4","last_reported":1773905941,"current_range_meters":11200,"station_id":"cpo36qri1sfpv3e86is0","pricing_plan_id":"cebpf4jnsgd1na2vs0mg"},{"bike_id":"9594196e-a8f0-49a6-8240-437765665f76","system_id":"levelo_inurba_marseille","lat":43.3028,"lon":5.36906,"is_reserved":false,"is_disabled":false,"rental_uris":{"android":"levelo://app?vid=9594196e-a8f0-49a6-8240-437765665f76","ios":"levelo://app?vid=9594196e-a8f0-49a6-8240-437765665f76"},"vehicle_type_id":"4","last_reported":1773905941,"current_range_meters":11200,"station_id":"ce4bgqh2rcd13ifvqc5g","pricing_plan_id":"cebpf4jnsgd1na2vs0mg"},{"bike_id":"58c61ec3-d0cd-423a-9ce5-ddcd4cdbc15e","system_id":"levelo_inurba_marseille","lat":43.27407,"lon":5.39416,"is_reserved":false,"is_disabled":true,"rental_uris":{"android":"levelo://app?vid=58c61ec3-d0cd-423a-9ce5-ddcd4cdbc15e","ios":"levelo://app?vid=58c61ec3-d0cd-423a-9ce5-ddcd4cdbc15e"},"vehicle_type_id":"4","last_reported":1773905941,"current_range_meters":11200,"station_id":"ce4bhdp2rcd13ifvqf20","pricing_plan_id":"cebpf4jnsgd1na2vs0mg"},{"bike_id":"568fbf5e-7db2-4bd0-8864-221a76bd289e","system_id":"levelo_inurba_marseille","lat":43.23893,"lon":5.37463,"is_reserved":false,"is_disabled":false,"rental_uris":{"android":"levelo://app?vid=568fbf5e-7db2-4bd0-8864-221a76bd289e","ios":"levelo://app?vid=568fbf5e-7db2-4bd0-8864-221a76bd289e"},"vehicle_type_id":"4","last_reported":1773905941,"current_range_meters":11200,"station_id":"st_d6sm7csbq4hs73f8fpjg","pricing_plan_id":"cebpf4jnsgd1na2vs0mg"},{"bike_id":"7fa64d84-cd92-4f02-a79d-c348b129b15f","system_id":"levelo_inurba_marseille","lat":43.24173,"lon":5.36414,"is_reserved":false,"is_disabled":false,"rental_uris":{"android":"levelo://app?vid=7fa64d84-cd92-4f02-a79d-c348b129b15f","ios":"levelo://app?vid=7fa64d84-cd92-4f02-a79d-c348b129b15f"},"vehicle_type_id":"4","last_reported":1773905941,"current_range_meters":11200,"station_id":"cpo36qri1sfpv3e86is0","pricing_plan_id":"cebpf4jnsgd1na2vs0mg"},{"bike_id":"95d44eb9-b8bd-4a5c-957d-69e7733c9c02","system_id":"levelo_inurba_marseille","lat":43.25918,"lon":5.40919,"is_reserved":false,"is_disabled":false,"rental_uris":{"android":"levelo://app?vid=95d44eb9-b8bd-4a5c-957d-69e7733c9c02","ios":"levelo://app?vid=95d44eb9-b8bd-4a5c-957d-69e7733c9c02"},