{"last_updated":1740485876,"ttl":60,"version":"2.2","data":{"bikes":[{"bike_id":"16a64962-c840-403e-8215-260ce50518b7","system_id":"levelo_inurba_marseille","lat":43.28163,"lon":5.4265,"is_reserved":false,"is_disabled":true,"rental_uris":{"android":"levelo://app?vid=16a64962-c840-403e-8215-260ce50518b7","ios":"levelo://app?vid=16a64962-c840-403e-8215-260ce50518b7"},"vehicle_type_id":"4","last_reported":1740485877,"current_range_meters":2800,"station_id":"ce4bhnh2rcd13ifvqgug","pricing_plan_id":"cebpf4jnsgd1na2vs0mg"},{"bike_id":"01e556fc-559c-452f-b1d3-54f47c63edc5","system_id":"levelo_inurba_marseille","lat":43.29277,"lon":5.36851,"is_reserved":false,"is_disabled":true,"rental_uris":{"android":"levelo://app?vid=01e556fc-559c-452f-b1d3-54f47c63edc5","ios":"levelo://app?vid=01e556fc-559c-452f-b1d3-54f47c63edc5"},"vehicle_type_id":"4","last_reported":1740485877,"current_range_meters":3200,"station_id":"ce4bhbp2rcd13ifvqesg","pricing_plan_id":"cebpf4jnsgd1na2vs0mg"},{"bike_id":"a06dabec-a4a5-4b81-a926-e6d728f342d2","system_id":"levelo_inurba_marseille","lat":43.30606,"lon":5.39372,"is_reserved":false,"is_disabled":false,"rental_uris":{"android":"levelo://app?vid=a06dabec-a4a5-4b81-a926-e6d728f342d2","ios":"levelo://app?vid=a06dabec-a4a5-4b81-a926-e6d728f342d2"},"vehicle_type_id":"4","last_reported":1740485877,"current_range_meters":3200,"station_id":"ce4bh0p2rcd13ifvqd80","pricing_plan_id":"cebpf4jnsgd1na2vs0mg"},{"bike_id":"f626cb21-124f-418e-abb7-73c4fcee0d36","system_id":"levelo_inurba_marseille","lat":43.2582,"lon":5.39445,"is_reserved":false,"is_disabled":true,"rental_uris":{"android":"levelo://app?vid=f626cb21-124f-418e-abb7-73c4fcee0d36","ios":"levelo://app?vid=f626cb21-124f-418e-abb7-73c4fcee0d36"},"vehicle_type_id":"4","last_reported":1740485877,"current_range_meters":3600,"station_id":"","pricing_plan_id":"cebpf4jnsgd1na2vs0mg"},{"bike_id":"804081b4-8100-41fd-b399-51fe4f1e9382","system_id":"levelo_inurba_marseille","lat":43.299,"lon":5.37466,"is_reserved":false,"is_disabled":false,"rental_uris":{"android":"levelo://app?vid=804081b4-8100-41fd-b399-51fe4f1e9382","ios":"levelo://app?vid=804081b4-8100-41fd-b399-51fe4f1e9382"},"vehicle_type_id":"4","last_reported":1740485877,"current_range_meters":4800,"station_id":"ce4bgjh2rcd13ifvqbg0","pricing_plan_id":"cebpf4jnsgd1na2vs0mg"},{"bike_id":"3b4b1f91-efa4-4ec8-8e80-cb7e1207d10d","system_id":"levelo_inurba_marseille","lat":43.2842,"lon":5.34978,"is_reserved":false,"is_disabled":false,"rental_uris":{"android":"levelo://app?vid=3b4b1f91-efa4-4ec8-8e80-cb7e1207d10d","ios":"levelo://app?vid=3b4b1f91-efa4-4ec8-8e80-cb7e1207d10d"},"vehicle_type_id":"4","last_reported":1740485877,"current_range_meters":4000,"station_id":"ce4bhbh2rcd13ifvqepg","pricing_plan_id":"cebpf4jnsgd1na2vs0mg"},{"bike_id":"bddf8e7b-3da7-4773-b7ae-9c6dd1337414","system_id":"levelo_inurba_marseille","lat":43.28152,"lon":5.42648,"is_reserved":false,"is_disabled":true,"rental_uris":{"android":"levelo://app?vid=bddf8e7b-3da7-4773-b7ae-9c6dd1337414","ios":"levelo://app?vid=bddf8e7b-3da7-4773-b7ae-9c6dd1337414"},"vehicle_type_id":"4","last_reported":1740485877,"current_range_meters":4800,"station_id":"ce4bhnh2rcd13ifvqgug","pricing_plan_id":"cebpf4jnsgd1na2vs0mg"},{"bike_id":"bd1c9204-109d-453d-a655-cc2878aad0c5","system_id":"levelo_inurba_marseille","lat":43.29899,"lon":5.43655,"is_reserved":false,"is_disabled":false,"rental_uris":{"android":"levelo://app?vid=bd1c9204-109d-453d-a655-cc2878aad0c5","ios":"levelo://app?vid=bd1c9204-109d-453d-a655-cc2878aad0c5"},"vehicle_type_id":"4","last_reported":1740485877,"current_range_meters":5600,"station_id":"ce4bhpp2rcd13ifvqhfg","pricing_plan_id":"cebpf4jnsgd1na2vs0mg"},{"bike_id":"a4a076cb-83e7-4662-bf1c-6f4109231c5e","system_id":"levelo_inurba_marseille","lat":43.29612,"lon":5.38099,"is_reserved":false,"is_disabled":false,"rental_uris":{"android":"levelo://app?vid=a4a076cb-83e7-4662-bf1c-6f4109231c5e","ios":"levelo://app?vid=a4a076cb-83e7-4662-bf1c-6f4109231c5e"},"vehicle_type_id":"4","last_reported":1740485877,"current_range_meters":5600,"station_id":"ce4bgl12rcd13ifvqbo0","pricing_plan_id":"cebpf4jnsgd1na2vs0mg"},{"bike_id":"6e8d906f-35d4-49fd-90c5-6862c54f08e8","system_id":"levelo_inurba_marseille","lat":43.306028,"lon":5.372391,"is_reserved":false,"is_disabled":false,"rental_uris":{"android":"levelo://app?vid=6e8d906f-35d4-49fd-90c5-6862c54f08e8","ios":"levelo://app?vid=6e8d906f-35d4-49fd-90c5-6862c54f08e8"},"vehicle_type_id":"4","last_reported":1740485877,"current_range_meters":4800,"station_id":"ce4bgrp2rcd13ifvqc9g","pricing_plan_id":"cebpf4jnsgd1na2vs0mg"},{"bike_id":"87bbda1f-0db0-4d79-a046-a87b5e94995a","system_id":"levelo_inurba_marseille","lat":43.24171,"lon":5.364,"is_reserved":false,"is_disabled":false,"rental_uris":{"android":"levelo://app?vid=87bbda1f-0db0-4d79-a046-a87b5e94995a","ios":"levelo://app?vid=87bbda1f-0db0-4d79-a046-a87b5e94995a"},"vehicle_type_id":"4","last_reported":1740485877,"current_range_meters":6400,"station_id":"cpo36qri1sfpv3e86is0","pricing_plan_id":"cebpf4jnsgd1na2vs0mg"},{"bike_id":"04ebefe5-93e3-457c-9e42-b8995765da61","system_id":"levelo_inurba_marseille","lat":43.27501,"lon":5.42458,"is_reserved":false,"is_disabled":false,"rental_uris":{"android":"levelo://app?vid=04ebefe5-93e3-457c-9e42-b8995765da61","ios":"levelo://app?vid=04ebefe5-93e3-457c-9e42-b8995765da61"},"vehicle_type_id":"4","last_reported":1740485877,"current_range_meters":8000,"station_id":"ce4bhn92rcd13ifvqgrg","pricing_plan_id":"cebpf4jnsgd1na2vs0mg"},{"bike_id":"71f606a5-4879-4b26-9ccd-1543fb1a6ec7","system_id":"levelo_inurba_marseille","lat":43.28355,"lon":5.39041,"is_reserved":false,"is_disabled":false,"rental_uris":{"android":"levelo://app?vid=71f606a5-4879-4b26-9ccd-1543fb1a6ec7","ios":"levelo://app?vid=71f606a5-4879-4b26-9ccd-1543fb1a6ec7"},"vehicle_type_id":"4","last_reported":1740485877,"current_range_meters":6400,"station_id":"","pricing_plan_id":"cebpf4jnsgd1na2vs0mg"},{"bike_id":"15d63c41-d467-4e01-ab9d-1a4d98399eb8","system_id":"levelo_inurba_marseille","lat":43.2808,"lon":5.39673,"is_reserved":false,"is_disabled":true,"rental_uris":{"android":"levelo://app?vid=15d63c41-d467-4e01-ab9d-1a4d98399eb8","ios":"levelo://app?vid=15d63c41-d467-4e01-ab9d-1a4d98399eb8"},"vehicle_type_id":"4","last_reported":1740485877,"current_range_meters":6800,"station_id":"ce4bho12rcd13ifvqh2g","pricing_plan_id":"cebpf4jnsgd1na2vs0mg"},{"bike_id":"c43b050f-7f23-467d-b65b-33c760f3de58","system_id":"levelo_inurba_marseille","lat":43.32482,"lon":5.36569,"is_reserved":false,"is_disabled":false,"rental_uris":{"android":"levelo://app?vid=c43b050f-7f23-467d-b65b-33c760f3de58","ios":"levelo://app?vid=c43b050f-7f23-467d-b65b-33c760f3de58"},"vehicle_type_id":"4","last_reported":1740485877,"current_range_meters":3200,"station_id":"ce4bhs12rcd13ifvqhvg","pricing_plan_id":"cebpf4jnsgd1na2vs0mg"},{"bike_id":"03ce47b5-ee6b-4682-aa26-feb8125917b1","system_id":"levelo_inurba_marseille","lat":43.30952,"lon":5.39037,"is_reserved":false,"is_disabled":false,"rental_uris":{"android":"levelo://app?vid=03ce47b5-ee6b-4682-aa26-feb8125917b1","ios":"levelo://app?vid=03ce47b5-ee6b-4682-aa26-feb8125917b1"},"vehicle_type_id":"4","last_reported":1740485877,"current_range_meters":6800,"station_id":"ce4bgup2rcd13ifvqco0","pricing_plan_id":"cebpf4jnsgd1na2vs0mg"},{"bike_id":"bfcc860c-8e1f-43a5-88fb-19f598e03b85","system_id":"levelo_inurba_marseille","lat":43.30292,"lon":5.39195,"is_reserved":false,"is_disabled":false,"rental_uris":{"android":"levelo://app?vid=bfcc860c-8e1f-43a5-88fb-19f598e03b85","ios":"levelo://app?vid=bfcc860c-8e1f-43a5-88fb-19f598e03b85"},"vehicle_type_id":"4","last_reported":1740485877,"current_range_meters":6800,"station_id":"ce4bgkh2rcd13ifvqbk0","pricing_plan_id":"cebpf4jnsgd1na2vs0mg"},{"bike_id":"f3e2d31b-bf16-4d93-8358-e1b5fc69cdb1","system_id":"levelo_inurba_marseille","lat":43.28101,"lon":5.39913,"is_reserved":false,"is_disabled":false,"rental_uris":{"android":"levelo://app?vid=f3e2d31b-bf16-4d93-8358-e1b5fc69cdb1","ios":"levelo://app?vid=f3e2d31b-bf16-4d93-8358-e1b5fc69cdb1"},"vehicle_type_id":"4","last_reported":1740485877,"current_range_meters":6800,"station_id":"","pricing_plan_id":"cebpf4jnsgd1na2vs0mg"},{"bike_id":"1b4ad65d-2b7e-466a-b651-8e6e9e96a579","system_id":"levelo_inurba_marseille","lat":43.31353,"lon":5.3672,"is_reserved":false,"is_disabled":false,"rental_uris":{"android":"levelo://app?vid=1b4ad65d-2b7e-466a-b651-8e6e9e96a579","ios":"levelo://app?vid=1b4ad65d-2b7e-466a-b651-8e6e9e96a579"},"vehicle_type_id":"4","last_reported":1740485877,"current_range_meters":6800,"station_id":"ce4bgr92rcd13ifvqc6g","pricing_plan_id":"cebpf4jnsgd1na2vs0mg"},{"bike_id":"0eee4edb-1c20-4e93-b6f2-649d4c892052","system_id":"levelo_inurba_marseille","lat":43.31488,"lon":5.37315,"is_reserved":false,"is_disabled":false,"rental_uris":{"android":"levelo://app?vid=0eee4edb-1c20-4e93-b6f2-649d4c892052","ios":"levelo://app?vid=0eee4edb-1c20-4e93-b6f2-649d4c892052"},"vehicle_type_id":"4","last_reported":1740485877,"current_range_meters":8000,"station_id":"ce4bgt12rcd13ifvqcd0","pricing_plan_id":"cebpf4jnsgd1na2vs0mg"},{"bike_id":"c93a81cd-6f4d-4858-87d2-9289cc072b8d","system_id":"levelo_inurba_marseille","lat":43.24135,"lon":5.39644,"is_reserved":false,"is_disabled":false,"rental_uris":{"android":"levelo://app?vid=c93a81cd-6f4d-4858-87d2-9289cc072b8d","ios":"levelo://app?vid=c93a81cd-6f4d-4858-87d2-9289cc072b8d"},"vehicle_type_id":"4","last_reported":1740485877,"current_range_meters":8000,"station_id":"ce4bhn12rcd13ifvqgpg","pricing_plan_id":"cebpf4jnsgd1na2vs0mg"},{"bike_id":"c0470a59-aade-4991-a5b7-a2ede87dd750","system_id":"levelo_inurba_marseille","lat":43.2407,"lon":5.37768,"is_reserved":false,"is_disabled":false,"rental_uris":{"android":"levelo://app?vid=c0470a59-aade-4991-a5b7-a2ede87dd750","ios":"levelo://app?vid=c0470a59-aade-4991-a5b7-a2ede87dd750"},"vehicle_type_id":"4","last_reported":1740485877,"current_range_meters":8000,"station_id":"ce4bhnp2rcd13ifvqgvg","pricing_plan_id":"cebpf4jnsgd1na2vs0mg"},{"bike_id":"ec17ff6a-26f9-4514-bd43-4ec7017c0b01","system_id":"levelo_inurba_marseille","lat":43.29314,"lon":5.37663,"is_reserved":false,"is_disabled":false,"rental_uris":{"android":"levelo://app?vid=ec17ff6a-26f9-4514-bd43-4ec7017c0b01","ios":"levelo://app?vid=ec17ff6a-26f9-4514-bd43-4ec7017c0b01"},"vehicle_type_id":"4","last_reported":1740485877,"current_range_meters":8000,"station_id":"","pricing_plan_id":"cebpf4jnsgd1na2vs0mg"},{"bike_id":"146aebc9-098b-47c2-b26e-46c1350561bc","system_id":"levelo_inurba_marseille","lat":43.33777,"lon":5.37488,"is_reserved":false,"is_disabled":false,"rental_uris":{"android":"levelo://app?vid=146aebc9-098b-47c2-b26e-46c1350561bc","ios":"levelo://app?vid=146aebc9-098b-47c2-b26e-46c1350561bc"},"vehicle_type_id":"4","last_reported":1740485877,"current_range_meters":8000,"station_id":"","pricing_plan_id":"cebpf4jnsgd1na2vs0mg"},{"bike_id":"df758fca-4086-4dd7-bbd7-0dfa866e2040","system_id":"levelo_inurba_marseille","lat":43.29558,"lon":5.37504,"is_reserved":false,"is_disabled":false,"rental_uris":{"android":"levelo://app?vid=df758fca-4086-4dd7-bbd7-0dfa866e2040","ios":"levelo://app?vid=df758fca-4086-4dd7-bbd7-0dfa866e2040"},"vehicle_type_id":"4","last_reported":1740485877,"current_range_meters":4800,"station_id":"ce4bgkp2rcd13ifvqbmg","pricing_plan_id":"cebpf4jnsgd1na2vs0mg"},{"bike_id":"62a98753-2d05-4885-8ae9-ddccaa0dcf03","system_id":"levelo_inurba_marseille","lat":43.27496,"lon":5.42465,"is_reserved":false,"is_disabled":false,"rental_uris":{"android":"levelo://app?vid=62a98753-2d05-4885-8ae9-ddccaa0dcf03","ios":"levelo://app?vid=62a98753-2d05-4885-8ae9-ddccaa0dcf03"},"vehicle_type_id":"4","last_reported":1740485877,"current_range_meters":8000,"station_id":"ce4bhn92rcd13ifvqgrg","pricing_plan_id":"cebpf4jnsgd1na2vs0mg"},{"bike_id":"a0520feb-8cad-4647-a69d-62861b7e7392","system_id":"levelo_inurba_marseille","lat":43.288535,"lon":5.358485,"is_reserved":false,"is_disabled":false,"rental_uris":{"android":"levelo://app?vid=a0520feb-8cad-4647-a69d-62861b7e7392","ios":"levelo://app?vid=a0520feb-8cad-4647-a69d-62861b7e7392"},"vehicle_type_id":"4","last_reported":1740485877,"current_range_meters":8800,"station_id":"ce4bhb12rcd13ifvqem0","pricing_plan_id":"cebpf4jnsgd1na2vs0mg"},{"bike_id":"6a1b71e6-4075-497f-ac39-e979e8ef35b2","system_id":"levelo_inurba_marseille","lat":43.31455,"lon":5.37603,"is_reserved":false,"is_disabled":false,"rental_uris":{"android":"levelo://app?vid=6a1b71e6-4075-497f-ac39-e979e8ef35b2","ios":"levelo://app?vid=6a1b71e6-4075-497f-ac39-e979e8ef35b2"},"vehicle_type_id":"4","last_reported":1740485877,"current_range_meters":3600,"station_id":"","pricing_plan_id":"cebpf4jnsgd1na2vs0mg"},{"bike_id":"5162c2ce-a731-4d3b-a21a-a1c8cb63150f","system_id":"levelo_inurba_marseille","lat":43.31716,"lon":5.43714,"is_reserved":false,"is_disabled":false,"rental_uris":{"android":"levelo://app?vid=5162c2ce-a731-4d3b-a21a-a1c8cb63150f","ios":"levelo://app?vid=5162c2ce-a731-4d3b-a21a-a1c8cb63150f"},"vehicle_type_id":"4","last_reported":1740485877,"current_range_meters":8400,"station_id":"ce4bhp92rcd13ifvqhcg","pricing_plan_id":"cebpf4jnsgd1na2vs0mg"},{"bike_id":"4fb627ac-d6ac-4430-84bf-aa6b87c61c61","system_id":"levelo_inurba_marseille","lat":43.24804,"lon":5.37472,"is_reserved":false,"is_disabled":false,"rental_uris":{"android":"levelo://app?vid=4fb627ac-d6ac-4430-84bf-aa6b87c61c61","ios":"levelo://app?vid=4fb627ac-d6ac-4430-84bf-aa6b87c61c61"},"vehicle_type_id":"4","last_reported":1740485877,"current_range_meters":8400,"station_id":"ce4bhgh2rcd13ifvqfb0","pricing_plan_id":"cebpf4jnsgd1na2vs0mg"},{"bike_id":"f19e92dc-41ec-49fd-a403-aa272f00dbfb","system_id":"levelo_inurba_marseille","lat":43.30435,"lon":5.38903,"is_reserved":false,"is_disabled":false,"rental_uris":{"android":"levelo://app?vid=f19e92dc-41ec-49fd-a403-aa272f00dbfb","ios":"levelo://app?vid=f19e92dc-41ec-49fd-a403-aa272f00dbfb"},"vehicle_type_id":"4","last_reported":1740485877,"current_range_meters":8400,"station_id":"ce4bgk12rcd13ifvqbi0","pricing_plan_id":"cebpf4jnsgd1na2vs0mg"},{"bike_id":"b8056528-61d4-45d9-b2dd-e6ab8ef50c51","system_id":"levelo_inurba_marseille","lat":43.27991,"lon":5.39551,"is_reserved":false,"is_disabled":false,"rental_uris":{"android":"levelo://app?vid=b8056528-61d4-45d9-b2dd-e6ab8ef50c51","ios":"levelo://app?vid=b8056528-61d4-45d9-b2dd-e6ab8ef50c51"},"vehicle_type_id":"4","last_reported":1740485877,"current_range_meters":9200,"station_id":"ce4bh092rcd13ifvqd30","pricing_plan_id":"cebpf4jnsgd1na2vs0mg"},{"bike_id":"7c09ddb3-b8a8-40ec-915c-a5aa77113ada","system_id":"levelo_inurba_marseille","lat":43.28429,"lon":5.37526,"is_reserved":false,"is_disabled":false,"rental_uris":{"android":"levelo://app?vid=7c09ddb3-b8a8-40ec-915c-a5aa77113ada","ios":"levelo://app?vid=7c09ddb3-b8a8-40ec-915c-a5aa77113ada"},"vehicle_type_id":"4","last_reported":1740485877,"current_range_meters":8800,"station_id":"ce4bh412rcd13ifvqds0","pricing_plan_id":"cebpf4jnsgd1na2vs0mg"},{"bike_id":"446313c8-37fc-4f36-b9c3-a1d481dfb62b","system_id":"levelo_inurba_marseille","lat":43.26817,"lon":5.41104,"is_reserved":false,"is_disabled":false,"rental_uris":{"android":"levelo://app?vid=446313c8-37fc-4f36-b9c3-a1d481dfb62b","ios":"levelo://app?vid=446313c8-37fc-4f36-b9c3-a1d481dfb62b"},"vehicle_type_id":"4","last_reported":1740485877,"current_range_meters":8800,"station_id":"","pricing_plan_id":"cebpf4jnsgd1na2vs0mg"},{"bike_id":"d469ae70-b06c-49f4-b9c4-a41e0d165d26","system_id":"levelo_inurba_marseille","lat":43.24168,"lon":5.3642,"is_reserved":false,"is_disabled":false,"rental_uris":{"android":"levelo://app?vid=d469ae70-b06c-49f4-b9c4-a41e0d165d26","ios":"levelo://app?vid=d469ae70-b06c-49f4-b9c4-a41e0d165d26"},"vehicle_type_id":"4","last_reported":1740485877,"current_range_meters":9200,"station_id":"cpo36qri1sfpv3e86is0","pricing_plan_id":"cebpf4jnsgd1na2vs0mg"},{"bike_id":"ce08e129-3210-4784-8e00-3661099c392d","system_id":"levelo_inurba_marseille","lat":43.2991,"lon":5.43654,"is_reserved":false,"is_disabled":false,"rental_uris":{"android":"levelo://app?vid=ce08e129-3210-4784-8e00-3661099c392d","ios":"levelo://app?vid=ce08e129-3210-4784-8e00-3661099c392d"},"vehicle_type_id":"4","last_reported":1740485877,"current_range_meters":9200,"station_id":"ce4bhpp2rcd13ifvqhfg","pricing_plan_id":"cebpf4jnsgd1na2vs0mg"},{"bike_id":"134e832a-aa90-4ef3-8ba6-b68c12ac5055","system_id":"levelo_inurba_marseille","lat":43.31342,"lon":5.39729,"is_reserved":false,"is_disabled":false,"rental_uris":{"android":"levelo://app?vid=134e832a-aa90-4ef3-8ba6-b68c12ac5055","ios":"levelo://app?vid=134e832a-aa90-4ef3-8ba6-b68c12ac5055"},"vehicle_type_id":"4","last_reported":1740485877,"current_range_meters":9200,"station_id":"ce4bgvp2rcd13ifvqcu0","pricing_plan_id":"cebpf4jnsgd1na2vs0mg"},{"bike_id":"2d9f0777-5b96-4c1e-80c5-10449636aa92","system_id":"levelo_inurba_marseille","lat":43.3236,"lon":5.38891,"is_reserved":false,"is_disabled":false,"rental_uris":{"android":"levelo://app?vid=2d9f0777-5b96-4c1e-80c5-10449636aa92","ios":"levelo://app?vid=2d9f0777-5b96-4c1e-80c5-10449636aa92"},"vehicle_type_id":"4","last_reported":1740485877,"current_range_meters":9200,"station_id":"ce4bhqp2rcd13ifvqhog","pricing_plan_id":"cebpf4jnsgd1na2vs0mg"},{"bike_id":"ddbe821d-f29a-4534-b7bd-88f7b09f1d27","system_id":"levelo_inurba_marseille","lat":43.30429,"lon":5.38903,"is_reserved":false,"is_disabled":false,"rental_uris":{"android":"levelo://app?vid=ddbe821d-f29a-4534-b7bd-88f7b09f1d27","ios":"levelo://app?vid=ddbe821d-f29a-4534-b7bd-88f7b09f1d27"},"vehicle_type_id":"4","last_reported":1740485877,"current_range_meters":9600,"station_id":"ce4bgk12rcd13ifvqbi0","pricing_plan_id":"cebpf4jnsgd1na2vs0mg"},{"bike_id":"c19fcd97-0454-4e0a-8495-3da274943c11","system_id":"levelo_inurba_marseille","lat":43.28856,"lon":5.35878,"is_reserved":false,"is_disabled":false,"rental_uris":{"android":"levelo://app?vid=c19fcd97-0454-4e0a-8495-3da274943c11","ios":"levelo://app?vid=c19fcd97-0454-4e0a-8495-3da274943c11"},"vehicle_type_id":"4","last_reported":1740485877,"current_range_meters":9600,"station_id":"ce4bhb12rcd13ifvqem0","pricing_plan_id":"cebpf4jnsgd1na2vs0mg"},{"bike_id":"1070890e-e929-4c21-af9f-4c0716590e37","system_id":"levelo_inurba_marseille","lat":43.25923,"lon":5.40905,"is_reserved":false,"is_disabled":false,"rental_uris":{"android":"levelo://app?vid=1070890e-e929-4c21-af9f-4c0716590e37","ios":"levelo://app?vid=1070890e-e929-4c21-af9f-4c0716590e37"},"vehicle_type_id":"4","last_reported":1740485877,"current_range_meters":10000,"station_id":"ce4bhm92rcd13ifvqglg","pricing_plan_id":"cebpf4jnsgd1na2vs0mg"},{"bike_id":"c2bc124d-3287-46ad-ac43-c15a3d180fd3","system_id":"levelo_inurba_marseille","lat":43.29927,"lon":5.4021,"is_reserved":false,"is_disabled":false,"rental_uris":{"android":"levelo://app?vid=c2bc124d-3287-46ad-ac43-c15a3d180fd3","ios":"levelo://app?vid=c2bc124d-3287-46ad-ac43-c15a3d180fd3"},"vehicle_type_id":"4","last_reported":1740485877,"current_range_meters":6000,"station_id":"","pricing_plan_id":"cebpf4jnsgd1na2vs0mg"},{"bike_id":"548b7d29-f37d-4d9f-a4f0-b721fab6da1b","system_id":"levelo_inurba_marseille","lat":43.2797,"lon":5.38742,"is_reserved":false,"is_disabled":false,"rental_uris":{"android":"levelo://app?vid=548b7d29-f37d-4d9f-a4f0-b721fab6da1b","ios":"levelo://app?vid=548b7d29-f37d-4d9f-a4f0-b721fab6da1b"},"vehicle_type_id":"4","last_reported":1740485877,"current_range_meters":10800,"station_id":"ce4bhg12rcd13ifvqf80","pricing_plan_id":"cebpf4jnsgd1na2vs0mg"},{"bike_id":"cb1dca2d-42b0-4b63-b8de-48ac3f2952bb","system_id":"levelo_inurba_marseille","lat":43.33028,"lon":5.39064,"is_reserved":false,"is_disabled":false,"rental_uris":{"android":"levelo://app?vid=cb1dca2d-42b0-4b63-b8de-48ac3f2952bb","ios":"levelo://app?vid=cb1dca2d-42b0-4b63-b8de-48ac3f2952bb"},"vehicle_type_id":"4","last_reported":1740485877,"current_range_meters":10000,"station_id":"ce4bhr92rcd13ifvqhrg","pricing_plan_id":"cebpf4jnsgd1na2vs0mg"},{"bike_id":"744891a2-36ed-40bc-9570-550c07816ab6","system_id":"levelo_inurba_marseille","lat":43.30851,"lon":5.37784,"is_reserved":false,"is_disabled":false,"rental_uris":{"android":"levelo://app?vid=744891a2-36ed-40bc-9570-550c07816ab6","ios":"levelo://app?vid=744891a2-36ed-40bc-9570-550c07816ab6"},"vehicle_type_id":"4","last_reported":1740485877,"current_range_meters":10000,"station_id":"","pricing_plan_id":"cebpf4jnsgd1na2vs0mg"},{"bike_id":"5c166852-4398-4c5e-b7ac-e80f4cf44d49","system_id":"levelo_inurba_marseille","lat":43.29779,"lon":5.37111,"is_reserved":false,"is_disabled":false,"rental_uris":{"android":"levelo://app?vid=5c166852-4398-4c5e-b7ac-e80f4cf44d49","ios":"levelo://app?vid=5c166852-4398-4c5e-b7ac-e80f4cf44d49"},"vehicle_type_id":"4","last_reported":1740485877,"current_range_meters":10800,"station_id":"ce4bgop2rcd13ifvqc1g","pricing_plan_id":"cebpf4jnsgd1na2vs0mg"},{"bike_id":"e5c275a2-a964-47d8-9489-ed1126cf4cef","system_id":"levelo_inurba_marseille","lat":43.29623,"lon":5.37928,"is_reserved":false,"is_disabled":false,"rental_uris":{"android":"levelo://app?vid=e5c275a2-a964-47d8-9489-ed1126cf4cef","ios":"levelo://app?vid=e5c275a2-a964-47d8-9489-ed1126cf4cef"},"vehicle_type_id":"4","last_reported":1740485877,"current_range_meters":10800,"station_id":"","pricing_plan_id":"cebpf4jnsgd1na2vs0mg"},{"bike_id":"32539051-701a-43d4-870d-0627192d3ef3","system_id":"levelo_inurba_marseille","lat":43.250162,"lon":5.389099,"is_reserved":false,"is_disabled":false,"rental_uris":{"android":"levelo://app?vid=32539051-701a-43d4-870d-0627192d3ef3","ios":"levelo://app?vid=32539051-701a-43d4-870d-0627192d3ef3"},"vehicle_type_id":"4","last_reported":1740485877,"current_range_meters":10800,"station_id":"ce4bhgp2rcd13ifvqfd0","pricing_plan_id":"cebpf4jnsgd1na2vs0mg"},{"bike_id":"107a7fd7-90d1-4f9e-8684-b6b2101f74b8","system_id":"levelo_inurba_marseille","lat":43.299275,"lon":5.382303,"is_reserved":false,"is_disabled":false,"rental_uris":{"android":"levelo://app?vid=107a7fd7-90d1-4f9e-8684-b6b2101f74b8","ios":"levelo://app?vid=107a7fd7-90d1-4f9e-8684-b6b2101f74b8"},"vehicle_type_id":"4","last_reported":1740485877,"current_range_meters":10800,"station_id":"ce4bh0p2rcd13ifvqd70","pricing_plan_id":"cebpf4jnsgd1na2vs0mg"},{"bike_id":"ab3cb300-15f4-41c5-a58d-870623fb3d2f","system_id":"levelo_inurba_marseille","lat":43.2706,"lon":5.40265,"is_reserved":false,"is_disabled":false,"rental_uris":{"android":"levelo://app?vid=ab3cb300-15f4-41c5-a58d-870623fb3d2f","ios":"levelo://app?vid=ab3cb300-15f4-41c5-a58d-870623fb3d2f"},"vehicle_type_id":"4","last_reported":1740485877,"current_range_meters":10800,"station_id":"","pricing_plan_id":"cebpf4jnsgd1na2vs0mg"},{"bike_id":"723864c1-6cc4-47c6-9ea7-8902d9b08bd4","system_id":"levelo_inurba_marseille","lat":43.29523,"lon":5.38543,"is_reserved":false,"is_disabled":true,"rental_uris":{"android":"levelo://app?vid=723864c1-6cc4-47c6-9ea7-8902d9b08bd4","ios":"levelo://app?vid=723864c1-6cc4-47c6-9ea7-8902d9b08bd4"},"vehicle_type_id":"4","last_reported":1740485877,"current_range_meters":11200,"station_id":"ce4bgih2rcd13ifvqba0","pricing_plan_id":"cebpf4jnsgd1na2vs0mg"},{"bike_id":"65e3dbf5-cb43-4afc-9f8b-0026fd886e1f","system_id":"levelo_inurba_marseille","lat":43.32482,"lon":5.36573,"is_reserved":false,"is_disabled":false,"rental_uris":{"android":"levelo://app?vid=65e3dbf5-cb43-4afc-9f8b-0026fd886e1f","ios":"levelo://app?vid=65e3dbf5-cb43-4afc-9f8b-0026fd886e1f"},"vehicle_type_id":"4","last_reported":1740485877,"current_range_meters":11200,"station_id":"ce4bhs12rcd13ifvqhvg","pricing_plan_id":"cebpf4jnsgd1na2vs0mg"},{"bike_id":"3a918325-64d3-4ab6-b9b8-d02fc4298796","system_id":"levelo_inurba_marseille","lat":43.28708,"lon":5.37922,"is_reserved":false,"is_disabled":false,"rental_uris":{"android":"levelo://app?vid=3a918325-64d3-4ab6-b9b8-d02fc4298796","ios":"levelo://app?vid=3a918325-64d3-4ab6-b9b8-d02fc4298796"},"vehicle_type_id":"4","last_reported":1740485877,"current_range_meters":11200,"station_id":"ce4bh9p2rcd13ifvqec0","pricing_plan_id":"cebpf4jnsgd1na2vs0mg"},{"bike_id":"41c45514-78ef-4437-b6cf-da857a9e58ef","system_id":"levelo_inurba_marseille","lat":43.25832,"lon":5.39422,"is_reserved":false,"is_disabled":false,"rental_uris":{"android":"levelo://app?vid=41c45514-78ef-4437-b6cf-da857a9e58ef","ios":"levelo://app?vid=41c45514-78ef-4437-b6cf-da857a9e58ef"},"vehicle_type_id":"4","last_reported":1740485877,"current_range_meters":12000,"station_id":"ce4bhip2rcd13ifvqft0","pricing_plan_id":"cebpf4jnsgd1na2vs0mg"},{"bike_id":"c53ed6e7-916e-40f4-9e84-94eccc7a73ea","system_id":"levelo_inurba_marseille","lat":43.23169,"lon":5.4372,"is_reserved":false,"is_disabled":false,"rental_uris":{"android":"levelo://app?vid=c53ed6e7-916e-40f4-9e84-94eccc7a73ea","ios":"levelo://app?vid=c53ed6e7-916e-40f4-9e84-94eccc7a73ea"},"vehicle_type_id":"4","last_reported":1740485877,"current_range_meters":11600,"station_id":"ce4bhmp2rcd13ifvqgog","pricing_plan_id":"cebpf4jnsgd1na2vs0mg"},{"bike_id":"4fa386ba-9f39-4e7a-a635-040ba68ba674","system_id":"levelo_inurba_marseille","lat":43.28848,"lon":5.35554,"is_reserved":false,"is_disabled":false,"rental_uris":{"android":"levelo://app?vid=4fa386ba-9f39-4e7a-a635-040ba68ba674","ios":"levelo://app?vid=4fa386ba-9f39-4e7a-a635-040ba68ba674"},"vehicle_type_id":"4","last_reported":1740485877,"current_range_meters":11600,"station_id":"","pricing_plan_id":"cebpf4jnsgd1na2vs0mg"},{"bike_id":"4c709c09-a747-4fc6-821c-c1e4e881f00f","system_id":"levelo_inurba_marseille","lat":43.29613,"lon":5.37715,"is_reserved":false,"is_disabled":false,"rental_uris":{"android":"levelo://app?vid=4c709c09-a747-4fc6-821c-c1e4e881f00f","ios":"levelo://app?vid=4c709c09-a747-4fc6-821c-c1e4e881f00f"},"vehicle_type_id":"4","last_reported":1740485877,"current_range_meters":12000,"station_id":"ce4bgi92rcd13ifvqb90","pricing_plan_id":"cebpf4jnsgd1na2vs0mg"},{"bike_id":"ebf18b50-37ba-4ef9-8eca-f595f189e384","system_id":"levelo_inurba_marseille","lat":43.28116,"lon":5.37842,"is_reserved":false,"is_disabled":false,"rental_uris":{"android":"levelo://app?vid=ebf18b50-37ba-4ef9-8eca-f595f189e384","ios":"levelo://app?vid=ebf18b50-37ba-4ef9-8eca-f595f189e384"},"vehicle_type_id":"4","last_reported":1740485877,"current_range_meters":10000,"station_id":"ce4bha12rcd13ifvqee0","pricing_plan_id":"cebpf4jnsgd1na2vs0mg"},{"bike_id":"05f51bd6-bf8c-4b6c-ba2f-d7bf7cec3006","system_id":"levelo_inurba_marseille","lat":43.23202,"lon":5.35614,"is_reserved":false,"is_disabled":false,"rental_uris":{"android":"levelo://app?vid=05f51bd6-bf8c-4b6c-ba2f-d7bf7cec3006","ios":"levelo://app?vid=05f51bd6-bf8c-4b6c-ba2f-d7bf7cec3006"},"vehicle_type_id":"4","last_reported":1740485877,"current_range_meters":12000,"station_id":"","pricing_plan_id":"cebpf4jnsgd1na2vs0mg"},{"bike_id":"739ccaf6-78d9-4f32-83ab-0b871eff5f00","system_id":"levelo_inurba_marseille","lat":43.30422,"lon":5.41277,"is_reserved":false,"is_disabled":false,"rental_uris":{"android":"levelo://app?vid=739ccaf6-78d9-4f32-83ab-0b871eff5f00","ios":"levelo://app?vid=739ccaf6-78d9-4f32-83ab-0b871eff5f00"},"vehicle_type_id":"4","last_reported":1740485877,"current_range_meters":12000,"station_id":"ce4bhop2rcd13ifvqh8g","pricing_plan_id":"cebpf4jnsgd1na2vs0mg"},{"bike_id":"46ee7253-5893-4343-b5f9-f9c369746b43","system_id":"levelo_inurba_marseille","lat":43.2993,"lon":5.39763,"is_reserved":false,"is_disabled":false,"rental_uris":{"android":"levelo://app?vid=46ee7253-5893-4343-b5f9-f9c369746b43","ios":"levelo://app?vid=46ee7253-5893-4343-b5f9-f9c369746b43"},"vehicle_type_id":"4","last_reported":1740485877,"current_range_meters":14000,"station_id":"","pricing_plan_id":"cebpf4jnsgd1na2vs0mg"},{"bike_id":"ce9c9d13-2d8f-4612-8d6a-2c84edc2ad8e","system_id":"levelo_inurba_marseille","lat":43.2993,"lon":5.37475,"is_reserved":false,"is_disabled":false,"rental_uris":{"android":"levelo://app?vid=ce9c9d13-2d8f-4612-8d6a-2c84edc2ad8e","ios":"levelo://app?vid=ce9c9d13-2d8f-4612-8d6a-2c84edc2ad8e"},"vehicle_type_id":"4","last_reported":1740485877,"current_range_meters":12000,"station_id":"ce4bgjh2rcd13ifvqbg0","pricing_plan_id":"cebpf4jnsgd1na2vs0mg"},{"bike_id":"317a1a55-b41c-4bca-8dbb-d35ad77844e8","system_id":"levelo_inurba_marseille","lat":43.24075,"lon":5.37766,"is_reserved":false,"is_disabled":false,"rental_uris":{"android":"levelo://app?vid=317a1a55-b41c-4bca-8dbb-d35ad77844e8","ios":"levelo://app?vid=317a1a55-b41c-4bca-8dbb-d35ad77844e8"},"vehicle_type_id":"4","last_reported":1740485877,"current_range_meters":12400,"station_id":"ce4bhnp2rcd13ifvqgvg","pricing_plan_id":"cebpf4jnsgd1na2vs0mg"},{"bike_id":"27fd638d-9115-41f0-bfef-b1143cf57129","system_id":"levelo_inurba_marseille","lat":43.30951,"lon":5.3903,"is_reserved":false,"is_disabled":false,"rental_uris":{"android":"levelo://app?vid=27fd638d-9115-41f0-bfef-b1143cf57129","ios":"levelo://app?vid=27fd638d-9115-41f0-bfef-b1143cf57129"},"vehicle_type_id":"4","last_reported":1740485877,"current_range_meters":12000,"station_id":"ce4bgup2rcd13ifvqco0","pricing_plan_id":"cebpf4jnsgd1na2vs0mg"},{"bike_id":"6bb7a600-4627-48d6-a6ba-24a72f10b0e3","system_id":"levelo_inurba_marseille","lat":43.23148,"lon":5.4374,"is_reserved":false,"is_disabled":false,"rental_uris":{"android":"levelo://app?vid=6bb7a600-4627-48d6-a6ba-24a72f10b0e3","ios":"levelo://app?vid=6bb7a600-4627-48d6-a6ba-24a72f10b0e3"},"vehicle_type_id":"4","last_reported":1740485877,"current_range_meters":12800,"station_id":"ce4bhmp2rcd13ifvqgog","pricing_plan_id":"cebpf4jnsgd1na2vs0mg"},{"bike_id":"76a1185d-0d2c-4f55-ba54-2351d4eb37bb","system_id":"levelo_inurba_marseille","lat":43.2872,"lon":5.37923,"is_reserved":false,"is_disabled":false,"rental_uris":{"android":"levelo://app?vid=76a1185d-0d2c-4f55-ba54-2351d4eb37bb","ios":"levelo://app?vid=76a1185d-0d2c-4f55-ba54-2351d4eb37bb"},"vehicle_type_id":"4","last_reported":1740485877,"current_range_meters":12800,"station_id":"ce4bh9p2rcd13ifvqec0","pricing_plan_id":"cebpf4jnsgd1na2vs0mg"},{"bike_id":"8c1ed3fc-727c-44a1-b879-b072be02359d","system_id":"levelo_inurba_marseille","lat":43.29864,"lon":5.39733,"is_reserved":false,"is_disabled":false,"rental_uris":{"android":"levelo://app?vid=8c1ed3fc-727c-44a1-b879-b072be02359d","ios":"levelo://app?vid=8c1ed3fc-727c-44a1-b879-b072be02359d"},"vehicle_type_id":"4","last_reported":1740485877,"current_range_meters":12400,"station_id":"ce4bh0h2rcd13ifvqd50","pricing_plan_id":"cebpf4jnsgd1na2vs0mg"},{"bike_id":"5022d9b2-d385-4045-b447-d04699af7b25","system_id":"levelo_inurba_marseille","lat":43.2796,"lon":5.4108,"is_reserved":false,"is_disabled":false,"rental_uris":{"android":"levelo://app?vid=5022d9b2-d385-4045-b447-d04699af7b25","ios":"levelo://app?vid=5022d9b2-d385-4045-b447-d04699af7b25"},"vehicle_type_id":"4","last_reported":1740485877,"current_range_meters":12800,"station_id":"ce4bhnp2rcd13ifvqh0g","pricing_plan_id":"cebpf4jnsgd1na2vs0mg"},{"bike_id":"01470a8d-74cf-4e59-a836-8774dbb84f90","system_id":"levelo_inurba_marseille","lat":43.30292,"lon":5.37685,"is_reserved":false,"is_disabled":false,"rental_uris":{"android":"levelo://app?vid=01470a8d-74cf-4e59-a836-8774dbb84f90","ios":"levelo://app?vid=01470a8d-74cf-4e59-a836-8774dbb84f90"},"vehicle_type_id":"4","last_reported":1740485877,"current_range_meters":13600,"station_id":"ce4bguh2rcd13ifvqcj0","pricing_plan_id":"cebpf4jnsgd1na2vs0mg"},{"bike_id":"6954a23e-3855-4147-b838-e39965536ec4","system_id":"levelo_inurba_marseille","lat":43.23193,"lon":5.35556,"is_reserved":false,"is_disabled":false,"rental_uris":{"android":"levelo://app?vid=6954a23e-3855-4147-b838-e39965536ec4","ios":"levelo://app?vid=6954a23e-3855-4147-b838-e39965536ec4"},"vehicle_type_id":"4","last_reported":1740485877,"current_range_meters":12800,"station_id":"ce4bhu92rcd13ifvqi70","pricing_plan_id":"cebpf4jnsgd1na2vs0mg"},{"bike_id":"1c2f3bdc-68fa-40a8-b99e-fcf41f32f9e4","system_id":"levelo_inurba_marseille","lat":43.2921,"lon":5.40535,"is_reserved":false,"is_disabled":false,"rental_uris":{"android":"levelo://app?vid=1c2f3bdc-68fa-40a8-b99e-fcf41f32f9e4","ios":"levelo://app?vid=1c2f3bdc-68fa-40a8-b99e-fcf41f32f9e4"},"vehicle_type_id":"4","last_reported":1740485877,"current_range_meters":13600,"station_id":"","pricing_plan_id":"cebpf4jnsgd1na2vs0mg"},{"bike_id":"9062f7b6-9c81-49b8-a1bd-5df58202afcd","system_id":"levelo_inurba_marseille","lat":43.31712,"lon":5.43708,"is_reserved":false,"is_disabled":false,"rental_uris":{"android":"levelo://app?vid=9062f7b6-9c81-49b8-a1bd-5df58202afcd","ios":"levelo://app?vid=9062f7b6-9c81-49b8-a1bd-5df58202afcd"},"vehicle_type_id":"4","last_reported":1740485877,"current_range_meters":14000,"station_id":"ce4bhp92rcd13ifvqhcg","pricing_plan_id":"cebpf4jnsgd1na2vs0mg"},{"bike_id":"3ca12e5b-bc10-471e-b621-aa59335cc3bb","system_id":"levelo_inurba_marseille","lat":43.29533,"lon":5.40771,"is_reserved":false,"is_disabled":false,"rental_uris":{"android":"levelo://app?vid=3ca12e5b-bc10-471e-b621-aa59335cc3bb","ios":"levelo://app?vid=3ca12e5b-bc10-471e-b621-aa59335cc3bb"},"vehicle_type_id":"4","last_reported":1740485877,"current_range_meters":14000,"station_id":"","pricing_plan_id":"cebpf4jnsgd1na2vs0mg"},{"bike_id":"7c45866a-bd99-4c12-9747-66203f12a96e","system_id":"levelo_inurba_marseille","lat":43.23148,"lon":5.35525,"is_reserved":false,"is_disabled":false,"rental_uris":{"android":"levelo://app?vid=7c45866a-bd99-4c12-9747-66203f12a96e","ios":"levelo://app?vid=7c45866a-bd99-4c12-9747-66203f12a96e"},"vehicle_type_id":"4","last_reported":1740485877,"current_range_meters":14000,"station_id":"","pricing_plan_id":"cebpf4jnsgd1na2vs0mg"},{"bike_id":"36427cee-8fdc-4a4f-9ac9-c2ae0b53a1e7","system_id":"levelo_inurba_marseille","lat":43.32336,"lon":5.38842,"is_reserved":false,"is_disabled":false,"rental_uris":{"android":"levelo://app?vid=36427cee-8fdc-4a4f-9ac9-c2ae0b53a1e7","ios":"levelo://app?vid=36427cee-8fdc-4a4f-9ac9-c2ae0b53a1e7"},"vehicle_type_id":"4","last_reported":1740485877,"current_range_meters":14000,"station_id":"ce4bhqp2rcd13ifvqhog","pricing_plan_id":"cebpf4jnsgd1na2vs0mg"},{"bike_id":"29809e96-ae7f-4aa5-95c1-d798ee993d63","system_id":"levelo_inurba_marseille","lat":43.33757,"lon":5.37428,"is_reserved":false,"is_disabled":false,"rental_uris":{"android":"levelo://app?vid=29809e96-ae7f-4aa5-95c1-d798ee993d63","ios":"levelo://app?vid=29809e96-ae7f-4aa5-95c1-d798ee993d63"},"vehicle_type_id":"4","last_reported":1740485877,"current_range_meters":14800,"station_id":"","pricing_plan_id":"cebpf4jnsgd1na2vs0mg"},{"bike_id":"d9cd0b24-d8d3-4c55-90c0-4ef5893eee0c","system_id":"levelo_inurba_marseille","lat":43.25025,"lon":5.38922,"is_reserved":false,"is_disabled":true,"rental_uris":{"android":"levelo://app?vid=d9cd0b24-d8d3-4c55-90c0-4ef5893eee0c","ios":"levelo://app?vid=d9cd0b24-d8d3-4c55-90c0-4ef5893eee0c"},"vehicle_type_id":"4","last_reported":1740485877,"current_range_meters":14400,"station_id":"ce4bhgp2rcd13ifvqfd0","pricing_plan_id":"cebpf4jnsgd1na2vs0mg"},{"bike_id":"eb824917-477b-48ff-8dca-6b0da9fb9277","system_id":"levelo_inurba_marseille","lat":43.28931,"lon":5.38398,"is_reserved":false,"is_disabled":false,"rental_uris":{"android":"levelo://app?vid=eb824917-477b-48ff-8dca-6b0da9fb9277","ios":"levelo://app?vid=eb824917-477b-48ff-8dca-6b0da9fb9277"},"vehicle_type_id":"4","last_reported":1740485877,"current_range_meters":14800,"station_id":"ce4bh612rcd13ifvqe6g","pricing_plan_id":"cebpf4jnsgd1na2vs0mg"},{"bike_id":"32b6afe6-f467-41b1-9777-38544856b0f5","system_id":"levelo_inurba_marseille","lat":43.28042,"lon":5.36947,"is_reserved":false,"is_disabled":false,"rental_uris":{"android":"levelo://app?vid=32b6afe6-f467-41b1-9777-38544856b0f5","ios":"levelo://app?vid=32b6afe6-f467-41b1-9777-38544856b0f5"},"vehicle_type_id":"4","last_reported":1740485877,"current_range_meters":14800,"station_id":"ce4bha12rcd13ifvqef0","pricing_plan_id":"cebpf4jnsgd1na2vs0mg"},{"bike_id":"4ca40e61-4911-45e6-8f3a-9e26ae7f8cd4","system_id":"levelo_inurba_marseille","lat":43.31072,"lon":5.38355,"is_reserved":false,"is_disabled":false,"rental_uris":{"android":"levelo://app?vid=4ca40e61-4911-45e6-8f3a-9e26ae7f8cd4","ios":"levelo://app?vid=4ca40e61-4911-45e6-8f3a-9e26ae7f8cd4"},"vehicle_type_id":"4","last_reported":1740485877,"current_range_meters":14800,"station_id":"ce4bgv92rcd13ifvqcr0","pricing_plan_id":"cebpf4jnsgd1na2vs0mg"},{"bike_id":"f9aeb58a-c82d-47a8-9513-8a76751490c3","system_id":"levelo_inurba_marseille","lat":43.2872,"lon":5.36075,"is_reserved":false,"is_disabled":false,"rental_uris":{"android":"levelo://app?vid=f9aeb58a-c82d-47a8-9513-8a76751490c3","ios":"levelo://app?vid=f9aeb58a-c82d-47a8-9513-8a76751490c3"},"vehicle_type_id":"4","last_reported":1740485877,"current_range_meters":15200,"station_id":"cki0cbj6b192h4jlfktg","pricing_plan_id":"cebpf4jnsgd1na2vs0mg"},{"bike_id":"289d079a-b942-48f5-b3b3-4efebdda4145","system_id":"levelo_inurba_marseille","lat":43.30211,"lon":5.39467,"is_reserved":false,"is_disabled":false,"rental_uris":{"android":"levelo://app?vid=289d079a-b942-48f5-b3b3-4efebdda4145","ios":"levelo://app?vid=289d079a-b942-48f5-b3b3-4efebdda4145"},"vehicle_type_id":"4","last_reported":1740485877,"current_range_meters":15200,"station_id":"ce4bh0p2rcd13ifvqd70","pricing_plan_id":"cebpf4jnsgd1na2vs0mg"},{"bike_id":"67ee95a1-160f-49c1-b11e-b3640680cd0d","system_id":"levelo_inurba_marseille","lat":43.32103,"lon":5.36764,"is_reserved":false,"is_disabled":false,"rental_uris":{"android":"levelo://app?vid=67ee95a1-160f-49c1-b11e-b3640680cd0d","ios":"levelo://app?vid=67ee95a1-160f-49c1-b11e-b3640680cd0d"},"vehicle_type_id":"4","last_reported":1740485877,"current_range_meters":15200,"station_id":"ce4bhrh2rcd13ifvqhug","pricing_plan_id":"cebpf4jnsgd1na2vs0mg"},{"bike_id":"e119db01-0231-47b2-85dc-d205fe94f2ad","system_id":"levelo_inurba_marseille","lat":43.28404,"lon":5.37505,"is_reserved":false,"is_disabled":false,"rental_uris":{"android":"levelo://app?vid=e119db01-0231-47b2-85dc-d205fe94f2ad","ios":"levelo://app?vid=e119db01-0231-47b2-85dc-d205fe94f2ad"},"vehicle_type_id":"4","last_reported":1740485877,"current_range_meters":15200,"station_id":"ce4bh412rcd13ifvqds0","pricing_plan_id":"cebpf4jnsgd1na2vs0mg"},{"bike_id":"4c31c544-4f0f-4941-a3b9-69b9f0b7b13d","system_id":"levelo_inurba_marseille","lat":43.30423,"lon":5.38878,"is_reserved":false,"is_disabled":false,"rental_uris":{"android":"levelo://app?vid=4c31c544-4f0f-4941-a3b9-69b9f0b7b13d","ios":"levelo://app?vid=4c31c544-4f0f-4941-a3b9-69b9f0b7b13d"},"vehicle_type_id":"4","last_reported":1740485877,"current_range_meters":15200,"station_id":"ce4bgk12rcd13ifvqbi0","pricing_plan_id":"cebpf4jnsgd1na2vs0mg"},{"bike_id":"4277977f-2081-4f4c-b8fa-7068f0c99ab8","system_id":"levelo_inurba_marseille","lat":43.34141,"lon":5.40894,"is_reserved":false,"is_disabled":false,"rental_uris":{"android":"levelo://app?vid=4277977f-2081-4f4c-b8fa-7068f0c99ab8","ios":"levelo://app?vid=4277977f-2081-4f4c-b8fa-7068f0c99ab8"},"vehicle_type_id":"4","last_reported":1740485877,"current_range_meters":16000,"station_id":"ce4bhqh2rcd13ifvqhlg","pricing_plan_id":"cebpf4jnsgd1na2vs0mg"},{"bike_id":"ca5f7e36-c971-44d9-b175-25cd1f50e396","system_id":"levelo_inurba_marseille","lat":43.24549,"lon":5.39524,"is_reserved":false,"is_disabled":false,"rental_uris":{"android":"levelo://app?vid=ca5f7e36-c971-44d9-b175-25cd1f50e396","ios":"levelo://app?vid=ca5f7e36-c971-44d9-b175-25cd1f50e396"},"vehicle_type_id":"4","last_reported":1740485877,"current_range_meters":15200,"station_id":"ce4bhlp2rcd13ifvqgjg","pricing_plan_id":"cebpf4jnsgd1na2vs0mg"},{"bike_id":"6fe475fd-06c5-454f-b2b4-f6f7ee196956","system_id":"levelo_inurba_marseille","lat":43.23204,"lon":5.39979,"is_reserved":false,"is_disabled":false,"rental_uris":{"android":"levelo://app?vid=6fe475fd-06c5-454f-b2b4-f6f7ee196956","ios":"levelo://app?vid=6fe475fd-06c5-454f-b2b4-f6f7ee196956"},"vehicle_type_id":"4","last_reported":1740485877,"current_range_meters":16000,"station_id":"ce4bhn12rcd13ifvqgqg","pricing_plan_id":"cebpf4jnsgd1na2vs0mg"},{"bike_id":"fa64865d-66ba-4eb3-a5e7-da4d8a111750","system_id":"levelo_inurba_marseille","lat":43.24072,"lon":5.37771,"is_reserved":false,"is_disabled":false,"rental_uris":{"android":"levelo://app?vid=fa64865d-66ba-4eb3-a5e7-da4d8a111750","ios":"levelo://app?vid=fa64865d-66ba-4eb3-a5e7-da4d8a111750"},"vehicle_type_id":"4","last_reported":1740485877,"current_range_meters":16000,"station_id":"ce4bhnp2rcd13ifvqgvg","pricing_plan_id":"cebpf4jnsgd1na2vs0mg"},{"bike_id":"09edeb2a-9693-4841-8982-f3a0b8a67d01","system_id":"levelo_inurba_marseille","lat":43.30147,"lon":5.37421,"is_reserved":false,"is_disabled":false,"rental_uris":{"android":"levelo://app?vid=09edeb2a-9693-4841-8982-f3a0b8a67d01","ios":"levelo://app?vid=09edeb2a-9693-4841-8982-f3a0b8a67d01"},"vehicle_type_id":"4","last_reported":1740485877,"current_range_meters":16400,"station_id":"ce4bgs92rcd13ifvqcc0","pricing_plan_id":"cebpf4jnsgd1na2vs0mg"},{"bike_id":"6a2aa712-d570-4a50-aa17-3ced782e6ff4","system_id":"levelo_inurba_marseille","lat":43.31092,"lon":5.42422,"is_reserved":false,"is_disabled":false,"rental_uris":{"android":"levelo://app?vid=6a2aa712-d570-4a50-aa17-3ced782e6ff4","ios":"levelo://app?vid=6a2aa712-d570-4a50-aa17-3ced782e6ff4"},"vehicle_type_id":"4","last_reported":1740485877,"current_range_meters":16400,"station_id":"ce4bhp92rcd13ifvqhag","pricing_plan_id":"cebpf4jnsgd1na2vs0mg"},{"bike_id":"9573858b-e206-49f2-a648-0ae2bb06901f","system_id":"levelo_inurba_marseille","lat":43.29388,"lon":5.37825,"is_reserved":false,"is_disabled":false,"rental_uris":{"android":"levelo://app?vid=9573858b-e206-49f2-a648-0ae2bb06901f","ios":"levelo://app?vid=9573858b-e206-49f2-a648-0ae2bb06901f"},"vehicle_type_id":"4","last_reported":1740485877,"current_range_meters":16800,"station_id":"ce4bgjh2rcd13ifvqbf0","pricing_plan_id":"cebpf4jnsgd1na2vs0mg"},{"bike_id":"8b12f3dd-d3ac-4793-ac1c-9f637dd7dde2","system_id":"levelo_inurba_marseille","lat":43.30952,"lon":5.39032,"is_reserved":false,"is_disabled":false,"rental_uris":{"android":"levelo://app?vid=8b12f3dd-d3ac-4793-ac1c-9f637dd7dde2","ios":"levelo://app?vid=8b12f3dd-d3ac-4793-ac1c-9f637dd7dde2"},"vehicle_type_id":"4","last_reported":1740485877,"current_range_meters":16800,"station_id":"ce4bgup2rcd13ifvqco0","pricing_plan_id":"cebpf4jnsgd1na2vs0mg"},{"bike_id":"593e90e6-2d87-4694-b359-5c5972bca5e1","system_id":"levelo_inurba_marseille","lat":43.29795,"lon":5.38095,"is_reserved":false,"is_disabled":false,"rental_uris":{"android":"levelo://app?vid=593e90e6-2d87-4694-b359-5c5972bca5e1","ios":"levelo://app?vid=593e90e6-2d87-4694-b359-5c5972bca5e1"},"vehicle_type_id":"4","last_reported":1740485877,"current_range_meters":17200,"station_id":"ce4bgip2rcd13ifvqbb0","pricing_plan_id":"cebpf4jnsgd1na2vs0mg"},{"bike_id":"c0ed74a2-e2a8-41f0-9b03-a680909f2682","system_id":"levelo_inurba_marseille","lat":43.279408,"lon":5.410325,"is_reserved":false,"is_disabled":false,"rental_uris":{"android":"levelo://app?vid=c0ed74a2-e2a8-41f0-9b03-a680909f2682","ios":"levelo://app?vid=c0ed74a2-e2a8-41f0-9b03-a680909f2682"},"vehicle_type_id":"4","last_reported":1740485877,"current_range_meters":17200,"station_id":"ce4bhn92rcd13ifvqgrg","pricing_plan_id":"cebpf4jnsgd1na2vs0mg"},{"bike_id":"99ecdcac-415f-4765-98a3-24c1718bdda8","system_id":"levelo_inurba_marseille","lat":43.30533,"lon":5.36701,"is_reserved":false,"is_disabled":false,"rental_uris":{"android":"levelo://app?vid=99ecdcac-415f-4765-98a3-24c1718bdda8","ios":"levelo://app?vid=99ecdcac-415f-4765-98a3-24c1718bdda8"},"vehicle_type_id":"4","last_reported":1740485877,"current_range_meters":17200,"station_id":"ce4bgrp2rcd13ifvqc9g","pricing_plan_id":"cebpf4jnsgd1na2vs0mg"},{"bike_id":"46a3c2dd-ccbb-4c04-9f57-d57c624ff62c","system_id":"levelo_inurba_marseille","lat":43.28617,"lon":5.35112,"is_reserved":false,"is_disabled":false,"rental_uris":{"android":"levelo://app?vid=46a3c2dd-ccbb-4c04-9f57-d57c624ff62c","ios":"levelo://app?vid=46a3c2dd-ccbb-4c04-9f57-d57c624ff62c"},"vehicle_type_id":"4","last_reported":1740485877,"current_range_meters":17200,"station_id":"ce4bhch2rcd13ifvqeug","pricing_plan_id":"cebpf4jnsgd1na2vs0mg"},{"bike_id":"97a5deb9-6ee3-4583-9a5c-b133897a40b3","system_id":"levelo_inurba_marseille","lat":43.31341,"lon":5.36727,"is_reserved":false,"is_disabled":false,"rental_uris":{"android":"levelo://app?vid=97a5deb9-6ee3-4583-9a5c-b133897a40b3","ios":"levelo://app?vid=97a5deb9-6ee3-4583-9a5c-b133897a40b3"},"vehicle_type_id":"4","last_reported":1740485877,"current_range_meters":16800,"station_id":"ce4bgr92rcd13ifvqc6g","pricing_plan_id":"cebpf4jnsgd1na2vs0mg"},{"bike_id":"98dfff08-9925-46b1-b00b-eafafe80bc98","system_id":"levelo_inurba_marseille","lat":43.29885,"lon":5.3974,"is_reserved":false,"is_disabled":false,"rental_uris":{"android":"levelo://app?vid=98dfff08-9925-46b1-b00b-eafafe80bc98","ios":"levelo://app?vid=98dfff08-9925-46b1-b00b-eafafe80bc98"},"vehicle_type_id":"4","last_reported":1740485877,"current_range_meters":17600,"station_id":"ce4bh0h2rcd13ifvqd50","pricing_plan_id":"cebpf4jnsgd1na2vs0mg"},{"bike_id":"70bde06c-36b7-418a-b20f-af248a78c438","system_id":"levelo_inurba_marseille","lat":43.29514,"lon":5.39049,"is_reserved":false,"is_disabled":false,"rental_uris":{"android":"levelo://app?vid=70bde06c-36b7-418a-b20f-af248a78c438","ios":"levelo://app?vid=70bde06c-36b7-418a-b20f-af248a78c438"},"vehicle_type_id":"4","last_reported":1740485877,"current_range_meters":17600,"station_id":"ce4bh3p2rcd13ifvqdp0","pricing_plan_id":"cebpf4jnsgd1na2vs0mg"},{"bike_id":"88368811-94b4-43fe-a27c-d3404a7a042b","system_id":"levelo_inurba_marseille","lat":43.30103,"lon":5.39094,"is_reserved":false,"is_disabled":false,"rental_uris":{"android":"levelo://app?vid=88368811-94b4-43fe-a27c-d3404a7a042b","ios":"levelo://app?vid=88368811-94b4-43fe-a27c-d3404a7a042b"},"vehicle_type_id":"4","last_reported":1740485877,"current_range_meters":17200,"station_id":"ce4bh192rcd13ifvqdb0","pricing_plan_id":"cebpf4jnsgd1na2vs0mg"},{"bike_id":"11490827-1090-47a8-a875-2f75acee8271","system_id":"levelo_inurba_marseille","lat":43.26954,"lon":5.40281,"is_reserved":false,"is_disabled":false,"rental_uris":{"android":"levelo://app?vid=11490827-1090-47a8-a875-2f75acee8271","ios":"levelo://app?vid=11490827-1090-47a8-a875-2f75acee8271"},"vehicle_type_id":"4","last_reported":1740485877,"current_range_meters":17600,"station_id":"cjm6bp8fraef2m0cb0m0","pricing_plan_id":"cebpf4jnsgd1na2vs0mg"},{"bike_id":"451ee27c-3053-4dad-97f9-30aa721d9def","system_id":"levelo_inurba_marseille","lat":43.27989,"lon":5.40025,"is_reserved":false,"is_disabled":false,"rental_uris":{"android":"levelo://app?vid=451ee27c-3053-4dad-97f9-30aa721d9def","ios":"levelo://app?vid=451ee27c-3053-4dad-97f9-30aa721d9def"},"vehicle_type_id":"4","last_reported":1740485877,"current_range_meters":18000,"station_id":"ce4bho92rcd13ifvqh4g","pricing_plan_id":"cebpf4jnsgd1na2vs0mg"},{"bike_id":"8514fc45-931a-4d33-8ebd-119ca23a33dc","system_id":"levelo_inurba_marseille","lat":43.27802,"lon":5.40743,"is_reserved":false,"is_disabled":false,"rental_uris":{"android":"levelo://app?vid=8514fc45-931a-4d33-8ebd-119ca23a33dc","ios":"levelo://app?vid=8514fc45-931a-4d33-8ebd-119ca23a33dc"},"vehicle_type_id":"4","last_reported":1740485877,"current_range_meters":18000,"station_id":"ce4bhnh2rcd13ifvqgtg","pricing_plan_id":"cebpf4jnsgd1na2vs0mg"},{"bike_id":"c2feecee-70b4-4cc5-be72-a68130a01454","system_id":"levelo_inurba_marseille","lat":43.30794,"lon":5.38172,"is_reserved":false,"is_disabled":false,"rental_uris":{"android":"levelo://app?vid=c2feecee-70b4-4cc5-be72-a68130a01454","ios":"levelo://app?vid=c2feecee-70b4-4cc5-be72-a68130a01454"},"vehicle_type_id":"4","last_reported":1740485877,"current_range_meters":18000,"station_id":"ce4bgt12rcd13ifvqce0","pricing_plan_id":"cebpf4jnsgd1na2vs0mg"},{"bike_id":"e4dc583e-b057-49fb-87e1-1e30eed46eec","system_id":"levelo_inurba_marseille","lat":43.29613,"lon":5.37704,"is_reserved":false,"is_disabled":false,"rental_uris":{"android":"levelo://app?vid=e4dc583e-b057-49fb-87e1-1e30eed46eec","ios":"levelo://app?vid=e4dc583e-b057-49fb-87e1-1e30eed46eec"},"vehicle_type_id":"4","last_reported":1740485877,"current_range_meters":19200,"station_id":"ce4bgi92rcd13ifvqb90","pricing_plan_id":"cebpf4jnsgd1na2vs0mg"},{"bike_id":"c3d0fefa-5db4-49bd-a964-1a22da440d36","system_id":"levelo_inurba_marseille","lat":43.269559,"lon":5.386313,"is_reserved":false,"is_disabled":true,"rental_uris":{"android":"levelo://app?vid=c3d0fefa-5db4-49bd-a964-1a22da440d36","ios":"levelo://app?vid=c3d0fefa-5db4-49bd-a964-1a22da440d36"},"vehicle_type_id":"4","last_reported":1740485877,"current_range_meters":17600,"station_id":"","pricing_plan_id":"cebpf4jnsgd1na2vs0mg"},{"bike_id":"8402c718-45dc-43e2-a96e-934746137544","system_id":"levelo_inurba_marseille","lat":43.29301,"lon":5.37179,"is_reserved":false,"is_disabled":false,"rental_uris":{"android":"levelo://app?vid=8402c718-45dc-43e2-a96e-934746137544","ios":"levelo://app?vid=8402c718-45dc-43e2-a96e-934746137544"},"vehicle_type_id":"4","last_reported":1740485877,"current_range_meters":17200,"station_id":"ce4bgh92rcd13ifvqb40","pricing_plan_id":"cebpf4jnsgd1na2vs0mg"},{"bike_id":"24715af4-5211-4284-892b-8719f5e3c361","system_id":"levelo_inurba_marseille","lat":43.28154,"lon":5.42645,"is_reserved":false,"is_disabled":false,"rental_uris":{"android":"levelo://app?vid=24715af4-5211-4284-892b-8719f5e3c361","ios":"levelo://app?vid=24715af4-5211-4284-892b-8719f5e3c361"},"vehicle_type_id":"4","last_reported":1740485877,"current_range_meters":18000,"station_id":"ce4bhnh2rcd13ifvqgug","pricing_plan_id":"cebpf4jnsgd1na2vs0mg"},{"bike_id":"6a83a335-32a3-4693-83c4-b06ebf790417","system_id":"levelo_inurba_marseille","lat":43.28343,"lon":5.38106,"is_reserved":false,"is_disabled":false,"rental_uris":{"android":"levelo://app?vid=6a83a335-32a3-4693-83c4-b06ebf790417","ios":"levelo://app?vid=6a83a335-32a3-4693-83c4-b06ebf790417"},"vehicle_type_id":"4","last_reported":1740485877,"current_range_meters":18000,"station_id":"ce4bh412rcd13ifvqdr0","pricing_plan_id":"cebpf4jnsgd1na2vs0mg"},{"bike_id":"0280b22f-8df5-42c6-b89c-461537f6cb6f","system_id":"levelo_inurba_marseille","lat":43.30144,"lon":5.38067,"is_reserved":false,"is_disabled":false,"rental_uris":{"android":"levelo://app?vid=0280b22f-8df5-42c6-b89c-461537f6cb6f","ios":"levelo://app?vid=0280b22f-8df5-42c6-b89c-461537f6cb6f"},"vehicle_type_id":"4","last_reported":1740485877,"current_range_meters":18000,"station_id":"ce4bgjp2rcd13ifvqbh0","pricing_plan_id":"cebpf4jnsgd1na2vs0mg"},{"bike_id":"165ff7ed-0a96-4606-b8b3-9facca4c3100","system_id":"levelo_inurba_marseille","lat":43.30944,"lon":5.39043,"is_reserved":false,"is_disabled":false,"rental_uris":{"android":"levelo://app?vid=165ff7ed-0a96-4606-b8b3-9facca4c3100","ios":"levelo://app?vid=165ff7ed-0a96-4606-b8b3-9facca4c3100"},"vehicle_type_id":"4","last_reported":1740485877,"current_range_meters":18000,"station_id":"ce4bgup2rcd13ifvqco0","pricing_plan_id":"cebpf4jnsgd1na2vs0mg"},{"bike_id":"972802f2-70bc-4dc5-bc8b-7dd507ea46a0","system_id":"levelo_inurba_marseille","lat":43.31992,"lon":5.38162,"is_reserved":false,"is_disabled":false,"rental_uris":{"android":"levelo://app?vid=972802f2-70bc-4dc5-bc8b-7dd507ea46a0","ios":"levelo://app?vid=972802f2-70bc-4dc5-bc8b-7dd507ea46a0"},"vehicle_type_id":"4","last_reported":1740485877,"current_range_meters":16400,"station_id":"ce4bhr12rcd13ifvqhpg","pricing_plan_id":"cebpf4jnsgd1na2vs0mg"},{"bike_id":"27f30422-6808-48f9-a277-c819406a7fee","system_id":"levelo_inurba_marseille","lat":43.29417,"lon":5.38629,"is_reserved":false,"is_disabled":false,"rental_uris":{"android":"levelo://app?vid=27f30422-6808-48f9-a277-c819406a7fee","ios":"levelo://app?vid=27f30422-6808-48f9-a277-c819406a7fee"},"vehicle_type_id":"4","last_reported":1740485877,"current_range_meters":19200,"station_id":"ce4bh2h2rcd13ifvqdh0","pricing_plan_id":"cebpf4jnsgd1na2vs0mg"},{"bike_id":"dedd94c8-bd81-4ee6-a712-bd0272747939","system_id":"levelo_inurba_marseille","lat":43.27503,"lon":5.42473,"is_reserved":false,"is_disabled":false,"rental_uris":{"android":"levelo://app?vid=dedd94c8-bd81-4ee6-a712-bd0272747939","ios":"levelo://app?vid=dedd94c8-bd81-4ee6-a712-bd0272747939"},"vehicle_type_id":"4","last_reported":1740485877,"current_range_meters":18000,"station_id":"ce4bhn92rcd13ifvqgrg","pricing_plan_id":"cebpf4jnsgd1na2vs0mg"},{"bike_id":"b1d03992-2f9a-4c77-8d0f-dca396477f70","system_id":"levelo_inurba_marseille","lat":43.25111,"lon":5.40324,"is_reserved":false,"is_disabled":false,"rental_uris":{"android":"levelo://app?vid=b1d03992-2f9a-4c77-8d0f-dca396477f70","ios":"levelo://app?vid=b1d03992-2f9a-4c77-8d0f-dca396477f70"},"vehicle_type_id":"4","last_reported":1740485877,"current_range_meters":18000,"station_id":"ce4bhlh2rcd13ifvqgig","pricing_plan_id":"cebpf4jnsgd1na2vs0mg"},{"bike_id":"bb0f07fc-1b50-4d32-b6eb-9b188b978a64","system_id":"levelo_inurba_marseille","lat":43.28931,"lon":5.38392,"is_reserved":false,"is_disabled":false,"rental_uris":{"android":"levelo://app?vid=bb0f07fc-1b50-4d32-b6eb-9b188b978a64","ios":"levelo://app?vid=bb0f07fc-1b50-4d32-b6eb-9b188b978a64"},"vehicle_type_id":"4","last_reported":1740485877,"current_range_meters":18000,"station_id":"ce4bh612rcd13ifvqe6g","pricing_plan_id":"cebpf4jnsgd1na2vs0mg"},{"bike_id":"c5a39dd3-3496-4c7f-9fa9-8e92b9212f64","system_id":"levelo_inurba_marseille","lat":43.285748,"lon":5.394819,"is_reserved":false,"is_disabled":false,"rental_uris":{"android":"levelo://app?vid=c5a39dd3-3496-4c7f-9fa9-8e92b9212f64","ios":"levelo://app?vid=c5a39dd3-3496-4c7f-9fa9-8e92b9212f64"},"vehicle_type_id":"4","last_reported":1740485877,"current_range_meters":18000,"station_id":"ce4bh292rcd13ifvqdg0","pricing_plan_id":"cebpf4jnsgd1na2vs0mg"},{"bike_id":"e665eddc-0b64-4789-b616-c0948de74658","system_id":"levelo_inurba_marseille","lat":43.29303,"lon":5.42412,"is_reserved":false,"is_disabled":false,"rental_uris":{"android":"levelo://app?vid=e665eddc-0b64-4789-b616-c0948de74658","ios":"levelo://app?vid=e665eddc-0b64-4789-b616-c0948de74658"},"vehicle_type_id":"4","last_reported":1740485877,"current_range_meters":18000,"station_id":"ce4bgup2rcd13ifvqcn0","pricing_plan_id":"cebpf4jnsgd1na2vs0mg"},{"bike_id":"8abf98f4-cccb-4648-9c88-55b99be0bc06","system_id":"levelo_inurba_marseille","lat":43.255005,"lon":5.376636,"is_reserved":false,"is_disabled":false,"rental_uris":{"android":"levelo://app?vid=8abf98f4-cccb-4648-9c88-55b99be0bc06","ios":"levelo://app?vid=8abf98f4-cccb-4648-9c88-55b99be0bc06"},"vehicle_type_id":"4","last_reported":1740485877,"current_range_meters":18800,"station_id":"ce4bhnp2rcd13ifvqgvg","pricing_plan_id":"cebpf4jnsgd1na2vs0mg"},{"bike_id":"6fa61dd4-e1b7-4904-8f2e-d59b996e269d","system_id":"levelo_inurba_marseille","lat":43.25848,"lon":5.39428,"is_reserved":false,"is_disabled":false,"rental_uris":{"android":"levelo://app?vid=6fa61dd4-e1b7-4904-8f2e-d59b996e269d","ios":"levelo://app?vid=6fa61dd4-e1b7-4904-8f2e-d59b996e269d"},"vehicle_type_id":"4","last_reported":1740485877,"current_range_meters":18800,"station_id":"ce4bhip2rcd13ifvqft0","pricing_plan_id":"cebpf4jnsgd1na2vs0mg"},{"bike_id":"0c45db8a-f07f-468d-a6ef-c08290b1a757","system_id":"levelo_inurba_marseille","lat":43.29749,"lon":5.3773,"is_reserved":false,"is_disabled":false,"rental_uris":{"android":"levelo://app?vid=0c45db8a-f07f-468d-a6ef-c08290b1a757","ios":"levelo://app?vid=0c45db8a-f07f-468d-a6ef-c08290b1a757"},"vehicle_type_id":"4","last_reported":1740485877,"current_range_meters":20000,"station_id":"","pricing_plan_id":"cebpf4jnsgd1na2vs0mg"},{"bike_id":"6dd2e394-615c-4378-8aaf-bb168ef1d2cc","system_id":"levelo_inurba_marseille","lat":43.31271,"lon":5.40164,"is_reserved":false,"is_disabled":false,"rental_uris":{"android":"levelo://app?vid=6dd2e394-615c-4378-8aaf-bb168ef1d2cc","ios":"levelo://app?vid=6dd2e394-615c-4378-8aaf-bb168ef1d2cc"},"vehicle_type_id":"4","last_reported":1740485877,"current_range_meters":18000,"station_id":"ce4bh092rcd13ifvqd30","pricing_plan_id":"cebpf4jnsgd1na2vs0mg"},{"bike_id":"1a856f10-c5bc-4b12-a5aa-06d011bd52a2","system_id":"levelo_inurba_marseille","lat":43.27796,"lon":5.40691,"is_reserved":false,"is_disabled":false,"rental_uris":{"android":"levelo://app?vid=1a856f10-c5bc-4b12-a5aa-06d011bd52a2","ios":"levelo://app?vid=1a856f10-c5bc-4b12-a5aa-06d011bd52a2"},"vehicle_type_id":"4","last_reported":1740485877,"current_range_meters":19200,"station_id":"ce4bhnh2rcd13ifvqgtg","pricing_plan_id":"cebpf4jnsgd1na2vs0mg"},{"bike_id":"2ad574ab-a84b-4194-be7b-5d19750113c3","system_id":"levelo_inurba_marseille","lat":43.32371,"lon":5.38882,"is_reserved":false,"is_disabled":false,"rental_uris":{"android":"levelo://app?vid=2ad574ab-a84b-4194-be7b-5d19750113c3","ios":"levelo://app?vid=2ad574ab-a84b-4194-be7b-5d19750113c3"},"vehicle_type_id":"4","last_reported":1740485877,"current_range_meters":19200,"station_id":"ce4bhqp2rcd13ifvqhog","pricing_plan_id":"cebpf4jnsgd1na2vs0mg"},{"bike_id":"c2e6e6f2-61ad-4410-9f43-a72e88907af9","system_id":"levelo_inurba_marseille","lat":43.30171,"lon":5.36606,"is_reserved":false,"is_disabled":false,"rental_uris":{"android":"levelo://app?vid=c2e6e6f2-61ad-4410-9f43-a72e88907af9","ios":"levelo://app?vid=c2e6e6f2-61ad-4410-9f43-a72e88907af9"},"vehicle_type_id":"4","last_reported":1740485877,"current_range_meters":19200,"station_id":"ce4bgrh2rcd13ifvqc8g","pricing_plan_id":"cebpf4jnsgd1na2vs0mg"},{"bike_id":"80f82772-92d1-481f-8829-ebd5997da94e","system_id":"levelo_inurba_marseille","lat":43.30208,"lon":5.39475,"is_reserved":false,"is_disabled":false,"rental_uris":{"android":"levelo://app?vid=80f82772-92d1-481f-8829-ebd5997da94e","ios":"levelo://app?vid=80f82772-92d1-481f-8829-ebd5997da94e"},"vehicle_type_id":"4","last_reported":1740485877,"current_range_meters":19200,"station_id":"ce4bh0p2rcd13ifvqd70","pricing_plan_id":"cebpf4jnsgd1na2vs0mg"},{"bike_id":"b766c15e-29d0-4cbb-b678-c5c02f2f53d1","system_id":"levelo_inurba_marseille","lat":43.27994,"lon":5.41665,"is_reserved":false,"is_disabled":false,"rental_uris":{"android":"levelo://app?vid=b766c15e-29d0-4cbb-b678-c5c02f2f53d1","ios":"levelo://app?vid=b766c15e-29d0-4cbb-b678-c5c02f2f53d1"},"vehicle_type_id":"4","last_reported":1740485877,"current_range_meters":19200,"station_id":"ce4bho12rcd13ifvqh1g","pricing_plan_id":"cebpf4jnsgd1na2vs0mg"},{"bike_id":"25411262-23d1-41bb-a382-a545d4af1ec3","system_id":"levelo_inurba_marseille","lat":43.25142,"lon":5.40334,"is_reserved":false,"is_disabled":false,"rental_uris":{"android":"levelo://app?vid=25411262-23d1-41bb-a382-a545d4af1ec3","ios":"levelo://app?vid=25411262-23d1-41bb-a382-a545d4af1ec3"},"vehicle_type_id":"4","last_reported":1740485877,"current_range_meters":19600,"station_id":"ce4bhlh2rcd13ifvqgig","pricing_plan_id":"cebpf4jnsgd1na2vs0mg"},{"bike_id":"45127abe-699f-4c02-9aab-c9892981149b","system_id":"levelo_inurba_marseille","lat":43.27201,"lon":5.40962,"is_reserved":false,"is_disabled":false,"rental_uris":{"android":"levelo://app?vid=45127abe-699f-4c02-9aab-c9892981149b","ios":"levelo://app?vid=45127abe-699f-4c02-9aab-c9892981149b"},"vehicle_type_id":"4","last_reported":1740485877,"current_range_meters":19600,"station_id":"ce4bhl12rcd13ifvqgf0","pricing_plan_id":"cebpf4jnsgd1na2vs0mg"},{"bike_id":"42616e7f-aef7-4733-8ce8-beaead2624ba","system_id":"levelo_inurba_marseille","lat":43.27844,"lon":5.39204,"is_reserved":false,"is_disabled":false,"rental_uris":{"android":"levelo://app?vid=42616e7f-aef7-4733-8ce8-beaead2624ba","ios":"levelo://app?vid=42616e7f-aef7-4733-8ce8-beaead2624ba"},"vehicle_type_id":"4","last_reported":1740485877,"current_range_meters":19200,"station_id":"ce4bhjp2rcd13ifvqga0","pricing_plan_id":"cebpf4jnsgd1na2vs0mg"},{"bike_id":"3b9320bb-2672-45d5-85bc-19626c5ce853","system_id":"levelo_inurba_marseille","lat":43.25695,"lon":5.37674,"is_reserved":false,"is_disabled":false,"rental_uris":{"android":"levelo://app?vid=3b9320bb-2672-45d5-85bc-19626c5ce853","ios":"levelo://app?vid=3b9320bb-2672-45d5-85bc-19626c5ce853"},"vehicle_type_id":"4","last_reported":1740485877,"current_range_meters":22400,"station_id":"ce4bhih2rcd13ifvqfs0","pricing_plan_id":"cebpf4jnsgd1na2vs0mg"},{"bike_id":"9fbd35dc-8ae6-4ec3-be6a-21b816db93bc","system_id":"levelo_inurba_marseille","lat":43.29579,"lon":5.36739,"is_reserved":false,"is_disabled":false,"rental_uris":{"android":"levelo://app?vid=9fbd35dc-8ae6-4ec3-be6a-21b816db93bc","ios":"levelo://app?vid=9fbd35dc-8ae6-4ec3-be6a-21b816db93bc"},"vehicle_type_id":"4","last_reported":1740485877,"current_range_meters":20000,"station_id":"ce4bgph2rcd13ifvqc2g","pricing_plan_id":"cebpf4jnsgd1na2vs0mg"},{"bike_id":"1df32ffb-b6d0-42f0-8856-8dbb268b7110","system_id":"levelo_inurba_marseille","lat":43.31667,"lon":5.4371,"is_reserved":false,"is_disabled":false,"rental_uris":{"android":"levelo://app?vid=1df32ffb-b6d0-42f0-8856-8dbb268b7110","ios":"levelo://app?vid=1df32ffb-b6d0-42f0-8856-8dbb268b7110"},"vehicle_type_id":"4","last_reported":1740485877,"current_range_meters":20400,"station_id":"ce4bhp92rcd13ifvqhcg","pricing_plan_id":"cebpf4jnsgd1na2vs0mg"},{"bike_id":"e4b61e67-5c22-4221-873e-01cee989859c","system_id":"levelo_inurba_marseille","lat":43.29889,"lon":5.43675,"is_reserved":false,"is_disabled":false,"rental_uris":{"android":"levelo://app?vid=e4b61e67-5c22-4221-873e-01cee989859c","ios":"levelo://app?vid=e4b61e67-5c22-4221-873e-01cee989859c"},"vehicle_type_id":"4","last_reported":1740485877,"current_range_meters":20000,"station_id":"ce4bhpp2rcd13ifvqhfg","pricing_plan_id":"cebpf4jnsgd1na2vs0mg"},{"bike_id":"a218a1ee-adbc-4541-9849-2f6edd9d246f","system_id":"levelo_inurba_marseille","lat":43.27476,"lon":5.42398,"is_reserved":false,"is_disabled":false,"rental_uris":{"android":"levelo://app?vid=a218a1ee-adbc-4541-9849-2f6edd9d246f","ios":"levelo://app?vid=a218a1ee-adbc-4541-9849-2f6edd9d246f"},"vehicle_type_id":"4","last_reported":1740485877,"current_range_meters":19600,"station_id":"ce4bh192rcd13ifvqdc0","pricing_plan_id":"cebpf4jnsgd1na2vs0mg"},{"bike_id":"d4f250b8-6815-48e4-aeb4-b5a05eb135bf","system_id":"levelo_inurba_marseille","lat":43.28936,"lon":5.36396,"is_reserved":false,"is_disabled":false,"rental_uris":{"android":"levelo://app?vid=d4f250b8-6815-48e4-aeb4-b5a05eb135bf","ios":"levelo://app?vid=d4f250b8-6815-48e4-aeb4-b5a05eb135bf"},"vehicle_type_id":"4","last_reported":1740485877,"current_range_meters":20000,"station_id":"ce4bhc92rcd13ifvqetg","pricing_plan_id":"cebpf4jnsgd1na2vs0mg"},{"bike_id":"198c7f48-2ef4-46c0-b27a-f66e54d352af","system_id":"levelo_inurba_marseille","lat":43.30605,"lon":5.39359,"is_reserved":false,"is_disabled":false,"rental_uris":{"android":"levelo://app?vid=198c7f48-2ef4-46c0-b27a-f66e54d352af","ios":"levelo://app?vid=198c7f48-2ef4-46c0-b27a-f66e54d352af"},"vehicle_type_id":"4","last_reported":1740485877,"current_range_meters":20000,"station_id":"ce4bh0p2rcd13ifvqd80","pricing_plan_id":"cebpf4jnsgd1na2vs0mg"},{"bike_id":"3655f9ce-a054-4910-8e25-b80032356a5a","system_id":"levelo_inurba_marseille","lat":43.3049,"lon":5.379,"is_reserved":false,"is_disabled":false,"rental_uris":{"android":"levelo://app?vid=3655f9ce-a054-4910-8e25-b80032356a5a","ios":"levelo://app?vid=3655f9ce-a054-4910-8e25-b80032356a5a"},"vehicle_type_id":"4","last_reported":1740485877,"current_range_meters":20800,"station_id":"ce4bgup2rcd13ifvqcn0","pricing_plan_id":"cebpf4jnsgd1na2vs0mg"},{"bike_id":"f0ae965e-9011-407a-a317-79d002cc2b50","system_id":"levelo_inurba_marseille","lat":43.29794,"lon":5.38132,"is_reserved":false,"is_disabled":true,"rental_uris":{"android":"levelo://app?vid=f0ae965e-9011-407a-a317-79d002cc2b50","ios":"levelo://app?vid=f0ae965e-9011-407a-a317-79d002cc2b50"},"vehicle_type_id":"4","last_reported":1740485877,"current_range_meters":20400,"station_id":"ce4bgip2rcd13ifvqbb0","pricing_plan_id":"cebpf4jnsgd1na2vs0mg"},{"bike_id":"26229596-64ea-4ad0-8014-fa66177f185f","system_id":"levelo_inurba_marseille","lat":43.29252,"lon":5.37613,"is_reserved":false,"is_disabled":false,"rental_uris":{"android":"levelo://app?vid=26229596-64ea-4ad0-8014-fa66177f185f","ios":"levelo://app?vid=26229596-64ea-4ad0-8014-fa66177f185f"},"vehicle_type_id":"4","last_reported":1740485877,"current_range_meters":19600,"station_id":"ce4bgi12rcd13ifvqb80","pricing_plan_id":"cebpf4jnsgd1na2vs0mg"},{"bike_id":"1f717c7e-f42e-44f7-b299-b0f7cea6b799","system_id":"levelo_inurba_marseille","lat":43.28923,"lon":5.36629,"is_reserved":false,"is_disabled":false,"rental_uris":{"android":"levelo://app?vid=1f717c7e-f42e-44f7-b299-b0f7cea6b799","ios":"levelo://app?vid=1f717c7e-f42e-44f7-b299-b0f7cea6b799"},"vehicle_type_id":"4","last_reported":1740485877,"current_range_meters":20800,"station_id":"ce4bhap2rcd13ifvqek0","pricing_plan_id":"cebpf4jnsgd1na2vs0mg"},{"bike_id":"006e2a3e-4fa5-4a1a-a09c-9695648ef8a2","system_id":"levelo_inurba_marseille","lat":43.25128,"lon":5.40329,"is_reserved":false,"is_disabled":false,"rental_uris":{"android":"levelo://app?vid=006e2a3e-4fa5-4a1a-a09c-9695648ef8a2","ios":"levelo://app?vid=006e2a3e-4fa5-4a1a-a09c-9695648ef8a2"},"vehicle_type_id":"4","last_reported":1740485877,"current_range_meters":20400,"station_id":"ce4bhlh2rcd13ifvqgig","pricing_plan_id":"cebpf4jnsgd1na2vs0mg"},{"bike_id":"3142f017-c4b6-483e-aa73-b65aa0cf64a2","system_id":"levelo_inurba_marseille","lat":43.28036,"lon":5.36956,"is_reserved":false,"is_disabled":true,"rental_uris":{"android":"levelo://app?vid=3142f017-c4b6-483e-aa73-b65aa0cf64a2","ios":"levelo://app?vid=3142f017-c4b6-483e-aa73-b65aa0cf64a2"},"vehicle_type_id":"4","last_reported":1740485877,"current_range_meters":20800,"station_id":"ce4bha12rcd13ifvqef0","pricing_plan_id":"cebpf4jnsgd1na2vs0mg"},{"bike_id":"9cae26cf-a2fc-4e9c-92e8-f854f5e4fb45","system_id":"levelo_inurba_marseille","lat":43.32481,"lon":5.36568,"is_reserved":false,"is_disabled":false,"rental_uris":{"android":"levelo://app?vid=9cae26cf-a2fc-4e9c-92e8-f854f5e4fb45","ios":"levelo://app?vid=9cae26cf-a2fc-4e9c-92e8-f854f5e4fb45"},"vehicle_type_id":"4","last_reported":1740485877,"current_range_meters":20400,"station_id":"ce4bhs12rcd13ifvqhvg","pricing_plan_id":"cebpf4jnsgd1na2vs0mg"},{"bike_id":"1a1d5038-afa6-4288-8082-80277828c4f5","system_id":"levelo_inurba_marseille","lat":43.28454,"lon":5.35876,"is_reserved":false,"is_disabled":false,"rental_uris":{"android":"levelo://app?vid=1a1d5038-afa6-4288-8082-80277828c4f5","ios":"levelo://app?vid=1a1d5038-afa6-4288-8082-80277828c4f5"},"vehicle_type_id":"4","last_reported":1740485877,"current_range_meters":20800,"station_id":"ce4bhah2rcd13ifvqei0","pricing_plan_id":"cebpf4jnsgd1na2vs0mg"},{"bike_id":"3aaca506-5054-4b1b-b29a-24232f7f02a2","system_id":"levelo_inurba_marseille","lat":43.24653,"lon":5.38899,"is_reserved":false,"is_disabled":false,"rental_uris":{"android":"levelo://app?vid=3aaca506-5054-4b1b-b29a-24232f7f02a2","ios":"levelo://app?vid=3aaca506-5054-4b1b-b29a-24232f7f02a2"},"vehicle_type_id":"4","last_reported":1740485877,"current_range_meters":20800,"station_id":"ce4bhg12rcd13ifvqf60","pricing_plan_id":"cebpf4jnsgd1na2vs0mg"},{"bike_id":"04264387-929d-44fb-9b3e-3bfe01d5bccc","system_id":"levelo_inurba_marseille","lat":43.31476,"lon":5.37303,"is_reserved":false,"is_disabled":false,"rental_uris":{"android":"levelo://app?vid=04264387-929d-44fb-9b3e-3bfe01d5bccc","ios":"levelo://app?vid=04264387-929d-44fb-9b3e-3bfe01d5bccc"},"vehicle_type_id":"4","last_reported":1740485877,"current_range_meters":20800,"station_id":"ce4bgt12rcd13ifvqcd0","pricing_plan_id":"cebpf4jnsgd1na2vs0mg"},{"bike_id":"1ca663ad-0d5e-4853-8390-9eb213c60bd7","system_id":"levelo_inurba_marseille","lat":43.30207,"lon":5.39468,"is_reserved":false,"is_disabled":false,"rental_uris":{"android":"levelo://app?vid=1ca663ad-0d5e-4853-8390-9eb213c60bd7","ios":"levelo://app?vid=1ca663ad-0d5e-4853-8390-9eb213c60bd7"},"vehicle_type_id":"4","last_reported":1740485877,"current_range_meters":20800,"station_id":"ce4bh0p2rcd13ifvqd70","pricing_plan_id":"cebpf4jnsgd1na2vs0mg"},{"bike_id":"aac01b4d-619c-4a28-8bbf-b9e9f11675d9","system_id":"levelo_inurba_marseille","lat":43.26929,"lon":5.38918,"is_reserved":false,"is_disabled":false,"rental_uris":{"android":"levelo://app?vid=aac01b4d-619c-4a28-8bbf-b9e9f11675d9","ios":"levelo://app?vid=aac01b4d-619c-4a28-8bbf-b9e9f11675d9"},"vehicle_type_id":"4","last_reported":1740485877,"current_range_meters":20400,"station_id":"ce4bhhh2rcd13ifvqfl0","pricing_plan_id":"cebpf4jnsgd1na2vs0mg"},{"bike_id":"b0a18b26-683f-4e72-b0b5-445f147276b2","system_id":"levelo_inurba_marseille","lat":43.28416,"lon":5.37508,"is_reserved":false,"is_disabled":false,"rental_uris":{"android":"levelo://app?vid=b0a18b26-683f-4e72-b0b5-445f147276b2","ios":"levelo://app?vid=b0a18b26-683f-4e72-b0b5-445f147276b2"},"vehicle_type_id":"4","last_reported":1740485877,"current_range_meters":21600,"station_id":"ce4bh412rcd13ifvqds0","pricing_plan_id":"cebpf4jnsgd1na2vs0mg"},{"bike_id":"9a0168cf-de26-4748-a950-9be7bd958951","system_id":"levelo_inurba_marseille","lat":43.30954,"lon":5.39036,"is_reserved":false,"is_disabled":false,"rental_uris":{"android":"levelo://app?vid=9a0168cf-de26-4748-a950-9be7bd958951","ios":"levelo://app?vid=9a0168cf-de26-4748-a950-9be7bd958951"},"vehicle_type_id":"4","last_reported":1740485877,"current_range_meters":20800,"station_id":"ce4bgup2rcd13ifvqco0","pricing_plan_id":"cebpf4jnsgd1na2vs0mg"},{"bike_id":"450661ed-e5dc-46ff-8896-4590d4c78ad4","system_id":"levelo_inurba_marseille","lat":43.24077,"lon":5.3776,"is_reserved":false,"is_disabled":false,"rental_uris":{"android":"levelo://app?vid=450661ed-e5dc-46ff-8896-4590d4c78ad4","ios":"levelo://app?vid=450661ed-e5dc-46ff-8896-4590d4c78ad4"},"vehicle_type_id":"4","last_reported":1740485877,"current_range_meters":20800,"station_id":"ce4bhnp2rcd13ifvqgvg","pricing_plan_id":"cebpf4jnsgd1na2vs0mg"},{"bike_id":"1015abbd-7082-4ba1-86ea-5a0ad2804113","system_id":"levelo_inurba_marseille","lat":43.29891,"lon":5.43645,"is_reserved":false,"is_disabled":false,"rental_uris":{"android":"levelo://app?vid=1015abbd-7082-4ba1-86ea-5a0ad2804113","ios":"levelo://app?vid=1015abbd-7082-4ba1-86ea-5a0ad2804113"},"vehicle_type_id":"4","last_reported":1740485877,"current_range_meters":21600,"station_id":"ce4bhpp2rcd13ifvqhfg","pricing_plan_id":"cebpf4jnsgd1na2vs0mg"},{"bike_id":"086a21d4-dd05-43a9-ae76-9b43b4b76e68","system_id":"levelo_inurba_marseille","lat":43.270622,"lon":5.402553,"is_reserved":false,"is_disabled":false,"rental_uris":{"android":"levelo://app?vid=086a21d4-dd05-43a9-ae76-9b43b4b76e68","ios":"levelo://app?vid=086a21d4-dd05-43a9-ae76-9b43b4b76e68"},"vehicle_type_id":"4","last_reported":1740485877,"current_range_meters":21600,"station_id":"ce4bhkp2rcd13ifvqgd0","pricing_plan_id":"cebpf4jnsgd1na2vs0mg"},{"bike_id":"f5900fd7-5ebc-4e9b-ae58-1b8e740df4a2","system_id":"levelo_inurba_marseille","lat":43.278143,"lon":5.407179,"is_reserved":false,"is_disabled":true,"rental_uris":{"android":"levelo://app?vid=f5900fd7-5ebc-4e9b-ae58-1b8e740df4a2","ios":"levelo://app?vid=f5900fd7-5ebc-4e9b-ae58-1b8e740df4a2"},"vehicle_type_id":"4","last_reported":1740485877,"current_range_meters":21600,"station_id":"ce4bhnh2rcd13ifvqgtg","pricing_plan_id":"cebpf4jnsgd1na2vs0mg"},{"bike_id":"ae270ffb-c054-4af8-a22e-8ff1a4f915f1","system_id":"levelo_inurba_marseille","lat":43.30944,"lon":5.39041,"is_reserved":false,"is_disabled":false,"rental_uris":{"android":"levelo://app?vid=ae270ffb-c054-4af8-a22e-8ff1a4f915f1","ios":"levelo://app?vid=ae270ffb-c054-4af8-a22e-8ff1a4f915f1"},"vehicle_type_id":"4","last_reported":1740485877,"current_range_meters":21600,"station_id":"ce4bgup2rcd13ifvqco0","pricing_plan_id":"cebpf4jnsgd1na2vs0mg"},{"bike_id":"3f71a0f1-8574-4162-8cbe-3947c97b02fc","system_id":"levelo_inurba_marseille","lat":43.28992,"lon":5.36702,"is_reserved":false,"is_disabled":false,"rental_uris":{"android":"levelo://app?vid=3f71a0f1-8574-4162-8cbe-3947c97b02fc","ios":"levelo://app?vid=3f71a0f1-8574-4162-8cbe-3947c97b02fc"},"vehicle_type_id":"4","last_reported":1740485877,"current_range_meters":22000,"station_id":"","pricing_plan_id":"cebpf4jnsgd1na2vs0mg"},{"bike_id":"bf94a80a-8cb3-4be3-a330-d78bc3f9d8d1","system_id":"levelo_inurba_marseille","lat":43.2792,"lon":5.3958,"is_reserved":false,"is_disabled":false,"rental_uris":{"android":"levelo://app?vid=bf94a80a-8cb3-4be3-a330-d78bc3f9d8d1","ios":"levelo://app?vid=bf94a80a-8cb3-4be3-a330-d78bc3f9d8d1"},"vehicle_type_id":"4","last_reported":1740485877,"current_range_meters":22400,"station_id":"ce4bhf92rcd13ifvqf40","pricing_plan_id":"cebpf4jnsgd1na2vs0mg"},{"bike_id":"ce6c3a57-2472-4142-ab26-fc6dee861395","system_id":"levelo_inurba_marseille","lat":43.34045,"lon":5.40095,"is_reserved":false,"is_disabled":false,"rental_uris":{"android":"levelo://app?vid=ce6c3a57-2472-4142-ab26-fc6dee861395","ios":"levelo://app?vid=ce6c3a57-2472-4142-ab26-fc6dee861395"},"vehicle_type_id":"4","last_reported":1740485877,"current_range_meters":22400,"station_id":"","pricing_plan_id":"cebpf4jnsgd1na2vs0mg"},{"bike_id":"ee7498ac-afae-4101-a827-ddb2ec43033c","system_id":"levelo_inurba_marseille","lat":43.23201,"lon":5.39986,"is_reserved":false,"is_disabled":false,"rental_uris":{"android":"levelo://app?vid=ee7498ac-afae-4101-a827-ddb2ec43033c","ios":"levelo://app?vid=ee7498ac-afae-4101-a827-ddb2ec43033c"},"vehicle_type_id":"4","last_reported":1740485877,"current_range_meters":22000,"station_id":"ce4bhn12rcd13ifvqgqg","pricing_plan_id":"cebpf4jnsgd1na2vs0mg"},{"bike_id":"f26d4959-946e-4b21-8c97-a1f6ec2cae02","system_id":"levelo_inurba_marseille","lat":43.30955,"lon":5.39033,"is_reserved":false,"is_disabled":true,"rental_uris":{"android":"levelo://app?vid=f26d4959-946e-4b21-8c97-a1f6ec2cae02","ios":"levelo://app?vid=f26d4959-946e-4b21-8c97-a1f6ec2cae02"},"vehicle_type_id":"4","last_reported":1740485877,"current_range_meters":22400,"station_id":"ce4bgup2rcd13ifvqco0","pricing_plan_id":"cebpf4jnsgd1na2vs0mg"},{"bike_id":"479f2824-be6d-46c4-9b9a-2b4b476ddb54","system_id":"levelo_inurba_marseille","lat":43.28347,"lon":5.38101,"is_reserved":false,"is_disabled":false,"rental_uris":{"android":"levelo://app?vid=479f2824-be6d-46c4-9b9a-2b4b476ddb54","ios":"levelo://app?vid=479f2824-be6d-46c4-9b9a-2b4b476ddb54"},"vehicle_type_id":"4","last_reported":1740485877,"current_range_meters":21600,"station_id":"ce4bh412rcd13ifvqdr0","pricing_plan_id":"cebpf4jnsgd1na2vs0mg"},{"bike_id":"05adf558-dae5-44c6-b838-26ed7cc58c71","system_id":"levelo_inurba_marseille","lat":43.28698,"lon":5.39986,"is_reserved":false,"is_disabled":false,"rental_uris":{"android":"levelo://app?vid=05adf558-dae5-44c6-b838-26ed7cc58c71","ios":"levelo://app?vid=05adf558-dae5-44c6-b838-26ed7cc58c71"},"vehicle_type_id":"4","last_reported":1740485877,"current_range_meters":21600,"station_id":"ce4bho92rcd13ifvqh3g","pricing_plan_id":"cebpf4jnsgd1na2vs0mg"},{"bike_id":"37374350-ea26-4b90-93d3-f3f5a1172668","system_id":"levelo_inurba_marseille","lat":43.30467,"lon":5.3791,"is_reserved":false,"is_disabled":false,"rental_uris":{"android":"levelo://app?vid=37374350-ea26-4b90-93d3-f3f5a1172668","ios":"levelo://app?vid=37374350-ea26-4b90-93d3-f3f5a1172668"},"vehicle_type_id":"4","last_reported":1740485877,"current_range_meters":22000,"station_id":"ce4bgup2rcd13ifvqcn0","pricing_plan_id":"cebpf4jnsgd1na2vs0mg"},{"bike_id":"70783bb8-fc40-4fc3-8a74-42f162f82a99","system_id":"levelo_inurba_marseille","lat":43.32375,"lon":5.38886,"is_reserved":false,"is_disabled":false,"rental_uris":{"android":"levelo://app?vid=70783bb8-fc40-4fc3-8a74-42f162f82a99","ios":"levelo://app?vid=70783bb8-fc40-4fc3-8a74-42f162f82a99"},"vehicle_type_id":"4","last_reported":1740485877,"current_range_meters":22000,"station_id":"ce4bhqp2rcd13ifvqhog","pricing_plan_id":"cebpf4jnsgd1na2vs0mg"},{"bike_id":"032c254e-0233-43ac-8fdf-d01c42a0f9bc","system_id":"levelo_inurba_marseille","lat":43.287,"lon":5.37917,"is_reserved":false,"is_disabled":false,"rental_uris":{"android":"levelo://app?vid=032c254e-0233-43ac-8fdf-d01c42a0f9bc","ios":"levelo://app?vid=032c254e-0233-43ac-8fdf-d01c42a0f9bc"},"vehicle_type_id":"4","last_reported":1740485877,"current_range_meters":23200,"station_id":"ce4bh9p2rcd13ifvqec0","pricing_plan_id":"cebpf4jnsgd1na2vs0mg"},{"bike_id":"dd9e108f-be34-48a5-9f9d-f3800e9315d6","system_id":"levelo_inurba_marseille","lat":43.29851,"lon":5.3629,"is_reserved":false,"is_disabled":false,"rental_uris":{"android":"levelo://app?vid=dd9e108f-be34-48a5-9f9d-f3800e9315d6","ios":"levelo://app?vid=dd9e108f-be34-48a5-9f9d-f3800e9315d6"},"vehicle_type_id":"4","last_reported":1740485877,"current_range_meters":22000,"station_id":"ce4bgpp2rcd13ifvqc3g","pricing_plan_id":"cebpf4jnsgd1na2vs0mg"},{"bike_id":"c5e7b9ef-a6d2-43d8-ad63-1e6ae13de3c2","system_id":"levelo_inurba_marseille","lat":43.30778,"lon":5.37654,"is_reserved":false,"is_disabled":false,"rental_uris":{"android":"levelo://app?vid=c5e7b9ef-a6d2-43d8-ad63-1e6ae13de3c2","ios":"levelo://app?vid=c5e7b9ef-a6d2-43d8-ad63-1e6ae13de3c2"},"vehicle_type_id":"4","last_reported":1740485877,"current_range_meters":22800,"station_id":"ce4bgv92rcd13ifvqcq0","pricing_plan_id":"cebpf4jnsgd1na2vs0mg"},{"bike_id":"9eb10ab9-ef97-459e-a893-bed63e589588","system_id":"levelo_inurba_marseille","lat":43.25023,"lon":5.38934,"is_reserved":false,"is_disabled":false,"rental_uris":{"android":"levelo://app?vid=9eb10ab9-ef97-459e-a893-bed63e589588","ios":"levelo://app?vid=9eb10ab9-ef97-459e-a893-bed63e589588"},"vehicle_type_id":"4","last_reported":1740485877,"current_range_meters":22400,"station_id":"ce4bhgp2rcd13ifvqfd0","pricing_plan_id":"cebpf4jnsgd1na2vs0mg"},{"bike_id":"0edf3a85-0e12-4f65-a670-900a1988fcf3","system_id":"levelo_inurba_marseille","lat":43.30428,"lon":5.41295,"is_reserved":false,"is_disabled":true,"rental_uris":{"android":"levelo://app?vid=0edf3a85-0e12-4f65-a670-900a1988fcf3","ios":"levelo://app?vid=0edf3a85-0e12-4f65-a670-900a1988fcf3"},"vehicle_type_id":"4","last_reported":1740485877,"current_range_meters":22400,"station_id":"ce4bhop2rcd13ifvqh8g","pricing_plan_id":"cebpf4jnsgd1na2vs0mg"},{"bike_id":"95f05b6e-2c2a-4940-b7cb-ec4781dfe40c","system_id":"levelo_inurba_marseille","lat":43.259277,"lon":5.408915,"is_reserved":false,"is_disabled":false,"rental_uris":{"android":"levelo://app?vid=95f05b6e-2c2a-4940-b7cb-ec4781dfe40c","ios":"levelo://app?vid=95f05b6e-2c2a-4940-b7cb-ec4781dfe40c"},"vehicle_type_id":"4","last_reported":1740485877,"current_range_meters":22400,"station_id":"ce4bhm92rcd13ifvqglg","pricing_plan_id":"cebpf4jnsgd1na2vs0mg"},{"bike_id":"8c5b4b70-7d9b-456b-931d-7d23e8ebfdb1","system_id":"levelo_inurba_marseille","lat":43.30429,"lon":5.39751,"is_reserved":false,"is_disabled":false,"rental_uris":{"android":"levelo://app?vid=8c5b4b70-7d9b-456b-931d-7d23e8ebfdb1","ios":"levelo://app?vid=8c5b4b70-7d9b-456b-931d-7d23e8ebfdb1"},"vehicle_type_id":"4","last_reported":1740485877,"current_range_meters":22400,"station_id":"ce4bh092rcd13ifvqd20","pricing_plan_id":"cebpf4jnsgd1na2vs0mg"},{"bike_id":"83e544a0-45a3-4548-ba5f-042122fac9c7","system_id":"levelo_inurba_marseille","lat":43.23076,"lon":5.35503,"is_reserved":false,"is_disabled":false,"rental_uris":{"android":"levelo://app?vid=83e544a0-45a3-4548-ba5f-042122fac9c7","ios":"levelo://app?vid=83e544a0-45a3-4548-ba5f-042122fac9c7"},"vehicle_type_id":"4","last_reported":1740485877,"current_range_meters":35600,"station_id":"cpo3342slgdg3j2ifvpg","pricing_plan_id":"cebpf4jnsgd1na2vs0mg"},{"bike_id":"0819239a-a2cc-4d6d-bf46-d18132d42e38","system_id":"levelo_inurba_marseille","lat":43.28921,"lon":5.38406,"is_reserved":false,"is_disabled":false,"rental_uris":{"android":"levelo://app?vid=0819239a-a2cc-4d6d-bf46-d18132d42e38","ios":"levelo://app?vid=0819239a-a2cc-4d6d-bf46-d18132d42e38"},"vehicle_type_id":"4","last_reported":1740485877,"current_range_meters":22400,"station_id":"ce4bh612rcd13ifvqe6g","pricing_plan_id":"cebpf4jnsgd1na2vs0mg"},{"bike_id":"b69d2ca7-a48b-4651-a829-0793f0051084","system_id":"levelo_inurba_marseille","lat":43.28668,"lon":5.38665,"is_reserved":false,"is_disabled":false,"rental_uris":{"android":"levelo://app?vid=b69d2ca7-a48b-4651-a829-0793f0051084","ios":"levelo://app?vid=b69d2ca7-a48b-4651-a829-0793f0051084"},"vehicle_type_id":"4","last_reported":1740485877,"current_range_meters":22800,"station_id":"ce4bh492rcd13ifvqdug","pricing_plan_id":"cebpf4jnsgd1na2vs0mg"},{"bike_id":"63ecf096-3677-414e-b092-f10e1a6488a4","system_id":"levelo_inurba_marseille","lat":43.31226,"lon":5.36857,"is_reserved":false,"is_disabled":false,"rental_uris":{"android":"levelo://app?vid=63ecf096-3677-414e-b092-f10e1a6488a4","ios":"levelo://app?vid=63ecf096-3677-414e-b092-f10e1a6488a4"},"vehicle_type_id":"4","last_reported":1740485877,"current_range_meters":22800,"station_id":"ce4bgl92rcd13ifvqbq0","pricing_plan_id":"cebpf4jnsgd1na2vs0mg"},{"bike_id":"4e8ad639-e542-4bda-a46f-51c1367f20bf","system_id":"levelo_inurba_marseille","lat":43.29353,"lon":5.37832,"is_reserved":false,"is_disabled":false,"rental_uris":{"android":"levelo://app?vid=4e8ad639-e542-4bda-a46f-51c1367f20bf","ios":"levelo://app?vid=4e8ad639-e542-4bda-a46f-51c1367f20bf"},"vehicle_type_id":"4","last_reported":1740485877,"current_range_meters":22800,"station_id":"ce4bgjh2rcd13ifvqbf0","pricing_plan_id":"cebpf4jnsgd1na2vs0mg"},{"bike_id":"79b82764-b876-4b8f-af0a-fe9b09fcf3ee","system_id":"levelo_inurba_marseille","lat":43.24079,"lon":5.37759,"is_reserved":false,"is_disabled":false,"rental_uris":{"android":"levelo://app?vid=79b82764-b876-4b8f-af0a-fe9b09fcf3ee","ios":"levelo://app?vid=79b82764-b876-4b8f-af0a-fe9b09fcf3ee"},"vehicle_type_id":"4","last_reported":1740485877,"current_range_meters":22800,"station_id":"ce4bhnp2rcd13ifvqgvg","pricing_plan_id":"cebpf4jnsgd1na2vs0mg"},{"bike_id":"f76c1c8f-d206-4fd1-946a-2f18abc6cf0c","system_id":"levelo_inurba_marseille","lat":43.25722,"lon":5.41105,"is_reserved":false,"is_disabled":false,"rental_uris":{"android":"levelo://app?vid=f76c1c8f-d206-4fd1-946a-2f18abc6cf0c","ios":"levelo://app?vid=f76c1c8f-d206-4fd1-946a-2f18abc6cf0c"},"vehicle_type_id":"4","last_reported":1740485877,"current_range_meters":21600,"station_id":"ce4bhkp2rcd13ifvqgd0","pricing_plan_id":"cebpf4jnsgd1na2vs0mg"},{"bike_id":"245c9ee4-a552-4737-8cda-71747db953a0","system_id":"levelo_inurba_marseille","lat":43.25018,"lon":5.38925,"is_reserved":false,"is_disabled":false,"rental_uris":{"android":"levelo://app?vid=245c9ee4-a552-4737-8cda-71747db953a0","ios":"levelo://app?vid=245c9ee4-a552-4737-8cda-71747db953a0"},"vehicle_type_id":"4","last_reported":1740485877,"current_range_meters":23200,"station_id":"ce4bhgp2rcd13ifvqfd0","pricing_plan_id":"cebpf4jnsgd1na2vs0mg"},{"bike_id":"3989720a-5ef5-4e3b-9bbb-f0f22843c09a","system_id":"levelo_inurba_marseille","lat":43.25741,"lon":5.4182,"is_reserved":false,"is_disabled":false,"rental_uris":{"android":"levelo://app?vid=3989720a-5ef5-4e3b-9bbb-f0f22843c09a","ios":"levelo://app?vid=3989720a-5ef5-4e3b-9bbb-f0f22843c09a"},"vehicle_type_id":"4","last_reported":1740485877,"current_range_meters":23200,"station_id":"","pricing_plan_id":"cebpf4jnsgd1na2vs0mg"},{"bike_id":"a05cf3fa-8762-4acd-90e3-5ecd2f612d3e","system_id":"levelo_inurba_marseille","lat":43.30424,"lon":5.39757,"is_reserved":false,"is_disabled":false,"rental_uris":{"android":"levelo://app?vid=a05cf3fa-8762-4acd-90e3-5ecd2f612d3e","ios":"levelo://app?vid=a05cf3fa-8762-4acd-90e3-5ecd2f612d3e"},"vehicle_type_id":"4","last_reported":1740485877,"current_range_meters":23200,"station_id":"ce4bh092rcd13ifvqd20","pricing_plan_id":"cebpf4jnsgd1na2vs0mg"},{"bike_id":"7014fbd2-e0cd-4396-b74c-daa9836bda7f","system_id":"levelo_inurba_marseille","lat":43.28365,"lon":5.38113,"is_reserved":false,"is_disabled":false,"rental_uris":{"android":"levelo://app?vid=7014fbd2-e0cd-4396-b74c-daa9836bda7f","ios":"levelo://app?vid=7014fbd2-e0cd-4396-b74c-daa9836bda7f"},"vehicle_type_id":"4","last_reported":1740485877,"current_range_meters":22400,"station_id":"ce4bh412rcd13ifvqdr0","pricing_plan_id":"cebpf4jnsgd1na2vs0mg"},{"bike_id":"1213b45f-558e-40e7-96e3-31133f71bc5d","system_id":"levelo_inurba_marseille","lat":43.28621,"lon":5.35112,"is_reserved":false,"is_disabled":false,"rental_uris":{"android":"levelo://app?vid=1213b45f-558e-40e7-96e3-31133f71bc5d","ios":"levelo://app?vid=1213b45f-558e-40e7-96e3-31133f71bc5d"},"vehicle_type_id":"4","last_reported":1740485877,"current_range_meters":23200,"station_id":"ce4bhch2rcd13ifvqeug","pricing_plan_id":"cebpf4jnsgd1na2vs0mg"},{"bike_id":"52d4235b-aa81-452f-ab20-65f3adea7e6a","system_id":"levelo_inurba_marseille","lat":43.319985,"lon":5.381429,"is_reserved":false,"is_disabled":false,"rental_uris":{"android":"levelo://app?vid=52d4235b-aa81-452f-ab20-65f3adea7e6a","ios":"levelo://app?vid=52d4235b-aa81-452f-ab20-65f3adea7e6a"},"vehicle_type_id":"4","last_reported":1740485877,"current_range_meters":23200,"station_id":"ce4bhr12rcd13ifvqhpg","pricing_plan_id":"cebpf4jnsgd1na2vs0mg"},{"bike_id":"220837e6-44d1-411a-aaca-6e3d59340904","system_id":"levelo_inurba_marseille","lat":43.301318,"lon":5.387765,"is_reserved":false,"is_disabled":true,"rental_uris":{"android":"levelo://app?vid=220837e6-44d1-411a-aaca-6e3d59340904","ios":"levelo://app?vid=220837e6-44d1-411a-aaca-6e3d59340904"},"vehicle_type_id":"4","last_reported":1740485877,"current_range_meters":24000,"station_id":"","pricing_plan_id":"cebpf4jnsgd1na2vs0mg"},{"bike_id":"1efd4c17-76e7-45ea-80bb-fcb0b8f3b26e","system_id":"levelo_inurba_marseille","lat":43.2957,"lon":5.37504,"is_reserved":false,"is_disabled":false,"rental_uris":{"android":"levelo://app?vid=1efd4c17-76e7-45ea-80bb-fcb0b8f3b26e","ios":"levelo://app?vid=1efd4c17-76e7-45ea-80bb-fcb0b8f3b26e"},"vehicle_type_id":"4","last_reported":1740485877,"current_range_meters":23200,"station_id":"ce4bgh92rcd13ifvqb50","pricing_plan_id":"cebpf4jnsgd1na2vs0mg"},{"bike_id":"4118c7e7-6683-499a-a704-65e5a1ed9511","system_id":"levelo_inurba_marseille","lat":43.2956,"lon":5.37525,"is_reserved":false,"is_disabled":false,"rental_uris":{"android":"levelo://app?vid=4118c7e7-6683-499a-a704-65e5a1ed9511","ios":"levelo://app?vid=4118c7e7-6683-499a-a704-65e5a1ed9511"},"vehicle_type_id":"4","last_reported":1740485877,"current_range_meters":24000,"station_id":"ce4bgh92rcd13ifvqb50","pricing_plan_id":"cebpf4jnsgd1na2vs0mg"},{"bike_id":"53f93a9b-807b-49da-8b4f-c532e3023558","system_id":"levelo_inurba_marseille","lat":43.27955,"lon":5.41054,"is_reserved":false,"is_disabled":false,"rental_uris":{"android":"levelo://app?vid=53f93a9b-807b-49da-8b4f-c532e3023558","ios":"levelo://app?vid=53f93a9b-807b-49da-8b4f-c532e3023558"},"vehicle_type_id":"4","last_reported":1740485877,"current_range_meters":24000,"station_id":"ce4bhnp2rcd13ifvqh0g","pricing_plan_id":"cebpf4jnsgd1na2vs0mg"},{"bike_id":"3de9aeda-1f9a-4bbc-8b90-e02a49e56ca9","system_id":"levelo_inurba_marseille","lat":43.2319,"lon":5.35542,"is_reserved":false,"is_disabled":false,"rental_uris":{"android":"levelo://app?vid=3de9aeda-1f9a-4bbc-8b90-e02a49e56ca9","ios":"levelo://app?vid=3de9aeda-1f9a-4bbc-8b90-e02a49e56ca9"},"vehicle_type_id":"4","last_reported":1740485877,"current_range_meters":24400,"station_id":"ce4bhu92rcd13ifvqi70","pricing_plan_id":"cebpf4jnsgd1na2vs0mg"},{"bike_id":"4ae7dddc-893b-4fb1-a57f-81cfb3aff9f4","system_id":"levelo_inurba_marseille","lat":43.32346,"lon":5.38854,"is_reserved":false,"is_disabled":false,"rental_uris":{"android":"levelo://app?vid=4ae7dddc-893b-4fb1-a57f-81cfb3aff9f4","ios":"levelo://app?vid=4ae7dddc-893b-4fb1-a57f-81cfb3aff9f4"},"vehicle_type_id":"4","last_reported":1740485877,"current_range_meters":24000,"station_id":"ce4bhqp2rcd13ifvqhog","pricing_plan_id":"cebpf4jnsgd1na2vs0mg"},{"bike_id":"8b80aff3-543f-443a-9fe5-cf4bd048ce4c","system_id":"levelo_inurba_marseille","lat":43.31281,"lon":5.40174,"is_reserved":false,"is_disabled":false,"rental_uris":{"android":"levelo://app?vid=8b80aff3-543f-443a-9fe5-cf4bd048ce4c","ios":"levelo://app?vid=8b80aff3-543f-443a-9fe5-cf4bd048ce4c"},"vehicle_type_id":"4","last_reported":1740485877,"current_range_meters":24000,"station_id":"ce4bh092rcd13ifvqd30","pricing_plan_id":"cebpf4jnsgd1na2vs0mg"},{"bike_id":"a958d61a-c811-4598-86ac-d497aa6f6ca0","system_id":"levelo_inurba_marseille","lat":43.24549,"lon":5.39521,"is_reserved":false,"is_disabled":false,"rental_uris":{"android":"levelo://app?vid=a958d61a-c811-4598-86ac-d497aa6f6ca0","ios":"levelo://app?vid=a958d61a-c811-4598-86ac-d497aa6f6ca0"},"vehicle_type_id":"4","last_reported":1740485877,"current_range_meters":23200,"station_id":"ce4bhlp2rcd13ifvqgjg","pricing_plan_id":"cebpf4jnsgd1na2vs0mg"},{"bike_id":"c4ff8e62-0312-429b-841a-51534bda97bb","system_id":"levelo_inurba_marseille","lat":43.2985,"lon":5.3629,"is_reserved":false,"is_disabled":false,"rental_uris":{"android":"levelo://app?vid=c4ff8e62-0312-429b-841a-51534bda97bb","ios":"levelo://app?vid=c4ff8e62-0312-429b-841a-51534bda97bb"},"vehicle_type_id":"4","last_reported":1740485877,"current_range_meters":24000,"station_id":"ce4bgpp2rcd13ifvqc3g","pricing_plan_id":"cebpf4jnsgd1na2vs0mg"},{"bike_id":"d7770554-e837-4ad1-9cd5-bacb9cb77770","system_id":"levelo_inurba_marseille","lat":43.29612,"lon":5.38113,"is_reserved":false,"is_disabled":false,"rental_uris":{"android":"levelo://app?vid=d7770554-e837-4ad1-9cd5-bacb9cb77770","ios":"levelo://app?vid=d7770554-e837-4ad1-9cd5-bacb9cb77770"},"vehicle_type_id":"4","last_reported":1740485877,"current_range_meters":24400,"station_id":"ce4bgl12rcd13ifvqbo0","pricing_plan_id":"cebpf4jnsgd1na2vs0mg"},{"bike_id":"02fcc866-efc5-4897-9781-04ee90587508","system_id":"levelo_inurba_marseille","lat":43.3176,"lon":5.39013,"is_reserved":false,"is_disabled":false,"rental_uris":{"android":"levelo://app?vid=02fcc866-efc5-4897-9781-04ee90587508","ios":"levelo://app?vid=02fcc866-efc5-4897-9781-04ee90587508"},"vehicle_type_id":"4","last_reported":1740485877,"current_range_meters":24400,"station_id":"ce4bhqp2rcd13ifvqhng","pricing_plan_id":"cebpf4jnsgd1na2vs0mg"},{"bike_id":"f7576c7a-b846-41d7-a65b-03a4e972e5d7","system_id":"levelo_inurba_marseille","lat":43.29581,"lon":5.37512,"is_reserved":false,"is_disabled":false,"rental_uris":{"android":"levelo://app?vid=f7576c7a-b846-41d7-a65b-03a4e972e5d7","ios":"levelo://app?vid=f7576c7a-b846-41d7-a65b-03a4e972e5d7"},"vehicle_type_id":"4","last_reported":1740485877,"current_range_meters":24000,"station_id":"ce4bgh92rcd13ifvqb50","pricing_plan_id":"cebpf4jnsgd1na2vs0mg"},{"bike_id":"b695a765-7a3c-4f2d-9e30-0a8fc161453d","system_id":"levelo_inurba_marseille","lat":43.29333,"lon":5.41152,"is_reserved":false,"is_disabled":false,"rental_uris":{"android":"levelo://app?vid=b695a765-7a3c-4f2d-9e30-0a8fc161453d","ios":"levelo://app?vid=b695a765-7a3c-4f2d-9e30-0a8fc161453d"},"vehicle_type_id":"4","last_reported":1740485877,"current_range_meters":24400,"station_id":"","pricing_plan_id":"cebpf4jnsgd1na2vs0mg"},{"bike_id":"f5b47a40-5471-4781-a5e3-80f16ed5b3e4","system_id":"levelo_inurba_marseille","lat":43.27823,"lon":5.40728,"is_reserved":false,"is_disabled":false,"rental_uris":{"android":"levelo://app?vid=f5b47a40-5471-4781-a5e3-80f16ed5b3e4","ios":"levelo://app?vid=f5b47a40-5471-4781-a5e3-80f16ed5b3e4"},"vehicle_type_id":"4","last_reported":1740485877,"current_range_meters":24400,"station_id":"","pricing_plan_id":"cebpf4jnsgd1na2vs0mg"},{"bike_id":"4ea509d1-9385-4191-ba4f-426601ab6e3d","system_id":"levelo_inurba_marseille","lat":43.25085,"lon":5.39534,"is_reserved":false,"is_disabled":false,"rental_uris":{"android":"levelo://app?vid=4ea509d1-9385-4191-ba4f-426601ab6e3d","ios":"levelo://app?vid=4ea509d1-9385-4191-ba4f-426601ab6e3d"},"vehicle_type_id":"4","last_reported":1740485877,"current_range_meters":24400,"station_id":"ce4bhm12rcd13ifvqgkg","pricing_plan_id":"cebpf4jnsgd1na2vs0mg"},{"bike_id":"b597206e-3344-4293-895e-fd9a2b396685","system_id":"levelo_inurba_marseille","lat":43.30416,"lon":5.41285,"is_reserved":false,"is_disabled":true,"rental_uris":{"android":"levelo://app?vid=b597206e-3344-4293-895e-fd9a2b396685","ios":"levelo://app?vid=b597206e-3344-4293-895e-fd9a2b396685"},"vehicle_type_id":"4","last_reported":1740485877,"current_range_meters":24400,"station_id":"ce4bhop2rcd13ifvqh8g","pricing_plan_id":"cebpf4jnsgd1na2vs0mg"},{"bike_id":"c76857fb-ea45-4721-8e76-df0dfde19bb7","system_id":"levelo_inurba_marseille","lat":43.2872,"lon":5.3793,"is_reserved":false,"is_disabled":false,"rental_uris":{"android":"levelo://app?vid=c76857fb-ea45-4721-8e76-df0dfde19bb7","ios":"levelo://app?vid=c76857fb-ea45-4721-8e76-df0dfde19bb7"},"vehicle_type_id":"4","last_reported":1740485877,"current_range_meters":24400,"station_id":"ce4bh9p2rcd13ifvqec0","pricing_plan_id":"cebpf4jnsgd1na2vs0mg"},{"bike_id":"93c1e3d2-f325-4a09-9792-5b4c7209b50e","system_id":"levelo_inurba_marseille","lat":43.30542,"lon":5.3671,"is_reserved":false,"is_disabled":false,"rental_uris":{"android":"levelo://app?vid=93c1e3d2-f325-4a09-9792-5b4c7209b50e","ios":"levelo://app?vid=93c1e3d2-f325-4a09-9792-5b4c7209b50e"},"vehicle_type_id":"4","last_reported":1740485877,"current_range_meters":24400,"station_id":"ce4bgrp2rcd13ifvqc9g","pricing_plan_id":"cebpf4jnsgd1na2vs0mg"},{"bike_id":"207e0213-fbcf-4c1c-9ca3-aea4e512cf52","system_id":"levelo_inurba_marseille","lat":43.30534,"lon":5.36711,"is_reserved":false,"is_disabled":false,"rental_uris":{"android":"levelo://app?vid=207e0213-fbcf-4c1c-9ca3-aea4e512cf52","ios":"levelo://app?vid=207e0213-fbcf-4c1c-9ca3-aea4e512cf52"},"vehicle_type_id":"4","last_reported":1740485877,"current_range_meters":24400,"station_id":"ce4bgrp2rcd13ifvqc9g","pricing_plan_id":"cebpf4jnsgd1na2vs0mg"},{"bike_id":"b70061a7-079b-4c99-a2a7-ca177ccd985c","system_id":"levelo_inurba_marseille","lat":43.27819,"lon":5.40737,"is_reserved":false,"is_disabled":false,"rental_uris":{"android":"levelo://app?vid=b70061a7-079b-4c99-a2a7-ca177ccd985c","ios":"levelo://app?vid=b70061a7-079b-4c99-a2a7-ca177ccd985c"},"vehicle_type_id":"4","last_reported":1740485877,"current_range_meters":24400,"station_id":"ce4bhnh2rcd13ifvqgtg","pricing_plan_id":"cebpf4jnsgd1na2vs0mg"},{"bike_id":"8cf575cb-ffdd-4438-a6d0-aa0a61b0a77e","system_id":"levelo_inurba_marseille","lat":43.3136,"lon":5.38484,"is_reserved":false,"is_disabled":false,"rental_uris":{"android":"levelo://app?vid=8cf575cb-ffdd-4438-a6d0-aa0a61b0a77e","ios":"levelo://app?vid=8cf575cb-ffdd-4438-a6d0-aa0a61b0a77e"},"vehicle_type_id":"4","last_reported":1740485877,"current_range_meters":24400,"station_id":"ce4bgt92rcd13ifvqcf0","pricing_plan_id":"cebpf4jnsgd1na2vs0mg"},{"bike_id":"60dff205-c9f5-4d5b-93e4-02e8f8caaa4a","system_id":"levelo_inurba_marseille","lat":43.24162,"lon":5.39719,"is_reserved":false,"is_disabled":false,"rental_uris":{"android":"levelo://app?vid=60dff205-c9f5-4d5b-93e4-02e8f8caaa4a","ios":"levelo://app?vid=60dff205-c9f5-4d5b-93e4-02e8f8caaa4a"},"vehicle_type_id":"4","last_reported":1740485877,"current_range_meters":24800,"station_id":"ce4bhn12rcd13ifvqgpg","pricing_plan_id":"cebpf4jnsgd1na2vs0mg"},{"bike_id":"2f59e0a6-ee5c-4239-9895-b8dd36075a4a","system_id":"levelo_inurba_marseille","lat":43.30961,"lon":5.39033,"is_reserved":false,"is_disabled":false,"rental_uris":{"android":"levelo://app?vid=2f59e0a6-ee5c-4239-9895-b8dd36075a4a","ios":"levelo://app?vid=2f59e0a6-ee5c-4239-9895-b8dd36075a4a"},"vehicle_type_id":"4","last_reported":1740485877,"current_range_meters":24800,"station_id":"ce4bgup2rcd13ifvqco0","pricing_plan_id":"cebpf4jnsgd1na2vs0mg"},{"bike_id":"adfd83a6-9110-4a6e-b044-bd617ffc5a94","system_id":"levelo_inurba_marseille","lat":43.30137,"lon":5.3878,"is_reserved":false,"is_disabled":false,"rental_uris":{"android":"levelo://app?vid=adfd83a6-9110-4a6e-b044-bd617ffc5a94","ios":"levelo://app?vid=adfd83a6-9110-4a6e-b044-bd617ffc5a94"},"vehicle_type_id":"4","last_reported":1740485877,"current_range_meters":25200,"station_id":"ce4bghh2rcd13ifvqb60","pricing_plan_id":"cebpf4jnsgd1na2vs0mg"},{"bike_id":"39ab379d-4957-4fb2-80a1-b0fa4207ee0a","system_id":"levelo_inurba_marseille","lat":43.30129,"lon":5.38777,"is_reserved":false,"is_disabled":false,"rental_uris":{"android":"levelo://app?vid=39ab379d-4957-4fb2-80a1-b0fa4207ee0a","ios":"levelo://app?vid=39ab379d-4957-4fb2-80a1-b0fa4207ee0a"},"vehicle_type_id":"4","last_reported":1740485877,"current_range_meters":26000,"station_id":"ce4bghh2rcd13ifvqb60","pricing_plan_id":"cebpf4jnsgd1na2vs0mg"},{"bike_id":"e2e21eda-9306-49b1-8086-ec051cbc4afc","system_id":"levelo_inurba_marseille","lat":43.31332,"lon":5.36761,"is_reserved":false,"is_disabled":false,"rental_uris":{"android":"levelo://app?vid=e2e21eda-9306-49b1-8086-ec051cbc4afc","ios":"levelo://app?vid=e2e21eda-9306-49b1-8086-ec051cbc4afc"},"vehicle_type_id":"4","last_reported":1740485877,"current_range_meters":25200,"station_id":"ce4bgr92rcd13ifvqc6g","pricing_plan_id":"cebpf4jnsgd1na2vs0mg"},{"bike_id":"681d3eb7-8a56-452d-929b-1fb5b43ae417","system_id":"levelo_inurba_marseille","lat":43.32468,"lon":5.36577,"is_reserved":false,"is_disabled":false,"rental_uris":{"android":"levelo://app?vid=681d3eb7-8a56-452d-929b-1fb5b43ae417","ios":"levelo://app?vid=681d3eb7-8a56-452d-929b-1fb5b43ae417"},"vehicle_type_id":"4","last_reported":1740485877,"current_range_meters":24800,"station_id":"ce4bhs12rcd13ifvqhvg","pricing_plan_id":"cebpf4jnsgd1na2vs0mg"},{"bike_id":"d337cc62-b29d-4e4a-bd4f-e767bd643d41","system_id":"levelo_inurba_marseille","lat":43.32088,"lon":5.36799,"is_reserved":false,"is_disabled":false,"rental_uris":{"android":"levelo://app?vid=d337cc62-b29d-4e4a-bd4f-e767bd643d41","ios":"levelo://app?vid=d337cc62-b29d-4e4a-bd4f-e767bd643d41"},"vehicle_type_id":"4","last_reported":1740485877,"current_range_meters":22800,"station_id":"ce4bhrh2rcd13ifvqhug","pricing_plan_id":"cebpf4jnsgd1na2vs0mg"},{"bike_id":"9f9a6ae9-9801-4723-99e8-5f893630dac3","system_id":"levelo_inurba_marseille","lat":43.25584,"lon":5.38232,"is_reserved":false,"is_disabled":false,"rental_uris":{"android":"levelo://app?vid=9f9a6ae9-9801-4723-99e8-5f893630dac3","ios":"levelo://app?vid=9f9a6ae9-9801-4723-99e8-5f893630dac3"},"vehicle_type_id":"4","last_reported":1740485877,"current_range_meters":24800,"station_id":"ce4bhih2rcd13ifvqfs0","pricing_plan_id":"cebpf4jnsgd1na2vs0mg"},{"bike_id":"3d516afa-bf79-472c-a3a2-6c090b155f61","system_id":"levelo_inurba_marseille","lat":43.27498,"lon":5.42455,"is_reserved":false,"is_disabled":false,"rental_uris":{"android":"levelo://app?vid=3d516afa-bf79-472c-a3a2-6c090b155f61","ios":"levelo://app?vid=3d516afa-bf79-472c-a3a2-6c090b155f61"},"vehicle_type_id":"4","last_reported":1740485877,"current_range_meters":24800,"station_id":"ce4bhn92rcd13ifvqgrg","pricing_plan_id":"cebpf4jnsgd1na2vs0mg"},{"bike_id":"20f116b0-23be-4896-aac8-d3f645cdeee9","system_id":"levelo_inurba_marseille","lat":43.304823,"lon":5.367255,"is_reserved":false,"is_disabled":false,"rental_uris":{"android":"levelo://app?vid=20f116b0-23be-4896-aac8-d3f645cdeee9","ios":"levelo://app?vid=20f116b0-23be-4896-aac8-d3f645cdeee9"},"vehicle_type_id":"4","last_reported":1740485877,"current_range_meters":24800,"station_id":"ce4bgrp2rcd13ifvqc9g","pricing_plan_id":"cebpf4jnsgd1na2vs0mg"},{"bike_id":"1ef07683-f933-4141-9ed6-882546a340a2","system_id":"levelo_inurba_marseille","lat":43.25155,"lon":5.40358,"is_reserved":false,"is_disabled":false,"rental_uris":{"android":"levelo://app?vid=1ef07683-f933-4141-9ed6-882546a340a2","ios":"levelo://app?vid=1ef07683-f933-4141-9ed6-882546a340a2"},"vehicle_type_id":"4","last_reported":1740485877,"current_range_meters":24800,"station_id":"","pricing_plan_id":"cebpf4jnsgd1na2vs0mg"},{"bike_id":"94043344-7baf-4098-b21a-84d7d29457ce","system_id":"levelo_inurba_marseille","lat":43.30538,"lon":5.36568,"is_reserved":false,"is_disabled":false,"rental_uris":{"android":"levelo://app?vid=94043344-7baf-4098-b21a-84d7d29457ce","ios":"levelo://app?vid=94043344-7baf-4098-b21a-84d7d29457ce"},"vehicle_type_id":"4","last_reported":1740485877,"current_range_meters":24400,"station_id":"ce4bgs12rcd13ifvqcag","pricing_plan_id":"cebpf4jnsgd1na2vs0mg"},{"bike_id":"3c684b44-7d83-4206-8dbf-39b3a7bc01dd","system_id":"levelo_inurba_marseille","lat":43.3136,"lon":5.38483,"is_reserved":false,"is_disabled":false,"rental_uris":{"android":"levelo://app?vid=3c684b44-7d83-4206-8dbf-39b3a7bc01dd","ios":"levelo://app?vid=3c684b44-7d83-4206-8dbf-39b3a7bc01dd"},"vehicle_type_id":"4","last_reported":1740485877,"current_range_meters":24400,"station_id":"ce4bgt92rcd13ifvqcf0","pricing_plan_id":"cebpf4jnsgd1na2vs0mg"},