{"last_updated":1692741961,"ttl":30,"version":"2.2","data":{"bikes":[{"bike_id":"dbd9b7c8-863a-4764-ac52-08f90c60d239","system_id":"levelo_inurba_marseille","lat":43.31341,"lon":5.367098,"is_reserved":false,"is_disabled":false,"rental_uris":{"android":"levelo://app?vid=dbd9b7c8-863a-4764-ac52-08f90c60d239","ios":"levelo://app?vid=dbd9b7c8-863a-4764-ac52-08f90c60d239"},"vehicle_type_id":"4","last_reported":1692741961,"current_range_meters":15600,"station_id":"ce4bgr92rcd13ifvqc6g","pricing_plan_id":"free"},{"bike_id":"f1b264c9-1daa-4c1b-abb3-bbf514af1d5f","system_id":"levelo_inurba_marseille","lat":43.312239,"lon":5.368562,"is_reserved":false,"is_disabled":false,"rental_uris":{"android":"levelo://app?vid=f1b264c9-1daa-4c1b-abb3-bbf514af1d5f","ios":"levelo://app?vid=f1b264c9-1daa-4c1b-abb3-bbf514af1d5f"},"vehicle_type_id":"4","last_reported":1692741961,"current_range_meters":18800,"station_id":"ce4bgl92rcd13ifvqbq0","pricing_plan_id":"free"},{"bike_id":"f22ca441-4e4e-4660-b824-b2f46943e54d","system_id":"levelo_inurba_marseille","lat":43.312239,"lon":5.368562,"is_reserved":false,"is_disabled":false,"rental_uris":{"android":"levelo://app?vid=f22ca441-4e4e-4660-b824-b2f46943e54d","ios":"levelo://app?vid=f22ca441-4e4e-4660-b824-b2f46943e54d"},"vehicle_type_id":"4","last_reported":1692741961,"current_range_meters":31600,"station_id":"ce4bgl92rcd13ifvqbq0","pricing_plan_id":"free"},{"bike_id":"d2be997d-44d2-40a5-bb20-02aeaaf65fa5","system_id":"levelo_inurba_marseille","lat":43.314811,"lon":5.373103,"is_reserved":false,"is_disabled":false,"rental_uris":{"android":"levelo://app?vid=d2be997d-44d2-40a5-bb20-02aeaaf65fa5","ios":"levelo://app?vid=d2be997d-44d2-40a5-bb20-02aeaaf65fa5"},"vehicle_type_id":"4","last_reported":1692741961,"current_range_meters":31200,"station_id":"ce4bgt12rcd13ifvqcd0","pricing_plan_id":"free"},{"bike_id":"e7b82ff3-4dfa-4e5d-b956-b86a9da5ea54","system_id":"levelo_inurba_marseille","lat":43.309039,"lon":5.371797,"is_reserved":false,"is_disabled":false,"rental_uris":{"android":"levelo://app?vid=e7b82ff3-4dfa-4e5d-b956-b86a9da5ea54","ios":"levelo://app?vid=e7b82ff3-4dfa-4e5d-b956-b86a9da5ea54"},"vehicle_type_id":"4","last_reported":1692741961,"current_range_meters":8000,"station_id":"ce4bguh2rcd13ifvqckg","pricing_plan_id":"free"},{"bike_id":"8e3c22a6-4e75-4c2b-975d-d30674c3f81a","system_id":"levelo_inurba_marseille","lat":43.30876,"lon":5.37204,"is_reserved":false,"is_disabled":false,"rental_uris":{"android":"levelo://app?vid=8e3c22a6-4e75-4c2b-975d-d30674c3f81a","ios":"levelo://app?vid=8e3c22a6-4e75-4c2b-975d-d30674c3f81a"},"vehicle_type_id":"4","last_reported":1692741961,"current_range_meters":4400,"station_id":"ce4bguh2rcd13ifvqckg","pricing_plan_id":"free"},{"bike_id":"9fbe6e18-d192-44c2-98b5-cafb68b41aa4","system_id":"levelo_inurba_marseille","lat":43.30549,"lon":5.36531,"is_reserved":false,"is_disabled":false,"rental_uris":{"android":"levelo://app?vid=9fbe6e18-d192-44c2-98b5-cafb68b41aa4","ios":"levelo://app?vid=9fbe6e18-d192-44c2-98b5-cafb68b41aa4"},"vehicle_type_id":"4","last_reported":1692741961,"current_range_meters":25600,"station_id":"ce4bgs12rcd13ifvqcag","pricing_plan_id":"free"},{"bike_id":"034fe95e-b9b0-45b9-8618-e10bae3ade8c","system_id":"levelo_inurba_marseille","lat":43.30624,"lon":5.37212,"is_reserved":false,"is_disabled":false,"rental_uris":{"android":"levelo://app?vid=034fe95e-b9b0-45b9-8618-e10bae3ade8c","ios":"levelo://app?vid=034fe95e-b9b0-45b9-8618-e10bae3ade8c"},"vehicle_type_id":"4","last_reported":1692741961,"current_range_meters":29200,"station_id":"ce4bgqh2rcd13ifvqc4g","pricing_plan_id":"free"},{"bike_id":"2c6b53cd-ac9f-47fb-9d71-d569c56b7fc7","system_id":"levelo_inurba_marseille","lat":43.305989,"lon":5.37225,"is_reserved":false,"is_disabled":false,"rental_uris":{"android":"levelo://app?vid=2c6b53cd-ac9f-47fb-9d71-d569c56b7fc7","ios":"levelo://app?vid=2c6b53cd-ac9f-47fb-9d71-d569c56b7fc7"},"vehicle_type_id":"4","last_reported":1692741961,"current_range_meters":8800,"station_id":"ce4bgqh2rcd13ifvqc4g","pricing_plan_id":"free"},{"bike_id":"fee46877-5f58-4220-b46a-d9c7069c0763","system_id":"levelo_inurba_marseille","lat":43.305989,"lon":5.37225,"is_reserved":false,"is_disabled":false,"rental_uris":{"android":"levelo://app?vid=fee46877-5f58-4220-b46a-d9c7069c0763","ios":"levelo://app?vid=fee46877-5f58-4220-b46a-d9c7069c0763"},"vehicle_type_id":"4","last_reported":1692741961,"current_range_meters":31600,"station_id":"ce4bgqh2rcd13ifvqc4g","pricing_plan_id":"free"},{"bike_id":"4084b96f-2523-4923-bf8b-24f25009d853","system_id":"levelo_inurba_marseille","lat":43.305989,"lon":5.37225,"is_reserved":false,"is_disabled":false,"rental_uris":{"android":"levelo://app?vid=4084b96f-2523-4923-bf8b-24f25009d853","ios":"levelo://app?vid=4084b96f-2523-4923-bf8b-24f25009d853"},"vehicle_type_id":"4","last_reported":1692741961,"current_range_meters":16000,"station_id":"ce4bgqh2rcd13ifvqc4g","pricing_plan_id":"free"},{"bike_id":"bb3275a7-e344-4aa4-b1ce-336f5edf57bb","system_id":"levelo_inurba_marseille","lat":43.31149,"lon":5.37748,"is_reserved":false,"is_disabled":false,"rental_uris":{"android":"levelo://app?vid=bb3275a7-e344-4aa4-b1ce-336f5edf57bb","ios":"levelo://app?vid=bb3275a7-e344-4aa4-b1ce-336f5edf57bb"},"vehicle_type_id":"4","last_reported":1692741961,"current_range_meters":19200,"station_id":"ce4bgt92rcd13ifvqcg0","pricing_plan_id":"free"},{"bike_id":"7bedafb7-4016-43d3-bf1a-c54addc51f5c","system_id":"levelo_inurba_marseille","lat":43.311125,"lon":5.377624,"is_reserved":false,"is_disabled":false,"rental_uris":{"android":"levelo://app?vid=7bedafb7-4016-43d3-bf1a-c54addc51f5c","ios":"levelo://app?vid=7bedafb7-4016-43d3-bf1a-c54addc51f5c"},"vehicle_type_id":"4","last_reported":1692741961,"current_range_meters":12800,"station_id":"ce4bgt92rcd13ifvqcg0","pricing_plan_id":"free"},{"bike_id":"cd0c8bb2-fc70-44ec-8645-3cafe502746d","system_id":"levelo_inurba_marseille","lat":43.311125,"lon":5.377624,"is_reserved":false,"is_disabled":false,"rental_uris":{"android":"levelo://app?vid=cd0c8bb2-fc70-44ec-8645-3cafe502746d","ios":"levelo://app?vid=cd0c8bb2-fc70-44ec-8645-3cafe502746d"},"vehicle_type_id":"4","last_reported":1692741961,"current_range_meters":4000,"station_id":"ce4bgt92rcd13ifvqcg0","pricing_plan_id":"free"},{"bike_id":"b2506bd9-c54f-4cb3-9238-3122561771b8","system_id":"levelo_inurba_marseille","lat":43.311125,"lon":5.377624,"is_reserved":false,"is_disabled":false,"rental_uris":{"android":"levelo://app?vid=b2506bd9-c54f-4cb3-9238-3122561771b8","ios":"levelo://app?vid=b2506bd9-c54f-4cb3-9238-3122561771b8"},"vehicle_type_id":"4","last_reported":1692741961,"current_range_meters":3600,"station_id":"ce4bgt92rcd13ifvqcg0","pricing_plan_id":"free"},{"bike_id":"be2a9b7c-9aab-47e1-b081-5a1369cbd6a5","system_id":"levelo_inurba_marseille","lat":43.30796,"lon":5.37642,"is_reserved":false,"is_disabled":false,"rental_uris":{"android":"levelo://app?vid=be2a9b7c-9aab-47e1-b081-5a1369cbd6a5","ios":"levelo://app?vid=be2a9b7c-9aab-47e1-b081-5a1369cbd6a5"},"vehicle_type_id":"4","last_reported":1692741961,"current_range_meters":400,"station_id":"ce4bgv92rcd13ifvqcq0","pricing_plan_id":"free"},{"bike_id":"910ee35a-1fed-435f-962e-c877be4df733","system_id":"levelo_inurba_marseille","lat":43.307945,"lon":5.376487,"is_reserved":false,"is_disabled":false,"rental_uris":{"android":"levelo://app?vid=910ee35a-1fed-435f-962e-c877be4df733","ios":"levelo://app?vid=910ee35a-1fed-435f-962e-c877be4df733"},"vehicle_type_id":"4","last_reported":1692741961,"current_range_meters":22400,"station_id":"ce4bgv92rcd13ifvqcq0","pricing_plan_id":"free"},{"bike_id":"5707ba40-9f8a-4b67-982e-7fff090c48a2","system_id":"levelo_inurba_marseille","lat":43.3079,"lon":5.37655,"is_reserved":false,"is_disabled":false,"rental_uris":{"android":"levelo://app?vid=5707ba40-9f8a-4b67-982e-7fff090c48a2","ios":"levelo://app?vid=5707ba40-9f8a-4b67-982e-7fff090c48a2"},"vehicle_type_id":"4","last_reported":1692741961,"current_range_meters":18800,"station_id":"ce4bgv92rcd13ifvqcq0","pricing_plan_id":"free"},{"bike_id":"fe625659-517c-4e4e-b858-fa37794f542a","system_id":"levelo_inurba_marseille","lat":43.30777,"lon":5.37664,"is_reserved":false,"is_disabled":false,"rental_uris":{"android":"levelo://app?vid=fe625659-517c-4e4e-b858-fa37794f542a","ios":"levelo://app?vid=fe625659-517c-4e4e-b858-fa37794f542a"},"vehicle_type_id":"4","last_reported":1692741961,"current_range_meters":0,"station_id":"ce4bgv92rcd13ifvqcq0","pricing_plan_id":"free"},{"bike_id":"874e34a8-80c1-4d79-8e18-aa1bd38adad4","system_id":"levelo_inurba_marseille","lat":43.317065,"lon":5.377313,"is_reserved":false,"is_disabled":false,"rental_uris":{"android":"levelo://app?vid=874e34a8-80c1-4d79-8e18-aa1bd38adad4","ios":"levelo://app?vid=874e34a8-80c1-4d79-8e18-aa1bd38adad4"},"vehicle_type_id":"4","last_reported":1692741961,"current_range_meters":0,"station_id":"ce4bgth2rcd13ifvqch0","pricing_plan_id":"free"},{"bike_id":"48926894-92f8-4022-9754-eee54d785874","system_id":"levelo_inurba_marseille","lat":43.303046,"lon":5.368981,"is_reserved":false,"is_disabled":false,"rental_uris":{"android":"levelo://app?vid=48926894-92f8-4022-9754-eee54d785874","ios":"levelo://app?vid=48926894-92f8-4022-9754-eee54d785874"},"vehicle_type_id":"4","last_reported":1692741961,"current_range_meters":6800,"station_id":"ce4bgqh2rcd13ifvqc5g","pricing_plan_id":"free"},{"bike_id":"64a9bd24-8597-4420-8b01-a81a714f33a1","system_id":"levelo_inurba_marseille","lat":43.30302,"lon":5.3689,"is_reserved":false,"is_disabled":false,"rental_uris":{"android":"levelo://app?vid=64a9bd24-8597-4420-8b01-a81a714f33a1","ios":"levelo://app?vid=64a9bd24-8597-4420-8b01-a81a714f33a1"},"vehicle_type_id":"4","last_reported":1692741961,"current_range_meters":27200,"station_id":"ce4bgqh2rcd13ifvqc5g","pricing_plan_id":"free"},{"bike_id":"f3b585f5-2b8e-44b6-90d3-9d24b9e119bc","system_id":"levelo_inurba_marseille","lat":43.315293,"lon":5.380349,"is_reserved":false,"is_disabled":false,"rental_uris":{"android":"levelo://app?vid=f3b585f5-2b8e-44b6-90d3-9d24b9e119bc","ios":"levelo://app?vid=f3b585f5-2b8e-44b6-90d3-9d24b9e119bc"},"vehicle_type_id":"4","last_reported":1692741961,"current_range_meters":22800,"station_id":"ce4bhsp2rcd13ifvqi50","pricing_plan_id":"free"},{"bike_id":"2a3d5432-0108-4eb9-882d-694bea8753ec","system_id":"levelo_inurba_marseille","lat":43.315293,"lon":5.380349,"is_reserved":false,"is_disabled":false,"rental_uris":{"android":"levelo://app?vid=2a3d5432-0108-4eb9-882d-694bea8753ec","ios":"levelo://app?vid=2a3d5432-0108-4eb9-882d-694bea8753ec"},"vehicle_type_id":"4","last_reported":1692741961,"current_range_meters":4000,"station_id":"ce4bhsp2rcd13ifvqi50","pricing_plan_id":"free"},{"bike_id":"8c1589ba-b171-4f9b-9199-86b2eb1deeb8","system_id":"levelo_inurba_marseille","lat":43.315293,"lon":5.380349,"is_reserved":false,"is_disabled":false,"rental_uris":{"android":"levelo://app?vid=8c1589ba-b171-4f9b-9199-86b2eb1deeb8","ios":"levelo://app?vid=8c1589ba-b171-4f9b-9199-86b2eb1deeb8"},"vehicle_type_id":"4","last_reported":1692741961,"current_range_meters":10000,"station_id":"ce4bhsp2rcd13ifvqi50","pricing_plan_id":"free"},{"bike_id":"521037ea-040d-4f14-9410-e72ea91b03ab","system_id":"levelo_inurba_marseille","lat":43.301939,"lon":5.366286,"is_reserved":false,"is_disabled":false,"rental_uris":{"android":"levelo://app?vid=521037ea-040d-4f14-9410-e72ea91b03ab","ios":"levelo://app?vid=521037ea-040d-4f14-9410-e72ea91b03ab"},"vehicle_type_id":"4","last_reported":1692741961,"current_range_meters":14800,"station_id":"ce4bgrh2rcd13ifvqc8g","pricing_plan_id":"free"},{"bike_id":"0f2a0b09-9db7-4ffc-8762-0630fd2498a7","system_id":"levelo_inurba_marseille","lat":43.308012,"lon":5.381511,"is_reserved":false,"is_disabled":false,"rental_uris":{"android":"levelo://app?vid=0f2a0b09-9db7-4ffc-8762-0630fd2498a7","ios":"levelo://app?vid=0f2a0b09-9db7-4ffc-8762-0630fd2498a7"},"vehicle_type_id":"4","last_reported":1692741961,"current_range_meters":10400,"station_id":"ce4bgt12rcd13ifvqce0","pricing_plan_id":"free"},{"bike_id":"9062a103-21f6-4d91-9990-2982b9cb20cd","system_id":"levelo_inurba_marseille","lat":43.308039,"lon":5.381445,"is_reserved":false,"is_disabled":false,"rental_uris":{"android":"levelo://app?vid=9062a103-21f6-4d91-9990-2982b9cb20cd","ios":"levelo://app?vid=9062a103-21f6-4d91-9990-2982b9cb20cd"},"vehicle_type_id":"4","last_reported":1692741961,"current_range_meters":2400,"station_id":"ce4bgt12rcd13ifvqce0","pricing_plan_id":"free"},{"bike_id":"60a975ff-6617-4ac5-bbe2-bbf2a4cd865d","system_id":"levelo_inurba_marseille","lat":43.308074,"lon":5.381504,"is_reserved":false,"is_disabled":false,"rental_uris":{"android":"levelo://app?vid=60a975ff-6617-4ac5-bbe2-bbf2a4cd865d","ios":"levelo://app?vid=60a975ff-6617-4ac5-bbe2-bbf2a4cd865d"},"vehicle_type_id":"4","last_reported":1692741961,"current_range_meters":26800,"station_id":"ce4bgt12rcd13ifvqce0","pricing_plan_id":"free"},{"bike_id":"21dfe6af-b210-4681-aad7-2b2f2cbb03e1","system_id":"levelo_inurba_marseille","lat":43.308058,"lon":5.381501,"is_reserved":false,"is_disabled":false,"rental_uris":{"android":"levelo://app?vid=21dfe6af-b210-4681-aad7-2b2f2cbb03e1","ios":"levelo://app?vid=21dfe6af-b210-4681-aad7-2b2f2cbb03e1"},"vehicle_type_id":"4","last_reported":1692741961,"current_range_meters":16800,"station_id":"","pricing_plan_id":"free"},{"bike_id":"1e8bece9-faa2-4dbc-b542-65ce696c1bf2","system_id":"levelo_inurba_marseille","lat":43.30805,"lon":5.3815,"is_reserved":false,"is_disabled":false,"rental_uris":{"android":"levelo://app?vid=1e8bece9-faa2-4dbc-b542-65ce696c1bf2","ios":"levelo://app?vid=1e8bece9-faa2-4dbc-b542-65ce696c1bf2"},"vehicle_type_id":"4","last_reported":1692741961,"current_range_meters":0,"station_id":"ce4bgt12rcd13ifvqce0","pricing_plan_id":"free"},{"bike_id":"237c1187-0b1e-4a6a-83f3-89fcb0ea5cea","system_id":"levelo_inurba_marseille","lat":43.308056,"lon":5.381642,"is_reserved":false,"is_disabled":false,"rental_uris":{"android":"levelo://app?vid=237c1187-0b1e-4a6a-83f3-89fcb0ea5cea","ios":"levelo://app?vid=237c1187-0b1e-4a6a-83f3-89fcb0ea5cea"},"vehicle_type_id":"4","last_reported":1692741961,"current_range_meters":0,"station_id":"ce4bgt92rcd13ifvqcg0","pricing_plan_id":"free"},{"bike_id":"55dd39b8-8849-4a1e-b14c-c56980b0cd30","system_id":"levelo_inurba_marseille","lat":43.308012,"lon":5.381511,"is_reserved":false,"is_disabled":false,"rental_uris":{"android":"levelo://app?vid=55dd39b8-8849-4a1e-b14c-c56980b0cd30","ios":"levelo://app?vid=55dd39b8-8849-4a1e-b14c-c56980b0cd30"},"vehicle_type_id":"4","last_reported":1692741961,"current_range_meters":4800,"station_id":"ce4bgt12rcd13ifvqce0","pricing_plan_id":"free"},{"bike_id":"89876102-86ed-4e5e-b54c-858223e3594f","system_id":"levelo_inurba_marseille","lat":43.308012,"lon":5.381511,"is_reserved":false,"is_disabled":false,"rental_uris":{"android":"levelo://app?vid=89876102-86ed-4e5e-b54c-858223e3594f","ios":"levelo://app?vid=89876102-86ed-4e5e-b54c-858223e3594f"},"vehicle_type_id":"4","last_reported":1692741961,"current_range_meters":23600,"station_id":"ce4bgt12rcd13ifvqce0","pricing_plan_id":"free"},{"bike_id":"26c46196-c08e-46ba-8552-61bce1cfec64","system_id":"levelo_inurba_marseille","lat":43.304606,"lon":5.379026,"is_reserved":false,"is_disabled":false,"rental_uris":{"android":"levelo://app?vid=26c46196-c08e-46ba-8552-61bce1cfec64","ios":"levelo://app?vid=26c46196-c08e-46ba-8552-61bce1cfec64"},"vehicle_type_id":"4","last_reported":1692741961,"current_range_meters":0,"station_id":"ce4bgup2rcd13ifvqcn0","pricing_plan_id":"free"},{"bike_id":"c3a751d4-74fe-48e7-8e5f-c0de35af3b52","system_id":"levelo_inurba_marseille","lat":43.30459,"lon":5.37911,"is_reserved":false,"is_disabled":false,"rental_uris":{"android":"levelo://app?vid=c3a751d4-74fe-48e7-8e5f-c0de35af3b52","ios":"levelo://app?vid=c3a751d4-74fe-48e7-8e5f-c0de35af3b52"},"vehicle_type_id":"4","last_reported":1692741961,"current_range_meters":18400,"station_id":"ce4bgup2rcd13ifvqcn0","pricing_plan_id":"free"},{"bike_id":"af970a6f-a0eb-46ae-af0e-a890ba80d546","system_id":"levelo_inurba_marseille","lat":43.302784,"lon":5.377158,"is_reserved":false,"is_disabled":false,"rental_uris":{"android":"levelo://app?vid=af970a6f-a0eb-46ae-af0e-a890ba80d546","ios":"levelo://app?vid=af970a6f-a0eb-46ae-af0e-a890ba80d546"},"vehicle_type_id":"4","last_reported":1692741961,"current_range_meters":11200,"station_id":"ce4bguh2rcd13ifvqcj0","pricing_plan_id":"free"},{"bike_id":"ea18d479-0b70-46ae-b13e-811a355c6abe","system_id":"levelo_inurba_marseille","lat":43.304606,"lon":5.379026,"is_reserved":false,"is_disabled":false,"rental_uris":{"android":"levelo://app?vid=ea18d479-0b70-46ae-b13e-811a355c6abe","ios":"levelo://app?vid=ea18d479-0b70-46ae-b13e-811a355c6abe"},"vehicle_type_id":"4","last_reported":1692741961,"current_range_meters":13200,"station_id":"ce4bgup2rcd13ifvqcn0","pricing_plan_id":"free"},{"bike_id":"f8cbe9ae-aa21-4d37-ac21-56c2cd40941f","system_id":"levelo_inurba_marseille","lat":43.302784,"lon":5.377158,"is_reserved":false,"is_disabled":false,"rental_uris":{"android":"levelo://app?vid=f8cbe9ae-aa21-4d37-ac21-56c2cd40941f","ios":"levelo://app?vid=f8cbe9ae-aa21-4d37-ac21-56c2cd40941f"},"vehicle_type_id":"4","last_reported":1692741961,"current_range_meters":10800,"station_id":"ce4bguh2rcd13ifvqcj0","pricing_plan_id":"free"},{"bike_id":"d86d50f3-96d0-4f82-b515-e64529fd9838","system_id":"levelo_inurba_marseille","lat":43.319935,"lon":5.381699,"is_reserved":false,"is_disabled":false,"rental_uris":{"android":"levelo://app?vid=d86d50f3-96d0-4f82-b515-e64529fd9838","ios":"levelo://app?vid=d86d50f3-96d0-4f82-b515-e64529fd9838"},"vehicle_type_id":"4","last_reported":1692741961,"current_range_meters":16000,"station_id":"ce4bhr12rcd13ifvqhpg","pricing_plan_id":"free"},{"bike_id":"4f9f514d-ef2d-4452-965c-8fb7227b3659","system_id":"levelo_inurba_marseille","lat":43.319935,"lon":5.381699,"is_reserved":false,"is_disabled":false,"rental_uris":{"android":"levelo://app?vid=4f9f514d-ef2d-4452-965c-8fb7227b3659","ios":"levelo://app?vid=4f9f514d-ef2d-4452-965c-8fb7227b3659"},"vehicle_type_id":"4","last_reported":1692741961,"current_range_meters":12000,"station_id":"ce4bhr12rcd13ifvqhpg","pricing_plan_id":"free"},{"bike_id":"6735e2a7-1256-4276-b4eb-f4db24e4f996","system_id":"levelo_inurba_marseille","lat":43.29936,"lon":5.36552,"is_reserved":false,"is_disabled":false,"rental_uris":{"android":"levelo://app?vid=6735e2a7-1256-4276-b4eb-f4db24e4f996","ios":"levelo://app?vid=6735e2a7-1256-4276-b4eb-f4db24e4f996"},"vehicle_type_id":"4","last_reported":1692741961,"current_range_meters":22000,"station_id":"ce4bgm92rcd13ifvqbr0","pricing_plan_id":"free"},{"bike_id":"95dc9ecf-047e-4c3a-bb12-a5676cb36ad4","system_id":"levelo_inurba_marseille","lat":43.3216,"lon":5.38166,"is_reserved":false,"is_disabled":false,"rental_uris":{"android":"levelo://app?vid=95dc9ecf-047e-4c3a-bb12-a5676cb36ad4","ios":"levelo://app?vid=95dc9ecf-047e-4c3a-bb12-a5676cb36ad4"},"vehicle_type_id":"4","last_reported":1692741961,"current_range_meters":6000,"station_id":"","pricing_plan_id":"free"},{"bike_id":"4ed380d9-81f7-496b-8154-42eeea0fc709","system_id":"levelo_inurba_marseille","lat":43.305364,"lon":5.384119,"is_reserved":false,"is_disabled":false,"rental_uris":{"android":"levelo://app?vid=4ed380d9-81f7-496b-8154-42eeea0fc709","ios":"levelo://app?vid=4ed380d9-81f7-496b-8154-42eeea0fc709"},"vehicle_type_id":"4","last_reported":1692741961,"current_range_meters":3200,"station_id":"ce4bgg92rcd13ifvqb30","pricing_plan_id":"free"},{"bike_id":"2f9e2def-2173-4eb4-a460-9a385f59debe","system_id":"levelo_inurba_marseille","lat":43.299243,"lon":5.374807,"is_reserved":false,"is_disabled":false,"rental_uris":{"android":"levelo://app?vid=2f9e2def-2173-4eb4-a460-9a385f59debe","ios":"levelo://app?vid=2f9e2def-2173-4eb4-a460-9a385f59debe"},"vehicle_type_id":"4","last_reported":1692741961,"current_range_meters":31200,"station_id":"ce4bgjh2rcd13ifvqbg0","pricing_plan_id":"free"},{"bike_id":"b03434fa-8da4-411e-b384-f6cf9198d104","system_id":"levelo_inurba_marseille","lat":43.305364,"lon":5.384119,"is_reserved":false,"is_disabled":false,"rental_uris":{"android":"levelo://app?vid=b03434fa-8da4-411e-b384-f6cf9198d104","ios":"levelo://app?vid=b03434fa-8da4-411e-b384-f6cf9198d104"},"vehicle_type_id":"4","last_reported":1692741961,"current_range_meters":14000,"station_id":"ce4bgg92rcd13ifvqb30","pricing_plan_id":"free"},{"bike_id":"02d8270b-8a7d-473c-b33d-e53aaf509093","system_id":"levelo_inurba_marseille","lat":43.305356,"lon":5.384284,"is_reserved":false,"is_disabled":false,"rental_uris":{"android":"levelo://app?vid=02d8270b-8a7d-473c-b33d-e53aaf509093","ios":"levelo://app?vid=02d8270b-8a7d-473c-b33d-e53aaf509093"},"vehicle_type_id":"4","last_reported":1692741961,"current_range_meters":31200,"station_id":"ce4bgg92rcd13ifvqb30","pricing_plan_id":"free"},{"bike_id":"b885f463-e8c5-42cc-902f-7152167ce1c7","system_id":"levelo_inurba_marseille","lat":43.299243,"lon":5.37481,"is_reserved":false,"is_disabled":false,"rental_uris":{"android":"levelo://app?vid=b885f463-e8c5-42cc-902f-7152167ce1c7","ios":"levelo://app?vid=b885f463-e8c5-42cc-902f-7152167ce1c7"},"vehicle_type_id":"4","last_reported":1692741961,"current_range_meters":31200,"station_id":"ce4bgjh2rcd13ifvqbg0","pricing_plan_id":"free"},{"bike_id":"31cd58a0-046a-428f-ac3e-3629efb51bc7","system_id":"levelo_inurba_marseille","lat":43.305333,"lon":5.384289,"is_reserved":false,"is_disabled":false,"rental_uris":{"android":"levelo://app?vid=31cd58a0-046a-428f-ac3e-3629efb51bc7","ios":"levelo://app?vid=31cd58a0-046a-428f-ac3e-3629efb51bc7"},"vehicle_type_id":"4","last_reported":1692741961,"current_range_meters":31200,"station_id":"ce4bgg92rcd13ifvqb30","pricing_plan_id":"free"},{"bike_id":"f5d9bc9c-d318-468d-9d76-142041bb3750","system_id":"levelo_inurba_marseille","lat":43.311722,"lon":5.387247,"is_reserved":false,"is_disabled":false,"rental_uris":{"android":"levelo://app?vid=f5d9bc9c-d318-468d-9d76-142041bb3750","ios":"levelo://app?vid=f5d9bc9c-d318-468d-9d76-142041bb3750"},"vehicle_type_id":"4","last_reported":1692741961,"current_range_meters":23600,"station_id":"ce4bgv12rcd13ifvqcp0","pricing_plan_id":"free"},{"bike_id":"6672f5d2-c435-4743-b098-f7c92b60e622","system_id":"levelo_inurba_marseille","lat":43.305306,"lon":5.384277,"is_reserved":false,"is_disabled":false,"rental_uris":{"android":"levelo://app?vid=6672f5d2-c435-4743-b098-f7c92b60e622","ios":"levelo://app?vid=6672f5d2-c435-4743-b098-f7c92b60e622"},"vehicle_type_id":"4","last_reported":1692741961,"current_range_meters":14800,"station_id":"ce4bgg92rcd13ifvqb30","pricing_plan_id":"free"},{"bike_id":"e97b3ac0-d4ce-4b67-b858-527de5362003","system_id":"levelo_inurba_marseille","lat":43.30529,"lon":5.384314,"is_reserved":false,"is_disabled":false,"rental_uris":{"android":"levelo://app?vid=e97b3ac0-d4ce-4b67-b858-527de5362003","ios":"levelo://app?vid=e97b3ac0-d4ce-4b67-b858-527de5362003"},"vehicle_type_id":"4","last_reported":1692741961,"current_range_meters":23200,"station_id":"ce4bgg92rcd13ifvqb30","pricing_plan_id":"free"},{"bike_id":"31624ff8-9f18-48c3-984d-563e53f6dfab","system_id":"levelo_inurba_marseille","lat":43.30541,"lon":5.38442,"is_reserved":false,"is_disabled":false,"rental_uris":{"android":"levelo://app?vid=31624ff8-9f18-48c3-984d-563e53f6dfab","ios":"levelo://app?vid=31624ff8-9f18-48c3-984d-563e53f6dfab"},"vehicle_type_id":"4","last_reported":1692741961,"current_range_meters":31200,"station_id":"ce4bgg92rcd13ifvqb30","pricing_plan_id":"free"},{"bike_id":"e1603366-d7e6-4d5a-a030-239c7d027234","system_id":"levelo_inurba_marseille","lat":43.311722,"lon":5.387247,"is_reserved":false,"is_disabled":false,"rental_uris":{"android":"levelo://app?vid=e1603366-d7e6-4d5a-a030-239c7d027234","ios":"levelo://app?vid=e1603366-d7e6-4d5a-a030-239c7d027234"},"vehicle_type_id":"4","last_reported":1692741961,"current_range_meters":10800,"station_id":"ce4bgv12rcd13ifvqcp0","pricing_plan_id":"free"},{"bike_id":"4ca13a31-b30f-4ea7-866b-379a1ecfc2bc","system_id":"levelo_inurba_marseille","lat":43.311722,"lon":5.387247,"is_reserved":false,"is_disabled":false,"rental_uris":{"android":"levelo://app?vid=4ca13a31-b30f-4ea7-866b-379a1ecfc2bc","ios":"levelo://app?vid=4ca13a31-b30f-4ea7-866b-379a1ecfc2bc"},"vehicle_type_id":"4","last_reported":1692741961,"current_range_meters":0,"station_id":"ce4bgv12rcd13ifvqcp0","pricing_plan_id":"free"},{"bike_id":"fa539643-016e-45b7-bda5-46ee7315bbef","system_id":"levelo_inurba_marseille","lat":43.311722,"lon":5.387247,"is_reserved":false,"is_disabled":false,"rental_uris":{"android":"levelo://app?vid=fa539643-016e-45b7-bda5-46ee7315bbef","ios":"levelo://app?vid=fa539643-016e-45b7-bda5-46ee7315bbef"},"vehicle_type_id":"4","last_reported":1692741961,"current_range_meters":20400,"station_id":"ce4bgv12rcd13ifvqcp0","pricing_plan_id":"free"},{"bike_id":"d46224e8-a548-40a2-80a3-efad09c840e9","system_id":"levelo_inurba_marseille","lat":43.311722,"lon":5.387247,"is_reserved":false,"is_disabled":false,"rental_uris":{"android":"levelo://app?vid=d46224e8-a548-40a2-80a3-efad09c840e9","ios":"levelo://app?vid=d46224e8-a548-40a2-80a3-efad09c840e9"},"vehicle_type_id":"4","last_reported":1692741961,"current_range_meters":6400,"station_id":"ce4bgv12rcd13ifvqcp0","pricing_plan_id":"free"},{"bike_id":"8dc74b15-16e8-458d-b318-829df7df5e5e","system_id":"levelo_inurba_marseille","lat":43.311722,"lon":5.387247,"is_reserved":false,"is_disabled":false,"rental_uris":{"android":"levelo://app?vid=8dc74b15-16e8-458d-b318-829df7df5e5e","ios":"levelo://app?vid=8dc74b15-16e8-458d-b318-829df7df5e5e"},"vehicle_type_id":"4","last_reported":1692741961,"current_range_meters":31200,"station_id":"ce4bgv12rcd13ifvqcp0","pricing_plan_id":"free"},{"bike_id":"48773837-8a01-4137-95bb-600dc54ff51e","system_id":"levelo_inurba_marseille","lat":43.32292,"lon":5.3825,"is_reserved":false,"is_disabled":false,"rental_uris":{"android":"levelo://app?vid=48773837-8a01-4137-95bb-600dc54ff51e","ios":"levelo://app?vid=48773837-8a01-4137-95bb-600dc54ff51e"},"vehicle_type_id":"4","last_reported":1692741961,"current_range_meters":26800,"station_id":"ce4bhr12rcd13ifvqhqg","pricing_plan_id":"free"},{"bike_id":"dd789220-e7b5-42c1-b9dc-dc4243148021","system_id":"levelo_inurba_marseille","lat":43.297163,"lon":5.365866,"is_reserved":false,"is_disabled":false,"rental_uris":{"android":"levelo://app?vid=dd789220-e7b5-42c1-b9dc-dc4243148021","ios":"levelo://app?vid=dd789220-e7b5-42c1-b9dc-dc4243148021"},"vehicle_type_id":"4","last_reported":1692741961,"current_range_meters":31200,"station_id":"ce4bgn12rcd13ifvqbt0","pricing_plan_id":"free"},{"bike_id":"bb155e93-116e-494a-9911-2df351c7dae8","system_id":"levelo_inurba_marseille","lat":43.29628,"lon":5.37175,"is_reserved":false,"is_disabled":false,"rental_uris":{"android":"levelo://app?vid=bb155e93-116e-494a-9911-2df351c7dae8","ios":"levelo://app?vid=bb155e93-116e-494a-9911-2df351c7dae8"},"vehicle_type_id":"4","last_reported":1692741961,"current_range_meters":27600,"station_id":"","pricing_plan_id":"free"},{"bike_id":"d3139180-8ba9-4c91-b6e4-8baae3c22113","system_id":"levelo_inurba_marseille","lat":43.296131,"lon":5.370791,"is_reserved":false,"is_disabled":false,"rental_uris":{"android":"levelo://app?vid=d3139180-8ba9-4c91-b6e4-8baae3c22113","ios":"levelo://app?vid=d3139180-8ba9-4c91-b6e4-8baae3c22113"},"vehicle_type_id":"4","last_reported":1692741961,"current_range_meters":29600,"station_id":"ce4bgnh2rcd13ifvqc0g","pricing_plan_id":"free"},{"bike_id":"a156abfe-af9c-447c-85e9-95a5b71e137f","system_id":"levelo_inurba_marseille","lat":43.299028,"lon":5.381509,"is_reserved":false,"is_disabled":false,"rental_uris":{"android":"levelo://app?vid=a156abfe-af9c-447c-85e9-95a5b71e137f","ios":"levelo://app?vid=a156abfe-af9c-447c-85e9-95a5b71e137f"},"vehicle_type_id":"4","last_reported":1692741961,"current_range_meters":29600,"station_id":"ce4bgj12rcd13ifvqbc0","pricing_plan_id":"free"},{"bike_id":"57446366-1c7e-493e-ac92-11ea1fdd96da","system_id":"levelo_inurba_marseille","lat":43.299028,"lon":5.381509,"is_reserved":false,"is_disabled":false,"rental_uris":{"android":"levelo://app?vid=57446366-1c7e-493e-ac92-11ea1fdd96da","ios":"levelo://app?vid=57446366-1c7e-493e-ac92-11ea1fdd96da"},"vehicle_type_id":"4","last_reported":1692741961,"current_range_meters":6400,"station_id":"ce4bgj12rcd13ifvqbc0","pricing_plan_id":"free"},{"bike_id":"c4eeab8e-dcfa-4202-9026-4d0534f6e6e9","system_id":"levelo_inurba_marseille","lat":43.296935,"lon":5.376544,"is_reserved":false,"is_disabled":false,"rental_uris":{"android":"levelo://app?vid=c4eeab8e-dcfa-4202-9026-4d0534f6e6e9","ios":"levelo://app?vid=c4eeab8e-dcfa-4202-9026-4d0534f6e6e9"},"vehicle_type_id":"4","last_reported":1692741961,"current_range_meters":28000,"station_id":"ce4bgkh2rcd13ifvqbl0","pricing_plan_id":"free"},{"bike_id":"ad26bbde-f654-47e3-aec6-64a066a0edc1","system_id":"levelo_inurba_marseille","lat":43.30949,"lon":5.39049,"is_reserved":false,"is_disabled":false,"rental_uris":{"android":"levelo://app?vid=ad26bbde-f654-47e3-aec6-64a066a0edc1","ios":"levelo://app?vid=ad26bbde-f654-47e3-aec6-64a066a0edc1"},"vehicle_type_id":"4","last_reported":1692741961,"current_range_meters":0,"station_id":"ce4bgup2rcd13ifvqco0","pricing_plan_id":"free"},{"bike_id":"2c93ce6f-c5e1-4ec9-9941-ebb7469bb8f2","system_id":"levelo_inurba_marseille","lat":43.31747,"lon":5.3901,"is_reserved":false,"is_disabled":false,"rental_uris":{"android":"levelo://app?vid=2c93ce6f-c5e1-4ec9-9941-ebb7469bb8f2","ios":"levelo://app?vid=2c93ce6f-c5e1-4ec9-9941-ebb7469bb8f2"},"vehicle_type_id":"4","last_reported":1692741961,"current_range_meters":25600,"station_id":"ce4bhqp2rcd13ifvqhng","pricing_plan_id":"free"},{"bike_id":"fb8a8a85-1c76-4ded-abfd-51837d8fe13b","system_id":"levelo_inurba_marseille","lat":43.317557,"lon":5.390173,"is_reserved":false,"is_disabled":false,"rental_uris":{"android":"levelo://app?vid=fb8a8a85-1c76-4ded-abfd-51837d8fe13b","ios":"levelo://app?vid=fb8a8a85-1c76-4ded-abfd-51837d8fe13b"},"vehicle_type_id":"4","last_reported":1692741961,"current_range_meters":15200,"station_id":"ce4bhqp2rcd13ifvqhng","pricing_plan_id":"free"},{"bike_id":"336b98ab-3a7f-4327-9a17-19c995c0e93b","system_id":"levelo_inurba_marseille","lat":43.317557,"lon":5.390173,"is_reserved":false,"is_disabled":false,"rental_uris":{"android":"levelo://app?vid=336b98ab-3a7f-4327-9a17-19c995c0e93b","ios":"levelo://app?vid=336b98ab-3a7f-4327-9a17-19c995c0e93b"},"vehicle_type_id":"4","last_reported":1692741961,"current_range_meters":3600,"station_id":"ce4bhqp2rcd13ifvqhng","pricing_plan_id":"free"},{"bike_id":"952a19e7-6602-41c3-942f-79cfb514366f","system_id":"levelo_inurba_marseille","lat":43.29828,"lon":5.38091,"is_reserved":false,"is_disabled":false,"rental_uris":{"android":"levelo://app?vid=952a19e7-6602-41c3-942f-79cfb514366f","ios":"levelo://app?vid=952a19e7-6602-41c3-942f-79cfb514366f"},"vehicle_type_id":"4","last_reported":1692741961,"current_range_meters":31200,"station_id":"ce4bgip2rcd13ifvqbb0","pricing_plan_id":"free"},{"bike_id":"a4df99ce-0488-49dd-a888-94686f562e88","system_id":"levelo_inurba_marseille","lat":43.295748,"lon":5.37522,"is_reserved":false,"is_disabled":false,"rental_uris":{"android":"levelo://app?vid=a4df99ce-0488-49dd-a888-94686f562e88","ios":"levelo://app?vid=a4df99ce-0488-49dd-a888-94686f562e88"},"vehicle_type_id":"4","last_reported":1692741961,"current_range_meters":30000,"station_id":"ce4bgh92rcd13ifvqb50","pricing_plan_id":"free"},{"bike_id":"6381feec-944c-4fdd-b7cd-1484774466f2","system_id":"levelo_inurba_marseille","lat":43.304323,"lon":5.388841,"is_reserved":false,"is_disabled":false,"rental_uris":{"android":"levelo://app?vid=6381feec-944c-4fdd-b7cd-1484774466f2","ios":"levelo://app?vid=6381feec-944c-4fdd-b7cd-1484774466f2"},"vehicle_type_id":"4","last_reported":1692741961,"current_range_meters":30800,"station_id":"ce4bgk12rcd13ifvqbi0","pricing_plan_id":"free"},{"bike_id":"0fa23cbb-e768-42a9-92d3-8c0fb98333fa","system_id":"levelo_inurba_marseille","lat":43.304278,"lon":5.388868,"is_reserved":false,"is_disabled":false,"rental_uris":{"android":"levelo://app?vid=0fa23cbb-e768-42a9-92d3-8c0fb98333fa","ios":"levelo://app?vid=0fa23cbb-e768-42a9-92d3-8c0fb98333fa"},"vehicle_type_id":"4","last_reported":1692741961,"current_range_meters":13600,"station_id":"ce4bgk12rcd13ifvqbi0","pricing_plan_id":"free"},{"bike_id":"779a215d-11da-4e26-900f-2b03f7f3a051","system_id":"levelo_inurba_marseille","lat":43.3043,"lon":5.3889,"is_reserved":false,"is_disabled":false,"rental_uris":{"android":"levelo://app?vid=779a215d-11da-4e26-900f-2b03f7f3a051","ios":"levelo://app?vid=779a215d-11da-4e26-900f-2b03f7f3a051"},"vehicle_type_id":"4","last_reported":1692741961,"current_range_meters":31200,"station_id":"ce4bgk12rcd13ifvqbi0","pricing_plan_id":"free"},{"bike_id":"27331605-e927-4b93-8580-eaef48acc79a","system_id":"levelo_inurba_marseille","lat":43.30435,"lon":5.38896,"is_reserved":false,"is_disabled":false,"rental_uris":{"android":"levelo://app?vid=27331605-e927-4b93-8580-eaef48acc79a","ios":"levelo://app?vid=27331605-e927-4b93-8580-eaef48acc79a"},"vehicle_type_id":"4","last_reported":1692741961,"current_range_meters":31200,"station_id":"ce4bgk12rcd13ifvqbi0","pricing_plan_id":"free"},{"bike_id":"40c8a71a-105b-41c9-ac35-1303e4866c8f","system_id":"levelo_inurba_marseille","lat":43.304278,"lon":5.388868,"is_reserved":false,"is_disabled":false,"rental_uris":{"android":"levelo://app?vid=40c8a71a-105b-41c9-ac35-1303e4866c8f","ios":"levelo://app?vid=40c8a71a-105b-41c9-ac35-1303e4866c8f"},"vehicle_type_id":"4","last_reported":1692741961,"current_range_meters":31600,"station_id":"ce4bgk12rcd13ifvqbi0","pricing_plan_id":"free"},{"bike_id":"aa1c6e31-3035-4e62-9f2a-0069ec2ff808","system_id":"levelo_inurba_marseille","lat":43.304278,"lon":5.388868,"is_reserved":false,"is_disabled":false,"rental_uris":{"android":"levelo://app?vid=aa1c6e31-3035-4e62-9f2a-0069ec2ff808","ios":"levelo://app?vid=aa1c6e31-3035-4e62-9f2a-0069ec2ff808"},"vehicle_type_id":"4","last_reported":1692741961,"current_range_meters":20400,"station_id":"ce4bgk12rcd13ifvqbi0","pricing_plan_id":"free"},{"bike_id":"f8d9730e-d47f-4942-a012-1a391499627a","system_id":"levelo_inurba_marseille","lat":43.304278,"lon":5.388868,"is_reserved":false,"is_disabled":false,"rental_uris":{"android":"levelo://app?vid=f8d9730e-d47f-4942-a012-1a391499627a","ios":"levelo://app?vid=f8d9730e-d47f-4942-a012-1a391499627a"},"vehicle_type_id":"4","last_reported":1692741961,"current_range_meters":0,"station_id":"ce4bgk12rcd13ifvqbi0","pricing_plan_id":"free"},{"bike_id":"8930fa1f-e279-486c-91e5-4812d2df85f5","system_id":"levelo_inurba_marseille","lat":43.304278,"lon":5.388868,"is_reserved":false,"is_disabled":false,"rental_uris":{"android":"levelo://app?vid=8930fa1f-e279-486c-91e5-4812d2df85f5","ios":"levelo://app?vid=8930fa1f-e279-486c-91e5-4812d2df85f5"},"vehicle_type_id":"4","last_reported":1692741961,"current_range_meters":30800,"station_id":"ce4bgk12rcd13ifvqbi0","pricing_plan_id":"free"},{"bike_id":"f1a6e357-b8d0-49de-8b83-c38d8dcbbcfe","system_id":"levelo_inurba_marseille","lat":43.29969,"lon":5.38499,"is_reserved":false,"is_disabled":false,"rental_uris":{"android":"levelo://app?vid=f1a6e357-b8d0-49de-8b83-c38d8dcbbcfe","ios":"levelo://app?vid=f1a6e357-b8d0-49de-8b83-c38d8dcbbcfe"},"vehicle_type_id":"4","last_reported":1692741961,"current_range_meters":23200,"station_id":"ce4bgj92rcd13ifvqbd0","pricing_plan_id":"free"},{"bike_id":"ccf89a03-4459-41cd-928b-cbb84836b501","system_id":"levelo_inurba_marseille","lat":43.29965,"lon":5.38495,"is_reserved":false,"is_disabled":false,"rental_uris":{"android":"levelo://app?vid=ccf89a03-4459-41cd-928b-cbb84836b501","ios":"levelo://app?vid=ccf89a03-4459-41cd-928b-cbb84836b501"},"vehicle_type_id":"4","last_reported":1692741961,"current_range_meters":11600,"station_id":"ce4bgj92rcd13ifvqbd0","pricing_plan_id":"free"},{"bike_id":"5b8a1fae-efd9-4b1a-99b3-4800061f73f0","system_id":"levelo_inurba_marseille","lat":43.29966,"lon":5.38501,"is_reserved":false,"is_disabled":false,"rental_uris":{"android":"levelo://app?vid=5b8a1fae-efd9-4b1a-99b3-4800061f73f0","ios":"levelo://app?vid=5b8a1fae-efd9-4b1a-99b3-4800061f73f0"},"vehicle_type_id":"4","last_reported":1692741961,"current_range_meters":23200,"station_id":"ce4bgj92rcd13ifvqbd0","pricing_plan_id":"free"},{"bike_id":"70e5692c-730c-4ba8-8207-65959eebaade","system_id":"levelo_inurba_marseille","lat":43.299724,"lon":5.384848,"is_reserved":false,"is_disabled":false,"rental_uris":{"android":"levelo://app?vid=70e5692c-730c-4ba8-8207-65959eebaade","ios":"levelo://app?vid=70e5692c-730c-4ba8-8207-65959eebaade"},"vehicle_type_id":"4","last_reported":1692741961,"current_range_meters":4800,"station_id":"ce4bgj92rcd13ifvqbd0","pricing_plan_id":"free"},{"bike_id":"2d34899d-a971-455c-9b0a-7294c6635659","system_id":"levelo_inurba_marseille","lat":43.299582,"lon":5.385118,"is_reserved":false,"is_disabled":false,"rental_uris":{"android":"levelo://app?vid=2d34899d-a971-455c-9b0a-7294c6635659","ios":"levelo://app?vid=2d34899d-a971-455c-9b0a-7294c6635659"},"vehicle_type_id":"4","last_reported":1692741961,"current_range_meters":400,"station_id":"ce4bgj92rcd13ifvqbd0","pricing_plan_id":"free"},{"bike_id":"def7da8b-1757-45a3-8dea-cb955d378ab0","system_id":"levelo_inurba_marseille","lat":43.30106,"lon":5.38751,"is_reserved":false,"is_disabled":false,"rental_uris":{"android":"levelo://app?vid=def7da8b-1757-45a3-8dea-cb955d378ab0","ios":"levelo://app?vid=def7da8b-1757-45a3-8dea-cb955d378ab0"},"vehicle_type_id":"4","last_reported":1692741961,"current_range_meters":12000,"station_id":"","pricing_plan_id":"free"},{"bike_id":"5b3fcd30-fde1-4d3f-b3ac-fe2432b64388","system_id":"levelo_inurba_marseille","lat":43.29652,"lon":5.38057,"is_reserved":false,"is_disabled":false,"rental_uris":{"android":"levelo://app?vid=5b3fcd30-fde1-4d3f-b3ac-fe2432b64388","ios":"levelo://app?vid=5b3fcd30-fde1-4d3f-b3ac-fe2432b64388"},"vehicle_type_id":"4","last_reported":1692741961,"current_range_meters":4000,"station_id":"","pricing_plan_id":"free"},{"bike_id":"7d8c3923-f0a3-4e44-8291-49f4210a308a","system_id":"levelo_inurba_marseille","lat":43.32367,"lon":5.388836,"is_reserved":false,"is_disabled":false,"rental_uris":{"android":"levelo://app?vid=7d8c3923-f0a3-4e44-8291-49f4210a308a","ios":"levelo://app?vid=7d8c3923-f0a3-4e44-8291-49f4210a308a"},"vehicle_type_id":"4","last_reported":1692741961,"current_range_meters":31200,"station_id":"ce4bhqp2rcd13ifvqhog","pricing_plan_id":"free"},{"bike_id":"27a50d23-376e-4614-8f33-7c6a033807d7","system_id":"levelo_inurba_marseille","lat":43.32368,"lon":5.38888,"is_reserved":false,"is_disabled":false,"rental_uris":{"android":"levelo://app?vid=27a50d23-376e-4614-8f33-7c6a033807d7","ios":"levelo://app?vid=27a50d23-376e-4614-8f33-7c6a033807d7"},"vehicle_type_id":"4","last_reported":1692741961,"current_range_meters":31200,"station_id":"ce4bhqp2rcd13ifvqhog","pricing_plan_id":"free"},{"bike_id":"babee972-06a5-4dde-8c00-9b289c685c3a","system_id":"levelo_inurba_marseille","lat":43.32367,"lon":5.3889,"is_reserved":false,"is_disabled":false,"rental_uris":{"android":"levelo://app?vid=babee972-06a5-4dde-8c00-9b289c685c3a","ios":"levelo://app?vid=babee972-06a5-4dde-8c00-9b289c685c3a"},"vehicle_type_id":"4","last_reported":1692741961,"current_range_meters":27600,"station_id":"ce4bhqp2rcd13ifvqhog","pricing_plan_id":"free"},{"bike_id":"3ee6736d-0a2a-429b-8608-53e06375372f","system_id":"levelo_inurba_marseille","lat":43.32367,"lon":5.388836,"is_reserved":false,"is_disabled":false,"rental_uris":{"android":"levelo://app?vid=3ee6736d-0a2a-429b-8608-53e06375372f","ios":"levelo://app?vid=3ee6736d-0a2a-429b-8608-53e06375372f"},"vehicle_type_id":"4","last_reported":1692741961,"current_range_meters":31200,"station_id":"ce4bhqp2rcd13ifvqhog","pricing_plan_id":"free"},{"bike_id":"00883cd9-a56a-4720-bb55-237d0136a4a1","system_id":"levelo_inurba_marseille","lat":43.32374,"lon":5.38889,"is_reserved":false,"is_disabled":false,"rental_uris":{"android":"levelo://app?vid=00883cd9-a56a-4720-bb55-237d0136a4a1","ios":"levelo://app?vid=00883cd9-a56a-4720-bb55-237d0136a4a1"},"vehicle_type_id":"4","last_reported":1692741961,"current_range_meters":31200,"station_id":"ce4bhqp2rcd13ifvqhog","pricing_plan_id":"free"},{"bike_id":"b66945e3-8526-4d59-b246-e48354e52de8","system_id":"levelo_inurba_marseille","lat":43.29601,"lon":5.381084,"is_reserved":false,"is_disabled":false,"rental_uris":{"android":"levelo://app?vid=b66945e3-8526-4d59-b246-e48354e52de8","ios":"levelo://app?vid=b66945e3-8526-4d59-b246-e48354e52de8"},"vehicle_type_id":"4","last_reported":1692741961,"current_range_meters":10400,"station_id":"ce4bgl12rcd13ifvqbo0","pricing_plan_id":"free"},{"bike_id":"d135718e-147e-44de-a051-b77408cfbafe","system_id":"levelo_inurba_marseille","lat":43.29602,"lon":5.381084,"is_reserved":false,"is_disabled":false,"rental_uris":{"android":"levelo://app?vid=d135718e-147e-44de-a051-b77408cfbafe","ios":"levelo://app?vid=d135718e-147e-44de-a051-b77408cfbafe"},"vehicle_type_id":"4","last_reported":1692741961,"current_range_meters":26000,"station_id":"ce4bgl12rcd13ifvqbo0","pricing_plan_id":"free"},{"bike_id":"c31e9666-b494-485b-8d5a-30dfc977a991","system_id":"levelo_inurba_marseille","lat":43.29601,"lon":5.381084,"is_reserved":false,"is_disabled":false,"rental_uris":{"android":"levelo://app?vid=c31e9666-b494-485b-8d5a-30dfc977a991","ios":"levelo://app?vid=c31e9666-b494-485b-8d5a-30dfc977a991"},"vehicle_type_id":"4","last_reported":1692741961,"current_range_meters":26400,"station_id":"ce4bgl12rcd13ifvqbo0","pricing_plan_id":"free"},{"bike_id":"fcf90ef8-37c9-4bb1-834e-b24a2284beeb","system_id":"levelo_inurba_marseille","lat":43.29602,"lon":5.381084,"is_reserved":false,"is_disabled":false,"rental_uris":{"android":"levelo://app?vid=fcf90ef8-37c9-4bb1-834e-b24a2284beeb","ios":"levelo://app?vid=fcf90ef8-37c9-4bb1-834e-b24a2284beeb"},"vehicle_type_id":"4","last_reported":1692741961,"current_range_meters":18800,"station_id":"ce4bgl12rcd13ifvqbo0","pricing_plan_id":"free"},{"bike_id":"17a6db44-c5be-4c1d-8e4b-3d7b085533c7","system_id":"levelo_inurba_marseille","lat":43.29602,"lon":5.381084,"is_reserved":false,"is_disabled":false,"rental_uris":{"android":"levelo://app?vid=17a6db44-c5be-4c1d-8e4b-3d7b085533c7","ios":"levelo://app?vid=17a6db44-c5be-4c1d-8e4b-3d7b085533c7"},"vehicle_type_id":"4","last_reported":1692741961,"current_range_meters":15200,"station_id":"ce4bgl12rcd13ifvqbo0","pricing_plan_id":"free"},{"bike_id":"c9ae1af7-4cca-4ac6-b602-25d626cedcc0","system_id":"levelo_inurba_marseille","lat":43.29601,"lon":5.381084,"is_reserved":false,"is_disabled":false,"rental_uris":{"android":"levelo://app?vid=c9ae1af7-4cca-4ac6-b602-25d626cedcc0","ios":"levelo://app?vid=c9ae1af7-4cca-4ac6-b602-25d626cedcc0"},"vehicle_type_id":"4","last_reported":1692741961,"current_range_meters":31200,"station_id":"ce4bgl12rcd13ifvqbo0","pricing_plan_id":"free"},{"bike_id":"6a7dc047-d97d-44de-a22c-0d14df1c9981","system_id":"levelo_inurba_marseille","lat":43.29602,"lon":5.381084,"is_reserved":false,"is_disabled":false,"rental_uris":{"android":"levelo://app?vid=6a7dc047-d97d-44de-a22c-0d14df1c9981","ios":"levelo://app?vid=6a7dc047-d97d-44de-a22c-0d14df1c9981"},"vehicle_type_id":"4","last_reported":1692741961,"current_range_meters":31200,"station_id":"ce4bgl12rcd13ifvqbo0","pricing_plan_id":"free"},{"bike_id":"90a385be-097e-4e2b-ad25-478204d96de1","system_id":"levelo_inurba_marseille","lat":43.29602,"lon":5.381084,"is_reserved":false,"is_disabled":false,"rental_uris":{"android":"levelo://app?vid=90a385be-097e-4e2b-ad25-478204d96de1","ios":"levelo://app?vid=90a385be-097e-4e2b-ad25-478204d96de1"},"vehicle_type_id":"4","last_reported":1692741961,"current_range_meters":29200,"station_id":"ce4bgl12rcd13ifvqbo0","pricing_plan_id":"free"},{"bike_id":"9ad614f3-ed10-4863-a4fd-05e1167da560","system_id":"levelo_inurba_marseille","lat":43.305994,"lon":5.393687,"is_reserved":false,"is_disabled":false,"rental_uris":{"android":"levelo://app?vid=9ad614f3-ed10-4863-a4fd-05e1167da560","ios":"levelo://app?vid=9ad614f3-ed10-4863-a4fd-05e1167da560"},"vehicle_type_id":"4","last_reported":1692741961,"current_range_meters":31200,"station_id":"ce4bh0p2rcd13ifvqd80","pricing_plan_id":"free"},{"bike_id":"caa8992a-3f63-4997-ac44-be2b5b86ec4a","system_id":"levelo_inurba_marseille","lat":43.306052,"lon":5.39363,"is_reserved":false,"is_disabled":false,"rental_uris":{"android":"levelo://app?vid=caa8992a-3f63-4997-ac44-be2b5b86ec4a","ios":"levelo://app?vid=caa8992a-3f63-4997-ac44-be2b5b86ec4a"},"vehicle_type_id":"4","last_reported":1692741961,"current_range_meters":15600,"station_id":"ce4bh0p2rcd13ifvqd80","pricing_plan_id":"free"},{"bike_id":"581e312e-fe10-462a-bce4-2828b1e2fdc8","system_id":"levelo_inurba_marseille","lat":43.30595,"lon":5.3936,"is_reserved":false,"is_disabled":false,"rental_uris":{"android":"levelo://app?vid=581e312e-fe10-462a-bce4-2828b1e2fdc8","ios":"levelo://app?vid=581e312e-fe10-462a-bce4-2828b1e2fdc8"},"vehicle_type_id":"4","last_reported":1692741961,"current_range_meters":400,"station_id":"ce4bh0p2rcd13ifvqd80","pricing_plan_id":"free"},{"bike_id":"11f162e0-1884-45e2-b243-3e3564bfcd39","system_id":"levelo_inurba_marseille","lat":43.305994,"lon":5.393687,"is_reserved":false,"is_disabled":false,"rental_uris":{"android":"levelo://app?vid=11f162e0-1884-45e2-b243-3e3564bfcd39","ios":"levelo://app?vid=11f162e0-1884-45e2-b243-3e3564bfcd39"},"vehicle_type_id":"4","last_reported":1692741961,"current_range_meters":31200,"station_id":"ce4bh0p2rcd13ifvqd80","pricing_plan_id":"free"},{"bike_id":"61875794-9d5d-447c-a6a8-319b7e14b400","system_id":"levelo_inurba_marseille","lat":43.305972,"lon":5.393644,"is_reserved":false,"is_disabled":false,"rental_uris":{"android":"levelo://app?vid=61875794-9d5d-447c-a6a8-319b7e14b400","ios":"levelo://app?vid=61875794-9d5d-447c-a6a8-319b7e14b400"},"vehicle_type_id":"4","last_reported":1692741961,"current_range_meters":31200,"station_id":"ce4bh0p2rcd13ifvqd80","pricing_plan_id":"free"},{"bike_id":"38fef587-7cc5-4800-b069-87b8f296a10a","system_id":"levelo_inurba_marseille","lat":43.29287,"lon":5.37485,"is_reserved":false,"is_disabled":false,"rental_uris":{"android":"levelo://app?vid=38fef587-7cc5-4800-b069-87b8f296a10a","ios":"levelo://app?vid=38fef587-7cc5-4800-b069-87b8f296a10a"},"vehicle_type_id":"4","last_reported":1692741961,"current_range_meters":31200,"station_id":"ce4bgi12rcd13ifvqb70","pricing_plan_id":"free"},{"bike_id":"0724f352-a262-45b7-9b71-9a09ff17d945","system_id":"levelo_inurba_marseille","lat":43.303002,"lon":5.392142,"is_reserved":false,"is_disabled":false,"rental_uris":{"android":"levelo://app?vid=0724f352-a262-45b7-9b71-9a09ff17d945","ios":"levelo://app?vid=0724f352-a262-45b7-9b71-9a09ff17d945"},"vehicle_type_id":"4","last_reported":1692741961,"current_range_meters":30000,"station_id":"ce4bgkh2rcd13ifvqbk0","pricing_plan_id":"free"},{"bike_id":"f963a791-a216-4435-a8c6-348d6f58a038","system_id":"levelo_inurba_marseille","lat":43.2936,"lon":5.37835,"is_reserved":false,"is_disabled":false,"rental_uris":{"android":"levelo://app?vid=f963a791-a216-4435-a8c6-348d6f58a038","ios":"levelo://app?vid=f963a791-a216-4435-a8c6-348d6f58a038"},"vehicle_type_id":"4","last_reported":1692741961,"current_range_meters":0,"station_id":"ce4bgjh2rcd13ifvqbf0","pricing_plan_id":"free"},{"bike_id":"85571c9d-67b7-4c45-8665-edc783336cd2","system_id":"levelo_inurba_marseille","lat":43.300852,"lon":5.390859,"is_reserved":false,"is_disabled":false,"rental_uris":{"android":"levelo://app?vid=85571c9d-67b7-4c45-8665-edc783336cd2","ios":"levelo://app?vid=85571c9d-67b7-4c45-8665-edc783336cd2"},"vehicle_type_id":"4","last_reported":1692741961,"current_range_meters":19200,"station_id":"ce4bh192rcd13ifvqdb0","pricing_plan_id":"free"},{"bike_id":"10e882cd-26e1-40bd-b0b3-d434885d16b5","system_id":"levelo_inurba_marseille","lat":43.300852,"lon":5.390859,"is_reserved":false,"is_disabled":false,"rental_uris":{"android":"levelo://app?vid=10e882cd-26e1-40bd-b0b3-d434885d16b5","ios":"levelo://app?vid=10e882cd-26e1-40bd-b0b3-d434885d16b5"},"vehicle_type_id":"4","last_reported":1692741961,"current_range_meters":0,"station_id":"ce4bh192rcd13ifvqdb0","pricing_plan_id":"free"},{"bike_id":"2086f2db-9f1d-4694-90e5-3bdc415fd974","system_id":"levelo_inurba_marseille","lat":43.300852,"lon":5.390859,"is_reserved":false,"is_disabled":false,"rental_uris":{"android":"levelo://app?vid=2086f2db-9f1d-4694-90e5-3bdc415fd974","ios":"levelo://app?vid=2086f2db-9f1d-4694-90e5-3bdc415fd974"},"vehicle_type_id":"4","last_reported":1692741961,"current_range_meters":7200,"station_id":"ce4bh192rcd13ifvqdb0","pricing_plan_id":"free"},{"bike_id":"377c4ffe-8240-4961-907d-7845662e3bdc","system_id":"levelo_inurba_marseille","lat":43.30085,"lon":5.390856,"is_reserved":false,"is_disabled":false,"rental_uris":{"android":"levelo://app?vid=377c4ffe-8240-4961-907d-7845662e3bdc","ios":"levelo://app?vid=377c4ffe-8240-4961-907d-7845662e3bdc"},"vehicle_type_id":"4","last_reported":1692741961,"current_range_meters":31200,"station_id":"ce4bh192rcd13ifvqdb0","pricing_plan_id":"free"},{"bike_id":"26197f13-1062-4671-977a-e975873a031a","system_id":"levelo_inurba_marseille","lat":43.30896,"lon":5.39621,"is_reserved":false,"is_disabled":false,"rental_uris":{"android":"levelo://app?vid=26197f13-1062-4671-977a-e975873a031a","ios":"levelo://app?vid=26197f13-1062-4671-977a-e975873a031a"},"vehicle_type_id":"4","last_reported":1692741961,"current_range_meters":6800,"station_id":"ce4bh012rcd13ifvqcv0","pricing_plan_id":"free"},{"bike_id":"d4e0a5d5-3f14-452e-891e-21b0d1381652","system_id":"levelo_inurba_marseille","lat":43.309038,"lon":5.396546,"is_reserved":false,"is_disabled":false,"rental_uris":{"android":"levelo://app?vid=d4e0a5d5-3f14-452e-891e-21b0d1381652","ios":"levelo://app?vid=d4e0a5d5-3f14-452e-891e-21b0d1381652"},"vehicle_type_id":"4","last_reported":1692741961,"current_range_meters":30400,"station_id":"ce4bh012rcd13ifvqcv0","pricing_plan_id":"free"},{"bike_id":"3ac3e844-16cd-4c49-a6c3-e105890ab95b","system_id":"levelo_inurba_marseille","lat":43.309038,"lon":5.396546,"is_reserved":false,"is_disabled":false,"rental_uris":{"android":"levelo://app?vid=3ac3e844-16cd-4c49-a6c3-e105890ab95b","ios":"levelo://app?vid=3ac3e844-16cd-4c49-a6c3-e105890ab95b"},"vehicle_type_id":"4","last_reported":1692741961,"current_range_meters":31200,"station_id":"ce4bh012rcd13ifvqcv0","pricing_plan_id":"free"},{"bike_id":"804fa21c-ec99-4ac0-b9eb-b90627304221","system_id":"levelo_inurba_marseille","lat":43.31323,"lon":5.3969,"is_reserved":false,"is_disabled":false,"rental_uris":{"android":"levelo://app?vid=804fa21c-ec99-4ac0-b9eb-b90627304221","ios":"levelo://app?vid=804fa21c-ec99-4ac0-b9eb-b90627304221"},"vehicle_type_id":"4","last_reported":1692741961,"current_range_meters":31200,"station_id":"ce4bgvp2rcd13ifvqcu0","pricing_plan_id":"free"},{"bike_id":"637f1d0b-7d22-452f-b31c-2ae320b69447","system_id":"levelo_inurba_marseille","lat":43.308821,"lon":5.396422,"is_reserved":false,"is_disabled":false,"rental_uris":{"android":"levelo://app?vid=637f1d0b-7d22-452f-b31c-2ae320b69447","ios":"levelo://app?vid=637f1d0b-7d22-452f-b31c-2ae320b69447"},"vehicle_type_id":"4","last_reported":1692741961,"current_range_meters":9200,"station_id":"ce4bh012rcd13ifvqcv0","pricing_plan_id":"free"},{"bike_id":"5100eef7-4a09-4006-abb5-cde67eacae5f","system_id":"levelo_inurba_marseille","lat":43.29557,"lon":5.38545,"is_reserved":false,"is_disabled":false,"rental_uris":{"android":"levelo://app?vid=5100eef7-4a09-4006-abb5-cde67eacae5f","ios":"levelo://app?vid=5100eef7-4a09-4006-abb5-cde67eacae5f"},"vehicle_type_id":"4","last_reported":1692741961,"current_range_meters":18800,"station_id":"ce4bgih2rcd13ifvqba0","pricing_plan_id":"free"},{"bike_id":"2bd07cc6-10cc-49e1-9b20-09141cac8d3c","system_id":"levelo_inurba_marseille","lat":43.31325,"lon":5.39693,"is_reserved":false,"is_disabled":false,"rental_uris":{"android":"levelo://app?vid=2bd07cc6-10cc-49e1-9b20-09141cac8d3c","ios":"levelo://app?vid=2bd07cc6-10cc-49e1-9b20-09141cac8d3c"},"vehicle_type_id":"4","last_reported":1692741961,"current_range_meters":30400,"station_id":"ce4bgvp2rcd13ifvqcu0","pricing_plan_id":"free"},{"bike_id":"4b343901-2891-4575-a3d8-99fe06a06e44","system_id":"levelo_inurba_marseille","lat":43.31335,"lon":5.39694,"is_reserved":false,"is_disabled":false,"rental_uris":{"android":"levelo://app?vid=4b343901-2891-4575-a3d8-99fe06a06e44","ios":"levelo://app?vid=4b343901-2891-4575-a3d8-99fe06a06e44"},"vehicle_type_id":"4","last_reported":1692741961,"current_range_meters":31200,"station_id":"ce4bgvp2rcd13ifvqcu0","pricing_plan_id":"free"},{"bike_id":"9f78b5d2-7c1b-45a7-a1af-23e727ba0133","system_id":"levelo_inurba_marseille","lat":43.3133,"lon":5.39698,"is_reserved":false,"is_disabled":false,"rental_uris":{"android":"levelo://app?vid=9f78b5d2-7c1b-45a7-a1af-23e727ba0133","ios":"levelo://app?vid=9f78b5d2-7c1b-45a7-a1af-23e727ba0133"},"vehicle_type_id":"4","last_reported":1692741961,"current_range_meters":31200,"station_id":"ce4bgvp2rcd13ifvqcu0","pricing_plan_id":"free"},{"bike_id":"5ce8524a-680b-4457-a806-2829e96dc0d5","system_id":"levelo_inurba_marseille","lat":43.30896,"lon":5.39655,"is_reserved":false,"is_disabled":false,"rental_uris":{"android":"levelo://app?vid=5ce8524a-680b-4457-a806-2829e96dc0d5","ios":"levelo://app?vid=5ce8524a-680b-4457-a806-2829e96dc0d5"},"vehicle_type_id":"4","last_reported":1692741961,"current_range_meters":31200,"station_id":"ce4bh012rcd13ifvqcv0","pricing_plan_id":"free"},{"bike_id":"55733591-4bf6-4b3a-87c6-bf57e1d72414","system_id":"levelo_inurba_marseille","lat":43.31326,"lon":5.39702,"is_reserved":false,"is_disabled":false,"rental_uris":{"android":"levelo://app?vid=55733591-4bf6-4b3a-87c6-bf57e1d72414","ios":"levelo://app?vid=55733591-4bf6-4b3a-87c6-bf57e1d72414"},"vehicle_type_id":"4","last_reported":1692741961,"current_range_meters":31200,"station_id":"ce4bgvp2rcd13ifvqcu0","pricing_plan_id":"free"},{"bike_id":"71f1f5ee-9e82-4e48-8def-9fde00332074","system_id":"levelo_inurba_marseille","lat":43.29529,"lon":5.385581,"is_reserved":false,"is_disabled":false,"rental_uris":{"android":"levelo://app?vid=71f1f5ee-9e82-4e48-8def-9fde00332074","ios":"levelo://app?vid=71f1f5ee-9e82-4e48-8def-9fde00332074"},"vehicle_type_id":"4","last_reported":1692741961,"current_range_meters":30000,"station_id":"ce4bgih2rcd13ifvqba0","pricing_plan_id":"free"},{"bike_id":"2cc91d8b-3968-4ec8-bacd-25efc1813388","system_id":"levelo_inurba_marseille","lat":43.29537,"lon":5.38545,"is_reserved":false,"is_disabled":false,"rental_uris":{"android":"levelo://app?vid=2cc91d8b-3968-4ec8-bacd-25efc1813388","ios":"levelo://app?vid=2cc91d8b-3968-4ec8-bacd-25efc1813388"},"vehicle_type_id":"4","last_reported":1692741961,"current_range_meters":31600,"station_id":"ce4bgih2rcd13ifvqba0","pricing_plan_id":"free"},{"bike_id":"63e3dbd9-3dd7-4f19-bae4-1f13ac90eb04","system_id":"levelo_inurba_marseille","lat":43.29539,"lon":5.3855,"is_reserved":false,"is_disabled":false,"rental_uris":{"android":"levelo://app?vid=63e3dbd9-3dd7-4f19-bae4-1f13ac90eb04","ios":"levelo://app?vid=63e3dbd9-3dd7-4f19-bae4-1f13ac90eb04"},"vehicle_type_id":"4","last_reported":1692741961,"current_range_meters":0,"station_id":"ce4bgih2rcd13ifvqba0","pricing_plan_id":"free"},{"bike_id":"a0f68abc-b27e-452f-88dd-4ba3cd5d3a16","system_id":"levelo_inurba_marseille","lat":43.29529,"lon":5.385581,"is_reserved":false,"is_disabled":false,"rental_uris":{"android":"levelo://app?vid=a0f68abc-b27e-452f-88dd-4ba3cd5d3a16","ios":"levelo://app?vid=a0f68abc-b27e-452f-88dd-4ba3cd5d3a16"},"vehicle_type_id":"4","last_reported":1692741961,"current_range_meters":0,"station_id":"ce4bgih2rcd13ifvqba0","pricing_plan_id":"free"},{"bike_id":"e2e4b404-d05a-4fb8-a2fc-be4c827e9652","system_id":"levelo_inurba_marseille","lat":43.290779,"lon":5.371482,"is_reserved":false,"is_disabled":false,"rental_uris":{"android":"levelo://app?vid=e2e4b404-d05a-4fb8-a2fc-be4c827e9652","ios":"levelo://app?vid=e2e4b404-d05a-4fb8-a2fc-be4c827e9652"},"vehicle_type_id":"4","last_reported":1692741961,"current_range_meters":8800,"station_id":"ce4bh5p2rcd13ifvqe4g","pricing_plan_id":"free"},{"bike_id":"1f267138-f8a3-457f-b64e-0fbd83719fc0","system_id":"levelo_inurba_marseille","lat":43.302008,"lon":5.394694,"is_reserved":false,"is_disabled":false,"rental_uris":{"android":"levelo://app?vid=1f267138-f8a3-457f-b64e-0fbd83719fc0","ios":"levelo://app?vid=1f267138-f8a3-457f-b64e-0fbd83719fc0"},"vehicle_type_id":"4","last_reported":1692741961,"current_range_meters":18400,"station_id":"ce4bh0p2rcd13ifvqd70","pricing_plan_id":"free"},{"bike_id":"fbac83c5-61e0-4456-acb7-8c356979d788","system_id":"levelo_inurba_marseille","lat":43.302008,"lon":5.394694,"is_reserved":false,"is_disabled":false,"rental_uris":{"android":"levelo://app?vid=fbac83c5-61e0-4456-acb7-8c356979d788","ios":"levelo://app?vid=fbac83c5-61e0-4456-acb7-8c356979d788"},"vehicle_type_id":"4","last_reported":1692741961,"current_range_meters":17600,"station_id":"ce4bh0p2rcd13ifvqd70","pricing_plan_id":"free"},{"bike_id":"39b5b5cf-86ef-48ea-a176-58e554756417","system_id":"levelo_inurba_marseille","lat":43.302008,"lon":5.394694,"is_reserved":false,"is_disabled":false,"rental_uris":{"android":"levelo://app?vid=39b5b5cf-86ef-48ea-a176-58e554756417","ios":"levelo://app?vid=39b5b5cf-86ef-48ea-a176-58e554756417"},"vehicle_type_id":"4","last_reported":1692741961,"current_range_meters":31200,"station_id":"ce4bh0p2rcd13ifvqd70","pricing_plan_id":"free"},{"bike_id":"eab15fbc-9e22-4158-8371-f100575bc0fa","system_id":"levelo_inurba_marseille","lat":43.302008,"lon":5.394694,"is_reserved":false,"is_disabled":false,"rental_uris":{"android":"levelo://app?vid=eab15fbc-9e22-4158-8371-f100575bc0fa","ios":"levelo://app?vid=eab15fbc-9e22-4158-8371-f100575bc0fa"},"vehicle_type_id":"4","last_reported":1692741961,"current_range_meters":29200,"station_id":"ce4bh0p2rcd13ifvqd70","pricing_plan_id":"free"},{"bike_id":"cb589048-8970-4dbf-a36f-5ebb4a0e749b","system_id":"levelo_inurba_marseille","lat":43.294162,"lon":5.386292,"is_reserved":false,"is_disabled":false,"rental_uris":{"android":"levelo://app?vid=cb589048-8970-4dbf-a36f-5ebb4a0e749b","ios":"levelo://app?vid=cb589048-8970-4dbf-a36f-5ebb4a0e749b"},"vehicle_type_id":"4","last_reported":1692741961,"current_range_meters":13600,"station_id":"ce4bh2h2rcd13ifvqdh0","pricing_plan_id":"free"},{"bike_id":"eff628d3-44cb-4b61-9df6-9cea77694e67","system_id":"levelo_inurba_marseille","lat":43.289184,"lon":5.366408,"is_reserved":false,"is_disabled":false,"rental_uris":{"android":"levelo://app?vid=eff628d3-44cb-4b61-9df6-9cea77694e67","ios":"levelo://app?vid=eff628d3-44cb-4b61-9df6-9cea77694e67"},"vehicle_type_id":"4","last_reported":1692741961,"current_range_meters":25600,"station_id":"ce4bhap2rcd13ifvqek0","pricing_plan_id":"free"},{"bike_id":"c702a175-aa0b-40eb-8e16-20958543d61f","system_id":"levelo_inurba_marseille","lat":43.29018,"lon":5.37558,"is_reserved":false,"is_disabled":false,"rental_uris":{"android":"levelo://app?vid=c702a175-aa0b-40eb-8e16-20958543d61f","ios":"levelo://app?vid=c702a175-aa0b-40eb-8e16-20958543d61f"},"vehicle_type_id":"4","last_reported":1692741961,"current_range_meters":2400,"station_id":"ce4bh692rcd13ifvqe90","pricing_plan_id":"free"},{"bike_id":"27ceb71b-26ba-4976-8745-789e4086df72","system_id":"levelo_inurba_marseille","lat":43.29274,"lon":5.3844,"is_reserved":false,"is_disabled":false,"rental_uris":{"android":"levelo://app?vid=27ceb71b-26ba-4976-8745-789e4086df72","ios":"levelo://app?vid=27ceb71b-26ba-4976-8745-789e4086df72"},"vehicle_type_id":"4","last_reported":1692741961,"current_range_meters":31200,"station_id":"ce4bh692rcd13ifvqea0","pricing_plan_id":"free"},{"bike_id":"8791b8ff-d11b-4139-a1ec-379b3ba48932","system_id":"levelo_inurba_marseille","lat":43.292644,"lon":5.384257,"is_reserved":false,"is_disabled":false,"rental_uris":{"android":"levelo://app?vid=8791b8ff-d11b-4139-a1ec-379b3ba48932","ios":"levelo://app?vid=8791b8ff-d11b-4139-a1ec-379b3ba48932"},"vehicle_type_id":"4","last_reported":1692741961,"current_range_meters":11600,"station_id":"ce4bh692rcd13ifvqea0","pricing_plan_id":"free"},{"bike_id":"0f060318-14ff-4bbb-b1bd-d3bad0d20b4a","system_id":"levelo_inurba_marseille","lat":43.33039,"lon":5.3892,"is_reserved":false,"is_disabled":false,"rental_uris":{"android":"levelo://app?vid=0f060318-14ff-4bbb-b1bd-d3bad0d20b4a","ios":"levelo://app?vid=0f060318-14ff-4bbb-b1bd-d3bad0d20b4a"},"vehicle_type_id":"4","last_reported":1692741961,"current_range_meters":13600,"station_id":"ce4bhr92rcd13ifvqhrg","pricing_plan_id":"free"},{"bike_id":"b7485f8e-79cf-49fb-9b64-8bef91ab5902","system_id":"levelo_inurba_marseille","lat":43.33042,"lon":5.38918,"is_reserved":false,"is_disabled":false,"rental_uris":{"android":"levelo://app?vid=b7485f8e-79cf-49fb-9b64-8bef91ab5902","ios":"levelo://app?vid=b7485f8e-79cf-49fb-9b64-8bef91ab5902"},"vehicle_type_id":"4","last_reported":1692741961,"current_range_meters":20000,"station_id":"ce4bhr92rcd13ifvqhrg","pricing_plan_id":"free"},{"bike_id":"3edec34c-b5e0-4c51-b916-cb7b6255aa81","system_id":"levelo_inurba_marseille","lat":43.3304,"lon":5.38921,"is_reserved":false,"is_disabled":false,"rental_uris":{"android":"levelo://app?vid=3edec34c-b5e0-4c51-b916-cb7b6255aa81","ios":"levelo://app?vid=3edec34c-b5e0-4c51-b916-cb7b6255aa81"},"vehicle_type_id":"4","last_reported":1692741961,"current_range_meters":12000,"station_id":"ce4bhr92rcd13ifvqhrg","pricing_plan_id":"free"},{"bike_id":"ea2c072a-c599-4cb1-a67c-c82011d9d932","system_id":"levelo_inurba_marseille","lat":43.33042,"lon":5.38922,"is_reserved":false,"is_disabled":false,"rental_uris":{"android":"levelo://app?vid=ea2c072a-c599-4cb1-a67c-c82011d9d932","ios":"levelo://app?vid=ea2c072a-c599-4cb1-a67c-c82011d9d932"},"vehicle_type_id":"4","last_reported":1692741961,"current_range_meters":20000,"station_id":"ce4bhr92rcd13ifvqhrg","pricing_plan_id":"free"},{"bike_id":"416832a5-c1d4-423b-90c0-e0470dfb3aa6","system_id":"levelo_inurba_marseille","lat":43.33041,"lon":5.38924,"is_reserved":false,"is_disabled":false,"rental_uris":{"android":"levelo://app?vid=416832a5-c1d4-423b-90c0-e0470dfb3aa6","ios":"levelo://app?vid=416832a5-c1d4-423b-90c0-e0470dfb3aa6"},"vehicle_type_id":"4","last_reported":1692741961,"current_range_meters":22800,"station_id":"ce4bhr92rcd13ifvqhrg","pricing_plan_id":"free"},{"bike_id":"4bef911f-f277-4de3-86d5-0f9c7aaa1d5e","system_id":"levelo_inurba_marseille","lat":43.33044,"lon":5.38923,"is_reserved":false,"is_disabled":false,"rental_uris":{"android":"levelo://app?vid=4bef911f-f277-4de3-86d5-0f9c7aaa1d5e","ios":"levelo://app?vid=4bef911f-f277-4de3-86d5-0f9c7aaa1d5e"},"vehicle_type_id":"4","last_reported":1692741961,"current_range_meters":14400,"station_id":"ce4bhr92rcd13ifvqhrg","pricing_plan_id":"free"},{"bike_id":"8a3cca1e-f8c9-4d3c-810d-3147c2872ca7","system_id":"levelo_inurba_marseille","lat":43.33051,"lon":5.38914,"is_reserved":false,"is_disabled":false,"rental_uris":{"android":"levelo://app?vid=8a3cca1e-f8c9-4d3c-810d-3147c2872ca7","ios":"levelo://app?vid=8a3cca1e-f8c9-4d3c-810d-3147c2872ca7"},"vehicle_type_id":"4","last_reported":1692741961,"current_range_meters":25200,"station_id":"ce4bhr92rcd13ifvqhrg","pricing_plan_id":"free"},{"bike_id":"25208009-0d30-4d45-a77f-7ef4c7868ab8","system_id":"levelo_inurba_marseille","lat":43.29113,"lon":5.38135,"is_reserved":false,"is_disabled":false,"rental_uris":{"android":"levelo://app?vid=25208009-0d30-4d45-a77f-7ef4c7868ab8","ios":"levelo://app?vid=25208009-0d30-4d45-a77f-7ef4c7868ab8"},"vehicle_type_id":"4","last_reported":1692741961,"current_range_meters":24000,"station_id":"ce4bh512rcd13ifvqe2g","pricing_plan_id":"free"},{"bike_id":"9621ffdd-bf78-475b-80e6-2b03cb5ddb1a","system_id":"levelo_inurba_marseille","lat":43.33049,"lon":5.38921,"is_reserved":false,"is_disabled":false,"rental_uris":{"android":"levelo://app?vid=9621ffdd-bf78-475b-80e6-2b03cb5ddb1a","ios":"levelo://app?vid=9621ffdd-bf78-475b-80e6-2b03cb5ddb1a"},"vehicle_type_id":"4","last_reported":1692741961,"current_range_meters":11200,"station_id":"ce4bhr92rcd13ifvqhrg","pricing_plan_id":"free"},{"bike_id":"7691d65d-d321-467f-86e8-b26ac6013c5b","system_id":"levelo_inurba_marseille","lat":43.33063,"lon":5.38913,"is_reserved":false,"is_disabled":false,"rental_uris":{"android":"levelo://app?vid=7691d65d-d321-467f-86e8-b26ac6013c5b","ios":"levelo://app?vid=7691d65d-d321-467f-86e8-b26ac6013c5b"},"vehicle_type_id":"4","last_reported":1692741961,"current_range_meters":27200,"station_id":"ce4bhr92rcd13ifvqhrg","pricing_plan_id":"free"},{"bike_id":"24fce7d3-fb28-4206-9566-9da2e9006a1f","system_id":"levelo_inurba_marseille","lat":43.336134,"lon":5.410341,"is_reserved":false,"is_disabled":false,"rental_uris":{"android":"levelo://app?vid=24fce7d3-fb28-4206-9566-9da2e9006a1f","ios":"levelo://app?vid=24fce7d3-fb28-4206-9566-9da2e9006a1f"},"vehicle_type_id":"4","last_reported":1692741961,"current_range_meters":22000,"station_id":"ce4bhqh2rcd13ifvqhmg","pricing_plan_id":"free"},{"bike_id":"16d2f6f3-f9b4-4fb5-8222-7a3b5517f1b7","system_id":"levelo_inurba_marseille","lat":43.295169,"lon":5.390426,"is_reserved":false,"is_disabled":false,"rental_uris":{"android":"levelo://app?vid=16d2f6f3-f9b4-4fb5-8222-7a3b5517f1b7","ios":"levelo://app?vid=16d2f6f3-f9b4-4fb5-8222-7a3b5517f1b7"},"vehicle_type_id":"4","last_reported":1692741961,"current_range_meters":31200,"station_id":"ce4bh3p2rcd13ifvqdp0","pricing_plan_id":"free"},{"bike_id":"2a3c0cee-8fa7-4337-9ffe-03bc024e8e5e","system_id":"levelo_inurba_marseille","lat":43.29023,"lon":5.38145,"is_reserved":false,"is_disabled":false,"rental_uris":{"android":"levelo://app?vid=2a3c0cee-8fa7-4337-9ffe-03bc024e8e5e","ios":"levelo://app?vid=2a3c0cee-8fa7-4337-9ffe-03bc024e8e5e"},"vehicle_type_id":"4","last_reported":1692741961,"current_range_meters":11200,"station_id":"ce4bh4p2rcd13ifvqe1g","pricing_plan_id":"free"},{"bike_id":"3fd7dab2-cde2-414a-abcc-5fbfa533e4de","system_id":"levelo_inurba_marseille","lat":43.2901,"lon":5.381269,"is_reserved":false,"is_disabled":false,"rental_uris":{"android":"levelo://app?vid=3fd7dab2-cde2-414a-abcc-5fbfa533e4de","ios":"levelo://app?vid=3fd7dab2-cde2-414a-abcc-5fbfa533e4de"},"vehicle_type_id":"4","last_reported":1692741961,"current_range_meters":6400,"station_id":"ce4bh4p2rcd13ifvqe1g","pricing_plan_id":"free"},{"bike_id":"e5f4c27c-1a1d-49ec-b2c5-f9d2ba33c8cf","system_id":"levelo_inurba_marseille","lat":43.29021,"lon":5.38159,"is_reserved":false,"is_disabled":false,"rental_uris":{"android":"levelo://app?vid=e5f4c27c-1a1d-49ec-b2c5-f9d2ba33c8cf","ios":"levelo://app?vid=e5f4c27c-1a1d-49ec-b2c5-f9d2ba33c8cf"},"vehicle_type_id":"4","last_reported":1692741961,"current_range_meters":10000,"station_id":"ce4bh4p2rcd13ifvqe1g","pricing_plan_id":"free"},{"bike_id":"596540bc-f67a-4618-8fe6-dbf2cbc13bc1","system_id":"levelo_inurba_marseille","lat":43.312609,"lon":5.401662,"is_reserved":false,"is_disabled":false,"rental_uris":{"android":"levelo://app?vid=596540bc-f67a-4618-8fe6-dbf2cbc13bc1","ios":"levelo://app?vid=596540bc-f67a-4618-8fe6-dbf2cbc13bc1"},"vehicle_type_id":"4","last_reported":1692741961,"current_range_meters":4400,"station_id":"ce4bh092rcd13ifvqd30","pricing_plan_id":"free"},{"bike_id":"30506e39-e3ee-4e77-b2e3-e1cc84965730","system_id":"levelo_inurba_marseille","lat":43.312609,"lon":5.401662,"is_reserved":false,"is_disabled":false,"rental_uris":{"android":"levelo://app?vid=30506e39-e3ee-4e77-b2e3-e1cc84965730","ios":"levelo://app?vid=30506e39-e3ee-4e77-b2e3-e1cc84965730"},"vehicle_type_id":"4","last_reported":1692741961,"current_range_meters":17200,"station_id":"ce4bh092rcd13ifvqd30","pricing_plan_id":"free"},{"bike_id":"89db0702-14da-4ce5-ba07-6b86f7414f31","system_id":"levelo_inurba_marseille","lat":43.301117,"lon":5.398795,"is_reserved":false,"is_disabled":false,"rental_uris":{"android":"levelo://app?vid=89db0702-14da-4ce5-ba07-6b86f7414f31","ios":"levelo://app?vid=89db0702-14da-4ce5-ba07-6b86f7414f31"},"vehicle_type_id":"4","last_reported":1692741961,"current_range_meters":21600,"station_id":"ce4bh0h2rcd13ifvqd40","pricing_plan_id":"free"},{"bike_id":"6327e5ae-36a1-44a0-b04d-691e4f9ae8eb","system_id":"levelo_inurba_marseille","lat":43.3376,"lon":5.37519,"is_reserved":false,"is_disabled":false,"rental_uris":{"android":"levelo://app?vid=6327e5ae-36a1-44a0-b04d-691e4f9ae8eb","ios":"levelo://app?vid=6327e5ae-36a1-44a0-b04d-691e4f9ae8eb"},"vehicle_type_id":"4","last_reported":1692741961,"current_range_meters":800,"station_id":"","pricing_plan_id":"free"},{"bike_id":"833b1ec9-9981-4b58-9c59-386c3849cd4a","system_id":"levelo_inurba_marseille","lat":43.301117,"lon":5.398795,"is_reserved":false,"is_disabled":false,"rental_uris":{"android":"levelo://app?vid=833b1ec9-9981-4b58-9c59-386c3849cd4a","ios":"levelo://app?vid=833b1ec9-9981-4b58-9c59-386c3849cd4a"},"vehicle_type_id":"4","last_reported":1692741961,"current_range_meters":4000,"station_id":"ce4bh0h2rcd13ifvqd40","pricing_plan_id":"free"},{"bike_id":"7ae05c74-b55a-4627-a532-dc2e399876ea","system_id":"levelo_inurba_marseille","lat":43.301117,"lon":5.398795,"is_reserved":false,"is_disabled":false,"rental_uris":{"android":"levelo://app?vid=7ae05c74-b55a-4627-a532-dc2e399876ea","ios":"levelo://app?vid=7ae05c74-b55a-4627-a532-dc2e399876ea"},"vehicle_type_id":"4","last_reported":1692741961,"current_range_meters":11600,"station_id":"ce4bh0h2rcd13ifvqd40","pricing_plan_id":"free"},{"bike_id":"472f88e7-9b62-459e-a1d5-19c8b27e38d1","system_id":"levelo_inurba_marseille","lat":43.298681,"lon":5.397225,"is_reserved":false,"is_disabled":false,"rental_uris":{"android":"levelo://app?vid=472f88e7-9b62-459e-a1d5-19c8b27e38d1","ios":"levelo://app?vid=472f88e7-9b62-459e-a1d5-19c8b27e38d1"},"vehicle_type_id":"4","last_reported":1692741961,"current_range_meters":18400,"station_id":"ce4bh0h2rcd13ifvqd50","pricing_plan_id":"free"},{"bike_id":"350be7fb-9313-4f11-911f-4f38ed1ee082","system_id":"levelo_inurba_marseille","lat":43.2869,"lon":5.36314,"is_reserved":false,"is_disabled":false,"rental_uris":{"android":"levelo://app?vid=350be7fb-9313-4f11-911f-4f38ed1ee082","ios":"levelo://app?vid=350be7fb-9313-4f11-911f-4f38ed1ee082"},"vehicle_type_id":"4","last_reported":1692741961,"current_range_meters":0,"station_id":"ce4bhah2rcd13ifvqej0","pricing_plan_id":"free"},{"bike_id":"75199276-b705-4ad7-b6a9-49aeaa84628a","system_id":"levelo_inurba_marseille","lat":43.286591,"lon":5.363346,"is_reserved":false,"is_disabled":false,"rental_uris":{"android":"levelo://app?vid=75199276-b705-4ad7-b6a9-49aeaa84628a","ios":"levelo://app?vid=75199276-b705-4ad7-b6a9-49aeaa84628a"},"vehicle_type_id":"4","last_reported":1692741961,"current_range_meters":31200,"station_id":"ce4bhah2rcd13ifvqej0","pricing_plan_id":"free"},{"bike_id":"b205511f-ccfb-4fb5-8c21-4555df4949c4","system_id":"levelo_inurba_marseille","lat":43.286591,"lon":5.363346,"is_reserved":false,"is_disabled":false,"rental_uris":{"android":"levelo://app?vid=b205511f-ccfb-4fb5-8c21-4555df4949c4","ios":"levelo://app?vid=b205511f-ccfb-4fb5-8c21-4555df4949c4"},"vehicle_type_id":"4","last_reported":1692741961,"current_range_meters":16400,"station_id":"ce4bhah2rcd13ifvqej0","pricing_plan_id":"free"},{"bike_id":"52453775-1575-4f76-8fe9-e6ddee9dfff7","system_id":"levelo_inurba_marseille","lat":43.298681,"lon":5.397225,"is_reserved":false,"is_disabled":false,"rental_uris":{"android":"levelo://app?vid=52453775-1575-4f76-8fe9-e6ddee9dfff7","ios":"levelo://app?vid=52453775-1575-4f76-8fe9-e6ddee9dfff7"},"vehicle_type_id":"4","last_reported":1692741961,"current_range_meters":17600,"station_id":"ce4bh0h2rcd13ifvqd50","pricing_plan_id":"free"},{"bike_id":"d4344e44-b7dd-4ae8-86ce-1100c6cce60c","system_id":"levelo_inurba_marseille","lat":43.2867,"lon":5.36357,"is_reserved":false,"is_disabled":false,"rental_uris":{"android":"levelo://app?vid=d4344e44-b7dd-4ae8-86ce-1100c6cce60c","ios":"levelo://app?vid=d4344e44-b7dd-4ae8-86ce-1100c6cce60c"},"vehicle_type_id":"4","last_reported":1692741961,"current_range_meters":14000,"station_id":"ce4bhah2rcd13ifvqej0","pricing_plan_id":"free"},{"bike_id":"7c129772-d528-41e0-ae70-257896162e5a","system_id":"levelo_inurba_marseille","lat":43.298681,"lon":5.397225,"is_reserved":false,"is_disabled":false,"rental_uris":{"android":"levelo://app?vid=7c129772-d528-41e0-ae70-257896162e5a","ios":"levelo://app?vid=7c129772-d528-41e0-ae70-257896162e5a"},"vehicle_type_id":"4","last_reported":1692741961,"current_range_meters":19600,"station_id":"ce4bh0h2rcd13ifvqd50","pricing_plan_id":"free"},{"bike_id":"f0f93b79-e2d9-4793-ad89-f5d35dc985a2","system_id":"levelo_inurba_marseille","lat":43.2867,"lon":5.36339,"is_reserved":false,"is_disabled":false,"rental_uris":{"android":"levelo://app?vid=f0f93b79-e2d9-4793-ad89-f5d35dc985a2","ios":"levelo://app?vid=f0f93b79-e2d9-4793-ad89-f5d35dc985a2"},"vehicle_type_id":"4","last_reported":1692741961,"current_range_meters":3600,"station_id":"ce4bhah2rcd13ifvqej0","pricing_plan_id":"free"},{"bike_id":"d0f0c80c-faa9-45d8-b5da-c75e7c69a7ab","system_id":"levelo_inurba_marseille","lat":43.298681,"lon":5.397225,"is_reserved":false,"is_disabled":false,"rental_uris":{"android":"levelo://app?vid=d0f0c80c-faa9-45d8-b5da-c75e7c69a7ab","ios":"levelo://app?vid=d0f0c80c-faa9-45d8-b5da-c75e7c69a7ab"},"vehicle_type_id":"4","last_reported":1692741961,"current_range_meters":22800,"station_id":"ce4bh0h2rcd13ifvqd50","pricing_plan_id":"free"},{"bike_id":"2c76bd88-53e6-4d93-86e1-e43846ccf86f","system_id":"levelo_inurba_marseille","lat":43.298681,"lon":5.397225,"is_reserved":false,"is_disabled":false,"rental_uris":{"android":"levelo://app?vid=2c76bd88-53e6-4d93-86e1-e43846ccf86f","ios":"levelo://app?vid=2c76bd88-53e6-4d93-86e1-e43846ccf86f"},"vehicle_type_id":"4","last_reported":1692741961,"current_range_meters":28400,"station_id":"ce4bh0h2rcd13ifvqd50","pricing_plan_id":"free"},{"bike_id":"ee0a193b-c91c-4ee1-ab16-2325221e2857","system_id":"levelo_inurba_marseille","lat":43.298681,"lon":5.397225,"is_reserved":false,"is_disabled":false,"rental_uris":{"android":"levelo://app?vid=ee0a193b-c91c-4ee1-ab16-2325221e2857","ios":"levelo://app?vid=ee0a193b-c91c-4ee1-ab16-2325221e2857"},"vehicle_type_id":"4","last_reported":1692741961,"current_range_meters":31200,"station_id":"ce4bh0h2rcd13ifvqd50","pricing_plan_id":"free"},{"bike_id":"efc71d45-9ed7-4227-8dd8-7d85f9f17d67","system_id":"levelo_inurba_marseille","lat":43.298681,"lon":5.397225,"is_reserved":false,"is_disabled":false,"rental_uris":{"android":"levelo://app?vid=efc71d45-9ed7-4227-8dd8-7d85f9f17d67","ios":"levelo://app?vid=efc71d45-9ed7-4227-8dd8-7d85f9f17d67"},"vehicle_type_id":"4","last_reported":1692741961,"current_range_meters":24000,"station_id":"ce4bh0h2rcd13ifvqd50","pricing_plan_id":"free"},{"bike_id":"05bc30d4-2a2b-43c5-8b46-98ca90fc775b","system_id":"levelo_inurba_marseille","lat":43.28705,"lon":5.37399,"is_reserved":false,"is_disabled":false,"rental_uris":{"android":"levelo://app?vid=05bc30d4-2a2b-43c5-8b46-98ca90fc775b","ios":"levelo://app?vid=05bc30d4-2a2b-43c5-8b46-98ca90fc775b"},"vehicle_type_id":"4","last_reported":1692741961,"current_range_meters":19200,"station_id":"ce4bh3p2rcd13ifvqdq0","pricing_plan_id":"free"},{"bike_id":"d2670e98-f161-4228-9746-13334fa112be","system_id":"levelo_inurba_marseille","lat":43.298681,"lon":5.397225,"is_reserved":false,"is_disabled":false,"rental_uris":{"android":"levelo://app?vid=d2670e98-f161-4228-9746-13334fa112be","ios":"levelo://app?vid=d2670e98-f161-4228-9746-13334fa112be"},"vehicle_type_id":"4","last_reported":1692741961,"current_range_meters":14400,"station_id":"ce4bh0h2rcd13ifvqd50","pricing_plan_id":"free"},{"bike_id":"2f2d285e-80c3-4284-b049-f7f0636acf85","system_id":"levelo_inurba_marseille","lat":43.298681,"lon":5.397225,"is_reserved":false,"is_disabled":false,"rental_uris":{"android":"levelo://app?vid=2f2d285e-80c3-4284-b049-f7f0636acf85","ios":"levelo://app?vid=2f2d285e-80c3-4284-b049-f7f0636acf85"},"vehicle_type_id":"4","last_reported":1692741961,"current_range_meters":7200,"station_id":"ce4bh0h2rcd13ifvqd50","pricing_plan_id":"free"},{"bike_id":"c75d85fe-d68a-452d-bd82-127de08d9463","system_id":"levelo_inurba_marseille","lat":43.28702,"lon":5.37389,"is_reserved":false,"is_disabled":false,"rental_uris":{"android":"levelo://app?vid=c75d85fe-d68a-452d-bd82-127de08d9463","ios":"levelo://app?vid=c75d85fe-d68a-452d-bd82-127de08d9463"},"vehicle_type_id":"4","last_reported":1692741961,"current_range_meters":31200,"station_id":"ce4bh3p2rcd13ifvqdq0","pricing_plan_id":"free"},{"bike_id":"ca19cc7f-4a55-4bcf-99b1-e0949be37b28","system_id":"levelo_inurba_marseille","lat":43.298681,"lon":5.397225,"is_reserved":false,"is_disabled":false,"rental_uris":{"android":"levelo://app?vid=ca19cc7f-4a55-4bcf-99b1-e0949be37b28","ios":"levelo://app?vid=ca19cc7f-4a55-4bcf-99b1-e0949be37b28"},"vehicle_type_id":"4","last_reported":1692741961,"current_range_meters":24400,"station_id":"ce4bh0h2rcd13ifvqd50","pricing_plan_id":"free"},{"bike_id":"4ad60e11-7b6a-4a3b-a20f-096241780652","system_id":"levelo_inurba_marseille","lat":43.28698,"lon":5.37388,"is_reserved":false,"is_disabled":false,"rental_uris":{"android":"levelo://app?vid=4ad60e11-7b6a-4a3b-a20f-096241780652","ios":"levelo://app?vid=4ad60e11-7b6a-4a3b-a20f-096241780652"},"vehicle_type_id":"4","last_reported":1692741961,"current_range_meters":19200,"station_id":"ce4bh3p2rcd13ifvqdq0","pricing_plan_id":"free"},{"bike_id":"447affa7-6856-46f8-8f32-f564970404e9","system_id":"levelo_inurba_marseille","lat":43.298681,"lon":5.397225,"is_reserved":false,"is_disabled":false,"rental_uris":{"android":"levelo://app?vid=447affa7-6856-46f8-8f32-f564970404e9","ios":"levelo://app?vid=447affa7-6856-46f8-8f32-f564970404e9"},"vehicle_type_id":"4","last_reported":1692741961,"current_range_meters":6800,"station_id":"ce4bh0h2rcd13ifvqd50","pricing_plan_id":"free"},{"bike_id":"7d59e6c4-d6a9-4092-98ae-1c5107709156","system_id":"levelo_inurba_marseille","lat":43.28698,"lon":5.37392,"is_reserved":false,"is_disabled":false,"rental_uris":{"android":"levelo://app?vid=7d59e6c4-d6a9-4092-98ae-1c5107709156","ios":"levelo://app?vid=7d59e6c4-d6a9-4092-98ae-1c5107709156"},"vehicle_type_id":"4","last_reported":1692741961,"current_range_meters":27600,"station_id":"ce4bh3p2rcd13ifvqdq0","pricing_plan_id":"free"},{"bike_id":"52a0d2dd-6ad3-4421-b684-3e504a3ea0be","system_id":"levelo_inurba_marseille","lat":43.28699,"lon":5.37401,"is_reserved":false,"is_disabled":false,"rental_uris":{"android":"levelo://app?vid=52a0d2dd-6ad3-4421-b684-3e504a3ea0be","ios":"levelo://app?vid=52a0d2dd-6ad3-4421-b684-3e504a3ea0be"},"vehicle_type_id":"4","last_reported":1692741961,"current_range_meters":14800,"station_id":"ce4bh3p2rcd13ifvqdq0","pricing_plan_id":"free"},{"bike_id":"6018dcaa-0e79-448d-9196-60581b6d9e55","system_id":"levelo_inurba_marseille","lat":43.28697,"lon":5.37392,"is_reserved":false,"is_disabled":false,"rental_uris":{"android":"levelo://app?vid=6018dcaa-0e79-448d-9196-60581b6d9e55","ios":"levelo://app?vid=6018dcaa-0e79-448d-9196-60581b6d9e55"},"vehicle_type_id":"4","last_reported":1692741961,"current_range_meters":18000,"station_id":"ce4bh3p2rcd13ifvqdq0","pricing_plan_id":"free"},{"bike_id":"e591c88a-f788-4926-bf1f-0e0b2d585f2e","system_id":"levelo_inurba_marseille","lat":43.28698,"lon":5.37399,"is_reserved":false,"is_disabled":false,"rental_uris":{"android":"levelo://app?vid=e591c88a-f788-4926-bf1f-0e0b2d585f2e","ios":"levelo://app?vid=e591c88a-f788-4926-bf1f-0e0b2d585f2e"},"vehicle_type_id":"4","last_reported":1692741961,"current_range_meters":5200,"station_id":"ce4bh3p2rcd13ifvqdq0","pricing_plan_id":"free"},{"bike_id":"dbe8b364-a47f-409a-99e3-cbbf1b65f37f","system_id":"levelo_inurba_marseille","lat":43.286591,"lon":5.363346,"is_reserved":false,"is_disabled":false,"rental_uris":{"android":"levelo://app?vid=dbe8b364-a47f-409a-99e3-cbbf1b65f37f","ios":"levelo://app?vid=dbe8b364-a47f-409a-99e3-cbbf1b65f37f"},"vehicle_type_id":"4","last_reported":1692741961,"current_range_meters":31200,"station_id":"ce4bhah2rcd13ifvqej0","pricing_plan_id":"free"},{"bike_id":"c72d34b8-409e-4b6a-b4ef-74cd86d0c1b0","system_id":"levelo_inurba_marseille","lat":43.28696,"lon":5.37396,"is_reserved":false,"is_disabled":false,"rental_uris":{"android":"levelo://app?vid=c72d34b8-409e-4b6a-b4ef-74cd86d0c1b0","ios":"levelo://app?vid=c72d34b8-409e-4b6a-b4ef-74cd86d0c1b0"},"vehicle_type_id":"4","last_reported":1692741961,"current_range_meters":15600,"station_id":"ce4bh3p2rcd13ifvqdq0","pricing_plan_id":"free"},{"bike_id":"399ee26a-d976-406f-a97c-2e55c7d703b4","system_id":"levelo_inurba_marseille","lat":43.298681,"lon":5.397225,"is_reserved":false,"is_disabled":false,"rental_uris":{"android":"levelo://app?vid=399ee26a-d976-406f-a97c-2e55c7d703b4","ios":"levelo://app?vid=399ee26a-d976-406f-a97c-2e55c7d703b4"},"vehicle_type_id":"4","last_reported":1692741961,"current_range_meters":8800,"station_id":"ce4bh0h2rcd13ifvqd50","pricing_plan_id":"free"},{"bike_id":"019c15c6-0437-4c1a-a6d6-022556fa0ead","system_id":"levelo_inurba_marseille","lat":43.28696,"lon":5.37399,"is_reserved":false,"is_disabled":false,"rental_uris":{"android":"levelo://app?vid=019c15c6-0437-4c1a-a6d6-022556fa0ead","ios":"levelo://app?vid=019c15c6-0437-4c1a-a6d6-022556fa0ead"},"vehicle_type_id":"4","last_reported":1692741961,"current_range_meters":20400,"station_id":"ce4bh3p2rcd13ifvqdq0","pricing_plan_id":"free"},{"bike_id":"4b955c1d-3c84-4884-a56d-bcbbac8e4638","system_id":"levelo_inurba_marseille","lat":43.298681,"lon":5.397225,"is_reserved":false,"is_disabled":false,"rental_uris":{"android":"levelo://app?vid=4b955c1d-3c84-4884-a56d-bcbbac8e4638","ios":"levelo://app?vid=4b955c1d-3c84-4884-a56d-bcbbac8e4638"},"vehicle_type_id":"4","last_reported":1692741961,"current_range_meters":18000,"station_id":"ce4bh0h2rcd13ifvqd50","pricing_plan_id":"free"},{"bike_id":"309d57f9-9606-48e9-a108-ecb6e87e42b7","system_id":"levelo_inurba_marseille","lat":43.28696,"lon":5.37403,"is_reserved":false,"is_disabled":false,"rental_uris":{"android":"levelo://app?vid=309d57f9-9606-48e9-a108-ecb6e87e42b7","ios":"levelo://app?vid=309d57f9-9606-48e9-a108-ecb6e87e42b7"},"vehicle_type_id":"4","last_reported":1692741961,"current_range_meters":11200,"station_id":"ce4bh3p2rcd13ifvqdq0","pricing_plan_id":"free"},{"bike_id":"7a159a83-c8e0-475a-a476-bf6d5d754c3c","system_id":"levelo_inurba_marseille","lat":43.295196,"lon":5.39397,"is_reserved":false,"is_disabled":false,"rental_uris":{"android":"levelo://app?vid=7a159a83-c8e0-475a-a476-bf6d5d754c3c","ios":"levelo://app?vid=7a159a83-c8e0-475a-a476-bf6d5d754c3c"},"vehicle_type_id":"4","last_reported":1692741961,"current_range_meters":15200,"station_id":"ce4bh292rcd13ifvqdf0","pricing_plan_id":"free"},{"bike_id":"aaf5316b-f7a3-4934-8ff3-e4474627f0bc","system_id":"levelo_inurba_marseille","lat":43.29041,"lon":5.38624,"is_reserved":false,"is_disabled":false,"rental_uris":{"android":"levelo://app?vid=aaf5316b-f7a3-4934-8ff3-e4474627f0bc","ios":"levelo://app?vid=aaf5316b-f7a3-4934-8ff3-e4474627f0bc"},"vehicle_type_id":"4","last_reported":1692741961,"current_range_meters":19200,"station_id":"ce4bh4p2rcd13ifvqe0g","pricing_plan_id":"free"},{"bike_id":"0c138b89-34cf-4024-b260-70003968fa99","system_id":"levelo_inurba_marseille","lat":43.29042,"lon":5.38646,"is_reserved":false,"is_disabled":false,"rental_uris":{"android":"levelo://app?vid=0c138b89-34cf-4024-b260-70003968fa99","ios":"levelo://app?vid=0c138b89-34cf-4024-b260-70003968fa99"},"vehicle_type_id":"4","last_reported":1692741961,"current_range_meters":31200,"station_id":"ce4bh4p2rcd13ifvqe0g","pricing_plan_id":"free"},{"bike_id":"e63bc095-6ea9-44ad-a3de-9fc65c7ca86c","system_id":"levelo_inurba_marseille","lat":43.290345,"lon":5.38646,"is_reserved":false,"is_disabled":false,"rental_uris":{"android":"levelo://app?vid=e63bc095-6ea9-44ad-a3de-9fc65c7ca86c","ios":"levelo://app?vid=e63bc095-6ea9-44ad-a3de-9fc65c7ca86c"},"vehicle_type_id":"4","last_reported":1692741961,"current_range_meters":11600,"station_id":"ce4bh4p2rcd13ifvqe0g","pricing_plan_id":"free"},{"bike_id":"a5598a40-1104-410c-8053-cf700b3f6f4c","system_id":"levelo_inurba_marseille","lat":43.290336,"lon":5.386425,"is_reserved":false,"is_disabled":false,"rental_uris":{"android":"levelo://app?vid=a5598a40-1104-410c-8053-cf700b3f6f4c","ios":"levelo://app?vid=a5598a40-1104-410c-8053-cf700b3f6f4c"},"vehicle_type_id":"4","last_reported":1692741961,"current_range_meters":8000,"station_id":"ce4bh4p2rcd13ifvqe0g","pricing_plan_id":"free"},{"bike_id":"8e2ed3cb-021a-4a25-a871-32cdf893a48b","system_id":"levelo_inurba_marseille","lat":43.302759,"lon":5.400793,"is_reserved":false,"is_disabled":false,"rental_uris":{"android":"levelo://app?vid=8e2ed3cb-021a-4a25-a871-32cdf893a48b","ios":"levelo://app?vid=8e2ed3cb-021a-4a25-a871-32cdf893a48b"},"vehicle_type_id":"4","last_reported":1692741961,"current_range_meters":21600,"station_id":"ce4bgvh2rcd13ifvqcs0","pricing_plan_id":"free"},{"bike_id":"1e72b6ee-0c4e-4493-bae1-fd459d08d5c4","system_id":"levelo_inurba_marseille","lat":43.302759,"lon":5.400793,"is_reserved":false,"is_disabled":false,"rental_uris":{"android":"levelo://app?vid=1e72b6ee-0c4e-4493-bae1-fd459d08d5c4","ios":"levelo://app?vid=1e72b6ee-0c4e-4493-bae1-fd459d08d5c4"},"vehicle_type_id":"4","last_reported":1692741961,"current_range_meters":12400,"station_id":"ce4bgvh2rcd13ifvqcs0","pricing_plan_id":"free"},{"bike_id":"d8741db7-59c2-4d97-980a-967d3556376c","system_id":"levelo_inurba_marseille","lat":43.302759,"lon":5.400793,"is_reserved":false,"is_disabled":false,"rental_uris":{"android":"levelo://app?vid=d8741db7-59c2-4d97-980a-967d3556376c","ios":"levelo://app?vid=d8741db7-59c2-4d97-980a-967d3556376c"},"vehicle_type_id":"4","last_reported":1692741961,"current_range_meters":8000,"station_id":"ce4bgvh2rcd13ifvqcs0","pricing_plan_id":"free"},{"bike_id":"394b27e5-51e9-4029-818b-040631cccf3a","system_id":"levelo_inurba_marseille","lat":43.290336,"lon":5.386425,"is_reserved":false,"is_disabled":false,"rental_uris":{"android":"levelo://app?vid=394b27e5-51e9-4029-818b-040631cccf3a","ios":"levelo://app?vid=394b27e5-51e9-4029-818b-040631cccf3a"},"vehicle_type_id":"4","last_reported":1692741961,"current_range_meters":18000,"station_id":"ce4bh4p2rcd13ifvqe0g","pricing_plan_id":"free"},{"bike_id":"a4c07a8d-776f-4f76-b6ee-5886f44cbc3f","system_id":"levelo_inurba_marseille","lat":43.29019,"lon":5.38641,"is_reserved":false,"is_disabled":false,"rental_uris":{"android":"levelo://app?vid=a4c07a8d-776f-4f76-b6ee-5886f44cbc3f","ios":"levelo://app?vid=a4c07a8d-776f-4f76-b6ee-5886f44cbc3f"},"vehicle_type_id":"4","last_reported":1692741961,"current_range_meters":31200,"station_id":"ce4bh4p2rcd13ifvqe0g","pricing_plan_id":"free"},{"bike_id":"cd9ba4bc-1336-4d0e-bbaf-612ffae623fe","system_id":"levelo_inurba_marseille","lat":43.29023,"lon":5.38654,"is_reserved":false,"is_disabled":false,"rental_uris":{"android":"levelo://app?vid=cd9ba4bc-1336-4d0e-bbaf-612ffae623fe","ios":"levelo://app?vid=cd9ba4bc-1336-4d0e-bbaf-612ffae623fe"},"vehicle_type_id":"4","last_reported":1692741961,"current_range_meters":31200,"station_id":"ce4bh4p2rcd13ifvqe0g","pricing_plan_id":"free"},{"bike_id":"b2b6a888-805d-4928-87b1-b326b2d4940a","system_id":"levelo_inurba_marseille","lat":43.290336,"lon":5.386425,"is_reserved":false,"is_disabled":false,"rental_uris":{"android":"levelo://app?vid=b2b6a888-805d-4928-87b1-b326b2d4940a","ios":"levelo://app?vid=b2b6a888-805d-4928-87b1-b326b2d4940a"},"vehicle_type_id":"4","last_reported":1692741961,"current_range_meters":6400,"station_id":"ce4bh4p2rcd13ifvqe0g","pricing_plan_id":"free"},{"bike_id":"0b17f2e7-df09-4486-be7c-90d59e3a11a8","system_id":"levelo_inurba_marseille","lat":43.302759,"lon":5.400793,"is_reserved":false,"is_disabled":false,"rental_uris":{"android":"levelo://app?vid=0b17f2e7-df09-4486-be7c-90d59e3a11a8","ios":"levelo://app?vid=0b17f2e7-df09-4486-be7c-90d59e3a11a8"},"vehicle_type_id":"4","last_reported":1692741961,"current_range_meters":14000,"station_id":"ce4bgvh2rcd13ifvqcs0","pricing_plan_id":"free"},{"bike_id":"034a6baa-6f04-4ff9-a62a-eb709102ab38","system_id":"levelo_inurba_marseille","lat":43.286039,"lon":5.370679,"is_reserved":false,"is_disabled":false,"rental_uris":{"android":"levelo://app?vid=034a6baa-6f04-4ff9-a62a-eb709102ab38","ios":"levelo://app?vid=034a6baa-6f04-4ff9-a62a-eb709102ab38"},"vehicle_type_id":"4","last_reported":1692741961,"current_range_meters":25600,"station_id":"ce4bht12rcd13ifvqi60","pricing_plan_id":"free"},{"bike_id":"79ec9393-380d-4e79-80fb-4a9a5ec453b6","system_id":"levelo_inurba_marseille","lat":43.287184,"lon":5.37937,"is_reserved":false,"is_disabled":false,"rental_uris":{"android":"levelo://app?vid=79ec9393-380d-4e79-80fb-4a9a5ec453b6","ios":"levelo://app?vid=79ec9393-380d-4e79-80fb-4a9a5ec453b6"},"vehicle_type_id":"4","last_reported":1692741961,"current_range_meters":26400,"station_id":"ce4bh9p2rcd13ifvqec0","pricing_plan_id":"free"},{"bike_id":"2391dede-562c-4589-ba33-c0a37c9fb695","system_id":"levelo_inurba_marseille","lat":43.287184,"lon":5.37937,"is_reserved":false,"is_disabled":false,"rental_uris":{"android":"levelo://app?vid=2391dede-562c-4589-ba33-c0a37c9fb695","ios":"levelo://app?vid=2391dede-562c-4589-ba33-c0a37c9fb695"},"vehicle_type_id":"4","last_reported":1692741961,"current_range_meters":24800,"station_id":"ce4bh9p2rcd13ifvqec0","pricing_plan_id":"free"},{"bike_id":"099883d4-8345-480c-96bf-5e28e919ce78","system_id":"levelo_inurba_marseille","lat":43.28608,"lon":5.36039,"is_reserved":false,"is_disabled":false,"rental_uris":{"android":"levelo://app?vid=099883d4-8345-480c-96bf-5e28e919ce78","ios":"levelo://app?vid=099883d4-8345-480c-96bf-5e28e919ce78"},"vehicle_type_id":"4","last_reported":1692741961,"current_range_meters":27200,"station_id":"","pricing_plan_id":"free"},{"bike_id":"0ac9b356-f8ed-49f1-9fef-9d51a62bc174","system_id":"levelo_inurba_marseille","lat":43.28725,"lon":5.37951,"is_reserved":false,"is_disabled":false,"rental_uris":{"android":"levelo://app?vid=0ac9b356-f8ed-49f1-9fef-9d51a62bc174","ios":"levelo://app?vid=0ac9b356-f8ed-49f1-9fef-9d51a62bc174"},"vehicle_type_id":"4","last_reported":1692741961,"current_range_meters":0,"station_id":"ce4bh9p2rcd13ifvqec0","pricing_plan_id":"free"},{"bike_id":"7da9e437-1e79-4b5f-9ab0-65254ac17dd7","system_id":"levelo_inurba_marseille","lat":43.31636,"lon":5.40446,"is_reserved":false,"is_disabled":false,"rental_uris":{"android":"levelo://app?vid=7da9e437-1e79-4b5f-9ab0-65254ac17dd7","ios":"levelo://app?vid=7da9e437-1e79-4b5f-9ab0-65254ac17dd7"},"vehicle_type_id":"4","last_reported":1692741961,"current_range_meters":30400,"station_id":"ce4bh012rcd13ifvqd00","pricing_plan_id":"free"},{"bike_id":"8a806012-e46f-4b56-b883-aaaa8d6d2d5c","system_id":"levelo_inurba_marseille","lat":43.291994,"lon":5.392907,"is_reserved":false,"is_disabled":false,"rental_uris":{"android":"levelo://app?vid=8a806012-e46f-4b56-b883-aaaa8d6d2d5c","ios":"levelo://app?vid=8a806012-e46f-4b56-b883-aaaa8d6d2d5c"},"vehicle_type_id":"4","last_reported":1692741961,"current_range_meters":18000,"station_id":"ce4bh192rcd13ifvqdd0","pricing_plan_id":"free"},{"bike_id":"3d66ec41-28b7-42b3-a9c7-ca7a6886f78f","system_id":"levelo_inurba_marseille","lat":43.29196,"lon":5.39317,"is_reserved":false,"is_disabled":false,"rental_uris":{"android":"levelo://app?vid=3d66ec41-28b7-42b3-a9c7-ca7a6886f78f","ios":"levelo://app?vid=3d66ec41-28b7-42b3-a9c7-ca7a6886f78f"},"vehicle_type_id":"4","last_reported":1692741961,"current_range_meters":23200,"station_id":"ce4bh192rcd13ifvqdd0","pricing_plan_id":"free"},{"bike_id":"01b66144-7187-4625-ac53-9d48e1aa8d4e","system_id":"levelo_inurba_marseille","lat":43.291994,"lon":5.392907,"is_reserved":false,"is_disabled":false,"rental_uris":{"android":"levelo://app?vid=01b66144-7187-4625-ac53-9d48e1aa8d4e","ios":"levelo://app?vid=01b66144-7187-4625-ac53-9d48e1aa8d4e"},"vehicle_type_id":"4","last_reported":1692741961,"current_range_meters":14400,"station_id":"ce4bh192rcd13ifvqdd0","pricing_plan_id":"free"},{"bike_id":"d3e2dd9e-6eef-4ec1-9d4a-e335465bed20","system_id":"levelo_inurba_marseille","lat":43.291994,"lon":5.392907,"is_reserved":false,"is_disabled":false,"rental_uris":{"android":"levelo://app?vid=d3e2dd9e-6eef-4ec1-9d4a-e335465bed20","ios":"levelo://app?vid=d3e2dd9e-6eef-4ec1-9d4a-e335465bed20"},"vehicle_type_id":"4","last_reported":1692741961,"current_range_meters":22800,"station_id":"ce4bh192rcd13ifvqdd0","pricing_plan_id":"free"},{"bike_id":"87884279-8250-4045-b23e-d8c3b5c08a61","system_id":"levelo_inurba_marseille","lat":43.28488,"lon":5.3588,"is_reserved":false,"is_disabled":false,"rental_uris":{"android":"levelo://app?vid=87884279-8250-4045-b23e-d8c3b5c08a61","ios":"levelo://app?vid=87884279-8250-4045-b23e-d8c3b5c08a61"},"vehicle_type_id":"4","last_reported":1692741961,"current_range_meters":11200,"station_id":"ce4bhah2rcd13ifvqei0","pricing_plan_id":"free"},{"bike_id":"d60c2259-6a7e-413c-bbd4-f3e207914b61","system_id":"levelo_inurba_marseille","lat":43.28488,"lon":5.3588,"is_reserved":false,"is_disabled":false,"rental_uris":{"android":"levelo://app?vid=d60c2259-6a7e-413c-bbd4-f3e207914b61","ios":"levelo://app?vid=d60c2259-6a7e-413c-bbd4-f3e207914b61"},"vehicle_type_id":"4","last_reported":1692741961,"current_range_meters":28400,"station_id":"ce4bhah2rcd13ifvqei0","pricing_plan_id":"free"},{"bike_id":"b798add5-4b7d-4fc7-93c9-6d3af4af8a25","system_id":"levelo_inurba_marseille","lat":43.28485,"lon":5.35891,"is_reserved":false,"is_disabled":false,"rental_uris":{"android":"levelo://app?vid=b798add5-4b7d-4fc7-93c9-6d3af4af8a25","ios":"levelo://app?vid=b798add5-4b7d-4fc7-93c9-6d3af4af8a25"},"vehicle_type_id":"4","last_reported":1692741961,"current_range_meters":24800,"station_id":"ce4bhah2rcd13ifvqei0","pricing_plan_id":"free"},{"bike_id":"4725f596-aeee-4695-bdae-9248c124375d","system_id":"levelo_inurba_marseille","lat":43.28483,"lon":5.35877,"is_reserved":false,"is_disabled":false,"rental_uris":{"android":"levelo://app?vid=4725f596-aeee-4695-bdae-9248c124375d","ios":"levelo://app?vid=4725f596-aeee-4695-bdae-9248c124375d"},"vehicle_type_id":"4","last_reported":1692741961,"current_range_meters":20800,"station_id":"","pricing_plan_id":"free"},{"bike_id":"b832bb46-7b94-4077-b5d8-841054c40399","system_id":"levelo_inurba_marseille","lat":43.28468,"lon":5.35891,"is_reserved":false,"is_disabled":false,"rental_uris":{"android":"levelo://app?vid=b832bb46-7b94-4077-b5d8-841054c40399","ios":"levelo://app?vid=b832bb46-7b94-4077-b5d8-841054c40399"},"vehicle_type_id":"4","last_reported":1692741961,"current_range_meters":16000,"station_id":"ce4bhah2rcd13ifvqei0","pricing_plan_id":"free"},{"bike_id":"0e30a5f0-f765-44c3-871b-6ef653b60781","system_id":"levelo_inurba_marseille","lat":43.284667,"lon":5.35892,"is_reserved":false,"is_disabled":false,"rental_uris":{"android":"levelo://app?vid=0e30a5f0-f765-44c3-871b-6ef653b60781","ios":"levelo://app?vid=0e30a5f0-f765-44c3-871b-6ef653b60781"},"vehicle_type_id":"4","last_reported":1692741961,"current_range_meters":400,"station_id":"ce4bhah2rcd13ifvqei0","pricing_plan_id":"free"},{"bike_id":"84799d72-b61f-41b5-91a4-e990dd5e7f58","system_id":"levelo_inurba_marseille","lat":43.29451,"lon":5.39744,"is_reserved":false,"is_disabled":false,"rental_uris":{"android":"levelo://app?vid=84799d72-b61f-41b5-91a4-e990dd5e7f58","ios":"levelo://app?vid=84799d72-b61f-41b5-91a4-e990dd5e7f58"},"vehicle_type_id":"4","last_reported":1692741961,"current_range_meters":15600,"station_id":"ce4bh3h2rcd13ifvqdo0","pricing_plan_id":"free"},{"bike_id":"5cada237-7a44-42f8-9352-281a07fee3c5","system_id":"levelo_inurba_marseille","lat":43.28451,"lon":5.359,"is_reserved":false,"is_disabled":false,"rental_uris":{"android":"levelo://app?vid=5cada237-7a44-42f8-9352-281a07fee3c5","ios":"levelo://app?vid=5cada237-7a44-42f8-9352-281a07fee3c5"},"vehicle_type_id":"4","last_reported":1692741961,"current_range_meters":1200,"station_id":"ce4bhah2rcd13ifvqei0","pricing_plan_id":"free"},{"bike_id":"9f5827ca-3f03-4048-946a-7ee0389fd51e","system_id":"levelo_inurba_marseille","lat":43.29441,"lon":5.39748,"is_reserved":false,"is_disabled":false,"rental_uris":{"android":"levelo://app?vid=9f5827ca-3f03-4048-946a-7ee0389fd51e","ios":"levelo://app?vid=9f5827ca-3f03-4048-946a-7ee0389fd51e"},"vehicle_type_id":"4","last_reported":1692741961,"current_range_meters":27200,"station_id":"ce4bh3h2rcd13ifvqdo0","pricing_plan_id":"free"},{"bike_id":"8746cb26-a558-4840-a125-8a89e510b997","system_id":"levelo_inurba_marseille","lat":43.29443,"lon":5.39756,"is_reserved":false,"is_disabled":false,"rental_uris":{"android":"levelo://app?vid=8746cb26-a558-4840-a125-8a89e510b997","ios":"levelo://app?vid=8746cb26-a558-4840-a125-8a89e510b997"},"vehicle_type_id":"4","last_reported":1692741961,"current_range_meters":6000,"station_id":"ce4bh3h2rcd13ifvqdo0","pricing_plan_id":"free"},{"bike_id":"1d951ec4-b036-4ab0-a9bf-66f13911562e","system_id":"levelo_inurba_marseille","lat":43.28619,"lon":5.35105,"is_reserved":false,"is_disabled":false,"rental_uris":{"android":"levelo://app?vid=1d951ec4-b036-4ab0-a9bf-66f13911562e","ios":"levelo://app?vid=1d951ec4-b036-4ab0-a9bf-66f13911562e"},"vehicle_type_id":"4","last_reported":1692741961,"current_range_meters":9200,"station_id":"ce4bhch2rcd13ifvqeug","pricing_plan_id":"free"},{"bike_id":"35eec3a1-aa54-4990-8eb4-78e6c0dd24d0","system_id":"levelo_inurba_marseille","lat":43.28611,"lon":5.35106,"is_reserved":false,"is_disabled":false,"rental_uris":{"android":"levelo://app?vid=35eec3a1-aa54-4990-8eb4-78e6c0dd24d0","ios":"levelo://app?vid=35eec3a1-aa54-4990-8eb4-78e6c0dd24d0"},"vehicle_type_id":"4","last_reported":1692741961,"current_range_meters":17200,"station_id":"ce4bhch2rcd13ifvqeug","pricing_plan_id":"free"},{"bike_id":"de9f7957-d034-4bf3-bcbc-22fa0324936c","system_id":"levelo_inurba_marseille","lat":43.283998,"lon":5.375062,"is_reserved":false,"is_disabled":false,"rental_uris":{"android":"levelo://app?vid=de9f7957-d034-4bf3-bcbc-22fa0324936c","ios":"levelo://app?vid=de9f7957-d034-4bf3-bcbc-22fa0324936c"},"vehicle_type_id":"4","last_reported":1692741961,"current_range_meters":26800,"station_id":"ce4bh412rcd13ifvqds0","pricing_plan_id":"free"},{"bike_id":"2363d3b5-6c15-401a-a59c-ee80bd4af927","system_id":"levelo_inurba_marseille","lat":43.28415,"lon":5.37522,"is_reserved":false,"is_disabled":false,"rental_uris":{"android":"levelo://app?vid=2363d3b5-6c15-401a-a59c-ee80bd4af927","ios":"levelo://app?vid=2363d3b5-6c15-401a-a59c-ee80bd4af927"},"vehicle_type_id":"4","last_reported":1692741961,"current_range_meters":8000,"station_id":"ce4bh412rcd13ifvqds0","pricing_plan_id":"free"},{"bike_id":"62f80035-25ef-4602-a911-8df5a4432a1a","system_id":"levelo_inurba_marseille","lat":43.28412,"lon":5.37527,"is_reserved":false,"is_disabled":false,"rental_uris":{"android":"levelo://app?vid=62f80035-25ef-4602-a911-8df5a4432a1a","ios":"levelo://app?vid=62f80035-25ef-4602-a911-8df5a4432a1a"},"vehicle_type_id":"4","last_reported":1692741961,"current_range_meters":31200,"station_id":"ce4bh412rcd13ifvqds0","pricing_plan_id":"free"},{"bike_id":"4b5f6add-3906-416f-bf9d-ba476d2a5920","system_id":"levelo_inurba_marseille","lat":43.28407,"lon":5.37521,"is_reserved":false,"is_disabled":false,"rental_uris":{"android":"levelo://app?vid=4b5f6add-3906-416f-bf9d-ba476d2a5920","ios":"levelo://app?vid=4b5f6add-3906-416f-bf9d-ba476d2a5920"},"vehicle_type_id":"4","last_reported":1692741961,"current_range_meters":31200,"station_id":"ce4bh412rcd13ifvqds0","pricing_plan_id":"free"},{"bike_id":"d504742c-381b-4b4a-acd8-e980063ba74a","system_id":"levelo_inurba_marseille","lat":43.2957,"lon":5.39985,"is_reserved":false,"is_disabled":false,"rental_uris":{"android":"levelo://app?vid=d504742c-381b-4b4a-acd8-e980063ba74a","ios":"levelo://app?vid=d504742c-381b-4b4a-acd8-e980063ba74a"},"vehicle_type_id":"4","last_reported":1692741961,"current_range_meters":0,"station_id":"ce4bh312rcd13ifvqdj0","pricing_plan_id":"free"},{"bike_id":"55641fda-9c05-4e62-b5ae-dd1a6aa1aa7f","system_id":"levelo_inurba_marseille","lat":43.28685,"lon":5.3866,"is_reserved":false,"is_disabled":false,"rental_uris":{"android":"levelo://app?vid=55641fda-9c05-4e62-b5ae-dd1a6aa1aa7f","ios":"levelo://app?vid=55641fda-9c05-4e62-b5ae-dd1a6aa1aa7f"},