{"last_updated":1779114358,"ttl":60,"version":"2.2","data":{"bikes":[{"bike_id":"7d641315-6110-49cb-a9dd-d637ff032de1","system_id":"levelo_inurba_marseille","lat":43.337444,"lon":5.374475,"is_reserved":false,"is_disabled":false,"rental_uris":{"android":"levelo://app?vid=7d641315-6110-49cb-a9dd-d637ff032de1","ios":"levelo://app?vid=7d641315-6110-49cb-a9dd-d637ff032de1"},"vehicle_type_id":"4","last_reported":1779114359,"current_range_meters":0,"station_id":"","pricing_plan_id":"cebpf4jnsgd1na2vs0mg"},{"bike_id":"e31133fa-834a-42ba-bf55-ad118de5acb7","system_id":"levelo_inurba_marseille","lat":43.292801,"lon":5.401149,"is_reserved":false,"is_disabled":true,"rental_uris":{"android":"levelo://app?vid=e31133fa-834a-42ba-bf55-ad118de5acb7","ios":"levelo://app?vid=e31133fa-834a-42ba-bf55-ad118de5acb7"},"vehicle_type_id":"4","last_reported":1779114359,"current_range_meters":2800,"station_id":"ce4bh312rcd13ifvqdk0","pricing_plan_id":"cebpf4jnsgd1na2vs0mg"},{"bike_id":"e73f947b-ad16-4b39-9909-f6cec4b224eb","system_id":"levelo_inurba_marseille","lat":43.29736,"lon":5.42796,"is_reserved":false,"is_disabled":false,"rental_uris":{"android":"levelo://app?vid=e73f947b-ad16-4b39-9909-f6cec4b224eb","ios":"levelo://app?vid=e73f947b-ad16-4b39-9909-f6cec4b224eb"},"vehicle_type_id":"4","last_reported":1779114359,"current_range_meters":2800,"station_id":"st_d3md5207bmas73dh9klg","pricing_plan_id":"cebpf4jnsgd1na2vs0mg"},{"bike_id":"b0b32c28-46aa-4d47-99a7-750f19df7701","system_id":"levelo_inurba_marseille","lat":43.25222,"lon":5.37433,"is_reserved":false,"is_disabled":false,"rental_uris":{"android":"levelo://app?vid=b0b32c28-46aa-4d47-99a7-750f19df7701","ios":"levelo://app?vid=b0b32c28-46aa-4d47-99a7-750f19df7701"},"vehicle_type_id":"4","last_reported":1779114359,"current_range_meters":2800,"station_id":"","pricing_plan_id":"cebpf4jnsgd1na2vs0mg"},{"bike_id":"564eb424-2181-4cbf-aae4-e204f41a03fe","system_id":"levelo_inurba_marseille","lat":43.284821,"lon":5.38416,"is_reserved":false,"is_disabled":false,"rental_uris":{"android":"levelo://app?vid=564eb424-2181-4cbf-aae4-e204f41a03fe","ios":"levelo://app?vid=564eb424-2181-4cbf-aae4-e204f41a03fe"},"vehicle_type_id":"4","last_reported":1779114359,"current_range_meters":2800,"station_id":"","pricing_plan_id":"cebpf4jnsgd1na2vs0mg"},{"bike_id":"8aff194a-5e5f-4087-8bb2-3a5231084dd7","system_id":"levelo_inurba_marseille","lat":43.30808,"lon":5.38144,"is_reserved":false,"is_disabled":false,"rental_uris":{"android":"levelo://app?vid=8aff194a-5e5f-4087-8bb2-3a5231084dd7","ios":"levelo://app?vid=8aff194a-5e5f-4087-8bb2-3a5231084dd7"},"vehicle_type_id":"4","last_reported":1779114359,"current_range_meters":2800,"station_id":"ce4bgt12rcd13ifvqce0","pricing_plan_id":"cebpf4jnsgd1na2vs0mg"},{"bike_id":"3ab4e6a8-831b-4f19-99a9-2c16d9a6083d","system_id":"levelo_inurba_marseille","lat":43.256,"lon":5.38247,"is_reserved":false,"is_disabled":false,"rental_uris":{"android":"levelo://app?vid=3ab4e6a8-831b-4f19-99a9-2c16d9a6083d","ios":"levelo://app?vid=3ab4e6a8-831b-4f19-99a9-2c16d9a6083d"},"vehicle_type_id":"4","last_reported":1779114359,"current_range_meters":2800,"station_id":"ce4bhih2rcd13ifvqfs0","pricing_plan_id":"cebpf4jnsgd1na2vs0mg"},{"bike_id":"11212042-6175-45c4-9b7f-c91b65a7eea9","system_id":"levelo_inurba_marseille","lat":43.309481,"lon":5.390307,"is_reserved":false,"is_disabled":true,"rental_uris":{"android":"levelo://app?vid=11212042-6175-45c4-9b7f-c91b65a7eea9","ios":"levelo://app?vid=11212042-6175-45c4-9b7f-c91b65a7eea9"},"vehicle_type_id":"4","last_reported":1779114359,"current_range_meters":2800,"station_id":"ce4bgup2rcd13ifvqco0","pricing_plan_id":"cebpf4jnsgd1na2vs0mg"},{"bike_id":"03f8613d-948c-45ed-9f8c-7fcd6e654cd7","system_id":"levelo_inurba_marseille","lat":43.28575,"lon":5.39513,"is_reserved":false,"is_disabled":false,"rental_uris":{"android":"levelo://app?vid=03f8613d-948c-45ed-9f8c-7fcd6e654cd7","ios":"levelo://app?vid=03f8613d-948c-45ed-9f8c-7fcd6e654cd7"},"vehicle_type_id":"4","last_reported":1779114359,"current_range_meters":2800,"station_id":"ce4bh292rcd13ifvqdg0","pricing_plan_id":"cebpf4jnsgd1na2vs0mg"},{"bike_id":"e7a18bdd-8116-45b9-89ab-c2557631baf8","system_id":"levelo_inurba_marseille","lat":43.2991,"lon":5.38153,"is_reserved":false,"is_disabled":false,"rental_uris":{"android":"levelo://app?vid=e7a18bdd-8116-45b9-89ab-c2557631baf8","ios":"levelo://app?vid=e7a18bdd-8116-45b9-89ab-c2557631baf8"},"vehicle_type_id":"4","last_reported":1779114359,"current_range_meters":2800,"station_id":"ce4bgj12rcd13ifvqbc0","pricing_plan_id":"cebpf4jnsgd1na2vs0mg"},{"bike_id":"45c4e08d-f817-451d-a8a4-efe40cea6aab","system_id":"levelo_inurba_marseille","lat":43.32476,"lon":5.36572,"is_reserved":false,"is_disabled":false,"rental_uris":{"android":"levelo://app?vid=45c4e08d-f817-451d-a8a4-efe40cea6aab","ios":"levelo://app?vid=45c4e08d-f817-451d-a8a4-efe40cea6aab"},"vehicle_type_id":"4","last_reported":1779114359,"current_range_meters":3200,"station_id":"ce4bhs12rcd13ifvqhvg","pricing_plan_id":"cebpf4jnsgd1na2vs0mg"},{"bike_id":"d2fab9a8-309a-40f7-86df-bce42118b3ed","system_id":"levelo_inurba_marseille","lat":43.31449,"lon":5.37392,"is_reserved":false,"is_disabled":false,"rental_uris":{"android":"levelo://app?vid=d2fab9a8-309a-40f7-86df-bce42118b3ed","ios":"levelo://app?vid=d2fab9a8-309a-40f7-86df-bce42118b3ed"},"vehicle_type_id":"4","last_reported":1779114359,"current_range_meters":3200,"station_id":"","pricing_plan_id":"cebpf4jnsgd1na2vs0mg"},{"bike_id":"8c240bb7-ac48-48dd-b7c1-1519c2b2db9f","system_id":"levelo_inurba_marseille","lat":43.22916,"lon":5.35355,"is_reserved":false,"is_disabled":true,"rental_uris":{"android":"levelo://app?vid=8c240bb7-ac48-48dd-b7c1-1519c2b2db9f","ios":"levelo://app?vid=8c240bb7-ac48-48dd-b7c1-1519c2b2db9f"},"vehicle_type_id":"4","last_reported":1779114359,"current_range_meters":3200,"station_id":"cpo3532slgdg3j2ikp40","pricing_plan_id":"cebpf4jnsgd1na2vs0mg"},{"bike_id":"8679d5c2-59e6-4d42-bafc-1828e297af0f","system_id":"levelo_inurba_marseille","lat":43.21182,"lon":5.35105,"is_reserved":false,"is_disabled":false,"rental_uris":{"android":"levelo://app?vid=8679d5c2-59e6-4d42-bafc-1828e297af0f","ios":"levelo://app?vid=8679d5c2-59e6-4d42-bafc-1828e297af0f"},"vehicle_type_id":"4","last_reported":1779114359,"current_range_meters":3200,"station_id":"st_cvj6sg6p6f1abm77japg","pricing_plan_id":"cebpf4jnsgd1na2vs0mg"},{"bike_id":"5fdb5ba8-bfd4-4d27-8c99-ada61b0c520a","system_id":"levelo_inurba_marseille","lat":43.253369,"lon":5.42181,"is_reserved":false,"is_disabled":false,"rental_uris":{"android":"levelo://app?vid=5fdb5ba8-bfd4-4d27-8c99-ada61b0c520a","ios":"levelo://app?vid=5fdb5ba8-bfd4-4d27-8c99-ada61b0c520a"},"vehicle_type_id":"4","last_reported":1779114359,"current_range_meters":3200,"station_id":"st_d2m65c5bi1j21697t3ng","pricing_plan_id":"cebpf4jnsgd1na2vs0mg"},{"bike_id":"2481a0ea-27f9-43b3-aaa6-3738d21a3d09","system_id":"levelo_inurba_marseille","lat":43.2694,"lon":5.38949,"is_reserved":false,"is_disabled":false,"rental_uris":{"android":"levelo://app?vid=2481a0ea-27f9-43b3-aaa6-3738d21a3d09","ios":"levelo://app?vid=2481a0ea-27f9-43b3-aaa6-3738d21a3d09"},"vehicle_type_id":"4","last_reported":1779114359,"current_range_meters":3200,"station_id":"ce4bhhh2rcd13ifvqfl0","pricing_plan_id":"cebpf4jnsgd1na2vs0mg"},{"bike_id":"ea2b56f1-2315-47e0-818a-bc96b54aabea","system_id":"levelo_inurba_marseille","lat":43.290533,"lon":5.359204,"is_reserved":false,"is_disabled":false,"rental_uris":{"android":"levelo://app?vid=ea2b56f1-2315-47e0-818a-bc96b54aabea","ios":"levelo://app?vid=ea2b56f1-2315-47e0-818a-bc96b54aabea"},"vehicle_type_id":"4","last_reported":1779114359,"current_range_meters":3600,"station_id":"ce4bha92rcd13ifvqeg0","pricing_plan_id":"cebpf4jnsgd1na2vs0mg"},{"bike_id":"273282a1-0f56-458c-b2cd-4be6960983fe","system_id":"levelo_inurba_marseille","lat":43.29306,"lon":5.37156,"is_reserved":false,"is_disabled":false,"rental_uris":{"android":"levelo://app?vid=273282a1-0f56-458c-b2cd-4be6960983fe","ios":"levelo://app?vid=273282a1-0f56-458c-b2cd-4be6960983fe"},"vehicle_type_id":"4","last_reported":1779114359,"current_range_meters":3600,"station_id":"ce4bgh92rcd13ifvqb40","pricing_plan_id":"cebpf4jnsgd1na2vs0mg"},{"bike_id":"e0bb6494-3107-45d5-bf57-d23876a00455","system_id":"levelo_inurba_marseille","lat":43.21185,"lon":5.35077,"is_reserved":false,"is_disabled":false,"rental_uris":{"android":"levelo://app?vid=e0bb6494-3107-45d5-bf57-d23876a00455","ios":"levelo://app?vid=e0bb6494-3107-45d5-bf57-d23876a00455"},"vehicle_type_id":"4","last_reported":1779114359,"current_range_meters":3600,"station_id":"st_cvj6sg6p6f1abm77japg","pricing_plan_id":"cebpf4jnsgd1na2vs0mg"},{"bike_id":"d80b4a0a-8578-4f53-bba4-9a7172655f91","system_id":"levelo_inurba_marseille","lat":43.28724,"lon":5.37413,"is_reserved":false,"is_disabled":false,"rental_uris":{"android":"levelo://app?vid=d80b4a0a-8578-4f53-bba4-9a7172655f91","ios":"levelo://app?vid=d80b4a0a-8578-4f53-bba4-9a7172655f91"},"vehicle_type_id":"4","last_reported":1779114359,"current_range_meters":3600,"station_id":"ce4bh3p2rcd13ifvqdq0","pricing_plan_id":"cebpf4jnsgd1na2vs0mg"},{"bike_id":"8038496f-50c6-40dc-bc8b-f8fa7be80f29","system_id":"levelo_inurba_marseille","lat":43.26192,"lon":5.37453,"is_reserved":false,"is_disabled":false,"rental_uris":{"android":"levelo://app?vid=8038496f-50c6-40dc-bc8b-f8fa7be80f29","ios":"levelo://app?vid=8038496f-50c6-40dc-bc8b-f8fa7be80f29"},"vehicle_type_id":"4","last_reported":1779114359,"current_range_meters":3600,"station_id":"ce4bhgp2rcd13ifvqfc0","pricing_plan_id":"cebpf4jnsgd1na2vs0mg"},{"bike_id":"2cd48a35-42f5-4905-a545-77ef65266664","system_id":"levelo_inurba_marseille","lat":43.29664,"lon":5.37769,"is_reserved":false,"is_disabled":false,"rental_uris":{"android":"levelo://app?vid=2cd48a35-42f5-4905-a545-77ef65266664","ios":"levelo://app?vid=2cd48a35-42f5-4905-a545-77ef65266664"},"vehicle_type_id":"4","last_reported":1779114359,"current_range_meters":4000,"station_id":"","pricing_plan_id":"cebpf4jnsgd1na2vs0mg"},{"bike_id":"9337336a-9501-47fa-a1f2-c17cde525d6b","system_id":"levelo_inurba_marseille","lat":43.29966,"lon":5.37167,"is_reserved":false,"is_disabled":false,"rental_uris":{"android":"levelo://app?vid=9337336a-9501-47fa-a1f2-c17cde525d6b","ios":"levelo://app?vid=9337336a-9501-47fa-a1f2-c17cde525d6b"},"vehicle_type_id":"4","last_reported":1779114359,"current_range_meters":4000,"station_id":"ce4bgr92rcd13ifvqc7g","pricing_plan_id":"cebpf4jnsgd1na2vs0mg"},{"bike_id":"8250209c-8671-4ce0-860e-0d94785106b7","system_id":"levelo_inurba_marseille","lat":43.2891,"lon":5.36411,"is_reserved":false,"is_disabled":false,"rental_uris":{"android":"levelo://app?vid=8250209c-8671-4ce0-860e-0d94785106b7","ios":"levelo://app?vid=8250209c-8671-4ce0-860e-0d94785106b7"},"vehicle_type_id":"4","last_reported":1779114359,"current_range_meters":4000,"station_id":"ce4bhc92rcd13ifvqetg","pricing_plan_id":"cebpf4jnsgd1na2vs0mg"},{"bike_id":"6d44a3c9-62cb-414f-8a34-a1db235cdeb1","system_id":"levelo_inurba_marseille","lat":43.29217,"lon":5.36058,"is_reserved":false,"is_disabled":false,"rental_uris":{"android":"levelo://app?vid=6d44a3c9-62cb-414f-8a34-a1db235cdeb1","ios":"levelo://app?vid=6d44a3c9-62cb-414f-8a34-a1db235cdeb1"},"vehicle_type_id":"4","last_reported":1779114359,"current_range_meters":4000,"station_id":"ce4bhbh2rcd13ifvqeqg","pricing_plan_id":"cebpf4jnsgd1na2vs0mg"},{"bike_id":"7076bafc-b39a-44ae-b8da-15b2a22585b8","system_id":"levelo_inurba_marseille","lat":43.28621,"lon":5.35104,"is_reserved":false,"is_disabled":false,"rental_uris":{"android":"levelo://app?vid=7076bafc-b39a-44ae-b8da-15b2a22585b8","ios":"levelo://app?vid=7076bafc-b39a-44ae-b8da-15b2a22585b8"},"vehicle_type_id":"4","last_reported":1779114359,"current_range_meters":4000,"station_id":"ce4bhch2rcd13ifvqeug","pricing_plan_id":"cebpf4jnsgd1na2vs0mg"},{"bike_id":"f3c41c0e-8e06-46ee-9d50-a275ab837e28","system_id":"levelo_inurba_marseille","lat":43.29076,"lon":5.37178,"is_reserved":false,"is_disabled":false,"rental_uris":{"android":"levelo://app?vid=f3c41c0e-8e06-46ee-9d50-a275ab837e28","ios":"levelo://app?vid=f3c41c0e-8e06-46ee-9d50-a275ab837e28"},"vehicle_type_id":"4","last_reported":1779114359,"current_range_meters":4000,"station_id":"ce4bh5p2rcd13ifvqe4g","pricing_plan_id":"cebpf4jnsgd1na2vs0mg"},{"bike_id":"f4dc8f6b-f52b-43d9-ae85-aaee93e0ddd8","system_id":"levelo_inurba_marseille","lat":43.29027,"lon":5.38639,"is_reserved":false,"is_disabled":false,"rental_uris":{"android":"levelo://app?vid=f4dc8f6b-f52b-43d9-ae85-aaee93e0ddd8","ios":"levelo://app?vid=f4dc8f6b-f52b-43d9-ae85-aaee93e0ddd8"},"vehicle_type_id":"4","last_reported":1779114359,"current_range_meters":4000,"station_id":"ce4bh4p2rcd13ifvqe0g","pricing_plan_id":"cebpf4jnsgd1na2vs0mg"},{"bike_id":"b28a2e8c-fbf7-4082-a8c4-ae13686697fe","system_id":"levelo_inurba_marseille","lat":43.27212,"lon":5.39194,"is_reserved":false,"is_disabled":false,"rental_uris":{"android":"levelo://app?vid=b28a2e8c-fbf7-4082-a8c4-ae13686697fe","ios":"levelo://app?vid=b28a2e8c-fbf7-4082-a8c4-ae13686697fe"},"vehicle_type_id":"4","last_reported":1779114359,"current_range_meters":4000,"station_id":"ce4bhhp2rcd13ifvqfm0","pricing_plan_id":"cebpf4jnsgd1na2vs0mg"},{"bike_id":"c16ad347-19d9-45b8-b7bb-3031676af2ce","system_id":"levelo_inurba_marseille","lat":43.29063,"lon":5.37169,"is_reserved":false,"is_disabled":false,"rental_uris":{"android":"levelo://app?vid=c16ad347-19d9-45b8-b7bb-3031676af2ce","ios":"levelo://app?vid=c16ad347-19d9-45b8-b7bb-3031676af2ce"},"vehicle_type_id":"4","last_reported":1779114359,"current_range_meters":4400,"station_id":"ce4bh5p2rcd13ifvqe4g","pricing_plan_id":"cebpf4jnsgd1na2vs0mg"},{"bike_id":"c4f6629e-acc7-451f-aabf-1a12beb49b0d","system_id":"levelo_inurba_marseille","lat":43.32365,"lon":5.38887,"is_reserved":false,"is_disabled":false,"rental_uris":{"android":"levelo://app?vid=c4f6629e-acc7-451f-aabf-1a12beb49b0d","ios":"levelo://app?vid=c4f6629e-acc7-451f-aabf-1a12beb49b0d"},"vehicle_type_id":"4","last_reported":1779114359,"current_range_meters":4400,"station_id":"ce4bhqp2rcd13ifvqhog","pricing_plan_id":"cebpf4jnsgd1na2vs0mg"},{"bike_id":"75226e16-5fe9-4d36-b95d-39518fe61086","system_id":"levelo_inurba_marseille","lat":43.28461,"lon":5.38439,"is_reserved":false,"is_disabled":false,"rental_uris":{"android":"levelo://app?vid=75226e16-5fe9-4d36-b95d-39518fe61086","ios":"levelo://app?vid=75226e16-5fe9-4d36-b95d-39518fe61086"},"vehicle_type_id":"4","last_reported":1779114359,"current_range_meters":4400,"station_id":"ce4bh512rcd13ifvqe3g","pricing_plan_id":"cebpf4jnsgd1na2vs0mg"},{"bike_id":"ff760c98-a8f4-4453-9e3e-61653892bf6c","system_id":"levelo_inurba_marseille","lat":43.28426,"lon":5.34987,"is_reserved":false,"is_disabled":false,"rental_uris":{"android":"levelo://app?vid=ff760c98-a8f4-4453-9e3e-61653892bf6c","ios":"levelo://app?vid=ff760c98-a8f4-4453-9e3e-61653892bf6c"},"vehicle_type_id":"4","last_reported":1779114359,"current_range_meters":4400,"station_id":"ce4bhbh2rcd13ifvqepg","pricing_plan_id":"cebpf4jnsgd1na2vs0mg"},{"bike_id":"6b2e854f-af87-43df-88cb-44d029d1884e","system_id":"levelo_inurba_marseille","lat":43.29038,"lon":5.38651,"is_reserved":false,"is_disabled":false,"rental_uris":{"android":"levelo://app?vid=6b2e854f-af87-43df-88cb-44d029d1884e","ios":"levelo://app?vid=6b2e854f-af87-43df-88cb-44d029d1884e"},"vehicle_type_id":"4","last_reported":1779114359,"current_range_meters":4400,"station_id":"ce4bh4p2rcd13ifvqe0g","pricing_plan_id":"cebpf4jnsgd1na2vs0mg"},{"bike_id":"afc57c0b-45ad-40f4-abc2-ae83c891f66e","system_id":"levelo_inurba_marseille","lat":43.21188,"lon":5.35065,"is_reserved":false,"is_disabled":false,"rental_uris":{"android":"levelo://app?vid=afc57c0b-45ad-40f4-abc2-ae83c891f66e","ios":"levelo://app?vid=afc57c0b-45ad-40f4-abc2-ae83c891f66e"},"vehicle_type_id":"4","last_reported":1779114359,"current_range_meters":4400,"station_id":"st_cvj6sg6p6f1abm77japg","pricing_plan_id":"cebpf4jnsgd1na2vs0mg"},{"bike_id":"8f08ea3e-e5ca-491c-b1e6-3750a95f71ff","system_id":"levelo_inurba_marseille","lat":43.29026,"lon":5.35888,"is_reserved":false,"is_disabled":false,"rental_uris":{"android":"levelo://app?vid=8f08ea3e-e5ca-491c-b1e6-3750a95f71ff","ios":"levelo://app?vid=8f08ea3e-e5ca-491c-b1e6-3750a95f71ff"},"vehicle_type_id":"4","last_reported":1779114359,"current_range_meters":4400,"station_id":"ce4bha92rcd13ifvqeg0","pricing_plan_id":"cebpf4jnsgd1na2vs0mg"},{"bike_id":"4fc79a0b-a889-4b07-94ad-10d4b0f67722","system_id":"levelo_inurba_marseille","lat":43.29562,"lon":5.42278,"is_reserved":false,"is_disabled":false,"rental_uris":{"android":"levelo://app?vid=4fc79a0b-a889-4b07-94ad-10d4b0f67722","ios":"levelo://app?vid=4fc79a0b-a889-4b07-94ad-10d4b0f67722"},"vehicle_type_id":"4","last_reported":1779114359,"current_range_meters":4400,"station_id":"ce4bhph2rcd13ifvqhdg","pricing_plan_id":"cebpf4jnsgd1na2vs0mg"},{"bike_id":"a00fb7c0-9f3a-4897-b63e-5c5887812c2b","system_id":"levelo_inurba_marseille","lat":43.26217,"lon":5.37447,"is_reserved":false,"is_disabled":false,"rental_uris":{"android":"levelo://app?vid=a00fb7c0-9f3a-4897-b63e-5c5887812c2b","ios":"levelo://app?vid=a00fb7c0-9f3a-4897-b63e-5c5887812c2b"},"vehicle_type_id":"4","last_reported":1779114359,"current_range_meters":4400,"station_id":"ce4bhgp2rcd13ifvqfc0","pricing_plan_id":"cebpf4jnsgd1na2vs0mg"},{"bike_id":"4b0ba8df-e785-4367-9268-310843f8b28b","system_id":"levelo_inurba_marseille","lat":43.31112,"lon":5.37762,"is_reserved":false,"is_disabled":false,"rental_uris":{"android":"levelo://app?vid=4b0ba8df-e785-4367-9268-310843f8b28b","ios":"levelo://app?vid=4b0ba8df-e785-4367-9268-310843f8b28b"},"vehicle_type_id":"4","last_reported":1779114359,"current_range_meters":4400,"station_id":"ce4bgt92rcd13ifvqcg0","pricing_plan_id":"cebpf4jnsgd1na2vs0mg"},{"bike_id":"3021247f-73e4-4d63-a87e-d84f6ce8c433","system_id":"levelo_inurba_marseille","lat":43.29524,"lon":5.3901,"is_reserved":false,"is_disabled":false,"rental_uris":{"android":"levelo://app?vid=3021247f-73e4-4d63-a87e-d84f6ce8c433","ios":"levelo://app?vid=3021247f-73e4-4d63-a87e-d84f6ce8c433"},"vehicle_type_id":"4","last_reported":1779114359,"current_range_meters":4400,"station_id":"ce4bh3p2rcd13ifvqdp0","pricing_plan_id":"cebpf4jnsgd1na2vs0mg"},{"bike_id":"b5662f41-744f-4b69-b2ad-20fd5d82cf0b","system_id":"levelo_inurba_marseille","lat":43.3013,"lon":5.38777,"is_reserved":false,"is_disabled":false,"rental_uris":{"android":"levelo://app?vid=b5662f41-744f-4b69-b2ad-20fd5d82cf0b","ios":"levelo://app?vid=b5662f41-744f-4b69-b2ad-20fd5d82cf0b"},"vehicle_type_id":"4","last_reported":1779114359,"current_range_meters":4400,"station_id":"ce4bghh2rcd13ifvqb60","pricing_plan_id":"cebpf4jnsgd1na2vs0mg"},{"bike_id":"e84c1a2f-9758-45cd-860e-0d8af9008813","system_id":"levelo_inurba_marseille","lat":43.2395,"lon":5.36621,"is_reserved":false,"is_disabled":false,"rental_uris":{"android":"levelo://app?vid=e84c1a2f-9758-45cd-860e-0d8af9008813","ios":"levelo://app?vid=e84c1a2f-9758-45cd-860e-0d8af9008813"},"vehicle_type_id":"4","last_reported":1779114359,"current_range_meters":4400,"station_id":"ce4bhi12rcd13ifvqfp0","pricing_plan_id":"cebpf4jnsgd1na2vs0mg"},{"bike_id":"527c40e5-badc-4281-b4c8-e1f5629d912c","system_id":"levelo_inurba_marseille","lat":43.25083,"lon":5.39528,"is_reserved":false,"is_disabled":false,"rental_uris":{"android":"levelo://app?vid=527c40e5-badc-4281-b4c8-e1f5629d912c","ios":"levelo://app?vid=527c40e5-badc-4281-b4c8-e1f5629d912c"},"vehicle_type_id":"4","last_reported":1779114359,"current_range_meters":4400,"station_id":"ce4bhm12rcd13ifvqgkg","pricing_plan_id":"cebpf4jnsgd1na2vs0mg"},{"bike_id":"1c92c752-8ab5-4229-b19b-44d6456544b9","system_id":"levelo_inurba_marseille","lat":43.28616,"lon":5.35106,"is_reserved":false,"is_disabled":false,"rental_uris":{"android":"levelo://app?vid=1c92c752-8ab5-4229-b19b-44d6456544b9","ios":"levelo://app?vid=1c92c752-8ab5-4229-b19b-44d6456544b9"},"vehicle_type_id":"4","last_reported":1779114359,"current_range_meters":4400,"station_id":"ce4bhch2rcd13ifvqeug","pricing_plan_id":"cebpf4jnsgd1na2vs0mg"},{"bike_id":"ec7da78e-f44e-4425-813b-b7a34b08d52f","system_id":"levelo_inurba_marseille","lat":43.33145,"lon":5.37719,"is_reserved":false,"is_disabled":false,"rental_uris":{"android":"levelo://app?vid=ec7da78e-f44e-4425-813b-b7a34b08d52f","ios":"levelo://app?vid=ec7da78e-f44e-4425-813b-b7a34b08d52f"},"vehicle_type_id":"4","last_reported":1779114359,"current_range_meters":4800,"station_id":"st_d46cu089ee8s73dldbu0","pricing_plan_id":"cebpf4jnsgd1na2vs0mg"},{"bike_id":"7df43883-c1e0-4da1-a102-d45e33555e9a","system_id":"levelo_inurba_marseille","lat":43.302,"lon":5.39936,"is_reserved":false,"is_disabled":false,"rental_uris":{"android":"levelo://app?vid=7df43883-c1e0-4da1-a102-d45e33555e9a","ios":"levelo://app?vid=7df43883-c1e0-4da1-a102-d45e33555e9a"},"vehicle_type_id":"4","last_reported":1779114359,"current_range_meters":4800,"station_id":"","pricing_plan_id":"cebpf4jnsgd1na2vs0mg"},{"bike_id":"55fd0741-f693-4c0e-bc61-157606e04439","system_id":"levelo_inurba_marseille","lat":43.32582,"lon":5.39941,"is_reserved":false,"is_disabled":false,"rental_uris":{"android":"levelo://app?vid=55fd0741-f693-4c0e-bc61-157606e04439","ios":"levelo://app?vid=55fd0741-f693-4c0e-bc61-157606e04439"},"vehicle_type_id":"4","last_reported":1779114359,"current_range_meters":4800,"station_id":"","pricing_plan_id":"cebpf4jnsgd1na2vs0mg"},{"bike_id":"abb98199-fb0a-4ef0-b5b9-2009502800b2","system_id":"levelo_inurba_marseille","lat":43.2894,"lon":5.36656,"is_reserved":false,"is_disabled":false,"rental_uris":{"android":"levelo://app?vid=abb98199-fb0a-4ef0-b5b9-2009502800b2","ios":"levelo://app?vid=abb98199-fb0a-4ef0-b5b9-2009502800b2"},"vehicle_type_id":"4","last_reported":1779114359,"current_range_meters":4800,"station_id":"ce4bhap2rcd13ifvqek0","pricing_plan_id":"cebpf4jnsgd1na2vs0mg"},{"bike_id":"9d18dc58-248c-49c8-a233-5fa2af77daec","system_id":"levelo_inurba_marseille","lat":43.28646,"lon":5.37789,"is_reserved":false,"is_disabled":false,"rental_uris":{"android":"levelo://app?vid=9d18dc58-248c-49c8-a233-5fa2af77daec","ios":"levelo://app?vid=9d18dc58-248c-49c8-a233-5fa2af77daec"},"vehicle_type_id":"4","last_reported":1779114359,"current_range_meters":4800,"station_id":"","pricing_plan_id":"cebpf4jnsgd1na2vs0mg"},{"bike_id":"8b3b12a3-5f5f-4405-ba85-2207017d6001","system_id":"levelo_inurba_marseille","lat":43.30547,"lon":5.36537,"is_reserved":false,"is_disabled":false,"rental_uris":{"android":"levelo://app?vid=8b3b12a3-5f5f-4405-ba85-2207017d6001","ios":"levelo://app?vid=8b3b12a3-5f5f-4405-ba85-2207017d6001"},"vehicle_type_id":"4","last_reported":1779114359,"current_range_meters":4800,"station_id":"ce4bgs12rcd13ifvqcag","pricing_plan_id":"cebpf4jnsgd1na2vs0mg"},{"bike_id":"b92a21d3-7b69-445c-a358-48cd346a6e33","system_id":"levelo_inurba_marseille","lat":43.23976,"lon":5.3665,"is_reserved":false,"is_disabled":false,"rental_uris":{"android":"levelo://app?vid=b92a21d3-7b69-445c-a358-48cd346a6e33","ios":"levelo://app?vid=b92a21d3-7b69-445c-a358-48cd346a6e33"},"vehicle_type_id":"4","last_reported":1779114359,"current_range_meters":4800,"station_id":"ce4bhi12rcd13ifvqfp0","pricing_plan_id":"cebpf4jnsgd1na2vs0mg"},{"bike_id":"0a72fc6b-1dc0-40ea-9e91-154daba48389","system_id":"levelo_inurba_marseille","lat":43.285742,"lon":5.39492,"is_reserved":false,"is_disabled":false,"rental_uris":{"android":"levelo://app?vid=0a72fc6b-1dc0-40ea-9e91-154daba48389","ios":"levelo://app?vid=0a72fc6b-1dc0-40ea-9e91-154daba48389"},"vehicle_type_id":"4","last_reported":1779114359,"current_range_meters":4800,"station_id":"ce4bh292rcd13ifvqdg0","pricing_plan_id":"cebpf4jnsgd1na2vs0mg"},{"bike_id":"46978d4c-80ac-4d2e-99f0-47098870a936","system_id":"levelo_inurba_marseille","lat":43.28468,"lon":5.48414,"is_reserved":false,"is_disabled":false,"rental_uris":{"android":"levelo://app?vid=46978d4c-80ac-4d2e-99f0-47098870a936","ios":"levelo://app?vid=46978d4c-80ac-4d2e-99f0-47098870a936"},"vehicle_type_id":"4","last_reported":1779114359,"current_range_meters":4800,"station_id":"st_d3svhcjqgbts73a3dn0g","pricing_plan_id":"cebpf4jnsgd1na2vs0mg"},{"bike_id":"d67bbc49-cf37-4bf9-b082-798b431c4bf8","system_id":"levelo_inurba_marseille","lat":43.30547,"lon":5.36525,"is_reserved":false,"is_disabled":false,"rental_uris":{"android":"levelo://app?vid=d67bbc49-cf37-4bf9-b082-798b431c4bf8","ios":"levelo://app?vid=d67bbc49-cf37-4bf9-b082-798b431c4bf8"},"vehicle_type_id":"4","last_reported":1779114359,"current_range_meters":4800,"station_id":"ce4bgs12rcd13ifvqcag","pricing_plan_id":"cebpf4jnsgd1na2vs0mg"},{"bike_id":"2d489e19-0103-4ac3-bd76-f5fbc956140d","system_id":"levelo_inurba_marseille","lat":43.26545,"lon":5.37302,"is_reserved":false,"is_disabled":false,"rental_uris":{"android":"levelo://app?vid=2d489e19-0103-4ac3-bd76-f5fbc956140d","ios":"levelo://app?vid=2d489e19-0103-4ac3-bd76-f5fbc956140d"},"vehicle_type_id":"4","last_reported":1779114359,"current_range_meters":4800,"station_id":"ce4bhg12rcd13ifvqf70","pricing_plan_id":"cebpf4jnsgd1na2vs0mg"},{"bike_id":"59b2432e-f424-4c75-ba04-57a073a9c3ce","system_id":"levelo_inurba_marseille","lat":43.31354,"lon":5.44149,"is_reserved":false,"is_disabled":false,"rental_uris":{"android":"levelo://app?vid=59b2432e-f424-4c75-ba04-57a073a9c3ce","ios":"levelo://app?vid=59b2432e-f424-4c75-ba04-57a073a9c3ce"},"vehicle_type_id":"4","last_reported":1779114359,"current_range_meters":4800,"station_id":"","pricing_plan_id":"cebpf4jnsgd1na2vs0mg"},{"bike_id":"ca8deebd-3892-4cd3-95b9-93993366f63e","system_id":"levelo_inurba_marseille","lat":43.26232,"lon":5.40486,"is_reserved":false,"is_disabled":true,"rental_uris":{"android":"levelo://app?vid=ca8deebd-3892-4cd3-95b9-93993366f63e","ios":"levelo://app?vid=ca8deebd-3892-4cd3-95b9-93993366f63e"},"vehicle_type_id":"4","last_reported":1779114359,"current_range_meters":4800,"station_id":"ce4bhmh2rcd13ifvqgmg","pricing_plan_id":"cebpf4jnsgd1na2vs0mg"},{"bike_id":"97ef0eaa-07a1-41e5-96b2-af004dd36978","system_id":"levelo_inurba_marseille","lat":43.288593,"lon":5.42519,"is_reserved":false,"is_disabled":true,"rental_uris":{"android":"levelo://app?vid=97ef0eaa-07a1-41e5-96b2-af004dd36978","ios":"levelo://app?vid=97ef0eaa-07a1-41e5-96b2-af004dd36978"},"vehicle_type_id":"4","last_reported":1779114359,"current_range_meters":5600,"station_id":"st_d3b462108ojc7389ooeg","pricing_plan_id":"cebpf4jnsgd1na2vs0mg"},{"bike_id":"9e4605bd-fb5f-4dea-85c6-6d392142aaa8","system_id":"levelo_inurba_marseille","lat":43.29715,"lon":5.41638,"is_reserved":false,"is_disabled":false,"rental_uris":{"android":"levelo://app?vid=9e4605bd-fb5f-4dea-85c6-6d392142aaa8","ios":"levelo://app?vid=9e4605bd-fb5f-4dea-85c6-6d392142aaa8"},"vehicle_type_id":"4","last_reported":1779114359,"current_range_meters":5600,"station_id":"","pricing_plan_id":"cebpf4jnsgd1na2vs0mg"},{"bike_id":"55f74d0e-4228-4b5a-9832-433d39491ea1","system_id":"levelo_inurba_marseille","lat":43.26221,"lon":5.38767,"is_reserved":false,"is_disabled":false,"rental_uris":{"android":"levelo://app?vid=55f74d0e-4228-4b5a-9832-433d39491ea1","ios":"levelo://app?vid=55f74d0e-4228-4b5a-9832-433d39491ea1"},"vehicle_type_id":"4","last_reported":1779114359,"current_range_meters":5600,"station_id":"","pricing_plan_id":"cebpf4jnsgd1na2vs0mg"},{"bike_id":"76483057-aa19-441c-af55-216e6ef2b5ac","system_id":"levelo_inurba_marseille","lat":43.22559,"lon":5.41632,"is_reserved":false,"is_disabled":false,"rental_uris":{"android":"levelo://app?vid=76483057-aa19-441c-af55-216e6ef2b5ac","ios":"levelo://app?vid=76483057-aa19-441c-af55-216e6ef2b5ac"},"vehicle_type_id":"4","last_reported":1779114359,"current_range_meters":5600,"station_id":"st_d2o4gvlbi1j2169b742g","pricing_plan_id":"cebpf4jnsgd1na2vs0mg"},{"bike_id":"0a557a53-5e2a-4f58-a5bd-c17c32c1c9c4","system_id":"levelo_inurba_marseille","lat":43.29236,"lon":5.36064,"is_reserved":false,"is_disabled":true,"rental_uris":{"android":"levelo://app?vid=0a557a53-5e2a-4f58-a5bd-c17c32c1c9c4","ios":"levelo://app?vid=0a557a53-5e2a-4f58-a5bd-c17c32c1c9c4"},"vehicle_type_id":"4","last_reported":1779114359,"current_range_meters":5600,"station_id":"ce4bhbh2rcd13ifvqeqg","pricing_plan_id":"cebpf4jnsgd1na2vs0mg"},{"bike_id":"36dbd5c1-ebea-44c2-904d-c22e6829467f","system_id":"levelo_inurba_marseille","lat":43.28292,"lon":5.35091,"is_reserved":false,"is_disabled":false,"rental_uris":{"android":"levelo://app?vid=36dbd5c1-ebea-44c2-904d-c22e6829467f","ios":"levelo://app?vid=36dbd5c1-ebea-44c2-904d-c22e6829467f"},"vehicle_type_id":"4","last_reported":1779114359,"current_range_meters":5600,"station_id":"ce4bhbp2rcd13ifvqerg","pricing_plan_id":"cebpf4jnsgd1na2vs0mg"},{"bike_id":"b8341b15-adb6-4370-abc8-a57feb118072","system_id":"levelo_inurba_marseille","lat":43.30326,"lon":5.40439,"is_reserved":false,"is_disabled":false,"rental_uris":{"android":"levelo://app?vid=b8341b15-adb6-4370-abc8-a57feb118072","ios":"levelo://app?vid=b8341b15-adb6-4370-abc8-a57feb118072"},"vehicle_type_id":"4","last_reported":1779114359,"current_range_meters":5600,"station_id":"ce4bh012rcd13ifvqd10","pricing_plan_id":"cebpf4jnsgd1na2vs0mg"},{"bike_id":"8d61a429-1f83-469c-8d94-11b4f9a58489","system_id":"levelo_inurba_marseille","lat":43.2928,"lon":5.36858,"is_reserved":false,"is_disabled":false,"rental_uris":{"android":"levelo://app?vid=8d61a429-1f83-469c-8d94-11b4f9a58489","ios":"levelo://app?vid=8d61a429-1f83-469c-8d94-11b4f9a58489"},"vehicle_type_id":"4","last_reported":1779114359,"current_range_meters":5600,"station_id":"ce4bhbp2rcd13ifvqesg","pricing_plan_id":"cebpf4jnsgd1na2vs0mg"},{"bike_id":"c233493d-7215-4892-941f-75302473b622","system_id":"levelo_inurba_marseille","lat":43.29282,"lon":5.37402,"is_reserved":false,"is_disabled":false,"rental_uris":{"android":"levelo://app?vid=c233493d-7215-4892-941f-75302473b622","ios":"levelo://app?vid=c233493d-7215-4892-941f-75302473b622"},"vehicle_type_id":"4","last_reported":1779114359,"current_range_meters":6000,"station_id":"","pricing_plan_id":"cebpf4jnsgd1na2vs0mg"},{"bike_id":"6f02c462-5be8-4fd9-bd86-49563918d3d3","system_id":"levelo_inurba_marseille","lat":43.31888,"lon":5.36809,"is_reserved":false,"is_disabled":false,"rental_uris":{"android":"levelo://app?vid=6f02c462-5be8-4fd9-bd86-49563918d3d3","ios":"levelo://app?vid=6f02c462-5be8-4fd9-bd86-49563918d3d3"},"vehicle_type_id":"4","last_reported":1779114359,"current_range_meters":6000,"station_id":"st_d6o2h0d0559c73evc1b0","pricing_plan_id":"cebpf4jnsgd1na2vs0mg"},{"bike_id":"c8285c1f-86d5-41f6-8319-9b80e3266155","system_id":"levelo_inurba_marseille","lat":43.24811,"lon":5.37495,"is_reserved":false,"is_disabled":false,"rental_uris":{"android":"levelo://app?vid=c8285c1f-86d5-41f6-8319-9b80e3266155","ios":"levelo://app?vid=c8285c1f-86d5-41f6-8319-9b80e3266155"},"vehicle_type_id":"4","last_reported":1779114359,"current_range_meters":6000,"station_id":"ce4bhgh2rcd13ifvqfb0","pricing_plan_id":"cebpf4jnsgd1na2vs0mg"},{"bike_id":"9650d1c5-f311-4266-9fc3-b98eaca26889","system_id":"levelo_inurba_marseille","lat":43.28629,"lon":5.35081,"is_reserved":false,"is_disabled":false,"rental_uris":{"android":"levelo://app?vid=9650d1c5-f311-4266-9fc3-b98eaca26889","ios":"levelo://app?vid=9650d1c5-f311-4266-9fc3-b98eaca26889"},"vehicle_type_id":"4","last_reported":1779114359,"current_range_meters":6000,"station_id":"ce4bhch2rcd13ifvqeug","pricing_plan_id":"cebpf4jnsgd1na2vs0mg"},{"bike_id":"93d1b7ad-454d-44d8-b8a6-a42793a6d1e2","system_id":"levelo_inurba_marseille","lat":43.22931,"lon":5.35384,"is_reserved":false,"is_disabled":false,"rental_uris":{"android":"levelo://app?vid=93d1b7ad-454d-44d8-b8a6-a42793a6d1e2","ios":"levelo://app?vid=93d1b7ad-454d-44d8-b8a6-a42793a6d1e2"},"vehicle_type_id":"4","last_reported":1779114359,"current_range_meters":6000,"station_id":"cpo3532slgdg3j2ikp40","pricing_plan_id":"cebpf4jnsgd1na2vs0mg"},{"bike_id":"c678045f-5229-4ee0-b32e-46fc8b28cfae","system_id":"levelo_inurba_marseille","lat":43.264591,"lon":5.373972,"is_reserved":false,"is_disabled":false,"rental_uris":{"android":"levelo://app?vid=c678045f-5229-4ee0-b32e-46fc8b28cfae","ios":"levelo://app?vid=c678045f-5229-4ee0-b32e-46fc8b28cfae"},"vehicle_type_id":"4","last_reported":1779114359,"current_range_meters":6000,"station_id":"ce4bhih2rcd13ifvqfs0","pricing_plan_id":"cebpf4jnsgd1na2vs0mg"},{"bike_id":"6953f6ec-c376-4767-bfc2-637b20139890","system_id":"levelo_inurba_marseille","lat":43.280058,"lon":5.400168,"is_reserved":false,"is_disabled":false,"rental_uris":{"android":"levelo://app?vid=6953f6ec-c376-4767-bfc2-637b20139890","ios":"levelo://app?vid=6953f6ec-c376-4767-bfc2-637b20139890"},"vehicle_type_id":"4","last_reported":1779114359,"current_range_meters":6000,"station_id":"ce4bho92rcd13ifvqh4g","pricing_plan_id":"cebpf4jnsgd1na2vs0mg"},{"bike_id":"e54ea30f-3cd1-4fa1-ab2a-4ba3a51b20d6","system_id":"levelo_inurba_marseille","lat":43.23183,"lon":5.35559,"is_reserved":false,"is_disabled":true,"rental_uris":{"android":"levelo://app?vid=e54ea30f-3cd1-4fa1-ab2a-4ba3a51b20d6","ios":"levelo://app?vid=e54ea30f-3cd1-4fa1-ab2a-4ba3a51b20d6"},"vehicle_type_id":"4","last_reported":1779114359,"current_range_meters":6000,"station_id":"ce4bhu92rcd13ifvqi70","pricing_plan_id":"cebpf4jnsgd1na2vs0mg"},{"bike_id":"5c98920a-4fa0-45e0-b58b-b396950f34ec","system_id":"levelo_inurba_marseille","lat":43.30538,"lon":5.36553,"is_reserved":false,"is_disabled":false,"rental_uris":{"android":"levelo://app?vid=5c98920a-4fa0-45e0-b58b-b396950f34ec","ios":"levelo://app?vid=5c98920a-4fa0-45e0-b58b-b396950f34ec"},"vehicle_type_id":"4","last_reported":1779114359,"current_range_meters":6000,"station_id":"ce4bgs12rcd13ifvqcag","pricing_plan_id":"cebpf4jnsgd1na2vs0mg"},{"bike_id":"c3f0931a-b98e-4ec6-aa39-67278fb8aaff","system_id":"levelo_inurba_marseille","lat":43.31884,"lon":5.36789,"is_reserved":false,"is_disabled":false,"rental_uris":{"android":"levelo://app?vid=c3f0931a-b98e-4ec6-aa39-67278fb8aaff","ios":"levelo://app?vid=c3f0931a-b98e-4ec6-aa39-67278fb8aaff"},"vehicle_type_id":"4","last_reported":1779114359,"current_range_meters":6400,"station_id":"st_d6o2h0d0559c73evc1b0","pricing_plan_id":"cebpf4jnsgd1na2vs0mg"},{"bike_id":"f46dc198-f447-4b28-8d13-72a1d78dd32a","system_id":"levelo_inurba_marseille","lat":43.29014,"lon":5.35505,"is_reserved":false,"is_disabled":false,"rental_uris":{"android":"levelo://app?vid=f46dc198-f447-4b28-8d13-72a1d78dd32a","ios":"levelo://app?vid=f46dc198-f447-4b28-8d13-72a1d78dd32a"},"vehicle_type_id":"4","last_reported":1779114359,"current_range_meters":6400,"station_id":"","pricing_plan_id":"cebpf4jnsgd1na2vs0mg"},{"bike_id":"cd407622-1e1f-4716-816f-85bddf2c82ca","system_id":"levelo_inurba_marseille","lat":43.2605,"lon":5.39407,"is_reserved":false,"is_disabled":false,"rental_uris":{"android":"levelo://app?vid=cd407622-1e1f-4716-816f-85bddf2c82ca","ios":"levelo://app?vid=cd407622-1e1f-4716-816f-85bddf2c82ca"},"vehicle_type_id":"4","last_reported":1779114359,"current_range_meters":6400,"station_id":"ce4bhh92rcd13ifvqfj0","pricing_plan_id":"cebpf4jnsgd1na2vs0mg"},{"bike_id":"7b6b191c-2196-4eff-a204-e6551d1afb89","system_id":"levelo_inurba_marseille","lat":43.27072,"lon":5.38321,"is_reserved":false,"is_disabled":false,"rental_uris":{"android":"levelo://app?vid=7b6b191c-2196-4eff-a204-e6551d1afb89","ios":"levelo://app?vid=7b6b191c-2196-4eff-a204-e6551d1afb89"},"vehicle_type_id":"4","last_reported":1779114359,"current_range_meters":6400,"station_id":"st_d3n2fo6cfp8s73cte1j0","pricing_plan_id":"cebpf4jnsgd1na2vs0mg"},{"bike_id":"f994d3c5-566b-4380-8ab8-56940a095c3c","system_id":"levelo_inurba_marseille","lat":43.29879,"lon":5.39741,"is_reserved":false,"is_disabled":false,"rental_uris":{"android":"levelo://app?vid=f994d3c5-566b-4380-8ab8-56940a095c3c","ios":"levelo://app?vid=f994d3c5-566b-4380-8ab8-56940a095c3c"},"vehicle_type_id":"4","last_reported":1779114359,"current_range_meters":6400,"station_id":"ce4bh0h2rcd13ifvqd50","pricing_plan_id":"cebpf4jnsgd1na2vs0mg"},{"bike_id":"db960f4a-934d-42fd-bf86-106830c47c14","system_id":"levelo_inurba_marseille","lat":43.26217,"lon":5.37475,"is_reserved":false,"is_disabled":false,"rental_uris":{"android":"levelo://app?vid=db960f4a-934d-42fd-bf86-106830c47c14","ios":"levelo://app?vid=db960f4a-934d-42fd-bf86-106830c47c14"},"vehicle_type_id":"4","last_reported":1779114359,"current_range_meters":6400,"station_id":"ce4bhgp2rcd13ifvqfc0","pricing_plan_id":"cebpf4jnsgd1na2vs0mg"},{"bike_id":"00270b55-c951-4a5b-99d4-6257401e8b17","system_id":"levelo_inurba_marseille","lat":43.28468,"lon":5.3843,"is_reserved":false,"is_disabled":false,"rental_uris":{"android":"levelo://app?vid=00270b55-c951-4a5b-99d4-6257401e8b17","ios":"levelo://app?vid=00270b55-c951-4a5b-99d4-6257401e8b17"},"vehicle_type_id":"4","last_reported":1779114359,"current_range_meters":6400,"station_id":"ce4bh512rcd13ifvqe3g","pricing_plan_id":"cebpf4jnsgd1na2vs0mg"},{"bike_id":"56611aee-4a97-497f-a541-b301e0a4b4f4","system_id":"levelo_inurba_marseille","lat":43.33245,"lon":5.40619,"is_reserved":false,"is_disabled":false,"rental_uris":{"android":"levelo://app?vid=56611aee-4a97-497f-a541-b301e0a4b4f4","ios":"levelo://app?vid=56611aee-4a97-497f-a541-b301e0a4b4f4"},"vehicle_type_id":"4","last_reported":1779114359,"current_range_meters":6400,"station_id":"","pricing_plan_id":"cebpf4jnsgd1na2vs0mg"},{"bike_id":"3eeb36ab-4b91-458b-9526-abdf0950c22e","system_id":"levelo_inurba_marseille","lat":43.23194,"lon":5.35554,"is_reserved":false,"is_disabled":false,"rental_uris":{"android":"levelo://app?vid=3eeb36ab-4b91-458b-9526-abdf0950c22e","ios":"levelo://app?vid=3eeb36ab-4b91-458b-9526-abdf0950c22e"},"vehicle_type_id":"4","last_reported":1779114359,"current_range_meters":6400,"station_id":"ce4bhu92rcd13ifvqi70","pricing_plan_id":"cebpf4jnsgd1na2vs0mg"},{"bike_id":"12c3dc64-bc7e-42d4-bcf2-f2fa684c11e1","system_id":"levelo_inurba_marseille","lat":43.292573,"lon":5.376256,"is_reserved":false,"is_disabled":false,"rental_uris":{"android":"levelo://app?vid=12c3dc64-bc7e-42d4-bcf2-f2fa684c11e1","ios":"levelo://app?vid=12c3dc64-bc7e-42d4-bcf2-f2fa684c11e1"},"vehicle_type_id":"4","last_reported":1779114359,"current_range_meters":6400,"station_id":"ce4bgi12rcd13ifvqb80","pricing_plan_id":"cebpf4jnsgd1na2vs0mg"},{"bike_id":"f29b1b84-c90f-4681-9d2c-6caf7d86919c","system_id":"levelo_inurba_marseille","lat":43.23969,"lon":5.36635,"is_reserved":false,"is_disabled":false,"rental_uris":{"android":"levelo://app?vid=f29b1b84-c90f-4681-9d2c-6caf7d86919c","ios":"levelo://app?vid=f29b1b84-c90f-4681-9d2c-6caf7d86919c"},"vehicle_type_id":"4","last_reported":1779114359,"current_range_meters":6400,"station_id":"ce4bhi12rcd13ifvqfp0","pricing_plan_id":"cebpf4jnsgd1na2vs0mg"},{"bike_id":"cff954db-091c-4213-a522-81eeb3241a34","system_id":"levelo_inurba_marseille","lat":43.28716,"lon":5.37408,"is_reserved":false,"is_disabled":false,"rental_uris":{"android":"levelo://app?vid=cff954db-091c-4213-a522-81eeb3241a34","ios":"levelo://app?vid=cff954db-091c-4213-a522-81eeb3241a34"},"vehicle_type_id":"4","last_reported":1779114359,"current_range_meters":6400,"station_id":"ce4bh3p2rcd13ifvqdq0","pricing_plan_id":"cebpf4jnsgd1na2vs0mg"},{"bike_id":"a6fcac36-a54f-49dd-8dd9-82d703a9b9b4","system_id":"levelo_inurba_marseille","lat":43.25577,"lon":5.38231,"is_reserved":false,"is_disabled":false,"rental_uris":{"android":"levelo://app?vid=a6fcac36-a54f-49dd-8dd9-82d703a9b9b4","ios":"levelo://app?vid=a6fcac36-a54f-49dd-8dd9-82d703a9b9b4"},"vehicle_type_id":"4","last_reported":1779114359,"current_range_meters":6400,"station_id":"ce4bhih2rcd13ifvqfs0","pricing_plan_id":"cebpf4jnsgd1na2vs0mg"},{"bike_id":"5064e4d1-a4b8-4d4d-9cf4-b90eda56c5de","system_id":"levelo_inurba_marseille","lat":43.33532,"lon":5.37513,"is_reserved":false,"is_disabled":false,"rental_uris":{"android":"levelo://app?vid=5064e4d1-a4b8-4d4d-9cf4-b90eda56c5de","ios":"levelo://app?vid=5064e4d1-a4b8-4d4d-9cf4-b90eda56c5de"},"vehicle_type_id":"4","last_reported":1779114359,"current_range_meters":6400,"station_id":"","pricing_plan_id":"cebpf4jnsgd1na2vs0mg"},{"bike_id":"19cf5c86-2ba5-4747-9069-858830f978a6","system_id":"levelo_inurba_marseille","lat":43.27332,"lon":5.39105,"is_reserved":false,"is_disabled":false,"rental_uris":{"android":"levelo://app?vid=19cf5c86-2ba5-4747-9069-858830f978a6","ios":"levelo://app?vid=19cf5c86-2ba5-4747-9069-858830f978a6"},"vehicle_type_id":"4","last_reported":1779114359,"current_range_meters":6800,"station_id":"ce4bhgp2rcd13ifvqfe0","pricing_plan_id":"cebpf4jnsgd1na2vs0mg"},{"bike_id":"337944ab-2471-4b0c-aa3d-b9012fa440d2","system_id":"levelo_inurba_marseille","lat":43.30535,"lon":5.36566,"is_reserved":false,"is_disabled":false,"rental_uris":{"android":"levelo://app?vid=337944ab-2471-4b0c-aa3d-b9012fa440d2","ios":"levelo://app?vid=337944ab-2471-4b0c-aa3d-b9012fa440d2"},"vehicle_type_id":"4","last_reported":1779114359,"current_range_meters":6800,"station_id":"ce4bgs12rcd13ifvqcag","pricing_plan_id":"cebpf4jnsgd1na2vs0mg"},{"bike_id":"920ccf14-9dfe-4314-9ad3-be4823b9f383","system_id":"levelo_inurba_marseille","lat":43.29907,"lon":5.37465,"is_reserved":false,"is_disabled":false,"rental_uris":{"android":"levelo://app?vid=920ccf14-9dfe-4314-9ad3-be4823b9f383","ios":"levelo://app?vid=920ccf14-9dfe-4314-9ad3-be4823b9f383"},"vehicle_type_id":"4","last_reported":1779114359,"current_range_meters":6800,"station_id":"ce4bgjh2rcd13ifvqbg0","pricing_plan_id":"cebpf4jnsgd1na2vs0mg"},{"bike_id":"42707d6f-4581-4bd7-a210-c1a06576b84d","system_id":"levelo_inurba_marseille","lat":43.26558,"lon":5.40327,"is_reserved":false,"is_disabled":false,"rental_uris":{"android":"levelo://app?vid=42707d6f-4581-4bd7-a210-c1a06576b84d","ios":"levelo://app?vid=42707d6f-4581-4bd7-a210-c1a06576b84d"},"vehicle_type_id":"4","last_reported":1779114359,"current_range_meters":6800,"station_id":"ce4bhmp2rcd13ifvqgng","pricing_plan_id":"cebpf4jnsgd1na2vs0mg"},{"bike_id":"f0155b3f-a757-41e6-a885-d929684d0a3c","system_id":"levelo_inurba_marseille","lat":43.30605,"lon":5.36558,"is_reserved":false,"is_disabled":false,"rental_uris":{"android":"levelo://app?vid=f0155b3f-a757-41e6-a885-d929684d0a3c","ios":"levelo://app?vid=f0155b3f-a757-41e6-a885-d929684d0a3c"},"vehicle_type_id":"4","last_reported":1779114359,"current_range_meters":6800,"station_id":"ce4bgs12rcd13ifvqcag","pricing_plan_id":"cebpf4jnsgd1na2vs0mg"},{"bike_id":"e5d3f8e5-7fc2-4063-b550-2d1f9611ba34","system_id":"levelo_inurba_marseille","lat":43.21176,"lon":5.35099,"is_reserved":false,"is_disabled":false,"rental_uris":{"android":"levelo://app?vid=e5d3f8e5-7fc2-4063-b550-2d1f9611ba34","ios":"levelo://app?vid=e5d3f8e5-7fc2-4063-b550-2d1f9611ba34"},"vehicle_type_id":"4","last_reported":1779114359,"current_range_meters":6800,"station_id":"st_cvj6sg6p6f1abm77japg","pricing_plan_id":"cebpf4jnsgd1na2vs0mg"},{"bike_id":"6af654b7-7a8b-457b-ad58-fba21b09801a","system_id":"levelo_inurba_marseille","lat":43.32082,"lon":5.36786,"is_reserved":false,"is_disabled":false,"rental_uris":{"android":"levelo://app?vid=6af654b7-7a8b-457b-ad58-fba21b09801a","ios":"levelo://app?vid=6af654b7-7a8b-457b-ad58-fba21b09801a"},"vehicle_type_id":"4","last_reported":1779114359,"current_range_meters":6800,"station_id":"ce4bhrh2rcd13ifvqhug","pricing_plan_id":"cebpf4jnsgd1na2vs0mg"},{"bike_id":"d80ee3ed-e49c-4dab-a7b5-1955512632d7","system_id":"levelo_inurba_marseille","lat":43.23896,"lon":5.37465,"is_reserved":false,"is_disabled":false,"rental_uris":{"android":"levelo://app?vid=d80ee3ed-e49c-4dab-a7b5-1955512632d7","ios":"levelo://app?vid=d80ee3ed-e49c-4dab-a7b5-1955512632d7"},"vehicle_type_id":"4","last_reported":1779114359,"current_range_meters":6800,"station_id":"","pricing_plan_id":"cebpf4jnsgd1na2vs0mg"},{"bike_id":"cea82d9d-b476-45ee-8064-598c347245d6","system_id":"levelo_inurba_marseille","lat":43.292008,"lon":5.357967,"is_reserved":false,"is_disabled":false,"rental_uris":{"android":"levelo://app?vid=cea82d9d-b476-45ee-8064-598c347245d6","ios":"levelo://app?vid=cea82d9d-b476-45ee-8064-598c347245d6"},"vehicle_type_id":"4","last_reported":1779114359,"current_range_meters":6800,"station_id":"ce4bhb12rcd13ifvqel0","pricing_plan_id":"cebpf4jnsgd1na2vs0mg"},{"bike_id":"033509a1-ede6-4701-8a20-cefe5dd573c1","system_id":"levelo_inurba_marseille","lat":43.21207,"lon":5.35093,"is_reserved":false,"is_disabled":false,"rental_uris":{"android":"levelo://app?vid=033509a1-ede6-4701-8a20-cefe5dd573c1","ios":"levelo://app?vid=033509a1-ede6-4701-8a20-cefe5dd573c1"},"vehicle_type_id":"4","last_reported":1779114359,"current_range_meters":6800,"station_id":"st_cvj6sg6p6f1abm77japg","pricing_plan_id":"cebpf4jnsgd1na2vs0mg"},{"bike_id":"5a1c8a28-d79f-4b07-a4d8-bce75ba2c426","system_id":"levelo_inurba_marseille","lat":43.25844,"lon":5.39942,"is_reserved":false,"is_disabled":true,"rental_uris":{"android":"levelo://app?vid=5a1c8a28-d79f-4b07-a4d8-bce75ba2c426","ios":"levelo://app?vid=5a1c8a28-d79f-4b07-a4d8-bce75ba2c426"},"vehicle_type_id":"4","last_reported":1779114359,"current_range_meters":7200,"station_id":"ce4bhl92rcd13ifvqghg","pricing_plan_id":"cebpf4jnsgd1na2vs0mg"},{"bike_id":"139da8c0-4a36-4fe0-a828-69f137ae30da","system_id":"levelo_inurba_marseille","lat":43.25501,"lon":5.37675,"is_reserved":false,"is_disabled":true,"rental_uris":{"android":"levelo://app?vid=139da8c0-4a36-4fe0-a828-69f137ae30da","ios":"levelo://app?vid=139da8c0-4a36-4fe0-a828-69f137ae30da"},"vehicle_type_id":"4","last_reported":1779114359,"current_range_meters":7200,"station_id":"ce4bhh12rcd13ifvqff0","pricing_plan_id":"cebpf4jnsgd1na2vs0mg"},{"bike_id":"faa06730-cf85-4be3-9b7d-be3ca98c7110","system_id":"levelo_inurba_marseille","lat":43.23153,"lon":5.43713,"is_reserved":false,"is_disabled":false,"rental_uris":{"android":"levelo://app?vid=faa06730-cf85-4be3-9b7d-be3ca98c7110","ios":"levelo://app?vid=faa06730-cf85-4be3-9b7d-be3ca98c7110"},"vehicle_type_id":"4","last_reported":1779114359,"current_range_meters":7200,"station_id":"ce4bhmp2rcd13ifvqgog","pricing_plan_id":"cebpf4jnsgd1na2vs0mg"},{"bike_id":"1c2eb4d1-e613-4047-a77c-317fbe0accea","system_id":"levelo_inurba_marseille","lat":43.29253,"lon":5.38434,"is_reserved":false,"is_disabled":true,"rental_uris":{"android":"levelo://app?vid=1c2eb4d1-e613-4047-a77c-317fbe0accea","ios":"levelo://app?vid=1c2eb4d1-e613-4047-a77c-317fbe0accea"},"vehicle_type_id":"4","last_reported":1779114359,"current_range_meters":7200,"station_id":"ce4bh692rcd13ifvqea0","pricing_plan_id":"cebpf4jnsgd1na2vs0mg"},{"bike_id":"9951e3d0-ea88-40ac-8b45-4b649cf1abb2","system_id":"levelo_inurba_marseille","lat":43.2407,"lon":5.37769,"is_reserved":false,"is_disabled":false,"rental_uris":{"android":"levelo://app?vid=9951e3d0-ea88-40ac-8b45-4b649cf1abb2","ios":"levelo://app?vid=9951e3d0-ea88-40ac-8b45-4b649cf1abb2"},"vehicle_type_id":"4","last_reported":1779114359,"current_range_meters":7200,"station_id":"ce4bhnp2rcd13ifvqgvg","pricing_plan_id":"cebpf4jnsgd1na2vs0mg"},{"bike_id":"10c40cfe-a85e-4b41-8bf4-cac807013e28","system_id":"levelo_inurba_marseille","lat":43.29586,"lon":5.37508,"is_reserved":false,"is_disabled":false,"rental_uris":{"android":"levelo://app?vid=10c40cfe-a85e-4b41-8bf4-cac807013e28","ios":"levelo://app?vid=10c40cfe-a85e-4b41-8bf4-cac807013e28"},"vehicle_type_id":"4","last_reported":1779114359,"current_range_meters":7200,"station_id":"ce4bgh92rcd13ifvqb50","pricing_plan_id":"cebpf4jnsgd1na2vs0mg"},{"bike_id":"8b40f371-b5b3-4fc4-8d18-2cb1fc4066c3","system_id":"levelo_inurba_marseille","lat":43.28931,"lon":5.38403,"is_reserved":false,"is_disabled":true,"rental_uris":{"android":"levelo://app?vid=8b40f371-b5b3-4fc4-8d18-2cb1fc4066c3","ios":"levelo://app?vid=8b40f371-b5b3-4fc4-8d18-2cb1fc4066c3"},"vehicle_type_id":"4","last_reported":1779114359,"current_range_meters":7200,"station_id":"ce4bh612rcd13ifvqe6g","pricing_plan_id":"cebpf4jnsgd1na2vs0mg"},{"bike_id":"428a210f-87f7-428f-9ac4-76d179596d35","system_id":"levelo_inurba_marseille","lat":43.285621,"lon":5.395047,"is_reserved":false,"is_disabled":true,"rental_uris":{"android":"levelo://app?vid=428a210f-87f7-428f-9ac4-76d179596d35","ios":"levelo://app?vid=428a210f-87f7-428f-9ac4-76d179596d35"},"vehicle_type_id":"4","last_reported":1779114359,"current_range_meters":7200,"station_id":"ce4bh292rcd13ifvqdg0","pricing_plan_id":"cebpf4jnsgd1na2vs0mg"},{"bike_id":"9e2fe2f7-d6df-4ab9-966a-e0a262530a00","system_id":"levelo_inurba_marseille","lat":43.24796,"lon":5.37451,"is_reserved":false,"is_disabled":false,"rental_uris":{"android":"levelo://app?vid=9e2fe2f7-d6df-4ab9-966a-e0a262530a00","ios":"levelo://app?vid=9e2fe2f7-d6df-4ab9-966a-e0a262530a00"},"vehicle_type_id":"4","last_reported":1779114359,"current_range_meters":7200,"station_id":"ce4bhgh2rcd13ifvqfb0","pricing_plan_id":"cebpf4jnsgd1na2vs0mg"},{"bike_id":"07525efe-c7d2-4cca-8bde-688b5bfac739","system_id":"levelo_inurba_marseille","lat":43.30951,"lon":5.39031,"is_reserved":false,"is_disabled":false,"rental_uris":{"android":"levelo://app?vid=07525efe-c7d2-4cca-8bde-688b5bfac739","ios":"levelo://app?vid=07525efe-c7d2-4cca-8bde-688b5bfac739"},"vehicle_type_id":"4","last_reported":1779114359,"current_range_meters":7200,"station_id":"ce4bgup2rcd13ifvqco0","pricing_plan_id":"cebpf4jnsgd1na2vs0mg"},{"bike_id":"273c8a61-d90a-4ba5-9b56-f7e62abf2feb","system_id":"levelo_inurba_marseille","lat":43.25823,"lon":5.39436,"is_reserved":false,"is_disabled":false,"rental_uris":{"android":"levelo://app?vid=273c8a61-d90a-4ba5-9b56-f7e62abf2feb","ios":"levelo://app?vid=273c8a61-d90a-4ba5-9b56-f7e62abf2feb"},"vehicle_type_id":"4","last_reported":1779114359,"current_range_meters":7200,"station_id":"ce4bhip2rcd13ifvqft0","pricing_plan_id":"cebpf4jnsgd1na2vs0mg"},{"bike_id":"54385ccb-8ab7-4394-846d-3cf2837dc911","system_id":"levelo_inurba_marseille","lat":43.26777,"lon":5.39421,"is_reserved":false,"is_disabled":false,"rental_uris":{"android":"levelo://app?vid=54385ccb-8ab7-4394-846d-3cf2837dc911","ios":"levelo://app?vid=54385ccb-8ab7-4394-846d-3cf2837dc911"},"vehicle_type_id":"4","last_reported":1779114359,"current_range_meters":7200,"station_id":"ce4bhh12rcd13ifvqfg0","pricing_plan_id":"cebpf4jnsgd1na2vs0mg"},{"bike_id":"80cc7be8-e95e-4d57-afd7-767e38f6fffc","system_id":"levelo_inurba_marseille","lat":43.29766,"lon":5.42776,"is_reserved":false,"is_disabled":false,"rental_uris":{"android":"levelo://app?vid=80cc7be8-e95e-4d57-afd7-767e38f6fffc","ios":"levelo://app?vid=80cc7be8-e95e-4d57-afd7-767e38f6fffc"},"vehicle_type_id":"4","last_reported":1779114359,"current_range_meters":7200,"station_id":"st_d3md5207bmas73dh9klg","pricing_plan_id":"cebpf4jnsgd1na2vs0mg"},{"bike_id":"00f6a363-b41e-43af-a05c-4ab2328420e2","system_id":"levelo_inurba_marseille","lat":43.25581,"lon":5.38237,"is_reserved":false,"is_disabled":false,"rental_uris":{"android":"levelo://app?vid=00f6a363-b41e-43af-a05c-4ab2328420e2","ios":"levelo://app?vid=00f6a363-b41e-43af-a05c-4ab2328420e2"},"vehicle_type_id":"4","last_reported":1779114359,"current_range_meters":7200,"station_id":"ce4bhih2rcd13ifvqfs0","pricing_plan_id":"cebpf4jnsgd1na2vs0mg"},{"bike_id":"1d6e1a2c-a21b-4ff1-8563-8939f62d204a","system_id":"levelo_inurba_marseille","lat":43.28272,"lon":5.35073,"is_reserved":false,"is_disabled":false,"rental_uris":{"android":"levelo://app?vid=1d6e1a2c-a21b-4ff1-8563-8939f62d204a","ios":"levelo://app?vid=1d6e1a2c-a21b-4ff1-8563-8939f62d204a"},"vehicle_type_id":"4","last_reported":1779114359,"current_range_meters":7200,"station_id":"ce4bhbp2rcd13ifvqerg","pricing_plan_id":"cebpf4jnsgd1na2vs0mg"},{"bike_id":"9c0b5568-112f-4925-adf1-e9e3b0d18590","system_id":"levelo_inurba_marseille","lat":43.21217,"lon":5.35072,"is_reserved":false,"is_disabled":false,"rental_uris":{"android":"levelo://app?vid=9c0b5568-112f-4925-adf1-e9e3b0d18590","ios":"levelo://app?vid=9c0b5568-112f-4925-adf1-e9e3b0d18590"},"vehicle_type_id":"4","last_reported":1779114359,"current_range_meters":7200,"station_id":"st_cvj6sg6p6f1abm77japg","pricing_plan_id":"cebpf4jnsgd1na2vs0mg"},{"bike_id":"b43670d6-d8c1-4e83-84f3-73ba44111c72","system_id":"levelo_inurba_marseille","lat":43.27997,"lon":5.41661,"is_reserved":false,"is_disabled":false,"rental_uris":{"android":"levelo://app?vid=b43670d6-d8c1-4e83-84f3-73ba44111c72","ios":"levelo://app?vid=b43670d6-d8c1-4e83-84f3-73ba44111c72"},"vehicle_type_id":"4","last_reported":1779114359,"current_range_meters":7200,"station_id":"ce4bho12rcd13ifvqh1g","pricing_plan_id":"cebpf4jnsgd1na2vs0mg"},{"bike_id":"a716bf8d-78a1-41d8-9f54-3f1609368536","system_id":"levelo_inurba_marseille","lat":43.30732,"lon":5.42451,"is_reserved":false,"is_disabled":false,"rental_uris":{"android":"levelo://app?vid=a716bf8d-78a1-41d8-9f54-3f1609368536","ios":"levelo://app?vid=a716bf8d-78a1-41d8-9f54-3f1609368536"},"vehicle_type_id":"4","last_reported":1779114359,"current_range_meters":7200,"station_id":"st_cvj6ca6bvosntc0bfgr0","pricing_plan_id":"cebpf4jnsgd1na2vs0mg"},{"bike_id":"a0d1cddd-fd42-485a-8a8e-61016492a652","system_id":"levelo_inurba_marseille","lat":43.26023,"lon":5.37545,"is_reserved":false,"is_disabled":false,"rental_uris":{"android":"levelo://app?vid=a0d1cddd-fd42-485a-8a8e-61016492a652","ios":"levelo://app?vid=a0d1cddd-fd42-485a-8a8e-61016492a652"},"vehicle_type_id":"4","last_reported":1779114359,"current_range_meters":8000,"station_id":"ce4bhgh2rcd13ifvqfa0","pricing_plan_id":"cebpf4jnsgd1na2vs0mg"},{"bike_id":"addcdd95-92f1-4085-b077-e57d382466cb","system_id":"levelo_inurba_marseille","lat":43.29004,"lon":5.35619,"is_reserved":false,"is_disabled":true,"rental_uris":{"android":"levelo://app?vid=addcdd95-92f1-4085-b077-e57d382466cb","ios":"levelo://app?vid=addcdd95-92f1-4085-b077-e57d382466cb"},"vehicle_type_id":"4","last_reported":1779114359,"current_range_meters":8000,"station_id":"ce4bhb92rcd13ifvqen0","pricing_plan_id":"cebpf4jnsgd1na2vs0mg"},{"bike_id":"f812da9d-0a65-4440-a8f6-15291fbcc78b","system_id":"levelo_inurba_marseille","lat":43.28423,"lon":5.37551,"is_reserved":false,"is_disabled":false,"rental_uris":{"android":"levelo://app?vid=f812da9d-0a65-4440-a8f6-15291fbcc78b","ios":"levelo://app?vid=f812da9d-0a65-4440-a8f6-15291fbcc78b"},"vehicle_type_id":"4","last_reported":1779114359,"current_range_meters":8000,"station_id":"ce4bh412rcd13ifvqds0","pricing_plan_id":"cebpf4jnsgd1na2vs0mg"},{"bike_id":"1f8259a9-7e55-4812-b53f-6d999496a759","system_id":"levelo_inurba_marseille","lat":43.28738,"lon":5.46718,"is_reserved":false,"is_disabled":false,"rental_uris":{"android":"levelo://app?vid=1f8259a9-7e55-4812-b53f-6d999496a759","ios":"levelo://app?vid=1f8259a9-7e55-4812-b53f-6d999496a759"},"vehicle_type_id":"4","last_reported":1779114359,"current_range_meters":8000,"station_id":"st_d6tc3vkotcvc738tfjhg","pricing_plan_id":"cebpf4jnsgd1na2vs0mg"},{"bike_id":"0e224c9f-6542-4f28-9058-6a1284de25c7","system_id":"levelo_inurba_marseille","lat":43.28465,"lon":5.38457,"is_reserved":false,"is_disabled":false,"rental_uris":{"android":"levelo://app?vid=0e224c9f-6542-4f28-9058-6a1284de25c7","ios":"levelo://app?vid=0e224c9f-6542-4f28-9058-6a1284de25c7"},"vehicle_type_id":"4","last_reported":1779114359,"current_range_meters":8000,"station_id":"ce4bh512rcd13ifvqe3g","pricing_plan_id":"cebpf4jnsgd1na2vs0mg"},{"bike_id":"2dce65cd-bdd0-4a47-9756-d5f1f5f9ad1e","system_id":"levelo_inurba_marseille","lat":43.225329,"lon":5.348395,"is_reserved":false,"is_disabled":false,"rental_uris":{"android":"levelo://app?vid=2dce65cd-bdd0-4a47-9756-d5f1f5f9ad1e","ios":"levelo://app?vid=2dce65cd-bdd0-4a47-9756-d5f1f5f9ad1e"},"vehicle_type_id":"4","last_reported":1779114359,"current_range_meters":8000,"station_id":"st_cvj5dfep6f1abm77gieg","pricing_plan_id":"cebpf4jnsgd1na2vs0mg"},{"bike_id":"d8ee7cee-2c1f-40c0-895b-29298c6d2062","system_id":"levelo_inurba_marseille","lat":43.341437,"lon":5.409103,"is_reserved":false,"is_disabled":false,"rental_uris":{"android":"levelo://app?vid=d8ee7cee-2c1f-40c0-895b-29298c6d2062","ios":"levelo://app?vid=d8ee7cee-2c1f-40c0-895b-29298c6d2062"},"vehicle_type_id":"4","last_reported":1779114359,"current_range_meters":8000,"station_id":"ce4bhqh2rcd13ifvqhlg","pricing_plan_id":"cebpf4jnsgd1na2vs0mg"},{"bike_id":"5532ca1a-3ed8-421f-93a9-0599843d28e8","system_id":"levelo_inurba_marseille","lat":43.23898,"lon":5.37473,"is_reserved":false,"is_disabled":false,"rental_uris":{"android":"levelo://app?vid=5532ca1a-3ed8-421f-93a9-0599843d28e8","ios":"levelo://app?vid=5532ca1a-3ed8-421f-93a9-0599843d28e8"},"vehicle_type_id":"4","last_reported":1779114359,"current_range_meters":8000,"station_id":"st_d6sm7csbq4hs73f8fpjg","pricing_plan_id":"cebpf4jnsgd1na2vs0mg"},{"bike_id":"8f6fb70f-9962-4c14-afae-9cd42b60f2ca","system_id":"levelo_inurba_marseille","lat":43.26774,"lon":5.39438,"is_reserved":false,"is_disabled":true,"rental_uris":{"android":"levelo://app?vid=8f6fb70f-9962-4c14-afae-9cd42b60f2ca","ios":"levelo://app?vid=8f6fb70f-9962-4c14-afae-9cd42b60f2ca"},"vehicle_type_id":"4","last_reported":1779114359,"current_range_meters":8000,"station_id":"ce4bhh12rcd13ifvqfg0","pricing_plan_id":"cebpf4jnsgd1na2vs0mg"},{"bike_id":"b68e033c-c586-4a14-af26-11ad2151b12d","system_id":"levelo_inurba_marseille","lat":43.27323,"lon":5.39076,"is_reserved":false,"is_disabled":false,"rental_uris":{"android":"levelo://app?vid=b68e033c-c586-4a14-af26-11ad2151b12d","ios":"levelo://app?vid=b68e033c-c586-4a14-af26-11ad2151b12d"},"vehicle_type_id":"4","last_reported":1779114359,"current_range_meters":8000,"station_id":"ce4bhgp2rcd13ifvqfe0","pricing_plan_id":"cebpf4jnsgd1na2vs0mg"},{"bike_id":"b9ca77f1-80fa-475b-9a37-ec72feacc5df","system_id":"levelo_inurba_marseille","lat":43.29799,"lon":5.44054,"is_reserved":false,"is_disabled":false,"rental_uris":{"android":"levelo://app?vid=b9ca77f1-80fa-475b-9a37-ec72feacc5df","ios":"levelo://app?vid=b9ca77f1-80fa-475b-9a37-ec72feacc5df"},"vehicle_type_id":"4","last_reported":1779114359,"current_range_meters":8000,"station_id":"st_d3jp68qikq2c7381ktn0","pricing_plan_id":"cebpf4jnsgd1na2vs0mg"},{"bike_id":"17ba3c19-387f-4e2e-b73c-a02294ccdd28","system_id":"levelo_inurba_marseille","lat":43.22578,"lon":5.41708,"is_reserved":false,"is_disabled":false,"rental_uris":{"android":"levelo://app?vid=17ba3c19-387f-4e2e-b73c-a02294ccdd28","ios":"levelo://app?vid=17ba3c19-387f-4e2e-b73c-a02294ccdd28"},"vehicle_type_id":"4","last_reported":1779114359,"current_range_meters":8000,"station_id":"","pricing_plan_id":"cebpf4jnsgd1na2vs0mg"},{"bike_id":"3ffbca03-d979-4d9f-9fc0-f4a4f9b37c11","system_id":"levelo_inurba_marseille","lat":43.21193,"lon":5.3508,"is_reserved":false,"is_disabled":false,"rental_uris":{"android":"levelo://app?vid=3ffbca03-d979-4d9f-9fc0-f4a4f9b37c11","ios":"levelo://app?vid=3ffbca03-d979-4d9f-9fc0-f4a4f9b37c11"},"vehicle_type_id":"4","last_reported":1779114359,"current_range_meters":8000,"station_id":"st_cvj6sg6p6f1abm77japg","pricing_plan_id":"cebpf4jnsgd1na2vs0mg"},{"bike_id":"c0d467e6-6fef-4d21-8af4-af3c30cfe717","system_id":"levelo_inurba_marseille","lat":43.29794,"lon":5.36497,"is_reserved":false,"is_disabled":false,"rental_uris":{"android":"levelo://app?vid=c0d467e6-6fef-4d21-8af4-af3c30cfe717","ios":"levelo://app?vid=c0d467e6-6fef-4d21-8af4-af3c30cfe717"},"vehicle_type_id":"4","last_reported":1779114359,"current_range_meters":8000,"station_id":"","pricing_plan_id":"cebpf4jnsgd1na2vs0mg"},{"bike_id":"4b2d9ecf-712a-41de-98d8-434757e2035a","system_id":"levelo_inurba_marseille","lat":43.293,"lon":5.37169,"is_reserved":false,"is_disabled":false,"rental_uris":{"android":"levelo://app?vid=4b2d9ecf-712a-41de-98d8-434757e2035a","ios":"levelo://app?vid=4b2d9ecf-712a-41de-98d8-434757e2035a"},"vehicle_type_id":"4","last_reported":1779114359,"current_range_meters":8000,"station_id":"ce4bgh92rcd13ifvqb40","pricing_plan_id":"cebpf4jnsgd1na2vs0mg"},{"bike_id":"e69e7aaf-ae5e-4aa4-919d-5ae59b98ed84","system_id":"levelo_inurba_marseille","lat":43.28427,"lon":5.35002,"is_reserved":false,"is_disabled":false,"rental_uris":{"android":"levelo://app?vid=e69e7aaf-ae5e-4aa4-919d-5ae59b98ed84","ios":"levelo://app?vid=e69e7aaf-ae5e-4aa4-919d-5ae59b98ed84"},"vehicle_type_id":"4","last_reported":1779114359,"current_range_meters":8000,"station_id":"ce4bhbh2rcd13ifvqepg","pricing_plan_id":"cebpf4jnsgd1na2vs0mg"},{"bike_id":"211a93c7-796e-46c9-be6f-b2ff16183c09","system_id":"levelo_inurba_marseille","lat":43.21231,"lon":5.3511,"is_reserved":false,"is_disabled":false,"rental_uris":{"android":"levelo://app?vid=211a93c7-796e-46c9-be6f-b2ff16183c09","ios":"levelo://app?vid=211a93c7-796e-46c9-be6f-b2ff16183c09"},"vehicle_type_id":"4","last_reported":1779114359,"current_range_meters":8000,"station_id":"","pricing_plan_id":"cebpf4jnsgd1na2vs0mg"},{"bike_id":"44eeaa05-498c-44d2-b86e-caba013d027b","system_id":"levelo_inurba_marseille","lat":43.2975,"lon":5.42751,"is_reserved":false,"is_disabled":false,"rental_uris":{"android":"levelo://app?vid=44eeaa05-498c-44d2-b86e-caba013d027b","ios":"levelo://app?vid=44eeaa05-498c-44d2-b86e-caba013d027b"},"vehicle_type_id":"4","last_reported":1779114359,"current_range_meters":8000,"station_id":"st_d3md5207bmas73dh9klg","pricing_plan_id":"cebpf4jnsgd1na2vs0mg"},{"bike_id":"1778bc71-bd85-4eb7-9ae8-824d7542fb47","system_id":"levelo_inurba_marseille","lat":43.28696,"lon":5.46687,"is_reserved":false,"is_disabled":false,"rental_uris":{"android":"levelo://app?vid=1778bc71-bd85-4eb7-9ae8-824d7542fb47","ios":"levelo://app?vid=1778bc71-bd85-4eb7-9ae8-824d7542fb47"},"vehicle_type_id":"4","last_reported":1779114359,"current_range_meters":8000,"station_id":"st_d6tc3vkotcvc738tfjhg","pricing_plan_id":"cebpf4jnsgd1na2vs0mg"},{"bike_id":"3467f6e8-d4b1-4c81-83eb-9bfd2f1ebb8f","system_id":"levelo_inurba_marseille","lat":43.27992,"lon":5.40014,"is_reserved":false,"is_disabled":false,"rental_uris":{"android":"levelo://app?vid=3467f6e8-d4b1-4c81-83eb-9bfd2f1ebb8f","ios":"levelo://app?vid=3467f6e8-d4b1-4c81-83eb-9bfd2f1ebb8f"},"vehicle_type_id":"4","last_reported":1779114359,"current_range_meters":8000,"station_id":"ce4bho92rcd13ifvqh4g","pricing_plan_id":"cebpf4jnsgd1na2vs0mg"},{"bike_id":"0996956d-2f84-4490-b61d-b12efce54d59","system_id":"levelo_inurba_marseille","lat":43.27066,"lon":5.40297,"is_reserved":false,"is_disabled":false,"rental_uris":{"android":"levelo://app?vid=0996956d-2f84-4490-b61d-b12efce54d59","ios":"levelo://app?vid=0996956d-2f84-4490-b61d-b12efce54d59"},"vehicle_type_id":"4","last_reported":1779114359,"current_range_meters":8400,"station_id":"ce4bhk92rcd13ifvqgc0","pricing_plan_id":"cebpf4jnsgd1na2vs0mg"},{"bike_id":"f953e7df-9a8f-4f8e-8e56-6a5db7d34d82","system_id":"levelo_inurba_marseille","lat":43.269189,"lon":5.380411,"is_reserved":false,"is_disabled":false,"rental_uris":{"android":"levelo://app?vid=f953e7df-9a8f-4f8e-8e56-6a5db7d34d82","ios":"levelo://app?vid=f953e7df-9a8f-4f8e-8e56-6a5db7d34d82"},"vehicle_type_id":"4","last_reported":1779114359,"current_range_meters":8400,"station_id":"","pricing_plan_id":"cebpf4jnsgd1na2vs0mg"},{"bike_id":"32bb851f-5556-4431-ae90-09358d24cf84","system_id":"levelo_inurba_marseille","lat":43.30884,"lon":5.36844,"is_reserved":false,"is_disabled":false,"rental_uris":{"android":"levelo://app?vid=32bb851f-5556-4431-ae90-09358d24cf84","ios":"levelo://app?vid=32bb851f-5556-4431-ae90-09358d24cf84"},"vehicle_type_id":"4","last_reported":1779114359,"current_range_meters":8400,"station_id":"ce4bgn92rcd13ifvqbvg","pricing_plan_id":"cebpf4jnsgd1na2vs0mg"},{"bike_id":"d330ebaf-89a2-4938-8fb2-a03c97594a54","system_id":"levelo_inurba_marseille","lat":43.29014,"lon":5.376,"is_reserved":false,"is_disabled":false,"rental_uris":{"android":"levelo://app?vid=d330ebaf-89a2-4938-8fb2-a03c97594a54","ios":"levelo://app?vid=d330ebaf-89a2-4938-8fb2-a03c97594a54"},"vehicle_type_id":"4","last_reported":1779114359,"current_range_meters":8400,"station_id":"ce4bh692rcd13ifvqe90","pricing_plan_id":"cebpf4jnsgd1na2vs0mg"},{"bike_id":"ec069315-e74a-4a57-972c-0dbc7ce3cd06","system_id":"levelo_inurba_marseille","lat":43.28258,"lon":5.35078,"is_reserved":false,"is_disabled":false,"rental_uris":{"android":"levelo://app?vid=ec069315-e74a-4a57-972c-0dbc7ce3cd06","ios":"levelo://app?vid=ec069315-e74a-4a57-972c-0dbc7ce3cd06"},"vehicle_type_id":"4","last_reported":1779114359,"current_range_meters":8400,"station_id":"ce4bhbp2rcd13ifvqerg","pricing_plan_id":"cebpf4jnsgd1na2vs0mg"},{"bike_id":"8230f30e-4478-4fee-a10b-0de3352570b4","system_id":"levelo_inurba_marseille","lat":43.2119,"lon":5.35085,"is_reserved":false,"is_disabled":false,"rental_uris":{"android":"levelo://app?vid=8230f30e-4478-4fee-a10b-0de3352570b4","ios":"levelo://app?vid=8230f30e-4478-4fee-a10b-0de3352570b4"},"vehicle_type_id":"4","last_reported":1779114359,"current_range_meters":8400,"station_id":"st_cvj6sg6p6f1abm77japg","pricing_plan_id":"cebpf4jnsgd1na2vs0mg"},{"bike_id":"6ea6c320-3fde-4b3f-983f-c4ea28652a4e","system_id":"levelo_inurba_marseille","lat":43.22559,"lon":5.41631,"is_reserved":false,"is_disabled":false,"rental_uris":{"android":"levelo://app?vid=6ea6c320-3fde-4b3f-983f-c4ea28652a4e","ios":"levelo://app?vid=6ea6c320-3fde-4b3f-983f-c4ea28652a4e"},"vehicle_type_id":"4","last_reported":1779114359,"current_range_meters":8400,"station_id":"st_d2o4gvlbi1j2169b742g","pricing_plan_id":"cebpf4jnsgd1na2vs0mg"},{"bike_id":"712fbea3-4204-4bbd-af84-db24a5ddd956","system_id":"levelo_inurba_marseille","lat":43.24072,"lon":5.37739,"is_reserved":false,"is_disabled":false,"rental_uris":{"android":"levelo://app?vid=712fbea3-4204-4bbd-af84-db24a5ddd956","ios":"levelo://app?vid=712fbea3-4204-4bbd-af84-db24a5ddd956"},"vehicle_type_id":"4","last_reported":1779114359,"current_range_meters":8400,"station_id":"ce4bhnp2rcd13ifvqgvg","pricing_plan_id":"cebpf4jnsgd1na2vs0mg"},{"bike_id":"f5b2583c-fbe9-4655-8c99-477d7b88dd53","system_id":"levelo_inurba_marseille","lat":43.31122,"lon":5.38352,"is_reserved":false,"is_disabled":false,"rental_uris":{"android":"levelo://app?vid=f5b2583c-fbe9-4655-8c99-477d7b88dd53","ios":"levelo://app?vid=f5b2583c-fbe9-4655-8c99-477d7b88dd53"},"vehicle_type_id":"4","last_reported":1779114359,"current_range_meters":8400,"station_id":"","pricing_plan_id":"cebpf4jnsgd1na2vs0mg"},{"bike_id":"3bbde101-4638-4407-bfe8-afdf813f927c","system_id":"levelo_inurba_marseille","lat":43.29574,"lon":5.37506,"is_reserved":false,"is_disabled":false,"rental_uris":{"android":"levelo://app?vid=3bbde101-4638-4407-bfe8-afdf813f927c","ios":"levelo://app?vid=3bbde101-4638-4407-bfe8-afdf813f927c"},"vehicle_type_id":"4","last_reported":1779114359,"current_range_meters":8400,"station_id":"ce4bgh92rcd13ifvqb50","pricing_plan_id":"cebpf4jnsgd1na2vs0mg"},{"bike_id":"fecbad9b-de34-45b5-aec9-0d12e826acd8","system_id":"levelo_inurba_marseille","lat":43.21192,"lon":5.35078,"is_reserved":false,"is_disabled":true,"rental_uris":{"android":"levelo://app?vid=fecbad9b-de34-45b5-aec9-0d12e826acd8","ios":"levelo://app?vid=fecbad9b-de34-45b5-aec9-0d12e826acd8"},"vehicle_type_id":"4","last_reported":1779114359,"current_range_meters":8400,"station_id":"st_cvj6sg6p6f1abm77japg","pricing_plan_id":"cebpf4jnsgd1na2vs0mg"},{"bike_id":"84f658bd-7a3c-4204-b32d-8b854e4483ec","system_id":"levelo_inurba_marseille","lat":43.25584,"lon":5.38234,"is_reserved":false,"is_disabled":false,"rental_uris":{"android":"levelo://app?vid=84f658bd-7a3c-4204-b32d-8b854e4483ec","ios":"levelo://app?vid=84f658bd-7a3c-4204-b32d-8b854e4483ec"},"vehicle_type_id":"4","last_reported":1779114359,"current_range_meters":8400,"station_id":"ce4bhih2rcd13ifvqfs0","pricing_plan_id":"cebpf4jnsgd1na2vs0mg"},{"bike_id":"4df70ee9-da8e-41c5-8019-834b0042a68c","system_id":"levelo_inurba_marseille","lat":43.29708,"lon":5.37701,"is_reserved":false,"is_disabled":false,"rental_uris":{"android":"levelo://app?vid=4df70ee9-da8e-41c5-8019-834b0042a68c","ios":"levelo://app?vid=4df70ee9-da8e-41c5-8019-834b0042a68c"},"vehicle_type_id":"4","last_reported":1779114359,"current_range_meters":8400,"station_id":"ce4bgkh2rcd13ifvqbl0","pricing_plan_id":"cebpf4jnsgd1na2vs0mg"},{"bike_id":"cef3bf75-b649-429f-a0fa-f7d1e49b8ff6","system_id":"levelo_inurba_marseille","lat":43.29764,"lon":5.37108,"is_reserved":false,"is_disabled":false,"rental_uris":{"android":"levelo://app?vid=cef3bf75-b649-429f-a0fa-f7d1e49b8ff6","ios":"levelo://app?vid=cef3bf75-b649-429f-a0fa-f7d1e49b8ff6"},"vehicle_type_id":"4","last_reported":1779114359,"current_range_meters":8400,"station_id":"","pricing_plan_id":"cebpf4jnsgd1na2vs0mg"},{"bike_id":"07ace54c-9009-47d5-9130-6e1b6fad81b1","system_id":"levelo_inurba_marseille","lat":43.28924,"lon":5.38396,"is_reserved":false,"is_disabled":false,"rental_uris":{"android":"levelo://app?vid=07ace54c-9009-47d5-9130-6e1b6fad81b1","ios":"levelo://app?vid=07ace54c-9009-47d5-9130-6e1b6fad81b1"},"vehicle_type_id":"4","last_reported":1779114359,"current_range_meters":8400,"station_id":"ce4bh612rcd13ifvqe6g","pricing_plan_id":"cebpf4jnsgd1na2vs0mg"},{"bike_id":"0499e784-f6af-4ecc-b808-5496f11c4e15","system_id":"levelo_inurba_marseille","lat":43.24922,"lon":5.38675,"is_reserved":false,"is_disabled":false,"rental_uris":{"android":"levelo://app?vid=0499e784-f6af-4ecc-b808-5496f11c4e15","ios":"levelo://app?vid=0499e784-f6af-4ecc-b808-5496f11c4e15"},"vehicle_type_id":"4","last_reported":1779114359,"current_range_meters":8400,"station_id":"","pricing_plan_id":"cebpf4jnsgd1na2vs0mg"},{"bike_id":"a739f6f6-8343-4c4c-be8c-5f6e7deabd5f","system_id":"levelo_inurba_marseille","lat":43.26207,"lon":5.3748,"is_reserved":false,"is_disabled":false,"rental_uris":{"android":"levelo://app?vid=a739f6f6-8343-4c4c-be8c-5f6e7deabd5f","ios":"levelo://app?vid=a739f6f6-8343-4c4c-be8c-5f6e7deabd5f"},"vehicle_type_id":"4","last_reported":1779114359,"current_range_meters":8400,"station_id":"ce4bhgp2rcd13ifvqfc0","pricing_plan_id":"cebpf4jnsgd1na2vs0mg"},{"bike_id":"76822842-6de5-44db-bee3-28d0eed2902b","system_id":"levelo_inurba_marseille","lat":43.2292,"lon":5.35363,"is_reserved":false,"is_disabled":false,"rental_uris":{"android":"levelo://app?vid=76822842-6de5-44db-bee3-28d0eed2902b","ios":"levelo://app?vid=76822842-6de5-44db-bee3-28d0eed2902b"},"vehicle_type_id":"4","last_reported":1779114359,"current_range_meters":8400,"station_id":"cpo3532slgdg3j2ikp40","pricing_plan_id":"cebpf4jnsgd1na2vs0mg"},{"bike_id":"a6731155-a8d0-4d7e-919c-91e3810f18db","system_id":"levelo_inurba_marseille","lat":43.27612,"lon":5.3612,"is_reserved":false,"is_disabled":false,"rental_uris":{"android":"levelo://app?vid=a6731155-a8d0-4d7e-919c-91e3810f18db","ios":"levelo://app?vid=a6731155-a8d0-4d7e-919c-91e3810f18db"},"vehicle_type_id":"4","last_reported":1779114359,"current_range_meters":8400,"station_id":"ce4bgj92rcd13ifvqbe0","pricing_plan_id":"cebpf4jnsgd1na2vs0mg"},{"bike_id":"ed5e05b5-1838-48a1-92fb-55b129955633","system_id":"levelo_inurba_marseille","lat":43.26207,"lon":5.37441,"is_reserved":false,"is_disabled":false,"rental_uris":{"android":"levelo://app?vid=ed5e05b5-1838-48a1-92fb-55b129955633","ios":"levelo://app?vid=ed5e05b5-1838-48a1-92fb-55b129955633"},"vehicle_type_id":"4","last_reported":1779114359,"current_range_meters":8400,"station_id":"ce4bhgp2rcd13ifvqfc0","pricing_plan_id":"cebpf4jnsgd1na2vs0mg"},{"bike_id":"90bf0bdd-41a7-4a15-813d-09be68efb9f3","system_id":"levelo_inurba_marseille","lat":43.28226,"lon":5.40578,"is_reserved":false,"is_disabled":false,"rental_uris":{"android":"levelo://app?vid=90bf0bdd-41a7-4a15-813d-09be68efb9f3","ios":"levelo://app?vid=90bf0bdd-41a7-4a15-813d-09be68efb9f3"},"vehicle_type_id":"4","last_reported":1779114359,"current_range_meters":8400,"station_id":"","pricing_plan_id":"cebpf4jnsgd1na2vs0mg"},{"bike_id":"1fc5df4b-786f-475f-bf77-187971c5995d","system_id":"levelo_inurba_marseille","lat":43.28722,"lon":5.3794,"is_reserved":false,"is_disabled":false,"rental_uris":{"android":"levelo://app?vid=1fc5df4b-786f-475f-bf77-187971c5995d","ios":"levelo://app?vid=1fc5df4b-786f-475f-bf77-187971c5995d"},"vehicle_type_id":"4","last_reported":1779114359,"current_range_meters":8400,"station_id":"ce4bh9p2rcd13ifvqec0","pricing_plan_id":"cebpf4jnsgd1na2vs0mg"},{"bike_id":"227b126f-efaf-422d-a694-0785dbb77026","system_id":"levelo_inurba_marseille","lat":43.24395,"lon":5.37061,"is_reserved":false,"is_disabled":false,"rental_uris":{"android":"levelo://app?vid=227b126f-efaf-422d-a694-0785dbb77026","ios":"levelo://app?vid=227b126f-efaf-422d-a694-0785dbb77026"},"vehicle_type_id":"4","last_reported":1779114359,"current_range_meters":8400,"station_id":"ce4bhhh2rcd13ifvqfk0","pricing_plan_id":"cebpf4jnsgd1na2vs0mg"},{"bike_id":"40a18bf4-d536-4edd-9fe1-335636d5c2a2","system_id":"levelo_inurba_marseille","lat":43.30613,"lon":5.37255,"is_reserved":false,"is_disabled":false,"rental_uris":{"android":"levelo://app?vid=40a18bf4-d536-4edd-9fe1-335636d5c2a2","ios":"levelo://app?vid=40a18bf4-d536-4edd-9fe1-335636d5c2a2"},"vehicle_type_id":"4","last_reported":1779114359,"current_range_meters":8400,"station_id":"ce4bgqh2rcd13ifvqc4g","pricing_plan_id":"cebpf4jnsgd1na2vs0mg"},{"bike_id":"97c69175-d1ad-40e4-8f81-c03384638a19","system_id":"levelo_inurba_marseille","lat":43.31377,"lon":5.36747,"is_reserved":false,"is_disabled":false,"rental_uris":{"android":"levelo://app?vid=97c69175-d1ad-40e4-8f81-c03384638a19","ios":"levelo://app?vid=97c69175-d1ad-40e4-8f81-c03384638a19"},"vehicle_type_id":"4","last_reported":1779114359,"current_range_meters":8400,"station_id":"ce4bgr92rcd13ifvqc6g","pricing_plan_id":"cebpf4jnsgd1na2vs0mg"},{"bike_id":"716ad749-9eb2-4471-b89a-a78f0c625c78","system_id":"levelo_inurba_marseille","lat":43.23189,"lon":5.39987,"is_reserved":false,"is_disabled":false,"rental_uris":{"android":"levelo://app?vid=716ad749-9eb2-4471-b89a-a78f0c625c78","ios":"levelo://app?vid=716ad749-9eb2-4471-b89a-a78f0c625c78"},"vehicle_type_id":"4","last_reported":1779114359,"current_range_meters":8800,"station_id":"ce4bhn12rcd13ifvqgqg","pricing_plan_id":"cebpf4jnsgd1na2vs0mg"},{"bike_id":"31f9f053-b4fb-4e9e-866a-38c58f747750","system_id":"levelo_inurba_marseille","lat":43.28162,"lon":5.42644,"is_reserved":false,"is_disabled":false,"rental_uris":{"android":"levelo://app?vid=31f9f053-b4fb-4e9e-866a-38c58f747750","ios":"levelo://app?vid=31f9f053-b4fb-4e9e-866a-38c58f747750"},"vehicle_type_id":"4","last_reported":1779114359,"current_range_meters":8800,"station_id":"ce4bhnh2rcd13ifvqgug","pricing_plan_id":"cebpf4jnsgd1na2vs0mg"},{"bike_id":"5979a240-12b8-4bc1-89ef-9696b73708ff","system_id":"levelo_inurba_marseille","lat":43.31119,"lon":5.37781,"is_reserved":false,"is_disabled":false,"rental_uris":{"android":"levelo://app?vid=5979a240-12b8-4bc1-89ef-9696b73708ff","ios":"levelo://app?vid=5979a240-12b8-4bc1-89ef-9696b73708ff"},"vehicle_type_id":"4","last_reported":1779114359,"current_range_meters":8800,"station_id":"ce4bgt92rcd13ifvqcg0","pricing_plan_id":"cebpf4jnsgd1na2vs0mg"},{"bike_id":"f25a490b-d5a4-4d1f-951a-0e22fff8fb94","system_id":"levelo_inurba_marseille","lat":43.30546,"lon":5.36521,"is_reserved":false,"is_disabled":false,"rental_uris":{"android":"levelo://app?vid=f25a490b-d5a4-4d1f-951a-0e22fff8fb94","ios":"levelo://app?vid=f25a490b-d5a4-4d1f-951a-0e22fff8fb94"},"vehicle_type_id":"4","last_reported":1779114359,"current_range_meters":8800,"station_id":"ce4bgs12rcd13ifvqcag","pricing_plan_id":"cebpf4jnsgd1na2vs0mg"},{"bike_id":"ebd8c83c-8286-4c6c-82f2-a8412ca1ac53","system_id":"levelo_inurba_marseille","lat":43.26227,"lon":5.40482,"is_reserved":false,"is_disabled":false,"rental_uris":{"android":"levelo://app?vid=ebd8c83c-8286-4c6c-82f2-a8412ca1ac53","ios":"levelo://app?vid=ebd8c83c-8286-4c6c-82f2-a8412ca1ac53"},"vehicle_type_id":"4","last_reported":1779114359,"current_range_meters":8800,"station_id":"ce4bhmh2rcd13ifvqgmg","pricing_plan_id":"cebpf4jnsgd1na2vs0mg"},{"bike_id":"2d03e62f-ba8b-4d0b-92f6-555161cc53ff","system_id":"levelo_inurba_marseille","lat":43.29723,"lon":5.41341,"is_reserved":false,"is_disabled":false,"rental_uris":{"android":"levelo://app?vid=2d03e62f-ba8b-4d0b-92f6-555161cc53ff","ios":"levelo://app?vid=2d03e62f-ba8b-4d0b-92f6-555161cc53ff"},"vehicle_type_id":"4","last_reported":1779114359,"current_range_meters":8800,"station_id":"","pricing_plan_id":"cebpf4jnsgd1na2vs0mg"},{"bike_id":"5eb11d83-2461-40c2-9484-0a35868d2011","system_id":"levelo_inurba_marseille","lat":43.2975,"lon":5.42795,"is_reserved":false,"is_disabled":true,"rental_uris":{"android":"levelo://app?vid=5eb11d83-2461-40c2-9484-0a35868d2011","ios":"levelo://app?vid=5eb11d83-2461-40c2-9484-0a35868d2011"},"vehicle_type_id":"4","last_reported":1779114359,"current_range_meters":8800,"station_id":"st_d3md5207bmas73dh9klg","pricing_plan_id":"cebpf4jnsgd1na2vs0mg"},{"bike_id":"38144e7e-7da2-433a-832e-c5635f7b3b33","system_id":"levelo_inurba_marseille","lat":43.26214,"lon":5.37425,"is_reserved":false,"is_disabled":false,"rental_uris":{"android":"levelo://app?vid=38144e7e-7da2-433a-832e-c5635f7b3b33","ios":"levelo://app?vid=38144e7e-7da2-433a-832e-c5635f7b3b33"},"vehicle_type_id":"4","last_reported":1779114359,"current_range_meters":8800,"station_id":"ce4bhgp2rcd13ifvqfc0","pricing_plan_id":"cebpf4jnsgd1na2vs0mg"},{"bike_id":"a8cb9240-58cd-4cfc-bda3-c1c2634928cd","system_id":"levelo_inurba_marseille","lat":43.29009,"lon":5.38147,"is_reserved":false,"is_disabled":false,"rental_uris":{"android":"levelo://app?vid=a8cb9240-58cd-4cfc-bda3-c1c2634928cd","ios":"levelo://app?vid=a8cb9240-58cd-4cfc-bda3-c1c2634928cd"},"vehicle_type_id":"4","last_reported":1779114359,"current_range_meters":8800,"station_id":"ce4bh4p2rcd13ifvqe1g","pricing_plan_id":"cebpf4jnsgd1na2vs0mg"},{"bike_id":"2e618a07-85fa-4e4c-b253-8730291eb108","system_id":"levelo_inurba_marseille","lat":43.28417,"lon":5.35003,"is_reserved":false,"is_disabled":false,"rental_uris":{"android":"levelo://app?vid=2e618a07-85fa-4e4c-b253-8730291eb108","ios":"levelo://app?vid=2e618a07-85fa-4e4c-b253-8730291eb108"},"vehicle_type_id":"4","last_reported":1779114359,"current_range_meters":8800,"station_id":"","pricing_plan_id":"cebpf4jnsgd1na2vs0mg"},{"bike_id":"1e6ca224-a164-4c0c-bec7-2a01aeca88b6","system_id":"levelo_inurba_marseille","lat":43.24954,"lon":5.40501,"is_reserved":false,"is_disabled":false,"rental_uris":{"android":"levelo://app?vid=1e6ca224-a164-4c0c-bec7-2a01aeca88b6","ios":"levelo://app?vid=1e6ca224-a164-4c0c-bec7-2a01aeca88b6"},"vehicle_type_id":"4","last_reported":1779114359,"current_range_meters":8800,"station_id":"st_d2ngiaodas8pm72gd1h0","pricing_plan_id":"cebpf4jnsgd1na2vs0mg"},{"bike_id":"3de4692f-f28c-47b3-890c-e7f58eab000e","system_id":"levelo_inurba_marseille","lat":43.25736,"lon":5.41117,"is_reserved":false,"is_disabled":false,"rental_uris":{"android":"levelo://app?vid=3de4692f-f28c-47b3-890c-e7f58eab000e","ios":"levelo://app?vid=3de4692f-f28c-47b3-890c-e7f58eab000e"},"vehicle_type_id":"4","last_reported":1779114359,"current_range_meters":8800,"station_id":"ce4bhkp2rcd13ifvqgd0","pricing_plan_id":"cebpf4jnsgd1na2vs0mg"},{"bike_id":"3fa88c71-3e50-4ab6-b520-3c123f8a8eaa","system_id":"levelo_inurba_marseille","lat":43.21185,"lon":5.35084,"is_reserved":false,"is_disabled":false,"rental_uris":{"android":"levelo://app?vid=3fa88c71-3e50-4ab6-b520-3c123f8a8eaa","ios":"levelo://app?vid=3fa88c71-3e50-4ab6-b520-3c123f8a8eaa"},"vehicle_type_id":"4","last_reported":1779114359,"current_range_meters":8800,"station_id":"st_cvj6sg6p6f1abm77japg","pricing_plan_id":"cebpf4jnsgd1na2vs0mg"},{"bike_id":"375322d3-5edc-4337-bbce-6b5c21cf5fa9","system_id":"levelo_inurba_marseille","lat":43.24408,"lon":5.37035,"is_reserved":false,"is_disabled":false,"rental_uris":{"android":"levelo://app?vid=375322d3-5edc-4337-bbce-6b5c21cf5fa9","ios":"levelo://app?vid=375322d3-5edc-4337-bbce-6b5c21cf5fa9"},"vehicle_type_id":"4","last_reported":1779114359,"current_range_meters":8800,"station_id":"ce4bhhh2rcd13ifvqfk0","pricing_plan_id":"cebpf4jnsgd1na2vs0mg"},{"bike_id":"5bf5d676-f343-4477-bd9b-a50638fef698","system_id":"levelo_inurba_marseille","lat":43.30198,"lon":5.39482,"is_reserved":false,"is_disabled":false,"rental_uris":{"android":"levelo://app?vid=5bf5d676-f343-4477-bd9b-a50638fef698","ios":"levelo://app?vid=5bf5d676-f343-4477-bd9b-a50638fef698"},"vehicle_type_id":"4","last_reported":1779114359,"current_range_meters":8800,"station_id":"ce4bh0p2rcd13ifvqd70","pricing_plan_id":"cebpf4jnsgd1na2vs0mg"},{"bike_id":"3942a10b-fbde-44cf-9339-8b9493e06000","system_id":"levelo_inurba_marseille","lat":43.2904,"lon":5.37561,"is_reserved":false,"is_disabled":true,"rental_uris":{"android":"levelo://app?vid=3942a10b-fbde-44cf-9339-8b9493e06000","ios":"levelo://app?vid=3942a10b-fbde-44cf-9339-8b9493e06000"},"vehicle_type_id":"4","last_reported":1779114359,"current_range_meters":8800,"station_id":"ce4bh692rcd13ifvqe90","pricing_plan_id":"cebpf4jnsgd1na2vs0mg"},{"bike_id":"11ad010e-c156-49fe-aefe-f595d33923b8","system_id":"levelo_inurba_marseille","lat":43.27054,"lon":5.40303,"is_reserved":false,"is_disabled":false,"rental_uris":{"android":"levelo://app?vid=11ad010e-c156-49fe-aefe-f595d33923b8","ios":"levelo://app?vid=11ad010e-c156-49fe-aefe-f595d33923b8"},"vehicle_type_id":"4","last_reported":1779114359,"current_range_meters":8800,"station_id":"ce4bhk92rcd13ifvqgc0","pricing_plan_id":"cebpf4jnsgd1na2vs0mg"},{"bike_id":"9a147a82-1909-4624-8e35-bd6b119bb2af","system_id":"levelo_inurba_marseille","lat":43.30652,"lon":5.40055,"is_reserved":false,"is_disabled":true,"rental_uris":{"android":"levelo://app?vid=9a147a82-1909-4624-8e35-bd6b119bb2af","ios":"levelo://app?vid=9a147a82-1909-4624-8e35-bd6b119bb2af"},"vehicle_type_id":"4","last_reported":1779114359,"current_range_meters":8800,"station_id":"ce4bh112rcd13ifvqda0","pricing_plan_id":"cebpf4jnsgd1na2vs0mg"},{"bike_id":"b65a1853-b53b-4b23-9372-104171c869fc","system_id":"levelo_inurba_marseille","lat":43.313329,"lon":5.396938,"is_reserved":false,"is_disabled":false,"rental_uris":{"android":"levelo://app?vid=b65a1853-b53b-4b23-9372-104171c869fc","ios":"levelo://app?vid=b65a1853-b53b-4b23-9372-104171c869fc"},"vehicle_type_id":"4","last_reported":1779114359,"current_range_meters":8800,"station_id":"ce4bgvp2rcd13ifvqcu0","pricing_plan_id":"cebpf4jnsgd1na2vs0mg"},{"bike_id":"e40439b8-70d1-4a31-b2ca-aacd85765f54","system_id":"levelo_inurba_marseille","lat":43.32116,"lon":5.36804,"is_reserved":false,"is_disabled":false,"rental_uris":{"android":"levelo://app?vid=e40439b8-70d1-4a31-b2ca-aacd85765f54","ios":"levelo://app?vid=e40439b8-70d1-4a31-b2ca-aacd85765f54"},"vehicle_type_id":"4","last_reported":1779114359,"current_range_meters":8800,"station_id":"ce4bhrh2rcd13ifvqhug","pricing_plan_id":"cebpf4jnsgd1na2vs0mg"},{"bike_id":"41aeab6c-6978-4475-9abb-adbd218ad412","system_id":"levelo_inurba_marseille","lat":43.29613,"lon":5.37715,"is_reserved":false,"is_disabled":true,"rental_uris":{"android":"levelo://app?vid=41aeab6c-6978-4475-9abb-adbd218ad412","ios":"levelo://app?vid=41aeab6c-6978-4475-9abb-adbd218ad412"},"vehicle_type_id":"4","last_reported":1779114359,"current_range_meters":8800,"station_id":"ce4bgi92rcd13ifvqb90","pricing_plan_id":"cebpf4jnsgd1na2vs0mg"},{"bike_id":"a8cc5db3-56fd-4a37-9585-f8d009cfb309","system_id":"levelo_inurba_marseille","lat":43.27404,"lon":5.40605,"is_reserved":false,"is_disabled":false,"rental_uris":{"android":"levelo://app?vid=a8cc5db3-56fd-4a37-9585-f8d009cfb309","ios":"levelo://app?vid=a8cc5db3-56fd-4a37-9585-f8d009cfb309"},"vehicle_type_id":"4","last_reported":1779114359,"current_range_meters":8800,"station_id":"","pricing_plan_id":"cebpf4jnsgd1na2vs0mg"},{"bike_id":"0a8754dd-02b0-4abf-b1d9-6a7e01b82411","system_id":"levelo_inurba_marseille","lat":43.28705,"lon":5.37398,"is_reserved":false,"is_disabled":false,"rental_uris":{"android":"levelo://app?vid=0a8754dd-02b0-4abf-b1d9-6a7e01b82411","ios":"levelo://app?vid=0a8754dd-02b0-4abf-b1d9-6a7e01b82411"},"vehicle_type_id":"4","last_reported":1779114359,"current_range_meters":8800,"station_id":"ce4bh3p2rcd13ifvqdq0","pricing_plan_id":"cebpf4jnsgd1na2vs0mg"},{"bike_id":"261c502d-f157-4e38-8832-33cf8786fbe5","system_id":"levelo_inurba_marseille","lat":43.29976,"lon":5.36531,"is_reserved":false,"is_disabled":false,"rental_uris":{"android":"levelo://app?vid=261c502d-f157-4e38-8832-33cf8786fbe5","ios":"levelo://app?vid=261c502d-f157-4e38-8832-33cf8786fbe5"},"vehicle_type_id":"4","last_reported":1779114359,"current_range_meters":8800,"station_id":"ce4bgm92rcd13ifvqbr0","pricing_plan_id":"cebpf4jnsgd1na2vs0mg"},{"bike_id":"534af3d9-a187-4ca0-8610-7a556a188d0a","system_id":"levelo_inurba_marseille","lat":43.28618,"lon":5.35117,"is_reserved":false,"is_disabled":false,"rental_uris":{"android":"levelo://app?vid=534af3d9-a187-4ca0-8610-7a556a188d0a","ios":"levelo://app?vid=534af3d9-a187-4ca0-8610-7a556a188d0a"},"vehicle_type_id":"4","last_reported":1779114359,"current_range_meters":8800,"station_id":"ce4bhch2rcd13ifvqeug","pricing_plan_id":"cebpf4jnsgd1na2vs0mg"},{"bike_id":"eba91b19-9319-4bfc-afad-1cbfaf5872af","system_id":"levelo_inurba_marseille","lat":43.29524,"lon":5.38543,"is_reserved":false,"is_disabled":false,"rental_uris":{"android":"levelo://app?vid=eba91b19-9319-4bfc-afad-1cbfaf5872af","ios":"levelo://app?vid=eba91b19-9319-4bfc-afad-1cbfaf5872af"},"vehicle_type_id":"4","last_reported":1779114359,"current_range_meters":8800,"station_id":"ce4bgih2rcd13ifvqba0","pricing_plan_id":"cebpf4jnsgd1na2vs0mg"},{"bike_id":"1ccd9416-5564-424c-b43b-28cb38654b7e","system_id":"levelo_inurba_marseille","lat":43.31351,"lon":5.38506,"is_reserved":false,"is_disabled":false,"rental_uris":{"android":"levelo://app?vid=1ccd9416-5564-424c-b43b-28cb38654b7e","ios":"levelo://app?vid=1ccd9416-5564-424c-b43b-28cb38654b7e"},"vehicle_type_id":"4","last_reported":1779114359,"current_range_meters":8800,"station_id":"ce4bgt92rcd13ifvqcf0","pricing_plan_id":"cebpf4jnsgd1na2vs0mg"},{"bike_id":"67298b0d-96b3-4d14-87eb-fc9a2dd8b027","system_id":"levelo_inurba_marseille","lat":43.25123,"lon":5.40309,"is_reserved":false,"is_disabled":false,"rental_uris":{"android":"levelo://app?vid=67298b0d-96b3-4d14-87eb-fc9a2dd8b027","ios":"levelo://app?vid=67298b0d-96b3-4d14-87eb-fc9a2dd8b027"},"vehicle_type_id":"4","last_reported":1779114359,"current_range_meters":8800,"station_id":"ce4bhkp2rcd13ifvqgd0","pricing_plan_id":"cebpf4jnsgd1na2vs0mg"},{"bike_id":"1f4d0606-a9db-4905-869a-bc5d0d64e7ec","system_id":"levelo_inurba_marseille","lat":43.3137,"lon":5.38497,"is_reserved":false,"is_disabled":false,"rental_uris":{"android":"levelo://app?vid=1f4d0606-a9db-4905-869a-bc5d0d64e7ec","ios":"levelo://app?vid=1f4d0606-a9db-4905-869a-bc5d0d64e7ec"},"vehicle_type_id":"4","last_reported":1779114359,"current_range_meters":8800,"station_id":"ce4bgt92rcd13ifvqcf0","pricing_plan_id":"cebpf4jnsgd1na2vs0mg"},{"bike_id":"fa0045fe-44b5-4a46-b0ec-0f91ac8d25b9","system_id":"levelo_inurba_marseille","lat":43.304218,"lon":5.400855,"is_reserved":false,"is_disabled":false,"rental_uris":{"android":"levelo://app?vid=fa0045fe-44b5-4a46-b0ec-0f91ac8d25b9","ios":"levelo://app?vid=fa0045fe-44b5-4a46-b0ec-0f91ac8d25b9"},"vehicle_type_id":"4","last_reported":1779114359,"current_range_meters":8800,"station_id":"ce4bh092rcd13ifvqd20","pricing_plan_id":"cebpf4jnsgd1na2vs0mg"},{"bike_id":"1801cd22-e5b3-425e-b0fd-4e5e46a692ea","system_id":"levelo_inurba_marseille","lat":43.23886,"lon":5.37454,"is_reserved":false,"is_disabled":false,"rental_uris":{"android":"levelo://app?vid=1801cd22-e5b3-425e-b0fd-4e5e46a692ea","ios":"levelo://app?vid=1801cd22-e5b3-425e-b0fd-4e5e46a692ea"},"vehicle_type_id":"4","last_reported":1779114359,"current_range_meters":8800,"station_id":"st_d6sm7csbq4hs73f8fpjg","pricing_plan_id":"cebpf4jnsgd1na2vs0mg"},{"bike_id":"468c5ad9-ba07-4d67-8cde-29f41397e48d","system_id":"levelo_inurba_marseille","lat":43.30125,"lon":5.37387,"is_reserved":false,"is_disabled":false,"rental_uris":{"android":"levelo://app?vid=468c5ad9-ba07-4d67-8cde-29f41397e48d","ios":"levelo://app?vid=468c5ad9-ba07-4d67-8cde-29f41397e48d"},"vehicle_type_id":"4","last_reported":1779114359,"current_range_meters":9200,"station_id":"ce4bgs92rcd13ifvqcc0","pricing_plan_id":"cebpf4jnsgd1na2vs0mg"},{"bike_id":"807dc24e-133f-4b0b-b7d9-89bf438010d2","system_id":"levelo_inurba_marseille","lat":43.28931,"lon":5.364,"is_reserved":false,"is_disabled":false,"rental_uris":{"android":"levelo://app?vid=807dc24e-133f-4b0b-b7d9-89bf438010d2","ios":"levelo://app?vid=807dc24e-133f-4b0b-b7d9-89bf438010d2"},"vehicle_type_id":"4","last_reported":1779114359,"current_range_meters":9200,"station_id":"ce4bhc92rcd13ifvqetg","pricing_plan_id":"cebpf4jnsgd1na2vs0mg"},{"bike_id":"72c2d947-b6ac-4d24-9499-e7505a3e2a26","system_id":"levelo_inurba_marseille","lat":43.29713,"lon":5.3662,"is_reserved":false,"is_disabled":false,"rental_uris":{"android":"levelo://app?vid=72c2d947-b6ac-4d24-9499-e7505a3e2a26","ios":"levelo://app?vid=72c2d947-b6ac-4d24-9499-e7505a3e2a26"},"vehicle_type_id":"4","last_reported":1779114359,"current_range_meters":9200,"station_id":"ce4bgn12rcd13ifvqbt0","pricing_plan_id":"cebpf4jnsgd1na2vs0mg"},{"bike_id":"ea2b7db2-4ec0-4ed4-95e7-78571752cefd","system_id":"levelo_inurba_marseille","lat":43.24832,"lon":5.37502,"is_reserved":false,"is_disabled":false,"rental_uris":{"android":"levelo://app?vid=ea2b7db2-4ec0-4ed4-95e7-78571752cefd","ios":"levelo://app?vid=ea2b7db2-4ec0-4ed4-95e7-78571752cefd"},"vehicle_type_id":"4","last_reported":1779114359,"current_range_meters":9200,"station_id":"","pricing_plan_id":"cebpf4jnsgd1na2vs0mg"},{"bike_id":"e525c40c-37dc-4e8d-9ac2-9e5ca2656698","system_id":"levelo_inurba_marseille","lat":43.28707,"lon":5.46701,"is_reserved":false,"is_disabled":false,"rental_uris":{"android":"levelo://app?vid=e525c40c-37dc-4e8d-9ac2-9e5ca2656698","ios":"levelo://app?vid=e525c40c-37dc-4e8d-9ac2-9e5ca2656698"},"vehicle_type_id":"4","last_reported":1779114359,"current_range_meters":9200,"station_id":"st_d6tc3vkotcvc738tfjhg","pricing_plan_id":"cebpf4jnsgd1na2vs0mg"},{"bike_id":"c6dfd197-3eab-4aee-9060-5d30ffe22220","system_id":"levelo_inurba_marseille","lat":43.28634,"lon":5.38548,"is_reserved":false,"is_disabled":false,"rental_uris":{"android":"levelo://app?vid=c6dfd197-3eab-4aee-9060-5d30ffe22220","ios":"levelo://app?vid=c6dfd197-3eab-4aee-9060-5d30ffe22220"},"vehicle_type_id":"4","last_reported":1779114359,"current_range_meters":9200,"station_id":"ce4bhn12rcd13ifvqgpg","pricing_plan_id":"cebpf4jnsgd1na2vs0mg"},{"bike_id":"6b681d60-2c66-48f6-a4c8-f71989d28646","system_id":"levelo_inurba_marseille","lat":43.28468,"lon":5.3589,"is_reserved":false,"is_disabled":false,"rental_uris":{"android":"levelo://app?vid=6b681d60-2c66-48f6-a4c8-f71989d28646","ios":"levelo://app?vid=6b681d60-2c66-48f6-a4c8-f71989d28646"},"vehicle_type_id":"4","last_reported":1779114359,"current_range_meters":9200,"station_id":"ce4bhah2rcd13ifvqei0","pricing_plan_id":"cebpf4jnsgd1na2vs0mg"},{"bike_id":"f9070f40-56f5-4119-9904-2011959fe8b7","system_id":"levelo_inurba_marseille","lat":43.29533,"lon":5.385458,"is_reserved":false,"is_disabled":false,"rental_uris":{"android":"levelo://app?vid=f9070f40-56f5-4119-9904-2011959fe8b7","ios":"levelo://app?vid=f9070f40-56f5-4119-9904-2011959fe8b7"},"vehicle_type_id":"4","last_reported":1779114359,"current_range_meters":9200,"station_id":"ce4bgih2rcd13ifvqba0","pricing_plan_id":"cebpf4jnsgd1na2vs0mg"},{"bike_id":"0bd5a11a-a65a-45e3-83f8-3b714ac77014","system_id":"levelo_inurba_marseille","lat":43.29841,"lon":5.36269,"is_reserved":false,"is_disabled":false,"rental_uris":{"android":"levelo://app?vid=0bd5a11a-a65a-45e3-83f8-3b714ac77014","ios":"levelo://app?vid=0bd5a11a-a65a-45e3-83f8-3b714ac77014"},"vehicle_type_id":"4","last_reported":1779114359,"current_range_meters":9600,"station_id":"ce4bgpp2rcd13ifvqc3g","pricing_plan_id":"cebpf4jnsgd1na2vs0mg"},{"bike_id":"156b2cd1-6861-4490-8fc0-b68a3ba19dca","system_id":"levelo_inurba_marseille","lat":43.27061,"lon":5.40319,"is_reserved":false,"is_disabled":false,"rental_uris":{"android":"levelo://app?vid=156b2cd1-6861-4490-8fc0-b68a3ba19dca","ios":"levelo://app?vid=156b2cd1-6861-4490-8fc0-b68a3ba19dca"},"vehicle_type_id":"4","last_reported":1779114359,"current_range_meters":9600,"station_id":"","pricing_plan_id":"cebpf4jnsgd1na2vs0mg"},{"bike_id":"4a8fff30-cbc5-491d-8d3e-d22b568d1485","system_id":"levelo_inurba_marseille","lat":43.26432,"lon":5.37379,"is_reserved":false,"is_disabled":false,"rental_uris":{"android":"levelo://app?vid=4a8fff30-cbc5-491d-8d3e-d22b568d1485","ios":"levelo://app?vid=4a8fff30-cbc5-491d-8d3e-d22b568d1485"},"vehicle_type_id":"4","last_reported":1779114359,"current_range_meters":9600,"station_id":"","pricing_plan_id":"cebpf4jnsgd1na2vs0mg"},{"bike_id":"d284b1e8-21db-40eb-97a1-f4caa8b26bac","system_id":"levelo_inurba_marseille","lat":43.33539,"lon":5.37475,"is_reserved":false,"is_disabled":false,"rental_uris":{"android":"levelo://app?vid=d284b1e8-21db-40eb-97a1-f4caa8b26bac","ios":"levelo://app?vid=d284b1e8-21db-40eb-97a1-f4caa8b26bac"},"vehicle_type_id":"4","last_reported":1779114359,"current_range_meters":9600,"station_id":"st_d46tts09ee8s73dlu43g","pricing_plan_id":"cebpf4jnsgd1na2vs0mg"},{"bike_id":"0ee0866a-e05e-4244-9feb-48177e3a8a8f","system_id":"levelo_inurba_marseille","lat":43.31153,"lon":5.36819,"is_reserved":false,"is_disabled":false,"rental_uris":{"android":"levelo://app?vid=0ee0866a-e05e-4244-9feb-48177e3a8a8f","ios":"levelo://app?vid=0ee0866a-e05e-4244-9feb-48177e3a8a8f"},"vehicle_type_id":"4","last_reported":1779114359,"current_range_meters":9600,"station_id":"","pricing_plan_id":"cebpf4jnsgd1na2vs0mg"},{"bike_id":"2fbad4ff-3321-4ed4-955d-868f812d0490","system_id":"levelo_inurba_marseille","lat":43.24482,"lon":5.42547,"is_reserved":false,"is_disabled":false,"rental_uris":{"android":"levelo://app?vid=2fbad4ff-3321-4ed4-955d-868f812d0490","ios":"levelo://app?vid=2fbad4ff-3321-4ed4-955d-868f812d0490"},"vehicle_type_id":"4","last_reported":1779114359,"current_range_meters":9600,"station_id":"st_d4a3vfp97mjs738cd8kg","pricing_plan_id":"cebpf4jnsgd1na2vs0mg"},{"bike_id":"8f023d0e-2f67-4048-812d-7b6fe9de1e79","system_id":"levelo_inurba_marseille","lat":43.2973,"lon":5.37696,"is_reserved":false,"is_disabled":false,"rental_uris":{"android":"levelo://app?vid=8f023d0e-2f67-4048-812d-7b6fe9de1e79","ios":"levelo://app?vid=8f023d0e-2f67-4048-812d-7b6fe9de1e79"},"vehicle_type_id":"4","last_reported":1779114359,"current_range_meters":9600,"station_id":"ce4bgkh2rcd13ifvqbl0","pricing_plan_id":"cebpf4jnsgd1na2vs0mg"},{"bike_id":"81233419-72f7-49ef-bc9a-f51c3ee0acb9","system_id":"levelo_inurba_marseille","lat":43.24648,"lon":5.38881,"is_reserved":false,"is_disabled":false,"rental_uris":{"android":"levelo://app?vid=81233419-72f7-49ef-bc9a-f51c3ee0acb9","ios":"levelo://app?vid=81233419-72f7-49ef-bc9a-f51c3ee0acb9"},"vehicle_type_id":"4","last_reported":1779114359,"current_range_meters":9600,"station_id":"ce4bhg12rcd13ifvqf60","pricing_plan_id":"cebpf4jnsgd1na2vs0mg"},{"bike_id":"2ec33e78-0fcd-4d3f-949c-5f202d2c5181","system_id":"levelo_inurba_marseille","lat":43.24392,"lon":5.37059,"is_reserved":false,"is_disabled":false,"rental_uris":{"android":"levelo://app?vid=2ec33e78-0fcd-4d3f-949c-5f202d2c5181","ios":"levelo://app?vid=2ec33e78-0fcd-4d3f-949c-5f202d2c5181"},"vehicle_type_id":"4","last_reported":1779114359,"current_range_meters":9600,"station_id":"ce4bhhh2rcd13ifvqfk0","pricing_plan_id":"cebpf4jnsgd1na2vs0mg"},{"bike_id":"64a36027-19be-494b-a6ed-8043f7448ef7","system_id":"levelo_inurba_marseille","lat":43.26933,"lon":5.40258,"is_reserved":false,"is_disabled":false,"rental_uris":{"android":"levelo://app?vid=64a36027-19be-494b-a6ed-8043f7448ef7","ios":"levelo://app?vid=64a36027-19be-494b-a6ed-8043f7448ef7"},"vehicle_type_id":"4","last_reported":1779114359,"current_range_meters":9600,"station_id":"cjm6bp8fraef2m0cb0m0","pricing_plan_id":"cebpf4jnsgd1na2vs0mg"},{"bike_id":"544a5a8f-218d-4183-b454-e008e38c18a0","system_id":"levelo_inurba_marseille","lat":43.24647,"lon":5.3895,"is_reserved":false,"is_disabled":false,"rental_uris":{"android":"levelo://app?vid=544a5a8f-218d-4183-b454-e008e38c18a0","ios":"levelo://app?vid=544a5a8f-218d-4183-b454-e008e38c18a0"},"vehicle_type_id":"4","last_reported":1779114359,"current_range_meters":9600,"station_id":"ce4bhg12rcd13ifvqf60","pricing_plan_id":"cebpf4jnsgd1na2vs0mg"},{"bike_id":"89dcf81e-d685-4eb4-82aa-fe68a85d332a","system_id":"levelo_inurba_marseille","lat":43.32102,"lon":5.36777,"is_reserved":false,"is_disabled":false,"rental_uris":{"android":"levelo://app?vid=89dcf81e-d685-4eb4-82aa-fe68a85d332a","ios":"levelo://app?vid=89dcf81e-d685-4eb4-82aa-fe68a85d332a"},"vehicle_type_id":"4","last_reported":1779114359,"current_range_meters":9600,"station_id":"ce4bhrh2rcd13ifvqhug","pricing_plan_id":"cebpf4jnsgd1na2vs0mg"},{"bike_id":"ce5c45bf-6836-445e-841e-94b4b30be311","system_id":"levelo_inurba_marseille","lat":43.29498,"lon":5.43335,"is_reserved":false,"is_disabled":false,"rental_uris":{"android":"levelo://app?vid=ce5c45bf-6836-445e-841e-94b4b30be311","ios":"levelo://app?vid=ce5c45bf-6836-445e-841e-94b4b30be311"},"vehicle_type_id":"4","last_reported":1779114359,"current_range_meters":9600,"station_id":"st_d3j5ugp08ojc73fj9d10","pricing_plan_id":"cebpf4jnsgd1na2vs0mg"},{"bike_id":"6b4a17da-6f65-4878-8770-e57be1f60b38","system_id":"levelo_inurba_marseille","lat":43.29653,"lon":5.40583,"is_reserved":false,"is_disabled":false,"rental_uris":{"android":"levelo://app?vid=6b4a17da-6f65-4878-8770-e57be1f60b38","ios":"levelo://app?vid=6b4a17da-6f65-4878-8770-e57be1f60b38"},"vehicle_type_id":"4","last_reported":1779114359,"current_range_meters":9600,"station_id":"ce4bh0h2rcd13ifvqd60","pricing_plan_id":"cebpf4jnsgd1na2vs0mg"},{"bike_id":"c982f197-5ae1-441d-9666-187b23fc3a07","system_id":"levelo_inurba_marseille","lat":43.28087,"lon":5.34972,"is_reserved":false,"is_disabled":false,"rental_uris":{"android":"levelo://app?vid=c982f197-5ae1-441d-9666-187b23fc3a07","ios":"levelo://app?vid=c982f197-5ae1-441d-9666-187b23fc3a07"},"vehicle_type_id":"4","last_reported":1779114359,"current_range_meters":9600,"station_id":"","pricing_plan_id":"cebpf4jnsgd1na2vs0mg"},{"bike_id":"4c773cf9-ea5e-4045-97fa-b5d3eb504482","system_id":"levelo_inurba_marseille","lat":43.26373,"lon":5.41051,"is_reserved":false,"is_disabled":false,"rental_uris":{"android":"levelo://app?vid=4c773cf9-ea5e-4045-97fa-b5d3eb504482","ios":"levelo://app?vid=4c773cf9-ea5e-4045-97fa-b5d3eb504482"},"vehicle_type_id":"4","last_reported":1779114359,"current_range_meters":9600,"station_id":"st_d4e5ca6na9uc73bfl5fg","pricing_plan_id":"cebpf4jnsgd1na2vs0mg"},{"bike_id":"40cdbae6-714d-4f35-95a9-676040c67aef","system_id":"levelo_inurba_marseille","lat":43.24005,"lon":5.41304,"is_reserved":false,"is_disabled":false,"rental_uris":{"android":"levelo://app?vid=40cdbae6-714d-4f35-95a9-676040c67aef","ios":"levelo://app?vid=40cdbae6-714d-4f35-95a9-676040c67aef"},"vehicle_type_id":"4","last_reported":1779114359,"current_range_meters":9600,"station_id":"","pricing_plan_id":"cebpf4jnsgd1na2vs0mg"},{"bike_id":"9583f0d9-cba1-46b3-8b4c-38703a14858d","system_id":"levelo_inurba_marseille","lat":43.32462,"lon":5.36595,"is_reserved":false,"is_disabled":false,"rental_uris":{"android":"levelo://app?vid=9583f0d9-cba1-46b3-8b4c-38703a14858d","ios":"levelo://app?vid=9583f0d9-cba1-46b3-8b4c-38703a14858d"},"vehicle_type_id":"4","last_reported":1779114359,"current_range_meters":9600,"station_id":"ce4bhs12rcd13ifvqhvg","pricing_plan_id":"cebpf4jnsgd1na2vs0mg"},{"bike_id":"a746fd75-5426-4e5a-a2f7-14b40cc3fe32","system_id":"levelo_inurba_marseille","lat":43.24021,"lon":5.37674,"is_reserved":false,"is_disabled":false,"rental_uris":{"android":"levelo://app?vid=a746fd75-5426-4e5a-a2f7-14b40cc3fe32","ios":"levelo://app?vid=a746fd75-5426-4e5a-a2f7-14b40cc3fe32"},"vehicle_type_id":"4","last_reported":1779114359,"current_range_meters":9600,"station_id":"","pricing_plan_id":"cebpf4jnsgd1na2vs0mg"},{"bike_id":"d6536e43-ca42-4d19-9c65-1c5cface3df6","system_id":"levelo_inurba_marseille","lat":43.28451,"lon":5.35901,"is_reserved":false,"is_disabled":false,"rental_uris":{"android":"levelo://app?vid=d6536e43-ca42-4d19-9c65-1c5cface3df6","ios":"levelo://app?vid=d6536e43-ca42-4d19-9c65-1c5cface3df6"},"vehicle_type_id":"4","last_reported":1779114359,"current_range_meters":9600,"station_id":"ce4bhah2rcd13ifvqei0","pricing_plan_id":"cebpf4jnsgd1na2vs0mg"},