{"last_updated":1733069422,"ttl":60,"version":"2.2","data":{"bikes":[{"bike_id":"9eb9ee9b-532a-4e66-9337-6742bfb3d802","system_id":"levelo_inurba_marseille","lat":43.27999,"lon":5.41661,"is_reserved":false,"is_disabled":true,"rental_uris":{"android":"levelo://app?vid=9eb9ee9b-532a-4e66-9337-6742bfb3d802","ios":"levelo://app?vid=9eb9ee9b-532a-4e66-9337-6742bfb3d802"},"vehicle_type_id":"4","last_reported":1733069422,"current_range_meters":29600,"station_id":"ce4bho12rcd13ifvqh1g","pricing_plan_id":"cebpf4jnsgd1na2vs0mg"},{"bike_id":"4458ffde-a70d-42b0-bfde-a10ba736746b","system_id":"levelo_inurba_marseille","lat":43.29966,"lon":5.38499,"is_reserved":false,"is_disabled":true,"rental_uris":{"android":"levelo://app?vid=4458ffde-a70d-42b0-bfde-a10ba736746b","ios":"levelo://app?vid=4458ffde-a70d-42b0-bfde-a10ba736746b"},"vehicle_type_id":"4","last_reported":1733069422,"current_range_meters":0,"station_id":"ce4bgj92rcd13ifvqbd0","pricing_plan_id":"cebpf4jnsgd1na2vs0mg"},{"bike_id":"3f08722c-49a5-4c33-9b59-3f62f9134a3d","system_id":"levelo_inurba_marseille","lat":43.30147,"lon":5.38096,"is_reserved":false,"is_disabled":true,"rental_uris":{"android":"levelo://app?vid=3f08722c-49a5-4c33-9b59-3f62f9134a3d","ios":"levelo://app?vid=3f08722c-49a5-4c33-9b59-3f62f9134a3d"},"vehicle_type_id":"4","last_reported":1733069422,"current_range_meters":0,"station_id":"ce4bgjp2rcd13ifvqbh0","pricing_plan_id":"cebpf4jnsgd1na2vs0mg"},{"bike_id":"7ff9ed7d-51d4-4c0b-aef0-61969fefb411","system_id":"levelo_inurba_marseille","lat":43.24171,"lon":5.36411,"is_reserved":false,"is_disabled":false,"rental_uris":{"android":"levelo://app?vid=7ff9ed7d-51d4-4c0b-aef0-61969fefb411","ios":"levelo://app?vid=7ff9ed7d-51d4-4c0b-aef0-61969fefb411"},"vehicle_type_id":"4","last_reported":1733069422,"current_range_meters":24800,"station_id":"cpo36qri1sfpv3e86is0","pricing_plan_id":"cebpf4jnsgd1na2vs0mg"},{"bike_id":"db8281fc-abbd-4629-80e5-b60f68d96ef1","system_id":"levelo_inurba_marseille","lat":43.28273,"lon":5.35067,"is_reserved":false,"is_disabled":true,"rental_uris":{"android":"levelo://app?vid=db8281fc-abbd-4629-80e5-b60f68d96ef1","ios":"levelo://app?vid=db8281fc-abbd-4629-80e5-b60f68d96ef1"},"vehicle_type_id":"4","last_reported":1733069422,"current_range_meters":0,"station_id":"ce4bhbp2rcd13ifvqerg","pricing_plan_id":"cebpf4jnsgd1na2vs0mg"},{"bike_id":"304c3c23-006c-47a7-be41-53df15bd78fa","system_id":"levelo_inurba_marseille","lat":43.29423,"lon":5.38609,"is_reserved":false,"is_disabled":true,"rental_uris":{"android":"levelo://app?vid=304c3c23-006c-47a7-be41-53df15bd78fa","ios":"levelo://app?vid=304c3c23-006c-47a7-be41-53df15bd78fa"},"vehicle_type_id":"4","last_reported":1733069422,"current_range_meters":27600,"station_id":"ce4bh2h2rcd13ifvqdh0","pricing_plan_id":"cebpf4jnsgd1na2vs0mg"},{"bike_id":"790a34a4-12ca-4fff-94f4-df476875eae0","system_id":"levelo_inurba_marseille","lat":43.23195,"lon":5.39996,"is_reserved":false,"is_disabled":false,"rental_uris":{"android":"levelo://app?vid=790a34a4-12ca-4fff-94f4-df476875eae0","ios":"levelo://app?vid=790a34a4-12ca-4fff-94f4-df476875eae0"},"vehicle_type_id":"4","last_reported":1733069422,"current_range_meters":18000,"station_id":"ce4bhn12rcd13ifvqgqg","pricing_plan_id":"cebpf4jnsgd1na2vs0mg"},{"bike_id":"79455e20-5434-4ba8-950f-7d507cd79f2b","system_id":"levelo_inurba_marseille","lat":43.30477,"lon":5.37917,"is_reserved":false,"is_disabled":false,"rental_uris":{"android":"levelo://app?vid=79455e20-5434-4ba8-950f-7d507cd79f2b","ios":"levelo://app?vid=79455e20-5434-4ba8-950f-7d507cd79f2b"},"vehicle_type_id":"4","last_reported":1733069422,"current_range_meters":38400,"station_id":"ce4bgup2rcd13ifvqcn0","pricing_plan_id":"cebpf4jnsgd1na2vs0mg"},{"bike_id":"835e3a90-0502-4b22-a011-79d92d8b578a","system_id":"levelo_inurba_marseille","lat":43.28609,"lon":5.37064,"is_reserved":false,"is_disabled":false,"rental_uris":{"android":"levelo://app?vid=835e3a90-0502-4b22-a011-79d92d8b578a","ios":"levelo://app?vid=835e3a90-0502-4b22-a011-79d92d8b578a"},"vehicle_type_id":"4","last_reported":1733069422,"current_range_meters":20400,"station_id":"ce4bht12rcd13ifvqi60","pricing_plan_id":"cebpf4jnsgd1na2vs0mg"},{"bike_id":"b65688fa-b1c3-40d7-a238-e0b81dcc7be7","system_id":"levelo_inurba_marseille","lat":43.23182,"lon":5.39981,"is_reserved":false,"is_disabled":false,"rental_uris":{"android":"levelo://app?vid=b65688fa-b1c3-40d7-a238-e0b81dcc7be7","ios":"levelo://app?vid=b65688fa-b1c3-40d7-a238-e0b81dcc7be7"},"vehicle_type_id":"4","last_reported":1733069422,"current_range_meters":37600,"station_id":"ce4bhn12rcd13ifvqgqg","pricing_plan_id":"cebpf4jnsgd1na2vs0mg"},{"bike_id":"34086af6-1b80-4187-b713-36da4e85ff96","system_id":"levelo_inurba_marseille","lat":43.33726,"lon":5.39193,"is_reserved":false,"is_disabled":false,"rental_uris":{"android":"levelo://app?vid=34086af6-1b80-4187-b713-36da4e85ff96","ios":"levelo://app?vid=34086af6-1b80-4187-b713-36da4e85ff96"},"vehicle_type_id":"4","last_reported":1733069422,"current_range_meters":3600,"station_id":"ce4bhr92rcd13ifvqhsg","pricing_plan_id":"cebpf4jnsgd1na2vs0mg"},{"bike_id":"f8b30cd9-df12-4f88-bd3b-5f492ea93141","system_id":"levelo_inurba_marseille","lat":43.28417,"lon":5.34984,"is_reserved":false,"is_disabled":false,"rental_uris":{"android":"levelo://app?vid=f8b30cd9-df12-4f88-bd3b-5f492ea93141","ios":"levelo://app?vid=f8b30cd9-df12-4f88-bd3b-5f492ea93141"},"vehicle_type_id":"4","last_reported":1733069422,"current_range_meters":18800,"station_id":"ce4bhbh2rcd13ifvqepg","pricing_plan_id":"cebpf4jnsgd1na2vs0mg"},{"bike_id":"967e9a74-8d35-43a8-bb3f-b2f2942f3b6d","system_id":"levelo_inurba_marseille","lat":43.30543,"lon":5.36705,"is_reserved":false,"is_disabled":true,"rental_uris":{"android":"levelo://app?vid=967e9a74-8d35-43a8-bb3f-b2f2942f3b6d","ios":"levelo://app?vid=967e9a74-8d35-43a8-bb3f-b2f2942f3b6d"},"vehicle_type_id":"4","last_reported":1733069422,"current_range_meters":33600,"station_id":"ce4bgrp2rcd13ifvqc9g","pricing_plan_id":"cebpf4jnsgd1na2vs0mg"},{"bike_id":"966791e8-cdff-4838-a42b-c9b609a533a7","system_id":"levelo_inurba_marseille","lat":43.27439,"lon":5.40089,"is_reserved":false,"is_disabled":true,"rental_uris":{"android":"levelo://app?vid=966791e8-cdff-4838-a42b-c9b609a533a7","ios":"levelo://app?vid=966791e8-cdff-4838-a42b-c9b609a533a7"},"vehicle_type_id":"4","last_reported":1733069422,"current_range_meters":0,"station_id":"","pricing_plan_id":"cebpf4jnsgd1na2vs0mg"},{"bike_id":"f567f198-0907-4825-85fe-931024105555","system_id":"levelo_inurba_marseille","lat":43.31074,"lon":5.40089,"is_reserved":false,"is_disabled":false,"rental_uris":{"android":"levelo://app?vid=f567f198-0907-4825-85fe-931024105555","ios":"levelo://app?vid=f567f198-0907-4825-85fe-931024105555"},"vehicle_type_id":"4","last_reported":1733069422,"current_range_meters":14800,"station_id":"","pricing_plan_id":"cebpf4jnsgd1na2vs0mg"},{"bike_id":"34f2e887-cc19-4d90-8a91-23c39317053c","system_id":"levelo_inurba_marseille","lat":43.2991,"lon":5.38146,"is_reserved":false,"is_disabled":false,"rental_uris":{"android":"levelo://app?vid=34f2e887-cc19-4d90-8a91-23c39317053c","ios":"levelo://app?vid=34f2e887-cc19-4d90-8a91-23c39317053c"},"vehicle_type_id":"4","last_reported":1733069422,"current_range_meters":36400,"station_id":"ce4bgj12rcd13ifvqbc0","pricing_plan_id":"cebpf4jnsgd1na2vs0mg"},{"bike_id":"cf3c66ff-fa09-44e8-adb4-720726487043","system_id":"levelo_inurba_marseille","lat":43.23067,"lon":5.35491,"is_reserved":false,"is_disabled":false,"rental_uris":{"android":"levelo://app?vid=cf3c66ff-fa09-44e8-adb4-720726487043","ios":"levelo://app?vid=cf3c66ff-fa09-44e8-adb4-720726487043"},"vehicle_type_id":"4","last_reported":1733069422,"current_range_meters":29600,"station_id":"cpo3342slgdg3j2ifvpg","pricing_plan_id":"cebpf4jnsgd1na2vs0mg"},{"bike_id":"d36a70f9-4847-42d7-a0af-ddb24cc631a1","system_id":"levelo_inurba_marseille","lat":43.29564,"lon":5.37524,"is_reserved":false,"is_disabled":false,"rental_uris":{"android":"levelo://app?vid=d36a70f9-4847-42d7-a0af-ddb24cc631a1","ios":"levelo://app?vid=d36a70f9-4847-42d7-a0af-ddb24cc631a1"},"vehicle_type_id":"4","last_reported":1733069422,"current_range_meters":16400,"station_id":"ce4bgh92rcd13ifvqb50","pricing_plan_id":"cebpf4jnsgd1na2vs0mg"},{"bike_id":"c8540c9d-7dc3-44fa-a0f8-7263d3d70bb8","system_id":"levelo_inurba_marseille","lat":43.24647,"lon":5.38888,"is_reserved":false,"is_disabled":true,"rental_uris":{"android":"levelo://app?vid=c8540c9d-7dc3-44fa-a0f8-7263d3d70bb8","ios":"levelo://app?vid=c8540c9d-7dc3-44fa-a0f8-7263d3d70bb8"},"vehicle_type_id":"4","last_reported":1733069422,"current_range_meters":0,"station_id":"ce4bhg12rcd13ifvqf60","pricing_plan_id":"cebpf4jnsgd1na2vs0mg"},{"bike_id":"34553e4f-2bbe-4e94-8740-7b5a4682f76a","system_id":"levelo_inurba_marseille","lat":43.31124,"lon":5.37768,"is_reserved":false,"is_disabled":true,"rental_uris":{"android":"levelo://app?vid=34553e4f-2bbe-4e94-8740-7b5a4682f76a","ios":"levelo://app?vid=34553e4f-2bbe-4e94-8740-7b5a4682f76a"},"vehicle_type_id":"4","last_reported":1733069422,"current_range_meters":35200,"station_id":"ce4bgt92rcd13ifvqcg0","pricing_plan_id":"cebpf4jnsgd1na2vs0mg"},{"bike_id":"87a177cf-8a72-43d2-ad9b-470961f3e5dc","system_id":"levelo_inurba_marseille","lat":43.3,"lon":5.37649,"is_reserved":false,"is_disabled":true,"rental_uris":{"android":"levelo://app?vid=87a177cf-8a72-43d2-ad9b-470961f3e5dc","ios":"levelo://app?vid=87a177cf-8a72-43d2-ad9b-470961f3e5dc"},"vehicle_type_id":"4","last_reported":1733069422,"current_range_meters":0,"station_id":"","pricing_plan_id":"cebpf4jnsgd1na2vs0mg"},{"bike_id":"ffc3eeb6-6bf5-4a72-99c1-23a99957f6b4","system_id":"levelo_inurba_marseille","lat":43.23187,"lon":5.3999,"is_reserved":false,"is_disabled":true,"rental_uris":{"android":"levelo://app?vid=ffc3eeb6-6bf5-4a72-99c1-23a99957f6b4","ios":"levelo://app?vid=ffc3eeb6-6bf5-4a72-99c1-23a99957f6b4"},"vehicle_type_id":"4","last_reported":1733069422,"current_range_meters":0,"station_id":"ce4bhn12rcd13ifvqgqg","pricing_plan_id":"cebpf4jnsgd1na2vs0mg"},{"bike_id":"5a19f5f3-f3d4-42cc-bd7e-53e316f4385c","system_id":"levelo_inurba_marseille","lat":43.29263,"lon":5.38435,"is_reserved":false,"is_disabled":false,"rental_uris":{"android":"levelo://app?vid=5a19f5f3-f3d4-42cc-bd7e-53e316f4385c","ios":"levelo://app?vid=5a19f5f3-f3d4-42cc-bd7e-53e316f4385c"},"vehicle_type_id":"4","last_reported":1733069422,"current_range_meters":20400,"station_id":"ce4bh692rcd13ifvqea0","pricing_plan_id":"cebpf4jnsgd1na2vs0mg"},{"bike_id":"b0bd4cdf-7308-45f0-8e99-a0d5811907ff","system_id":"levelo_inurba_marseille","lat":43.2546,"lon":5.38175,"is_reserved":false,"is_disabled":true,"rental_uris":{"android":"levelo://app?vid=b0bd4cdf-7308-45f0-8e99-a0d5811907ff","ios":"levelo://app?vid=b0bd4cdf-7308-45f0-8e99-a0d5811907ff"},"vehicle_type_id":"4","last_reported":1733069422,"current_range_meters":0,"station_id":"","pricing_plan_id":"cebpf4jnsgd1na2vs0mg"},{"bike_id":"8bcd172f-5475-4607-a4e7-44d7749b12a1","system_id":"levelo_inurba_marseille","lat":43.33727,"lon":5.39189,"is_reserved":false,"is_disabled":true,"rental_uris":{"android":"levelo://app?vid=8bcd172f-5475-4607-a4e7-44d7749b12a1","ios":"levelo://app?vid=8bcd172f-5475-4607-a4e7-44d7749b12a1"},"vehicle_type_id":"4","last_reported":1733069422,"current_range_meters":3600,"station_id":"ce4bhr92rcd13ifvqhsg","pricing_plan_id":"cebpf4jnsgd1na2vs0mg"},{"bike_id":"f2cc114c-6c9b-4393-884b-2ddc57f96b7d","system_id":"levelo_inurba_marseille","lat":43.2707,"lon":5.42282,"is_reserved":false,"is_disabled":false,"rental_uris":{"android":"levelo://app?vid=f2cc114c-6c9b-4393-884b-2ddc57f96b7d","ios":"levelo://app?vid=f2cc114c-6c9b-4393-884b-2ddc57f96b7d"},"vehicle_type_id":"4","last_reported":1733069422,"current_range_meters":27200,"station_id":"ce4bhk92rcd13ifvqgb0","pricing_plan_id":"cebpf4jnsgd1na2vs0mg"},{"bike_id":"d91963bf-da10-4ae8-a1fd-6fda6fc7b8b9","system_id":"levelo_inurba_marseille","lat":43.30536,"lon":5.36543,"is_reserved":false,"is_disabled":false,"rental_uris":{"android":"levelo://app?vid=d91963bf-da10-4ae8-a1fd-6fda6fc7b8b9","ios":"levelo://app?vid=d91963bf-da10-4ae8-a1fd-6fda6fc7b8b9"},"vehicle_type_id":"4","last_reported":1733069422,"current_range_meters":38800,"station_id":"ce4bgs12rcd13ifvqcag","pricing_plan_id":"cebpf4jnsgd1na2vs0mg"},{"bike_id":"6f7949e1-de87-4a49-8620-fec27e04447f","system_id":"levelo_inurba_marseille","lat":43.33729,"lon":5.3919,"is_reserved":false,"is_disabled":false,"rental_uris":{"android":"levelo://app?vid=6f7949e1-de87-4a49-8620-fec27e04447f","ios":"levelo://app?vid=6f7949e1-de87-4a49-8620-fec27e04447f"},"vehicle_type_id":"4","last_reported":1733069422,"current_range_meters":23200,"station_id":"ce4bhr92rcd13ifvqhsg","pricing_plan_id":"cebpf4jnsgd1na2vs0mg"},{"bike_id":"bb36789a-b318-4dc1-b6d7-dc2a83103592","system_id":"levelo_inurba_marseille","lat":43.2843,"lon":5.34986,"is_reserved":false,"is_disabled":false,"rental_uris":{"android":"levelo://app?vid=bb36789a-b318-4dc1-b6d7-dc2a83103592","ios":"levelo://app?vid=bb36789a-b318-4dc1-b6d7-dc2a83103592"},"vehicle_type_id":"4","last_reported":1733069422,"current_range_meters":34000,"station_id":"ce4bhbh2rcd13ifvqepg","pricing_plan_id":"cebpf4jnsgd1na2vs0mg"},{"bike_id":"7066298c-8444-4dbb-8e5a-afa45f0890f5","system_id":"levelo_inurba_marseille","lat":43.28863,"lon":5.39321,"is_reserved":false,"is_disabled":true,"rental_uris":{"android":"levelo://app?vid=7066298c-8444-4dbb-8e5a-afa45f0890f5","ios":"levelo://app?vid=7066298c-8444-4dbb-8e5a-afa45f0890f5"},"vehicle_type_id":"4","last_reported":1733069422,"current_range_meters":8000,"station_id":"ce4bh2p2rcd13ifvqdi0","pricing_plan_id":"cebpf4jnsgd1na2vs0mg"},{"bike_id":"79da6e11-068f-4f85-891a-bf5d6033ae1b","system_id":"levelo_inurba_marseille","lat":43.29196,"lon":5.39321,"is_reserved":false,"is_disabled":true,"rental_uris":{"android":"levelo://app?vid=79da6e11-068f-4f85-891a-bf5d6033ae1b","ios":"levelo://app?vid=79da6e11-068f-4f85-891a-bf5d6033ae1b"},"vehicle_type_id":"4","last_reported":1733069422,"current_range_meters":17600,"station_id":"ce4bh192rcd13ifvqdd0","pricing_plan_id":"cebpf4jnsgd1na2vs0mg"},{"bike_id":"0ca80638-0979-43b0-b956-894cbe5558b3","system_id":"levelo_inurba_marseille","lat":43.29095,"lon":5.38135,"is_reserved":false,"is_disabled":false,"rental_uris":{"android":"levelo://app?vid=0ca80638-0979-43b0-b956-894cbe5558b3","ios":"levelo://app?vid=0ca80638-0979-43b0-b956-894cbe5558b3"},"vehicle_type_id":"4","last_reported":1733069422,"current_range_meters":32800,"station_id":"ce4bh512rcd13ifvqe2g","pricing_plan_id":"cebpf4jnsgd1na2vs0mg"},{"bike_id":"6283ba52-7998-4fe1-a15a-526ef6008db9","system_id":"levelo_inurba_marseille","lat":43.29852,"lon":5.36289,"is_reserved":false,"is_disabled":false,"rental_uris":{"android":"levelo://app?vid=6283ba52-7998-4fe1-a15a-526ef6008db9","ios":"levelo://app?vid=6283ba52-7998-4fe1-a15a-526ef6008db9"},"vehicle_type_id":"4","last_reported":1733069422,"current_range_meters":24000,"station_id":"ce4bgpp2rcd13ifvqc3g","pricing_plan_id":"cebpf4jnsgd1na2vs0mg"},{"bike_id":"5faefd85-0697-4aae-b606-e724c5880c33","system_id":"levelo_inurba_marseille","lat":43.30211,"lon":5.37431,"is_reserved":false,"is_disabled":false,"rental_uris":{"android":"levelo://app?vid=5faefd85-0697-4aae-b606-e724c5880c33","ios":"levelo://app?vid=5faefd85-0697-4aae-b606-e724c5880c33"},"vehicle_type_id":"4","last_reported":1733069422,"current_range_meters":8400,"station_id":"","pricing_plan_id":"cebpf4jnsgd1na2vs0mg"},{"bike_id":"e055d797-391e-4629-8422-56ce69c96056","system_id":"levelo_inurba_marseille","lat":43.26036,"lon":5.37559,"is_reserved":false,"is_disabled":true,"rental_uris":{"android":"levelo://app?vid=e055d797-391e-4629-8422-56ce69c96056","ios":"levelo://app?vid=e055d797-391e-4629-8422-56ce69c96056"},"vehicle_type_id":"4","last_reported":1733069422,"current_range_meters":0,"station_id":"ce4bhgh2rcd13ifvqfa0","pricing_plan_id":"cebpf4jnsgd1na2vs0mg"},{"bike_id":"a3d6644a-0ffc-44af-b85b-65efc97f59c2","system_id":"levelo_inurba_marseille","lat":43.26206,"lon":5.3793,"is_reserved":false,"is_disabled":true,"rental_uris":{"android":"levelo://app?vid=a3d6644a-0ffc-44af-b85b-65efc97f59c2","ios":"levelo://app?vid=a3d6644a-0ffc-44af-b85b-65efc97f59c2"},"vehicle_type_id":"4","last_reported":1733069422,"current_range_meters":0,"station_id":"ce4bhjp2rcd13ifvqg90","pricing_plan_id":"cebpf4jnsgd1na2vs0mg"},{"bike_id":"3a5a04b3-0c26-49fc-9135-47b819f8179b","system_id":"levelo_inurba_marseille","lat":43.303522,"lon":5.4188,"is_reserved":false,"is_disabled":false,"rental_uris":{"android":"levelo://app?vid=3a5a04b3-0c26-49fc-9135-47b819f8179b","ios":"levelo://app?vid=3a5a04b3-0c26-49fc-9135-47b819f8179b"},"vehicle_type_id":"4","last_reported":1733069422,"current_range_meters":17200,"station_id":"ce4bhop2rcd13ifvqh7g","pricing_plan_id":"cebpf4jnsgd1na2vs0mg"},{"bike_id":"7e34e2cc-7262-4633-b6ee-8a75aae8a374","system_id":"levelo_inurba_marseille","lat":43.28995,"lon":5.35596,"is_reserved":false,"is_disabled":false,"rental_uris":{"android":"levelo://app?vid=7e34e2cc-7262-4633-b6ee-8a75aae8a374","ios":"levelo://app?vid=7e34e2cc-7262-4633-b6ee-8a75aae8a374"},"vehicle_type_id":"4","last_reported":1733069422,"current_range_meters":36000,"station_id":"ce4bhb92rcd13ifvqen0","pricing_plan_id":"cebpf4jnsgd1na2vs0mg"},{"bike_id":"06ca49cb-66d6-47e3-92d9-87eae336ebf3","system_id":"levelo_inurba_marseille","lat":43.27375,"lon":5.36257,"is_reserved":false,"is_disabled":false,"rental_uris":{"android":"levelo://app?vid=06ca49cb-66d6-47e3-92d9-87eae336ebf3","ios":"levelo://app?vid=06ca49cb-66d6-47e3-92d9-87eae336ebf3"},"vehicle_type_id":"4","last_reported":1733069422,"current_range_meters":38800,"station_id":"ce4bhbh2rcd13ifvqeo0","pricing_plan_id":"cebpf4jnsgd1na2vs0mg"},{"bike_id":"7ed2229e-6e77-42d8-826e-e15ec9f33077","system_id":"levelo_inurba_marseille","lat":43.26688,"lon":5.38275,"is_reserved":false,"is_disabled":true,"rental_uris":{"android":"levelo://app?vid=7ed2229e-6e77-42d8-826e-e15ec9f33077","ios":"levelo://app?vid=7ed2229e-6e77-42d8-826e-e15ec9f33077"},"vehicle_type_id":"4","last_reported":1733069422,"current_range_meters":16400,"station_id":"ce4bhg92rcd13ifvqf90","pricing_plan_id":"cebpf4jnsgd1na2vs0mg"},{"bike_id":"8fdf0680-166b-4766-a655-d02e84d131fa","system_id":"levelo_inurba_marseille","lat":43.30952,"lon":5.39052,"is_reserved":false,"is_disabled":true,"rental_uris":{"android":"levelo://app?vid=8fdf0680-166b-4766-a655-d02e84d131fa","ios":"levelo://app?vid=8fdf0680-166b-4766-a655-d02e84d131fa"},"vehicle_type_id":"4","last_reported":1733069422,"current_range_meters":38000,"station_id":"ce4bgup2rcd13ifvqco0","pricing_plan_id":"cebpf4jnsgd1na2vs0mg"},{"bike_id":"64cbfd6a-4a4e-4d37-982c-18402a201eee","system_id":"levelo_inurba_marseille","lat":43.28671,"lon":5.36342,"is_reserved":false,"is_disabled":true,"rental_uris":{"android":"levelo://app?vid=64cbfd6a-4a4e-4d37-982c-18402a201eee","ios":"levelo://app?vid=64cbfd6a-4a4e-4d37-982c-18402a201eee"},"vehicle_type_id":"4","last_reported":1733069422,"current_range_meters":16400,"station_id":"ce4bhah2rcd13ifvqej0","pricing_plan_id":"cebpf4jnsgd1na2vs0mg"},{"bike_id":"60a749b7-1158-49e1-a7f7-40118c10259a","system_id":"levelo_inurba_marseille","lat":43.2841,"lon":5.3752,"is_reserved":false,"is_disabled":false,"rental_uris":{"android":"levelo://app?vid=60a749b7-1158-49e1-a7f7-40118c10259a","ios":"levelo://app?vid=60a749b7-1158-49e1-a7f7-40118c10259a"},"vehicle_type_id":"4","last_reported":1733069422,"current_range_meters":33600,"station_id":"ce4bh412rcd13ifvqds0","pricing_plan_id":"cebpf4jnsgd1na2vs0mg"},{"bike_id":"f792d34c-1c6d-47c1-a35b-7fabd691333d","system_id":"levelo_inurba_marseille","lat":43.33722,"lon":5.39186,"is_reserved":false,"is_disabled":false,"rental_uris":{"android":"levelo://app?vid=f792d34c-1c6d-47c1-a35b-7fabd691333d","ios":"levelo://app?vid=f792d34c-1c6d-47c1-a35b-7fabd691333d"},"vehicle_type_id":"4","last_reported":1733069422,"current_range_meters":26800,"station_id":"ce4bhr92rcd13ifvqhsg","pricing_plan_id":"cebpf4jnsgd1na2vs0mg"},{"bike_id":"209c0815-1137-465b-b0d6-13fcf1b7a485","system_id":"levelo_inurba_marseille","lat":43.2955,"lon":5.42278,"is_reserved":false,"is_disabled":false,"rental_uris":{"android":"levelo://app?vid=209c0815-1137-465b-b0d6-13fcf1b7a485","ios":"levelo://app?vid=209c0815-1137-465b-b0d6-13fcf1b7a485"},"vehicle_type_id":"4","last_reported":1733069422,"current_range_meters":33600,"station_id":"ce4bhph2rcd13ifvqhdg","pricing_plan_id":"cebpf4jnsgd1na2vs0mg"},{"bike_id":"234ec9ce-2fc9-4c1f-971c-3990269a9b25","system_id":"levelo_inurba_marseille","lat":43.27175,"lon":5.40993,"is_reserved":false,"is_disabled":false,"rental_uris":{"android":"levelo://app?vid=234ec9ce-2fc9-4c1f-971c-3990269a9b25","ios":"levelo://app?vid=234ec9ce-2fc9-4c1f-971c-3990269a9b25"},"vehicle_type_id":"4","last_reported":1733069422,"current_range_meters":38400,"station_id":"ce4bhl12rcd13ifvqgf0","pricing_plan_id":"cebpf4jnsgd1na2vs0mg"},{"bike_id":"ae030327-dc1b-4161-b2b4-26e091732c5f","system_id":"levelo_inurba_marseille","lat":43.30434,"lon":5.3975,"is_reserved":false,"is_disabled":false,"rental_uris":{"android":"levelo://app?vid=ae030327-dc1b-4161-b2b4-26e091732c5f","ios":"levelo://app?vid=ae030327-dc1b-4161-b2b4-26e091732c5f"},"vehicle_type_id":"4","last_reported":1733069422,"current_range_meters":20800,"station_id":"ce4bh092rcd13ifvqd20","pricing_plan_id":"cebpf4jnsgd1na2vs0mg"},{"bike_id":"67fa2a9e-eed8-4ed6-bdd8-7d1023a52b4e","system_id":"levelo_inurba_marseille","lat":43.26931,"lon":5.38924,"is_reserved":false,"is_disabled":true,"rental_uris":{"android":"levelo://app?vid=67fa2a9e-eed8-4ed6-bdd8-7d1023a52b4e","ios":"levelo://app?vid=67fa2a9e-eed8-4ed6-bdd8-7d1023a52b4e"},"vehicle_type_id":"4","last_reported":1733069422,"current_range_meters":4800,"station_id":"ce4bhhh2rcd13ifvqfl0","pricing_plan_id":"cebpf4jnsgd1na2vs0mg"},{"bike_id":"c8537d05-a067-41ab-8139-dc89a2af92b1","system_id":"levelo_inurba_marseille","lat":43.31893,"lon":5.40736,"is_reserved":false,"is_disabled":false,"rental_uris":{"android":"levelo://app?vid=c8537d05-a067-41ab-8139-dc89a2af92b1","ios":"levelo://app?vid=c8537d05-a067-41ab-8139-dc89a2af92b1"},"vehicle_type_id":"4","last_reported":1733069422,"current_range_meters":16000,"station_id":"ce4bhq12rcd13ifvqhig","pricing_plan_id":"cebpf4jnsgd1na2vs0mg"},{"bike_id":"a78cc994-3ea2-41f7-bd21-308f522300d1","system_id":"levelo_inurba_marseille","lat":43.29032,"lon":5.38655,"is_reserved":false,"is_disabled":false,"rental_uris":{"android":"levelo://app?vid=a78cc994-3ea2-41f7-bd21-308f522300d1","ios":"levelo://app?vid=a78cc994-3ea2-41f7-bd21-308f522300d1"},"vehicle_type_id":"4","last_reported":1733069422,"current_range_meters":38800,"station_id":"ce4bh4p2rcd13ifvqe0g","pricing_plan_id":"cebpf4jnsgd1na2vs0mg"},{"bike_id":"1f426c92-529a-4761-bee0-cd2e4cdf3173","system_id":"levelo_inurba_marseille","lat":43.29907,"lon":5.3813,"is_reserved":false,"is_disabled":false,"rental_uris":{"android":"levelo://app?vid=1f426c92-529a-4761-bee0-cd2e4cdf3173","ios":"levelo://app?vid=1f426c92-529a-4761-bee0-cd2e4cdf3173"},"vehicle_type_id":"4","last_reported":1733069422,"current_range_meters":8800,"station_id":"ce4bgj12rcd13ifvqbc0","pricing_plan_id":"cebpf4jnsgd1na2vs0mg"},{"bike_id":"990a2c6a-7eed-4714-af95-7231412fade6","system_id":"levelo_inurba_marseille","lat":43.29624,"lon":5.37719,"is_reserved":false,"is_disabled":true,"rental_uris":{"android":"levelo://app?vid=990a2c6a-7eed-4714-af95-7231412fade6","ios":"levelo://app?vid=990a2c6a-7eed-4714-af95-7231412fade6"},"vehicle_type_id":"4","last_reported":1733069422,"current_range_meters":1200,"station_id":"ce4bgi92rcd13ifvqb90","pricing_plan_id":"cebpf4jnsgd1na2vs0mg"},{"bike_id":"4da945fa-bec8-4861-be2d-aebc52ed6cbf","system_id":"levelo_inurba_marseille","lat":43.30142,"lon":5.37417,"is_reserved":false,"is_disabled":false,"rental_uris":{"android":"levelo://app?vid=4da945fa-bec8-4861-be2d-aebc52ed6cbf","ios":"levelo://app?vid=4da945fa-bec8-4861-be2d-aebc52ed6cbf"},"vehicle_type_id":"4","last_reported":1733069422,"current_range_meters":8400,"station_id":"ce4bgs92rcd13ifvqcc0","pricing_plan_id":"cebpf4jnsgd1na2vs0mg"},{"bike_id":"cce025e4-7c3c-43a5-8266-b8071aef3c28","system_id":"levelo_inurba_marseille","lat":43.23193,"lon":5.35557,"is_reserved":false,"is_disabled":false,"rental_uris":{"android":"levelo://app?vid=cce025e4-7c3c-43a5-8266-b8071aef3c28","ios":"levelo://app?vid=cce025e4-7c3c-43a5-8266-b8071aef3c28"},"vehicle_type_id":"4","last_reported":1733069422,"current_range_meters":38800,"station_id":"ce4bhu92rcd13ifvqi70","pricing_plan_id":"cebpf4jnsgd1na2vs0mg"},{"bike_id":"97acca88-0a38-41da-b0a8-00b2936818e7","system_id":"levelo_inurba_marseille","lat":43.28421,"lon":5.34979,"is_reserved":false,"is_disabled":false,"rental_uris":{"android":"levelo://app?vid=97acca88-0a38-41da-b0a8-00b2936818e7","ios":"levelo://app?vid=97acca88-0a38-41da-b0a8-00b2936818e7"},"vehicle_type_id":"4","last_reported":1733069422,"current_range_meters":30400,"station_id":"ce4bhbh2rcd13ifvqepg","pricing_plan_id":"cebpf4jnsgd1na2vs0mg"},{"bike_id":"45c95cf3-1aa9-4af9-a9a3-7dba50ecc20e","system_id":"levelo_inurba_marseille","lat":43.27446,"lon":5.40727,"is_reserved":false,"is_disabled":false,"rental_uris":{"android":"levelo://app?vid=45c95cf3-1aa9-4af9-a9a3-7dba50ecc20e","ios":"levelo://app?vid=45c95cf3-1aa9-4af9-a9a3-7dba50ecc20e"},"vehicle_type_id":"4","last_reported":1733069422,"current_range_meters":18800,"station_id":"","pricing_plan_id":"cebpf4jnsgd1na2vs0mg"},{"bike_id":"bc749360-3ce4-4dd6-a0ac-83aa82c323a7","system_id":"levelo_inurba_marseille","lat":43.28154,"lon":5.42642,"is_reserved":false,"is_disabled":true,"rental_uris":{"android":"levelo://app?vid=bc749360-3ce4-4dd6-a0ac-83aa82c323a7","ios":"levelo://app?vid=bc749360-3ce4-4dd6-a0ac-83aa82c323a7"},"vehicle_type_id":"4","last_reported":1733069422,"current_range_meters":29600,"station_id":"ce4bhnh2rcd13ifvqgug","pricing_plan_id":"cebpf4jnsgd1na2vs0mg"},{"bike_id":"5d6b9054-f0d7-4bd5-b7f9-d11904e06096","system_id":"levelo_inurba_marseille","lat":43.27376,"lon":5.36253,"is_reserved":false,"is_disabled":false,"rental_uris":{"android":"levelo://app?vid=5d6b9054-f0d7-4bd5-b7f9-d11904e06096","ios":"levelo://app?vid=5d6b9054-f0d7-4bd5-b7f9-d11904e06096"},"vehicle_type_id":"4","last_reported":1733069422,"current_range_meters":38800,"station_id":"ce4bhbh2rcd13ifvqeo0","pricing_plan_id":"cebpf4jnsgd1na2vs0mg"},{"bike_id":"7a08c9a0-26b0-47fa-a62c-36e04791fc32","system_id":"levelo_inurba_marseille","lat":43.26564,"lon":5.39004,"is_reserved":false,"is_disabled":false,"rental_uris":{"android":"levelo://app?vid=7a08c9a0-26b0-47fa-a62c-36e04791fc32","ios":"levelo://app?vid=7a08c9a0-26b0-47fa-a62c-36e04791fc32"},"vehicle_type_id":"4","last_reported":1733069422,"current_range_meters":25200,"station_id":"ce4bhe12rcd13ifvqf30","pricing_plan_id":"cebpf4jnsgd1na2vs0mg"},{"bike_id":"4d4c884f-6933-49c0-8899-f9856d90f44d","system_id":"levelo_inurba_marseille","lat":43.29748,"lon":5.37971,"is_reserved":false,"is_disabled":true,"rental_uris":{"android":"levelo://app?vid=4d4c884f-6933-49c0-8899-f9856d90f44d","ios":"levelo://app?vid=4d4c884f-6933-49c0-8899-f9856d90f44d"},"vehicle_type_id":"4","last_reported":1733069422,"current_range_meters":0,"station_id":"","pricing_plan_id":"cebpf4jnsgd1na2vs0mg"},{"bike_id":"49383f8c-5e0c-4bb5-aa2b-e1c81f4536f3","system_id":"levelo_inurba_marseille","lat":43.32294,"lon":5.38261,"is_reserved":false,"is_disabled":false,"rental_uris":{"android":"levelo://app?vid=49383f8c-5e0c-4bb5-aa2b-e1c81f4536f3","ios":"levelo://app?vid=49383f8c-5e0c-4bb5-aa2b-e1c81f4536f3"},"vehicle_type_id":"4","last_reported":1733069422,"current_range_meters":24800,"station_id":"ce4bhr12rcd13ifvqhqg","pricing_plan_id":"cebpf4jnsgd1na2vs0mg"},{"bike_id":"362acf97-9e8f-4c3e-8574-4958ae2ff74f","system_id":"levelo_inurba_marseille","lat":43.26194,"lon":5.42073,"is_reserved":false,"is_disabled":false,"rental_uris":{"android":"levelo://app?vid=362acf97-9e8f-4c3e-8574-4958ae2ff74f","ios":"levelo://app?vid=362acf97-9e8f-4c3e-8574-4958ae2ff74f"},"vehicle_type_id":"4","last_reported":1733069422,"current_range_meters":27600,"station_id":"","pricing_plan_id":"cebpf4jnsgd1na2vs0mg"},{"bike_id":"f070b46f-f295-4869-946e-332934d2e60a","system_id":"levelo_inurba_marseille","lat":43.22926,"lon":5.35374,"is_reserved":false,"is_disabled":true,"rental_uris":{"android":"levelo://app?vid=f070b46f-f295-4869-946e-332934d2e60a","ios":"levelo://app?vid=f070b46f-f295-4869-946e-332934d2e60a"},"vehicle_type_id":"4","last_reported":1733069422,"current_range_meters":2000,"station_id":"cpo3532slgdg3j2ikp40","pricing_plan_id":"cebpf4jnsgd1na2vs0mg"},{"bike_id":"c4936f8d-ff17-4c25-aa9f-3d843afb3b3f","system_id":"levelo_inurba_marseille","lat":43.29731,"lon":5.37689,"is_reserved":false,"is_disabled":false,"rental_uris":{"android":"levelo://app?vid=c4936f8d-ff17-4c25-aa9f-3d843afb3b3f","ios":"levelo://app?vid=c4936f8d-ff17-4c25-aa9f-3d843afb3b3f"},"vehicle_type_id":"4","last_reported":1733069422,"current_range_meters":38800,"station_id":"ce4bgkh2rcd13ifvqbl0","pricing_plan_id":"cebpf4jnsgd1na2vs0mg"},{"bike_id":"b7b33697-14a7-4110-9b8b-4194e6ef5f3f","system_id":"levelo_inurba_marseille","lat":43.27278,"lon":5.39204,"is_reserved":false,"is_disabled":true,"rental_uris":{"android":"levelo://app?vid=b7b33697-14a7-4110-9b8b-4194e6ef5f3f","ios":"levelo://app?vid=b7b33697-14a7-4110-9b8b-4194e6ef5f3f"},"vehicle_type_id":"4","last_reported":1733069422,"current_range_meters":0,"station_id":"","pricing_plan_id":"cebpf4jnsgd1na2vs0mg"},{"bike_id":"ac49fba4-30df-4893-b052-7d9d76fd86a2","system_id":"levelo_inurba_marseille","lat":43.2926,"lon":5.38436,"is_reserved":false,"is_disabled":true,"rental_uris":{"android":"levelo://app?vid=ac49fba4-30df-4893-b052-7d9d76fd86a2","ios":"levelo://app?vid=ac49fba4-30df-4893-b052-7d9d76fd86a2"},"vehicle_type_id":"4","last_reported":1733069422,"current_range_meters":11200,"station_id":"ce4bh692rcd13ifvqea0","pricing_plan_id":"cebpf4jnsgd1na2vs0mg"},{"bike_id":"e56a37c8-7f3f-4715-92ec-c7eb723438d4","system_id":"levelo_inurba_marseille","lat":43.31235,"lon":5.36881,"is_reserved":false,"is_disabled":false,"rental_uris":{"android":"levelo://app?vid=e56a37c8-7f3f-4715-92ec-c7eb723438d4","ios":"levelo://app?vid=e56a37c8-7f3f-4715-92ec-c7eb723438d4"},"vehicle_type_id":"4","last_reported":1733069422,"current_range_meters":39200,"station_id":"ce4bgl92rcd13ifvqbq0","pricing_plan_id":"cebpf4jnsgd1na2vs0mg"},{"bike_id":"a3d540a5-c9e8-4c92-9399-ec0baac57a71","system_id":"levelo_inurba_marseille","lat":43.29531,"lon":5.38557,"is_reserved":false,"is_disabled":true,"rental_uris":{"android":"levelo://app?vid=a3d540a5-c9e8-4c92-9399-ec0baac57a71","ios":"levelo://app?vid=a3d540a5-c9e8-4c92-9399-ec0baac57a71"},"vehicle_type_id":"4","last_reported":1733069422,"current_range_meters":32800,"station_id":"ce4bgih2rcd13ifvqba0","pricing_plan_id":"cebpf4jnsgd1na2vs0mg"},{"bike_id":"20f69b9d-0755-462d-bc60-9fcc73c797c6","system_id":"levelo_inurba_marseille","lat":43.27557,"lon":5.38435,"is_reserved":false,"is_disabled":false,"rental_uris":{"android":"levelo://app?vid=20f69b9d-0755-462d-bc60-9fcc73c797c6","ios":"levelo://app?vid=20f69b9d-0755-462d-bc60-9fcc73c797c6"},"vehicle_type_id":"4","last_reported":1733069422,"current_range_meters":16000,"station_id":"ce4bhh92rcd13ifvqfi0","pricing_plan_id":"cebpf4jnsgd1na2vs0mg"},{"bike_id":"c70bed4a-03c3-4d48-9d9d-f10e1949ee20","system_id":"levelo_inurba_marseille","lat":43.25004,"lon":5.38925,"is_reserved":false,"is_disabled":true,"rental_uris":{"android":"levelo://app?vid=c70bed4a-03c3-4d48-9d9d-f10e1949ee20","ios":"levelo://app?vid=c70bed4a-03c3-4d48-9d9d-f10e1949ee20"},"vehicle_type_id":"4","last_reported":1733069422,"current_range_meters":0,"station_id":"ce4bhgp2rcd13ifvqfd0","pricing_plan_id":"cebpf4jnsgd1na2vs0mg"},{"bike_id":"3abdb507-aca9-41cf-ab5c-c13fb795c3a0","system_id":"levelo_inurba_marseille","lat":43.28417,"lon":5.34983,"is_reserved":false,"is_disabled":true,"rental_uris":{"android":"levelo://app?vid=3abdb507-aca9-41cf-ab5c-c13fb795c3a0","ios":"levelo://app?vid=3abdb507-aca9-41cf-ab5c-c13fb795c3a0"},"vehicle_type_id":"4","last_reported":1733069422,"current_range_meters":0,"station_id":"ce4bhbh2rcd13ifvqepg","pricing_plan_id":"cebpf4jnsgd1na2vs0mg"},{"bike_id":"55d2482e-f464-4e37-8acf-4836f3b2a145","system_id":"levelo_inurba_marseille","lat":43.28611,"lon":5.37065,"is_reserved":false,"is_disabled":false,"rental_uris":{"android":"levelo://app?vid=55d2482e-f464-4e37-8acf-4836f3b2a145","ios":"levelo://app?vid=55d2482e-f464-4e37-8acf-4836f3b2a145"},"vehicle_type_id":"4","last_reported":1733069422,"current_range_meters":28400,"station_id":"ce4bht12rcd13ifvqi60","pricing_plan_id":"cebpf4jnsgd1na2vs0mg"},{"bike_id":"957035af-634d-4c30-bf1e-c54867c31f27","system_id":"levelo_inurba_marseille","lat":43.31758,"lon":5.39014,"is_reserved":false,"is_disabled":false,"rental_uris":{"android":"levelo://app?vid=957035af-634d-4c30-bf1e-c54867c31f27","ios":"levelo://app?vid=957035af-634d-4c30-bf1e-c54867c31f27"},"vehicle_type_id":"4","last_reported":1733069422,"current_range_meters":37600,"station_id":"ce4bhqp2rcd13ifvqhng","pricing_plan_id":"cebpf4jnsgd1na2vs0mg"},{"bike_id":"2dd7f581-f868-44ec-a007-ee8c5aadb77d","system_id":"levelo_inurba_marseille","lat":43.2611,"lon":5.39373,"is_reserved":false,"is_disabled":false,"rental_uris":{"android":"levelo://app?vid=2dd7f581-f868-44ec-a007-ee8c5aadb77d","ios":"levelo://app?vid=2dd7f581-f868-44ec-a007-ee8c5aadb77d"},"vehicle_type_id":"4","last_reported":1733069422,"current_range_meters":38800,"station_id":"","pricing_plan_id":"cebpf4jnsgd1na2vs0mg"},{"bike_id":"e6f993d5-0068-49b5-923a-37c22ac42d38","system_id":"levelo_inurba_marseille","lat":43.28854,"lon":5.35862,"is_reserved":false,"is_disabled":false,"rental_uris":{"android":"levelo://app?vid=e6f993d5-0068-49b5-923a-37c22ac42d38","ios":"levelo://app?vid=e6f993d5-0068-49b5-923a-37c22ac42d38"},"vehicle_type_id":"4","last_reported":1733069422,"current_range_meters":32000,"station_id":"ce4bhb12rcd13ifvqem0","pricing_plan_id":"cebpf4jnsgd1na2vs0mg"},{"bike_id":"314d1365-c0f9-4b36-8299-e279909a774d","system_id":"levelo_inurba_marseille","lat":43.31214,"lon":5.36859,"is_reserved":false,"is_disabled":true,"rental_uris":{"android":"levelo://app?vid=314d1365-c0f9-4b36-8299-e279909a774d","ios":"levelo://app?vid=314d1365-c0f9-4b36-8299-e279909a774d"},"vehicle_type_id":"4","last_reported":1733069422,"current_range_meters":0,"station_id":"ce4bgl92rcd13ifvqbq0","pricing_plan_id":"cebpf4jnsgd1na2vs0mg"},{"bike_id":"a0d8c5dc-0261-4057-8633-570358d88be8","system_id":"levelo_inurba_marseille","lat":43.24808,"lon":5.37455,"is_reserved":false,"is_disabled":true,"rental_uris":{"android":"levelo://app?vid=a0d8c5dc-0261-4057-8633-570358d88be8","ios":"levelo://app?vid=a0d8c5dc-0261-4057-8633-570358d88be8"},"vehicle_type_id":"4","last_reported":1733069422,"current_range_meters":9200,"station_id":"ce4bhgh2rcd13ifvqfb0","pricing_plan_id":"cebpf4jnsgd1na2vs0mg"},{"bike_id":"2a2dbee8-a0c0-4169-900d-382b045c6efe","system_id":"levelo_inurba_marseille","lat":43.282667,"lon":5.35075,"is_reserved":false,"is_disabled":false,"rental_uris":{"android":"levelo://app?vid=2a2dbee8-a0c0-4169-900d-382b045c6efe","ios":"levelo://app?vid=2a2dbee8-a0c0-4169-900d-382b045c6efe"},"vehicle_type_id":"4","last_reported":1733069422,"current_range_meters":16000,"station_id":"ce4bhbp2rcd13ifvqerg","pricing_plan_id":"cebpf4jnsgd1na2vs0mg"},{"bike_id":"3a7e70f6-d5e7-4a7d-8fc4-af36b6417f49","system_id":"levelo_inurba_marseille","lat":43.29033,"lon":5.35917,"is_reserved":false,"is_disabled":false,"rental_uris":{"android":"levelo://app?vid=3a7e70f6-d5e7-4a7d-8fc4-af36b6417f49","ios":"levelo://app?vid=3a7e70f6-d5e7-4a7d-8fc4-af36b6417f49"},"vehicle_type_id":"4","last_reported":1733069422,"current_range_meters":27200,"station_id":"ce4bha92rcd13ifvqeg0","pricing_plan_id":"cebpf4jnsgd1na2vs0mg"},{"bike_id":"982aeb83-135a-43d5-84a2-b27c6c6764e7","system_id":"levelo_inurba_marseille","lat":43.255,"lon":5.37651,"is_reserved":false,"is_disabled":false,"rental_uris":{"android":"levelo://app?vid=982aeb83-135a-43d5-84a2-b27c6c6764e7","ios":"levelo://app?vid=982aeb83-135a-43d5-84a2-b27c6c6764e7"},"vehicle_type_id":"4","last_reported":1733069422,"current_range_meters":37600,"station_id":"ce4bhh12rcd13ifvqff0","pricing_plan_id":"cebpf4jnsgd1na2vs0mg"},{"bike_id":"064861a6-5a15-4e22-bc40-26ea165590ab","system_id":"levelo_inurba_marseille","lat":43.29194,"lon":5.39325,"is_reserved":false,"is_disabled":true,"rental_uris":{"android":"levelo://app?vid=064861a6-5a15-4e22-bc40-26ea165590ab","ios":"levelo://app?vid=064861a6-5a15-4e22-bc40-26ea165590ab"},"vehicle_type_id":"4","last_reported":1733069422,"current_range_meters":24000,"station_id":"ce4bh192rcd13ifvqdd0","pricing_plan_id":"cebpf4jnsgd1na2vs0mg"},{"bike_id":"83187be1-7efa-435e-ae9b-74201cb4dec3","system_id":"levelo_inurba_marseille","lat":43.26686,"lon":5.38276,"is_reserved":false,"is_disabled":true,"rental_uris":{"android":"levelo://app?vid=83187be1-7efa-435e-ae9b-74201cb4dec3","ios":"levelo://app?vid=83187be1-7efa-435e-ae9b-74201cb4dec3"},"vehicle_type_id":"4","last_reported":1733069422,"current_range_meters":37600,"station_id":"ce4bhg92rcd13ifvqf90","pricing_plan_id":"cebpf4jnsgd1na2vs0mg"},{"bike_id":"c111e9fb-60e5-4181-8897-e7b4a184b8b9","system_id":"levelo_inurba_marseille","lat":43.31881,"lon":5.40737,"is_reserved":false,"is_disabled":false,"rental_uris":{"android":"levelo://app?vid=c111e9fb-60e5-4181-8897-e7b4a184b8b9","ios":"levelo://app?vid=c111e9fb-60e5-4181-8897-e7b4a184b8b9"},"vehicle_type_id":"4","last_reported":1733069422,"current_range_meters":10000,"station_id":"ce4bhq12rcd13ifvqhig","pricing_plan_id":"cebpf4jnsgd1na2vs0mg"},{"bike_id":"e8fa7be1-2407-41a7-b843-e7c70f1917ef","system_id":"levelo_inurba_marseille","lat":43.27611,"lon":5.36109,"is_reserved":false,"is_disabled":true,"rental_uris":{"android":"levelo://app?vid=e8fa7be1-2407-41a7-b843-e7c70f1917ef","ios":"levelo://app?vid=e8fa7be1-2407-41a7-b843-e7c70f1917ef"},"vehicle_type_id":"4","last_reported":1733069422,"current_range_meters":0,"station_id":"ce4bgj92rcd13ifvqbe0","pricing_plan_id":"cebpf4jnsgd1na2vs0mg"},{"bike_id":"4561b50e-b2e7-469a-9e64-69d7b1bd60cb","system_id":"levelo_inurba_marseille","lat":43.30909,"lon":5.36842,"is_reserved":false,"is_disabled":false,"rental_uris":{"android":"levelo://app?vid=4561b50e-b2e7-469a-9e64-69d7b1bd60cb","ios":"levelo://app?vid=4561b50e-b2e7-469a-9e64-69d7b1bd60cb"},"vehicle_type_id":"4","last_reported":1733069422,"current_range_meters":8000,"station_id":"ce4bgn92rcd13ifvqbvg","pricing_plan_id":"cebpf4jnsgd1na2vs0mg"},{"bike_id":"3d8574ab-106f-4c65-b99e-e18a4d6a2c36","system_id":"levelo_inurba_marseille","lat":43.2928,"lon":5.40119,"is_reserved":false,"is_disabled":false,"rental_uris":{"android":"levelo://app?vid=3d8574ab-106f-4c65-b99e-e18a4d6a2c36","ios":"levelo://app?vid=3d8574ab-106f-4c65-b99e-e18a4d6a2c36"},"vehicle_type_id":"4","last_reported":1733069422,"current_range_meters":4800,"station_id":"ce4bh312rcd13ifvqdk0","pricing_plan_id":"cebpf4jnsgd1na2vs0mg"},{"bike_id":"ba900c6a-b78a-48cb-b996-dccb035603f4","system_id":"levelo_inurba_marseille","lat":43.29535,"lon":5.37506,"is_reserved":false,"is_disabled":false,"rental_uris":{"android":"levelo://app?vid=ba900c6a-b78a-48cb-b996-dccb035603f4","ios":"levelo://app?vid=ba900c6a-b78a-48cb-b996-dccb035603f4"},"vehicle_type_id":"4","last_reported":1733069422,"current_range_meters":28000,"station_id":"ce4bgkp2rcd13ifvqbmg","pricing_plan_id":"cebpf4jnsgd1na2vs0mg"},{"bike_id":"4c91d0f8-5038-4c72-a862-06f4753ffc42","system_id":"levelo_inurba_marseille","lat":43.29842,"lon":5.36269,"is_reserved":false,"is_disabled":false,"rental_uris":{"android":"levelo://app?vid=4c91d0f8-5038-4c72-a862-06f4753ffc42","ios":"levelo://app?vid=4c91d0f8-5038-4c72-a862-06f4753ffc42"},"vehicle_type_id":"4","last_reported":1733069422,"current_range_meters":38800,"station_id":"ce4bgpp2rcd13ifvqc3g","pricing_plan_id":"cebpf4jnsgd1na2vs0mg"},{"bike_id":"6aa662e9-a3fe-478a-81d3-3aaf5a7ded6d","system_id":"levelo_inurba_marseille","lat":43.2782,"lon":5.40734,"is_reserved":false,"is_disabled":false,"rental_uris":{"android":"levelo://app?vid=6aa662e9-a3fe-478a-81d3-3aaf5a7ded6d","ios":"levelo://app?vid=6aa662e9-a3fe-478a-81d3-3aaf5a7ded6d"},"vehicle_type_id":"4","last_reported":1733069422,"current_range_meters":24800,"station_id":"ce4bhnh2rcd13ifvqgtg","pricing_plan_id":"cebpf4jnsgd1na2vs0mg"},{"bike_id":"53c122ee-fe79-42ba-a28a-c5954e60eac3","system_id":"levelo_inurba_marseille","lat":43.26916,"lon":5.40309,"is_reserved":false,"is_disabled":false,"rental_uris":{"android":"levelo://app?vid=53c122ee-fe79-42ba-a28a-c5954e60eac3","ios":"levelo://app?vid=53c122ee-fe79-42ba-a28a-c5954e60eac3"},"vehicle_type_id":"4","last_reported":1733069422,"current_range_meters":20000,"station_id":"ce501612rcd8frsf0b60","pricing_plan_id":"cebpf4jnsgd1na2vs0mg"},{"bike_id":"f079df81-b1f3-4ba7-8489-3b626e1055fa","system_id":"levelo_inurba_marseille","lat":43.2904,"lon":5.35921,"is_reserved":false,"is_disabled":false,"rental_uris":{"android":"levelo://app?vid=f079df81-b1f3-4ba7-8489-3b626e1055fa","ios":"levelo://app?vid=f079df81-b1f3-4ba7-8489-3b626e1055fa"},"vehicle_type_id":"4","last_reported":1733069422,"current_range_meters":38800,"station_id":"ce4bha92rcd13ifvqeg0","pricing_plan_id":"cebpf4jnsgd1na2vs0mg"},{"bike_id":"426e0eab-15da-4f7e-98cd-95d550b9787f","system_id":"levelo_inurba_marseille","lat":43.30544,"lon":5.36706,"is_reserved":false,"is_disabled":false,"rental_uris":{"android":"levelo://app?vid=426e0eab-15da-4f7e-98cd-95d550b9787f","ios":"levelo://app?vid=426e0eab-15da-4f7e-98cd-95d550b9787f"},"vehicle_type_id":"4","last_reported":1733069422,"current_range_meters":24400,"station_id":"ce4bgrp2rcd13ifvqc9g","pricing_plan_id":"cebpf4jnsgd1na2vs0mg"},{"bike_id":"87a9430a-b45d-43a2-87f0-8b70e9f16861","system_id":"levelo_inurba_marseille","lat":43.28156,"lon":5.42642,"is_reserved":false,"is_disabled":false,"rental_uris":{"android":"levelo://app?vid=87a9430a-b45d-43a2-87f0-8b70e9f16861","ios":"levelo://app?vid=87a9430a-b45d-43a2-87f0-8b70e9f16861"},"vehicle_type_id":"4","last_reported":1733069422,"current_range_meters":6800,"station_id":"ce4bhnh2rcd13ifvqgug","pricing_plan_id":"cebpf4jnsgd1na2vs0mg"},{"bike_id":"c54c0da2-3b9c-460f-bd0a-619cb288f111","system_id":"levelo_inurba_marseille","lat":43.29715,"lon":5.37703,"is_reserved":false,"is_disabled":false,"rental_uris":{"android":"levelo://app?vid=c54c0da2-3b9c-460f-bd0a-619cb288f111","ios":"levelo://app?vid=c54c0da2-3b9c-460f-bd0a-619cb288f111"},"vehicle_type_id":"4","last_reported":1733069422,"current_range_meters":16800,"station_id":"ce4bgkh2rcd13ifvqbl0","pricing_plan_id":"cebpf4jnsgd1na2vs0mg"},{"bike_id":"f5abc14a-fa05-4088-8490-bad3f4e13383","system_id":"levelo_inurba_marseille","lat":43.2954,"lon":5.37504,"is_reserved":false,"is_disabled":false,"rental_uris":{"android":"levelo://app?vid=f5abc14a-fa05-4088-8490-bad3f4e13383","ios":"levelo://app?vid=f5abc14a-fa05-4088-8490-bad3f4e13383"},"vehicle_type_id":"4","last_reported":1733069422,"current_range_meters":19600,"station_id":"ce4bgkp2rcd13ifvqbmg","pricing_plan_id":"cebpf4jnsgd1na2vs0mg"},{"bike_id":"c828f31a-0c94-4a20-ac1f-2408855595e0","system_id":"levelo_inurba_marseille","lat":43.31265,"lon":5.40165,"is_reserved":false,"is_disabled":true,"rental_uris":{"android":"levelo://app?vid=c828f31a-0c94-4a20-ac1f-2408855595e0","ios":"levelo://app?vid=c828f31a-0c94-4a20-ac1f-2408855595e0"},"vehicle_type_id":"4","last_reported":1733069422,"current_range_meters":0,"station_id":"ce4bh092rcd13ifvqd30","pricing_plan_id":"cebpf4jnsgd1na2vs0mg"},{"bike_id":"af12a5f9-720e-4019-987d-3779fe2b91a2","system_id":"levelo_inurba_marseille","lat":43.30825,"lon":5.37405,"is_reserved":false,"is_disabled":true,"rental_uris":{"android":"levelo://app?vid=af12a5f9-720e-4019-987d-3779fe2b91a2","ios":"levelo://app?vid=af12a5f9-720e-4019-987d-3779fe2b91a2"},"vehicle_type_id":"4","last_reported":1733069422,"current_range_meters":0,"station_id":"","pricing_plan_id":"cebpf4jnsgd1na2vs0mg"},{"bike_id":"93605057-a509-44d9-bf09-ed21f25dffea","system_id":"levelo_inurba_marseille","lat":43.28448,"lon":5.39203,"is_reserved":false,"is_disabled":false,"rental_uris":{"android":"levelo://app?vid=93605057-a509-44d9-bf09-ed21f25dffea","ios":"levelo://app?vid=93605057-a509-44d9-bf09-ed21f25dffea"},"vehicle_type_id":"4","last_reported":1733069422,"current_range_meters":16400,"station_id":"ce4bhoh2rcd13ifvqh5g","pricing_plan_id":"cebpf4jnsgd1na2vs0mg"},{"bike_id":"b190b8f2-aa96-4cbf-8654-8be8cebaab3c","system_id":"levelo_inurba_marseille","lat":43.31231,"lon":5.3686,"is_reserved":false,"is_disabled":false,"rental_uris":{"android":"levelo://app?vid=b190b8f2-aa96-4cbf-8654-8be8cebaab3c","ios":"levelo://app?vid=b190b8f2-aa96-4cbf-8654-8be8cebaab3c"},"vehicle_type_id":"4","last_reported":1733069422,"current_range_meters":27200,"station_id":"ce4bgl92rcd13ifvqbq0","pricing_plan_id":"cebpf4jnsgd1na2vs0mg"},{"bike_id":"22f49356-60a7-45e3-90bd-7ed007b266cc","system_id":"levelo_inurba_marseille","lat":43.26938,"lon":5.40263,"is_reserved":false,"is_disabled":false,"rental_uris":{"android":"levelo://app?vid=22f49356-60a7-45e3-90bd-7ed007b266cc","ios":"levelo://app?vid=22f49356-60a7-45e3-90bd-7ed007b266cc"},"vehicle_type_id":"4","last_reported":1733069422,"current_range_meters":32000,"station_id":"cjm6bp8fraef2m0cb0m0","pricing_plan_id":"cebpf4jnsgd1na2vs0mg"},{"bike_id":"e8aaf989-f7c7-4f92-9039-2cedc59abe88","system_id":"levelo_inurba_marseille","lat":43.253846,"lon":5.418601,"is_reserved":false,"is_disabled":false,"rental_uris":{"android":"levelo://app?vid=e8aaf989-f7c7-4f92-9039-2cedc59abe88","ios":"levelo://app?vid=e8aaf989-f7c7-4f92-9039-2cedc59abe88"},"vehicle_type_id":"4","last_reported":1733069422,"current_range_meters":28400,"station_id":"","pricing_plan_id":"cebpf4jnsgd1na2vs0mg"},{"bike_id":"38fdde5e-f6df-4159-ba41-a1bf56251ada","system_id":"levelo_inurba_marseille","lat":43.23066,"lon":5.35492,"is_reserved":false,"is_disabled":false,"rental_uris":{"android":"levelo://app?vid=38fdde5e-f6df-4159-ba41-a1bf56251ada","ios":"levelo://app?vid=38fdde5e-f6df-4159-ba41-a1bf56251ada"},"vehicle_type_id":"4","last_reported":1733069422,"current_range_meters":23200,"station_id":"cpo3342slgdg3j2ifvpg","pricing_plan_id":"cebpf4jnsgd1na2vs0mg"},{"bike_id":"4a2be555-d056-454c-bed3-fe781ba86f8e","system_id":"levelo_inurba_marseille","lat":43.25886,"lon":5.39954,"is_reserved":false,"is_disabled":true,"rental_uris":{"android":"levelo://app?vid=4a2be555-d056-454c-bed3-fe781ba86f8e","ios":"levelo://app?vid=4a2be555-d056-454c-bed3-fe781ba86f8e"},"vehicle_type_id":"4","last_reported":1733069422,"current_range_meters":0,"station_id":"","pricing_plan_id":"cebpf4jnsgd1na2vs0mg"},{"bike_id":"65b64a9d-9905-4a08-b5b7-b05ed76c7785","system_id":"levelo_inurba_marseille","lat":43.28426,"lon":5.3499,"is_reserved":false,"is_disabled":false,"rental_uris":{"android":"levelo://app?vid=65b64a9d-9905-4a08-b5b7-b05ed76c7785","ios":"levelo://app?vid=65b64a9d-9905-4a08-b5b7-b05ed76c7785"},"vehicle_type_id":"4","last_reported":1733069422,"current_range_meters":38000,"station_id":"ce4bhbh2rcd13ifvqepg","pricing_plan_id":"cebpf4jnsgd1na2vs0mg"},{"bike_id":"cb680d94-5b19-4595-97b6-8746f8cacacf","system_id":"levelo_inurba_marseille","lat":43.31229,"lon":5.36853,"is_reserved":false,"is_disabled":false,"rental_uris":{"android":"levelo://app?vid=cb680d94-5b19-4595-97b6-8746f8cacacf","ios":"levelo://app?vid=cb680d94-5b19-4595-97b6-8746f8cacacf"},"vehicle_type_id":"4","last_reported":1733069422,"current_range_meters":39200,"station_id":"ce4bgl92rcd13ifvqbq0","pricing_plan_id":"cebpf4jnsgd1na2vs0mg"},{"bike_id":"bdaf15ef-30a6-43fb-b654-b47fa5d101b0","system_id":"levelo_inurba_marseille","lat":43.23194,"lon":5.35559,"is_reserved":false,"is_disabled":false,"rental_uris":{"android":"levelo://app?vid=bdaf15ef-30a6-43fb-b654-b47fa5d101b0","ios":"levelo://app?vid=bdaf15ef-30a6-43fb-b654-b47fa5d101b0"},"vehicle_type_id":"4","last_reported":1733069422,"current_range_meters":38800,"station_id":"ce4bhu92rcd13ifvqi70","pricing_plan_id":"cebpf4jnsgd1na2vs0mg"},{"bike_id":"b29b29e7-56fe-4da5-9be5-3e237f331a61","system_id":"levelo_inurba_marseille","lat":43.25726,"lon":5.41107,"is_reserved":false,"is_disabled":false,"rental_uris":{"android":"levelo://app?vid=b29b29e7-56fe-4da5-9be5-3e237f331a61","ios":"levelo://app?vid=b29b29e7-56fe-4da5-9be5-3e237f331a61"},"vehicle_type_id":"4","last_reported":1733069422,"current_range_meters":8800,"station_id":"ce4bhkp2rcd13ifvqgd0","pricing_plan_id":"cebpf4jnsgd1na2vs0mg"},{"bike_id":"41329919-d8a6-4529-9c36-e6723e50ee60","system_id":"levelo_inurba_marseille","lat":43.30311,"lon":5.39205,"is_reserved":false,"is_disabled":true,"rental_uris":{"android":"levelo://app?vid=41329919-d8a6-4529-9c36-e6723e50ee60","ios":"levelo://app?vid=41329919-d8a6-4529-9c36-e6723e50ee60"},"vehicle_type_id":"4","last_reported":1733069422,"current_range_meters":30000,"station_id":"ce4bgkh2rcd13ifvqbk0","pricing_plan_id":"cebpf4jnsgd1na2vs0mg"},{"bike_id":"3ec2af63-7cba-4635-8a69-907574b70c71","system_id":"levelo_inurba_marseille","lat":43.23194,"lon":5.35555,"is_reserved":false,"is_disabled":false,"rental_uris":{"android":"levelo://app?vid=3ec2af63-7cba-4635-8a69-907574b70c71","ios":"levelo://app?vid=3ec2af63-7cba-4635-8a69-907574b70c71"},"vehicle_type_id":"4","last_reported":1733069422,"current_range_meters":38800,"station_id":"ce4bhu92rcd13ifvqi70","pricing_plan_id":"cebpf4jnsgd1na2vs0mg"},{"bike_id":"dbe99caa-d7ea-4b45-b4ae-c58b738e5242","system_id":"levelo_inurba_marseille","lat":43.26681,"lon":5.38275,"is_reserved":false,"is_disabled":false,"rental_uris":{"android":"levelo://app?vid=dbe99caa-d7ea-4b45-b4ae-c58b738e5242","ios":"levelo://app?vid=dbe99caa-d7ea-4b45-b4ae-c58b738e5242"},"vehicle_type_id":"4","last_reported":1733069422,"current_range_meters":12000,"station_id":"ce4bhg92rcd13ifvqf90","pricing_plan_id":"cebpf4jnsgd1na2vs0mg"},{"bike_id":"000b518d-442b-4752-8b9a-e2fc3654d286","system_id":"levelo_inurba_marseille","lat":43.2944,"lon":5.39756,"is_reserved":false,"is_disabled":true,"rental_uris":{"android":"levelo://app?vid=000b518d-442b-4752-8b9a-e2fc3654d286","ios":"levelo://app?vid=000b518d-442b-4752-8b9a-e2fc3654d286"},"vehicle_type_id":"4","last_reported":1733069422,"current_range_meters":16400,"station_id":"ce4bh3h2rcd13ifvqdo0","pricing_plan_id":"cebpf4jnsgd1na2vs0mg"},{"bike_id":"e39d22a4-daed-483a-acbb-550d4592cfe0","system_id":"levelo_inurba_marseille","lat":43.30061,"lon":5.38834,"is_reserved":false,"is_disabled":true,"rental_uris":{"android":"levelo://app?vid=e39d22a4-daed-483a-acbb-550d4592cfe0","ios":"levelo://app?vid=e39d22a4-daed-483a-acbb-550d4592cfe0"},"vehicle_type_id":"4","last_reported":1733069422,"current_range_meters":0,"station_id":"","pricing_plan_id":"cebpf4jnsgd1na2vs0mg"},{"bike_id":"6e1a1141-c306-4785-8457-f109902f765d","system_id":"levelo_inurba_marseille","lat":43.29299,"lon":5.3746,"is_reserved":false,"is_disabled":false,"rental_uris":{"android":"levelo://app?vid=6e1a1141-c306-4785-8457-f109902f765d","ios":"levelo://app?vid=6e1a1141-c306-4785-8457-f109902f765d"},"vehicle_type_id":"4","last_reported":1733069422,"current_range_meters":36800,"station_id":"ce4bgi12rcd13ifvqb70","pricing_plan_id":"cebpf4jnsgd1na2vs0mg"},{"bike_id":"f9c8b933-6f3c-415b-a23a-3b43c2f5668d","system_id":"levelo_inurba_marseille","lat":43.23051,"lon":5.35501,"is_reserved":false,"is_disabled":true,"rental_uris":{"android":"levelo://app?vid=f9c8b933-6f3c-415b-a23a-3b43c2f5668d","ios":"levelo://app?vid=f9c8b933-6f3c-415b-a23a-3b43c2f5668d"},"vehicle_type_id":"4","last_reported":1733069422,"current_range_meters":30000,"station_id":"cpo3342slgdg3j2ifvpg","pricing_plan_id":"cebpf4jnsgd1na2vs0mg"},{"bike_id":"172dc3ef-e426-47b6-97cc-9102e129bc0a","system_id":"levelo_inurba_marseille","lat":43.30554,"lon":5.36703,"is_reserved":false,"is_disabled":false,"rental_uris":{"android":"levelo://app?vid=172dc3ef-e426-47b6-97cc-9102e129bc0a","ios":"levelo://app?vid=172dc3ef-e426-47b6-97cc-9102e129bc0a"},"vehicle_type_id":"4","last_reported":1733069422,"current_range_meters":36400,"station_id":"ce4bgrp2rcd13ifvqc9g","pricing_plan_id":"cebpf4jnsgd1na2vs0mg"},{"bike_id":"f1e81cdf-1cd9-4575-979a-722ad3cb8427","system_id":"levelo_inurba_marseille","lat":43.31327,"lon":5.3969,"is_reserved":false,"is_disabled":false,"rental_uris":{"android":"levelo://app?vid=f1e81cdf-1cd9-4575-979a-722ad3cb8427","ios":"levelo://app?vid=f1e81cdf-1cd9-4575-979a-722ad3cb8427"},"vehicle_type_id":"4","last_reported":1733069422,"current_range_meters":24000,"station_id":"ce4bgvp2rcd13ifvqcu0","pricing_plan_id":"cebpf4jnsgd1na2vs0mg"},{"bike_id":"3fe5cabb-733a-4e96-817f-76e994ad4663","system_id":"levelo_inurba_marseille","lat":43.29575,"lon":5.37508,"is_reserved":false,"is_disabled":false,"rental_uris":{"android":"levelo://app?vid=3fe5cabb-733a-4e96-817f-76e994ad4663","ios":"levelo://app?vid=3fe5cabb-733a-4e96-817f-76e994ad4663"},"vehicle_type_id":"4","last_reported":1733069422,"current_range_meters":38800,"station_id":"ce4bgh92rcd13ifvqb50","pricing_plan_id":"cebpf4jnsgd1na2vs0mg"},{"bike_id":"06e6470a-e7c6-43e1-8faf-2131a4d6a529","system_id":"levelo_inurba_marseille","lat":43.23185,"lon":5.39982,"is_reserved":false,"is_disabled":false,"rental_uris":{"android":"levelo://app?vid=06e6470a-e7c6-43e1-8faf-2131a4d6a529","ios":"levelo://app?vid=06e6470a-e7c6-43e1-8faf-2131a4d6a529"},"vehicle_type_id":"4","last_reported":1733069422,"current_range_meters":38800,"station_id":"ce4bhn12rcd13ifvqgqg","pricing_plan_id":"cebpf4jnsgd1na2vs0mg"},{"bike_id":"db8e391e-6be6-4868-b2fe-ccd56aab15f6","system_id":"levelo_inurba_marseille","lat":43.27382,"lon":5.36255,"is_reserved":false,"is_disabled":false,"rental_uris":{"android":"levelo://app?vid=db8e391e-6be6-4868-b2fe-ccd56aab15f6","ios":"levelo://app?vid=db8e391e-6be6-4868-b2fe-ccd56aab15f6"},"vehicle_type_id":"4","last_reported":1733069422,"current_range_meters":7200,"station_id":"ce4bhbh2rcd13ifvqeo0","pricing_plan_id":"cebpf4jnsgd1na2vs0mg"},{"bike_id":"b535dfd0-ec01-4a13-996f-71245b6113cc","system_id":"levelo_inurba_marseille","lat":43.279768,"lon":5.412358,"is_reserved":false,"is_disabled":true,"rental_uris":{"android":"levelo://app?vid=b535dfd0-ec01-4a13-996f-71245b6113cc","ios":"levelo://app?vid=b535dfd0-ec01-4a13-996f-71245b6113cc"},"vehicle_type_id":"4","last_reported":1733069422,"current_range_meters":0,"station_id":"","pricing_plan_id":"cebpf4jnsgd1na2vs0mg"},{"bike_id":"8b926e0b-5189-4776-8518-7519fc084d32","system_id":"levelo_inurba_marseille","lat":43.25113,"lon":5.40322,"is_reserved":false,"is_disabled":true,"rental_uris":{"android":"levelo://app?vid=8b926e0b-5189-4776-8518-7519fc084d32","ios":"levelo://app?vid=8b926e0b-5189-4776-8518-7519fc084d32"},"vehicle_type_id":"4","last_reported":1733069422,"current_range_meters":0,"station_id":"ce4bhlh2rcd13ifvqgig","pricing_plan_id":"cebpf4jnsgd1na2vs0mg"},{"bike_id":"a089e1a7-eaf0-4980-9534-e44b9cceec19","system_id":"levelo_inurba_marseille","lat":43.27942,"lon":5.41047,"is_reserved":false,"is_disabled":false,"rental_uris":{"android":"levelo://app?vid=a089e1a7-eaf0-4980-9534-e44b9cceec19","ios":"levelo://app?vid=a089e1a7-eaf0-4980-9534-e44b9cceec19"},"vehicle_type_id":"4","last_reported":1733069422,"current_range_meters":25200,"station_id":"ce4bhnp2rcd13ifvqh0g","pricing_plan_id":"cebpf4jnsgd1na2vs0mg"},{"bike_id":"7e131905-c7ac-4a2b-a3b1-405ac56f9283","system_id":"levelo_inurba_marseille","lat":43.26566,"lon":5.39008,"is_reserved":false,"is_disabled":false,"rental_uris":{"android":"levelo://app?vid=7e131905-c7ac-4a2b-a3b1-405ac56f9283","ios":"levelo://app?vid=7e131905-c7ac-4a2b-a3b1-405ac56f9283"},"vehicle_type_id":"4","last_reported":1733069422,"current_range_meters":35600,"station_id":"ce4bhe12rcd13ifvqf30","pricing_plan_id":"cebpf4jnsgd1na2vs0mg"},{"bike_id":"b642d79a-bd2c-495a-acdd-099583f67bf5","system_id":"levelo_inurba_marseille","lat":43.32293,"lon":5.38261,"is_reserved":false,"is_disabled":false,"rental_uris":{"android":"levelo://app?vid=b642d79a-bd2c-495a-acdd-099583f67bf5","ios":"levelo://app?vid=b642d79a-bd2c-495a-acdd-099583f67bf5"},"vehicle_type_id":"4","last_reported":1733069422,"current_range_meters":25600,"station_id":"ce4bhr12rcd13ifvqhqg","pricing_plan_id":"cebpf4jnsgd1na2vs0mg"},{"bike_id":"612ff584-c95b-4271-9dfd-f283f925bc8f","system_id":"levelo_inurba_marseille","lat":43.26682,"lon":5.38272,"is_reserved":false,"is_disabled":true,"rental_uris":{"android":"levelo://app?vid=612ff584-c95b-4271-9dfd-f283f925bc8f","ios":"levelo://app?vid=612ff584-c95b-4271-9dfd-f283f925bc8f"},"vehicle_type_id":"4","last_reported":1733069422,"current_range_meters":0,"station_id":"ce4bhg92rcd13ifvqf90","pricing_plan_id":"cebpf4jnsgd1na2vs0mg"},{"bike_id":"100a9533-24f1-411f-88c1-5edfb3d51cf1","system_id":"levelo_inurba_marseille","lat":43.23184,"lon":5.39989,"is_reserved":false,"is_disabled":false,"rental_uris":{"android":"levelo://app?vid=100a9533-24f1-411f-88c1-5edfb3d51cf1","ios":"levelo://app?vid=100a9533-24f1-411f-88c1-5edfb3d51cf1"},"vehicle_type_id":"4","last_reported":1733069422,"current_range_meters":28800,"station_id":"ce4bhn12rcd13ifvqgqg","pricing_plan_id":"cebpf4jnsgd1na2vs0mg"},{"bike_id":"ccaa8135-2fff-4e26-90db-55a4c69aedd4","system_id":"levelo_inurba_marseille","lat":43.25874,"lon":5.39894,"is_reserved":false,"is_disabled":false,"rental_uris":{"android":"levelo://app?vid=ccaa8135-2fff-4e26-90db-55a4c69aedd4","ios":"levelo://app?vid=ccaa8135-2fff-4e26-90db-55a4c69aedd4"},"vehicle_type_id":"4","last_reported":1733069422,"current_range_meters":28000,"station_id":"ce4bhl92rcd13ifvqghg","pricing_plan_id":"cebpf4jnsgd1na2vs0mg"},{"bike_id":"2ebf3b3c-662f-41a2-b8dc-68990b8b5b78","system_id":"levelo_inurba_marseille","lat":43.2708,"lon":5.4228,"is_reserved":false,"is_disabled":false,"rental_uris":{"android":"levelo://app?vid=2ebf3b3c-662f-41a2-b8dc-68990b8b5b78","ios":"levelo://app?vid=2ebf3b3c-662f-41a2-b8dc-68990b8b5b78"},"vehicle_type_id":"4","last_reported":1733069422,"current_range_meters":9200,"station_id":"ce4bhk92rcd13ifvqgb0","pricing_plan_id":"cebpf4jnsgd1na2vs0mg"},{"bike_id":"5b9d6f48-f6d1-42ec-91ce-2705b20346f7","system_id":"levelo_inurba_marseille","lat":43.27612,"lon":5.36125,"is_reserved":false,"is_disabled":true,"rental_uris":{"android":"levelo://app?vid=5b9d6f48-f6d1-42ec-91ce-2705b20346f7","ios":"levelo://app?vid=5b9d6f48-f6d1-42ec-91ce-2705b20346f7"},"vehicle_type_id":"4","last_reported":1733069422,"current_range_meters":38800,"station_id":"ce4bgj92rcd13ifvqbe0","pricing_plan_id":"cebpf4jnsgd1na2vs0mg"},{"bike_id":"0174841e-8011-4a7b-bd18-480101bee765","system_id":"levelo_inurba_marseille","lat":43.23962,"lon":5.36621,"is_reserved":false,"is_disabled":true,"rental_uris":{"android":"levelo://app?vid=0174841e-8011-4a7b-bd18-480101bee765","ios":"levelo://app?vid=0174841e-8011-4a7b-bd18-480101bee765"},"vehicle_type_id":"4","last_reported":1733069422,"current_range_meters":0,"station_id":"ce4bhi12rcd13ifvqfp0","pricing_plan_id":"cebpf4jnsgd1na2vs0mg"},{"bike_id":"55aa419e-7ca9-4f29-976a-fefd7a814401","system_id":"levelo_inurba_marseille","lat":43.30137,"lon":5.38784,"is_reserved":false,"is_disabled":true,"rental_uris":{"android":"levelo://app?vid=55aa419e-7ca9-4f29-976a-fefd7a814401","ios":"levelo://app?vid=55aa419e-7ca9-4f29-976a-fefd7a814401"},"vehicle_type_id":"4","last_reported":1733069422,"current_range_meters":17200,"station_id":"ce4bghh2rcd13ifvqb60","pricing_plan_id":"cebpf4jnsgd1na2vs0mg"},{"bike_id":"126d3ce2-fb21-42d2-a8c0-cc1684e0b955","system_id":"levelo_inurba_marseille","lat":43.28416,"lon":5.34993,"is_reserved":false,"is_disabled":false,"rental_uris":{"android":"levelo://app?vid=126d3ce2-fb21-42d2-a8c0-cc1684e0b955","ios":"levelo://app?vid=126d3ce2-fb21-42d2-a8c0-cc1684e0b955"},"vehicle_type_id":"4","last_reported":1733069422,"current_range_meters":14000,"station_id":"ce4bhbh2rcd13ifvqepg","pricing_plan_id":"cebpf4jnsgd1na2vs0mg"},{"bike_id":"ed35e749-bd92-4517-a74b-a42a2a9ef20c","system_id":"levelo_inurba_marseille","lat":43.29034,"lon":5.3756,"is_reserved":false,"is_disabled":false,"rental_uris":{"android":"levelo://app?vid=ed35e749-bd92-4517-a74b-a42a2a9ef20c","ios":"levelo://app?vid=ed35e749-bd92-4517-a74b-a42a2a9ef20c"},"vehicle_type_id":"4","last_reported":1733069422,"current_range_meters":20800,"station_id":"ce4bh692rcd13ifvqe90","pricing_plan_id":"cebpf4jnsgd1na2vs0mg"},{"bike_id":"a233b25b-869e-422b-bf5e-63d3d8ff686f","system_id":"levelo_inurba_marseille","lat":43.30941,"lon":5.40169,"is_reserved":false,"is_disabled":true,"rental_uris":{"android":"levelo://app?vid=a233b25b-869e-422b-bf5e-63d3d8ff686f","ios":"levelo://app?vid=a233b25b-869e-422b-bf5e-63d3d8ff686f"},"vehicle_type_id":"4","last_reported":1733069422,"current_range_meters":38800,"station_id":"ce4bgvp2rcd13ifvqct0","pricing_plan_id":"cebpf4jnsgd1na2vs0mg"},{"bike_id":"4b899739-87b3-45dc-b445-b0e666c1f7a6","system_id":"levelo_inurba_marseille","lat":43.31706,"lon":5.3776,"is_reserved":false,"is_disabled":false,"rental_uris":{"android":"levelo://app?vid=4b899739-87b3-45dc-b445-b0e666c1f7a6","ios":"levelo://app?vid=4b899739-87b3-45dc-b445-b0e666c1f7a6"},"vehicle_type_id":"4","last_reported":1733069422,"current_range_meters":11600,"station_id":"ce4bgth2rcd13ifvqch0","pricing_plan_id":"cebpf4jnsgd1na2vs0mg"},{"bike_id":"d3d123b9-bf77-4e17-859d-89236002e59e","system_id":"levelo_inurba_marseille","lat":43.3236,"lon":5.36761,"is_reserved":false,"is_disabled":false,"rental_uris":{"android":"levelo://app?vid=d3d123b9-bf77-4e17-859d-89236002e59e","ios":"levelo://app?vid=d3d123b9-bf77-4e17-859d-89236002e59e"},"vehicle_type_id":"4","last_reported":1733069422,"current_range_meters":38800,"station_id":"ce4bhsh2rcd13ifvqi2g","pricing_plan_id":"cebpf4jnsgd1na2vs0mg"},{"bike_id":"dd27f69d-7a25-48b9-a4e1-31ad4c829bdc","system_id":"levelo_inurba_marseille","lat":43.2922,"lon":5.36062,"is_reserved":false,"is_disabled":false,"rental_uris":{"android":"levelo://app?vid=dd27f69d-7a25-48b9-a4e1-31ad4c829bdc","ios":"levelo://app?vid=dd27f69d-7a25-48b9-a4e1-31ad4c829bdc"},"vehicle_type_id":"4","last_reported":1733069422,"current_range_meters":36800,"station_id":"ce4bhbh2rcd13ifvqeqg","pricing_plan_id":"cebpf4jnsgd1na2vs0mg"},{"bike_id":"11c1c8ce-2268-4dc7-b546-6b258d71835d","system_id":"levelo_inurba_marseille","lat":43.22929,"lon":5.3538,"is_reserved":false,"is_disabled":true,"rental_uris":{"android":"levelo://app?vid=11c1c8ce-2268-4dc7-b546-6b258d71835d","ios":"levelo://app?vid=11c1c8ce-2268-4dc7-b546-6b258d71835d"},"vehicle_type_id":"4","last_reported":1733069422,"current_range_meters":0,"station_id":"cpo3532slgdg3j2ikp40","pricing_plan_id":"cebpf4jnsgd1na2vs0mg"},{"bike_id":"a6ab3058-303b-4e03-8148-cbda854155fe","system_id":"levelo_inurba_marseille","lat":43.29382,"lon":5.37842,"is_reserved":false,"is_disabled":false,"rental_uris":{"android":"levelo://app?vid=a6ab3058-303b-4e03-8148-cbda854155fe","ios":"levelo://app?vid=a6ab3058-303b-4e03-8148-cbda854155fe"},"vehicle_type_id":"4","last_reported":1733069422,"current_range_meters":33200,"station_id":"ce4bgjh2rcd13ifvqbf0","pricing_plan_id":"cebpf4jnsgd1na2vs0mg"},{"bike_id":"5e5ad8ae-1964-4928-abce-1849fb5220a9","system_id":"levelo_inurba_marseille","lat":43.26553,"lon":5.3729,"is_reserved":false,"is_disabled":true,"rental_uris":{"android":"levelo://app?vid=5e5ad8ae-1964-4928-abce-1849fb5220a9","ios":"levelo://app?vid=5e5ad8ae-1964-4928-abce-1849fb5220a9"},"vehicle_type_id":"4","last_reported":1733069422,"current_range_meters":0,"station_id":"ce4bhg12rcd13ifvqf70","pricing_plan_id":"cebpf4jnsgd1na2vs0mg"},{"bike_id":"a07518d6-f6a7-4ebc-b4ba-789dbb56208d","system_id":"levelo_inurba_marseille","lat":43.30145,"lon":5.37418,"is_reserved":false,"is_disabled":false,"rental_uris":{"android":"levelo://app?vid=a07518d6-f6a7-4ebc-b4ba-789dbb56208d","ios":"levelo://app?vid=a07518d6-f6a7-4ebc-b4ba-789dbb56208d"},"vehicle_type_id":"4","last_reported":1733069422,"current_range_meters":38400,"station_id":"ce4bgs92rcd13ifvqcc0","pricing_plan_id":"cebpf4jnsgd1na2vs0mg"},{"bike_id":"42dff1c4-6053-46d6-ab14-2b44877e8b55","system_id":"levelo_inurba_marseille","lat":43.28447,"lon":5.39179,"is_reserved":false,"is_disabled":true,"rental_uris":{"android":"levelo://app?vid=42dff1c4-6053-46d6-ab14-2b44877e8b55","ios":"levelo://app?vid=42dff1c4-6053-46d6-ab14-2b44877e8b55"},"vehicle_type_id":"4","last_reported":1733069422,"current_range_meters":36800,"station_id":"ce4bhoh2rcd13ifvqh5g","pricing_plan_id":"cebpf4jnsgd1na2vs0mg"},{"bike_id":"0d2f764c-d4dd-420a-a033-14eebfa4bcc3","system_id":"levelo_inurba_marseille","lat":43.29619,"lon":5.37717,"is_reserved":false,"is_disabled":false,"rental_uris":{"android":"levelo://app?vid=0d2f764c-d4dd-420a-a033-14eebfa4bcc3","ios":"levelo://app?vid=0d2f764c-d4dd-420a-a033-14eebfa4bcc3"},"vehicle_type_id":"4","last_reported":1733069422,"current_range_meters":16800,"station_id":"ce4bgi92rcd13ifvqb90","pricing_plan_id":"cebpf4jnsgd1na2vs0mg"},{"bike_id":"47306602-2929-4c16-b593-3f39b61803c7","system_id":"levelo_inurba_marseille","lat":43.29039,"lon":5.35915,"is_reserved":false,"is_disabled":false,"rental_uris":{"android":"levelo://app?vid=47306602-2929-4c16-b593-3f39b61803c7","ios":"levelo://app?vid=47306602-2929-4c16-b593-3f39b61803c7"},"vehicle_type_id":"4","last_reported":1733069422,"current_range_meters":38400,"station_id":"ce4bha92rcd13ifvqeg0","pricing_plan_id":"cebpf4jnsgd1na2vs0mg"},{"bike_id":"27d13c7a-6338-48dc-81dd-618b3e4ff60b","system_id":"levelo_inurba_marseille","lat":43.2836,"lon":5.38637,"is_reserved":false,"is_disabled":true,"rental_uris":{"android":"levelo://app?vid=27d13c7a-6338-48dc-81dd-618b3e4ff60b","ios":"levelo://app?vid=27d13c7a-6338-48dc-81dd-618b3e4ff60b"},"vehicle_type_id":"4","last_reported":1733069422,"current_range_meters":34000,"station_id":"ce4bh492rcd13ifvqdvg","pricing_plan_id":"cebpf4jnsgd1na2vs0mg"},{"bike_id":"13151158-c4ba-49c7-a920-9a61c5dd56f2","system_id":"levelo_inurba_marseille","lat":43.23959,"lon":5.36628,"is_reserved":false,"is_disabled":true,"rental_uris":{"android":"levelo://app?vid=13151158-c4ba-49c7-a920-9a61c5dd56f2","ios":"levelo://app?vid=13151158-c4ba-49c7-a920-9a61c5dd56f2"},"vehicle_type_id":"4","last_reported":1733069422,"current_range_meters":0,"station_id":"ce4bhi12rcd13ifvqfp0","pricing_plan_id":"cebpf4jnsgd1na2vs0mg"},{"bike_id":"9d16477a-614c-4eba-b8e3-ed8fb02ae95c","system_id":"levelo_inurba_marseille","lat":43.27827,"lon":5.39209,"is_reserved":false,"is_disabled":false,"rental_uris":{"android":"levelo://app?vid=9d16477a-614c-4eba-b8e3-ed8fb02ae95c","ios":"levelo://app?vid=9d16477a-614c-4eba-b8e3-ed8fb02ae95c"},"vehicle_type_id":"4","last_reported":1733069422,"current_range_meters":37600,"station_id":"ce4bhjp2rcd13ifvqga0","pricing_plan_id":"cebpf4jnsgd1na2vs0mg"},{"bike_id":"adc9a6eb-5660-4758-b98d-dc734f2ec7e6","system_id":"levelo_inurba_marseille","lat":43.2738,"lon":5.36249,"is_reserved":false,"is_disabled":false,"rental_uris":{"android":"levelo://app?vid=adc9a6eb-5660-4758-b98d-dc734f2ec7e6","ios":"levelo://app?vid=adc9a6eb-5660-4758-b98d-dc734f2ec7e6"},"vehicle_type_id":"4","last_reported":1733069422,"current_range_meters":38000,"station_id":"ce4bhbh2rcd13ifvqeo0","pricing_plan_id":"cebpf4jnsgd1na2vs0mg"},{"bike_id":"acf4a756-d86a-4aba-99d9-8148b7db3378","system_id":"levelo_inurba_marseille","lat":43.2798,"lon":5.40035,"is_reserved":false,"is_disabled":true,"rental_uris":{"android":"levelo://app?vid=acf4a756-d86a-4aba-99d9-8148b7db3378","ios":"levelo://app?vid=acf4a756-d86a-4aba-99d9-8148b7db3378"},"vehicle_type_id":"4","last_reported":1733069422,"current_range_meters":37600,"station_id":"ce4bho92rcd13ifvqh4g","pricing_plan_id":"cebpf4jnsgd1na2vs0mg"},{"bike_id":"4018fb8f-45f3-45d0-a054-90a03257f3a3","system_id":"levelo_inurba_marseille","lat":43.2831,"lon":5.40545,"is_reserved":false,"is_disabled":false,"rental_uris":{"android":"levelo://app?vid=4018fb8f-45f3-45d0-a054-90a03257f3a3","ios":"levelo://app?vid=4018fb8f-45f3-45d0-a054-90a03257f3a3"},"vehicle_type_id":"4","last_reported":1733069422,"current_range_meters":22400,"station_id":"","pricing_plan_id":"cebpf4jnsgd1na2vs0mg"},{"bike_id":"8c9d9f03-b4cc-4837-b3af-d5fa5c69d20d","system_id":"levelo_inurba_marseille","lat":43.29102,"lon":5.38123,"is_reserved":false,"is_disabled":false,"rental_uris":{"android":"levelo://app?vid=8c9d9f03-b4cc-4837-b3af-d5fa5c69d20d","ios":"levelo://app?vid=8c9d9f03-b4cc-4837-b3af-d5fa5c69d20d"},"vehicle_type_id":"4","last_reported":1733069422,"current_range_meters":25200,"station_id":"ce4bh512rcd13ifvqe2g","pricing_plan_id":"cebpf4jnsgd1na2vs0mg"},{"bike_id":"cec385ba-4e51-4015-843e-7e3ff004b80d","system_id":"levelo_inurba_marseille","lat":43.29716,"lon":5.37689,"is_reserved":false,"is_disabled":false,"rental_uris":{"android":"levelo://app?vid=cec385ba-4e51-4015-843e-7e3ff004b80d","ios":"levelo://app?vid=cec385ba-4e51-4015-843e-7e3ff004b80d"},"vehicle_type_id":"4","last_reported":1733069422,"current_range_meters":28000,"station_id":"ce4bgkh2rcd13ifvqbl0","pricing_plan_id":"cebpf4jnsgd1na2vs0mg"},{"bike_id":"a72d9299-2ef3-4e3f-8e69-acc7098d09c2","system_id":"levelo_inurba_marseille","lat":43.33023,"lon":5.39049,"is_reserved":false,"is_disabled":true,"rental_uris":{"android":"levelo://app?vid=a72d9299-2ef3-4e3f-8e69-acc7098d09c2","ios":"levelo://app?vid=a72d9299-2ef3-4e3f-8e69-acc7098d09c2"},"vehicle_type_id":"4","last_reported":1733069422,"current_range_meters":24800,"station_id":"ce4bhr92rcd13ifvqhrg","pricing_plan_id":"cebpf4jnsgd1na2vs0mg"},{"bike_id":"e0161261-fd33-45e3-8038-51d77778a6b0","system_id":"levelo_inurba_marseille","lat":43.30654,"lon":5.40088,"is_reserved":false,"is_disabled":true,"rental_uris":{"android":"levelo://app?vid=e0161261-fd33-45e3-8038-51d77778a6b0","ios":"levelo://app?vid=e0161261-fd33-45e3-8038-51d77778a6b0"},"vehicle_type_id":"4","last_reported":1733069422,"current_range_meters":35200,"station_id":"ce4bh112rcd13ifvqda0","pricing_plan_id":"cebpf4jnsgd1na2vs0mg"},{"bike_id":"07132458-32c8-4309-8340-65aee513e5f6","system_id":"levelo_inurba_marseille","lat":43.27612,"lon":5.36103,"is_reserved":false,"is_disabled":false,"rental_uris":{"android":"levelo://app?vid=07132458-32c8-4309-8340-65aee513e5f6","ios":"levelo://app?vid=07132458-32c8-4309-8340-65aee513e5f6"},"vehicle_type_id":"4","last_reported":1733069422,"current_range_meters":32000,"station_id":"ce4bgj92rcd13ifvqbe0","pricing_plan_id":"cebpf4jnsgd1na2vs0mg"},{"bike_id":"8b8a1819-bc1c-4d52-ad5c-649458be7869","system_id":"levelo_inurba_marseille","lat":43.32283,"lon":5.38287,"is_reserved":false,"is_disabled":false,"rental_uris":{"android":"levelo://app?vid=8b8a1819-bc1c-4d52-ad5c-649458be7869","ios":"levelo://app?vid=8b8a1819-bc1c-4d52-ad5c-649458be7869"},"vehicle_type_id":"4","last_reported":1733069422,"current_range_meters":33200,"station_id":"ce4bhr12rcd13ifvqhqg","pricing_plan_id":"cebpf4jnsgd1na2vs0mg"},{"bike_id":"0925ff43-bab0-49be-8348-5535795fc1c0","system_id":"levelo_inurba_marseille","lat":43.30535,"lon":5.38432,"is_reserved":false,"is_disabled":true,"rental_uris":{"android":"levelo://app?vid=0925ff43-bab0-49be-8348-5535795fc1c0","ios":"levelo://app?vid=0925ff43-bab0-49be-8348-5535795fc1c0"},"vehicle_type_id":"4","last_reported":1733069422,"current_range_meters":10800,"station_id":"ce4bgg92rcd13ifvqb30","pricing_plan_id":"cebpf4jnsgd1na2vs0mg"},{"bike_id":"5fd470f3-da62-48ec-8bb8-3493555d1763","system_id":"levelo_inurba_marseille","lat":43.29571,"lon":5.37498,"is_reserved":false,"is_disabled":true,"rental_uris":{"android":"levelo://app?vid=5fd470f3-da62-48ec-8bb8-3493555d1763","ios":"levelo://app?vid=5fd470f3-da62-48ec-8bb8-3493555d1763"},"vehicle_type_id":"4","last_reported":1733069422,"current_range_meters":24000,"station_id":"ce4bgh92rcd13ifvqb50","pricing_plan_id":"cebpf4jnsgd1na2vs0mg"},{"bike_id":"df175e35-a109-455b-a549-3a0af8fc4135","system_id":"levelo_inurba_marseille","lat":43.26684,"lon":5.38277,"is_reserved":false,"is_disabled":true,"rental_uris":{"android":"levelo://app?vid=df175e35-a109-455b-a549-3a0af8fc4135","ios":"levelo://app?vid=df175e35-a109-455b-a549-3a0af8fc4135"},"vehicle_type_id":"4","last_reported":1733069422,"current_range_meters":20000,"station_id":"ce4bhg92rcd13ifvqf90","pricing_plan_id":"cebpf4jnsgd1na2vs0mg"},{"bike_id":"3cd36cdd-b8ac-4151-bacd-1ff7508ad009","system_id":"levelo_inurba_marseille","lat":43.32535,"lon":5.41451,"is_reserved":false,"is_disabled":true,"rental_uris":{"android":"levelo://app?vid=3cd36cdd-b8ac-4151-bacd-1ff7508ad009","ios":"levelo://app?vid=3cd36cdd-b8ac-4151-bacd-1ff7508ad009"},"vehicle_type_id":"4","last_reported":1733069422,"current_range_meters":37600,"station_id":"ce4bhq12rcd13ifvqhhg","pricing_plan_id":"cebpf4jnsgd1na2vs0mg"},{"bike_id":"ebaa904e-bc87-46fe-8951-7f1d176fdb4c","system_id":"levelo_inurba_marseille","lat":43.31275,"lon":5.40158,"is_reserved":false,"is_disabled":true,"rental_uris":{"android":"levelo://app?vid=ebaa904e-bc87-46fe-8951-7f1d176fdb4c","ios":"levelo://app?vid=ebaa904e-bc87-46fe-8951-7f1d176fdb4c"},"vehicle_type_id":"4","last_reported":1733069422,"current_range_meters":17200,"station_id":"ce4bh092rcd13ifvqd30","pricing_plan_id":"cebpf4jnsgd1na2vs0mg"},{"bike_id":"603d2adb-7bfc-4683-8b5b-8b52562dec4f","system_id":"levelo_inurba_marseille","lat":43.29733,"lon":5.37692,"is_reserved":false,"is_disabled":false,"rental_uris":{"android":"levelo://app?vid=603d2adb-7bfc-4683-8b5b-8b52562dec4f","ios":"levelo://app?vid=603d2adb-7bfc-4683-8b5b-8b52562dec4f"},"vehicle_type_id":"4","last_reported":1733069422,"current_range_meters":11200,"station_id":"ce4bgkh2rcd13ifvqbl0","pricing_plan_id":"cebpf4jnsgd1na2vs0mg"},{"bike_id":"ce20c844-7914-4b0b-b70c-e7bdec0d808d","system_id":"levelo_inurba_marseille","lat":43.25936,"lon":5.40909,"is_reserved":false,"is_disabled":false,"rental_uris":{"android":"levelo://app?vid=ce20c844-7914-4b0b-b70c-e7bdec0d808d","ios":"levelo://app?vid=ce20c844-7914-4b0b-b70c-e7bdec0d808d"},"vehicle_type_id":"4","last_reported":1733069422,"current_range_meters":12000,"station_id":"ce4bhm92rcd13ifvqglg","pricing_plan_id":"cebpf4jnsgd1na2vs0mg"},{"bike_id":"1e9f7531-f02f-4a68-a033-35dfa2f6d9df","system_id":"levelo_inurba_marseille","lat":43.28494,"lon":5.38543,"is_reserved":false,"is_disabled":true,"rental_uris":{"android":"levelo://app?vid=1e9f7531-f02f-4a68-a033-35dfa2f6d9df","ios":"levelo://app?vid=1e9f7531-f02f-4a68-a033-35dfa2f6d9df"},"vehicle_type_id":"4","last_reported":1733069422,"current_range_meters":20800,"station_id":"ce4bh8p2rcd13ifvqeb0","pricing_plan_id":"cebpf4jnsgd1na2vs0mg"},{"bike_id":"ea1ff72b-5a4a-4180-8d5f-e5b5bd9bb578","system_id":"levelo_inurba_marseille","lat":43.28271,"lon":5.35081,"is_reserved":false,"is_disabled":false,"rental_uris":{"android":"levelo://app?vid=ea1ff72b-5a4a-4180-8d5f-e5b5bd9bb578","ios":"levelo://app?vid=ea1ff72b-5a4a-4180-8d5f-e5b5bd9bb578"},"vehicle_type_id":"4","last_reported":1733069422,"current_range_meters":38800,"station_id":"ce4bhbp2rcd13ifvqerg","pricing_plan_id":"cebpf4jnsgd1na2vs0mg"},{"bike_id":"2919fee8-fa00-4b0e-aac5-27e9f57bfa48","system_id":"levelo_inurba_marseille","lat":43.26557,"lon":5.37286,"is_reserved":false,"is_disabled":true,"rental_uris":{"android":"levelo://app?vid=2919fee8-fa00-4b0e-aac5-27e9f57bfa48","ios":"levelo://app?vid=2919fee8-fa00-4b0e-aac5-27e9f57bfa48"},"vehicle_type_id":"4","last_reported":1733069422,"current_range_meters":0,"station_id":"ce4bhg12rcd13ifvqf70","pricing_plan_id":"cebpf4jnsgd1na2vs0mg"},{"bike_id":"6ffe91fb-690d-42aa-8ca0-455ed27962b6","system_id":"levelo_inurba_marseille","lat":43.26959,"lon":5.38639,"is_reserved":false,"is_disabled":false,"rental_uris":{"android":"levelo://app?vid=6ffe91fb-690d-42aa-8ca0-455ed27962b6","ios":"levelo://app?vid=6ffe91fb-690d-42aa-8ca0-455ed27962b6"},"vehicle_type_id":"4","last_reported":1733069422,"current_range_meters":32000,"station_id":"ce4bhh92rcd13ifvqfh0","pricing_plan_id":"cebpf4jnsgd1na2vs0mg"},{"bike_id":"f8d592a2-1761-4fc2-ae68-7688d9a28c14","system_id":"levelo_inurba_marseille","lat":43.27956,"lon":5.38669,"is_reserved":false,"is_disabled":true,"rental_uris":{"android":"levelo://app?vid=f8d592a2-1761-4fc2-ae68-7688d9a28c14","ios":"levelo://app?vid=f8d592a2-1761-4fc2-ae68-7688d9a28c14"},"vehicle_type_id":"4","last_reported":1733069422,"current_range_meters":0,"station_id":"","pricing_plan_id":"cebpf4jnsgd1na2vs0mg"},{"bike_id":"9b8a7255-4c32-448f-b638-47447a397b57","system_id":"levelo_inurba_marseille","lat":43.30288,"lon":5.37673,"is_reserved":false,"is_disabled":false,"rental_uris":{"android":"levelo://app?vid=9b8a7255-4c32-448f-b638-47447a397b57","ios":"levelo://app?vid=9b8a7255-4c32-448f-b638-47447a397b57"},"vehicle_type_id":"4","last_reported":1733069422,"current_range_meters":23200,"station_id":"ce4bguh2rcd13ifvqcj0","pricing_plan_id":"cebpf4jnsgd1na2vs0mg"},{"bike_id":"eb26642d-88a4-422a-b713-014d6faf9a04","system_id":"levelo_inurba_marseille","lat":43.31885,"lon":5.4074,"is_reserved":false,"is_disabled":false,"rental_uris":{"android":"levelo://app?vid=eb26642d-88a4-422a-b713-014d6faf9a04","ios":"levelo://app?vid=eb26642d-88a4-422a-b713-014d6faf9a04"},"vehicle_type_id":"4","last_reported":1733069422,"current_range_meters":38800,"station_id":"ce4bhq12rcd13ifvqhig","pricing_plan_id":"cebpf4jnsgd1na2vs0mg"},{"bike_id":"aa868eb3-5723-480d-8f47-76ec81e31e33","system_id":"levelo_inurba_marseille","lat":43.32361,"lon":5.36746,"is_reserved":false,"is_disabled":false,"rental_uris":{"android":"levelo://app?vid=aa868eb3-5723-480d-8f47-76ec81e31e33","ios":"levelo://app?vid=aa868eb3-5723-480d-8f47-76ec81e31e33"},"vehicle_type_id":"4","last_reported":1733069422,"current_range_meters":38800,"station_id":"ce4bhsh2rcd13ifvqi2g","pricing_plan_id":"cebpf4jnsgd1na2vs0mg"},{"bike_id":"a215dd2d-f26b-46a3-80df-a3b7f4b23b40","system_id":"levelo_inurba_marseille","lat":43.28617,"lon":5.37071,"is_reserved":false,"is_disabled":false,"rental_uris":{"android":"levelo://app?vid=a215dd2d-f26b-46a3-80df-a3b7f4b23b40","ios":"levelo://app?vid=a215dd2d-f26b-46a3-80df-a3b7f4b23b40"},"vehicle_type_id":"4","last_reported":1733069422,"current_range_meters":23200,"station_id":"ce4bht12rcd13ifvqi60","pricing_plan_id":"cebpf4jnsgd1na2vs0mg"},{"bike_id":"9dd1fc98-a89e-437a-b707-6eb8b3c899e8","system_id":"levelo_inurba_marseille","lat":43.29027,"lon":5.35924,"is_reserved":false,"is_disabled":true,"rental_uris":{"android":"levelo://app?vid=9dd1fc98-a89e-437a-b707-6eb8b3c899e8","ios":"levelo://app?vid=9dd1fc98-a89e-437a-b707-6eb8b3c899e8"},"vehicle_type_id":"4","last_reported":1733069422,"current_range_meters":0,"station_id":"ce4bha92rcd13ifvqeg0","pricing_plan_id":"cebpf4jnsgd1na2vs0mg"},{"bike_id":"9e9fd647-de72-4080-bdbb-bf308d67f5f6","system_id":"levelo_inurba_marseille","lat":43.27375,"lon":5.3626,"is_reserved":false,"is_disabled":false,"rental_uris":{"android":"levelo://app?vid=9e9fd647-de72-4080-bdbb-bf308d67f5f6","ios":"levelo://app?vid=9e9fd647-de72-4080-bdbb-bf308d67f5f6"},"vehicle_type_id":"4","last_reported":1733069422,"current_range_meters":24800,"station_id":"ce4bhbh2rcd13ifvqeo0","pricing_plan_id":"cebpf4jnsgd1na2vs0mg"},{"bike_id":"a490911f-73d7-40b1-8e23-9162397e2d1c","system_id":"levelo_inurba_marseille","lat":43.2958,"lon":5.375,"is_reserved":false,"is_disabled":true,"rental_uris":{"android":"levelo://app?vid=a490911f-73d7-40b1-8e23-9162397e2d1c","ios":"levelo://app?vid=a490911f-73d7-40b1-8e23-9162397e2d1c"},"vehicle_type_id":"4","last_reported":1733069422,"current_range_meters":37600,"station_id":"ce4bgh92rcd13ifvqb50","pricing_plan_id":"cebpf4jnsgd1na2vs0mg"},{"bike_id":"a7d76e7a-00df-4bb2-8ca8-682891adb838","system_id":"levelo_inurba_marseille","lat":43.27615,"lon":5.36106,"is_reserved":false,"is_disabled":false,"rental_uris":{"android":"levelo://app?vid=a7d76e7a-00df-4bb2-8ca8-682891adb838","ios":"levelo://app?vid=a7d76e7a-00df-4bb2-8ca8-682891adb838"},"vehicle_type_id":"4","last_reported":1733069422,"current_range_meters":38400,"station_id":"ce4bgj92rcd13ifvqbe0","pricing_plan_id":"cebpf4jnsgd1na2vs0mg"},{"bike_id":"bea43fe6-0ab8-4ff0-afcb-1dc4fc192577","system_id":"levelo_inurba_marseille","lat":43.25102,"lon":5.4033,"is_reserved":false,"is_disabled":true,"rental_uris":{"android":"levelo://app?vid=bea43fe6-0ab8-4ff0-afcb-1dc4fc192577","ios":"levelo://app?vid=bea43fe6-0ab8-4ff0-afcb-1dc4fc192577"},"vehicle_type_id":"4","last_reported":1733069422,"current_range_meters":0,"station_id":"ce4bhlh2rcd13ifvqgig","pricing_plan_id":"cebpf4jnsgd1na2vs0mg"},{"bike_id":"6f5b1ead-c960-4c8a-a968-0eeea95ab5b2","system_id":"levelo_inurba_marseille","lat":43.29175,"lon":5.37162,"is_reserved":false,"is_disabled":false,"rental_uris":{"android":"levelo://app?vid=6f5b1ead-c960-4c8a-a968-0eeea95ab5b2","ios":"levelo://app?vid=6f5b1ead-c960-4c8a-a968-0eeea95ab5b2"},"vehicle_type_id":"4","last_reported":1733069422,"current_range_meters":12000,"station_id":"ce4bha92rcd13ifvqeh0","pricing_plan_id":"cebpf4jnsgd1na2vs0mg"},{"bike_id":"1b4091b4-9da5-4e08-a623-15bd0eb83e75","system_id":"levelo_inurba_marseille","lat":43.29306,"lon":5.37175,"is_reserved":false,"is_disabled":true,"rental_uris":{"android":"levelo://app?vid=1b4091b4-9da5-4e08-a623-15bd0eb83e75","ios":"levelo://app?vid=1b4091b4-9da5-4e08-a623-15bd0eb83e75"},"vehicle_type_id":"4","last_reported":1733069422,"current_range_meters":5600,"station_id":"ce4bgh92rcd13ifvqb40","pricing_plan_id":"cebpf4jnsgd1na2vs0mg"},{"bike_id":"d943d960-7d9b-4964-9228-20089cd21664","system_id":"levelo_inurba_marseille","lat":43.32906,"lon":5.3644,"is_reserved":false,"is_disabled":false,"rental_uris":{"android":"levelo://app?vid=d943d960-7d9b-4964-9228-20089cd21664","ios":"levelo://app?vid=d943d960-7d9b-4964-9228-20089cd21664"},"vehicle_type_id":"4","last_reported":1733069422,"current_range_meters":14800,"station_id":"","pricing_plan_id":"cebpf4jnsgd1na2vs0mg"},{"bike_id":"23da5067-cac7-4ef3-9734-be333b976303","system_id":"levelo_inurba_marseille","lat":43.25494,"lon":5.37649,"is_reserved":false,"is_disabled":true,"rental_uris":{"android":"levelo://app?vid=23da5067-cac7-4ef3-9734-be333b976303","ios":"levelo://app?vid=23da5067-cac7-4ef3-9734-be333b976303"},"vehicle_type_id":"4","last_reported":1733069422,"current_range_meters":22000,"station_id":"ce4bhh12rcd13ifvqff0","pricing_plan_id":"cebpf4jnsgd1na2vs0mg"},{"bike_id":"351b542a-ec12-44b5-83df-87ed075e2411","system_id":"levelo_inurba_marseille","lat":43.30807,"lon":5.43544,"is_reserved":false,"is_disabled":false,"rental_uris":{"android":"levelo://app?vid=351b542a-ec12-44b5-83df-87ed075e2411","ios":"levelo://app?vid=351b542a-ec12-44b5-83df-87ed075e2411"},"vehicle_type_id":"4","last_reported":1733069422,"current_range_meters":1600,"station_id":"ce4bhph2rcd13ifvqheg","pricing_plan_id":"cebpf4jnsgd1na2vs0mg"},{"bike_id":"10f93829-56b3-4dca-b77c-8dafc0c6d205","system_id":"levelo_inurba_marseille","lat":43.29623,"lon":5.37746,"is_reserved":false,"is_disabled":false,"rental_uris":{"android":"levelo://app?vid=10f93829-56b3-4dca-b77c-8dafc0c6d205","ios":"levelo://app?vid=10f93829-56b3-4dca-b77c-8dafc0c6d205"},"vehicle_type_id":"4","last_reported":1733069422,"current_range_meters":23200,"station_id":"ce4bgi92rcd13ifvqb90","pricing_plan_id":"cebpf4jnsgd1na2vs0mg"},{"bike_id":"1f8df12f-0a53-4a82-b19c-a70577f3b2cb","system_id":"levelo_inurba_marseille","lat":43.27377,"lon":5.36257,"is_reserved":false,"is_disabled":false,"rental_uris":{"android":"levelo://app?vid=1f8df12f-0a53-4a82-b19c-a70577f3b2cb","ios":"levelo://app?vid=1f8df12f-0a53-4a82-b19c-a70577f3b2cb"},"vehicle_type_id":"4","last_reported":1733069422,"current_range_meters":27600,"station_id":"ce4bhbh2rcd13ifvqeo0","pricing_plan_id":"cebpf4jnsgd1na2vs0mg"},{"bike_id":"47a9b35d-a54f-4f29-ac1e-ec2fc1da5bf8","system_id":"levelo_inurba_marseille","lat":43.29619,"lon":5.37148,"is_reserved":false,"is_disabled":false,"rental_uris":{"android":"levelo://app?vid=47a9b35d-a54f-4f29-ac1e-ec2fc1da5bf8","ios":"levelo://app?vid=47a9b35d-a54f-4f29-ac1e-ec2fc1da5bf8"},"vehicle_type_id":"4","last_reported":1733069422,"current_range_meters":38800,"station_id":"ce4bgnh2rcd13ifvqc0g","pricing_plan_id":"cebpf4jnsgd1na2vs0mg"},{"bike_id":"4648ae7b-454a-474e-9661-f1166e9d6bca","system_id":"levelo_inurba_marseille","lat":43.29626,"lon":5.37152,"is_reserved":false,"is_disabled":false,"rental_uris":{"android":"levelo://app?vid=4648ae7b-454a-474e-9661-f1166e9d6bca","ios":"levelo://app?vid=4648ae7b-454a-474e-9661-f1166e9d6bca"},"vehicle_type_id":"4","last_reported":1733069422,"current_range_meters":36400,"station_id":"ce4bgnh2rcd13ifvqc0g","pricing_plan_id":"cebpf4jnsgd1na2vs0mg"},{"bike_id":"e5951ee3-4a5a-4ebb-b469-096c5188dfa3","system_id":"levelo_inurba_marseille","lat":43.23204,"lon":5.35555,"is_reserved":false,"is_disabled":false,"rental_uris":{"android":"levelo://app?vid=e5951ee3-4a5a-4ebb-b469-096c5188dfa3","ios":"levelo://app?vid=e5951ee3-4a5a-4ebb-b469-096c5188dfa3"},"vehicle_type_id":"4","last_reported":1733069422,"current_range_meters":12400,"station_id":"ce4bhu92rcd13ifvqi70","pricing_plan_id":"cebpf4jnsgd1na2vs0mg"},{"bike_id":"f9a63393-5401-4f98-ae5a-dfbb8291ab6d","system_id":"levelo_inurba_marseille","lat":43.3004,"lon":5.37551,"is_reserved":false,"is_disabled":true,"rental_uris":{"android":"levelo://app?vid=f9a63393-5401-4f98-ae5a-dfbb8291ab6d","ios":"levelo://app?vid=f9a63393-5401-4f98-ae5a-dfbb8291ab6d"},"vehicle_type_id":"4","last_reported":1733069422,"current_range_meters":0,"station_id":"","pricing_plan_id":"cebpf4jnsgd1na2vs0mg"},{"bike_id":"ba270da8-913d-40f7-854a-4b3e3661da6a","system_id":"levelo_inurba_marseille","lat":43.24079,"lon":5.37753,"is_reserved":false,"is_disabled":false,"rental_uris":{"android":"levelo://app?vid=ba270da8-913d-40f7-854a-4b3e3661da6a","ios":"levelo://app?vid=ba270da8-913d-40f7-854a-4b3e3661da6a"},"vehicle_type_id":"4","last_reported":1733069422,"current_range_meters":24800,"station_id":"ce4bhnp2rcd13ifvqgvg","pricing_plan_id":"cebpf4jnsgd1na2vs0mg"},{"bike_id":"f5cd7323-758f-4826-b7e9-cc763ce4aa0d","system_id":"levelo_inurba_marseille","lat":43.26204,"lon":5.37468,"is_reserved":false,"is_disabled":false,"rental_uris":{"android":"levelo://app?vid=f5cd7323-758f-4826-b7e9-cc763ce4aa0d","ios":"levelo://app?vid=f5cd7323-758f-4826-b7e9-cc763ce4aa0d"},"vehicle_type_id":"4","last_reported":1733069422,"current_range_meters":19200,"station_id":"ce4bhgp2rcd13ifvqfc0","pricing_plan_id":"cebpf4jnsgd1na2vs0mg"},{"bike_id":"8e54553d-23d8-4461-9f6b-9045bfd8f0e0","system_id":"levelo_inurba_marseille","lat":43.28426,"lon":5.34997,"is_reserved":false,"is_disabled":false,"rental_uris":{"android":"levelo://app?vid=8e54553d-23d8-4461-9f6b-9045bfd8f0e0","ios":"levelo://app?vid=8e54553d-23d8-4461-9f6b-9045bfd8f0e0"},"vehicle_type_id":"4","last_reported":1733069422,"current_range_meters":6400,"station_id":"ce4bhbh2rcd13ifvqepg","pricing_plan_id":"cebpf4jnsgd1na2vs0mg"},{"bike_id":"9ca2e4ab-8533-42af-b7fe-e7facd2a3e4f","system_id":"levelo_inurba_marseille","lat":43.28411,"lon":5.3499,"is_reserved":false,"is_disabled":false,"rental_uris":{"android":"levelo://app?vid=9ca2e4ab-8533-42af-b7fe-e7facd2a3e4f","ios":"levelo://app?vid=9ca2e4ab-8533-42af-b7fe-e7facd2a3e4f"},"vehicle_type_id":"4","last_reported":1733069422,"current_range_meters":38800,"station_id":"ce4bhbh2rcd13ifvqepg","pricing_plan_id":"cebpf4jnsgd1na2vs0mg"},{"bike_id":"ea461fa6-489e-4de7-89c7-2f448445227c","system_id":"levelo_inurba_marseille","lat":43.29317,"lon":5.37153,"is_reserved":false,"is_disabled":true,"rental_uris":{"android":"levelo://app?vid=ea461fa6-489e-4de7-89c7-2f448445227c","ios":"levelo://app?vid=ea461fa6-489e-4de7-89c7-2f448445227c"},"vehicle_type_id":"4","last_reported":1733069422,"current_range_meters":36000,"station_id":"ce4bgh92rcd13ifvqb40","pricing_plan_id":"cebpf4jnsgd1na2vs0mg"},{"bike_id":"b0bda3a0-8d9d-4bd3-a5b8-75ccdf39fdf3","system_id":"levelo_inurba_marseille","lat":43.29438,"lon":5.39765,"is_reserved":false,"is_disabled":true,"rental_uris":{"android":"levelo://app?vid=b0bda3a0-8d9d-4bd3-a5b8-75ccdf39fdf3","ios":"levelo://app?vid=b0bda3a0-8d9d-4bd3-a5b8-75ccdf39fdf3"},"vehicle_type_id":"4","last_reported":1733069422,"current_range_meters":24400,"station_id":"ce4bh3h2rcd13ifvqdo0","pricing_plan_id":"cebpf4jnsgd1na2vs0mg"},{"bike_id":"8dde5317-ea65-4629-a91e-8fded3473284","system_id":"levelo_inurba_marseille","lat":43.30911,"lon":5.36849,"is_reserved":false,"is_disabled":false,"rental_uris":{"android":"levelo://app?vid=8dde5317-ea65-4629-a91e-8fded3473284","ios":"levelo://app?vid=8dde5317-ea65-4629-a91e-8fded3473284"},"vehicle_type_id":"4","last_reported":1733069422,"current_range_meters":36800,"station_id":"ce4bgn92rcd13ifvqbvg","pricing_plan_id":"cebpf4jnsgd1na2vs0mg"},{"bike_id":"b98dc454-65ed-479f-acfa-259bc94f3993","system_id":"levelo_inurba_marseille","lat":43.28462,"lon":5.3589,"is_reserved":false,"is_disabled":true,"rental_uris":{"android":"levelo://app?vid=b98dc454-65ed-479f-acfa-259bc94f3993","ios":"levelo://app?vid=b98dc454-65ed-479f-acfa-259bc94f3993"},"vehicle_type_id":"4","last_reported":1733069422,"current_range_meters":0,"station_id":"ce4bhah2rcd13ifvqei0","pricing_plan_id":"cebpf4jnsgd1na2vs0mg"},{"bike_id":"d8dd1469-7396-498b-a3d4-b3b072be7321","system_id":"levelo_inurba_marseille","lat":43.28421,"lon":5.35001,"is_reserved":false,"is_disabled":false,"rental_uris":{"android":"levelo://app?vid=d8dd1469-7396-498b-a3d4-b3b072be7321","ios":"levelo://app?vid=d8dd1469-7396-498b-a3d4-b3b072be7321"},"vehicle_type_id":"4","last_reported":1733069422,"current_range_meters":33200,"station_id":"ce4bhbh2rcd13ifvqepg","pricing_plan_id":"cebpf4jnsgd1na2vs0mg"},{"bike_id":"5ee604c7-006d-4ae7-be22-6deb7b110b3c","system_id":"levelo_inurba_marseille","lat":43.29902,"lon":5.43667,"is_reserved":false,"is_disabled":false,"rental_uris":{"android":"levelo://app?vid=5ee604c7-006d-4ae7-be22-6deb7b110b3c","ios":"levelo://app?vid=5ee604c7-006d-4ae7-be22-6deb7b110b3c"},"vehicle_type_id":"4","last_reported":1733069422,"current_range_meters":38800,"station_id":"ce4bhpp2rcd13ifvqhfg","pricing_plan_id":"cebpf4jnsgd1na2vs0mg"},{"bike_id":"f5656224-855c-4c22-b6c7-43f87afb7efb","system_id":"levelo_inurba_marseille","lat":43.294317,"lon":5.397534,"is_reserved":false,"is_disabled":false,"rental_uris":{"android":"levelo://app?vid=f5656224-855c-4c22-b6c7-43f87afb7efb","ios":"levelo://app?vid=f5656224-855c-4c22-b6c7-43f87afb7efb"},"vehicle_type_id":"4","last_reported":1733069422,"current_range_meters":20800,"station_id":"ce4bh3h2rcd13ifvqdo0","pricing_plan_id":"cebpf4jnsgd1na2vs0mg"},{"bike_id":"fe352d0a-87ee-4f78-8a3a-87a415a4fcd6","system_id":"levelo_inurba_marseille","lat":43.29268,"lon":5.36844,"is_reserved":false,"is_disabled":true,"rental_uris":{"android":"levelo://app?vid=fe352d0a-87ee-4f78-8a3a-87a415a4fcd6","ios":"levelo://app?vid=fe352d0a-87ee-4f78-8a3a-87a415a4fcd6"},"vehicle_type_id":"4","last_reported":1733069422,"current_range_meters":38800,"station_id":"ce4bhbp2rcd13ifvqesg","pricing_plan_id":"cebpf4jnsgd1na2vs0mg"},{"bike_id":"b822ad25-b29a-4084-a489-01182dd41aa4","system_id":"levelo_inurba_marseille","lat":43.26929,"lon":5.38916,"is_reserved":false,"is_disabled":true,"rental_uris":{"android":"levelo://app?vid=b822ad25-b29a-4084-a489-01182dd41aa4","ios":"levelo://app?vid=b822ad25-b29a-4084-a489-01182dd41aa4"},"vehicle_type_id":"4","last_reported":1733069422,"current_range_meters":1600,"station_id":"ce4bhhh2rcd13ifvqfl0","pricing_plan_id":"cebpf4jnsgd1na2vs0mg"},{"bike_id":"4d1fbf05-4b98-426e-9e28-10dc0bff3b8d","system_id":"levelo_inurba_marseille","lat":43.28417,"lon":5.34995,"is_reserved":false,"is_disabled":false,"rental_uris":{"android":"levelo://app?vid=4d1fbf05-4b98-426e-9e28-10dc0bff3b8d","ios":"levelo://app?vid=4d1fbf05-4b98-426e-9e28-10dc0bff3b8d"},"vehicle_type_id":"4","last_reported":1733069422,"current_range_meters":34000,"station_id":"ce4bhbh2rcd13ifvqepg","pricing_plan_id":"cebpf4jnsgd1na2vs0mg"},{"bike_id":"ac68398d-9871-4b0a-8aea-4539479735db","system_id":"levelo_inurba_marseille","lat":43.30777,"lon":5.37658,"is_reserved":false,"is_disabled":false,"rental_uris":{"android":"levelo://app?vid=ac68398d-9871-4b0a-8aea-4539479735db","ios":"levelo://app?vid=ac68398d-9871-4b0a-8aea-4539479735db"},"vehicle_type_id":"4","last_reported":1733069422,"current_range_meters":38800,"station_id":"ce4bgv92rcd13ifvqcq0","pricing_plan_id":"cebpf4jnsgd1na2vs0mg"},{"bike_id":"48c2fbf7-185f-4003-8c68-e3c837208530","system_id":"levelo_inurba_marseille","lat":43.26216,"lon":5.37438,"is_reserved":false,"is_disabled":false,"rental_uris":{"android":"levelo://app?vid=48c2fbf7-185f-4003-8c68-e3c837208530","ios":"levelo://app?vid=48c2fbf7-185f-4003-8c68-e3c837208530"},"vehicle_type_id":"4","last_reported":1733069422,"current_range_meters":17600,"station_id":"ce4bhgp2rcd13ifvqfc0","pricing_plan_id":"cebpf4jnsgd1na2vs0mg"},{"bike_id":"2e5dd029-7572-4c4c-814a-275fe02f2299","system_id":"levelo_inurba_marseille","lat":43.29218,"lon":5.36058,"is_reserved":false,"is_disabled":false,"rental_uris":{"android":"levelo://app?vid=2e5dd029-7572-4c4c-814a-275fe02f2299","ios":"levelo://app?vid=2e5dd029-7572-4c4c-814a-275fe02f2299"},"vehicle_type_id":"4","last_reported":1733069422,"current_range_meters":19600,"station_id":"ce4bhbh2rcd13ifvqeqg","pricing_plan_id":"cebpf4jnsgd1na2vs0mg"},{"bike_id":"241caae4-8692-4e94-86df-34f7688f2c7d","system_id":"levelo_inurba_marseille","lat":43.29349,"lon":5.42841,"is_reserved":false,"is_disabled":false,"rental_uris":{"android":"levelo://app?vid=241caae4-8692-4e94-86df-34f7688f2c7d","ios":"levelo://app?vid=241caae4-8692-4e94-86df-34f7688f2c7d"},"vehicle_type_id":"4","last_reported":1733069422,"current_range_meters":20400,"station_id":"","pricing_plan_id":"cebpf4jnsgd1na2vs0mg"},{"bike_id":"f0e9b672-4ce8-498c-afbb-aef0f0c8d844","system_id":"levelo_inurba_marseille","lat":43.29008,"lon":5.35616,"is_reserved":false,"is_disabled":false,"rental_uris":{"android":"levelo://app?vid=f0e9b672-4ce8-498c-afbb-aef0f0c8d844","ios":"levelo://app?vid=f0e9b672-4ce8-498c-afbb-aef0f0c8d844"},"vehicle_type_id":"4","last_reported":1733069422,"current_range_meters":9600,"station_id":"ce4bhb92rcd13ifvqen0","pricing_plan_id":"cebpf4jnsgd1na2vs0mg"},{"bike_id":"3801b0a1-ac75-43c9-b357-4d1264b1b8fb","system_id":"levelo_inurba_marseille","lat":43.292,"lon":5.35803,"is_reserved":false,"is_disabled":false,"rental_uris":{"android":"levelo://app?vid=3801b0a1-ac75-43c9-b357-4d1264b1b8fb","ios":"levelo://app?vid=3801b0a1-ac75-43c9-b357-4d1264b1b8fb"},"vehicle_type_id":"4","last_reported":1733069422,"current_range_meters":24800,"station_id":"ce4bhb12rcd13ifvqel0","pricing_plan_id":"cebpf4jnsgd1na2vs0mg"},{"bike_id":"f86a7985-f983-4c43-accc-36f193764ff0","system_id":"levelo_inurba_marseille","lat":43.31068,"lon":5.40093,"is_reserved":false,"is_disabled":false,"rental_uris":{"android":"levelo://app?vid=f86a7985-f983-4c43-accc-36f193764ff0","ios":"levelo://app?vid=f86a7985-f983-4c43-accc-36f193764ff0"},"vehicle_type_id":"4","last_reported":1733069422,"current_range_meters":11200,"station_id":"","pricing_plan_id":"cebpf4jnsgd1na2vs0mg"},{"bike_id":"dd0ac728-ca6e-4c42-b6d7-74acfcd68595","system_id":"levelo_inurba_marseille","lat":43.32341,"lon":5.40626,"is_reserved":false,"is_disabled":false,"rental_uris":{"android":"levelo://app?vid=dd0ac728-ca6e-4c42-b6d7-74acfcd68595","ios":"levelo://app?vid=dd0ac728-ca6e-4c42-b6d7-74acfcd68595"},"vehicle_type_id":"4","last_reported":1733069422,"current_range_meters":24400,"station_id":"ce4bhq92rcd13ifvqhjg","pricing_plan_id":"cebpf4jnsgd1na2vs0mg"},{"bike_id":"d27e36be-80c4-49d2-824f-ccbab1ad7974","system_id":"levelo_inurba_marseille","lat":43.27976,"lon":5.38734,"is_reserved":false,"is_disabled":false,"rental_uris":{"android":"levelo://app?vid=d27e36be-80c4-49d2-824f-ccbab1ad7974","ios":"levelo://app?vid=d27e36be-80c4-49d2-824f-ccbab1ad7974"},"vehicle_type_id":"4","last_reported":1733069422,"current_range_meters":37600,"station_id":"ce4bhg12rcd13ifvqf80","pricing_plan_id":"cebpf4jnsgd1na2vs0mg"},{"bike_id":"43746d86-8a13-4845-9faf-ae69b548d714","system_id":"levelo_inurba_marseille","lat":43.29459,"lon":5.37917,"is_reserved":false,"is_disabled":true,"rental_uris":{"android":"levelo://app?vid=43746d86-8a13-4845-9faf-ae69b548d714","ios":"levelo://app?vid=43746d86-8a13-4845-9faf-ae69b548d714"},"vehicle_type_id":"4","last_reported":1733069422,"current_range_meters":0,"station_id":"","pricing_plan_id":"cebpf4jnsgd1na2vs0mg"},{"bike_id":"b1bb9cd6-eb3f-4e4f-bfa3-d6a02469232a","system_id":"levelo_inurba_marseille","lat":43.30916,"lon":5.36858,"is_reserved":false,"is_disabled":false,"rental_uris":{"android":"levelo://app?vid=b1bb9cd6-eb3f-4e4f-bfa3-d6a02469232a","ios":"levelo://app?vid=b1bb9cd6-eb3f-4e4f-bfa3-d6a02469232a"},"vehicle_type_id":"4","last_reported":1733069422,"current_range_meters":38800,"station_id":"ce4bgn92rcd13ifvqbvg","pricing_plan_id":"cebpf4jnsgd1na2vs0mg"},{"bike_id":"a2b97481-5f6a-481d-82c5-65bcc915642f","system_id":"levelo_inurba_marseille","lat":43.27618,"lon":5.36126,"is_reserved":false,"is_disabled":false,"rental_uris":{"android":"levelo://app?vid=a2b97481-5f6a-481d-82c5-65bcc915642f","ios":"levelo://app?vid=a2b97481-5f6a-481d-82c5-65bcc915642f"},"vehicle_type_id":"4","last_reported":1733069422,"current_range_meters":38800,"station_id":"ce4bgj92rcd13ifvqbe0","pricing_plan_id":"cebpf4jnsgd1na2vs0mg"},{"bike_id":"f1f2d7a0-eaa9-4a74-90b5-bc52d231b817","system_id":"levelo_inurba_marseille","lat":43.29583,"lon":5.36748,"is_reserved":false,"is_disabled":true,"rental_uris":{"android":"levelo://app?vid=f1f2d7a0-eaa9-4a74-90b5-bc52d231b817","ios":"levelo://app?vid=f1f2d7a0-eaa9-4a74-90b5-bc52d231b817"},"vehicle_type_id":"4","last_reported":1733069422,"current_range_meters":38000,"station_id":"ce4bgph2rcd13ifvqc2g","pricing_plan_id":"cebpf4jnsgd1na2vs0mg"},{"bike_id":"57538d75-9223-499c-af0e-1862545df59a","system_id":"levelo_inurba_marseille","lat":43.31272,"lon":5.4017,"is_reserved":false,"is_disabled":false,"rental_uris":{"android":"levelo://app?vid=57538d75-9223-499c-af0e-1862545df59a","ios":"levelo://app?vid=57538d75-9223-499c-af0e-1862545df59a"},"vehicle_type_id":"4","last_reported":1733069422,"current_range_meters":24000,"station_id":"ce4bh092rcd13ifvqd30","pricing_plan_id":"cebpf4jnsgd1na2vs0mg"},{"bike_id":"bcdb40b4-1db9-4b1e-8304-abf9b16ddacc","system_id":"levelo_inurba_marseille","lat":43.2439,"lon":5.37052,"is_reserved":false,"is_disabled":true,"rental_uris":{"android":"levelo://app?vid=bcdb40b4-1db9-4b1e-8304-abf9b16ddacc","ios":"levelo://app?vid=bcdb40b4-1db9-4b1e-8304-abf9b16ddacc"},"vehicle_type_id":"4","last_reported":1733069422,"current_range_meters":1600,"station_id":"ce4bhhh2rcd13ifvqfk0","pricing_plan_id":"cebpf4jnsgd1na2vs0mg"},{"bike_id":"1e2eaa3c-fb22-42b8-9e83-41ea512d2c4b","system_id":"levelo_inurba_marseille","lat":43.28727,"lon":5.39998,"is_reserved":false,"is_disabled":true,"rental_uris":{"android":"levelo://app?vid=1e2eaa3c-fb22-42b8-9e83-41ea512d2c4b","ios":"levelo://app?vid=1e2eaa3c-fb22-42b8-9e83-41ea512d2c4b"},"vehicle_type_id":"4","last_reported":1733069422,"current_range_meters":8800,"station_id":"ce4bho92rcd13ifvqh3g","pricing_plan_id":"cebpf4jnsgd1na2vs0mg"},{"bike_id":"69f935ca-3424-45da-88f4-aac832fcea51","system_id":"levelo_inurba_marseille","lat":43.31988,"lon":5.38153,"is_reserved":false,"is_disabled":true,"rental_uris":{"android":"levelo://app?vid=69f935ca-3424-45da-88f4-aac832fcea51","ios":"levelo://app?vid=69f935ca-3424-45da-88f4-aac832fcea51"},"vehicle_type_id":"4","last_reported":1733069422,"current_range_meters":36000,"station_id":"ce4bhr12rcd13ifvqhpg","pricing_plan_id":"cebpf4jnsgd1na2vs0mg"},{"bike_id":"3cd6d0eb-6169-4bd4-98b0-b270034b3eb8","system_id":"levelo_inurba_marseille","lat":43.29192,"lon":5.35805,"is_reserved":false,"is_disabled":false,"rental_uris":{"android":"levelo://app?vid=3cd6d0eb-6169-4bd4-98b0-b270034b3eb8","ios":"levelo://app?vid=3cd6d0eb-6169-4bd4-98b0-b270034b3eb8"},"vehicle_type_id":"4","last_reported":1733069422,"current_range_meters":36000,"station_id":"ce4bhb12rcd13ifvqel0","pricing_plan_id":"cebpf4jnsgd1na2vs0mg"},