{"last_updated":1747897841,"ttl":60,"version":"2.2","data":{"bikes":[{"bike_id":"c0b9fd4f-e181-46ce-b0bf-f5119973334f","system_id":"levelo_inurba_marseille","lat":43.33771,"lon":5.37424,"is_reserved":false,"is_disabled":true,"rental_uris":{"android":"levelo://app?vid=c0b9fd4f-e181-46ce-b0bf-f5119973334f","ios":"levelo://app?vid=c0b9fd4f-e181-46ce-b0bf-f5119973334f"},"vehicle_type_id":"4","last_reported":1747897841,"current_range_meters":0,"station_id":"","pricing_plan_id":"cebpf4jnsgd1na2vs0mg"},{"bike_id":"99f73d8c-ff21-451c-8082-80384eaeabfc","system_id":"levelo_inurba_marseille","lat":43.30567,"lon":5.40165,"is_reserved":false,"is_disabled":true,"rental_uris":{"android":"levelo://app?vid=99f73d8c-ff21-451c-8082-80384eaeabfc","ios":"levelo://app?vid=99f73d8c-ff21-451c-8082-80384eaeabfc"},"vehicle_type_id":"4","last_reported":1747897841,"current_range_meters":0,"station_id":"","pricing_plan_id":"cebpf4jnsgd1na2vs0mg"},{"bike_id":"c306fa7d-481e-4ae3-9585-ff4c1f5ddcb9","system_id":"levelo_inurba_marseille","lat":43.34993,"lon":5.37965,"is_reserved":false,"is_disabled":true,"rental_uris":{"android":"levelo://app?vid=c306fa7d-481e-4ae3-9585-ff4c1f5ddcb9","ios":"levelo://app?vid=c306fa7d-481e-4ae3-9585-ff4c1f5ddcb9"},"vehicle_type_id":"4","last_reported":1747897841,"current_range_meters":0,"station_id":"","pricing_plan_id":"cebpf4jnsgd1na2vs0mg"},{"bike_id":"8f0f531d-6a65-4647-8a6f-baa3d982f42f","system_id":"levelo_inurba_marseille","lat":43.28109,"lon":5.42575,"is_reserved":false,"is_disabled":true,"rental_uris":{"android":"levelo://app?vid=8f0f531d-6a65-4647-8a6f-baa3d982f42f","ios":"levelo://app?vid=8f0f531d-6a65-4647-8a6f-baa3d982f42f"},"vehicle_type_id":"4","last_reported":1747897841,"current_range_meters":0,"station_id":"","pricing_plan_id":"cebpf4jnsgd1na2vs0mg"},{"bike_id":"e3cbe215-c566-4c05-8a2b-9292fd480fe5","system_id":"levelo_inurba_marseille","lat":43.270373,"lon":5.400983,"is_reserved":false,"is_disabled":true,"rental_uris":{"android":"levelo://app?vid=e3cbe215-c566-4c05-8a2b-9292fd480fe5","ios":"levelo://app?vid=e3cbe215-c566-4c05-8a2b-9292fd480fe5"},"vehicle_type_id":"4","last_reported":1747897841,"current_range_meters":0,"station_id":"","pricing_plan_id":"cebpf4jnsgd1na2vs0mg"},{"bike_id":"1dec17c8-cbde-4354-8b6c-219f98c89710","system_id":"levelo_inurba_marseille","lat":43.291827,"lon":5.422652,"is_reserved":false,"is_disabled":true,"rental_uris":{"android":"levelo://app?vid=1dec17c8-cbde-4354-8b6c-219f98c89710","ios":"levelo://app?vid=1dec17c8-cbde-4354-8b6c-219f98c89710"},"vehicle_type_id":"4","last_reported":1747897841,"current_range_meters":0,"station_id":"","pricing_plan_id":"cebpf4jnsgd1na2vs0mg"},{"bike_id":"a5bcf3ab-5daa-4dec-898b-27b2e944e103","system_id":"levelo_inurba_marseille","lat":43.27272,"lon":5.40936,"is_reserved":false,"is_disabled":true,"rental_uris":{"android":"levelo://app?vid=a5bcf3ab-5daa-4dec-898b-27b2e944e103","ios":"levelo://app?vid=a5bcf3ab-5daa-4dec-898b-27b2e944e103"},"vehicle_type_id":"4","last_reported":1747897841,"current_range_meters":0,"station_id":"","pricing_plan_id":"cebpf4jnsgd1na2vs0mg"},{"bike_id":"79c4b0e6-719b-4903-ac96-107b5995b617","system_id":"levelo_inurba_marseille","lat":43.233726,"lon":5.360056,"is_reserved":false,"is_disabled":true,"rental_uris":{"android":"levelo://app?vid=79c4b0e6-719b-4903-ac96-107b5995b617","ios":"levelo://app?vid=79c4b0e6-719b-4903-ac96-107b5995b617"},"vehicle_type_id":"4","last_reported":1747897841,"current_range_meters":0,"station_id":"","pricing_plan_id":"cebpf4jnsgd1na2vs0mg"},{"bike_id":"20bee342-4a3f-4f34-940d-bb6cf00d52ae","system_id":"levelo_inurba_marseille","lat":43.26656,"lon":5.38589,"is_reserved":false,"is_disabled":true,"rental_uris":{"android":"levelo://app?vid=20bee342-4a3f-4f34-940d-bb6cf00d52ae","ios":"levelo://app?vid=20bee342-4a3f-4f34-940d-bb6cf00d52ae"},"vehicle_type_id":"4","last_reported":1747897841,"current_range_meters":0,"station_id":"","pricing_plan_id":"cebpf4jnsgd1na2vs0mg"},{"bike_id":"e9dd3aa4-b5e7-4480-926d-d7f537719bfa","system_id":"levelo_inurba_marseille","lat":43.230331,"lon":5.401847,"is_reserved":false,"is_disabled":true,"rental_uris":{"android":"levelo://app?vid=e9dd3aa4-b5e7-4480-926d-d7f537719bfa","ios":"levelo://app?vid=e9dd3aa4-b5e7-4480-926d-d7f537719bfa"},"vehicle_type_id":"4","last_reported":1747897841,"current_range_meters":0,"station_id":"","pricing_plan_id":"cebpf4jnsgd1na2vs0mg"},{"bike_id":"14603e41-b2dd-4757-a53c-2e366aa4f983","system_id":"levelo_inurba_marseille","lat":43.269991,"lon":5.428135,"is_reserved":false,"is_disabled":true,"rental_uris":{"android":"levelo://app?vid=14603e41-b2dd-4757-a53c-2e366aa4f983","ios":"levelo://app?vid=14603e41-b2dd-4757-a53c-2e366aa4f983"},"vehicle_type_id":"4","last_reported":1747897841,"current_range_meters":0,"station_id":"","pricing_plan_id":"cebpf4jnsgd1na2vs0mg"},{"bike_id":"efaedf32-9569-45ac-9ca3-f7241fbcd847","system_id":"levelo_inurba_marseille","lat":43.29266,"lon":5.3762,"is_reserved":false,"is_disabled":true,"rental_uris":{"android":"levelo://app?vid=efaedf32-9569-45ac-9ca3-f7241fbcd847","ios":"levelo://app?vid=efaedf32-9569-45ac-9ca3-f7241fbcd847"},"vehicle_type_id":"4","last_reported":1747897841,"current_range_meters":0,"station_id":"ce4bgi12rcd13ifvqb80","pricing_plan_id":"cebpf4jnsgd1na2vs0mg"},{"bike_id":"28f5641c-3b88-45e6-8a4e-c4db2aff452a","system_id":"levelo_inurba_marseille","lat":43.280309,"lon":5.369499,"is_reserved":false,"is_disabled":true,"rental_uris":{"android":"levelo://app?vid=28f5641c-3b88-45e6-8a4e-c4db2aff452a","ios":"levelo://app?vid=28f5641c-3b88-45e6-8a4e-c4db2aff452a"},"vehicle_type_id":"4","last_reported":1747897841,"current_range_meters":0,"station_id":"ce4bha12rcd13ifvqef0","pricing_plan_id":"cebpf4jnsgd1na2vs0mg"},{"bike_id":"e41c9cf2-e1b5-4807-96e6-a9b03102f34e","system_id":"levelo_inurba_marseille","lat":43.28614,"lon":5.35108,"is_reserved":false,"is_disabled":true,"rental_uris":{"android":"levelo://app?vid=e41c9cf2-e1b5-4807-96e6-a9b03102f34e","ios":"levelo://app?vid=e41c9cf2-e1b5-4807-96e6-a9b03102f34e"},"vehicle_type_id":"4","last_reported":1747897841,"current_range_meters":0,"station_id":"ce4bhch2rcd13ifvqeug","pricing_plan_id":"cebpf4jnsgd1na2vs0mg"},{"bike_id":"d1624019-07d7-41bc-a98e-77b36bc167b9","system_id":"levelo_inurba_marseille","lat":43.25871,"lon":5.39908,"is_reserved":false,"is_disabled":true,"rental_uris":{"android":"levelo://app?vid=d1624019-07d7-41bc-a98e-77b36bc167b9","ios":"levelo://app?vid=d1624019-07d7-41bc-a98e-77b36bc167b9"},"vehicle_type_id":"4","last_reported":1747897841,"current_range_meters":0,"station_id":"ce4bhl92rcd13ifvqghg","pricing_plan_id":"cebpf4jnsgd1na2vs0mg"},{"bike_id":"17880693-f0d5-464d-8b36-084e8c1d7cb9","system_id":"levelo_inurba_marseille","lat":43.25117,"lon":5.40321,"is_reserved":false,"is_disabled":true,"rental_uris":{"android":"levelo://app?vid=17880693-f0d5-464d-8b36-084e8c1d7cb9","ios":"levelo://app?vid=17880693-f0d5-464d-8b36-084e8c1d7cb9"},"vehicle_type_id":"4","last_reported":1747897841,"current_range_meters":0,"station_id":"ce4bhlh2rcd13ifvqgig","pricing_plan_id":"cebpf4jnsgd1na2vs0mg"},{"bike_id":"594b92d1-67a2-4858-b919-df0c437f3fa8","system_id":"levelo_inurba_marseille","lat":43.25079,"lon":5.39516,"is_reserved":false,"is_disabled":true,"rental_uris":{"android":"levelo://app?vid=594b92d1-67a2-4858-b919-df0c437f3fa8","ios":"levelo://app?vid=594b92d1-67a2-4858-b919-df0c437f3fa8"},"vehicle_type_id":"4","last_reported":1747897841,"current_range_meters":0,"station_id":"ce4bhm12rcd13ifvqgkg","pricing_plan_id":"cebpf4jnsgd1na2vs0mg"},{"bike_id":"addacb63-eaa1-4b88-b2d5-f495030c26ce","system_id":"levelo_inurba_marseille","lat":43.2315,"lon":5.43714,"is_reserved":false,"is_disabled":true,"rental_uris":{"android":"levelo://app?vid=addacb63-eaa1-4b88-b2d5-f495030c26ce","ios":"levelo://app?vid=addacb63-eaa1-4b88-b2d5-f495030c26ce"},"vehicle_type_id":"4","last_reported":1747897841,"current_range_meters":0,"station_id":"ce4bhmp2rcd13ifvqgog","pricing_plan_id":"cebpf4jnsgd1na2vs0mg"},{"bike_id":"3dc9bdf1-c6a9-45a5-a068-39a7601ce50b","system_id":"levelo_inurba_marseille","lat":43.24069,"lon":5.37758,"is_reserved":false,"is_disabled":true,"rental_uris":{"android":"levelo://app?vid=3dc9bdf1-c6a9-45a5-a068-39a7601ce50b","ios":"levelo://app?vid=3dc9bdf1-c6a9-45a5-a068-39a7601ce50b"},"vehicle_type_id":"4","last_reported":1747897841,"current_range_meters":0,"station_id":"ce4bhnp2rcd13ifvqgvg","pricing_plan_id":"cebpf4jnsgd1na2vs0mg"},{"bike_id":"85eaca89-9437-48d0-9bca-a254337b88db","system_id":"levelo_inurba_marseille","lat":43.27468,"lon":5.41003,"is_reserved":false,"is_disabled":true,"rental_uris":{"android":"levelo://app?vid=85eaca89-9437-48d0-9bca-a254337b88db","ios":"levelo://app?vid=85eaca89-9437-48d0-9bca-a254337b88db"},"vehicle_type_id":"4","last_reported":1747897841,"current_range_meters":400,"station_id":"","pricing_plan_id":"cebpf4jnsgd1na2vs0mg"},{"bike_id":"c830b638-2b86-41be-bb5d-d9e5cfb1e39b","system_id":"levelo_inurba_marseille","lat":43.29017,"lon":5.38625,"is_reserved":false,"is_disabled":true,"rental_uris":{"android":"levelo://app?vid=c830b638-2b86-41be-bb5d-d9e5cfb1e39b","ios":"levelo://app?vid=c830b638-2b86-41be-bb5d-d9e5cfb1e39b"},"vehicle_type_id":"4","last_reported":1747897841,"current_range_meters":400,"station_id":"ce4bh4p2rcd13ifvqe0g","pricing_plan_id":"cebpf4jnsgd1na2vs0mg"},{"bike_id":"9aea114f-9fdd-4570-882b-e9fe62329848","system_id":"levelo_inurba_marseille","lat":43.262024,"lon":5.379248,"is_reserved":false,"is_disabled":true,"rental_uris":{"android":"levelo://app?vid=9aea114f-9fdd-4570-882b-e9fe62329848","ios":"levelo://app?vid=9aea114f-9fdd-4570-882b-e9fe62329848"},"vehicle_type_id":"4","last_reported":1747897841,"current_range_meters":400,"station_id":"ce4bhjp2rcd13ifvqg90","pricing_plan_id":"cebpf4jnsgd1na2vs0mg"},{"bike_id":"9f013374-3f67-41d6-86db-2fd83cf956de","system_id":"levelo_inurba_marseille","lat":43.29564,"lon":5.37502,"is_reserved":false,"is_disabled":true,"rental_uris":{"android":"levelo://app?vid=9f013374-3f67-41d6-86db-2fd83cf956de","ios":"levelo://app?vid=9f013374-3f67-41d6-86db-2fd83cf956de"},"vehicle_type_id":"4","last_reported":1747897841,"current_range_meters":800,"station_id":"ce4bgh92rcd13ifvqb50","pricing_plan_id":"cebpf4jnsgd1na2vs0mg"},{"bike_id":"f99ed553-6066-43c8-85d3-d9fdd1bab8ca","system_id":"levelo_inurba_marseille","lat":43.297802,"lon":5.38104,"is_reserved":false,"is_disabled":true,"rental_uris":{"android":"levelo://app?vid=f99ed553-6066-43c8-85d3-d9fdd1bab8ca","ios":"levelo://app?vid=f99ed553-6066-43c8-85d3-d9fdd1bab8ca"},"vehicle_type_id":"4","last_reported":1747897841,"current_range_meters":800,"station_id":"ce4bgip2rcd13ifvqbb0","pricing_plan_id":"cebpf4jnsgd1na2vs0mg"},{"bike_id":"49180999-7dfa-40a7-89a2-a38895314144","system_id":"levelo_inurba_marseille","lat":43.28723,"lon":5.37939,"is_reserved":false,"is_disabled":true,"rental_uris":{"android":"levelo://app?vid=49180999-7dfa-40a7-89a2-a38895314144","ios":"levelo://app?vid=49180999-7dfa-40a7-89a2-a38895314144"},"vehicle_type_id":"4","last_reported":1747897841,"current_range_meters":800,"station_id":"ce4bh9p2rcd13ifvqec0","pricing_plan_id":"cebpf4jnsgd1na2vs0mg"},{"bike_id":"71f69d4a-a7ec-4520-a299-c8867f57bd71","system_id":"levelo_inurba_marseille","lat":43.279391,"lon":5.410485,"is_reserved":false,"is_disabled":true,"rental_uris":{"android":"levelo://app?vid=71f69d4a-a7ec-4520-a299-c8867f57bd71","ios":"levelo://app?vid=71f69d4a-a7ec-4520-a299-c8867f57bd71"},"vehicle_type_id":"4","last_reported":1747897841,"current_range_meters":800,"station_id":"ce4bhnp2rcd13ifvqh0g","pricing_plan_id":"cebpf4jnsgd1na2vs0mg"},{"bike_id":"fa833ef3-944c-43ff-8561-d75d34177b50","system_id":"levelo_inurba_marseille","lat":43.2872,"lon":5.37928,"is_reserved":false,"is_disabled":true,"rental_uris":{"android":"levelo://app?vid=fa833ef3-944c-43ff-8561-d75d34177b50","ios":"levelo://app?vid=fa833ef3-944c-43ff-8561-d75d34177b50"},"vehicle_type_id":"4","last_reported":1747897841,"current_range_meters":1200,"station_id":"ce4bh9p2rcd13ifvqec0","pricing_plan_id":"cebpf4jnsgd1na2vs0mg"},{"bike_id":"b9874766-6903-4dcc-ab85-d483afda310b","system_id":"levelo_inurba_marseille","lat":43.259375,"lon":5.408975,"is_reserved":false,"is_disabled":true,"rental_uris":{"android":"levelo://app?vid=b9874766-6903-4dcc-ab85-d483afda310b","ios":"levelo://app?vid=b9874766-6903-4dcc-ab85-d483afda310b"},"vehicle_type_id":"4","last_reported":1747897841,"current_range_meters":1200,"station_id":"ce4bhm92rcd13ifvqglg","pricing_plan_id":"cebpf4jnsgd1na2vs0mg"},{"bike_id":"6466d58f-78fe-41df-9abd-c00f80443ae3","system_id":"levelo_inurba_marseille","lat":43.24166,"lon":5.39731,"is_reserved":false,"is_disabled":true,"rental_uris":{"android":"levelo://app?vid=6466d58f-78fe-41df-9abd-c00f80443ae3","ios":"levelo://app?vid=6466d58f-78fe-41df-9abd-c00f80443ae3"},"vehicle_type_id":"4","last_reported":1747897841,"current_range_meters":1200,"station_id":"ce4bhn12rcd13ifvqgpg","pricing_plan_id":"cebpf4jnsgd1na2vs0mg"},{"bike_id":"8c49333a-4d73-42d6-866d-43001ed64431","system_id":"levelo_inurba_marseille","lat":43.21741,"lon":5.34605,"is_reserved":false,"is_disabled":true,"rental_uris":{"android":"levelo://app?vid=8c49333a-4d73-42d6-866d-43001ed64431","ios":"levelo://app?vid=8c49333a-4d73-42d6-866d-43001ed64431"},"vehicle_type_id":"4","last_reported":1747897841,"current_range_meters":1200,"station_id":"st_cvj6r9ubvosntc0bgbag","pricing_plan_id":"cebpf4jnsgd1na2vs0mg"},{"bike_id":"fc784f6c-4a71-4542-8c04-3200d5f12242","system_id":"levelo_inurba_marseille","lat":43.30507,"lon":5.3818,"is_reserved":false,"is_disabled":true,"rental_uris":{"android":"levelo://app?vid=fc784f6c-4a71-4542-8c04-3200d5f12242","ios":"levelo://app?vid=fc784f6c-4a71-4542-8c04-3200d5f12242"},"vehicle_type_id":"4","last_reported":1747897841,"current_range_meters":1600,"station_id":"","pricing_plan_id":"cebpf4jnsgd1na2vs0mg"},{"bike_id":"3d1e4e9a-c99a-4008-a77d-416895b1f654","system_id":"levelo_inurba_marseille","lat":43.31188,"lon":5.36832,"is_reserved":false,"is_disabled":true,"rental_uris":{"android":"levelo://app?vid=3d1e4e9a-c99a-4008-a77d-416895b1f654","ios":"levelo://app?vid=3d1e4e9a-c99a-4008-a77d-416895b1f654"},"vehicle_type_id":"4","last_reported":1747897841,"current_range_meters":1600,"station_id":"ce4bgl92rcd13ifvqbq0","pricing_plan_id":"cebpf4jnsgd1na2vs0mg"},{"bike_id":"fad268c7-5ead-4090-b820-6567068ce0e0","system_id":"levelo_inurba_marseille","lat":43.3148,"lon":5.37309,"is_reserved":false,"is_disabled":true,"rental_uris":{"android":"levelo://app?vid=fad268c7-5ead-4090-b820-6567068ce0e0","ios":"levelo://app?vid=fad268c7-5ead-4090-b820-6567068ce0e0"},"vehicle_type_id":"4","last_reported":1747897841,"current_range_meters":1600,"station_id":"ce4bgt12rcd13ifvqcd0","pricing_plan_id":"cebpf4jnsgd1na2vs0mg"},{"bike_id":"1ab50db4-6486-4abb-a8da-df4d03caf66e","system_id":"levelo_inurba_marseille","lat":43.26202,"lon":5.37932,"is_reserved":false,"is_disabled":true,"rental_uris":{"android":"levelo://app?vid=1ab50db4-6486-4abb-a8da-df4d03caf66e","ios":"levelo://app?vid=1ab50db4-6486-4abb-a8da-df4d03caf66e"},"vehicle_type_id":"4","last_reported":1747897841,"current_range_meters":1600,"station_id":"ce4bhjp2rcd13ifvqg90","pricing_plan_id":"cebpf4jnsgd1na2vs0mg"},{"bike_id":"cd11451a-92bf-41c3-8134-f09f901936eb","system_id":"levelo_inurba_marseille","lat":43.250734,"lon":5.395189,"is_reserved":false,"is_disabled":true,"rental_uris":{"android":"levelo://app?vid=cd11451a-92bf-41c3-8134-f09f901936eb","ios":"levelo://app?vid=cd11451a-92bf-41c3-8134-f09f901936eb"},"vehicle_type_id":"4","last_reported":1747897841,"current_range_meters":1600,"station_id":"ce4bhm12rcd13ifvqgkg","pricing_plan_id":"cebpf4jnsgd1na2vs0mg"},{"bike_id":"564fcbba-b9fd-4ee5-89b7-f971a39a4698","system_id":"levelo_inurba_marseille","lat":43.23194,"lon":5.3555,"is_reserved":false,"is_disabled":true,"rental_uris":{"android":"levelo://app?vid=564fcbba-b9fd-4ee5-89b7-f971a39a4698","ios":"levelo://app?vid=564fcbba-b9fd-4ee5-89b7-f971a39a4698"},"vehicle_type_id":"4","last_reported":1747897841,"current_range_meters":1600,"station_id":"ce4bhu92rcd13ifvqi70","pricing_plan_id":"cebpf4jnsgd1na2vs0mg"},{"bike_id":"8821936a-ed67-4225-8458-b8d62cad46ab","system_id":"levelo_inurba_marseille","lat":43.232018,"lon":5.355588,"is_reserved":false,"is_disabled":true,"rental_uris":{"android":"levelo://app?vid=8821936a-ed67-4225-8458-b8d62cad46ab","ios":"levelo://app?vid=8821936a-ed67-4225-8458-b8d62cad46ab"},"vehicle_type_id":"4","last_reported":1747897841,"current_range_meters":1600,"station_id":"ce4bhu92rcd13ifvqi70","pricing_plan_id":"cebpf4jnsgd1na2vs0mg"},{"bike_id":"15dcdbbd-a41e-43eb-9ed6-26ec15ce7a50","system_id":"levelo_inurba_marseille","lat":43.21423,"lon":5.34109,"is_reserved":false,"is_disabled":true,"rental_uris":{"android":"levelo://app?vid=15dcdbbd-a41e-43eb-9ed6-26ec15ce7a50","ios":"levelo://app?vid=15dcdbbd-a41e-43eb-9ed6-26ec15ce7a50"},"vehicle_type_id":"4","last_reported":1747897841,"current_range_meters":2000,"station_id":"","pricing_plan_id":"cebpf4jnsgd1na2vs0mg"},{"bike_id":"58c5e031-c6d6-4b68-b473-819fae0e2776","system_id":"levelo_inurba_marseille","lat":43.29272,"lon":5.37616,"is_reserved":false,"is_disabled":true,"rental_uris":{"android":"levelo://app?vid=58c5e031-c6d6-4b68-b473-819fae0e2776","ios":"levelo://app?vid=58c5e031-c6d6-4b68-b473-819fae0e2776"},"vehicle_type_id":"4","last_reported":1747897841,"current_range_meters":2000,"station_id":"ce4bgi12rcd13ifvqb80","pricing_plan_id":"cebpf4jnsgd1na2vs0mg"},{"bike_id":"8cdb846a-484d-44a8-83b9-36ffc699aa3f","system_id":"levelo_inurba_marseille","lat":43.30147,"lon":5.38093,"is_reserved":false,"is_disabled":true,"rental_uris":{"android":"levelo://app?vid=8cdb846a-484d-44a8-83b9-36ffc699aa3f","ios":"levelo://app?vid=8cdb846a-484d-44a8-83b9-36ffc699aa3f"},"vehicle_type_id":"4","last_reported":1747897841,"current_range_meters":2000,"station_id":"ce4bgjp2rcd13ifvqbh0","pricing_plan_id":"cebpf4jnsgd1na2vs0mg"},{"bike_id":"3b081a23-7377-47a2-b9ba-bd361ab42b25","system_id":"levelo_inurba_marseille","lat":43.29972,"lon":5.37158,"is_reserved":false,"is_disabled":true,"rental_uris":{"android":"levelo://app?vid=3b081a23-7377-47a2-b9ba-bd361ab42b25","ios":"levelo://app?vid=3b081a23-7377-47a2-b9ba-bd361ab42b25"},"vehicle_type_id":"4","last_reported":1747897841,"current_range_meters":2000,"station_id":"ce4bgr92rcd13ifvqc7g","pricing_plan_id":"cebpf4jnsgd1na2vs0mg"},{"bike_id":"9c636968-6a70-4b29-be30-e2f60641ca21","system_id":"levelo_inurba_marseille","lat":43.28842,"lon":5.39302,"is_reserved":false,"is_disabled":true,"rental_uris":{"android":"levelo://app?vid=9c636968-6a70-4b29-be30-e2f60641ca21","ios":"levelo://app?vid=9c636968-6a70-4b29-be30-e2f60641ca21"},"vehicle_type_id":"4","last_reported":1747897841,"current_range_meters":2000,"station_id":"ce4bh2p2rcd13ifvqdi0","pricing_plan_id":"cebpf4jnsgd1na2vs0mg"},{"bike_id":"9241d1a5-4bb6-4f35-afca-6efaa0076822","system_id":"levelo_inurba_marseille","lat":43.26787,"lon":5.39409,"is_reserved":false,"is_disabled":true,"rental_uris":{"android":"levelo://app?vid=9241d1a5-4bb6-4f35-afca-6efaa0076822","ios":"levelo://app?vid=9241d1a5-4bb6-4f35-afca-6efaa0076822"},"vehicle_type_id":"4","last_reported":1747897841,"current_range_meters":2000,"station_id":"ce4bhh12rcd13ifvqfg0","pricing_plan_id":"cebpf4jnsgd1na2vs0mg"},{"bike_id":"bffbaf88-357a-4e87-a68c-a9a27a6e01e6","system_id":"levelo_inurba_marseille","lat":43.262337,"lon":5.421286,"is_reserved":false,"is_disabled":false,"rental_uris":{"android":"levelo://app?vid=bffbaf88-357a-4e87-a68c-a9a27a6e01e6","ios":"levelo://app?vid=bffbaf88-357a-4e87-a68c-a9a27a6e01e6"},"vehicle_type_id":"4","last_reported":1747897841,"current_range_meters":2800,"station_id":"","pricing_plan_id":"cebpf4jnsgd1na2vs0mg"},{"bike_id":"b39b5564-25b6-482c-a8ed-75595ba2f676","system_id":"levelo_inurba_marseille","lat":43.2707,"lon":5.422805,"is_reserved":false,"is_disabled":false,"rental_uris":{"android":"levelo://app?vid=b39b5564-25b6-482c-a8ed-75595ba2f676","ios":"levelo://app?vid=b39b5564-25b6-482c-a8ed-75595ba2f676"},"vehicle_type_id":"4","last_reported":1747897841,"current_range_meters":2800,"station_id":"ce4bhk92rcd13ifvqgb0","pricing_plan_id":"cebpf4jnsgd1na2vs0mg"},{"bike_id":"ad940b51-d319-4273-b6f6-d9100fd9668e","system_id":"levelo_inurba_marseille","lat":43.290381,"lon":5.399574,"is_reserved":false,"is_disabled":false,"rental_uris":{"android":"levelo://app?vid=ad940b51-d319-4273-b6f6-d9100fd9668e","ios":"levelo://app?vid=ad940b51-d319-4273-b6f6-d9100fd9668e"},"vehicle_type_id":"4","last_reported":1747897841,"current_range_meters":2800,"station_id":"cjm6bp8fraef2m0cb0m0","pricing_plan_id":"cebpf4jnsgd1na2vs0mg"},{"bike_id":"6bbb3ae4-3edd-4b00-9ef1-2eee7e19ed9b","system_id":"levelo_inurba_marseille","lat":43.3043,"lon":5.3681,"is_reserved":false,"is_disabled":false,"rental_uris":{"android":"levelo://app?vid=6bbb3ae4-3edd-4b00-9ef1-2eee7e19ed9b","ios":"levelo://app?vid=6bbb3ae4-3edd-4b00-9ef1-2eee7e19ed9b"},"vehicle_type_id":"4","last_reported":1747897841,"current_range_meters":3200,"station_id":"","pricing_plan_id":"cebpf4jnsgd1na2vs0mg"},{"bike_id":"f9e38317-f777-4e51-bfc9-9db202d41fa6","system_id":"levelo_inurba_marseille","lat":43.30209,"lon":5.39475,"is_reserved":false,"is_disabled":false,"rental_uris":{"android":"levelo://app?vid=f9e38317-f777-4e51-bfc9-9db202d41fa6","ios":"levelo://app?vid=f9e38317-f777-4e51-bfc9-9db202d41fa6"},"vehicle_type_id":"4","last_reported":1747897841,"current_range_meters":3200,"station_id":"ce4bh0p2rcd13ifvqd70","pricing_plan_id":"cebpf4jnsgd1na2vs0mg"},{"bike_id":"581a6e6c-e473-4f25-a2ee-c212dc4f923b","system_id":"levelo_inurba_marseille","lat":43.28266,"lon":5.35062,"is_reserved":false,"is_disabled":false,"rental_uris":{"android":"levelo://app?vid=581a6e6c-e473-4f25-a2ee-c212dc4f923b","ios":"levelo://app?vid=581a6e6c-e473-4f25-a2ee-c212dc4f923b"},"vehicle_type_id":"4","last_reported":1747897841,"current_range_meters":3200,"station_id":"ce4bhbp2rcd13ifvqerg","pricing_plan_id":"cebpf4jnsgd1na2vs0mg"},{"bike_id":"6bf1b2a1-4f49-4bd2-ad2d-888585ebe386","system_id":"levelo_inurba_marseille","lat":43.29485,"lon":5.37753,"is_reserved":false,"is_disabled":false,"rental_uris":{"android":"levelo://app?vid=6bf1b2a1-4f49-4bd2-ad2d-888585ebe386","ios":"levelo://app?vid=6bf1b2a1-4f49-4bd2-ad2d-888585ebe386"},"vehicle_type_id":"4","last_reported":1747897841,"current_range_meters":3600,"station_id":"","pricing_plan_id":"cebpf4jnsgd1na2vs0mg"},{"bike_id":"119cbd7e-d0c5-4599-b29b-4d2b4f461d2f","system_id":"levelo_inurba_marseille","lat":43.28679,"lon":5.38663,"is_reserved":false,"is_disabled":false,"rental_uris":{"android":"levelo://app?vid=119cbd7e-d0c5-4599-b29b-4d2b4f461d2f","ios":"levelo://app?vid=119cbd7e-d0c5-4599-b29b-4d2b4f461d2f"},"vehicle_type_id":"4","last_reported":1747897841,"current_range_meters":3600,"station_id":"ce4bh492rcd13ifvqdug","pricing_plan_id":"cebpf4jnsgd1na2vs0mg"},{"bike_id":"c9455c4a-ab41-40d8-a1a5-7e17bc3b6efe","system_id":"levelo_inurba_marseille","lat":43.28975,"lon":5.3784,"is_reserved":false,"is_disabled":false,"rental_uris":{"android":"levelo://app?vid=c9455c4a-ab41-40d8-a1a5-7e17bc3b6efe","ios":"levelo://app?vid=c9455c4a-ab41-40d8-a1a5-7e17bc3b6efe"},"vehicle_type_id":"4","last_reported":1747897841,"current_range_meters":3600,"station_id":"ce4bh9p2rcd13ifvqed0","pricing_plan_id":"cebpf4jnsgd1na2vs0mg"},{"bike_id":"0c4b6638-f1ec-460e-8063-7863c3cfd732","system_id":"levelo_inurba_marseille","lat":43.217621,"lon":5.34617,"is_reserved":false,"is_disabled":false,"rental_uris":{"android":"levelo://app?vid=0c4b6638-f1ec-460e-8063-7863c3cfd732","ios":"levelo://app?vid=0c4b6638-f1ec-460e-8063-7863c3cfd732"},"vehicle_type_id":"4","last_reported":1747897841,"current_range_meters":3600,"station_id":"st_cvj6r9ubvosntc0bgbag","pricing_plan_id":"cebpf4jnsgd1na2vs0mg"},{"bike_id":"e405303e-bb39-418d-8a8b-2fd8da6e843f","system_id":"levelo_inurba_marseille","lat":43.30431,"lon":5.3975,"is_reserved":false,"is_disabled":false,"rental_uris":{"android":"levelo://app?vid=e405303e-bb39-418d-8a8b-2fd8da6e843f","ios":"levelo://app?vid=e405303e-bb39-418d-8a8b-2fd8da6e843f"},"vehicle_type_id":"4","last_reported":1747897841,"current_range_meters":4000,"station_id":"ce4bh092rcd13ifvqd20","pricing_plan_id":"cebpf4jnsgd1na2vs0mg"},{"bike_id":"a13e9192-c95f-498d-a2e9-b950df5c17b7","system_id":"levelo_inurba_marseille","lat":43.28342,"lon":5.38099,"is_reserved":false,"is_disabled":false,"rental_uris":{"android":"levelo://app?vid=a13e9192-c95f-498d-a2e9-b950df5c17b7","ios":"levelo://app?vid=a13e9192-c95f-498d-a2e9-b950df5c17b7"},"vehicle_type_id":"4","last_reported":1747897841,"current_range_meters":4000,"station_id":"ce4bh412rcd13ifvqdr0","pricing_plan_id":"cebpf4jnsgd1na2vs0mg"},{"bike_id":"efa201fa-1298-436d-b5bf-30e50c17543b","system_id":"levelo_inurba_marseille","lat":43.25001,"lon":5.38923,"is_reserved":false,"is_disabled":false,"rental_uris":{"android":"levelo://app?vid=efa201fa-1298-436d-b5bf-30e50c17543b","ios":"levelo://app?vid=efa201fa-1298-436d-b5bf-30e50c17543b"},"vehicle_type_id":"4","last_reported":1747897841,"current_range_meters":4000,"station_id":"ce4bhgp2rcd13ifvqfd0","pricing_plan_id":"cebpf4jnsgd1na2vs0mg"},{"bike_id":"0846db7e-521c-4479-8d97-a0f5bd2b6ae8","system_id":"levelo_inurba_marseille","lat":43.27211,"lon":5.39173,"is_reserved":false,"is_disabled":false,"rental_uris":{"android":"levelo://app?vid=0846db7e-521c-4479-8d97-a0f5bd2b6ae8","ios":"levelo://app?vid=0846db7e-521c-4479-8d97-a0f5bd2b6ae8"},"vehicle_type_id":"4","last_reported":1747897841,"current_range_meters":4000,"station_id":"ce4bhhp2rcd13ifvqfm0","pricing_plan_id":"cebpf4jnsgd1na2vs0mg"},{"bike_id":"ad9b7569-6fe4-4dc2-87af-146f032cf29a","system_id":"levelo_inurba_marseille","lat":43.29775,"lon":5.39337,"is_reserved":false,"is_disabled":false,"rental_uris":{"android":"levelo://app?vid=ad9b7569-6fe4-4dc2-87af-146f032cf29a","ios":"levelo://app?vid=ad9b7569-6fe4-4dc2-87af-146f032cf29a"},"vehicle_type_id":"4","last_reported":1747897841,"current_range_meters":4000,"station_id":"chh1huq6cuj3fo74tm60","pricing_plan_id":"cebpf4jnsgd1na2vs0mg"},{"bike_id":"b8b511c7-6f48-45be-97af-1e0036b54cc5","system_id":"levelo_inurba_marseille","lat":43.27366,"lon":5.42399,"is_reserved":false,"is_disabled":false,"rental_uris":{"android":"levelo://app?vid=b8b511c7-6f48-45be-97af-1e0036b54cc5","ios":"levelo://app?vid=b8b511c7-6f48-45be-97af-1e0036b54cc5"},"vehicle_type_id":"4","last_reported":1747897841,"current_range_meters":4400,"station_id":"","pricing_plan_id":"cebpf4jnsgd1na2vs0mg"},{"bike_id":"e8162579-a5ad-485f-ad83-fec8a2ebe7e1","system_id":"levelo_inurba_marseille","lat":43.26826,"lon":5.39099,"is_reserved":false,"is_disabled":false,"rental_uris":{"android":"levelo://app?vid=e8162579-a5ad-485f-ad83-fec8a2ebe7e1","ios":"levelo://app?vid=e8162579-a5ad-485f-ad83-fec8a2ebe7e1"},"vehicle_type_id":"4","last_reported":1747897841,"current_range_meters":4800,"station_id":"","pricing_plan_id":"cebpf4jnsgd1na2vs0mg"},{"bike_id":"f39af2e7-01b9-4924-bbd3-9c0ded7cc30f","system_id":"levelo_inurba_marseille","lat":43.30885,"lon":5.39656,"is_reserved":false,"is_disabled":false,"rental_uris":{"android":"levelo://app?vid=f39af2e7-01b9-4924-bbd3-9c0ded7cc30f","ios":"levelo://app?vid=f39af2e7-01b9-4924-bbd3-9c0ded7cc30f"},"vehicle_type_id":"4","last_reported":1747897841,"current_range_meters":4800,"station_id":"ce4bh012rcd13ifvqcv0","pricing_plan_id":"cebpf4jnsgd1na2vs0mg"},{"bike_id":"b68306ca-4dc2-4af1-98e2-44351b6a855c","system_id":"levelo_inurba_marseille","lat":43.2836,"lon":5.38641,"is_reserved":false,"is_disabled":false,"rental_uris":{"android":"levelo://app?vid=b68306ca-4dc2-4af1-98e2-44351b6a855c","ios":"levelo://app?vid=b68306ca-4dc2-4af1-98e2-44351b6a855c"},"vehicle_type_id":"4","last_reported":1747897841,"current_range_meters":4800,"station_id":"ce4bh492rcd13ifvqdvg","pricing_plan_id":"cebpf4jnsgd1na2vs0mg"},{"bike_id":"3552fbf2-b43a-446f-93f5-d695fc251b73","system_id":"levelo_inurba_marseille","lat":43.252586,"lon":5.374934,"is_reserved":false,"is_disabled":false,"rental_uris":{"android":"levelo://app?vid=3552fbf2-b43a-446f-93f5-d695fc251b73","ios":"levelo://app?vid=3552fbf2-b43a-446f-93f5-d695fc251b73"},"vehicle_type_id":"4","last_reported":1747897841,"current_range_meters":5600,"station_id":"","pricing_plan_id":"cebpf4jnsgd1na2vs0mg"},{"bike_id":"044b1689-3718-49c8-a855-91e6aacd574c","system_id":"levelo_inurba_marseille","lat":43.31228,"lon":5.36817,"is_reserved":false,"is_disabled":false,"rental_uris":{"android":"levelo://app?vid=044b1689-3718-49c8-a855-91e6aacd574c","ios":"levelo://app?vid=044b1689-3718-49c8-a855-91e6aacd574c"},"vehicle_type_id":"4","last_reported":1747897841,"current_range_meters":5600,"station_id":"ce4bgl92rcd13ifvqbq0","pricing_plan_id":"cebpf4jnsgd1na2vs0mg"},{"bike_id":"7c53e2ef-dc6d-41a5-88f2-552f1873b842","system_id":"levelo_inurba_marseille","lat":43.25009,"lon":5.3892,"is_reserved":false,"is_disabled":false,"rental_uris":{"android":"levelo://app?vid=7c53e2ef-dc6d-41a5-88f2-552f1873b842","ios":"levelo://app?vid=7c53e2ef-dc6d-41a5-88f2-552f1873b842"},"vehicle_type_id":"4","last_reported":1747897841,"current_range_meters":5600,"station_id":"ce4bhgp2rcd13ifvqfd0","pricing_plan_id":"cebpf4jnsgd1na2vs0mg"},{"bike_id":"29d7b449-5d27-4c50-9f78-d963142bc19f","system_id":"levelo_inurba_marseille","lat":43.23055,"lon":5.35492,"is_reserved":false,"is_disabled":false,"rental_uris":{"android":"levelo://app?vid=29d7b449-5d27-4c50-9f78-d963142bc19f","ios":"levelo://app?vid=29d7b449-5d27-4c50-9f78-d963142bc19f"},"vehicle_type_id":"4","last_reported":1747897841,"current_range_meters":5600,"station_id":"cpo3342slgdg3j2ifvpg","pricing_plan_id":"cebpf4jnsgd1na2vs0mg"},{"bike_id":"1ff4dd87-bf56-4ab1-8365-aad71fcb827c","system_id":"levelo_inurba_marseille","lat":43.3267,"lon":5.42784,"is_reserved":false,"is_disabled":false,"rental_uris":{"android":"levelo://app?vid=1ff4dd87-bf56-4ab1-8365-aad71fcb827c","ios":"levelo://app?vid=1ff4dd87-bf56-4ab1-8365-aad71fcb827c"},"vehicle_type_id":"4","last_reported":1747897841,"current_range_meters":6000,"station_id":"","pricing_plan_id":"cebpf4jnsgd1na2vs0mg"},{"bike_id":"be7b3ca8-aede-4a6e-a7cc-d4475ce51a70","system_id":"levelo_inurba_marseille","lat":43.30137,"lon":5.37426,"is_reserved":false,"is_disabled":false,"rental_uris":{"android":"levelo://app?vid=be7b3ca8-aede-4a6e-a7cc-d4475ce51a70","ios":"levelo://app?vid=be7b3ca8-aede-4a6e-a7cc-d4475ce51a70"},"vehicle_type_id":"4","last_reported":1747897841,"current_range_meters":6000,"station_id":"ce4bgs92rcd13ifvqcc0","pricing_plan_id":"cebpf4jnsgd1na2vs0mg"},{"bike_id":"17974fa6-e87c-4a11-bb00-ae46cc12b5e4","system_id":"levelo_inurba_marseille","lat":43.28714,"lon":5.37939,"is_reserved":false,"is_disabled":false,"rental_uris":{"android":"levelo://app?vid=17974fa6-e87c-4a11-bb00-ae46cc12b5e4","ios":"levelo://app?vid=17974fa6-e87c-4a11-bb00-ae46cc12b5e4"},"vehicle_type_id":"4","last_reported":1747897841,"current_range_meters":6000,"station_id":"ce4bh9p2rcd13ifvqec0","pricing_plan_id":"cebpf4jnsgd1na2vs0mg"},{"bike_id":"c53ac821-ba6b-451f-856f-10881592899d","system_id":"levelo_inurba_marseille","lat":43.28418,"lon":5.3502,"is_reserved":false,"is_disabled":false,"rental_uris":{"android":"levelo://app?vid=c53ac821-ba6b-451f-856f-10881592899d","ios":"levelo://app?vid=c53ac821-ba6b-451f-856f-10881592899d"},"vehicle_type_id":"4","last_reported":1747897841,"current_range_meters":6000,"station_id":"ce4bhbh2rcd13ifvqepg","pricing_plan_id":"cebpf4jnsgd1na2vs0mg"},{"bike_id":"aa32a780-ed7b-440b-9ed8-034a453123b9","system_id":"levelo_inurba_marseille","lat":43.27844,"lon":5.39205,"is_reserved":false,"is_disabled":false,"rental_uris":{"android":"levelo://app?vid=aa32a780-ed7b-440b-9ed8-034a453123b9","ios":"levelo://app?vid=aa32a780-ed7b-440b-9ed8-034a453123b9"},"vehicle_type_id":"4","last_reported":1747897841,"current_range_meters":6000,"station_id":"ce4bhjp2rcd13ifvqga0","pricing_plan_id":"cebpf4jnsgd1na2vs0mg"},{"bike_id":"7b19ae3d-375f-484a-ac22-3d52f30e632f","system_id":"levelo_inurba_marseille","lat":43.23217,"lon":5.39985,"is_reserved":false,"is_disabled":false,"rental_uris":{"android":"levelo://app?vid=7b19ae3d-375f-484a-ac22-3d52f30e632f","ios":"levelo://app?vid=7b19ae3d-375f-484a-ac22-3d52f30e632f"},"vehicle_type_id":"4","last_reported":1747897841,"current_range_meters":6000,"station_id":"ce4bhn12rcd13ifvqgqg","pricing_plan_id":"cebpf4jnsgd1na2vs0mg"},{"bike_id":"501dd2f9-e74b-421d-b986-25d65ccc6e54","system_id":"levelo_inurba_marseille","lat":43.32285,"lon":5.38265,"is_reserved":false,"is_disabled":false,"rental_uris":{"android":"levelo://app?vid=501dd2f9-e74b-421d-b986-25d65ccc6e54","ios":"levelo://app?vid=501dd2f9-e74b-421d-b986-25d65ccc6e54"},"vehicle_type_id":"4","last_reported":1747897841,"current_range_meters":6000,"station_id":"ce4bhr12rcd13ifvqhqg","pricing_plan_id":"cebpf4jnsgd1na2vs0mg"},{"bike_id":"96299ebf-d2f6-432c-ad75-53cc4f0b1ea6","system_id":"levelo_inurba_marseille","lat":43.29026,"lon":5.37563,"is_reserved":false,"is_disabled":false,"rental_uris":{"android":"levelo://app?vid=96299ebf-d2f6-432c-ad75-53cc4f0b1ea6","ios":"levelo://app?vid=96299ebf-d2f6-432c-ad75-53cc4f0b1ea6"},"vehicle_type_id":"4","last_reported":1747897841,"current_range_meters":6400,"station_id":"ce4bh692rcd13ifvqe90","pricing_plan_id":"cebpf4jnsgd1na2vs0mg"},{"bike_id":"b032cbde-4471-4c33-8a48-6fa96b9d6f46","system_id":"levelo_inurba_marseille","lat":43.28724,"lon":5.37922,"is_reserved":false,"is_disabled":false,"rental_uris":{"android":"levelo://app?vid=b032cbde-4471-4c33-8a48-6fa96b9d6f46","ios":"levelo://app?vid=b032cbde-4471-4c33-8a48-6fa96b9d6f46"},"vehicle_type_id":"4","last_reported":1747897841,"current_range_meters":6400,"station_id":"ce4bh9p2rcd13ifvqec0","pricing_plan_id":"cebpf4jnsgd1na2vs0mg"},{"bike_id":"2a3637de-aad4-46c8-83bf-7787699b233d","system_id":"levelo_inurba_marseille","lat":43.28721,"lon":5.37934,"is_reserved":false,"is_disabled":false,"rental_uris":{"android":"levelo://app?vid=2a3637de-aad4-46c8-83bf-7787699b233d","ios":"levelo://app?vid=2a3637de-aad4-46c8-83bf-7787699b233d"},"vehicle_type_id":"4","last_reported":1747897841,"current_range_meters":6400,"station_id":"ce4bh9p2rcd13ifvqec0","pricing_plan_id":"cebpf4jnsgd1na2vs0mg"},{"bike_id":"82d9224e-c124-406b-bd49-1d2e39a4165e","system_id":"levelo_inurba_marseille","lat":43.23182,"lon":5.40015,"is_reserved":false,"is_disabled":false,"rental_uris":{"android":"levelo://app?vid=82d9224e-c124-406b-bd49-1d2e39a4165e","ios":"levelo://app?vid=82d9224e-c124-406b-bd49-1d2e39a4165e"},"vehicle_type_id":"4","last_reported":1747897841,"current_range_meters":6400,"station_id":"ce4bhn12rcd13ifvqgqg","pricing_plan_id":"cebpf4jnsgd1na2vs0mg"},{"bike_id":"523c51a0-4f9e-4594-9a7b-b8d370f02cd8","system_id":"levelo_inurba_marseille","lat":43.24078,"lon":5.37759,"is_reserved":false,"is_disabled":false,"rental_uris":{"android":"levelo://app?vid=523c51a0-4f9e-4594-9a7b-b8d370f02cd8","ios":"levelo://app?vid=523c51a0-4f9e-4594-9a7b-b8d370f02cd8"},"vehicle_type_id":"4","last_reported":1747897841,"current_range_meters":6400,"station_id":"ce4bhnp2rcd13ifvqgvg","pricing_plan_id":"cebpf4jnsgd1na2vs0mg"},{"bike_id":"103450c0-eff4-42bc-bcce-ed42d8883806","system_id":"levelo_inurba_marseille","lat":43.286423,"lon":5.415247,"is_reserved":false,"is_disabled":false,"rental_uris":{"android":"levelo://app?vid=103450c0-eff4-42bc-bcce-ed42d8883806","ios":"levelo://app?vid=103450c0-eff4-42bc-bcce-ed42d8883806"},"vehicle_type_id":"4","last_reported":1747897841,"current_range_meters":6800,"station_id":"","pricing_plan_id":"cebpf4jnsgd1na2vs0mg"},{"bike_id":"739411a1-d513-47ef-ae34-093ea78ce6a1","system_id":"levelo_inurba_marseille","lat":43.31222,"lon":5.36857,"is_reserved":false,"is_disabled":false,"rental_uris":{"android":"levelo://app?vid=739411a1-d513-47ef-ae34-093ea78ce6a1","ios":"levelo://app?vid=739411a1-d513-47ef-ae34-093ea78ce6a1"},"vehicle_type_id":"4","last_reported":1747897841,"current_range_meters":6800,"station_id":"ce4bgl92rcd13ifvqbq0","pricing_plan_id":"cebpf4jnsgd1na2vs0mg"},{"bike_id":"d314caa0-bfbc-492e-872a-b3743b4bcd1f","system_id":"levelo_inurba_marseille","lat":43.3089,"lon":5.37172,"is_reserved":false,"is_disabled":false,"rental_uris":{"android":"levelo://app?vid=d314caa0-bfbc-492e-872a-b3743b4bcd1f","ios":"levelo://app?vid=d314caa0-bfbc-492e-872a-b3743b4bcd1f"},"vehicle_type_id":"4","last_reported":1747897841,"current_range_meters":6800,"station_id":"ce4bguh2rcd13ifvqckg","pricing_plan_id":"cebpf4jnsgd1na2vs0mg"},{"bike_id":"faef1cff-c538-47a5-bcf5-f7c91427ece1","system_id":"levelo_inurba_marseille","lat":43.28104,"lon":5.37832,"is_reserved":false,"is_disabled":false,"rental_uris":{"android":"levelo://app?vid=faef1cff-c538-47a5-bcf5-f7c91427ece1","ios":"levelo://app?vid=faef1cff-c538-47a5-bcf5-f7c91427ece1"},"vehicle_type_id":"4","last_reported":1747897841,"current_range_meters":6800,"station_id":"ce4bha12rcd13ifvqee0","pricing_plan_id":"cebpf4jnsgd1na2vs0mg"},{"bike_id":"61f955a0-48db-41b6-96c9-ce5b3df1d6fc","system_id":"levelo_inurba_marseille","lat":43.26569,"lon":5.39001,"is_reserved":false,"is_disabled":false,"rental_uris":{"android":"levelo://app?vid=61f955a0-48db-41b6-96c9-ce5b3df1d6fc","ios":"levelo://app?vid=61f955a0-48db-41b6-96c9-ce5b3df1d6fc"},"vehicle_type_id":"4","last_reported":1747897841,"current_range_meters":6800,"station_id":"ce4bhe12rcd13ifvqf30","pricing_plan_id":"cebpf4jnsgd1na2vs0mg"},{"bike_id":"a1807e90-1fd6-43a0-b0bd-e753e2d6f821","system_id":"levelo_inurba_marseille","lat":43.24545,"lon":5.39516,"is_reserved":false,"is_disabled":false,"rental_uris":{"android":"levelo://app?vid=a1807e90-1fd6-43a0-b0bd-e753e2d6f821","ios":"levelo://app?vid=a1807e90-1fd6-43a0-b0bd-e753e2d6f821"},"vehicle_type_id":"4","last_reported":1747897841,"current_range_meters":6800,"station_id":"ce4bhlp2rcd13ifvqgjg","pricing_plan_id":"cebpf4jnsgd1na2vs0mg"},{"bike_id":"5485c417-c53b-4353-b99b-31ac467da04f","system_id":"levelo_inurba_marseille","lat":43.24548,"lon":5.39524,"is_reserved":false,"is_disabled":false,"rental_uris":{"android":"levelo://app?vid=5485c417-c53b-4353-b99b-31ac467da04f","ios":"levelo://app?vid=5485c417-c53b-4353-b99b-31ac467da04f"},"vehicle_type_id":"4","last_reported":1747897841,"current_range_meters":6800,"station_id":"ce4bhlp2rcd13ifvqgjg","pricing_plan_id":"cebpf4jnsgd1na2vs0mg"},{"bike_id":"454fe956-8c5a-4a46-a4f6-74fe6bf33c90","system_id":"levelo_inurba_marseille","lat":43.240666,"lon":5.377422,"is_reserved":false,"is_disabled":false,"rental_uris":{"android":"levelo://app?vid=454fe956-8c5a-4a46-a4f6-74fe6bf33c90","ios":"levelo://app?vid=454fe956-8c5a-4a46-a4f6-74fe6bf33c90"},"vehicle_type_id":"4","last_reported":1747897841,"current_range_meters":6800,"station_id":"ce4bhnp2rcd13ifvqgvg","pricing_plan_id":"cebpf4jnsgd1na2vs0mg"},{"bike_id":"ee83569d-f5eb-48ac-bd8b-37467d991166","system_id":"levelo_inurba_marseille","lat":43.32482,"lon":5.36568,"is_reserved":false,"is_disabled":false,"rental_uris":{"android":"levelo://app?vid=ee83569d-f5eb-48ac-bd8b-37467d991166","ios":"levelo://app?vid=ee83569d-f5eb-48ac-bd8b-37467d991166"},"vehicle_type_id":"4","last_reported":1747897841,"current_range_meters":6800,"station_id":"ce4bhs12rcd13ifvqhvg","pricing_plan_id":"cebpf4jnsgd1na2vs0mg"},{"bike_id":"47c68b3e-66f9-4e8c-9820-ab039038b62e","system_id":"levelo_inurba_marseille","lat":43.267807,"lon":5.3942,"is_reserved":false,"is_disabled":false,"rental_uris":{"android":"levelo://app?vid=47c68b3e-66f9-4e8c-9820-ab039038b62e","ios":"levelo://app?vid=47c68b3e-66f9-4e8c-9820-ab039038b62e"},"vehicle_type_id":"4","last_reported":1747897841,"current_range_meters":7200,"station_id":"","pricing_plan_id":"cebpf4jnsgd1na2vs0mg"},{"bike_id":"df106770-a124-4ecf-95cd-288da587773b","system_id":"levelo_inurba_marseille","lat":43.2867,"lon":5.38304,"is_reserved":false,"is_disabled":false,"rental_uris":{"android":"levelo://app?vid=df106770-a124-4ecf-95cd-288da587773b","ios":"levelo://app?vid=df106770-a124-4ecf-95cd-288da587773b"},"vehicle_type_id":"4","last_reported":1747897841,"current_range_meters":7200,"station_id":"","pricing_plan_id":"cebpf4jnsgd1na2vs0mg"},{"bike_id":"9029d97b-c500-451f-a29e-283780a4ea48","system_id":"levelo_inurba_marseille","lat":43.31355,"lon":5.36692,"is_reserved":false,"is_disabled":false,"rental_uris":{"android":"levelo://app?vid=9029d97b-c500-451f-a29e-283780a4ea48","ios":"levelo://app?vid=9029d97b-c500-451f-a29e-283780a4ea48"},"vehicle_type_id":"4","last_reported":1747897841,"current_range_meters":7200,"station_id":"ce4bgr92rcd13ifvqc6g","pricing_plan_id":"cebpf4jnsgd1na2vs0mg"},{"bike_id":"46ecdef1-fbb4-44f2-9b4f-39386ff4251d","system_id":"levelo_inurba_marseille","lat":43.31683,"lon":5.40465,"is_reserved":false,"is_disabled":false,"rental_uris":{"android":"levelo://app?vid=46ecdef1-fbb4-44f2-9b4f-39386ff4251d","ios":"levelo://app?vid=46ecdef1-fbb4-44f2-9b4f-39386ff4251d"},"vehicle_type_id":"4","last_reported":1747897841,"current_range_meters":7200,"station_id":"ce4bh012rcd13ifvqd00","pricing_plan_id":"cebpf4jnsgd1na2vs0mg"},{"bike_id":"8d884876-f7f3-47d6-b311-e0a48e1c3d9d","system_id":"levelo_inurba_marseille","lat":43.28721,"lon":5.37934,"is_reserved":false,"is_disabled":false,"rental_uris":{"android":"levelo://app?vid=8d884876-f7f3-47d6-b311-e0a48e1c3d9d","ios":"levelo://app?vid=8d884876-f7f3-47d6-b311-e0a48e1c3d9d"},"vehicle_type_id":"4","last_reported":1747897841,"current_range_meters":7200,"station_id":"ce4bh9p2rcd13ifvqec0","pricing_plan_id":"cebpf4jnsgd1na2vs0mg"},{"bike_id":"dc53f8be-ab14-4142-9f04-5d373c92c9a5","system_id":"levelo_inurba_marseille","lat":43.21738,"lon":5.34612,"is_reserved":false,"is_disabled":false,"rental_uris":{"android":"levelo://app?vid=dc53f8be-ab14-4142-9f04-5d373c92c9a5","ios":"levelo://app?vid=dc53f8be-ab14-4142-9f04-5d373c92c9a5"},"vehicle_type_id":"4","last_reported":1747897841,"current_range_meters":7200,"station_id":"st_cvj6r9ubvosntc0bgbag","pricing_plan_id":"cebpf4jnsgd1na2vs0mg"},{"bike_id":"dbfd2c5d-e715-4962-8cca-1904ceaeac77","system_id":"levelo_inurba_marseille","lat":43.301291,"lon":5.387719,"is_reserved":false,"is_disabled":false,"rental_uris":{"android":"levelo://app?vid=dbfd2c5d-e715-4962-8cca-1904ceaeac77","ios":"levelo://app?vid=dbfd2c5d-e715-4962-8cca-1904ceaeac77"},"vehicle_type_id":"4","last_reported":1747897841,"current_range_meters":8000,"station_id":"ce4bghh2rcd13ifvqb60","pricing_plan_id":"cebpf4jnsgd1na2vs0mg"},{"bike_id":"b15d8efb-c921-49e9-a7bb-ed685a812598","system_id":"levelo_inurba_marseille","lat":43.313416,"lon":5.367281,"is_reserved":false,"is_disabled":false,"rental_uris":{"android":"levelo://app?vid=b15d8efb-c921-49e9-a7bb-ed685a812598","ios":"levelo://app?vid=b15d8efb-c921-49e9-a7bb-ed685a812598"},"vehicle_type_id":"4","last_reported":1747897841,"current_range_meters":8000,"station_id":"ce4bgr92rcd13ifvqc6g","pricing_plan_id":"cebpf4jnsgd1na2vs0mg"},{"bike_id":"59345bae-86dc-416e-8965-cf92492d4e9f","system_id":"levelo_inurba_marseille","lat":43.27207,"lon":5.39179,"is_reserved":false,"is_disabled":false,"rental_uris":{"android":"levelo://app?vid=59345bae-86dc-416e-8965-cf92492d4e9f","ios":"levelo://app?vid=59345bae-86dc-416e-8965-cf92492d4e9f"},"vehicle_type_id":"4","last_reported":1747897841,"current_range_meters":8000,"station_id":"ce4bhhp2rcd13ifvqfm0","pricing_plan_id":"cebpf4jnsgd1na2vs0mg"},{"bike_id":"af5d14f3-0682-43f8-8305-f373f4e4f7d2","system_id":"levelo_inurba_marseille","lat":43.23971,"lon":5.36628,"is_reserved":false,"is_disabled":false,"rental_uris":{"android":"levelo://app?vid=af5d14f3-0682-43f8-8305-f373f4e4f7d2","ios":"levelo://app?vid=af5d14f3-0682-43f8-8305-f373f4e4f7d2"},"vehicle_type_id":"4","last_reported":1747897841,"current_range_meters":8000,"station_id":"ce4bhi12rcd13ifvqfp0","pricing_plan_id":"cebpf4jnsgd1na2vs0mg"},{"bike_id":"8f55b03b-0e2f-42ce-8c8e-3a98af37a7d5","system_id":"levelo_inurba_marseille","lat":43.27066,"lon":5.42281,"is_reserved":false,"is_disabled":false,"rental_uris":{"android":"levelo://app?vid=8f55b03b-0e2f-42ce-8c8e-3a98af37a7d5","ios":"levelo://app?vid=8f55b03b-0e2f-42ce-8c8e-3a98af37a7d5"},"vehicle_type_id":"4","last_reported":1747897841,"current_range_meters":8000,"station_id":"ce4bhk92rcd13ifvqgb0","pricing_plan_id":"cebpf4jnsgd1na2vs0mg"},{"bike_id":"c48345e1-43dd-4a08-bbd5-11142242a160","system_id":"levelo_inurba_marseille","lat":43.275,"lon":5.42454,"is_reserved":false,"is_disabled":false,"rental_uris":{"android":"levelo://app?vid=c48345e1-43dd-4a08-bbd5-11142242a160","ios":"levelo://app?vid=c48345e1-43dd-4a08-bbd5-11142242a160"},"vehicle_type_id":"4","last_reported":1747897841,"current_range_meters":8000,"station_id":"ce4bhn92rcd13ifvqgrg","pricing_plan_id":"cebpf4jnsgd1na2vs0mg"},{"bike_id":"b44d5f31-4aa3-4ba1-b825-1cd133ebbfbc","system_id":"levelo_inurba_marseille","lat":43.279663,"lon":5.41048,"is_reserved":false,"is_disabled":false,"rental_uris":{"android":"levelo://app?vid=b44d5f31-4aa3-4ba1-b825-1cd133ebbfbc","ios":"levelo://app?vid=b44d5f31-4aa3-4ba1-b825-1cd133ebbfbc"},"vehicle_type_id":"4","last_reported":1747897841,"current_range_meters":8400,"station_id":"","pricing_plan_id":"cebpf4jnsgd1na2vs0mg"},{"bike_id":"0cc8f703-6bda-42b3-8f67-943c52824826","system_id":"levelo_inurba_marseille","lat":43.3131,"lon":5.36715,"is_reserved":false,"is_disabled":false,"rental_uris":{"android":"levelo://app?vid=0cc8f703-6bda-42b3-8f67-943c52824826","ios":"levelo://app?vid=0cc8f703-6bda-42b3-8f67-943c52824826"},"vehicle_type_id":"4","last_reported":1747897841,"current_range_meters":8400,"station_id":"ce4bgr92rcd13ifvqc6g","pricing_plan_id":"cebpf4jnsgd1na2vs0mg"},{"bike_id":"7cd97089-5cf3-4e71-b8d7-ccbf71b33a97","system_id":"levelo_inurba_marseille","lat":43.301415,"lon":5.37415,"is_reserved":false,"is_disabled":false,"rental_uris":{"android":"levelo://app?vid=7cd97089-5cf3-4e71-b8d7-ccbf71b33a97","ios":"levelo://app?vid=7cd97089-5cf3-4e71-b8d7-ccbf71b33a97"},"vehicle_type_id":"4","last_reported":1747897841,"current_range_meters":8400,"station_id":"ce4bgs92rcd13ifvqcc0","pricing_plan_id":"cebpf4jnsgd1na2vs0mg"},{"bike_id":"47f407a1-a591-4727-9124-f772ac64540c","system_id":"levelo_inurba_marseille","lat":43.288628,"lon":5.384508,"is_reserved":false,"is_disabled":false,"rental_uris":{"android":"levelo://app?vid=47f407a1-a591-4727-9124-f772ac64540c","ios":"levelo://app?vid=47f407a1-a591-4727-9124-f772ac64540c"},"vehicle_type_id":"4","last_reported":1747897841,"current_range_meters":8400,"station_id":"ce4bh392rcd13ifvqdl0","pricing_plan_id":"cebpf4jnsgd1na2vs0mg"},{"bike_id":"3d9feb65-4741-418d-9a1d-2728c806dabe","system_id":"levelo_inurba_marseille","lat":43.291596,"lon":5.374601,"is_reserved":false,"is_disabled":false,"rental_uris":{"android":"levelo://app?vid=3d9feb65-4741-418d-9a1d-2728c806dabe","ios":"levelo://app?vid=3d9feb65-4741-418d-9a1d-2728c806dabe"},"vehicle_type_id":"4","last_reported":1747897841,"current_range_meters":8400,"station_id":"ce4bh5p2rcd13ifvqe4g","pricing_plan_id":"cebpf4jnsgd1na2vs0mg"},{"bike_id":"bcec696e-6f4f-458a-a21b-0beb96f6fa27","system_id":"levelo_inurba_marseille","lat":43.28974,"lon":5.37835,"is_reserved":false,"is_disabled":false,"rental_uris":{"android":"levelo://app?vid=bcec696e-6f4f-458a-a21b-0beb96f6fa27","ios":"levelo://app?vid=bcec696e-6f4f-458a-a21b-0beb96f6fa27"},"vehicle_type_id":"4","last_reported":1747897841,"current_range_meters":8400,"station_id":"ce4bh9p2rcd13ifvqed0","pricing_plan_id":"cebpf4jnsgd1na2vs0mg"},{"bike_id":"bc65b64c-cedb-4c28-bb39-f0d64f3cac09","system_id":"levelo_inurba_marseille","lat":43.26678,"lon":5.38268,"is_reserved":false,"is_disabled":false,"rental_uris":{"android":"levelo://app?vid=bc65b64c-cedb-4c28-bb39-f0d64f3cac09","ios":"levelo://app?vid=bc65b64c-cedb-4c28-bb39-f0d64f3cac09"},"vehicle_type_id":"4","last_reported":1747897841,"current_range_meters":8400,"station_id":"ce4bhg92rcd13ifvqf90","pricing_plan_id":"cebpf4jnsgd1na2vs0mg"},{"bike_id":"d5ea65c9-b10c-445c-90a9-5f32f306e626","system_id":"levelo_inurba_marseille","lat":43.24684,"lon":5.38164,"is_reserved":false,"is_disabled":false,"rental_uris":{"android":"levelo://app?vid=d5ea65c9-b10c-445c-90a9-5f32f306e626","ios":"levelo://app?vid=d5ea65c9-b10c-445c-90a9-5f32f306e626"},"vehicle_type_id":"4","last_reported":1747897841,"current_range_meters":8400,"station_id":"ce4bhih2rcd13ifvqfr0","pricing_plan_id":"cebpf4jnsgd1na2vs0mg"},{"bike_id":"e7e12a20-3927-4164-84da-ed01b9003caa","system_id":"levelo_inurba_marseille","lat":43.24171,"lon":5.39741,"is_reserved":false,"is_disabled":false,"rental_uris":{"android":"levelo://app?vid=e7e12a20-3927-4164-84da-ed01b9003caa","ios":"levelo://app?vid=e7e12a20-3927-4164-84da-ed01b9003caa"},"vehicle_type_id":"4","last_reported":1747897841,"current_range_meters":8400,"station_id":"ce4bhn12rcd13ifvqgpg","pricing_plan_id":"cebpf4jnsgd1na2vs0mg"},{"bike_id":"9091ab35-a768-48b5-b481-63734b573894","system_id":"levelo_inurba_marseille","lat":43.24068,"lon":5.37761,"is_reserved":false,"is_disabled":false,"rental_uris":{"android":"levelo://app?vid=9091ab35-a768-48b5-b481-63734b573894","ios":"levelo://app?vid=9091ab35-a768-48b5-b481-63734b573894"},"vehicle_type_id":"4","last_reported":1747897841,"current_range_meters":8400,"station_id":"ce4bhnp2rcd13ifvqgvg","pricing_plan_id":"cebpf4jnsgd1na2vs0mg"},{"bike_id":"37a40661-a730-4b3b-b0b5-15accd50b9e8","system_id":"levelo_inurba_marseille","lat":43.320032,"lon":5.381438,"is_reserved":false,"is_disabled":false,"rental_uris":{"android":"levelo://app?vid=37a40661-a730-4b3b-b0b5-15accd50b9e8","ios":"levelo://app?vid=37a40661-a730-4b3b-b0b5-15accd50b9e8"},"vehicle_type_id":"4","last_reported":1747897841,"current_range_meters":8400,"station_id":"ce4bhr12rcd13ifvqhpg","pricing_plan_id":"cebpf4jnsgd1na2vs0mg"},{"bike_id":"f21508a3-2fe6-488c-b06c-b10e2d07dc31","system_id":"levelo_inurba_marseille","lat":43.2177,"lon":5.34626,"is_reserved":false,"is_disabled":false,"rental_uris":{"android":"levelo://app?vid=f21508a3-2fe6-488c-b06c-b10e2d07dc31","ios":"levelo://app?vid=f21508a3-2fe6-488c-b06c-b10e2d07dc31"},"vehicle_type_id":"4","last_reported":1747897841,"current_range_meters":8400,"station_id":"st_cvj6r9ubvosntc0bgbag","pricing_plan_id":"cebpf4jnsgd1na2vs0mg"},{"bike_id":"3fe3d6c4-138a-47df-b6b4-e6f19e8f7d46","system_id":"levelo_inurba_marseille","lat":43.21426,"lon":5.34126,"is_reserved":false,"is_disabled":false,"rental_uris":{"android":"levelo://app?vid=3fe3d6c4-138a-47df-b6b4-e6f19e8f7d46","ios":"levelo://app?vid=3fe3d6c4-138a-47df-b6b4-e6f19e8f7d46"},"vehicle_type_id":"4","last_reported":1747897841,"current_range_meters":8800,"station_id":"","pricing_plan_id":"cebpf4jnsgd1na2vs0mg"},{"bike_id":"094390ad-c784-4fd9-afa7-2c89ee0d9794","system_id":"levelo_inurba_marseille","lat":43.31217,"lon":5.36834,"is_reserved":false,"is_disabled":false,"rental_uris":{"android":"levelo://app?vid=094390ad-c784-4fd9-afa7-2c89ee0d9794","ios":"levelo://app?vid=094390ad-c784-4fd9-afa7-2c89ee0d9794"},"vehicle_type_id":"4","last_reported":1747897841,"current_range_meters":8800,"station_id":"ce4bgl92rcd13ifvqbq0","pricing_plan_id":"cebpf4jnsgd1na2vs0mg"},{"bike_id":"e10b3422-39aa-4198-b835-fdaa89ef471b","system_id":"levelo_inurba_marseille","lat":43.2993,"lon":5.36553,"is_reserved":false,"is_disabled":false,"rental_uris":{"android":"levelo://app?vid=e10b3422-39aa-4198-b835-fdaa89ef471b","ios":"levelo://app?vid=e10b3422-39aa-4198-b835-fdaa89ef471b"},"vehicle_type_id":"4","last_reported":1747897841,"current_range_meters":8800,"station_id":"ce4bgm92rcd13ifvqbr0","pricing_plan_id":"cebpf4jnsgd1na2vs0mg"},{"bike_id":"55e72c72-2ff4-42d9-8e2b-2a6d0be37173","system_id":"levelo_inurba_marseille","lat":43.29108,"lon":5.38161,"is_reserved":false,"is_disabled":false,"rental_uris":{"android":"levelo://app?vid=55e72c72-2ff4-42d9-8e2b-2a6d0be37173","ios":"levelo://app?vid=55e72c72-2ff4-42d9-8e2b-2a6d0be37173"},"vehicle_type_id":"4","last_reported":1747897841,"current_range_meters":8800,"station_id":"ce4bh512rcd13ifvqe2g","pricing_plan_id":"cebpf4jnsgd1na2vs0mg"},{"bike_id":"54e2d254-b890-47dd-b6ba-64f2fbcf7ec1","system_id":"levelo_inurba_marseille","lat":43.28258,"lon":5.35063,"is_reserved":false,"is_disabled":false,"rental_uris":{"android":"levelo://app?vid=54e2d254-b890-47dd-b6ba-64f2fbcf7ec1","ios":"levelo://app?vid=54e2d254-b890-47dd-b6ba-64f2fbcf7ec1"},"vehicle_type_id":"4","last_reported":1747897841,"current_range_meters":8800,"station_id":"ce4bhbp2rcd13ifvqerg","pricing_plan_id":"cebpf4jnsgd1na2vs0mg"},{"bike_id":"1e2627a3-89c8-41aa-bd7e-6fccf3610f6b","system_id":"levelo_inurba_marseille","lat":43.27199,"lon":5.39215,"is_reserved":false,"is_disabled":false,"rental_uris":{"android":"levelo://app?vid=1e2627a3-89c8-41aa-bd7e-6fccf3610f6b","ios":"levelo://app?vid=1e2627a3-89c8-41aa-bd7e-6fccf3610f6b"},"vehicle_type_id":"4","last_reported":1747897841,"current_range_meters":8800,"station_id":"ce4bhhp2rcd13ifvqfm0","pricing_plan_id":"cebpf4jnsgd1na2vs0mg"},{"bike_id":"60cd037d-8780-4a72-a252-a871332a24e2","system_id":"levelo_inurba_marseille","lat":43.24079,"lon":5.37755,"is_reserved":false,"is_disabled":false,"rental_uris":{"android":"levelo://app?vid=60cd037d-8780-4a72-a252-a871332a24e2","ios":"levelo://app?vid=60cd037d-8780-4a72-a252-a871332a24e2"},"vehicle_type_id":"4","last_reported":1747897841,"current_range_meters":8800,"station_id":"ce4bhnp2rcd13ifvqgvg","pricing_plan_id":"cebpf4jnsgd1na2vs0mg"},{"bike_id":"300868af-8985-4691-8a15-ff7731614940","system_id":"levelo_inurba_marseille","lat":43.295649,"lon":5.422843,"is_reserved":false,"is_disabled":false,"rental_uris":{"android":"levelo://app?vid=300868af-8985-4691-8a15-ff7731614940","ios":"levelo://app?vid=300868af-8985-4691-8a15-ff7731614940"},"vehicle_type_id":"4","last_reported":1747897841,"current_range_meters":8800,"station_id":"ce4bhph2rcd13ifvqhdg","pricing_plan_id":"cebpf4jnsgd1na2vs0mg"},{"bike_id":"2f34c329-54fe-438b-a307-b47c6ac8481c","system_id":"levelo_inurba_marseille","lat":43.29878,"lon":5.4366,"is_reserved":false,"is_disabled":false,"rental_uris":{"android":"levelo://app?vid=2f34c329-54fe-438b-a307-b47c6ac8481c","ios":"levelo://app?vid=2f34c329-54fe-438b-a307-b47c6ac8481c"},"vehicle_type_id":"4","last_reported":1747897841,"current_range_meters":8800,"station_id":"ce4bhpp2rcd13ifvqhfg","pricing_plan_id":"cebpf4jnsgd1na2vs0mg"},{"bike_id":"c0f2d753-6954-46b4-b24d-cc81bce56548","system_id":"levelo_inurba_marseille","lat":43.323659,"lon":5.388793,"is_reserved":false,"is_disabled":false,"rental_uris":{"android":"levelo://app?vid=c0f2d753-6954-46b4-b24d-cc81bce56548","ios":"levelo://app?vid=c0f2d753-6954-46b4-b24d-cc81bce56548"},"vehicle_type_id":"4","last_reported":1747897841,"current_range_meters":8800,"station_id":"ce4bhqp2rcd13ifvqhog","pricing_plan_id":"cebpf4jnsgd1na2vs0mg"},{"bike_id":"afc0ffa4-3f2a-4804-96cf-0fb012d71129","system_id":"levelo_inurba_marseille","lat":43.291867,"lon":5.357824,"is_reserved":false,"is_disabled":false,"rental_uris":{"android":"levelo://app?vid=afc0ffa4-3f2a-4804-96cf-0fb012d71129","ios":"levelo://app?vid=afc0ffa4-3f2a-4804-96cf-0fb012d71129"},"vehicle_type_id":"4","last_reported":1747897841,"current_range_meters":9200,"station_id":"ce4bhb12rcd13ifvqel0","pricing_plan_id":"cebpf4jnsgd1na2vs0mg"},{"bike_id":"6f1ec9b7-43ec-4d93-b69e-d78cefe3c0cf","system_id":"levelo_inurba_marseille","lat":43.25924,"lon":5.40907,"is_reserved":false,"is_disabled":false,"rental_uris":{"android":"levelo://app?vid=6f1ec9b7-43ec-4d93-b69e-d78cefe3c0cf","ios":"levelo://app?vid=6f1ec9b7-43ec-4d93-b69e-d78cefe3c0cf"},"vehicle_type_id":"4","last_reported":1747897841,"current_range_meters":9200,"station_id":"ce4bhm92rcd13ifvqglg","pricing_plan_id":"cebpf4jnsgd1na2vs0mg"},{"bike_id":"ca47b47e-34e6-43bd-822d-986a9b4a4d4e","system_id":"levelo_inurba_marseille","lat":43.24169,"lon":5.39706,"is_reserved":false,"is_disabled":false,"rental_uris":{"android":"levelo://app?vid=ca47b47e-34e6-43bd-822d-986a9b4a4d4e","ios":"levelo://app?vid=ca47b47e-34e6-43bd-822d-986a9b4a4d4e"},"vehicle_type_id":"4","last_reported":1747897841,"current_range_meters":9200,"station_id":"ce4bhn12rcd13ifvqgpg","pricing_plan_id":"cebpf4jnsgd1na2vs0mg"},{"bike_id":"b7677105-6b99-4134-a84f-dbd38433b1e1","system_id":"levelo_inurba_marseille","lat":43.318855,"lon":5.407382,"is_reserved":false,"is_disabled":false,"rental_uris":{"android":"levelo://app?vid=b7677105-6b99-4134-a84f-dbd38433b1e1","ios":"levelo://app?vid=b7677105-6b99-4134-a84f-dbd38433b1e1"},"vehicle_type_id":"4","last_reported":1747897841,"current_range_meters":9200,"station_id":"ce4bhq12rcd13ifvqhig","pricing_plan_id":"cebpf4jnsgd1na2vs0mg"},{"bike_id":"4d220435-47a8-4d82-80db-a1284cf3e4c5","system_id":"levelo_inurba_marseille","lat":43.28667,"lon":5.38752,"is_reserved":false,"is_disabled":false,"rental_uris":{"android":"levelo://app?vid=4d220435-47a8-4d82-80db-a1284cf3e4c5","ios":"levelo://app?vid=4d220435-47a8-4d82-80db-a1284cf3e4c5"},"vehicle_type_id":"4","last_reported":1747897841,"current_range_meters":9600,"station_id":"","pricing_plan_id":"cebpf4jnsgd1na2vs0mg"},{"bike_id":"dd775fc6-29ed-4a53-93a4-2e06485f8a4f","system_id":"levelo_inurba_marseille","lat":43.29842,"lon":5.36262,"is_reserved":false,"is_disabled":false,"rental_uris":{"android":"levelo://app?vid=dd775fc6-29ed-4a53-93a4-2e06485f8a4f","ios":"levelo://app?vid=dd775fc6-29ed-4a53-93a4-2e06485f8a4f"},"vehicle_type_id":"4","last_reported":1747897841,"current_range_meters":9600,"station_id":"ce4bgpp2rcd13ifvqc3g","pricing_plan_id":"cebpf4jnsgd1na2vs0mg"},{"bike_id":"5c159cfc-03b1-4c79-883c-89448a2514c1","system_id":"levelo_inurba_marseille","lat":43.29841,"lon":5.36268,"is_reserved":false,"is_disabled":false,"rental_uris":{"android":"levelo://app?vid=5c159cfc-03b1-4c79-883c-89448a2514c1","ios":"levelo://app?vid=5c159cfc-03b1-4c79-883c-89448a2514c1"},"vehicle_type_id":"4","last_reported":1747897841,"current_range_meters":9600,"station_id":"ce4bgpp2rcd13ifvqc3g","pricing_plan_id":"cebpf4jnsgd1na2vs0mg"},{"bike_id":"495063d3-73a9-442b-ab94-f0f9ddfee902","system_id":"levelo_inurba_marseille","lat":43.30429,"lon":5.3975,"is_reserved":false,"is_disabled":false,"rental_uris":{"android":"levelo://app?vid=495063d3-73a9-442b-ab94-f0f9ddfee902","ios":"levelo://app?vid=495063d3-73a9-442b-ab94-f0f9ddfee902"},"vehicle_type_id":"4","last_reported":1747897841,"current_range_meters":9600,"station_id":"ce4bh092rcd13ifvqd20","pricing_plan_id":"cebpf4jnsgd1na2vs0mg"},{"bike_id":"bcda1579-85bc-45f2-b21d-8274dba89925","system_id":"levelo_inurba_marseille","lat":43.28483,"lon":5.38417,"is_reserved":false,"is_disabled":false,"rental_uris":{"android":"levelo://app?vid=bcda1579-85bc-45f2-b21d-8274dba89925","ios":"levelo://app?vid=bcda1579-85bc-45f2-b21d-8274dba89925"},"vehicle_type_id":"4","last_reported":1747897841,"current_range_meters":9600,"station_id":"ce4bh512rcd13ifvqe3g","pricing_plan_id":"cebpf4jnsgd1na2vs0mg"},{"bike_id":"55e437a8-a7f3-4e2c-9185-df39a3b829fa","system_id":"levelo_inurba_marseille","lat":43.28945,"lon":5.36643,"is_reserved":false,"is_disabled":false,"rental_uris":{"android":"levelo://app?vid=55e437a8-a7f3-4e2c-9185-df39a3b829fa","ios":"levelo://app?vid=55e437a8-a7f3-4e2c-9185-df39a3b829fa"},"vehicle_type_id":"4","last_reported":1747897841,"current_range_meters":9600,"station_id":"ce4bhap2rcd13ifvqek0","pricing_plan_id":"cebpf4jnsgd1na2vs0mg"},{"bike_id":"e0e162b3-15a9-4343-889f-cc949eb91ea4","system_id":"levelo_inurba_marseille","lat":43.246551,"lon":5.38165,"is_reserved":false,"is_disabled":false,"rental_uris":{"android":"levelo://app?vid=e0e162b3-15a9-4343-889f-cc949eb91ea4","ios":"levelo://app?vid=e0e162b3-15a9-4343-889f-cc949eb91ea4"},"vehicle_type_id":"4","last_reported":1747897841,"current_range_meters":9600,"station_id":"ce4bhh92rcd13ifvqfh0","pricing_plan_id":"cebpf4jnsgd1na2vs0mg"},{"bike_id":"40082cca-a7a2-4d69-9727-bd72824c6c32","system_id":"levelo_inurba_marseille","lat":43.27171,"lon":5.40972,"is_reserved":false,"is_disabled":false,"rental_uris":{"android":"levelo://app?vid=40082cca-a7a2-4d69-9727-bd72824c6c32","ios":"levelo://app?vid=40082cca-a7a2-4d69-9727-bd72824c6c32"},"vehicle_type_id":"4","last_reported":1747897841,"current_range_meters":9600,"station_id":"ce4bhl12rcd13ifvqgf0","pricing_plan_id":"cebpf4jnsgd1na2vs0mg"},{"bike_id":"cc1aa9a5-2f42-4f72-a5bf-991f6a710edb","system_id":"levelo_inurba_marseille","lat":43.25113,"lon":5.40334,"is_reserved":false,"is_disabled":false,"rental_uris":{"android":"levelo://app?vid=cc1aa9a5-2f42-4f72-a5bf-991f6a710edb","ios":"levelo://app?vid=cc1aa9a5-2f42-4f72-a5bf-991f6a710edb"},"vehicle_type_id":"4","last_reported":1747897841,"current_range_meters":9600,"station_id":"ce4bhlh2rcd13ifvqgig","pricing_plan_id":"cebpf4jnsgd1na2vs0mg"},{"bike_id":"01505be4-a95a-4f1b-a512-bdef3eb8c5fe","system_id":"levelo_inurba_marseille","lat":43.241782,"lon":5.397197,"is_reserved":false,"is_disabled":false,"rental_uris":{"android":"levelo://app?vid=01505be4-a95a-4f1b-a512-bdef3eb8c5fe","ios":"levelo://app?vid=01505be4-a95a-4f1b-a512-bdef3eb8c5fe"},"vehicle_type_id":"4","last_reported":1747897841,"current_range_meters":9600,"station_id":"ce4bhn12rcd13ifvqgpg","pricing_plan_id":"cebpf4jnsgd1na2vs0mg"},{"bike_id":"dbe123bd-28fb-45b6-9365-1f8d5d5ff8b0","system_id":"levelo_inurba_marseille","lat":43.27493,"lon":5.42445,"is_reserved":false,"is_disabled":false,"rental_uris":{"android":"levelo://app?vid=dbe123bd-28fb-45b6-9365-1f8d5d5ff8b0","ios":"levelo://app?vid=dbe123bd-28fb-45b6-9365-1f8d5d5ff8b0"},"vehicle_type_id":"4","last_reported":1747897841,"current_range_meters":9600,"station_id":"ce4bhn92rcd13ifvqgrg","pricing_plan_id":"cebpf4jnsgd1na2vs0mg"},{"bike_id":"9415b23c-6344-4bc6-b354-4d25ce992eb5","system_id":"levelo_inurba_marseille","lat":43.27494,"lon":5.4245,"is_reserved":false,"is_disabled":false,"rental_uris":{"android":"levelo://app?vid=9415b23c-6344-4bc6-b354-4d25ce992eb5","ios":"levelo://app?vid=9415b23c-6344-4bc6-b354-4d25ce992eb5"},"vehicle_type_id":"4","last_reported":1747897841,"current_range_meters":9600,"station_id":"ce4bhn92rcd13ifvqgrg","pricing_plan_id":"cebpf4jnsgd1na2vs0mg"},{"bike_id":"1ad44edd-3bfb-4609-a3b5-63721061e446","system_id":"levelo_inurba_marseille","lat":43.240768,"lon":5.377505,"is_reserved":false,"is_disabled":false,"rental_uris":{"android":"levelo://app?vid=1ad44edd-3bfb-4609-a3b5-63721061e446","ios":"levelo://app?vid=1ad44edd-3bfb-4609-a3b5-63721061e446"},"vehicle_type_id":"4","last_reported":1747897841,"current_range_meters":9600,"station_id":"ce4bhnp2rcd13ifvqgvg","pricing_plan_id":"cebpf4jnsgd1na2vs0mg"},{"bike_id":"102accff-382b-42a7-8e25-14dcd6289725","system_id":"levelo_inurba_marseille","lat":43.24081,"lon":5.37753,"is_reserved":false,"is_disabled":false,"rental_uris":{"android":"levelo://app?vid=102accff-382b-42a7-8e25-14dcd6289725","ios":"levelo://app?vid=102accff-382b-42a7-8e25-14dcd6289725"},"vehicle_type_id":"4","last_reported":1747897841,"current_range_meters":9600,"station_id":"ce4bhnp2rcd13ifvqgvg","pricing_plan_id":"cebpf4jnsgd1na2vs0mg"},{"bike_id":"14feda73-7baf-4b64-8ae9-79f4fe7d4a5f","system_id":"levelo_inurba_marseille","lat":43.323673,"lon":5.36757,"is_reserved":false,"is_disabled":false,"rental_uris":{"android":"levelo://app?vid=14feda73-7baf-4b64-8ae9-79f4fe7d4a5f","ios":"levelo://app?vid=14feda73-7baf-4b64-8ae9-79f4fe7d4a5f"},"vehicle_type_id":"4","last_reported":1747897841,"current_range_meters":9600,"station_id":"ce4bhsh2rcd13ifvqi2g","pricing_plan_id":"cebpf4jnsgd1na2vs0mg"},{"bike_id":"6cb141d1-ab6e-4e3e-8a1c-e12a7dd9548c","system_id":"levelo_inurba_marseille","lat":43.304602,"lon":5.379034,"is_reserved":false,"is_disabled":false,"rental_uris":{"android":"levelo://app?vid=6cb141d1-ab6e-4e3e-8a1c-e12a7dd9548c","ios":"levelo://app?vid=6cb141d1-ab6e-4e3e-8a1c-e12a7dd9548c"},"vehicle_type_id":"4","last_reported":1747897841,"current_range_meters":10000,"station_id":"ce4bgup2rcd13ifvqcn0","pricing_plan_id":"cebpf4jnsgd1na2vs0mg"},{"bike_id":"d44d30e3-9d0e-425f-8588-214539ebd6ac","system_id":"levelo_inurba_marseille","lat":43.27566,"lon":5.38422,"is_reserved":false,"is_disabled":false,"rental_uris":{"android":"levelo://app?vid=d44d30e3-9d0e-425f-8588-214539ebd6ac","ios":"levelo://app?vid=d44d30e3-9d0e-425f-8588-214539ebd6ac"},"vehicle_type_id":"4","last_reported":1747897841,"current_range_meters":10000,"station_id":"ce4bhh92rcd13ifvqfi0","pricing_plan_id":"cebpf4jnsgd1na2vs0mg"},{"bike_id":"6009c0b5-a9a4-4f69-82bc-dd1ade27529d","system_id":"levelo_inurba_marseille","lat":43.26926,"lon":5.38913,"is_reserved":false,"is_disabled":false,"rental_uris":{"android":"levelo://app?vid=6009c0b5-a9a4-4f69-82bc-dd1ade27529d","ios":"levelo://app?vid=6009c0b5-a9a4-4f69-82bc-dd1ade27529d"},"vehicle_type_id":"4","last_reported":1747897841,"current_range_meters":10000,"station_id":"ce4bhhh2rcd13ifvqfl0","pricing_plan_id":"cebpf4jnsgd1na2vs0mg"},{"bike_id":"d33cd1f6-2525-4cfd-9962-f6fe3bcf5e41","system_id":"levelo_inurba_marseille","lat":43.23144,"lon":5.4369,"is_reserved":false,"is_disabled":false,"rental_uris":{"android":"levelo://app?vid=d33cd1f6-2525-4cfd-9962-f6fe3bcf5e41","ios":"levelo://app?vid=d33cd1f6-2525-4cfd-9962-f6fe3bcf5e41"},"vehicle_type_id":"4","last_reported":1747897841,"current_range_meters":10000,"station_id":"ce4bhmp2rcd13ifvqgog","pricing_plan_id":"cebpf4jnsgd1na2vs0mg"},{"bike_id":"292ae5de-1895-46df-b793-44a617b51ec8","system_id":"levelo_inurba_marseille","lat":43.24162,"lon":5.39746,"is_reserved":false,"is_disabled":false,"rental_uris":{"android":"levelo://app?vid=292ae5de-1895-46df-b793-44a617b51ec8","ios":"levelo://app?vid=292ae5de-1895-46df-b793-44a617b51ec8"},"vehicle_type_id":"4","last_reported":1747897841,"current_range_meters":10000,"station_id":"ce4bhn12rcd13ifvqgpg","pricing_plan_id":"cebpf4jnsgd1na2vs0mg"},{"bike_id":"fecb3d19-6a7a-4b18-8fa9-7b891258a76d","system_id":"levelo_inurba_marseille","lat":43.29783,"lon":5.39351,"is_reserved":false,"is_disabled":false,"rental_uris":{"android":"levelo://app?vid=fecb3d19-6a7a-4b18-8fa9-7b891258a76d","ios":"levelo://app?vid=fecb3d19-6a7a-4b18-8fa9-7b891258a76d"},"vehicle_type_id":"4","last_reported":1747897841,"current_range_meters":10000,"station_id":"chh1huq6cuj3fo74tm60","pricing_plan_id":"cebpf4jnsgd1na2vs0mg"},{"bike_id":"27653dcd-dec9-4f13-b172-8968c20c1725","system_id":"levelo_inurba_marseille","lat":43.23855,"lon":5.43087,"is_reserved":false,"is_disabled":false,"rental_uris":{"android":"levelo://app?vid=27653dcd-dec9-4f13-b172-8968c20c1725","ios":"levelo://app?vid=27653dcd-dec9-4f13-b172-8968c20c1725"},"vehicle_type_id":"4","last_reported":1747897841,"current_range_meters":10800,"station_id":"","pricing_plan_id":"cebpf4jnsgd1na2vs0mg"},{"bike_id":"155f02f5-caba-4b5e-86df-d9e4c6380f50","system_id":"levelo_inurba_marseille","lat":43.270144,"lon":5.406554,"is_reserved":false,"is_disabled":false,"rental_uris":{"android":"levelo://app?vid=155f02f5-caba-4b5e-86df-d9e4c6380f50","ios":"levelo://app?vid=155f02f5-caba-4b5e-86df-d9e4c6380f50"},"vehicle_type_id":"4","last_reported":1747897841,"current_range_meters":10800,"station_id":"","pricing_plan_id":"cebpf4jnsgd1na2vs0mg"},{"bike_id":"1dfbe32f-cc1d-4300-910b-8bc8f1c6ddd3","system_id":"levelo_inurba_marseille","lat":43.2482,"lon":5.37433,"is_reserved":false,"is_disabled":false,"rental_uris":{"android":"levelo://app?vid=1dfbe32f-cc1d-4300-910b-8bc8f1c6ddd3","ios":"levelo://app?vid=1dfbe32f-cc1d-4300-910b-8bc8f1c6ddd3"},"vehicle_type_id":"4","last_reported":1747897841,"current_range_meters":10800,"station_id":"ce4bhgh2rcd13ifvqfb0","pricing_plan_id":"cebpf4jnsgd1na2vs0mg"},{"bike_id":"704f1093-4017-4d13-be87-08de61c24204","system_id":"levelo_inurba_marseille","lat":43.24386,"lon":5.37058,"is_reserved":false,"is_disabled":false,"rental_uris":{"android":"levelo://app?vid=704f1093-4017-4d13-be87-08de61c24204","ios":"levelo://app?vid=704f1093-4017-4d13-be87-08de61c24204"},"vehicle_type_id":"4","last_reported":1747897841,"current_range_meters":10800,"station_id":"ce4bhhh2rcd13ifvqfk0","pricing_plan_id":"cebpf4jnsgd1na2vs0mg"},{"bike_id":"1aa405fb-5b9d-48c8-8bad-9ac8ce771daf","system_id":"levelo_inurba_marseille","lat":43.2783,"lon":5.40693,"is_reserved":false,"is_disabled":false,"rental_uris":{"android":"levelo://app?vid=1aa405fb-5b9d-48c8-8bad-9ac8ce771daf","ios":"levelo://app?vid=1aa405fb-5b9d-48c8-8bad-9ac8ce771daf"},"vehicle_type_id":"4","last_reported":1747897841,"current_range_meters":10800,"station_id":"ce4bhnh2rcd13ifvqgtg","pricing_plan_id":"cebpf4jnsgd1na2vs0mg"},{"bike_id":"feaf7be4-fe23-45f7-8636-d4ccad002b89","system_id":"levelo_inurba_marseille","lat":43.240652,"lon":5.37762,"is_reserved":false,"is_disabled":false,"rental_uris":{"android":"levelo://app?vid=feaf7be4-fe23-45f7-8636-d4ccad002b89","ios":"levelo://app?vid=feaf7be4-fe23-45f7-8636-d4ccad002b89"},"vehicle_type_id":"4","last_reported":1747897841,"current_range_meters":10800,"station_id":"ce4bhnp2rcd13ifvqgvg","pricing_plan_id":"cebpf4jnsgd1na2vs0mg"},{"bike_id":"74a90f79-8a54-4a0b-8e34-c0e01bd7f17e","system_id":"levelo_inurba_marseille","lat":43.2407,"lon":5.37757,"is_reserved":false,"is_disabled":false,"rental_uris":{"android":"levelo://app?vid=74a90f79-8a54-4a0b-8e34-c0e01bd7f17e","ios":"levelo://app?vid=74a90f79-8a54-4a0b-8e34-c0e01bd7f17e"},"vehicle_type_id":"4","last_reported":1747897841,"current_range_meters":10800,"station_id":"ce4bhnp2rcd13ifvqgvg","pricing_plan_id":"cebpf4jnsgd1na2vs0mg"},{"bike_id":"f9fb40c0-1fcd-48cb-8e26-3f2dc0fb2451","system_id":"levelo_inurba_marseille","lat":43.33751,"lon":5.37509,"is_reserved":false,"is_disabled":false,"rental_uris":{"android":"levelo://app?vid=f9fb40c0-1fcd-48cb-8e26-3f2dc0fb2451","ios":"levelo://app?vid=f9fb40c0-1fcd-48cb-8e26-3f2dc0fb2451"},"vehicle_type_id":"4","last_reported":1747897841,"current_range_meters":11200,"station_id":"","pricing_plan_id":"cebpf4jnsgd1na2vs0mg"},{"bike_id":"00ca9a86-834a-474f-81b1-769537e734da","system_id":"levelo_inurba_marseille","lat":43.309395,"lon":5.390214,"is_reserved":false,"is_disabled":false,"rental_uris":{"android":"levelo://app?vid=00ca9a86-834a-474f-81b1-769537e734da","ios":"levelo://app?vid=00ca9a86-834a-474f-81b1-769537e734da"},"vehicle_type_id":"4","last_reported":1747897841,"current_range_meters":11200,"station_id":"ce4bgup2rcd13ifvqco0","pricing_plan_id":"cebpf4jnsgd1na2vs0mg"},{"bike_id":"a7ce08db-1983-4508-9740-5b84e1243f2f","system_id":"levelo_inurba_marseille","lat":43.2904,"lon":5.39967,"is_reserved":false,"is_disabled":false,"rental_uris":{"android":"levelo://app?vid=a7ce08db-1983-4508-9740-5b84e1243f2f","ios":"levelo://app?vid=a7ce08db-1983-4508-9740-5b84e1243f2f"},"vehicle_type_id":"4","last_reported":1747897841,"current_range_meters":11200,"station_id":"ce4bh392rcd13ifvqdm0","pricing_plan_id":"cebpf4jnsgd1na2vs0mg"},{"bike_id":"86fce640-9d52-4a60-a1e9-895bee8d740b","system_id":"levelo_inurba_marseille","lat":43.246441,"lon":5.389009,"is_reserved":false,"is_disabled":false,"rental_uris":{"android":"levelo://app?vid=86fce640-9d52-4a60-a1e9-895bee8d740b","ios":"levelo://app?vid=86fce640-9d52-4a60-a1e9-895bee8d740b"},"vehicle_type_id":"4","last_reported":1747897841,"current_range_meters":11200,"station_id":"ce4bhg12rcd13ifvqf60","pricing_plan_id":"cebpf4jnsgd1na2vs0mg"},{"bike_id":"22c37e99-6402-4f7c-a990-8266a39b1c4a","system_id":"levelo_inurba_marseille","lat":43.26656,"lon":5.38265,"is_reserved":false,"is_disabled":false,"rental_uris":{"android":"levelo://app?vid=22c37e99-6402-4f7c-a990-8266a39b1c4a","ios":"levelo://app?vid=22c37e99-6402-4f7c-a990-8266a39b1c4a"},"vehicle_type_id":"4","last_reported":1747897841,"current_range_meters":11200,"station_id":"ce4bhg92rcd13ifvqf90","pricing_plan_id":"cebpf4jnsgd1na2vs0mg"},{"bike_id":"f0b0089e-c754-42dc-836f-a1afd5defdd4","system_id":"levelo_inurba_marseille","lat":43.25872,"lon":5.39885,"is_reserved":false,"is_disabled":false,"rental_uris":{"android":"levelo://app?vid=f0b0089e-c754-42dc-836f-a1afd5defdd4","ios":"levelo://app?vid=f0b0089e-c754-42dc-836f-a1afd5defdd4"},"vehicle_type_id":"4","last_reported":1747897841,"current_range_meters":11200,"station_id":"ce4bhl92rcd13ifvqghg","pricing_plan_id":"cebpf4jnsgd1na2vs0mg"},{"bike_id":"beed883e-c9c7-42fc-9351-931f1465c16a","system_id":"levelo_inurba_marseille","lat":43.32541,"lon":5.41447,"is_reserved":false,"is_disabled":false,"rental_uris":{"android":"levelo://app?vid=beed883e-c9c7-42fc-9351-931f1465c16a","ios":"levelo://app?vid=beed883e-c9c7-42fc-9351-931f1465c16a"},"vehicle_type_id":"4","last_reported":1747897841,"current_range_meters":11200,"station_id":"ce4bhq12rcd13ifvqhhg","pricing_plan_id":"cebpf4jnsgd1na2vs0mg"},{"bike_id":"7dfdfdc8-9c79-46b6-9a4b-924773b53f29","system_id":"levelo_inurba_marseille","lat":43.26865,"lon":5.391748,"is_reserved":false,"is_disabled":false,"rental_uris":{"android":"levelo://app?vid=7dfdfdc8-9c79-46b6-9a4b-924773b53f29","ios":"levelo://app?vid=7dfdfdc8-9c79-46b6-9a4b-924773b53f29"},"vehicle_type_id":"4","last_reported":1747897841,"current_range_meters":11600,"station_id":"","pricing_plan_id":"cebpf4jnsgd1na2vs0mg"},{"bike_id":"a1072f30-7d69-4611-93d9-d7e4c9acbbc8","system_id":"levelo_inurba_marseille","lat":43.30532,"lon":5.3842,"is_reserved":false,"is_disabled":false,"rental_uris":{"android":"levelo://app?vid=a1072f30-7d69-4611-93d9-d7e4c9acbbc8","ios":"levelo://app?vid=a1072f30-7d69-4611-93d9-d7e4c9acbbc8"},"vehicle_type_id":"4","last_reported":1747897841,"current_range_meters":11600,"station_id":"ce4bgg92rcd13ifvqb30","pricing_plan_id":"cebpf4jnsgd1na2vs0mg"},{"bike_id":"d3541e06-31b4-471c-92f6-02e333ed7599","system_id":"levelo_inurba_marseille","lat":43.31219,"lon":5.36852,"is_reserved":false,"is_disabled":false,"rental_uris":{"android":"levelo://app?vid=d3541e06-31b4-471c-92f6-02e333ed7599","ios":"levelo://app?vid=d3541e06-31b4-471c-92f6-02e333ed7599"},"vehicle_type_id":"4","last_reported":1747897841,"current_range_meters":11600,"station_id":"ce4bgl92rcd13ifvqbq0","pricing_plan_id":"cebpf4jnsgd1na2vs0mg"},{"bike_id":"4574f5e4-ff6f-4daf-8951-f7c94d971ca9","system_id":"levelo_inurba_marseille","lat":43.2623,"lon":5.40447,"is_reserved":false,"is_disabled":false,"rental_uris":{"android":"levelo://app?vid=4574f5e4-ff6f-4daf-8951-f7c94d971ca9","ios":"levelo://app?vid=4574f5e4-ff6f-4daf-8951-f7c94d971ca9"},"vehicle_type_id":"4","last_reported":1747897841,"current_range_meters":11600,"station_id":"ce4bhmh2rcd13ifvqgmg","pricing_plan_id":"cebpf4jnsgd1na2vs0mg"},{"bike_id":"fb37c12e-72aa-4e9a-8b92-5c6606bf83ba","system_id":"levelo_inurba_marseille","lat":43.32537,"lon":5.41428,"is_reserved":false,"is_disabled":false,"rental_uris":{"android":"levelo://app?vid=fb37c12e-72aa-4e9a-8b92-5c6606bf83ba","ios":"levelo://app?vid=fb37c12e-72aa-4e9a-8b92-5c6606bf83ba"},"vehicle_type_id":"4","last_reported":1747897841,"current_range_meters":11600,"station_id":"ce4bhq12rcd13ifvqhhg","pricing_plan_id":"cebpf4jnsgd1na2vs0mg"},{"bike_id":"87c4eccc-bb65-48f9-8b4c-4b27ebc9c1f5","system_id":"levelo_inurba_marseille","lat":43.21749,"lon":5.34579,"is_reserved":false,"is_disabled":false,"rental_uris":{"android":"levelo://app?vid=87c4eccc-bb65-48f9-8b4c-4b27ebc9c1f5","ios":"levelo://app?vid=87c4eccc-bb65-48f9-8b4c-4b27ebc9c1f5"},"vehicle_type_id":"4","last_reported":1747897841,"current_range_meters":11600,"station_id":"st_cvj6r9ubvosntc0bgbag","pricing_plan_id":"cebpf4jnsgd1na2vs0mg"},{"bike_id":"5aa4518e-4082-4264-8e6b-18b9e070cdd8","system_id":"levelo_inurba_marseille","lat":43.29163,"lon":5.384814,"is_reserved":false,"is_disabled":false,"rental_uris":{"android":"levelo://app?vid=5aa4518e-4082-4264-8e6b-18b9e070cdd8","ios":"levelo://app?vid=5aa4518e-4082-4264-8e6b-18b9e070cdd8"},"vehicle_type_id":"4","last_reported":1747897841,"current_range_meters":12000,"station_id":"","pricing_plan_id":"cebpf4jnsgd1na2vs0mg"},{"bike_id":"eb527f66-73d3-45b8-bd79-f3ddcb247dc9","system_id":"levelo_inurba_marseille","lat":43.30931,"lon":5.40126,"is_reserved":false,"is_disabled":false,"rental_uris":{"android":"levelo://app?vid=eb527f66-73d3-45b8-bd79-f3ddcb247dc9","ios":"levelo://app?vid=eb527f66-73d3-45b8-bd79-f3ddcb247dc9"},"vehicle_type_id":"4","last_reported":1747897841,"current_range_meters":12000,"station_id":"ce4bgvp2rcd13ifvqct0","pricing_plan_id":"cebpf4jnsgd1na2vs0mg"},{"bike_id":"4ad770ab-f129-4de2-889c-7fa4bb24a833","system_id":"levelo_inurba_marseille","lat":43.2694,"lon":5.38642,"is_reserved":false,"is_disabled":false,"rental_uris":{"android":"levelo://app?vid=4ad770ab-f129-4de2-889c-7fa4bb24a833","ios":"levelo://app?vid=4ad770ab-f129-4de2-889c-7fa4bb24a833"},"vehicle_type_id":"4","last_reported":1747897841,"current_range_meters":12000,"station_id":"ce4bhh92rcd13ifvqfh0","pricing_plan_id":"cebpf4jnsgd1na2vs0mg"},{"bike_id":"d292c5ea-487e-4e9d-bc9d-f79e9b3e228d","system_id":"levelo_inurba_marseille","lat":43.25818,"lon":5.39428,"is_reserved":false,"is_disabled":false,"rental_uris":{"android":"levelo://app?vid=d292c5ea-487e-4e9d-bc9d-f79e9b3e228d","ios":"levelo://app?vid=d292c5ea-487e-4e9d-bc9d-f79e9b3e228d"},"vehicle_type_id":"4","last_reported":1747897841,"current_range_meters":12000,"station_id":"ce4bhip2rcd13ifvqft0","pricing_plan_id":"cebpf4jnsgd1na2vs0mg"},{"bike_id":"dc61c065-6ed1-487e-9ecf-5a93a8f61ca7","system_id":"levelo_inurba_marseille","lat":43.23204,"lon":5.4,"is_reserved":false,"is_disabled":false,"rental_uris":{"android":"levelo://app?vid=dc61c065-6ed1-487e-9ecf-5a93a8f61ca7","ios":"levelo://app?vid=dc61c065-6ed1-487e-9ecf-5a93a8f61ca7"},"vehicle_type_id":"4","last_reported":1747897841,"current_range_meters":12000,"station_id":"ce4bhn12rcd13ifvqgqg","pricing_plan_id":"cebpf4jnsgd1na2vs0mg"},{"bike_id":"60109853-dcc4-441a-a95f-c7edc277f6f7","system_id":"levelo_inurba_marseille","lat":43.29843,"lon":5.36265,"is_reserved":false,"is_disabled":false,"rental_uris":{"android":"levelo://app?vid=60109853-dcc4-441a-a95f-c7edc277f6f7","ios":"levelo://app?vid=60109853-dcc4-441a-a95f-c7edc277f6f7"},"vehicle_type_id":"4","last_reported":1747897841,"current_range_meters":12400,"station_id":"ce4bgpp2rcd13ifvqc3g","pricing_plan_id":"cebpf4jnsgd1na2vs0mg"},{"bike_id":"a2a59b3b-fae5-4ee2-afaf-61c260e8ce8a","system_id":"levelo_inurba_marseille","lat":43.286695,"lon":5.386685,"is_reserved":false,"is_disabled":false,"rental_uris":{"android":"levelo://app?vid=a2a59b3b-fae5-4ee2-afaf-61c260e8ce8a","ios":"levelo://app?vid=a2a59b3b-fae5-4ee2-afaf-61c260e8ce8a"},"vehicle_type_id":"4","last_reported":1747897841,"current_range_meters":12400,"station_id":"ce4bh492rcd13ifvqdug","pricing_plan_id":"cebpf4jnsgd1na2vs0mg"},{"bike_id":"ef06f956-28cf-4ba0-a12c-41d28d7d0f6a","system_id":"levelo_inurba_marseille","lat":43.26209,"lon":5.37441,"is_reserved":false,"is_disabled":false,"rental_uris":{"android":"levelo://app?vid=ef06f956-28cf-4ba0-a12c-41d28d7d0f6a","ios":"levelo://app?vid=ef06f956-28cf-4ba0-a12c-41d28d7d0f6a"},"vehicle_type_id":"4","last_reported":1747897841,"current_range_meters":12400,"station_id":"ce4bhgp2rcd13ifvqfc0","pricing_plan_id":"cebpf4jnsgd1na2vs0mg"},{"bike_id":"6c584c59-605e-4831-87cf-3dddaea29a88","system_id":"levelo_inurba_marseille","lat":43.30734,"lon":5.42436,"is_reserved":false,"is_disabled":false,"rental_uris":{"android":"levelo://app?vid=6c584c59-605e-4831-87cf-3dddaea29a88","ios":"levelo://app?vid=6c584c59-605e-4831-87cf-3dddaea29a88"},"vehicle_type_id":"4","last_reported":1747897841,"current_range_meters":12400,"station_id":"st_cvj6ca6bvosntc0bfgr0","pricing_plan_id":"cebpf4jnsgd1na2vs0mg"},{"bike_id":"6ecb65ca-9ef7-4734-923c-f43d4d30e70e","system_id":"levelo_inurba_marseille","lat":43.31316,"lon":5.36728,"is_reserved":false,"is_disabled":false,"rental_uris":{"android":"levelo://app?vid=6ecb65ca-9ef7-4734-923c-f43d4d30e70e","ios":"levelo://app?vid=6ecb65ca-9ef7-4734-923c-f43d4d30e70e"},"vehicle_type_id":"4","last_reported":1747897841,"current_range_meters":12800,"station_id":"ce4bgr92rcd13ifvqc6g","pricing_plan_id":"cebpf4jnsgd1na2vs0mg"},{"bike_id":"78b8a23c-af4a-423b-907d-71c2cfddf417","system_id":"levelo_inurba_marseille","lat":43.30544,"lon":5.3655,"is_reserved":false,"is_disabled":false,"rental_uris":{"android":"levelo://app?vid=78b8a23c-af4a-423b-907d-71c2cfddf417","ios":"levelo://app?vid=78b8a23c-af4a-423b-907d-71c2cfddf417"},"vehicle_type_id":"4","last_reported":1747897841,"current_range_meters":12800,"station_id":"ce4bgs12rcd13ifvqcag","pricing_plan_id":"cebpf4jnsgd1na2vs0mg"},{"bike_id":"66450979-a920-40d0-bd6d-698de0b58f2c","system_id":"levelo_inurba_marseille","lat":43.272098,"lon":5.391858,"is_reserved":false,"is_disabled":false,"rental_uris":{"android":"levelo://app?vid=66450979-a920-40d0-bd6d-698de0b58f2c","ios":"levelo://app?vid=66450979-a920-40d0-bd6d-698de0b58f2c"},"vehicle_type_id":"4","last_reported":1747897841,"current_range_meters":12800,"station_id":"ce4bhhp2rcd13ifvqfm0","pricing_plan_id":"cebpf4jnsgd1na2vs0mg"},{"bike_id":"1f9f50e5-d449-441c-a551-f789b1eaece1","system_id":"levelo_inurba_marseille","lat":43.24066,"lon":5.37767,"is_reserved":false,"is_disabled":false,"rental_uris":{"android":"levelo://app?vid=1f9f50e5-d449-441c-a551-f789b1eaece1","ios":"levelo://app?vid=1f9f50e5-d449-441c-a551-f789b1eaece1"},"vehicle_type_id":"4","last_reported":1747897841,"current_range_meters":12800,"station_id":"ce4bhnp2rcd13ifvqgvg","pricing_plan_id":"cebpf4jnsgd1na2vs0mg"},{"bike_id":"582fa78a-576e-4fb1-b865-25a6a5e1bf5a","system_id":"levelo_inurba_marseille","lat":43.28608,"lon":5.37061,"is_reserved":false,"is_disabled":false,"rental_uris":{"android":"levelo://app?vid=582fa78a-576e-4fb1-b865-25a6a5e1bf5a","ios":"levelo://app?vid=582fa78a-576e-4fb1-b865-25a6a5e1bf5a"},"vehicle_type_id":"4","last_reported":1747897841,"current_range_meters":12800,"station_id":"ce4bht12rcd13ifvqi60","pricing_plan_id":"cebpf4jnsgd1na2vs0mg"},{"bike_id":"c2285a02-ae83-49f4-a4d4-2f0f0bcd3c5b","system_id":"levelo_inurba_marseille","lat":43.309082,"lon":5.368382,"is_reserved":false,"is_disabled":false,"rental_uris":{"android":"levelo://app?vid=c2285a02-ae83-49f4-a4d4-2f0f0bcd3c5b","ios":"levelo://app?vid=c2285a02-ae83-49f4-a4d4-2f0f0bcd3c5b"},"vehicle_type_id":"4","last_reported":1747897841,"current_range_meters":13600,"station_id":"ce4bgn92rcd13ifvqbvg","pricing_plan_id":"cebpf4jnsgd1na2vs0mg"},{"bike_id":"640dcd28-b04f-43d4-a530-d03bbe4226c2","system_id":"levelo_inurba_marseille","lat":43.30543,"lon":5.36552,"is_reserved":false,"is_disabled":false,"rental_uris":{"android":"levelo://app?vid=640dcd28-b04f-43d4-a530-d03bbe4226c2","ios":"levelo://app?vid=640dcd28-b04f-43d4-a530-d03bbe4226c2"},"vehicle_type_id":"4","last_reported":1747897841,"current_range_meters":13600,"station_id":"ce4bgs12rcd13ifvqcag","pricing_plan_id":"cebpf4jnsgd1na2vs0mg"},{"bike_id":"9e8ea15e-b4ed-4f68-82b9-82897caee7f3","system_id":"levelo_inurba_marseille","lat":43.28978,"lon":5.37829,"is_reserved":false,"is_disabled":false,"rental_uris":{"android":"levelo://app?vid=9e8ea15e-b4ed-4f68-82b9-82897caee7f3","ios":"levelo://app?vid=9e8ea15e-b4ed-4f68-82b9-82897caee7f3"},"vehicle_type_id":"4","last_reported":1747897841,"current_range_meters":13600,"station_id":"ce4bh9p2rcd13ifvqed0","pricing_plan_id":"cebpf4jnsgd1na2vs0mg"},{"bike_id":"1aef2fb5-6e48-426a-a7ad-ec07d86d8ced","system_id":"levelo_inurba_marseille","lat":43.28973,"lon":5.37835,"is_reserved":false,"is_disabled":false,"rental_uris":{"android":"levelo://app?vid=1aef2fb5-6e48-426a-a7ad-ec07d86d8ced","ios":"levelo://app?vid=1aef2fb5-6e48-426a-a7ad-ec07d86d8ced"},"vehicle_type_id":"4","last_reported":1747897841,"current_range_meters":13600,"station_id":"ce4bh9p2rcd13ifvqed0","pricing_plan_id":"cebpf4jnsgd1na2vs0mg"},{"bike_id":"d8ef93ab-6594-4205-bec9-cbf07e2aa23e","system_id":"levelo_inurba_marseille","lat":43.24169,"lon":5.36389,"is_reserved":false,"is_disabled":false,"rental_uris":{"android":"levelo://app?vid=d8ef93ab-6594-4205-bec9-cbf07e2aa23e","ios":"levelo://app?vid=d8ef93ab-6594-4205-bec9-cbf07e2aa23e"},"vehicle_type_id":"4","last_reported":1747897841,"current_range_meters":13600,"station_id":"cpo36qri1sfpv3e86is0","pricing_plan_id":"cebpf4jnsgd1na2vs0mg"},{"bike_id":"e96594c2-3a51-4fd7-80fd-fa7778807678","system_id":"levelo_inurba_marseille","lat":43.32477,"lon":5.36625,"is_reserved":false,"is_disabled":false,"rental_uris":{"android":"levelo://app?vid=e96594c2-3a51-4fd7-80fd-fa7778807678","ios":"levelo://app?vid=e96594c2-3a51-4fd7-80fd-fa7778807678"},"vehicle_type_id":"4","last_reported":1747897841,"current_range_meters":14000,"station_id":"","pricing_plan_id":"cebpf4jnsgd1na2vs0mg"},{"bike_id":"774f66d0-0e15-4e89-828e-07f3a81092b7","system_id":"levelo_inurba_marseille","lat":43.30468,"lon":5.379,"is_reserved":false,"is_disabled":false,"rental_uris":{"android":"levelo://app?vid=774f66d0-0e15-4e89-828e-07f3a81092b7","ios":"levelo://app?vid=774f66d0-0e15-4e89-828e-07f3a81092b7"},"vehicle_type_id":"4","last_reported":1747897841,"current_range_meters":14000,"station_id":"ce4bgup2rcd13ifvqcn0","pricing_plan_id":"cebpf4jnsgd1na2vs0mg"},{"bike_id":"024634d4-fc28-4361-bb0d-cc7ec651b542","system_id":"levelo_inurba_marseille","lat":43.26778,"lon":5.39409,"is_reserved":false,"is_disabled":false,"rental_uris":{"android":"levelo://app?vid=024634d4-fc28-4361-bb0d-cc7ec651b542","ios":"levelo://app?vid=024634d4-fc28-4361-bb0d-cc7ec651b542"},"vehicle_type_id":"4","last_reported":1747897841,"current_range_meters":14000,"station_id":"ce4bhh12rcd13ifvqfg0","pricing_plan_id":"cebpf4jnsgd1na2vs0mg"},{"bike_id":"0dca6de3-57ba-443d-8da5-6f1412249b6a","system_id":"levelo_inurba_marseille","lat":43.25931,"lon":5.40905,"is_reserved":false,"is_disabled":false,"rental_uris":{"android":"levelo://app?vid=0dca6de3-57ba-443d-8da5-6f1412249b6a","ios":"levelo://app?vid=0dca6de3-57ba-443d-8da5-6f1412249b6a"},"vehicle_type_id":"4","last_reported":1747897841,"current_range_meters":14000,"station_id":"ce4bhm92rcd13ifvqglg","pricing_plan_id":"cebpf4jnsgd1na2vs0mg"},{"bike_id":"3248fe48-de80-4622-959d-ca6eefed4212","system_id":"levelo_inurba_marseille","lat":43.29309,"lon":5.37165,"is_reserved":false,"is_disabled":false,"rental_uris":{"android":"levelo://app?vid=3248fe48-de80-4622-959d-ca6eefed4212","ios":"levelo://app?vid=3248fe48-de80-4622-959d-ca6eefed4212"},"vehicle_type_id":"4","last_reported":1747897841,"current_range_meters":14400,"station_id":"ce4bgh92rcd13ifvqb40","pricing_plan_id":"cebpf4jnsgd1na2vs0mg"},{"bike_id":"d94d5b58-1b2e-4a42-a4bc-e460d03de015","system_id":"levelo_inurba_marseille","lat":43.2992,"lon":5.37473,"is_reserved":false,"is_disabled":false,"rental_uris":{"android":"levelo://app?vid=d94d5b58-1b2e-4a42-a4bc-e460d03de015","ios":"levelo://app?vid=d94d5b58-1b2e-4a42-a4bc-e460d03de015"},"vehicle_type_id":"4","last_reported":1747897841,"current_range_meters":14400,"station_id":"ce4bgjh2rcd13ifvqbg0","pricing_plan_id":"cebpf4jnsgd1na2vs0mg"},{"bike_id":"48ea8974-3fb9-4bda-b3eb-3f3919ec67a2","system_id":"levelo_inurba_marseille","lat":43.24072,"lon":5.3775,"is_reserved":false,"is_disabled":false,"rental_uris":{"android":"levelo://app?vid=48ea8974-3fb9-4bda-b3eb-3f3919ec67a2","ios":"levelo://app?vid=48ea8974-3fb9-4bda-b3eb-3f3919ec67a2"},"vehicle_type_id":"4","last_reported":1747897841,"current_range_meters":14400,"station_id":"ce4bhnp2rcd13ifvqgvg","pricing_plan_id":"cebpf4jnsgd1na2vs0mg"},{"bike_id":"2e2c97e4-57f5-464a-8c48-519d52580072","system_id":"levelo_inurba_marseille","lat":43.2409,"lon":5.37753,"is_reserved":false,"is_disabled":false,"rental_uris":{"android":"levelo://app?vid=2e2c97e4-57f5-464a-8c48-519d52580072","ios":"levelo://app?vid=2e2c97e4-57f5-464a-8c48-519d52580072"},"vehicle_type_id":"4","last_reported":1747897841,"current_range_meters":14400,"station_id":"ce4bhnp2rcd13ifvqgvg","pricing_plan_id":"cebpf4jnsgd1na2vs0mg"},{"bike_id":"f9223343-51dd-4eb0-a255-7d7bd8e5d0ef","system_id":"levelo_inurba_marseille","lat":43.311889,"lon":5.401755,"is_reserved":false,"is_disabled":false,"rental_uris":{"android":"levelo://app?vid=f9223343-51dd-4eb0-a255-7d7bd8e5d0ef","ios":"levelo://app?vid=f9223343-51dd-4eb0-a255-7d7bd8e5d0ef"},"vehicle_type_id":"4","last_reported":1747897841,"current_range_meters":14800,"station_id":"","pricing_plan_id":"cebpf4jnsgd1na2vs0mg"},{"bike_id":"504baffc-ad18-42f1-ba3c-e8815f65a9f8","system_id":"levelo_inurba_marseille","lat":43.26565,"lon":5.39012,"is_reserved":false,"is_disabled":false,"rental_uris":{"android":"levelo://app?vid=504baffc-ad18-42f1-ba3c-e8815f65a9f8","ios":"levelo://app?vid=504baffc-ad18-42f1-ba3c-e8815f65a9f8"},"vehicle_type_id":"4","last_reported":1747897841,"current_range_meters":14800,"station_id":"ce4bhe12rcd13ifvqf30","pricing_plan_id":"cebpf4jnsgd1na2vs0mg"},{"bike_id":"9dce1539-c40b-4a9e-9ab8-bf28b2a94870","system_id":"levelo_inurba_marseille","lat":43.26946,"lon":5.40248,"is_reserved":false,"is_disabled":false,"rental_uris":{"android":"levelo://app?vid=9dce1539-c40b-4a9e-9ab8-bf28b2a94870","ios":"levelo://app?vid=9dce1539-c40b-4a9e-9ab8-bf28b2a94870"},"vehicle_type_id":"4","last_reported":1747897841,"current_range_meters":14800,"station_id":"cjm6bp8fraef2m0cb0m0","pricing_plan_id":"cebpf4jnsgd1na2vs0mg"},{"bike_id":"90aef05d-c76a-429f-affb-e478a78b76a9","system_id":"levelo_inurba_marseille","lat":43.31223,"lon":5.36858,"is_reserved":false,"is_disabled":false,"rental_uris":{"android":"levelo://app?vid=90aef05d-c76a-429f-affb-e478a78b76a9","ios":"levelo://app?vid=90aef05d-c76a-429f-affb-e478a78b76a9"},"vehicle_type_id":"4","last_reported":1747897841,"current_range_meters":15200,"station_id":"ce4bgl92rcd13ifvqbq0","pricing_plan_id":"cebpf4jnsgd1na2vs0mg"},{"bike_id":"1ac1b0ee-ec0f-42ca-aba5-be99a51af258","system_id":"levelo_inurba_marseille","lat":43.274954,"lon":5.424583,"is_reserved":false,"is_disabled":false,"rental_uris":{"android":"levelo://app?vid=1ac1b0ee-ec0f-42ca-aba5-be99a51af258","ios":"levelo://app?vid=1ac1b0ee-ec0f-42ca-aba5-be99a51af258"},"vehicle_type_id":"4","last_reported":1747897841,"current_range_meters":15200,"station_id":"ce4bhn92rcd13ifvqgrg","pricing_plan_id":"cebpf4jnsgd1na2vs0mg"},{"bike_id":"d5834567-8cdd-4269-a914-505ff8de8cad","system_id":"levelo_inurba_marseille","lat":43.30155,"lon":5.38081,"is_reserved":false,"is_disabled":false,"rental_uris":{"android":"levelo://app?vid=d5834567-8cdd-4269-a914-505ff8de8cad","ios":"levelo://app?vid=d5834567-8cdd-4269-a914-505ff8de8cad"},"vehicle_type_id":"4","last_reported":1747897841,"current_range_meters":16000,"station_id":"ce4bgjp2rcd13ifvqbh0","pricing_plan_id":"cebpf4jnsgd1na2vs0mg"},{"bike_id":"17e12b39-37a0-47dc-acbf-4dea9219dc50","system_id":"levelo_inurba_marseille","lat":43.30468,"lon":5.37911,"is_reserved":false,"is_disabled":false,"rental_uris":{"android":"levelo://app?vid=17e12b39-37a0-47dc-acbf-4dea9219dc50","ios":"levelo://app?vid=17e12b39-37a0-47dc-acbf-4dea9219dc50"},"vehicle_type_id":"4","last_reported":1747897841,"current_range_meters":16000,"station_id":"ce4bgup2rcd13ifvqcn0","pricing_plan_id":"cebpf4jnsgd1na2vs0mg"},{"bike_id":"14bb0c30-0bcf-4258-9c17-b108dc127fc1","system_id":"levelo_inurba_marseille","lat":43.30426,"lon":5.39743,"is_reserved":false,"is_disabled":false,"rental_uris":{"android":"levelo://app?vid=14bb0c30-0bcf-4258-9c17-b108dc127fc1","ios":"levelo://app?vid=14bb0c30-0bcf-4258-9c17-b108dc127fc1"},"vehicle_type_id":"4","last_reported":1747897841,"current_range_meters":16000,"station_id":"ce4bh092rcd13ifvqd20","pricing_plan_id":"cebpf4jnsgd1na2vs0mg"},{"bike_id":"e3e19b90-9823-4b53-b8a7-4c599b3176c2","system_id":"levelo_inurba_marseille","lat":43.251039,"lon":5.403399,"is_reserved":false,"is_disabled":false,"rental_uris":{"android":"levelo://app?vid=e3e19b90-9823-4b53-b8a7-4c599b3176c2","ios":"levelo://app?vid=e3e19b90-9823-4b53-b8a7-4c599b3176c2"},"vehicle_type_id":"4","last_reported":1747897841,"current_range_meters":16000,"station_id":"ce4bhlh2rcd13ifvqgig","pricing_plan_id":"cebpf4jnsgd1na2vs0mg"},{"bike_id":"84f00b51-2429-41be-8a43-83978d7764de","system_id":"levelo_inurba_marseille","lat":43.275015,"lon":5.424651,"is_reserved":false,"is_disabled":false,"rental_uris":{"android":"levelo://app?vid=84f00b51-2429-41be-8a43-83978d7764de","ios":"levelo://app?vid=84f00b51-2429-41be-8a43-83978d7764de"},"vehicle_type_id":"4","last_reported":1747897841,"current_range_meters":16000,"station_id":"ce4bhn92rcd13ifvqgrg","pricing_plan_id":"cebpf4jnsgd1na2vs0mg"},{"bike_id":"7858382f-0d4f-4888-a736-9a4ce6c89057","system_id":"levelo_inurba_marseille","lat":43.28019,"lon":5.40024,"is_reserved":false,"is_disabled":false,"rental_uris":{"android":"levelo://app?vid=7858382f-0d4f-4888-a736-9a4ce6c89057","ios":"levelo://app?vid=7858382f-0d4f-4888-a736-9a4ce6c89057"},"vehicle_type_id":"4","last_reported":1747897841,"current_range_meters":16000,"station_id":"ce4bho92rcd13ifvqh4g","pricing_plan_id":"cebpf4jnsgd1na2vs0mg"},{"bike_id":"0fce2cfe-ecb0-4626-b8f6-556c439110d8","system_id":"levelo_inurba_marseille","lat":43.346881,"lon":5.345522,"is_reserved":false,"is_disabled":false,"rental_uris":{"android":"levelo://app?vid=0fce2cfe-ecb0-4626-b8f6-556c439110d8","ios":"levelo://app?vid=0fce2cfe-ecb0-4626-b8f6-556c439110d8"},"vehicle_type_id":"4","last_reported":1747897841,"current_range_meters":16400,"station_id":"","pricing_plan_id":"cebpf4jnsgd1na2vs0mg"},{"bike_id":"37328478-3e08-4cb8-941e-c3778c70db4c","system_id":"levelo_inurba_marseille","lat":43.29626,"lon":5.37714,"is_reserved":false,"is_disabled":false,"rental_uris":{"android":"levelo://app?vid=37328478-3e08-4cb8-941e-c3778c70db4c","ios":"levelo://app?vid=37328478-3e08-4cb8-941e-c3778c70db4c"},"vehicle_type_id":"4","last_reported":1747897841,"current_range_meters":16400,"station_id":"ce4bgi92rcd13ifvqb90","pricing_plan_id":"cebpf4jnsgd1na2vs0mg"},{"bike_id":"efebc20f-1cec-4f1c-b010-52739d2f1f56","system_id":"levelo_inurba_marseille","lat":43.30135,"lon":5.38087,"is_reserved":false,"is_disabled":false,"rental_uris":{"android":"levelo://app?vid=efebc20f-1cec-4f1c-b010-52739d2f1f56","ios":"levelo://app?vid=efebc20f-1cec-4f1c-b010-52739d2f1f56"},"vehicle_type_id":"4","last_reported":1747897841,"current_range_meters":16400,"station_id":"ce4bgjp2rcd13ifvqbh0","pricing_plan_id":"cebpf4jnsgd1na2vs0mg"},{"bike_id":"69b0ddea-e6bf-4e1e-aceb-85c67da32f69","system_id":"levelo_inurba_marseille","lat":43.29026,"lon":5.381272,"is_reserved":false,"is_disabled":false,"rental_uris":{"android":"levelo://app?vid=69b0ddea-e6bf-4e1e-aceb-85c67da32f69","ios":"levelo://app?vid=69b0ddea-e6bf-4e1e-aceb-85c67da32f69"},"vehicle_type_id":"4","last_reported":1747897841,"current_range_meters":16400,"station_id":"ce4bgop2rcd13ifvqc1g","pricing_plan_id":"cebpf4jnsgd1na2vs0mg"},{"bike_id":"4bc96374-034f-4e1f-8ed1-b2303e4cc2ca","system_id":"levelo_inurba_marseille","lat":43.30886,"lon":5.3965,"is_reserved":false,"is_disabled":false,"rental_uris":{"android":"levelo://app?vid=4bc96374-034f-4e1f-8ed1-b2303e4cc2ca","ios":"levelo://app?vid=4bc96374-034f-4e1f-8ed1-b2303e4cc2ca"},"vehicle_type_id":"4","last_reported":1747897841,"current_range_meters":16400,"station_id":"ce4bh012rcd13ifvqcv0","pricing_plan_id":"cebpf4jnsgd1na2vs0mg"},{"bike_id":"9dc177a5-f534-4307-96fc-4f4bfd9a87e3","system_id":"levelo_inurba_marseille","lat":43.29067,"lon":5.3714,"is_reserved":false,"is_disabled":false,"rental_uris":{"android":"levelo://app?vid=9dc177a5-f534-4307-96fc-4f4bfd9a87e3","ios":"levelo://app?vid=9dc177a5-f534-4307-96fc-4f4bfd9a87e3"},"vehicle_type_id":"4","last_reported":1747897841,"current_range_meters":16400,"station_id":"ce4bh5p2rcd13ifvqe4g","pricing_plan_id":"cebpf4jnsgd1na2vs0mg"},{"bike_id":"2e0ba6b4-099b-4d8c-b4bc-4228754787e7","system_id":"levelo_inurba_marseille","lat":43.26578,"lon":5.39016,"is_reserved":false,"is_disabled":false,"rental_uris":{"android":"levelo://app?vid=2e0ba6b4-099b-4d8c-b4bc-4228754787e7","ios":"levelo://app?vid=2e0ba6b4-099b-4d8c-b4bc-4228754787e7"},"vehicle_type_id":"4","last_reported":1747897841,"current_range_meters":16400,"station_id":"ce4bhe12rcd13ifvqf30","pricing_plan_id":"cebpf4jnsgd1na2vs0mg"},{"bike_id":"d3bbcb40-10bc-4dcc-a4f6-f0a42d3d55e7","system_id":"levelo_inurba_marseille","lat":43.25,"lon":5.38929,"is_reserved":false,"is_disabled":false,"rental_uris":{"android":"levelo://app?vid=d3bbcb40-10bc-4dcc-a4f6-f0a42d3d55e7","ios":"levelo://app?vid=d3bbcb40-10bc-4dcc-a4f6-f0a42d3d55e7"},"vehicle_type_id":"4","last_reported":1747897841,"current_range_meters":16400,"station_id":"ce4bhgp2rcd13ifvqfd0","pricing_plan_id":"cebpf4jnsgd1na2vs0mg"},{"bike_id":"f5591629-5c11-4535-b4f1-f32159bd53b2","system_id":"levelo_inurba_marseille","lat":43.271713,"lon":5.409914,"is_reserved":false,"is_disabled":false,"rental_uris":{"android":"levelo://app?vid=f5591629-5c11-4535-b4f1-f32159bd53b2","ios":"levelo://app?vid=f5591629-5c11-4535-b4f1-f32159bd53b2"},"vehicle_type_id":"4","last_reported":1747897841,"current_range_meters":16400,"station_id":"ce4bhl12rcd13ifvqgf0","pricing_plan_id":"cebpf4jnsgd1na2vs0mg"},{"bike_id":"e307b94c-fa59-4182-91e2-cae2f896c5e1","system_id":"levelo_inurba_marseille","lat":43.32103,"lon":5.36776,"is_reserved":false,"is_disabled":false,"rental_uris":{"android":"levelo://app?vid=e307b94c-fa59-4182-91e2-cae2f896c5e1","ios":"levelo://app?vid=e307b94c-fa59-4182-91e2-cae2f896c5e1"},"vehicle_type_id":"4","last_reported":1747897841,"current_range_meters":16400,"station_id":"ce4bhrh2rcd13ifvqhug","pricing_plan_id":"cebpf4jnsgd1na2vs0mg"},{"bike_id":"ed9f2a12-15ae-4bc4-bae2-4574677ef7ac","system_id":"levelo_inurba_marseille","lat":43.28608,"lon":5.37066,"is_reserved":false,"is_disabled":false,"rental_uris":{"android":"levelo://app?vid=ed9f2a12-15ae-4bc4-bae2-4574677ef7ac","ios":"levelo://app?vid=ed9f2a12-15ae-4bc4-bae2-4574677ef7ac"},"vehicle_type_id":"4","last_reported":1747897841,"current_range_meters":16400,"station_id":"ce4bht12rcd13ifvqi60","pricing_plan_id":"cebpf4jnsgd1na2vs0mg"},{"bike_id":"73a8476e-7f3a-4d67-b0ed-6195626b61db","system_id":"levelo_inurba_marseille","lat":43.26491,"lon":5.39545,"is_reserved":false,"is_disabled":false,"rental_uris":{"android":"levelo://app?vid=73a8476e-7f3a-4d67-b0ed-6195626b61db","ios":"levelo://app?vid=73a8476e-7f3a-4d67-b0ed-6195626b61db"},"vehicle_type_id":"4","last_reported":1747897841,"current_range_meters":16800,"station_id":"ce4bhi12rcd13ifvqfq0","pricing_plan_id":"cebpf4jnsgd1na2vs0mg"},{"bike_id":"d52c262c-eee5-46f0-aded-a6c6d707e159","system_id":"levelo_inurba_marseille","lat":43.26496,"lon":5.39545,"is_reserved":false,"is_disabled":false,"rental_uris":{"android":"levelo://app?vid=d52c262c-eee5-46f0-aded-a6c6d707e159","ios":"levelo://app?vid=d52c262c-eee5-46f0-aded-a6c6d707e159"},"vehicle_type_id":"4","last_reported":1747897841,"current_range_meters":16800,"station_id":"ce4bhi12rcd13ifvqfq0","pricing_plan_id":"cebpf4jnsgd1na2vs0mg"},{"bike_id":"aeeedd9d-21b0-4b54-93e3-74a63297bbbf","system_id":"levelo_inurba_marseille","lat":43.24053,"lon":5.37721,"is_reserved":false,"is_disabled":false,"rental_uris":{"android":"levelo://app?vid=aeeedd9d-21b0-4b54-93e3-74a63297bbbf","ios":"levelo://app?vid=aeeedd9d-21b0-4b54-93e3-74a63297bbbf"},"vehicle_type_id":"4","last_reported":1747897841,"current_range_meters":16800,"station_id":"ce4bhnp2rcd13ifvqgvg","pricing_plan_id":"cebpf4jnsgd1na2vs0mg"},{"bike_id":"41bef200-0210-46a9-afd1-c001d345c4b0","system_id":"levelo_inurba_marseille","lat":43.33621,"lon":5.37897,"is_reserved":false,"is_disabled":false,"rental_uris":{"android":"levelo://app?vid=41bef200-0210-46a9-afd1-c001d345c4b0","ios":"levelo://app?vid=41bef200-0210-46a9-afd1-c001d345c4b0"},"vehicle_type_id":"4","last_reported":1747897841,"current_range_meters":17200,"station_id":"","pricing_plan_id":"cebpf4jnsgd1na2vs0mg"},{"bike_id":"6372fdee-cfcc-459c-bdc6-fb9843560d78","system_id":"levelo_inurba_marseille","lat":43.30141,"lon":5.374203,"is_reserved":false,"is_disabled":false,"rental_uris":{"android":"levelo://app?vid=6372fdee-cfcc-459c-bdc6-fb9843560d78","ios":"levelo://app?vid=6372fdee-cfcc-459c-bdc6-fb9843560d78"},"vehicle_type_id":"4","last_reported":1747897841,"current_range_meters":17200,"station_id":"ce4bgs92rcd13ifvqcc0","pricing_plan_id":"cebpf4jnsgd1na2vs0mg"},