{"last_updated":1740697726,"ttl":60,"version":"2.2","data":{"bikes":[{"bike_id":"1cbbea59-931b-4324-8b80-4a85b70800ab","system_id":"levelo_inurba_marseille","lat":43.28715,"lon":5.36094,"is_reserved":false,"is_disabled":false,"rental_uris":{"android":"levelo://app?vid=1cbbea59-931b-4324-8b80-4a85b70800ab","ios":"levelo://app?vid=1cbbea59-931b-4324-8b80-4a85b70800ab"},"vehicle_type_id":"4","last_reported":1740697726,"current_range_meters":2800,"station_id":"cki0cbj6b192h4jlfktg","pricing_plan_id":"cebpf4jnsgd1na2vs0mg"},{"bike_id":"d99cc76d-ee9a-4af8-8b1f-a4b0e5ddc7d4","system_id":"levelo_inurba_marseille","lat":43.31362,"lon":5.38501,"is_reserved":false,"is_disabled":false,"rental_uris":{"android":"levelo://app?vid=d99cc76d-ee9a-4af8-8b1f-a4b0e5ddc7d4","ios":"levelo://app?vid=d99cc76d-ee9a-4af8-8b1f-a4b0e5ddc7d4"},"vehicle_type_id":"4","last_reported":1740697726,"current_range_meters":2800,"station_id":"ce4bgt92rcd13ifvqcf0","pricing_plan_id":"cebpf4jnsgd1na2vs0mg"},{"bike_id":"c0f4655a-9119-4abf-9f3e-fa0bacae89cb","system_id":"levelo_inurba_marseille","lat":43.28174,"lon":5.42413,"is_reserved":false,"is_disabled":true,"rental_uris":{"android":"levelo://app?vid=c0f4655a-9119-4abf-9f3e-fa0bacae89cb","ios":"levelo://app?vid=c0f4655a-9119-4abf-9f3e-fa0bacae89cb"},"vehicle_type_id":"4","last_reported":1740697726,"current_range_meters":3200,"station_id":"","pricing_plan_id":"cebpf4jnsgd1na2vs0mg"},{"bike_id":"f98a804c-537c-41bb-9782-3da5bcf6e43a","system_id":"levelo_inurba_marseille","lat":43.27939,"lon":5.41051,"is_reserved":false,"is_disabled":false,"rental_uris":{"android":"levelo://app?vid=f98a804c-537c-41bb-9782-3da5bcf6e43a","ios":"levelo://app?vid=f98a804c-537c-41bb-9782-3da5bcf6e43a"},"vehicle_type_id":"4","last_reported":1740697726,"current_range_meters":3600,"station_id":"ce4bhnp2rcd13ifvqh0g","pricing_plan_id":"cebpf4jnsgd1na2vs0mg"},{"bike_id":"ae23d63f-1813-4ce3-9f00-de91edb6a690","system_id":"levelo_inurba_marseille","lat":43.29208,"lon":5.36076,"is_reserved":false,"is_disabled":false,"rental_uris":{"android":"levelo://app?vid=ae23d63f-1813-4ce3-9f00-de91edb6a690","ios":"levelo://app?vid=ae23d63f-1813-4ce3-9f00-de91edb6a690"},"vehicle_type_id":"4","last_reported":1740697726,"current_range_meters":4400,"station_id":"ce4bhbh2rcd13ifvqeqg","pricing_plan_id":"cebpf4jnsgd1na2vs0mg"},{"bike_id":"0cb11e86-cfab-45a8-8b58-db0ea4d88767","system_id":"levelo_inurba_marseille","lat":43.23187,"lon":5.39982,"is_reserved":false,"is_disabled":false,"rental_uris":{"android":"levelo://app?vid=0cb11e86-cfab-45a8-8b58-db0ea4d88767","ios":"levelo://app?vid=0cb11e86-cfab-45a8-8b58-db0ea4d88767"},"vehicle_type_id":"4","last_reported":1740697726,"current_range_meters":4400,"station_id":"ce4bhn12rcd13ifvqgqg","pricing_plan_id":"cebpf4jnsgd1na2vs0mg"},{"bike_id":"5913f2a6-7d0c-48c0-a7c4-b618e14f8d02","system_id":"levelo_inurba_marseille","lat":43.31312,"lon":5.39713,"is_reserved":false,"is_disabled":false,"rental_uris":{"android":"levelo://app?vid=5913f2a6-7d0c-48c0-a7c4-b618e14f8d02","ios":"levelo://app?vid=5913f2a6-7d0c-48c0-a7c4-b618e14f8d02"},"vehicle_type_id":"4","last_reported":1740697726,"current_range_meters":4400,"station_id":"ce4bgvp2rcd13ifvqcu0","pricing_plan_id":"cebpf4jnsgd1na2vs0mg"},{"bike_id":"87b46391-f970-488b-8f8a-e43e1901b582","system_id":"levelo_inurba_marseille","lat":43.28937,"lon":5.36635,"is_reserved":false,"is_disabled":false,"rental_uris":{"android":"levelo://app?vid=87b46391-f970-488b-8f8a-e43e1901b582","ios":"levelo://app?vid=87b46391-f970-488b-8f8a-e43e1901b582"},"vehicle_type_id":"4","last_reported":1740697726,"current_range_meters":6800,"station_id":"","pricing_plan_id":"cebpf4jnsgd1na2vs0mg"},{"bike_id":"df3becdc-efe5-428b-ad3b-9a5b04af2ecf","system_id":"levelo_inurba_marseille","lat":43.28031,"lon":5.36937,"is_reserved":false,"is_disabled":false,"rental_uris":{"android":"levelo://app?vid=df3becdc-efe5-428b-ad3b-9a5b04af2ecf","ios":"levelo://app?vid=df3becdc-efe5-428b-ad3b-9a5b04af2ecf"},"vehicle_type_id":"4","last_reported":1740697726,"current_range_meters":4400,"station_id":"ce4bha12rcd13ifvqef0","pricing_plan_id":"cebpf4jnsgd1na2vs0mg"},{"bike_id":"7560142c-45ea-4aa6-bd5b-a0c4eb95844b","system_id":"levelo_inurba_marseille","lat":43.27054,"lon":5.4026,"is_reserved":false,"is_disabled":true,"rental_uris":{"android":"levelo://app?vid=7560142c-45ea-4aa6-bd5b-a0c4eb95844b","ios":"levelo://app?vid=7560142c-45ea-4aa6-bd5b-a0c4eb95844b"},"vehicle_type_id":"4","last_reported":1740697726,"current_range_meters":6000,"station_id":"ce4bhk92rcd13ifvqgc0","pricing_plan_id":"cebpf4jnsgd1na2vs0mg"},{"bike_id":"a3b7152f-784b-49f3-9c01-640a9deb9d0d","system_id":"levelo_inurba_marseille","lat":43.31069,"lon":5.38367,"is_reserved":false,"is_disabled":false,"rental_uris":{"android":"levelo://app?vid=a3b7152f-784b-49f3-9c01-640a9deb9d0d","ios":"levelo://app?vid=a3b7152f-784b-49f3-9c01-640a9deb9d0d"},"vehicle_type_id":"4","last_reported":1740697726,"current_range_meters":5600,"station_id":"ce4bgv92rcd13ifvqcr0","pricing_plan_id":"cebpf4jnsgd1na2vs0mg"},{"bike_id":"349c5580-a9fe-4317-a068-111838c4f071","system_id":"levelo_inurba_marseille","lat":43.25863,"lon":5.39896,"is_reserved":false,"is_disabled":false,"rental_uris":{"android":"levelo://app?vid=349c5580-a9fe-4317-a068-111838c4f071","ios":"levelo://app?vid=349c5580-a9fe-4317-a068-111838c4f071"},"vehicle_type_id":"4","last_reported":1740697726,"current_range_meters":5600,"station_id":"ce4bhl92rcd13ifvqghg","pricing_plan_id":"cebpf4jnsgd1na2vs0mg"},{"bike_id":"46526e5c-bb5c-481a-8d07-3b14efdcf74a","system_id":"levelo_inurba_marseille","lat":43.25715,"lon":5.41112,"is_reserved":false,"is_disabled":false,"rental_uris":{"android":"levelo://app?vid=46526e5c-bb5c-481a-8d07-3b14efdcf74a","ios":"levelo://app?vid=46526e5c-bb5c-481a-8d07-3b14efdcf74a"},"vehicle_type_id":"4","last_reported":1740697726,"current_range_meters":10000,"station_id":"ce4bhkp2rcd13ifvqgd0","pricing_plan_id":"cebpf4jnsgd1na2vs0mg"},{"bike_id":"6c9f518e-bfe0-4cde-9178-00be7a58360c","system_id":"levelo_inurba_marseille","lat":43.28704,"lon":5.37397,"is_reserved":false,"is_disabled":false,"rental_uris":{"android":"levelo://app?vid=6c9f518e-bfe0-4cde-9178-00be7a58360c","ios":"levelo://app?vid=6c9f518e-bfe0-4cde-9178-00be7a58360c"},"vehicle_type_id":"4","last_reported":1740697726,"current_range_meters":6000,"station_id":"ce4bh3p2rcd13ifvqdq0","pricing_plan_id":"cebpf4jnsgd1na2vs0mg"},{"bike_id":"8a7c6892-8813-4539-8c19-e8ebb3f190bf","system_id":"levelo_inurba_marseille","lat":43.29003,"lon":5.35606,"is_reserved":false,"is_disabled":false,"rental_uris":{"android":"levelo://app?vid=8a7c6892-8813-4539-8c19-e8ebb3f190bf","ios":"levelo://app?vid=8a7c6892-8813-4539-8c19-e8ebb3f190bf"},"vehicle_type_id":"4","last_reported":1740697726,"current_range_meters":6000,"station_id":"ce4bhb92rcd13ifvqen0","pricing_plan_id":"cebpf4jnsgd1na2vs0mg"},{"bike_id":"afcf5e09-bba1-4ca8-9792-93f1af82f789","system_id":"levelo_inurba_marseille","lat":43.26214,"lon":5.37438,"is_reserved":false,"is_disabled":false,"rental_uris":{"android":"levelo://app?vid=afcf5e09-bba1-4ca8-9792-93f1af82f789","ios":"levelo://app?vid=afcf5e09-bba1-4ca8-9792-93f1af82f789"},"vehicle_type_id":"4","last_reported":1740697726,"current_range_meters":6000,"station_id":"ce4bhgp2rcd13ifvqfc0","pricing_plan_id":"cebpf4jnsgd1na2vs0mg"},{"bike_id":"efcdfe96-8261-42a6-9b17-32376c0bcb93","system_id":"levelo_inurba_marseille","lat":43.23185,"lon":5.39972,"is_reserved":false,"is_disabled":false,"rental_uris":{"android":"levelo://app?vid=efcdfe96-8261-42a6-9b17-32376c0bcb93","ios":"levelo://app?vid=efcdfe96-8261-42a6-9b17-32376c0bcb93"},"vehicle_type_id":"4","last_reported":1740697726,"current_range_meters":6000,"station_id":"ce4bhn12rcd13ifvqgqg","pricing_plan_id":"cebpf4jnsgd1na2vs0mg"},{"bike_id":"3aed6401-30fa-417b-b1f4-fed91c185d13","system_id":"levelo_inurba_marseille","lat":43.27935,"lon":5.4103,"is_reserved":false,"is_disabled":false,"rental_uris":{"android":"levelo://app?vid=3aed6401-30fa-417b-b1f4-fed91c185d13","ios":"levelo://app?vid=3aed6401-30fa-417b-b1f4-fed91c185d13"},"vehicle_type_id":"4","last_reported":1740697726,"current_range_meters":6400,"station_id":"ce4bhnp2rcd13ifvqh0g","pricing_plan_id":"cebpf4jnsgd1na2vs0mg"},{"bike_id":"6df9390a-5e58-4956-be28-22b5b6734565","system_id":"levelo_inurba_marseille","lat":43.2508,"lon":5.39518,"is_reserved":false,"is_disabled":false,"rental_uris":{"android":"levelo://app?vid=6df9390a-5e58-4956-be28-22b5b6734565","ios":"levelo://app?vid=6df9390a-5e58-4956-be28-22b5b6734565"},"vehicle_type_id":"4","last_reported":1740697726,"current_range_meters":6400,"station_id":"ce4bhm12rcd13ifvqgkg","pricing_plan_id":"cebpf4jnsgd1na2vs0mg"},{"bike_id":"55d98fc5-066e-4e9e-aaf7-5977c81a7397","system_id":"levelo_inurba_marseille","lat":43.27955,"lon":5.41042,"is_reserved":false,"is_disabled":false,"rental_uris":{"android":"levelo://app?vid=55d98fc5-066e-4e9e-aaf7-5977c81a7397","ios":"levelo://app?vid=55d98fc5-066e-4e9e-aaf7-5977c81a7397"},"vehicle_type_id":"4","last_reported":1740697726,"current_range_meters":6400,"station_id":"ce4bhnp2rcd13ifvqh0g","pricing_plan_id":"cebpf4jnsgd1na2vs0mg"},{"bike_id":"9a84ba8d-6006-4d8f-b6f9-44b7d71c42c6","system_id":"levelo_inurba_marseille","lat":43.28686,"lon":5.37397,"is_reserved":false,"is_disabled":true,"rental_uris":{"android":"levelo://app?vid=9a84ba8d-6006-4d8f-b6f9-44b7d71c42c6","ios":"levelo://app?vid=9a84ba8d-6006-4d8f-b6f9-44b7d71c42c6"},"vehicle_type_id":"4","last_reported":1740697726,"current_range_meters":6400,"station_id":"ce4bh3p2rcd13ifvqdq0","pricing_plan_id":"cebpf4jnsgd1na2vs0mg"},{"bike_id":"f10f9796-7541-497b-b6e6-805f6c2689ac","system_id":"levelo_inurba_marseille","lat":43.24668,"lon":5.38139,"is_reserved":false,"is_disabled":false,"rental_uris":{"android":"levelo://app?vid=f10f9796-7541-497b-b6e6-805f6c2689ac","ios":"levelo://app?vid=f10f9796-7541-497b-b6e6-805f6c2689ac"},"vehicle_type_id":"4","last_reported":1740697726,"current_range_meters":6800,"station_id":"ce4bhih2rcd13ifvqfr0","pricing_plan_id":"cebpf4jnsgd1na2vs0mg"},{"bike_id":"c6579477-6690-44a6-b7de-b88123a0b241","system_id":"levelo_inurba_marseille","lat":43.28727,"lon":5.36077,"is_reserved":false,"is_disabled":false,"rental_uris":{"android":"levelo://app?vid=c6579477-6690-44a6-b7de-b88123a0b241","ios":"levelo://app?vid=c6579477-6690-44a6-b7de-b88123a0b241"},"vehicle_type_id":"4","last_reported":1740697726,"current_range_meters":6800,"station_id":"cki0cbj6b192h4jlfktg","pricing_plan_id":"cebpf4jnsgd1na2vs0mg"},{"bike_id":"6fdd59a0-9c6b-4ad2-9ef9-ddd09cdf5532","system_id":"levelo_inurba_marseille","lat":43.30585,"lon":5.39356,"is_reserved":false,"is_disabled":false,"rental_uris":{"android":"levelo://app?vid=6fdd59a0-9c6b-4ad2-9ef9-ddd09cdf5532","ios":"levelo://app?vid=6fdd59a0-9c6b-4ad2-9ef9-ddd09cdf5532"},"vehicle_type_id":"4","last_reported":1740697726,"current_range_meters":8000,"station_id":"ce4bh0p2rcd13ifvqd80","pricing_plan_id":"cebpf4jnsgd1na2vs0mg"},{"bike_id":"d791a742-4738-47cb-9fe6-27aeeea41532","system_id":"levelo_inurba_marseille","lat":43.3064,"lon":5.40081,"is_reserved":false,"is_disabled":false,"rental_uris":{"android":"levelo://app?vid=d791a742-4738-47cb-9fe6-27aeeea41532","ios":"levelo://app?vid=d791a742-4738-47cb-9fe6-27aeeea41532"},"vehicle_type_id":"4","last_reported":1740697726,"current_range_meters":8000,"station_id":"ce4bh112rcd13ifvqda0","pricing_plan_id":"cebpf4jnsgd1na2vs0mg"},{"bike_id":"8b12f042-66ff-4f72-8110-b87f1cf65c0b","system_id":"levelo_inurba_marseille","lat":43.33392,"lon":5.40014,"is_reserved":false,"is_disabled":false,"rental_uris":{"android":"levelo://app?vid=8b12f042-66ff-4f72-8110-b87f1cf65c0b","ios":"levelo://app?vid=8b12f042-66ff-4f72-8110-b87f1cf65c0b"},"vehicle_type_id":"4","last_reported":1740697726,"current_range_meters":7200,"station_id":"","pricing_plan_id":"cebpf4jnsgd1na2vs0mg"},{"bike_id":"ea8cb564-d405-42e3-911c-0afdd772ee76","system_id":"levelo_inurba_marseille","lat":43.32769,"lon":5.3919,"is_reserved":false,"is_disabled":false,"rental_uris":{"android":"levelo://app?vid=ea8cb564-d405-42e3-911c-0afdd772ee76","ios":"levelo://app?vid=ea8cb564-d405-42e3-911c-0afdd772ee76"},"vehicle_type_id":"4","last_reported":1740697726,"current_range_meters":7200,"station_id":"","pricing_plan_id":"cebpf4jnsgd1na2vs0mg"},{"bike_id":"e3adc843-e96a-459a-aa22-fea1af7ce873","system_id":"levelo_inurba_marseille","lat":43.27942,"lon":5.41046,"is_reserved":false,"is_disabled":false,"rental_uris":{"android":"levelo://app?vid=e3adc843-e96a-459a-aa22-fea1af7ce873","ios":"levelo://app?vid=e3adc843-e96a-459a-aa22-fea1af7ce873"},"vehicle_type_id":"4","last_reported":1740697726,"current_range_meters":7200,"station_id":"ce4bhnp2rcd13ifvqh0g","pricing_plan_id":"cebpf4jnsgd1na2vs0mg"},{"bike_id":"8ba31a41-541a-4339-863e-1d27a2399440","system_id":"levelo_inurba_marseille","lat":43.28743,"lon":5.3607,"is_reserved":false,"is_disabled":false,"rental_uris":{"android":"levelo://app?vid=8ba31a41-541a-4339-863e-1d27a2399440","ios":"levelo://app?vid=8ba31a41-541a-4339-863e-1d27a2399440"},"vehicle_type_id":"4","last_reported":1740697726,"current_range_meters":7200,"station_id":"cki0cbj6b192h4jlfktg","pricing_plan_id":"cebpf4jnsgd1na2vs0mg"},{"bike_id":"156d43f7-93cf-4af6-9cfe-5571ff46365a","system_id":"levelo_inurba_marseille","lat":43.30767,"lon":5.42829,"is_reserved":false,"is_disabled":false,"rental_uris":{"android":"levelo://app?vid=156d43f7-93cf-4af6-9cfe-5571ff46365a","ios":"levelo://app?vid=156d43f7-93cf-4af6-9cfe-5571ff46365a"},"vehicle_type_id":"4","last_reported":1740697726,"current_range_meters":8000,"station_id":"","pricing_plan_id":"cebpf4jnsgd1na2vs0mg"},{"bike_id":"745c5d38-332d-426b-8e7b-acb525d1c540","system_id":"levelo_inurba_marseille","lat":43.250881,"lon":5.395226,"is_reserved":false,"is_disabled":false,"rental_uris":{"android":"levelo://app?vid=745c5d38-332d-426b-8e7b-acb525d1c540","ios":"levelo://app?vid=745c5d38-332d-426b-8e7b-acb525d1c540"},"vehicle_type_id":"4","last_reported":1740697726,"current_range_meters":8400,"station_id":"ce4bhm12rcd13ifvqgkg","pricing_plan_id":"cebpf4jnsgd1na2vs0mg"},{"bike_id":"cca9eb23-5c2c-40fe-9866-9db09bf838b1","system_id":"levelo_inurba_marseille","lat":43.29219,"lon":5.36071,"is_reserved":false,"is_disabled":false,"rental_uris":{"android":"levelo://app?vid=cca9eb23-5c2c-40fe-9866-9db09bf838b1","ios":"levelo://app?vid=cca9eb23-5c2c-40fe-9866-9db09bf838b1"},"vehicle_type_id":"4","last_reported":1740697726,"current_range_meters":8000,"station_id":"ce4bhbh2rcd13ifvqeqg","pricing_plan_id":"cebpf4jnsgd1na2vs0mg"},{"bike_id":"8c9a3ee7-664d-49c8-a3ea-02dab608b060","system_id":"levelo_inurba_marseille","lat":43.31717,"lon":5.37751,"is_reserved":false,"is_disabled":false,"rental_uris":{"android":"levelo://app?vid=8c9a3ee7-664d-49c8-a3ea-02dab608b060","ios":"levelo://app?vid=8c9a3ee7-664d-49c8-a3ea-02dab608b060"},"vehicle_type_id":"4","last_reported":1740697726,"current_range_meters":8000,"station_id":"ce4bgth2rcd13ifvqch0","pricing_plan_id":"cebpf4jnsgd1na2vs0mg"},{"bike_id":"6ddd3b57-a8ac-48bb-9cf7-9a1f25693e2a","system_id":"levelo_inurba_marseille","lat":43.30334,"lon":5.4044,"is_reserved":false,"is_disabled":false,"rental_uris":{"android":"levelo://app?vid=6ddd3b57-a8ac-48bb-9cf7-9a1f25693e2a","ios":"levelo://app?vid=6ddd3b57-a8ac-48bb-9cf7-9a1f25693e2a"},"vehicle_type_id":"4","last_reported":1740697726,"current_range_meters":14400,"station_id":"ce4bh012rcd13ifvqd10","pricing_plan_id":"cebpf4jnsgd1na2vs0mg"},{"bike_id":"39369c67-b6b1-4351-9f37-e16f04ac94c9","system_id":"levelo_inurba_marseille","lat":43.23186,"lon":5.35555,"is_reserved":false,"is_disabled":false,"rental_uris":{"android":"levelo://app?vid=39369c67-b6b1-4351-9f37-e16f04ac94c9","ios":"levelo://app?vid=39369c67-b6b1-4351-9f37-e16f04ac94c9"},"vehicle_type_id":"4","last_reported":1740697726,"current_range_meters":8000,"station_id":"ce4bhu92rcd13ifvqi70","pricing_plan_id":"cebpf4jnsgd1na2vs0mg"},{"bike_id":"fb04da1c-3fe3-48c7-a751-e2022c7f2a4e","system_id":"levelo_inurba_marseille","lat":43.31149,"lon":5.3831,"is_reserved":false,"is_disabled":false,"rental_uris":{"android":"levelo://app?vid=fb04da1c-3fe3-48c7-a751-e2022c7f2a4e","ios":"levelo://app?vid=fb04da1c-3fe3-48c7-a751-e2022c7f2a4e"},"vehicle_type_id":"4","last_reported":1740697726,"current_range_meters":8400,"station_id":"","pricing_plan_id":"cebpf4jnsgd1na2vs0mg"},{"bike_id":"d9fbfe98-de68-48fc-a6ac-6e6eaeb5062a","system_id":"levelo_inurba_marseille","lat":43.24804,"lon":5.37453,"is_reserved":false,"is_disabled":false,"rental_uris":{"android":"levelo://app?vid=d9fbfe98-de68-48fc-a6ac-6e6eaeb5062a","ios":"levelo://app?vid=d9fbfe98-de68-48fc-a6ac-6e6eaeb5062a"},"vehicle_type_id":"4","last_reported":1740697726,"current_range_meters":8000,"station_id":"ce4bhgh2rcd13ifvqfb0","pricing_plan_id":"cebpf4jnsgd1na2vs0mg"},{"bike_id":"9647918c-d815-4482-8c45-927333bd2450","system_id":"levelo_inurba_marseille","lat":43.27824,"lon":5.40714,"is_reserved":false,"is_disabled":false,"rental_uris":{"android":"levelo://app?vid=9647918c-d815-4482-8c45-927333bd2450","ios":"levelo://app?vid=9647918c-d815-4482-8c45-927333bd2450"},"vehicle_type_id":"4","last_reported":1740697726,"current_range_meters":8000,"station_id":"ce4bhnh2rcd13ifvqgtg","pricing_plan_id":"cebpf4jnsgd1na2vs0mg"},{"bike_id":"cdadd5b7-aa38-42ba-81f9-20f1c304fdfc","system_id":"levelo_inurba_marseille","lat":43.28452,"lon":5.35882,"is_reserved":false,"is_disabled":false,"rental_uris":{"android":"levelo://app?vid=cdadd5b7-aa38-42ba-81f9-20f1c304fdfc","ios":"levelo://app?vid=cdadd5b7-aa38-42ba-81f9-20f1c304fdfc"},"vehicle_type_id":"4","last_reported":1740697726,"current_range_meters":8000,"station_id":"ce4bhah2rcd13ifvqei0","pricing_plan_id":"cebpf4jnsgd1na2vs0mg"},{"bike_id":"21dee236-81fd-4d4e-8f79-66ef06e4d991","system_id":"levelo_inurba_marseille","lat":43.30594,"lon":5.39344,"is_reserved":false,"is_disabled":false,"rental_uris":{"android":"levelo://app?vid=21dee236-81fd-4d4e-8f79-66ef06e4d991","ios":"levelo://app?vid=21dee236-81fd-4d4e-8f79-66ef06e4d991"},"vehicle_type_id":"4","last_reported":1740697726,"current_range_meters":8400,"station_id":"ce4bh0p2rcd13ifvqd80","pricing_plan_id":"cebpf4jnsgd1na2vs0mg"},{"bike_id":"8c666fd4-f386-4ea5-9d00-f90a3a7f8d51","system_id":"levelo_inurba_marseille","lat":43.28463,"lon":5.358823,"is_reserved":false,"is_disabled":false,"rental_uris":{"android":"levelo://app?vid=8c666fd4-f386-4ea5-9d00-f90a3a7f8d51","ios":"levelo://app?vid=8c666fd4-f386-4ea5-9d00-f90a3a7f8d51"},"vehicle_type_id":"4","last_reported":1740697726,"current_range_meters":8400,"station_id":"ce4bhah2rcd13ifvqei0","pricing_plan_id":"cebpf4jnsgd1na2vs0mg"},{"bike_id":"0cc9dc55-eb06-47c6-9257-948d4299a2e0","system_id":"levelo_inurba_marseille","lat":43.24999,"lon":5.38933,"is_reserved":false,"is_disabled":false,"rental_uris":{"android":"levelo://app?vid=0cc9dc55-eb06-47c6-9257-948d4299a2e0","ios":"levelo://app?vid=0cc9dc55-eb06-47c6-9257-948d4299a2e0"},"vehicle_type_id":"4","last_reported":1740697726,"current_range_meters":8400,"station_id":"ce4bhgp2rcd13ifvqfd0","pricing_plan_id":"cebpf4jnsgd1na2vs0mg"},{"bike_id":"039ef6be-b708-42df-a6eb-d41656f1ce53","system_id":"levelo_inurba_marseille","lat":43.25098,"lon":5.40325,"is_reserved":false,"is_disabled":false,"rental_uris":{"android":"levelo://app?vid=039ef6be-b708-42df-a6eb-d41656f1ce53","ios":"levelo://app?vid=039ef6be-b708-42df-a6eb-d41656f1ce53"},"vehicle_type_id":"4","last_reported":1740697726,"current_range_meters":8400,"station_id":"ce4bhlh2rcd13ifvqgig","pricing_plan_id":"cebpf4jnsgd1na2vs0mg"},{"bike_id":"ab41809d-0839-4146-9c11-f9e1d5038ec6","system_id":"levelo_inurba_marseille","lat":43.25574,"lon":5.38254,"is_reserved":false,"is_disabled":false,"rental_uris":{"android":"levelo://app?vid=ab41809d-0839-4146-9c11-f9e1d5038ec6","ios":"levelo://app?vid=ab41809d-0839-4146-9c11-f9e1d5038ec6"},"vehicle_type_id":"4","last_reported":1740697726,"current_range_meters":8400,"station_id":"ce4bhih2rcd13ifvqfs0","pricing_plan_id":"cebpf4jnsgd1na2vs0mg"},{"bike_id":"8c48f52a-a87f-4b10-9bad-48a387153477","system_id":"levelo_inurba_marseille","lat":43.32361,"lon":5.38882,"is_reserved":false,"is_disabled":false,"rental_uris":{"android":"levelo://app?vid=8c48f52a-a87f-4b10-9bad-48a387153477","ios":"levelo://app?vid=8c48f52a-a87f-4b10-9bad-48a387153477"},"vehicle_type_id":"4","last_reported":1740697726,"current_range_meters":8400,"station_id":"ce4bhqp2rcd13ifvqhog","pricing_plan_id":"cebpf4jnsgd1na2vs0mg"},{"bike_id":"c997b30a-bd84-4943-809c-ccf6d5b32c4f","system_id":"levelo_inurba_marseille","lat":43.2762,"lon":5.36116,"is_reserved":false,"is_disabled":false,"rental_uris":{"android":"levelo://app?vid=c997b30a-bd84-4943-809c-ccf6d5b32c4f","ios":"levelo://app?vid=c997b30a-bd84-4943-809c-ccf6d5b32c4f"},"vehicle_type_id":"4","last_reported":1740697726,"current_range_meters":8400,"station_id":"ce4bgj92rcd13ifvqbe0","pricing_plan_id":"cebpf4jnsgd1na2vs0mg"},{"bike_id":"3f0907b3-da2b-41a5-8662-a0489e1a0f25","system_id":"levelo_inurba_marseille","lat":43.321,"lon":5.36763,"is_reserved":false,"is_disabled":false,"rental_uris":{"android":"levelo://app?vid=3f0907b3-da2b-41a5-8662-a0489e1a0f25","ios":"levelo://app?vid=3f0907b3-da2b-41a5-8662-a0489e1a0f25"},"vehicle_type_id":"4","last_reported":1740697726,"current_range_meters":8400,"station_id":"ce4bhrh2rcd13ifvqhug","pricing_plan_id":"cebpf4jnsgd1na2vs0mg"},{"bike_id":"272efc7d-3f8b-435c-a06e-c8bd069b8f82","system_id":"levelo_inurba_marseille","lat":43.27621,"lon":5.36097,"is_reserved":false,"is_disabled":false,"rental_uris":{"android":"levelo://app?vid=272efc7d-3f8b-435c-a06e-c8bd069b8f82","ios":"levelo://app?vid=272efc7d-3f8b-435c-a06e-c8bd069b8f82"},"vehicle_type_id":"4","last_reported":1740697726,"current_range_meters":8800,"station_id":"ce4bgj92rcd13ifvqbe0","pricing_plan_id":"cebpf4jnsgd1na2vs0mg"},{"bike_id":"8d759611-ebae-4f1e-9324-47e399cf8324","system_id":"levelo_inurba_marseille","lat":43.28708,"lon":5.37381,"is_reserved":false,"is_disabled":false,"rental_uris":{"android":"levelo://app?vid=8d759611-ebae-4f1e-9324-47e399cf8324","ios":"levelo://app?vid=8d759611-ebae-4f1e-9324-47e399cf8324"},"vehicle_type_id":"4","last_reported":1740697726,"current_range_meters":8400,"station_id":"ce4bh3p2rcd13ifvqdq0","pricing_plan_id":"cebpf4jnsgd1na2vs0mg"},{"bike_id":"91f909e9-358e-43ed-a45f-822af931a978","system_id":"levelo_inurba_marseille","lat":43.23212,"lon":5.40367,"is_reserved":false,"is_disabled":false,"rental_uris":{"android":"levelo://app?vid=91f909e9-358e-43ed-a45f-822af931a978","ios":"levelo://app?vid=91f909e9-358e-43ed-a45f-822af931a978"},"vehicle_type_id":"4","last_reported":1740697726,"current_range_meters":8400,"station_id":"","pricing_plan_id":"cebpf4jnsgd1na2vs0mg"},{"bike_id":"5e0e22b0-e973-48d0-8bed-a771273f721a","system_id":"levelo_inurba_marseille","lat":43.27373,"lon":5.36251,"is_reserved":false,"is_disabled":false,"rental_uris":{"android":"levelo://app?vid=5e0e22b0-e973-48d0-8bed-a771273f721a","ios":"levelo://app?vid=5e0e22b0-e973-48d0-8bed-a771273f721a"},"vehicle_type_id":"4","last_reported":1740697726,"current_range_meters":9200,"station_id":"ce4bhbh2rcd13ifvqeo0","pricing_plan_id":"cebpf4jnsgd1na2vs0mg"},{"bike_id":"03ecd382-3850-4874-86ef-0467a1a8c988","system_id":"levelo_inurba_marseille","lat":43.24173,"lon":5.39715,"is_reserved":false,"is_disabled":true,"rental_uris":{"android":"levelo://app?vid=03ecd382-3850-4874-86ef-0467a1a8c988","ios":"levelo://app?vid=03ecd382-3850-4874-86ef-0467a1a8c988"},"vehicle_type_id":"4","last_reported":1740697726,"current_range_meters":9200,"station_id":"ce4bhn12rcd13ifvqgpg","pricing_plan_id":"cebpf4jnsgd1na2vs0mg"},{"bike_id":"ea3487ed-d7b8-4023-bb22-d2dd44155fb1","system_id":"levelo_inurba_marseille","lat":43.28372,"lon":5.38103,"is_reserved":false,"is_disabled":false,"rental_uris":{"android":"levelo://app?vid=ea3487ed-d7b8-4023-bb22-d2dd44155fb1","ios":"levelo://app?vid=ea3487ed-d7b8-4023-bb22-d2dd44155fb1"},"vehicle_type_id":"4","last_reported":1740697726,"current_range_meters":8800,"station_id":"ce4bh412rcd13ifvqdr0","pricing_plan_id":"cebpf4jnsgd1na2vs0mg"},{"bike_id":"38c79992-9d7b-4253-801d-21731130e0e1","system_id":"levelo_inurba_marseille","lat":43.28081,"lon":5.39677,"is_reserved":false,"is_disabled":false,"rental_uris":{"android":"levelo://app?vid=38c79992-9d7b-4253-801d-21731130e0e1","ios":"levelo://app?vid=38c79992-9d7b-4253-801d-21731130e0e1"},"vehicle_type_id":"4","last_reported":1740697726,"current_range_meters":8800,"station_id":"ce4bho12rcd13ifvqh2g","pricing_plan_id":"cebpf4jnsgd1na2vs0mg"},{"bike_id":"27d8afbe-40d9-4464-a964-dcde203d2cc3","system_id":"levelo_inurba_marseille","lat":43.28415,"lon":5.3751,"is_reserved":false,"is_disabled":false,"rental_uris":{"android":"levelo://app?vid=27d8afbe-40d9-4464-a964-dcde203d2cc3","ios":"levelo://app?vid=27d8afbe-40d9-4464-a964-dcde203d2cc3"},"vehicle_type_id":"4","last_reported":1740697726,"current_range_meters":8800,"station_id":"ce4bh412rcd13ifvqds0","pricing_plan_id":"cebpf4jnsgd1na2vs0mg"},{"bike_id":"c6b23046-3dbb-4c24-b439-362e9ad2c23a","system_id":"levelo_inurba_marseille","lat":43.24991,"lon":5.38913,"is_reserved":false,"is_disabled":false,"rental_uris":{"android":"levelo://app?vid=c6b23046-3dbb-4c24-b439-362e9ad2c23a","ios":"levelo://app?vid=c6b23046-3dbb-4c24-b439-362e9ad2c23a"},"vehicle_type_id":"4","last_reported":1740697726,"current_range_meters":8800,"station_id":"ce4bhgp2rcd13ifvqfd0","pricing_plan_id":"cebpf4jnsgd1na2vs0mg"},{"bike_id":"4ce26a99-af03-483d-b48c-23c47fea208e","system_id":"levelo_inurba_marseille","lat":43.2884,"lon":5.35836,"is_reserved":false,"is_disabled":false,"rental_uris":{"android":"levelo://app?vid=4ce26a99-af03-483d-b48c-23c47fea208e","ios":"levelo://app?vid=4ce26a99-af03-483d-b48c-23c47fea208e"},"vehicle_type_id":"4","last_reported":1740697726,"current_range_meters":8800,"station_id":"ce4bhb12rcd13ifvqem0","pricing_plan_id":"cebpf4jnsgd1na2vs0mg"},{"bike_id":"74d4a88d-ad3a-4128-a926-23a749e3d79b","system_id":"levelo_inurba_marseille","lat":43.23189,"lon":5.35557,"is_reserved":false,"is_disabled":false,"rental_uris":{"android":"levelo://app?vid=74d4a88d-ad3a-4128-a926-23a749e3d79b","ios":"levelo://app?vid=74d4a88d-ad3a-4128-a926-23a749e3d79b"},"vehicle_type_id":"4","last_reported":1740697726,"current_range_meters":9200,"station_id":"ce4bhu92rcd13ifvqi70","pricing_plan_id":"cebpf4jnsgd1na2vs0mg"},{"bike_id":"3235f640-0bf8-4aae-846e-071e7d3ea1b9","system_id":"levelo_inurba_marseille","lat":43.29081,"lon":5.37161,"is_reserved":false,"is_disabled":false,"rental_uris":{"android":"levelo://app?vid=3235f640-0bf8-4aae-846e-071e7d3ea1b9","ios":"levelo://app?vid=3235f640-0bf8-4aae-846e-071e7d3ea1b9"},"vehicle_type_id":"4","last_reported":1740697726,"current_range_meters":4800,"station_id":"ce4bh5p2rcd13ifvqe4g","pricing_plan_id":"cebpf4jnsgd1na2vs0mg"},{"bike_id":"09a1e742-3b90-459c-b1c5-6b5cd8006c89","system_id":"levelo_inurba_marseille","lat":43.2558,"lon":5.38228,"is_reserved":false,"is_disabled":false,"rental_uris":{"android":"levelo://app?vid=09a1e742-3b90-459c-b1c5-6b5cd8006c89","ios":"levelo://app?vid=09a1e742-3b90-459c-b1c5-6b5cd8006c89"},"vehicle_type_id":"4","last_reported":1740697726,"current_range_meters":14400,"station_id":"ce4bhih2rcd13ifvqfs0","pricing_plan_id":"cebpf4jnsgd1na2vs0mg"},{"bike_id":"ea1ae099-0cdb-45d1-bb30-a324d3bc542a","system_id":"levelo_inurba_marseille","lat":43.32358,"lon":5.36743,"is_reserved":false,"is_disabled":false,"rental_uris":{"android":"levelo://app?vid=ea1ae099-0cdb-45d1-bb30-a324d3bc542a","ios":"levelo://app?vid=ea1ae099-0cdb-45d1-bb30-a324d3bc542a"},"vehicle_type_id":"4","last_reported":1740697726,"current_range_meters":9200,"station_id":"ce4bhsh2rcd13ifvqi2g","pricing_plan_id":"cebpf4jnsgd1na2vs0mg"},{"bike_id":"e4127e72-139a-478c-bc8d-43f39e537533","system_id":"levelo_inurba_marseille","lat":43.29708,"lon":5.36615,"is_reserved":false,"is_disabled":false,"rental_uris":{"android":"levelo://app?vid=e4127e72-139a-478c-bc8d-43f39e537533","ios":"levelo://app?vid=e4127e72-139a-478c-bc8d-43f39e537533"},"vehicle_type_id":"4","last_reported":1740697726,"current_range_meters":9200,"station_id":"ce4bgn12rcd13ifvqbt0","pricing_plan_id":"cebpf4jnsgd1na2vs0mg"},{"bike_id":"54d46a8b-8314-471a-98f9-6d86686fc605","system_id":"levelo_inurba_marseille","lat":43.2582,"lon":5.39428,"is_reserved":false,"is_disabled":false,"rental_uris":{"android":"levelo://app?vid=54d46a8b-8314-471a-98f9-6d86686fc605","ios":"levelo://app?vid=54d46a8b-8314-471a-98f9-6d86686fc605"},"vehicle_type_id":"4","last_reported":1740697726,"current_range_meters":9200,"station_id":"ce4bhip2rcd13ifvqft0","pricing_plan_id":"cebpf4jnsgd1na2vs0mg"},{"bike_id":"5cdf1157-258e-4dbe-9eac-97f9742be378","system_id":"levelo_inurba_marseille","lat":43.27371,"lon":5.36255,"is_reserved":false,"is_disabled":false,"rental_uris":{"android":"levelo://app?vid=5cdf1157-258e-4dbe-9eac-97f9742be378","ios":"levelo://app?vid=5cdf1157-258e-4dbe-9eac-97f9742be378"},"vehicle_type_id":"4","last_reported":1740697726,"current_range_meters":10000,"station_id":"ce4bhbh2rcd13ifvqeo0","pricing_plan_id":"cebpf4jnsgd1na2vs0mg"},{"bike_id":"1181ce1e-a248-40b0-9ad6-bb150270a904","system_id":"levelo_inurba_marseille","lat":43.31861,"lon":5.37634,"is_reserved":false,"is_disabled":false,"rental_uris":{"android":"levelo://app?vid=1181ce1e-a248-40b0-9ad6-bb150270a904","ios":"levelo://app?vid=1181ce1e-a248-40b0-9ad6-bb150270a904"},"vehicle_type_id":"4","last_reported":1740697726,"current_range_meters":9600,"station_id":"","pricing_plan_id":"cebpf4jnsgd1na2vs0mg"},{"bike_id":"f253ad35-7fb0-4c23-aeac-ca19d1eef71b","system_id":"levelo_inurba_marseille","lat":43.31358,"lon":5.38499,"is_reserved":false,"is_disabled":false,"rental_uris":{"android":"levelo://app?vid=f253ad35-7fb0-4c23-aeac-ca19d1eef71b","ios":"levelo://app?vid=f253ad35-7fb0-4c23-aeac-ca19d1eef71b"},"vehicle_type_id":"4","last_reported":1740697726,"current_range_meters":9600,"station_id":"ce4bgt92rcd13ifvqcf0","pricing_plan_id":"cebpf4jnsgd1na2vs0mg"},{"bike_id":"d8994050-39f7-4aaa-af77-5e87c12121df","system_id":"levelo_inurba_marseille","lat":43.29004,"lon":5.35626,"is_reserved":false,"is_disabled":false,"rental_uris":{"android":"levelo://app?vid=d8994050-39f7-4aaa-af77-5e87c12121df","ios":"levelo://app?vid=d8994050-39f7-4aaa-af77-5e87c12121df"},"vehicle_type_id":"4","last_reported":1740697726,"current_range_meters":9600,"station_id":"ce4bhb92rcd13ifvqen0","pricing_plan_id":"cebpf4jnsgd1na2vs0mg"},{"bike_id":"c9450bb1-7080-428b-bbf9-1bb463818f4d","system_id":"levelo_inurba_marseille","lat":43.27617,"lon":5.361,"is_reserved":false,"is_disabled":true,"rental_uris":{"android":"levelo://app?vid=c9450bb1-7080-428b-bbf9-1bb463818f4d","ios":"levelo://app?vid=c9450bb1-7080-428b-bbf9-1bb463818f4d"},"vehicle_type_id":"4","last_reported":1740697726,"current_range_meters":9600,"station_id":"ce4bgj92rcd13ifvqbe0","pricing_plan_id":"cebpf4jnsgd1na2vs0mg"},{"bike_id":"0684c9b8-68d1-4121-82b2-00c0eebe64db","system_id":"levelo_inurba_marseille","lat":43.2794,"lon":5.41046,"is_reserved":false,"is_disabled":false,"rental_uris":{"android":"levelo://app?vid=0684c9b8-68d1-4121-82b2-00c0eebe64db","ios":"levelo://app?vid=0684c9b8-68d1-4121-82b2-00c0eebe64db"},"vehicle_type_id":"4","last_reported":1740697726,"current_range_meters":9600,"station_id":"ce4bhnp2rcd13ifvqh0g","pricing_plan_id":"cebpf4jnsgd1na2vs0mg"},{"bike_id":"81d1f3fd-b63b-4802-8feb-38f9ea843894","system_id":"levelo_inurba_marseille","lat":43.279211,"lon":5.425757,"is_reserved":false,"is_disabled":false,"rental_uris":{"android":"levelo://app?vid=81d1f3fd-b63b-4802-8feb-38f9ea843894","ios":"levelo://app?vid=81d1f3fd-b63b-4802-8feb-38f9ea843894"},"vehicle_type_id":"4","last_reported":1740697726,"current_range_meters":9200,"station_id":"ce4bhn92rcd13ifvqgrg","pricing_plan_id":"cebpf4jnsgd1na2vs0mg"},{"bike_id":"2f218cd9-6dc2-4509-acc5-b6e8dd4cef8b","system_id":"levelo_inurba_marseille","lat":43.28457,"lon":5.35898,"is_reserved":false,"is_disabled":false,"rental_uris":{"android":"levelo://app?vid=2f218cd9-6dc2-4509-acc5-b6e8dd4cef8b","ios":"levelo://app?vid=2f218cd9-6dc2-4509-acc5-b6e8dd4cef8b"},"vehicle_type_id":"4","last_reported":1740697726,"current_range_meters":10000,"station_id":"ce4bhah2rcd13ifvqei0","pricing_plan_id":"cebpf4jnsgd1na2vs0mg"},{"bike_id":"17209f80-451e-4586-b620-381cc150687e","system_id":"levelo_inurba_marseille","lat":43.29862,"lon":5.38934,"is_reserved":false,"is_disabled":false,"rental_uris":{"android":"levelo://app?vid=17209f80-451e-4586-b620-381cc150687e","ios":"levelo://app?vid=17209f80-451e-4586-b620-381cc150687e"},"vehicle_type_id":"4","last_reported":1740697726,"current_range_meters":10000,"station_id":"ce4bh392rcd13ifvqdl0","pricing_plan_id":"cebpf4jnsgd1na2vs0mg"},{"bike_id":"83100333-e221-4abb-8bc0-3b6dd416a491","system_id":"levelo_inurba_marseille","lat":43.25079,"lon":5.39511,"is_reserved":false,"is_disabled":false,"rental_uris":{"android":"levelo://app?vid=83100333-e221-4abb-8bc0-3b6dd416a491","ios":"levelo://app?vid=83100333-e221-4abb-8bc0-3b6dd416a491"},"vehicle_type_id":"4","last_reported":1740697726,"current_range_meters":10000,"station_id":"ce4bhm12rcd13ifvqgkg","pricing_plan_id":"cebpf4jnsgd1na2vs0mg"},{"bike_id":"9c16f73b-d883-4318-9d54-d8eb1fe44c91","system_id":"levelo_inurba_marseille","lat":43.27807,"lon":5.40727,"is_reserved":false,"is_disabled":false,"rental_uris":{"android":"levelo://app?vid=9c16f73b-d883-4318-9d54-d8eb1fe44c91","ios":"levelo://app?vid=9c16f73b-d883-4318-9d54-d8eb1fe44c91"},"vehicle_type_id":"4","last_reported":1740697726,"current_range_meters":10000,"station_id":"ce4bhnh2rcd13ifvqgtg","pricing_plan_id":"cebpf4jnsgd1na2vs0mg"},{"bike_id":"e1839438-5cc9-49f1-938d-6270b07fb94a","system_id":"levelo_inurba_marseille","lat":43.28449,"lon":5.35884,"is_reserved":false,"is_disabled":false,"rental_uris":{"android":"levelo://app?vid=e1839438-5cc9-49f1-938d-6270b07fb94a","ios":"levelo://app?vid=e1839438-5cc9-49f1-938d-6270b07fb94a"},"vehicle_type_id":"4","last_reported":1740697726,"current_range_meters":14000,"station_id":"ce4bhah2rcd13ifvqei0","pricing_plan_id":"cebpf4jnsgd1na2vs0mg"},{"bike_id":"eae9f6fe-b943-4452-9f29-bf696f5c4ed4","system_id":"levelo_inurba_marseille","lat":43.31079,"lon":5.38355,"is_reserved":false,"is_disabled":false,"rental_uris":{"android":"levelo://app?vid=eae9f6fe-b943-4452-9f29-bf696f5c4ed4","ios":"levelo://app?vid=eae9f6fe-b943-4452-9f29-bf696f5c4ed4"},"vehicle_type_id":"4","last_reported":1740697726,"current_range_meters":10000,"station_id":"ce4bgv92rcd13ifvqcr0","pricing_plan_id":"cebpf4jnsgd1na2vs0mg"},{"bike_id":"2d713e86-84c1-414d-8586-0104afd3a051","system_id":"levelo_inurba_marseille","lat":43.264943,"lon":5.395403,"is_reserved":false,"is_disabled":true,"rental_uris":{"android":"levelo://app?vid=2d713e86-84c1-414d-8586-0104afd3a051","ios":"levelo://app?vid=2d713e86-84c1-414d-8586-0104afd3a051"},"vehicle_type_id":"4","last_reported":1740697726,"current_range_meters":10800,"station_id":"ce4bhi12rcd13ifvqfq0","pricing_plan_id":"cebpf4jnsgd1na2vs0mg"},{"bike_id":"e0036d1f-51ac-4c4a-ba4e-96d412b945c0","system_id":"levelo_inurba_marseille","lat":43.2803,"lon":5.36935,"is_reserved":false,"is_disabled":false,"rental_uris":{"android":"levelo://app?vid=e0036d1f-51ac-4c4a-ba4e-96d412b945c0","ios":"levelo://app?vid=e0036d1f-51ac-4c4a-ba4e-96d412b945c0"},"vehicle_type_id":"4","last_reported":1740697726,"current_range_meters":10000,"station_id":"ce4bha12rcd13ifvqef0","pricing_plan_id":"cebpf4jnsgd1na2vs0mg"},{"bike_id":"42b3a08a-26d9-4763-bcc4-8ee9e75a45c4","system_id":"levelo_inurba_marseille","lat":43.2894,"lon":5.36639,"is_reserved":false,"is_disabled":false,"rental_uris":{"android":"levelo://app?vid=42b3a08a-26d9-4763-bcc4-8ee9e75a45c4","ios":"levelo://app?vid=42b3a08a-26d9-4763-bcc4-8ee9e75a45c4"},"vehicle_type_id":"4","last_reported":1740697726,"current_range_meters":10000,"station_id":"ce4bhap2rcd13ifvqek0","pricing_plan_id":"cebpf4jnsgd1na2vs0mg"},{"bike_id":"907b990b-0a8a-4924-acec-37622f347ce1","system_id":"levelo_inurba_marseille","lat":43.28621,"lon":5.351,"is_reserved":false,"is_disabled":false,"rental_uris":{"android":"levelo://app?vid=907b990b-0a8a-4924-acec-37622f347ce1","ios":"levelo://app?vid=907b990b-0a8a-4924-acec-37622f347ce1"},"vehicle_type_id":"4","last_reported":1740697726,"current_range_meters":10800,"station_id":"ce4bhch2rcd13ifvqeug","pricing_plan_id":"cebpf4jnsgd1na2vs0mg"},{"bike_id":"ab3ae644-bc74-4779-9d00-afaab1721981","system_id":"levelo_inurba_marseille","lat":43.26201,"lon":5.37937,"is_reserved":false,"is_disabled":false,"rental_uris":{"android":"levelo://app?vid=ab3ae644-bc74-4779-9d00-afaab1721981","ios":"levelo://app?vid=ab3ae644-bc74-4779-9d00-afaab1721981"},"vehicle_type_id":"4","last_reported":1740697726,"current_range_meters":10000,"station_id":"ce4bhjp2rcd13ifvqg90","pricing_plan_id":"cebpf4jnsgd1na2vs0mg"},{"bike_id":"eea25fa1-2db0-4cb4-901f-2535ea4c664c","system_id":"levelo_inurba_marseille","lat":43.30323,"lon":5.40433,"is_reserved":false,"is_disabled":false,"rental_uris":{"android":"levelo://app?vid=eea25fa1-2db0-4cb4-901f-2535ea4c664c","ios":"levelo://app?vid=eea25fa1-2db0-4cb4-901f-2535ea4c664c"},"vehicle_type_id":"4","last_reported":1740697726,"current_range_meters":10800,"station_id":"ce4bh012rcd13ifvqd10","pricing_plan_id":"cebpf4jnsgd1na2vs0mg"},{"bike_id":"3d40c7de-ae33-4f47-a9ec-ad6761202c40","system_id":"levelo_inurba_marseille","lat":43.28417,"lon":5.37598,"is_reserved":false,"is_disabled":false,"rental_uris":{"android":"levelo://app?vid=3d40c7de-ae33-4f47-a9ec-ad6761202c40","ios":"levelo://app?vid=3d40c7de-ae33-4f47-a9ec-ad6761202c40"},"vehicle_type_id":"4","last_reported":1740697726,"current_range_meters":10800,"station_id":"","pricing_plan_id":"cebpf4jnsgd1na2vs0mg"},{"bike_id":"026e178e-412a-49e0-9772-e5f6d0abaab4","system_id":"levelo_inurba_marseille","lat":43.30879,"lon":5.37081,"is_reserved":false,"is_disabled":false,"rental_uris":{"android":"levelo://app?vid=026e178e-412a-49e0-9772-e5f6d0abaab4","ios":"levelo://app?vid=026e178e-412a-49e0-9772-e5f6d0abaab4"},"vehicle_type_id":"4","last_reported":1740697726,"current_range_meters":10800,"station_id":"","pricing_plan_id":"cebpf4jnsgd1na2vs0mg"},{"bike_id":"775ab57b-d806-42e1-9b00-af803dfd7427","system_id":"levelo_inurba_marseille","lat":43.29927,"lon":5.36545,"is_reserved":false,"is_disabled":false,"rental_uris":{"android":"levelo://app?vid=775ab57b-d806-42e1-9b00-af803dfd7427","ios":"levelo://app?vid=775ab57b-d806-42e1-9b00-af803dfd7427"},"vehicle_type_id":"4","last_reported":1740697726,"current_range_meters":10800,"station_id":"ce4bgm92rcd13ifvqbr0","pricing_plan_id":"cebpf4jnsgd1na2vs0mg"},{"bike_id":"7de8066b-1c87-4190-8fd2-555f7014d460","system_id":"levelo_inurba_marseille","lat":43.28845,"lon":5.35843,"is_reserved":false,"is_disabled":false,"rental_uris":{"android":"levelo://app?vid=7de8066b-1c87-4190-8fd2-555f7014d460","ios":"levelo://app?vid=7de8066b-1c87-4190-8fd2-555f7014d460"},"vehicle_type_id":"4","last_reported":1740697726,"current_range_meters":10800,"station_id":"ce4bhb12rcd13ifvqem0","pricing_plan_id":"cebpf4jnsgd1na2vs0mg"},{"bike_id":"443370dd-f8b8-457a-b6f8-389b804ff6fc","system_id":"levelo_inurba_marseille","lat":43.32364,"lon":5.38891,"is_reserved":false,"is_disabled":false,"rental_uris":{"android":"levelo://app?vid=443370dd-f8b8-457a-b6f8-389b804ff6fc","ios":"levelo://app?vid=443370dd-f8b8-457a-b6f8-389b804ff6fc"},"vehicle_type_id":"4","last_reported":1740697726,"current_range_meters":11200,"station_id":"ce4bhqp2rcd13ifvqhog","pricing_plan_id":"cebpf4jnsgd1na2vs0mg"},{"bike_id":"9ad5b63c-3414-4ea4-baac-7d4b6cddc47a","system_id":"levelo_inurba_marseille","lat":43.29062,"lon":5.37132,"is_reserved":false,"is_disabled":false,"rental_uris":{"android":"levelo://app?vid=9ad5b63c-3414-4ea4-baac-7d4b6cddc47a","ios":"levelo://app?vid=9ad5b63c-3414-4ea4-baac-7d4b6cddc47a"},"vehicle_type_id":"4","last_reported":1740697726,"current_range_meters":10800,"station_id":"ce4bh5p2rcd13ifvqe4g","pricing_plan_id":"cebpf4jnsgd1na2vs0mg"},{"bike_id":"f6f902af-fba5-44b7-a85a-99cecf4804b7","system_id":"levelo_inurba_marseille","lat":43.29279,"lon":5.40111,"is_reserved":false,"is_disabled":false,"rental_uris":{"android":"levelo://app?vid=f6f902af-fba5-44b7-a85a-99cecf4804b7","ios":"levelo://app?vid=f6f902af-fba5-44b7-a85a-99cecf4804b7"},"vehicle_type_id":"4","last_reported":1740697726,"current_range_meters":10800,"station_id":"ce4bh312rcd13ifvqdk0","pricing_plan_id":"cebpf4jnsgd1na2vs0mg"},{"bike_id":"a7a49217-b3d4-4933-8273-9dda3c403bf1","system_id":"levelo_inurba_marseille","lat":43.3161,"lon":5.39604,"is_reserved":false,"is_disabled":false,"rental_uris":{"android":"levelo://app?vid=a7a49217-b3d4-4933-8273-9dda3c403bf1","ios":"levelo://app?vid=a7a49217-b3d4-4933-8273-9dda3c403bf1"},"vehicle_type_id":"4","last_reported":1740697726,"current_range_meters":10800,"station_id":"","pricing_plan_id":"cebpf4jnsgd1na2vs0mg"},{"bike_id":"fac65774-dadd-4c56-a405-fae0993686a7","system_id":"levelo_inurba_marseille","lat":43.29783,"lon":5.39363,"is_reserved":false,"is_disabled":false,"rental_uris":{"android":"levelo://app?vid=fac65774-dadd-4c56-a405-fae0993686a7","ios":"levelo://app?vid=fac65774-dadd-4c56-a405-fae0993686a7"},"vehicle_type_id":"4","last_reported":1740697726,"current_range_meters":10800,"station_id":"chh1huq6cuj3fo74tm60","pricing_plan_id":"cebpf4jnsgd1na2vs0mg"},{"bike_id":"6c0b7b1f-ef9a-4339-93f0-b8fe9fec01c8","system_id":"levelo_inurba_marseille","lat":43.299177,"lon":5.381462,"is_reserved":false,"is_disabled":false,"rental_uris":{"android":"levelo://app?vid=6c0b7b1f-ef9a-4339-93f0-b8fe9fec01c8","ios":"levelo://app?vid=6c0b7b1f-ef9a-4339-93f0-b8fe9fec01c8"},"vehicle_type_id":"4","last_reported":1740697726,"current_range_meters":6800,"station_id":"ce4bhq92rcd13ifvqhkg","pricing_plan_id":"cebpf4jnsgd1na2vs0mg"},{"bike_id":"d5993554-0cf9-4011-b623-59aa562e81b3","system_id":"levelo_inurba_marseille","lat":43.281028,"lon":5.378502,"is_reserved":false,"is_disabled":false,"rental_uris":{"android":"levelo://app?vid=d5993554-0cf9-4011-b623-59aa562e81b3","ios":"levelo://app?vid=d5993554-0cf9-4011-b623-59aa562e81b3"},"vehicle_type_id":"4","last_reported":1740697726,"current_range_meters":11600,"station_id":"ce4bha12rcd13ifvqee0","pricing_plan_id":"cebpf4jnsgd1na2vs0mg"},{"bike_id":"f84d7596-4c47-4c18-a4f9-ba218eafea6d","system_id":"levelo_inurba_marseille","lat":43.28386,"lon":5.37521,"is_reserved":false,"is_disabled":false,"rental_uris":{"android":"levelo://app?vid=f84d7596-4c47-4c18-a4f9-ba218eafea6d","ios":"levelo://app?vid=f84d7596-4c47-4c18-a4f9-ba218eafea6d"},"vehicle_type_id":"4","last_reported":1740697726,"current_range_meters":11200,"station_id":"ce4bh412rcd13ifvqds0","pricing_plan_id":"cebpf4jnsgd1na2vs0mg"},{"bike_id":"e89404bc-b67d-4aa0-b5b9-0d5adc52fc30","system_id":"levelo_inurba_marseille","lat":43.28624,"lon":5.35084,"is_reserved":false,"is_disabled":false,"rental_uris":{"android":"levelo://app?vid=e89404bc-b67d-4aa0-b5b9-0d5adc52fc30","ios":"levelo://app?vid=e89404bc-b67d-4aa0-b5b9-0d5adc52fc30"},"vehicle_type_id":"4","last_reported":1740697726,"current_range_meters":11200,"station_id":"ce4bhch2rcd13ifvqeug","pricing_plan_id":"cebpf4jnsgd1na2vs0mg"},{"bike_id":"a88e9d61-7e15-4bbe-ab9c-aba0a66dcc50","system_id":"levelo_inurba_marseille","lat":43.24813,"lon":5.37454,"is_reserved":false,"is_disabled":false,"rental_uris":{"android":"levelo://app?vid=a88e9d61-7e15-4bbe-ab9c-aba0a66dcc50","ios":"levelo://app?vid=a88e9d61-7e15-4bbe-ab9c-aba0a66dcc50"},"vehicle_type_id":"4","last_reported":1740697726,"current_range_meters":11200,"station_id":"ce4bhgh2rcd13ifvqfb0","pricing_plan_id":"cebpf4jnsgd1na2vs0mg"},{"bike_id":"45bcdd61-a600-4686-95d9-f2003a49bdbc","system_id":"levelo_inurba_marseille","lat":43.299421,"lon":5.365543,"is_reserved":false,"is_disabled":false,"rental_uris":{"android":"levelo://app?vid=45bcdd61-a600-4686-95d9-f2003a49bdbc","ios":"levelo://app?vid=45bcdd61-a600-4686-95d9-f2003a49bdbc"},"vehicle_type_id":"4","last_reported":1740697726,"current_range_meters":11600,"station_id":"ce4bgm92rcd13ifvqbr0","pricing_plan_id":"cebpf4jnsgd1na2vs0mg"},{"bike_id":"4e2e11f8-e9a3-4f3a-9372-23488c564b9c","system_id":"levelo_inurba_marseille","lat":43.28438,"lon":5.35899,"is_reserved":false,"is_disabled":false,"rental_uris":{"android":"levelo://app?vid=4e2e11f8-e9a3-4f3a-9372-23488c564b9c","ios":"levelo://app?vid=4e2e11f8-e9a3-4f3a-9372-23488c564b9c"},"vehicle_type_id":"4","last_reported":1740697726,"current_range_meters":12000,"station_id":"ce4bhah2rcd13ifvqei0","pricing_plan_id":"cebpf4jnsgd1na2vs0mg"},{"bike_id":"7470ebdf-96fe-4da7-b039-5ca23f630bc0","system_id":"levelo_inurba_marseille","lat":43.31744,"lon":5.39027,"is_reserved":false,"is_disabled":false,"rental_uris":{"android":"levelo://app?vid=7470ebdf-96fe-4da7-b039-5ca23f630bc0","ios":"levelo://app?vid=7470ebdf-96fe-4da7-b039-5ca23f630bc0"},"vehicle_type_id":"4","last_reported":1740697726,"current_range_meters":12000,"station_id":"ce4bhqp2rcd13ifvqhng","pricing_plan_id":"cebpf4jnsgd1na2vs0mg"},{"bike_id":"3b6dd1b5-e623-4810-88e8-770e0e1da2ae","system_id":"levelo_inurba_marseille","lat":43.28931,"lon":5.36404,"is_reserved":false,"is_disabled":false,"rental_uris":{"android":"levelo://app?vid=3b6dd1b5-e623-4810-88e8-770e0e1da2ae","ios":"levelo://app?vid=3b6dd1b5-e623-4810-88e8-770e0e1da2ae"},"vehicle_type_id":"4","last_reported":1740697726,"current_range_meters":12800,"station_id":"ce4bhc92rcd13ifvqetg","pricing_plan_id":"cebpf4jnsgd1na2vs0mg"},{"bike_id":"7e39a11b-8f65-41f7-8757-965e69193dbe","system_id":"levelo_inurba_marseille","lat":43.29564,"lon":5.39987,"is_reserved":false,"is_disabled":false,"rental_uris":{"android":"levelo://app?vid=7e39a11b-8f65-41f7-8757-965e69193dbe","ios":"levelo://app?vid=7e39a11b-8f65-41f7-8757-965e69193dbe"},"vehicle_type_id":"4","last_reported":1740697726,"current_range_meters":11600,"station_id":"ce4bh312rcd13ifvqdj0","pricing_plan_id":"cebpf4jnsgd1na2vs0mg"},{"bike_id":"409a385b-f084-4a05-a438-87b0c694f773","system_id":"levelo_inurba_marseille","lat":43.31314,"lon":5.397,"is_reserved":false,"is_disabled":false,"rental_uris":{"android":"levelo://app?vid=409a385b-f084-4a05-a438-87b0c694f773","ios":"levelo://app?vid=409a385b-f084-4a05-a438-87b0c694f773"},"vehicle_type_id":"4","last_reported":1740697726,"current_range_meters":11600,"station_id":"ce4bgvp2rcd13ifvqcu0","pricing_plan_id":"cebpf4jnsgd1na2vs0mg"},{"bike_id":"3de9aeda-1f9a-4bbc-8b90-e02a49e56ca9","system_id":"levelo_inurba_marseille","lat":43.23187,"lon":5.35551,"is_reserved":false,"is_disabled":false,"rental_uris":{"android":"levelo://app?vid=3de9aeda-1f9a-4bbc-8b90-e02a49e56ca9","ios":"levelo://app?vid=3de9aeda-1f9a-4bbc-8b90-e02a49e56ca9"},"vehicle_type_id":"4","last_reported":1740697726,"current_range_meters":11600,"station_id":"ce4bhu92rcd13ifvqi70","pricing_plan_id":"cebpf4jnsgd1na2vs0mg"},{"bike_id":"a2054610-d60d-4315-837e-890e035cf8ca","system_id":"levelo_inurba_marseille","lat":43.2987,"lon":5.38916,"is_reserved":false,"is_disabled":false,"rental_uris":{"android":"levelo://app?vid=a2054610-d60d-4315-837e-890e035cf8ca","ios":"levelo://app?vid=a2054610-d60d-4315-837e-890e035cf8ca"},"vehicle_type_id":"4","last_reported":1740697726,"current_range_meters":12000,"station_id":"ce4bh392rcd13ifvqdl0","pricing_plan_id":"cebpf4jnsgd1na2vs0mg"},{"bike_id":"1393e48a-5096-48c2-8ef4-ef737b7b43ae","system_id":"levelo_inurba_marseille","lat":43.25077,"lon":5.39536,"is_reserved":false,"is_disabled":false,"rental_uris":{"android":"levelo://app?vid=1393e48a-5096-48c2-8ef4-ef737b7b43ae","ios":"levelo://app?vid=1393e48a-5096-48c2-8ef4-ef737b7b43ae"},"vehicle_type_id":"4","last_reported":1740697726,"current_range_meters":12000,"station_id":"ce4bhm12rcd13ifvqgkg","pricing_plan_id":"cebpf4jnsgd1na2vs0mg"},{"bike_id":"430b8c8b-9ffb-4b03-929c-7b5604171a6d","system_id":"levelo_inurba_marseille","lat":43.2782,"lon":5.4074,"is_reserved":false,"is_disabled":false,"rental_uris":{"android":"levelo://app?vid=430b8c8b-9ffb-4b03-929c-7b5604171a6d","ios":"levelo://app?vid=430b8c8b-9ffb-4b03-929c-7b5604171a6d"},"vehicle_type_id":"4","last_reported":1740697726,"current_range_meters":12000,"station_id":"ce4bhnh2rcd13ifvqgtg","pricing_plan_id":"cebpf4jnsgd1na2vs0mg"},{"bike_id":"6f28d17e-fa28-4cd3-91a2-81abc0f7ea2a","system_id":"levelo_inurba_marseille","lat":43.28443,"lon":5.35872,"is_reserved":false,"is_disabled":false,"rental_uris":{"android":"levelo://app?vid=6f28d17e-fa28-4cd3-91a2-81abc0f7ea2a","ios":"levelo://app?vid=6f28d17e-fa28-4cd3-91a2-81abc0f7ea2a"},"vehicle_type_id":"4","last_reported":1740697726,"current_range_meters":12000,"station_id":"ce4bhah2rcd13ifvqei0","pricing_plan_id":"cebpf4jnsgd1na2vs0mg"},{"bike_id":"646237b3-6009-4be9-8f00-e87434ea9fa4","system_id":"levelo_inurba_marseille","lat":43.24061,"lon":5.37773,"is_reserved":false,"is_disabled":false,"rental_uris":{"android":"levelo://app?vid=646237b3-6009-4be9-8f00-e87434ea9fa4","ios":"levelo://app?vid=646237b3-6009-4be9-8f00-e87434ea9fa4"},"vehicle_type_id":"4","last_reported":1740697726,"current_range_meters":12000,"station_id":"ce4bhnp2rcd13ifvqgvg","pricing_plan_id":"cebpf4jnsgd1na2vs0mg"},{"bike_id":"577a98cd-0267-4d9c-831f-d38f5e10f610","system_id":"levelo_inurba_marseille","lat":43.29872,"lon":5.38901,"is_reserved":false,"is_disabled":false,"rental_uris":{"android":"levelo://app?vid=577a98cd-0267-4d9c-831f-d38f5e10f610","ios":"levelo://app?vid=577a98cd-0267-4d9c-831f-d38f5e10f610"},"vehicle_type_id":"4","last_reported":1740697726,"current_range_meters":12000,"station_id":"ce4bh392rcd13ifvqdl0","pricing_plan_id":"cebpf4jnsgd1na2vs0mg"},{"bike_id":"6413670b-3591-4dd6-8654-2e6512f93b7b","system_id":"levelo_inurba_marseille","lat":43.27934,"lon":5.41039,"is_reserved":false,"is_disabled":false,"rental_uris":{"android":"levelo://app?vid=6413670b-3591-4dd6-8654-2e6512f93b7b","ios":"levelo://app?vid=6413670b-3591-4dd6-8654-2e6512f93b7b"},"vehicle_type_id":"4","last_reported":1740697726,"current_range_meters":12000,"station_id":"ce4bhnp2rcd13ifvqh0g","pricing_plan_id":"cebpf4jnsgd1na2vs0mg"},{"bike_id":"06f46088-86dd-4f85-a76e-b4e1ebe0acc7","system_id":"levelo_inurba_marseille","lat":43.28598,"lon":5.35115,"is_reserved":false,"is_disabled":false,"rental_uris":{"android":"levelo://app?vid=06f46088-86dd-4f85-a76e-b4e1ebe0acc7","ios":"levelo://app?vid=06f46088-86dd-4f85-a76e-b4e1ebe0acc7"},"vehicle_type_id":"4","last_reported":1740697726,"current_range_meters":12000,"station_id":"ce4bhch2rcd13ifvqeug","pricing_plan_id":"cebpf4jnsgd1na2vs0mg"},{"bike_id":"6bf62df5-9f2c-4676-be2e-3425368f3119","system_id":"levelo_inurba_marseille","lat":43.293244,"lon":5.382419,"is_reserved":false,"is_disabled":false,"rental_uris":{"android":"levelo://app?vid=6bf62df5-9f2c-4676-be2e-3425368f3119","ios":"levelo://app?vid=6bf62df5-9f2c-4676-be2e-3425368f3119"},"vehicle_type_id":"4","last_reported":1740697726,"current_range_meters":12000,"station_id":"","pricing_plan_id":"cebpf4jnsgd1na2vs0mg"},{"bike_id":"50a9aefa-e192-4477-9061-6e00a152009a","system_id":"levelo_inurba_marseille","lat":43.311127,"lon":5.377595,"is_reserved":false,"is_disabled":false,"rental_uris":{"android":"levelo://app?vid=50a9aefa-e192-4477-9061-6e00a152009a","ios":"levelo://app?vid=50a9aefa-e192-4477-9061-6e00a152009a"},"vehicle_type_id":"4","last_reported":1740697726,"current_range_meters":11600,"station_id":"ce4bgkh2rcd13ifvqbl0","pricing_plan_id":"cebpf4jnsgd1na2vs0mg"},{"bike_id":"fb1fbfbc-642f-49ef-93d2-bb1277bc6eb4","system_id":"levelo_inurba_marseille","lat":43.28456,"lon":5.35879,"is_reserved":false,"is_disabled":false,"rental_uris":{"android":"levelo://app?vid=fb1fbfbc-642f-49ef-93d2-bb1277bc6eb4","ios":"levelo://app?vid=fb1fbfbc-642f-49ef-93d2-bb1277bc6eb4"},"vehicle_type_id":"4","last_reported":1740697726,"current_range_meters":12000,"station_id":"ce4bhah2rcd13ifvqei0","pricing_plan_id":"cebpf4jnsgd1na2vs0mg"},{"bike_id":"07a70f40-d064-434b-83aa-228acdf7dd53","system_id":"levelo_inurba_marseille","lat":43.23183,"lon":5.39983,"is_reserved":false,"is_disabled":false,"rental_uris":{"android":"levelo://app?vid=07a70f40-d064-434b-83aa-228acdf7dd53","ios":"levelo://app?vid=07a70f40-d064-434b-83aa-228acdf7dd53"},"vehicle_type_id":"4","last_reported":1740697726,"current_range_meters":12400,"station_id":"ce4bhn12rcd13ifvqgqg","pricing_plan_id":"cebpf4jnsgd1na2vs0mg"},{"bike_id":"3d06ad03-608d-41a3-9db1-86aaa1692ce2","system_id":"levelo_inurba_marseille","lat":43.29707,"lon":5.36599,"is_reserved":false,"is_disabled":false,"rental_uris":{"android":"levelo://app?vid=3d06ad03-608d-41a3-9db1-86aaa1692ce2","ios":"levelo://app?vid=3d06ad03-608d-41a3-9db1-86aaa1692ce2"},"vehicle_type_id":"4","last_reported":1740697726,"current_range_meters":12400,"station_id":"ce4bgn12rcd13ifvqbt0","pricing_plan_id":"cebpf4jnsgd1na2vs0mg"},{"bike_id":"4faa25b2-6d20-4258-a63e-5adea7aec14e","system_id":"levelo_inurba_marseille","lat":43.28456,"lon":5.35889,"is_reserved":false,"is_disabled":true,"rental_uris":{"android":"levelo://app?vid=4faa25b2-6d20-4258-a63e-5adea7aec14e","ios":"levelo://app?vid=4faa25b2-6d20-4258-a63e-5adea7aec14e"},"vehicle_type_id":"4","last_reported":1740697726,"current_range_meters":12800,"station_id":"ce4bhah2rcd13ifvqei0","pricing_plan_id":"cebpf4jnsgd1na2vs0mg"},{"bike_id":"d4918d6a-5525-4be8-b0c4-7af64b54343d","system_id":"levelo_inurba_marseille","lat":43.24163,"lon":5.36399,"is_reserved":false,"is_disabled":false,"rental_uris":{"android":"levelo://app?vid=d4918d6a-5525-4be8-b0c4-7af64b54343d","ios":"levelo://app?vid=d4918d6a-5525-4be8-b0c4-7af64b54343d"},"vehicle_type_id":"4","last_reported":1740697726,"current_range_meters":12800,"station_id":"cpo36qri1sfpv3e86is0","pricing_plan_id":"cebpf4jnsgd1na2vs0mg"},{"bike_id":"10b6c0d0-a3ef-460e-ad30-22fe050ad6b8","system_id":"levelo_inurba_marseille","lat":43.28828,"lon":5.35836,"is_reserved":false,"is_disabled":false,"rental_uris":{"android":"levelo://app?vid=10b6c0d0-a3ef-460e-ad30-22fe050ad6b8","ios":"levelo://app?vid=10b6c0d0-a3ef-460e-ad30-22fe050ad6b8"},"vehicle_type_id":"4","last_reported":1740697726,"current_range_meters":12800,"station_id":"ce4bhb12rcd13ifvqem0","pricing_plan_id":"cebpf4jnsgd1na2vs0mg"},{"bike_id":"f540f286-fecb-4f6a-9c19-c13822b5df23","system_id":"levelo_inurba_marseille","lat":43.28621,"lon":5.35093,"is_reserved":false,"is_disabled":false,"rental_uris":{"android":"levelo://app?vid=f540f286-fecb-4f6a-9c19-c13822b5df23","ios":"levelo://app?vid=f540f286-fecb-4f6a-9c19-c13822b5df23"},"vehicle_type_id":"4","last_reported":1740697726,"current_range_meters":13600,"station_id":"ce4bhch2rcd13ifvqeug","pricing_plan_id":"cebpf4jnsgd1na2vs0mg"},{"bike_id":"21d163b0-76d6-433d-af00-7c1303f28c95","system_id":"levelo_inurba_marseille","lat":43.2842,"lon":5.37523,"is_reserved":false,"is_disabled":false,"rental_uris":{"android":"levelo://app?vid=21d163b0-76d6-433d-af00-7c1303f28c95","ios":"levelo://app?vid=21d163b0-76d6-433d-af00-7c1303f28c95"},"vehicle_type_id":"4","last_reported":1740697726,"current_range_meters":13600,"station_id":"ce4bh412rcd13ifvqds0","pricing_plan_id":"cebpf4jnsgd1na2vs0mg"},{"bike_id":"20d08730-d04f-482a-9ed2-1d3e29b92784","system_id":"levelo_inurba_marseille","lat":43.32366,"lon":5.3886,"is_reserved":false,"is_disabled":false,"rental_uris":{"android":"levelo://app?vid=20d08730-d04f-482a-9ed2-1d3e29b92784","ios":"levelo://app?vid=20d08730-d04f-482a-9ed2-1d3e29b92784"},"vehicle_type_id":"4","last_reported":1740697726,"current_range_meters":12800,"station_id":"ce4bhqp2rcd13ifvqhog","pricing_plan_id":"cebpf4jnsgd1na2vs0mg"},{"bike_id":"6f08793c-0e13-4755-8250-eb14e46e9c0b","system_id":"levelo_inurba_marseille","lat":43.2319,"lon":5.39975,"is_reserved":false,"is_disabled":false,"rental_uris":{"android":"levelo://app?vid=6f08793c-0e13-4755-8250-eb14e46e9c0b","ios":"levelo://app?vid=6f08793c-0e13-4755-8250-eb14e46e9c0b"},"vehicle_type_id":"4","last_reported":1740697726,"current_range_meters":13600,"station_id":"ce4bhn12rcd13ifvqgqg","pricing_plan_id":"cebpf4jnsgd1na2vs0mg"},{"bike_id":"464da985-0d18-414e-a22b-ee83e6a7dbce","system_id":"levelo_inurba_marseille","lat":43.30886,"lon":5.39641,"is_reserved":false,"is_disabled":false,"rental_uris":{"android":"levelo://app?vid=464da985-0d18-414e-a22b-ee83e6a7dbce","ios":"levelo://app?vid=464da985-0d18-414e-a22b-ee83e6a7dbce"},"vehicle_type_id":"4","last_reported":1740697726,"current_range_meters":12800,"station_id":"ce4bh012rcd13ifvqcv0","pricing_plan_id":"cebpf4jnsgd1na2vs0mg"},{"bike_id":"dd056faa-2771-4c25-b712-8ececdb8e421","system_id":"levelo_inurba_marseille","lat":43.28442,"lon":5.35897,"is_reserved":false,"is_disabled":false,"rental_uris":{"android":"levelo://app?vid=dd056faa-2771-4c25-b712-8ececdb8e421","ios":"levelo://app?vid=dd056faa-2771-4c25-b712-8ececdb8e421"},"vehicle_type_id":"4","last_reported":1740697726,"current_range_meters":12800,"station_id":"ce4bhah2rcd13ifvqei0","pricing_plan_id":"cebpf4jnsgd1na2vs0mg"},{"bike_id":"ef77bf7f-5b88-41c9-8d3b-c8c9c0447dd9","system_id":"levelo_inurba_marseille","lat":43.28057,"lon":5.35053,"is_reserved":false,"is_disabled":false,"rental_uris":{"android":"levelo://app?vid=ef77bf7f-5b88-41c9-8d3b-c8c9c0447dd9","ios":"levelo://app?vid=ef77bf7f-5b88-41c9-8d3b-c8c9c0447dd9"},"vehicle_type_id":"4","last_reported":1740697726,"current_range_meters":12800,"station_id":"","pricing_plan_id":"cebpf4jnsgd1na2vs0mg"},{"bike_id":"41a06d8b-0d80-49c3-9b95-e1d14c40a48f","system_id":"levelo_inurba_marseille","lat":43.30798,"lon":5.38159,"is_reserved":false,"is_disabled":false,"rental_uris":{"android":"levelo://app?vid=41a06d8b-0d80-49c3-9b95-e1d14c40a48f","ios":"levelo://app?vid=41a06d8b-0d80-49c3-9b95-e1d14c40a48f"},"vehicle_type_id":"4","last_reported":1740697726,"current_range_meters":12800,"station_id":"ce4bgt12rcd13ifvqce0","pricing_plan_id":"cebpf4jnsgd1na2vs0mg"},{"bike_id":"5b28cd77-a409-482f-8702-f764eef9151e","system_id":"levelo_inurba_marseille","lat":43.25925,"lon":5.40913,"is_reserved":false,"is_disabled":true,"rental_uris":{"android":"levelo://app?vid=5b28cd77-a409-482f-8702-f764eef9151e","ios":"levelo://app?vid=5b28cd77-a409-482f-8702-f764eef9151e"},"vehicle_type_id":"4","last_reported":1740697726,"current_range_meters":12800,"station_id":"ce4bhm92rcd13ifvqglg","pricing_plan_id":"cebpf4jnsgd1na2vs0mg"},{"bike_id":"11c3bb28-0881-4ad9-8c9c-f86e73594432","system_id":"levelo_inurba_marseille","lat":43.28466,"lon":5.35869,"is_reserved":false,"is_disabled":false,"rental_uris":{"android":"levelo://app?vid=11c3bb28-0881-4ad9-8c9c-f86e73594432","ios":"levelo://app?vid=11c3bb28-0881-4ad9-8c9c-f86e73594432"},"vehicle_type_id":"4","last_reported":1740697726,"current_range_meters":12800,"station_id":"ce4bhah2rcd13ifvqei0","pricing_plan_id":"cebpf4jnsgd1na2vs0mg"},{"bike_id":"8f678c7f-cb2d-4b02-939d-384b0cfded7e","system_id":"levelo_inurba_marseille","lat":43.28708,"lon":5.37398,"is_reserved":false,"is_disabled":false,"rental_uris":{"android":"levelo://app?vid=8f678c7f-cb2d-4b02-939d-384b0cfded7e","ios":"levelo://app?vid=8f678c7f-cb2d-4b02-939d-384b0cfded7e"},"vehicle_type_id":"4","last_reported":1740697726,"current_range_meters":12800,"station_id":"ce4bh3p2rcd13ifvqdq0","pricing_plan_id":"cebpf4jnsgd1na2vs0mg"},{"bike_id":"0771be02-e3e2-47da-b3c9-86df7888c832","system_id":"levelo_inurba_marseille","lat":43.29222,"lon":5.36085,"is_reserved":false,"is_disabled":false,"rental_uris":{"android":"levelo://app?vid=0771be02-e3e2-47da-b3c9-86df7888c832","ios":"levelo://app?vid=0771be02-e3e2-47da-b3c9-86df7888c832"},"vehicle_type_id":"4","last_reported":1740697726,"current_range_meters":13600,"station_id":"ce4bhbh2rcd13ifvqeqg","pricing_plan_id":"cebpf4jnsgd1na2vs0mg"},{"bike_id":"b1ae8e83-8a9b-42be-9178-09dade31f5e6","system_id":"levelo_inurba_marseille","lat":43.30429,"lon":5.38888,"is_reserved":false,"is_disabled":false,"rental_uris":{"android":"levelo://app?vid=b1ae8e83-8a9b-42be-9178-09dade31f5e6","ios":"levelo://app?vid=b1ae8e83-8a9b-42be-9178-09dade31f5e6"},"vehicle_type_id":"4","last_reported":1740697726,"current_range_meters":12800,"station_id":"ce4bgk12rcd13ifvqbi0","pricing_plan_id":"cebpf4jnsgd1na2vs0mg"},{"bike_id":"199d096e-ca37-47f9-963f-1f0656cac9e4","system_id":"levelo_inurba_marseille","lat":43.25821,"lon":5.39434,"is_reserved":false,"is_disabled":false,"rental_uris":{"android":"levelo://app?vid=199d096e-ca37-47f9-963f-1f0656cac9e4","ios":"levelo://app?vid=199d096e-ca37-47f9-963f-1f0656cac9e4"},"vehicle_type_id":"4","last_reported":1740697726,"current_range_meters":13600,"station_id":"ce4bhip2rcd13ifvqft0","pricing_plan_id":"cebpf4jnsgd1na2vs0mg"},{"bike_id":"149f1135-346c-41b3-b1dc-319c0851d633","system_id":"levelo_inurba_marseille","lat":43.28716,"lon":5.36083,"is_reserved":false,"is_disabled":false,"rental_uris":{"android":"levelo://app?vid=149f1135-346c-41b3-b1dc-319c0851d633","ios":"levelo://app?vid=149f1135-346c-41b3-b1dc-319c0851d633"},"vehicle_type_id":"4","last_reported":1740697726,"current_range_meters":13600,"station_id":"cki0cbj6b192h4jlfktg","pricing_plan_id":"cebpf4jnsgd1na2vs0mg"},{"bike_id":"87f4694a-7002-40c0-9a0e-2123fd36309b","system_id":"levelo_inurba_marseille","lat":43.28997,"lon":5.35619,"is_reserved":false,"is_disabled":false,"rental_uris":{"android":"levelo://app?vid=87f4694a-7002-40c0-9a0e-2123fd36309b","ios":"levelo://app?vid=87f4694a-7002-40c0-9a0e-2123fd36309b"},"vehicle_type_id":"4","last_reported":1740697726,"current_range_meters":13600,"station_id":"ce4bhb92rcd13ifvqen0","pricing_plan_id":"cebpf4jnsgd1na2vs0mg"},{"bike_id":"a4c22857-6480-465b-b474-1cc963b1061a","system_id":"levelo_inurba_marseille","lat":43.26054,"lon":5.39398,"is_reserved":false,"is_disabled":false,"rental_uris":{"android":"levelo://app?vid=a4c22857-6480-465b-b474-1cc963b1061a","ios":"levelo://app?vid=a4c22857-6480-465b-b474-1cc963b1061a"},"vehicle_type_id":"4","last_reported":1740697726,"current_range_meters":13600,"station_id":"ce4bhh92rcd13ifvqfj0","pricing_plan_id":"cebpf4jnsgd1na2vs0mg"},{"bike_id":"d6eac1e4-94c7-4b0a-b122-2daa16ebae64","system_id":"levelo_inurba_marseille","lat":43.32363,"lon":5.38869,"is_reserved":false,"is_disabled":false,"rental_uris":{"android":"levelo://app?vid=d6eac1e4-94c7-4b0a-b122-2daa16ebae64","ios":"levelo://app?vid=d6eac1e4-94c7-4b0a-b122-2daa16ebae64"},"vehicle_type_id":"4","last_reported":1740697726,"current_range_meters":14000,"station_id":"ce4bhqp2rcd13ifvqhog","pricing_plan_id":"cebpf4jnsgd1na2vs0mg"},{"bike_id":"1330b958-b6d2-49bf-a381-4306479aa4e8","system_id":"levelo_inurba_marseille","lat":43.28713,"lon":5.39954,"is_reserved":false,"is_disabled":false,"rental_uris":{"android":"levelo://app?vid=1330b958-b6d2-49bf-a381-4306479aa4e8","ios":"levelo://app?vid=1330b958-b6d2-49bf-a381-4306479aa4e8"},"vehicle_type_id":"4","last_reported":1740697726,"current_range_meters":14000,"station_id":"ce4bho92rcd13ifvqh3g","pricing_plan_id":"cebpf4jnsgd1na2vs0mg"},{"bike_id":"7562303f-eb2b-41bb-be54-db23a576d5e8","system_id":"levelo_inurba_marseille","lat":43.28642,"lon":5.35094,"is_reserved":false,"is_disabled":false,"rental_uris":{"android":"levelo://app?vid=7562303f-eb2b-41bb-be54-db23a576d5e8","ios":"levelo://app?vid=7562303f-eb2b-41bb-be54-db23a576d5e8"},"vehicle_type_id":"4","last_reported":1740697726,"current_range_meters":14000,"station_id":"ce4bhch2rcd13ifvqeug","pricing_plan_id":"cebpf4jnsgd1na2vs0mg"},{"bike_id":"7f061ae0-de9a-4df5-a252-56d0d6196e2b","system_id":"levelo_inurba_marseille","lat":43.31965,"lon":5.38165,"is_reserved":false,"is_disabled":false,"rental_uris":{"android":"levelo://app?vid=7f061ae0-de9a-4df5-a252-56d0d6196e2b","ios":"levelo://app?vid=7f061ae0-de9a-4df5-a252-56d0d6196e2b"},"vehicle_type_id":"4","last_reported":1740697726,"current_range_meters":10800,"station_id":"ce4bhr12rcd13ifvqhpg","pricing_plan_id":"cebpf4jnsgd1na2vs0mg"},{"bike_id":"2f9f99a2-13fd-4e67-b6f6-cde754ec372e","system_id":"levelo_inurba_marseille","lat":43.29008,"lon":5.35608,"is_reserved":false,"is_disabled":false,"rental_uris":{"android":"levelo://app?vid=2f9f99a2-13fd-4e67-b6f6-cde754ec372e","ios":"levelo://app?vid=2f9f99a2-13fd-4e67-b6f6-cde754ec372e"},"vehicle_type_id":"4","last_reported":1740697726,"current_range_meters":14400,"station_id":"ce4bhb92rcd13ifvqen0","pricing_plan_id":"cebpf4jnsgd1na2vs0mg"},{"bike_id":"22ec0a1a-f6bd-41cd-babf-f8ae85098632","system_id":"levelo_inurba_marseille","lat":43.30648,"lon":5.40089,"is_reserved":false,"is_disabled":false,"rental_uris":{"android":"levelo://app?vid=22ec0a1a-f6bd-41cd-babf-f8ae85098632","ios":"levelo://app?vid=22ec0a1a-f6bd-41cd-babf-f8ae85098632"},"vehicle_type_id":"4","last_reported":1740697726,"current_range_meters":14400,"station_id":"ce4bh112rcd13ifvqda0","pricing_plan_id":"cebpf4jnsgd1na2vs0mg"},{"bike_id":"6ef6678e-7644-412c-bff0-e64827deac31","system_id":"levelo_inurba_marseille","lat":43.28401,"lon":5.37518,"is_reserved":false,"is_disabled":false,"rental_uris":{"android":"levelo://app?vid=6ef6678e-7644-412c-bff0-e64827deac31","ios":"levelo://app?vid=6ef6678e-7644-412c-bff0-e64827deac31"},"vehicle_type_id":"4","last_reported":1740697726,"current_range_meters":14400,"station_id":"ce4bh412rcd13ifvqds0","pricing_plan_id":"cebpf4jnsgd1na2vs0mg"},{"bike_id":"7b2168bf-cc79-4f74-99d5-2d042a76e474","system_id":"levelo_inurba_marseille","lat":43.30602,"lon":5.39348,"is_reserved":false,"is_disabled":false,"rental_uris":{"android":"levelo://app?vid=7b2168bf-cc79-4f74-99d5-2d042a76e474","ios":"levelo://app?vid=7b2168bf-cc79-4f74-99d5-2d042a76e474"},"vehicle_type_id":"4","last_reported":1740697726,"current_range_meters":14000,"station_id":"ce4bh0p2rcd13ifvqd80","pricing_plan_id":"cebpf4jnsgd1na2vs0mg"},{"bike_id":"aec0cf5e-069a-4464-b600-20f371062b7e","system_id":"levelo_inurba_marseille","lat":43.31707,"lon":5.37755,"is_reserved":false,"is_disabled":false,"rental_uris":{"android":"levelo://app?vid=aec0cf5e-069a-4464-b600-20f371062b7e","ios":"levelo://app?vid=aec0cf5e-069a-4464-b600-20f371062b7e"},"vehicle_type_id":"4","last_reported":1740697726,"current_range_meters":15200,"station_id":"ce4bgth2rcd13ifvqch0","pricing_plan_id":"cebpf4jnsgd1na2vs0mg"},{"bike_id":"3f5e4c77-943b-4a46-b257-614bf13afec4","system_id":"levelo_inurba_marseille","lat":43.24165,"lon":5.36394,"is_reserved":false,"is_disabled":false,"rental_uris":{"android":"levelo://app?vid=3f5e4c77-943b-4a46-b257-614bf13afec4","ios":"levelo://app?vid=3f5e4c77-943b-4a46-b257-614bf13afec4"},"vehicle_type_id":"4","last_reported":1740697726,"current_range_meters":14400,"station_id":"cpo36qri1sfpv3e86is0","pricing_plan_id":"cebpf4jnsgd1na2vs0mg"},{"bike_id":"e8326ac1-e393-42b4-a549-cbf690b51fc4","system_id":"levelo_inurba_marseille","lat":43.30597,"lon":5.37225,"is_reserved":false,"is_disabled":false,"rental_uris":{"android":"levelo://app?vid=e8326ac1-e393-42b4-a549-cbf690b51fc4","ios":"levelo://app?vid=e8326ac1-e393-42b4-a549-cbf690b51fc4"},"vehicle_type_id":"4","last_reported":1740697726,"current_range_meters":14400,"station_id":"ce4bgqh2rcd13ifvqc4g","pricing_plan_id":"cebpf4jnsgd1na2vs0mg"},{"bike_id":"07e562af-4bef-47f8-a85e-d84ded116372","system_id":"levelo_inurba_marseille","lat":43.28069,"lon":5.39648,"is_reserved":false,"is_disabled":false,"rental_uris":{"android":"levelo://app?vid=07e562af-4bef-47f8-a85e-d84ded116372","ios":"levelo://app?vid=07e562af-4bef-47f8-a85e-d84ded116372"},"vehicle_type_id":"4","last_reported":1740697726,"current_range_meters":14400,"station_id":"ce4bho12rcd13ifvqh2g","pricing_plan_id":"cebpf4jnsgd1na2vs0mg"},{"bike_id":"49da027d-320c-4160-bbd8-275340a323ea","system_id":"levelo_inurba_marseille","lat":43.33599,"lon":5.41028,"is_reserved":false,"is_disabled":false,"rental_uris":{"android":"levelo://app?vid=49da027d-320c-4160-bbd8-275340a323ea","ios":"levelo://app?vid=49da027d-320c-4160-bbd8-275340a323ea"},"vehicle_type_id":"4","last_reported":1740697726,"current_range_meters":15200,"station_id":"ce4bhqh2rcd13ifvqhmg","pricing_plan_id":"cebpf4jnsgd1na2vs0mg"},{"bike_id":"43d6aa6f-20c7-4a1b-bcb8-31b660876567","system_id":"levelo_inurba_marseille","lat":43.26555,"lon":5.37276,"is_reserved":false,"is_disabled":false,"rental_uris":{"android":"levelo://app?vid=43d6aa6f-20c7-4a1b-bcb8-31b660876567","ios":"levelo://app?vid=43d6aa6f-20c7-4a1b-bcb8-31b660876567"},"vehicle_type_id":"4","last_reported":1740697726,"current_range_meters":15200,"station_id":"ce4bhg12rcd13ifvqf70","pricing_plan_id":"cebpf4jnsgd1na2vs0mg"},{"bike_id":"da7ee62a-f7fb-4e14-909b-8bbd5b27acbc","system_id":"levelo_inurba_marseille","lat":43.28729,"lon":5.37939,"is_reserved":false,"is_disabled":false,"rental_uris":{"android":"levelo://app?vid=da7ee62a-f7fb-4e14-909b-8bbd5b27acbc","ios":"levelo://app?vid=da7ee62a-f7fb-4e14-909b-8bbd5b27acbc"},"vehicle_type_id":"4","last_reported":1740697726,"current_range_meters":14800,"station_id":"ce4bh9p2rcd13ifvqec0","pricing_plan_id":"cebpf4jnsgd1na2vs0mg"},{"bike_id":"1a49a19d-ff27-4e53-a6f4-7da18a3fcd68","system_id":"levelo_inurba_marseille","lat":43.28483,"lon":5.38415,"is_reserved":false,"is_disabled":false,"rental_uris":{"android":"levelo://app?vid=1a49a19d-ff27-4e53-a6f4-7da18a3fcd68","ios":"levelo://app?vid=1a49a19d-ff27-4e53-a6f4-7da18a3fcd68"},"vehicle_type_id":"4","last_reported":1740697726,"current_range_meters":14800,"station_id":"ce4bh512rcd13ifvqe3g","pricing_plan_id":"cebpf4jnsgd1na2vs0mg"},{"bike_id":"6595611a-6359-473b-9dc7-a962304b4cdd","system_id":"levelo_inurba_marseille","lat":43.29709,"lon":5.36625,"is_reserved":false,"is_disabled":false,"rental_uris":{"android":"levelo://app?vid=6595611a-6359-473b-9dc7-a962304b4cdd","ios":"levelo://app?vid=6595611a-6359-473b-9dc7-a962304b4cdd"},"vehicle_type_id":"4","last_reported":1740697726,"current_range_meters":15200,"station_id":"ce4bgn12rcd13ifvqbt0","pricing_plan_id":"cebpf4jnsgd1na2vs0mg"},{"bike_id":"f7fe6e63-0b18-4c93-be1b-f5ad9a7c4609","system_id":"levelo_inurba_marseille","lat":43.28849,"lon":5.35832,"is_reserved":false,"is_disabled":false,"rental_uris":{"android":"levelo://app?vid=f7fe6e63-0b18-4c93-be1b-f5ad9a7c4609","ios":"levelo://app?vid=f7fe6e63-0b18-4c93-be1b-f5ad9a7c4609"},"vehicle_type_id":"4","last_reported":1740697726,"current_range_meters":15200,"station_id":"ce4bhb12rcd13ifvqem0","pricing_plan_id":"cebpf4jnsgd1na2vs0mg"},{"bike_id":"7e9d22d9-ba51-4803-b02f-7c33cef12f33","system_id":"levelo_inurba_marseille","lat":43.2841,"lon":5.37533,"is_reserved":false,"is_disabled":false,"rental_uris":{"android":"levelo://app?vid=7e9d22d9-ba51-4803-b02f-7c33cef12f33","ios":"levelo://app?vid=7e9d22d9-ba51-4803-b02f-7c33cef12f33"},"vehicle_type_id":"4","last_reported":1740697726,"current_range_meters":14800,"station_id":"ce4bh412rcd13ifvqds0","pricing_plan_id":"cebpf4jnsgd1na2vs0mg"},{"bike_id":"71df05d7-4db0-4c67-9063-12d535fe53fb","system_id":"levelo_inurba_marseille","lat":43.29511,"lon":5.39392,"is_reserved":false,"is_disabled":false,"rental_uris":{"android":"levelo://app?vid=71df05d7-4db0-4c67-9063-12d535fe53fb","ios":"levelo://app?vid=71df05d7-4db0-4c67-9063-12d535fe53fb"},"vehicle_type_id":"4","last_reported":1740697726,"current_range_meters":12000,"station_id":"ce4bh292rcd13ifvqdf0","pricing_plan_id":"cebpf4jnsgd1na2vs0mg"},{"bike_id":"07716cd5-aa06-4ec2-be21-a681b685518f","system_id":"levelo_inurba_marseille","lat":43.26191,"lon":5.42069,"is_reserved":false,"is_disabled":false,"rental_uris":{"android":"levelo://app?vid=07716cd5-aa06-4ec2-be21-a681b685518f","ios":"levelo://app?vid=07716cd5-aa06-4ec2-be21-a681b685518f"},"vehicle_type_id":"4","last_reported":1740697726,"current_range_meters":16000,"station_id":"","pricing_plan_id":"cebpf4jnsgd1na2vs0mg"},{"bike_id":"94fc79a4-4884-4101-8aeb-357625bbbbad","system_id":"levelo_inurba_marseille","lat":43.27816,"lon":5.40691,"is_reserved":false,"is_disabled":false,"rental_uris":{"android":"levelo://app?vid=94fc79a4-4884-4101-8aeb-357625bbbbad","ios":"levelo://app?vid=94fc79a4-4884-4101-8aeb-357625bbbbad"},"vehicle_type_id":"4","last_reported":1740697726,"current_range_meters":15200,"station_id":"ce4bhnh2rcd13ifvqgtg","pricing_plan_id":"cebpf4jnsgd1na2vs0mg"},{"bike_id":"1aea0dde-a7bb-4730-8e2c-695419b49399","system_id":"levelo_inurba_marseille","lat":43.32362,"lon":5.38889,"is_reserved":false,"is_disabled":false,"rental_uris":{"android":"levelo://app?vid=1aea0dde-a7bb-4730-8e2c-695419b49399","ios":"levelo://app?vid=1aea0dde-a7bb-4730-8e2c-695419b49399"},"vehicle_type_id":"4","last_reported":1740697726,"current_range_meters":16400,"station_id":"ce4bhqp2rcd13ifvqhog","pricing_plan_id":"cebpf4jnsgd1na2vs0mg"},{"bike_id":"163b0346-789a-472d-b601-9e9c9bdcf0d8","system_id":"levelo_inurba_marseille","lat":43.30147,"lon":5.39862,"is_reserved":false,"is_disabled":false,"rental_uris":{"android":"levelo://app?vid=163b0346-789a-472d-b601-9e9c9bdcf0d8","ios":"levelo://app?vid=163b0346-789a-472d-b601-9e9c9bdcf0d8"},"vehicle_type_id":"4","last_reported":1740697726,"current_range_meters":14000,"station_id":"ce4bh0h2rcd13ifvqd40","pricing_plan_id":"cebpf4jnsgd1na2vs0mg"},{"bike_id":"1da63227-255e-41d7-9093-c8c2ef6a9f2a","system_id":"levelo_inurba_marseille","lat":43.27999,"lon":5.4166,"is_reserved":false,"is_disabled":false,"rental_uris":{"android":"levelo://app?vid=1da63227-255e-41d7-9093-c8c2ef6a9f2a","ios":"levelo://app?vid=1da63227-255e-41d7-9093-c8c2ef6a9f2a"},"vehicle_type_id":"4","last_reported":1740697726,"current_range_meters":16000,"station_id":"ce4bho12rcd13ifvqh1g","pricing_plan_id":"cebpf4jnsgd1na2vs0mg"},{"bike_id":"6d428432-8be2-47ad-b84d-a58bf7f395bd","system_id":"levelo_inurba_marseille","lat":43.28927,"lon":5.364,"is_reserved":false,"is_disabled":false,"rental_uris":{"android":"levelo://app?vid=6d428432-8be2-47ad-b84d-a58bf7f395bd","ios":"levelo://app?vid=6d428432-8be2-47ad-b84d-a58bf7f395bd"},"vehicle_type_id":"4","last_reported":1740697726,"current_range_meters":16000,"station_id":"ce4bhc92rcd13ifvqetg","pricing_plan_id":"cebpf4jnsgd1na2vs0mg"},{"bike_id":"64d5bd85-58b2-4b54-b93c-4a6aef9a8da8","system_id":"levelo_inurba_marseille","lat":43.30547,"lon":5.36538,"is_reserved":false,"is_disabled":true,"rental_uris":{"android":"levelo://app?vid=64d5bd85-58b2-4b54-b93c-4a6aef9a8da8","ios":"levelo://app?vid=64d5bd85-58b2-4b54-b93c-4a6aef9a8da8"},"vehicle_type_id":"4","last_reported":1740697726,"current_range_meters":16400,"station_id":"ce4bgs12rcd13ifvqcag","pricing_plan_id":"cebpf4jnsgd1na2vs0mg"},{"bike_id":"15204670-483e-4adc-adc6-2fb8bc37754c","system_id":"levelo_inurba_marseille","lat":43.25814,"lon":5.39426,"is_reserved":false,"is_disabled":false,"rental_uris":{"android":"levelo://app?vid=15204670-483e-4adc-adc6-2fb8bc37754c","ios":"levelo://app?vid=15204670-483e-4adc-adc6-2fb8bc37754c"},"vehicle_type_id":"4","last_reported":1740697726,"current_range_meters":16000,"station_id":"ce4bhip2rcd13ifvqft0","pricing_plan_id":"cebpf4jnsgd1na2vs0mg"},{"bike_id":"0ebffcee-3697-4987-8cfd-ce56c427abfe","system_id":"levelo_inurba_marseille","lat":43.28453,"lon":5.35884,"is_reserved":false,"is_disabled":false,"rental_uris":{"android":"levelo://app?vid=0ebffcee-3697-4987-8cfd-ce56c427abfe","ios":"levelo://app?vid=0ebffcee-3697-4987-8cfd-ce56c427abfe"},"vehicle_type_id":"4","last_reported":1740697726,"current_range_meters":16000,"station_id":"ce4bhah2rcd13ifvqei0","pricing_plan_id":"cebpf4jnsgd1na2vs0mg"},{"bike_id":"a9757b2e-0188-4e2f-9062-079c74f7d4d4","system_id":"levelo_inurba_marseille","lat":43.25554,"lon":5.38312,"is_reserved":false,"is_disabled":false,"rental_uris":{"android":"levelo://app?vid=a9757b2e-0188-4e2f-9062-079c74f7d4d4","ios":"levelo://app?vid=a9757b2e-0188-4e2f-9062-079c74f7d4d4"},"vehicle_type_id":"4","last_reported":1740697726,"current_range_meters":16000,"station_id":"","pricing_plan_id":"cebpf4jnsgd1na2vs0mg"},{"bike_id":"41ae3cba-df90-47eb-9185-828aeb3d2ccd","system_id":"levelo_inurba_marseille","lat":43.25577,"lon":5.38243,"is_reserved":false,"is_disabled":false,"rental_uris":{"android":"levelo://app?vid=41ae3cba-df90-47eb-9185-828aeb3d2ccd","ios":"levelo://app?vid=41ae3cba-df90-47eb-9185-828aeb3d2ccd"},"vehicle_type_id":"4","last_reported":1740697726,"current_range_meters":16400,"station_id":"ce4bhih2rcd13ifvqfs0","pricing_plan_id":"cebpf4jnsgd1na2vs0mg"},{"bike_id":"6c03af07-43d6-40b5-b0cf-7c33497afc57","system_id":"levelo_inurba_marseille","lat":43.28613,"lon":5.35106,"is_reserved":false,"is_disabled":false,"rental_uris":{"android":"levelo://app?vid=6c03af07-43d6-40b5-b0cf-7c33497afc57","ios":"levelo://app?vid=6c03af07-43d6-40b5-b0cf-7c33497afc57"},"vehicle_type_id":"4","last_reported":1740697726,"current_range_meters":16000,"station_id":"ce4bhch2rcd13ifvqeug","pricing_plan_id":"cebpf4jnsgd1na2vs0mg"},{"bike_id":"c6b5f9f2-a258-4f07-9a3b-85dd6cf998c0","system_id":"levelo_inurba_marseille","lat":43.30648,"lon":5.40069,"is_reserved":false,"is_disabled":false,"rental_uris":{"android":"levelo://app?vid=c6b5f9f2-a258-4f07-9a3b-85dd6cf998c0","ios":"levelo://app?vid=c6b5f9f2-a258-4f07-9a3b-85dd6cf998c0"},"vehicle_type_id":"4","last_reported":1740697726,"current_range_meters":16000,"station_id":"ce4bh112rcd13ifvqda0","pricing_plan_id":"cebpf4jnsgd1na2vs0mg"},{"bike_id":"7a49f9e1-5ffc-4171-97d7-e500777d1c5f","system_id":"levelo_inurba_marseille","lat":43.28733,"lon":5.36076,"is_reserved":false,"is_disabled":false,"rental_uris":{"android":"levelo://app?vid=7a49f9e1-5ffc-4171-97d7-e500777d1c5f","ios":"levelo://app?vid=7a49f9e1-5ffc-4171-97d7-e500777d1c5f"},"vehicle_type_id":"4","last_reported":1740697726,"current_range_meters":16000,"station_id":"cki0cbj6b192h4jlfktg","pricing_plan_id":"cebpf4jnsgd1na2vs0mg"},{"bike_id":"72bf8424-7513-4745-b0c0-c8bd394cd641","system_id":"levelo_inurba_marseille","lat":43.25114,"lon":5.40311,"is_reserved":false,"is_disabled":false,"rental_uris":{"android":"levelo://app?vid=72bf8424-7513-4745-b0c0-c8bd394cd641","ios":"levelo://app?vid=72bf8424-7513-4745-b0c0-c8bd394cd641"},"vehicle_type_id":"4","last_reported":1740697726,"current_range_meters":15200,"station_id":"ce4bhlh2rcd13ifvqgig","pricing_plan_id":"cebpf4jnsgd1na2vs0mg"},{"bike_id":"43af329c-244d-4bbc-beab-71128e541a54","system_id":"levelo_inurba_marseille","lat":43.29207,"lon":5.3931,"is_reserved":false,"is_disabled":false,"rental_uris":{"android":"levelo://app?vid=43af329c-244d-4bbc-beab-71128e541a54","ios":"levelo://app?vid=43af329c-244d-4bbc-beab-71128e541a54"},"vehicle_type_id":"4","last_reported":1740697726,"current_range_meters":16000,"station_id":"ce4bh192rcd13ifvqdd0","pricing_plan_id":"cebpf4jnsgd1na2vs0mg"},{"bike_id":"24476cb6-9c12-4997-ab8d-8cfe9d8b4bb4","system_id":"levelo_inurba_marseille","lat":43.28639,"lon":5.35087,"is_reserved":false,"is_disabled":false,"rental_uris":{"android":"levelo://app?vid=24476cb6-9c12-4997-ab8d-8cfe9d8b4bb4","ios":"levelo://app?vid=24476cb6-9c12-4997-ab8d-8cfe9d8b4bb4"},"vehicle_type_id":"4","last_reported":1740697726,"current_range_meters":16400,"station_id":"ce4bhch2rcd13ifvqeug","pricing_plan_id":"cebpf4jnsgd1na2vs0mg"},{"bike_id":"1ec95ae8-47b1-46be-ab6f-633627e7d180","system_id":"levelo_inurba_marseille","lat":43.25077,"lon":5.39509,"is_reserved":false,"is_disabled":false,"rental_uris":{"android":"levelo://app?vid=1ec95ae8-47b1-46be-ab6f-633627e7d180","ios":"levelo://app?vid=1ec95ae8-47b1-46be-ab6f-633627e7d180"},"vehicle_type_id":"4","last_reported":1740697726,"current_range_meters":16800,"station_id":"ce4bhm12rcd13ifvqgkg","pricing_plan_id":"cebpf4jnsgd1na2vs0mg"},{"bike_id":"b6ab9a61-8985-4d83-8f2e-45b4984d4c17","system_id":"levelo_inurba_marseille","lat":43.292606,"lon":5.376253,"is_reserved":false,"is_disabled":false,"rental_uris":{"android":"levelo://app?vid=b6ab9a61-8985-4d83-8f2e-45b4984d4c17","ios":"levelo://app?vid=b6ab9a61-8985-4d83-8f2e-45b4984d4c17"},"vehicle_type_id":"4","last_reported":1740697726,"current_range_meters":16400,"station_id":"ce4bgi12rcd13ifvqb80","pricing_plan_id":"cebpf4jnsgd1na2vs0mg"},{"bike_id":"befe9faa-0acf-4473-ac2e-b1a82faba46c","system_id":"levelo_inurba_marseille","lat":43.28972,"lon":5.36354,"is_reserved":false,"is_disabled":false,"rental_uris":{"android":"levelo://app?vid=befe9faa-0acf-4473-ac2e-b1a82faba46c","ios":"levelo://app?vid=befe9faa-0acf-4473-ac2e-b1a82faba46c"},"vehicle_type_id":"4","last_reported":1740697726,"current_range_meters":16800,"station_id":"ce4bhc92rcd13ifvqetg","pricing_plan_id":"cebpf4jnsgd1na2vs0mg"},{"bike_id":"a613e5ed-7ee4-4dfe-9bda-fb6e0a0edd20","system_id":"levelo_inurba_marseille","lat":43.25108,"lon":5.40325,"is_reserved":false,"is_disabled":false,"rental_uris":{"android":"levelo://app?vid=a613e5ed-7ee4-4dfe-9bda-fb6e0a0edd20","ios":"levelo://app?vid=a613e5ed-7ee4-4dfe-9bda-fb6e0a0edd20"},"vehicle_type_id":"4","last_reported":1740697726,"current_range_meters":16800,"station_id":"ce4bhlh2rcd13ifvqgig","pricing_plan_id":"cebpf4jnsgd1na2vs0mg"},{"bike_id":"28aa6b62-1966-499c-9c1f-09f1e20fdff5","system_id":"levelo_inurba_marseille","lat":43.29247,"lon":5.38429,"is_reserved":false,"is_disabled":true,"rental_uris":{"android":"levelo://app?vid=28aa6b62-1966-499c-9c1f-09f1e20fdff5","ios":"levelo://app?vid=28aa6b62-1966-499c-9c1f-09f1e20fdff5"},"vehicle_type_id":"4","last_reported":1740697726,"current_range_meters":16800,"station_id":"ce4bh692rcd13ifvqea0","pricing_plan_id":"cebpf4jnsgd1na2vs0mg"},{"bike_id":"cb3707bf-5ae0-4061-b6c8-982588f84b39","system_id":"levelo_inurba_marseille","lat":43.27411,"lon":5.39402,"is_reserved":false,"is_disabled":true,"rental_uris":{"android":"levelo://app?vid=cb3707bf-5ae0-4061-b6c8-982588f84b39","ios":"levelo://app?vid=cb3707bf-5ae0-4061-b6c8-982588f84b39"},"vehicle_type_id":"4","last_reported":1740697726,"current_range_meters":16800,"station_id":"ce4bhdp2rcd13ifvqf20","pricing_plan_id":"cebpf4jnsgd1na2vs0mg"},{"bike_id":"8257347b-29cc-4d11-a952-5c3b319819e9","system_id":"levelo_inurba_marseille","lat":43.3029,"lon":5.40458,"is_reserved":false,"is_disabled":false,"rental_uris":{"android":"levelo://app?vid=8257347b-29cc-4d11-a952-5c3b319819e9","ios":"levelo://app?vid=8257347b-29cc-4d11-a952-5c3b319819e9"},"vehicle_type_id":"4","last_reported":1740697726,"current_range_meters":17200,"station_id":"ce4bh012rcd13ifvqd10","pricing_plan_id":"cebpf4jnsgd1na2vs0mg"},{"bike_id":"8ff54b95-129b-4cba-a93f-7d732db68fb9","system_id":"levelo_inurba_marseille","lat":43.30426,"lon":5.38892,"is_reserved":false,"is_disabled":false,"rental_uris":{"android":"levelo://app?vid=8ff54b95-129b-4cba-a93f-7d732db68fb9","ios":"levelo://app?vid=8ff54b95-129b-4cba-a93f-7d732db68fb9"},"vehicle_type_id":"4","last_reported":1740697726,"current_range_meters":16400,"station_id":"ce4bgk12rcd13ifvqbi0","pricing_plan_id":"cebpf4jnsgd1na2vs0mg"},{"bike_id":"7c373590-3fd6-44dc-a774-01671497b545","system_id":"levelo_inurba_marseille","lat":43.286206,"lon":5.350982,"is_reserved":false,"is_disabled":false,"rental_uris":{"android":"levelo://app?vid=7c373590-3fd6-44dc-a774-01671497b545","ios":"levelo://app?vid=7c373590-3fd6-44dc-a774-01671497b545"},"vehicle_type_id":"4","last_reported":1740697726,"current_range_meters":16800,"station_id":"ce4bhch2rcd13ifvqeug","pricing_plan_id":"cebpf4jnsgd1na2vs0mg"},{"bike_id":"628d4724-b075-47e2-9b24-d38c2a4b1c4e","system_id":"levelo_inurba_marseille","lat":43.26939,"lon":5.40257,"is_reserved":false,"is_disabled":false,"rental_uris":{"android":"levelo://app?vid=628d4724-b075-47e2-9b24-d38c2a4b1c4e","ios":"levelo://app?vid=628d4724-b075-47e2-9b24-d38c2a4b1c4e"},"vehicle_type_id":"4","last_reported":1740697726,"current_range_meters":16800,"station_id":"cjm6bp8fraef2m0cb0m0","pricing_plan_id":"cebpf4jnsgd1na2vs0mg"},{"bike_id":"382d557d-8024-4f45-8140-482a40d06b19","system_id":"levelo_inurba_marseille","lat":43.27806,"lon":5.4074,"is_reserved":false,"is_disabled":false,"rental_uris":{"android":"levelo://app?vid=382d557d-8024-4f45-8140-482a40d06b19","ios":"levelo://app?vid=382d557d-8024-4f45-8140-482a40d06b19"},"vehicle_type_id":"4","last_reported":1740697726,"current_range_meters":16800,"station_id":"ce4bhnh2rcd13ifvqgtg","pricing_plan_id":"cebpf4jnsgd1na2vs0mg"},{"bike_id":"3d37516f-b495-4246-a6f1-f99b58a94a3f","system_id":"levelo_inurba_marseille","lat":43.30135,"lon":5.39857,"is_reserved":false,"is_disabled":false,"rental_uris":{"android":"levelo://app?vid=3d37516f-b495-4246-a6f1-f99b58a94a3f","ios":"levelo://app?vid=3d37516f-b495-4246-a6f1-f99b58a94a3f"},"vehicle_type_id":"4","last_reported":1740697726,"current_range_meters":16800,"station_id":"ce4bh0h2rcd13ifvqd40","pricing_plan_id":"cebpf4jnsgd1na2vs0mg"},{"bike_id":"3ef19255-5c1c-4038-9633-81456dc4addd","system_id":"levelo_inurba_marseille","lat":43.28707,"lon":5.39983,"is_reserved":false,"is_disabled":false,"rental_uris":{"android":"levelo://app?vid=3ef19255-5c1c-4038-9633-81456dc4addd","ios":"levelo://app?vid=3ef19255-5c1c-4038-9633-81456dc4addd"},"vehicle_type_id":"4","last_reported":1740697726,"current_range_meters":16800,"station_id":"ce4bho92rcd13ifvqh3g","pricing_plan_id":"cebpf4jnsgd1na2vs0mg"},{"bike_id":"b4f1c498-5c3f-4907-bdfa-6b4e5dbdb3b3","system_id":"levelo_inurba_marseille","lat":43.28456,"lon":5.35887,"is_reserved":false,"is_disabled":false,"rental_uris":{"android":"levelo://app?vid=b4f1c498-5c3f-4907-bdfa-6b4e5dbdb3b3","ios":"levelo://app?vid=b4f1c498-5c3f-4907-bdfa-6b4e5dbdb3b3"},"vehicle_type_id":"4","last_reported":1740697726,"current_range_meters":17200,"station_id":"ce4bhah2rcd13ifvqei0","pricing_plan_id":"cebpf4jnsgd1na2vs0mg"},{"bike_id":"c002e01b-ff75-4dc7-9d9b-ec32f49c6141","system_id":"levelo_inurba_marseille","lat":43.30326,"lon":5.40431,"is_reserved":false,"is_disabled":false,"rental_uris":{"android":"levelo://app?vid=c002e01b-ff75-4dc7-9d9b-ec32f49c6141","ios":"levelo://app?vid=c002e01b-ff75-4dc7-9d9b-ec32f49c6141"},"vehicle_type_id":"4","last_reported":1740697726,"current_range_meters":17200,"station_id":"ce4bh012rcd13ifvqd10","pricing_plan_id":"cebpf4jnsgd1na2vs0mg"},{"bike_id":"e62e4c2a-07e3-41ea-af00-47fec24e19ec","system_id":"levelo_inurba_marseille","lat":43.28839,"lon":5.35833,"is_reserved":false,"is_disabled":false,"rental_uris":{"android":"levelo://app?vid=e62e4c2a-07e3-41ea-af00-47fec24e19ec","ios":"levelo://app?vid=e62e4c2a-07e3-41ea-af00-47fec24e19ec"},"vehicle_type_id":"4","last_reported":1740697726,"current_range_meters":17200,"station_id":"ce4bhb12rcd13ifvqem0","pricing_plan_id":"cebpf4jnsgd1na2vs0mg"},{"bike_id":"02fde640-df4b-4d15-96e2-05404ad59234","system_id":"levelo_inurba_marseille","lat":43.28659,"lon":5.36342,"is_reserved":false,"is_disabled":false,"rental_uris":{"android":"levelo://app?vid=02fde640-df4b-4d15-96e2-05404ad59234","ios":"levelo://app?vid=02fde640-df4b-4d15-96e2-05404ad59234"},"vehicle_type_id":"4","last_reported":1740697726,"current_range_meters":17200,"station_id":"ce4bhah2rcd13ifvqej0","pricing_plan_id":"cebpf4jnsgd1na2vs0mg"},{"bike_id":"ee641f6b-b968-4ac7-8422-c096dd19cc13","system_id":"levelo_inurba_marseille","lat":43.31702,"lon":5.37789,"is_reserved":false,"is_disabled":false,"rental_uris":{"android":"levelo://app?vid=ee641f6b-b968-4ac7-8422-c096dd19cc13","ios":"levelo://app?vid=ee641f6b-b968-4ac7-8422-c096dd19cc13"},"vehicle_type_id":"4","last_reported":1740697726,"current_range_meters":17200,"station_id":"ce4bgth2rcd13ifvqch0","pricing_plan_id":"cebpf4jnsgd1na2vs0mg"},{"bike_id":"364b209e-752e-45ea-b26c-06b2552c1833","system_id":"levelo_inurba_marseille","lat":43.23181,"lon":5.35569,"is_reserved":false,"is_disabled":false,"rental_uris":{"android":"levelo://app?vid=364b209e-752e-45ea-b26c-06b2552c1833","ios":"levelo://app?vid=364b209e-752e-45ea-b26c-06b2552c1833"},"vehicle_type_id":"4","last_reported":1740697726,"current_range_meters":17200,"station_id":"ce4bhu92rcd13ifvqi70","pricing_plan_id":"cebpf4jnsgd1na2vs0mg"},{"bike_id":"49e9cdc7-76a5-4b66-ae2d-61c73beb73a8","system_id":"levelo_inurba_marseille","lat":43.24173,"lon":5.36396,"is_reserved":false,"is_disabled":false,"rental_uris":{"android":"levelo://app?vid=49e9cdc7-76a5-4b66-ae2d-61c73beb73a8","ios":"levelo://app?vid=49e9cdc7-76a5-4b66-ae2d-61c73beb73a8"},"vehicle_type_id":"4","last_reported":1740697726,"current_range_meters":17600,"station_id":"cpo36qri1sfpv3e86is0","pricing_plan_id":"cebpf4jnsgd1na2vs0mg"},{"bike_id":"799db38b-d1ec-4880-9ea0-bfc34870244b","system_id":"levelo_inurba_marseille","lat":43.28704,"lon":5.39983,"is_reserved":false,"is_disabled":false,"rental_uris":{"android":"levelo://app?vid=799db38b-d1ec-4880-9ea0-bfc34870244b","ios":"levelo://app?vid=799db38b-d1ec-4880-9ea0-bfc34870244b"},"vehicle_type_id":"4","last_reported":1740697726,"current_range_meters":17200,"station_id":"ce4bho92rcd13ifvqh3g","pricing_plan_id":"cebpf4jnsgd1na2vs0mg"},{"bike_id":"513648a8-4857-4a1e-ac21-b4d51535a801","system_id":"levelo_inurba_marseille","lat":43.31725,"lon":5.42394,"is_reserved":false,"is_disabled":false,"rental_uris":{"android":"levelo://app?vid=513648a8-4857-4a1e-ac21-b4d51535a801","ios":"levelo://app?vid=513648a8-4857-4a1e-ac21-b4d51535a801"},"vehicle_type_id":"4","last_reported":1740697726,"current_range_meters":17200,"station_id":"ce4bhp92rcd13ifvqhbg","pricing_plan_id":"cebpf4jnsgd1na2vs0mg"},{"bike_id":"9f1c6377-b4a5-45a7-b171-d04c7ca19da1","system_id":"levelo_inurba_marseille","lat":43.27662,"lon":5.38896,"is_reserved":false,"is_disabled":false,"rental_uris":{"android":"levelo://app?vid=9f1c6377-b4a5-45a7-b171-d04c7ca19da1","ios":"levelo://app?vid=9f1c6377-b4a5-45a7-b171-d04c7ca19da1"},"vehicle_type_id":"4","last_reported":1740697726,"current_range_meters":18000,"station_id":"ce4bhi12rcd13ifvqfo0","pricing_plan_id":"cebpf4jnsgd1na2vs0mg"},{"bike_id":"3e4abcf6-ec74-4d4d-8722-1baf5799169b","system_id":"levelo_inurba_marseille","lat":43.2841,"lon":5.37542,"is_reserved":false,"is_disabled":false,"rental_uris":{"android":"levelo://app?vid=3e4abcf6-ec74-4d4d-8722-1baf5799169b","ios":"levelo://app?vid=3e4abcf6-ec74-4d4d-8722-1baf5799169b"},"vehicle_type_id":"4","last_reported":1740697726,"current_range_meters":17200,"station_id":"ce4bh412rcd13ifvqds0","pricing_plan_id":"cebpf4jnsgd1na2vs0mg"},{"bike_id":"ee137681-0010-4a60-9633-c2b6b9d43f5a","system_id":"levelo_inurba_marseille","lat":43.29,"lon":5.35607,"is_reserved":false,"is_disabled":false,"rental_uris":{"android":"levelo://app?vid=ee137681-0010-4a60-9633-c2b6b9d43f5a","ios":"levelo://app?vid=ee137681-0010-4a60-9633-c2b6b9d43f5a"},"vehicle_type_id":"4","last_reported":1740697726,"current_range_meters":17200,"station_id":"ce4bhb92rcd13ifvqen0","pricing_plan_id":"cebpf4jnsgd1na2vs0mg"},{"bike_id":"7cb5f9ac-368b-45e9-8b10-ae7e339a0f63","system_id":"levelo_inurba_marseille","lat":43.28698,"lon":5.39981,"is_reserved":false,"is_disabled":false,"rental_uris":{"android":"levelo://app?vid=7cb5f9ac-368b-45e9-8b10-ae7e339a0f63","ios":"levelo://app?vid=7cb5f9ac-368b-45e9-8b10-ae7e339a0f63"},"vehicle_type_id":"4","last_reported":1740697726,"current_range_meters":17600,"station_id":"ce4bho92rcd13ifvqh3g","pricing_plan_id":"cebpf4jnsgd1na2vs0mg"},{"bike_id":"aec2739f-9f23-49fa-8110-0926e98ca9be","system_id":"levelo_inurba_marseille","lat":43.30547,"lon":5.38428,"is_reserved":false,"is_disabled":false,"rental_uris":{"android":"levelo://app?vid=aec2739f-9f23-49fa-8110-0926e98ca9be","ios":"levelo://app?vid=aec2739f-9f23-49fa-8110-0926e98ca9be"},"vehicle_type_id":"4","last_reported":1740697726,"current_range_meters":17600,"station_id":"ce4bgg92rcd13ifvqb30","pricing_plan_id":"cebpf4jnsgd1na2vs0mg"},{"bike_id":"f919809d-dd9d-4e14-85ef-be2db1b8dd2e","system_id":"levelo_inurba_marseille","lat":43.28459,"lon":5.35882,"is_reserved":false,"is_disabled":false,"rental_uris":{"android":"levelo://app?vid=f919809d-dd9d-4e14-85ef-be2db1b8dd2e","ios":"levelo://app?vid=f919809d-dd9d-4e14-85ef-be2db1b8dd2e"},"vehicle_type_id":"4","last_reported":1740697726,"current_range_meters":17600,"station_id":"ce4bhah2rcd13ifvqei0","pricing_plan_id":"cebpf4jnsgd1na2vs0mg"},{"bike_id":"304f543e-35b0-4c9c-9eea-6331cc081879","system_id":"levelo_inurba_marseille","lat":43.2846,"lon":5.35881,"is_reserved":false,"is_disabled":false,"rental_uris":{"android":"levelo://app?vid=304f543e-35b0-4c9c-9eea-6331cc081879","ios":"levelo://app?vid=304f543e-35b0-4c9c-9eea-6331cc081879"},"vehicle_type_id":"4","last_reported":1740697726,"current_range_meters":19200,"station_id":"ce4bhah2rcd13ifvqei0","pricing_plan_id":"cebpf4jnsgd1na2vs0mg"},{"bike_id":"f0597e46-1a53-4ff5-82fc-707d6a81a713","system_id":"levelo_inurba_marseille","lat":43.30795,"lon":5.38172,"is_reserved":false,"is_disabled":false,"rental_uris":{"android":"levelo://app?vid=f0597e46-1a53-4ff5-82fc-707d6a81a713","ios":"levelo://app?vid=f0597e46-1a53-4ff5-82fc-707d6a81a713"},"vehicle_type_id":"4","last_reported":1740697726,"current_range_meters":17600,"station_id":"ce4bgt12rcd13ifvqce0","pricing_plan_id":"cebpf4jnsgd1na2vs0mg"},{"bike_id":"5a3669b0-0e61-4aab-ace8-8fee2988f941","system_id":"levelo_inurba_marseille","lat":43.30933,"lon":5.40153,"is_reserved":false,"is_disabled":false,"rental_uris":{"android":"levelo://app?vid=5a3669b0-0e61-4aab-ace8-8fee2988f941","ios":"levelo://app?vid=5a3669b0-0e61-4aab-ace8-8fee2988f941"},"vehicle_type_id":"4","last_reported":1740697726,"current_range_meters":18000,"station_id":"ce4bgvp2rcd13ifvqct0","pricing_plan_id":"cebpf4jnsgd1na2vs0mg"},{"bike_id":"5bc4067b-edf1-4b5e-ae1a-c4e4a4b4741b","system_id":"levelo_inurba_marseille","lat":43.31107,"lon":5.37774,"is_reserved":false,"is_disabled":false,"rental_uris":{"android":"levelo://app?vid=5bc4067b-edf1-4b5e-ae1a-c4e4a4b4741b","ios":"levelo://app?vid=5bc4067b-edf1-4b5e-ae1a-c4e4a4b4741b"},"vehicle_type_id":"4","last_reported":1740697726,"current_range_meters":17600,"station_id":"ce4bgt92rcd13ifvqcg0","pricing_plan_id":"cebpf4jnsgd1na2vs0mg"},{"bike_id":"d79774a6-7426-41ac-b7c6-85789974d608","system_id":"levelo_inurba_marseille","lat":43.25579,"lon":5.38255,"is_reserved":false,"is_disabled":false,"rental_uris":{"android":"levelo://app?vid=d79774a6-7426-41ac-b7c6-85789974d608","ios":"levelo://app?vid=d79774a6-7426-41ac-b7c6-85789974d608"},"vehicle_type_id":"4","last_reported":1740697726,"current_range_meters":17600,"station_id":"ce4bhih2rcd13ifvqfs0","pricing_plan_id":"cebpf4jnsgd1na2vs0mg"},{"bike_id":"e83bf39b-4146-4202-86eb-1ca42f77b26a","system_id":"levelo_inurba_marseille","lat":43.25108,"lon":5.40328,"is_reserved":false,"is_disabled":false,"rental_uris":{"android":"levelo://app?vid=e83bf39b-4146-4202-86eb-1ca42f77b26a","ios":"levelo://app?vid=e83bf39b-4146-4202-86eb-1ca42f77b26a"},"vehicle_type_id":"4","last_reported":1740697726,"current_range_meters":17600,"station_id":"ce4bhlh2rcd13ifvqgig","pricing_plan_id":"cebpf4jnsgd1na2vs0mg"},{"bike_id":"299e1ac3-a9aa-4f9b-9e64-de9b8db0b77a","system_id":"levelo_inurba_marseille","lat":43.31079,"lon":5.38344,"is_reserved":false,"is_disabled":false,"rental_uris":{"android":"levelo://app?vid=299e1ac3-a9aa-4f9b-9e64-de9b8db0b77a","ios":"levelo://app?vid=299e1ac3-a9aa-4f9b-9e64-de9b8db0b77a"},"vehicle_type_id":"4","last_reported":1740697726,"current_range_meters":17600,"station_id":"ce4bgv92rcd13ifvqcr0","pricing_plan_id":"cebpf4jnsgd1na2vs0mg"},{"bike_id":"e77274da-0eb8-435b-8d04-8170a0e91a50","system_id":"levelo_inurba_marseille","lat":43.282583,"lon":5.350639,"is_reserved":false,"is_disabled":false,"rental_uris":{"android":"levelo://app?vid=e77274da-0eb8-435b-8d04-8170a0e91a50","ios":"levelo://app?vid=e77274da-0eb8-435b-8d04-8170a0e91a50"},"vehicle_type_id":"4","last_reported":1740697726,"current_range_meters":18800,"station_id":"ce4bh0h2rcd13ifvqd50","pricing_plan_id":"cebpf4jnsgd1na2vs0mg"},{"bike_id":"26867775-6abb-4a91-a339-9f9c81f54a40","system_id":"levelo_inurba_marseille","lat":43.24689,"lon":5.38145,"is_reserved":false,"is_disabled":false,"rental_uris":{"android":"levelo://app?vid=26867775-6abb-4a91-a339-9f9c81f54a40","ios":"levelo://app?vid=26867775-6abb-4a91-a339-9f9c81f54a40"},"vehicle_type_id":"4","last_reported":1740697726,"current_range_meters":18800,"station_id":"ce4bhih2rcd13ifvqfr0","pricing_plan_id":"cebpf4jnsgd1na2vs0mg"},{"bike_id":"d59ff815-9c90-4db5-9712-87332fc747a8","system_id":"levelo_inurba_marseille","lat":43.29298,"lon":5.37176,"is_reserved":false,"is_disabled":false,"rental_uris":{"android":"levelo://app?vid=d59ff815-9c90-4db5-9712-87332fc747a8","ios":"levelo://app?vid=d59ff815-9c90-4db5-9712-87332fc747a8"},"vehicle_type_id":"4","last_reported":1740697726,"current_range_meters":20400,"station_id":"ce4bgh92rcd13ifvqb40","pricing_plan_id":"cebpf4jnsgd1na2vs0mg"},{"bike_id":"09b9b1ba-a68b-4280-a86f-7f7da4e66a6c","system_id":"levelo_inurba_marseille","lat":43.30887,"lon":5.39623,"is_reserved":false,"is_disabled":false,"rental_uris":{"android":"levelo://app?vid=09b9b1ba-a68b-4280-a86f-7f7da4e66a6c","ios":"levelo://app?vid=09b9b1ba-a68b-4280-a86f-7f7da4e66a6c"},"vehicle_type_id":"4","last_reported":1740697726,"current_range_meters":18000,"station_id":"ce4bh012rcd13ifvqcv0","pricing_plan_id":"cebpf4jnsgd1na2vs0mg"},{"bike_id":"1c6f1a05-e07e-43ca-a432-8be71aba1655","system_id":"levelo_inurba_marseille","lat":43.30642,"lon":5.401,"is_reserved":false,"is_disabled":false,"rental_uris":{"android":"levelo://app?vid=1c6f1a05-e07e-43ca-a432-8be71aba1655","ios":"levelo://app?vid=1c6f1a05-e07e-43ca-a432-8be71aba1655"},"vehicle_type_id":"4","last_reported":1740697726,"current_range_meters":18000,"station_id":"ce4bh112rcd13ifvqda0","pricing_plan_id":"cebpf4jnsgd1na2vs0mg"},{"bike_id":"597c78d8-1097-48db-b3be-fafc8754eab9","system_id":"levelo_inurba_marseille","lat":43.24104,"lon":5.36402,"is_reserved":false,"is_disabled":false,"rental_uris":{"android":"levelo://app?vid=597c78d8-1097-48db-b3be-fafc8754eab9","ios":"levelo://app?vid=597c78d8-1097-48db-b3be-fafc8754eab9"},"vehicle_type_id":"4","last_reported":1740697726,"current_range_meters":18000,"station_id":"","pricing_plan_id":"cebpf4jnsgd1na2vs0mg"},{"bike_id":"cd7f3d19-9285-4561-a0db-46b85585bd1f","system_id":"levelo_inurba_marseille","lat":43.28717,"lon":5.3794,"is_reserved":false,"is_disabled":false,"rental_uris":{"android":"levelo://app?vid=cd7f3d19-9285-4561-a0db-46b85585bd1f","ios":"levelo://app?vid=cd7f3d19-9285-4561-a0db-46b85585bd1f"},"vehicle_type_id":"4","last_reported":1740697726,"current_range_meters":18000,"station_id":"ce4bh9p2rcd13ifvqec0","pricing_plan_id":"cebpf4jnsgd1na2vs0mg"},{"bike_id":"ab2cbdfd-18e8-4816-aeda-22028e876c64","system_id":"levelo_inurba_marseille","lat":43.28604,"lon":5.35088,"is_reserved":false,"is_disabled":false,"rental_uris":{"android":"levelo://app?vid=ab2cbdfd-18e8-4816-aeda-22028e876c64","ios":"levelo://app?vid=ab2cbdfd-18e8-4816-aeda-22028e876c64"},"vehicle_type_id":"4","last_reported":1740697726,"current_range_meters":18800,"station_id":"ce4bhch2rcd13ifvqeug","pricing_plan_id":"cebpf4jnsgd1na2vs0mg"},{"bike_id":"9062ad42-18cc-4880-abfa-5d4e6bf94241","system_id":"levelo_inurba_marseille","lat":43.23178,"lon":5.39995,"is_reserved":false,"is_disabled":false,"rental_uris":{"android":"levelo://app?vid=9062ad42-18cc-4880-abfa-5d4e6bf94241","ios":"levelo://app?vid=9062ad42-18cc-4880-abfa-5d4e6bf94241"},"vehicle_type_id":"4","last_reported":1740697726,"current_range_meters":18800,"station_id":"ce4bhn12rcd13ifvqgqg","pricing_plan_id":"cebpf4jnsgd1na2vs0mg"},{"bike_id":"b2dad460-fcee-41a0-aa91-519d195646e1","system_id":"levelo_inurba_marseille","lat":43.30539,"lon":5.38424,"is_reserved":false,"is_disabled":false,"rental_uris":{"android":"levelo://app?vid=b2dad460-fcee-41a0-aa91-519d195646e1","ios":"levelo://app?vid=b2dad460-fcee-41a0-aa91-519d195646e1"},"vehicle_type_id":"4","last_reported":1740697726,"current_range_meters":18800,"station_id":"ce4bgg92rcd13ifvqb30","pricing_plan_id":"cebpf4jnsgd1na2vs0mg"},{"bike_id":"737315e8-e42f-478d-8994-74c9331bd58d","system_id":"levelo_inurba_marseille","lat":43.30808,"lon":5.43524,"is_reserved":false,"is_disabled":false,"rental_uris":{"android":"levelo://app?vid=737315e8-e42f-478d-8994-74c9331bd58d","ios":"levelo://app?vid=737315e8-e42f-478d-8994-74c9331bd58d"},"vehicle_type_id":"4","last_reported":1740697726,"current_range_meters":18800,"station_id":"ce4bhph2rcd13ifvqheg","pricing_plan_id":"cebpf4jnsgd1na2vs0mg"},