{"last_updated":1724087325,"ttl":30,"version":"2.2","data":{"bikes":[{"bike_id":"e831dec7-daf6-42d0-b80e-cec2703ab8f9","system_id":"levelo_inurba_marseille","lat":43.314811,"lon":5.373103,"is_reserved":false,"is_disabled":false,"rental_uris":{"android":"levelo://app?vid=e831dec7-daf6-42d0-b80e-cec2703ab8f9","ios":"levelo://app?vid=e831dec7-daf6-42d0-b80e-cec2703ab8f9"},"vehicle_type_id":"4","last_reported":1724087325,"current_range_meters":0,"station_id":"ce4bgt12rcd13ifvqcd0","pricing_plan_id":"cebpf4jnsgd1na2vs0mg"},{"bike_id":"7b88deb8-ad7e-4352-9881-f8f39afcfa7d","system_id":"levelo_inurba_marseille","lat":43.314811,"lon":5.373103,"is_reserved":false,"is_disabled":false,"rental_uris":{"android":"levelo://app?vid=7b88deb8-ad7e-4352-9881-f8f39afcfa7d","ios":"levelo://app?vid=7b88deb8-ad7e-4352-9881-f8f39afcfa7d"},"vehicle_type_id":"4","last_reported":1724087325,"current_range_meters":0,"station_id":"ce4bgt12rcd13ifvqcd0","pricing_plan_id":"cebpf4jnsgd1na2vs0mg"},{"bike_id":"62a58094-fc46-4009-ad53-028a15776bd4","system_id":"levelo_inurba_marseille","lat":43.314811,"lon":5.373103,"is_reserved":false,"is_disabled":false,"rental_uris":{"android":"levelo://app?vid=62a58094-fc46-4009-ad53-028a15776bd4","ios":"levelo://app?vid=62a58094-fc46-4009-ad53-028a15776bd4"},"vehicle_type_id":"4","last_reported":1724087325,"current_range_meters":10800,"station_id":"ce4bgt12rcd13ifvqcd0","pricing_plan_id":"cebpf4jnsgd1na2vs0mg"},{"bike_id":"aba20d67-f311-45f8-a8cb-6c140cc578ee","system_id":"levelo_inurba_marseille","lat":43.309039,"lon":5.371797,"is_reserved":false,"is_disabled":false,"rental_uris":{"android":"levelo://app?vid=aba20d67-f311-45f8-a8cb-6c140cc578ee","ios":"levelo://app?vid=aba20d67-f311-45f8-a8cb-6c140cc578ee"},"vehicle_type_id":"4","last_reported":1724087325,"current_range_meters":0,"station_id":"ce4bguh2rcd13ifvqckg","pricing_plan_id":"cebpf4jnsgd1na2vs0mg"},{"bike_id":"7b9ee7e8-5abe-4ae5-a03b-760beb6ef082","system_id":"levelo_inurba_marseille","lat":43.314573,"lon":5.373791,"is_reserved":false,"is_disabled":false,"rental_uris":{"android":"levelo://app?vid=7b9ee7e8-5abe-4ae5-a03b-760beb6ef082","ios":"levelo://app?vid=7b9ee7e8-5abe-4ae5-a03b-760beb6ef082"},"vehicle_type_id":"4","last_reported":1724087325,"current_range_meters":2000,"station_id":"","pricing_plan_id":"cebpf4jnsgd1na2vs0mg"},{"bike_id":"2a4771fd-c6cd-4d24-8ecf-6bb632fb4768","system_id":"levelo_inurba_marseille","lat":43.31493,"lon":5.374,"is_reserved":false,"is_disabled":false,"rental_uris":{"android":"levelo://app?vid=2a4771fd-c6cd-4d24-8ecf-6bb632fb4768","ios":"levelo://app?vid=2a4771fd-c6cd-4d24-8ecf-6bb632fb4768"},"vehicle_type_id":"4","last_reported":1724087325,"current_range_meters":26400,"station_id":"","pricing_plan_id":"cebpf4jnsgd1na2vs0mg"},{"bike_id":"78c15995-130a-4e7f-b548-7a45ac60754c","system_id":"levelo_inurba_marseille","lat":43.305368,"lon":5.367343,"is_reserved":false,"is_disabled":false,"rental_uris":{"android":"levelo://app?vid=78c15995-130a-4e7f-b548-7a45ac60754c","ios":"levelo://app?vid=78c15995-130a-4e7f-b548-7a45ac60754c"},"vehicle_type_id":"4","last_reported":1724087325,"current_range_meters":0,"station_id":"ce4bgrp2rcd13ifvqc9g","pricing_plan_id":"cebpf4jnsgd1na2vs0mg"},{"bike_id":"33776c1c-0973-4aa1-bd94-e30ec1e3626c","system_id":"levelo_inurba_marseille","lat":43.305368,"lon":5.367343,"is_reserved":false,"is_disabled":false,"rental_uris":{"android":"levelo://app?vid=33776c1c-0973-4aa1-bd94-e30ec1e3626c","ios":"levelo://app?vid=33776c1c-0973-4aa1-bd94-e30ec1e3626c"},"vehicle_type_id":"4","last_reported":1724087325,"current_range_meters":12000,"station_id":"ce4bgrp2rcd13ifvqc9g","pricing_plan_id":"cebpf4jnsgd1na2vs0mg"},{"bike_id":"3d21f464-748d-45d9-8b29-2696bbed9af0","system_id":"levelo_inurba_marseille","lat":43.30536,"lon":5.36551,"is_reserved":false,"is_disabled":false,"rental_uris":{"android":"levelo://app?vid=3d21f464-748d-45d9-8b29-2696bbed9af0","ios":"levelo://app?vid=3d21f464-748d-45d9-8b29-2696bbed9af0"},"vehicle_type_id":"4","last_reported":1724087325,"current_range_meters":0,"station_id":"ce4bgs12rcd13ifvqcag","pricing_plan_id":"cebpf4jnsgd1na2vs0mg"},{"bike_id":"9dcb1052-3c4d-4605-aaa8-0466a3d1d0cd","system_id":"levelo_inurba_marseille","lat":43.31116,"lon":5.37767,"is_reserved":false,"is_disabled":false,"rental_uris":{"android":"levelo://app?vid=9dcb1052-3c4d-4605-aaa8-0466a3d1d0cd","ios":"levelo://app?vid=9dcb1052-3c4d-4605-aaa8-0466a3d1d0cd"},"vehicle_type_id":"4","last_reported":1724087325,"current_range_meters":30800,"station_id":"ce4bgt92rcd13ifvqcg0","pricing_plan_id":"cebpf4jnsgd1na2vs0mg"},{"bike_id":"e2ca4dc4-6de7-430f-a002-bca0ac8728bb","system_id":"levelo_inurba_marseille","lat":43.31125,"lon":5.37776,"is_reserved":false,"is_disabled":false,"rental_uris":{"android":"levelo://app?vid=e2ca4dc4-6de7-430f-a002-bca0ac8728bb","ios":"levelo://app?vid=e2ca4dc4-6de7-430f-a002-bca0ac8728bb"},"vehicle_type_id":"4","last_reported":1724087325,"current_range_meters":31200,"station_id":"ce4bgt92rcd13ifvqcg0","pricing_plan_id":"cebpf4jnsgd1na2vs0mg"},{"bike_id":"b123cdb8-55d6-4c5b-b691-0bc9de67d700","system_id":"levelo_inurba_marseille","lat":43.307945,"lon":5.376487,"is_reserved":false,"is_disabled":false,"rental_uris":{"android":"levelo://app?vid=b123cdb8-55d6-4c5b-b691-0bc9de67d700","ios":"levelo://app?vid=b123cdb8-55d6-4c5b-b691-0bc9de67d700"},"vehicle_type_id":"4","last_reported":1724087325,"current_range_meters":0,"station_id":"ce4bgv92rcd13ifvqcq0","pricing_plan_id":"cebpf4jnsgd1na2vs0mg"},{"bike_id":"545c8e51-e822-4604-941b-6bffe9358360","system_id":"levelo_inurba_marseille","lat":43.30929,"lon":5.37891,"is_reserved":false,"is_disabled":false,"rental_uris":{"android":"levelo://app?vid=545c8e51-e822-4604-941b-6bffe9358360","ios":"levelo://app?vid=545c8e51-e822-4604-941b-6bffe9358360"},"vehicle_type_id":"4","last_reported":1724087325,"current_range_meters":15200,"station_id":"","pricing_plan_id":"cebpf4jnsgd1na2vs0mg"},{"bike_id":"9c5e5295-5fb5-4a13-8ec8-f6665626bd31","system_id":"levelo_inurba_marseille","lat":43.301939,"lon":5.366286,"is_reserved":false,"is_disabled":false,"rental_uris":{"android":"levelo://app?vid=9c5e5295-5fb5-4a13-8ec8-f6665626bd31","ios":"levelo://app?vid=9c5e5295-5fb5-4a13-8ec8-f6665626bd31"},"vehicle_type_id":"4","last_reported":1724087325,"current_range_meters":20000,"station_id":"ce4bgrh2rcd13ifvqc8g","pricing_plan_id":"cebpf4jnsgd1na2vs0mg"},{"bike_id":"6c56a15e-4e7f-44ad-a780-893fa378c997","system_id":"levelo_inurba_marseille","lat":43.30795,"lon":5.38161,"is_reserved":false,"is_disabled":false,"rental_uris":{"android":"levelo://app?vid=6c56a15e-4e7f-44ad-a780-893fa378c997","ios":"levelo://app?vid=6c56a15e-4e7f-44ad-a780-893fa378c997"},"vehicle_type_id":"4","last_reported":1724087325,"current_range_meters":30400,"station_id":"ce4bgt12rcd13ifvqce0","pricing_plan_id":"cebpf4jnsgd1na2vs0mg"},{"bike_id":"5489c2a7-f192-430c-9a7d-070af942555a","system_id":"levelo_inurba_marseille","lat":43.30463,"lon":5.37909,"is_reserved":false,"is_disabled":false,"rental_uris":{"android":"levelo://app?vid=5489c2a7-f192-430c-9a7d-070af942555a","ios":"levelo://app?vid=5489c2a7-f192-430c-9a7d-070af942555a"},"vehicle_type_id":"4","last_reported":1724087325,"current_range_meters":14000,"station_id":"ce4bgup2rcd13ifvqcn0","pricing_plan_id":"cebpf4jnsgd1na2vs0mg"},{"bike_id":"86e5c166-d17d-4eae-9606-e0b836a45405","system_id":"levelo_inurba_marseille","lat":43.324771,"lon":5.36557,"is_reserved":false,"is_disabled":false,"rental_uris":{"android":"levelo://app?vid=86e5c166-d17d-4eae-9606-e0b836a45405","ios":"levelo://app?vid=86e5c166-d17d-4eae-9606-e0b836a45405"},"vehicle_type_id":"4","last_reported":1724087325,"current_range_meters":3200,"station_id":"ce4bhs12rcd13ifvqhvg","pricing_plan_id":"cebpf4jnsgd1na2vs0mg"},{"bike_id":"bcec2fef-4f87-4b63-b67b-508637a07591","system_id":"levelo_inurba_marseille","lat":43.324771,"lon":5.36557,"is_reserved":false,"is_disabled":false,"rental_uris":{"android":"levelo://app?vid=bcec2fef-4f87-4b63-b67b-508637a07591","ios":"levelo://app?vid=bcec2fef-4f87-4b63-b67b-508637a07591"},"vehicle_type_id":"4","last_reported":1724087325,"current_range_meters":27200,"station_id":"ce4bhs12rcd13ifvqhvg","pricing_plan_id":"cebpf4jnsgd1na2vs0mg"},{"bike_id":"662117b5-bb70-4eb3-ac47-82e3bc97a38e","system_id":"levelo_inurba_marseille","lat":43.324771,"lon":5.36557,"is_reserved":false,"is_disabled":false,"rental_uris":{"android":"levelo://app?vid=662117b5-bb70-4eb3-ac47-82e3bc97a38e","ios":"levelo://app?vid=662117b5-bb70-4eb3-ac47-82e3bc97a38e"},"vehicle_type_id":"4","last_reported":1724087325,"current_range_meters":27200,"station_id":"ce4bhs12rcd13ifvqhvg","pricing_plan_id":"cebpf4jnsgd1na2vs0mg"},{"bike_id":"dc18ef80-7b17-4500-950b-a5b475701f80","system_id":"levelo_inurba_marseille","lat":43.324771,"lon":5.36557,"is_reserved":false,"is_disabled":false,"rental_uris":{"android":"levelo://app?vid=dc18ef80-7b17-4500-950b-a5b475701f80","ios":"levelo://app?vid=dc18ef80-7b17-4500-950b-a5b475701f80"},"vehicle_type_id":"4","last_reported":1724087325,"current_range_meters":12400,"station_id":"ce4bhs12rcd13ifvqhvg","pricing_plan_id":"cebpf4jnsgd1na2vs0mg"},{"bike_id":"006d918b-d366-4358-bcb1-321285afa275","system_id":"levelo_inurba_marseille","lat":43.324823,"lon":5.365603,"is_reserved":false,"is_disabled":false,"rental_uris":{"android":"levelo://app?vid=006d918b-d366-4358-bcb1-321285afa275","ios":"levelo://app?vid=006d918b-d366-4358-bcb1-321285afa275"},"vehicle_type_id":"4","last_reported":1724087325,"current_range_meters":8000,"station_id":"ce4bhs12rcd13ifvqhvg","pricing_plan_id":"cebpf4jnsgd1na2vs0mg"},{"bike_id":"e3320ad1-80fc-4357-8088-3385ae06d232","system_id":"levelo_inurba_marseille","lat":43.324771,"lon":5.36557,"is_reserved":false,"is_disabled":false,"rental_uris":{"android":"levelo://app?vid=e3320ad1-80fc-4357-8088-3385ae06d232","ios":"levelo://app?vid=e3320ad1-80fc-4357-8088-3385ae06d232"},"vehicle_type_id":"4","last_reported":1724087325,"current_range_meters":31600,"station_id":"ce4bhs12rcd13ifvqhvg","pricing_plan_id":"cebpf4jnsgd1na2vs0mg"},{"bike_id":"77e60084-6f3e-4847-a4c1-18ac26fda747","system_id":"levelo_inurba_marseille","lat":43.30143,"lon":5.37413,"is_reserved":false,"is_disabled":false,"rental_uris":{"android":"levelo://app?vid=77e60084-6f3e-4847-a4c1-18ac26fda747","ios":"levelo://app?vid=77e60084-6f3e-4847-a4c1-18ac26fda747"},"vehicle_type_id":"4","last_reported":1724087325,"current_range_meters":31200,"station_id":"ce4bgs92rcd13ifvqcc0","pricing_plan_id":"cebpf4jnsgd1na2vs0mg"},{"bike_id":"fc695767-2ae2-47fa-b2d5-fef8934cf066","system_id":"levelo_inurba_marseille","lat":43.30143,"lon":5.37413,"is_reserved":false,"is_disabled":false,"rental_uris":{"android":"levelo://app?vid=fc695767-2ae2-47fa-b2d5-fef8934cf066","ios":"levelo://app?vid=fc695767-2ae2-47fa-b2d5-fef8934cf066"},"vehicle_type_id":"4","last_reported":1724087325,"current_range_meters":14800,"station_id":"ce4bgs92rcd13ifvqcc0","pricing_plan_id":"cebpf4jnsgd1na2vs0mg"},{"bike_id":"874e50ba-aa3e-48b7-b610-3263f4ab3eaa","system_id":"levelo_inurba_marseille","lat":43.30591,"lon":5.38177,"is_reserved":false,"is_disabled":false,"rental_uris":{"android":"levelo://app?vid=874e50ba-aa3e-48b7-b610-3263f4ab3eaa","ios":"levelo://app?vid=874e50ba-aa3e-48b7-b610-3263f4ab3eaa"},"vehicle_type_id":"4","last_reported":1724087325,"current_range_meters":22000,"station_id":"","pricing_plan_id":"cebpf4jnsgd1na2vs0mg"},{"bike_id":"f86f6770-af76-4260-a4db-a39dd21e8f1f","system_id":"levelo_inurba_marseille","lat":43.319986,"lon":5.381558,"is_reserved":false,"is_disabled":false,"rental_uris":{"android":"levelo://app?vid=f86f6770-af76-4260-a4db-a39dd21e8f1f","ios":"levelo://app?vid=f86f6770-af76-4260-a4db-a39dd21e8f1f"},"vehicle_type_id":"4","last_reported":1724087325,"current_range_meters":30000,"station_id":"ce4bhr12rcd13ifvqhpg","pricing_plan_id":"cebpf4jnsgd1na2vs0mg"},{"bike_id":"18b727b8-4371-4129-88fd-d8ed56b816c4","system_id":"levelo_inurba_marseille","lat":43.305364,"lon":5.384119,"is_reserved":false,"is_disabled":false,"rental_uris":{"android":"levelo://app?vid=18b727b8-4371-4129-88fd-d8ed56b816c4","ios":"levelo://app?vid=18b727b8-4371-4129-88fd-d8ed56b816c4"},"vehicle_type_id":"4","last_reported":1724087325,"current_range_meters":16800,"station_id":"ce4bgg92rcd13ifvqb30","pricing_plan_id":"cebpf4jnsgd1na2vs0mg"},{"bike_id":"15c2940c-244d-47b1-b1f7-53f445f58967","system_id":"levelo_inurba_marseille","lat":43.299243,"lon":5.374807,"is_reserved":false,"is_disabled":false,"rental_uris":{"android":"levelo://app?vid=15c2940c-244d-47b1-b1f7-53f445f58967","ios":"levelo://app?vid=15c2940c-244d-47b1-b1f7-53f445f58967"},"vehicle_type_id":"4","last_reported":1724087325,"current_range_meters":0,"station_id":"ce4bgjh2rcd13ifvqbg0","pricing_plan_id":"cebpf4jnsgd1na2vs0mg"},{"bike_id":"5dd871de-2e0a-4ca0-b19a-5766984056b3","system_id":"levelo_inurba_marseille","lat":43.298433,"lon":5.362774,"is_reserved":false,"is_disabled":false,"rental_uris":{"android":"levelo://app?vid=5dd871de-2e0a-4ca0-b19a-5766984056b3","ios":"levelo://app?vid=5dd871de-2e0a-4ca0-b19a-5766984056b3"},"vehicle_type_id":"4","last_reported":1724087325,"current_range_meters":5600,"station_id":"ce4bgpp2rcd13ifvqc3g","pricing_plan_id":"cebpf4jnsgd1na2vs0mg"},{"bike_id":"f58c24e0-f72c-4d6a-9249-2c750c2e8df4","system_id":"levelo_inurba_marseille","lat":43.298433,"lon":5.362774,"is_reserved":false,"is_disabled":false,"rental_uris":{"android":"levelo://app?vid=f58c24e0-f72c-4d6a-9249-2c750c2e8df4","ios":"levelo://app?vid=f58c24e0-f72c-4d6a-9249-2c750c2e8df4"},"vehicle_type_id":"4","last_reported":1724087325,"current_range_meters":8800,"station_id":"ce4bgpp2rcd13ifvqc3g","pricing_plan_id":"cebpf4jnsgd1na2vs0mg"},{"bike_id":"2a40b323-a6cc-488f-83a1-7826788ea4b8","system_id":"levelo_inurba_marseille","lat":43.311722,"lon":5.387247,"is_reserved":false,"is_disabled":false,"rental_uris":{"android":"levelo://app?vid=2a40b323-a6cc-488f-83a1-7826788ea4b8","ios":"levelo://app?vid=2a40b323-a6cc-488f-83a1-7826788ea4b8"},"vehicle_type_id":"4","last_reported":1724087325,"current_range_meters":26000,"station_id":"ce4bgv12rcd13ifvqcp0","pricing_plan_id":"cebpf4jnsgd1na2vs0mg"},{"bike_id":"11d0ce63-4cf6-4f68-a5c8-0b2f8ca2a373","system_id":"levelo_inurba_marseille","lat":43.301417,"lon":5.3809,"is_reserved":false,"is_disabled":false,"rental_uris":{"android":"levelo://app?vid=11d0ce63-4cf6-4f68-a5c8-0b2f8ca2a373","ios":"levelo://app?vid=11d0ce63-4cf6-4f68-a5c8-0b2f8ca2a373"},"vehicle_type_id":"4","last_reported":1724087325,"current_range_meters":12400,"station_id":"ce4bgjp2rcd13ifvqbh0","pricing_plan_id":"cebpf4jnsgd1na2vs0mg"},{"bike_id":"f1803f1c-7be0-4f7d-9b67-1b19f91ec057","system_id":"levelo_inurba_marseille","lat":43.301417,"lon":5.3809,"is_reserved":false,"is_disabled":false,"rental_uris":{"android":"levelo://app?vid=f1803f1c-7be0-4f7d-9b67-1b19f91ec057","ios":"levelo://app?vid=f1803f1c-7be0-4f7d-9b67-1b19f91ec057"},"vehicle_type_id":"4","last_reported":1724087325,"current_range_meters":8000,"station_id":"ce4bgjp2rcd13ifvqbh0","pricing_plan_id":"cebpf4jnsgd1na2vs0mg"},{"bike_id":"92e033a9-dec5-453e-86bf-f745ebccc343","system_id":"levelo_inurba_marseille","lat":43.301417,"lon":5.3809,"is_reserved":false,"is_disabled":false,"rental_uris":{"android":"levelo://app?vid=92e033a9-dec5-453e-86bf-f745ebccc343","ios":"levelo://app?vid=92e033a9-dec5-453e-86bf-f745ebccc343"},"vehicle_type_id":"4","last_reported":1724087325,"current_range_meters":7600,"station_id":"ce4bgjp2rcd13ifvqbh0","pricing_plan_id":"cebpf4jnsgd1na2vs0mg"},{"bike_id":"e4ff1900-28bf-4c81-bcd7-a2bf42036fc6","system_id":"levelo_inurba_marseille","lat":43.297794,"lon":5.370888,"is_reserved":false,"is_disabled":false,"rental_uris":{"android":"levelo://app?vid=e4ff1900-28bf-4c81-bcd7-a2bf42036fc6","ios":"levelo://app?vid=e4ff1900-28bf-4c81-bcd7-a2bf42036fc6"},"vehicle_type_id":"4","last_reported":1724087325,"current_range_meters":0,"station_id":"ce4bgop2rcd13ifvqc1g","pricing_plan_id":"cebpf4jnsgd1na2vs0mg"},{"bike_id":"f5756eed-ea1c-4ab7-b4f2-8ac9473fed35","system_id":"levelo_inurba_marseille","lat":43.32288,"lon":5.38259,"is_reserved":false,"is_disabled":false,"rental_uris":{"android":"levelo://app?vid=f5756eed-ea1c-4ab7-b4f2-8ac9473fed35","ios":"levelo://app?vid=f5756eed-ea1c-4ab7-b4f2-8ac9473fed35"},"vehicle_type_id":"4","last_reported":1724087325,"current_range_meters":26800,"station_id":"ce4bhr12rcd13ifvqhqg","pricing_plan_id":"cebpf4jnsgd1na2vs0mg"},{"bike_id":"835e6ccd-1140-4662-b305-db2767d99316","system_id":"levelo_inurba_marseille","lat":43.297794,"lon":5.370888,"is_reserved":false,"is_disabled":false,"rental_uris":{"android":"levelo://app?vid=835e6ccd-1140-4662-b305-db2767d99316","ios":"levelo://app?vid=835e6ccd-1140-4662-b305-db2767d99316"},"vehicle_type_id":"4","last_reported":1724087325,"current_range_meters":2000,"station_id":"ce4bgop2rcd13ifvqc1g","pricing_plan_id":"cebpf4jnsgd1na2vs0mg"},{"bike_id":"61dd64be-b099-4cf9-92b5-fbad09e4c4c2","system_id":"levelo_inurba_marseille","lat":43.322872,"lon":5.382756,"is_reserved":false,"is_disabled":false,"rental_uris":{"android":"levelo://app?vid=61dd64be-b099-4cf9-92b5-fbad09e4c4c2","ios":"levelo://app?vid=61dd64be-b099-4cf9-92b5-fbad09e4c4c2"},"vehicle_type_id":"4","last_reported":1724087325,"current_range_meters":15200,"station_id":"ce4bhr12rcd13ifvqhqg","pricing_plan_id":"cebpf4jnsgd1na2vs0mg"},{"bike_id":"c5e86e01-88a0-4287-af61-f635a0263d21","system_id":"levelo_inurba_marseille","lat":43.322872,"lon":5.382756,"is_reserved":false,"is_disabled":false,"rental_uris":{"android":"levelo://app?vid=c5e86e01-88a0-4287-af61-f635a0263d21","ios":"levelo://app?vid=c5e86e01-88a0-4287-af61-f635a0263d21"},"vehicle_type_id":"4","last_reported":1724087325,"current_range_meters":31200,"station_id":"ce4bhr12rcd13ifvqhqg","pricing_plan_id":"cebpf4jnsgd1na2vs0mg"},{"bike_id":"4cdb609e-699d-4d39-b4c8-d2a028101125","system_id":"levelo_inurba_marseille","lat":43.29721,"lon":5.3688,"is_reserved":false,"is_disabled":false,"rental_uris":{"android":"levelo://app?vid=4cdb609e-699d-4d39-b4c8-d2a028101125","ios":"levelo://app?vid=4cdb609e-699d-4d39-b4c8-d2a028101125"},"vehicle_type_id":"4","last_reported":1724087325,"current_range_meters":0,"station_id":"","pricing_plan_id":"cebpf4jnsgd1na2vs0mg"},{"bike_id":"48252763-9303-4050-befc-82c53378535c","system_id":"levelo_inurba_marseille","lat":43.315,"lon":5.38869,"is_reserved":false,"is_disabled":false,"rental_uris":{"android":"levelo://app?vid=48252763-9303-4050-befc-82c53378535c","ios":"levelo://app?vid=48252763-9303-4050-befc-82c53378535c"},"vehicle_type_id":"4","last_reported":1724087325,"current_range_meters":8400,"station_id":"","pricing_plan_id":"cebpf4jnsgd1na2vs0mg"},{"bike_id":"15f4b292-9e23-4dbf-a011-25e2d3ff04eb","system_id":"levelo_inurba_marseille","lat":43.2968,"lon":5.37291,"is_reserved":false,"is_disabled":false,"rental_uris":{"android":"levelo://app?vid=15f4b292-9e23-4dbf-a011-25e2d3ff04eb","ios":"levelo://app?vid=15f4b292-9e23-4dbf-a011-25e2d3ff04eb"},"vehicle_type_id":"4","last_reported":1724087325,"current_range_meters":14400,"station_id":"ce4bgk12rcd13ifvqbj0","pricing_plan_id":"cebpf4jnsgd1na2vs0mg"},{"bike_id":"e3306aa9-2176-42be-8b83-53ae5ddbfd5e","system_id":"levelo_inurba_marseille","lat":43.2968,"lon":5.37291,"is_reserved":false,"is_disabled":false,"rental_uris":{"android":"levelo://app?vid=e3306aa9-2176-42be-8b83-53ae5ddbfd5e","ios":"levelo://app?vid=e3306aa9-2176-42be-8b83-53ae5ddbfd5e"},"vehicle_type_id":"4","last_reported":1724087325,"current_range_meters":18000,"station_id":"ce4bgk12rcd13ifvqbj0","pricing_plan_id":"cebpf4jnsgd1na2vs0mg"},{"bike_id":"fc3367f3-d4bd-431d-b4ad-04a19fcb1ae2","system_id":"levelo_inurba_marseille","lat":43.29643,"lon":5.37149,"is_reserved":false,"is_disabled":false,"rental_uris":{"android":"levelo://app?vid=fc3367f3-d4bd-431d-b4ad-04a19fcb1ae2","ios":"levelo://app?vid=fc3367f3-d4bd-431d-b4ad-04a19fcb1ae2"},"vehicle_type_id":"4","last_reported":1724087325,"current_range_meters":0,"station_id":"ce4bgnh2rcd13ifvqc0g","pricing_plan_id":"cebpf4jnsgd1na2vs0mg"},{"bike_id":"200a82c5-078b-422f-be29-a01585a62363","system_id":"levelo_inurba_marseille","lat":43.296935,"lon":5.376544,"is_reserved":false,"is_disabled":false,"rental_uris":{"android":"levelo://app?vid=200a82c5-078b-422f-be29-a01585a62363","ios":"levelo://app?vid=200a82c5-078b-422f-be29-a01585a62363"},"vehicle_type_id":"4","last_reported":1724087325,"current_range_meters":7600,"station_id":"ce4bgkh2rcd13ifvqbl0","pricing_plan_id":"cebpf4jnsgd1na2vs0mg"},{"bike_id":"a3f68bf0-156d-4911-973f-caf05480d072","system_id":"levelo_inurba_marseille","lat":43.299028,"lon":5.381509,"is_reserved":false,"is_disabled":false,"rental_uris":{"android":"levelo://app?vid=a3f68bf0-156d-4911-973f-caf05480d072","ios":"levelo://app?vid=a3f68bf0-156d-4911-973f-caf05480d072"},"vehicle_type_id":"4","last_reported":1724087325,"current_range_meters":2800,"station_id":"ce4bgj12rcd13ifvqbc0","pricing_plan_id":"cebpf4jnsgd1na2vs0mg"},{"bike_id":"cb882bd3-5fc9-42a6-87f0-6b013f57aa86","system_id":"levelo_inurba_marseille","lat":43.304278,"lon":5.388868,"is_reserved":false,"is_disabled":false,"rental_uris":{"android":"levelo://app?vid=cb882bd3-5fc9-42a6-87f0-6b013f57aa86","ios":"levelo://app?vid=cb882bd3-5fc9-42a6-87f0-6b013f57aa86"},"vehicle_type_id":"4","last_reported":1724087325,"current_range_meters":0,"station_id":"ce4bgk12rcd13ifvqbi0","pricing_plan_id":"cebpf4jnsgd1na2vs0mg"},{"bike_id":"ef286a08-7b76-4cb4-a9d1-86cfd4978a61","system_id":"levelo_inurba_marseille","lat":43.295748,"lon":5.37522,"is_reserved":false,"is_disabled":false,"rental_uris":{"android":"levelo://app?vid=ef286a08-7b76-4cb4-a9d1-86cfd4978a61","ios":"levelo://app?vid=ef286a08-7b76-4cb4-a9d1-86cfd4978a61"},"vehicle_type_id":"4","last_reported":1724087325,"current_range_meters":0,"station_id":"ce4bgh92rcd13ifvqb50","pricing_plan_id":"cebpf4jnsgd1na2vs0mg"},{"bike_id":"3d5a1092-1f73-4f00-ad09-142d14883dab","system_id":"levelo_inurba_marseille","lat":43.29573,"lon":5.37507,"is_reserved":false,"is_disabled":false,"rental_uris":{"android":"levelo://app?vid=3d5a1092-1f73-4f00-ad09-142d14883dab","ios":"levelo://app?vid=3d5a1092-1f73-4f00-ad09-142d14883dab"},"vehicle_type_id":"4","last_reported":1724087325,"current_range_meters":0,"station_id":"ce4bgh92rcd13ifvqb50","pricing_plan_id":"cebpf4jnsgd1na2vs0mg"},{"bike_id":"0b706281-de64-48d9-a294-aae31a403fd7","system_id":"levelo_inurba_marseille","lat":43.30429,"lon":5.3888,"is_reserved":false,"is_disabled":false,"rental_uris":{"android":"levelo://app?vid=0b706281-de64-48d9-a294-aae31a403fd7","ios":"levelo://app?vid=0b706281-de64-48d9-a294-aae31a403fd7"},"vehicle_type_id":"4","last_reported":1724087325,"current_range_meters":4000,"station_id":"ce4bgk12rcd13ifvqbi0","pricing_plan_id":"cebpf4jnsgd1na2vs0mg"},{"bike_id":"fca9d3da-fbf1-4d0a-88e0-d14db272942b","system_id":"levelo_inurba_marseille","lat":43.304274,"lon":5.388873,"is_reserved":false,"is_disabled":false,"rental_uris":{"android":"levelo://app?vid=fca9d3da-fbf1-4d0a-88e0-d14db272942b","ios":"levelo://app?vid=fca9d3da-fbf1-4d0a-88e0-d14db272942b"},"vehicle_type_id":"4","last_reported":1724087325,"current_range_meters":8000,"station_id":"ce4bgk12rcd13ifvqbi0","pricing_plan_id":"cebpf4jnsgd1na2vs0mg"},{"bike_id":"283e16c4-6dea-49b3-b98d-e39c49352a2f","system_id":"levelo_inurba_marseille","lat":43.295748,"lon":5.37522,"is_reserved":false,"is_disabled":false,"rental_uris":{"android":"levelo://app?vid=283e16c4-6dea-49b3-b98d-e39c49352a2f","ios":"levelo://app?vid=283e16c4-6dea-49b3-b98d-e39c49352a2f"},"vehicle_type_id":"4","last_reported":1724087325,"current_range_meters":11600,"station_id":"ce4bgh92rcd13ifvqb50","pricing_plan_id":"cebpf4jnsgd1na2vs0mg"},{"bike_id":"69a4aa3d-2dad-4fdb-b95c-fedd38498067","system_id":"levelo_inurba_marseille","lat":43.295748,"lon":5.37522,"is_reserved":false,"is_disabled":false,"rental_uris":{"android":"levelo://app?vid=69a4aa3d-2dad-4fdb-b95c-fedd38498067","ios":"levelo://app?vid=69a4aa3d-2dad-4fdb-b95c-fedd38498067"},"vehicle_type_id":"4","last_reported":1724087325,"current_range_meters":3600,"station_id":"ce4bgh92rcd13ifvqb50","pricing_plan_id":"cebpf4jnsgd1na2vs0mg"},{"bike_id":"1f109aa2-9e77-4d1c-bfdc-27d2df7b5f6d","system_id":"levelo_inurba_marseille","lat":43.298037,"lon":5.381066,"is_reserved":false,"is_disabled":false,"rental_uris":{"android":"levelo://app?vid=1f109aa2-9e77-4d1c-bfdc-27d2df7b5f6d","ios":"levelo://app?vid=1f109aa2-9e77-4d1c-bfdc-27d2df7b5f6d"},"vehicle_type_id":"4","last_reported":1724087325,"current_range_meters":14400,"station_id":"ce4bgip2rcd13ifvqbb0","pricing_plan_id":"cebpf4jnsgd1na2vs0mg"},{"bike_id":"d8a96d0b-1052-4ebb-af18-27a95774a5f9","system_id":"levelo_inurba_marseille","lat":43.31475,"lon":5.39161,"is_reserved":false,"is_disabled":false,"rental_uris":{"android":"levelo://app?vid=d8a96d0b-1052-4ebb-af18-27a95774a5f9","ios":"levelo://app?vid=d8a96d0b-1052-4ebb-af18-27a95774a5f9"},"vehicle_type_id":"4","last_reported":1724087325,"current_range_meters":14400,"station_id":"","pricing_plan_id":"cebpf4jnsgd1na2vs0mg"},{"bike_id":"53913089-a0e1-4597-9d8d-6e8fc03c32ce","system_id":"levelo_inurba_marseille","lat":43.298037,"lon":5.381066,"is_reserved":false,"is_disabled":false,"rental_uris":{"android":"levelo://app?vid=53913089-a0e1-4597-9d8d-6e8fc03c32ce","ios":"levelo://app?vid=53913089-a0e1-4597-9d8d-6e8fc03c32ce"},"vehicle_type_id":"4","last_reported":1724087325,"current_range_meters":0,"station_id":"ce4bgip2rcd13ifvqbb0","pricing_plan_id":"cebpf4jnsgd1na2vs0mg"},{"bike_id":"e146bc38-9075-4f71-9069-42f2e2e896ef","system_id":"levelo_inurba_marseille","lat":43.304274,"lon":5.388873,"is_reserved":false,"is_disabled":false,"rental_uris":{"android":"levelo://app?vid=e146bc38-9075-4f71-9069-42f2e2e896ef","ios":"levelo://app?vid=e146bc38-9075-4f71-9069-42f2e2e896ef"},"vehicle_type_id":"4","last_reported":1724087325,"current_range_meters":12400,"station_id":"ce4bgk12rcd13ifvqbi0","pricing_plan_id":"cebpf4jnsgd1na2vs0mg"},{"bike_id":"1c664d5a-7dae-46db-815f-15f1c438d37c","system_id":"levelo_inurba_marseille","lat":43.29616,"lon":5.37714,"is_reserved":false,"is_disabled":false,"rental_uris":{"android":"levelo://app?vid=1c664d5a-7dae-46db-815f-15f1c438d37c","ios":"levelo://app?vid=1c664d5a-7dae-46db-815f-15f1c438d37c"},"vehicle_type_id":"4","last_reported":1724087325,"current_range_meters":26000,"station_id":"ce4bgi92rcd13ifvqb90","pricing_plan_id":"cebpf4jnsgd1na2vs0mg"},{"bike_id":"c3bcc30d-6843-44b1-9134-167805ce77bb","system_id":"levelo_inurba_marseille","lat":43.29612,"lon":5.37709,"is_reserved":false,"is_disabled":false,"rental_uris":{"android":"levelo://app?vid=c3bcc30d-6843-44b1-9134-167805ce77bb","ios":"levelo://app?vid=c3bcc30d-6843-44b1-9134-167805ce77bb"},"vehicle_type_id":"4","last_reported":1724087325,"current_range_meters":0,"station_id":"ce4bgi92rcd13ifvqb90","pricing_plan_id":"cebpf4jnsgd1na2vs0mg"},{"bike_id":"3c8b3065-4856-4f28-b43b-6e091e8adb82","system_id":"levelo_inurba_marseille","lat":43.29611,"lon":5.37717,"is_reserved":false,"is_disabled":false,"rental_uris":{"android":"levelo://app?vid=3c8b3065-4856-4f28-b43b-6e091e8adb82","ios":"levelo://app?vid=3c8b3065-4856-4f28-b43b-6e091e8adb82"},"vehicle_type_id":"4","last_reported":1724087325,"current_range_meters":0,"station_id":"ce4bgi92rcd13ifvqb90","pricing_plan_id":"cebpf4jnsgd1na2vs0mg"},{"bike_id":"0007ad97-42d7-4ef9-8523-78e9a6151c3e","system_id":"levelo_inurba_marseille","lat":43.296277,"lon":5.377108,"is_reserved":false,"is_disabled":false,"rental_uris":{"android":"levelo://app?vid=0007ad97-42d7-4ef9-8523-78e9a6151c3e","ios":"levelo://app?vid=0007ad97-42d7-4ef9-8523-78e9a6151c3e"},"vehicle_type_id":"4","last_reported":1724087325,"current_range_meters":12800,"station_id":"ce4bgi92rcd13ifvqb90","pricing_plan_id":"cebpf4jnsgd1na2vs0mg"},{"bike_id":"19736b5a-ac48-4e83-842c-89556af53a2f","system_id":"levelo_inurba_marseille","lat":43.295279,"lon":5.375048,"is_reserved":false,"is_disabled":false,"rental_uris":{"android":"levelo://app?vid=19736b5a-ac48-4e83-842c-89556af53a2f","ios":"levelo://app?vid=19736b5a-ac48-4e83-842c-89556af53a2f"},"vehicle_type_id":"4","last_reported":1724087325,"current_range_meters":4400,"station_id":"ce4bgkp2rcd13ifvqbmg","pricing_plan_id":"cebpf4jnsgd1na2vs0mg"},{"bike_id":"8e7bb62c-d026-4e62-a096-e0c1da1e1999","system_id":"levelo_inurba_marseille","lat":43.299707,"lon":5.384859,"is_reserved":false,"is_disabled":false,"rental_uris":{"android":"levelo://app?vid=8e7bb62c-d026-4e62-a096-e0c1da1e1999","ios":"levelo://app?vid=8e7bb62c-d026-4e62-a096-e0c1da1e1999"},"vehicle_type_id":"4","last_reported":1724087325,"current_range_meters":0,"station_id":"ce4bgj92rcd13ifvqbd0","pricing_plan_id":"cebpf4jnsgd1na2vs0mg"},{"bike_id":"0a09902c-688b-49e3-8320-c79fc5cd1ad7","system_id":"levelo_inurba_marseille","lat":43.295279,"lon":5.375048,"is_reserved":false,"is_disabled":false,"rental_uris":{"android":"levelo://app?vid=0a09902c-688b-49e3-8320-c79fc5cd1ad7","ios":"levelo://app?vid=0a09902c-688b-49e3-8320-c79fc5cd1ad7"},"vehicle_type_id":"4","last_reported":1724087325,"current_range_meters":5200,"station_id":"ce4bgkp2rcd13ifvqbmg","pricing_plan_id":"cebpf4jnsgd1na2vs0mg"},{"bike_id":"0ffe4b1c-e548-4f7c-8cdd-9ca1c91cee10","system_id":"levelo_inurba_marseille","lat":43.29516,"lon":5.37504,"is_reserved":false,"is_disabled":false,"rental_uris":{"android":"levelo://app?vid=0ffe4b1c-e548-4f7c-8cdd-9ca1c91cee10","ios":"levelo://app?vid=0ffe4b1c-e548-4f7c-8cdd-9ca1c91cee10"},"vehicle_type_id":"4","last_reported":1724087325,"current_range_meters":0,"station_id":"ce4bgkp2rcd13ifvqbmg","pricing_plan_id":"cebpf4jnsgd1na2vs0mg"},{"bike_id":"62540067-1258-411c-add6-1cc7375c1309","system_id":"levelo_inurba_marseille","lat":43.21248,"lon":5.35262,"is_reserved":false,"is_disabled":false,"rental_uris":{"android":"levelo://app?vid=62540067-1258-411c-add6-1cc7375c1309","ios":"levelo://app?vid=62540067-1258-411c-add6-1cc7375c1309"},"vehicle_type_id":"4","last_reported":1724087325,"current_range_meters":4800,"station_id":"","pricing_plan_id":"cebpf4jnsgd1na2vs0mg"},{"bike_id":"05550bcf-4602-42d4-b912-e6f265a27234","system_id":"levelo_inurba_marseille","lat":43.295279,"lon":5.375048,"is_reserved":false,"is_disabled":false,"rental_uris":{"android":"levelo://app?vid=05550bcf-4602-42d4-b912-e6f265a27234","ios":"levelo://app?vid=05550bcf-4602-42d4-b912-e6f265a27234"},"vehicle_type_id":"4","last_reported":1724087325,"current_range_meters":7200,"station_id":"ce4bgkp2rcd13ifvqbmg","pricing_plan_id":"cebpf4jnsgd1na2vs0mg"},{"bike_id":"f441bbf8-14b8-46fa-b4d9-f7b2c2af0af2","system_id":"levelo_inurba_marseille","lat":43.29513,"lon":5.37502,"is_reserved":false,"is_disabled":false,"rental_uris":{"android":"levelo://app?vid=f441bbf8-14b8-46fa-b4d9-f7b2c2af0af2","ios":"levelo://app?vid=f441bbf8-14b8-46fa-b4d9-f7b2c2af0af2"},"vehicle_type_id":"4","last_reported":1724087325,"current_range_meters":23600,"station_id":"ce4bgkp2rcd13ifvqbmg","pricing_plan_id":"cebpf4jnsgd1na2vs0mg"},{"bike_id":"5ab10c82-b8c6-4d7e-a011-cbb85290ba56","system_id":"levelo_inurba_marseille","lat":43.301396,"lon":5.387812,"is_reserved":false,"is_disabled":false,"rental_uris":{"android":"levelo://app?vid=5ab10c82-b8c6-4d7e-a011-cbb85290ba56","ios":"levelo://app?vid=5ab10c82-b8c6-4d7e-a011-cbb85290ba56"},"vehicle_type_id":"4","last_reported":1724087325,"current_range_meters":24000,"station_id":"ce4bghh2rcd13ifvqb60","pricing_plan_id":"cebpf4jnsgd1na2vs0mg"},{"bike_id":"6c4ee3fb-4492-4d0e-b5d6-b5576f9dff34","system_id":"levelo_inurba_marseille","lat":43.32367,"lon":5.388836,"is_reserved":false,"is_disabled":false,"rental_uris":{"android":"levelo://app?vid=6c4ee3fb-4492-4d0e-b5d6-b5576f9dff34","ios":"levelo://app?vid=6c4ee3fb-4492-4d0e-b5d6-b5576f9dff34"},"vehicle_type_id":"4","last_reported":1724087325,"current_range_meters":28000,"station_id":"ce4bhqp2rcd13ifvqhog","pricing_plan_id":"cebpf4jnsgd1na2vs0mg"},{"bike_id":"04d7b00d-cf95-4247-8594-de6c89d1f437","system_id":"levelo_inurba_marseille","lat":43.295997,"lon":5.380867,"is_reserved":false,"is_disabled":false,"rental_uris":{"android":"levelo://app?vid=04d7b00d-cf95-4247-8594-de6c89d1f437","ios":"levelo://app?vid=04d7b00d-cf95-4247-8594-de6c89d1f437"},"vehicle_type_id":"4","last_reported":1724087325,"current_range_meters":0,"station_id":"ce4bgl12rcd13ifvqbo0","pricing_plan_id":"cebpf4jnsgd1na2vs0mg"},{"bike_id":"bcdf7641-abdc-4a1b-a82c-a85234cc7d58","system_id":"levelo_inurba_marseille","lat":43.29603,"lon":5.381,"is_reserved":false,"is_disabled":false,"rental_uris":{"android":"levelo://app?vid=bcdf7641-abdc-4a1b-a82c-a85234cc7d58","ios":"levelo://app?vid=bcdf7641-abdc-4a1b-a82c-a85234cc7d58"},"vehicle_type_id":"4","last_reported":1724087325,"current_range_meters":13200,"station_id":"ce4bgl12rcd13ifvqbo0","pricing_plan_id":"cebpf4jnsgd1na2vs0mg"},{"bike_id":"b801f7e4-771b-4dc4-a097-80eea7aa4347","system_id":"levelo_inurba_marseille","lat":43.29602,"lon":5.381084,"is_reserved":false,"is_disabled":false,"rental_uris":{"android":"levelo://app?vid=b801f7e4-771b-4dc4-a097-80eea7aa4347","ios":"levelo://app?vid=b801f7e4-771b-4dc4-a097-80eea7aa4347"},"vehicle_type_id":"4","last_reported":1724087325,"current_range_meters":24000,"station_id":"ce4bgl12rcd13ifvqbo0","pricing_plan_id":"cebpf4jnsgd1na2vs0mg"},{"bike_id":"98e2e118-ef90-4d69-8a01-dbaca342c1ea","system_id":"levelo_inurba_marseille","lat":43.29602,"lon":5.381084,"is_reserved":false,"is_disabled":false,"rental_uris":{"android":"levelo://app?vid=98e2e118-ef90-4d69-8a01-dbaca342c1ea","ios":"levelo://app?vid=98e2e118-ef90-4d69-8a01-dbaca342c1ea"},"vehicle_type_id":"4","last_reported":1724087325,"current_range_meters":24400,"station_id":"ce4bgl12rcd13ifvqbo0","pricing_plan_id":"cebpf4jnsgd1na2vs0mg"},{"bike_id":"5ccd031b-0b40-49eb-8384-fefeaecad8ab","system_id":"levelo_inurba_marseille","lat":43.29603,"lon":5.38104,"is_reserved":false,"is_disabled":false,"rental_uris":{"android":"levelo://app?vid=5ccd031b-0b40-49eb-8384-fefeaecad8ab","ios":"levelo://app?vid=5ccd031b-0b40-49eb-8384-fefeaecad8ab"},"vehicle_type_id":"4","last_reported":1724087325,"current_range_meters":14800,"station_id":"ce4bgl12rcd13ifvqbo0","pricing_plan_id":"cebpf4jnsgd1na2vs0mg"},{"bike_id":"83c743fa-5cc0-4c64-bb70-2f075c82d736","system_id":"levelo_inurba_marseille","lat":43.29602,"lon":5.38102,"is_reserved":false,"is_disabled":false,"rental_uris":{"android":"levelo://app?vid=83c743fa-5cc0-4c64-bb70-2f075c82d736","ios":"levelo://app?vid=83c743fa-5cc0-4c64-bb70-2f075c82d736"},"vehicle_type_id":"4","last_reported":1724087325,"current_range_meters":2000,"station_id":"ce4bgl12rcd13ifvqbo0","pricing_plan_id":"cebpf4jnsgd1na2vs0mg"},{"bike_id":"35b99312-5f64-4e12-83ca-6d259f56ae56","system_id":"levelo_inurba_marseille","lat":43.29602,"lon":5.381084,"is_reserved":false,"is_disabled":false,"rental_uris":{"android":"levelo://app?vid=35b99312-5f64-4e12-83ca-6d259f56ae56","ios":"levelo://app?vid=35b99312-5f64-4e12-83ca-6d259f56ae56"},"vehicle_type_id":"4","last_reported":1724087325,"current_range_meters":8000,"station_id":"ce4bgl12rcd13ifvqbo0","pricing_plan_id":"cebpf4jnsgd1na2vs0mg"},{"bike_id":"2d7e3dc3-8bf0-4e8e-9a2e-b21844e1093e","system_id":"levelo_inurba_marseille","lat":43.29602,"lon":5.381084,"is_reserved":false,"is_disabled":false,"rental_uris":{"android":"levelo://app?vid=2d7e3dc3-8bf0-4e8e-9a2e-b21844e1093e","ios":"levelo://app?vid=2d7e3dc3-8bf0-4e8e-9a2e-b21844e1093e"},"vehicle_type_id":"4","last_reported":1724087325,"current_range_meters":11600,"station_id":"ce4bgl12rcd13ifvqbo0","pricing_plan_id":"cebpf4jnsgd1na2vs0mg"},{"bike_id":"28913c30-f9e7-4282-8d45-586aaa79d68b","system_id":"levelo_inurba_marseille","lat":43.29601,"lon":5.38102,"is_reserved":false,"is_disabled":false,"rental_uris":{"android":"levelo://app?vid=28913c30-f9e7-4282-8d45-586aaa79d68b","ios":"levelo://app?vid=28913c30-f9e7-4282-8d45-586aaa79d68b"},"vehicle_type_id":"4","last_reported":1724087325,"current_range_meters":20800,"station_id":"ce4bgl12rcd13ifvqbo0","pricing_plan_id":"cebpf4jnsgd1na2vs0mg"},{"bike_id":"576abf57-f054-4470-ad7b-6e59c4558ffc","system_id":"levelo_inurba_marseille","lat":43.29602,"lon":5.381084,"is_reserved":false,"is_disabled":false,"rental_uris":{"android":"levelo://app?vid=576abf57-f054-4470-ad7b-6e59c4558ffc","ios":"levelo://app?vid=576abf57-f054-4470-ad7b-6e59c4558ffc"},"vehicle_type_id":"4","last_reported":1724087325,"current_range_meters":23200,"station_id":"ce4bgl12rcd13ifvqbo0","pricing_plan_id":"cebpf4jnsgd1na2vs0mg"},{"bike_id":"c64bb9d4-8f7c-4db3-a315-6af5d2edb56e","system_id":"levelo_inurba_marseille","lat":43.29602,"lon":5.381084,"is_reserved":false,"is_disabled":false,"rental_uris":{"android":"levelo://app?vid=c64bb9d4-8f7c-4db3-a315-6af5d2edb56e","ios":"levelo://app?vid=c64bb9d4-8f7c-4db3-a315-6af5d2edb56e"},"vehicle_type_id":"4","last_reported":1724087325,"current_range_meters":4400,"station_id":"ce4bgl12rcd13ifvqbo0","pricing_plan_id":"cebpf4jnsgd1na2vs0mg"},{"bike_id":"fa99af1b-b9bb-4597-88f5-abbbdc19287c","system_id":"levelo_inurba_marseille","lat":43.29602,"lon":5.381084,"is_reserved":false,"is_disabled":false,"rental_uris":{"android":"levelo://app?vid=fa99af1b-b9bb-4597-88f5-abbbdc19287c","ios":"levelo://app?vid=fa99af1b-b9bb-4597-88f5-abbbdc19287c"},"vehicle_type_id":"4","last_reported":1724087325,"current_range_meters":0,"station_id":"ce4bgl12rcd13ifvqbo0","pricing_plan_id":"cebpf4jnsgd1na2vs0mg"},{"bike_id":"34e67bf3-7d55-4a66-ba2a-cbd49629a68b","system_id":"levelo_inurba_marseille","lat":43.29603,"lon":5.38114,"is_reserved":false,"is_disabled":false,"rental_uris":{"android":"levelo://app?vid=34e67bf3-7d55-4a66-ba2a-cbd49629a68b","ios":"levelo://app?vid=34e67bf3-7d55-4a66-ba2a-cbd49629a68b"},"vehicle_type_id":"4","last_reported":1724087325,"current_range_meters":21600,"station_id":"ce4bgl12rcd13ifvqbo0","pricing_plan_id":"cebpf4jnsgd1na2vs0mg"},{"bike_id":"aa67b760-d2b8-4f46-88b5-2f738afc7e3b","system_id":"levelo_inurba_marseille","lat":43.29595,"lon":5.38098,"is_reserved":false,"is_disabled":false,"rental_uris":{"android":"levelo://app?vid=aa67b760-d2b8-4f46-88b5-2f738afc7e3b","ios":"levelo://app?vid=aa67b760-d2b8-4f46-88b5-2f738afc7e3b"},"vehicle_type_id":"4","last_reported":1724087325,"current_range_meters":16800,"station_id":"ce4bgl12rcd13ifvqbo0","pricing_plan_id":"cebpf4jnsgd1na2vs0mg"},{"bike_id":"dcaf4b25-be8e-43f0-9f9d-2b9d916139b2","system_id":"levelo_inurba_marseille","lat":43.29595,"lon":5.38108,"is_reserved":false,"is_disabled":false,"rental_uris":{"android":"levelo://app?vid=dcaf4b25-be8e-43f0-9f9d-2b9d916139b2","ios":"levelo://app?vid=dcaf4b25-be8e-43f0-9f9d-2b9d916139b2"},"vehicle_type_id":"4","last_reported":1724087325,"current_range_meters":1600,"station_id":"ce4bgl12rcd13ifvqbo0","pricing_plan_id":"cebpf4jnsgd1na2vs0mg"},{"bike_id":"e6fb985e-af56-4fb8-bbba-3dfa716ade45","system_id":"levelo_inurba_marseille","lat":43.29587,"lon":5.38098,"is_reserved":false,"is_disabled":false,"rental_uris":{"android":"levelo://app?vid=e6fb985e-af56-4fb8-bbba-3dfa716ade45","ios":"levelo://app?vid=e6fb985e-af56-4fb8-bbba-3dfa716ade45"},"vehicle_type_id":"4","last_reported":1724087325,"current_range_meters":10000,"station_id":"ce4bgl12rcd13ifvqbo0","pricing_plan_id":"cebpf4jnsgd1na2vs0mg"},{"bike_id":"8e4a7418-5f88-4a8f-8e48-0fc8c86d600d","system_id":"levelo_inurba_marseille","lat":43.293259,"lon":5.371586,"is_reserved":false,"is_disabled":false,"rental_uris":{"android":"levelo://app?vid=8e4a7418-5f88-4a8f-8e48-0fc8c86d600d","ios":"levelo://app?vid=8e4a7418-5f88-4a8f-8e48-0fc8c86d600d"},"vehicle_type_id":"4","last_reported":1724087325,"current_range_meters":0,"station_id":"ce4bgh92rcd13ifvqb40","pricing_plan_id":"cebpf4jnsgd1na2vs0mg"},{"bike_id":"201e5018-e90b-497b-aa01-c7f3f8b6a421","system_id":"levelo_inurba_marseille","lat":43.29275,"lon":5.368419,"is_reserved":false,"is_disabled":false,"rental_uris":{"android":"levelo://app?vid=201e5018-e90b-497b-aa01-c7f3f8b6a421","ios":"levelo://app?vid=201e5018-e90b-497b-aa01-c7f3f8b6a421"},"vehicle_type_id":"4","last_reported":1724087325,"current_range_meters":1600,"station_id":"","pricing_plan_id":"cebpf4jnsgd1na2vs0mg"},{"bike_id":"ac029415-ae23-4e56-ab32-3270672e4d09","system_id":"levelo_inurba_marseille","lat":43.318215,"lon":5.393452,"is_reserved":false,"is_disabled":false,"rental_uris":{"android":"levelo://app?vid=ac029415-ae23-4e56-ab32-3270672e4d09","ios":"levelo://app?vid=ac029415-ae23-4e56-ab32-3270672e4d09"},"vehicle_type_id":"4","last_reported":1724087325,"current_range_meters":5600,"station_id":"","pricing_plan_id":"cebpf4jnsgd1na2vs0mg"},{"bike_id":"0f92af19-2f73-4495-9e39-29557a46668d","system_id":"levelo_inurba_marseille","lat":43.31394,"lon":5.39458,"is_reserved":false,"is_disabled":false,"rental_uris":{"android":"levelo://app?vid=0f92af19-2f73-4495-9e39-29557a46668d","ios":"levelo://app?vid=0f92af19-2f73-4495-9e39-29557a46668d"},"vehicle_type_id":"4","last_reported":1724087325,"current_range_meters":18800,"station_id":"","pricing_plan_id":"cebpf4jnsgd1na2vs0mg"},{"bike_id":"e17d390f-a747-4f0a-83fa-99622b30ebd0","system_id":"levelo_inurba_marseille","lat":43.305994,"lon":5.393687,"is_reserved":false,"is_disabled":false,"rental_uris":{"android":"levelo://app?vid=e17d390f-a747-4f0a-83fa-99622b30ebd0","ios":"levelo://app?vid=e17d390f-a747-4f0a-83fa-99622b30ebd0"},"vehicle_type_id":"4","last_reported":1724087325,"current_range_meters":27200,"station_id":"ce4bh0p2rcd13ifvqd80","pricing_plan_id":"cebpf4jnsgd1na2vs0mg"},{"bike_id":"94b06780-3d57-4ab0-ac98-f7da3ed414c1","system_id":"levelo_inurba_marseille","lat":43.305994,"lon":5.393687,"is_reserved":false,"is_disabled":false,"rental_uris":{"android":"levelo://app?vid=94b06780-3d57-4ab0-ac98-f7da3ed414c1","ios":"levelo://app?vid=94b06780-3d57-4ab0-ac98-f7da3ed414c1"},"vehicle_type_id":"4","last_reported":1724087325,"current_range_meters":8400,"station_id":"ce4bh0p2rcd13ifvqd80","pricing_plan_id":"cebpf4jnsgd1na2vs0mg"},{"bike_id":"a139fb86-f726-411e-aca0-d9509a85c29e","system_id":"levelo_inurba_marseille","lat":43.305994,"lon":5.393687,"is_reserved":false,"is_disabled":false,"rental_uris":{"android":"levelo://app?vid=a139fb86-f726-411e-aca0-d9509a85c29e","ios":"levelo://app?vid=a139fb86-f726-411e-aca0-d9509a85c29e"},"vehicle_type_id":"4","last_reported":1724087325,"current_range_meters":6000,"station_id":"ce4bh0p2rcd13ifvqd80","pricing_plan_id":"cebpf4jnsgd1na2vs0mg"},{"bike_id":"e3541309-746f-4783-9669-edcb40de7035","system_id":"levelo_inurba_marseille","lat":43.305994,"lon":5.393687,"is_reserved":false,"is_disabled":false,"rental_uris":{"android":"levelo://app?vid=e3541309-746f-4783-9669-edcb40de7035","ios":"levelo://app?vid=e3541309-746f-4783-9669-edcb40de7035"},"vehicle_type_id":"4","last_reported":1724087325,"current_range_meters":400,"station_id":"ce4bh0p2rcd13ifvqd80","pricing_plan_id":"cebpf4jnsgd1na2vs0mg"},{"bike_id":"73499943-2b15-45d4-9108-a01da18525cf","system_id":"levelo_inurba_marseille","lat":43.302992,"lon":5.392136,"is_reserved":false,"is_disabled":false,"rental_uris":{"android":"levelo://app?vid=73499943-2b15-45d4-9108-a01da18525cf","ios":"levelo://app?vid=73499943-2b15-45d4-9108-a01da18525cf"},"vehicle_type_id":"4","last_reported":1724087325,"current_range_meters":16400,"station_id":"ce4bgkh2rcd13ifvqbk0","pricing_plan_id":"cebpf4jnsgd1na2vs0mg"},{"bike_id":"1c95d7c4-4ab7-495e-b476-7569e7bfd379","system_id":"levelo_inurba_marseille","lat":43.29228,"lon":5.36061,"is_reserved":false,"is_disabled":false,"rental_uris":{"android":"levelo://app?vid=1c95d7c4-4ab7-495e-b476-7569e7bfd379","ios":"levelo://app?vid=1c95d7c4-4ab7-495e-b476-7569e7bfd379"},"vehicle_type_id":"4","last_reported":1724087325,"current_range_meters":0,"station_id":"ce4bhbh2rcd13ifvqeqg","pricing_plan_id":"cebpf4jnsgd1na2vs0mg"},{"bike_id":"68f471f7-7d48-4503-9b44-10464d65f676","system_id":"levelo_inurba_marseille","lat":43.29225,"lon":5.36075,"is_reserved":false,"is_disabled":false,"rental_uris":{"android":"levelo://app?vid=68f471f7-7d48-4503-9b44-10464d65f676","ios":"levelo://app?vid=68f471f7-7d48-4503-9b44-10464d65f676"},"vehicle_type_id":"4","last_reported":1724087325,"current_range_meters":0,"station_id":"ce4bhbh2rcd13ifvqeqg","pricing_plan_id":"cebpf4jnsgd1na2vs0mg"},{"bike_id":"f58fdd31-ca9a-4653-ac63-10c8712fc507","system_id":"levelo_inurba_marseille","lat":43.292311,"lon":5.360731,"is_reserved":false,"is_disabled":false,"rental_uris":{"android":"levelo://app?vid=f58fdd31-ca9a-4653-ac63-10c8712fc507","ios":"levelo://app?vid=f58fdd31-ca9a-4653-ac63-10c8712fc507"},"vehicle_type_id":"4","last_reported":1724087325,"current_range_meters":29200,"station_id":"ce4bhbh2rcd13ifvqeqg","pricing_plan_id":"cebpf4jnsgd1na2vs0mg"},{"bike_id":"2a9423c1-c26b-40da-999c-d058698d657f","system_id":"levelo_inurba_marseille","lat":43.29225,"lon":5.36058,"is_reserved":false,"is_disabled":false,"rental_uris":{"android":"levelo://app?vid=2a9423c1-c26b-40da-999c-d058698d657f","ios":"levelo://app?vid=2a9423c1-c26b-40da-999c-d058698d657f"},"vehicle_type_id":"4","last_reported":1724087325,"current_range_meters":0,"station_id":"ce4bhbh2rcd13ifvqeqg","pricing_plan_id":"cebpf4jnsgd1na2vs0mg"},{"bike_id":"bc4f0b24-5e8e-4e5d-bc31-b136106ac638","system_id":"levelo_inurba_marseille","lat":43.300852,"lon":5.390859,"is_reserved":false,"is_disabled":false,"rental_uris":{"android":"levelo://app?vid=bc4f0b24-5e8e-4e5d-bc31-b136106ac638","ios":"levelo://app?vid=bc4f0b24-5e8e-4e5d-bc31-b136106ac638"},"vehicle_type_id":"4","last_reported":1724087325,"current_range_meters":0,"station_id":"ce4bh192rcd13ifvqdb0","pricing_plan_id":"cebpf4jnsgd1na2vs0mg"},{"bike_id":"1bd891c6-6cb7-4ab6-9498-f3d41672d67b","system_id":"levelo_inurba_marseille","lat":43.291671,"lon":5.371575,"is_reserved":false,"is_disabled":false,"rental_uris":{"android":"levelo://app?vid=1bd891c6-6cb7-4ab6-9498-f3d41672d67b","ios":"levelo://app?vid=1bd891c6-6cb7-4ab6-9498-f3d41672d67b"},"vehicle_type_id":"4","last_reported":1724087325,"current_range_meters":8800,"station_id":"ce4bha92rcd13ifvqeh0","pricing_plan_id":"cebpf4jnsgd1na2vs0mg"},{"bike_id":"8ad963b3-92af-4526-838d-69eb98305217","system_id":"levelo_inurba_marseille","lat":43.295169,"lon":5.390426,"is_reserved":false,"is_disabled":false,"rental_uris":{"android":"levelo://app?vid=8ad963b3-92af-4526-838d-69eb98305217","ios":"levelo://app?vid=8ad963b3-92af-4526-838d-69eb98305217"},"vehicle_type_id":"4","last_reported":1724087325,"current_range_meters":11600,"station_id":"ce4bh3p2rcd13ifvqdp0","pricing_plan_id":"cebpf4jnsgd1na2vs0mg"},{"bike_id":"a0faa594-bc1c-46f2-8c22-2e59b3ef6b0f","system_id":"levelo_inurba_marseille","lat":43.292005,"lon":5.357875,"is_reserved":false,"is_disabled":false,"rental_uris":{"android":"levelo://app?vid=a0faa594-bc1c-46f2-8c22-2e59b3ef6b0f","ios":"levelo://app?vid=a0faa594-bc1c-46f2-8c22-2e59b3ef6b0f"},"vehicle_type_id":"4","last_reported":1724087325,"current_range_meters":17600,"station_id":"ce4bhb12rcd13ifvqel0","pricing_plan_id":"cebpf4jnsgd1na2vs0mg"},{"bike_id":"febbca31-eb2c-46af-821c-2b3f6baf8d1c","system_id":"levelo_inurba_marseille","lat":43.292005,"lon":5.357875,"is_reserved":false,"is_disabled":false,"rental_uris":{"android":"levelo://app?vid=febbca31-eb2c-46af-821c-2b3f6baf8d1c","ios":"levelo://app?vid=febbca31-eb2c-46af-821c-2b3f6baf8d1c"},"vehicle_type_id":"4","last_reported":1724087325,"current_range_meters":12000,"station_id":"ce4bhb12rcd13ifvqel0","pricing_plan_id":"cebpf4jnsgd1na2vs0mg"},{"bike_id":"1a5aa4ea-11ec-4a0a-8e9c-08817f31800d","system_id":"levelo_inurba_marseille","lat":43.309047,"lon":5.396551,"is_reserved":false,"is_disabled":false,"rental_uris":{"android":"levelo://app?vid=1a5aa4ea-11ec-4a0a-8e9c-08817f31800d","ios":"levelo://app?vid=1a5aa4ea-11ec-4a0a-8e9c-08817f31800d"},"vehicle_type_id":"4","last_reported":1724087325,"current_range_meters":6800,"station_id":"ce4bh012rcd13ifvqcv0","pricing_plan_id":"cebpf4jnsgd1na2vs0mg"},{"bike_id":"552da13b-2a04-4ae9-bf06-00bce8c45975","system_id":"levelo_inurba_marseille","lat":43.309038,"lon":5.396546,"is_reserved":false,"is_disabled":false,"rental_uris":{"android":"levelo://app?vid=552da13b-2a04-4ae9-bf06-00bce8c45975","ios":"levelo://app?vid=552da13b-2a04-4ae9-bf06-00bce8c45975"},"vehicle_type_id":"4","last_reported":1724087325,"current_range_meters":12400,"station_id":"ce4bh012rcd13ifvqcv0","pricing_plan_id":"cebpf4jnsgd1na2vs0mg"},{"bike_id":"89999b02-9126-45a8-9164-40aff29a8320","system_id":"levelo_inurba_marseille","lat":43.309038,"lon":5.396546,"is_reserved":false,"is_disabled":false,"rental_uris":{"android":"levelo://app?vid=89999b02-9126-45a8-9164-40aff29a8320","ios":"levelo://app?vid=89999b02-9126-45a8-9164-40aff29a8320"},"vehicle_type_id":"4","last_reported":1724087325,"current_range_meters":5600,"station_id":"ce4bh012rcd13ifvqcv0","pricing_plan_id":"cebpf4jnsgd1na2vs0mg"},{"bike_id":"3e9c4ff4-46a7-457d-99e2-2484cb63b41e","system_id":"levelo_inurba_marseille","lat":43.313291,"lon":5.396838,"is_reserved":false,"is_disabled":false,"rental_uris":{"android":"levelo://app?vid=3e9c4ff4-46a7-457d-99e2-2484cb63b41e","ios":"levelo://app?vid=3e9c4ff4-46a7-457d-99e2-2484cb63b41e"},"vehicle_type_id":"4","last_reported":1724087325,"current_range_meters":10800,"station_id":"ce4bgvp2rcd13ifvqcu0","pricing_plan_id":"cebpf4jnsgd1na2vs0mg"},{"bike_id":"de7708a7-fbc4-4caf-857a-3093402d1bb1","system_id":"levelo_inurba_marseille","lat":43.29529,"lon":5.385581,"is_reserved":false,"is_disabled":false,"rental_uris":{"android":"levelo://app?vid=de7708a7-fbc4-4caf-857a-3093402d1bb1","ios":"levelo://app?vid=de7708a7-fbc4-4caf-857a-3093402d1bb1"},"vehicle_type_id":"4","last_reported":1724087325,"current_range_meters":17200,"station_id":"ce4bgih2rcd13ifvqba0","pricing_plan_id":"cebpf4jnsgd1na2vs0mg"},{"bike_id":"50e9d760-6851-44c4-8ff1-34a0511f2c10","system_id":"levelo_inurba_marseille","lat":43.29529,"lon":5.385581,"is_reserved":false,"is_disabled":false,"rental_uris":{"android":"levelo://app?vid=50e9d760-6851-44c4-8ff1-34a0511f2c10","ios":"levelo://app?vid=50e9d760-6851-44c4-8ff1-34a0511f2c10"},"vehicle_type_id":"4","last_reported":1724087325,"current_range_meters":2000,"station_id":"ce4bgih2rcd13ifvqba0","pricing_plan_id":"cebpf4jnsgd1na2vs0mg"},{"bike_id":"fcbee96b-e7e4-44ee-8a23-a4c108e5f9c8","system_id":"levelo_inurba_marseille","lat":43.29529,"lon":5.385581,"is_reserved":false,"is_disabled":false,"rental_uris":{"android":"levelo://app?vid=fcbee96b-e7e4-44ee-8a23-a4c108e5f9c8","ios":"levelo://app?vid=fcbee96b-e7e4-44ee-8a23-a4c108e5f9c8"},"vehicle_type_id":"4","last_reported":1724087325,"current_range_meters":16000,"station_id":"ce4bgih2rcd13ifvqba0","pricing_plan_id":"cebpf4jnsgd1na2vs0mg"},{"bike_id":"36534573-8b5f-4e60-a6dc-c8d11a5f3ba4","system_id":"levelo_inurba_marseille","lat":43.29529,"lon":5.385581,"is_reserved":false,"is_disabled":false,"rental_uris":{"android":"levelo://app?vid=36534573-8b5f-4e60-a6dc-c8d11a5f3ba4","ios":"levelo://app?vid=36534573-8b5f-4e60-a6dc-c8d11a5f3ba4"},"vehicle_type_id":"4","last_reported":1724087325,"current_range_meters":0,"station_id":"ce4bgih2rcd13ifvqba0","pricing_plan_id":"cebpf4jnsgd1na2vs0mg"},{"bike_id":"255a4341-b7f1-4542-b0f9-71c0f849ee86","system_id":"levelo_inurba_marseille","lat":43.29526,"lon":5.38538,"is_reserved":false,"is_disabled":false,"rental_uris":{"android":"levelo://app?vid=255a4341-b7f1-4542-b0f9-71c0f849ee86","ios":"levelo://app?vid=255a4341-b7f1-4542-b0f9-71c0f849ee86"},"vehicle_type_id":"4","last_reported":1724087325,"current_range_meters":0,"station_id":"ce4bgih2rcd13ifvqba0","pricing_plan_id":"cebpf4jnsgd1na2vs0mg"},{"bike_id":"f297df54-2a99-4053-9597-44fa06ae70e3","system_id":"levelo_inurba_marseille","lat":43.29529,"lon":5.385581,"is_reserved":false,"is_disabled":false,"rental_uris":{"android":"levelo://app?vid=f297df54-2a99-4053-9597-44fa06ae70e3","ios":"levelo://app?vid=f297df54-2a99-4053-9597-44fa06ae70e3"},"vehicle_type_id":"4","last_reported":1724087325,"current_range_meters":0,"station_id":"ce4bgih2rcd13ifvqba0","pricing_plan_id":"cebpf4jnsgd1na2vs0mg"},{"bike_id":"003e5081-5403-4a71-b1d2-6879ed320116","system_id":"levelo_inurba_marseille","lat":43.29529,"lon":5.385581,"is_reserved":false,"is_disabled":false,"rental_uris":{"android":"levelo://app?vid=003e5081-5403-4a71-b1d2-6879ed320116","ios":"levelo://app?vid=003e5081-5403-4a71-b1d2-6879ed320116"},"vehicle_type_id":"4","last_reported":1724087325,"current_range_meters":19600,"station_id":"ce4bgih2rcd13ifvqba0","pricing_plan_id":"cebpf4jnsgd1na2vs0mg"},{"bike_id":"0b2000c3-ab27-4ad3-ba1f-f5ae72b85654","system_id":"levelo_inurba_marseille","lat":43.29529,"lon":5.385581,"is_reserved":false,"is_disabled":false,"rental_uris":{"android":"levelo://app?vid=0b2000c3-ab27-4ad3-ba1f-f5ae72b85654","ios":"levelo://app?vid=0b2000c3-ab27-4ad3-ba1f-f5ae72b85654"},"vehicle_type_id":"4","last_reported":1724087325,"current_range_meters":13200,"station_id":"ce4bgih2rcd13ifvqba0","pricing_plan_id":"cebpf4jnsgd1na2vs0mg"},{"bike_id":"b46f3c7c-51b1-4243-b557-a3b8666960aa","system_id":"levelo_inurba_marseille","lat":43.290779,"lon":5.371482,"is_reserved":false,"is_disabled":false,"rental_uris":{"android":"levelo://app?vid=b46f3c7c-51b1-4243-b557-a3b8666960aa","ios":"levelo://app?vid=b46f3c7c-51b1-4243-b557-a3b8666960aa"},"vehicle_type_id":"4","last_reported":1724087325,"current_range_meters":7600,"station_id":"ce4bh5p2rcd13ifvqe4g","pricing_plan_id":"cebpf4jnsgd1na2vs0mg"},{"bike_id":"55d12e8f-b751-4c86-ad25-ea2fc4bb965a","system_id":"levelo_inurba_marseille","lat":43.290779,"lon":5.371482,"is_reserved":false,"is_disabled":false,"rental_uris":{"android":"levelo://app?vid=55d12e8f-b751-4c86-ad25-ea2fc4bb965a","ios":"levelo://app?vid=55d12e8f-b751-4c86-ad25-ea2fc4bb965a"},"vehicle_type_id":"4","last_reported":1724087325,"current_range_meters":2400,"station_id":"ce4bh5p2rcd13ifvqe4g","pricing_plan_id":"cebpf4jnsgd1na2vs0mg"},{"bike_id":"a7381fcb-7026-4388-82b1-59ac6c4b4cd7","system_id":"levelo_inurba_marseille","lat":43.290779,"lon":5.371482,"is_reserved":false,"is_disabled":false,"rental_uris":{"android":"levelo://app?vid=a7381fcb-7026-4388-82b1-59ac6c4b4cd7","ios":"levelo://app?vid=a7381fcb-7026-4388-82b1-59ac6c4b4cd7"},"vehicle_type_id":"4","last_reported":1724087325,"current_range_meters":25200,"station_id":"ce4bh5p2rcd13ifvqe4g","pricing_plan_id":"cebpf4jnsgd1na2vs0mg"},{"bike_id":"c6f8365a-97fe-4d70-8636-e2c41b235b4b","system_id":"levelo_inurba_marseille","lat":43.2907,"lon":5.37163,"is_reserved":false,"is_disabled":false,"rental_uris":{"android":"levelo://app?vid=c6f8365a-97fe-4d70-8636-e2c41b235b4b","ios":"levelo://app?vid=c6f8365a-97fe-4d70-8636-e2c41b235b4b"},"vehicle_type_id":"4","last_reported":1724087325,"current_range_meters":1600,"station_id":"ce4bh5p2rcd13ifvqe4g","pricing_plan_id":"cebpf4jnsgd1na2vs0mg"},{"bike_id":"c20003cd-85c6-4481-b309-25ad1a24506c","system_id":"levelo_inurba_marseille","lat":43.290779,"lon":5.371482,"is_reserved":false,"is_disabled":false,"rental_uris":{"android":"levelo://app?vid=c20003cd-85c6-4481-b309-25ad1a24506c","ios":"levelo://app?vid=c20003cd-85c6-4481-b309-25ad1a24506c"},"vehicle_type_id":"4","last_reported":1724087325,"current_range_meters":4400,"station_id":"ce4bh5p2rcd13ifvqe4g","pricing_plan_id":"cebpf4jnsgd1na2vs0mg"},{"bike_id":"00f96ef7-0871-44db-8543-63df4045afc5","system_id":"levelo_inurba_marseille","lat":43.302008,"lon":5.394694,"is_reserved":false,"is_disabled":false,"rental_uris":{"android":"levelo://app?vid=00f96ef7-0871-44db-8543-63df4045afc5","ios":"levelo://app?vid=00f96ef7-0871-44db-8543-63df4045afc5"},"vehicle_type_id":"4","last_reported":1724087325,"current_range_meters":8000,"station_id":"ce4bh0p2rcd13ifvqd70","pricing_plan_id":"cebpf4jnsgd1na2vs0mg"},{"bike_id":"37685fea-6d1c-4666-8b73-867db98a3e1c","system_id":"levelo_inurba_marseille","lat":43.290631,"lon":5.359244,"is_reserved":false,"is_disabled":false,"rental_uris":{"android":"levelo://app?vid=37685fea-6d1c-4666-8b73-867db98a3e1c","ios":"levelo://app?vid=37685fea-6d1c-4666-8b73-867db98a3e1c"},"vehicle_type_id":"4","last_reported":1724087325,"current_range_meters":19200,"station_id":"ce4bha92rcd13ifvqeg0","pricing_plan_id":"cebpf4jnsgd1na2vs0mg"},{"bike_id":"69703d10-1e44-4ab9-a0af-d549465926a6","system_id":"levelo_inurba_marseille","lat":43.294278,"lon":5.386184,"is_reserved":false,"is_disabled":false,"rental_uris":{"android":"levelo://app?vid=69703d10-1e44-4ab9-a0af-d549465926a6","ios":"levelo://app?vid=69703d10-1e44-4ab9-a0af-d549465926a6"},"vehicle_type_id":"4","last_reported":1724087325,"current_range_meters":11600,"station_id":"","pricing_plan_id":"cebpf4jnsgd1na2vs0mg"},{"bike_id":"d5d22aef-3f29-4025-acd2-251e5c8e50f4","system_id":"levelo_inurba_marseille","lat":43.294162,"lon":5.386292,"is_reserved":false,"is_disabled":false,"rental_uris":{"android":"levelo://app?vid=d5d22aef-3f29-4025-acd2-251e5c8e50f4","ios":"levelo://app?vid=d5d22aef-3f29-4025-acd2-251e5c8e50f4"},"vehicle_type_id":"4","last_reported":1724087325,"current_range_meters":0,"station_id":"ce4bh2h2rcd13ifvqdh0","pricing_plan_id":"cebpf4jnsgd1na2vs0mg"},{"bike_id":"02ea7b9f-778c-4a09-baed-ef3a9897c94f","system_id":"levelo_inurba_marseille","lat":43.2942,"lon":5.38617,"is_reserved":false,"is_disabled":false,"rental_uris":{"android":"levelo://app?vid=02ea7b9f-778c-4a09-baed-ef3a9897c94f","ios":"levelo://app?vid=02ea7b9f-778c-4a09-baed-ef3a9897c94f"},"vehicle_type_id":"4","last_reported":1724087325,"current_range_meters":20800,"station_id":"ce4bh2h2rcd13ifvqdh0","pricing_plan_id":"cebpf4jnsgd1na2vs0mg"},{"bike_id":"fd5b4c9b-440d-4c89-bd19-5b74826eff42","system_id":"levelo_inurba_marseille","lat":43.290319,"lon":5.375732,"is_reserved":false,"is_disabled":false,"rental_uris":{"android":"levelo://app?vid=fd5b4c9b-440d-4c89-bd19-5b74826eff42","ios":"levelo://app?vid=fd5b4c9b-440d-4c89-bd19-5b74826eff42"},"vehicle_type_id":"4","last_reported":1724087325,"current_range_meters":400,"station_id":"ce4bh692rcd13ifvqe90","pricing_plan_id":"cebpf4jnsgd1na2vs0mg"},{"bike_id":"d8b7d693-161f-4d48-a29c-3686196e4e29","system_id":"levelo_inurba_marseille","lat":43.294172,"lon":5.386228,"is_reserved":false,"is_disabled":false,"rental_uris":{"android":"levelo://app?vid=d8b7d693-161f-4d48-a29c-3686196e4e29","ios":"levelo://app?vid=d8b7d693-161f-4d48-a29c-3686196e4e29"},"vehicle_type_id":"4","last_reported":1724087325,"current_range_meters":800,"station_id":"ce4bh2h2rcd13ifvqdh0","pricing_plan_id":"cebpf4jnsgd1na2vs0mg"},{"bike_id":"c0b0ec0d-49ba-4bda-8ba4-a2ec35b06c03","system_id":"levelo_inurba_marseille","lat":43.29417,"lon":5.38623,"is_reserved":false,"is_disabled":false,"rental_uris":{"android":"levelo://app?vid=c0b0ec0d-49ba-4bda-8ba4-a2ec35b06c03","ios":"levelo://app?vid=c0b0ec0d-49ba-4bda-8ba4-a2ec35b06c03"},"vehicle_type_id":"4","last_reported":1724087325,"current_range_meters":400,"station_id":"ce4bh2h2rcd13ifvqdh0","pricing_plan_id":"cebpf4jnsgd1na2vs0mg"},{"bike_id":"5de157cb-5f27-45ef-b401-5e0805ae2bc0","system_id":"levelo_inurba_marseille","lat":43.29416,"lon":5.38624,"is_reserved":false,"is_disabled":false,"rental_uris":{"android":"levelo://app?vid=5de157cb-5f27-45ef-b401-5e0805ae2bc0","ios":"levelo://app?vid=5de157cb-5f27-45ef-b401-5e0805ae2bc0"},"vehicle_type_id":"4","last_reported":1724087325,"current_range_meters":0,"station_id":"ce4bh2h2rcd13ifvqdh0","pricing_plan_id":"cebpf4jnsgd1na2vs0mg"},{"bike_id":"50712388-3c03-4800-b2b4-081581516a6a","system_id":"levelo_inurba_marseille","lat":43.29411,"lon":5.38615,"is_reserved":false,"is_disabled":false,"rental_uris":{"android":"levelo://app?vid=50712388-3c03-4800-b2b4-081581516a6a","ios":"levelo://app?vid=50712388-3c03-4800-b2b4-081581516a6a"},"vehicle_type_id":"4","last_reported":1724087325,"current_range_meters":10400,"station_id":"ce4bh2h2rcd13ifvqdh0","pricing_plan_id":"cebpf4jnsgd1na2vs0mg"},{"bike_id":"b537436d-0041-4b7d-baa6-aefa5c0687ad","system_id":"levelo_inurba_marseille","lat":43.290319,"lon":5.375732,"is_reserved":false,"is_disabled":false,"rental_uris":{"android":"levelo://app?vid=b537436d-0041-4b7d-baa6-aefa5c0687ad","ios":"levelo://app?vid=b537436d-0041-4b7d-baa6-aefa5c0687ad"},"vehicle_type_id":"4","last_reported":1724087325,"current_range_meters":0,"station_id":"ce4bh692rcd13ifvqe90","pricing_plan_id":"cebpf4jnsgd1na2vs0mg"},{"bike_id":"0010fbc2-1cac-42f1-9c11-2d974f57777d","system_id":"levelo_inurba_marseille","lat":43.289468,"lon":5.363719,"is_reserved":false,"is_disabled":false,"rental_uris":{"android":"levelo://app?vid=0010fbc2-1cac-42f1-9c11-2d974f57777d","ios":"levelo://app?vid=0010fbc2-1cac-42f1-9c11-2d974f57777d"},"vehicle_type_id":"4","last_reported":1724087325,"current_range_meters":9600,"station_id":"ce4bhc92rcd13ifvqetg","pricing_plan_id":"cebpf4jnsgd1na2vs0mg"},{"bike_id":"06f7297d-9861-4153-9fd5-a5992a06f849","system_id":"levelo_inurba_marseille","lat":43.28937,"lon":5.36636,"is_reserved":false,"is_disabled":false,"rental_uris":{"android":"levelo://app?vid=06f7297d-9861-4153-9fd5-a5992a06f849","ios":"levelo://app?vid=06f7297d-9861-4153-9fd5-a5992a06f849"},"vehicle_type_id":"4","last_reported":1724087325,"current_range_meters":22400,"station_id":"ce4bhap2rcd13ifvqek0","pricing_plan_id":"cebpf4jnsgd1na2vs0mg"},{"bike_id":"d1fefef5-9f5b-469f-8acc-bb19a96de4ae","system_id":"levelo_inurba_marseille","lat":43.289184,"lon":5.366408,"is_reserved":false,"is_disabled":false,"rental_uris":{"android":"levelo://app?vid=d1fefef5-9f5b-469f-8acc-bb19a96de4ae","ios":"levelo://app?vid=d1fefef5-9f5b-469f-8acc-bb19a96de4ae"},"vehicle_type_id":"4","last_reported":1724087325,"current_range_meters":0,"station_id":"ce4bhap2rcd13ifvqek0","pricing_plan_id":"cebpf4jnsgd1na2vs0mg"},{"bike_id":"daf7747b-7275-435b-bb6e-3792e5592961","system_id":"levelo_inurba_marseille","lat":43.289184,"lon":5.366408,"is_reserved":false,"is_disabled":false,"rental_uris":{"android":"levelo://app?vid=daf7747b-7275-435b-bb6e-3792e5592961","ios":"levelo://app?vid=daf7747b-7275-435b-bb6e-3792e5592961"},"vehicle_type_id":"4","last_reported":1724087325,"current_range_meters":0,"station_id":"ce4bhap2rcd13ifvqek0","pricing_plan_id":"cebpf4jnsgd1na2vs0mg"},{"bike_id":"6556d2ad-56f7-46bc-9e4a-075aa5bd652c","system_id":"levelo_inurba_marseille","lat":43.289184,"lon":5.366408,"is_reserved":false,"is_disabled":false,"rental_uris":{"android":"levelo://app?vid=6556d2ad-56f7-46bc-9e4a-075aa5bd652c","ios":"levelo://app?vid=6556d2ad-56f7-46bc-9e4a-075aa5bd652c"},"vehicle_type_id":"4","last_reported":1724087325,"current_range_meters":800,"station_id":"ce4bhap2rcd13ifvqek0","pricing_plan_id":"cebpf4jnsgd1na2vs0mg"},{"bike_id":"cf75671a-9d8c-4f95-8175-aaae0db8c1d8","system_id":"levelo_inurba_marseille","lat":43.289184,"lon":5.366408,"is_reserved":false,"is_disabled":false,"rental_uris":{"android":"levelo://app?vid=cf75671a-9d8c-4f95-8175-aaae0db8c1d8","ios":"levelo://app?vid=cf75671a-9d8c-4f95-8175-aaae0db8c1d8"},"vehicle_type_id":"4","last_reported":1724087325,"current_range_meters":13200,"station_id":"ce4bhap2rcd13ifvqek0","pricing_plan_id":"cebpf4jnsgd1na2vs0mg"},{"bike_id":"c7e2dcf0-a735-4249-b7c6-4e77b658a2d4","system_id":"levelo_inurba_marseille","lat":43.289184,"lon":5.366408,"is_reserved":false,"is_disabled":false,"rental_uris":{"android":"levelo://app?vid=c7e2dcf0-a735-4249-b7c6-4e77b658a2d4","ios":"levelo://app?vid=c7e2dcf0-a735-4249-b7c6-4e77b658a2d4"},"vehicle_type_id":"4","last_reported":1724087325,"current_range_meters":15600,"station_id":"ce4bhap2rcd13ifvqek0","pricing_plan_id":"cebpf4jnsgd1na2vs0mg"},{"bike_id":"6d737421-698a-4011-a456-745f6c22e053","system_id":"levelo_inurba_marseille","lat":43.289468,"lon":5.363719,"is_reserved":false,"is_disabled":false,"rental_uris":{"android":"levelo://app?vid=6d737421-698a-4011-a456-745f6c22e053","ios":"levelo://app?vid=6d737421-698a-4011-a456-745f6c22e053"},"vehicle_type_id":"4","last_reported":1724087325,"current_range_meters":26000,"station_id":"ce4bhc92rcd13ifvqetg","pricing_plan_id":"cebpf4jnsgd1na2vs0mg"},{"bike_id":"24aaeb06-639a-47b3-98ec-f5b525526d05","system_id":"levelo_inurba_marseille","lat":43.289184,"lon":5.366408,"is_reserved":false,"is_disabled":false,"rental_uris":{"android":"levelo://app?vid=24aaeb06-639a-47b3-98ec-f5b525526d05","ios":"levelo://app?vid=24aaeb06-639a-47b3-98ec-f5b525526d05"},"vehicle_type_id":"4","last_reported":1724087325,"current_range_meters":13600,"station_id":"ce4bhap2rcd13ifvqek0","pricing_plan_id":"cebpf4jnsgd1na2vs0mg"},{"bike_id":"7405e086-1bb3-4660-8775-09cddd33ac22","system_id":"levelo_inurba_marseille","lat":43.289184,"lon":5.366408,"is_reserved":false,"is_disabled":false,"rental_uris":{"android":"levelo://app?vid=7405e086-1bb3-4660-8775-09cddd33ac22","ios":"levelo://app?vid=7405e086-1bb3-4660-8775-09cddd33ac22"},"vehicle_type_id":"4","last_reported":1724087325,"current_range_meters":6400,"station_id":"ce4bhap2rcd13ifvqek0","pricing_plan_id":"cebpf4jnsgd1na2vs0mg"},{"bike_id":"16104b92-67b5-4d95-a95d-04779f6e817c","system_id":"levelo_inurba_marseille","lat":43.29269,"lon":5.384345,"is_reserved":false,"is_disabled":false,"rental_uris":{"android":"levelo://app?vid=16104b92-67b5-4d95-a95d-04779f6e817c","ios":"levelo://app?vid=16104b92-67b5-4d95-a95d-04779f6e817c"},"vehicle_type_id":"4","last_reported":1724087325,"current_range_meters":8800,"station_id":"ce4bh692rcd13ifvqea0","pricing_plan_id":"cebpf4jnsgd1na2vs0mg"},{"bike_id":"5605d85c-a9c3-4125-bec4-fbcf51f46689","system_id":"levelo_inurba_marseille","lat":43.304274,"lon":5.397513,"is_reserved":false,"is_disabled":false,"rental_uris":{"android":"levelo://app?vid=5605d85c-a9c3-4125-bec4-fbcf51f46689","ios":"levelo://app?vid=5605d85c-a9c3-4125-bec4-fbcf51f46689"},"vehicle_type_id":"4","last_reported":1724087325,"current_range_meters":5200,"station_id":"ce4bh092rcd13ifvqd20","pricing_plan_id":"cebpf4jnsgd1na2vs0mg"},{"bike_id":"4ae2b341-5e35-4c76-8242-23fecb8810ef","system_id":"levelo_inurba_marseille","lat":43.304296,"lon":5.397513,"is_reserved":false,"is_disabled":false,"rental_uris":{"android":"levelo://app?vid=4ae2b341-5e35-4c76-8242-23fecb8810ef","ios":"levelo://app?vid=4ae2b341-5e35-4c76-8242-23fecb8810ef"},"vehicle_type_id":"4","last_reported":1724087325,"current_range_meters":10000,"station_id":"ce4bh092rcd13ifvqd20","pricing_plan_id":"cebpf4jnsgd1na2vs0mg"},{"bike_id":"f63cf32e-4763-4c82-a81a-84036965adee","system_id":"levelo_inurba_marseille","lat":43.304274,"lon":5.397513,"is_reserved":false,"is_disabled":false,"rental_uris":{"android":"levelo://app?vid=f63cf32e-4763-4c82-a81a-84036965adee","ios":"levelo://app?vid=f63cf32e-4763-4c82-a81a-84036965adee"},"vehicle_type_id":"4","last_reported":1724087325,"current_range_meters":18400,"station_id":"ce4bh092rcd13ifvqd20","pricing_plan_id":"cebpf4jnsgd1na2vs0mg"},{"bike_id":"b5377824-64fd-4c84-9e47-e0b3c04f6584","system_id":"levelo_inurba_marseille","lat":43.292644,"lon":5.384257,"is_reserved":false,"is_disabled":false,"rental_uris":{"android":"levelo://app?vid=b5377824-64fd-4c84-9e47-e0b3c04f6584","ios":"levelo://app?vid=b5377824-64fd-4c84-9e47-e0b3c04f6584"},"vehicle_type_id":"4","last_reported":1724087325,"current_range_meters":0,"station_id":"ce4bh692rcd13ifvqea0","pricing_plan_id":"cebpf4jnsgd1na2vs0mg"},{"bike_id":"2e2ae3c0-5a7d-42d1-ab90-d1f60e05aed8","system_id":"levelo_inurba_marseille","lat":43.292603,"lon":5.384433,"is_reserved":false,"is_disabled":false,"rental_uris":{"android":"levelo://app?vid=2e2ae3c0-5a7d-42d1-ab90-d1f60e05aed8","ios":"levelo://app?vid=2e2ae3c0-5a7d-42d1-ab90-d1f60e05aed8"},"vehicle_type_id":"4","last_reported":1724087325,"current_range_meters":6000,"station_id":"ce4bh692rcd13ifvqea0","pricing_plan_id":"cebpf4jnsgd1na2vs0mg"},{"bike_id":"94c8019c-2f1d-4912-9de7-a84bd8c87712","system_id":"levelo_inurba_marseille","lat":43.290104,"lon":5.356111,"is_reserved":false,"is_disabled":false,"rental_uris":{"android":"levelo://app?vid=94c8019c-2f1d-4912-9de7-a84bd8c87712","ios":"levelo://app?vid=94c8019c-2f1d-4912-9de7-a84bd8c87712"},"vehicle_type_id":"4","last_reported":1724087325,"current_range_meters":31200,"station_id":"ce4bhb92rcd13ifvqen0","pricing_plan_id":"cebpf4jnsgd1na2vs0mg"},{"bike_id":"6c9a8f85-7ddc-46ca-84c0-c0d5478a0c11","system_id":"levelo_inurba_marseille","lat":43.29008,"lon":5.3561,"is_reserved":false,"is_disabled":false,"rental_uris":{"android":"levelo://app?vid=6c9a8f85-7ddc-46ca-84c0-c0d5478a0c11","ios":"levelo://app?vid=6c9a8f85-7ddc-46ca-84c0-c0d5478a0c11"},"vehicle_type_id":"4","last_reported":1724087325,"current_range_meters":0,"station_id":"ce4bhb92rcd13ifvqen0","pricing_plan_id":"cebpf4jnsgd1na2vs0mg"},{"bike_id":"12e46a66-a130-480f-a47d-befcade83079","system_id":"levelo_inurba_marseille","lat":43.29005,"lon":5.35618,"is_reserved":false,"is_disabled":false,"rental_uris":{"android":"levelo://app?vid=12e46a66-a130-480f-a47d-befcade83079","ios":"levelo://app?vid=12e46a66-a130-480f-a47d-befcade83079"},"vehicle_type_id":"4","last_reported":1724087325,"current_range_meters":6400,"station_id":"ce4bhb92rcd13ifvqen0","pricing_plan_id":"cebpf4jnsgd1na2vs0mg"},{"bike_id":"9628384f-9663-449d-ad01-b761b2e25aca","system_id":"levelo_inurba_marseille","lat":43.290103,"lon":5.356114,"is_reserved":false,"is_disabled":false,"rental_uris":{"android":"levelo://app?vid=9628384f-9663-449d-ad01-b761b2e25aca","ios":"levelo://app?vid=9628384f-9663-449d-ad01-b761b2e25aca"},"vehicle_type_id":"4","last_reported":1724087325,"current_range_meters":2400,"station_id":"ce4bhb92rcd13ifvqen0","pricing_plan_id":"cebpf4jnsgd1na2vs0mg"},{"bike_id":"508eb185-fce7-4f4c-adf9-e68c616585dd","system_id":"levelo_inurba_marseille","lat":43.290037,"lon":5.35612,"is_reserved":false,"is_disabled":false,"rental_uris":{"android":"levelo://app?vid=508eb185-fce7-4f4c-adf9-e68c616585dd","ios":"levelo://app?vid=508eb185-fce7-4f4c-adf9-e68c616585dd"},"vehicle_type_id":"4","last_reported":1724087325,"current_range_meters":400,"station_id":"ce4bhb92rcd13ifvqen0","pricing_plan_id":"cebpf4jnsgd1na2vs0mg"},{"bike_id":"25cca6a1-b94c-4615-924e-dd3f91b443a4","system_id":"levelo_inurba_marseille","lat":43.290103,"lon":5.356114,"is_reserved":false,"is_disabled":false,"rental_uris":{"android":"levelo://app?vid=25cca6a1-b94c-4615-924e-dd3f91b443a4","ios":"levelo://app?vid=25cca6a1-b94c-4615-924e-dd3f91b443a4"},"vehicle_type_id":"4","last_reported":1724087325,"current_range_meters":5600,"station_id":"ce4bhb92rcd13ifvqen0","pricing_plan_id":"cebpf4jnsgd1na2vs0mg"},{"bike_id":"4cfc5d26-a4f2-41a0-820c-e610cc8fd719","system_id":"levelo_inurba_marseille","lat":43.29001,"lon":5.35619,"is_reserved":false,"is_disabled":false,"rental_uris":{"android":"levelo://app?vid=4cfc5d26-a4f2-41a0-820c-e610cc8fd719","ios":"levelo://app?vid=4cfc5d26-a4f2-41a0-820c-e610cc8fd719"},"vehicle_type_id":"4","last_reported":1724087325,"current_range_meters":22800,"station_id":"ce4bhb92rcd13ifvqen0","pricing_plan_id":"cebpf4jnsgd1na2vs0mg"},{"bike_id":"473efb58-4f29-4f82-b870-29a67acf9d46","system_id":"levelo_inurba_marseille","lat":43.290104,"lon":5.356111,"is_reserved":false,"is_disabled":false,"rental_uris":{"android":"levelo://app?vid=473efb58-4f29-4f82-b870-29a67acf9d46","ios":"levelo://app?vid=473efb58-4f29-4f82-b870-29a67acf9d46"},"vehicle_type_id":"4","last_reported":1724087325,"current_range_meters":0,"station_id":"ce4bhb92rcd13ifvqen0","pricing_plan_id":"cebpf4jnsgd1na2vs0mg"},{"bike_id":"5d1144b5-d2a3-45c1-aa14-13c2cdce2da1","system_id":"levelo_inurba_marseille","lat":43.290995,"lon":5.381361,"is_reserved":false,"is_disabled":false,"rental_uris":{"android":"levelo://app?vid=5d1144b5-d2a3-45c1-aa14-13c2cdce2da1","ios":"levelo://app?vid=5d1144b5-d2a3-45c1-aa14-13c2cdce2da1"},"vehicle_type_id":"4","last_reported":1724087325,"current_range_meters":18800,"station_id":"ce4bh512rcd13ifvqe2g","pricing_plan_id":"cebpf4jnsgd1na2vs0mg"},{"bike_id":"859da67b-4c77-42e5-b2a8-fa87f25bdc93","system_id":"levelo_inurba_marseille","lat":43.290995,"lon":5.381361,"is_reserved":false,"is_disabled":false,"rental_uris":{"android":"levelo://app?vid=859da67b-4c77-42e5-b2a8-fa87f25bdc93","ios":"levelo://app?vid=859da67b-4c77-42e5-b2a8-fa87f25bdc93"},"vehicle_type_id":"4","last_reported":1724087325,"current_range_meters":10400,"station_id":"ce4bh512rcd13ifvqe2g","pricing_plan_id":"cebpf4jnsgd1na2vs0mg"},{"bike_id":"acd3125d-3180-4463-802c-6f10717d6775","system_id":"levelo_inurba_marseille","lat":43.290995,"lon":5.381361,"is_reserved":false,"is_disabled":false,"rental_uris":{"android":"levelo://app?vid=acd3125d-3180-4463-802c-6f10717d6775","ios":"levelo://app?vid=acd3125d-3180-4463-802c-6f10717d6775"},"vehicle_type_id":"4","last_reported":1724087325,"current_range_meters":0,"station_id":"ce4bh512rcd13ifvqe2g","pricing_plan_id":"cebpf4jnsgd1na2vs0mg"},{"bike_id":"08d75409-b2bf-4b49-9a92-a50d82b4ab52","system_id":"levelo_inurba_marseille","lat":43.290995,"lon":5.381361,"is_reserved":false,"is_disabled":false,"rental_uris":{"android":"levelo://app?vid=08d75409-b2bf-4b49-9a92-a50d82b4ab52","ios":"levelo://app?vid=08d75409-b2bf-4b49-9a92-a50d82b4ab52"},"vehicle_type_id":"4","last_reported":1724087325,"current_range_meters":0,"station_id":"ce4bh512rcd13ifvqe2g","pricing_plan_id":"cebpf4jnsgd1na2vs0mg"},{"bike_id":"029c26f2-b881-403f-b8d0-b2952e70dbc3","system_id":"levelo_inurba_marseille","lat":43.297807,"lon":5.393533,"is_reserved":false,"is_disabled":false,"rental_uris":{"android":"levelo://app?vid=029c26f2-b881-403f-b8d0-b2952e70dbc3","ios":"levelo://app?vid=029c26f2-b881-403f-b8d0-b2952e70dbc3"},"vehicle_type_id":"4","last_reported":1724087325,"current_range_meters":6000,"station_id":"chh1huq6cuj3fo74tm60","pricing_plan_id":"cebpf4jnsgd1na2vs0mg"},{"bike_id":"99adbfd8-7d31-48a2-ba37-c350bfaa9743","system_id":"levelo_inurba_marseille","lat":43.29526,"lon":5.39014,"is_reserved":false,"is_disabled":false,"rental_uris":{"android":"levelo://app?vid=99adbfd8-7d31-48a2-ba37-c350bfaa9743","ios":"levelo://app?vid=99adbfd8-7d31-48a2-ba37-c350bfaa9743"},"vehicle_type_id":"4","last_reported":1724087325,"current_range_meters":3200,"station_id":"ce4bh3p2rcd13ifvqdp0","pricing_plan_id":"cebpf4jnsgd1na2vs0mg"},{"bike_id":"c2ac57f1-ee9a-4d6a-b498-2ad5e661540b","system_id":"levelo_inurba_marseille","lat":43.297815,"lon":5.393548,"is_reserved":false,"is_disabled":false,"rental_uris":{"android":"levelo://app?vid=c2ac57f1-ee9a-4d6a-b498-2ad5e661540b","ios":"levelo://app?vid=c2ac57f1-ee9a-4d6a-b498-2ad5e661540b"},"vehicle_type_id":"4","last_reported":1724087325,"current_range_meters":0,"station_id":"chh1huq6cuj3fo74tm60","pricing_plan_id":"cebpf4jnsgd1na2vs0mg"},{"bike_id":"5768b3c7-1cac-4f22-8eb4-6b505bfcc0c7","system_id":"levelo_inurba_marseille","lat":43.295169,"lon":5.390426,"is_reserved":false,"is_disabled":false,"rental_uris":{"android":"levelo://app?vid=5768b3c7-1cac-4f22-8eb4-6b505bfcc0c7","ios":"levelo://app?vid=5768b3c7-1cac-4f22-8eb4-6b505bfcc0c7"},"vehicle_type_id":"4","last_reported":1724087325,"current_range_meters":2400,"station_id":"ce4bh3p2rcd13ifvqdp0","pricing_plan_id":"cebpf4jnsgd1na2vs0mg"},{"bike_id":"c5a8e2c5-3eaa-4966-a944-e9e49fc1e9e6","system_id":"levelo_inurba_marseille","lat":43.316828,"lon":5.404723,"is_reserved":false,"is_disabled":false,"rental_uris":{"android":"levelo://app?vid=c5a8e2c5-3eaa-4966-a944-e9e49fc1e9e6","ios":"levelo://app?vid=c5a8e2c5-3eaa-4966-a944-e9e49fc1e9e6"},"vehicle_type_id":"4","last_reported":1724087325,"current_range_meters":0,"station_id":"ce4bh012rcd13ifvqd00","pricing_plan_id":"cebpf4jnsgd1na2vs0mg"},{"bike_id":"6934dfdf-c959-40e8-8a3b-347ba911d7ab","system_id":"levelo_inurba_marseille","lat":43.295169,"lon":5.390426,"is_reserved":false,"is_disabled":false,"rental_uris":{"android":"levelo://app?vid=6934dfdf-c959-40e8-8a3b-347ba911d7ab","ios":"levelo://app?vid=6934dfdf-c959-40e8-8a3b-347ba911d7ab"},"vehicle_type_id":"4","last_reported":1724087325,"current_range_meters":0,"station_id":"ce4bh3p2rcd13ifvqdp0","pricing_plan_id":"cebpf4jnsgd1na2vs0mg"},{"bike_id":"c713fa35-4d62-4e3a-9e6e-1f822bda8196","system_id":"levelo_inurba_marseille","lat":43.295258,"lon":5.390289,"is_reserved":false,"is_disabled":false,"rental_uris":{"android":"levelo://app?vid=c713fa35-4d62-4e3a-9e6e-1f822bda8196","ios":"levelo://app?vid=c713fa35-4d62-4e3a-9e6e-1f822bda8196"},"vehicle_type_id":"4","last_reported":1724087325,"current_range_meters":10000,"station_id":"ce4bh3p2rcd13ifvqdp0","pricing_plan_id":"cebpf4jnsgd1na2vs0mg"},{"bike_id":"1d8fb458-c2c9-4d99-b1eb-9ddf822bb8d1","system_id":"levelo_inurba_marseille","lat":43.297815,"lon":5.393548,"is_reserved":false,"is_disabled":false,"rental_uris":{"android":"levelo://app?vid=1d8fb458-c2c9-4d99-b1eb-9ddf822bb8d1","ios":"levelo://app?vid=1d8fb458-c2c9-4d99-b1eb-9ddf822bb8d1"},"vehicle_type_id":"4","last_reported":1724087325,"current_range_meters":15200,"station_id":"chh1huq6cuj3fo74tm60","pricing_plan_id":"cebpf4jnsgd1na2vs0mg"},{"bike_id":"798d4b2e-9389-474c-95cb-73fa5443b68b","system_id":"levelo_inurba_marseille","lat":43.330442,"lon":5.389148,"is_reserved":false,"is_disabled":false,"rental_uris":{"android":"levelo://app?vid=798d4b2e-9389-474c-95cb-73fa5443b68b","ios":"levelo://app?vid=798d4b2e-9389-474c-95cb-73fa5443b68b"},"vehicle_type_id":"4","last_reported":1724087325,"current_range_meters":7200,"station_id":"ce4bhr92rcd13ifvqhrg","pricing_plan_id":"cebpf4jnsgd1na2vs0mg"},{"bike_id":"266be89d-3858-4d33-88ca-708cc3e68ea4","system_id":"levelo_inurba_marseille","lat":43.330442,"lon":5.389148,"is_reserved":false,"is_disabled":false,"rental_uris":{"android":"levelo://app?vid=266be89d-3858-4d33-88ca-708cc3e68ea4","ios":"levelo://app?vid=266be89d-3858-4d33-88ca-708cc3e68ea4"},"vehicle_type_id":"4","last_reported":1724087325,"current_range_meters":31200,"station_id":"ce4bhr92rcd13ifvqhrg","pricing_plan_id":"cebpf4jnsgd1na2vs0mg"},{"bike_id":"ea188c12-63f1-4917-8115-0e3adf763a12","system_id":"levelo_inurba_marseille","lat":43.330209,"lon":5.39036,"is_reserved":false,"is_disabled":false,"rental_uris":{"android":"levelo://app?vid=ea188c12-63f1-4917-8115-0e3adf763a12","ios":"levelo://app?vid=ea188c12-63f1-4917-8115-0e3adf763a12"},"vehicle_type_id":"4","last_reported":1724087325,"current_range_meters":13200,"station_id":"ce4bhr92rcd13ifvqhrg","pricing_plan_id":"cebpf4jnsgd1na2vs0mg"},{"bike_id":"be67b6a8-67cd-45b9-b3ee-15983e2109e8","system_id":"levelo_inurba_marseille","lat":43.297815,"lon":5.393548,"is_reserved":false,"is_disabled":false,"rental_uris":{"android":"levelo://app?vid=be67b6a8-67cd-45b9-b3ee-15983e2109e8","ios":"levelo://app?vid=be67b6a8-67cd-45b9-b3ee-15983e2109e8"},"vehicle_type_id":"4","last_reported":1724087325,"current_range_meters":14000,"station_id":"chh1huq6cuj3fo74tm60","pricing_plan_id":"cebpf4jnsgd1na2vs0mg"},{"bike_id":"ee0d0773-cb7f-41b3-a9dd-6d7b8e68ee20","system_id":"levelo_inurba_marseille","lat":43.330442,"lon":5.389148,"is_reserved":false,"is_disabled":false,"rental_uris":{"android":"levelo://app?vid=ee0d0773-cb7f-41b3-a9dd-6d7b8e68ee20","ios":"levelo://app?vid=ee0d0773-cb7f-41b3-a9dd-6d7b8e68ee20"},"vehicle_type_id":"4","last_reported":1724087325,"current_range_meters":31600,"station_id":"ce4bhr92rcd13ifvqhrg","pricing_plan_id":"cebpf4jnsgd1na2vs0mg"},{"bike_id":"d2478b89-e017-4ef6-97ff-b42dd22055d4","system_id":"levelo_inurba_marseille","lat":43.330442,"lon":5.389148,"is_reserved":false,"is_disabled":false,"rental_uris":{"android":"levelo://app?vid=d2478b89-e017-4ef6-97ff-b42dd22055d4","ios":"levelo://app?vid=d2478b89-e017-4ef6-97ff-b42dd22055d4"},"vehicle_type_id":"4","last_reported":1724087325,"current_range_meters":28000,"station_id":"ce4bhr92rcd13ifvqhrg","pricing_plan_id":"cebpf4jnsgd1na2vs0mg"},{"bike_id":"8b995eda-d792-4667-8e45-2a3b6bc9f8e8","system_id":"levelo_inurba_marseille","lat":43.33019,"lon":5.39044,"is_reserved":false,"is_disabled":false,"rental_uris":{"android":"levelo://app?vid=8b995eda-d792-4667-8e45-2a3b6bc9f8e8","ios":"levelo://app?vid=8b995eda-d792-4667-8e45-2a3b6bc9f8e8"},"vehicle_type_id":"4","last_reported":1724087325,"current_range_meters":30800,"station_id":"ce4bhr92rcd13ifvqhrg","pricing_plan_id":"cebpf4jnsgd1na2vs0mg"},{"bike_id":"864a9688-380a-454b-bf6d-85255f4cbe06","system_id":"levelo_inurba_marseille","lat":43.33023,"lon":5.3904,"is_reserved":false,"is_disabled":false,"rental_uris":{"android":"levelo://app?vid=864a9688-380a-454b-bf6d-85255f4cbe06","ios":"levelo://app?vid=864a9688-380a-454b-bf6d-85255f4cbe06"},"vehicle_type_id":"4","last_reported":1724087325,"current_range_meters":27600,"station_id":"ce4bhr92rcd13ifvqhrg","pricing_plan_id":"cebpf4jnsgd1na2vs0mg"},{"bike_id":"31c77f7b-f599-4cdb-8331-d05b0e6ced66","system_id":"levelo_inurba_marseille","lat":43.33022,"lon":5.39042,"is_reserved":false,"is_disabled":false,"rental_uris":{"android":"levelo://app?vid=31c77f7b-f599-4cdb-8331-d05b0e6ced66","ios":"levelo://app?vid=31c77f7b-f599-4cdb-8331-d05b0e6ced66"},"vehicle_type_id":"4","last_reported":1724087325,"current_range_meters":24400,"station_id":"ce4bhr92rcd13ifvqhrg","pricing_plan_id":"cebpf4jnsgd1na2vs0mg"},{"bike_id":"39597a1f-f8db-4f79-b704-e97ed580d241","system_id":"levelo_inurba_marseille","lat":43.330442,"lon":5.389148,"is_reserved":false,"is_disabled":false,"rental_uris":{"android":"levelo://app?vid=39597a1f-f8db-4f79-b704-e97ed580d241","ios":"levelo://app?vid=39597a1f-f8db-4f79-b704-e97ed580d241"},"vehicle_type_id":"4","last_reported":1724087325,"current_range_meters":31600,"station_id":"ce4bhr92rcd13ifvqhrg","pricing_plan_id":"cebpf4jnsgd1na2vs0mg"},{"bike_id":"3c63a4e2-15ae-4cf4-abd8-9ce921d5665c","system_id":"levelo_inurba_marseille","lat":43.295169,"lon":5.390426,"is_reserved":false,"is_disabled":false,"rental_uris":{"android":"levelo://app?vid=3c63a4e2-15ae-4cf4-abd8-9ce921d5665c","ios":"levelo://app?vid=3c63a4e2-15ae-4cf4-abd8-9ce921d5665c"},"vehicle_type_id":"4","last_reported":1724087325,"current_range_meters":6400,"station_id":"ce4bh3p2rcd13ifvqdp0","pricing_plan_id":"cebpf4jnsgd1na2vs0mg"},{"bike_id":"bb76d034-b000-414e-af9e-0cf3d4922ed6","system_id":"levelo_inurba_marseille","lat":43.33024,"lon":5.39041,"is_reserved":false,"is_disabled":false,"rental_uris":{"android":"levelo://app?vid=bb76d034-b000-414e-af9e-0cf3d4922ed6","ios":"levelo://app?vid=bb76d034-b000-414e-af9e-0cf3d4922ed6"},"vehicle_type_id":"4","last_reported":1724087325,"current_range_meters":27600,"station_id":"ce4bhr92rcd13ifvqhrg","pricing_plan_id":"cebpf4jnsgd1na2vs0mg"},{"bike_id":"adb755f0-596a-484b-a14c-c563dd92c33e","system_id":"levelo_inurba_marseille","lat":43.33028,"lon":5.39036,"is_reserved":false,"is_disabled":false,"rental_uris":{"android":"levelo://app?vid=adb755f0-596a-484b-a14c-c563dd92c33e","ios":"levelo://app?vid=adb755f0-596a-484b-a14c-c563dd92c33e"},"vehicle_type_id":"4","last_reported":1724087325,"current_range_meters":30800,"station_id":"ce4bhr92rcd13ifvqhrg","pricing_plan_id":"cebpf4jnsgd1na2vs0mg"},{"bike_id":"a731fbfa-ca5e-4834-b409-5f41c6019578","system_id":"levelo_inurba_marseille","lat":43.295169,"lon":5.390426,"is_reserved":false,"is_disabled":false,"rental_uris":{"android":"levelo://app?vid=a731fbfa-ca5e-4834-b409-5f41c6019578","ios":"levelo://app?vid=a731fbfa-ca5e-4834-b409-5f41c6019578"},"vehicle_type_id":"4","last_reported":1724087325,"current_range_meters":2400,"station_id":"ce4bh3p2rcd13ifvqdp0","pricing_plan_id":"cebpf4jnsgd1na2vs0mg"},{"bike_id":"2ff0c16a-4e1e-41d4-bd28-5841f7af3bb6","system_id":"levelo_inurba_marseille","lat":43.295169,"lon":5.390426,"is_reserved":false,"is_disabled":false,"rental_uris":{"android":"levelo://app?vid=2ff0c16a-4e1e-41d4-bd28-5841f7af3bb6","ios":"levelo://app?vid=2ff0c16a-4e1e-41d4-bd28-5841f7af3bb6"},"vehicle_type_id":"4","last_reported":1724087325,"current_range_meters":9200,"station_id":"ce4bh3p2rcd13ifvqdp0","pricing_plan_id":"cebpf4jnsgd1na2vs0mg"},{"bike_id":"a1f77ca5-3240-4b1b-a07e-c4c4a5330094","system_id":"levelo_inurba_marseille","lat":43.33025,"lon":5.39043,"is_reserved":false,"is_disabled":false,"rental_uris":{"android":"levelo://app?vid=a1f77ca5-3240-4b1b-a07e-c4c4a5330094","ios":"levelo://app?vid=a1f77ca5-3240-4b1b-a07e-c4c4a5330094"},"vehicle_type_id":"4","last_reported":1724087325,"current_range_meters":4800,"station_id":"ce4bhr92rcd13ifvqhrg","pricing_plan_id":"cebpf4jnsgd1na2vs0mg"},{"bike_id":"94a9e098-43b0-4c38-a50c-5c5ffb37cbf6","system_id":"levelo_inurba_marseille","lat":43.295169,"lon":5.390426,"is_reserved":false,"is_disabled":false,"rental_uris":{"android":"levelo://app?vid=94a9e098-43b0-4c38-a50c-5c5ffb37cbf6","ios":"levelo://app?vid=94a9e098-43b0-4c38-a50c-5c5ffb37cbf6"},"vehicle_type_id":"4","last_reported":1724087325,"current_range_meters":13600,"station_id":"ce4bh3p2rcd13ifvqdp0","pricing_plan_id":"cebpf4jnsgd1na2vs0mg"},{"bike_id":"cb13c131-bb47-4e87-8b37-c2e909854681","system_id":"levelo_inurba_marseille","lat":43.2901,"lon":5.381269,"is_reserved":false,"is_disabled":false,"rental_uris":{"android":"levelo://app?vid=cb13c131-bb47-4e87-8b37-c2e909854681","ios":"levelo://app?vid=cb13c131-bb47-4e87-8b37-c2e909854681"},"vehicle_type_id":"4","last_reported":1724087325,"current_range_meters":12800,"station_id":"ce4bh4p2rcd13ifvqe1g","pricing_plan_id":"cebpf4jnsgd1na2vs0mg"},{"bike_id":"f8f29ea7-67e9-465d-9c41-14d78a3272c2","system_id":"levelo_inurba_marseille","lat":43.28792,"lon":5.36347,"is_reserved":false,"is_disabled":false,"rental_uris":{"android":"levelo://app?vid=f8f29ea7-67e9-465d-9c41-14d78a3272c2","ios":"levelo://app?vid=f8f29ea7-67e9-465d-9c41-14d78a3272c2"},"vehicle_type_id":"4","last_reported":1724087325,"current_range_meters":14800,"station_id":"","pricing_plan_id":"cebpf4jnsgd1na2vs0mg"},{"bike_id":"84c35260-9b23-4672-bf21-5954b0189263","system_id":"levelo_inurba_marseille","lat":43.28856,"lon":5.358371,"is_reserved":false,"is_disabled":false,"rental_uris":{"android":"levelo://app?vid=84c35260-9b23-4672-bf21-5954b0189263","ios":"levelo://app?vid=84c35260-9b23-4672-bf21-5954b0189263"},"vehicle_type_id":"4","last_reported":1724087325,"current_range_meters":0,"station_id":"ce4bhb12rcd13ifvqem0","pricing_plan_id":"cebpf4jnsgd1na2vs0mg"},{"bike_id":"7d5d4392-e7b8-427c-9ee3-e63cd6207d70","system_id":"levelo_inurba_marseille","lat":43.28856,"lon":5.358371,"is_reserved":false,"is_disabled":false,"rental_uris":{"android":"levelo://app?vid=7d5d4392-e7b8-427c-9ee3-e63cd6207d70","ios":"levelo://app?vid=7d5d4392-e7b8-427c-9ee3-e63cd6207d70"},"vehicle_type_id":"4","last_reported":1724087325,"current_range_meters":17200,"station_id":"ce4bhb12rcd13ifvqem0","pricing_plan_id":"cebpf4jnsgd1na2vs0mg"},{"bike_id":"efd5b88d-d39c-427f-bf10-fdda4ed35c90","system_id":"levelo_inurba_marseille","lat":43.28856,"lon":5.358371,"is_reserved":false,"is_disabled":false,"rental_uris":{"android":"levelo://app?vid=efd5b88d-d39c-427f-bf10-fdda4ed35c90","ios":"levelo://app?vid=efd5b88d-d39c-427f-bf10-fdda4ed35c90"},"vehicle_type_id":"4","last_reported":1724087325,"current_range_meters":16400,"station_id":"ce4bhb12rcd13ifvqem0","pricing_plan_id":"cebpf4jnsgd1na2vs0mg"},{"bike_id":"83646ddd-f464-4ebc-838c-f93d3040b7cf","system_id":"levelo_inurba_marseille","lat":43.28856,"lon":5.358371,"is_reserved":false,"is_disabled":false,"rental_uris":{"android":"levelo://app?vid=83646ddd-f464-4ebc-838c-f93d3040b7cf","ios":"levelo://app?vid=83646ddd-f464-4ebc-838c-f93d3040b7cf"},"vehicle_type_id":"4","last_reported":1724087325,"current_range_meters":19600,"station_id":"ce4bhb12rcd13ifvqem0","pricing_plan_id":"cebpf4jnsgd1na2vs0mg"},{"bike_id":"1836cc79-05f9-4e7a-b5bb-2f4ade13265f","system_id":"levelo_inurba_marseille","lat":43.337188,"lon":5.374574,"is_reserved":false,"is_disabled":false,"rental_uris":{"android":"levelo://app?vid=1836cc79-05f9-4e7a-b5bb-2f4ade13265f","ios":"levelo://app?vid=1836cc79-05f9-4e7a-b5bb-2f4ade13265f"},"vehicle_type_id":"4","last_reported":1724087325,"current_range_meters":22800,"station_id":"","pricing_plan_id":"cebpf4jnsgd1na2vs0mg"},{"bike_id":"0e29bb4b-a142-468e-b1d8-2aad49f218eb","system_id":"levelo_inurba_marseille","lat":43.33733,"lon":5.37443,"is_reserved":false,"is_disabled":false,"rental_uris":{"android":"levelo://app?vid=0e29bb4b-a142-468e-b1d8-2aad49f218eb","ios":"levelo://app?vid=0e29bb4b-a142-468e-b1d8-2aad49f218eb"},"vehicle_type_id":"4","last_reported":1724087325,"current_range_meters":26400,"station_id":"","pricing_plan_id":"cebpf4jnsgd1na2vs0mg"},{"bike_id":"f05cdcad-3264-4dd8-a586-e4ef94ff04c2","system_id":"levelo_inurba_marseille","lat":43.312609,"lon":5.401662,"is_reserved":false,"is_disabled":false,"rental_uris":{"android":"levelo://app?vid=f05cdcad-3264-4dd8-a586-e4ef94ff04c2","ios":"levelo://app?vid=f05cdcad-3264-4dd8-a586-e4ef94ff04c2"},"vehicle_type_id":"4","last_reported":1724087325,"current_range_meters":16000,"station_id":"ce4bh092rcd13ifvqd30","pricing_plan_id":"cebpf4jnsgd1na2vs0mg"},{"bike_id":"bc01ef11-3bf5-43af-896d-fa5314d6d20f","system_id":"levelo_inurba_marseille","lat":43.312609,"lon":5.401662,"is_reserved":false,"is_disabled":false,"rental_uris":{"android":"levelo://app?vid=bc01ef11-3bf5-43af-896d-fa5314d6d20f","ios":"levelo://app?vid=bc01ef11-3bf5-43af-896d-fa5314d6d20f"},"vehicle_type_id":"4","last_reported":1724087325,"current_range_meters":0,"station_id":"ce4bh092rcd13ifvqd30","pricing_plan_id":"cebpf4jnsgd1na2vs0mg"},{"bike_id":"b3bc95aa-c280-4f4d-b1b3-df60b5d859ec","system_id":"levelo_inurba_marseille","lat":43.337444,"lon":5.374475,"is_reserved":false,"is_disabled":false,"rental_uris":{"android":"levelo://app?vid=b3bc95aa-c280-4f4d-b1b3-df60b5d859ec","ios":"levelo://app?vid=b3bc95aa-c280-4f4d-b1b3-df60b5d859ec"},"vehicle_type_id":"3","last_reported":1724087325,"current_range_meters":24800,"station_id":"","pricing_plan_id":"cebpf4jnsgd1na2vs0mg"},{"bike_id":"bb5e9ae6-232d-400b-b16e-c839b3d76437","system_id":"levelo_inurba_marseille","lat":43.309371,"lon":5.401449,"is_reserved":false,"is_disabled":false,"rental_uris":{"android":"levelo://app?vid=bb5e9ae6-232d-400b-b16e-c839b3d76437","ios":"levelo://app?vid=bb5e9ae6-232d-400b-b16e-c839b3d76437"},"vehicle_type_id":"4","last_reported":1724087325,"current_range_meters":10800,"station_id":"ce4bgvp2rcd13ifvqct0","pricing_plan_id":"cebpf4jnsgd1na2vs0mg"},{"bike_id":"1efa0b4a-e2bc-496e-a256-a2f14c3799dd","system_id":"levelo_inurba_marseille","lat":43.337462,"lon":5.374581,"is_reserved":false,"is_disabled":false,"rental_uris":{"android":"levelo://app?vid=1efa0b4a-e2bc-496e-a256-a2f14c3799dd","ios":"levelo://app?vid=1efa0b4a-e2bc-496e-a256-a2f14c3799dd"},"vehicle_type_id":"4","last_reported":1724087325,"current_range_meters":10800,"station_id":"","pricing_plan_id":"cebpf4jnsgd1na2vs0mg"},{"bike_id":"54fdf921-46c4-497a-93b1-cbec754b3d62","system_id":"levelo_inurba_marseille","lat":43.33749,"lon":5.37464,"is_reserved":false,"is_disabled":false,"rental_uris":{"android":"levelo://app?vid=54fdf921-46c4-497a-93b1-cbec754b3d62","ios":"levelo://app?vid=54fdf921-46c4-497a-93b1-cbec754b3d62"},"vehicle_type_id":"4","last_reported":1724087325,"current_range_meters":22400,"station_id":"","pricing_plan_id":"cebpf4jnsgd1na2vs0mg"},{"bike_id":"d39a49c0-560b-4438-9ba1-0080bf517751","system_id":"levelo_inurba_marseille","lat":43.30642,"lon":5.401031,"is_reserved":false,"is_disabled":false,"rental_uris":{"android":"levelo://app?vid=d39a49c0-560b-4438-9ba1-0080bf517751","ios":"levelo://app?vid=d39a49c0-560b-4438-9ba1-0080bf517751"},"vehicle_type_id":"4","last_reported":1724087325,"current_range_meters":7200,"station_id":"ce4bh112rcd13ifvqda0","pricing_plan_id":"cebpf4jnsgd1na2vs0mg"},{"bike_id":"5f490b04-8ec8-49bd-9c24-398595aab77a","system_id":"levelo_inurba_marseille","lat":43.30642,"lon":5.401031,"is_reserved":false,"is_disabled":false,"rental_uris":{"android":"levelo://app?vid=5f490b04-8ec8-49bd-9c24-398595aab77a","ios":"levelo://app?vid=5f490b04-8ec8-49bd-9c24-398595aab77a"},"vehicle_type_id":"4","last_reported":1724087325,"current_range_meters":6400,"station_id":"ce4bh112rcd13ifvqda0","pricing_plan_id":"cebpf4jnsgd1na2vs0mg"},{"bike_id":"6ac76e42-866a-4b39-97b9-e991918eba2e","system_id":"levelo_inurba_marseille","lat":43.306412,"lon":5.401035,"is_reserved":false,"is_disabled":false,"rental_uris":{"android":"levelo://app?vid=6ac76e42-866a-4b39-97b9-e991918eba2e","ios":"levelo://app?vid=6ac76e42-866a-4b39-97b9-e991918eba2e"},"vehicle_type_id":"4","last_reported":1724087325,"current_range_meters":26400,"station_id":"ce4bh112rcd13ifvqda0","pricing_plan_id":"cebpf4jnsgd1na2vs0mg"},{"bike_id":"f7983fae-0445-49de-98fc-00f25bb00ba4","system_id":"levelo_inurba_marseille","lat":43.306412,"lon":5.401035,"is_reserved":false,"is_disabled":false,"rental_uris":{"android":"levelo://app?vid=f7983fae-0445-49de-98fc-00f25bb00ba4","ios":"levelo://app?vid=f7983fae-0445-49de-98fc-00f25bb00ba4"},"vehicle_type_id":"4","last_reported":1724087325,"current_range_meters":0,"station_id":"ce4bh112rcd13ifvqda0","pricing_plan_id":"cebpf4jnsgd1na2vs0mg"},{"bike_id":"2af6e6ba-9998-4a53-b44d-901b3c14b2f9","system_id":"levelo_inurba_marseille","lat":43.30642,"lon":5.401031,"is_reserved":false,"is_disabled":false,"rental_uris":{"android":"levelo://app?vid=2af6e6ba-9998-4a53-b44d-901b3c14b2f9","ios":"levelo://app?vid=2af6e6ba-9998-4a53-b44d-901b3c14b2f9"},"vehicle_type_id":"4","last_reported":1724087325,"current_range_meters":22000,"station_id":"ce4bh112rcd13ifvqda0","pricing_plan_id":"cebpf4jnsgd1na2vs0mg"},{"bike_id":"f617c3b9-8612-4a18-9ba0-eb4387033ba9","system_id":"levelo_inurba_marseille","lat":43.28891,"lon":5.3539,"is_reserved":false,"is_disabled":false,"rental_uris":{"android":"levelo://app?vid=f617c3b9-8612-4a18-9ba0-eb4387033ba9","ios":"levelo://app?vid=f617c3b9-8612-4a18-9ba0-eb4387033ba9"},"vehicle_type_id":"4","last_reported":1724087325,"current_range_meters":14800,"station_id":"","pricing_plan_id":"cebpf4jnsgd1na2vs0mg"},{"bike_id":"643af8e8-ea13-4626-a006-792b9d098c53","system_id":"levelo_inurba_marseille","lat":43.301117,"lon":5.398795,"is_reserved":false,"is_disabled":false,"rental_uris":{"android":"levelo://app?vid=643af8e8-ea13-4626-a006-792b9d098c53","ios":"levelo://app?vid=643af8e8-ea13-4626-a006-792b9d098c53"},"vehicle_type_id":"4","last_reported":1724087325,"current_range_meters":0,"station_id":"ce4bh0h2rcd13ifvqd40","pricing_plan_id":"cebpf4jnsgd1na2vs0mg"},{"bike_id":"56456d75-6979-42a3-9a68-c831d9aa71a9","system_id":"levelo_inurba_marseille","lat":43.28727,"lon":5.36078,"is_reserved":false,"is_disabled":false,"rental_uris":{"android":"levelo://app?vid=56456d75-6979-42a3-9a68-c831d9aa71a9","ios":"levelo://app?vid=56456d75-6979-42a3-9a68-c831d9aa71a9"},"vehicle_type_id":"4","last_reported":1724087325,"current_range_meters":13600,"station_id":"cki0cbj6b192h4jlfktg","pricing_plan_id":"cebpf4jnsgd1na2vs0mg"},{"bike_id":"49b2f5ad-e800-4f15-8d8b-8624780f82e4","system_id":"levelo_inurba_marseille","lat":43.286591,"lon":5.363346,"is_reserved":false,"is_disabled":false,"rental_uris":{"android":"levelo://app?vid=49b2f5ad-e800-4f15-8d8b-8624780f82e4","ios":"levelo://app?vid=49b2f5ad-e800-4f15-8d8b-8624780f82e4"},"vehicle_type_id":"4","last_reported":1724087325,"current_range_meters":2800,"station_id":"ce4bhah2rcd13ifvqej0","pricing_plan_id":"cebpf4jnsgd1na2vs0mg"},{"bike_id":"223513d3-8794-4d13-9e6e-867ed6770547","system_id":"levelo_inurba_marseille","lat":43.286961,"lon":5.373785,"is_reserved":false,"is_disabled":false,"rental_uris":{"android":"levelo://app?vid=223513d3-8794-4d13-9e6e-867ed6770547","ios":"levelo://app?vid=223513d3-8794-4d13-9e6e-867ed6770547"},"vehicle_type_id":"4","last_reported":1724087325,"current_range_meters":4800,"station_id":"ce4bh3p2rcd13ifvqdq0","pricing_plan_id":"cebpf4jnsgd1na2vs0mg"},{"bike_id":"48c49039-f67b-4688-b4d1-96479732ed00","system_id":"levelo_inurba_marseille","lat":43.286591,"lon":5.363346,"is_reserved":false,"is_disabled":false,"rental_uris":{"android":"levelo://app?vid=48c49039-f67b-4688-b4d1-96479732ed00","ios":"levelo://app?vid=48c49039-f67b-4688-b4d1-96479732ed00"},"vehicle_type_id":"4","last_reported":1724087325,"current_range_meters":7200,"station_id":"ce4bhah2rcd13ifvqej0","pricing_plan_id":"cebpf4jnsgd1na2vs0mg"},{"bike_id":"de99460e-d3df-46d2-84c0-4b51a8d696c2","system_id":"levelo_inurba_marseille","lat":43.286591,"lon":5.363346,"is_reserved":false,"is_disabled":false,"rental_uris":{"android":"levelo://app?vid=de99460e-d3df-46d2-84c0-4b51a8d696c2","ios":"levelo://app?vid=de99460e-d3df-46d2-84c0-4b51a8d696c2"},"vehicle_type_id":"4","last_reported":1724087325,"current_range_meters":31200,"station_id":"ce4bhah2rcd13ifvqej0","pricing_plan_id":"cebpf4jnsgd1na2vs0mg"},{"bike_id":"76336593-f5d1-4b19-8f87-c7f65f2b57a4","system_id":"levelo_inurba_marseille","lat":43.286591,"lon":5.363346,"is_reserved":false,"is_disabled":false,"rental_uris":{"android":"levelo://app?vid=76336593-f5d1-4b19-8f87-c7f65f2b57a4","ios":"levelo://app?vid=76336593-f5d1-4b19-8f87-c7f65f2b57a4"},"vehicle_type_id":"4","last_reported":1724087325,"current_range_meters":800,"station_id":"ce4bhah2rcd13ifvqej0","pricing_plan_id":"cebpf4jnsgd1na2vs0mg"},{"bike_id":"493fae07-cd7d-4669-99d8-d27f0fd0808d","system_id":"levelo_inurba_marseille","lat":43.28662,"lon":5.36353,"is_reserved":false,"is_disabled":false,"rental_uris":{"android":"levelo://app?vid=493fae07-cd7d-4669-99d8-d27f0fd0808d","ios":"levelo://app?vid=493fae07-cd7d-4669-99d8-d27f0fd0808d"},"vehicle_type_id":"4","last_reported":1724087325,"current_range_meters":4400,"station_id":"ce4bhah2rcd13ifvqej0","pricing_plan_id":"cebpf4jnsgd1na2vs0mg"},{"bike_id":"3cf1523d-4263-449a-94b1-31929bc9c2ed","system_id":"levelo_inurba_marseille","lat":43.286961,"lon":5.373785,"is_reserved":false,"is_disabled":false,"rental_uris":{"android":"levelo://app?vid=3cf1523d-4263-449a-94b1-31929bc9c2ed","ios":"levelo://app?vid=3cf1523d-4263-449a-94b1-31929bc9c2ed"},"vehicle_type_id":"4","last_reported":1724087325,"current_range_meters":8000,"station_id":"ce4bh3p2rcd13ifvqdq0","pricing_plan_id":"cebpf4jnsgd1na2vs0mg"},{"bike_id":"c57ff3e6-2f4a-4dfb-ae4f-85df174da47d","system_id":"levelo_inurba_marseille","lat":43.302759,"lon":5.400793,"is_reserved":false,"is_disabled":false,"rental_uris":{"android":"levelo://app?vid=c57ff3e6-2f4a-4dfb-ae4f-85df174da47d","ios":"levelo://app?vid=c57ff3e6-2f4a-4dfb-ae4f-85df174da47d"},"vehicle_type_id":"4","last_reported":1724087325,"current_range_meters":18400,"station_id":"ce4bgvh2rcd13ifvqcs0","pricing_plan_id":"cebpf4jnsgd1na2vs0mg"},{"bike_id":"1db54220-3f6d-4a33-99b4-3a78f30fb112","system_id":"levelo_inurba_marseille","lat":43.302759,"lon":5.400793,"is_reserved":false,"is_disabled":false,"rental_uris":{"android":"levelo://app?vid=1db54220-3f6d-4a33-99b4-3a78f30fb112","ios":"levelo://app?vid=1db54220-3f6d-4a33-99b4-3a78f30fb112"},"vehicle_type_id":"4","last_reported":1724087325,"current_range_meters":6800,"station_id":"ce4bgvh2rcd13ifvqcs0","pricing_plan_id":"cebpf4jnsgd1na2vs0mg"},{"bike_id":"04a40d4c-2743-4e09-bc1f-221f1cff5722","system_id":"levelo_inurba_marseille","lat":43.302759,"lon":5.400793,"is_reserved":false,"is_disabled":false,"rental_uris":{"android":"levelo://app?vid=04a40d4c-2743-4e09-bc1f-221f1cff5722","ios":"levelo://app?vid=04a40d4c-2743-4e09-bc1f-221f1cff5722"},"vehicle_type_id":"4","last_reported":1724087325,"current_range_meters":20000,"station_id":"ce4bgvh2rcd13ifvqcs0","pricing_plan_id":"cebpf4jnsgd1na2vs0mg"},{"bike_id":"193951b1-e03a-4c0a-b58e-1ce8fed12ebb","system_id":"levelo_inurba_marseille","lat":43.302437,"lon":5.400547,"is_reserved":false,"is_disabled":false,"rental_uris":{"android":"levelo://app?vid=193951b1-e03a-4c0a-b58e-1ce8fed12ebb","ios":"levelo://app?vid=193951b1-e03a-4c0a-b58e-1ce8fed12ebb"},"vehicle_type_id":"4","last_reported":1724087325,"current_range_meters":0,"station_id":"ce4bgvh2rcd13ifvqcs0","pricing_plan_id":"cebpf4jnsgd1na2vs0mg"},{"bike_id":"35145e3b-e5bd-42ef-b192-496aa301dc7c","system_id":"levelo_inurba_marseille","lat":43.29032,"lon":5.38647,"is_reserved":false,"is_disabled":false,"rental_uris":{"android":"levelo://app?vid=35145e3b-e5bd-42ef-b192-496aa301dc7c","ios":"levelo://app?vid=35145e3b-e5bd-42ef-b192-496aa301dc7c"},"vehicle_type_id":"4","last_reported":1724087325,"current_range_meters":4000,"station_id":"ce4bh4p2rcd13ifvqe0g","pricing_plan_id":"cebpf4jnsgd1na2vs0mg"},