{"last_updated":1770832178,"ttl":60,"version":"2.2","data":{"bikes":[{"bike_id":"5adae922-1263-4222-8288-3ab1b31cfe83","system_id":"levelo_inurba_marseille","lat":43.29031,"lon":5.35916,"is_reserved":false,"is_disabled":false,"rental_uris":{"android":"levelo://app?vid=5adae922-1263-4222-8288-3ab1b31cfe83","ios":"levelo://app?vid=5adae922-1263-4222-8288-3ab1b31cfe83"},"vehicle_type_id":"4","last_reported":1770832179,"current_range_meters":2800,"station_id":"ce4bha92rcd13ifvqeg0","pricing_plan_id":"cebpf4jnsgd1na2vs0mg"},{"bike_id":"04a4cc8e-3be4-4e18-a6c7-3f4bb67f977c","system_id":"levelo_inurba_marseille","lat":43.273701,"lon":5.362597,"is_reserved":false,"is_disabled":false,"rental_uris":{"android":"levelo://app?vid=04a4cc8e-3be4-4e18-a6c7-3f4bb67f977c","ios":"levelo://app?vid=04a4cc8e-3be4-4e18-a6c7-3f4bb67f977c"},"vehicle_type_id":"4","last_reported":1770832179,"current_range_meters":2800,"station_id":"ce4bhbh2rcd13ifvqeo0","pricing_plan_id":"cebpf4jnsgd1na2vs0mg"},{"bike_id":"efd9d7ca-4b84-4ff5-876b-900e16175b1d","system_id":"levelo_inurba_marseille","lat":43.26197,"lon":5.37441,"is_reserved":false,"is_disabled":false,"rental_uris":{"android":"levelo://app?vid=efd9d7ca-4b84-4ff5-876b-900e16175b1d","ios":"levelo://app?vid=efd9d7ca-4b84-4ff5-876b-900e16175b1d"},"vehicle_type_id":"4","last_reported":1770832179,"current_range_meters":2800,"station_id":"ce4bhgp2rcd13ifvqfc0","pricing_plan_id":"cebpf4jnsgd1na2vs0mg"},{"bike_id":"87056c0a-278d-470f-af70-99a4eb084f35","system_id":"levelo_inurba_marseille","lat":43.2463,"lon":5.43169,"is_reserved":false,"is_disabled":false,"rental_uris":{"android":"levelo://app?vid=87056c0a-278d-470f-af70-99a4eb084f35","ios":"levelo://app?vid=87056c0a-278d-470f-af70-99a4eb084f35"},"vehicle_type_id":"4","last_reported":1770832179,"current_range_meters":2800,"station_id":"st_d2m6c4gdas8pm72e190g","pricing_plan_id":"cebpf4jnsgd1na2vs0mg"},{"bike_id":"9fd591d0-2348-4aee-a8e7-84023c5aa352","system_id":"levelo_inurba_marseille","lat":43.28408,"lon":5.37508,"is_reserved":false,"is_disabled":true,"rental_uris":{"android":"levelo://app?vid=9fd591d0-2348-4aee-a8e7-84023c5aa352","ios":"levelo://app?vid=9fd591d0-2348-4aee-a8e7-84023c5aa352"},"vehicle_type_id":"4","last_reported":1770832179,"current_range_meters":2800,"station_id":"ce4bh412rcd13ifvqds0","pricing_plan_id":"cebpf4jnsgd1na2vs0mg"},{"bike_id":"22d8d839-db4c-4efa-bd5d-d78efaca55ca","system_id":"levelo_inurba_marseille","lat":43.27057,"lon":5.38297,"is_reserved":false,"is_disabled":false,"rental_uris":{"android":"levelo://app?vid=22d8d839-db4c-4efa-bd5d-d78efaca55ca","ios":"levelo://app?vid=22d8d839-db4c-4efa-bd5d-d78efaca55ca"},"vehicle_type_id":"4","last_reported":1770832179,"current_range_meters":2800,"station_id":"st_d3n2fo6cfp8s73cte1j0","pricing_plan_id":"cebpf4jnsgd1na2vs0mg"},{"bike_id":"d84ccceb-947f-4c98-84f4-d8427853cf88","system_id":"levelo_inurba_marseille","lat":43.30407,"lon":5.41186,"is_reserved":false,"is_disabled":false,"rental_uris":{"android":"levelo://app?vid=d84ccceb-947f-4c98-84f4-d8427853cf88","ios":"levelo://app?vid=d84ccceb-947f-4c98-84f4-d8427853cf88"},"vehicle_type_id":"4","last_reported":1770832179,"current_range_meters":2800,"station_id":"","pricing_plan_id":"cebpf4jnsgd1na2vs0mg"},{"bike_id":"44d17b9a-a696-4502-89c1-4d2b9276205f","system_id":"levelo_inurba_marseille","lat":43.25018,"lon":5.38896,"is_reserved":false,"is_disabled":false,"rental_uris":{"android":"levelo://app?vid=44d17b9a-a696-4502-89c1-4d2b9276205f","ios":"levelo://app?vid=44d17b9a-a696-4502-89c1-4d2b9276205f"},"vehicle_type_id":"4","last_reported":1770832179,"current_range_meters":2800,"station_id":"ce4bhgp2rcd13ifvqfd0","pricing_plan_id":"cebpf4jnsgd1na2vs0mg"},{"bike_id":"021e05cb-d562-422d-83c5-2ce813c660cc","system_id":"levelo_inurba_marseille","lat":43.28147,"lon":5.42631,"is_reserved":false,"is_disabled":false,"rental_uris":{"android":"levelo://app?vid=021e05cb-d562-422d-83c5-2ce813c660cc","ios":"levelo://app?vid=021e05cb-d562-422d-83c5-2ce813c660cc"},"vehicle_type_id":"4","last_reported":1770832179,"current_range_meters":3200,"station_id":"ce4bhnh2rcd13ifvqgug","pricing_plan_id":"cebpf4jnsgd1na2vs0mg"},{"bike_id":"e0450db0-c8b3-4403-bc43-ed5a007877b8","system_id":"levelo_inurba_marseille","lat":43.24628,"lon":5.43125,"is_reserved":false,"is_disabled":false,"rental_uris":{"android":"levelo://app?vid=e0450db0-c8b3-4403-bc43-ed5a007877b8","ios":"levelo://app?vid=e0450db0-c8b3-4403-bc43-ed5a007877b8"},"vehicle_type_id":"4","last_reported":1770832179,"current_range_meters":3200,"station_id":"st_d2m6c4gdas8pm72e190g","pricing_plan_id":"cebpf4jnsgd1na2vs0mg"},{"bike_id":"652029fd-7389-40d5-a0bd-e85f7aa43d7c","system_id":"levelo_inurba_marseille","lat":43.22565,"lon":5.4162,"is_reserved":false,"is_disabled":false,"rental_uris":{"android":"levelo://app?vid=652029fd-7389-40d5-a0bd-e85f7aa43d7c","ios":"levelo://app?vid=652029fd-7389-40d5-a0bd-e85f7aa43d7c"},"vehicle_type_id":"4","last_reported":1770832179,"current_range_meters":3200,"station_id":"st_d2o4gvlbi1j2169b742g","pricing_plan_id":"cebpf4jnsgd1na2vs0mg"},{"bike_id":"ee213b40-802c-442b-9390-5e22834db5df","system_id":"levelo_inurba_marseille","lat":43.241688,"lon":5.363912,"is_reserved":false,"is_disabled":false,"rental_uris":{"android":"levelo://app?vid=ee213b40-802c-442b-9390-5e22834db5df","ios":"levelo://app?vid=ee213b40-802c-442b-9390-5e22834db5df"},"vehicle_type_id":"4","last_reported":1770832179,"current_range_meters":3200,"station_id":"cpo36qri1sfpv3e86is0","pricing_plan_id":"cebpf4jnsgd1na2vs0mg"},{"bike_id":"99aac769-86b0-4276-b0bb-55627d5b4a45","system_id":"levelo_inurba_marseille","lat":43.295193,"lon":5.390287,"is_reserved":false,"is_disabled":false,"rental_uris":{"android":"levelo://app?vid=99aac769-86b0-4276-b0bb-55627d5b4a45","ios":"levelo://app?vid=99aac769-86b0-4276-b0bb-55627d5b4a45"},"vehicle_type_id":"4","last_reported":1770832179,"current_range_meters":3200,"station_id":"ce4bh3p2rcd13ifvqdp0","pricing_plan_id":"cebpf4jnsgd1na2vs0mg"},{"bike_id":"8f9da749-a369-482d-907e-b996cd3f0156","system_id":"levelo_inurba_marseille","lat":43.29282,"lon":5.36834,"is_reserved":false,"is_disabled":false,"rental_uris":{"android":"levelo://app?vid=8f9da749-a369-482d-907e-b996cd3f0156","ios":"levelo://app?vid=8f9da749-a369-482d-907e-b996cd3f0156"},"vehicle_type_id":"4","last_reported":1770832179,"current_range_meters":3200,"station_id":"ce4bhbp2rcd13ifvqesg","pricing_plan_id":"cebpf4jnsgd1na2vs0mg"},{"bike_id":"475fae78-75f9-4675-8012-304224f10313","system_id":"levelo_inurba_marseille","lat":43.33555,"lon":5.37467,"is_reserved":false,"is_disabled":false,"rental_uris":{"android":"levelo://app?vid=475fae78-75f9-4675-8012-304224f10313","ios":"levelo://app?vid=475fae78-75f9-4675-8012-304224f10313"},"vehicle_type_id":"4","last_reported":1770832179,"current_range_meters":3200,"station_id":"st_d46tts09ee8s73dlu43g","pricing_plan_id":"cebpf4jnsgd1na2vs0mg"},{"bike_id":"46b69bcd-f35a-433e-b9f1-16ab03d0ac0e","system_id":"levelo_inurba_marseille","lat":43.25871,"lon":5.39889,"is_reserved":false,"is_disabled":false,"rental_uris":{"android":"levelo://app?vid=46b69bcd-f35a-433e-b9f1-16ab03d0ac0e","ios":"levelo://app?vid=46b69bcd-f35a-433e-b9f1-16ab03d0ac0e"},"vehicle_type_id":"4","last_reported":1770832179,"current_range_meters":3200,"station_id":"ce4bhl92rcd13ifvqghg","pricing_plan_id":"cebpf4jnsgd1na2vs0mg"},{"bike_id":"e627c39b-d6b7-4908-b941-837594434590","system_id":"levelo_inurba_marseille","lat":43.25379,"lon":5.42156,"is_reserved":false,"is_disabled":false,"rental_uris":{"android":"levelo://app?vid=e627c39b-d6b7-4908-b941-837594434590","ios":"levelo://app?vid=e627c39b-d6b7-4908-b941-837594434590"},"vehicle_type_id":"4","last_reported":1770832179,"current_range_meters":3200,"station_id":"st_d2m65c5bi1j21697t3ng","pricing_plan_id":"cebpf4jnsgd1na2vs0mg"},{"bike_id":"58fb2950-0821-412c-9587-70af3c2eb568","system_id":"levelo_inurba_marseille","lat":43.2867,"lon":5.38653,"is_reserved":false,"is_disabled":false,"rental_uris":{"android":"levelo://app?vid=58fb2950-0821-412c-9587-70af3c2eb568","ios":"levelo://app?vid=58fb2950-0821-412c-9587-70af3c2eb568"},"vehicle_type_id":"4","last_reported":1770832179,"current_range_meters":3200,"station_id":"ce4bh492rcd13ifvqdug","pricing_plan_id":"cebpf4jnsgd1na2vs0mg"},{"bike_id":"b3da83df-566e-4e92-8950-cbe485971216","system_id":"levelo_inurba_marseille","lat":43.28417,"lon":5.37514,"is_reserved":false,"is_disabled":false,"rental_uris":{"android":"levelo://app?vid=b3da83df-566e-4e92-8950-cbe485971216","ios":"levelo://app?vid=b3da83df-566e-4e92-8950-cbe485971216"},"vehicle_type_id":"4","last_reported":1770832179,"current_range_meters":3200,"station_id":"ce4bh412rcd13ifvqds0","pricing_plan_id":"cebpf4jnsgd1na2vs0mg"},{"bike_id":"6e25fe90-889f-4ac0-a646-814d8f7e822c","system_id":"levelo_inurba_marseille","lat":43.2971,"lon":5.37692,"is_reserved":false,"is_disabled":false,"rental_uris":{"android":"levelo://app?vid=6e25fe90-889f-4ac0-a646-814d8f7e822c","ios":"levelo://app?vid=6e25fe90-889f-4ac0-a646-814d8f7e822c"},"vehicle_type_id":"4","last_reported":1770832179,"current_range_meters":3200,"station_id":"ce4bgkh2rcd13ifvqbl0","pricing_plan_id":"cebpf4jnsgd1na2vs0mg"},{"bike_id":"91c3aa1b-6ba9-4cf3-a083-c7879249a02c","system_id":"levelo_inurba_marseille","lat":43.29033,"lon":5.35908,"is_reserved":false,"is_disabled":false,"rental_uris":{"android":"levelo://app?vid=91c3aa1b-6ba9-4cf3-a083-c7879249a02c","ios":"levelo://app?vid=91c3aa1b-6ba9-4cf3-a083-c7879249a02c"},"vehicle_type_id":"4","last_reported":1770832179,"current_range_meters":3200,"station_id":"ce4bha92rcd13ifvqeg0","pricing_plan_id":"cebpf4jnsgd1na2vs0mg"},{"bike_id":"9afbb5a5-8a15-42b6-ad2f-a74f69dc8fb6","system_id":"levelo_inurba_marseille","lat":43.30153,"lon":5.38089,"is_reserved":false,"is_disabled":false,"rental_uris":{"android":"levelo://app?vid=9afbb5a5-8a15-42b6-ad2f-a74f69dc8fb6","ios":"levelo://app?vid=9afbb5a5-8a15-42b6-ad2f-a74f69dc8fb6"},"vehicle_type_id":"4","last_reported":1770832179,"current_range_meters":3600,"station_id":"ce4bgjp2rcd13ifvqbh0","pricing_plan_id":"cebpf4jnsgd1na2vs0mg"},{"bike_id":"cd8d69b7-d3d9-4d19-b431-0fa6eed36a57","system_id":"levelo_inurba_marseille","lat":43.2811,"lon":5.37826,"is_reserved":false,"is_disabled":false,"rental_uris":{"android":"levelo://app?vid=cd8d69b7-d3d9-4d19-b431-0fa6eed36a57","ios":"levelo://app?vid=cd8d69b7-d3d9-4d19-b431-0fa6eed36a57"},"vehicle_type_id":"4","last_reported":1770832179,"current_range_meters":3600,"station_id":"ce4bha12rcd13ifvqee0","pricing_plan_id":"cebpf4jnsgd1na2vs0mg"},{"bike_id":"808b7c3b-a176-43c3-a08f-698a21d80717","system_id":"levelo_inurba_marseille","lat":43.28671,"lon":5.38663,"is_reserved":false,"is_disabled":false,"rental_uris":{"android":"levelo://app?vid=808b7c3b-a176-43c3-a08f-698a21d80717","ios":"levelo://app?vid=808b7c3b-a176-43c3-a08f-698a21d80717"},"vehicle_type_id":"4","last_reported":1770832179,"current_range_meters":3600,"station_id":"ce4bh492rcd13ifvqdug","pricing_plan_id":"cebpf4jnsgd1na2vs0mg"},{"bike_id":"79502a40-dd7b-4d3e-8c33-778c1f3ff6e4","system_id":"levelo_inurba_marseille","lat":43.28486,"lon":5.38543,"is_reserved":false,"is_disabled":false,"rental_uris":{"android":"levelo://app?vid=79502a40-dd7b-4d3e-8c33-778c1f3ff6e4","ios":"levelo://app?vid=79502a40-dd7b-4d3e-8c33-778c1f3ff6e4"},"vehicle_type_id":"4","last_reported":1770832179,"current_range_meters":3600,"station_id":"ce4bh8p2rcd13ifvqeb0","pricing_plan_id":"cebpf4jnsgd1na2vs0mg"},{"bike_id":"08ede7a0-ac9a-4173-8951-f1c030ea4a6b","system_id":"levelo_inurba_marseille","lat":43.29539,"lon":5.375,"is_reserved":false,"is_disabled":false,"rental_uris":{"android":"levelo://app?vid=08ede7a0-ac9a-4173-8951-f1c030ea4a6b","ios":"levelo://app?vid=08ede7a0-ac9a-4173-8951-f1c030ea4a6b"},"vehicle_type_id":"4","last_reported":1770832179,"current_range_meters":3600,"station_id":"ce4bgkp2rcd13ifvqbmg","pricing_plan_id":"cebpf4jnsgd1na2vs0mg"},{"bike_id":"7e3ab4cc-f1d0-40c5-93c0-f0b43c67658b","system_id":"levelo_inurba_marseille","lat":43.25332,"lon":5.42175,"is_reserved":false,"is_disabled":false,"rental_uris":{"android":"levelo://app?vid=7e3ab4cc-f1d0-40c5-93c0-f0b43c67658b","ios":"levelo://app?vid=7e3ab4cc-f1d0-40c5-93c0-f0b43c67658b"},"vehicle_type_id":"4","last_reported":1770832179,"current_range_meters":3600,"station_id":"st_d2m65c5bi1j21697t3ng","pricing_plan_id":"cebpf4jnsgd1na2vs0mg"},{"bike_id":"fe6f8294-65ba-45f1-a4f6-c1ee0f12ef18","system_id":"levelo_inurba_marseille","lat":43.22553,"lon":5.41636,"is_reserved":false,"is_disabled":false,"rental_uris":{"android":"levelo://app?vid=fe6f8294-65ba-45f1-a4f6-c1ee0f12ef18","ios":"levelo://app?vid=fe6f8294-65ba-45f1-a4f6-c1ee0f12ef18"},"vehicle_type_id":"4","last_reported":1770832179,"current_range_meters":3600,"station_id":"st_d2o4gvlbi1j2169b742g","pricing_plan_id":"cebpf4jnsgd1na2vs0mg"},{"bike_id":"7a764ea1-3db9-42d3-bcb4-96b88fa6fb42","system_id":"levelo_inurba_marseille","lat":43.2852,"lon":5.38746,"is_reserved":false,"is_disabled":false,"rental_uris":{"android":"levelo://app?vid=7a764ea1-3db9-42d3-bcb4-96b88fa6fb42","ios":"levelo://app?vid=7a764ea1-3db9-42d3-bcb4-96b88fa6fb42"},"vehicle_type_id":"4","last_reported":1770832179,"current_range_meters":3600,"station_id":"ce4bh492rcd13ifvqdvg","pricing_plan_id":"cebpf4jnsgd1na2vs0mg"},{"bike_id":"d55a2dc7-206d-44ab-9f33-4c64fa5dc9e3","system_id":"levelo_inurba_marseille","lat":43.2868,"lon":5.3865,"is_reserved":false,"is_disabled":false,"rental_uris":{"android":"levelo://app?vid=d55a2dc7-206d-44ab-9f33-4c64fa5dc9e3","ios":"levelo://app?vid=d55a2dc7-206d-44ab-9f33-4c64fa5dc9e3"},"vehicle_type_id":"4","last_reported":1770832179,"current_range_meters":3600,"station_id":"ce4bh492rcd13ifvqdug","pricing_plan_id":"cebpf4jnsgd1na2vs0mg"},{"bike_id":"5f7df976-2770-4b0d-bd16-1a5d3e4bd86a","system_id":"levelo_inurba_marseille","lat":43.260303,"lon":5.375518,"is_reserved":false,"is_disabled":false,"rental_uris":{"android":"levelo://app?vid=5f7df976-2770-4b0d-bd16-1a5d3e4bd86a","ios":"levelo://app?vid=5f7df976-2770-4b0d-bd16-1a5d3e4bd86a"},"vehicle_type_id":"4","last_reported":1770832179,"current_range_meters":3600,"station_id":"ce4bhgh2rcd13ifvqfa0","pricing_plan_id":"cebpf4jnsgd1na2vs0mg"},{"bike_id":"b1429378-b93e-4184-b373-85f0415c9919","system_id":"levelo_inurba_marseille","lat":43.246319,"lon":5.43146,"is_reserved":false,"is_disabled":false,"rental_uris":{"android":"levelo://app?vid=b1429378-b93e-4184-b373-85f0415c9919","ios":"levelo://app?vid=b1429378-b93e-4184-b373-85f0415c9919"},"vehicle_type_id":"4","last_reported":1770832179,"current_range_meters":3600,"station_id":"st_d2m6c4gdas8pm72e190g","pricing_plan_id":"cebpf4jnsgd1na2vs0mg"},{"bike_id":"126eb4e6-5732-4c31-a72e-d83136f26203","system_id":"levelo_inurba_marseille","lat":43.27175,"lon":5.4099,"is_reserved":false,"is_disabled":false,"rental_uris":{"android":"levelo://app?vid=126eb4e6-5732-4c31-a72e-d83136f26203","ios":"levelo://app?vid=126eb4e6-5732-4c31-a72e-d83136f26203"},"vehicle_type_id":"4","last_reported":1770832179,"current_range_meters":3600,"station_id":"ce4bhl12rcd13ifvqgf0","pricing_plan_id":"cebpf4jnsgd1na2vs0mg"},{"bike_id":"e1972e28-c5f7-4898-9f3a-cff0aa5fe0de","system_id":"levelo_inurba_marseille","lat":43.24191,"lon":5.39679,"is_reserved":false,"is_disabled":false,"rental_uris":{"android":"levelo://app?vid=e1972e28-c5f7-4898-9f3a-cff0aa5fe0de","ios":"levelo://app?vid=e1972e28-c5f7-4898-9f3a-cff0aa5fe0de"},"vehicle_type_id":"4","last_reported":1770832179,"current_range_meters":3600,"station_id":"ce4bhn12rcd13ifvqgpg","pricing_plan_id":"cebpf4jnsgd1na2vs0mg"},{"bike_id":"226bd66d-8682-4518-be4a-aca8360a0e4d","system_id":"levelo_inurba_marseille","lat":43.30452,"lon":5.38882,"is_reserved":false,"is_disabled":false,"rental_uris":{"android":"levelo://app?vid=226bd66d-8682-4518-be4a-aca8360a0e4d","ios":"levelo://app?vid=226bd66d-8682-4518-be4a-aca8360a0e4d"},"vehicle_type_id":"4","last_reported":1770832179,"current_range_meters":3600,"station_id":"ce4bgk12rcd13ifvqbi0","pricing_plan_id":"cebpf4jnsgd1na2vs0mg"},{"bike_id":"7cf25bda-5d94-4b44-9fee-b506669dec20","system_id":"levelo_inurba_marseille","lat":43.29983,"lon":5.38477,"is_reserved":false,"is_disabled":false,"rental_uris":{"android":"levelo://app?vid=7cf25bda-5d94-4b44-9fee-b506669dec20","ios":"levelo://app?vid=7cf25bda-5d94-4b44-9fee-b506669dec20"},"vehicle_type_id":"4","last_reported":1770832179,"current_range_meters":3600,"station_id":"ce4bgj92rcd13ifvqbd0","pricing_plan_id":"cebpf4jnsgd1na2vs0mg"},{"bike_id":"42f3570e-bd59-46b4-b639-2f8b98958802","system_id":"levelo_inurba_marseille","lat":43.24388,"lon":5.37049,"is_reserved":false,"is_disabled":false,"rental_uris":{"android":"levelo://app?vid=42f3570e-bd59-46b4-b639-2f8b98958802","ios":"levelo://app?vid=42f3570e-bd59-46b4-b639-2f8b98958802"},"vehicle_type_id":"4","last_reported":1770832179,"current_range_meters":3600,"station_id":"ce4bhhh2rcd13ifvqfk0","pricing_plan_id":"cebpf4jnsgd1na2vs0mg"},{"bike_id":"b8cd7064-9c81-46b6-8a7e-44707206a010","system_id":"levelo_inurba_marseille","lat":43.28704,"lon":5.37358,"is_reserved":false,"is_disabled":false,"rental_uris":{"android":"levelo://app?vid=b8cd7064-9c81-46b6-8a7e-44707206a010","ios":"levelo://app?vid=b8cd7064-9c81-46b6-8a7e-44707206a010"},"vehicle_type_id":"4","last_reported":1770832179,"current_range_meters":3600,"station_id":"ce4bh3p2rcd13ifvqdq0","pricing_plan_id":"cebpf4jnsgd1na2vs0mg"},{"bike_id":"a7f57253-6ba7-47f9-acab-a37dd65c4706","system_id":"levelo_inurba_marseille","lat":43.251191,"lon":5.403149,"is_reserved":false,"is_disabled":false,"rental_uris":{"android":"levelo://app?vid=a7f57253-6ba7-47f9-acab-a37dd65c4706","ios":"levelo://app?vid=a7f57253-6ba7-47f9-acab-a37dd65c4706"},"vehicle_type_id":"4","last_reported":1770832179,"current_range_meters":4000,"station_id":"ce4bhlh2rcd13ifvqgig","pricing_plan_id":"cebpf4jnsgd1na2vs0mg"},{"bike_id":"32b27b47-6c8b-49c6-8b48-fbeace627871","system_id":"levelo_inurba_marseille","lat":43.312216,"lon":5.368749,"is_reserved":false,"is_disabled":false,"rental_uris":{"android":"levelo://app?vid=32b27b47-6c8b-49c6-8b48-fbeace627871","ios":"levelo://app?vid=32b27b47-6c8b-49c6-8b48-fbeace627871"},"vehicle_type_id":"4","last_reported":1770832179,"current_range_meters":4000,"station_id":"ce4bgl92rcd13ifvqbq0","pricing_plan_id":"cebpf4jnsgd1na2vs0mg"},{"bike_id":"ad407971-6456-4f64-b7c0-d27028fe5ab0","system_id":"levelo_inurba_marseille","lat":43.30687,"lon":5.40068,"is_reserved":false,"is_disabled":false,"rental_uris":{"android":"levelo://app?vid=ad407971-6456-4f64-b7c0-d27028fe5ab0","ios":"levelo://app?vid=ad407971-6456-4f64-b7c0-d27028fe5ab0"},"vehicle_type_id":"4","last_reported":1770832179,"current_range_meters":4000,"station_id":"","pricing_plan_id":"cebpf4jnsgd1na2vs0mg"},{"bike_id":"890f56d4-596e-400c-b85e-06636da41b20","system_id":"levelo_inurba_marseille","lat":43.24993,"lon":5.38932,"is_reserved":false,"is_disabled":false,"rental_uris":{"android":"levelo://app?vid=890f56d4-596e-400c-b85e-06636da41b20","ios":"levelo://app?vid=890f56d4-596e-400c-b85e-06636da41b20"},"vehicle_type_id":"4","last_reported":1770832179,"current_range_meters":4000,"station_id":"ce4bhgp2rcd13ifvqfd0","pricing_plan_id":"cebpf4jnsgd1na2vs0mg"},{"bike_id":"f244f7fc-d799-476b-9bdc-c05624c3eed0","system_id":"levelo_inurba_marseille","lat":43.26928,"lon":5.38642,"is_reserved":false,"is_disabled":false,"rental_uris":{"android":"levelo://app?vid=f244f7fc-d799-476b-9bdc-c05624c3eed0","ios":"levelo://app?vid=f244f7fc-d799-476b-9bdc-c05624c3eed0"},"vehicle_type_id":"4","last_reported":1770832179,"current_range_meters":4000,"station_id":"ce4bhh92rcd13ifvqfh0","pricing_plan_id":"cebpf4jnsgd1na2vs0mg"},{"bike_id":"44c6aa93-1f46-4cbd-a298-6cd74e811e92","system_id":"levelo_inurba_marseille","lat":43.217478,"lon":5.346023,"is_reserved":false,"is_disabled":false,"rental_uris":{"android":"levelo://app?vid=44c6aa93-1f46-4cbd-a298-6cd74e811e92","ios":"levelo://app?vid=44c6aa93-1f46-4cbd-a298-6cd74e811e92"},"vehicle_type_id":"4","last_reported":1770832179,"current_range_meters":4000,"station_id":"","pricing_plan_id":"cebpf4jnsgd1na2vs0mg"},{"bike_id":"d1a208dc-b079-4f67-83b0-5bab6732b044","system_id":"levelo_inurba_marseille","lat":43.26213,"lon":5.37437,"is_reserved":false,"is_disabled":false,"rental_uris":{"android":"levelo://app?vid=d1a208dc-b079-4f67-83b0-5bab6732b044","ios":"levelo://app?vid=d1a208dc-b079-4f67-83b0-5bab6732b044"},"vehicle_type_id":"4","last_reported":1770832179,"current_range_meters":4000,"station_id":"ce4bhgp2rcd13ifvqfc0","pricing_plan_id":"cebpf4jnsgd1na2vs0mg"},{"bike_id":"63fa437f-0154-4afc-a0c2-c9660e8328f6","system_id":"levelo_inurba_marseille","lat":43.28617,"lon":5.39867,"is_reserved":false,"is_disabled":false,"rental_uris":{"android":"levelo://app?vid=63fa437f-0154-4afc-a0c2-c9660e8328f6","ios":"levelo://app?vid=63fa437f-0154-4afc-a0c2-c9660e8328f6"},"vehicle_type_id":"4","last_reported":1770832179,"current_range_meters":4000,"station_id":"st_d4a7ka997mjs738ck50g","pricing_plan_id":"cebpf4jnsgd1na2vs0mg"},{"bike_id":"2e4a5276-fc45-46cc-be47-06ace3c78613","system_id":"levelo_inurba_marseille","lat":43.26481,"lon":5.39551,"is_reserved":false,"is_disabled":false,"rental_uris":{"android":"levelo://app?vid=2e4a5276-fc45-46cc-be47-06ace3c78613","ios":"levelo://app?vid=2e4a5276-fc45-46cc-be47-06ace3c78613"},"vehicle_type_id":"4","last_reported":1770832179,"current_range_meters":4000,"station_id":"ce4bhi12rcd13ifvqfq0","pricing_plan_id":"cebpf4jnsgd1na2vs0mg"},{"bike_id":"eb54f403-f5f5-4152-9cd4-d31f05df5ad8","system_id":"levelo_inurba_marseille","lat":43.26221,"lon":5.40444,"is_reserved":false,"is_disabled":false,"rental_uris":{"android":"levelo://app?vid=eb54f403-f5f5-4152-9cd4-d31f05df5ad8","ios":"levelo://app?vid=eb54f403-f5f5-4152-9cd4-d31f05df5ad8"},"vehicle_type_id":"4","last_reported":1770832179,"current_range_meters":4000,"station_id":"ce4bhmh2rcd13ifvqgmg","pricing_plan_id":"cebpf4jnsgd1na2vs0mg"},{"bike_id":"b55f32be-8622-43aa-8220-1334d1636138","system_id":"levelo_inurba_marseille","lat":43.28199,"lon":5.39061,"is_reserved":false,"is_disabled":false,"rental_uris":{"android":"levelo://app?vid=b55f32be-8622-43aa-8220-1334d1636138","ios":"levelo://app?vid=b55f32be-8622-43aa-8220-1334d1636138"},"vehicle_type_id":"4","last_reported":1770832179,"current_range_meters":4000,"station_id":"ce4bhn92rcd13ifvqgsg","pricing_plan_id":"cebpf4jnsgd1na2vs0mg"},{"bike_id":"c52763cb-6ef9-4488-b61b-96600a4111bb","system_id":"levelo_inurba_marseille","lat":43.25503,"lon":5.37649,"is_reserved":false,"is_disabled":false,"rental_uris":{"android":"levelo://app?vid=c52763cb-6ef9-4488-b61b-96600a4111bb","ios":"levelo://app?vid=c52763cb-6ef9-4488-b61b-96600a4111bb"},"vehicle_type_id":"4","last_reported":1770832179,"current_range_meters":4000,"station_id":"ce4bhh12rcd13ifvqff0","pricing_plan_id":"cebpf4jnsgd1na2vs0mg"},{"bike_id":"b0577ca1-afa8-48fa-be5c-f4673c1a2294","system_id":"levelo_inurba_marseille","lat":43.28007,"lon":5.41294,"is_reserved":false,"is_disabled":false,"rental_uris":{"android":"levelo://app?vid=b0577ca1-afa8-48fa-be5c-f4673c1a2294","ios":"levelo://app?vid=b0577ca1-afa8-48fa-be5c-f4673c1a2294"},"vehicle_type_id":"4","last_reported":1770832179,"current_range_meters":4000,"station_id":"","pricing_plan_id":"cebpf4jnsgd1na2vs0mg"},{"bike_id":"aec780db-2eb8-4328-8bd5-98a710df0d15","system_id":"levelo_inurba_marseille","lat":43.26218,"lon":5.37442,"is_reserved":false,"is_disabled":false,"rental_uris":{"android":"levelo://app?vid=aec780db-2eb8-4328-8bd5-98a710df0d15","ios":"levelo://app?vid=aec780db-2eb8-4328-8bd5-98a710df0d15"},"vehicle_type_id":"4","last_reported":1770832179,"current_range_meters":4000,"station_id":"ce4bhgp2rcd13ifvqfc0","pricing_plan_id":"cebpf4jnsgd1na2vs0mg"},{"bike_id":"e2bab02f-134a-4a03-b820-db1146050e9c","system_id":"levelo_inurba_marseille","lat":43.23149,"lon":5.43699,"is_reserved":false,"is_disabled":false,"rental_uris":{"android":"levelo://app?vid=e2bab02f-134a-4a03-b820-db1146050e9c","ios":"levelo://app?vid=e2bab02f-134a-4a03-b820-db1146050e9c"},"vehicle_type_id":"4","last_reported":1770832179,"current_range_meters":4000,"station_id":"ce4bhmp2rcd13ifvqgog","pricing_plan_id":"cebpf4jnsgd1na2vs0mg"},{"bike_id":"1585f06d-ede2-4a7c-9c8a-6bc7041f1472","system_id":"levelo_inurba_marseille","lat":43.29285,"lon":5.36832,"is_reserved":false,"is_disabled":false,"rental_uris":{"android":"levelo://app?vid=1585f06d-ede2-4a7c-9c8a-6bc7041f1472","ios":"levelo://app?vid=1585f06d-ede2-4a7c-9c8a-6bc7041f1472"},"vehicle_type_id":"4","last_reported":1770832179,"current_range_meters":4000,"station_id":"ce4bhbp2rcd13ifvqesg","pricing_plan_id":"cebpf4jnsgd1na2vs0mg"},{"bike_id":"b4618117-7084-4992-a916-2dc59b69f7fb","system_id":"levelo_inurba_marseille","lat":43.29516,"lon":5.38531,"is_reserved":false,"is_disabled":false,"rental_uris":{"android":"levelo://app?vid=b4618117-7084-4992-a916-2dc59b69f7fb","ios":"levelo://app?vid=b4618117-7084-4992-a916-2dc59b69f7fb"},"vehicle_type_id":"4","last_reported":1770832179,"current_range_meters":4000,"station_id":"ce4bgih2rcd13ifvqba0","pricing_plan_id":"cebpf4jnsgd1na2vs0mg"},{"bike_id":"890d666c-9da6-4153-bd7e-60e53c0ee9bf","system_id":"levelo_inurba_marseille","lat":43.33769,"lon":5.37475,"is_reserved":false,"is_disabled":true,"rental_uris":{"android":"levelo://app?vid=890d666c-9da6-4153-bd7e-60e53c0ee9bf","ios":"levelo://app?vid=890d666c-9da6-4153-bd7e-60e53c0ee9bf"},"vehicle_type_id":"4","last_reported":1770832179,"current_range_meters":4400,"station_id":"","pricing_plan_id":"cebpf4jnsgd1na2vs0mg"},{"bike_id":"8fa39637-6863-4901-93d1-5e6048ff701a","system_id":"levelo_inurba_marseille","lat":43.295828,"lon":5.375184,"is_reserved":false,"is_disabled":false,"rental_uris":{"android":"levelo://app?vid=8fa39637-6863-4901-93d1-5e6048ff701a","ios":"levelo://app?vid=8fa39637-6863-4901-93d1-5e6048ff701a"},"vehicle_type_id":"4","last_reported":1770832179,"current_range_meters":4400,"station_id":"ce4bgh92rcd13ifvqb50","pricing_plan_id":"cebpf4jnsgd1na2vs0mg"},{"bike_id":"869d7e64-052c-48b1-8335-0fd5323ecaef","system_id":"levelo_inurba_marseille","lat":43.28672,"lon":5.38663,"is_reserved":false,"is_disabled":false,"rental_uris":{"android":"levelo://app?vid=869d7e64-052c-48b1-8335-0fd5323ecaef","ios":"levelo://app?vid=869d7e64-052c-48b1-8335-0fd5323ecaef"},"vehicle_type_id":"4","last_reported":1770832179,"current_range_meters":4400,"station_id":"ce4bh492rcd13ifvqdug","pricing_plan_id":"cebpf4jnsgd1na2vs0mg"},{"bike_id":"54bd52e6-912c-41e4-90a6-85e5c05a7d3d","system_id":"levelo_inurba_marseille","lat":43.22583,"lon":5.41627,"is_reserved":false,"is_disabled":false,"rental_uris":{"android":"levelo://app?vid=54bd52e6-912c-41e4-90a6-85e5c05a7d3d","ios":"levelo://app?vid=54bd52e6-912c-41e4-90a6-85e5c05a7d3d"},"vehicle_type_id":"4","last_reported":1770832179,"current_range_meters":4400,"station_id":"st_d2o4gvlbi1j2169b742g","pricing_plan_id":"cebpf4jnsgd1na2vs0mg"},{"bike_id":"d01f5ba5-555f-4fd5-bda1-8012d30858b6","system_id":"levelo_inurba_marseille","lat":43.284804,"lon":5.483907,"is_reserved":false,"is_disabled":false,"rental_uris":{"android":"levelo://app?vid=d01f5ba5-555f-4fd5-bda1-8012d30858b6","ios":"levelo://app?vid=d01f5ba5-555f-4fd5-bda1-8012d30858b6"},"vehicle_type_id":"4","last_reported":1770832179,"current_range_meters":4400,"station_id":"st_d3svhcjqgbts73a3dn0g","pricing_plan_id":"cebpf4jnsgd1na2vs0mg"},{"bike_id":"8fadd539-4297-4d2a-8099-d8a6abb3494e","system_id":"levelo_inurba_marseille","lat":43.27557,"lon":5.38413,"is_reserved":false,"is_disabled":false,"rental_uris":{"android":"levelo://app?vid=8fadd539-4297-4d2a-8099-d8a6abb3494e","ios":"levelo://app?vid=8fadd539-4297-4d2a-8099-d8a6abb3494e"},"vehicle_type_id":"4","last_reported":1770832179,"current_range_meters":4400,"station_id":"ce4bhh92rcd13ifvqfi0","pricing_plan_id":"cebpf4jnsgd1na2vs0mg"},{"bike_id":"3cf4412f-4eab-4fb4-bd6a-b9dfe83e38cc","system_id":"levelo_inurba_marseille","lat":43.24176,"lon":5.39741,"is_reserved":false,"is_disabled":false,"rental_uris":{"android":"levelo://app?vid=3cf4412f-4eab-4fb4-bd6a-b9dfe83e38cc","ios":"levelo://app?vid=3cf4412f-4eab-4fb4-bd6a-b9dfe83e38cc"},"vehicle_type_id":"4","last_reported":1770832179,"current_range_meters":4400,"station_id":"ce4bhn12rcd13ifvqgpg","pricing_plan_id":"cebpf4jnsgd1na2vs0mg"},{"bike_id":"d99d8fe4-b2b7-4ecd-b5db-4cee32291c21","system_id":"levelo_inurba_marseille","lat":43.239648,"lon":5.366319,"is_reserved":false,"is_disabled":false,"rental_uris":{"android":"levelo://app?vid=d99d8fe4-b2b7-4ecd-b5db-4cee32291c21","ios":"levelo://app?vid=d99d8fe4-b2b7-4ecd-b5db-4cee32291c21"},"vehicle_type_id":"4","last_reported":1770832179,"current_range_meters":4400,"station_id":"ce4bhi12rcd13ifvqfp0","pricing_plan_id":"cebpf4jnsgd1na2vs0mg"},{"bike_id":"93798be9-4a00-4c20-ab3b-36c519970f44","system_id":"levelo_inurba_marseille","lat":43.3015,"lon":5.37406,"is_reserved":false,"is_disabled":false,"rental_uris":{"android":"levelo://app?vid=93798be9-4a00-4c20-ab3b-36c519970f44","ios":"levelo://app?vid=93798be9-4a00-4c20-ab3b-36c519970f44"},"vehicle_type_id":"4","last_reported":1770832179,"current_range_meters":4400,"station_id":"ce4bgs92rcd13ifvqcc0","pricing_plan_id":"cebpf4jnsgd1na2vs0mg"},{"bike_id":"6f6a04ad-dd00-4f4a-bdfd-a835cfa0cc11","system_id":"levelo_inurba_marseille","lat":43.2706,"lon":5.38307,"is_reserved":false,"is_disabled":false,"rental_uris":{"android":"levelo://app?vid=6f6a04ad-dd00-4f4a-bdfd-a835cfa0cc11","ios":"levelo://app?vid=6f6a04ad-dd00-4f4a-bdfd-a835cfa0cc11"},"vehicle_type_id":"4","last_reported":1770832179,"current_range_meters":4800,"station_id":"st_d3n2fo6cfp8s73cte1j0","pricing_plan_id":"cebpf4jnsgd1na2vs0mg"},{"bike_id":"44a5e80d-dce6-4ae3-9eab-9c89eb34287d","system_id":"levelo_inurba_marseille","lat":43.29541,"lon":5.37507,"is_reserved":false,"is_disabled":false,"rental_uris":{"android":"levelo://app?vid=44a5e80d-dce6-4ae3-9eab-9c89eb34287d","ios":"levelo://app?vid=44a5e80d-dce6-4ae3-9eab-9c89eb34287d"},"vehicle_type_id":"4","last_reported":1770832179,"current_range_meters":4800,"station_id":"ce4bgkp2rcd13ifvqbmg","pricing_plan_id":"cebpf4jnsgd1na2vs0mg"},{"bike_id":"90ee3013-44b0-4686-907c-1846968ddd2c","system_id":"levelo_inurba_marseille","lat":43.26776,"lon":5.39421,"is_reserved":false,"is_disabled":false,"rental_uris":{"android":"levelo://app?vid=90ee3013-44b0-4686-907c-1846968ddd2c","ios":"levelo://app?vid=90ee3013-44b0-4686-907c-1846968ddd2c"},"vehicle_type_id":"4","last_reported":1770832179,"current_range_meters":4800,"station_id":"ce4bhh12rcd13ifvqfg0","pricing_plan_id":"cebpf4jnsgd1na2vs0mg"},{"bike_id":"7b5f5187-db22-4697-9d69-f1480c720e06","system_id":"levelo_inurba_marseille","lat":43.297215,"lon":5.377008,"is_reserved":false,"is_disabled":false,"rental_uris":{"android":"levelo://app?vid=7b5f5187-db22-4697-9d69-f1480c720e06","ios":"levelo://app?vid=7b5f5187-db22-4697-9d69-f1480c720e06"},"vehicle_type_id":"4","last_reported":1770832179,"current_range_meters":4800,"station_id":"ce4bgkh2rcd13ifvqbl0","pricing_plan_id":"cebpf4jnsgd1na2vs0mg"},{"bike_id":"42a0c368-d66d-4380-8564-5bb9b2681cca","system_id":"levelo_inurba_marseille","lat":43.30479,"lon":5.36556,"is_reserved":false,"is_disabled":false,"rental_uris":{"android":"levelo://app?vid=42a0c368-d66d-4380-8564-5bb9b2681cca","ios":"levelo://app?vid=42a0c368-d66d-4380-8564-5bb9b2681cca"},"vehicle_type_id":"4","last_reported":1770832179,"current_range_meters":4800,"station_id":"","pricing_plan_id":"cebpf4jnsgd1na2vs0mg"},{"bike_id":"aadc1405-47c9-40f9-b954-b39d95d47069","system_id":"levelo_inurba_marseille","lat":43.2984,"lon":5.36267,"is_reserved":false,"is_disabled":false,"rental_uris":{"android":"levelo://app?vid=aadc1405-47c9-40f9-b954-b39d95d47069","ios":"levelo://app?vid=aadc1405-47c9-40f9-b954-b39d95d47069"},"vehicle_type_id":"4","last_reported":1770832179,"current_range_meters":4800,"station_id":"","pricing_plan_id":"cebpf4jnsgd1na2vs0mg"},{"bike_id":"ec9a8ef8-caf4-4a4b-9c25-42c970183a9d","system_id":"levelo_inurba_marseille","lat":43.30548,"lon":5.36701,"is_reserved":false,"is_disabled":false,"rental_uris":{"android":"levelo://app?vid=ec9a8ef8-caf4-4a4b-9c25-42c970183a9d","ios":"levelo://app?vid=ec9a8ef8-caf4-4a4b-9c25-42c970183a9d"},"vehicle_type_id":"4","last_reported":1770832179,"current_range_meters":4800,"station_id":"ce4bgrp2rcd13ifvqc9g","pricing_plan_id":"cebpf4jnsgd1na2vs0mg"},{"bike_id":"7080df34-f09d-47d5-be55-0d618d1ddb54","system_id":"levelo_inurba_marseille","lat":43.27623,"lon":5.38416,"is_reserved":false,"is_disabled":false,"rental_uris":{"android":"levelo://app?vid=7080df34-f09d-47d5-be55-0d618d1ddb54","ios":"levelo://app?vid=7080df34-f09d-47d5-be55-0d618d1ddb54"},"vehicle_type_id":"4","last_reported":1770832179,"current_range_meters":4800,"station_id":"","pricing_plan_id":"cebpf4jnsgd1na2vs0mg"},{"bike_id":"1dcf3562-4dbd-4c4f-b48a-ff6e94dcbfdd","system_id":"levelo_inurba_marseille","lat":43.24639,"lon":5.38215,"is_reserved":false,"is_disabled":false,"rental_uris":{"android":"levelo://app?vid=1dcf3562-4dbd-4c4f-b48a-ff6e94dcbfdd","ios":"levelo://app?vid=1dcf3562-4dbd-4c4f-b48a-ff6e94dcbfdd"},"vehicle_type_id":"4","last_reported":1770832179,"current_range_meters":4800,"station_id":"ce4bhih2rcd13ifvqfr0","pricing_plan_id":"cebpf4jnsgd1na2vs0mg"},{"bike_id":"6fba1b8f-5a14-43d1-857d-e21ab4e7a786","system_id":"levelo_inurba_marseille","lat":43.28863,"lon":5.35839,"is_reserved":false,"is_disabled":false,"rental_uris":{"android":"levelo://app?vid=6fba1b8f-5a14-43d1-857d-e21ab4e7a786","ios":"levelo://app?vid=6fba1b8f-5a14-43d1-857d-e21ab4e7a786"},"vehicle_type_id":"4","last_reported":1770832179,"current_range_meters":4800,"station_id":"ce4bhb12rcd13ifvqem0","pricing_plan_id":"cebpf4jnsgd1na2vs0mg"},{"bike_id":"bec1707a-df61-48de-9667-0ee6ac7b22d6","system_id":"levelo_inurba_marseille","lat":43.23965,"lon":5.36632,"is_reserved":false,"is_disabled":false,"rental_uris":{"android":"levelo://app?vid=bec1707a-df61-48de-9667-0ee6ac7b22d6","ios":"levelo://app?vid=bec1707a-df61-48de-9667-0ee6ac7b22d6"},"vehicle_type_id":"4","last_reported":1770832179,"current_range_meters":4800,"station_id":"ce4bhi12rcd13ifvqfp0","pricing_plan_id":"cebpf4jnsgd1na2vs0mg"},{"bike_id":"28bab327-5eb2-43c6-9d36-5213d715411d","system_id":"levelo_inurba_marseille","lat":43.29973,"lon":5.38493,"is_reserved":false,"is_disabled":false,"rental_uris":{"android":"levelo://app?vid=28bab327-5eb2-43c6-9d36-5213d715411d","ios":"levelo://app?vid=28bab327-5eb2-43c6-9d36-5213d715411d"},"vehicle_type_id":"4","last_reported":1770832179,"current_range_meters":5600,"station_id":"ce4bgj92rcd13ifvqbd0","pricing_plan_id":"cebpf4jnsgd1na2vs0mg"},{"bike_id":"e4393e86-b30a-45ea-b104-a7a8da4a078d","system_id":"levelo_inurba_marseille","lat":43.337444,"lon":5.374475,"is_reserved":false,"is_disabled":false,"rental_uris":{"android":"levelo://app?vid=e4393e86-b30a-45ea-b104-a7a8da4a078d","ios":"levelo://app?vid=e4393e86-b30a-45ea-b104-a7a8da4a078d"},"vehicle_type_id":"4","last_reported":1770832179,"current_range_meters":5600,"station_id":"","pricing_plan_id":"cebpf4jnsgd1na2vs0mg"},{"bike_id":"ab7260d3-0b60-4920-bd6e-553838fbba97","system_id":"levelo_inurba_marseille","lat":43.3047,"lon":5.40205,"is_reserved":false,"is_disabled":false,"rental_uris":{"android":"levelo://app?vid=ab7260d3-0b60-4920-bd6e-553838fbba97","ios":"levelo://app?vid=ab7260d3-0b60-4920-bd6e-553838fbba97"},"vehicle_type_id":"4","last_reported":1770832179,"current_range_meters":5600,"station_id":"","pricing_plan_id":"cebpf4jnsgd1na2vs0mg"},{"bike_id":"0791f832-532b-4a81-8501-1d24505211ed","system_id":"levelo_inurba_marseille","lat":43.29193,"lon":5.35794,"is_reserved":false,"is_disabled":false,"rental_uris":{"android":"levelo://app?vid=0791f832-532b-4a81-8501-1d24505211ed","ios":"levelo://app?vid=0791f832-532b-4a81-8501-1d24505211ed"},"vehicle_type_id":"4","last_reported":1770832179,"current_range_meters":5600,"station_id":"ce4bhb12rcd13ifvqel0","pricing_plan_id":"cebpf4jnsgd1na2vs0mg"},{"bike_id":"181777f8-f2e9-4556-8faf-fa3e8dce1295","system_id":"levelo_inurba_marseille","lat":43.29068,"lon":5.3799,"is_reserved":false,"is_disabled":false,"rental_uris":{"android":"levelo://app?vid=181777f8-f2e9-4556-8faf-fa3e8dce1295","ios":"levelo://app?vid=181777f8-f2e9-4556-8faf-fa3e8dce1295"},"vehicle_type_id":"4","last_reported":1770832179,"current_range_meters":5600,"station_id":"","pricing_plan_id":"cebpf4jnsgd1na2vs0mg"},{"bike_id":"caca33be-e15c-4bfb-b63a-d99631bdec75","system_id":"levelo_inurba_marseille","lat":43.26564,"lon":5.39011,"is_reserved":false,"is_disabled":false,"rental_uris":{"android":"levelo://app?vid=caca33be-e15c-4bfb-b63a-d99631bdec75","ios":"levelo://app?vid=caca33be-e15c-4bfb-b63a-d99631bdec75"},"vehicle_type_id":"4","last_reported":1770832179,"current_range_meters":5600,"station_id":"ce4bhe12rcd13ifvqf30","pricing_plan_id":"cebpf4jnsgd1na2vs0mg"},{"bike_id":"8fd54c49-2a43-4c11-9493-aa4c3d91f774","system_id":"levelo_inurba_marseille","lat":43.29261,"lon":5.38426,"is_reserved":false,"is_disabled":false,"rental_uris":{"android":"levelo://app?vid=8fd54c49-2a43-4c11-9493-aa4c3d91f774","ios":"levelo://app?vid=8fd54c49-2a43-4c11-9493-aa4c3d91f774"},"vehicle_type_id":"4","last_reported":1770832179,"current_range_meters":5600,"station_id":"ce4bh692rcd13ifvqea0","pricing_plan_id":"cebpf4jnsgd1na2vs0mg"},{"bike_id":"d7225a64-987e-44bf-9a62-744cf92c8adf","system_id":"levelo_inurba_marseille","lat":43.30626,"lon":5.37225,"is_reserved":false,"is_disabled":false,"rental_uris":{"android":"levelo://app?vid=d7225a64-987e-44bf-9a62-744cf92c8adf","ios":"levelo://app?vid=d7225a64-987e-44bf-9a62-744cf92c8adf"},"vehicle_type_id":"4","last_reported":1770832179,"current_range_meters":5600,"station_id":"ce4bgqh2rcd13ifvqc4g","pricing_plan_id":"cebpf4jnsgd1na2vs0mg"},{"bike_id":"71855a0b-a9d0-418d-ab36-a53f8d65b6cd","system_id":"levelo_inurba_marseille","lat":43.30938,"lon":5.40132,"is_reserved":false,"is_disabled":false,"rental_uris":{"android":"levelo://app?vid=71855a0b-a9d0-418d-ab36-a53f8d65b6cd","ios":"levelo://app?vid=71855a0b-a9d0-418d-ab36-a53f8d65b6cd"},"vehicle_type_id":"4","last_reported":1770832179,"current_range_meters":5600,"station_id":"ce4bgvp2rcd13ifvqct0","pricing_plan_id":"cebpf4jnsgd1na2vs0mg"},{"bike_id":"95751bbd-9033-4345-9669-a0cb544ca467","system_id":"levelo_inurba_marseille","lat":43.262,"lon":5.37442,"is_reserved":false,"is_disabled":false,"rental_uris":{"android":"levelo://app?vid=95751bbd-9033-4345-9669-a0cb544ca467","ios":"levelo://app?vid=95751bbd-9033-4345-9669-a0cb544ca467"},"vehicle_type_id":"4","last_reported":1770832179,"current_range_meters":5600,"station_id":"ce4bgj92rcd13ifvqbe0","pricing_plan_id":"cebpf4jnsgd1na2vs0mg"},{"bike_id":"c5905c63-82ea-4157-aaa6-22b59855d28f","system_id":"levelo_inurba_marseille","lat":43.23185,"lon":5.39983,"is_reserved":false,"is_disabled":false,"rental_uris":{"android":"levelo://app?vid=c5905c63-82ea-4157-aaa6-22b59855d28f","ios":"levelo://app?vid=c5905c63-82ea-4157-aaa6-22b59855d28f"},"vehicle_type_id":"4","last_reported":1770832179,"current_range_meters":5600,"station_id":"ce4bhn12rcd13ifvqgqg","pricing_plan_id":"cebpf4jnsgd1na2vs0mg"},{"bike_id":"d3d14498-db34-4461-a9b4-6770ab63656f","system_id":"levelo_inurba_marseille","lat":43.30332,"lon":5.40434,"is_reserved":false,"is_disabled":false,"rental_uris":{"android":"levelo://app?vid=d3d14498-db34-4461-a9b4-6770ab63656f","ios":"levelo://app?vid=d3d14498-db34-4461-a9b4-6770ab63656f"},"vehicle_type_id":"4","last_reported":1770832179,"current_range_meters":5600,"station_id":"ce4bh012rcd13ifvqd10","pricing_plan_id":"cebpf4jnsgd1na2vs0mg"},{"bike_id":"b63baa95-ac00-417d-a11f-0df984e0d01c","system_id":"levelo_inurba_marseille","lat":43.27435,"lon":5.39408,"is_reserved":false,"is_disabled":false,"rental_uris":{"android":"levelo://app?vid=b63baa95-ac00-417d-a11f-0df984e0d01c","ios":"levelo://app?vid=b63baa95-ac00-417d-a11f-0df984e0d01c"},"vehicle_type_id":"4","last_reported":1770832179,"current_range_meters":5600,"station_id":"ce4bhdp2rcd13ifvqf20","pricing_plan_id":"cebpf4jnsgd1na2vs0mg"},{"bike_id":"aa429066-b0ff-40a1-8fad-b669d0d4d0fc","system_id":"levelo_inurba_marseille","lat":43.25331,"lon":5.42163,"is_reserved":false,"is_disabled":false,"rental_uris":{"android":"levelo://app?vid=aa429066-b0ff-40a1-8fad-b669d0d4d0fc","ios":"levelo://app?vid=aa429066-b0ff-40a1-8fad-b669d0d4d0fc"},"vehicle_type_id":"4","last_reported":1770832179,"current_range_meters":6000,"station_id":"st_d2m65c5bi1j21697t3ng","pricing_plan_id":"cebpf4jnsgd1na2vs0mg"},{"bike_id":"c4ef5bed-2c26-45ce-9600-06cb749f2528","system_id":"levelo_inurba_marseille","lat":43.26562,"lon":5.37303,"is_reserved":false,"is_disabled":false,"rental_uris":{"android":"levelo://app?vid=c4ef5bed-2c26-45ce-9600-06cb749f2528","ios":"levelo://app?vid=c4ef5bed-2c26-45ce-9600-06cb749f2528"},"vehicle_type_id":"4","last_reported":1770832179,"current_range_meters":6000,"station_id":"ce4bhg12rcd13ifvqf70","pricing_plan_id":"cebpf4jnsgd1na2vs0mg"},{"bike_id":"cb746bf2-c6a8-4dab-a64d-02007d5a1877","system_id":"levelo_inurba_marseille","lat":43.24817,"lon":5.37452,"is_reserved":false,"is_disabled":false,"rental_uris":{"android":"levelo://app?vid=cb746bf2-c6a8-4dab-a64d-02007d5a1877","ios":"levelo://app?vid=cb746bf2-c6a8-4dab-a64d-02007d5a1877"},"vehicle_type_id":"4","last_reported":1770832179,"current_range_meters":6000,"station_id":"ce4bhgh2rcd13ifvqfb0","pricing_plan_id":"cebpf4jnsgd1na2vs0mg"},{"bike_id":"c6176d61-506f-4755-a0d6-6ccb9566f89a","system_id":"levelo_inurba_marseille","lat":43.25642,"lon":5.41136,"is_reserved":false,"is_disabled":false,"rental_uris":{"android":"levelo://app?vid=c6176d61-506f-4755-a0d6-6ccb9566f89a","ios":"levelo://app?vid=c6176d61-506f-4755-a0d6-6ccb9566f89a"},"vehicle_type_id":"4","last_reported":1770832179,"current_range_meters":6000,"station_id":"","pricing_plan_id":"cebpf4jnsgd1na2vs0mg"},{"bike_id":"195129a7-492c-4a00-92c9-6590be19f8d4","system_id":"levelo_inurba_marseille","lat":43.2942,"lon":5.43275,"is_reserved":false,"is_disabled":false,"rental_uris":{"android":"levelo://app?vid=195129a7-492c-4a00-92c9-6590be19f8d4","ios":"levelo://app?vid=195129a7-492c-4a00-92c9-6590be19f8d4"},"vehicle_type_id":"4","last_reported":1770832179,"current_range_meters":6000,"station_id":"","pricing_plan_id":"cebpf4jnsgd1na2vs0mg"},{"bike_id":"1c120683-67bc-428a-aa0f-bec572dfb863","system_id":"levelo_inurba_marseille","lat":43.25593,"lon":5.38204,"is_reserved":false,"is_disabled":false,"rental_uris":{"android":"levelo://app?vid=1c120683-67bc-428a-aa0f-bec572dfb863","ios":"levelo://app?vid=1c120683-67bc-428a-aa0f-bec572dfb863"},"vehicle_type_id":"4","last_reported":1770832179,"current_range_meters":6000,"station_id":"ce4bhih2rcd13ifvqfs0","pricing_plan_id":"cebpf4jnsgd1na2vs0mg"},{"bike_id":"d3ff72dc-5551-4917-81f1-dd8f1a42992a","system_id":"levelo_inurba_marseille","lat":43.31386,"lon":5.36779,"is_reserved":false,"is_disabled":false,"rental_uris":{"android":"levelo://app?vid=d3ff72dc-5551-4917-81f1-dd8f1a42992a","ios":"levelo://app?vid=d3ff72dc-5551-4917-81f1-dd8f1a42992a"},"vehicle_type_id":"4","last_reported":1770832179,"current_range_meters":6000,"station_id":"","pricing_plan_id":"cebpf4jnsgd1na2vs0mg"},{"bike_id":"4659f5f2-43a6-4213-b84f-184d5dec64b3","system_id":"levelo_inurba_marseille","lat":43.3355,"lon":5.37455,"is_reserved":false,"is_disabled":false,"rental_uris":{"android":"levelo://app?vid=4659f5f2-43a6-4213-b84f-184d5dec64b3","ios":"levelo://app?vid=4659f5f2-43a6-4213-b84f-184d5dec64b3"},"vehicle_type_id":"4","last_reported":1770832179,"current_range_meters":6000,"station_id":"st_d46tts09ee8s73dlu43g","pricing_plan_id":"cebpf4jnsgd1na2vs0mg"},{"bike_id":"68436fc7-aad0-465d-a1eb-d153a2c2801a","system_id":"levelo_inurba_marseille","lat":43.33162,"lon":5.37686,"is_reserved":false,"is_disabled":false,"rental_uris":{"android":"levelo://app?vid=68436fc7-aad0-465d-a1eb-d153a2c2801a","ios":"levelo://app?vid=68436fc7-aad0-465d-a1eb-d153a2c2801a"},"vehicle_type_id":"4","last_reported":1770832179,"current_range_meters":6000,"station_id":"st_d46cu089ee8s73dldbu0","pricing_plan_id":"cebpf4jnsgd1na2vs0mg"},{"bike_id":"8a086d1d-5ee9-4602-bc53-25876ff7f196","system_id":"levelo_inurba_marseille","lat":43.310372,"lon":5.371701,"is_reserved":false,"is_disabled":false,"rental_uris":{"android":"levelo://app?vid=8a086d1d-5ee9-4602-bc53-25876ff7f196","ios":"levelo://app?vid=8a086d1d-5ee9-4602-bc53-25876ff7f196"},"vehicle_type_id":"4","last_reported":1770832179,"current_range_meters":6000,"station_id":"st_d4kl2rp97mjs73e7tdfg","pricing_plan_id":"cebpf4jnsgd1na2vs0mg"},{"bike_id":"b9839ff2-3c3b-401a-a862-7c534ae6769e","system_id":"levelo_inurba_marseille","lat":43.29969,"lon":5.38495,"is_reserved":false,"is_disabled":false,"rental_uris":{"android":"levelo://app?vid=b9839ff2-3c3b-401a-a862-7c534ae6769e","ios":"levelo://app?vid=b9839ff2-3c3b-401a-a862-7c534ae6769e"},"vehicle_type_id":"4","last_reported":1770832179,"current_range_meters":6000,"station_id":"ce4bgj92rcd13ifvqbd0","pricing_plan_id":"cebpf4jnsgd1na2vs0mg"},{"bike_id":"e868028e-9552-46d0-9f47-1d703b1b625f","system_id":"levelo_inurba_marseille","lat":43.28568,"lon":5.39493,"is_reserved":false,"is_disabled":false,"rental_uris":{"android":"levelo://app?vid=e868028e-9552-46d0-9f47-1d703b1b625f","ios":"levelo://app?vid=e868028e-9552-46d0-9f47-1d703b1b625f"},"vehicle_type_id":"4","last_reported":1770832179,"current_range_meters":6000,"station_id":"ce4bh292rcd13ifvqdg0","pricing_plan_id":"cebpf4jnsgd1na2vs0mg"},{"bike_id":"69cb53c0-4939-4da6-a53e-35e4cb2de7f7","system_id":"levelo_inurba_marseille","lat":43.225583,"lon":5.416263,"is_reserved":false,"is_disabled":false,"rental_uris":{"android":"levelo://app?vid=69cb53c0-4939-4da6-a53e-35e4cb2de7f7","ios":"levelo://app?vid=69cb53c0-4939-4da6-a53e-35e4cb2de7f7"},"vehicle_type_id":"4","last_reported":1770832179,"current_range_meters":6000,"station_id":"st_d2o4gvlbi1j2169b742g","pricing_plan_id":"cebpf4jnsgd1na2vs0mg"},{"bike_id":"cdd5def6-6b9d-4274-9fb1-6a2e33b48ea8","system_id":"levelo_inurba_marseille","lat":43.29505,"lon":5.38738,"is_reserved":false,"is_disabled":false,"rental_uris":{"android":"levelo://app?vid=cdd5def6-6b9d-4274-9fb1-6a2e33b48ea8","ios":"levelo://app?vid=cdd5def6-6b9d-4274-9fb1-6a2e33b48ea8"},"vehicle_type_id":"4","last_reported":1770832179,"current_range_meters":6000,"station_id":"ce4bh292rcd13ifvqdf0","pricing_plan_id":"cebpf4jnsgd1na2vs0mg"},{"bike_id":"9f033575-6369-46b2-8ded-c3ba921253f1","system_id":"levelo_inurba_marseille","lat":43.287,"lon":5.37381,"is_reserved":false,"is_disabled":false,"rental_uris":{"android":"levelo://app?vid=9f033575-6369-46b2-8ded-c3ba921253f1","ios":"levelo://app?vid=9f033575-6369-46b2-8ded-c3ba921253f1"},"vehicle_type_id":"4","last_reported":1770832179,"current_range_meters":6000,"station_id":"ce4bh3p2rcd13ifvqdq0","pricing_plan_id":"cebpf4jnsgd1na2vs0mg"},{"bike_id":"2fe75992-4ac7-42a6-bcd6-d594d59652cd","system_id":"levelo_inurba_marseille","lat":43.29896,"lon":5.37461,"is_reserved":false,"is_disabled":false,"rental_uris":{"android":"levelo://app?vid=2fe75992-4ac7-42a6-bcd6-d594d59652cd","ios":"levelo://app?vid=2fe75992-4ac7-42a6-bcd6-d594d59652cd"},"vehicle_type_id":"4","last_reported":1770832179,"current_range_meters":6400,"station_id":"ce4bgjh2rcd13ifvqbg0","pricing_plan_id":"cebpf4jnsgd1na2vs0mg"},{"bike_id":"bc58a61e-5dee-4f48-b37b-2d8085ac5b73","system_id":"levelo_inurba_marseille","lat":43.24942,"lon":5.40497,"is_reserved":false,"is_disabled":false,"rental_uris":{"android":"levelo://app?vid=bc58a61e-5dee-4f48-b37b-2d8085ac5b73","ios":"levelo://app?vid=bc58a61e-5dee-4f48-b37b-2d8085ac5b73"},"vehicle_type_id":"4","last_reported":1770832179,"current_range_meters":6400,"station_id":"st_d2ngiaodas8pm72gd1h0","pricing_plan_id":"cebpf4jnsgd1na2vs0mg"},{"bike_id":"1fed4add-aae6-45dc-a8f1-a0c848be9f5d","system_id":"levelo_inurba_marseille","lat":43.262161,"lon":5.37946,"is_reserved":false,"is_disabled":false,"rental_uris":{"android":"levelo://app?vid=1fed4add-aae6-45dc-a8f1-a0c848be9f5d","ios":"levelo://app?vid=1fed4add-aae6-45dc-a8f1-a0c848be9f5d"},"vehicle_type_id":"4","last_reported":1770832179,"current_range_meters":6400,"station_id":"ce4bhjp2rcd13ifvqg90","pricing_plan_id":"cebpf4jnsgd1na2vs0mg"},{"bike_id":"156d8054-12bc-48fd-9e6d-ad7b9e07d22f","system_id":"levelo_inurba_marseille","lat":43.29214,"lon":5.36074,"is_reserved":false,"is_disabled":false,"rental_uris":{"android":"levelo://app?vid=156d8054-12bc-48fd-9e6d-ad7b9e07d22f","ios":"levelo://app?vid=156d8054-12bc-48fd-9e6d-ad7b9e07d22f"},"vehicle_type_id":"4","last_reported":1770832179,"current_range_meters":6400,"station_id":"ce4bhbh2rcd13ifvqeqg","pricing_plan_id":"cebpf4jnsgd1na2vs0mg"},{"bike_id":"a2a9b4f9-a32e-4010-97b1-fd29f5016dd1","system_id":"levelo_inurba_marseille","lat":43.3022,"lon":5.39457,"is_reserved":false,"is_disabled":false,"rental_uris":{"android":"levelo://app?vid=a2a9b4f9-a32e-4010-97b1-fd29f5016dd1","ios":"levelo://app?vid=a2a9b4f9-a32e-4010-97b1-fd29f5016dd1"},"vehicle_type_id":"4","last_reported":1770832179,"current_range_meters":6400,"station_id":"ce4bh0p2rcd13ifvqd70","pricing_plan_id":"cebpf4jnsgd1na2vs0mg"},{"bike_id":"7612a6ec-d5f0-487c-a890-d6608c3a824a","system_id":"levelo_inurba_marseille","lat":43.29034,"lon":5.39961,"is_reserved":false,"is_disabled":false,"rental_uris":{"android":"levelo://app?vid=7612a6ec-d5f0-487c-a890-d6608c3a824a","ios":"levelo://app?vid=7612a6ec-d5f0-487c-a890-d6608c3a824a"},"vehicle_type_id":"4","last_reported":1770832179,"current_range_meters":6400,"station_id":"ce4bh392rcd13ifvqdm0","pricing_plan_id":"cebpf4jnsgd1na2vs0mg"},{"bike_id":"32745309-2c6c-44e0-a1e6-40e07ff19f3e","system_id":"levelo_inurba_marseille","lat":43.28853,"lon":5.3931,"is_reserved":false,"is_disabled":false,"rental_uris":{"android":"levelo://app?vid=32745309-2c6c-44e0-a1e6-40e07ff19f3e","ios":"levelo://app?vid=32745309-2c6c-44e0-a1e6-40e07ff19f3e"},"vehicle_type_id":"4","last_reported":1770832179,"current_range_meters":6400,"station_id":"ce4bh2p2rcd13ifvqdi0","pricing_plan_id":"cebpf4jnsgd1na2vs0mg"},{"bike_id":"bdde70ef-70ce-4d41-a03b-1cac73853d63","system_id":"levelo_inurba_marseille","lat":43.241736,"lon":5.363914,"is_reserved":false,"is_disabled":false,"rental_uris":{"android":"levelo://app?vid=bdde70ef-70ce-4d41-a03b-1cac73853d63","ios":"levelo://app?vid=bdde70ef-70ce-4d41-a03b-1cac73853d63"},"vehicle_type_id":"4","last_reported":1770832179,"current_range_meters":6400,"station_id":"cpo36qri1sfpv3e86is0","pricing_plan_id":"cebpf4jnsgd1na2vs0mg"},{"bike_id":"d6b9d7ff-4ec2-4ca9-ba28-5a5dad54cfd3","system_id":"levelo_inurba_marseille","lat":43.2848,"lon":5.48363,"is_reserved":false,"is_disabled":false,"rental_uris":{"android":"levelo://app?vid=d6b9d7ff-4ec2-4ca9-ba28-5a5dad54cfd3","ios":"levelo://app?vid=d6b9d7ff-4ec2-4ca9-ba28-5a5dad54cfd3"},"vehicle_type_id":"4","last_reported":1770832179,"current_range_meters":6400,"station_id":"","pricing_plan_id":"cebpf4jnsgd1na2vs0mg"},{"bike_id":"70fbccf0-1d8a-434a-b15f-78beac201af2","system_id":"levelo_inurba_marseille","lat":43.26591,"lon":5.39017,"is_reserved":false,"is_disabled":false,"rental_uris":{"android":"levelo://app?vid=70fbccf0-1d8a-434a-b15f-78beac201af2","ios":"levelo://app?vid=70fbccf0-1d8a-434a-b15f-78beac201af2"},"vehicle_type_id":"4","last_reported":1770832179,"current_range_meters":6400,"station_id":"ce4bhe12rcd13ifvqf30","pricing_plan_id":"cebpf4jnsgd1na2vs0mg"},{"bike_id":"5ed0f3ca-c4eb-409c-9eb1-a3eed1b5d0e0","system_id":"levelo_inurba_marseille","lat":43.30385,"lon":5.42473,"is_reserved":false,"is_disabled":false,"rental_uris":{"android":"levelo://app?vid=5ed0f3ca-c4eb-409c-9eb1-a3eed1b5d0e0","ios":"levelo://app?vid=5ed0f3ca-c4eb-409c-9eb1-a3eed1b5d0e0"},"vehicle_type_id":"4","last_reported":1770832179,"current_range_meters":6400,"station_id":"ce4bhoh2rcd13ifvqh6g","pricing_plan_id":"cebpf4jnsgd1na2vs0mg"},{"bike_id":"238249fa-46de-416c-b2d1-b229a6220ad5","system_id":"levelo_inurba_marseille","lat":43.26563,"lon":5.38986,"is_reserved":false,"is_disabled":false,"rental_uris":{"android":"levelo://app?vid=238249fa-46de-416c-b2d1-b229a6220ad5","ios":"levelo://app?vid=238249fa-46de-416c-b2d1-b229a6220ad5"},"vehicle_type_id":"4","last_reported":1770832179,"current_range_meters":6400,"station_id":"ce4bhe12rcd13ifvqf30","pricing_plan_id":"cebpf4jnsgd1na2vs0mg"},{"bike_id":"d4ca1552-174d-4ef7-a9fa-51001d780ed8","system_id":"levelo_inurba_marseille","lat":43.317196,"lon":5.437031,"is_reserved":false,"is_disabled":false,"rental_uris":{"android":"levelo://app?vid=d4ca1552-174d-4ef7-a9fa-51001d780ed8","ios":"levelo://app?vid=d4ca1552-174d-4ef7-a9fa-51001d780ed8"},"vehicle_type_id":"4","last_reported":1770832179,"current_range_meters":6800,"station_id":"","pricing_plan_id":"cebpf4jnsgd1na2vs0mg"},{"bike_id":"5506dc42-0e12-4a29-ac20-ee5355f98e9e","system_id":"levelo_inurba_marseille","lat":43.28707,"lon":5.37379,"is_reserved":false,"is_disabled":false,"rental_uris":{"android":"levelo://app?vid=5506dc42-0e12-4a29-ac20-ee5355f98e9e","ios":"levelo://app?vid=5506dc42-0e12-4a29-ac20-ee5355f98e9e"},"vehicle_type_id":"4","last_reported":1770832179,"current_range_meters":6800,"station_id":"ce4bh3p2rcd13ifvqdq0","pricing_plan_id":"cebpf4jnsgd1na2vs0mg"},{"bike_id":"b7760c6a-a168-4937-8588-2d33824808ad","system_id":"levelo_inurba_marseille","lat":43.302955,"lon":5.392223,"is_reserved":false,"is_disabled":false,"rental_uris":{"android":"levelo://app?vid=b7760c6a-a168-4937-8588-2d33824808ad","ios":"levelo://app?vid=b7760c6a-a168-4937-8588-2d33824808ad"},"vehicle_type_id":"4","last_reported":1770832179,"current_range_meters":6800,"station_id":"ce4bgkh2rcd13ifvqbk0","pricing_plan_id":"cebpf4jnsgd1na2vs0mg"},{"bike_id":"a8033c18-bf59-458a-9eb0-147256918905","system_id":"levelo_inurba_marseille","lat":43.31071,"lon":5.37164,"is_reserved":false,"is_disabled":false,"rental_uris":{"android":"levelo://app?vid=a8033c18-bf59-458a-9eb0-147256918905","ios":"levelo://app?vid=a8033c18-bf59-458a-9eb0-147256918905"},"vehicle_type_id":"4","last_reported":1770832179,"current_range_meters":6800,"station_id":"st_d4kl2rp97mjs73e7tdfg","pricing_plan_id":"cebpf4jnsgd1na2vs0mg"},{"bike_id":"357cfa49-eb2e-4ad7-9e86-ec1c9fac2bf5","system_id":"levelo_inurba_marseille","lat":43.2463,"lon":5.43145,"is_reserved":false,"is_disabled":false,"rental_uris":{"android":"levelo://app?vid=357cfa49-eb2e-4ad7-9e86-ec1c9fac2bf5","ios":"levelo://app?vid=357cfa49-eb2e-4ad7-9e86-ec1c9fac2bf5"},"vehicle_type_id":"4","last_reported":1770832179,"current_range_meters":6800,"station_id":"st_d2m6c4gdas8pm72e190g","pricing_plan_id":"cebpf4jnsgd1na2vs0mg"},{"bike_id":"cb757f0d-9c7a-491d-bd37-8f151a926c0d","system_id":"levelo_inurba_marseille","lat":43.2558,"lon":5.38226,"is_reserved":false,"is_disabled":false,"rental_uris":{"android":"levelo://app?vid=cb757f0d-9c7a-491d-bd37-8f151a926c0d","ios":"levelo://app?vid=cb757f0d-9c7a-491d-bd37-8f151a926c0d"},"vehicle_type_id":"4","last_reported":1770832179,"current_range_meters":6800,"station_id":"ce4bhih2rcd13ifvqfs0","pricing_plan_id":"cebpf4jnsgd1na2vs0mg"},{"bike_id":"9ec6f81a-3028-4329-a576-08a1e6b3e6f0","system_id":"levelo_inurba_marseille","lat":43.291976,"lon":5.35796,"is_reserved":false,"is_disabled":false,"rental_uris":{"android":"levelo://app?vid=9ec6f81a-3028-4329-a576-08a1e6b3e6f0","ios":"levelo://app?vid=9ec6f81a-3028-4329-a576-08a1e6b3e6f0"},"vehicle_type_id":"4","last_reported":1770832179,"current_range_meters":6800,"station_id":"ce4bhb12rcd13ifvqel0","pricing_plan_id":"cebpf4jnsgd1na2vs0mg"},{"bike_id":"93b00136-09fe-4a17-8fb6-8d647dc37c64","system_id":"levelo_inurba_marseille","lat":43.26203,"lon":5.37924,"is_reserved":false,"is_disabled":false,"rental_uris":{"android":"levelo://app?vid=93b00136-09fe-4a17-8fb6-8d647dc37c64","ios":"levelo://app?vid=93b00136-09fe-4a17-8fb6-8d647dc37c64"},"vehicle_type_id":"4","last_reported":1770832179,"current_range_meters":6800,"station_id":"ce4bhjp2rcd13ifvqg90","pricing_plan_id":"cebpf4jnsgd1na2vs0mg"},{"bike_id":"7ff03ac4-5fd5-442f-a807-6f226dbf180d","system_id":"levelo_inurba_marseille","lat":43.24396,"lon":5.37042,"is_reserved":false,"is_disabled":false,"rental_uris":{"android":"levelo://app?vid=7ff03ac4-5fd5-442f-a807-6f226dbf180d","ios":"levelo://app?vid=7ff03ac4-5fd5-442f-a807-6f226dbf180d"},"vehicle_type_id":"4","last_reported":1770832179,"current_range_meters":6800,"station_id":"ce4bhhh2rcd13ifvqfk0","pricing_plan_id":"cebpf4jnsgd1na2vs0mg"},{"bike_id":"301ceaa3-6c94-4914-b2db-77d3dabc40c1","system_id":"levelo_inurba_marseille","lat":43.2892,"lon":5.38377,"is_reserved":false,"is_disabled":false,"rental_uris":{"android":"levelo://app?vid=301ceaa3-6c94-4914-b2db-77d3dabc40c1","ios":"levelo://app?vid=301ceaa3-6c94-4914-b2db-77d3dabc40c1"},"vehicle_type_id":"4","last_reported":1770832179,"current_range_meters":6800,"station_id":"ce4bh612rcd13ifvqe6g","pricing_plan_id":"cebpf4jnsgd1na2vs0mg"},{"bike_id":"10b82911-f435-4474-a63a-47d8d64c7e63","system_id":"levelo_inurba_marseille","lat":43.29436,"lon":5.39741,"is_reserved":false,"is_disabled":false,"rental_uris":{"android":"levelo://app?vid=10b82911-f435-4474-a63a-47d8d64c7e63","ios":"levelo://app?vid=10b82911-f435-4474-a63a-47d8d64c7e63"},"vehicle_type_id":"4","last_reported":1770832179,"current_range_meters":6800,"station_id":"ce4bh3h2rcd13ifvqdo0","pricing_plan_id":"cebpf4jnsgd1na2vs0mg"},{"bike_id":"c238b1c6-c7b6-4af9-a5fc-469947b36765","system_id":"levelo_inurba_marseille","lat":43.31069,"lon":5.38368,"is_reserved":false,"is_disabled":false,"rental_uris":{"android":"levelo://app?vid=c238b1c6-c7b6-4af9-a5fc-469947b36765","ios":"levelo://app?vid=c238b1c6-c7b6-4af9-a5fc-469947b36765"},"vehicle_type_id":"4","last_reported":1770832179,"current_range_meters":6800,"station_id":"ce4bgv92rcd13ifvqcr0","pricing_plan_id":"cebpf4jnsgd1na2vs0mg"},{"bike_id":"ea1c6171-5afb-4c13-9162-abe8d2806df9","system_id":"levelo_inurba_marseille","lat":43.27057,"lon":5.3831,"is_reserved":false,"is_disabled":false,"rental_uris":{"android":"levelo://app?vid=ea1c6171-5afb-4c13-9162-abe8d2806df9","ios":"levelo://app?vid=ea1c6171-5afb-4c13-9162-abe8d2806df9"},"vehicle_type_id":"4","last_reported":1770832179,"current_range_meters":6800,"station_id":"st_d3n2fo6cfp8s73cte1j0","pricing_plan_id":"cebpf4jnsgd1na2vs0mg"},{"bike_id":"3a50ee85-227b-45a3-9d04-f0160ac4ca3d","system_id":"levelo_inurba_marseille","lat":43.28464,"lon":5.35875,"is_reserved":false,"is_disabled":false,"rental_uris":{"android":"levelo://app?vid=3a50ee85-227b-45a3-9d04-f0160ac4ca3d","ios":"levelo://app?vid=3a50ee85-227b-45a3-9d04-f0160ac4ca3d"},"vehicle_type_id":"4","last_reported":1770832179,"current_range_meters":6800,"station_id":"ce4bhah2rcd13ifvqei0","pricing_plan_id":"cebpf4jnsgd1na2vs0mg"},{"bike_id":"194a4d89-9bca-4357-8a80-8fe8b5885f31","system_id":"levelo_inurba_marseille","lat":43.30452,"lon":5.3886,"is_reserved":false,"is_disabled":false,"rental_uris":{"android":"levelo://app?vid=194a4d89-9bca-4357-8a80-8fe8b5885f31","ios":"levelo://app?vid=194a4d89-9bca-4357-8a80-8fe8b5885f31"},"vehicle_type_id":"4","last_reported":1770832179,"current_range_meters":6800,"station_id":"ce4bgk12rcd13ifvqbi0","pricing_plan_id":"cebpf4jnsgd1na2vs0mg"},{"bike_id":"6ab5b084-e5d8-48c5-ae35-0623734d18d5","system_id":"levelo_inurba_marseille","lat":43.28731,"lon":5.36072,"is_reserved":false,"is_disabled":false,"rental_uris":{"android":"levelo://app?vid=6ab5b084-e5d8-48c5-ae35-0623734d18d5","ios":"levelo://app?vid=6ab5b084-e5d8-48c5-ae35-0623734d18d5"},"vehicle_type_id":"4","last_reported":1770832179,"current_range_meters":6800,"station_id":"cki0cbj6b192h4jlfktg","pricing_plan_id":"cebpf4jnsgd1na2vs0mg"},{"bike_id":"37a591eb-8aec-4b2c-9c42-52b9e5ea7335","system_id":"levelo_inurba_marseille","lat":43.26193,"lon":5.3744,"is_reserved":false,"is_disabled":false,"rental_uris":{"android":"levelo://app?vid=37a591eb-8aec-4b2c-9c42-52b9e5ea7335","ios":"levelo://app?vid=37a591eb-8aec-4b2c-9c42-52b9e5ea7335"},"vehicle_type_id":"4","last_reported":1770832179,"current_range_meters":6800,"station_id":"ce4bhgp2rcd13ifvqfc0","pricing_plan_id":"cebpf4jnsgd1na2vs0mg"},{"bike_id":"20203afd-3c72-4acb-8f85-5dd1c68a7efd","system_id":"levelo_inurba_marseille","lat":43.2929,"lon":5.37459,"is_reserved":false,"is_disabled":false,"rental_uris":{"android":"levelo://app?vid=20203afd-3c72-4acb-8f85-5dd1c68a7efd","ios":"levelo://app?vid=20203afd-3c72-4acb-8f85-5dd1c68a7efd"},"vehicle_type_id":"4","last_reported":1770832179,"current_range_meters":7200,"station_id":"ce4bgi12rcd13ifvqb70","pricing_plan_id":"cebpf4jnsgd1na2vs0mg"},{"bike_id":"fe86c9ba-789d-48cb-b139-57215407552e","system_id":"levelo_inurba_marseille","lat":43.33766,"lon":5.37442,"is_reserved":false,"is_disabled":false,"rental_uris":{"android":"levelo://app?vid=fe86c9ba-789d-48cb-b139-57215407552e","ios":"levelo://app?vid=fe86c9ba-789d-48cb-b139-57215407552e"},"vehicle_type_id":"4","last_reported":1770832179,"current_range_meters":7200,"station_id":"","pricing_plan_id":"cebpf4jnsgd1na2vs0mg"},{"bike_id":"0d60f49b-2168-485f-9c8c-8bf326d0ba55","system_id":"levelo_inurba_marseille","lat":43.24517,"lon":5.42408,"is_reserved":false,"is_disabled":false,"rental_uris":{"android":"levelo://app?vid=0d60f49b-2168-485f-9c8c-8bf326d0ba55","ios":"levelo://app?vid=0d60f49b-2168-485f-9c8c-8bf326d0ba55"},"vehicle_type_id":"4","last_reported":1770832179,"current_range_meters":7200,"station_id":"","pricing_plan_id":"cebpf4jnsgd1na2vs0mg"},{"bike_id":"1a0d99f0-ee74-4956-bad4-992b0789ccc7","system_id":"levelo_inurba_marseille","lat":43.211927,"lon":5.350703,"is_reserved":false,"is_disabled":false,"rental_uris":{"android":"levelo://app?vid=1a0d99f0-ee74-4956-bad4-992b0789ccc7","ios":"levelo://app?vid=1a0d99f0-ee74-4956-bad4-992b0789ccc7"},"vehicle_type_id":"4","last_reported":1770832179,"current_range_meters":7200,"station_id":"st_cvj6sg6p6f1abm77japg","pricing_plan_id":"cebpf4jnsgd1na2vs0mg"},{"bike_id":"b503efcb-4ea5-45e0-9902-88c214b70b2f","system_id":"levelo_inurba_marseille","lat":43.26216,"lon":5.37437,"is_reserved":false,"is_disabled":false,"rental_uris":{"android":"levelo://app?vid=b503efcb-4ea5-45e0-9902-88c214b70b2f","ios":"levelo://app?vid=b503efcb-4ea5-45e0-9902-88c214b70b2f"},"vehicle_type_id":"4","last_reported":1770832179,"current_range_meters":7200,"station_id":"ce4bhgp2rcd13ifvqfc0","pricing_plan_id":"cebpf4jnsgd1na2vs0mg"},{"bike_id":"f5064106-815b-46b4-8e7b-a5a20a7b8680","system_id":"levelo_inurba_marseille","lat":43.29264,"lon":5.37617,"is_reserved":false,"is_disabled":false,"rental_uris":{"android":"levelo://app?vid=f5064106-815b-46b4-8e7b-a5a20a7b8680","ios":"levelo://app?vid=f5064106-815b-46b4-8e7b-a5a20a7b8680"},"vehicle_type_id":"4","last_reported":1770832179,"current_range_meters":7200,"station_id":"ce4bgi12rcd13ifvqb80","pricing_plan_id":"cebpf4jnsgd1na2vs0mg"},{"bike_id":"091b5910-e40c-4a58-9b20-b343e9573d75","system_id":"levelo_inurba_marseille","lat":43.29631,"lon":5.40587,"is_reserved":false,"is_disabled":false,"rental_uris":{"android":"levelo://app?vid=091b5910-e40c-4a58-9b20-b343e9573d75","ios":"levelo://app?vid=091b5910-e40c-4a58-9b20-b343e9573d75"},"vehicle_type_id":"4","last_reported":1770832179,"current_range_meters":7200,"station_id":"ce4bh0h2rcd13ifvqd60","pricing_plan_id":"cebpf4jnsgd1na2vs0mg"},{"bike_id":"8ff4a9fa-0d2e-4f7f-8193-e7a8dba5ca9a","system_id":"levelo_inurba_marseille","lat":43.253346,"lon":5.4216,"is_reserved":false,"is_disabled":false,"rental_uris":{"android":"levelo://app?vid=8ff4a9fa-0d2e-4f7f-8193-e7a8dba5ca9a","ios":"levelo://app?vid=8ff4a9fa-0d2e-4f7f-8193-e7a8dba5ca9a"},"vehicle_type_id":"4","last_reported":1770832179,"current_range_meters":7200,"station_id":"st_d2m65c5bi1j21697t3ng","pricing_plan_id":"cebpf4jnsgd1na2vs0mg"},{"bike_id":"cc8657f3-cee0-4726-8427-1495a502b0dc","system_id":"levelo_inurba_marseille","lat":43.297639,"lon":5.427846,"is_reserved":false,"is_disabled":false,"rental_uris":{"android":"levelo://app?vid=cc8657f3-cee0-4726-8427-1495a502b0dc","ios":"levelo://app?vid=cc8657f3-cee0-4726-8427-1495a502b0dc"},"vehicle_type_id":"4","last_reported":1770832179,"current_range_meters":7200,"station_id":"st_d3md5207bmas73dh9klg","pricing_plan_id":"cebpf4jnsgd1na2vs0mg"},{"bike_id":"ae861497-9a22-4231-afa9-8238d5c5713c","system_id":"levelo_inurba_marseille","lat":43.241676,"lon":5.363908,"is_reserved":false,"is_disabled":false,"rental_uris":{"android":"levelo://app?vid=ae861497-9a22-4231-afa9-8238d5c5713c","ios":"levelo://app?vid=ae861497-9a22-4231-afa9-8238d5c5713c"},"vehicle_type_id":"4","last_reported":1770832179,"current_range_meters":7200,"station_id":"cpo36qri1sfpv3e86is0","pricing_plan_id":"cebpf4jnsgd1na2vs0mg"},{"bike_id":"7b92e220-9d47-4ab3-998f-d8a4cc588b3b","system_id":"levelo_inurba_marseille","lat":43.24941,"lon":5.40491,"is_reserved":false,"is_disabled":false,"rental_uris":{"android":"levelo://app?vid=7b92e220-9d47-4ab3-998f-d8a4cc588b3b","ios":"levelo://app?vid=7b92e220-9d47-4ab3-998f-d8a4cc588b3b"},"vehicle_type_id":"4","last_reported":1770832179,"current_range_meters":7200,"station_id":"st_d2ngiaodas8pm72gd1h0","pricing_plan_id":"cebpf4jnsgd1na2vs0mg"},{"bike_id":"7eeaccf5-8f2d-4b8e-b748-664a79b6f593","system_id":"levelo_inurba_marseille","lat":43.29815,"lon":5.3809,"is_reserved":false,"is_disabled":false,"rental_uris":{"android":"levelo://app?vid=7eeaccf5-8f2d-4b8e-b748-664a79b6f593","ios":"levelo://app?vid=7eeaccf5-8f2d-4b8e-b748-664a79b6f593"},"vehicle_type_id":"4","last_reported":1770832179,"current_range_meters":7200,"station_id":"ce4bgip2rcd13ifvqbb0","pricing_plan_id":"cebpf4jnsgd1na2vs0mg"},{"bike_id":"6efaf04c-9569-44ab-8b0b-16d1a8c8046c","system_id":"levelo_inurba_marseille","lat":43.29199,"lon":5.35794,"is_reserved":false,"is_disabled":false,"rental_uris":{"android":"levelo://app?vid=6efaf04c-9569-44ab-8b0b-16d1a8c8046c","ios":"levelo://app?vid=6efaf04c-9569-44ab-8b0b-16d1a8c8046c"},"vehicle_type_id":"4","last_reported":1770832179,"current_range_meters":7200,"station_id":"ce4bhb12rcd13ifvqel0","pricing_plan_id":"cebpf4jnsgd1na2vs0mg"},{"bike_id":"6efe5f0a-6c4f-403e-907f-5428484845d2","system_id":"levelo_inurba_marseille","lat":43.31708,"lon":5.40392,"is_reserved":false,"is_disabled":false,"rental_uris":{"android":"levelo://app?vid=6efe5f0a-6c4f-403e-907f-5428484845d2","ios":"levelo://app?vid=6efe5f0a-6c4f-403e-907f-5428484845d2"},"vehicle_type_id":"4","last_reported":1770832179,"current_range_meters":7200,"station_id":"","pricing_plan_id":"cebpf4jnsgd1na2vs0mg"},{"bike_id":"33352d89-c7bd-4d2f-8796-2f3b2fb0783e","system_id":"levelo_inurba_marseille","lat":43.28173,"lon":5.42922,"is_reserved":false,"is_disabled":false,"rental_uris":{"android":"levelo://app?vid=33352d89-c7bd-4d2f-8796-2f3b2fb0783e","ios":"levelo://app?vid=33352d89-c7bd-4d2f-8796-2f3b2fb0783e"},"vehicle_type_id":"4","last_reported":1770832179,"current_range_meters":7200,"station_id":"","pricing_plan_id":"cebpf4jnsgd1na2vs0mg"},{"bike_id":"f6efce97-9084-4c31-ac19-1045f456ba36","system_id":"levelo_inurba_marseille","lat":43.28535,"lon":5.39925,"is_reserved":false,"is_disabled":false,"rental_uris":{"android":"levelo://app?vid=f6efce97-9084-4c31-ac19-1045f456ba36","ios":"levelo://app?vid=f6efce97-9084-4c31-ac19-1045f456ba36"},"vehicle_type_id":"4","last_reported":1770832179,"current_range_meters":7200,"station_id":"ce4bho92rcd13ifvqh3g","pricing_plan_id":"cebpf4jnsgd1na2vs0mg"},{"bike_id":"80402ecf-b8d7-4b37-a51b-bc25571b17fe","system_id":"levelo_inurba_marseille","lat":43.26249,"lon":5.40475,"is_reserved":false,"is_disabled":true,"rental_uris":{"android":"levelo://app?vid=80402ecf-b8d7-4b37-a51b-bc25571b17fe","ios":"levelo://app?vid=80402ecf-b8d7-4b37-a51b-bc25571b17fe"},"vehicle_type_id":"4","last_reported":1770832179,"current_range_meters":7200,"station_id":"ce4bhmh2rcd13ifvqgmg","pricing_plan_id":"cebpf4jnsgd1na2vs0mg"},{"bike_id":"bb4c3ee8-db7a-4f87-ba09-da50c2e7301a","system_id":"levelo_inurba_marseille","lat":43.30884,"lon":5.37187,"is_reserved":false,"is_disabled":false,"rental_uris":{"android":"levelo://app?vid=bb4c3ee8-db7a-4f87-ba09-da50c2e7301a","ios":"levelo://app?vid=bb4c3ee8-db7a-4f87-ba09-da50c2e7301a"},"vehicle_type_id":"4","last_reported":1770832179,"current_range_meters":7200,"station_id":"ce4bguh2rcd13ifvqckg","pricing_plan_id":"cebpf4jnsgd1na2vs0mg"},{"bike_id":"e28fe908-17cf-49c5-af58-c3ac30cbd51e","system_id":"levelo_inurba_marseille","lat":43.24179,"lon":5.39723,"is_reserved":false,"is_disabled":false,"rental_uris":{"android":"levelo://app?vid=e28fe908-17cf-49c5-af58-c3ac30cbd51e","ios":"levelo://app?vid=e28fe908-17cf-49c5-af58-c3ac30cbd51e"},"vehicle_type_id":"4","last_reported":1770832179,"current_range_meters":7200,"station_id":"ce4bhn12rcd13ifvqgpg","pricing_plan_id":"cebpf4jnsgd1na2vs0mg"},{"bike_id":"236405c2-ee6f-41f5-9f25-4e4fd3dca316","system_id":"levelo_inurba_marseille","lat":43.28002,"lon":5.4,"is_reserved":false,"is_disabled":false,"rental_uris":{"android":"levelo://app?vid=236405c2-ee6f-41f5-9f25-4e4fd3dca316","ios":"levelo://app?vid=236405c2-ee6f-41f5-9f25-4e4fd3dca316"},"vehicle_type_id":"4","last_reported":1770832179,"current_range_meters":8000,"station_id":"ce4bho92rcd13ifvqh4g","pricing_plan_id":"cebpf4jnsgd1na2vs0mg"},{"bike_id":"c1e50416-a40b-4127-9b70-d5d628071b5d","system_id":"levelo_inurba_marseille","lat":43.30143,"lon":5.38773,"is_reserved":false,"is_disabled":false,"rental_uris":{"android":"levelo://app?vid=c1e50416-a40b-4127-9b70-d5d628071b5d","ios":"levelo://app?vid=c1e50416-a40b-4127-9b70-d5d628071b5d"},"vehicle_type_id":"4","last_reported":1770832179,"current_range_meters":8000,"station_id":"ce4bghh2rcd13ifvqb60","pricing_plan_id":"cebpf4jnsgd1na2vs0mg"},{"bike_id":"d5788555-bc82-48f3-bf66-fbca9562e20e","system_id":"levelo_inurba_marseille","lat":43.298609,"lon":5.39734,"is_reserved":false,"is_disabled":false,"rental_uris":{"android":"levelo://app?vid=d5788555-bc82-48f3-bf66-fbca9562e20e","ios":"levelo://app?vid=d5788555-bc82-48f3-bf66-fbca9562e20e"},"vehicle_type_id":"4","last_reported":1770832179,"current_range_meters":8000,"station_id":"ce4bh0h2rcd13ifvqd50","pricing_plan_id":"cebpf4jnsgd1na2vs0mg"},{"bike_id":"9c4fa197-e784-47a1-9a3e-1e64aa186f14","system_id":"levelo_inurba_marseille","lat":43.259399,"lon":5.409106,"is_reserved":false,"is_disabled":false,"rental_uris":{"android":"levelo://app?vid=9c4fa197-e784-47a1-9a3e-1e64aa186f14","ios":"levelo://app?vid=9c4fa197-e784-47a1-9a3e-1e64aa186f14"},"vehicle_type_id":"4","last_reported":1770832179,"current_range_meters":8000,"station_id":"ce4bhm92rcd13ifvqglg","pricing_plan_id":"cebpf4jnsgd1na2vs0mg"},{"bike_id":"e44df137-3a9f-4865-a2d3-769a6f5bfc14","system_id":"levelo_inurba_marseille","lat":43.309,"lon":5.36841,"is_reserved":false,"is_disabled":false,"rental_uris":{"android":"levelo://app?vid=e44df137-3a9f-4865-a2d3-769a6f5bfc14","ios":"levelo://app?vid=e44df137-3a9f-4865-a2d3-769a6f5bfc14"},"vehicle_type_id":"4","last_reported":1770832179,"current_range_meters":8000,"station_id":"ce4bgn92rcd13ifvqbvg","pricing_plan_id":"cebpf4jnsgd1na2vs0mg"},{"bike_id":"fdcca747-1f0c-4265-9d25-6a349973ec5d","system_id":"levelo_inurba_marseille","lat":43.33171,"lon":5.37675,"is_reserved":false,"is_disabled":false,"rental_uris":{"android":"levelo://app?vid=fdcca747-1f0c-4265-9d25-6a349973ec5d","ios":"levelo://app?vid=fdcca747-1f0c-4265-9d25-6a349973ec5d"},"vehicle_type_id":"4","last_reported":1770832179,"current_range_meters":8000,"station_id":"st_d46cu089ee8s73dldbu0","pricing_plan_id":"cebpf4jnsgd1na2vs0mg"},{"bike_id":"5fda65b6-7f98-4bf6-b2de-a2c95ed917cc","system_id":"levelo_inurba_marseille","lat":43.25447,"lon":5.38442,"is_reserved":false,"is_disabled":false,"rental_uris":{"android":"levelo://app?vid=5fda65b6-7f98-4bf6-b2de-a2c95ed917cc","ios":"levelo://app?vid=5fda65b6-7f98-4bf6-b2de-a2c95ed917cc"},"vehicle_type_id":"4","last_reported":1770832179,"current_range_meters":8000,"station_id":"","pricing_plan_id":"cebpf4jnsgd1na2vs0mg"},{"bike_id":"ac9a885a-fe7d-4871-905c-95e91acf3aa8","system_id":"levelo_inurba_marseille","lat":43.22559,"lon":5.41622,"is_reserved":false,"is_disabled":false,"rental_uris":{"android":"levelo://app?vid=ac9a885a-fe7d-4871-905c-95e91acf3aa8","ios":"levelo://app?vid=ac9a885a-fe7d-4871-905c-95e91acf3aa8"},"vehicle_type_id":"4","last_reported":1770832179,"current_range_meters":8000,"station_id":"st_d2o4gvlbi1j2169b742g","pricing_plan_id":"cebpf4jnsgd1na2vs0mg"},{"bike_id":"86d4fe23-69b8-443a-a079-cfaf305b250a","system_id":"levelo_inurba_marseille","lat":43.29226,"lon":5.36105,"is_reserved":false,"is_disabled":false,"rental_uris":{"android":"levelo://app?vid=86d4fe23-69b8-443a-a079-cfaf305b250a","ios":"levelo://app?vid=86d4fe23-69b8-443a-a079-cfaf305b250a"},"vehicle_type_id":"4","last_reported":1770832179,"current_range_meters":8000,"station_id":"ce4bhbh2rcd13ifvqeqg","pricing_plan_id":"cebpf4jnsgd1na2vs0mg"},{"bike_id":"5a384576-ff07-4540-8f30-070dec0471c4","system_id":"levelo_inurba_marseille","lat":43.29705,"lon":5.36611,"is_reserved":false,"is_disabled":false,"rental_uris":{"android":"levelo://app?vid=5a384576-ff07-4540-8f30-070dec0471c4","ios":"levelo://app?vid=5a384576-ff07-4540-8f30-070dec0471c4"},"vehicle_type_id":"4","last_reported":1770832179,"current_range_meters":8000,"station_id":"ce4bgn12rcd13ifvqbt0","pricing_plan_id":"cebpf4jnsgd1na2vs0mg"},{"bike_id":"2a63844a-84ce-42ba-a570-71001293621e","system_id":"levelo_inurba_marseille","lat":43.30818,"lon":5.4353,"is_reserved":false,"is_disabled":false,"rental_uris":{"android":"levelo://app?vid=2a63844a-84ce-42ba-a570-71001293621e","ios":"levelo://app?vid=2a63844a-84ce-42ba-a570-71001293621e"},"vehicle_type_id":"4","last_reported":1770832179,"current_range_meters":8000,"station_id":"","pricing_plan_id":"cebpf4jnsgd1na2vs0mg"},{"bike_id":"1c8ad576-b604-4822-b51b-92bbf6fee65c","system_id":"levelo_inurba_marseille","lat":43.26556,"lon":5.39037,"is_reserved":false,"is_disabled":false,"rental_uris":{"android":"levelo://app?vid=1c8ad576-b604-4822-b51b-92bbf6fee65c","ios":"levelo://app?vid=1c8ad576-b604-4822-b51b-92bbf6fee65c"},"vehicle_type_id":"4","last_reported":1770832179,"current_range_meters":8000,"station_id":"ce4bhe12rcd13ifvqf30","pricing_plan_id":"cebpf4jnsgd1na2vs0mg"},{"bike_id":"77af1c12-8281-4ace-b9c6-228fea5076c7","system_id":"levelo_inurba_marseille","lat":43.29985,"lon":5.38459,"is_reserved":false,"is_disabled":false,"rental_uris":{"android":"levelo://app?vid=77af1c12-8281-4ace-b9c6-228fea5076c7","ios":"levelo://app?vid=77af1c12-8281-4ace-b9c6-228fea5076c7"},"vehicle_type_id":"4","last_reported":1770832179,"current_range_meters":8000,"station_id":"ce4bgj92rcd13ifvqbd0","pricing_plan_id":"cebpf4jnsgd1na2vs0mg"},{"bike_id":"1ef2e3fb-a11e-4cc4-96b5-ecbfbbb8d188","system_id":"levelo_inurba_marseille","lat":43.3151,"lon":5.37302,"is_reserved":false,"is_disabled":false,"rental_uris":{"android":"levelo://app?vid=1ef2e3fb-a11e-4cc4-96b5-ecbfbbb8d188","ios":"levelo://app?vid=1ef2e3fb-a11e-4cc4-96b5-ecbfbbb8d188"},"vehicle_type_id":"4","last_reported":1770832179,"current_range_meters":8000,"station_id":"ce4bgt12rcd13ifvqcd0","pricing_plan_id":"cebpf4jnsgd1na2vs0mg"},{"bike_id":"60144355-c5a2-4b27-9517-15dba4ba79a0","system_id":"levelo_inurba_marseille","lat":43.25574,"lon":5.38226,"is_reserved":false,"is_disabled":true,"rental_uris":{"android":"levelo://app?vid=60144355-c5a2-4b27-9517-15dba4ba79a0","ios":"levelo://app?vid=60144355-c5a2-4b27-9517-15dba4ba79a0"},"vehicle_type_id":"4","last_reported":1770832179,"current_range_meters":8000,"station_id":"ce4bhih2rcd13ifvqfs0","pricing_plan_id":"cebpf4jnsgd1na2vs0mg"},{"bike_id":"babdcd4a-655b-4e95-88f5-77a8529739da","system_id":"levelo_inurba_marseille","lat":43.2258,"lon":5.41628,"is_reserved":false,"is_disabled":false,"rental_uris":{"android":"levelo://app?vid=babdcd4a-655b-4e95-88f5-77a8529739da","ios":"levelo://app?vid=babdcd4a-655b-4e95-88f5-77a8529739da"},"vehicle_type_id":"4","last_reported":1770832179,"current_range_meters":8000,"station_id":"st_d2o4gvlbi1j2169b742g","pricing_plan_id":"cebpf4jnsgd1na2vs0mg"},{"bike_id":"cc43a2a6-4df1-46ee-89a5-e5908a5338ed","system_id":"levelo_inurba_marseille","lat":43.28483,"lon":5.48383,"is_reserved":false,"is_disabled":false,"rental_uris":{"android":"levelo://app?vid=cc43a2a6-4df1-46ee-89a5-e5908a5338ed","ios":"levelo://app?vid=cc43a2a6-4df1-46ee-89a5-e5908a5338ed"},"vehicle_type_id":"4","last_reported":1770832179,"current_range_meters":8000,"station_id":"st_d3svhcjqgbts73a3dn0g","pricing_plan_id":"cebpf4jnsgd1na2vs0mg"},{"bike_id":"5c22b533-5492-411e-bf62-99b42d617d21","system_id":"levelo_inurba_marseille","lat":43.3074,"lon":5.3709,"is_reserved":false,"is_disabled":false,"rental_uris":{"android":"levelo://app?vid=5c22b533-5492-411e-bf62-99b42d617d21","ios":"levelo://app?vid=5c22b533-5492-411e-bf62-99b42d617d21"},"vehicle_type_id":"4","last_reported":1770832179,"current_range_meters":8000,"station_id":"","pricing_plan_id":"cebpf4jnsgd1na2vs0mg"},{"bike_id":"e5f6fbc0-79bf-4a02-84c6-e4620cc9aeec","system_id":"levelo_inurba_marseille","lat":43.28969,"lon":5.38629,"is_reserved":false,"is_disabled":false,"rental_uris":{"android":"levelo://app?vid=e5f6fbc0-79bf-4a02-84c6-e4620cc9aeec","ios":"levelo://app?vid=e5f6fbc0-79bf-4a02-84c6-e4620cc9aeec"},"vehicle_type_id":"4","last_reported":1770832179,"current_range_meters":8400,"station_id":"","pricing_plan_id":"cebpf4jnsgd1na2vs0mg"},{"bike_id":"9410cd75-0df9-4b35-a9bb-7e348a6d2f93","system_id":"levelo_inurba_marseille","lat":43.28951,"lon":5.36393,"is_reserved":false,"is_disabled":false,"rental_uris":{"android":"levelo://app?vid=9410cd75-0df9-4b35-a9bb-7e348a6d2f93","ios":"levelo://app?vid=9410cd75-0df9-4b35-a9bb-7e348a6d2f93"},"vehicle_type_id":"4","last_reported":1770832179,"current_range_meters":8400,"station_id":"ce4bhc92rcd13ifvqetg","pricing_plan_id":"cebpf4jnsgd1na2vs0mg"},{"bike_id":"c1d994da-b33c-4a64-a196-28f0ec7412ca","system_id":"levelo_inurba_marseille","lat":43.317155,"lon":5.436988,"is_reserved":false,"is_disabled":false,"rental_uris":{"android":"levelo://app?vid=c1d994da-b33c-4a64-a196-28f0ec7412ca","ios":"levelo://app?vid=c1d994da-b33c-4a64-a196-28f0ec7412ca"},"vehicle_type_id":"4","last_reported":1770832179,"current_range_meters":8400,"station_id":"ce4bhp92rcd13ifvqhcg","pricing_plan_id":"cebpf4jnsgd1na2vs0mg"},{"bike_id":"834da72d-2e32-479e-bc3f-592da1e51209","system_id":"levelo_inurba_marseille","lat":43.2708,"lon":5.42276,"is_reserved":false,"is_disabled":false,"rental_uris":{"android":"levelo://app?vid=834da72d-2e32-479e-bc3f-592da1e51209","ios":"levelo://app?vid=834da72d-2e32-479e-bc3f-592da1e51209"},"vehicle_type_id":"4","last_reported":1770832179,"current_range_meters":8400,"station_id":"ce4bhk92rcd13ifvqgb0","pricing_plan_id":"cebpf4jnsgd1na2vs0mg"},{"bike_id":"4878db2c-1746-4e84-a2dc-9ef31135b542","system_id":"levelo_inurba_marseille","lat":43.25851,"lon":5.39906,"is_reserved":false,"is_disabled":false,"rental_uris":{"android":"levelo://app?vid=4878db2c-1746-4e84-a2dc-9ef31135b542","ios":"levelo://app?vid=4878db2c-1746-4e84-a2dc-9ef31135b542"},"vehicle_type_id":"4","last_reported":1770832179,"current_range_meters":8400,"station_id":"ce4bhl92rcd13ifvqghg","pricing_plan_id":"cebpf4jnsgd1na2vs0mg"},{"bike_id":"d997c6b7-acb1-4efa-ae35-2d8c161e2e69","system_id":"levelo_inurba_marseille","lat":43.23192,"lon":5.35519,"is_reserved":false,"is_disabled":false,"rental_uris":{"android":"levelo://app?vid=d997c6b7-acb1-4efa-ae35-2d8c161e2e69","ios":"levelo://app?vid=d997c6b7-acb1-4efa-ae35-2d8c161e2e69"},"vehicle_type_id":"4","last_reported":1770832179,"current_range_meters":8400,"station_id":"ce4bhu92rcd13ifvqi70","pricing_plan_id":"cebpf4jnsgd1na2vs0mg"},{"bike_id":"9e3bc487-b0e5-43b2-98b8-caa6f87f206e","system_id":"levelo_inurba_marseille","lat":43.31722,"lon":5.37767,"is_reserved":false,"is_disabled":false,"rental_uris":{"android":"levelo://app?vid=9e3bc487-b0e5-43b2-98b8-caa6f87f206e","ios":"levelo://app?vid=9e3bc487-b0e5-43b2-98b8-caa6f87f206e"},"vehicle_type_id":"4","last_reported":1770832179,"current_range_meters":8400,"station_id":"ce4bgth2rcd13ifvqch0","pricing_plan_id":"cebpf4jnsgd1na2vs0mg"},{"bike_id":"602b1aa7-ae78-4f99-bdeb-c1fa3809495e","system_id":"levelo_inurba_marseille","lat":43.24395,"lon":5.37061,"is_reserved":false,"is_disabled":false,"rental_uris":{"android":"levelo://app?vid=602b1aa7-ae78-4f99-bdeb-c1fa3809495e","ios":"levelo://app?vid=602b1aa7-ae78-4f99-bdeb-c1fa3809495e"},"vehicle_type_id":"4","last_reported":1770832179,"current_range_meters":8400,"station_id":"ce4bhhh2rcd13ifvqfk0","pricing_plan_id":"cebpf4jnsgd1na2vs0mg"},{"bike_id":"9b586055-3525-4e43-ae53-8d6c2fff45ed","system_id":"levelo_inurba_marseille","lat":43.24152,"lon":5.36387,"is_reserved":false,"is_disabled":false,"rental_uris":{"android":"levelo://app?vid=9b586055-3525-4e43-ae53-8d6c2fff45ed","ios":"levelo://app?vid=9b586055-3525-4e43-ae53-8d6c2fff45ed"},"vehicle_type_id":"4","last_reported":1770832179,"current_range_meters":8400,"station_id":"cpo36qri1sfpv3e86is0","pricing_plan_id":"cebpf4jnsgd1na2vs0mg"},{"bike_id":"984cee98-af16-42cf-8e4d-eb2b3c2af590","system_id":"levelo_inurba_marseille","lat":43.29544,"lon":5.3853,"is_reserved":false,"is_disabled":false,"rental_uris":{"android":"levelo://app?vid=984cee98-af16-42cf-8e4d-eb2b3c2af590","ios":"levelo://app?vid=984cee98-af16-42cf-8e4d-eb2b3c2af590"},"vehicle_type_id":"4","last_reported":1770832179,"current_range_meters":8400,"station_id":"ce4bgih2rcd13ifvqba0","pricing_plan_id":"cebpf4jnsgd1na2vs0mg"},{"bike_id":"4669d1c1-dd67-40ce-ad2b-240b8e02370d","system_id":"levelo_inurba_marseille","lat":43.281518,"lon":5.426346,"is_reserved":false,"is_disabled":false,"rental_uris":{"android":"levelo://app?vid=4669d1c1-dd67-40ce-ad2b-240b8e02370d","ios":"levelo://app?vid=4669d1c1-dd67-40ce-ad2b-240b8e02370d"},"vehicle_type_id":"4","last_reported":1770832179,"current_range_meters":8400,"station_id":"ce4bhnh2rcd13ifvqgug","pricing_plan_id":"cebpf4jnsgd1na2vs0mg"},{"bike_id":"6af64e8d-c1ed-42a1-8114-ee5a72327546","system_id":"levelo_inurba_marseille","lat":43.29515,"lon":5.37497,"is_reserved":false,"is_disabled":false,"rental_uris":{"android":"levelo://app?vid=6af64e8d-c1ed-42a1-8114-ee5a72327546","ios":"levelo://app?vid=6af64e8d-c1ed-42a1-8114-ee5a72327546"},"vehicle_type_id":"4","last_reported":1770832179,"current_range_meters":8400,"station_id":"ce4bgkp2rcd13ifvqbmg","pricing_plan_id":"cebpf4jnsgd1na2vs0mg"},{"bike_id":"fe4ee05c-ad4b-4888-9cc1-3bef96c9edd8","system_id":"levelo_inurba_marseille","lat":43.24468,"lon":5.42532,"is_reserved":false,"is_disabled":false,"rental_uris":{"android":"levelo://app?vid=fe4ee05c-ad4b-4888-9cc1-3bef96c9edd8","ios":"levelo://app?vid=fe4ee05c-ad4b-4888-9cc1-3bef96c9edd8"},"vehicle_type_id":"4","last_reported":1770832179,"current_range_meters":8400,"station_id":"st_d4a3vfp97mjs738cd8kg","pricing_plan_id":"cebpf4jnsgd1na2vs0mg"},{"bike_id":"2078f022-81f2-476d-9478-f1faba0023cf","system_id":"levelo_inurba_marseille","lat":43.29268,"lon":5.38439,"is_reserved":false,"is_disabled":false,"rental_uris":{"android":"levelo://app?vid=2078f022-81f2-476d-9478-f1faba0023cf","ios":"levelo://app?vid=2078f022-81f2-476d-9478-f1faba0023cf"},"vehicle_type_id":"4","last_reported":1770832179,"current_range_meters":8400,"station_id":"ce4bh692rcd13ifvqea0","pricing_plan_id":"cebpf4jnsgd1na2vs0mg"},{"bike_id":"88b08bb5-15d1-4c46-844e-21b0e0c21d88","system_id":"levelo_inurba_marseille","lat":43.295733,"lon":5.37511,"is_reserved":false,"is_disabled":false,"rental_uris":{"android":"levelo://app?vid=88b08bb5-15d1-4c46-844e-21b0e0c21d88","ios":"levelo://app?vid=88b08bb5-15d1-4c46-844e-21b0e0c21d88"},"vehicle_type_id":"4","last_reported":1770832179,"current_range_meters":8400,"station_id":"ce4bgh92rcd13ifvqb50","pricing_plan_id":"cebpf4jnsgd1na2vs0mg"},{"bike_id":"4e6f4036-e760-42af-9294-66f865974f20","system_id":"levelo_inurba_marseille","lat":43.28619,"lon":5.35096,"is_reserved":false,"is_disabled":false,"rental_uris":{"android":"levelo://app?vid=4e6f4036-e760-42af-9294-66f865974f20","ios":"levelo://app?vid=4e6f4036-e760-42af-9294-66f865974f20"},"vehicle_type_id":"4","last_reported":1770832179,"current_range_meters":8400,"station_id":"ce4bhch2rcd13ifvqeug","pricing_plan_id":"cebpf4jnsgd1na2vs0mg"},{"bike_id":"0a2dd918-b850-4024-a59e-e718ab68328a","system_id":"levelo_inurba_marseille","lat":43.29644,"lon":5.37711,"is_reserved":false,"is_disabled":false,"rental_uris":{"android":"levelo://app?vid=0a2dd918-b850-4024-a59e-e718ab68328a","ios":"levelo://app?vid=0a2dd918-b850-4024-a59e-e718ab68328a"},"vehicle_type_id":"4","last_reported":1770832179,"current_range_meters":8400,"station_id":"ce4bgi92rcd13ifvqb90","pricing_plan_id":"cebpf4jnsgd1na2vs0mg"},{"bike_id":"274ea62a-e153-4e2c-bdee-a88aa40b9a8e","system_id":"levelo_inurba_marseille","lat":43.24813,"lon":5.37454,"is_reserved":false,"is_disabled":false,"rental_uris":{"android":"levelo://app?vid=274ea62a-e153-4e2c-bdee-a88aa40b9a8e","ios":"levelo://app?vid=274ea62a-e153-4e2c-bdee-a88aa40b9a8e"},"vehicle_type_id":"4","last_reported":1770832179,"current_range_meters":8400,"station_id":"ce4bhgh2rcd13ifvqfb0","pricing_plan_id":"cebpf4jnsgd1na2vs0mg"},{"bike_id":"fbe2d625-78e4-4721-9541-200d4d6d2b91","system_id":"levelo_inurba_marseille","lat":43.29281,"lon":5.36838,"is_reserved":false,"is_disabled":false,"rental_uris":{"android":"levelo://app?vid=fbe2d625-78e4-4721-9541-200d4d6d2b91","ios":"levelo://app?vid=fbe2d625-78e4-4721-9541-200d4d6d2b91"},"vehicle_type_id":"4","last_reported":1770832179,"current_range_meters":8400,"station_id":"ce4bhbp2rcd13ifvqesg","pricing_plan_id":"cebpf4jnsgd1na2vs0mg"},{"bike_id":"d9c8e34a-2a85-447b-87b6-440f5d8d38c6","system_id":"levelo_inurba_marseille","lat":43.31757,"lon":5.3901,"is_reserved":false,"is_disabled":false,"rental_uris":{"android":"levelo://app?vid=d9c8e34a-2a85-447b-87b6-440f5d8d38c6","ios":"levelo://app?vid=d9c8e34a-2a85-447b-87b6-440f5d8d38c6"},"vehicle_type_id":"4","last_reported":1770832179,"current_range_meters":8400,"station_id":"ce4bhqp2rcd13ifvqhng","pricing_plan_id":"cebpf4jnsgd1na2vs0mg"},{"bike_id":"fe85a283-164e-4135-8ab7-7e2210250f6e","system_id":"levelo_inurba_marseille","lat":43.260625,"lon":5.39387,"is_reserved":false,"is_disabled":false,"rental_uris":{"android":"levelo://app?vid=fe85a283-164e-4135-8ab7-7e2210250f6e","ios":"levelo://app?vid=fe85a283-164e-4135-8ab7-7e2210250f6e"},"vehicle_type_id":"4","last_reported":1770832179,"current_range_meters":8800,"station_id":"ce4bhh92rcd13ifvqfj0","pricing_plan_id":"cebpf4jnsgd1na2vs0mg"},{"bike_id":"7fc97d41-93f4-4aca-8689-c280baa88c55","system_id":"levelo_inurba_marseille","lat":43.279182,"lon":5.395812,"is_reserved":false,"is_disabled":false,"rental_uris":{"android":"levelo://app?vid=7fc97d41-93f4-4aca-8689-c280baa88c55","ios":"levelo://app?vid=7fc97d41-93f4-4aca-8689-c280baa88c55"},"vehicle_type_id":"4","last_reported":1770832179,"current_range_meters":8800,"station_id":"ce4bhf92rcd13ifvqf40","pricing_plan_id":"cebpf4jnsgd1na2vs0mg"},{"bike_id":"77b71172-c335-4f65-a173-c3e7bcaf8730","system_id":"levelo_inurba_marseille","lat":43.26688,"lon":5.38268,"is_reserved":false,"is_disabled":false,"rental_uris":{"android":"levelo://app?vid=77b71172-c335-4f65-a173-c3e7bcaf8730","ios":"levelo://app?vid=77b71172-c335-4f65-a173-c3e7bcaf8730"},"vehicle_type_id":"4","last_reported":1770832179,"current_range_meters":8800,"station_id":"ce4bhg92rcd13ifvqf90","pricing_plan_id":"cebpf4jnsgd1na2vs0mg"},{"bike_id":"a7395cb9-7937-4731-b711-09cfc73cd502","system_id":"levelo_inurba_marseille","lat":43.29302,"lon":5.37442,"is_reserved":false,"is_disabled":false,"rental_uris":{"android":"levelo://app?vid=a7395cb9-7937-4731-b711-09cfc73cd502","ios":"levelo://app?vid=a7395cb9-7937-4731-b711-09cfc73cd502"},"vehicle_type_id":"4","last_reported":1770832179,"current_range_meters":8800,"station_id":"ce4bgi12rcd13ifvqb70","pricing_plan_id":"cebpf4jnsgd1na2vs0mg"},{"bike_id":"406b8143-680c-411e-8da6-8818c609b259","system_id":"levelo_inurba_marseille","lat":43.22926,"lon":5.35378,"is_reserved":false,"is_disabled":false,"rental_uris":{"android":"levelo://app?vid=406b8143-680c-411e-8da6-8818c609b259","ios":"levelo://app?vid=406b8143-680c-411e-8da6-8818c609b259"},"vehicle_type_id":"4","last_reported":1770832179,"current_range_meters":8800,"station_id":"cpo3532slgdg3j2ikp40","pricing_plan_id":"cebpf4jnsgd1na2vs0mg"},{"bike_id":"abb916b3-74af-4c17-94d0-fe9eafd044ff","system_id":"levelo_inurba_marseille","lat":43.29584,"lon":5.37494,"is_reserved":false,"is_disabled":false,"rental_uris":{"android":"levelo://app?vid=abb916b3-74af-4c17-94d0-fe9eafd044ff","ios":"levelo://app?vid=abb916b3-74af-4c17-94d0-fe9eafd044ff"},"vehicle_type_id":"4","last_reported":1770832179,"current_range_meters":8800,"station_id":"ce4bgh92rcd13ifvqb50","pricing_plan_id":"cebpf4jnsgd1na2vs0mg"},{"bike_id":"c08fafbb-1d48-4900-824c-a1447111f291","system_id":"levelo_inurba_marseille","lat":43.28707,"lon":5.37379,"is_reserved":false,"is_disabled":false,"rental_uris":{"android":"levelo://app?vid=c08fafbb-1d48-4900-824c-a1447111f291","ios":"levelo://app?vid=c08fafbb-1d48-4900-824c-a1447111f291"},"vehicle_type_id":"4","last_reported":1770832179,"current_range_meters":8800,"station_id":"ce4bh3p2rcd13ifvqdq0","pricing_plan_id":"cebpf4jnsgd1na2vs0mg"},{"bike_id":"d6ac2655-5d13-492c-96b2-0753705b3ccf","system_id":"levelo_inurba_marseille","lat":43.30153,"lon":5.37405,"is_reserved":false,"is_disabled":false,"rental_uris":{"android":"levelo://app?vid=d6ac2655-5d13-492c-96b2-0753705b3ccf","ios":"levelo://app?vid=d6ac2655-5d13-492c-96b2-0753705b3ccf"},"vehicle_type_id":"4","last_reported":1770832179,"current_range_meters":8800,"station_id":"ce4bgs92rcd13ifvqcc0","pricing_plan_id":"cebpf4jnsgd1na2vs0mg"},{"bike_id":"e7d96f11-e4c7-4d54-a091-6ac519acb6a5","system_id":"levelo_inurba_marseille","lat":43.2862,"lon":5.39876,"is_reserved":false,"is_disabled":false,"rental_uris":{"android":"levelo://app?vid=e7d96f11-e4c7-4d54-a091-6ac519acb6a5","ios":"levelo://app?vid=e7d96f11-e4c7-4d54-a091-6ac519acb6a5"},"vehicle_type_id":"4","last_reported":1770832179,"current_range_meters":8800,"station_id":"st_d4a7ka997mjs738ck50g","pricing_plan_id":"cebpf4jnsgd1na2vs0mg"},{"bike_id":"5db82314-139a-4aec-9e56-257c7e6cf00e","system_id":"levelo_inurba_marseille","lat":43.29255,"lon":5.36842,"is_reserved":false,"is_disabled":false,"rental_uris":{"android":"levelo://app?vid=5db82314-139a-4aec-9e56-257c7e6cf00e","ios":"levelo://app?vid=5db82314-139a-4aec-9e56-257c7e6cf00e"},"vehicle_type_id":"4","last_reported":1770832179,"current_range_meters":8800,"station_id":"ce4bhbp2rcd13ifvqesg","pricing_plan_id":"cebpf4jnsgd1na2vs0mg"},{"bike_id":"93baa0ec-a0c4-4597-b8f7-88493043b210","system_id":"levelo_inurba_marseille","lat":43.29612,"lon":5.38113,"is_reserved":false,"is_disabled":false,"rental_uris":{"android":"levelo://app?vid=93baa0ec-a0c4-4597-b8f7-88493043b210","ios":"levelo://app?vid=93baa0ec-a0c4-4597-b8f7-88493043b210"},"vehicle_type_id":"4","last_reported":1770832179,"current_range_meters":8800,"station_id":"ce4bgl12rcd13ifvqbo0","pricing_plan_id":"cebpf4jnsgd1na2vs0mg"},{"bike_id":"8b4b38ac-f6cb-48ed-90a4-30149ea67fd7","system_id":"levelo_inurba_marseille","lat":43.29098,"lon":5.39973,"is_reserved":false,"is_disabled":false,"rental_uris":{"android":"levelo://app?vid=8b4b38ac-f6cb-48ed-90a4-30149ea67fd7","ios":"levelo://app?vid=8b4b38ac-f6cb-48ed-90a4-30149ea67fd7"},"vehicle_type_id":"4","last_reported":1770832179,"current_range_meters":8800,"station_id":"","pricing_plan_id":"cebpf4jnsgd1na2vs0mg"},{"bike_id":"c66db0ad-2c7f-4464-999e-e8465fece01c","system_id":"levelo_inurba_marseille","lat":43.26961,"lon":5.38836,"is_reserved":false,"is_disabled":false,"rental_uris":{"android":"levelo://app?vid=c66db0ad-2c7f-4464-999e-e8465fece01c","ios":"levelo://app?vid=c66db0ad-2c7f-4464-999e-e8465fece01c"},"vehicle_type_id":"4","last_reported":1770832179,"current_range_meters":8800,"station_id":"","pricing_plan_id":"cebpf4jnsgd1na2vs0mg"},{"bike_id":"a444677b-f760-475f-b1cf-4e7fc39a990b","system_id":"levelo_inurba_marseille","lat":43.30167,"lon":5.37409,"is_reserved":false,"is_disabled":false,"rental_uris":{"android":"levelo://app?vid=a444677b-f760-475f-b1cf-4e7fc39a990b","ios":"levelo://app?vid=a444677b-f760-475f-b1cf-4e7fc39a990b"},"vehicle_type_id":"4","last_reported":1770832179,"current_range_meters":8800,"station_id":"ce4bgs92rcd13ifvqcc0","pricing_plan_id":"cebpf4jnsgd1na2vs0mg"},{"bike_id":"57351653-d95b-427e-a910-65f6831a1a30","system_id":"levelo_inurba_marseille","lat":43.31262,"lon":5.37728,"is_reserved":false,"is_disabled":false,"rental_uris":{"android":"levelo://app?vid=57351653-d95b-427e-a910-65f6831a1a30","ios":"levelo://app?vid=57351653-d95b-427e-a910-65f6831a1a30"},"vehicle_type_id":"4","last_reported":1770832179,"current_range_meters":8800,"station_id":"","pricing_plan_id":"cebpf4jnsgd1na2vs0mg"},{"bike_id":"db31bb45-c0fe-4707-bd4a-872c4cda20fc","system_id":"levelo_inurba_marseille","lat":43.29284,"lon":5.36839,"is_reserved":false,"is_disabled":false,"rental_uris":{"android":"levelo://app?vid=db31bb45-c0fe-4707-bd4a-872c4cda20fc","ios":"levelo://app?vid=db31bb45-c0fe-4707-bd4a-872c4cda20fc"},"vehicle_type_id":"4","last_reported":1770832179,"current_range_meters":8800,"station_id":"ce4bhbp2rcd13ifvqesg","pricing_plan_id":"cebpf4jnsgd1na2vs0mg"},{"bike_id":"461e1f55-4794-4c76-b676-dee39c377943","system_id":"levelo_inurba_marseille","lat":43.30139,"lon":5.3742,"is_reserved":false,"is_disabled":false,"rental_uris":{"android":"levelo://app?vid=461e1f55-4794-4c76-b676-dee39c377943","ios":"levelo://app?vid=461e1f55-4794-4c76-b676-dee39c377943"},"vehicle_type_id":"4","last_reported":1770832179,"current_range_meters":9200,"station_id":"ce4bgs92rcd13ifvqcc0","pricing_plan_id":"cebpf4jnsgd1na2vs0mg"},{"bike_id":"eb153995-5d33-4b1d-a5c0-ee8cc4302ea8","system_id":"levelo_inurba_marseille","lat":43.26586,"lon":5.39024,"is_reserved":false,"is_disabled":false,"rental_uris":{"android":"levelo://app?vid=eb153995-5d33-4b1d-a5c0-ee8cc4302ea8","ios":"levelo://app?vid=eb153995-5d33-4b1d-a5c0-ee8cc4302ea8"},"vehicle_type_id":"4","last_reported":1770832179,"current_range_meters":9200,"station_id":"ce4bhe12rcd13ifvqf30","pricing_plan_id":"cebpf4jnsgd1na2vs0mg"},{"bike_id":"adedccca-d77d-4967-91ed-2661b5b510ba","system_id":"levelo_inurba_marseille","lat":43.22566,"lon":5.41628,"is_reserved":false,"is_disabled":false,"rental_uris":{"android":"levelo://app?vid=adedccca-d77d-4967-91ed-2661b5b510ba","ios":"levelo://app?vid=adedccca-d77d-4967-91ed-2661b5b510ba"},"vehicle_type_id":"4","last_reported":1770832179,"current_range_meters":9200,"station_id":"st_d2o4gvlbi1j2169b742g","pricing_plan_id":"cebpf4jnsgd1na2vs0mg"},{"bike_id":"8e298756-702e-457c-bb9c-74d840066687","system_id":"levelo_inurba_marseille","lat":43.29014,"lon":5.35607,"is_reserved":false,"is_disabled":false,"rental_uris":{"android":"levelo://app?vid=8e298756-702e-457c-bb9c-74d840066687","ios":"levelo://app?vid=8e298756-702e-457c-bb9c-74d840066687"},"vehicle_type_id":"4","last_reported":1770832179,"current_range_meters":9200,"station_id":"ce4bhb92rcd13ifvqen0","pricing_plan_id":"cebpf4jnsgd1na2vs0mg"},{"bike_id":"f80528f9-6bb1-4b22-a63c-5e57ad403fb2","system_id":"levelo_inurba_marseille","lat":43.246646,"lon":5.381531,"is_reserved":false,"is_disabled":false,"rental_uris":{"android":"levelo://app?vid=f80528f9-6bb1-4b22-a63c-5e57ad403fb2","ios":"levelo://app?vid=f80528f9-6bb1-4b22-a63c-5e57ad403fb2"},"vehicle_type_id":"4","last_reported":1770832179,"current_range_meters":9200,"station_id":"ce4bhih2rcd13ifvqfr0","pricing_plan_id":"cebpf4jnsgd1na2vs0mg"},{"bike_id":"d8235bb3-ced0-4538-8779-5c4cfba20209","system_id":"levelo_inurba_marseille","lat":43.2954,"lon":5.38531,"is_reserved":false,"is_disabled":false,"rental_uris":{"android":"levelo://app?vid=d8235bb3-ced0-4538-8779-5c4cfba20209","ios":"levelo://app?vid=d8235bb3-ced0-4538-8779-5c4cfba20209"},"vehicle_type_id":"4","last_reported":1770832179,"current_range_meters":9200,"station_id":"ce4bgih2rcd13ifvqba0","pricing_plan_id":"cebpf4jnsgd1na2vs0mg"},{"bike_id":"661c1ad9-8e78-490b-aa77-0dd317a910f6","system_id":"levelo_inurba_marseille","lat":43.27204,"lon":5.39181,"is_reserved":false,"is_disabled":true,"rental_uris":{"android":"levelo://app?vid=661c1ad9-8e78-490b-aa77-0dd317a910f6","ios":"levelo://app?vid=661c1ad9-8e78-490b-aa77-0dd317a910f6"},"vehicle_type_id":"4","last_reported":1770832179,"current_range_meters":9200,"station_id":"ce4bhhp2rcd13ifvqfm0","pricing_plan_id":"cebpf4jnsgd1na2vs0mg"},{"bike_id":"e227fe4a-89b1-4803-83da-7a01b48de28a","system_id":"levelo_inurba_marseille","lat":43.27802,"lon":5.4072,"is_reserved":false,"is_disabled":false,"rental_uris":{"android":"levelo://app?vid=e227fe4a-89b1-4803-83da-7a01b48de28a","ios":"levelo://app?vid=e227fe4a-89b1-4803-83da-7a01b48de28a"},"vehicle_type_id":"4","last_reported":1770832179,"current_range_meters":9200,"station_id":"ce4bhnh2rcd13ifvqgtg","pricing_plan_id":"cebpf4jnsgd1na2vs0mg"},{"bike_id":"e6191106-931c-4b85-a4d8-214c1c34ad15","system_id":"levelo_inurba_marseille","lat":43.30146,"lon":5.39879,"is_reserved":false,"is_disabled":false,"rental_uris":{"android":"levelo://app?vid=e6191106-931c-4b85-a4d8-214c1c34ad15","ios":"levelo://app?vid=e6191106-931c-4b85-a4d8-214c1c34ad15"},"vehicle_type_id":"4","last_reported":1770832179,"current_range_meters":9200,"station_id":"ce4bh0h2rcd13ifvqd40","pricing_plan_id":"cebpf4jnsgd1na2vs0mg"},{"bike_id":"8bc06c3d-9e42-4386-974b-fe6c24a34ad1","system_id":"levelo_inurba_marseille","lat":43.24177,"lon":5.39725,"is_reserved":false,"is_disabled":false,"rental_uris":{"android":"levelo://app?vid=8bc06c3d-9e42-4386-974b-fe6c24a34ad1","ios":"levelo://app?vid=8bc06c3d-9e42-4386-974b-fe6c24a34ad1"},"vehicle_type_id":"4","last_reported":1770832179,"current_range_meters":9200,"station_id":"ce4bhn12rcd13ifvqgpg","pricing_plan_id":"cebpf4jnsgd1na2vs0mg"},{"bike_id":"1471954e-949e-4221-97db-198cb054fb49","system_id":"levelo_inurba_marseille","lat":43.249493,"lon":5.404855,"is_reserved":false,"is_disabled":false,"rental_uris":{"android":"levelo://app?vid=1471954e-949e-4221-97db-198cb054fb49","ios":"levelo://app?vid=1471954e-949e-4221-97db-198cb054fb49"},"vehicle_type_id":"4","last_reported":1770832179,"current_range_meters":9200,"station_id":"st_d2ngiaodas8pm72gd1h0","pricing_plan_id":"cebpf4jnsgd1na2vs0mg"},{"bike_id":"cb9be5fc-0f8f-4012-b222-62b158765b42","system_id":"levelo_inurba_marseille","lat":43.22933,"lon":5.35372,"is_reserved":false,"is_disabled":false,"rental_uris":{"android":"levelo://app?vid=cb9be5fc-0f8f-4012-b222-62b158765b42","ios":"levelo://app?vid=cb9be5fc-0f8f-4012-b222-62b158765b42"},"vehicle_type_id":"4","last_reported":1770832179,"current_range_meters":9200,"station_id":"cpo3532slgdg3j2ikp40","pricing_plan_id":"cebpf4jnsgd1na2vs0mg"},{"bike_id":"31a7a706-1ff4-486d-b0ea-aa0afb881a3f","system_id":"levelo_inurba_marseille","lat":43.310687,"lon":5.384896,"is_reserved":false,"is_disabled":false,"rental_uris":{"android":"levelo://app?vid=31a7a706-1ff4-486d-b0ea-aa0afb881a3f","ios":"levelo://app?vid=31a7a706-1ff4-486d-b0ea-aa0afb881a3f"},"vehicle_type_id":"4","last_reported":1770832179,"current_range_meters":9200,"station_id":"","pricing_plan_id":"cebpf4jnsgd1na2vs0mg"},{"bike_id":"48e51c2c-d55f-4098-8ec5-eb37bd86ae9a","system_id":"levelo_inurba_marseille","lat":43.2838,"lon":5.38982,"is_reserved":false,"is_disabled":false,"rental_uris":{"android":"levelo://app?vid=48e51c2c-d55f-4098-8ec5-eb37bd86ae9a","ios":"levelo://app?vid=48e51c2c-d55f-4098-8ec5-eb37bd86ae9a"},"vehicle_type_id":"4","last_reported":1770832179,"current_range_meters":9200,"station_id":"","pricing_plan_id":"cebpf4jnsgd1na2vs0mg"},{"bike_id":"81fc0b48-1938-4b6b-886e-128544c5bb9e","system_id":"levelo_inurba_marseille","lat":43.30473,"lon":5.36565,"is_reserved":false,"is_disabled":false,"rental_uris":{"android":"levelo://app?vid=81fc0b48-1938-4b6b-886e-128544c5bb9e","ios":"levelo://app?vid=81fc0b48-1938-4b6b-886e-128544c5bb9e"},"vehicle_type_id":"4","last_reported":1770832179,"current_range_meters":9200,"station_id":"","pricing_plan_id":"cebpf4jnsgd1na2vs0mg"},