{"last_updated":1701076077,"ttl":30,"version":"2.2","data":{"bikes":[{"bike_id":"1e80ff6f-214d-452e-a1df-88c480549762","system_id":"levelo_inurba_marseille","lat":43.313391,"lon":5.36706,"is_reserved":false,"is_disabled":false,"rental_uris":{"android":"levelo://app?vid=1e80ff6f-214d-452e-a1df-88c480549762","ios":"levelo://app?vid=1e80ff6f-214d-452e-a1df-88c480549762"},"vehicle_type_id":"4","last_reported":1701076077,"current_range_meters":31600,"station_id":"ce4bgr92rcd13ifvqc6g","pricing_plan_id":"free"},{"bike_id":"db9a7054-537e-4d0b-9cd0-e439bf725d4d","system_id":"levelo_inurba_marseille","lat":43.313391,"lon":5.36706,"is_reserved":false,"is_disabled":false,"rental_uris":{"android":"levelo://app?vid=db9a7054-537e-4d0b-9cd0-e439bf725d4d","ios":"levelo://app?vid=db9a7054-537e-4d0b-9cd0-e439bf725d4d"},"vehicle_type_id":"4","last_reported":1701076077,"current_range_meters":22000,"station_id":"ce4bgr92rcd13ifvqc6g","pricing_plan_id":"free"},{"bike_id":"7a49c674-02e5-4194-aa5f-be20151e8ae9","system_id":"levelo_inurba_marseille","lat":43.313391,"lon":5.36706,"is_reserved":false,"is_disabled":false,"rental_uris":{"android":"levelo://app?vid=7a49c674-02e5-4194-aa5f-be20151e8ae9","ios":"levelo://app?vid=7a49c674-02e5-4194-aa5f-be20151e8ae9"},"vehicle_type_id":"4","last_reported":1701076077,"current_range_meters":19600,"station_id":"ce4bgr92rcd13ifvqc6g","pricing_plan_id":"free"},{"bike_id":"6d6fe16b-8fcd-4dda-95b2-f6e72b00fabb","system_id":"levelo_inurba_marseille","lat":43.313391,"lon":5.36706,"is_reserved":false,"is_disabled":false,"rental_uris":{"android":"levelo://app?vid=6d6fe16b-8fcd-4dda-95b2-f6e72b00fabb","ios":"levelo://app?vid=6d6fe16b-8fcd-4dda-95b2-f6e72b00fabb"},"vehicle_type_id":"4","last_reported":1701076077,"current_range_meters":27200,"station_id":"ce4bgr92rcd13ifvqc6g","pricing_plan_id":"free"},{"bike_id":"dbd22c5b-f318-460a-95cd-c007a476a760","system_id":"levelo_inurba_marseille","lat":43.31341,"lon":5.367098,"is_reserved":false,"is_disabled":false,"rental_uris":{"android":"levelo://app?vid=dbd22c5b-f318-460a-95cd-c007a476a760","ios":"levelo://app?vid=dbd22c5b-f318-460a-95cd-c007a476a760"},"vehicle_type_id":"4","last_reported":1701076077,"current_range_meters":27600,"station_id":"ce4bgr92rcd13ifvqc6g","pricing_plan_id":"free"},{"bike_id":"7e426172-5489-45eb-b667-9fa774e25806","system_id":"levelo_inurba_marseille","lat":43.313391,"lon":5.36706,"is_reserved":false,"is_disabled":false,"rental_uris":{"android":"levelo://app?vid=7e426172-5489-45eb-b667-9fa774e25806","ios":"levelo://app?vid=7e426172-5489-45eb-b667-9fa774e25806"},"vehicle_type_id":"4","last_reported":1701076077,"current_range_meters":18800,"station_id":"ce4bgr92rcd13ifvqc6g","pricing_plan_id":"free"},{"bike_id":"f79e56b7-07fc-4cbb-8c5f-1219abdbaaa0","system_id":"levelo_inurba_marseille","lat":43.31341,"lon":5.367098,"is_reserved":false,"is_disabled":false,"rental_uris":{"android":"levelo://app?vid=f79e56b7-07fc-4cbb-8c5f-1219abdbaaa0","ios":"levelo://app?vid=f79e56b7-07fc-4cbb-8c5f-1219abdbaaa0"},"vehicle_type_id":"4","last_reported":1701076077,"current_range_meters":14400,"station_id":"ce4bgr92rcd13ifvqc6g","pricing_plan_id":"free"},{"bike_id":"0181b0ac-1d1e-43e1-bcf7-6197a5307a14","system_id":"levelo_inurba_marseille","lat":43.313391,"lon":5.36706,"is_reserved":false,"is_disabled":false,"rental_uris":{"android":"levelo://app?vid=0181b0ac-1d1e-43e1-bcf7-6197a5307a14","ios":"levelo://app?vid=0181b0ac-1d1e-43e1-bcf7-6197a5307a14"},"vehicle_type_id":"4","last_reported":1701076077,"current_range_meters":31600,"station_id":"ce4bgr92rcd13ifvqc6g","pricing_plan_id":"free"},{"bike_id":"3214e857-702f-4f77-a7ed-15c1738fb98d","system_id":"levelo_inurba_marseille","lat":43.313391,"lon":5.36706,"is_reserved":false,"is_disabled":false,"rental_uris":{"android":"levelo://app?vid=3214e857-702f-4f77-a7ed-15c1738fb98d","ios":"levelo://app?vid=3214e857-702f-4f77-a7ed-15c1738fb98d"},"vehicle_type_id":"4","last_reported":1701076077,"current_range_meters":17200,"station_id":"ce4bgr92rcd13ifvqc6g","pricing_plan_id":"free"},{"bike_id":"0e07f4dc-f05c-4a47-a7fc-9cf5a2bc7aff","system_id":"levelo_inurba_marseille","lat":43.31341,"lon":5.367098,"is_reserved":false,"is_disabled":false,"rental_uris":{"android":"levelo://app?vid=0e07f4dc-f05c-4a47-a7fc-9cf5a2bc7aff","ios":"levelo://app?vid=0e07f4dc-f05c-4a47-a7fc-9cf5a2bc7aff"},"vehicle_type_id":"4","last_reported":1701076077,"current_range_meters":30800,"station_id":"ce4bgr92rcd13ifvqc6g","pricing_plan_id":"free"},{"bike_id":"d91cb1a5-9e69-484c-aa49-7e1232aa7a8e","system_id":"levelo_inurba_marseille","lat":43.31341,"lon":5.367098,"is_reserved":false,"is_disabled":false,"rental_uris":{"android":"levelo://app?vid=d91cb1a5-9e69-484c-aa49-7e1232aa7a8e","ios":"levelo://app?vid=d91cb1a5-9e69-484c-aa49-7e1232aa7a8e"},"vehicle_type_id":"4","last_reported":1701076077,"current_range_meters":4400,"station_id":"ce4bgr92rcd13ifvqc6g","pricing_plan_id":"free"},{"bike_id":"196ffaf2-63f9-4e0e-beee-cd70322d6dc7","system_id":"levelo_inurba_marseille","lat":43.31341,"lon":5.367098,"is_reserved":false,"is_disabled":false,"rental_uris":{"android":"levelo://app?vid=196ffaf2-63f9-4e0e-beee-cd70322d6dc7","ios":"levelo://app?vid=196ffaf2-63f9-4e0e-beee-cd70322d6dc7"},"vehicle_type_id":"4","last_reported":1701076077,"current_range_meters":9600,"station_id":"ce4bgr92rcd13ifvqc6g","pricing_plan_id":"free"},{"bike_id":"8d7fd8e2-e915-4a9b-ac22-a9a9c8c23e6d","system_id":"levelo_inurba_marseille","lat":43.31341,"lon":5.367098,"is_reserved":false,"is_disabled":false,"rental_uris":{"android":"levelo://app?vid=8d7fd8e2-e915-4a9b-ac22-a9a9c8c23e6d","ios":"levelo://app?vid=8d7fd8e2-e915-4a9b-ac22-a9a9c8c23e6d"},"vehicle_type_id":"4","last_reported":1701076077,"current_range_meters":27600,"station_id":"ce4bgr92rcd13ifvqc6g","pricing_plan_id":"free"},{"bike_id":"df7f1710-213d-4be5-86a8-93f4a5b41e94","system_id":"levelo_inurba_marseille","lat":43.312239,"lon":5.368562,"is_reserved":false,"is_disabled":false,"rental_uris":{"android":"levelo://app?vid=df7f1710-213d-4be5-86a8-93f4a5b41e94","ios":"levelo://app?vid=df7f1710-213d-4be5-86a8-93f4a5b41e94"},"vehicle_type_id":"4","last_reported":1701076077,"current_range_meters":30400,"station_id":"ce4bgl92rcd13ifvqbq0","pricing_plan_id":"free"},{"bike_id":"e627dfde-acbe-4c06-9bf7-27e07c1460dc","system_id":"levelo_inurba_marseille","lat":43.312239,"lon":5.368562,"is_reserved":false,"is_disabled":false,"rental_uris":{"android":"levelo://app?vid=e627dfde-acbe-4c06-9bf7-27e07c1460dc","ios":"levelo://app?vid=e627dfde-acbe-4c06-9bf7-27e07c1460dc"},"vehicle_type_id":"4","last_reported":1701076077,"current_range_meters":9200,"station_id":"ce4bgl92rcd13ifvqbq0","pricing_plan_id":"free"},{"bike_id":"3f4bb95c-17eb-41cb-acba-031236674845","system_id":"levelo_inurba_marseille","lat":43.312239,"lon":5.368562,"is_reserved":false,"is_disabled":false,"rental_uris":{"android":"levelo://app?vid=3f4bb95c-17eb-41cb-acba-031236674845","ios":"levelo://app?vid=3f4bb95c-17eb-41cb-acba-031236674845"},"vehicle_type_id":"4","last_reported":1701076077,"current_range_meters":24400,"station_id":"ce4bgl92rcd13ifvqbq0","pricing_plan_id":"free"},{"bike_id":"5f626779-59bd-43fb-af78-243566591450","system_id":"levelo_inurba_marseille","lat":43.312239,"lon":5.368562,"is_reserved":false,"is_disabled":false,"rental_uris":{"android":"levelo://app?vid=5f626779-59bd-43fb-af78-243566591450","ios":"levelo://app?vid=5f626779-59bd-43fb-af78-243566591450"},"vehicle_type_id":"4","last_reported":1701076077,"current_range_meters":21600,"station_id":"ce4bgl92rcd13ifvqbq0","pricing_plan_id":"free"},{"bike_id":"54a3edee-7dd6-450a-95cb-5e8e3887766b","system_id":"levelo_inurba_marseille","lat":43.312239,"lon":5.368562,"is_reserved":false,"is_disabled":false,"rental_uris":{"android":"levelo://app?vid=54a3edee-7dd6-450a-95cb-5e8e3887766b","ios":"levelo://app?vid=54a3edee-7dd6-450a-95cb-5e8e3887766b"},"vehicle_type_id":"4","last_reported":1701076077,"current_range_meters":24800,"station_id":"ce4bgl92rcd13ifvqbq0","pricing_plan_id":"free"},{"bike_id":"12ba8f6d-2b00-46a4-b742-3c11d58ec4b2","system_id":"levelo_inurba_marseille","lat":43.312239,"lon":5.368562,"is_reserved":false,"is_disabled":false,"rental_uris":{"android":"levelo://app?vid=12ba8f6d-2b00-46a4-b742-3c11d58ec4b2","ios":"levelo://app?vid=12ba8f6d-2b00-46a4-b742-3c11d58ec4b2"},"vehicle_type_id":"4","last_reported":1701076077,"current_range_meters":16800,"station_id":"ce4bgl92rcd13ifvqbq0","pricing_plan_id":"free"},{"bike_id":"83ebfac8-dbe6-444d-b597-d89673b1bcc5","system_id":"levelo_inurba_marseille","lat":43.309076,"lon":5.368465,"is_reserved":false,"is_disabled":false,"rental_uris":{"android":"levelo://app?vid=83ebfac8-dbe6-444d-b597-d89673b1bcc5","ios":"levelo://app?vid=83ebfac8-dbe6-444d-b597-d89673b1bcc5"},"vehicle_type_id":"4","last_reported":1701076077,"current_range_meters":30400,"station_id":"ce4bgn92rcd13ifvqbvg","pricing_plan_id":"free"},{"bike_id":"592bf423-8cd0-4d0b-97bd-bc6ceb739d49","system_id":"levelo_inurba_marseille","lat":43.309076,"lon":5.368465,"is_reserved":false,"is_disabled":false,"rental_uris":{"android":"levelo://app?vid=592bf423-8cd0-4d0b-97bd-bc6ceb739d49","ios":"levelo://app?vid=592bf423-8cd0-4d0b-97bd-bc6ceb739d49"},"vehicle_type_id":"4","last_reported":1701076077,"current_range_meters":29600,"station_id":"ce4bgn92rcd13ifvqbvg","pricing_plan_id":"free"},{"bike_id":"c0bb7f49-ff87-427d-b841-623849910a14","system_id":"levelo_inurba_marseille","lat":43.309076,"lon":5.368465,"is_reserved":false,"is_disabled":false,"rental_uris":{"android":"levelo://app?vid=c0bb7f49-ff87-427d-b841-623849910a14","ios":"levelo://app?vid=c0bb7f49-ff87-427d-b841-623849910a14"},"vehicle_type_id":"4","last_reported":1701076077,"current_range_meters":24800,"station_id":"ce4bgn92rcd13ifvqbvg","pricing_plan_id":"free"},{"bike_id":"1a4569e2-f9a1-40c3-9474-5ecbcdd8e5ad","system_id":"levelo_inurba_marseille","lat":43.309076,"lon":5.368465,"is_reserved":false,"is_disabled":false,"rental_uris":{"android":"levelo://app?vid=1a4569e2-f9a1-40c3-9474-5ecbcdd8e5ad","ios":"levelo://app?vid=1a4569e2-f9a1-40c3-9474-5ecbcdd8e5ad"},"vehicle_type_id":"4","last_reported":1701076077,"current_range_meters":25200,"station_id":"ce4bgn92rcd13ifvqbvg","pricing_plan_id":"free"},{"bike_id":"8678b2b8-c06c-49e1-9031-4e114abe705f","system_id":"levelo_inurba_marseille","lat":43.309076,"lon":5.368465,"is_reserved":false,"is_disabled":false,"rental_uris":{"android":"levelo://app?vid=8678b2b8-c06c-49e1-9031-4e114abe705f","ios":"levelo://app?vid=8678b2b8-c06c-49e1-9031-4e114abe705f"},"vehicle_type_id":"4","last_reported":1701076077,"current_range_meters":31600,"station_id":"ce4bgn92rcd13ifvqbvg","pricing_plan_id":"free"},{"bike_id":"cfa47124-069d-4f93-a30b-8ce1195b2bbf","system_id":"levelo_inurba_marseille","lat":43.314811,"lon":5.373103,"is_reserved":false,"is_disabled":false,"rental_uris":{"android":"levelo://app?vid=cfa47124-069d-4f93-a30b-8ce1195b2bbf","ios":"levelo://app?vid=cfa47124-069d-4f93-a30b-8ce1195b2bbf"},"vehicle_type_id":"4","last_reported":1701076077,"current_range_meters":23600,"station_id":"ce4bgt12rcd13ifvqcd0","pricing_plan_id":"free"},{"bike_id":"81ffdd85-4673-4f49-b9e9-370868a105db","system_id":"levelo_inurba_marseille","lat":43.309039,"lon":5.371797,"is_reserved":false,"is_disabled":false,"rental_uris":{"android":"levelo://app?vid=81ffdd85-4673-4f49-b9e9-370868a105db","ios":"levelo://app?vid=81ffdd85-4673-4f49-b9e9-370868a105db"},"vehicle_type_id":"4","last_reported":1701076077,"current_range_meters":17600,"station_id":"ce4bguh2rcd13ifvqckg","pricing_plan_id":"free"},{"bike_id":"935986d5-a138-44eb-9827-6dce0600acff","system_id":"levelo_inurba_marseille","lat":43.309039,"lon":5.371797,"is_reserved":false,"is_disabled":false,"rental_uris":{"android":"levelo://app?vid=935986d5-a138-44eb-9827-6dce0600acff","ios":"levelo://app?vid=935986d5-a138-44eb-9827-6dce0600acff"},"vehicle_type_id":"4","last_reported":1701076077,"current_range_meters":27600,"station_id":"ce4bguh2rcd13ifvqckg","pricing_plan_id":"free"},{"bike_id":"105051de-74b1-4631-9109-55a1bdebb04d","system_id":"levelo_inurba_marseille","lat":43.309039,"lon":5.371797,"is_reserved":false,"is_disabled":false,"rental_uris":{"android":"levelo://app?vid=105051de-74b1-4631-9109-55a1bdebb04d","ios":"levelo://app?vid=105051de-74b1-4631-9109-55a1bdebb04d"},"vehicle_type_id":"4","last_reported":1701076077,"current_range_meters":8400,"station_id":"ce4bguh2rcd13ifvqckg","pricing_plan_id":"free"},{"bike_id":"fa4c08a8-f79b-4419-8791-02374ece74c7","system_id":"levelo_inurba_marseille","lat":43.316933,"lon":5.372657,"is_reserved":false,"is_disabled":false,"rental_uris":{"android":"levelo://app?vid=fa4c08a8-f79b-4419-8791-02374ece74c7","ios":"levelo://app?vid=fa4c08a8-f79b-4419-8791-02374ece74c7"},"vehicle_type_id":"4","last_reported":1701076077,"current_range_meters":6800,"station_id":"","pricing_plan_id":"free"},{"bike_id":"07dd9e58-e5cc-4d6a-b664-833180db3f6b","system_id":"levelo_inurba_marseille","lat":43.305368,"lon":5.367343,"is_reserved":false,"is_disabled":false,"rental_uris":{"android":"levelo://app?vid=07dd9e58-e5cc-4d6a-b664-833180db3f6b","ios":"levelo://app?vid=07dd9e58-e5cc-4d6a-b664-833180db3f6b"},"vehicle_type_id":"4","last_reported":1701076077,"current_range_meters":24400,"station_id":"ce4bgrp2rcd13ifvqc9g","pricing_plan_id":"free"},{"bike_id":"d783f12e-d0e4-46f2-9f03-268448d77314","system_id":"levelo_inurba_marseille","lat":43.30539,"lon":5.36727,"is_reserved":false,"is_disabled":false,"rental_uris":{"android":"levelo://app?vid=d783f12e-d0e4-46f2-9f03-268448d77314","ios":"levelo://app?vid=d783f12e-d0e4-46f2-9f03-268448d77314"},"vehicle_type_id":"4","last_reported":1701076077,"current_range_meters":17600,"station_id":"ce4bgrp2rcd13ifvqc9g","pricing_plan_id":"free"},{"bike_id":"b1cb7dd5-7e1e-4b8f-a0e9-4c4fdc0f6c22","system_id":"levelo_inurba_marseille","lat":43.305714,"lon":5.365633,"is_reserved":false,"is_disabled":false,"rental_uris":{"android":"levelo://app?vid=b1cb7dd5-7e1e-4b8f-a0e9-4c4fdc0f6c22","ios":"levelo://app?vid=b1cb7dd5-7e1e-4b8f-a0e9-4c4fdc0f6c22"},"vehicle_type_id":"4","last_reported":1701076077,"current_range_meters":26400,"station_id":"ce4bgs12rcd13ifvqcag","pricing_plan_id":"free"},{"bike_id":"1c8b667d-3f74-4307-ad41-8e61e63a63f7","system_id":"levelo_inurba_marseille","lat":43.30536,"lon":5.36715,"is_reserved":false,"is_disabled":false,"rental_uris":{"android":"levelo://app?vid=1c8b667d-3f74-4307-ad41-8e61e63a63f7","ios":"levelo://app?vid=1c8b667d-3f74-4307-ad41-8e61e63a63f7"},"vehicle_type_id":"4","last_reported":1701076077,"current_range_meters":22000,"station_id":"ce4bgrp2rcd13ifvqc9g","pricing_plan_id":"free"},{"bike_id":"9161c445-e810-419e-81cf-7ccecee3ce08","system_id":"levelo_inurba_marseille","lat":43.305714,"lon":5.365633,"is_reserved":false,"is_disabled":false,"rental_uris":{"android":"levelo://app?vid=9161c445-e810-419e-81cf-7ccecee3ce08","ios":"levelo://app?vid=9161c445-e810-419e-81cf-7ccecee3ce08"},"vehicle_type_id":"4","last_reported":1701076077,"current_range_meters":16000,"station_id":"ce4bgs12rcd13ifvqcag","pricing_plan_id":"free"},{"bike_id":"a7e7b01c-cece-48de-97be-e5c04ce16e86","system_id":"levelo_inurba_marseille","lat":43.305714,"lon":5.365633,"is_reserved":false,"is_disabled":false,"rental_uris":{"android":"levelo://app?vid=a7e7b01c-cece-48de-97be-e5c04ce16e86","ios":"levelo://app?vid=a7e7b01c-cece-48de-97be-e5c04ce16e86"},"vehicle_type_id":"4","last_reported":1701076077,"current_range_meters":22000,"station_id":"ce4bgs12rcd13ifvqcag","pricing_plan_id":"free"},{"bike_id":"2268a2f4-fb49-46e5-bac7-c552d506e322","system_id":"levelo_inurba_marseille","lat":43.305714,"lon":5.365633,"is_reserved":false,"is_disabled":false,"rental_uris":{"android":"levelo://app?vid=2268a2f4-fb49-46e5-bac7-c552d506e322","ios":"levelo://app?vid=2268a2f4-fb49-46e5-bac7-c552d506e322"},"vehicle_type_id":"4","last_reported":1701076077,"current_range_meters":18000,"station_id":"ce4bgs12rcd13ifvqcag","pricing_plan_id":"free"},{"bike_id":"d7ba5940-f446-4600-92e5-efceffee6cf7","system_id":"levelo_inurba_marseille","lat":43.305368,"lon":5.367343,"is_reserved":false,"is_disabled":false,"rental_uris":{"android":"levelo://app?vid=d7ba5940-f446-4600-92e5-efceffee6cf7","ios":"levelo://app?vid=d7ba5940-f446-4600-92e5-efceffee6cf7"},"vehicle_type_id":"4","last_reported":1701076077,"current_range_meters":28400,"station_id":"ce4bgrp2rcd13ifvqc9g","pricing_plan_id":"free"},{"bike_id":"f8e46a7e-6953-452a-80e1-dd49ee8b550c","system_id":"levelo_inurba_marseille","lat":43.305336,"lon":5.36696,"is_reserved":false,"is_disabled":false,"rental_uris":{"android":"levelo://app?vid=f8e46a7e-6953-452a-80e1-dd49ee8b550c","ios":"levelo://app?vid=f8e46a7e-6953-452a-80e1-dd49ee8b550c"},"vehicle_type_id":"4","last_reported":1701076077,"current_range_meters":28400,"station_id":"ce4bgrp2rcd13ifvqc9g","pricing_plan_id":"free"},{"bike_id":"f76f91fc-a8e2-4cd3-980d-1622fb650a47","system_id":"levelo_inurba_marseille","lat":43.305706,"lon":5.365654,"is_reserved":false,"is_disabled":false,"rental_uris":{"android":"levelo://app?vid=f76f91fc-a8e2-4cd3-980d-1622fb650a47","ios":"levelo://app?vid=f76f91fc-a8e2-4cd3-980d-1622fb650a47"},"vehicle_type_id":"4","last_reported":1701076077,"current_range_meters":24800,"station_id":"ce4bgs12rcd13ifvqcag","pricing_plan_id":"free"},{"bike_id":"e986844b-901f-45bc-ad75-e081ca31eb3c","system_id":"levelo_inurba_marseille","lat":43.305714,"lon":5.365633,"is_reserved":false,"is_disabled":false,"rental_uris":{"android":"levelo://app?vid=e986844b-901f-45bc-ad75-e081ca31eb3c","ios":"levelo://app?vid=e986844b-901f-45bc-ad75-e081ca31eb3c"},"vehicle_type_id":"4","last_reported":1701076077,"current_range_meters":31600,"station_id":"ce4bgs12rcd13ifvqcag","pricing_plan_id":"free"},{"bike_id":"9798151f-f90c-4ba8-8293-cbf829f759b7","system_id":"levelo_inurba_marseille","lat":43.305714,"lon":5.365633,"is_reserved":false,"is_disabled":false,"rental_uris":{"android":"levelo://app?vid=9798151f-f90c-4ba8-8293-cbf829f759b7","ios":"levelo://app?vid=9798151f-f90c-4ba8-8293-cbf829f759b7"},"vehicle_type_id":"4","last_reported":1701076077,"current_range_meters":17200,"station_id":"ce4bgs12rcd13ifvqcag","pricing_plan_id":"free"},{"bike_id":"f6811842-2f1e-46ac-a3b0-f0446229545b","system_id":"levelo_inurba_marseille","lat":43.305368,"lon":5.367343,"is_reserved":false,"is_disabled":false,"rental_uris":{"android":"levelo://app?vid=f6811842-2f1e-46ac-a3b0-f0446229545b","ios":"levelo://app?vid=f6811842-2f1e-46ac-a3b0-f0446229545b"},"vehicle_type_id":"4","last_reported":1701076077,"current_range_meters":28400,"station_id":"ce4bgrp2rcd13ifvqc9g","pricing_plan_id":"free"},{"bike_id":"9d01288a-b778-4e24-9b58-220029914c9c","system_id":"levelo_inurba_marseille","lat":43.305706,"lon":5.365654,"is_reserved":false,"is_disabled":false,"rental_uris":{"android":"levelo://app?vid=9d01288a-b778-4e24-9b58-220029914c9c","ios":"levelo://app?vid=9d01288a-b778-4e24-9b58-220029914c9c"},"vehicle_type_id":"4","last_reported":1701076077,"current_range_meters":30000,"station_id":"ce4bgs12rcd13ifvqcag","pricing_plan_id":"free"},{"bike_id":"9fe00c74-8b57-4511-aea7-8ad72fa7a323","system_id":"levelo_inurba_marseille","lat":43.305706,"lon":5.365654,"is_reserved":false,"is_disabled":false,"rental_uris":{"android":"levelo://app?vid=9fe00c74-8b57-4511-aea7-8ad72fa7a323","ios":"levelo://app?vid=9fe00c74-8b57-4511-aea7-8ad72fa7a323"},"vehicle_type_id":"4","last_reported":1701076077,"current_range_meters":18000,"station_id":"ce4bgs12rcd13ifvqcag","pricing_plan_id":"free"},{"bike_id":"b8e365a6-6a66-4a78-b657-345f5ded0eac","system_id":"levelo_inurba_marseille","lat":43.30529,"lon":5.36722,"is_reserved":false,"is_disabled":false,"rental_uris":{"android":"levelo://app?vid=b8e365a6-6a66-4a78-b657-345f5ded0eac","ios":"levelo://app?vid=b8e365a6-6a66-4a78-b657-345f5ded0eac"},"vehicle_type_id":"4","last_reported":1701076077,"current_range_meters":14400,"station_id":"ce4bgrp2rcd13ifvqc9g","pricing_plan_id":"free"},{"bike_id":"197b67a4-a9ac-42b1-91a9-2afbb865edce","system_id":"levelo_inurba_marseille","lat":43.305706,"lon":5.365654,"is_reserved":false,"is_disabled":false,"rental_uris":{"android":"levelo://app?vid=197b67a4-a9ac-42b1-91a9-2afbb865edce","ios":"levelo://app?vid=197b67a4-a9ac-42b1-91a9-2afbb865edce"},"vehicle_type_id":"4","last_reported":1701076077,"current_range_meters":10400,"station_id":"ce4bgs12rcd13ifvqcag","pricing_plan_id":"free"},{"bike_id":"1e704650-e46b-4c96-8a2f-660240057434","system_id":"levelo_inurba_marseille","lat":43.305706,"lon":5.365654,"is_reserved":false,"is_disabled":false,"rental_uris":{"android":"levelo://app?vid=1e704650-e46b-4c96-8a2f-660240057434","ios":"levelo://app?vid=1e704650-e46b-4c96-8a2f-660240057434"},"vehicle_type_id":"4","last_reported":1701076077,"current_range_meters":30800,"station_id":"ce4bgs12rcd13ifvqcag","pricing_plan_id":"free"},{"bike_id":"a178d0dc-f1a4-44e9-a3a5-7b90431c6dd4","system_id":"levelo_inurba_marseille","lat":43.306029,"lon":5.372209,"is_reserved":false,"is_disabled":false,"rental_uris":{"android":"levelo://app?vid=a178d0dc-f1a4-44e9-a3a5-7b90431c6dd4","ios":"levelo://app?vid=a178d0dc-f1a4-44e9-a3a5-7b90431c6dd4"},"vehicle_type_id":"4","last_reported":1701076077,"current_range_meters":0,"station_id":"ce4bgqh2rcd13ifvqc4g","pricing_plan_id":"free"},{"bike_id":"da10c102-856f-4cea-9d62-84b320bdade7","system_id":"levelo_inurba_marseille","lat":43.305989,"lon":5.37225,"is_reserved":false,"is_disabled":false,"rental_uris":{"android":"levelo://app?vid=da10c102-856f-4cea-9d62-84b320bdade7","ios":"levelo://app?vid=da10c102-856f-4cea-9d62-84b320bdade7"},"vehicle_type_id":"4","last_reported":1701076077,"current_range_meters":18000,"station_id":"ce4bgqh2rcd13ifvqc4g","pricing_plan_id":"free"},{"bike_id":"01680a82-507b-4f6a-aa52-433999b33490","system_id":"levelo_inurba_marseille","lat":43.305712,"lon":5.365641,"is_reserved":false,"is_disabled":false,"rental_uris":{"android":"levelo://app?vid=01680a82-507b-4f6a-aa52-433999b33490","ios":"levelo://app?vid=01680a82-507b-4f6a-aa52-433999b33490"},"vehicle_type_id":"4","last_reported":1701076077,"current_range_meters":28800,"station_id":"ce4bgs12rcd13ifvqcag","pricing_plan_id":"free"},{"bike_id":"420b9f97-3e98-4aff-a1ea-ed3794e31e8f","system_id":"levelo_inurba_marseille","lat":43.305989,"lon":5.37225,"is_reserved":false,"is_disabled":false,"rental_uris":{"android":"levelo://app?vid=420b9f97-3e98-4aff-a1ea-ed3794e31e8f","ios":"levelo://app?vid=420b9f97-3e98-4aff-a1ea-ed3794e31e8f"},"vehicle_type_id":"4","last_reported":1701076077,"current_range_meters":10400,"station_id":"ce4bgqh2rcd13ifvqc4g","pricing_plan_id":"free"},{"bike_id":"a038a2b2-02f4-4b6c-bb91-684dba1ed1cf","system_id":"levelo_inurba_marseille","lat":43.305989,"lon":5.37225,"is_reserved":false,"is_disabled":false,"rental_uris":{"android":"levelo://app?vid=a038a2b2-02f4-4b6c-bb91-684dba1ed1cf","ios":"levelo://app?vid=a038a2b2-02f4-4b6c-bb91-684dba1ed1cf"},"vehicle_type_id":"4","last_reported":1701076077,"current_range_meters":22000,"station_id":"ce4bgqh2rcd13ifvqc4g","pricing_plan_id":"free"},{"bike_id":"f427a2c3-6e4a-446b-ae2f-9be8aa7f4122","system_id":"levelo_inurba_marseille","lat":43.31719,"lon":5.376813,"is_reserved":false,"is_disabled":false,"rental_uris":{"android":"levelo://app?vid=f427a2c3-6e4a-446b-ae2f-9be8aa7f4122","ios":"levelo://app?vid=f427a2c3-6e4a-446b-ae2f-9be8aa7f4122"},"vehicle_type_id":"4","last_reported":1701076077,"current_range_meters":18000,"station_id":"ce4bgth2rcd13ifvqch0","pricing_plan_id":"free"},{"bike_id":"e913f328-1e31-4c22-bd87-f809ea246de4","system_id":"levelo_inurba_marseille","lat":43.317168,"lon":5.376883,"is_reserved":false,"is_disabled":false,"rental_uris":{"android":"levelo://app?vid=e913f328-1e31-4c22-bd87-f809ea246de4","ios":"levelo://app?vid=e913f328-1e31-4c22-bd87-f809ea246de4"},"vehicle_type_id":"4","last_reported":1701076077,"current_range_meters":20000,"station_id":"ce4bgth2rcd13ifvqch0","pricing_plan_id":"free"},{"bike_id":"4960cd84-5f51-4fcb-bf4f-043f77c0faa0","system_id":"levelo_inurba_marseille","lat":43.311527,"lon":5.378609,"is_reserved":false,"is_disabled":false,"rental_uris":{"android":"levelo://app?vid=4960cd84-5f51-4fcb-bf4f-043f77c0faa0","ios":"levelo://app?vid=4960cd84-5f51-4fcb-bf4f-043f77c0faa0"},"vehicle_type_id":"4","last_reported":1701076077,"current_range_meters":14400,"station_id":"","pricing_plan_id":"free"},{"bike_id":"bfa44d10-2349-4e3f-b242-25cbd14230cc","system_id":"levelo_inurba_marseille","lat":43.317064,"lon":5.37754,"is_reserved":false,"is_disabled":false,"rental_uris":{"android":"levelo://app?vid=bfa44d10-2349-4e3f-b242-25cbd14230cc","ios":"levelo://app?vid=bfa44d10-2349-4e3f-b242-25cbd14230cc"},"vehicle_type_id":"4","last_reported":1701076077,"current_range_meters":12800,"station_id":"ce4bgth2rcd13ifvqch0","pricing_plan_id":"free"},{"bike_id":"a80f348a-adbe-415b-8175-efc5cebf9a3a","system_id":"levelo_inurba_marseille","lat":43.31713,"lon":5.377616,"is_reserved":false,"is_disabled":false,"rental_uris":{"android":"levelo://app?vid=a80f348a-adbe-415b-8175-efc5cebf9a3a","ios":"levelo://app?vid=a80f348a-adbe-415b-8175-efc5cebf9a3a"},"vehicle_type_id":"4","last_reported":1701076077,"current_range_meters":31200,"station_id":"ce4bgth2rcd13ifvqch0","pricing_plan_id":"free"},{"bike_id":"094d8b68-22fb-4149-a392-e9b09e799330","system_id":"levelo_inurba_marseille","lat":43.301939,"lon":5.366286,"is_reserved":false,"is_disabled":false,"rental_uris":{"android":"levelo://app?vid=094d8b68-22fb-4149-a392-e9b09e799330","ios":"levelo://app?vid=094d8b68-22fb-4149-a392-e9b09e799330"},"vehicle_type_id":"4","last_reported":1701076077,"current_range_meters":19600,"station_id":"ce4bgrh2rcd13ifvqc8g","pricing_plan_id":"free"},{"bike_id":"b2631c2d-aefa-43ad-9f85-b96d4b842324","system_id":"levelo_inurba_marseille","lat":43.301939,"lon":5.366286,"is_reserved":false,"is_disabled":false,"rental_uris":{"android":"levelo://app?vid=b2631c2d-aefa-43ad-9f85-b96d4b842324","ios":"levelo://app?vid=b2631c2d-aefa-43ad-9f85-b96d4b842324"},"vehicle_type_id":"4","last_reported":1701076077,"current_range_meters":25200,"station_id":"ce4bgrh2rcd13ifvqc8g","pricing_plan_id":"free"},{"bike_id":"1e9d52e0-77c3-4844-8a96-ad03f7a7774e","system_id":"levelo_inurba_marseille","lat":43.301939,"lon":5.366286,"is_reserved":false,"is_disabled":false,"rental_uris":{"android":"levelo://app?vid=1e9d52e0-77c3-4844-8a96-ad03f7a7774e","ios":"levelo://app?vid=1e9d52e0-77c3-4844-8a96-ad03f7a7774e"},"vehicle_type_id":"4","last_reported":1701076077,"current_range_meters":15200,"station_id":"ce4bgrh2rcd13ifvqc8g","pricing_plan_id":"free"},{"bike_id":"fa07ec94-fe6b-446f-b694-4825bda29c5c","system_id":"levelo_inurba_marseille","lat":43.301939,"lon":5.366286,"is_reserved":false,"is_disabled":false,"rental_uris":{"android":"levelo://app?vid=fa07ec94-fe6b-446f-b694-4825bda29c5c","ios":"levelo://app?vid=fa07ec94-fe6b-446f-b694-4825bda29c5c"},"vehicle_type_id":"4","last_reported":1701076077,"current_range_meters":28000,"station_id":"ce4bgrh2rcd13ifvqc8g","pricing_plan_id":"free"},{"bike_id":"5a656d01-8fe4-4b54-8702-6ef3109fd3b9","system_id":"levelo_inurba_marseille","lat":43.308012,"lon":5.381511,"is_reserved":false,"is_disabled":false,"rental_uris":{"android":"levelo://app?vid=5a656d01-8fe4-4b54-8702-6ef3109fd3b9","ios":"levelo://app?vid=5a656d01-8fe4-4b54-8702-6ef3109fd3b9"},"vehicle_type_id":"4","last_reported":1701076077,"current_range_meters":0,"station_id":"ce4bgt12rcd13ifvqce0","pricing_plan_id":"free"},{"bike_id":"9788f176-caa1-4325-8979-165b09b23493","system_id":"levelo_inurba_marseille","lat":43.304606,"lon":5.379026,"is_reserved":false,"is_disabled":false,"rental_uris":{"android":"levelo://app?vid=9788f176-caa1-4325-8979-165b09b23493","ios":"levelo://app?vid=9788f176-caa1-4325-8979-165b09b23493"},"vehicle_type_id":"4","last_reported":1701076077,"current_range_meters":14400,"station_id":"ce4bgup2rcd13ifvqcn0","pricing_plan_id":"free"},{"bike_id":"cca0b9fe-c5e0-4368-8873-c657446bffc2","system_id":"levelo_inurba_marseille","lat":43.32488,"lon":5.36567,"is_reserved":false,"is_disabled":false,"rental_uris":{"android":"levelo://app?vid=cca0b9fe-c5e0-4368-8873-c657446bffc2","ios":"levelo://app?vid=cca0b9fe-c5e0-4368-8873-c657446bffc2"},"vehicle_type_id":"4","last_reported":1701076077,"current_range_meters":9200,"station_id":"ce4bhs12rcd13ifvqhvg","pricing_plan_id":"free"},{"bike_id":"da5ccd1c-a685-4367-a4a2-f93987dd0564","system_id":"levelo_inurba_marseille","lat":43.30143,"lon":5.37413,"is_reserved":false,"is_disabled":false,"rental_uris":{"android":"levelo://app?vid=da5ccd1c-a685-4367-a4a2-f93987dd0564","ios":"levelo://app?vid=da5ccd1c-a685-4367-a4a2-f93987dd0564"},"vehicle_type_id":"4","last_reported":1701076077,"current_range_meters":16800,"station_id":"ce4bgs92rcd13ifvqcc0","pricing_plan_id":"free"},{"bike_id":"83c01ea3-1a20-4a6f-944b-833be987b804","system_id":"levelo_inurba_marseille","lat":43.30546,"lon":5.38086,"is_reserved":false,"is_disabled":false,"rental_uris":{"android":"levelo://app?vid=83c01ea3-1a20-4a6f-944b-833be987b804","ios":"levelo://app?vid=83c01ea3-1a20-4a6f-944b-833be987b804"},"vehicle_type_id":"4","last_reported":1701076077,"current_range_meters":0,"station_id":"","pricing_plan_id":"free"},{"bike_id":"a112bfba-75af-4dd3-972d-2142a3fb1be9","system_id":"levelo_inurba_marseille","lat":43.313571,"lon":5.384829,"is_reserved":false,"is_disabled":false,"rental_uris":{"android":"levelo://app?vid=a112bfba-75af-4dd3-972d-2142a3fb1be9","ios":"levelo://app?vid=a112bfba-75af-4dd3-972d-2142a3fb1be9"},"vehicle_type_id":"4","last_reported":1701076077,"current_range_meters":17600,"station_id":"ce4bgt92rcd13ifvqcf0","pricing_plan_id":"free"},{"bike_id":"82443ffc-296d-47d2-aaaf-7e3ca64e9424","system_id":"levelo_inurba_marseille","lat":43.313571,"lon":5.384829,"is_reserved":false,"is_disabled":false,"rental_uris":{"android":"levelo://app?vid=82443ffc-296d-47d2-aaaf-7e3ca64e9424","ios":"levelo://app?vid=82443ffc-296d-47d2-aaaf-7e3ca64e9424"},"vehicle_type_id":"4","last_reported":1701076077,"current_range_meters":29600,"station_id":"ce4bgt92rcd13ifvqcf0","pricing_plan_id":"free"},{"bike_id":"c1ce1a3f-fa97-4108-8c61-0d083a875cc5","system_id":"levelo_inurba_marseille","lat":43.29923,"lon":5.36538,"is_reserved":false,"is_disabled":false,"rental_uris":{"android":"levelo://app?vid=c1ce1a3f-fa97-4108-8c61-0d083a875cc5","ios":"levelo://app?vid=c1ce1a3f-fa97-4108-8c61-0d083a875cc5"},"vehicle_type_id":"4","last_reported":1701076077,"current_range_meters":10400,"station_id":"ce4bgm92rcd13ifvqbr0","pricing_plan_id":"free"},{"bike_id":"203f5ba8-0e89-4784-aa27-b78132f1046a","system_id":"levelo_inurba_marseille","lat":43.298433,"lon":5.362774,"is_reserved":false,"is_disabled":false,"rental_uris":{"android":"levelo://app?vid=203f5ba8-0e89-4784-aa27-b78132f1046a","ios":"levelo://app?vid=203f5ba8-0e89-4784-aa27-b78132f1046a"},"vehicle_type_id":"4","last_reported":1701076077,"current_range_meters":24800,"station_id":"ce4bgpp2rcd13ifvqc3g","pricing_plan_id":"free"},{"bike_id":"07757741-7832-4823-a2d1-ac41495e3f29","system_id":"levelo_inurba_marseille","lat":43.298433,"lon":5.362774,"is_reserved":false,"is_disabled":false,"rental_uris":{"android":"levelo://app?vid=07757741-7832-4823-a2d1-ac41495e3f29","ios":"levelo://app?vid=07757741-7832-4823-a2d1-ac41495e3f29"},"vehicle_type_id":"4","last_reported":1701076077,"current_range_meters":20800,"station_id":"ce4bgpp2rcd13ifvqc3g","pricing_plan_id":"free"},{"bike_id":"f5a04daa-ddbf-40c5-9ac8-c8febd7e3518","system_id":"levelo_inurba_marseille","lat":43.298433,"lon":5.362774,"is_reserved":false,"is_disabled":false,"rental_uris":{"android":"levelo://app?vid=f5a04daa-ddbf-40c5-9ac8-c8febd7e3518","ios":"levelo://app?vid=f5a04daa-ddbf-40c5-9ac8-c8febd7e3518"},"vehicle_type_id":"4","last_reported":1701076077,"current_range_meters":21600,"station_id":"ce4bgpp2rcd13ifvqc3g","pricing_plan_id":"free"},{"bike_id":"984489f8-4f60-44ae-bd10-3b0ce30541c9","system_id":"levelo_inurba_marseille","lat":43.298433,"lon":5.362774,"is_reserved":false,"is_disabled":false,"rental_uris":{"android":"levelo://app?vid=984489f8-4f60-44ae-bd10-3b0ce30541c9","ios":"levelo://app?vid=984489f8-4f60-44ae-bd10-3b0ce30541c9"},"vehicle_type_id":"4","last_reported":1701076077,"current_range_meters":400,"station_id":"ce4bgpp2rcd13ifvqc3g","pricing_plan_id":"free"},{"bike_id":"41a7652b-304f-4f96-ac71-06689b9c904a","system_id":"levelo_inurba_marseille","lat":43.298433,"lon":5.362774,"is_reserved":false,"is_disabled":false,"rental_uris":{"android":"levelo://app?vid=41a7652b-304f-4f96-ac71-06689b9c904a","ios":"levelo://app?vid=41a7652b-304f-4f96-ac71-06689b9c904a"},"vehicle_type_id":"4","last_reported":1701076077,"current_range_meters":2800,"station_id":"ce4bgpp2rcd13ifvqc3g","pricing_plan_id":"free"},{"bike_id":"981224f2-722a-45e4-bb38-22ae7ba6910b","system_id":"levelo_inurba_marseille","lat":43.298433,"lon":5.362774,"is_reserved":false,"is_disabled":false,"rental_uris":{"android":"levelo://app?vid=981224f2-722a-45e4-bb38-22ae7ba6910b","ios":"levelo://app?vid=981224f2-722a-45e4-bb38-22ae7ba6910b"},"vehicle_type_id":"4","last_reported":1701076077,"current_range_meters":25200,"station_id":"ce4bgpp2rcd13ifvqc3g","pricing_plan_id":"free"},{"bike_id":"4dfe0b50-1a07-4147-9402-7c7abf3df656","system_id":"levelo_inurba_marseille","lat":43.298433,"lon":5.362774,"is_reserved":false,"is_disabled":false,"rental_uris":{"android":"levelo://app?vid=4dfe0b50-1a07-4147-9402-7c7abf3df656","ios":"levelo://app?vid=4dfe0b50-1a07-4147-9402-7c7abf3df656"},"vehicle_type_id":"4","last_reported":1701076077,"current_range_meters":24400,"station_id":"ce4bgpp2rcd13ifvqc3g","pricing_plan_id":"free"},{"bike_id":"a7fe4f51-10ec-45d6-82aa-98fc9fcfffbc","system_id":"levelo_inurba_marseille","lat":43.298433,"lon":5.362774,"is_reserved":false,"is_disabled":false,"rental_uris":{"android":"levelo://app?vid=a7fe4f51-10ec-45d6-82aa-98fc9fcfffbc","ios":"levelo://app?vid=a7fe4f51-10ec-45d6-82aa-98fc9fcfffbc"},"vehicle_type_id":"4","last_reported":1701076077,"current_range_meters":15200,"station_id":"ce4bgpp2rcd13ifvqc3g","pricing_plan_id":"free"},{"bike_id":"4c2c6467-937e-47cd-bd6e-b29f3e26e3a6","system_id":"levelo_inurba_marseille","lat":43.298433,"lon":5.362774,"is_reserved":false,"is_disabled":false,"rental_uris":{"android":"levelo://app?vid=4c2c6467-937e-47cd-bd6e-b29f3e26e3a6","ios":"levelo://app?vid=4c2c6467-937e-47cd-bd6e-b29f3e26e3a6"},"vehicle_type_id":"4","last_reported":1701076077,"current_range_meters":19600,"station_id":"ce4bgpp2rcd13ifvqc3g","pricing_plan_id":"free"},{"bike_id":"124eb19c-329f-43c7-993d-200197b8e23a","system_id":"levelo_inurba_marseille","lat":43.298433,"lon":5.362774,"is_reserved":false,"is_disabled":false,"rental_uris":{"android":"levelo://app?vid=124eb19c-329f-43c7-993d-200197b8e23a","ios":"levelo://app?vid=124eb19c-329f-43c7-993d-200197b8e23a"},"vehicle_type_id":"4","last_reported":1701076077,"current_range_meters":22800,"station_id":"ce4bgpp2rcd13ifvqc3g","pricing_plan_id":"free"},{"bike_id":"56815df7-a60d-48ec-9c7d-8227e1e6cf88","system_id":"levelo_inurba_marseille","lat":43.29842,"lon":5.36269,"is_reserved":false,"is_disabled":false,"rental_uris":{"android":"levelo://app?vid=56815df7-a60d-48ec-9c7d-8227e1e6cf88","ios":"levelo://app?vid=56815df7-a60d-48ec-9c7d-8227e1e6cf88"},"vehicle_type_id":"4","last_reported":1701076077,"current_range_meters":0,"station_id":"ce4bgpp2rcd13ifvqc3g","pricing_plan_id":"free"},{"bike_id":"8f297e3a-5766-4bf5-bdbc-91269feddd1e","system_id":"levelo_inurba_marseille","lat":43.299243,"lon":5.374807,"is_reserved":false,"is_disabled":false,"rental_uris":{"android":"levelo://app?vid=8f297e3a-5766-4bf5-bdbc-91269feddd1e","ios":"levelo://app?vid=8f297e3a-5766-4bf5-bdbc-91269feddd1e"},"vehicle_type_id":"4","last_reported":1701076077,"current_range_meters":6400,"station_id":"ce4bgjh2rcd13ifvqbg0","pricing_plan_id":"free"},{"bike_id":"8e0b144e-95eb-413e-8562-ca1b3b3f7dc3","system_id":"levelo_inurba_marseille","lat":43.311722,"lon":5.387247,"is_reserved":false,"is_disabled":false,"rental_uris":{"android":"levelo://app?vid=8e0b144e-95eb-413e-8562-ca1b3b3f7dc3","ios":"levelo://app?vid=8e0b144e-95eb-413e-8562-ca1b3b3f7dc3"},"vehicle_type_id":"4","last_reported":1701076077,"current_range_meters":28800,"station_id":"ce4bgv12rcd13ifvqcp0","pricing_plan_id":"free"},{"bike_id":"bdb40f97-9b99-4500-98db-d1f60b7f43aa","system_id":"levelo_inurba_marseille","lat":43.311722,"lon":5.387247,"is_reserved":false,"is_disabled":false,"rental_uris":{"android":"levelo://app?vid=bdb40f97-9b99-4500-98db-d1f60b7f43aa","ios":"levelo://app?vid=bdb40f97-9b99-4500-98db-d1f60b7f43aa"},"vehicle_type_id":"4","last_reported":1701076077,"current_range_meters":26800,"station_id":"ce4bgv12rcd13ifvqcp0","pricing_plan_id":"free"},{"bike_id":"7ab5f7ed-0017-4fc9-a467-fe2d0c256128","system_id":"levelo_inurba_marseille","lat":43.315149,"lon":5.389306,"is_reserved":false,"is_disabled":false,"rental_uris":{"android":"levelo://app?vid=7ab5f7ed-0017-4fc9-a467-fe2d0c256128","ios":"levelo://app?vid=7ab5f7ed-0017-4fc9-a467-fe2d0c256128"},"vehicle_type_id":"4","last_reported":1701076077,"current_range_meters":28800,"station_id":"","pricing_plan_id":"free"},{"bike_id":"4dd1c084-185b-42f5-a519-2dbd275b6960","system_id":"levelo_inurba_marseille","lat":43.2968,"lon":5.37291,"is_reserved":false,"is_disabled":false,"rental_uris":{"android":"levelo://app?vid=4dd1c084-185b-42f5-a519-2dbd275b6960","ios":"levelo://app?vid=4dd1c084-185b-42f5-a519-2dbd275b6960"},"vehicle_type_id":"4","last_reported":1701076077,"current_range_meters":23600,"station_id":"ce4bgk12rcd13ifvqbj0","pricing_plan_id":"free"},{"bike_id":"8eb99f99-b944-4964-96f2-e263cd7c52fc","system_id":"levelo_inurba_marseille","lat":43.29573,"lon":5.367355,"is_reserved":false,"is_disabled":false,"rental_uris":{"android":"levelo://app?vid=8eb99f99-b944-4964-96f2-e263cd7c52fc","ios":"levelo://app?vid=8eb99f99-b944-4964-96f2-e263cd7c52fc"},"vehicle_type_id":"4","last_reported":1701076077,"current_range_meters":24800,"station_id":"ce4bgph2rcd13ifvqc2g","pricing_plan_id":"free"},{"bike_id":"bd8e3978-9b5b-4461-9eab-9d80fc814246","system_id":"levelo_inurba_marseille","lat":43.29573,"lon":5.367355,"is_reserved":false,"is_disabled":false,"rental_uris":{"android":"levelo://app?vid=bd8e3978-9b5b-4461-9eab-9d80fc814246","ios":"levelo://app?vid=bd8e3978-9b5b-4461-9eab-9d80fc814246"},"vehicle_type_id":"4","last_reported":1701076077,"current_range_meters":31600,"station_id":"ce4bgph2rcd13ifvqc2g","pricing_plan_id":"free"},{"bike_id":"b89c8aaa-e7c0-45d7-80ea-97e9080cab12","system_id":"levelo_inurba_marseille","lat":43.299028,"lon":5.381509,"is_reserved":false,"is_disabled":false,"rental_uris":{"android":"levelo://app?vid=b89c8aaa-e7c0-45d7-80ea-97e9080cab12","ios":"levelo://app?vid=b89c8aaa-e7c0-45d7-80ea-97e9080cab12"},"vehicle_type_id":"4","last_reported":1701076077,"current_range_meters":29600,"station_id":"ce4bgj12rcd13ifvqbc0","pricing_plan_id":"free"},{"bike_id":"62c1d22c-6f22-4948-a25a-51260515c0c3","system_id":"levelo_inurba_marseille","lat":43.309589,"lon":5.390258,"is_reserved":false,"is_disabled":false,"rental_uris":{"android":"levelo://app?vid=62c1d22c-6f22-4948-a25a-51260515c0c3","ios":"levelo://app?vid=62c1d22c-6f22-4948-a25a-51260515c0c3"},"vehicle_type_id":"4","last_reported":1701076077,"current_range_meters":18000,"station_id":"ce4bgup2rcd13ifvqco0","pricing_plan_id":"free"},{"bike_id":"d4ae1081-a447-4175-a70e-c5ad4415b1ee","system_id":"levelo_inurba_marseille","lat":43.309589,"lon":5.390258,"is_reserved":false,"is_disabled":false,"rental_uris":{"android":"levelo://app?vid=d4ae1081-a447-4175-a70e-c5ad4415b1ee","ios":"levelo://app?vid=d4ae1081-a447-4175-a70e-c5ad4415b1ee"},"vehicle_type_id":"4","last_reported":1701076077,"current_range_meters":14400,"station_id":"ce4bgup2rcd13ifvqco0","pricing_plan_id":"free"},{"bike_id":"80a77279-f69a-43db-8851-58406e479e24","system_id":"levelo_inurba_marseille","lat":43.317557,"lon":5.390173,"is_reserved":false,"is_disabled":false,"rental_uris":{"android":"levelo://app?vid=80a77279-f69a-43db-8851-58406e479e24","ios":"levelo://app?vid=80a77279-f69a-43db-8851-58406e479e24"},"vehicle_type_id":"4","last_reported":1701076077,"current_range_meters":25200,"station_id":"ce4bhqp2rcd13ifvqhng","pricing_plan_id":"free"},{"bike_id":"f9782c71-005e-401f-957d-11033cdf34fc","system_id":"levelo_inurba_marseille","lat":43.31758,"lon":5.39024,"is_reserved":false,"is_disabled":false,"rental_uris":{"android":"levelo://app?vid=f9782c71-005e-401f-957d-11033cdf34fc","ios":"levelo://app?vid=f9782c71-005e-401f-957d-11033cdf34fc"},"vehicle_type_id":"4","last_reported":1701076077,"current_range_meters":30400,"station_id":"ce4bhqp2rcd13ifvqhng","pricing_plan_id":"free"},{"bike_id":"3ee3dfb7-db7a-4d7b-ab5b-2a64613d8691","system_id":"levelo_inurba_marseille","lat":43.298037,"lon":5.381066,"is_reserved":false,"is_disabled":false,"rental_uris":{"android":"levelo://app?vid=3ee3dfb7-db7a-4d7b-ab5b-2a64613d8691","ios":"levelo://app?vid=3ee3dfb7-db7a-4d7b-ab5b-2a64613d8691"},"vehicle_type_id":"4","last_reported":1701076077,"current_range_meters":5200,"station_id":"ce4bgip2rcd13ifvqbb0","pricing_plan_id":"free"},{"bike_id":"6b621983-5e9e-42f7-990d-ad5a093820d2","system_id":"levelo_inurba_marseille","lat":43.293801,"lon":5.363066,"is_reserved":false,"is_disabled":false,"rental_uris":{"android":"levelo://app?vid=6b621983-5e9e-42f7-990d-ad5a093820d2","ios":"levelo://app?vid=6b621983-5e9e-42f7-990d-ad5a093820d2"},"vehicle_type_id":"4","last_reported":1701076077,"current_range_meters":0,"station_id":"","pricing_plan_id":"free"},{"bike_id":"bebf5df7-2588-4a73-b10f-cea641c3dc74","system_id":"levelo_inurba_marseille","lat":43.32369,"lon":5.388852,"is_reserved":false,"is_disabled":false,"rental_uris":{"android":"levelo://app?vid=bebf5df7-2588-4a73-b10f-cea641c3dc74","ios":"levelo://app?vid=bebf5df7-2588-4a73-b10f-cea641c3dc74"},"vehicle_type_id":"4","last_reported":1701076077,"current_range_meters":31200,"station_id":"ce4bhqp2rcd13ifvqhog","pricing_plan_id":"free"},{"bike_id":"280675b5-e357-45b4-b101-210e9fcb10a0","system_id":"levelo_inurba_marseille","lat":43.32367,"lon":5.38891,"is_reserved":false,"is_disabled":false,"rental_uris":{"android":"levelo://app?vid=280675b5-e357-45b4-b101-210e9fcb10a0","ios":"levelo://app?vid=280675b5-e357-45b4-b101-210e9fcb10a0"},"vehicle_type_id":"4","last_reported":1701076077,"current_range_meters":24000,"station_id":"ce4bhqp2rcd13ifvqhog","pricing_plan_id":"free"},{"bike_id":"e8427e29-a2d4-40ea-b93f-3796857a28e7","system_id":"levelo_inurba_marseille","lat":43.29601,"lon":5.381084,"is_reserved":false,"is_disabled":false,"rental_uris":{"android":"levelo://app?vid=e8427e29-a2d4-40ea-b93f-3796857a28e7","ios":"levelo://app?vid=e8427e29-a2d4-40ea-b93f-3796857a28e7"},"vehicle_type_id":"4","last_reported":1701076077,"current_range_meters":27600,"station_id":"ce4bgl12rcd13ifvqbo0","pricing_plan_id":"free"},{"bike_id":"cb91a219-6097-45b4-9d84-a2fcd67742db","system_id":"levelo_inurba_marseille","lat":43.293259,"lon":5.371586,"is_reserved":false,"is_disabled":false,"rental_uris":{"android":"levelo://app?vid=cb91a219-6097-45b4-9d84-a2fcd67742db","ios":"levelo://app?vid=cb91a219-6097-45b4-9d84-a2fcd67742db"},"vehicle_type_id":"4","last_reported":1701076077,"current_range_meters":16400,"station_id":"ce4bgh92rcd13ifvqb40","pricing_plan_id":"free"},{"bike_id":"ddd61bce-03d4-4f1e-8020-8ef45188a057","system_id":"levelo_inurba_marseille","lat":43.29989,"lon":5.38795,"is_reserved":false,"is_disabled":false,"rental_uris":{"android":"levelo://app?vid=ddd61bce-03d4-4f1e-8020-8ef45188a057","ios":"levelo://app?vid=ddd61bce-03d4-4f1e-8020-8ef45188a057"},"vehicle_type_id":"4","last_reported":1701076077,"current_range_meters":16800,"station_id":"","pricing_plan_id":"free"},{"bike_id":"1bf0ce32-a129-4f19-b1df-78b483661d8a","system_id":"levelo_inurba_marseille","lat":43.300852,"lon":5.390859,"is_reserved":false,"is_disabled":false,"rental_uris":{"android":"levelo://app?vid=1bf0ce32-a129-4f19-b1df-78b483661d8a","ios":"levelo://app?vid=1bf0ce32-a129-4f19-b1df-78b483661d8a"},"vehicle_type_id":"4","last_reported":1701076077,"current_range_meters":9600,"station_id":"ce4bh192rcd13ifvqdb0","pricing_plan_id":"free"},{"bike_id":"79bb36da-1a3f-4f26-bb8f-2df9c67b386c","system_id":"levelo_inurba_marseille","lat":43.29227,"lon":5.36056,"is_reserved":false,"is_disabled":false,"rental_uris":{"android":"levelo://app?vid=79bb36da-1a3f-4f26-bb8f-2df9c67b386c","ios":"levelo://app?vid=79bb36da-1a3f-4f26-bb8f-2df9c67b386c"},"vehicle_type_id":"4","last_reported":1701076077,"current_range_meters":26800,"station_id":"ce4bhbh2rcd13ifvqeqg","pricing_plan_id":"free"},{"bike_id":"2b79db7b-4966-4dfe-8f7a-8e5f899632a6","system_id":"levelo_inurba_marseille","lat":43.29257,"lon":5.37626,"is_reserved":false,"is_disabled":false,"rental_uris":{"android":"levelo://app?vid=2b79db7b-4966-4dfe-8f7a-8e5f899632a6","ios":"levelo://app?vid=2b79db7b-4966-4dfe-8f7a-8e5f899632a6"},"vehicle_type_id":"4","last_reported":1701076077,"current_range_meters":21600,"station_id":"ce4bgi12rcd13ifvqb80","pricing_plan_id":"free"},{"bike_id":"16503674-aaf7-4c40-b903-25bd055f6a5b","system_id":"levelo_inurba_marseille","lat":43.31329,"lon":5.39687,"is_reserved":false,"is_disabled":false,"rental_uris":{"android":"levelo://app?vid=16503674-aaf7-4c40-b903-25bd055f6a5b","ios":"levelo://app?vid=16503674-aaf7-4c40-b903-25bd055f6a5b"},"vehicle_type_id":"4","last_reported":1701076077,"current_range_meters":15200,"station_id":"ce4bgvp2rcd13ifvqcu0","pricing_plan_id":"free"},{"bike_id":"df42269d-e15c-4e3c-837c-f499d57dfdfd","system_id":"levelo_inurba_marseille","lat":43.290327,"lon":5.375711,"is_reserved":false,"is_disabled":false,"rental_uris":{"android":"levelo://app?vid=df42269d-e15c-4e3c-837c-f499d57dfdfd","ios":"levelo://app?vid=df42269d-e15c-4e3c-837c-f499d57dfdfd"},"vehicle_type_id":"4","last_reported":1701076077,"current_range_meters":20000,"station_id":"ce4bh692rcd13ifvqe90","pricing_plan_id":"free"},{"bike_id":"08976845-aeed-4fbc-82ef-5e511f40adc7","system_id":"levelo_inurba_marseille","lat":43.290327,"lon":5.375711,"is_reserved":false,"is_disabled":false,"rental_uris":{"android":"levelo://app?vid=08976845-aeed-4fbc-82ef-5e511f40adc7","ios":"levelo://app?vid=08976845-aeed-4fbc-82ef-5e511f40adc7"},"vehicle_type_id":"4","last_reported":1701076077,"current_range_meters":11600,"station_id":"ce4bh692rcd13ifvqe90","pricing_plan_id":"free"},{"bike_id":"9e79f928-ff90-4687-a8e9-151ab62fbad3","system_id":"levelo_inurba_marseille","lat":43.290327,"lon":5.375711,"is_reserved":false,"is_disabled":false,"rental_uris":{"android":"levelo://app?vid=9e79f928-ff90-4687-a8e9-151ab62fbad3","ios":"levelo://app?vid=9e79f928-ff90-4687-a8e9-151ab62fbad3"},"vehicle_type_id":"4","last_reported":1701076077,"current_range_meters":14000,"station_id":"ce4bh692rcd13ifvqe90","pricing_plan_id":"free"},{"bike_id":"7349b276-cc54-4272-a03f-5cf9e36f6aba","system_id":"levelo_inurba_marseille","lat":43.28944,"lon":5.36402,"is_reserved":false,"is_disabled":false,"rental_uris":{"android":"levelo://app?vid=7349b276-cc54-4272-a03f-5cf9e36f6aba","ios":"levelo://app?vid=7349b276-cc54-4272-a03f-5cf9e36f6aba"},"vehicle_type_id":"4","last_reported":1701076077,"current_range_meters":17600,"station_id":"ce4bhc92rcd13ifvqetg","pricing_plan_id":"free"},{"bike_id":"9f07574c-a447-4782-ac2b-935c16777ace","system_id":"levelo_inurba_marseille","lat":43.292642,"lon":5.384254,"is_reserved":false,"is_disabled":false,"rental_uris":{"android":"levelo://app?vid=9f07574c-a447-4782-ac2b-935c16777ace","ios":"levelo://app?vid=9f07574c-a447-4782-ac2b-935c16777ace"},"vehicle_type_id":"4","last_reported":1701076077,"current_range_meters":17200,"station_id":"ce4bh692rcd13ifvqea0","pricing_plan_id":"free"},{"bike_id":"b715bb4a-2c06-4de0-af2b-4777e59e5139","system_id":"levelo_inurba_marseille","lat":43.304296,"lon":5.397513,"is_reserved":false,"is_disabled":false,"rental_uris":{"android":"levelo://app?vid=b715bb4a-2c06-4de0-af2b-4777e59e5139","ios":"levelo://app?vid=b715bb4a-2c06-4de0-af2b-4777e59e5139"},"vehicle_type_id":"4","last_reported":1701076077,"current_range_meters":30800,"station_id":"ce4bh092rcd13ifvqd20","pricing_plan_id":"free"},{"bike_id":"19ff5f25-f910-4429-b55b-d9bccb6192fa","system_id":"levelo_inurba_marseille","lat":43.289743,"lon":5.378304,"is_reserved":false,"is_disabled":false,"rental_uris":{"android":"levelo://app?vid=19ff5f25-f910-4429-b55b-d9bccb6192fa","ios":"levelo://app?vid=19ff5f25-f910-4429-b55b-d9bccb6192fa"},"vehicle_type_id":"4","last_reported":1701076077,"current_range_meters":18000,"station_id":"ce4bh9p2rcd13ifvqed0","pricing_plan_id":"free"},{"bike_id":"5648c3d3-582d-4544-8983-476eb2816f85","system_id":"levelo_inurba_marseille","lat":43.297815,"lon":5.393548,"is_reserved":false,"is_disabled":false,"rental_uris":{"android":"levelo://app?vid=5648c3d3-582d-4544-8983-476eb2816f85","ios":"levelo://app?vid=5648c3d3-582d-4544-8983-476eb2816f85"},"vehicle_type_id":"4","last_reported":1701076077,"current_range_meters":28800,"station_id":"chh1huq6cuj3fo74tm60","pricing_plan_id":"free"},{"bike_id":"dab57aa3-ecbf-45e1-ade6-ec2151305355","system_id":"levelo_inurba_marseille","lat":43.28856,"lon":5.358371,"is_reserved":false,"is_disabled":false,"rental_uris":{"android":"levelo://app?vid=dab57aa3-ecbf-45e1-ade6-ec2151305355","ios":"levelo://app?vid=dab57aa3-ecbf-45e1-ade6-ec2151305355"},"vehicle_type_id":"4","last_reported":1701076077,"current_range_meters":6000,"station_id":"ce4bhb12rcd13ifvqem0","pricing_plan_id":"free"},{"bike_id":"ec9549c1-4a84-4909-8b87-567144c82532","system_id":"levelo_inurba_marseille","lat":43.309305,"lon":5.401511,"is_reserved":false,"is_disabled":false,"rental_uris":{"android":"levelo://app?vid=ec9549c1-4a84-4909-8b87-567144c82532","ios":"levelo://app?vid=ec9549c1-4a84-4909-8b87-567144c82532"},"vehicle_type_id":"4","last_reported":1701076077,"current_range_meters":24000,"station_id":"ce4bh412rcd13ifvqdr0","pricing_plan_id":"free"},{"bike_id":"ed994430-9391-4677-9c3d-12dbfddb3a4a","system_id":"levelo_inurba_marseille","lat":43.298681,"lon":5.397225,"is_reserved":false,"is_disabled":false,"rental_uris":{"android":"levelo://app?vid=ed994430-9391-4677-9c3d-12dbfddb3a4a","ios":"levelo://app?vid=ed994430-9391-4677-9c3d-12dbfddb3a4a"},"vehicle_type_id":"4","last_reported":1701076077,"current_range_meters":14800,"station_id":"ce4bh0h2rcd13ifvqd50","pricing_plan_id":"free"},{"bike_id":"737c5394-88c8-4e04-890f-ad3b977098d0","system_id":"levelo_inurba_marseille","lat":43.298681,"lon":5.397225,"is_reserved":false,"is_disabled":false,"rental_uris":{"android":"levelo://app?vid=737c5394-88c8-4e04-890f-ad3b977098d0","ios":"levelo://app?vid=737c5394-88c8-4e04-890f-ad3b977098d0"},"vehicle_type_id":"4","last_reported":1701076077,"current_range_meters":13600,"station_id":"ce4bh0h2rcd13ifvqd50","pricing_plan_id":"free"},{"bike_id":"c77d3b82-68c4-4a48-890b-ddc33763a814","system_id":"levelo_inurba_marseille","lat":43.286039,"lon":5.370679,"is_reserved":false,"is_disabled":false,"rental_uris":{"android":"levelo://app?vid=c77d3b82-68c4-4a48-890b-ddc33763a814","ios":"levelo://app?vid=c77d3b82-68c4-4a48-890b-ddc33763a814"},"vehicle_type_id":"4","last_reported":1701076077,"current_range_meters":22800,"station_id":"ce4bht12rcd13ifvqi60","pricing_plan_id":"free"},{"bike_id":"42089b03-6411-4d4e-af8b-0bf22e5ae6ee","system_id":"levelo_inurba_marseille","lat":43.28601,"lon":5.37063,"is_reserved":false,"is_disabled":false,"rental_uris":{"android":"levelo://app?vid=42089b03-6411-4d4e-af8b-0bf22e5ae6ee","ios":"levelo://app?vid=42089b03-6411-4d4e-af8b-0bf22e5ae6ee"},"vehicle_type_id":"4","last_reported":1701076077,"current_range_meters":21200,"station_id":"ce4bht12rcd13ifvqi60","pricing_plan_id":"free"},{"bike_id":"a09cfe60-cbf8-418b-b78c-0c3b634f1547","system_id":"levelo_inurba_marseille","lat":43.287185,"lon":5.379373,"is_reserved":false,"is_disabled":false,"rental_uris":{"android":"levelo://app?vid=a09cfe60-cbf8-418b-b78c-0c3b634f1547","ios":"levelo://app?vid=a09cfe60-cbf8-418b-b78c-0c3b634f1547"},"vehicle_type_id":"4","last_reported":1701076077,"current_range_meters":30800,"station_id":"ce4bh9p2rcd13ifvqec0","pricing_plan_id":"free"},{"bike_id":"125378e4-688e-4ac0-9d09-afdcdb362b15","system_id":"levelo_inurba_marseille","lat":43.294314,"lon":5.397498,"is_reserved":false,"is_disabled":false,"rental_uris":{"android":"levelo://app?vid=125378e4-688e-4ac0-9d09-afdcdb362b15","ios":"levelo://app?vid=125378e4-688e-4ac0-9d09-afdcdb362b15"},"vehicle_type_id":"4","last_reported":1701076077,"current_range_meters":13200,"station_id":"ce4bh3h2rcd13ifvqdo0","pricing_plan_id":"free"},{"bike_id":"4c1471d6-a576-485c-b8d4-0179680556a5","system_id":"levelo_inurba_marseille","lat":43.28619,"lon":5.35107,"is_reserved":false,"is_disabled":false,"rental_uris":{"android":"levelo://app?vid=4c1471d6-a576-485c-b8d4-0179680556a5","ios":"levelo://app?vid=4c1471d6-a576-485c-b8d4-0179680556a5"},"vehicle_type_id":"4","last_reported":1701076077,"current_range_meters":24000,"station_id":"ce4bhch2rcd13ifvqeug","pricing_plan_id":"free"},{"bike_id":"2e4b7583-5b34-477c-b207-c1e547afe462","system_id":"levelo_inurba_marseille","lat":43.295713,"lon":5.399639,"is_reserved":false,"is_disabled":false,"rental_uris":{"android":"levelo://app?vid=2e4b7583-5b34-477c-b207-c1e547afe462","ios":"levelo://app?vid=2e4b7583-5b34-477c-b207-c1e547afe462"},"vehicle_type_id":"4","last_reported":1701076077,"current_range_meters":13600,"station_id":"ce4bh312rcd13ifvqdj0","pricing_plan_id":"free"},{"bike_id":"89c8f8be-be21-4861-8197-e2305482c3a7","system_id":"levelo_inurba_marseille","lat":43.286595,"lon":5.386795,"is_reserved":false,"is_disabled":false,"rental_uris":{"android":"levelo://app?vid=89c8f8be-be21-4861-8197-e2305482c3a7","ios":"levelo://app?vid=89c8f8be-be21-4861-8197-e2305482c3a7"},"vehicle_type_id":"4","last_reported":1701076077,"current_range_meters":20800,"station_id":"ce4bh492rcd13ifvqdug","pricing_plan_id":"free"},{"bike_id":"67e718f6-3440-4950-8a3f-a165993929af","system_id":"levelo_inurba_marseille","lat":43.337168,"lon":5.391825,"is_reserved":false,"is_disabled":false,"rental_uris":{"android":"levelo://app?vid=67e718f6-3440-4950-8a3f-a165993929af","ios":"levelo://app?vid=67e718f6-3440-4950-8a3f-a165993929af"},"vehicle_type_id":"4","last_reported":1701076077,"current_range_meters":18400,"station_id":"ce4bhr92rcd13ifvqhsg","pricing_plan_id":"free"},{"bike_id":"3b070e92-8fbb-41c1-846f-989ae0f81a2b","system_id":"levelo_inurba_marseille","lat":43.283498,"lon":5.380948,"is_reserved":false,"is_disabled":false,"rental_uris":{"android":"levelo://app?vid=3b070e92-8fbb-41c1-846f-989ae0f81a2b","ios":"levelo://app?vid=3b070e92-8fbb-41c1-846f-989ae0f81a2b"},"vehicle_type_id":"4","last_reported":1701076077,"current_range_meters":0,"station_id":"ce4bh412rcd13ifvqdr0","pricing_plan_id":"free"},{"bike_id":"e2284003-4e46-4e0a-93e7-73d05c3666d9","system_id":"levelo_inurba_marseille","lat":43.33508,"lon":5.397755,"is_reserved":false,"is_disabled":false,"rental_uris":{"android":"levelo://app?vid=e2284003-4e46-4e0a-93e7-73d05c3666d9","ios":"levelo://app?vid=e2284003-4e46-4e0a-93e7-73d05c3666d9"},"vehicle_type_id":"4","last_reported":1701076077,"current_range_meters":15600,"station_id":"","pricing_plan_id":"free"},{"bike_id":"3bdad2d3-db42-4e28-bc2d-f64d969ac962","system_id":"levelo_inurba_marseille","lat":43.287984,"lon":5.394594,"is_reserved":false,"is_disabled":false,"rental_uris":{"android":"levelo://app?vid=3bdad2d3-db42-4e28-bc2d-f64d969ac962","ios":"levelo://app?vid=3bdad2d3-db42-4e28-bc2d-f64d969ac962"},"vehicle_type_id":"4","last_reported":1701076077,"current_range_meters":22400,"station_id":"","pricing_plan_id":"free"},{"bike_id":"d859f758-79a5-4147-b5e5-e6fd8bcb1259","system_id":"levelo_inurba_marseille","lat":43.283502,"lon":5.386471,"is_reserved":false,"is_disabled":false,"rental_uris":{"android":"levelo://app?vid=d859f758-79a5-4147-b5e5-e6fd8bcb1259","ios":"levelo://app?vid=d859f758-79a5-4147-b5e5-e6fd8bcb1259"},"vehicle_type_id":"4","last_reported":1701076077,"current_range_meters":0,"station_id":"ce4bh492rcd13ifvqdvg","pricing_plan_id":"free"},{"bike_id":"16a97055-dbd6-44c0-9a19-9feee5927bfe","system_id":"levelo_inurba_marseille","lat":43.28273,"lon":5.35068,"is_reserved":false,"is_disabled":false,"rental_uris":{"android":"levelo://app?vid=16a97055-dbd6-44c0-9a19-9feee5927bfe","ios":"levelo://app?vid=16a97055-dbd6-44c0-9a19-9feee5927bfe"},"vehicle_type_id":"4","last_reported":1701076077,"current_range_meters":20400,"station_id":"ce4bhbp2rcd13ifvqerg","pricing_plan_id":"free"},{"bike_id":"b3f5de32-7144-465c-a23d-20d488dc562d","system_id":"levelo_inurba_marseille","lat":43.282744,"lon":5.350533,"is_reserved":false,"is_disabled":false,"rental_uris":{"android":"levelo://app?vid=b3f5de32-7144-465c-a23d-20d488dc562d","ios":"levelo://app?vid=b3f5de32-7144-465c-a23d-20d488dc562d"},"vehicle_type_id":"4","last_reported":1701076077,"current_range_meters":24400,"station_id":"ce4bhbp2rcd13ifvqerg","pricing_plan_id":"free"},{"bike_id":"afaa3978-337d-42bd-ac29-778f821e7594","system_id":"levelo_inurba_marseille","lat":43.29037,"lon":5.399755,"is_reserved":false,"is_disabled":false,"rental_uris":{"android":"levelo://app?vid=afaa3978-337d-42bd-ac29-778f821e7594","ios":"levelo://app?vid=afaa3978-337d-42bd-ac29-778f821e7594"},"vehicle_type_id":"4","last_reported":1701076077,"current_range_meters":0,"station_id":"ce4bh392rcd13ifvqdm0","pricing_plan_id":"free"},{"bike_id":"2add7ed2-793f-4628-9074-ce565b8e677e","system_id":"levelo_inurba_marseille","lat":43.326605,"lon":5.409903,"is_reserved":false,"is_disabled":false,"rental_uris":{"android":"levelo://app?vid=2add7ed2-793f-4628-9074-ce565b8e677e","ios":"levelo://app?vid=2add7ed2-793f-4628-9074-ce565b8e677e"},"vehicle_type_id":"4","last_reported":1701076077,"current_range_meters":29600,"station_id":"ce4bhpp2rcd13ifvqhgg","pricing_plan_id":"free"},{"bike_id":"83e37822-fafc-439d-bf13-e1017cae64f4","system_id":"levelo_inurba_marseille","lat":43.287154,"lon":5.399979,"is_reserved":false,"is_disabled":false,"rental_uris":{"android":"levelo://app?vid=83e37822-fafc-439d-bf13-e1017cae64f4","ios":"levelo://app?vid=83e37822-fafc-439d-bf13-e1017cae64f4"},"vehicle_type_id":"4","last_reported":1701076077,"current_range_meters":24000,"station_id":"ce4bho92rcd13ifvqh3g","pricing_plan_id":"free"},{"bike_id":"c103b530-9c6d-4ac7-adf6-4ae019cb5aa9","system_id":"levelo_inurba_marseille","lat":43.29965,"lon":5.41311,"is_reserved":false,"is_disabled":false,"rental_uris":{"android":"levelo://app?vid=c103b530-9c6d-4ac7-adf6-4ae019cb5aa9","ios":"levelo://app?vid=c103b530-9c6d-4ac7-adf6-4ae019cb5aa9"},"vehicle_type_id":"4","last_reported":1701076077,"current_range_meters":30000,"station_id":"ce4bhp12rcd13ifvqh9g","pricing_plan_id":"free"},{"bike_id":"51b31095-3087-4fe2-9ed1-e11fc9a7e24a","system_id":"levelo_inurba_marseille","lat":43.320045,"lon":5.415046,"is_reserved":false,"is_disabled":false,"rental_uris":{"android":"levelo://app?vid=51b31095-3087-4fe2-9ed1-e11fc9a7e24a","ios":"levelo://app?vid=51b31095-3087-4fe2-9ed1-e11fc9a7e24a"},"vehicle_type_id":"4","last_reported":1701076077,"current_range_meters":28000,"station_id":"ce4bhq92rcd13ifvqhkg","pricing_plan_id":"free"},{"bike_id":"29bea9ed-e852-49f4-94a3-1fd26564ff18","system_id":"levelo_inurba_marseille","lat":43.2797,"lon":5.38743,"is_reserved":false,"is_disabled":false,"rental_uris":{"android":"levelo://app?vid=29bea9ed-e852-49f4-94a3-1fd26564ff18","ios":"levelo://app?vid=29bea9ed-e852-49f4-94a3-1fd26564ff18"},"vehicle_type_id":"4","last_reported":1701076077,"current_range_meters":28000,"station_id":"ce4bhg12rcd13ifvqf80","pricing_plan_id":"free"},{"bike_id":"6526cad1-2f4b-4db1-8d6b-ce04bc407b31","system_id":"levelo_inurba_marseille","lat":43.34883,"lon":5.37501,"is_reserved":false,"is_disabled":false,"rental_uris":{"android":"levelo://app?vid=6526cad1-2f4b-4db1-8d6b-ce04bc407b31","ios":"levelo://app?vid=6526cad1-2f4b-4db1-8d6b-ce04bc407b31"},"vehicle_type_id":"4","last_reported":1701076077,"current_range_meters":0,"station_id":"","pricing_plan_id":"free"},{"bike_id":"7e2d48f2-e932-4325-8443-338bec787538","system_id":"levelo_inurba_marseille","lat":43.325233,"lon":5.414318,"is_reserved":false,"is_disabled":false,"rental_uris":{"android":"levelo://app?vid=7e2d48f2-e932-4325-8443-338bec787538","ios":"levelo://app?vid=7e2d48f2-e932-4325-8443-338bec787538"},"vehicle_type_id":"4","last_reported":1701076077,"current_range_meters":30000,"station_id":"ce4bhq12rcd13ifvqhhg","pricing_plan_id":"free"},{"bike_id":"e24fe7b9-0366-468c-bdf9-1a743ba45670","system_id":"levelo_inurba_marseille","lat":43.325233,"lon":5.414318,"is_reserved":false,"is_disabled":false,"rental_uris":{"android":"levelo://app?vid=e24fe7b9-0366-468c-bdf9-1a743ba45670","ios":"levelo://app?vid=e24fe7b9-0366-468c-bdf9-1a743ba45670"},"vehicle_type_id":"4","last_reported":1701076077,"current_range_meters":20800,"station_id":"ce4bhq12rcd13ifvqhhg","pricing_plan_id":"free"},{"bike_id":"bf4eb13f-cbea-42d7-8dc7-4fac53914e76","system_id":"levelo_inurba_marseille","lat":43.325233,"lon":5.414318,"is_reserved":false,"is_disabled":false,"rental_uris":{"android":"levelo://app?vid=bf4eb13f-cbea-42d7-8dc7-4fac53914e76","ios":"levelo://app?vid=bf4eb13f-cbea-42d7-8dc7-4fac53914e76"},"vehicle_type_id":"4","last_reported":1701076077,"current_range_meters":15200,"station_id":"ce4bhq12rcd13ifvqhhg","pricing_plan_id":"free"},{"bike_id":"a8f3332e-5c17-4bd2-bd8a-87b34d9784e9","system_id":"levelo_inurba_marseille","lat":43.325233,"lon":5.414318,"is_reserved":false,"is_disabled":false,"rental_uris":{"android":"levelo://app?vid=a8f3332e-5c17-4bd2-bd8a-87b34d9784e9","ios":"levelo://app?vid=a8f3332e-5c17-4bd2-bd8a-87b34d9784e9"},"vehicle_type_id":"4","last_reported":1701076077,"current_range_meters":26800,"station_id":"ce4bhq12rcd13ifvqhhg","pricing_plan_id":"free"},{"bike_id":"bbdb5489-40fe-4cfd-a58b-8a8da0ade43b","system_id":"levelo_inurba_marseille","lat":43.325233,"lon":5.414318,"is_reserved":false,"is_disabled":false,"rental_uris":{"android":"levelo://app?vid=bbdb5489-40fe-4cfd-a58b-8a8da0ade43b","ios":"levelo://app?vid=bbdb5489-40fe-4cfd-a58b-8a8da0ade43b"},"vehicle_type_id":"4","last_reported":1701076077,"current_range_meters":1600,"station_id":"ce4bhq12rcd13ifvqhhg","pricing_plan_id":"free"},{"bike_id":"1d7091d5-ee9e-4f48-9745-5c69a077227a","system_id":"levelo_inurba_marseille","lat":43.336134,"lon":5.410341,"is_reserved":false,"is_disabled":false,"rental_uris":{"android":"levelo://app?vid=1d7091d5-ee9e-4f48-9745-5c69a077227a","ios":"levelo://app?vid=1d7091d5-ee9e-4f48-9745-5c69a077227a"},"vehicle_type_id":"4","last_reported":1701076077,"current_range_meters":9600,"station_id":"ce4bhqh2rcd13ifvqhmg","pricing_plan_id":"free"},{"bike_id":"43a0b753-fb47-4881-91d9-d29a0815f06e","system_id":"levelo_inurba_marseille","lat":43.273609,"lon":5.362708,"is_reserved":false,"is_disabled":false,"rental_uris":{"android":"levelo://app?vid=43a0b753-fb47-4881-91d9-d29a0815f06e","ios":"levelo://app?vid=43a0b753-fb47-4881-91d9-d29a0815f06e"},"vehicle_type_id":"4","last_reported":1701076077,"current_range_meters":20000,"station_id":"ce4bhbh2rcd13ifvqeo0","pricing_plan_id":"free"},{"bike_id":"762a2d7a-e8cf-423b-a632-8002c3ad8f77","system_id":"levelo_inurba_marseille","lat":43.33612,"lon":5.410321,"is_reserved":false,"is_disabled":false,"rental_uris":{"android":"levelo://app?vid=762a2d7a-e8cf-423b-a632-8002c3ad8f77","ios":"levelo://app?vid=762a2d7a-e8cf-423b-a632-8002c3ad8f77"},"vehicle_type_id":"4","last_reported":1701076077,"current_range_meters":21200,"station_id":"ce4bhqh2rcd13ifvqhmg","pricing_plan_id":"free"},{"bike_id":"4f77d8aa-8cd2-4738-8736-452d5e520a45","system_id":"levelo_inurba_marseille","lat":43.33612,"lon":5.410321,"is_reserved":false,"is_disabled":false,"rental_uris":{"android":"levelo://app?vid=4f77d8aa-8cd2-4738-8736-452d5e520a45","ios":"levelo://app?vid=4f77d8aa-8cd2-4738-8736-452d5e520a45"},"vehicle_type_id":"4","last_reported":1701076077,"current_range_meters":31600,"station_id":"ce4bhqh2rcd13ifvqhmg","pricing_plan_id":"free"},{"bike_id":"b38ffad7-134a-40fa-bc8b-31f1166191a4","system_id":"levelo_inurba_marseille","lat":43.336134,"lon":5.410341,"is_reserved":false,"is_disabled":false,"rental_uris":{"android":"levelo://app?vid=b38ffad7-134a-40fa-bc8b-31f1166191a4","ios":"levelo://app?vid=b38ffad7-134a-40fa-bc8b-31f1166191a4"},"vehicle_type_id":"4","last_reported":1701076077,"current_range_meters":18000,"station_id":"ce4bhqh2rcd13ifvqhmg","pricing_plan_id":"free"},{"bike_id":"0eeae51c-7855-4686-ba49-5a63463d5444","system_id":"levelo_inurba_marseille","lat":43.33612,"lon":5.410321,"is_reserved":false,"is_disabled":false,"rental_uris":{"android":"levelo://app?vid=0eeae51c-7855-4686-ba49-5a63463d5444","ios":"levelo://app?vid=0eeae51c-7855-4686-ba49-5a63463d5444"},"vehicle_type_id":"4","last_reported":1701076077,"current_range_meters":26000,"station_id":"ce4bhqh2rcd13ifvqhmg","pricing_plan_id":"free"},{"bike_id":"959a9a8d-b7e8-461b-aef4-eeff803564a4","system_id":"levelo_inurba_marseille","lat":43.33612,"lon":5.410321,"is_reserved":false,"is_disabled":false,"rental_uris":{"android":"levelo://app?vid=959a9a8d-b7e8-461b-aef4-eeff803564a4","ios":"levelo://app?vid=959a9a8d-b7e8-461b-aef4-eeff803564a4"},"vehicle_type_id":"4","last_reported":1701076077,"current_range_meters":2400,"station_id":"ce4bhqh2rcd13ifvqhmg","pricing_plan_id":"free"},{"bike_id":"b2e383cc-c560-4935-8458-56a2adcb531f","system_id":"levelo_inurba_marseille","lat":43.310785,"lon":5.424305,"is_reserved":false,"is_disabled":false,"rental_uris":{"android":"levelo://app?vid=b2e383cc-c560-4935-8458-56a2adcb531f","ios":"levelo://app?vid=b2e383cc-c560-4935-8458-56a2adcb531f"},"vehicle_type_id":"4","last_reported":1701076077,"current_range_meters":18400,"station_id":"ce4bhp92rcd13ifvqhag","pricing_plan_id":"free"},{"bike_id":"01146bbd-59df-4458-a651-778531e9a4cf","system_id":"levelo_inurba_marseille","lat":43.310785,"lon":5.424305,"is_reserved":false,"is_disabled":false,"rental_uris":{"android":"levelo://app?vid=01146bbd-59df-4458-a651-778531e9a4cf","ios":"levelo://app?vid=01146bbd-59df-4458-a651-778531e9a4cf"},"vehicle_type_id":"4","last_reported":1701076077,"current_range_meters":26000,"station_id":"ce4bhp92rcd13ifvqhag","pricing_plan_id":"free"},{"bike_id":"8ef87ac3-8a0d-4ac6-80c0-266e2621bf7f","system_id":"levelo_inurba_marseille","lat":43.27605,"lon":5.39488,"is_reserved":false,"is_disabled":false,"rental_uris":{"android":"levelo://app?vid=8ef87ac3-8a0d-4ac6-80c0-266e2621bf7f","ios":"levelo://app?vid=8ef87ac3-8a0d-4ac6-80c0-266e2621bf7f"},"vehicle_type_id":"4","last_reported":1701076077,"current_range_meters":0,"station_id":"","pricing_plan_id":"free"},{"bike_id":"82b5bb96-6569-4927-a4d2-f1faee99f1b8","system_id":"levelo_inurba_marseille","lat":43.340804,"lon":5.410219,"is_reserved":false,"is_disabled":false,"rental_uris":{"android":"levelo://app?vid=82b5bb96-6569-4927-a4d2-f1faee99f1b8","ios":"levelo://app?vid=82b5bb96-6569-4927-a4d2-f1faee99f1b8"},"vehicle_type_id":"4","last_reported":1701076077,"current_range_meters":28000,"station_id":"ce4bhqh2rcd13ifvqhlg","pricing_plan_id":"free"},{"bike_id":"487e8935-2222-4e65-8507-6d483307a42a","system_id":"levelo_inurba_marseille","lat":43.295511,"lon":5.422926,"is_reserved":false,"is_disabled":false,"rental_uris":{"android":"levelo://app?vid=487e8935-2222-4e65-8507-6d483307a42a","ios":"levelo://app?vid=487e8935-2222-4e65-8507-6d483307a42a"},"vehicle_type_id":"4","last_reported":1701076077,"current_range_meters":31200,"station_id":"ce4bhph2rcd13ifvqhdg","pricing_plan_id":"free"},{"bike_id":"763b6124-53d3-4313-ae93-709b9e0ea7fb","system_id":"levelo_inurba_marseille","lat":43.295511,"lon":5.422926,"is_reserved":false,"is_disabled":false,"rental_uris":{"android":"levelo://app?vid=763b6124-53d3-4313-ae93-709b9e0ea7fb","ios":"levelo://app?vid=763b6124-53d3-4313-ae93-709b9e0ea7fb"},"vehicle_type_id":"4","last_reported":1701076077,"current_range_meters":14800,"station_id":"ce4bhph2rcd13ifvqhdg","pricing_plan_id":"free"},{"bike_id":"3029bb9c-a722-4a0b-80d7-eaec226f56af","system_id":"levelo_inurba_marseille","lat":43.295511,"lon":5.422926,"is_reserved":false,"is_disabled":false,"rental_uris":{"android":"levelo://app?vid=3029bb9c-a722-4a0b-80d7-eaec226f56af","ios":"levelo://app?vid=3029bb9c-a722-4a0b-80d7-eaec226f56af"},"vehicle_type_id":"4","last_reported":1701076077,"current_range_meters":22800,"station_id":"ce4bhph2rcd13ifvqhdg","pricing_plan_id":"free"},{"bike_id":"11cb24df-6045-4285-a63a-12e56e52c855","system_id":"levelo_inurba_marseille","lat":43.269467,"lon":5.386439,"is_reserved":false,"is_disabled":false,"rental_uris":{"android":"levelo://app?vid=11cb24df-6045-4285-a63a-12e56e52c855","ios":"levelo://app?vid=11cb24df-6045-4285-a63a-12e56e52c855"},"vehicle_type_id":"4","last_reported":1701076077,"current_range_meters":24800,"station_id":"ce4bhh92rcd13ifvqfh0","pricing_plan_id":"free"},{"bike_id":"08032b07-042b-4544-a08a-c0173ac6671a","system_id":"levelo_inurba_marseille","lat":43.269467,"lon":5.386439,"is_reserved":false,"is_disabled":false,"rental_uris":{"android":"levelo://app?vid=08032b07-042b-4544-a08a-c0173ac6671a","ios":"levelo://app?vid=08032b07-042b-4544-a08a-c0173ac6671a"},"vehicle_type_id":"4","last_reported":1701076077,"current_range_meters":15200,"station_id":"ce4bhh92rcd13ifvqfh0","pricing_plan_id":"free"},{"bike_id":"66ba5ddc-e3ab-4fac-8696-0c262ce2a3ed","system_id":"levelo_inurba_marseille","lat":43.269467,"lon":5.386439,"is_reserved":false,"is_disabled":false,"rental_uris":{"android":"levelo://app?vid=66ba5ddc-e3ab-4fac-8696-0c262ce2a3ed","ios":"levelo://app?vid=66ba5ddc-e3ab-4fac-8696-0c262ce2a3ed"},"vehicle_type_id":"4","last_reported":1701076077,"current_range_meters":30400,"station_id":"ce4bhh92rcd13ifvqfh0","pricing_plan_id":"free"},{"bike_id":"a6f0e1d9-5ab9-40bd-8a5d-6142a454a3f8","system_id":"levelo_inurba_marseille","lat":43.269467,"lon":5.386439,"is_reserved":false,"is_disabled":false,"rental_uris":{"android":"levelo://app?vid=a6f0e1d9-5ab9-40bd-8a5d-6142a454a3f8","ios":"levelo://app?vid=a6f0e1d9-5ab9-40bd-8a5d-6142a454a3f8"},"vehicle_type_id":"4","last_reported":1701076077,"current_range_meters":26000,"station_id":"ce4bhh92rcd13ifvqfh0","pricing_plan_id":"free"},{"bike_id":"b330d490-7868-4baa-b55a-3602b380ec61","system_id":"levelo_inurba_marseille","lat":43.269467,"lon":5.386439,"is_reserved":false,"is_disabled":false,"rental_uris":{"android":"levelo://app?vid=b330d490-7868-4baa-b55a-3602b380ec61","ios":"levelo://app?vid=b330d490-7868-4baa-b55a-3602b380ec61"},"vehicle_type_id":"4","last_reported":1701076077,"current_range_meters":28000,"station_id":"ce4bhh92rcd13ifvqfh0","pricing_plan_id":"free"},{"bike_id":"a63e80e6-a023-45c9-a8db-1dfffe2f2884","system_id":"levelo_inurba_marseille","lat":43.269467,"lon":5.386439,"is_reserved":false,"is_disabled":false,"rental_uris":{"android":"levelo://app?vid=a63e80e6-a023-45c9-a8db-1dfffe2f2884","ios":"levelo://app?vid=a63e80e6-a023-45c9-a8db-1dfffe2f2884"},"vehicle_type_id":"4","last_reported":1701076077,"current_range_meters":26800,"station_id":"ce4bhh92rcd13ifvqfh0","pricing_plan_id":"free"},{"bike_id":"11c530ef-3a1e-4341-9786-f43509d01bc1","system_id":"levelo_inurba_marseille","lat":43.29816,"lon":5.42657,"is_reserved":false,"is_disabled":false,"rental_uris":{"android":"levelo://app?vid=11c530ef-3a1e-4341-9786-f43509d01bc1","ios":"levelo://app?vid=11c530ef-3a1e-4341-9786-f43509d01bc1"},"vehicle_type_id":"4","last_reported":1701076077,"current_range_meters":0,"station_id":"","pricing_plan_id":"free"},{"bike_id":"3a549760-e2d2-42ab-a932-0580d331ba47","system_id":"levelo_inurba_marseille","lat":43.279483,"lon":5.41045,"is_reserved":false,"is_disabled":false,"rental_uris":{"android":"levelo://app?vid=3a549760-e2d2-42ab-a932-0580d331ba47","ios":"levelo://app?vid=3a549760-e2d2-42ab-a932-0580d331ba47"},"vehicle_type_id":"4","last_reported":1701076077,"current_range_meters":3200,"station_id":"ce4bhnp2rcd13ifvqh0g","pricing_plan_id":"free"},{"bike_id":"ab4a88c4-fa3b-4342-b08e-098ceacb291e","system_id":"levelo_inurba_marseille","lat":43.27948,"lon":5.41051,"is_reserved":false,"is_disabled":false,"rental_uris":{"android":"levelo://app?vid=ab4a88c4-fa3b-4342-b08e-098ceacb291e","ios":"levelo://app?vid=ab4a88c4-fa3b-4342-b08e-098ceacb291e"},"vehicle_type_id":"4","last_reported":1701076077,"current_range_meters":21200,"station_id":"ce4bhnp2rcd13ifvqh0g","pricing_plan_id":"free"},{"bike_id":"eb6b06c4-292e-4c49-b3b2-e84dcf2b4892","system_id":"levelo_inurba_marseille","lat":43.279465,"lon":5.410561,"is_reserved":false,"is_disabled":false,"rental_uris":{"android":"levelo://app?vid=eb6b06c4-292e-4c49-b3b2-e84dcf2b4892","ios":"levelo://app?vid=eb6b06c4-292e-4c49-b3b2-e84dcf2b4892"},"vehicle_type_id":"4","last_reported":1701076077,"current_range_meters":19200,"station_id":"ce4bhnp2rcd13ifvqh0g","pricing_plan_id":"free"},{"bike_id":"b0cb47dc-ede4-4bef-b852-10f00354f832","system_id":"levelo_inurba_marseille","lat":43.269319,"lon":5.389397,"is_reserved":false,"is_disabled":false,"rental_uris":{"android":"levelo://app?vid=b0cb47dc-ede4-4bef-b852-10f00354f832","ios":"levelo://app?vid=b0cb47dc-ede4-4bef-b852-10f00354f832"},"vehicle_type_id":"4","last_reported":1701076077,"current_range_meters":29600,"station_id":"ce4bhhh2rcd13ifvqfl0","pricing_plan_id":"free"},{"bike_id":"3f118269-40dc-4f43-80d2-9f0573bdf414","system_id":"levelo_inurba_marseille","lat":43.26681,"lon":5.382694,"is_reserved":false,"is_disabled":false,"rental_uris":{"android":"levelo://app?vid=3f118269-40dc-4f43-80d2-9f0573bdf414","ios":"levelo://app?vid=3f118269-40dc-4f43-80d2-9f0573bdf414"},"vehicle_type_id":"4","last_reported":1701076077,"current_range_meters":26800,"station_id":"ce4bhg92rcd13ifvqf90","pricing_plan_id":"free"},{"bike_id":"5844cac5-d8cf-4995-bae7-16b150717a41","system_id":"levelo_inurba_marseille","lat":43.26681,"lon":5.382694,"is_reserved":false,"is_disabled":false,"rental_uris":{"android":"levelo://app?vid=5844cac5-d8cf-4995-bae7-16b150717a41","ios":"levelo://app?vid=5844cac5-d8cf-4995-bae7-16b150717a41"},"vehicle_type_id":"4","last_reported":1701076077,"current_range_meters":14400,"station_id":"ce4bhg92rcd13ifvqf90","pricing_plan_id":"free"},{"bike_id":"b13a942b-5b83-431b-96ed-c53ee14198c7","system_id":"levelo_inurba_marseille","lat":43.26681,"lon":5.382694,"is_reserved":false,"is_disabled":false,"rental_uris":{"android":"levelo://app?vid=b13a942b-5b83-431b-96ed-c53ee14198c7","ios":"levelo://app?vid=b13a942b-5b83-431b-96ed-c53ee14198c7"},"vehicle_type_id":"4","last_reported":1701076077,"current_range_meters":24400,"station_id":"ce4bhg92rcd13ifvqf90","pricing_plan_id":"free"},{"bike_id":"85e14555-81ae-4c2b-bb64-c7d65db3d5a9","system_id":"levelo_inurba_marseille","lat":43.26681,"lon":5.382694,"is_reserved":false,"is_disabled":false,"rental_uris":{"android":"levelo://app?vid=85e14555-81ae-4c2b-bb64-c7d65db3d5a9","ios":"levelo://app?vid=85e14555-81ae-4c2b-bb64-c7d65db3d5a9"},"vehicle_type_id":"4","last_reported":1701076077,"current_range_meters":24400,"station_id":"ce4bhg92rcd13ifvqf90","pricing_plan_id":"free"},{"bike_id":"7778668d-d420-499a-a45f-1b5180949567","system_id":"levelo_inurba_marseille","lat":43.26681,"lon":5.382694,"is_reserved":false,"is_disabled":false,"rental_uris":{"android":"levelo://app?vid=7778668d-d420-499a-a45f-1b5180949567","ios":"levelo://app?vid=7778668d-d420-499a-a45f-1b5180949567"},"vehicle_type_id":"4","last_reported":1701076077,"current_range_meters":15600,"station_id":"ce4bhg92rcd13ifvqf90","pricing_plan_id":"free"},{"bike_id":"4725fd96-49b6-4ab9-93ac-fefefc7f80e0","system_id":"levelo_inurba_marseille","lat":43.26681,"lon":5.382694,"is_reserved":false,"is_disabled":false,"rental_uris":{"android":"levelo://app?vid=4725fd96-49b6-4ab9-93ac-fefefc7f80e0","ios":"levelo://app?vid=4725fd96-49b6-4ab9-93ac-fefefc7f80e0"},"vehicle_type_id":"4","last_reported":1701076077,"current_range_meters":1600,"station_id":"ce4bhg92rcd13ifvqf90","pricing_plan_id":"free"},{"bike_id":"40b89140-01b9-4e4e-ac32-53751fd03f36","system_id":"levelo_inurba_marseille","lat":43.26681,"lon":5.382694,"is_reserved":false,"is_disabled":false,"rental_uris":{"android":"levelo://app?vid=40b89140-01b9-4e4e-ac32-53751fd03f36","ios":"levelo://app?vid=40b89140-01b9-4e4e-ac32-53751fd03f36"},"vehicle_type_id":"4","last_reported":1701076077,"current_range_meters":23200,"station_id":"ce4bhg92rcd13ifvqf90","pricing_plan_id":"free"},{"bike_id":"045c779a-0de3-4f1a-9ff9-44572f00cc3e","system_id":"levelo_inurba_marseille","lat":43.26681,"lon":5.382694,"is_reserved":false,"is_disabled":false,"rental_uris":{"android":"levelo://app?vid=045c779a-0de3-4f1a-9ff9-44572f00cc3e","ios":"levelo://app?vid=045c779a-0de3-4f1a-9ff9-44572f00cc3e"},"vehicle_type_id":"4","last_reported":1701076077,"current_range_meters":31200,"station_id":"ce4bhg92rcd13ifvqf90","pricing_plan_id":"free"},{"bike_id":"e4b68f4a-2ca1-49c2-936e-c6a93135be9a","system_id":"levelo_inurba_marseille","lat":43.26681,"lon":5.382694,"is_reserved":false,"is_disabled":false,"rental_uris":{"android":"levelo://app?vid=e4b68f4a-2ca1-49c2-936e-c6a93135be9a","ios":"levelo://app?vid=e4b68f4a-2ca1-49c2-936e-c6a93135be9a"},"vehicle_type_id":"4","last_reported":1701076077,"current_range_meters":31200,"station_id":"ce4bhg92rcd13ifvqf90","pricing_plan_id":"free"},{"bike_id":"72dbca0f-23b3-44ed-8277-c5031ec7553b","system_id":"levelo_inurba_marseille","lat":43.26681,"lon":5.382694,"is_reserved":false,"is_disabled":false,"rental_uris":{"android":"levelo://app?vid=72dbca0f-23b3-44ed-8277-c5031ec7553b","ios":"levelo://app?vid=72dbca0f-23b3-44ed-8277-c5031ec7553b"},"vehicle_type_id":"4","last_reported":1701076077,"current_range_meters":28400,"station_id":"ce4bhg92rcd13ifvqf90","pricing_plan_id":"free"},{"bike_id":"ea07f886-25ab-4762-bffe-79ccd5af5f43","system_id":"levelo_inurba_marseille","lat":43.26681,"lon":5.382694,"is_reserved":false,"is_disabled":false,"rental_uris":{"android":"levelo://app?vid=ea07f886-25ab-4762-bffe-79ccd5af5f43","ios":"levelo://app?vid=ea07f886-25ab-4762-bffe-79ccd5af5f43"},"vehicle_type_id":"4","last_reported":1701076077,"current_range_meters":18000,"station_id":"ce4bhg92rcd13ifvqf90","pricing_plan_id":"free"},{"bike_id":"4e935c36-90c4-402d-8a48-9c806e8c7f2f","system_id":"levelo_inurba_marseille","lat":43.26681,"lon":5.382694,"is_reserved":false,"is_disabled":false,"rental_uris":{"android":"levelo://app?vid=4e935c36-90c4-402d-8a48-9c806e8c7f2f","ios":"levelo://app?vid=4e935c36-90c4-402d-8a48-9c806e8c7f2f"},"vehicle_type_id":"4","last_reported":1701076077,"current_range_meters":31600,"station_id":"ce4bhg92rcd13ifvqf90","pricing_plan_id":"free"},{"bike_id":"f23d8119-b478-4639-98c5-6883279f9f84","system_id":"levelo_inurba_marseille","lat":43.32592,"lon":5.43067,"is_reserved":false,"is_disabled":false,"rental_uris":{"android":"levelo://app?vid=f23d8119-b478-4639-98c5-6883279f9f84","ios":"levelo://app?vid=f23d8119-b478-4639-98c5-6883279f9f84"},"vehicle_type_id":"4","last_reported":1701076077,"current_range_meters":19600,"station_id":"","pricing_plan_id":"free"},{"bike_id":"ed30d6a1-b23a-49e5-9c83-5546be72a734","system_id":"levelo_inurba_marseille","lat":43.3259,"lon":5.43075,"is_reserved":false,"is_disabled":false,"rental_uris":{"android":"levelo://app?vid=ed30d6a1-b23a-49e5-9c83-5546be72a734","ios":"levelo://app?vid=ed30d6a1-b23a-49e5-9c83-5546be72a734"},"vehicle_type_id":"4","last_reported":1701076077,"current_range_meters":14400,"station_id":"","pricing_plan_id":"free"},{"bike_id":"d67469ee-5362-4610-a163-fe05ae3cf4f7","system_id":"levelo_inurba_marseille","lat":43.32604,"lon":5.430817,"is_reserved":false,"is_disabled":false,"rental_uris":{"android":"levelo://app?vid=d67469ee-5362-4610-a163-fe05ae3cf4f7","ios":"levelo://app?vid=d67469ee-5362-4610-a163-fe05ae3cf4f7"},"vehicle_type_id":"4","last_reported":1701076077,"current_range_meters":2800,"station_id":"","pricing_plan_id":"free"},{"bike_id":"1782395a-dfb7-45ee-9295-2ba3829f456a","system_id":"levelo_inurba_marseille","lat":43.26779,"lon":5.3942,"is_reserved":false,"is_disabled":false,"rental_uris":{"android":"levelo://app?vid=1782395a-dfb7-45ee-9295-2ba3829f456a","ios":"levelo://app?vid=1782395a-dfb7-45ee-9295-2ba3829f456a"},"vehicle_type_id":"4","last_reported":1701076077,"current_range_meters":12000,"station_id":"ce4bhh12rcd13ifvqfg0","pricing_plan_id":"free"},{"bike_id":"acdc0654-46c2-451a-8cdb-e164503988af","system_id":"levelo_inurba_marseille","lat":43.265571,"lon":5.390032,"is_reserved":false,"is_disabled":false,"rental_uris":{"android":"levelo://app?vid=acdc0654-46c2-451a-8cdb-e164503988af","ios":"levelo://app?vid=acdc0654-46c2-451a-8cdb-e164503988af"},"vehicle_type_id":"4","last_reported":1701076077,"current_range_meters":3600,"station_id":"ce4bhe12rcd13ifvqf30","pricing_plan_id":"free"},{"bike_id":"cd4658a7-27a6-4241-81b7-25e08ff9ff1a","system_id":"levelo_inurba_marseille","lat":43.26564,"lon":5.38995,"is_reserved":false,"is_disabled":false,"rental_uris":{"android":"levelo://app?vid=cd4658a7-27a6-4241-81b7-25e08ff9ff1a","ios":"levelo://app?vid=cd4658a7-27a6-4241-81b7-25e08ff9ff1a"},"vehicle_type_id":"4","last_reported":1701076077,"current_range_meters":0,"station_id":"ce4bhe12rcd13ifvqf30","pricing_plan_id":"free"},{"bike_id":"0702b027-d92c-4ecd-97a5-310236d5c197","system_id":"levelo_inurba_marseille","lat":43.283494,"lon":5.380945,"is_reserved":false,"is_disabled":false,"rental_uris":{"android":"levelo://app?vid=0702b027-d92c-4ecd-97a5-310236d5c197","ios":"levelo://app?vid=0702b027-d92c-4ecd-97a5-310236d5c197"},"vehicle_type_id":"4","last_reported":1701076077,"current_range_meters":23200,"station_id":"ce4bh412rcd13ifvqdr0","pricing_plan_id":"free"},{"bike_id":"6e70db11-14c5-4146-bb25-0a8c48c10ec2","system_id":"levelo_inurba_marseille","lat":43.26941,"lon":5.40262,"is_reserved":false,"is_disabled":false,"rental_uris":{"android":"levelo://app?vid=6e70db11-14c5-4146-bb25-0a8c48c10ec2","ios":"levelo://app?vid=6e70db11-14c5-4146-bb25-0a8c48c10ec2"},"vehicle_type_id":"4","last_reported":1701076077,"current_range_meters":20400,"station_id":"cjm6bp8fraef2m0cb0m0","pricing_plan_id":"free"},{"bike_id":"791b00c5-2e5a-477f-860f-ce8be00c8748","system_id":"levelo_inurba_marseille","lat":43.26896,"lon":5.40337,"is_reserved":false,"is_disabled":false,"rental_uris":{"android":"levelo://app?vid=791b00c5-2e5a-477f-860f-ce8be00c8748","ios":"levelo://app?vid=791b00c5-2e5a-477f-860f-ce8be00c8748"},"vehicle_type_id":"4","last_reported":1701076077,"current_range_meters":4800,"station_id":"cjm6bp8fraef2m0cb0m0","pricing_plan_id":"free"},{"bike_id":"d4f0b5c0-d837-4d2b-881f-270fb3d160de","system_id":"levelo_inurba_marseille","lat":43.267959,"lon":5.402687,"is_reserved":false,"is_disabled":false,"rental_uris":{"android":"levelo://app?vid=d4f0b5c0-d837-4d2b-881f-270fb3d160de","ios":"levelo://app?vid=d4f0b5c0-d837-4d2b-881f-270fb3d160de"},"vehicle_type_id":"4","last_reported":1701076077,"current_range_meters":26800,"station_id":"ce501612rcd8frsf0b60","pricing_plan_id":"free"},{"bike_id":"394d0168-ba86-454b-99ee-ca2e297b6813","system_id":"levelo_inurba_marseille","lat":43.267959,"lon":5.402687,"is_reserved":false,"is_disabled":false,"rental_uris":{"android":"levelo://app?vid=394d0168-ba86-454b-99ee-ca2e297b6813","ios":"levelo://app?vid=394d0168-ba86-454b-99ee-ca2e297b6813"},"vehicle_type_id":"4","last_reported":1701076077,"current_range_meters":13200,"station_id":"ce501612rcd8frsf0b60","pricing_plan_id":"free"},{"bike_id":"7c5a83ac-336c-4b91-a5ea-82b3c6d6127d","system_id":"levelo_inurba_marseille","lat":43.298768,"lon":5.43643,"is_reserved":false,"is_disabled":false,"rental_uris":{"android":"levelo://app?vid=7c5a83ac-336c-4b91-a5ea-82b3c6d6127d","ios":"levelo://app?vid=7c5a83ac-336c-4b91-a5ea-82b3c6d6127d"},"vehicle_type_id":"4","last_reported":1701076077,"current_range_meters":31200,"station_id":"ce4bhpp2rcd13ifvqhfg","pricing_plan_id":"free"},{"bike_id":"f4f2e1d5-dafa-412d-9b3a-3611814786ce","system_id":"levelo_inurba_marseille","lat":43.298768,"lon":5.43643,"is_reserved":false,"is_disabled":false,"rental_uris":{"android":"levelo://app?vid=f4f2e1d5-dafa-412d-9b3a-3611814786ce","ios":"levelo://app?vid=f4f2e1d5-dafa-412d-9b3a-3611814786ce"},"vehicle_type_id":"4","last_reported":1701076077,"current_range_meters":31600,"station_id":"ce4bhpp2rcd13ifvqhfg","pricing_plan_id":"free"},{"bike_id":"9a5ca6f0-6f31-4d5e-bf3e-7f028d92f2c5","system_id":"levelo_inurba_marseille","lat":43.298768,"lon":5.43643,"is_reserved":false,"is_disabled":false,"rental_uris":{"android":"levelo://app?vid=9a5ca6f0-6f31-4d5e-bf3e-7f028d92f2c5","ios":"levelo://app?vid=9a5ca6f0-6f31-4d5e-bf3e-7f028d92f2c5"},"vehicle_type_id":"4","last_reported":1701076077,"current_range_meters":28400,"station_id":"ce4bhpp2rcd13ifvqhfg","pricing_plan_id":"free"},{"bike_id":"3e9dd4fa-9528-4f08-81eb-29af05c4e353","system_id":"levelo_inurba_marseille","lat":43.281538,"lon":5.426343,"is_reserved":false,"is_disabled":false,"rental_uris":{"android":"levelo://app?vid=3e9dd4fa-9528-4f08-81eb-29af05c4e353","ios":"levelo://app?vid=3e9dd4fa-9528-4f08-81eb-29af05c4e353"},"vehicle_type_id":"4","last_reported":1701076077,"current_range_meters":28800,"station_id":"ce4bhnh2rcd13ifvqgug","pricing_plan_id":"free"},{"bike_id":"73f12681-1b59-4ddd-a46d-78247b47d788","system_id":"levelo_inurba_marseille","lat":43.281548,"lon":5.42643,"is_reserved":false,"is_disabled":false,"rental_uris":{"android":"levelo://app?vid=73f12681-1b59-4ddd-a46d-78247b47d788","ios":"levelo://app?vid=73f12681-1b59-4ddd-a46d-78247b47d788"},"vehicle_type_id":"4","last_reported":1701076077,"current_range_meters":30800,"station_id":"ce4bhnh2rcd13ifvqgug","pricing_plan_id":"free"},{"bike_id":"4dc37559-76c0-4253-84ce-601cdc53a29f","system_id":"levelo_inurba_marseille","lat":43.281548,"lon":5.42643,"is_reserved":false,"is_disabled":false,"rental_uris":{"android":"levelo://app?vid=4dc37559-76c0-4253-84ce-601cdc53a29f","ios":"levelo://app?vid=4dc37559-76c0-4253-84ce-601cdc53a29f"},"vehicle_type_id":"4","last_reported":1701076077,"current_range_meters":20000,"station_id":"ce4bhnh2rcd13ifvqgug","pricing_plan_id":"free"},{"bike_id":"fa7dbb4b-f445-45c2-a517-6f3ab94e1beb","system_id":"levelo_inurba_marseille","lat":43.2607,"lon":5.393983,"is_reserved":false,"is_disabled":false,"rental_uris":{"android":"levelo://app?vid=fa7dbb4b-f445-45c2-a517-6f3ab94e1beb","ios":"levelo://app?vid=fa7dbb4b-f445-45c2-a517-6f3ab94e1beb"},"vehicle_type_id":"4","last_reported":1701076077,"current_range_meters":18800,"station_id":"ce4bhh92rcd13ifvqfj0","pricing_plan_id":"free"},{"bike_id":"22349642-74c5-4a33-9683-32136b698cbe","system_id":"levelo_inurba_marseille","lat":43.26059,"lon":5.394,"is_reserved":false,"is_disabled":false,"rental_uris":{"android":"levelo://app?vid=22349642-74c5-4a33-9683-32136b698cbe","ios":"levelo://app?vid=22349642-74c5-4a33-9683-32136b698cbe"},"vehicle_type_id":"4","last_reported":1701076077,"current_range_meters":21200,"station_id":"ce4bhh92rcd13ifvqfj0","pricing_plan_id":"free"},{"bike_id":"af2159a7-533c-44b2-9f91-55ad689fd878","system_id":"levelo_inurba_marseille","lat":43.275028,"lon":5.424534,"is_reserved":false,"is_disabled":false,"rental_uris":{"android":"levelo://app?vid=af2159a7-533c-44b2-9f91-55ad689fd878","ios":"levelo://app?vid=af2159a7-533c-44b2-9f91-55ad689fd878"},"vehicle_type_id":"4","last_reported":1701076077,"current_range_meters":26000,"station_id":"ce4bhn92rcd13ifvqgrg","pricing_plan_id":"free"},{"bike_id":"155eb1f4-e4ff-4151-870f-9f53e6430e9c","system_id":"levelo_inurba_marseille","lat":43.275028,"lon":5.424534,"is_reserved":false,"is_disabled":false,"rental_uris":{"android":"levelo://app?vid=155eb1f4-e4ff-4151-870f-9f53e6430e9c","ios":"levelo://app?vid=155eb1f4-e4ff-4151-870f-9f53e6430e9c"},"vehicle_type_id":"4","last_reported":1701076077,"current_range_meters":31200,"station_id":"ce4bhn92rcd13ifvqgrg","pricing_plan_id":"free"},{"bike_id":"5f1402a9-aa14-42ff-b5ca-56a72619fba5","system_id":"levelo_inurba_marseille","lat":43.275028,"lon":5.424534,"is_reserved":false,"is_disabled":false,"rental_uris":{"android":"levelo://app?vid=5f1402a9-aa14-42ff-b5ca-56a72619fba5","ios":"levelo://app?vid=5f1402a9-aa14-42ff-b5ca-56a72619fba5"},"vehicle_type_id":"4","last_reported":1701076077,"current_range_meters":24800,"station_id":"ce4bhn92rcd13ifvqgrg","pricing_plan_id":"free"},{"bike_id":"a546cec7-c461-4563-8f9d-9c8f6cf81155","system_id":"levelo_inurba_marseille","lat":43.275028,"lon":5.424534,"is_reserved":false,"is_disabled":false,"rental_uris":{"android":"levelo://app?vid=a546cec7-c461-4563-8f9d-9c8f6cf81155","ios":"levelo://app?vid=a546cec7-c461-4563-8f9d-9c8f6cf81155"},"vehicle_type_id":"4","last_reported":1701076077,"current_range_meters":22000,"station_id":"ce4bhn92rcd13ifvqgrg","pricing_plan_id":"free"},{"bike_id":"308d4f6a-f219-456a-bab2-50b410bff3d3","system_id":"levelo_inurba_marseille","lat":43.275028,"lon":5.424534,"is_reserved":false,"is_disabled":false,"rental_uris":{"android":"levelo://app?vid=308d4f6a-f219-456a-bab2-50b410bff3d3","ios":"levelo://app?vid=308d4f6a-f219-456a-bab2-50b410bff3d3"},"vehicle_type_id":"4","last_reported":1701076077,"current_range_meters":24400,"station_id":"ce4bhn92rcd13ifvqgrg","pricing_plan_id":"free"},{"bike_id":"572f5e15-592b-4abd-8870-d46042c41a2f","system_id":"levelo_inurba_marseille","lat":43.275028,"lon":5.424534,"is_reserved":false,"is_disabled":false,"rental_uris":{"android":"levelo://app?vid=572f5e15-592b-4abd-8870-d46042c41a2f","ios":"levelo://app?vid=572f5e15-592b-4abd-8870-d46042c41a2f"},"vehicle_type_id":"4","last_reported":1701076077,"current_range_meters":23600,"station_id":"ce4bhn92rcd13ifvqgrg","pricing_plan_id":"free"},{"bike_id":"959cfa62-968d-4525-a72f-0617db6a1c7d","system_id":"levelo_inurba_marseille","lat":43.275028,"lon":5.424534,"is_reserved":false,"is_disabled":false,"rental_uris":{"android":"levelo://app?vid=959cfa62-968d-4525-a72f-0617db6a1c7d","ios":"levelo://app?vid=959cfa62-968d-4525-a72f-0617db6a1c7d"},"vehicle_type_id":"4","last_reported":1701076077,"current_range_meters":29600,"station_id":"ce4bhn92rcd13ifvqgrg","pricing_plan_id":"free"},{"bike_id":"249369c0-115d-460e-82a7-75ecc4cf9b52","system_id":"levelo_inurba_marseille","lat":43.275028,"lon":5.424534,"is_reserved":false,"is_disabled":false,"rental_uris":{"android":"levelo://app?vid=249369c0-115d-460e-82a7-75ecc4cf9b52","ios":"levelo://app?vid=249369c0-115d-460e-82a7-75ecc4cf9b52"},"vehicle_type_id":"4","last_reported":1701076077,"current_range_meters":8400,"station_id":"ce4bhn92rcd13ifvqgrg","pricing_plan_id":"free"},{"bike_id":"1dad8be2-a25a-4d6a-8d77-523cccd2cf17","system_id":"levelo_inurba_marseille","lat":43.275028,"lon":5.424534,"is_reserved":false,"is_disabled":false,"rental_uris":{"android":"levelo://app?vid=1dad8be2-a25a-4d6a-8d77-523cccd2cf17","ios":"levelo://app?vid=1dad8be2-a25a-4d6a-8d77-523cccd2cf17"},"vehicle_type_id":"4","last_reported":1701076077,"current_range_meters":13600,"station_id":"ce4bhn92rcd13ifvqgrg","pricing_plan_id":"free"},{"bike_id":"5f35bd39-e262-47bd-9e19-83bbf6afce13","system_id":"levelo_inurba_marseille","lat":43.275028,"lon":5.424534,"is_reserved":false,"is_disabled":false,"rental_uris":{"android":"levelo://app?vid=5f35bd39-e262-47bd-9e19-83bbf6afce13","ios":"levelo://app?vid=5f35bd39-e262-47bd-9e19-83bbf6afce13"},"vehicle_type_id":"4","last_reported":1701076077,"current_range_meters":20400,"station_id":"ce4bhn92rcd13ifvqgrg","pricing_plan_id":"free"},{"bike_id":"bbe4107a-6aeb-4082-b5e5-07a63c14584c","system_id":"levelo_inurba_marseille","lat":43.275028,"lon":5.424534,"is_reserved":false,"is_disabled":false,"rental_uris":{"android":"levelo://app?vid=bbe4107a-6aeb-4082-b5e5-07a63c14584c","ios":"levelo://app?vid=bbe4107a-6aeb-4082-b5e5-07a63c14584c"},"vehicle_type_id":"4","last_reported":1701076077,"current_range_meters":27600,"station_id":"ce4bhn92rcd13ifvqgrg","pricing_plan_id":"free"},{"bike_id":"04e4528d-3dca-4718-a06e-9b9442ef1733","system_id":"levelo_inurba_marseille","lat":43.275028,"lon":5.424534,"is_reserved":false,"is_disabled":false,"rental_uris":{"android":"levelo://app?vid=04e4528d-3dca-4718-a06e-9b9442ef1733","ios":"levelo://app?vid=04e4528d-3dca-4718-a06e-9b9442ef1733"},"vehicle_type_id":"4","last_reported":1701076077,"current_range_meters":18000,"station_id":"ce4bhn92rcd13ifvqgrg","pricing_plan_id":"free"},{"bike_id":"951f48e1-1166-4cd7-9e50-4b9463106234","system_id":"levelo_inurba_marseille","lat":43.275028,"lon":5.424534,"is_reserved":false,"is_disabled":false,"rental_uris":{"android":"levelo://app?vid=951f48e1-1166-4cd7-9e50-4b9463106234","ios":"levelo://app?vid=951f48e1-1166-4cd7-9e50-4b9463106234"},"vehicle_type_id":"4","last_reported":1701076077,"current_range_meters":14800,"station_id":"ce4bhn92rcd13ifvqgrg","pricing_plan_id":"free"},{"bike_id":"79c0b3d1-7810-4e03-b6bd-51e9ce2d8f62","system_id":"levelo_inurba_marseille","lat":43.275028,"lon":5.424534,"is_reserved":false,"is_disabled":false,"rental_uris":{"android":"levelo://app?vid=79c0b3d1-7810-4e03-b6bd-51e9ce2d8f62","ios":"levelo://app?vid=79c0b3d1-7810-4e03-b6bd-51e9ce2d8f62"},"vehicle_type_id":"4","last_reported":1701076077,"current_range_meters":20800,"station_id":"ce4bhn92rcd13ifvqgrg","pricing_plan_id":"free"},{"bike_id":"0833633d-26ae-4ca8-9da5-0a1ffd3c3484","system_id":"levelo_inurba_marseille","lat":43.275028,"lon":5.424534,"is_reserved":false,"is_disabled":false,"rental_uris":{"android":"levelo://app?vid=0833633d-26ae-4ca8-9da5-0a1ffd3c3484","ios":"levelo://app?vid=0833633d-26ae-4ca8-9da5-0a1ffd3c3484"},"vehicle_type_id":"4","last_reported":1701076077,"current_range_meters":24000,"station_id":"ce4bhn92rcd13ifvqgrg","pricing_plan_id":"free"},{"bike_id":"c85f7616-3a9e-47a4-ae16-28a03e51ab4f","system_id":"levelo_inurba_marseille","lat":43.28929,"lon":5.438754,"is_reserved":false,"is_disabled":false,"rental_uris":{"android":"levelo://app?vid=c85f7616-3a9e-47a4-ae16-28a03e51ab4f","ios":"levelo://app?vid=c85f7616-3a9e-47a4-ae16-28a03e51ab4f"},"vehicle_type_id":"4","last_reported":1701076077,"current_range_meters":8000,"station_id":"","pricing_plan_id":"free"},{"bike_id":"bb03d128-ef00-4706-a798-f82ccd3fae64","system_id":"levelo_inurba_marseille","lat":43.255779,"lon":5.382375,"is_reserved":false,"is_disabled":false,"rental_uris":{"android":"levelo://app?vid=bb03d128-ef00-4706-a798-f82ccd3fae64","ios":"levelo://app?vid=bb03d128-ef00-4706-a798-f82ccd3fae64"},"vehicle_type_id":"4","last_reported":1701076077,"current_range_meters":0,"station_id":"ce4bhih2rcd13ifvqfs0","pricing_plan_id":"free"},{"bike_id":"fa94e1b3-924d-484c-aa3a-070aacbdbbfd","system_id":"levelo_inurba_marseille","lat":43.270682,"lon":5.422758,"is_reserved":false,"is_disabled":false,"rental_uris":{"android":"levelo://app?vid=fa94e1b3-924d-484c-aa3a-070aacbdbbfd","ios":"levelo://app?vid=fa94e1b3-924d-484c-aa3a-070aacbdbbfd"},"vehicle_type_id":"4","last_reported":1701076077,"current_range_meters":25200,"station_id":"ce4bhk92rcd13ifvqgb0","pricing_plan_id":"free"},{"bike_id":"3764d48b-8e61-4222-bf2f-e0a7f6536aa8","system_id":"levelo_inurba_marseille","lat":43.270679,"lon":5.422789,"is_reserved":false,"is_disabled":false,"rental_uris":{"android":"levelo://app?vid=3764d48b-8e61-4222-bf2f-e0a7f6536aa8","ios":"levelo://app?vid=3764d48b-8e61-4222-bf2f-e0a7f6536aa8"},"vehicle_type_id":"4","last_reported":1701076077,"current_range_meters":26400,"station_id":"ce4bhk92rcd13ifvqgb0","pricing_plan_id":"free"},{"bike_id":"f88a2fa3-f8b6-40ff-ad40-255f7f9a8aa6","system_id":"levelo_inurba_marseille","lat":43.258658,"lon":5.398935,"is_reserved":false,"is_disabled":false,"rental_uris":{"android":"levelo://app?vid=f88a2fa3-f8b6-40ff-ad40-255f7f9a8aa6","ios":"levelo://app?vid=f88a2fa3-f8b6-40ff-ad40-255f7f9a8aa6"},"vehicle_type_id":"4","last_reported":1701076077,"current_range_meters":26800,"station_id":"ce4bhl92rcd13ifvqghg","pricing_plan_id":"free"},{"bike_id":"cc4c1f87-69d2-4692-bdc7-151dd9e5b434","system_id":"levelo_inurba_marseille","lat":43.25939,"lon":5.40901,"is_reserved":false,"is_disabled":false,"rental_uris":{"android":"levelo://app?vid=cc4c1f87-69d2-4692-bdc7-151dd9e5b434","ios":"levelo://app?vid=cc4c1f87-69d2-4692-bdc7-151dd9e5b434"},"vehicle_type_id":"4","last_reported":1701076077,"current_range_meters":22400,"station_id":"ce4bhm92rcd13ifvqglg","pricing_plan_id":"free"},{"bike_id":"e3d2e1b2-9afa-4a30-88d0-edbb58a5b6e1","system_id":"levelo_inurba_marseille","lat":43.25941,"lon":5.40906,"is_reserved":false,"is_disabled":false,"rental_uris":{"android":"levelo://app?vid=e3d2e1b2-9afa-4a30-88d0-edbb58a5b6e1","ios":"levelo://app?vid=e3d2e1b2-9afa-4a30-88d0-edbb58a5b6e1"},"vehicle_type_id":"4","last_reported":1701076077,"current_range_meters":20000,"station_id":"ce4bhm92rcd13ifvqglg","pricing_plan_id":"free"},{"bike_id":"157db73a-0a3c-4e84-ab3f-e5bca391394e","system_id":"levelo_inurba_marseille","lat":43.2594,"lon":5.40906,"is_reserved":false,"is_disabled":false,"rental_uris":{"android":"levelo://app?vid=157db73a-0a3c-4e84-ab3f-e5bca391394e","ios":"levelo://app?vid=157db73a-0a3c-4e84-ab3f-e5bca391394e"},"vehicle_type_id":"4","last_reported":1701076077,"current_range_meters":12400,"station_id":"ce4bhm92rcd13ifvqglg","pricing_plan_id":"free"},{"bike_id":"3e61ca31-0ede-4d4d-9f16-4dafe7b96d27","system_id":"levelo_inurba_marseille","lat":43.259013,"lon":5.409301,"is_reserved":false,"is_disabled":false,"rental_uris":{"android":"levelo://app?vid=3e61ca31-0ede-4d4d-9f16-4dafe7b96d27","ios":"levelo://app?vid=3e61ca31-0ede-4d4d-9f16-4dafe7b96d27"},"vehicle_type_id":"4","last_reported":1701076077,"current_range_meters":23200,"station_id":"ce4bhm92rcd13ifvqglg","pricing_plan_id":"free"},{"bike_id":"91465675-1e5d-439d-9a54-c9ce949abf39","system_id":"levelo_inurba_marseille","lat":43.259013,"lon":5.409301,"is_reserved":false,"is_disabled":false,"rental_uris":{"android":"levelo://app?vid=91465675-1e5d-439d-9a54-c9ce949abf39","ios":"levelo://app?vid=91465675-1e5d-439d-9a54-c9ce949abf39"},"vehicle_type_id":"4","last_reported":1701076077,"current_range_meters":20400,"station_id":"ce4bhm92rcd13ifvqglg","pricing_plan_id":"free"},{"bike_id":"e7a74322-792b-4771-ad01-20ee51219e55","system_id":"levelo_inurba_marseille","lat":43.259013,"lon":5.409301,"is_reserved":false,"is_disabled":false,"rental_uris":{"android":"levelo://app?vid=e7a74322-792b-4771-ad01-20ee51219e55","ios":"levelo://app?vid=e7a74322-792b-4771-ad01-20ee51219e55"},"vehicle_type_id":"4","last_reported":1701076077,"current_range_meters":16000,"station_id":"ce4bhm92rcd13ifvqglg","pricing_plan_id":"free"},{"bike_id":"8996178d-25f0-40d2-947b-1feb5661f950","system_id":"levelo_inurba_marseille","lat":43.259013,"lon":5.409301,"is_reserved":false,"is_disabled":false,"rental_uris":{"android":"levelo://app?vid=8996178d-25f0-40d2-947b-1feb5661f950","ios":"levelo://app?vid=8996178d-25f0-40d2-947b-1feb5661f950"},"vehicle_type_id":"4","last_reported":1701076077,"current_range_meters":16400,"station_id":"ce4bhm92rcd13ifvqglg","pricing_plan_id":"free"},{"bike_id":"2c93c4fe-24ef-47a9-9569-5fc975cae917","system_id":"levelo_inurba_marseille","lat":43.259013,"lon":5.409301,"is_reserved":false,"is_disabled":false,"rental_uris":{"android":"levelo://app?vid=2c93c4fe-24ef-47a9-9569-5fc975cae917","ios":"levelo://app?vid=2c93c4fe-24ef-47a9-9569-5fc975cae917"},"vehicle_type_id":"4","last_reported":1701076077,"current_range_meters":20400,"station_id":"ce4bhm92rcd13ifvqglg","pricing_plan_id":"free"},{"bike_id":"977fb2a2-1f4c-4555-aaf0-bacc2d3e3880","system_id":"levelo_inurba_marseille","lat":43.250009,"lon":5.389195,"is_reserved":false,"is_disabled":false,"rental_uris":{"android":"levelo://app?vid=977fb2a2-1f4c-4555-aaf0-bacc2d3e3880","ios":"levelo://app?vid=977fb2a2-1f4c-4555-aaf0-bacc2d3e3880"},"vehicle_type_id":"4","last_reported":1701076077,"current_range_meters":24800,"station_id":"ce4bhgp2rcd13ifvqfd0","pricing_plan_id":"free"},{"bike_id":"3a022bac-874c-479b-84ca-7d783e3f891d","system_id":"levelo_inurba_marseille","lat":43.250009,"lon":5.389195,"is_reserved":false,"is_disabled":false,"rental_uris":{"android":"levelo://app?vid=3a022bac-874c-479b-84ca-7d783e3f891d","ios":"levelo://app?vid=3a022bac-874c-479b-84ca-7d783e3f891d"},