{"last_updated":1771353738,"ttl":60,"version":"2.2","data":{"bikes":[{"bike_id":"0dec7a6e-29d0-41f4-a0f3-1dcc86f38028","system_id":"levelo_inurba_marseille","lat":43.24954,"lon":5.40503,"is_reserved":false,"is_disabled":false,"rental_uris":{"android":"levelo://app?vid=0dec7a6e-29d0-41f4-a0f3-1dcc86f38028","ios":"levelo://app?vid=0dec7a6e-29d0-41f4-a0f3-1dcc86f38028"},"vehicle_type_id":"4","last_reported":1771353738,"current_range_meters":29600,"station_id":"st_d2ngiaodas8pm72gd1h0","pricing_plan_id":"cebpf4jnsgd1na2vs0mg"},{"bike_id":"74d1bee4-171e-4a53-983a-92c4d3fd14b2","system_id":"levelo_inurba_marseille","lat":43.29544,"lon":5.38541,"is_reserved":false,"is_disabled":false,"rental_uris":{"android":"levelo://app?vid=74d1bee4-171e-4a53-983a-92c4d3fd14b2","ios":"levelo://app?vid=74d1bee4-171e-4a53-983a-92c4d3fd14b2"},"vehicle_type_id":"4","last_reported":1771353738,"current_range_meters":11200,"station_id":"ce4bgih2rcd13ifvqba0","pricing_plan_id":"cebpf4jnsgd1na2vs0mg"},{"bike_id":"d5c39038-a196-442c-a8de-b272561ff450","system_id":"levelo_inurba_marseille","lat":43.31234,"lon":5.36885,"is_reserved":false,"is_disabled":false,"rental_uris":{"android":"levelo://app?vid=d5c39038-a196-442c-a8de-b272561ff450","ios":"levelo://app?vid=d5c39038-a196-442c-a8de-b272561ff450"},"vehicle_type_id":"4","last_reported":1771353738,"current_range_meters":14000,"station_id":"ce4bgl92rcd13ifvqbq0","pricing_plan_id":"cebpf4jnsgd1na2vs0mg"},{"bike_id":"9e80a46a-e212-4568-b8f2-e7bfcbbc6fb2","system_id":"levelo_inurba_marseille","lat":43.331555,"lon":5.376952,"is_reserved":false,"is_disabled":false,"rental_uris":{"android":"levelo://app?vid=9e80a46a-e212-4568-b8f2-e7bfcbbc6fb2","ios":"levelo://app?vid=9e80a46a-e212-4568-b8f2-e7bfcbbc6fb2"},"vehicle_type_id":"4","last_reported":1771353738,"current_range_meters":28000,"station_id":"","pricing_plan_id":"cebpf4jnsgd1na2vs0mg"},{"bike_id":"06a35ccd-b33f-4049-bbfa-98f79e3425d6","system_id":"levelo_inurba_marseille","lat":43.26229,"lon":5.40453,"is_reserved":false,"is_disabled":false,"rental_uris":{"android":"levelo://app?vid=06a35ccd-b33f-4049-bbfa-98f79e3425d6","ios":"levelo://app?vid=06a35ccd-b33f-4049-bbfa-98f79e3425d6"},"vehicle_type_id":"4","last_reported":1771353738,"current_range_meters":20000,"station_id":"ce4bhmh2rcd13ifvqgmg","pricing_plan_id":"cebpf4jnsgd1na2vs0mg"},{"bike_id":"b2eb5fe5-c8e8-48e2-9166-64fc7fadb88f","system_id":"levelo_inurba_marseille","lat":43.24811,"lon":5.37463,"is_reserved":false,"is_disabled":false,"rental_uris":{"android":"levelo://app?vid=b2eb5fe5-c8e8-48e2-9166-64fc7fadb88f","ios":"levelo://app?vid=b2eb5fe5-c8e8-48e2-9166-64fc7fadb88f"},"vehicle_type_id":"4","last_reported":1771353738,"current_range_meters":35600,"station_id":"ce4bhgh2rcd13ifvqfb0","pricing_plan_id":"cebpf4jnsgd1na2vs0mg"},{"bike_id":"ca208522-c5c5-415c-9069-124a5d2f7bd4","system_id":"levelo_inurba_marseille","lat":43.24545,"lon":5.39514,"is_reserved":false,"is_disabled":false,"rental_uris":{"android":"levelo://app?vid=ca208522-c5c5-415c-9069-124a5d2f7bd4","ios":"levelo://app?vid=ca208522-c5c5-415c-9069-124a5d2f7bd4"},"vehicle_type_id":"4","last_reported":1771353738,"current_range_meters":31200,"station_id":"ce4bhlp2rcd13ifvqgjg","pricing_plan_id":"cebpf4jnsgd1na2vs0mg"},{"bike_id":"402492b2-75b7-4a30-b15f-baf2edef3968","system_id":"levelo_inurba_marseille","lat":43.26548,"lon":5.37303,"is_reserved":false,"is_disabled":true,"rental_uris":{"android":"levelo://app?vid=402492b2-75b7-4a30-b15f-baf2edef3968","ios":"levelo://app?vid=402492b2-75b7-4a30-b15f-baf2edef3968"},"vehicle_type_id":"4","last_reported":1771353738,"current_range_meters":37600,"station_id":"ce4bhg12rcd13ifvqf70","pricing_plan_id":"cebpf4jnsgd1na2vs0mg"},{"bike_id":"572bc761-8879-44f9-beaf-5779abd95762","system_id":"levelo_inurba_marseille","lat":43.26075,"lon":5.39403,"is_reserved":false,"is_disabled":false,"rental_uris":{"android":"levelo://app?vid=572bc761-8879-44f9-beaf-5779abd95762","ios":"levelo://app?vid=572bc761-8879-44f9-beaf-5779abd95762"},"vehicle_type_id":"4","last_reported":1771353738,"current_range_meters":9600,"station_id":"ce4bhh92rcd13ifvqfj0","pricing_plan_id":"cebpf4jnsgd1na2vs0mg"},{"bike_id":"5a983a63-0def-4441-a187-04ff64118d4b","system_id":"levelo_inurba_marseille","lat":43.304207,"lon":5.412811,"is_reserved":false,"is_disabled":false,"rental_uris":{"android":"levelo://app?vid=5a983a63-0def-4441-a187-04ff64118d4b","ios":"levelo://app?vid=5a983a63-0def-4441-a187-04ff64118d4b"},"vehicle_type_id":"4","last_reported":1771353738,"current_range_meters":7200,"station_id":"ce4bhop2rcd13ifvqh8g","pricing_plan_id":"cebpf4jnsgd1na2vs0mg"},{"bike_id":"a378116d-7a7e-4011-b826-d27e4ca1e68f","system_id":"levelo_inurba_marseille","lat":43.2885,"lon":5.3586,"is_reserved":false,"is_disabled":false,"rental_uris":{"android":"levelo://app?vid=a378116d-7a7e-4011-b826-d27e4ca1e68f","ios":"levelo://app?vid=a378116d-7a7e-4011-b826-d27e4ca1e68f"},"vehicle_type_id":"4","last_reported":1771353738,"current_range_meters":32400,"station_id":"","pricing_plan_id":"cebpf4jnsgd1na2vs0mg"},{"bike_id":"a760d9ba-2518-49a9-9223-50bcead8a859","system_id":"levelo_inurba_marseille","lat":43.29217,"lon":5.36079,"is_reserved":false,"is_disabled":false,"rental_uris":{"android":"levelo://app?vid=a760d9ba-2518-49a9-9223-50bcead8a859","ios":"levelo://app?vid=a760d9ba-2518-49a9-9223-50bcead8a859"},"vehicle_type_id":"4","last_reported":1771353738,"current_range_meters":11200,"station_id":"ce4bhbh2rcd13ifvqeqg","pricing_plan_id":"cebpf4jnsgd1na2vs0mg"},{"bike_id":"8604ba8d-23fc-4903-b43a-10ff6c1ab4ed","system_id":"levelo_inurba_marseille","lat":43.24398,"lon":5.37062,"is_reserved":false,"is_disabled":false,"rental_uris":{"android":"levelo://app?vid=8604ba8d-23fc-4903-b43a-10ff6c1ab4ed","ios":"levelo://app?vid=8604ba8d-23fc-4903-b43a-10ff6c1ab4ed"},"vehicle_type_id":"4","last_reported":1771353738,"current_range_meters":10800,"station_id":"ce4bhhh2rcd13ifvqfk0","pricing_plan_id":"cebpf4jnsgd1na2vs0mg"},{"bike_id":"dd7633b9-0cfb-4351-9b88-59e9f0bb3e60","system_id":"levelo_inurba_marseille","lat":43.29536,"lon":5.39041,"is_reserved":false,"is_disabled":false,"rental_uris":{"android":"levelo://app?vid=dd7633b9-0cfb-4351-9b88-59e9f0bb3e60","ios":"levelo://app?vid=dd7633b9-0cfb-4351-9b88-59e9f0bb3e60"},"vehicle_type_id":"4","last_reported":1771353738,"current_range_meters":8400,"station_id":"ce4bh3p2rcd13ifvqdp0","pricing_plan_id":"cebpf4jnsgd1na2vs0mg"},{"bike_id":"45c678c1-7b9b-4a93-a038-ef2c1a60194d","system_id":"levelo_inurba_marseille","lat":43.31224,"lon":5.36888,"is_reserved":false,"is_disabled":false,"rental_uris":{"android":"levelo://app?vid=45c678c1-7b9b-4a93-a038-ef2c1a60194d","ios":"levelo://app?vid=45c678c1-7b9b-4a93-a038-ef2c1a60194d"},"vehicle_type_id":"4","last_reported":1771353738,"current_range_meters":34800,"station_id":"ce4bgl92rcd13ifvqbq0","pricing_plan_id":"cebpf4jnsgd1na2vs0mg"},{"bike_id":"0ee84456-b561-44d6-9de8-8dd933fbade9","system_id":"levelo_inurba_marseille","lat":43.289235,"lon":5.364241,"is_reserved":false,"is_disabled":false,"rental_uris":{"android":"levelo://app?vid=0ee84456-b561-44d6-9de8-8dd933fbade9","ios":"levelo://app?vid=0ee84456-b561-44d6-9de8-8dd933fbade9"},"vehicle_type_id":"4","last_reported":1771353738,"current_range_meters":39200,"station_id":"ce4bhc92rcd13ifvqetg","pricing_plan_id":"cebpf4jnsgd1na2vs0mg"},{"bike_id":"9a8e9fdf-6de3-44ca-b997-82917ce09240","system_id":"levelo_inurba_marseille","lat":43.3116,"lon":5.3872,"is_reserved":false,"is_disabled":false,"rental_uris":{"android":"levelo://app?vid=9a8e9fdf-6de3-44ca-b997-82917ce09240","ios":"levelo://app?vid=9a8e9fdf-6de3-44ca-b997-82917ce09240"},"vehicle_type_id":"4","last_reported":1771353738,"current_range_meters":32800,"station_id":"ce4bgv12rcd13ifvqcp0","pricing_plan_id":"cebpf4jnsgd1na2vs0mg"},{"bike_id":"06fbad56-b200-43dd-8bf6-f0b5d190c345","system_id":"levelo_inurba_marseille","lat":43.283413,"lon":5.38098,"is_reserved":false,"is_disabled":false,"rental_uris":{"android":"levelo://app?vid=06fbad56-b200-43dd-8bf6-f0b5d190c345","ios":"levelo://app?vid=06fbad56-b200-43dd-8bf6-f0b5d190c345"},"vehicle_type_id":"4","last_reported":1771353738,"current_range_meters":39200,"station_id":"ce4bh412rcd13ifvqdr0","pricing_plan_id":"cebpf4jnsgd1na2vs0mg"},{"bike_id":"77981940-8b3f-4695-8477-b34f59e0613e","system_id":"levelo_inurba_marseille","lat":43.31903,"lon":5.40743,"is_reserved":false,"is_disabled":false,"rental_uris":{"android":"levelo://app?vid=77981940-8b3f-4695-8477-b34f59e0613e","ios":"levelo://app?vid=77981940-8b3f-4695-8477-b34f59e0613e"},"vehicle_type_id":"4","last_reported":1771353738,"current_range_meters":31200,"station_id":"ce4bhq12rcd13ifvqhig","pricing_plan_id":"cebpf4jnsgd1na2vs0mg"},{"bike_id":"252ffab4-b7b6-4e0c-9da0-6b22d38b30ab","system_id":"levelo_inurba_marseille","lat":43.29531,"lon":5.39401,"is_reserved":false,"is_disabled":false,"rental_uris":{"android":"levelo://app?vid=252ffab4-b7b6-4e0c-9da0-6b22d38b30ab","ios":"levelo://app?vid=252ffab4-b7b6-4e0c-9da0-6b22d38b30ab"},"vehicle_type_id":"4","last_reported":1771353738,"current_range_meters":8800,"station_id":"ce4bh292rcd13ifvqdf0","pricing_plan_id":"cebpf4jnsgd1na2vs0mg"},{"bike_id":"ef57d60e-e562-431d-9fe1-125f89a75263","system_id":"levelo_inurba_marseille","lat":43.29624,"lon":5.37172,"is_reserved":false,"is_disabled":false,"rental_uris":{"android":"levelo://app?vid=ef57d60e-e562-431d-9fe1-125f89a75263","ios":"levelo://app?vid=ef57d60e-e562-431d-9fe1-125f89a75263"},"vehicle_type_id":"4","last_reported":1771353738,"current_range_meters":39200,"station_id":"ce4bgnh2rcd13ifvqc0g","pricing_plan_id":"cebpf4jnsgd1na2vs0mg"},{"bike_id":"523be3a1-7aac-4998-b646-37ab41bb0d4f","system_id":"levelo_inurba_marseille","lat":43.27827,"lon":5.40726,"is_reserved":false,"is_disabled":false,"rental_uris":{"android":"levelo://app?vid=523be3a1-7aac-4998-b646-37ab41bb0d4f","ios":"levelo://app?vid=523be3a1-7aac-4998-b646-37ab41bb0d4f"},"vehicle_type_id":"4","last_reported":1771353738,"current_range_meters":30000,"station_id":"ce4bhnh2rcd13ifvqgtg","pricing_plan_id":"cebpf4jnsgd1na2vs0mg"},{"bike_id":"52ec4e3b-6e47-4242-8d60-4cf2f4dd1e85","system_id":"levelo_inurba_marseille","lat":43.29645,"lon":5.37732,"is_reserved":false,"is_disabled":false,"rental_uris":{"android":"levelo://app?vid=52ec4e3b-6e47-4242-8d60-4cf2f4dd1e85","ios":"levelo://app?vid=52ec4e3b-6e47-4242-8d60-4cf2f4dd1e85"},"vehicle_type_id":"4","last_reported":1771353738,"current_range_meters":6400,"station_id":"ce4bgi92rcd13ifvqb90","pricing_plan_id":"cebpf4jnsgd1na2vs0mg"},{"bike_id":"282dbedf-0523-49c3-b1d1-8b4c40d39507","system_id":"levelo_inurba_marseille","lat":43.29526,"lon":5.39408,"is_reserved":false,"is_disabled":false,"rental_uris":{"android":"levelo://app?vid=282dbedf-0523-49c3-b1d1-8b4c40d39507","ios":"levelo://app?vid=282dbedf-0523-49c3-b1d1-8b4c40d39507"},"vehicle_type_id":"4","last_reported":1771353738,"current_range_meters":27200,"station_id":"ce4bh292rcd13ifvqdf0","pricing_plan_id":"cebpf4jnsgd1na2vs0mg"},{"bike_id":"bade6b24-73d5-47df-8808-1e7c1a6f2206","system_id":"levelo_inurba_marseille","lat":43.295913,"lon":5.381293,"is_reserved":false,"is_disabled":false,"rental_uris":{"android":"levelo://app?vid=bade6b24-73d5-47df-8808-1e7c1a6f2206","ios":"levelo://app?vid=bade6b24-73d5-47df-8808-1e7c1a6f2206"},"vehicle_type_id":"4","last_reported":1771353738,"current_range_meters":35200,"station_id":"ce4bgl12rcd13ifvqbo0","pricing_plan_id":"cebpf4jnsgd1na2vs0mg"},{"bike_id":"13a92af8-e043-4e9c-b17f-e15ce8758a34","system_id":"levelo_inurba_marseille","lat":43.25108,"lon":5.4033,"is_reserved":false,"is_disabled":false,"rental_uris":{"android":"levelo://app?vid=13a92af8-e043-4e9c-b17f-e15ce8758a34","ios":"levelo://app?vid=13a92af8-e043-4e9c-b17f-e15ce8758a34"},"vehicle_type_id":"4","last_reported":1771353738,"current_range_meters":38400,"station_id":"ce4bhlh2rcd13ifvqgig","pricing_plan_id":"cebpf4jnsgd1na2vs0mg"},{"bike_id":"5652e219-372e-4a10-96b5-8e1a0ab30a38","system_id":"levelo_inurba_marseille","lat":43.29254,"lon":5.38452,"is_reserved":false,"is_disabled":false,"rental_uris":{"android":"levelo://app?vid=5652e219-372e-4a10-96b5-8e1a0ab30a38","ios":"levelo://app?vid=5652e219-372e-4a10-96b5-8e1a0ab30a38"},"vehicle_type_id":"4","last_reported":1771353738,"current_range_meters":22400,"station_id":"ce4bh692rcd13ifvqea0","pricing_plan_id":"cebpf4jnsgd1na2vs0mg"},{"bike_id":"74ef3680-14dc-4afb-9b76-316b7fa6d3fe","system_id":"levelo_inurba_marseille","lat":43.26798,"lon":5.39412,"is_reserved":false,"is_disabled":false,"rental_uris":{"android":"levelo://app?vid=74ef3680-14dc-4afb-9b76-316b7fa6d3fe","ios":"levelo://app?vid=74ef3680-14dc-4afb-9b76-316b7fa6d3fe"},"vehicle_type_id":"4","last_reported":1771353738,"current_range_meters":34800,"station_id":"ce4bhh12rcd13ifvqfg0","pricing_plan_id":"cebpf4jnsgd1na2vs0mg"},{"bike_id":"620af758-20cb-4e27-ac3f-3d767ee9e2c0","system_id":"levelo_inurba_marseille","lat":43.29268,"lon":5.38463,"is_reserved":false,"is_disabled":false,"rental_uris":{"android":"levelo://app?vid=620af758-20cb-4e27-ac3f-3d767ee9e2c0","ios":"levelo://app?vid=620af758-20cb-4e27-ac3f-3d767ee9e2c0"},"vehicle_type_id":"4","last_reported":1771353738,"current_range_meters":33200,"station_id":"ce4bh692rcd13ifvqea0","pricing_plan_id":"cebpf4jnsgd1na2vs0mg"},{"bike_id":"04307d66-1f7c-4a0b-9a4c-94ccb476c8c8","system_id":"levelo_inurba_marseille","lat":43.29522,"lon":5.38518,"is_reserved":false,"is_disabled":false,"rental_uris":{"android":"levelo://app?vid=04307d66-1f7c-4a0b-9a4c-94ccb476c8c8","ios":"levelo://app?vid=04307d66-1f7c-4a0b-9a4c-94ccb476c8c8"},"vehicle_type_id":"4","last_reported":1771353738,"current_range_meters":7200,"station_id":"ce4bgih2rcd13ifvqba0","pricing_plan_id":"cebpf4jnsgd1na2vs0mg"},{"bike_id":"af8e4ea9-a225-4120-b8c5-5e2519ec0633","system_id":"levelo_inurba_marseille","lat":43.28722,"lon":5.39956,"is_reserved":false,"is_disabled":false,"rental_uris":{"android":"levelo://app?vid=af8e4ea9-a225-4120-b8c5-5e2519ec0633","ios":"levelo://app?vid=af8e4ea9-a225-4120-b8c5-5e2519ec0633"},"vehicle_type_id":"4","last_reported":1771353738,"current_range_meters":9200,"station_id":"ce4bho92rcd13ifvqh3g","pricing_plan_id":"cebpf4jnsgd1na2vs0mg"},{"bike_id":"91e18b06-e43f-4689-81f7-7af2dc71414d","system_id":"levelo_inurba_marseille","lat":43.26517,"lon":5.39618,"is_reserved":false,"is_disabled":false,"rental_uris":{"android":"levelo://app?vid=91e18b06-e43f-4689-81f7-7af2dc71414d","ios":"levelo://app?vid=91e18b06-e43f-4689-81f7-7af2dc71414d"},"vehicle_type_id":"4","last_reported":1771353738,"current_range_meters":36400,"station_id":"","pricing_plan_id":"cebpf4jnsgd1na2vs0mg"},{"bike_id":"a966433b-162b-45a9-a349-c7e6eb2ce498","system_id":"levelo_inurba_marseille","lat":43.27991,"lon":5.40041,"is_reserved":false,"is_disabled":false,"rental_uris":{"android":"levelo://app?vid=a966433b-162b-45a9-a349-c7e6eb2ce498","ios":"levelo://app?vid=a966433b-162b-45a9-a349-c7e6eb2ce498"},"vehicle_type_id":"4","last_reported":1771353738,"current_range_meters":19200,"station_id":"ce4bho92rcd13ifvqh4g","pricing_plan_id":"cebpf4jnsgd1na2vs0mg"},{"bike_id":"6de5e299-d1ca-4f6f-bb0e-37f0d2361727","system_id":"levelo_inurba_marseille","lat":43.28854,"lon":5.35884,"is_reserved":false,"is_disabled":false,"rental_uris":{"android":"levelo://app?vid=6de5e299-d1ca-4f6f-bb0e-37f0d2361727","ios":"levelo://app?vid=6de5e299-d1ca-4f6f-bb0e-37f0d2361727"},"vehicle_type_id":"4","last_reported":1771353738,"current_range_meters":38800,"station_id":"ce4bhb12rcd13ifvqem0","pricing_plan_id":"cebpf4jnsgd1na2vs0mg"},{"bike_id":"0f39b697-4a2b-43a3-ada4-ce8c43776e1f","system_id":"levelo_inurba_marseille","lat":43.31178,"lon":5.3695,"is_reserved":false,"is_disabled":false,"rental_uris":{"android":"levelo://app?vid=0f39b697-4a2b-43a3-ada4-ce8c43776e1f","ios":"levelo://app?vid=0f39b697-4a2b-43a3-ada4-ce8c43776e1f"},"vehicle_type_id":"4","last_reported":1771353738,"current_range_meters":16400,"station_id":"ce4bgl92rcd13ifvqbq0","pricing_plan_id":"cebpf4jnsgd1na2vs0mg"},{"bike_id":"76a0d4aa-0887-4be6-bfc2-d5259dc7e99e","system_id":"levelo_inurba_marseille","lat":43.29229,"lon":5.36078,"is_reserved":false,"is_disabled":false,"rental_uris":{"android":"levelo://app?vid=76a0d4aa-0887-4be6-bfc2-d5259dc7e99e","ios":"levelo://app?vid=76a0d4aa-0887-4be6-bfc2-d5259dc7e99e"},"vehicle_type_id":"4","last_reported":1771353738,"current_range_meters":39200,"station_id":"ce4bhbh2rcd13ifvqeqg","pricing_plan_id":"cebpf4jnsgd1na2vs0mg"},{"bike_id":"ec532e3d-01fc-41fe-bfbc-45c5b470be82","system_id":"levelo_inurba_marseille","lat":43.25112,"lon":5.40325,"is_reserved":false,"is_disabled":false,"rental_uris":{"android":"levelo://app?vid=ec532e3d-01fc-41fe-bfbc-45c5b470be82","ios":"levelo://app?vid=ec532e3d-01fc-41fe-bfbc-45c5b470be82"},"vehicle_type_id":"4","last_reported":1771353738,"current_range_meters":30000,"station_id":"ce4bhlh2rcd13ifvqgig","pricing_plan_id":"cebpf4jnsgd1na2vs0mg"},{"bike_id":"58fe0c4e-05b9-44b7-b8da-97473fc4d40c","system_id":"levelo_inurba_marseille","lat":43.30218,"lon":5.39479,"is_reserved":false,"is_disabled":false,"rental_uris":{"android":"levelo://app?vid=58fe0c4e-05b9-44b7-b8da-97473fc4d40c","ios":"levelo://app?vid=58fe0c4e-05b9-44b7-b8da-97473fc4d40c"},"vehicle_type_id":"4","last_reported":1771353738,"current_range_meters":35600,"station_id":"ce4bh0p2rcd13ifvqd70","pricing_plan_id":"cebpf4jnsgd1na2vs0mg"},{"bike_id":"c73347ca-cc14-4483-8b47-9a48e9728c50","system_id":"levelo_inurba_marseille","lat":43.29539,"lon":5.37485,"is_reserved":false,"is_disabled":false,"rental_uris":{"android":"levelo://app?vid=c73347ca-cc14-4483-8b47-9a48e9728c50","ios":"levelo://app?vid=c73347ca-cc14-4483-8b47-9a48e9728c50"},"vehicle_type_id":"4","last_reported":1771353738,"current_range_meters":36800,"station_id":"ce4bgkp2rcd13ifvqbmg","pricing_plan_id":"cebpf4jnsgd1na2vs0mg"},{"bike_id":"a297b937-d94a-41b7-a7fa-274c5de42c2e","system_id":"levelo_inurba_marseille","lat":43.26516,"lon":5.39567,"is_reserved":false,"is_disabled":false,"rental_uris":{"android":"levelo://app?vid=a297b937-d94a-41b7-a7fa-274c5de42c2e","ios":"levelo://app?vid=a297b937-d94a-41b7-a7fa-274c5de42c2e"},"vehicle_type_id":"4","last_reported":1771353738,"current_range_meters":33200,"station_id":"ce4bhi12rcd13ifvqfq0","pricing_plan_id":"cebpf4jnsgd1na2vs0mg"},{"bike_id":"550eff93-0876-42bc-b35d-34db5e5290ce","system_id":"levelo_inurba_marseille","lat":43.26069,"lon":5.39385,"is_reserved":false,"is_disabled":true,"rental_uris":{"android":"levelo://app?vid=550eff93-0876-42bc-b35d-34db5e5290ce","ios":"levelo://app?vid=550eff93-0876-42bc-b35d-34db5e5290ce"},"vehicle_type_id":"4","last_reported":1771353738,"current_range_meters":8400,"station_id":"ce4bhh92rcd13ifvqfj0","pricing_plan_id":"cebpf4jnsgd1na2vs0mg"},{"bike_id":"ef3f0443-e181-4ab7-b489-4a9a20005b24","system_id":"levelo_inurba_marseille","lat":43.30134,"lon":5.39865,"is_reserved":false,"is_disabled":false,"rental_uris":{"android":"levelo://app?vid=ef3f0443-e181-4ab7-b489-4a9a20005b24","ios":"levelo://app?vid=ef3f0443-e181-4ab7-b489-4a9a20005b24"},"vehicle_type_id":"4","last_reported":1771353738,"current_range_meters":25200,"station_id":"ce4bh0h2rcd13ifvqd40","pricing_plan_id":"cebpf4jnsgd1na2vs0mg"},{"bike_id":"08be4522-7bfe-4a4e-a14f-3f053ff22c46","system_id":"levelo_inurba_marseille","lat":43.29981,"lon":5.38516,"is_reserved":false,"is_disabled":false,"rental_uris":{"android":"levelo://app?vid=08be4522-7bfe-4a4e-a14f-3f053ff22c46","ios":"levelo://app?vid=08be4522-7bfe-4a4e-a14f-3f053ff22c46"},"vehicle_type_id":"4","last_reported":1771353738,"current_range_meters":39200,"station_id":"ce4bgj92rcd13ifvqbd0","pricing_plan_id":"cebpf4jnsgd1na2vs0mg"},{"bike_id":"5d6be8ea-44f1-4b2e-80b5-f19f2036681d","system_id":"levelo_inurba_marseille","lat":43.29525,"lon":5.39416,"is_reserved":false,"is_disabled":false,"rental_uris":{"android":"levelo://app?vid=5d6be8ea-44f1-4b2e-80b5-f19f2036681d","ios":"levelo://app?vid=5d6be8ea-44f1-4b2e-80b5-f19f2036681d"},"vehicle_type_id":"4","last_reported":1771353738,"current_range_meters":36000,"station_id":"ce4bh292rcd13ifvqdf0","pricing_plan_id":"cebpf4jnsgd1na2vs0mg"},{"bike_id":"e308d050-502a-44ad-8fb8-6a23ebc18376","system_id":"levelo_inurba_marseille","lat":43.29224,"lon":5.36065,"is_reserved":false,"is_disabled":false,"rental_uris":{"android":"levelo://app?vid=e308d050-502a-44ad-8fb8-6a23ebc18376","ios":"levelo://app?vid=e308d050-502a-44ad-8fb8-6a23ebc18376"},"vehicle_type_id":"4","last_reported":1771353738,"current_range_meters":26800,"station_id":"ce4bhbh2rcd13ifvqeqg","pricing_plan_id":"cebpf4jnsgd1na2vs0mg"},{"bike_id":"9a0b105c-51c2-4394-93c8-b3bf166943bb","system_id":"levelo_inurba_marseille","lat":43.27188,"lon":5.41016,"is_reserved":false,"is_disabled":false,"rental_uris":{"android":"levelo://app?vid=9a0b105c-51c2-4394-93c8-b3bf166943bb","ios":"levelo://app?vid=9a0b105c-51c2-4394-93c8-b3bf166943bb"},"vehicle_type_id":"4","last_reported":1771353738,"current_range_meters":30000,"station_id":"ce4bhl12rcd13ifvqgf0","pricing_plan_id":"cebpf4jnsgd1na2vs0mg"},{"bike_id":"f58a2514-9f6d-4f60-9291-e9b3221c1f37","system_id":"levelo_inurba_marseille","lat":43.29553,"lon":5.39027,"is_reserved":false,"is_disabled":false,"rental_uris":{"android":"levelo://app?vid=f58a2514-9f6d-4f60-9291-e9b3221c1f37","ios":"levelo://app?vid=f58a2514-9f6d-4f60-9291-e9b3221c1f37"},"vehicle_type_id":"4","last_reported":1771353738,"current_range_meters":5600,"station_id":"ce4bh3p2rcd13ifvqdp0","pricing_plan_id":"cebpf4jnsgd1na2vs0mg"},{"bike_id":"5a965df6-6bde-443d-bd53-103df330df07","system_id":"levelo_inurba_marseille","lat":43.33745,"lon":5.37504,"is_reserved":false,"is_disabled":false,"rental_uris":{"android":"levelo://app?vid=5a965df6-6bde-443d-bd53-103df330df07","ios":"levelo://app?vid=5a965df6-6bde-443d-bd53-103df330df07"},"vehicle_type_id":"4","last_reported":1771353738,"current_range_meters":38000,"station_id":"","pricing_plan_id":"cebpf4jnsgd1na2vs0mg"},{"bike_id":"7ae2f520-3f6d-4d15-803f-7620186a5e30","system_id":"levelo_inurba_marseille","lat":43.29227,"lon":5.36051,"is_reserved":false,"is_disabled":false,"rental_uris":{"android":"levelo://app?vid=7ae2f520-3f6d-4d15-803f-7620186a5e30","ios":"levelo://app?vid=7ae2f520-3f6d-4d15-803f-7620186a5e30"},"vehicle_type_id":"4","last_reported":1771353738,"current_range_meters":39200,"station_id":"ce4bhbh2rcd13ifvqeqg","pricing_plan_id":"cebpf4jnsgd1na2vs0mg"},{"bike_id":"bd2e0b30-7eff-4350-9215-ff4d3f7250a7","system_id":"levelo_inurba_marseille","lat":43.30882,"lon":5.39643,"is_reserved":false,"is_disabled":false,"rental_uris":{"android":"levelo://app?vid=bd2e0b30-7eff-4350-9215-ff4d3f7250a7","ios":"levelo://app?vid=bd2e0b30-7eff-4350-9215-ff4d3f7250a7"},"vehicle_type_id":"4","last_reported":1771353738,"current_range_meters":8800,"station_id":"ce4bh012rcd13ifvqcv0","pricing_plan_id":"cebpf4jnsgd1na2vs0mg"},{"bike_id":"e041f392-b8c5-44a1-8028-4931d6269d88","system_id":"levelo_inurba_marseille","lat":43.29209,"lon":5.40969,"is_reserved":false,"is_disabled":false,"rental_uris":{"android":"levelo://app?vid=e041f392-b8c5-44a1-8028-4931d6269d88","ios":"levelo://app?vid=e041f392-b8c5-44a1-8028-4931d6269d88"},"vehicle_type_id":"4","last_reported":1771353738,"current_range_meters":8400,"station_id":"","pricing_plan_id":"cebpf4jnsgd1na2vs0mg"},{"bike_id":"42b5b476-53eb-45c4-9e53-02a4edfeb27a","system_id":"levelo_inurba_marseille","lat":43.29014,"lon":5.38657,"is_reserved":false,"is_disabled":false,"rental_uris":{"android":"levelo://app?vid=42b5b476-53eb-45c4-9e53-02a4edfeb27a","ios":"levelo://app?vid=42b5b476-53eb-45c4-9e53-02a4edfeb27a"},"vehicle_type_id":"4","last_reported":1771353738,"current_range_meters":22000,"station_id":"ce4bh4p2rcd13ifvqe0g","pricing_plan_id":"cebpf4jnsgd1na2vs0mg"},{"bike_id":"c6257056-1773-40b3-8420-fe95746c06e4","system_id":"levelo_inurba_marseille","lat":43.29543,"lon":5.38542,"is_reserved":false,"is_disabled":false,"rental_uris":{"android":"levelo://app?vid=c6257056-1773-40b3-8420-fe95746c06e4","ios":"levelo://app?vid=c6257056-1773-40b3-8420-fe95746c06e4"},"vehicle_type_id":"4","last_reported":1771353738,"current_range_meters":13600,"station_id":"ce4bgih2rcd13ifvqba0","pricing_plan_id":"cebpf4jnsgd1na2vs0mg"},{"bike_id":"6e1b6725-bd2a-450f-8fbb-87285b7c6526","system_id":"levelo_inurba_marseille","lat":43.241844,"lon":5.363897,"is_reserved":false,"is_disabled":false,"rental_uris":{"android":"levelo://app?vid=6e1b6725-bd2a-450f-8fbb-87285b7c6526","ios":"levelo://app?vid=6e1b6725-bd2a-450f-8fbb-87285b7c6526"},"vehicle_type_id":"4","last_reported":1771353738,"current_range_meters":3200,"station_id":"cpo36qri1sfpv3e86is0","pricing_plan_id":"cebpf4jnsgd1na2vs0mg"},{"bike_id":"6ebce3a9-efc8-42c2-9236-caa2829c894b","system_id":"levelo_inurba_marseille","lat":43.29494,"lon":5.43301,"is_reserved":false,"is_disabled":true,"rental_uris":{"android":"levelo://app?vid=6ebce3a9-efc8-42c2-9236-caa2829c894b","ios":"levelo://app?vid=6ebce3a9-efc8-42c2-9236-caa2829c894b"},"vehicle_type_id":"4","last_reported":1771353738,"current_range_meters":0,"station_id":"st_d3j5ugp08ojc73fj9d10","pricing_plan_id":"cebpf4jnsgd1na2vs0mg"},{"bike_id":"95904b6e-2009-48fa-862a-1b6fa5c38934","system_id":"levelo_inurba_marseille","lat":43.31084,"lon":5.42427,"is_reserved":false,"is_disabled":false,"rental_uris":{"android":"levelo://app?vid=95904b6e-2009-48fa-862a-1b6fa5c38934","ios":"levelo://app?vid=95904b6e-2009-48fa-862a-1b6fa5c38934"},"vehicle_type_id":"4","last_reported":1771353738,"current_range_meters":31200,"station_id":"ce4bhp92rcd13ifvqhag","pricing_plan_id":"cebpf4jnsgd1na2vs0mg"},{"bike_id":"e9e093b7-e791-44a1-b28f-f83911d2fc54","system_id":"levelo_inurba_marseille","lat":43.28711,"lon":5.37926,"is_reserved":false,"is_disabled":false,"rental_uris":{"android":"levelo://app?vid=e9e093b7-e791-44a1-b28f-f83911d2fc54","ios":"levelo://app?vid=e9e093b7-e791-44a1-b28f-f83911d2fc54"},"vehicle_type_id":"4","last_reported":1771353738,"current_range_meters":38000,"station_id":"ce4bh9p2rcd13ifvqec0","pricing_plan_id":"cebpf4jnsgd1na2vs0mg"},{"bike_id":"70e0440e-cebd-4d95-8b9b-69d261c12fa2","system_id":"levelo_inurba_marseille","lat":43.25115,"lon":5.40323,"is_reserved":false,"is_disabled":false,"rental_uris":{"android":"levelo://app?vid=70e0440e-cebd-4d95-8b9b-69d261c12fa2","ios":"levelo://app?vid=70e0440e-cebd-4d95-8b9b-69d261c12fa2"},"vehicle_type_id":"4","last_reported":1771353738,"current_range_meters":33200,"station_id":"ce4bhlh2rcd13ifvqgig","pricing_plan_id":"cebpf4jnsgd1na2vs0mg"},{"bike_id":"5d163bc2-8174-495c-b234-639c4a69ac92","system_id":"levelo_inurba_marseille","lat":43.31127,"lon":5.37777,"is_reserved":false,"is_disabled":false,"rental_uris":{"android":"levelo://app?vid=5d163bc2-8174-495c-b234-639c4a69ac92","ios":"levelo://app?vid=5d163bc2-8174-495c-b234-639c4a69ac92"},"vehicle_type_id":"4","last_reported":1771353738,"current_range_meters":22800,"station_id":"ce4bgt92rcd13ifvqcg0","pricing_plan_id":"cebpf4jnsgd1na2vs0mg"},{"bike_id":"061ee33a-0cb8-48bc-a843-c564ef436c43","system_id":"levelo_inurba_marseille","lat":43.28147,"lon":5.42632,"is_reserved":false,"is_disabled":false,"rental_uris":{"android":"levelo://app?vid=061ee33a-0cb8-48bc-a843-c564ef436c43","ios":"levelo://app?vid=061ee33a-0cb8-48bc-a843-c564ef436c43"},"vehicle_type_id":"4","last_reported":1771353738,"current_range_meters":38400,"station_id":"ce4bhnh2rcd13ifvqgug","pricing_plan_id":"cebpf4jnsgd1na2vs0mg"},{"bike_id":"5b8de0cc-7d3e-4222-8509-d21d6ce44619","system_id":"levelo_inurba_marseille","lat":43.24654,"lon":5.43143,"is_reserved":false,"is_disabled":false,"rental_uris":{"android":"levelo://app?vid=5b8de0cc-7d3e-4222-8509-d21d6ce44619","ios":"levelo://app?vid=5b8de0cc-7d3e-4222-8509-d21d6ce44619"},"vehicle_type_id":"4","last_reported":1771353738,"current_range_meters":11600,"station_id":"st_d2m6c4gdas8pm72e190g","pricing_plan_id":"cebpf4jnsgd1na2vs0mg"},{"bike_id":"86192d04-a141-409d-b724-3e354a3ed317","system_id":"levelo_inurba_marseille","lat":43.30873,"lon":5.38327,"is_reserved":false,"is_disabled":false,"rental_uris":{"android":"levelo://app?vid=86192d04-a141-409d-b724-3e354a3ed317","ios":"levelo://app?vid=86192d04-a141-409d-b724-3e354a3ed317"},"vehicle_type_id":"4","last_reported":1771353738,"current_range_meters":6400,"station_id":"","pricing_plan_id":"cebpf4jnsgd1na2vs0mg"},{"bike_id":"7f7e6064-6c05-4e1f-a4b0-120e50364b3a","system_id":"levelo_inurba_marseille","lat":43.26064,"lon":5.39391,"is_reserved":false,"is_disabled":false,"rental_uris":{"android":"levelo://app?vid=7f7e6064-6c05-4e1f-a4b0-120e50364b3a","ios":"levelo://app?vid=7f7e6064-6c05-4e1f-a4b0-120e50364b3a"},"vehicle_type_id":"4","last_reported":1771353738,"current_range_meters":28400,"station_id":"ce4bhh92rcd13ifvqfj0","pricing_plan_id":"cebpf4jnsgd1na2vs0mg"},{"bike_id":"35849916-2fe4-4b34-8084-9dcaefd2c823","system_id":"levelo_inurba_marseille","lat":43.3121,"lon":5.36874,"is_reserved":false,"is_disabled":false,"rental_uris":{"android":"levelo://app?vid=35849916-2fe4-4b34-8084-9dcaefd2c823","ios":"levelo://app?vid=35849916-2fe4-4b34-8084-9dcaefd2c823"},"vehicle_type_id":"4","last_reported":1771353738,"current_range_meters":38400,"station_id":"ce4bgl92rcd13ifvqbq0","pricing_plan_id":"cebpf4jnsgd1na2vs0mg"},{"bike_id":"b5ea34b7-d51b-410a-9ee2-1e1c5da9464f","system_id":"levelo_inurba_marseille","lat":43.25091,"lon":5.39495,"is_reserved":false,"is_disabled":false,"rental_uris":{"android":"levelo://app?vid=b5ea34b7-d51b-410a-9ee2-1e1c5da9464f","ios":"levelo://app?vid=b5ea34b7-d51b-410a-9ee2-1e1c5da9464f"},"vehicle_type_id":"4","last_reported":1771353738,"current_range_meters":40000,"station_id":"ce4bhm12rcd13ifvqgkg","pricing_plan_id":"cebpf4jnsgd1na2vs0mg"},{"bike_id":"6bb36a9f-067d-4eef-9d07-1ddb3347be78","system_id":"levelo_inurba_marseille","lat":43.29006,"lon":5.38143,"is_reserved":false,"is_disabled":false,"rental_uris":{"android":"levelo://app?vid=6bb36a9f-067d-4eef-9d07-1ddb3347be78","ios":"levelo://app?vid=6bb36a9f-067d-4eef-9d07-1ddb3347be78"},"vehicle_type_id":"4","last_reported":1771353738,"current_range_meters":37600,"station_id":"ce4bh4p2rcd13ifvqe1g","pricing_plan_id":"cebpf4jnsgd1na2vs0mg"},{"bike_id":"6f566a9d-10ed-406d-af83-64e27e638094","system_id":"levelo_inurba_marseille","lat":43.30142,"lon":5.39867,"is_reserved":false,"is_disabled":false,"rental_uris":{"android":"levelo://app?vid=6f566a9d-10ed-406d-af83-64e27e638094","ios":"levelo://app?vid=6f566a9d-10ed-406d-af83-64e27e638094"},"vehicle_type_id":"4","last_reported":1771353738,"current_range_meters":4800,"station_id":"ce4bh0h2rcd13ifvqd40","pricing_plan_id":"cebpf4jnsgd1na2vs0mg"},{"bike_id":"459af572-5c73-4d66-a7b6-54d1719e2d1f","system_id":"levelo_inurba_marseille","lat":43.31222,"lon":5.36882,"is_reserved":false,"is_disabled":false,"rental_uris":{"android":"levelo://app?vid=459af572-5c73-4d66-a7b6-54d1719e2d1f","ios":"levelo://app?vid=459af572-5c73-4d66-a7b6-54d1719e2d1f"},"vehicle_type_id":"4","last_reported":1771353738,"current_range_meters":38000,"station_id":"ce4bgl92rcd13ifvqbq0","pricing_plan_id":"cebpf4jnsgd1na2vs0mg"},{"bike_id":"ececbe0e-0e34-4d8d-94e2-d6a8f1b03bbe","system_id":"levelo_inurba_marseille","lat":43.33158,"lon":5.37694,"is_reserved":false,"is_disabled":false,"rental_uris":{"android":"levelo://app?vid=ececbe0e-0e34-4d8d-94e2-d6a8f1b03bbe","ios":"levelo://app?vid=ececbe0e-0e34-4d8d-94e2-d6a8f1b03bbe"},"vehicle_type_id":"4","last_reported":1771353738,"current_range_meters":36800,"station_id":"st_d46cu089ee8s73dldbu0","pricing_plan_id":"cebpf4jnsgd1na2vs0mg"},{"bike_id":"d9414eea-4822-4c71-bae1-8fc190606b9b","system_id":"levelo_inurba_marseille","lat":43.28695,"lon":5.355,"is_reserved":false,"is_disabled":true,"rental_uris":{"android":"levelo://app?vid=d9414eea-4822-4c71-bae1-8fc190606b9b","ios":"levelo://app?vid=d9414eea-4822-4c71-bae1-8fc190606b9b"},"vehicle_type_id":"4","last_reported":1771353738,"current_range_meters":38000,"station_id":"","pricing_plan_id":"cebpf4jnsgd1na2vs0mg"},{"bike_id":"fc522677-07d6-4e90-979c-17c8f21c8c74","system_id":"levelo_inurba_marseille","lat":43.29537,"lon":5.37503,"is_reserved":false,"is_disabled":false,"rental_uris":{"android":"levelo://app?vid=fc522677-07d6-4e90-979c-17c8f21c8c74","ios":"levelo://app?vid=fc522677-07d6-4e90-979c-17c8f21c8c74"},"vehicle_type_id":"4","last_reported":1771353738,"current_range_meters":9200,"station_id":"ce4bgkp2rcd13ifvqbmg","pricing_plan_id":"cebpf4jnsgd1na2vs0mg"},{"bike_id":"0b80e1be-8f2b-4513-82b3-2450c7c69a23","system_id":"levelo_inurba_marseille","lat":43.29202,"lon":5.37207,"is_reserved":false,"is_disabled":false,"rental_uris":{"android":"levelo://app?vid=0b80e1be-8f2b-4513-82b3-2450c7c69a23","ios":"levelo://app?vid=0b80e1be-8f2b-4513-82b3-2450c7c69a23"},"vehicle_type_id":"4","last_reported":1771353738,"current_range_meters":34800,"station_id":"","pricing_plan_id":"cebpf4jnsgd1na2vs0mg"},{"bike_id":"4fffa687-113e-4c17-9149-88fa57491723","system_id":"levelo_inurba_marseille","lat":43.28617,"lon":5.35116,"is_reserved":false,"is_disabled":false,"rental_uris":{"android":"levelo://app?vid=4fffa687-113e-4c17-9149-88fa57491723","ios":"levelo://app?vid=4fffa687-113e-4c17-9149-88fa57491723"},"vehicle_type_id":"4","last_reported":1771353738,"current_range_meters":19600,"station_id":"ce4bhch2rcd13ifvqeug","pricing_plan_id":"cebpf4jnsgd1na2vs0mg"},{"bike_id":"e1973e49-c22d-4cfc-9fd1-01bb239b8af6","system_id":"levelo_inurba_marseille","lat":43.27449,"lon":5.4243,"is_reserved":false,"is_disabled":false,"rental_uris":{"android":"levelo://app?vid=e1973e49-c22d-4cfc-9fd1-01bb239b8af6","ios":"levelo://app?vid=e1973e49-c22d-4cfc-9fd1-01bb239b8af6"},"vehicle_type_id":"4","last_reported":1771353738,"current_range_meters":10000,"station_id":"","pricing_plan_id":"cebpf4jnsgd1na2vs0mg"},{"bike_id":"82cea78d-13cb-47cb-bf53-d4e236e14283","system_id":"levelo_inurba_marseille","lat":43.30215,"lon":5.39471,"is_reserved":false,"is_disabled":false,"rental_uris":{"android":"levelo://app?vid=82cea78d-13cb-47cb-bf53-d4e236e14283","ios":"levelo://app?vid=82cea78d-13cb-47cb-bf53-d4e236e14283"},"vehicle_type_id":"4","last_reported":1771353738,"current_range_meters":24400,"station_id":"ce4bh0p2rcd13ifvqd70","pricing_plan_id":"cebpf4jnsgd1na2vs0mg"},{"bike_id":"56c1ac30-00c3-4b7f-9cb7-9a2dcacdd7ae","system_id":"levelo_inurba_marseille","lat":43.3061,"lon":5.37231,"is_reserved":false,"is_disabled":false,"rental_uris":{"android":"levelo://app?vid=56c1ac30-00c3-4b7f-9cb7-9a2dcacdd7ae","ios":"levelo://app?vid=56c1ac30-00c3-4b7f-9cb7-9a2dcacdd7ae"},"vehicle_type_id":"4","last_reported":1771353738,"current_range_meters":39200,"station_id":"ce4bgqh2rcd13ifvqc4g","pricing_plan_id":"cebpf4jnsgd1na2vs0mg"},{"bike_id":"d97537ae-36ee-4f17-b523-a6c7d44c7ba4","system_id":"levelo_inurba_marseille","lat":43.28667,"lon":5.36343,"is_reserved":false,"is_disabled":false,"rental_uris":{"android":"levelo://app?vid=d97537ae-36ee-4f17-b523-a6c7d44c7ba4","ios":"levelo://app?vid=d97537ae-36ee-4f17-b523-a6c7d44c7ba4"},"vehicle_type_id":"4","last_reported":1771353738,"current_range_meters":37600,"station_id":"ce4bhah2rcd13ifvqej0","pricing_plan_id":"cebpf4jnsgd1na2vs0mg"},{"bike_id":"252b9549-a329-4719-8fa9-46cd4e11de92","system_id":"levelo_inurba_marseille","lat":43.30341,"lon":5.40272,"is_reserved":false,"is_disabled":false,"rental_uris":{"android":"levelo://app?vid=252b9549-a329-4719-8fa9-46cd4e11de92","ios":"levelo://app?vid=252b9549-a329-4719-8fa9-46cd4e11de92"},"vehicle_type_id":"4","last_reported":1771353738,"current_range_meters":11200,"station_id":"","pricing_plan_id":"cebpf4jnsgd1na2vs0mg"},{"bike_id":"19646293-cfd9-4b47-83b4-12ec7e7f9547","system_id":"levelo_inurba_marseille","lat":43.2306,"lon":5.35481,"is_reserved":false,"is_disabled":false,"rental_uris":{"android":"levelo://app?vid=19646293-cfd9-4b47-83b4-12ec7e7f9547","ios":"levelo://app?vid=19646293-cfd9-4b47-83b4-12ec7e7f9547"},"vehicle_type_id":"4","last_reported":1771353738,"current_range_meters":39200,"station_id":"cpo3342slgdg3j2ifvpg","pricing_plan_id":"cebpf4jnsgd1na2vs0mg"},{"bike_id":"4fe1486c-d131-4c1a-b65b-ae3c2f4a4045","system_id":"levelo_inurba_marseille","lat":43.2962,"lon":5.38031,"is_reserved":false,"is_disabled":false,"rental_uris":{"android":"levelo://app?vid=4fe1486c-d131-4c1a-b65b-ae3c2f4a4045","ios":"levelo://app?vid=4fe1486c-d131-4c1a-b65b-ae3c2f4a4045"},"vehicle_type_id":"4","last_reported":1771353738,"current_range_meters":38400,"station_id":"","pricing_plan_id":"cebpf4jnsgd1na2vs0mg"},{"bike_id":"2378b382-40a9-4c25-b5e5-863cfb124533","system_id":"levelo_inurba_marseille","lat":43.24809,"lon":5.37459,"is_reserved":false,"is_disabled":false,"rental_uris":{"android":"levelo://app?vid=2378b382-40a9-4c25-b5e5-863cfb124533","ios":"levelo://app?vid=2378b382-40a9-4c25-b5e5-863cfb124533"},"vehicle_type_id":"4","last_reported":1771353738,"current_range_meters":39200,"station_id":"ce4bhgh2rcd13ifvqfb0","pricing_plan_id":"cebpf4jnsgd1na2vs0mg"},{"bike_id":"806ea4e8-cc70-4baf-a5d9-7617dfd81486","system_id":"levelo_inurba_marseille","lat":43.313652,"lon":5.36703,"is_reserved":false,"is_disabled":true,"rental_uris":{"android":"levelo://app?vid=806ea4e8-cc70-4baf-a5d9-7617dfd81486","ios":"levelo://app?vid=806ea4e8-cc70-4baf-a5d9-7617dfd81486"},"vehicle_type_id":"4","last_reported":1771353738,"current_range_meters":30000,"station_id":"ce4bgrh2rcd13ifvqc8g","pricing_plan_id":"cebpf4jnsgd1na2vs0mg"},{"bike_id":"4ae54365-08a4-4214-90ef-eb3c127f344d","system_id":"levelo_inurba_marseille","lat":43.25124,"lon":5.40347,"is_reserved":false,"is_disabled":false,"rental_uris":{"android":"levelo://app?vid=4ae54365-08a4-4214-90ef-eb3c127f344d","ios":"levelo://app?vid=4ae54365-08a4-4214-90ef-eb3c127f344d"},"vehicle_type_id":"4","last_reported":1771353738,"current_range_meters":38800,"station_id":"ce4bhlh2rcd13ifvqgig","pricing_plan_id":"cebpf4jnsgd1na2vs0mg"},{"bike_id":"04646ad2-081f-496b-9bda-f744b3898750","system_id":"levelo_inurba_marseille","lat":43.29091,"lon":5.38127,"is_reserved":false,"is_disabled":false,"rental_uris":{"android":"levelo://app?vid=04646ad2-081f-496b-9bda-f744b3898750","ios":"levelo://app?vid=04646ad2-081f-496b-9bda-f744b3898750"},"vehicle_type_id":"4","last_reported":1771353738,"current_range_meters":25200,"station_id":"ce4bh512rcd13ifvqe2g","pricing_plan_id":"cebpf4jnsgd1na2vs0mg"},{"bike_id":"5cf34e17-6234-42d4-b0cc-647bc7c6ce27","system_id":"levelo_inurba_marseille","lat":43.31894,"lon":5.40745,"is_reserved":false,"is_disabled":false,"rental_uris":{"android":"levelo://app?vid=5cf34e17-6234-42d4-b0cc-647bc7c6ce27","ios":"levelo://app?vid=5cf34e17-6234-42d4-b0cc-647bc7c6ce27"},"vehicle_type_id":"4","last_reported":1771353738,"current_range_meters":39200,"station_id":"ce4bhq12rcd13ifvqhig","pricing_plan_id":"cebpf4jnsgd1na2vs0mg"},{"bike_id":"0c1481f4-3fb3-4fb6-b890-f767c7cf1052","system_id":"levelo_inurba_marseille","lat":43.23203,"lon":5.40002,"is_reserved":false,"is_disabled":false,"rental_uris":{"android":"levelo://app?vid=0c1481f4-3fb3-4fb6-b890-f767c7cf1052","ios":"levelo://app?vid=0c1481f4-3fb3-4fb6-b890-f767c7cf1052"},"vehicle_type_id":"4","last_reported":1771353738,"current_range_meters":4000,"station_id":"ce4bhn12rcd13ifvqgqg","pricing_plan_id":"cebpf4jnsgd1na2vs0mg"},{"bike_id":"2f7947f5-85af-4919-a70c-c61b31670e14","system_id":"levelo_inurba_marseille","lat":43.2841,"lon":5.3752,"is_reserved":false,"is_disabled":false,"rental_uris":{"android":"levelo://app?vid=2f7947f5-85af-4919-a70c-c61b31670e14","ios":"levelo://app?vid=2f7947f5-85af-4919-a70c-c61b31670e14"},"vehicle_type_id":"4","last_reported":1771353738,"current_range_meters":20000,"station_id":"ce4bh412rcd13ifvqds0","pricing_plan_id":"cebpf4jnsgd1na2vs0mg"},{"bike_id":"1066d57d-383b-40a2-bb56-16417b476992","system_id":"levelo_inurba_marseille","lat":43.27386,"lon":5.36259,"is_reserved":false,"is_disabled":true,"rental_uris":{"android":"levelo://app?vid=1066d57d-383b-40a2-bb56-16417b476992","ios":"levelo://app?vid=1066d57d-383b-40a2-bb56-16417b476992"},"vehicle_type_id":"4","last_reported":1771353738,"current_range_meters":0,"station_id":"ce4bhbh2rcd13ifvqeo0","pricing_plan_id":"cebpf4jnsgd1na2vs0mg"},{"bike_id":"4477481c-6ee7-4b64-a85c-b50b2241d99a","system_id":"levelo_inurba_marseille","lat":43.24394,"lon":5.37068,"is_reserved":false,"is_disabled":false,"rental_uris":{"android":"levelo://app?vid=4477481c-6ee7-4b64-a85c-b50b2241d99a","ios":"levelo://app?vid=4477481c-6ee7-4b64-a85c-b50b2241d99a"},"vehicle_type_id":"4","last_reported":1771353738,"current_range_meters":25200,"station_id":"ce4bhhh2rcd13ifvqfk0","pricing_plan_id":"cebpf4jnsgd1na2vs0mg"},{"bike_id":"2acdd632-5939-4755-8df5-db0e237b99fb","system_id":"levelo_inurba_marseille","lat":43.26568,"lon":5.40329,"is_reserved":false,"is_disabled":false,"rental_uris":{"android":"levelo://app?vid=2acdd632-5939-4755-8df5-db0e237b99fb","ios":"levelo://app?vid=2acdd632-5939-4755-8df5-db0e237b99fb"},"vehicle_type_id":"4","last_reported":1771353738,"current_range_meters":24800,"station_id":"ce4bhmp2rcd13ifvqgng","pricing_plan_id":"cebpf4jnsgd1na2vs0mg"},{"bike_id":"24cb7b6e-2362-46af-8f1a-97e7727b6c72","system_id":"levelo_inurba_marseille","lat":43.25573,"lon":5.38232,"is_reserved":false,"is_disabled":false,"rental_uris":{"android":"levelo://app?vid=24cb7b6e-2362-46af-8f1a-97e7727b6c72","ios":"levelo://app?vid=24cb7b6e-2362-46af-8f1a-97e7727b6c72"},"vehicle_type_id":"4","last_reported":1771353738,"current_range_meters":6800,"station_id":"ce4bhih2rcd13ifvqfs0","pricing_plan_id":"cebpf4jnsgd1na2vs0mg"},{"bike_id":"154563d7-c416-4fa7-a542-c2fa7f9eacbc","system_id":"levelo_inurba_marseille","lat":43.28476,"lon":5.48399,"is_reserved":false,"is_disabled":false,"rental_uris":{"android":"levelo://app?vid=154563d7-c416-4fa7-a542-c2fa7f9eacbc","ios":"levelo://app?vid=154563d7-c416-4fa7-a542-c2fa7f9eacbc"},"vehicle_type_id":"4","last_reported":1771353738,"current_range_meters":30400,"station_id":"","pricing_plan_id":"cebpf4jnsgd1na2vs0mg"},{"bike_id":"7d58deb0-d3df-4cba-b032-66e10c7a0925","system_id":"levelo_inurba_marseille","lat":43.24809,"lon":5.37445,"is_reserved":false,"is_disabled":false,"rental_uris":{"android":"levelo://app?vid=7d58deb0-d3df-4cba-b032-66e10c7a0925","ios":"levelo://app?vid=7d58deb0-d3df-4cba-b032-66e10c7a0925"},"vehicle_type_id":"4","last_reported":1771353738,"current_range_meters":27200,"station_id":"ce4bhgh2rcd13ifvqfb0","pricing_plan_id":"cebpf4jnsgd1na2vs0mg"},{"bike_id":"0b24c99d-cb7f-4b2e-b2f3-b1cb63edb789","system_id":"levelo_inurba_marseille","lat":43.29531,"lon":5.39031,"is_reserved":false,"is_disabled":false,"rental_uris":{"android":"levelo://app?vid=0b24c99d-cb7f-4b2e-b2f3-b1cb63edb789","ios":"levelo://app?vid=0b24c99d-cb7f-4b2e-b2f3-b1cb63edb789"},"vehicle_type_id":"4","last_reported":1771353738,"current_range_meters":9600,"station_id":"ce4bh3p2rcd13ifvqdp0","pricing_plan_id":"cebpf4jnsgd1na2vs0mg"},{"bike_id":"b20b74a5-2b7e-49d3-ae44-1cf4c91f5db3","system_id":"levelo_inurba_marseille","lat":43.22555,"lon":5.41626,"is_reserved":false,"is_disabled":false,"rental_uris":{"android":"levelo://app?vid=b20b74a5-2b7e-49d3-ae44-1cf4c91f5db3","ios":"levelo://app?vid=b20b74a5-2b7e-49d3-ae44-1cf4c91f5db3"},"vehicle_type_id":"4","last_reported":1771353738,"current_range_meters":5600,"station_id":"st_d2o4gvlbi1j2169b742g","pricing_plan_id":"cebpf4jnsgd1na2vs0mg"},{"bike_id":"2e62e3c6-0b27-4130-bb68-0925f0a95e9a","system_id":"levelo_inurba_marseille","lat":43.27325,"lon":5.39115,"is_reserved":false,"is_disabled":true,"rental_uris":{"android":"levelo://app?vid=2e62e3c6-0b27-4130-bb68-0925f0a95e9a","ios":"levelo://app?vid=2e62e3c6-0b27-4130-bb68-0925f0a95e9a"},"vehicle_type_id":"4","last_reported":1771353738,"current_range_meters":32800,"station_id":"ce4bhgp2rcd13ifvqfe0","pricing_plan_id":"cebpf4jnsgd1na2vs0mg"},{"bike_id":"220cefcc-9413-4a04-8be2-d38b460fccf6","system_id":"levelo_inurba_marseille","lat":43.26494,"lon":5.39553,"is_reserved":false,"is_disabled":false,"rental_uris":{"android":"levelo://app?vid=220cefcc-9413-4a04-8be2-d38b460fccf6","ios":"levelo://app?vid=220cefcc-9413-4a04-8be2-d38b460fccf6"},"vehicle_type_id":"4","last_reported":1771353738,"current_range_meters":32400,"station_id":"ce4bhi12rcd13ifvqfq0","pricing_plan_id":"cebpf4jnsgd1na2vs0mg"},{"bike_id":"016e4389-a149-4190-8f7a-e29c62519426","system_id":"levelo_inurba_marseille","lat":43.31082,"lon":5.42431,"is_reserved":false,"is_disabled":false,"rental_uris":{"android":"levelo://app?vid=016e4389-a149-4190-8f7a-e29c62519426","ios":"levelo://app?vid=016e4389-a149-4190-8f7a-e29c62519426"},"vehicle_type_id":"4","last_reported":1771353738,"current_range_meters":24400,"station_id":"ce4bhp92rcd13ifvqhag","pricing_plan_id":"cebpf4jnsgd1na2vs0mg"},{"bike_id":"859ef4d9-7269-4881-ae93-52338545f153","system_id":"levelo_inurba_marseille","lat":43.30133,"lon":5.38766,"is_reserved":false,"is_disabled":false,"rental_uris":{"android":"levelo://app?vid=859ef4d9-7269-4881-ae93-52338545f153","ios":"levelo://app?vid=859ef4d9-7269-4881-ae93-52338545f153"},"vehicle_type_id":"4","last_reported":1771353738,"current_range_meters":22400,"station_id":"ce4bghh2rcd13ifvqb60","pricing_plan_id":"cebpf4jnsgd1na2vs0mg"},{"bike_id":"d541d312-8957-468f-98f5-5438278aaf0a","system_id":"levelo_inurba_marseille","lat":43.30306,"lon":5.36886,"is_reserved":false,"is_disabled":false,"rental_uris":{"android":"levelo://app?vid=d541d312-8957-468f-98f5-5438278aaf0a","ios":"levelo://app?vid=d541d312-8957-468f-98f5-5438278aaf0a"},"vehicle_type_id":"4","last_reported":1771353738,"current_range_meters":22800,"station_id":"ce4bgqh2rcd13ifvqc5g","pricing_plan_id":"cebpf4jnsgd1na2vs0mg"},{"bike_id":"dcfc4996-4d68-4874-bf59-5ac226b21e31","system_id":"levelo_inurba_marseille","lat":43.29224,"lon":5.35827,"is_reserved":false,"is_disabled":false,"rental_uris":{"android":"levelo://app?vid=dcfc4996-4d68-4874-bf59-5ac226b21e31","ios":"levelo://app?vid=dcfc4996-4d68-4874-bf59-5ac226b21e31"},"vehicle_type_id":"4","last_reported":1771353738,"current_range_meters":37600,"station_id":"ce4bhb12rcd13ifvqel0","pricing_plan_id":"cebpf4jnsgd1na2vs0mg"},{"bike_id":"e9be978a-fe42-4e37-8c73-6b487f73cb3e","system_id":"levelo_inurba_marseille","lat":43.29605,"lon":5.38096,"is_reserved":false,"is_disabled":false,"rental_uris":{"android":"levelo://app?vid=e9be978a-fe42-4e37-8c73-6b487f73cb3e","ios":"levelo://app?vid=e9be978a-fe42-4e37-8c73-6b487f73cb3e"},"vehicle_type_id":"4","last_reported":1771353738,"current_range_meters":35600,"station_id":"ce4bgl12rcd13ifvqbo0","pricing_plan_id":"cebpf4jnsgd1na2vs0mg"},{"bike_id":"6049d768-160f-4de8-92ef-d5b3005eb2af","system_id":"levelo_inurba_marseille","lat":43.29735,"lon":5.37696,"is_reserved":false,"is_disabled":false,"rental_uris":{"android":"levelo://app?vid=6049d768-160f-4de8-92ef-d5b3005eb2af","ios":"levelo://app?vid=6049d768-160f-4de8-92ef-d5b3005eb2af"},"vehicle_type_id":"4","last_reported":1771353738,"current_range_meters":19600,"station_id":"ce4bgkh2rcd13ifvqbl0","pricing_plan_id":"cebpf4jnsgd1na2vs0mg"},{"bike_id":"ae856a39-f29a-4e7b-92fd-4cf9b8e26220","system_id":"levelo_inurba_marseille","lat":43.28485,"lon":5.38432,"is_reserved":false,"is_disabled":false,"rental_uris":{"android":"levelo://app?vid=ae856a39-f29a-4e7b-92fd-4cf9b8e26220","ios":"levelo://app?vid=ae856a39-f29a-4e7b-92fd-4cf9b8e26220"},"vehicle_type_id":"4","last_reported":1771353738,"current_range_meters":39200,"station_id":"ce4bh512rcd13ifvqe3g","pricing_plan_id":"cebpf4jnsgd1na2vs0mg"},{"bike_id":"d2caf9d8-1a11-4658-97a9-300561939203","system_id":"levelo_inurba_marseille","lat":43.2293,"lon":5.35391,"is_reserved":false,"is_disabled":false,"rental_uris":{"android":"levelo://app?vid=d2caf9d8-1a11-4658-97a9-300561939203","ios":"levelo://app?vid=d2caf9d8-1a11-4658-97a9-300561939203"},"vehicle_type_id":"4","last_reported":1771353738,"current_range_meters":36000,"station_id":"cpo3532slgdg3j2ikp40","pricing_plan_id":"cebpf4jnsgd1na2vs0mg"},{"bike_id":"eb7d8b45-cb04-4672-9bcc-efb1502dea8e","system_id":"levelo_inurba_marseille","lat":43.26208,"lon":5.37928,"is_reserved":false,"is_disabled":false,"rental_uris":{"android":"levelo://app?vid=eb7d8b45-cb04-4672-9bcc-efb1502dea8e","ios":"levelo://app?vid=eb7d8b45-cb04-4672-9bcc-efb1502dea8e"},"vehicle_type_id":"4","last_reported":1771353738,"current_range_meters":28000,"station_id":"ce4bhjp2rcd13ifvqg90","pricing_plan_id":"cebpf4jnsgd1na2vs0mg"},{"bike_id":"1de97570-ae76-4d69-959d-68b6161997f7","system_id":"levelo_inurba_marseille","lat":43.26495,"lon":5.39552,"is_reserved":false,"is_disabled":false,"rental_uris":{"android":"levelo://app?vid=1de97570-ae76-4d69-959d-68b6161997f7","ios":"levelo://app?vid=1de97570-ae76-4d69-959d-68b6161997f7"},"vehicle_type_id":"4","last_reported":1771353738,"current_range_meters":39200,"station_id":"ce4bhi12rcd13ifvqfq0","pricing_plan_id":"cebpf4jnsgd1na2vs0mg"},{"bike_id":"3b41e299-098a-4799-95cd-1d1c98eef8e8","system_id":"levelo_inurba_marseille","lat":43.31051,"lon":5.37173,"is_reserved":false,"is_disabled":true,"rental_uris":{"android":"levelo://app?vid=3b41e299-098a-4799-95cd-1d1c98eef8e8","ios":"levelo://app?vid=3b41e299-098a-4799-95cd-1d1c98eef8e8"},"vehicle_type_id":"4","last_reported":1771353738,"current_range_meters":38800,"station_id":"st_d4kl2rp97mjs73e7tdfg","pricing_plan_id":"cebpf4jnsgd1na2vs0mg"},{"bike_id":"2349831e-d7f9-4f31-a5d9-1fff72e9bf17","system_id":"levelo_inurba_marseille","lat":43.28733,"lon":5.36083,"is_reserved":false,"is_disabled":false,"rental_uris":{"android":"levelo://app?vid=2349831e-d7f9-4f31-a5d9-1fff72e9bf17","ios":"levelo://app?vid=2349831e-d7f9-4f31-a5d9-1fff72e9bf17"},"vehicle_type_id":"4","last_reported":1771353738,"current_range_meters":13600,"station_id":"cki0cbj6b192h4jlfktg","pricing_plan_id":"cebpf4jnsgd1na2vs0mg"},{"bike_id":"2fbc3363-f793-4fa9-a7b2-0da7f3ec6d22","system_id":"levelo_inurba_marseille","lat":43.2622,"lon":5.37479,"is_reserved":false,"is_disabled":false,"rental_uris":{"android":"levelo://app?vid=2fbc3363-f793-4fa9-a7b2-0da7f3ec6d22","ios":"levelo://app?vid=2fbc3363-f793-4fa9-a7b2-0da7f3ec6d22"},"vehicle_type_id":"4","last_reported":1771353738,"current_range_meters":38400,"station_id":"ce4bhgp2rcd13ifvqfc0","pricing_plan_id":"cebpf4jnsgd1na2vs0mg"},{"bike_id":"b17ae235-587c-4e4e-81ef-33e8065a564d","system_id":"levelo_inurba_marseille","lat":43.29266,"lon":5.38447,"is_reserved":false,"is_disabled":false,"rental_uris":{"android":"levelo://app?vid=b17ae235-587c-4e4e-81ef-33e8065a564d","ios":"levelo://app?vid=b17ae235-587c-4e4e-81ef-33e8065a564d"},"vehicle_type_id":"4","last_reported":1771353738,"current_range_meters":14000,"station_id":"ce4bh692rcd13ifvqea0","pricing_plan_id":"cebpf4jnsgd1na2vs0mg"},{"bike_id":"38c77bad-2974-430e-b0cc-cadbbf837617","system_id":"levelo_inurba_marseille","lat":43.28479,"lon":5.48398,"is_reserved":false,"is_disabled":false,"rental_uris":{"android":"levelo://app?vid=38c77bad-2974-430e-b0cc-cadbbf837617","ios":"levelo://app?vid=38c77bad-2974-430e-b0cc-cadbbf837617"},"vehicle_type_id":"4","last_reported":1771353738,"current_range_meters":17600,"station_id":"","pricing_plan_id":"cebpf4jnsgd1na2vs0mg"},{"bike_id":"7a1729b7-fbd7-4ab3-8872-63846669e36d","system_id":"levelo_inurba_marseille","lat":43.290475,"lon":5.399622,"is_reserved":false,"is_disabled":true,"rental_uris":{"android":"levelo://app?vid=7a1729b7-fbd7-4ab3-8872-63846669e36d","ios":"levelo://app?vid=7a1729b7-fbd7-4ab3-8872-63846669e36d"},"vehicle_type_id":"4","last_reported":1771353738,"current_range_meters":0,"station_id":"ce4bh392rcd13ifvqdm0","pricing_plan_id":"cebpf4jnsgd1na2vs0mg"},{"bike_id":"31b04b6d-fe91-4ef8-bb3a-c35469bcb168","system_id":"levelo_inurba_marseille","lat":43.29519,"lon":5.37506,"is_reserved":false,"is_disabled":false,"rental_uris":{"android":"levelo://app?vid=31b04b6d-fe91-4ef8-bb3a-c35469bcb168","ios":"levelo://app?vid=31b04b6d-fe91-4ef8-bb3a-c35469bcb168"},"vehicle_type_id":"4","last_reported":1771353738,"current_range_meters":16000,"station_id":"ce4bgkp2rcd13ifvqbmg","pricing_plan_id":"cebpf4jnsgd1na2vs0mg"},{"bike_id":"22d1bb3b-f1af-43f7-bfee-dba1d668695b","system_id":"levelo_inurba_marseille","lat":43.26561,"lon":5.3905,"is_reserved":false,"is_disabled":false,"rental_uris":{"android":"levelo://app?vid=22d1bb3b-f1af-43f7-bfee-dba1d668695b","ios":"levelo://app?vid=22d1bb3b-f1af-43f7-bfee-dba1d668695b"},"vehicle_type_id":"4","last_reported":1771353738,"current_range_meters":17200,"station_id":"ce4bhe12rcd13ifvqf30","pricing_plan_id":"cebpf4jnsgd1na2vs0mg"},{"bike_id":"68274cbd-590c-45aa-9a28-61b725a4285b","system_id":"levelo_inurba_marseille","lat":43.241717,"lon":5.363981,"is_reserved":false,"is_disabled":true,"rental_uris":{"android":"levelo://app?vid=68274cbd-590c-45aa-9a28-61b725a4285b","ios":"levelo://app?vid=68274cbd-590c-45aa-9a28-61b725a4285b"},"vehicle_type_id":"4","last_reported":1771353738,"current_range_meters":22400,"station_id":"cpo36qri1sfpv3e86is0","pricing_plan_id":"cebpf4jnsgd1na2vs0mg"},{"bike_id":"58108626-63f7-4df8-b035-98e7008616ae","system_id":"levelo_inurba_marseille","lat":43.29274,"lon":5.38452,"is_reserved":false,"is_disabled":false,"rental_uris":{"android":"levelo://app?vid=58108626-63f7-4df8-b035-98e7008616ae","ios":"levelo://app?vid=58108626-63f7-4df8-b035-98e7008616ae"},"vehicle_type_id":"4","last_reported":1771353738,"current_range_meters":18800,"station_id":"ce4bh692rcd13ifvqea0","pricing_plan_id":"cebpf4jnsgd1na2vs0mg"},{"bike_id":"21d9be0e-acaf-4466-b64a-6d35c836814f","system_id":"levelo_inurba_marseille","lat":43.2861,"lon":5.39869,"is_reserved":false,"is_disabled":false,"rental_uris":{"android":"levelo://app?vid=21d9be0e-acaf-4466-b64a-6d35c836814f","ios":"levelo://app?vid=21d9be0e-acaf-4466-b64a-6d35c836814f"},"vehicle_type_id":"4","last_reported":1771353738,"current_range_meters":12800,"station_id":"st_d4a7ka997mjs738ck50g","pricing_plan_id":"cebpf4jnsgd1na2vs0mg"},{"bike_id":"6519ffcc-e63c-44b1-aec4-9b1a3b8e7dba","system_id":"levelo_inurba_marseille","lat":43.25586,"lon":5.38246,"is_reserved":false,"is_disabled":false,"rental_uris":{"android":"levelo://app?vid=6519ffcc-e63c-44b1-aec4-9b1a3b8e7dba","ios":"levelo://app?vid=6519ffcc-e63c-44b1-aec4-9b1a3b8e7dba"},"vehicle_type_id":"4","last_reported":1771353738,"current_range_meters":28800,"station_id":"ce4bhih2rcd13ifvqfs0","pricing_plan_id":"cebpf4jnsgd1na2vs0mg"},{"bike_id":"1ce24394-305c-4488-b178-aa7abf68971e","system_id":"levelo_inurba_marseille","lat":43.27376,"lon":5.36244,"is_reserved":false,"is_disabled":false,"rental_uris":{"android":"levelo://app?vid=1ce24394-305c-4488-b178-aa7abf68971e","ios":"levelo://app?vid=1ce24394-305c-4488-b178-aa7abf68971e"},"vehicle_type_id":"4","last_reported":1771353738,"current_range_meters":17200,"station_id":"ce4bhbh2rcd13ifvqeo0","pricing_plan_id":"cebpf4jnsgd1na2vs0mg"},{"bike_id":"62fa60e4-871f-4c91-8a1a-bd1faf4d3dcb","system_id":"levelo_inurba_marseille","lat":43.29518,"lon":5.37513,"is_reserved":false,"is_disabled":false,"rental_uris":{"android":"levelo://app?vid=62fa60e4-871f-4c91-8a1a-bd1faf4d3dcb","ios":"levelo://app?vid=62fa60e4-871f-4c91-8a1a-bd1faf4d3dcb"},"vehicle_type_id":"4","last_reported":1771353738,"current_range_meters":22800,"station_id":"ce4bgkp2rcd13ifvqbmg","pricing_plan_id":"cebpf4jnsgd1na2vs0mg"},{"bike_id":"ebb3d758-6fc9-4691-b606-ab4485ae119e","system_id":"levelo_inurba_marseille","lat":43.278109,"lon":5.407419,"is_reserved":false,"is_disabled":false,"rental_uris":{"android":"levelo://app?vid=ebb3d758-6fc9-4691-b606-ab4485ae119e","ios":"levelo://app?vid=ebb3d758-6fc9-4691-b606-ab4485ae119e"},"vehicle_type_id":"4","last_reported":1771353738,"current_range_meters":33200,"station_id":"ce4bhnh2rcd13ifvqgtg","pricing_plan_id":"cebpf4jnsgd1na2vs0mg"},{"bike_id":"43ee0588-c27a-4ccf-a93d-19fae64c8940","system_id":"levelo_inurba_marseille","lat":43.26058,"lon":5.39398,"is_reserved":false,"is_disabled":false,"rental_uris":{"android":"levelo://app?vid=43ee0588-c27a-4ccf-a93d-19fae64c8940","ios":"levelo://app?vid=43ee0588-c27a-4ccf-a93d-19fae64c8940"},"vehicle_type_id":"4","last_reported":1771353738,"current_range_meters":39200,"station_id":"ce4bhh92rcd13ifvqfj0","pricing_plan_id":"cebpf4jnsgd1na2vs0mg"},{"bike_id":"51856490-b1ea-41ec-b7e3-1417d88d36a2","system_id":"levelo_inurba_marseille","lat":43.25107,"lon":5.39528,"is_reserved":false,"is_disabled":false,"rental_uris":{"android":"levelo://app?vid=51856490-b1ea-41ec-b7e3-1417d88d36a2","ios":"levelo://app?vid=51856490-b1ea-41ec-b7e3-1417d88d36a2"},"vehicle_type_id":"4","last_reported":1771353738,"current_range_meters":40000,"station_id":"ce4bhm12rcd13ifvqgkg","pricing_plan_id":"cebpf4jnsgd1na2vs0mg"},{"bike_id":"e9991c87-6785-4dbb-814f-912667b2e07d","system_id":"levelo_inurba_marseille","lat":43.27088,"lon":5.42286,"is_reserved":false,"is_disabled":false,"rental_uris":{"android":"levelo://app?vid=e9991c87-6785-4dbb-814f-912667b2e07d","ios":"levelo://app?vid=e9991c87-6785-4dbb-814f-912667b2e07d"},"vehicle_type_id":"4","last_reported":1771353738,"current_range_meters":35600,"station_id":"ce4bhk92rcd13ifvqgb0","pricing_plan_id":"cebpf4jnsgd1na2vs0mg"},{"bike_id":"fb477532-a37b-427f-996e-162bf3bef713","system_id":"levelo_inurba_marseille","lat":43.29041,"lon":5.38147,"is_reserved":false,"is_disabled":false,"rental_uris":{"android":"levelo://app?vid=fb477532-a37b-427f-996e-162bf3bef713","ios":"levelo://app?vid=fb477532-a37b-427f-996e-162bf3bef713"},"vehicle_type_id":"4","last_reported":1771353738,"current_range_meters":28400,"station_id":"ce4bh4p2rcd13ifvqe1g","pricing_plan_id":"cebpf4jnsgd1na2vs0mg"},{"bike_id":"492f96dd-41b0-48cd-b96d-5282a2ea78ab","system_id":"levelo_inurba_marseille","lat":43.29966,"lon":5.38496,"is_reserved":false,"is_disabled":false,"rental_uris":{"android":"levelo://app?vid=492f96dd-41b0-48cd-b96d-5282a2ea78ab","ios":"levelo://app?vid=492f96dd-41b0-48cd-b96d-5282a2ea78ab"},"vehicle_type_id":"4","last_reported":1771353738,"current_range_meters":30000,"station_id":"ce4bgj92rcd13ifvqbd0","pricing_plan_id":"cebpf4jnsgd1na2vs0mg"},{"bike_id":"62c4ee00-00d3-4573-89db-bcd49a4e4fd7","system_id":"levelo_inurba_marseille","lat":43.27094,"lon":5.42294,"is_reserved":false,"is_disabled":false,"rental_uris":{"android":"levelo://app?vid=62c4ee00-00d3-4573-89db-bcd49a4e4fd7","ios":"levelo://app?vid=62c4ee00-00d3-4573-89db-bcd49a4e4fd7"},"vehicle_type_id":"4","last_reported":1771353738,"current_range_meters":36000,"station_id":"ce4bhk92rcd13ifvqgb0","pricing_plan_id":"cebpf4jnsgd1na2vs0mg"},{"bike_id":"eee86da4-3e34-439e-b8c9-f79c4c504015","system_id":"levelo_inurba_marseille","lat":43.295723,"lon":5.375307,"is_reserved":false,"is_disabled":false,"rental_uris":{"android":"levelo://app?vid=eee86da4-3e34-439e-b8c9-f79c4c504015","ios":"levelo://app?vid=eee86da4-3e34-439e-b8c9-f79c4c504015"},"vehicle_type_id":"4","last_reported":1771353738,"current_range_meters":27200,"station_id":"ce4bgh92rcd13ifvqb50","pricing_plan_id":"cebpf4jnsgd1na2vs0mg"},{"bike_id":"0cfceae5-a32b-4c1f-b802-b5e4660a01e1","system_id":"levelo_inurba_marseille","lat":43.28864,"lon":5.35859,"is_reserved":false,"is_disabled":false,"rental_uris":{"android":"levelo://app?vid=0cfceae5-a32b-4c1f-b802-b5e4660a01e1","ios":"levelo://app?vid=0cfceae5-a32b-4c1f-b802-b5e4660a01e1"},"vehicle_type_id":"4","last_reported":1771353738,"current_range_meters":37600,"station_id":"ce4bhb12rcd13ifvqem0","pricing_plan_id":"cebpf4jnsgd1na2vs0mg"},{"bike_id":"d5fe3e37-6d89-4e6d-b318-54196ffd1123","system_id":"levelo_inurba_marseille","lat":43.289828,"lon":5.387531,"is_reserved":false,"is_disabled":false,"rental_uris":{"android":"levelo://app?vid=d5fe3e37-6d89-4e6d-b318-54196ffd1123","ios":"levelo://app?vid=d5fe3e37-6d89-4e6d-b318-54196ffd1123"},"vehicle_type_id":"4","last_reported":1771353738,"current_range_meters":4400,"station_id":"","pricing_plan_id":"cebpf4jnsgd1na2vs0mg"},{"bike_id":"6874a728-2036-45e6-b6c2-69ff6fd8b41b","system_id":"levelo_inurba_marseille","lat":43.264967,"lon":5.395411,"is_reserved":false,"is_disabled":false,"rental_uris":{"android":"levelo://app?vid=6874a728-2036-45e6-b6c2-69ff6fd8b41b","ios":"levelo://app?vid=6874a728-2036-45e6-b6c2-69ff6fd8b41b"},"vehicle_type_id":"4","last_reported":1771353738,"current_range_meters":17200,"station_id":"ce4bhi12rcd13ifvqfq0","pricing_plan_id":"cebpf4jnsgd1na2vs0mg"},{"bike_id":"c17f44cd-8a4b-4c4e-90da-1b538fcc39f6","system_id":"levelo_inurba_marseille","lat":43.297003,"lon":5.376916,"is_reserved":false,"is_disabled":false,"rental_uris":{"android":"levelo://app?vid=c17f44cd-8a4b-4c4e-90da-1b538fcc39f6","ios":"levelo://app?vid=c17f44cd-8a4b-4c4e-90da-1b538fcc39f6"},"vehicle_type_id":"4","last_reported":1771353738,"current_range_meters":33600,"station_id":"ce4bh4p2rcd13ifvqe1g","pricing_plan_id":"cebpf4jnsgd1na2vs0mg"},{"bike_id":"5c72476a-9212-4c44-ab1d-c5117cf2ed5f","system_id":"levelo_inurba_marseille","lat":43.33548,"lon":5.37451,"is_reserved":false,"is_disabled":false,"rental_uris":{"android":"levelo://app?vid=5c72476a-9212-4c44-ab1d-c5117cf2ed5f","ios":"levelo://app?vid=5c72476a-9212-4c44-ab1d-c5117cf2ed5f"},"vehicle_type_id":"4","last_reported":1771353738,"current_range_meters":27600,"station_id":"st_d46tts09ee8s73dlu43g","pricing_plan_id":"cebpf4jnsgd1na2vs0mg"},{"bike_id":"dbdd8196-53c1-4d97-97e1-f913d3089af2","system_id":"levelo_inurba_marseille","lat":43.2905,"lon":5.38595,"is_reserved":false,"is_disabled":false,"rental_uris":{"android":"levelo://app?vid=dbdd8196-53c1-4d97-97e1-f913d3089af2","ios":"levelo://app?vid=dbdd8196-53c1-4d97-97e1-f913d3089af2"},"vehicle_type_id":"4","last_reported":1771353738,"current_range_meters":14400,"station_id":"ce4bh4p2rcd13ifvqe0g","pricing_plan_id":"cebpf4jnsgd1na2vs0mg"},{"bike_id":"fc01cc9d-533a-4c48-813b-04abe2bf0ba6","system_id":"levelo_inurba_marseille","lat":43.29766,"lon":5.42761,"is_reserved":false,"is_disabled":false,"rental_uris":{"android":"levelo://app?vid=fc01cc9d-533a-4c48-813b-04abe2bf0ba6","ios":"levelo://app?vid=fc01cc9d-533a-4c48-813b-04abe2bf0ba6"},"vehicle_type_id":"4","last_reported":1771353738,"current_range_meters":34800,"station_id":"st_d3md5207bmas73dh9klg","pricing_plan_id":"cebpf4jnsgd1na2vs0mg"},{"bike_id":"24e98e5d-096e-4b5b-a836-ec8cf23bd5a0","system_id":"levelo_inurba_marseille","lat":43.24825,"lon":5.37448,"is_reserved":false,"is_disabled":false,"rental_uris":{"android":"levelo://app?vid=24e98e5d-096e-4b5b-a836-ec8cf23bd5a0","ios":"levelo://app?vid=24e98e5d-096e-4b5b-a836-ec8cf23bd5a0"},"vehicle_type_id":"4","last_reported":1771353738,"current_range_meters":23200,"station_id":"ce4bhgh2rcd13ifvqfb0","pricing_plan_id":"cebpf4jnsgd1na2vs0mg"},{"bike_id":"5a810dd6-6749-4904-a7d7-3a585fc9a573","system_id":"levelo_inurba_marseille","lat":43.29977,"lon":5.38493,"is_reserved":false,"is_disabled":false,"rental_uris":{"android":"levelo://app?vid=5a810dd6-6749-4904-a7d7-3a585fc9a573","ios":"levelo://app?vid=5a810dd6-6749-4904-a7d7-3a585fc9a573"},"vehicle_type_id":"4","last_reported":1771353738,"current_range_meters":31200,"station_id":"ce4bgj92rcd13ifvqbd0","pricing_plan_id":"cebpf4jnsgd1na2vs0mg"},{"bike_id":"37a0928e-089e-4ada-908a-e9f1c360e895","system_id":"levelo_inurba_marseille","lat":43.29932,"lon":5.36527,"is_reserved":false,"is_disabled":false,"rental_uris":{"android":"levelo://app?vid=37a0928e-089e-4ada-908a-e9f1c360e895","ios":"levelo://app?vid=37a0928e-089e-4ada-908a-e9f1c360e895"},"vehicle_type_id":"4","last_reported":1771353738,"current_range_meters":24400,"station_id":"ce4bgm92rcd13ifvqbr0","pricing_plan_id":"cebpf4jnsgd1na2vs0mg"},{"bike_id":"819da65f-4600-4ae7-b59f-7223a1bca979","system_id":"levelo_inurba_marseille","lat":43.248061,"lon":5.374516,"is_reserved":false,"is_disabled":false,"rental_uris":{"android":"levelo://app?vid=819da65f-4600-4ae7-b59f-7223a1bca979","ios":"levelo://app?vid=819da65f-4600-4ae7-b59f-7223a1bca979"},"vehicle_type_id":"4","last_reported":1771353738,"current_range_meters":40000,"station_id":"ce4bhgh2rcd13ifvqfb0","pricing_plan_id":"cebpf4jnsgd1na2vs0mg"},{"bike_id":"c6b89208-df95-4016-b6a6-e7860bb27cba","system_id":"levelo_inurba_marseille","lat":43.33534,"lon":5.37455,"is_reserved":false,"is_disabled":false,"rental_uris":{"android":"levelo://app?vid=c6b89208-df95-4016-b6a6-e7860bb27cba","ios":"levelo://app?vid=c6b89208-df95-4016-b6a6-e7860bb27cba"},"vehicle_type_id":"4","last_reported":1771353738,"current_range_meters":28000,"station_id":"st_d46tts09ee8s73dlu43g","pricing_plan_id":"cebpf4jnsgd1na2vs0mg"},{"bike_id":"cba59a9d-c58d-4a67-a69b-b0c3f03357f2","system_id":"levelo_inurba_marseille","lat":43.33125,"lon":5.39271,"is_reserved":false,"is_disabled":false,"rental_uris":{"android":"levelo://app?vid=cba59a9d-c58d-4a67-a69b-b0c3f03357f2","ios":"levelo://app?vid=cba59a9d-c58d-4a67-a69b-b0c3f03357f2"},"vehicle_type_id":"4","last_reported":1771353738,"current_range_meters":19600,"station_id":"","pricing_plan_id":"cebpf4jnsgd1na2vs0mg"},{"bike_id":"0d56c936-b384-4851-bbb5-943b49818f15","system_id":"levelo_inurba_marseille","lat":43.28616,"lon":5.3509,"is_reserved":false,"is_disabled":false,"rental_uris":{"android":"levelo://app?vid=0d56c936-b384-4851-bbb5-943b49818f15","ios":"levelo://app?vid=0d56c936-b384-4851-bbb5-943b49818f15"},"vehicle_type_id":"4","last_reported":1771353738,"current_range_meters":11200,"station_id":"ce4bhch2rcd13ifvqeug","pricing_plan_id":"cebpf4jnsgd1na2vs0mg"},{"bike_id":"37e06210-33d1-49b6-b4b7-edff021bda30","system_id":"levelo_inurba_marseille","lat":43.32132,"lon":5.36767,"is_reserved":false,"is_disabled":false,"rental_uris":{"android":"levelo://app?vid=37e06210-33d1-49b6-b4b7-edff021bda30","ios":"levelo://app?vid=37e06210-33d1-49b6-b4b7-edff021bda30"},"vehicle_type_id":"4","last_reported":1771353738,"current_range_meters":22400,"station_id":"ce4bhrh2rcd13ifvqhug","pricing_plan_id":"cebpf4jnsgd1na2vs0mg"},{"bike_id":"6e31aed5-b016-4873-b3e5-55d6cf695abd","system_id":"levelo_inurba_marseille","lat":43.26942,"lon":5.38655,"is_reserved":false,"is_disabled":false,"rental_uris":{"android":"levelo://app?vid=6e31aed5-b016-4873-b3e5-55d6cf695abd","ios":"levelo://app?vid=6e31aed5-b016-4873-b3e5-55d6cf695abd"},"vehicle_type_id":"4","last_reported":1771353738,"current_range_meters":16800,"station_id":"ce4bhh92rcd13ifvqfh0","pricing_plan_id":"cebpf4jnsgd1na2vs0mg"},{"bike_id":"9cb74265-5de6-40fe-bfec-dbba4c0edacf","system_id":"levelo_inurba_marseille","lat":43.24667,"lon":5.38167,"is_reserved":false,"is_disabled":false,"rental_uris":{"android":"levelo://app?vid=9cb74265-5de6-40fe-bfec-dbba4c0edacf","ios":"levelo://app?vid=9cb74265-5de6-40fe-bfec-dbba4c0edacf"},"vehicle_type_id":"4","last_reported":1771353738,"current_range_meters":3600,"station_id":"ce4bhih2rcd13ifvqfr0","pricing_plan_id":"cebpf4jnsgd1na2vs0mg"},{"bike_id":"ec723023-d52e-4e05-836a-9da1981ac6c3","system_id":"levelo_inurba_marseille","lat":43.286152,"lon":5.35101,"is_reserved":false,"is_disabled":false,"rental_uris":{"android":"levelo://app?vid=ec723023-d52e-4e05-836a-9da1981ac6c3","ios":"levelo://app?vid=ec723023-d52e-4e05-836a-9da1981ac6c3"},"vehicle_type_id":"4","last_reported":1771353738,"current_range_meters":36000,"station_id":"ce4bhch2rcd13ifvqeug","pricing_plan_id":"cebpf4jnsgd1na2vs0mg"},{"bike_id":"48225f1b-4a1f-444a-b556-96d906634ea3","system_id":"levelo_inurba_marseille","lat":43.24409,"lon":5.37064,"is_reserved":false,"is_disabled":false,"rental_uris":{"android":"levelo://app?vid=48225f1b-4a1f-444a-b556-96d906634ea3","ios":"levelo://app?vid=48225f1b-4a1f-444a-b556-96d906634ea3"},"vehicle_type_id":"4","last_reported":1771353738,"current_range_meters":32400,"station_id":"ce4bhhh2rcd13ifvqfk0","pricing_plan_id":"cebpf4jnsgd1na2vs0mg"},{"bike_id":"2a84dada-a119-4dd5-a0a1-9644ad5b9ada","system_id":"levelo_inurba_marseille","lat":43.23981,"lon":5.36616,"is_reserved":false,"is_disabled":false,"rental_uris":{"android":"levelo://app?vid=2a84dada-a119-4dd5-a0a1-9644ad5b9ada","ios":"levelo://app?vid=2a84dada-a119-4dd5-a0a1-9644ad5b9ada"},"vehicle_type_id":"4","last_reported":1771353738,"current_range_meters":3600,"station_id":"ce4bhi12rcd13ifvqfp0","pricing_plan_id":"cebpf4jnsgd1na2vs0mg"},{"bike_id":"979867e6-f531-4279-b2b8-099588a9201e","system_id":"levelo_inurba_marseille","lat":43.25079,"lon":5.39506,"is_reserved":false,"is_disabled":false,"rental_uris":{"android":"levelo://app?vid=979867e6-f531-4279-b2b8-099588a9201e","ios":"levelo://app?vid=979867e6-f531-4279-b2b8-099588a9201e"},"vehicle_type_id":"4","last_reported":1771353738,"current_range_meters":4000,"station_id":"ce4bhm12rcd13ifvqgkg","pricing_plan_id":"cebpf4jnsgd1na2vs0mg"},{"bike_id":"ad6d85d6-789c-4fb5-b702-1313a4cd817f","system_id":"levelo_inurba_marseille","lat":43.33541,"lon":5.37464,"is_reserved":false,"is_disabled":false,"rental_uris":{"android":"levelo://app?vid=ad6d85d6-789c-4fb5-b702-1313a4cd817f","ios":"levelo://app?vid=ad6d85d6-789c-4fb5-b702-1313a4cd817f"},"vehicle_type_id":"4","last_reported":1771353738,"current_range_meters":17200,"station_id":"st_d46tts09ee8s73dlu43g","pricing_plan_id":"cebpf4jnsgd1na2vs0mg"},{"bike_id":"2205f806-2b4e-4d2e-9a52-ff5479da41b9","system_id":"levelo_inurba_marseille","lat":43.22927,"lon":5.35377,"is_reserved":false,"is_disabled":false,"rental_uris":{"android":"levelo://app?vid=2205f806-2b4e-4d2e-9a52-ff5479da41b9","ios":"levelo://app?vid=2205f806-2b4e-4d2e-9a52-ff5479da41b9"},"vehicle_type_id":"4","last_reported":1771353738,"current_range_meters":13600,"station_id":"cpo3532slgdg3j2ikp40","pricing_plan_id":"cebpf4jnsgd1na2vs0mg"},{"bike_id":"4ba95c3b-c026-4c62-8562-d1a9d931cdb5","system_id":"levelo_inurba_marseille","lat":43.253363,"lon":5.421708,"is_reserved":false,"is_disabled":false,"rental_uris":{"android":"levelo://app?vid=4ba95c3b-c026-4c62-8562-d1a9d931cdb5","ios":"levelo://app?vid=4ba95c3b-c026-4c62-8562-d1a9d931cdb5"},"vehicle_type_id":"4","last_reported":1771353738,"current_range_meters":28000,"station_id":"st_d2m65c5bi1j21697t3ng","pricing_plan_id":"cebpf4jnsgd1na2vs0mg"},{"bike_id":"36f301fb-c160-4225-9a43-f57e64075002","system_id":"levelo_inurba_marseille","lat":43.305502,"lon":5.365259,"is_reserved":false,"is_disabled":false,"rental_uris":{"android":"levelo://app?vid=36f301fb-c160-4225-9a43-f57e64075002","ios":"levelo://app?vid=36f301fb-c160-4225-9a43-f57e64075002"},"vehicle_type_id":"4","last_reported":1771353738,"current_range_meters":12800,"station_id":"ce4bgs12rcd13ifvqcag","pricing_plan_id":"cebpf4jnsgd1na2vs0mg"},{"bike_id":"99ec35f0-e147-4ca4-ac89-90348b5d45a6","system_id":"levelo_inurba_marseille","lat":43.23181,"lon":5.35587,"is_reserved":false,"is_disabled":false,"rental_uris":{"android":"levelo://app?vid=99ec35f0-e147-4ca4-ac89-90348b5d45a6","ios":"levelo://app?vid=99ec35f0-e147-4ca4-ac89-90348b5d45a6"},"vehicle_type_id":"4","last_reported":1771353738,"current_range_meters":8400,"station_id":"ce4bhu92rcd13ifvqi70","pricing_plan_id":"cebpf4jnsgd1na2vs0mg"},{"bike_id":"85f01765-5f38-432e-984a-21b4c8ec9fb7","system_id":"levelo_inurba_marseille","lat":43.29966,"lon":5.38493,"is_reserved":false,"is_disabled":false,"rental_uris":{"android":"levelo://app?vid=85f01765-5f38-432e-984a-21b4c8ec9fb7","ios":"levelo://app?vid=85f01765-5f38-432e-984a-21b4c8ec9fb7"},"vehicle_type_id":"4","last_reported":1771353738,"current_range_meters":28000,"station_id":"ce4bgj92rcd13ifvqbd0","pricing_plan_id":"cebpf4jnsgd1na2vs0mg"},{"bike_id":"3b4af1bd-7155-46cc-bbe4-71c75df76dd2","system_id":"levelo_inurba_marseille","lat":43.25733,"lon":5.41098,"is_reserved":false,"is_disabled":false,"rental_uris":{"android":"levelo://app?vid=3b4af1bd-7155-46cc-bbe4-71c75df76dd2","ios":"levelo://app?vid=3b4af1bd-7155-46cc-bbe4-71c75df76dd2"},"vehicle_type_id":"4","last_reported":1771353738,"current_range_meters":30000,"station_id":"ce4bhkp2rcd13ifvqgd0","pricing_plan_id":"cebpf4jnsgd1na2vs0mg"},{"bike_id":"46f832db-6db1-4193-9443-e88fffb4a52a","system_id":"levelo_inurba_marseille","lat":43.30948,"lon":5.40137,"is_reserved":false,"is_disabled":false,"rental_uris":{"android":"levelo://app?vid=46f832db-6db1-4193-9443-e88fffb4a52a","ios":"levelo://app?vid=46f832db-6db1-4193-9443-e88fffb4a52a"},"vehicle_type_id":"4","last_reported":1771353738,"current_range_meters":26800,"station_id":"ce4bgvp2rcd13ifvqct0","pricing_plan_id":"cebpf4jnsgd1na2vs0mg"},{"bike_id":"cff4a59b-4a5f-4b9f-813d-63f325141d2d","system_id":"levelo_inurba_marseille","lat":43.2495,"lon":5.40496,"is_reserved":false,"is_disabled":false,"rental_uris":{"android":"levelo://app?vid=cff4a59b-4a5f-4b9f-813d-63f325141d2d","ios":"levelo://app?vid=cff4a59b-4a5f-4b9f-813d-63f325141d2d"},"vehicle_type_id":"4","last_reported":1771353738,"current_range_meters":28000,"station_id":"st_d2ngiaodas8pm72gd1h0","pricing_plan_id":"cebpf4jnsgd1na2vs0mg"},{"bike_id":"d800483e-e4b5-4dba-b8af-f5caf11048b6","system_id":"levelo_inurba_marseille","lat":43.2982,"lon":5.44069,"is_reserved":false,"is_disabled":false,"rental_uris":{"android":"levelo://app?vid=d800483e-e4b5-4dba-b8af-f5caf11048b6","ios":"levelo://app?vid=d800483e-e4b5-4dba-b8af-f5caf11048b6"},"vehicle_type_id":"4","last_reported":1771353738,"current_range_meters":26800,"station_id":"st_d3jp68qikq2c7381ktn0","pricing_plan_id":"cebpf4jnsgd1na2vs0mg"},{"bike_id":"810b45c1-5945-4742-896a-5d291fa10e02","system_id":"levelo_inurba_marseille","lat":43.29262,"lon":5.38424,"is_reserved":false,"is_disabled":false,"rental_uris":{"android":"levelo://app?vid=810b45c1-5945-4742-896a-5d291fa10e02","ios":"levelo://app?vid=810b45c1-5945-4742-896a-5d291fa10e02"},"vehicle_type_id":"4","last_reported":1771353738,"current_range_meters":19200,"station_id":"ce4bh692rcd13ifvqea0","pricing_plan_id":"cebpf4jnsgd1na2vs0mg"},{"bike_id":"c18896dc-dcd6-4005-80ac-fa6ffb39ee8f","system_id":"levelo_inurba_marseille","lat":43.27088,"lon":5.40271,"is_reserved":false,"is_disabled":true,"rental_uris":{"android":"levelo://app?vid=c18896dc-dcd6-4005-80ac-fa6ffb39ee8f","ios":"levelo://app?vid=c18896dc-dcd6-4005-80ac-fa6ffb39ee8f"},"vehicle_type_id":"4","last_reported":1771353738,"current_range_meters":32800,"station_id":"ce4bhk92rcd13ifvqgc0","pricing_plan_id":"cebpf4jnsgd1na2vs0mg"},{"bike_id":"a4b28a58-8d4a-4dd2-9c19-faca83eb0428","system_id":"levelo_inurba_marseille","lat":43.29371,"lon":5.37845,"is_reserved":false,"is_disabled":false,"rental_uris":{"android":"levelo://app?vid=a4b28a58-8d4a-4dd2-9c19-faca83eb0428","ios":"levelo://app?vid=a4b28a58-8d4a-4dd2-9c19-faca83eb0428"},"vehicle_type_id":"4","last_reported":1771353738,"current_range_meters":38800,"station_id":"ce4bgjh2rcd13ifvqbf0","pricing_plan_id":"cebpf4jnsgd1na2vs0mg"},{"bike_id":"bd7ab447-da9f-4a0e-a8cf-f8397aa89d64","system_id":"levelo_inurba_marseille","lat":43.29541,"lon":5.37488,"is_reserved":false,"is_disabled":false,"rental_uris":{"android":"levelo://app?vid=bd7ab447-da9f-4a0e-a8cf-f8397aa89d64","ios":"levelo://app?vid=bd7ab447-da9f-4a0e-a8cf-f8397aa89d64"},"vehicle_type_id":"4","last_reported":1771353738,"current_range_meters":24400,"station_id":"ce4bgkp2rcd13ifvqbmg","pricing_plan_id":"cebpf4jnsgd1na2vs0mg"},{"bike_id":"07ca2f1a-b7bb-4243-ba88-ab395646a1ba","system_id":"levelo_inurba_marseille","lat":43.31503,"lon":5.37297,"is_reserved":false,"is_disabled":false,"rental_uris":{"android":"levelo://app?vid=07ca2f1a-b7bb-4243-ba88-ab395646a1ba","ios":"levelo://app?vid=07ca2f1a-b7bb-4243-ba88-ab395646a1ba"},"vehicle_type_id":"4","last_reported":1771353738,"current_range_meters":28000,"station_id":"ce4bgt12rcd13ifvqcd0","pricing_plan_id":"cebpf4jnsgd1na2vs0mg"},{"bike_id":"fafd63cc-2841-4f45-9878-ea3ea32210ac","system_id":"levelo_inurba_marseille","lat":43.295888,"lon":5.439036,"is_reserved":false,"is_disabled":false,"rental_uris":{"android":"levelo://app?vid=fafd63cc-2841-4f45-9878-ea3ea32210ac","ios":"levelo://app?vid=fafd63cc-2841-4f45-9878-ea3ea32210ac"},"vehicle_type_id":"4","last_reported":1771353738,"current_range_meters":21600,"station_id":"","pricing_plan_id":"cebpf4jnsgd1na2vs0mg"},{"bike_id":"886bb703-6ea0-4e90-9cc2-893398bca37a","system_id":"levelo_inurba_marseille","lat":43.267707,"lon":5.394243,"is_reserved":false,"is_disabled":false,"rental_uris":{"android":"levelo://app?vid=886bb703-6ea0-4e90-9cc2-893398bca37a","ios":"levelo://app?vid=886bb703-6ea0-4e90-9cc2-893398bca37a"},"vehicle_type_id":"4","last_reported":1771353738,"current_range_meters":9200,"station_id":"ce4bhh12rcd13ifvqfg0","pricing_plan_id":"cebpf4jnsgd1na2vs0mg"},{"bike_id":"e7cbc679-290d-4fbf-9748-07f75e635db6","system_id":"levelo_inurba_marseille","lat":43.27816,"lon":5.40712,"is_reserved":false,"is_disabled":false,"rental_uris":{"android":"levelo://app?vid=e7cbc679-290d-4fbf-9748-07f75e635db6","ios":"levelo://app?vid=e7cbc679-290d-4fbf-9748-07f75e635db6"},"vehicle_type_id":"4","last_reported":1771353738,"current_range_meters":29600,"station_id":"ce4bhnh2rcd13ifvqgtg","pricing_plan_id":"cebpf4jnsgd1na2vs0mg"},{"bike_id":"091c26ef-a67a-48f4-8694-33aea309e055","system_id":"levelo_inurba_marseille","lat":43.25736,"lon":5.41128,"is_reserved":false,"is_disabled":false,"rental_uris":{"android":"levelo://app?vid=091c26ef-a67a-48f4-8694-33aea309e055","ios":"levelo://app?vid=091c26ef-a67a-48f4-8694-33aea309e055"},"vehicle_type_id":"4","last_reported":1771353738,"current_range_meters":38000,"station_id":"ce4bhkp2rcd13ifvqgd0","pricing_plan_id":"cebpf4jnsgd1na2vs0mg"},{"bike_id":"a6a81681-4b6a-4b37-a5f2-d092bfb159e0","system_id":"levelo_inurba_marseille","lat":43.260606,"lon":5.39393,"is_reserved":false,"is_disabled":false,"rental_uris":{"android":"levelo://app?vid=a6a81681-4b6a-4b37-a5f2-d092bfb159e0","ios":"levelo://app?vid=a6a81681-4b6a-4b37-a5f2-d092bfb159e0"},"vehicle_type_id":"4","last_reported":1771353738,"current_range_meters":38000,"station_id":"ce4bhh92rcd13ifvqfj0","pricing_plan_id":"cebpf4jnsgd1na2vs0mg"},{"bike_id":"a422cbe2-1485-4885-a94e-b526b365eac4","system_id":"levelo_inurba_marseille","lat":43.27962,"lon":5.38702,"is_reserved":false,"is_disabled":true,"rental_uris":{"android":"levelo://app?vid=a422cbe2-1485-4885-a94e-b526b365eac4","ios":"levelo://app?vid=a422cbe2-1485-4885-a94e-b526b365eac4"},"vehicle_type_id":"4","last_reported":1771353738,"current_range_meters":18800,"station_id":"ce4bhg12rcd13ifvqf80","pricing_plan_id":"cebpf4jnsgd1na2vs0mg"},{"bike_id":"d0addae8-3758-4956-867d-9e2fdb78dcfb","system_id":"levelo_inurba_marseille","lat":43.24647,"lon":5.38889,"is_reserved":false,"is_disabled":false,"rental_uris":{"android":"levelo://app?vid=d0addae8-3758-4956-867d-9e2fdb78dcfb","ios":"levelo://app?vid=d0addae8-3758-4956-867d-9e2fdb78dcfb"},"vehicle_type_id":"4","last_reported":1771353738,"current_range_meters":18800,"station_id":"ce4bhg12rcd13ifvqf60","pricing_plan_id":"cebpf4jnsgd1na2vs0mg"},{"bike_id":"d5de7bd4-eba0-4aa4-9d8e-a352a4b87ba2","system_id":"levelo_inurba_marseille","lat":43.29521,"lon":5.3785,"is_reserved":false,"is_disabled":false,"rental_uris":{"android":"levelo://app?vid=d5de7bd4-eba0-4aa4-9d8e-a352a4b87ba2","ios":"levelo://app?vid=d5de7bd4-eba0-4aa4-9d8e-a352a4b87ba2"},"vehicle_type_id":"4","last_reported":1771353738,"current_range_meters":35200,"station_id":"","pricing_plan_id":"cebpf4jnsgd1na2vs0mg"},{"bike_id":"75d7ae73-fb00-4d37-81ab-7e01ef083d2d","system_id":"levelo_inurba_marseille","lat":43.25332,"lon":5.42168,"is_reserved":false,"is_disabled":false,"rental_uris":{"android":"levelo://app?vid=75d7ae73-fb00-4d37-81ab-7e01ef083d2d","ios":"levelo://app?vid=75d7ae73-fb00-4d37-81ab-7e01ef083d2d"},"vehicle_type_id":"4","last_reported":1771353738,"current_range_meters":8800,"station_id":"st_d2m65c5bi1j21697t3ng","pricing_plan_id":"cebpf4jnsgd1na2vs0mg"},{"bike_id":"1a765b9e-e031-409f-b804-276cc48d2d93","system_id":"levelo_inurba_marseille","lat":43.30216,"lon":5.39478,"is_reserved":false,"is_disabled":false,"rental_uris":{"android":"levelo://app?vid=1a765b9e-e031-409f-b804-276cc48d2d93","ios":"levelo://app?vid=1a765b9e-e031-409f-b804-276cc48d2d93"},"vehicle_type_id":"4","last_reported":1771353738,"current_range_meters":39200,"station_id":"ce4bh0p2rcd13ifvqd70","pricing_plan_id":"cebpf4jnsgd1na2vs0mg"},{"bike_id":"52822dfb-05a3-4831-b448-ea2d23feb569","system_id":"levelo_inurba_marseille","lat":43.29585,"lon":5.38547,"is_reserved":false,"is_disabled":false,"rental_uris":{"android":"levelo://app?vid=52822dfb-05a3-4831-b448-ea2d23feb569","ios":"levelo://app?vid=52822dfb-05a3-4831-b448-ea2d23feb569"},"vehicle_type_id":"4","last_reported":1771353738,"current_range_meters":15200,"station_id":"","pricing_plan_id":"cebpf4jnsgd1na2vs0mg"},{"bike_id":"740f8f2e-710e-4b2e-8ba1-0f60d50869bd","system_id":"levelo_inurba_marseille","lat":43.28746,"lon":5.36124,"is_reserved":false,"is_disabled":false,"rental_uris":{"android":"levelo://app?vid=740f8f2e-710e-4b2e-8ba1-0f60d50869bd","ios":"levelo://app?vid=740f8f2e-710e-4b2e-8ba1-0f60d50869bd"},"vehicle_type_id":"4","last_reported":1771353738,"current_range_meters":18800,"station_id":"cki0cbj6b192h4jlfktg","pricing_plan_id":"cebpf4jnsgd1na2vs0mg"},{"bike_id":"e9749b0e-def4-4ccd-a6ad-31e91d22746a","system_id":"levelo_inurba_marseille","lat":43.26215,"lon":5.40452,"is_reserved":false,"is_disabled":false,"rental_uris":{"android":"levelo://app?vid=e9749b0e-def4-4ccd-a6ad-31e91d22746a","ios":"levelo://app?vid=e9749b0e-def4-4ccd-a6ad-31e91d22746a"},"vehicle_type_id":"4","last_reported":1771353738,"current_range_meters":30400,"station_id":"ce4bhmh2rcd13ifvqgmg","pricing_plan_id":"cebpf4jnsgd1na2vs0mg"},{"bike_id":"62e692db-f7dc-4aa5-abd5-05a186ddbe25","system_id":"levelo_inurba_marseille","lat":43.29178,"lon":5.3715,"is_reserved":false,"is_disabled":false,"rental_uris":{"android":"levelo://app?vid=62e692db-f7dc-4aa5-abd5-05a186ddbe25","ios":"levelo://app?vid=62e692db-f7dc-4aa5-abd5-05a186ddbe25"},"vehicle_type_id":"4","last_reported":1771353738,"current_range_meters":26800,"station_id":"ce4bha92rcd13ifvqeh0","pricing_plan_id":"cebpf4jnsgd1na2vs0mg"},{"bike_id":"c62c8bb8-5105-49ac-b6a0-75ac314fbf1f","system_id":"levelo_inurba_marseille","lat":43.29834,"lon":5.44077,"is_reserved":false,"is_disabled":false,"rental_uris":{"android":"levelo://app?vid=c62c8bb8-5105-49ac-b6a0-75ac314fbf1f","ios":"levelo://app?vid=c62c8bb8-5105-49ac-b6a0-75ac314fbf1f"},"vehicle_type_id":"4","last_reported":1771353738,"current_range_meters":8400,"station_id":"st_d3jp68qikq2c7381ktn0","pricing_plan_id":"cebpf4jnsgd1na2vs0mg"},{"bike_id":"fd96f353-138d-45da-bff2-6a987a2e0b7b","system_id":"levelo_inurba_marseille","lat":43.2937,"lon":5.37847,"is_reserved":false,"is_disabled":false,"rental_uris":{"android":"levelo://app?vid=fd96f353-138d-45da-bff2-6a987a2e0b7b","ios":"levelo://app?vid=fd96f353-138d-45da-bff2-6a987a2e0b7b"},"vehicle_type_id":"4","last_reported":1771353738,"current_range_meters":39200,"station_id":"ce4bgjh2rcd13ifvqbf0","pricing_plan_id":"cebpf4jnsgd1na2vs0mg"},{"bike_id":"7f8ec848-8645-4d0d-a741-bb2ba6ea7af2","system_id":"levelo_inurba_marseille","lat":43.253425,"lon":5.421665,"is_reserved":false,"is_disabled":false,"rental_uris":{"android":"levelo://app?vid=7f8ec848-8645-4d0d-a741-bb2ba6ea7af2","ios":"levelo://app?vid=7f8ec848-8645-4d0d-a741-bb2ba6ea7af2"},"vehicle_type_id":"4","last_reported":1771353738,"current_range_meters":7200,"station_id":"st_d2m65c5bi1j21697t3ng","pricing_plan_id":"cebpf4jnsgd1na2vs0mg"},{"bike_id":"ba560cac-91c1-471a-aa80-443b30117879","system_id":"levelo_inurba_marseille","lat":43.2927,"lon":5.3844,"is_reserved":false,"is_disabled":false,"rental_uris":{"android":"levelo://app?vid=ba560cac-91c1-471a-aa80-443b30117879","ios":"levelo://app?vid=ba560cac-91c1-471a-aa80-443b30117879"},"vehicle_type_id":"4","last_reported":1771353738,"current_range_meters":39200,"station_id":"ce4bh692rcd13ifvqea0","pricing_plan_id":"cebpf4jnsgd1na2vs0mg"},{"bike_id":"38c30afd-bece-416e-933d-1a2e080dab16","system_id":"levelo_inurba_marseille","lat":43.23193,"lon":5.35542,"is_reserved":false,"is_disabled":false,"rental_uris":{"android":"levelo://app?vid=38c30afd-bece-416e-933d-1a2e080dab16","ios":"levelo://app?vid=38c30afd-bece-416e-933d-1a2e080dab16"},"vehicle_type_id":"4","last_reported":1771353738,"current_range_meters":23200,"station_id":"ce4bhu92rcd13ifvqi70","pricing_plan_id":"cebpf4jnsgd1na2vs0mg"},{"bike_id":"3f6e6d5b-9c66-4d26-b0b8-f270d679b2a6","system_id":"levelo_inurba_marseille","lat":43.28478,"lon":5.48391,"is_reserved":false,"is_disabled":false,"rental_uris":{"android":"levelo://app?vid=3f6e6d5b-9c66-4d26-b0b8-f270d679b2a6","ios":"levelo://app?vid=3f6e6d5b-9c66-4d26-b0b8-f270d679b2a6"},"vehicle_type_id":"4","last_reported":1771353738,"current_range_meters":8400,"station_id":"st_d3svhcjqgbts73a3dn0g","pricing_plan_id":"cebpf4jnsgd1na2vs0mg"},{"bike_id":"0f6f2e7d-51bc-4a06-9c64-e7b7528f8bb3","system_id":"levelo_inurba_marseille","lat":43.28939,"lon":5.36638,"is_reserved":false,"is_disabled":false,"rental_uris":{"android":"levelo://app?vid=0f6f2e7d-51bc-4a06-9c64-e7b7528f8bb3","ios":"levelo://app?vid=0f6f2e7d-51bc-4a06-9c64-e7b7528f8bb3"},"vehicle_type_id":"4","last_reported":1771353738,"current_range_meters":24000,"station_id":"ce4bhap2rcd13ifvqek0","pricing_plan_id":"cebpf4jnsgd1na2vs0mg"},{"bike_id":"8afbe5f1-e31f-497c-82ed-db86cdcdec29","system_id":"levelo_inurba_marseille","lat":43.33764,"lon":5.3744,"is_reserved":false,"is_disabled":false,"rental_uris":{"android":"levelo://app?vid=8afbe5f1-e31f-497c-82ed-db86cdcdec29","ios":"levelo://app?vid=8afbe5f1-e31f-497c-82ed-db86cdcdec29"},"vehicle_type_id":"4","last_reported":1771353738,"current_range_meters":24000,"station_id":"","pricing_plan_id":"cebpf4jnsgd1na2vs0mg"},{"bike_id":"1b60499d-1ad5-4151-a6be-cac165979eda","system_id":"levelo_inurba_marseille","lat":43.2989,"lon":5.39749,"is_reserved":false,"is_disabled":false,"rental_uris":{"android":"levelo://app?vid=1b60499d-1ad5-4151-a6be-cac165979eda","ios":"levelo://app?vid=1b60499d-1ad5-4151-a6be-cac165979eda"},"vehicle_type_id":"4","last_reported":1771353738,"current_range_meters":32000,"station_id":"ce4bh0h2rcd13ifvqd50","pricing_plan_id":"cebpf4jnsgd1na2vs0mg"},{"bike_id":"bf763d5f-3925-4930-9d6b-2b57c49f4d4c","system_id":"levelo_inurba_marseille","lat":43.23161,"lon":5.43701,"is_reserved":false,"is_disabled":true,"rental_uris":{"android":"levelo://app?vid=bf763d5f-3925-4930-9d6b-2b57c49f4d4c","ios":"levelo://app?vid=bf763d5f-3925-4930-9d6b-2b57c49f4d4c"},"vehicle_type_id":"4","last_reported":1771353738,"current_range_meters":39200,"station_id":"ce4bhmp2rcd13ifvqgog","pricing_plan_id":"cebpf4jnsgd1na2vs0mg"},{"bike_id":"32964fb5-6dca-474a-8574-fca984f5340f","system_id":"levelo_inurba_marseille","lat":43.24089,"lon":5.37755,"is_reserved":false,"is_disabled":false,"rental_uris":{"android":"levelo://app?vid=32964fb5-6dca-474a-8574-fca984f5340f","ios":"levelo://app?vid=32964fb5-6dca-474a-8574-fca984f5340f"},"vehicle_type_id":"4","last_reported":1771353738,"current_range_meters":38400,"station_id":"ce4bhnp2rcd13ifvqgvg","pricing_plan_id":"cebpf4jnsgd1na2vs0mg"},{"bike_id":"cf657348-7d1b-4093-a144-9f75124506c9","system_id":"levelo_inurba_marseille","lat":43.28838,"lon":5.35874,"is_reserved":false,"is_disabled":false,"rental_uris":{"android":"levelo://app?vid=cf657348-7d1b-4093-a144-9f75124506c9","ios":"levelo://app?vid=cf657348-7d1b-4093-a144-9f75124506c9"},"vehicle_type_id":"4","last_reported":1771353738,"current_range_meters":22400,"station_id":"ce4bhb12rcd13ifvqem0","pricing_plan_id":"cebpf4jnsgd1na2vs0mg"},{"bike_id":"283791dc-d214-48e3-8f4f-83169ba6e613","system_id":"levelo_inurba_marseille","lat":43.30185,"lon":5.39951,"is_reserved":false,"is_disabled":false,"rental_uris":{"android":"levelo://app?vid=283791dc-d214-48e3-8f4f-83169ba6e613","ios":"levelo://app?vid=283791dc-d214-48e3-8f4f-83169ba6e613"},"vehicle_type_id":"4","last_reported":1771353738,"current_range_meters":26000,"station_id":"","pricing_plan_id":"cebpf4jnsgd1na2vs0mg"},{"bike_id":"2328bb42-38da-434f-9da6-21140eda5f58","system_id":"levelo_inurba_marseille","lat":43.29032,"lon":5.38641,"is_reserved":false,"is_disabled":false,"rental_uris":{"android":"levelo://app?vid=2328bb42-38da-434f-9da6-21140eda5f58","ios":"levelo://app?vid=2328bb42-38da-434f-9da6-21140eda5f58"},"vehicle_type_id":"4","last_reported":1771353738,"current_range_meters":39200,"station_id":"ce4bh4p2rcd13ifvqe0g","pricing_plan_id":"cebpf4jnsgd1na2vs0mg"},{"bike_id":"3ee955de-ebfc-4597-9214-e3fb8357ac34","system_id":"levelo_inurba_marseille","lat":43.29005,"lon":5.35614,"is_reserved":false,"is_disabled":false,"rental_uris":{"android":"levelo://app?vid=3ee955de-ebfc-4597-9214-e3fb8357ac34","ios":"levelo://app?vid=3ee955de-ebfc-4597-9214-e3fb8357ac34"},"vehicle_type_id":"4","last_reported":1771353738,"current_range_meters":27600,"station_id":"ce4bhb92rcd13ifvqen0","pricing_plan_id":"cebpf4jnsgd1na2vs0mg"},{"bike_id":"6e814bcf-6d3b-483a-ad51-1f04a7457121","system_id":"levelo_inurba_marseille","lat":43.30876,"lon":5.3719,"is_reserved":false,"is_disabled":false,"rental_uris":{"android":"levelo://app?vid=6e814bcf-6d3b-483a-ad51-1f04a7457121","ios":"levelo://app?vid=6e814bcf-6d3b-483a-ad51-1f04a7457121"},"vehicle_type_id":"4","last_reported":1771353738,"current_range_meters":30000,"station_id":"ce4bguh2rcd13ifvqckg","pricing_plan_id":"cebpf4jnsgd1na2vs0mg"},{"bike_id":"8aaaaffc-4fd7-41b9-b4d1-8ec182d0d63d","system_id":"levelo_inurba_marseille","lat":43.3171,"lon":5.43706,"is_reserved":false,"is_disabled":false,"rental_uris":{"android":"levelo://app?vid=8aaaaffc-4fd7-41b9-b4d1-8ec182d0d63d","ios":"levelo://app?vid=8aaaaffc-4fd7-41b9-b4d1-8ec182d0d63d"},"vehicle_type_id":"4","last_reported":1771353738,"current_range_meters":11200,"station_id":"ce4bhp92rcd13ifvqhcg","pricing_plan_id":"cebpf4jnsgd1na2vs0mg"},{"bike_id":"6e9dbbc0-aa6c-4868-b06c-e7eaa68c09c7","system_id":"levelo_inurba_marseille","lat":43.2456,"lon":5.39529,"is_reserved":false,"is_disabled":false,"rental_uris":{"android":"levelo://app?vid=6e9dbbc0-aa6c-4868-b06c-e7eaa68c09c7","ios":"levelo://app?vid=6e9dbbc0-aa6c-4868-b06c-e7eaa68c09c7"},"vehicle_type_id":"4","last_reported":1771353738,"current_range_meters":27200,"station_id":"ce4bhlp2rcd13ifvqgjg","pricing_plan_id":"cebpf4jnsgd1na2vs0mg"},{"bike_id":"21a18c0d-55fa-4b63-ada7-1905ba4ecfca","system_id":"levelo_inurba_marseille","lat":43.29887,"lon":5.39769,"is_reserved":false,"is_disabled":false,"rental_uris":{"android":"levelo://app?vid=21a18c0d-55fa-4b63-ada7-1905ba4ecfca","ios":"levelo://app?vid=21a18c0d-55fa-4b63-ada7-1905ba4ecfca"},"vehicle_type_id":"4","last_reported":1771353738,"current_range_meters":35600,"station_id":"ce4bh0h2rcd13ifvqd50","pricing_plan_id":"cebpf4jnsgd1na2vs0mg"},{"bike_id":"38a515da-b3af-456b-adac-2db7213d87ac","system_id":"levelo_inurba_marseille","lat":43.28617,"lon":5.35114,"is_reserved":false,"is_disabled":false,"rental_uris":{"android":"levelo://app?vid=38a515da-b3af-456b-adac-2db7213d87ac","ios":"levelo://app?vid=38a515da-b3af-456b-adac-2db7213d87ac"},"vehicle_type_id":"4","last_reported":1771353738,"current_range_meters":20800,"station_id":"ce4bhch2rcd13ifvqeug","pricing_plan_id":"cebpf4jnsgd1na2vs0mg"},{"bike_id":"1bc89d59-7663-4055-a749-a3705a48a821","system_id":"levelo_inurba_marseille","lat":43.28002,"lon":5.41665,"is_reserved":false,"is_disabled":false,"rental_uris":{"android":"levelo://app?vid=1bc89d59-7663-4055-a749-a3705a48a821","ios":"levelo://app?vid=1bc89d59-7663-4055-a749-a3705a48a821"},"vehicle_type_id":"4","last_reported":1771353738,"current_range_meters":8800,"station_id":"ce4bho12rcd13ifvqh1g","pricing_plan_id":"cebpf4jnsgd1na2vs0mg"},{"bike_id":"e258fda4-3785-4057-8fa8-e490a690f392","system_id":"levelo_inurba_marseille","lat":43.30604,"lon":5.37215,"is_reserved":false,"is_disabled":false,"rental_uris":{"android":"levelo://app?vid=e258fda4-3785-4057-8fa8-e490a690f392","ios":"levelo://app?vid=e258fda4-3785-4057-8fa8-e490a690f392"},"vehicle_type_id":"4","last_reported":1771353738,"current_range_meters":32400,"station_id":"ce4bgqh2rcd13ifvqc4g","pricing_plan_id":"cebpf4jnsgd1na2vs0mg"},{"bike_id":"dbfe7d62-69bb-4b6f-b279-e02fb0b739a5","system_id":"levelo_inurba_marseille","lat":43.31255,"lon":5.36921,"is_reserved":false,"is_disabled":false,"rental_uris":{"android":"levelo://app?vid=dbfe7d62-69bb-4b6f-b279-e02fb0b739a5","ios":"levelo://app?vid=dbfe7d62-69bb-4b6f-b279-e02fb0b739a5"},"vehicle_type_id":"4","last_reported":1771353738,"current_range_meters":20000,"station_id":"","pricing_plan_id":"cebpf4jnsgd1na2vs0mg"},{"bike_id":"2d305240-72a3-4635-bf71-c7972180459f","system_id":"levelo_inurba_marseille","lat":43.26949,"lon":5.38614,"is_reserved":false,"is_disabled":false,"rental_uris":{"android":"levelo://app?vid=2d305240-72a3-4635-bf71-c7972180459f","ios":"levelo://app?vid=2d305240-72a3-4635-bf71-c7972180459f"},"vehicle_type_id":"4","last_reported":1771353738,"current_range_meters":30800,"station_id":"ce4bhh92rcd13ifvqfh0","pricing_plan_id":"cebpf4jnsgd1na2vs0mg"},{"bike_id":"63b2a807-a3f5-401a-990b-e4ec1f59d1d3","system_id":"levelo_inurba_marseille","lat":43.29216,"lon":5.358,"is_reserved":false,"is_disabled":false,"rental_uris":{"android":"levelo://app?vid=63b2a807-a3f5-401a-990b-e4ec1f59d1d3","ios":"levelo://app?vid=63b2a807-a3f5-401a-990b-e4ec1f59d1d3"},"vehicle_type_id":"4","last_reported":1771353738,"current_range_meters":37600,"station_id":"ce4bhb12rcd13ifvqel0","pricing_plan_id":"cebpf4jnsgd1na2vs0mg"},{"bike_id":"43a1c514-86a9-4286-9819-a59edd7ffd3c","system_id":"levelo_inurba_marseille","lat":43.28228,"lon":5.3907,"is_reserved":false,"is_disabled":false,"rental_uris":{"android":"levelo://app?vid=43a1c514-86a9-4286-9819-a59edd7ffd3c","ios":"levelo://app?vid=43a1c514-86a9-4286-9819-a59edd7ffd3c"},"vehicle_type_id":"4","last_reported":1771353738,"current_range_meters":31200,"station_id":"ce4bhn92rcd13ifvqgsg","pricing_plan_id":"cebpf4jnsgd1na2vs0mg"},{"bike_id":"5ba55c53-da9d-4d94-84e8-fbfddd141412","system_id":"levelo_inurba_marseille","lat":43.22935,"lon":5.35381,"is_reserved":false,"is_disabled":false,"rental_uris":{"android":"levelo://app?vid=5ba55c53-da9d-4d94-84e8-fbfddd141412","ios":"levelo://app?vid=5ba55c53-da9d-4d94-84e8-fbfddd141412"},"vehicle_type_id":"4","last_reported":1771353738,"current_range_meters":14400,"station_id":"cpo3532slgdg3j2ikp40","pricing_plan_id":"cebpf4jnsgd1na2vs0mg"},{"bike_id":"0f9e3e26-97c8-4d64-a040-2715cbd80fe3","system_id":"levelo_inurba_marseille","lat":43.29797,"lon":5.39369,"is_reserved":false,"is_disabled":false,"rental_uris":{"android":"levelo://app?vid=0f9e3e26-97c8-4d64-a040-2715cbd80fe3","ios":"levelo://app?vid=0f9e3e26-97c8-4d64-a040-2715cbd80fe3"},"vehicle_type_id":"4","last_reported":1771353738,"current_range_meters":27200,"station_id":"chh1huq6cuj3fo74tm60","pricing_plan_id":"cebpf4jnsgd1na2vs0mg"},{"bike_id":"d2b88e5b-1f87-4f20-858b-8363a18b3251","system_id":"levelo_inurba_marseille","lat":43.27918,"lon":5.3958,"is_reserved":false,"is_disabled":false,"rental_uris":{"android":"levelo://app?vid=d2b88e5b-1f87-4f20-858b-8363a18b3251","ios":"levelo://app?vid=d2b88e5b-1f87-4f20-858b-8363a18b3251"},"vehicle_type_id":"4","last_reported":1771353738,"current_range_meters":16000,"station_id":"ce4bhf92rcd13ifvqf40","pricing_plan_id":"cebpf4jnsgd1na2vs0mg"},{"bike_id":"6e8f3bd2-53f9-41a0-948d-4e822be3d8d8","system_id":"levelo_inurba_marseille","lat":43.28404,"lon":5.37521,"is_reserved":false,"is_disabled":false,"rental_uris":{"android":"levelo://app?vid=6e8f3bd2-53f9-41a0-948d-4e822be3d8d8","ios":"levelo://app?vid=6e8f3bd2-53f9-41a0-948d-4e822be3d8d8"},"vehicle_type_id":"4","last_reported":1771353738,"current_range_meters":36800,"station_id":"ce4bh412rcd13ifvqds0","pricing_plan_id":"cebpf4jnsgd1na2vs0mg"},{"bike_id":"521bfd52-bd24-405f-a41c-6e3af0621352","system_id":"levelo_inurba_marseille","lat":43.30552,"lon":5.36718,"is_reserved":false,"is_disabled":false,"rental_uris":{"android":"levelo://app?vid=521bfd52-bd24-405f-a41c-6e3af0621352","ios":"levelo://app?vid=521bfd52-bd24-405f-a41c-6e3af0621352"},"vehicle_type_id":"4","last_reported":1771353738,"current_range_meters":36400,"station_id":"ce4bgrp2rcd13ifvqc9g","pricing_plan_id":"cebpf4jnsgd1na2vs0mg"},{"bike_id":"0d6fd63f-cb7e-429b-8217-93190fed5833","system_id":"levelo_inurba_marseille","lat":43.2707,"lon":5.42269,"is_reserved":false,"is_disabled":false,"rental_uris":{"android":"levelo://app?vid=0d6fd63f-cb7e-429b-8217-93190fed5833","ios":"levelo://app?vid=0d6fd63f-cb7e-429b-8217-93190fed5833"},"vehicle_type_id":"4","last_reported":1771353738,"current_range_meters":30800,"station_id":"ce4bhk92rcd13ifvqgb0","pricing_plan_id":"cebpf4jnsgd1na2vs0mg"},{"bike_id":"48c72481-fe5a-4b2c-bd5c-07d3bd895aa9","system_id":"levelo_inurba_marseille","lat":43.2293,"lon":5.3538,"is_reserved":false,"is_disabled":false,"rental_uris":{"android":"levelo://app?vid=48c72481-fe5a-4b2c-bd5c-07d3bd895aa9","ios":"levelo://app?vid=48c72481-fe5a-4b2c-bd5c-07d3bd895aa9"},"vehicle_type_id":"4","last_reported":1771353738,"current_range_meters":33600,"station_id":"cpo3532slgdg3j2ikp40","pricing_plan_id":"cebpf4jnsgd1na2vs0mg"},{"bike_id":"f3bef3d0-f67a-4cce-9c92-8b76cbcb9726","system_id":"levelo_inurba_marseille","lat":43.30437,"lon":5.41258,"is_reserved":false,"is_disabled":false,"rental_uris":{"android":"levelo://app?vid=f3bef3d0-f67a-4cce-9c92-8b76cbcb9726","ios":"levelo://app?vid=f3bef3d0-f67a-4cce-9c92-8b76cbcb9726"},"vehicle_type_id":"4","last_reported":1771353738,"current_range_meters":40000,"station_id":"ce4bhop2rcd13ifvqh8g","pricing_plan_id":"cebpf4jnsgd1na2vs0mg"},{"bike_id":"06f459f3-ac33-480c-aa70-fac0b887368d","system_id":"levelo_inurba_marseille","lat":43.31088,"lon":5.36935,"is_reserved":false,"is_disabled":false,"rental_uris":{"android":"levelo://app?vid=06f459f3-ac33-480c-aa70-fac0b887368d","ios":"levelo://app?vid=06f459f3-ac33-480c-aa70-fac0b887368d"},"vehicle_type_id":"4","last_reported":1771353738,"current_range_meters":34800,"station_id":"","pricing_plan_id":"cebpf4jnsgd1na2vs0mg"},{"bike_id":"0805cd10-02fd-487b-bb12-a0b26dd335c1","system_id":"levelo_inurba_marseille","lat":43.23964,"lon":5.36626,"is_reserved":false,"is_disabled":false,"rental_uris":{"android":"levelo://app?vid=0805cd10-02fd-487b-bb12-a0b26dd335c1","ios":"levelo://app?vid=0805cd10-02fd-487b-bb12-a0b26dd335c1"},"vehicle_type_id":"4","last_reported":1771353738,"current_range_meters":2800,"station_id":"ce4bhi12rcd13ifvqfp0","pricing_plan_id":"cebpf4jnsgd1na2vs0mg"},{"bike_id":"32535675-8006-4d23-867a-16c40d02d64b","system_id":"levelo_inurba_marseille","lat":43.29514,"lon":5.38544,"is_reserved":false,"is_disabled":true,"rental_uris":{"android":"levelo://app?vid=32535675-8006-4d23-867a-16c40d02d64b","ios":"levelo://app?vid=32535675-8006-4d23-867a-16c40d02d64b"},"vehicle_type_id":"4","last_reported":1771353738,"current_range_meters":10000,"station_id":"ce4bgih2rcd13ifvqba0","pricing_plan_id":"cebpf4jnsgd1na2vs0mg"},{"bike_id":"6b959931-ea1e-48be-a295-669acde08f0f","system_id":"levelo_inurba_marseille","lat":43.27067,"lon":5.38318,"is_reserved":false,"is_disabled":false,"rental_uris":{"android":"levelo://app?vid=6b959931-ea1e-48be-a295-669acde08f0f","ios":"levelo://app?vid=6b959931-ea1e-48be-a295-669acde08f0f"},"vehicle_type_id":"4","last_reported":1771353738,"current_range_meters":26800,"station_id":"st_d3n2fo6cfp8s73cte1j0","pricing_plan_id":"cebpf4jnsgd1na2vs0mg"},{"bike_id":"137f6f96-f9c1-4c36-8540-70062335e1eb","system_id":"levelo_inurba_marseille","lat":43.27666,"lon":5.38897,"is_reserved":false,"is_disabled":false,"rental_uris":{"android":"levelo://app?vid=137f6f96-f9c1-4c36-8540-70062335e1eb","ios":"levelo://app?vid=137f6f96-f9c1-4c36-8540-70062335e1eb"},"vehicle_type_id":"4","last_reported":1771353738,"current_range_meters":36000,"station_id":"ce4bhi12rcd13ifvqfo0","pricing_plan_id":"cebpf4jnsgd1na2vs0mg"},{"bike_id":"e8034ba9-764c-40c1-aec6-d75c786fb0e0","system_id":"levelo_inurba_marseille","lat":43.29558,"lon":5.37491,"is_reserved":false,"is_disabled":false,"rental_uris":{"android":"levelo://app?vid=e8034ba9-764c-40c1-aec6-d75c786fb0e0","ios":"levelo://app?vid=e8034ba9-764c-40c1-aec6-d75c786fb0e0"},"vehicle_type_id":"4","last_reported":1771353738,"current_range_meters":31200,"station_id":"ce4bgh92rcd13ifvqb50","pricing_plan_id":"cebpf4jnsgd1na2vs0mg"},