{"last_updated":1742051316,"ttl":60,"version":"2.2","data":{"bikes":[{"bike_id":"752d5f58-192f-4bf7-bb7a-d7f22d0c6307","system_id":"levelo_inurba_marseille","lat":43.30611,"lon":5.37231,"is_reserved":false,"is_disabled":false,"rental_uris":{"android":"levelo://app?vid=752d5f58-192f-4bf7-bb7a-d7f22d0c6307","ios":"levelo://app?vid=752d5f58-192f-4bf7-bb7a-d7f22d0c6307"},"vehicle_type_id":"4","last_reported":1742051316,"current_range_meters":2000,"station_id":"ce4bgqh2rcd13ifvqc4g","pricing_plan_id":"cebpf4jnsgd1na2vs0mg"},{"bike_id":"5433a599-6b8e-409d-941b-03a9da065f24","system_id":"levelo_inurba_marseille","lat":43.26196,"lon":5.37453,"is_reserved":false,"is_disabled":false,"rental_uris":{"android":"levelo://app?vid=5433a599-6b8e-409d-941b-03a9da065f24","ios":"levelo://app?vid=5433a599-6b8e-409d-941b-03a9da065f24"},"vehicle_type_id":"4","last_reported":1742051316,"current_range_meters":2800,"station_id":"ce4bhgp2rcd13ifvqfc0","pricing_plan_id":"cebpf4jnsgd1na2vs0mg"},{"bike_id":"1e675809-6a20-410f-8fd5-666bedf57adc","system_id":"levelo_inurba_marseille","lat":43.25499,"lon":5.37651,"is_reserved":false,"is_disabled":false,"rental_uris":{"android":"levelo://app?vid=1e675809-6a20-410f-8fd5-666bedf57adc","ios":"levelo://app?vid=1e675809-6a20-410f-8fd5-666bedf57adc"},"vehicle_type_id":"4","last_reported":1742051316,"current_range_meters":2000,"station_id":"ce4bhh12rcd13ifvqff0","pricing_plan_id":"cebpf4jnsgd1na2vs0mg"},{"bike_id":"93ceacd6-e50e-453a-9f3a-e738dfab71f1","system_id":"levelo_inurba_marseille","lat":43.28615,"lon":5.35104,"is_reserved":false,"is_disabled":false,"rental_uris":{"android":"levelo://app?vid=93ceacd6-e50e-453a-9f3a-e738dfab71f1","ios":"levelo://app?vid=93ceacd6-e50e-453a-9f3a-e738dfab71f1"},"vehicle_type_id":"4","last_reported":1742051316,"current_range_meters":2800,"station_id":"ce4bhch2rcd13ifvqeug","pricing_plan_id":"cebpf4jnsgd1na2vs0mg"},{"bike_id":"96b1e3d5-43a4-4a12-8338-249f6a0033e3","system_id":"levelo_inurba_marseille","lat":43.23056,"lon":5.35504,"is_reserved":false,"is_disabled":true,"rental_uris":{"android":"levelo://app?vid=96b1e3d5-43a4-4a12-8338-249f6a0033e3","ios":"levelo://app?vid=96b1e3d5-43a4-4a12-8338-249f6a0033e3"},"vehicle_type_id":"4","last_reported":1742051316,"current_range_meters":2800,"station_id":"cpo3342slgdg3j2ifvpg","pricing_plan_id":"cebpf4jnsgd1na2vs0mg"},{"bike_id":"4eacd84f-522c-467d-9ad2-1278dc2d0f60","system_id":"levelo_inurba_marseille","lat":43.25937,"lon":5.40919,"is_reserved":false,"is_disabled":false,"rental_uris":{"android":"levelo://app?vid=4eacd84f-522c-467d-9ad2-1278dc2d0f60","ios":"levelo://app?vid=4eacd84f-522c-467d-9ad2-1278dc2d0f60"},"vehicle_type_id":"4","last_reported":1742051316,"current_range_meters":2800,"station_id":"ce4bhm92rcd13ifvqglg","pricing_plan_id":"cebpf4jnsgd1na2vs0mg"},{"bike_id":"acce6bf3-cefb-4331-94e0-4149e869af18","system_id":"levelo_inurba_marseille","lat":43.28274,"lon":5.35072,"is_reserved":false,"is_disabled":false,"rental_uris":{"android":"levelo://app?vid=acce6bf3-cefb-4331-94e0-4149e869af18","ios":"levelo://app?vid=acce6bf3-cefb-4331-94e0-4149e869af18"},"vehicle_type_id":"4","last_reported":1742051316,"current_range_meters":2800,"station_id":"ce4bhbp2rcd13ifvqerg","pricing_plan_id":"cebpf4jnsgd1na2vs0mg"},{"bike_id":"287fbc6f-5f14-4e51-8937-db9f7d99e918","system_id":"levelo_inurba_marseille","lat":43.2962,"lon":5.37723,"is_reserved":false,"is_disabled":false,"rental_uris":{"android":"levelo://app?vid=287fbc6f-5f14-4e51-8937-db9f7d99e918","ios":"levelo://app?vid=287fbc6f-5f14-4e51-8937-db9f7d99e918"},"vehicle_type_id":"4","last_reported":1742051316,"current_range_meters":2800,"station_id":"ce4bgi92rcd13ifvqb90","pricing_plan_id":"cebpf4jnsgd1na2vs0mg"},{"bike_id":"c02c3bef-6525-4b7c-8fa8-743cb380f8a1","system_id":"levelo_inurba_marseille","lat":43.29934,"lon":5.36554,"is_reserved":false,"is_disabled":false,"rental_uris":{"android":"levelo://app?vid=c02c3bef-6525-4b7c-8fa8-743cb380f8a1","ios":"levelo://app?vid=c02c3bef-6525-4b7c-8fa8-743cb380f8a1"},"vehicle_type_id":"4","last_reported":1742051316,"current_range_meters":2800,"station_id":"ce4bgm92rcd13ifvqbr0","pricing_plan_id":"cebpf4jnsgd1na2vs0mg"},{"bike_id":"fb25c0f6-5882-4734-a76a-2aeb0b117f9b","system_id":"levelo_inurba_marseille","lat":43.31764,"lon":5.39024,"is_reserved":false,"is_disabled":false,"rental_uris":{"android":"levelo://app?vid=fb25c0f6-5882-4734-a76a-2aeb0b117f9b","ios":"levelo://app?vid=fb25c0f6-5882-4734-a76a-2aeb0b117f9b"},"vehicle_type_id":"4","last_reported":1742051316,"current_range_meters":3200,"station_id":"ce4bhqp2rcd13ifvqhng","pricing_plan_id":"cebpf4jnsgd1na2vs0mg"},{"bike_id":"f082b38f-f97b-4a05-b57a-24a40e05d53d","system_id":"levelo_inurba_marseille","lat":43.246597,"lon":5.381692,"is_reserved":false,"is_disabled":false,"rental_uris":{"android":"levelo://app?vid=f082b38f-f97b-4a05-b57a-24a40e05d53d","ios":"levelo://app?vid=f082b38f-f97b-4a05-b57a-24a40e05d53d"},"vehicle_type_id":"4","last_reported":1742051316,"current_range_meters":3200,"station_id":"ce4bgi92rcd13ifvqb90","pricing_plan_id":"cebpf4jnsgd1na2vs0mg"},{"bike_id":"fdd3a416-a23e-4431-8f79-caa71af506cc","system_id":"levelo_inurba_marseille","lat":43.301421,"lon":5.380825,"is_reserved":false,"is_disabled":false,"rental_uris":{"android":"levelo://app?vid=fdd3a416-a23e-4431-8f79-caa71af506cc","ios":"levelo://app?vid=fdd3a416-a23e-4431-8f79-caa71af506cc"},"vehicle_type_id":"4","last_reported":1742051316,"current_range_meters":3200,"station_id":"ce4bgup2rcd13ifvqco0","pricing_plan_id":"cebpf4jnsgd1na2vs0mg"},{"bike_id":"056afbe9-d367-408a-b34f-a273a77b6895","system_id":"levelo_inurba_marseille","lat":43.28568,"lon":5.39508,"is_reserved":false,"is_disabled":false,"rental_uris":{"android":"levelo://app?vid=056afbe9-d367-408a-b34f-a273a77b6895","ios":"levelo://app?vid=056afbe9-d367-408a-b34f-a273a77b6895"},"vehicle_type_id":"4","last_reported":1742051316,"current_range_meters":3200,"station_id":"ce4bh292rcd13ifvqdg0","pricing_plan_id":"cebpf4jnsgd1na2vs0mg"},{"bike_id":"6b5e30bf-b677-4f9c-aab6-0e16baf6ea88","system_id":"levelo_inurba_marseille","lat":43.29846,"lon":5.36279,"is_reserved":false,"is_disabled":false,"rental_uris":{"android":"levelo://app?vid=6b5e30bf-b677-4f9c-aab6-0e16baf6ea88","ios":"levelo://app?vid=6b5e30bf-b677-4f9c-aab6-0e16baf6ea88"},"vehicle_type_id":"4","last_reported":1742051316,"current_range_meters":3200,"station_id":"ce4bgpp2rcd13ifvqc3g","pricing_plan_id":"cebpf4jnsgd1na2vs0mg"},{"bike_id":"f53de38b-99c1-4ed5-ae31-04956af1872e","system_id":"levelo_inurba_marseille","lat":43.2481,"lon":5.37463,"is_reserved":false,"is_disabled":false,"rental_uris":{"android":"levelo://app?vid=f53de38b-99c1-4ed5-ae31-04956af1872e","ios":"levelo://app?vid=f53de38b-99c1-4ed5-ae31-04956af1872e"},"vehicle_type_id":"4","last_reported":1742051316,"current_range_meters":3600,"station_id":"ce4bhgh2rcd13ifvqfb0","pricing_plan_id":"cebpf4jnsgd1na2vs0mg"},{"bike_id":"7d5ab367-8dbf-4855-81b5-2e693edf13f4","system_id":"levelo_inurba_marseille","lat":43.28337,"lon":5.38107,"is_reserved":false,"is_disabled":false,"rental_uris":{"android":"levelo://app?vid=7d5ab367-8dbf-4855-81b5-2e693edf13f4","ios":"levelo://app?vid=7d5ab367-8dbf-4855-81b5-2e693edf13f4"},"vehicle_type_id":"4","last_reported":1742051316,"current_range_meters":3200,"station_id":"ce4bh412rcd13ifvqdr0","pricing_plan_id":"cebpf4jnsgd1na2vs0mg"},{"bike_id":"49423f99-8371-4eb5-9bf7-e98f43441625","system_id":"levelo_inurba_marseille","lat":43.30147,"lon":5.38075,"is_reserved":false,"is_disabled":false,"rental_uris":{"android":"levelo://app?vid=49423f99-8371-4eb5-9bf7-e98f43441625","ios":"levelo://app?vid=49423f99-8371-4eb5-9bf7-e98f43441625"},"vehicle_type_id":"4","last_reported":1742051316,"current_range_meters":3600,"station_id":"ce4bgjp2rcd13ifvqbh0","pricing_plan_id":"cebpf4jnsgd1na2vs0mg"},{"bike_id":"36ec5a15-215b-4367-a3ca-336aadd9a251","system_id":"levelo_inurba_marseille","lat":43.33746,"lon":5.3745,"is_reserved":false,"is_disabled":false,"rental_uris":{"android":"levelo://app?vid=36ec5a15-215b-4367-a3ca-336aadd9a251","ios":"levelo://app?vid=36ec5a15-215b-4367-a3ca-336aadd9a251"},"vehicle_type_id":"4","last_reported":1742051316,"current_range_meters":4000,"station_id":"","pricing_plan_id":"cebpf4jnsgd1na2vs0mg"},{"bike_id":"4bbb5f37-b7e5-4555-92a2-14639343fcc1","system_id":"levelo_inurba_marseille","lat":43.28269,"lon":5.350705,"is_reserved":false,"is_disabled":false,"rental_uris":{"android":"levelo://app?vid=4bbb5f37-b7e5-4555-92a2-14639343fcc1","ios":"levelo://app?vid=4bbb5f37-b7e5-4555-92a2-14639343fcc1"},"vehicle_type_id":"4","last_reported":1742051316,"current_range_meters":4400,"station_id":"ce4bhbp2rcd13ifvqerg","pricing_plan_id":"cebpf4jnsgd1na2vs0mg"},{"bike_id":"193f51c8-b895-4e1a-b0ce-b4a2f7bdff89","system_id":"levelo_inurba_marseille","lat":43.28355,"lon":5.38097,"is_reserved":false,"is_disabled":false,"rental_uris":{"android":"levelo://app?vid=193f51c8-b895-4e1a-b0ce-b4a2f7bdff89","ios":"levelo://app?vid=193f51c8-b895-4e1a-b0ce-b4a2f7bdff89"},"vehicle_type_id":"4","last_reported":1742051316,"current_range_meters":4000,"station_id":"ce4bh412rcd13ifvqdr0","pricing_plan_id":"cebpf4jnsgd1na2vs0mg"},{"bike_id":"0d9f0cd5-f18b-4f54-8c81-9abf1ecddef1","system_id":"levelo_inurba_marseille","lat":43.31718,"lon":5.42403,"is_reserved":false,"is_disabled":false,"rental_uris":{"android":"levelo://app?vid=0d9f0cd5-f18b-4f54-8c81-9abf1ecddef1","ios":"levelo://app?vid=0d9f0cd5-f18b-4f54-8c81-9abf1ecddef1"},"vehicle_type_id":"4","last_reported":1742051316,"current_range_meters":4400,"station_id":"","pricing_plan_id":"cebpf4jnsgd1na2vs0mg"},{"bike_id":"703a27ab-78c1-4da2-9977-9c24f54834c8","system_id":"levelo_inurba_marseille","lat":43.32483,"lon":5.36583,"is_reserved":false,"is_disabled":false,"rental_uris":{"android":"levelo://app?vid=703a27ab-78c1-4da2-9977-9c24f54834c8","ios":"levelo://app?vid=703a27ab-78c1-4da2-9977-9c24f54834c8"},"vehicle_type_id":"4","last_reported":1742051316,"current_range_meters":4400,"station_id":"ce4bhs12rcd13ifvqhvg","pricing_plan_id":"cebpf4jnsgd1na2vs0mg"},{"bike_id":"b0709da0-3c86-4780-b61d-85667e937cc9","system_id":"levelo_inurba_marseille","lat":43.28416,"lon":5.34981,"is_reserved":false,"is_disabled":false,"rental_uris":{"android":"levelo://app?vid=b0709da0-3c86-4780-b61d-85667e937cc9","ios":"levelo://app?vid=b0709da0-3c86-4780-b61d-85667e937cc9"},"vehicle_type_id":"4","last_reported":1742051316,"current_range_meters":4400,"station_id":"ce4bhbh2rcd13ifvqepg","pricing_plan_id":"cebpf4jnsgd1na2vs0mg"},{"bike_id":"97f7f52e-400f-4725-9d49-b369a5f61ff9","system_id":"levelo_inurba_marseille","lat":43.30091,"lon":5.3909,"is_reserved":false,"is_disabled":false,"rental_uris":{"android":"levelo://app?vid=97f7f52e-400f-4725-9d49-b369a5f61ff9","ios":"levelo://app?vid=97f7f52e-400f-4725-9d49-b369a5f61ff9"},"vehicle_type_id":"4","last_reported":1742051316,"current_range_meters":4800,"station_id":"ce4bh192rcd13ifvqdb0","pricing_plan_id":"cebpf4jnsgd1na2vs0mg"},{"bike_id":"c519bc15-4a6a-4407-8a25-573deb3bdb81","system_id":"levelo_inurba_marseille","lat":43.26208,"lon":5.37443,"is_reserved":false,"is_disabled":false,"rental_uris":{"android":"levelo://app?vid=c519bc15-4a6a-4407-8a25-573deb3bdb81","ios":"levelo://app?vid=c519bc15-4a6a-4407-8a25-573deb3bdb81"},"vehicle_type_id":"4","last_reported":1742051316,"current_range_meters":4800,"station_id":"ce4bhgp2rcd13ifvqfc0","pricing_plan_id":"cebpf4jnsgd1na2vs0mg"},{"bike_id":"a42fae8d-205c-4750-85e2-8b6c3a5afb6b","system_id":"levelo_inurba_marseille","lat":43.29925,"lon":5.3745,"is_reserved":false,"is_disabled":false,"rental_uris":{"android":"levelo://app?vid=a42fae8d-205c-4750-85e2-8b6c3a5afb6b","ios":"levelo://app?vid=a42fae8d-205c-4750-85e2-8b6c3a5afb6b"},"vehicle_type_id":"4","last_reported":1742051316,"current_range_meters":5600,"station_id":"ce4bgjh2rcd13ifvqbg0","pricing_plan_id":"cebpf4jnsgd1na2vs0mg"},{"bike_id":"00da616f-0600-4e71-9056-8a4a77cabe02","system_id":"levelo_inurba_marseille","lat":43.26194,"lon":5.37458,"is_reserved":false,"is_disabled":false,"rental_uris":{"android":"levelo://app?vid=00da616f-0600-4e71-9056-8a4a77cabe02","ios":"levelo://app?vid=00da616f-0600-4e71-9056-8a4a77cabe02"},"vehicle_type_id":"4","last_reported":1742051316,"current_range_meters":5600,"station_id":"ce4bhgp2rcd13ifvqfc0","pricing_plan_id":"cebpf4jnsgd1na2vs0mg"},{"bike_id":"dd2006d3-ed39-40f8-a3fd-b517c8987982","system_id":"levelo_inurba_marseille","lat":43.32109,"lon":5.36766,"is_reserved":false,"is_disabled":false,"rental_uris":{"android":"levelo://app?vid=dd2006d3-ed39-40f8-a3fd-b517c8987982","ios":"levelo://app?vid=dd2006d3-ed39-40f8-a3fd-b517c8987982"},"vehicle_type_id":"4","last_reported":1742051316,"current_range_meters":5600,"station_id":"ce4bhrh2rcd13ifvqhug","pricing_plan_id":"cebpf4jnsgd1na2vs0mg"},{"bike_id":"808a4438-cc20-432c-8d09-804fc56bec2c","system_id":"levelo_inurba_marseille","lat":43.29616,"lon":5.37169,"is_reserved":false,"is_disabled":false,"rental_uris":{"android":"levelo://app?vid=808a4438-cc20-432c-8d09-804fc56bec2c","ios":"levelo://app?vid=808a4438-cc20-432c-8d09-804fc56bec2c"},"vehicle_type_id":"4","last_reported":1742051316,"current_range_meters":6000,"station_id":"ce4bgnh2rcd13ifvqc0g","pricing_plan_id":"cebpf4jnsgd1na2vs0mg"},{"bike_id":"14686cda-0d1d-43d1-a7b7-3476257757d8","system_id":"levelo_inurba_marseille","lat":43.244,"lon":5.3707,"is_reserved":false,"is_disabled":false,"rental_uris":{"android":"levelo://app?vid=14686cda-0d1d-43d1-a7b7-3476257757d8","ios":"levelo://app?vid=14686cda-0d1d-43d1-a7b7-3476257757d8"},"vehicle_type_id":"4","last_reported":1742051316,"current_range_meters":6000,"station_id":"ce4bhhh2rcd13ifvqfk0","pricing_plan_id":"cebpf4jnsgd1na2vs0mg"},{"bike_id":"df8f59c8-e88a-4727-b99a-b7310a80e16f","system_id":"levelo_inurba_marseille","lat":43.27206,"lon":5.39174,"is_reserved":false,"is_disabled":false,"rental_uris":{"android":"levelo://app?vid=df8f59c8-e88a-4727-b99a-b7310a80e16f","ios":"levelo://app?vid=df8f59c8-e88a-4727-b99a-b7310a80e16f"},"vehicle_type_id":"4","last_reported":1742051316,"current_range_meters":6000,"station_id":"ce4bhhp2rcd13ifvqfm0","pricing_plan_id":"cebpf4jnsgd1na2vs0mg"},{"bike_id":"48de0efc-461c-48c9-a345-06473ce7bd44","system_id":"levelo_inurba_marseille","lat":43.26198,"lon":5.37942,"is_reserved":false,"is_disabled":false,"rental_uris":{"android":"levelo://app?vid=48de0efc-461c-48c9-a345-06473ce7bd44","ios":"levelo://app?vid=48de0efc-461c-48c9-a345-06473ce7bd44"},"vehicle_type_id":"4","last_reported":1742051316,"current_range_meters":6000,"station_id":"ce4bhjp2rcd13ifvqg90","pricing_plan_id":"cebpf4jnsgd1na2vs0mg"},{"bike_id":"ed6a17c9-7f65-4f24-a0b7-2625247fa8f6","system_id":"levelo_inurba_marseille","lat":43.27991,"lon":5.41662,"is_reserved":false,"is_disabled":true,"rental_uris":{"android":"levelo://app?vid=ed6a17c9-7f65-4f24-a0b7-2625247fa8f6","ios":"levelo://app?vid=ed6a17c9-7f65-4f24-a0b7-2625247fa8f6"},"vehicle_type_id":"4","last_reported":1742051316,"current_range_meters":6000,"station_id":"ce4bho12rcd13ifvqh1g","pricing_plan_id":"cebpf4jnsgd1na2vs0mg"},{"bike_id":"ea2d23ae-d3a9-4ed0-8f54-fa6708c6e6a8","system_id":"levelo_inurba_marseille","lat":43.28978,"lon":5.37839,"is_reserved":false,"is_disabled":false,"rental_uris":{"android":"levelo://app?vid=ea2d23ae-d3a9-4ed0-8f54-fa6708c6e6a8","ios":"levelo://app?vid=ea2d23ae-d3a9-4ed0-8f54-fa6708c6e6a8"},"vehicle_type_id":"4","last_reported":1742051316,"current_range_meters":5600,"station_id":"ce4bh9p2rcd13ifvqed0","pricing_plan_id":"cebpf4jnsgd1na2vs0mg"},{"bike_id":"dfb1890d-a53d-42f7-a687-0bca1634d203","system_id":"levelo_inurba_marseille","lat":43.26979,"lon":5.38699,"is_reserved":false,"is_disabled":false,"rental_uris":{"android":"levelo://app?vid=dfb1890d-a53d-42f7-a687-0bca1634d203","ios":"levelo://app?vid=dfb1890d-a53d-42f7-a687-0bca1634d203"},"vehicle_type_id":"4","last_reported":1742051316,"current_range_meters":6000,"station_id":"","pricing_plan_id":"cebpf4jnsgd1na2vs0mg"},{"bike_id":"fa7a9738-be18-4ef1-bc9f-3f5781b304a4","system_id":"levelo_inurba_marseille","lat":43.28272,"lon":5.35106,"is_reserved":false,"is_disabled":false,"rental_uris":{"android":"levelo://app?vid=fa7a9738-be18-4ef1-bc9f-3f5781b304a4","ios":"levelo://app?vid=fa7a9738-be18-4ef1-bc9f-3f5781b304a4"},"vehicle_type_id":"4","last_reported":1742051316,"current_range_meters":0,"station_id":"ce4bhbp2rcd13ifvqerg","pricing_plan_id":"cebpf4jnsgd1na2vs0mg"},{"bike_id":"3c29ac59-c998-4e93-b8e1-9a81d5f419e1","system_id":"levelo_inurba_marseille","lat":43.26213,"lon":5.37442,"is_reserved":false,"is_disabled":false,"rental_uris":{"android":"levelo://app?vid=3c29ac59-c998-4e93-b8e1-9a81d5f419e1","ios":"levelo://app?vid=3c29ac59-c998-4e93-b8e1-9a81d5f419e1"},"vehicle_type_id":"4","last_reported":1742051316,"current_range_meters":6400,"station_id":"ce4bhgp2rcd13ifvqfc0","pricing_plan_id":"cebpf4jnsgd1na2vs0mg"},{"bike_id":"3ba15968-c60d-48ab-b9fd-6a6b16d14400","system_id":"levelo_inurba_marseille","lat":43.22925,"lon":5.35389,"is_reserved":false,"is_disabled":false,"rental_uris":{"android":"levelo://app?vid=3ba15968-c60d-48ab-b9fd-6a6b16d14400","ios":"levelo://app?vid=3ba15968-c60d-48ab-b9fd-6a6b16d14400"},"vehicle_type_id":"4","last_reported":1742051316,"current_range_meters":6400,"station_id":"cpo3532slgdg3j2ikp40","pricing_plan_id":"cebpf4jnsgd1na2vs0mg"},{"bike_id":"1066246f-3364-49ff-9bfc-f9d2c5c4c82c","system_id":"levelo_inurba_marseille","lat":43.24072,"lon":5.37766,"is_reserved":false,"is_disabled":false,"rental_uris":{"android":"levelo://app?vid=1066246f-3364-49ff-9bfc-f9d2c5c4c82c","ios":"levelo://app?vid=1066246f-3364-49ff-9bfc-f9d2c5c4c82c"},"vehicle_type_id":"4","last_reported":1742051316,"current_range_meters":6800,"station_id":"ce4bhnp2rcd13ifvqgvg","pricing_plan_id":"cebpf4jnsgd1na2vs0mg"},{"bike_id":"d3eb25bc-ba59-4d71-ad24-0bccdd18a8b2","system_id":"levelo_inurba_marseille","lat":43.26559,"lon":5.3728,"is_reserved":false,"is_disabled":false,"rental_uris":{"android":"levelo://app?vid=d3eb25bc-ba59-4d71-ad24-0bccdd18a8b2","ios":"levelo://app?vid=d3eb25bc-ba59-4d71-ad24-0bccdd18a8b2"},"vehicle_type_id":"4","last_reported":1742051316,"current_range_meters":6800,"station_id":"ce4bhg12rcd13ifvqf70","pricing_plan_id":"cebpf4jnsgd1na2vs0mg"},{"bike_id":"17724b96-4811-4d81-8e23-442a0811d811","system_id":"levelo_inurba_marseille","lat":43.28406,"lon":5.3499,"is_reserved":false,"is_disabled":false,"rental_uris":{"android":"levelo://app?vid=17724b96-4811-4d81-8e23-442a0811d811","ios":"levelo://app?vid=17724b96-4811-4d81-8e23-442a0811d811"},"vehicle_type_id":"4","last_reported":1742051316,"current_range_meters":6800,"station_id":"ce4bhbh2rcd13ifvqepg","pricing_plan_id":"cebpf4jnsgd1na2vs0mg"},{"bike_id":"401e35f0-1e3d-4314-9c03-f1f961de9e63","system_id":"levelo_inurba_marseille","lat":43.27672,"lon":5.38867,"is_reserved":false,"is_disabled":false,"rental_uris":{"android":"levelo://app?vid=401e35f0-1e3d-4314-9c03-f1f961de9e63","ios":"levelo://app?vid=401e35f0-1e3d-4314-9c03-f1f961de9e63"},"vehicle_type_id":"4","last_reported":1742051316,"current_range_meters":6800,"station_id":"ce4bhi12rcd13ifvqfo0","pricing_plan_id":"cebpf4jnsgd1na2vs0mg"},{"bike_id":"322d1f09-6aab-4287-b78e-b6d1403f7da9","system_id":"levelo_inurba_marseille","lat":43.23074,"lon":5.35484,"is_reserved":false,"is_disabled":false,"rental_uris":{"android":"levelo://app?vid=322d1f09-6aab-4287-b78e-b6d1403f7da9","ios":"levelo://app?vid=322d1f09-6aab-4287-b78e-b6d1403f7da9"},"vehicle_type_id":"4","last_reported":1742051316,"current_range_meters":6800,"station_id":"cpo3342slgdg3j2ifvpg","pricing_plan_id":"cebpf4jnsgd1na2vs0mg"},{"bike_id":"77f0430f-3350-4963-ac6b-e35c49a943e2","system_id":"levelo_inurba_marseille","lat":43.31669,"lon":5.39588,"is_reserved":false,"is_disabled":false,"rental_uris":{"android":"levelo://app?vid=77f0430f-3350-4963-ac6b-e35c49a943e2","ios":"levelo://app?vid=77f0430f-3350-4963-ac6b-e35c49a943e2"},"vehicle_type_id":"4","last_reported":1742051316,"current_range_meters":6800,"station_id":"","pricing_plan_id":"cebpf4jnsgd1na2vs0mg"},{"bike_id":"9196dc39-3b10-4109-97cf-367456a66073","system_id":"levelo_inurba_marseille","lat":43.26202,"lon":5.37938,"is_reserved":false,"is_disabled":false,"rental_uris":{"android":"levelo://app?vid=9196dc39-3b10-4109-97cf-367456a66073","ios":"levelo://app?vid=9196dc39-3b10-4109-97cf-367456a66073"},"vehicle_type_id":"4","last_reported":1742051316,"current_range_meters":6800,"station_id":"ce4bhjp2rcd13ifvqg90","pricing_plan_id":"cebpf4jnsgd1na2vs0mg"},{"bike_id":"48f968e9-2670-450c-9a50-b12a7ac1907f","system_id":"levelo_inurba_marseille","lat":43.25726,"lon":5.41111,"is_reserved":false,"is_disabled":false,"rental_uris":{"android":"levelo://app?vid=48f968e9-2670-450c-9a50-b12a7ac1907f","ios":"levelo://app?vid=48f968e9-2670-450c-9a50-b12a7ac1907f"},"vehicle_type_id":"4","last_reported":1742051316,"current_range_meters":7200,"station_id":"ce4bhkp2rcd13ifvqgd0","pricing_plan_id":"cebpf4jnsgd1na2vs0mg"},{"bike_id":"ee0c321d-9599-4ae0-b80e-2cf08ba114c2","system_id":"levelo_inurba_marseille","lat":43.22935,"lon":5.35393,"is_reserved":false,"is_disabled":false,"rental_uris":{"android":"levelo://app?vid=ee0c321d-9599-4ae0-b80e-2cf08ba114c2","ios":"levelo://app?vid=ee0c321d-9599-4ae0-b80e-2cf08ba114c2"},"vehicle_type_id":"4","last_reported":1742051316,"current_range_meters":7200,"station_id":"cpo3532slgdg3j2ikp40","pricing_plan_id":"cebpf4jnsgd1na2vs0mg"},{"bike_id":"a10b71cf-46f2-45c3-9db0-26f6cc37fd26","system_id":"levelo_inurba_marseille","lat":43.29538,"lon":5.39041,"is_reserved":false,"is_disabled":false,"rental_uris":{"android":"levelo://app?vid=a10b71cf-46f2-45c3-9db0-26f6cc37fd26","ios":"levelo://app?vid=a10b71cf-46f2-45c3-9db0-26f6cc37fd26"},"vehicle_type_id":"4","last_reported":1742051316,"current_range_meters":7200,"station_id":"ce4bh3p2rcd13ifvqdp0","pricing_plan_id":"cebpf4jnsgd1na2vs0mg"},{"bike_id":"2bb6910c-fd7e-4b46-a773-d0a5e8c26166","system_id":"levelo_inurba_marseille","lat":43.30952,"lon":5.39029,"is_reserved":false,"is_disabled":false,"rental_uris":{"android":"levelo://app?vid=2bb6910c-fd7e-4b46-a773-d0a5e8c26166","ios":"levelo://app?vid=2bb6910c-fd7e-4b46-a773-d0a5e8c26166"},"vehicle_type_id":"4","last_reported":1742051316,"current_range_meters":7200,"station_id":"ce4bgup2rcd13ifvqco0","pricing_plan_id":"cebpf4jnsgd1na2vs0mg"},{"bike_id":"c6b2e8e1-a9f2-4fdc-b2fb-e9795807d18f","system_id":"levelo_inurba_marseille","lat":43.28419,"lon":5.34987,"is_reserved":false,"is_disabled":false,"rental_uris":{"android":"levelo://app?vid=c6b2e8e1-a9f2-4fdc-b2fb-e9795807d18f","ios":"levelo://app?vid=c6b2e8e1-a9f2-4fdc-b2fb-e9795807d18f"},"vehicle_type_id":"4","last_reported":1742051316,"current_range_meters":7200,"station_id":"ce4bhbh2rcd13ifvqepg","pricing_plan_id":"cebpf4jnsgd1na2vs0mg"},{"bike_id":"a8e67676-89ba-43e0-82dc-5ef4b0a5e328","system_id":"levelo_inurba_marseille","lat":43.31621,"lon":5.38619,"is_reserved":false,"is_disabled":false,"rental_uris":{"android":"levelo://app?vid=a8e67676-89ba-43e0-82dc-5ef4b0a5e328","ios":"levelo://app?vid=a8e67676-89ba-43e0-82dc-5ef4b0a5e328"},"vehicle_type_id":"4","last_reported":1742051316,"current_range_meters":7200,"station_id":"","pricing_plan_id":"cebpf4jnsgd1na2vs0mg"},{"bike_id":"43a1cd31-46eb-4064-80d2-7ba88fce4f4e","system_id":"levelo_inurba_marseille","lat":43.2926,"lon":5.40902,"is_reserved":false,"is_disabled":false,"rental_uris":{"android":"levelo://app?vid=43a1cd31-46eb-4064-80d2-7ba88fce4f4e","ios":"levelo://app?vid=43a1cd31-46eb-4064-80d2-7ba88fce4f4e"},"vehicle_type_id":"4","last_reported":1742051316,"current_range_meters":6800,"station_id":"ce4bh192rcd13ifvqdc0","pricing_plan_id":"cebpf4jnsgd1na2vs0mg"},{"bike_id":"73e440c0-c5a8-4972-9f49-7e89cb23a8c6","system_id":"levelo_inurba_marseille","lat":43.26201,"lon":5.37941,"is_reserved":false,"is_disabled":false,"rental_uris":{"android":"levelo://app?vid=73e440c0-c5a8-4972-9f49-7e89cb23a8c6","ios":"levelo://app?vid=73e440c0-c5a8-4972-9f49-7e89cb23a8c6"},"vehicle_type_id":"4","last_reported":1742051316,"current_range_meters":7200,"station_id":"ce4bhjp2rcd13ifvqg90","pricing_plan_id":"cebpf4jnsgd1na2vs0mg"},{"bike_id":"6de95c3d-b0f1-4eeb-ae6e-47bd3d653feb","system_id":"levelo_inurba_marseille","lat":43.29605,"lon":5.38107,"is_reserved":false,"is_disabled":false,"rental_uris":{"android":"levelo://app?vid=6de95c3d-b0f1-4eeb-ae6e-47bd3d653feb","ios":"levelo://app?vid=6de95c3d-b0f1-4eeb-ae6e-47bd3d653feb"},"vehicle_type_id":"4","last_reported":1742051316,"current_range_meters":7200,"station_id":"ce4bgl12rcd13ifvqbo0","pricing_plan_id":"cebpf4jnsgd1na2vs0mg"},{"bike_id":"2ec0f046-4e68-4150-a618-5c892d6b2cb5","system_id":"levelo_inurba_marseille","lat":43.26239,"lon":5.40461,"is_reserved":false,"is_disabled":false,"rental_uris":{"android":"levelo://app?vid=2ec0f046-4e68-4150-a618-5c892d6b2cb5","ios":"levelo://app?vid=2ec0f046-4e68-4150-a618-5c892d6b2cb5"},"vehicle_type_id":"4","last_reported":1742051316,"current_range_meters":7200,"station_id":"ce4bhmh2rcd13ifvqgmg","pricing_plan_id":"cebpf4jnsgd1na2vs0mg"},{"bike_id":"ec3e67cc-f6da-4466-9bf6-408855a4b82b","system_id":"levelo_inurba_marseille","lat":43.29606,"lon":5.38103,"is_reserved":false,"is_disabled":false,"rental_uris":{"android":"levelo://app?vid=ec3e67cc-f6da-4466-9bf6-408855a4b82b","ios":"levelo://app?vid=ec3e67cc-f6da-4466-9bf6-408855a4b82b"},"vehicle_type_id":"4","last_reported":1742051316,"current_range_meters":7200,"station_id":"ce4bgl12rcd13ifvqbo0","pricing_plan_id":"cebpf4jnsgd1na2vs0mg"},{"bike_id":"2f65ed80-6c16-4426-b63c-1981c1c225b9","system_id":"levelo_inurba_marseille","lat":43.29553,"lon":5.42292,"is_reserved":false,"is_disabled":false,"rental_uris":{"android":"levelo://app?vid=2f65ed80-6c16-4426-b63c-1981c1c225b9","ios":"levelo://app?vid=2f65ed80-6c16-4426-b63c-1981c1c225b9"},"vehicle_type_id":"4","last_reported":1742051316,"current_range_meters":8000,"station_id":"ce4bhph2rcd13ifvqhdg","pricing_plan_id":"cebpf4jnsgd1na2vs0mg"},{"bike_id":"979601e4-f24f-4d64-a46b-33b5a3b240fc","system_id":"levelo_inurba_marseille","lat":43.29616,"lon":5.37723,"is_reserved":false,"is_disabled":false,"rental_uris":{"android":"levelo://app?vid=979601e4-f24f-4d64-a46b-33b5a3b240fc","ios":"levelo://app?vid=979601e4-f24f-4d64-a46b-33b5a3b240fc"},"vehicle_type_id":"4","last_reported":1742051316,"current_range_meters":8000,"station_id":"ce4bgi92rcd13ifvqb90","pricing_plan_id":"cebpf4jnsgd1na2vs0mg"},{"bike_id":"f145fb8a-76ed-4610-9aa2-4cd4bb3e0bc9","system_id":"levelo_inurba_marseille","lat":43.28071,"lon":5.39629,"is_reserved":false,"is_disabled":false,"rental_uris":{"android":"levelo://app?vid=f145fb8a-76ed-4610-9aa2-4cd4bb3e0bc9","ios":"levelo://app?vid=f145fb8a-76ed-4610-9aa2-4cd4bb3e0bc9"},"vehicle_type_id":"4","last_reported":1742051316,"current_range_meters":8000,"station_id":"ce4bho12rcd13ifvqh2g","pricing_plan_id":"cebpf4jnsgd1na2vs0mg"},{"bike_id":"fbfef2ad-6d36-4f61-9acd-fa33a3127cd0","system_id":"levelo_inurba_marseille","lat":43.26801,"lon":5.40269,"is_reserved":false,"is_disabled":false,"rental_uris":{"android":"levelo://app?vid=fbfef2ad-6d36-4f61-9acd-fa33a3127cd0","ios":"levelo://app?vid=fbfef2ad-6d36-4f61-9acd-fa33a3127cd0"},"vehicle_type_id":"4","last_reported":1742051316,"current_range_meters":8000,"station_id":"ce501612rcd8frsf0b60","pricing_plan_id":"cebpf4jnsgd1na2vs0mg"},{"bike_id":"355fb77e-22da-4ed4-bab8-f395a5c5d15a","system_id":"levelo_inurba_marseille","lat":43.246689,"lon":5.381521,"is_reserved":false,"is_disabled":false,"rental_uris":{"android":"levelo://app?vid=355fb77e-22da-4ed4-bab8-f395a5c5d15a","ios":"levelo://app?vid=355fb77e-22da-4ed4-bab8-f395a5c5d15a"},"vehicle_type_id":"4","last_reported":1742051316,"current_range_meters":8000,"station_id":"ce4bhih2rcd13ifvqfr0","pricing_plan_id":"cebpf4jnsgd1na2vs0mg"},{"bike_id":"f8dddc2c-efb0-4686-91e1-2c0f36202cde","system_id":"levelo_inurba_marseille","lat":43.26203,"lon":5.37932,"is_reserved":false,"is_disabled":false,"rental_uris":{"android":"levelo://app?vid=f8dddc2c-efb0-4686-91e1-2c0f36202cde","ios":"levelo://app?vid=f8dddc2c-efb0-4686-91e1-2c0f36202cde"},"vehicle_type_id":"4","last_reported":1742051316,"current_range_meters":8000,"station_id":"ce4bhjp2rcd13ifvqg90","pricing_plan_id":"cebpf4jnsgd1na2vs0mg"},{"bike_id":"bd7fb638-a561-41df-90ca-f32685780427","system_id":"levelo_inurba_marseille","lat":43.229266,"lon":5.35376,"is_reserved":false,"is_disabled":false,"rental_uris":{"android":"levelo://app?vid=bd7fb638-a561-41df-90ca-f32685780427","ios":"levelo://app?vid=bd7fb638-a561-41df-90ca-f32685780427"},"vehicle_type_id":"4","last_reported":1742051316,"current_range_meters":8000,"station_id":"cpo3532slgdg3j2ikp40","pricing_plan_id":"cebpf4jnsgd1na2vs0mg"},{"bike_id":"10bfbf93-f469-4c3a-81e0-401668958ed6","system_id":"levelo_inurba_marseille","lat":43.28416,"lon":5.34996,"is_reserved":false,"is_disabled":false,"rental_uris":{"android":"levelo://app?vid=10bfbf93-f469-4c3a-81e0-401668958ed6","ios":"levelo://app?vid=10bfbf93-f469-4c3a-81e0-401668958ed6"},"vehicle_type_id":"4","last_reported":1742051316,"current_range_meters":8000,"station_id":"ce4bhbh2rcd13ifvqepg","pricing_plan_id":"cebpf4jnsgd1na2vs0mg"},{"bike_id":"9085bc9b-c962-47c8-afb9-3e8b21e30bc4","system_id":"levelo_inurba_marseille","lat":43.28421,"lon":5.34994,"is_reserved":false,"is_disabled":false,"rental_uris":{"android":"levelo://app?vid=9085bc9b-c962-47c8-afb9-3e8b21e30bc4","ios":"levelo://app?vid=9085bc9b-c962-47c8-afb9-3e8b21e30bc4"},"vehicle_type_id":"4","last_reported":1742051316,"current_range_meters":8000,"station_id":"ce4bhbh2rcd13ifvqepg","pricing_plan_id":"cebpf4jnsgd1na2vs0mg"},{"bike_id":"3ea04d25-2351-442b-8314-3174263c7c7c","system_id":"levelo_inurba_marseille","lat":43.33024,"lon":5.39045,"is_reserved":false,"is_disabled":false,"rental_uris":{"android":"levelo://app?vid=3ea04d25-2351-442b-8314-3174263c7c7c","ios":"levelo://app?vid=3ea04d25-2351-442b-8314-3174263c7c7c"},"vehicle_type_id":"4","last_reported":1742051316,"current_range_meters":8000,"station_id":"ce4bhr92rcd13ifvqhrg","pricing_plan_id":"cebpf4jnsgd1na2vs0mg"},{"bike_id":"8a5bd971-61c1-4475-933b-dffdb284dd01","system_id":"levelo_inurba_marseille","lat":43.250111,"lon":5.38915,"is_reserved":false,"is_disabled":false,"rental_uris":{"android":"levelo://app?vid=8a5bd971-61c1-4475-933b-dffdb284dd01","ios":"levelo://app?vid=8a5bd971-61c1-4475-933b-dffdb284dd01"},"vehicle_type_id":"4","last_reported":1742051316,"current_range_meters":8400,"station_id":"ce4bhgp2rcd13ifvqfd0","pricing_plan_id":"cebpf4jnsgd1na2vs0mg"},{"bike_id":"db5f23a3-d750-484d-9612-c3dde220e7db","system_id":"levelo_inurba_marseille","lat":43.29685,"lon":5.37291,"is_reserved":false,"is_disabled":false,"rental_uris":{"android":"levelo://app?vid=db5f23a3-d750-484d-9612-c3dde220e7db","ios":"levelo://app?vid=db5f23a3-d750-484d-9612-c3dde220e7db"},"vehicle_type_id":"4","last_reported":1742051316,"current_range_meters":8400,"station_id":"ce4bgk12rcd13ifvqbj0","pricing_plan_id":"cebpf4jnsgd1na2vs0mg"},{"bike_id":"32b30066-7da4-4210-9fa0-3d2a32e51f34","system_id":"levelo_inurba_marseille","lat":43.26211,"lon":5.37443,"is_reserved":false,"is_disabled":false,"rental_uris":{"android":"levelo://app?vid=32b30066-7da4-4210-9fa0-3d2a32e51f34","ios":"levelo://app?vid=32b30066-7da4-4210-9fa0-3d2a32e51f34"},"vehicle_type_id":"4","last_reported":1742051316,"current_range_meters":8400,"station_id":"ce4bhgp2rcd13ifvqfc0","pricing_plan_id":"cebpf4jnsgd1na2vs0mg"},{"bike_id":"8e54ed99-e15e-4d77-97f0-c241b3e6e275","system_id":"levelo_inurba_marseille","lat":43.27673,"lon":5.38888,"is_reserved":false,"is_disabled":false,"rental_uris":{"android":"levelo://app?vid=8e54ed99-e15e-4d77-97f0-c241b3e6e275","ios":"levelo://app?vid=8e54ed99-e15e-4d77-97f0-c241b3e6e275"},"vehicle_type_id":"4","last_reported":1742051316,"current_range_meters":8000,"station_id":"ce4bhi12rcd13ifvqfo0","pricing_plan_id":"cebpf4jnsgd1na2vs0mg"},{"bike_id":"48d30a85-f5a7-4e7b-ba36-961638be5808","system_id":"levelo_inurba_marseille","lat":43.29637,"lon":5.37174,"is_reserved":false,"is_disabled":false,"rental_uris":{"android":"levelo://app?vid=48d30a85-f5a7-4e7b-ba36-961638be5808","ios":"levelo://app?vid=48d30a85-f5a7-4e7b-ba36-961638be5808"},"vehicle_type_id":"4","last_reported":1742051316,"current_range_meters":8400,"station_id":"ce4bgnh2rcd13ifvqc0g","pricing_plan_id":"cebpf4jnsgd1na2vs0mg"},{"bike_id":"9a812067-edb7-44b5-b00b-7bbc536e3331","system_id":"levelo_inurba_marseille","lat":43.24072,"lon":5.37771,"is_reserved":false,"is_disabled":false,"rental_uris":{"android":"levelo://app?vid=9a812067-edb7-44b5-b00b-7bbc536e3331","ios":"levelo://app?vid=9a812067-edb7-44b5-b00b-7bbc536e3331"},"vehicle_type_id":"4","last_reported":1742051316,"current_range_meters":8400,"station_id":"ce4bhnp2rcd13ifvqgvg","pricing_plan_id":"cebpf4jnsgd1na2vs0mg"},{"bike_id":"70c64b6f-bec2-46ae-b5e9-8c0c29541837","system_id":"levelo_inurba_marseille","lat":43.270517,"lon":5.402653,"is_reserved":false,"is_disabled":false,"rental_uris":{"android":"levelo://app?vid=70c64b6f-bec2-46ae-b5e9-8c0c29541837","ios":"levelo://app?vid=70c64b6f-bec2-46ae-b5e9-8c0c29541837"},"vehicle_type_id":"4","last_reported":1742051316,"current_range_meters":8800,"station_id":"ce4bhk92rcd13ifvqgc0","pricing_plan_id":"cebpf4jnsgd1na2vs0mg"},{"bike_id":"85d10f39-4b49-477c-b6e3-e96eb6cda2fc","system_id":"levelo_inurba_marseille","lat":43.27622,"lon":5.3611,"is_reserved":false,"is_disabled":false,"rental_uris":{"android":"levelo://app?vid=85d10f39-4b49-477c-b6e3-e96eb6cda2fc","ios":"levelo://app?vid=85d10f39-4b49-477c-b6e3-e96eb6cda2fc"},"vehicle_type_id":"4","last_reported":1742051316,"current_range_meters":8400,"station_id":"ce4bgj92rcd13ifvqbe0","pricing_plan_id":"cebpf4jnsgd1na2vs0mg"},{"bike_id":"518921c0-ee1d-4191-ba17-1fc5ee40ae5e","system_id":"levelo_inurba_marseille","lat":43.32479,"lon":5.36547,"is_reserved":false,"is_disabled":false,"rental_uris":{"android":"levelo://app?vid=518921c0-ee1d-4191-ba17-1fc5ee40ae5e","ios":"levelo://app?vid=518921c0-ee1d-4191-ba17-1fc5ee40ae5e"},"vehicle_type_id":"4","last_reported":1742051316,"current_range_meters":8800,"station_id":"ce4bhs12rcd13ifvqhvg","pricing_plan_id":"cebpf4jnsgd1na2vs0mg"},{"bike_id":"1ee71dce-d48d-4af5-99c2-09ee17edd7a0","system_id":"levelo_inurba_marseille","lat":43.24666,"lon":5.3816,"is_reserved":false,"is_disabled":false,"rental_uris":{"android":"levelo://app?vid=1ee71dce-d48d-4af5-99c2-09ee17edd7a0","ios":"levelo://app?vid=1ee71dce-d48d-4af5-99c2-09ee17edd7a0"},"vehicle_type_id":"4","last_reported":1742051316,"current_range_meters":8800,"station_id":"ce4bhih2rcd13ifvqfr0","pricing_plan_id":"cebpf4jnsgd1na2vs0mg"},{"bike_id":"26b9f1dd-86a8-4489-8da6-f5e5a4da3921","system_id":"levelo_inurba_marseille","lat":43.23197,"lon":5.3555,"is_reserved":false,"is_disabled":false,"rental_uris":{"android":"levelo://app?vid=26b9f1dd-86a8-4489-8da6-f5e5a4da3921","ios":"levelo://app?vid=26b9f1dd-86a8-4489-8da6-f5e5a4da3921"},"vehicle_type_id":"4","last_reported":1742051316,"current_range_meters":8800,"station_id":"ce4bhu92rcd13ifvqi70","pricing_plan_id":"cebpf4jnsgd1na2vs0mg"},{"bike_id":"8b3e0ad4-c66d-4f3b-b6e8-3825602fd87b","system_id":"levelo_inurba_marseille","lat":43.26202,"lon":5.37928,"is_reserved":false,"is_disabled":false,"rental_uris":{"android":"levelo://app?vid=8b3e0ad4-c66d-4f3b-b6e8-3825602fd87b","ios":"levelo://app?vid=8b3e0ad4-c66d-4f3b-b6e8-3825602fd87b"},"vehicle_type_id":"4","last_reported":1742051316,"current_range_meters":8800,"station_id":"ce4bhjp2rcd13ifvqg90","pricing_plan_id":"cebpf4jnsgd1na2vs0mg"},{"bike_id":"b4f48f83-76f0-4a85-aa64-4a2026ea2e7c","system_id":"levelo_inurba_marseille","lat":43.28611,"lon":5.35111,"is_reserved":false,"is_disabled":false,"rental_uris":{"android":"levelo://app?vid=b4f48f83-76f0-4a85-aa64-4a2026ea2e7c","ios":"levelo://app?vid=b4f48f83-76f0-4a85-aa64-4a2026ea2e7c"},"vehicle_type_id":"4","last_reported":1742051316,"current_range_meters":8800,"station_id":"ce4bhch2rcd13ifvqeug","pricing_plan_id":"cebpf4jnsgd1na2vs0mg"},{"bike_id":"047b5dad-2b45-4960-80c4-b2fb98e538e3","system_id":"levelo_inurba_marseille","lat":43.29983,"lon":5.38481,"is_reserved":false,"is_disabled":false,"rental_uris":{"android":"levelo://app?vid=047b5dad-2b45-4960-80c4-b2fb98e538e3","ios":"levelo://app?vid=047b5dad-2b45-4960-80c4-b2fb98e538e3"},"vehicle_type_id":"4","last_reported":1742051316,"current_range_meters":8800,"station_id":"ce4bgj92rcd13ifvqbd0","pricing_plan_id":"cebpf4jnsgd1na2vs0mg"},{"bike_id":"1fa2c054-0357-481f-bf32-afbe27f59e33","system_id":"levelo_inurba_marseille","lat":43.23151,"lon":5.43713,"is_reserved":false,"is_disabled":false,"rental_uris":{"android":"levelo://app?vid=1fa2c054-0357-481f-bf32-afbe27f59e33","ios":"levelo://app?vid=1fa2c054-0357-481f-bf32-afbe27f59e33"},"vehicle_type_id":"4","last_reported":1742051316,"current_range_meters":8800,"station_id":"ce4bhmp2rcd13ifvqgog","pricing_plan_id":"cebpf4jnsgd1na2vs0mg"},{"bike_id":"1a3ed62a-a30c-43fc-9cb3-aa3db6189fb6","system_id":"levelo_inurba_marseille","lat":43.31364,"lon":5.38492,"is_reserved":false,"is_disabled":false,"rental_uris":{"android":"levelo://app?vid=1a3ed62a-a30c-43fc-9cb3-aa3db6189fb6","ios":"levelo://app?vid=1a3ed62a-a30c-43fc-9cb3-aa3db6189fb6"},"vehicle_type_id":"4","last_reported":1742051316,"current_range_meters":8800,"station_id":"ce4bgt92rcd13ifvqcf0","pricing_plan_id":"cebpf4jnsgd1na2vs0mg"},{"bike_id":"11877a08-1209-410f-8a57-ef814c57a390","system_id":"levelo_inurba_marseille","lat":43.24168,"lon":5.36399,"is_reserved":false,"is_disabled":false,"rental_uris":{"android":"levelo://app?vid=11877a08-1209-410f-8a57-ef814c57a390","ios":"levelo://app?vid=11877a08-1209-410f-8a57-ef814c57a390"},"vehicle_type_id":"4","last_reported":1742051316,"current_range_meters":8800,"station_id":"cpo36qri1sfpv3e86is0","pricing_plan_id":"cebpf4jnsgd1na2vs0mg"},{"bike_id":"4dc72177-c2ae-4594-9a15-45ab4b3b235e","system_id":"levelo_inurba_marseille","lat":43.292297,"lon":5.360593,"is_reserved":false,"is_disabled":false,"rental_uris":{"android":"levelo://app?vid=4dc72177-c2ae-4594-9a15-45ab4b3b235e","ios":"levelo://app?vid=4dc72177-c2ae-4594-9a15-45ab4b3b235e"},"vehicle_type_id":"4","last_reported":1742051316,"current_range_meters":8400,"station_id":"ce4bh292rcd13ifvqdg0","pricing_plan_id":"cebpf4jnsgd1na2vs0mg"},{"bike_id":"426c1500-8ca2-451e-9746-968f6725789b","system_id":"levelo_inurba_marseille","lat":43.30303,"lon":5.36892,"is_reserved":false,"is_disabled":false,"rental_uris":{"android":"levelo://app?vid=426c1500-8ca2-451e-9746-968f6725789b","ios":"levelo://app?vid=426c1500-8ca2-451e-9746-968f6725789b"},"vehicle_type_id":"4","last_reported":1742051316,"current_range_meters":8800,"station_id":"ce4bgqh2rcd13ifvqc5g","pricing_plan_id":"cebpf4jnsgd1na2vs0mg"},{"bike_id":"1ac0ebad-6828-4242-99b2-14a9f8209f79","system_id":"levelo_inurba_marseille","lat":43.23208,"lon":5.3557,"is_reserved":false,"is_disabled":false,"rental_uris":{"android":"levelo://app?vid=1ac0ebad-6828-4242-99b2-14a9f8209f79","ios":"levelo://app?vid=1ac0ebad-6828-4242-99b2-14a9f8209f79"},"vehicle_type_id":"4","last_reported":1742051316,"current_range_meters":9200,"station_id":"ce4bhu92rcd13ifvqi70","pricing_plan_id":"cebpf4jnsgd1na2vs0mg"},{"bike_id":"9fd8a695-1141-48a7-a275-ae03aade4f9e","system_id":"levelo_inurba_marseille","lat":43.24549,"lon":5.39528,"is_reserved":false,"is_disabled":false,"rental_uris":{"android":"levelo://app?vid=9fd8a695-1141-48a7-a275-ae03aade4f9e","ios":"levelo://app?vid=9fd8a695-1141-48a7-a275-ae03aade4f9e"},"vehicle_type_id":"4","last_reported":1742051316,"current_range_meters":9200,"station_id":"ce4bhlp2rcd13ifvqgjg","pricing_plan_id":"cebpf4jnsgd1na2vs0mg"},{"bike_id":"a7406565-5dd5-4fa1-824e-2bd6deea0335","system_id":"levelo_inurba_marseille","lat":43.2417,"lon":5.36397,"is_reserved":false,"is_disabled":false,"rental_uris":{"android":"levelo://app?vid=a7406565-5dd5-4fa1-824e-2bd6deea0335","ios":"levelo://app?vid=a7406565-5dd5-4fa1-824e-2bd6deea0335"},"vehicle_type_id":"4","last_reported":1742051316,"current_range_meters":9200,"station_id":"cpo36qri1sfpv3e86is0","pricing_plan_id":"cebpf4jnsgd1na2vs0mg"},{"bike_id":"b4616406-2d58-4f02-abf1-373bd2ebeed9","system_id":"levelo_inurba_marseille","lat":43.24404,"lon":5.37064,"is_reserved":false,"is_disabled":false,"rental_uris":{"android":"levelo://app?vid=b4616406-2d58-4f02-abf1-373bd2ebeed9","ios":"levelo://app?vid=b4616406-2d58-4f02-abf1-373bd2ebeed9"},"vehicle_type_id":"4","last_reported":1742051316,"current_range_meters":9200,"station_id":"ce4bhhh2rcd13ifvqfk0","pricing_plan_id":"cebpf4jnsgd1na2vs0mg"},{"bike_id":"1999cecf-f38c-4961-9580-ef6a50d3e0be","system_id":"levelo_inurba_marseille","lat":43.2417,"lon":5.36404,"is_reserved":false,"is_disabled":false,"rental_uris":{"android":"levelo://app?vid=1999cecf-f38c-4961-9580-ef6a50d3e0be","ios":"levelo://app?vid=1999cecf-f38c-4961-9580-ef6a50d3e0be"},"vehicle_type_id":"4","last_reported":1742051316,"current_range_meters":9200,"station_id":"cpo36qri1sfpv3e86is0","pricing_plan_id":"cebpf4jnsgd1na2vs0mg"},{"bike_id":"9a81821d-3558-408b-a113-0e9ffaa5a45e","system_id":"levelo_inurba_marseille","lat":43.240111,"lon":5.366991,"is_reserved":false,"is_disabled":false,"rental_uris":{"android":"levelo://app?vid=9a81821d-3558-408b-a113-0e9ffaa5a45e","ios":"levelo://app?vid=9a81821d-3558-408b-a113-0e9ffaa5a45e"},"vehicle_type_id":"4","last_reported":1742051316,"current_range_meters":9200,"station_id":"ce4bhbh2rcd13ifvqeqg","pricing_plan_id":"cebpf4jnsgd1na2vs0mg"},{"bike_id":"385ae15c-2c3c-4490-a507-5eb20fb883a5","system_id":"levelo_inurba_marseille","lat":43.25935,"lon":5.40906,"is_reserved":false,"is_disabled":false,"rental_uris":{"android":"levelo://app?vid=385ae15c-2c3c-4490-a507-5eb20fb883a5","ios":"levelo://app?vid=385ae15c-2c3c-4490-a507-5eb20fb883a5"},"vehicle_type_id":"4","last_reported":1742051316,"current_range_meters":9200,"station_id":"ce4bhm92rcd13ifvqglg","pricing_plan_id":"cebpf4jnsgd1na2vs0mg"},{"bike_id":"676e66c6-8e50-404c-b512-5f94c7d6a8fc","system_id":"levelo_inurba_marseille","lat":43.24168,"lon":5.36403,"is_reserved":false,"is_disabled":false,"rental_uris":{"android":"levelo://app?vid=676e66c6-8e50-404c-b512-5f94c7d6a8fc","ios":"levelo://app?vid=676e66c6-8e50-404c-b512-5f94c7d6a8fc"},"vehicle_type_id":"4","last_reported":1742051316,"current_range_meters":9600,"station_id":"cpo36qri1sfpv3e86is0","pricing_plan_id":"cebpf4jnsgd1na2vs0mg"},{"bike_id":"f8b67c41-03a3-451a-90c6-1b607a28f115","system_id":"levelo_inurba_marseille","lat":43.25111,"lon":5.40328,"is_reserved":false,"is_disabled":false,"rental_uris":{"android":"levelo://app?vid=f8b67c41-03a3-451a-90c6-1b607a28f115","ios":"levelo://app?vid=f8b67c41-03a3-451a-90c6-1b607a28f115"},"vehicle_type_id":"4","last_reported":1742051316,"current_range_meters":9600,"station_id":"ce4bhlh2rcd13ifvqgig","pricing_plan_id":"cebpf4jnsgd1na2vs0mg"},{"bike_id":"63cfaea5-f172-409c-93d3-875ff9136d61","system_id":"levelo_inurba_marseille","lat":43.24659,"lon":5.38165,"is_reserved":false,"is_disabled":false,"rental_uris":{"android":"levelo://app?vid=63cfaea5-f172-409c-93d3-875ff9136d61","ios":"levelo://app?vid=63cfaea5-f172-409c-93d3-875ff9136d61"},"vehicle_type_id":"4","last_reported":1742051316,"current_range_meters":9600,"station_id":"ce4bhih2rcd13ifvqfr0","pricing_plan_id":"cebpf4jnsgd1na2vs0mg"},{"bike_id":"1c944097-c351-4c77-acee-d4540e5f0a94","system_id":"levelo_inurba_marseille","lat":43.23056,"lon":5.35513,"is_reserved":false,"is_disabled":false,"rental_uris":{"android":"levelo://app?vid=1c944097-c351-4c77-acee-d4540e5f0a94","ios":"levelo://app?vid=1c944097-c351-4c77-acee-d4540e5f0a94"},"vehicle_type_id":"4","last_reported":1742051316,"current_range_meters":9600,"station_id":"cpo3342slgdg3j2ifvpg","pricing_plan_id":"cebpf4jnsgd1na2vs0mg"},{"bike_id":"cd2eb4ba-77cf-40ae-a991-34cec5701430","system_id":"levelo_inurba_marseille","lat":43.23149,"lon":5.43717,"is_reserved":false,"is_disabled":false,"rental_uris":{"android":"levelo://app?vid=cd2eb4ba-77cf-40ae-a991-34cec5701430","ios":"levelo://app?vid=cd2eb4ba-77cf-40ae-a991-34cec5701430"},"vehicle_type_id":"4","last_reported":1742051316,"current_range_meters":9600,"station_id":"ce4bhmp2rcd13ifvqgog","pricing_plan_id":"cebpf4jnsgd1na2vs0mg"},{"bike_id":"6047a17b-de89-42ad-ac7f-196dd206926f","system_id":"levelo_inurba_marseille","lat":43.29382,"lon":5.3784,"is_reserved":false,"is_disabled":false,"rental_uris":{"android":"levelo://app?vid=6047a17b-de89-42ad-ac7f-196dd206926f","ios":"levelo://app?vid=6047a17b-de89-42ad-ac7f-196dd206926f"},"vehicle_type_id":"4","last_reported":1742051316,"current_range_meters":9600,"station_id":"ce4bgjh2rcd13ifvqbf0","pricing_plan_id":"cebpf4jnsgd1na2vs0mg"},{"bike_id":"4d8ded7c-feae-48d6-bd81-235bc0484734","system_id":"levelo_inurba_marseille","lat":43.28615,"lon":5.35101,"is_reserved":false,"is_disabled":false,"rental_uris":{"android":"levelo://app?vid=4d8ded7c-feae-48d6-bd81-235bc0484734","ios":"levelo://app?vid=4d8ded7c-feae-48d6-bd81-235bc0484734"},"vehicle_type_id":"4","last_reported":1742051316,"current_range_meters":9600,"station_id":"ce4bhch2rcd13ifvqeug","pricing_plan_id":"cebpf4jnsgd1na2vs0mg"},{"bike_id":"a4b6b2b0-3f22-4864-9a16-662f57bc8d43","system_id":"levelo_inurba_marseille","lat":43.26554,"lon":5.37286,"is_reserved":false,"is_disabled":false,"rental_uris":{"android":"levelo://app?vid=a4b6b2b0-3f22-4864-9a16-662f57bc8d43","ios":"levelo://app?vid=a4b6b2b0-3f22-4864-9a16-662f57bc8d43"},"vehicle_type_id":"4","last_reported":1742051316,"current_range_meters":9600,"station_id":"ce4bhg12rcd13ifvqf70","pricing_plan_id":"cebpf4jnsgd1na2vs0mg"},{"bike_id":"2ada218c-4e3e-433b-a33e-91e0fed6090b","system_id":"levelo_inurba_marseille","lat":43.29459,"lon":5.39766,"is_reserved":false,"is_disabled":true,"rental_uris":{"android":"levelo://app?vid=2ada218c-4e3e-433b-a33e-91e0fed6090b","ios":"levelo://app?vid=2ada218c-4e3e-433b-a33e-91e0fed6090b"},"vehicle_type_id":"4","last_reported":1742051316,"current_range_meters":9600,"station_id":"ce4bh3h2rcd13ifvqdo0","pricing_plan_id":"cebpf4jnsgd1na2vs0mg"},{"bike_id":"1351611b-815c-405d-8b0f-7b642537e211","system_id":"levelo_inurba_marseille","lat":43.29374,"lon":5.37828,"is_reserved":false,"is_disabled":false,"rental_uris":{"android":"levelo://app?vid=1351611b-815c-405d-8b0f-7b642537e211","ios":"levelo://app?vid=1351611b-815c-405d-8b0f-7b642537e211"},"vehicle_type_id":"4","last_reported":1742051316,"current_range_meters":9600,"station_id":"ce4bgjh2rcd13ifvqbf0","pricing_plan_id":"cebpf4jnsgd1na2vs0mg"},{"bike_id":"92bd2e8f-197b-47ad-8530-ee4394b2ecce","system_id":"levelo_inurba_marseille","lat":43.24167,"lon":5.36403,"is_reserved":false,"is_disabled":false,"rental_uris":{"android":"levelo://app?vid=92bd2e8f-197b-47ad-8530-ee4394b2ecce","ios":"levelo://app?vid=92bd2e8f-197b-47ad-8530-ee4394b2ecce"},"vehicle_type_id":"4","last_reported":1742051316,"current_range_meters":9600,"station_id":"cpo36qri1sfpv3e86is0","pricing_plan_id":"cebpf4jnsgd1na2vs0mg"},{"bike_id":"a479ce67-eff7-41a8-9be1-436cb25c6ffd","system_id":"levelo_inurba_marseille","lat":43.27619,"lon":5.36106,"is_reserved":false,"is_disabled":false,"rental_uris":{"android":"levelo://app?vid=a479ce67-eff7-41a8-9be1-436cb25c6ffd","ios":"levelo://app?vid=a479ce67-eff7-41a8-9be1-436cb25c6ffd"},"vehicle_type_id":"4","last_reported":1742051316,"current_range_meters":9600,"station_id":"ce4bgj92rcd13ifvqbe0","pricing_plan_id":"cebpf4jnsgd1na2vs0mg"},{"bike_id":"cf2068be-199e-4332-9f65-ff7e1af72f54","system_id":"levelo_inurba_marseille","lat":43.31496,"lon":5.37312,"is_reserved":false,"is_disabled":false,"rental_uris":{"android":"levelo://app?vid=cf2068be-199e-4332-9f65-ff7e1af72f54","ios":"levelo://app?vid=cf2068be-199e-4332-9f65-ff7e1af72f54"},"vehicle_type_id":"4","last_reported":1742051316,"current_range_meters":9200,"station_id":"ce4bgt12rcd13ifvqcd0","pricing_plan_id":"cebpf4jnsgd1na2vs0mg"},{"bike_id":"86dab5c0-3a3b-4093-a57c-fc8adfcbf8c7","system_id":"levelo_inurba_marseille","lat":43.29725,"lon":5.37704,"is_reserved":false,"is_disabled":false,"rental_uris":{"android":"levelo://app?vid=86dab5c0-3a3b-4093-a57c-fc8adfcbf8c7","ios":"levelo://app?vid=86dab5c0-3a3b-4093-a57c-fc8adfcbf8c7"},"vehicle_type_id":"4","last_reported":1742051316,"current_range_meters":10000,"station_id":"ce4bgkh2rcd13ifvqbl0","pricing_plan_id":"cebpf4jnsgd1na2vs0mg"},{"bike_id":"34e9e697-ffec-4d84-beb9-0ca724397c49","system_id":"levelo_inurba_marseille","lat":43.29195,"lon":5.35803,"is_reserved":false,"is_disabled":false,"rental_uris":{"android":"levelo://app?vid=34e9e697-ffec-4d84-beb9-0ca724397c49","ios":"levelo://app?vid=34e9e697-ffec-4d84-beb9-0ca724397c49"},"vehicle_type_id":"4","last_reported":1742051316,"current_range_meters":10000,"station_id":"ce4bhb12rcd13ifvqel0","pricing_plan_id":"cebpf4jnsgd1na2vs0mg"},{"bike_id":"50c97caa-ca8a-4b03-99d5-4678c955e14d","system_id":"levelo_inurba_marseille","lat":43.24811,"lon":5.37451,"is_reserved":false,"is_disabled":false,"rental_uris":{"android":"levelo://app?vid=50c97caa-ca8a-4b03-99d5-4678c955e14d","ios":"levelo://app?vid=50c97caa-ca8a-4b03-99d5-4678c955e14d"},"vehicle_type_id":"4","last_reported":1742051316,"current_range_meters":10000,"station_id":"ce4bhgh2rcd13ifvqfb0","pricing_plan_id":"cebpf4jnsgd1na2vs0mg"},{"bike_id":"3034db0c-7cfa-4361-a8e5-85d8b0635402","system_id":"levelo_inurba_marseille","lat":43.23962,"lon":5.36632,"is_reserved":false,"is_disabled":false,"rental_uris":{"android":"levelo://app?vid=3034db0c-7cfa-4361-a8e5-85d8b0635402","ios":"levelo://app?vid=3034db0c-7cfa-4361-a8e5-85d8b0635402"},"vehicle_type_id":"4","last_reported":1742051316,"current_range_meters":10000,"station_id":"ce4bhi12rcd13ifvqfp0","pricing_plan_id":"cebpf4jnsgd1na2vs0mg"},{"bike_id":"d0915976-a2a8-41f1-a9d9-b0708b870040","system_id":"levelo_inurba_marseille","lat":43.23141,"lon":5.43737,"is_reserved":false,"is_disabled":false,"rental_uris":{"android":"levelo://app?vid=d0915976-a2a8-41f1-a9d9-b0708b870040","ios":"levelo://app?vid=d0915976-a2a8-41f1-a9d9-b0708b870040"},"vehicle_type_id":"4","last_reported":1742051316,"current_range_meters":10000,"station_id":"ce4bhmp2rcd13ifvqgog","pricing_plan_id":"cebpf4jnsgd1na2vs0mg"},{"bike_id":"49a173d9-c0ae-4f30-8906-a1ef20c838ce","system_id":"levelo_inurba_marseille","lat":43.29604,"lon":5.37708,"is_reserved":false,"is_disabled":false,"rental_uris":{"android":"levelo://app?vid=49a173d9-c0ae-4f30-8906-a1ef20c838ce","ios":"levelo://app?vid=49a173d9-c0ae-4f30-8906-a1ef20c838ce"},"vehicle_type_id":"4","last_reported":1742051316,"current_range_meters":10000,"station_id":"ce4bgi92rcd13ifvqb90","pricing_plan_id":"cebpf4jnsgd1na2vs0mg"},{"bike_id":"eee6e2be-1a24-49b4-b36c-de103f4cafb1","system_id":"levelo_inurba_marseille","lat":43.27378,"lon":5.3626,"is_reserved":false,"is_disabled":false,"rental_uris":{"android":"levelo://app?vid=eee6e2be-1a24-49b4-b36c-de103f4cafb1","ios":"levelo://app?vid=eee6e2be-1a24-49b4-b36c-de103f4cafb1"},"vehicle_type_id":"4","last_reported":1742051316,"current_range_meters":10000,"station_id":"ce4bhbh2rcd13ifvqeo0","pricing_plan_id":"cebpf4jnsgd1na2vs0mg"},{"bike_id":"efb53dda-871b-483c-8dec-e716116f9234","system_id":"levelo_inurba_marseille","lat":43.31055,"lon":5.36794,"is_reserved":false,"is_disabled":false,"rental_uris":{"android":"levelo://app?vid=efb53dda-871b-483c-8dec-e716116f9234","ios":"levelo://app?vid=efb53dda-871b-483c-8dec-e716116f9234"},"vehicle_type_id":"4","last_reported":1742051316,"current_range_meters":10000,"station_id":"","pricing_plan_id":"cebpf4jnsgd1na2vs0mg"},{"bike_id":"d37dbb01-c0ce-4c42-9640-fdc442539fc9","system_id":"levelo_inurba_marseille","lat":43.29741,"lon":5.37683,"is_reserved":false,"is_disabled":false,"rental_uris":{"android":"levelo://app?vid=d37dbb01-c0ce-4c42-9640-fdc442539fc9","ios":"levelo://app?vid=d37dbb01-c0ce-4c42-9640-fdc442539fc9"},"vehicle_type_id":"4","last_reported":1742051316,"current_range_meters":9600,"station_id":"ce4bgkh2rcd13ifvqbl0","pricing_plan_id":"cebpf4jnsgd1na2vs0mg"},{"bike_id":"fcd5baac-ff5e-4f9f-a7a5-0f797893b319","system_id":"levelo_inurba_marseille","lat":43.27177,"lon":5.40996,"is_reserved":false,"is_disabled":false,"rental_uris":{"android":"levelo://app?vid=fcd5baac-ff5e-4f9f-a7a5-0f797893b319","ios":"levelo://app?vid=fcd5baac-ff5e-4f9f-a7a5-0f797893b319"},"vehicle_type_id":"4","last_reported":1742051316,"current_range_meters":10000,"station_id":"ce4bhl12rcd13ifvqgf0","pricing_plan_id":"cebpf4jnsgd1na2vs0mg"},{"bike_id":"a20f1024-4c56-4a4b-a5b8-b8ab37bffeb0","system_id":"levelo_inurba_marseille","lat":43.28405,"lon":5.35006,"is_reserved":false,"is_disabled":false,"rental_uris":{"android":"levelo://app?vid=a20f1024-4c56-4a4b-a5b8-b8ab37bffeb0","ios":"levelo://app?vid=a20f1024-4c56-4a4b-a5b8-b8ab37bffeb0"},"vehicle_type_id":"4","last_reported":1742051316,"current_range_meters":10800,"station_id":"ce4bhbh2rcd13ifvqepg","pricing_plan_id":"cebpf4jnsgd1na2vs0mg"},{"bike_id":"92470e55-9ef4-4e62-8ace-777e6d5a53c4","system_id":"levelo_inurba_marseille","lat":43.2586,"lon":5.39908,"is_reserved":false,"is_disabled":false,"rental_uris":{"android":"levelo://app?vid=92470e55-9ef4-4e62-8ace-777e6d5a53c4","ios":"levelo://app?vid=92470e55-9ef4-4e62-8ace-777e6d5a53c4"},"vehicle_type_id":"4","last_reported":1742051316,"current_range_meters":10800,"station_id":"ce4bhl92rcd13ifvqghg","pricing_plan_id":"cebpf4jnsgd1na2vs0mg"},{"bike_id":"0b7bfdb8-fd03-4687-9225-8085184f929c","system_id":"levelo_inurba_marseille","lat":43.32369,"lon":5.36775,"is_reserved":false,"is_disabled":false,"rental_uris":{"android":"levelo://app?vid=0b7bfdb8-fd03-4687-9225-8085184f929c","ios":"levelo://app?vid=0b7bfdb8-fd03-4687-9225-8085184f929c"},"vehicle_type_id":"4","last_reported":1742051316,"current_range_meters":10800,"station_id":"ce4bhsh2rcd13ifvqi2g","pricing_plan_id":"cebpf4jnsgd1na2vs0mg"},{"bike_id":"abfad3b4-59df-4934-a470-b06a5ab9c802","system_id":"levelo_inurba_marseille","lat":43.295364,"lon":5.392359,"is_reserved":false,"is_disabled":false,"rental_uris":{"android":"levelo://app?vid=abfad3b4-59df-4934-a470-b06a5ab9c802","ios":"levelo://app?vid=abfad3b4-59df-4934-a470-b06a5ab9c802"},"vehicle_type_id":"4","last_reported":1742051316,"current_range_meters":10800,"station_id":"ce4bh3p2rcd13ifvqdp0","pricing_plan_id":"cebpf4jnsgd1na2vs0mg"},{"bike_id":"ebe432e9-6c28-4da9-a280-358952e1eab3","system_id":"levelo_inurba_marseille","lat":43.25114,"lon":5.40321,"is_reserved":false,"is_disabled":false,"rental_uris":{"android":"levelo://app?vid=ebe432e9-6c28-4da9-a280-358952e1eab3","ios":"levelo://app?vid=ebe432e9-6c28-4da9-a280-358952e1eab3"},"vehicle_type_id":"4","last_reported":1742051316,"current_range_meters":10800,"station_id":"ce4bhlh2rcd13ifvqgig","pricing_plan_id":"cebpf4jnsgd1na2vs0mg"},{"bike_id":"e52b41b5-52df-4c67-a85c-3cebb3bf7504","system_id":"levelo_inurba_marseille","lat":43.32351,"lon":5.36758,"is_reserved":false,"is_disabled":false,"rental_uris":{"android":"levelo://app?vid=e52b41b5-52df-4c67-a85c-3cebb3bf7504","ios":"levelo://app?vid=e52b41b5-52df-4c67-a85c-3cebb3bf7504"},"vehicle_type_id":"4","last_reported":1742051316,"current_range_meters":10800,"station_id":"ce4bhsh2rcd13ifvqi2g","pricing_plan_id":"cebpf4jnsgd1na2vs0mg"},{"bike_id":"910a8371-9a50-4c82-8084-91fe0969f39f","system_id":"levelo_inurba_marseille","lat":43.24068,"lon":5.37764,"is_reserved":false,"is_disabled":false,"rental_uris":{"android":"levelo://app?vid=910a8371-9a50-4c82-8084-91fe0969f39f","ios":"levelo://app?vid=910a8371-9a50-4c82-8084-91fe0969f39f"},"vehicle_type_id":"4","last_reported":1742051316,"current_range_meters":10800,"station_id":"ce4bhnp2rcd13ifvqgvg","pricing_plan_id":"cebpf4jnsgd1na2vs0mg"},{"bike_id":"83783ead-721f-4d82-86e9-a8ac641b2edd","system_id":"levelo_inurba_marseille","lat":43.26229,"lon":5.40457,"is_reserved":false,"is_disabled":false,"rental_uris":{"android":"levelo://app?vid=83783ead-721f-4d82-86e9-a8ac641b2edd","ios":"levelo://app?vid=83783ead-721f-4d82-86e9-a8ac641b2edd"},"vehicle_type_id":"4","last_reported":1742051316,"current_range_meters":10800,"station_id":"ce4bhmh2rcd13ifvqgmg","pricing_plan_id":"cebpf4jnsgd1na2vs0mg"},{"bike_id":"f4cb7dfd-b784-40f7-9055-71a06a653e6e","system_id":"levelo_inurba_marseille","lat":43.28481,"lon":5.38556,"is_reserved":false,"is_disabled":false,"rental_uris":{"android":"levelo://app?vid=f4cb7dfd-b784-40f7-9055-71a06a653e6e","ios":"levelo://app?vid=f4cb7dfd-b784-40f7-9055-71a06a653e6e"},"vehicle_type_id":"4","last_reported":1742051316,"current_range_meters":10000,"station_id":"ce4bh8p2rcd13ifvqeb0","pricing_plan_id":"cebpf4jnsgd1na2vs0mg"},{"bike_id":"e83f5b9c-616a-464d-b7f2-af12907baf0c","system_id":"levelo_inurba_marseille","lat":43.30934,"lon":5.40153,"is_reserved":false,"is_disabled":false,"rental_uris":{"android":"levelo://app?vid=e83f5b9c-616a-464d-b7f2-af12907baf0c","ios":"levelo://app?vid=e83f5b9c-616a-464d-b7f2-af12907baf0c"},"vehicle_type_id":"4","last_reported":1742051316,"current_range_meters":10800,"station_id":"ce4bgvp2rcd13ifvqct0","pricing_plan_id":"cebpf4jnsgd1na2vs0mg"},{"bike_id":"63d45bfe-5374-4fca-8f51-680ed6cce749","system_id":"levelo_inurba_marseille","lat":43.29623,"lon":5.37172,"is_reserved":false,"is_disabled":false,"rental_uris":{"android":"levelo://app?vid=63d45bfe-5374-4fca-8f51-680ed6cce749","ios":"levelo://app?vid=63d45bfe-5374-4fca-8f51-680ed6cce749"},"vehicle_type_id":"4","last_reported":1742051316,"current_range_meters":10800,"station_id":"ce4bgnh2rcd13ifvqc0g","pricing_plan_id":"cebpf4jnsgd1na2vs0mg"},{"bike_id":"7c5f1502-63c8-4daa-994a-c3d2258588bf","system_id":"levelo_inurba_marseille","lat":43.22933,"lon":5.35367,"is_reserved":false,"is_disabled":false,"rental_uris":{"android":"levelo://app?vid=7c5f1502-63c8-4daa-994a-c3d2258588bf","ios":"levelo://app?vid=7c5f1502-63c8-4daa-994a-c3d2258588bf"},"vehicle_type_id":"4","last_reported":1742051316,"current_range_meters":10800,"station_id":"cpo3532slgdg3j2ikp40","pricing_plan_id":"cebpf4jnsgd1na2vs0mg"},{"bike_id":"faa675c3-cf68-4dc8-b2fe-ab7c3c21c1b1","system_id":"levelo_inurba_marseille","lat":43.23192,"lon":5.35552,"is_reserved":false,"is_disabled":false,"rental_uris":{"android":"levelo://app?vid=faa675c3-cf68-4dc8-b2fe-ab7c3c21c1b1","ios":"levelo://app?vid=faa675c3-cf68-4dc8-b2fe-ab7c3c21c1b1"},"vehicle_type_id":"4","last_reported":1742051316,"current_range_meters":11200,"station_id":"ce4bhu92rcd13ifvqi70","pricing_plan_id":"cebpf4jnsgd1na2vs0mg"},{"bike_id":"9954dfb0-7ecf-43ca-8e5a-071412421302","system_id":"levelo_inurba_marseille","lat":43.23961,"lon":5.36652,"is_reserved":false,"is_disabled":false,"rental_uris":{"android":"levelo://app?vid=9954dfb0-7ecf-43ca-8e5a-071412421302","ios":"levelo://app?vid=9954dfb0-7ecf-43ca-8e5a-071412421302"},"vehicle_type_id":"4","last_reported":1742051316,"current_range_meters":11200,"station_id":"ce4bhi12rcd13ifvqfp0","pricing_plan_id":"cebpf4jnsgd1na2vs0mg"},{"bike_id":"cdd8ee5b-d9f6-465f-88df-4072fd4128c8","system_id":"levelo_inurba_marseille","lat":43.26355,"lon":5.37383,"is_reserved":false,"is_disabled":false,"rental_uris":{"android":"levelo://app?vid=cdd8ee5b-d9f6-465f-88df-4072fd4128c8","ios":"levelo://app?vid=cdd8ee5b-d9f6-465f-88df-4072fd4128c8"},"vehicle_type_id":"4","last_reported":1742051316,"current_range_meters":11600,"station_id":"ce4bhn12rcd13ifvqgqg","pricing_plan_id":"cebpf4jnsgd1na2vs0mg"},{"bike_id":"2edb918c-0a3e-4367-973c-4805a45b9252","system_id":"levelo_inurba_marseille","lat":43.29198,"lon":5.35809,"is_reserved":false,"is_disabled":false,"rental_uris":{"android":"levelo://app?vid=2edb918c-0a3e-4367-973c-4805a45b9252","ios":"levelo://app?vid=2edb918c-0a3e-4367-973c-4805a45b9252"},"vehicle_type_id":"4","last_reported":1742051316,"current_range_meters":11600,"station_id":"ce4bhb12rcd13ifvqel0","pricing_plan_id":"cebpf4jnsgd1na2vs0mg"},{"bike_id":"3d134b1a-4e23-4a19-9392-4c8851f28771","system_id":"levelo_inurba_marseille","lat":43.31168,"lon":5.3872,"is_reserved":false,"is_disabled":false,"rental_uris":{"android":"levelo://app?vid=3d134b1a-4e23-4a19-9392-4c8851f28771","ios":"levelo://app?vid=3d134b1a-4e23-4a19-9392-4c8851f28771"},"vehicle_type_id":"4","last_reported":1742051316,"current_range_meters":11200,"station_id":"ce4bgv12rcd13ifvqcp0","pricing_plan_id":"cebpf4jnsgd1na2vs0mg"},{"bike_id":"8ef3bd33-4588-4bf2-aac3-6b69436a10ca","system_id":"levelo_inurba_marseille","lat":43.2827,"lon":5.35067,"is_reserved":false,"is_disabled":false,"rental_uris":{"android":"levelo://app?vid=8ef3bd33-4588-4bf2-aac3-6b69436a10ca","ios":"levelo://app?vid=8ef3bd33-4588-4bf2-aac3-6b69436a10ca"},"vehicle_type_id":"4","last_reported":1742051316,"current_range_meters":11600,"station_id":"ce4bhbp2rcd13ifvqerg","pricing_plan_id":"cebpf4jnsgd1na2vs0mg"},{"bike_id":"905ce46d-4bfc-4980-a517-30f47f225c76","system_id":"levelo_inurba_marseille","lat":43.25583,"lon":5.38246,"is_reserved":false,"is_disabled":false,"rental_uris":{"android":"levelo://app?vid=905ce46d-4bfc-4980-a517-30f47f225c76","ios":"levelo://app?vid=905ce46d-4bfc-4980-a517-30f47f225c76"},"vehicle_type_id":"4","last_reported":1742051316,"current_range_meters":11600,"station_id":"ce4bhih2rcd13ifvqfs0","pricing_plan_id":"cebpf4jnsgd1na2vs0mg"},{"bike_id":"57f16d46-9a26-4a0f-bbd4-4019fba41bd5","system_id":"levelo_inurba_marseille","lat":43.23969,"lon":5.36627,"is_reserved":false,"is_disabled":false,"rental_uris":{"android":"levelo://app?vid=57f16d46-9a26-4a0f-bbd4-4019fba41bd5","ios":"levelo://app?vid=57f16d46-9a26-4a0f-bbd4-4019fba41bd5"},"vehicle_type_id":"4","last_reported":1742051316,"current_range_meters":11600,"station_id":"ce4bhi12rcd13ifvqfp0","pricing_plan_id":"cebpf4jnsgd1na2vs0mg"},{"bike_id":"9315083a-4c45-437a-afee-1d416eb69510","system_id":"levelo_inurba_marseille","lat":43.24079,"lon":5.37745,"is_reserved":false,"is_disabled":false,"rental_uris":{"android":"levelo://app?vid=9315083a-4c45-437a-afee-1d416eb69510","ios":"levelo://app?vid=9315083a-4c45-437a-afee-1d416eb69510"},"vehicle_type_id":"4","last_reported":1742051316,"current_range_meters":11600,"station_id":"ce4bhnp2rcd13ifvqgvg","pricing_plan_id":"cebpf4jnsgd1na2vs0mg"},{"bike_id":"560bcd64-baae-40ce-b412-6f853f093082","system_id":"levelo_inurba_marseille","lat":43.30532,"lon":5.36547,"is_reserved":false,"is_disabled":false,"rental_uris":{"android":"levelo://app?vid=560bcd64-baae-40ce-b412-6f853f093082","ios":"levelo://app?vid=560bcd64-baae-40ce-b412-6f853f093082"},"vehicle_type_id":"4","last_reported":1742051316,"current_range_meters":11600,"station_id":"ce4bgs12rcd13ifvqcag","pricing_plan_id":"cebpf4jnsgd1na2vs0mg"},{"bike_id":"39f977e6-b1a0-4f2d-9ed7-e6e8c24f566c","system_id":"levelo_inurba_marseille","lat":43.27989,"lon":5.40027,"is_reserved":false,"is_disabled":false,"rental_uris":{"android":"levelo://app?vid=39f977e6-b1a0-4f2d-9ed7-e6e8c24f566c","ios":"levelo://app?vid=39f977e6-b1a0-4f2d-9ed7-e6e8c24f566c"},"vehicle_type_id":"4","last_reported":1742051316,"current_range_meters":11600,"station_id":"ce4bho92rcd13ifvqh4g","pricing_plan_id":"cebpf4jnsgd1na2vs0mg"},{"bike_id":"1239b90a-3564-4dbb-8043-6c636e16f836","system_id":"levelo_inurba_marseille","lat":43.28369,"lon":5.3863,"is_reserved":false,"is_disabled":false,"rental_uris":{"android":"levelo://app?vid=1239b90a-3564-4dbb-8043-6c636e16f836","ios":"levelo://app?vid=1239b90a-3564-4dbb-8043-6c636e16f836"},"vehicle_type_id":"4","last_reported":1742051316,"current_range_meters":11200,"station_id":"ce4bh492rcd13ifvqdvg","pricing_plan_id":"cebpf4jnsgd1na2vs0mg"},{"bike_id":"35170032-9fbd-466b-b080-21388ed7720a","system_id":"levelo_inurba_marseille","lat":43.25107,"lon":5.39496,"is_reserved":false,"is_disabled":false,"rental_uris":{"android":"levelo://app?vid=35170032-9fbd-466b-b080-21388ed7720a","ios":"levelo://app?vid=35170032-9fbd-466b-b080-21388ed7720a"},"vehicle_type_id":"4","last_reported":1742051316,"current_range_meters":12000,"station_id":"ce4bhm12rcd13ifvqgkg","pricing_plan_id":"cebpf4jnsgd1na2vs0mg"},{"bike_id":"5f7f03a2-add7-44f0-9ebb-8428c5f0e58a","system_id":"levelo_inurba_marseille","lat":43.25938,"lon":5.40883,"is_reserved":false,"is_disabled":false,"rental_uris":{"android":"levelo://app?vid=5f7f03a2-add7-44f0-9ebb-8428c5f0e58a","ios":"levelo://app?vid=5f7f03a2-add7-44f0-9ebb-8428c5f0e58a"},"vehicle_type_id":"4","last_reported":1742051316,"current_range_meters":12000,"station_id":"ce4bhm92rcd13ifvqglg","pricing_plan_id":"cebpf4jnsgd1na2vs0mg"},{"bike_id":"3b004741-7683-4cd9-a9e4-276a9e3e0326","system_id":"levelo_inurba_marseille","lat":43.27626,"lon":5.36114,"is_reserved":false,"is_disabled":false,"rental_uris":{"android":"levelo://app?vid=3b004741-7683-4cd9-a9e4-276a9e3e0326","ios":"levelo://app?vid=3b004741-7683-4cd9-a9e4-276a9e3e0326"},"vehicle_type_id":"4","last_reported":1742051316,"current_range_meters":12000,"station_id":"ce4bgj92rcd13ifvqbe0","pricing_plan_id":"cebpf4jnsgd1na2vs0mg"},{"bike_id":"82fb0625-b33b-4d01-9f26-afaf0b9368eb","system_id":"levelo_inurba_marseille","lat":43.27374,"lon":5.36248,"is_reserved":false,"is_disabled":false,"rental_uris":{"android":"levelo://app?vid=82fb0625-b33b-4d01-9f26-afaf0b9368eb","ios":"levelo://app?vid=82fb0625-b33b-4d01-9f26-afaf0b9368eb"},"vehicle_type_id":"4","last_reported":1742051316,"current_range_meters":12000,"station_id":"ce4bhbh2rcd13ifvqeo0","pricing_plan_id":"cebpf4jnsgd1na2vs0mg"},{"bike_id":"6daab862-f420-4392-a0fa-b852e24dc7a0","system_id":"levelo_inurba_marseille","lat":43.30521,"lon":5.36537,"is_reserved":false,"is_disabled":false,"rental_uris":{"android":"levelo://app?vid=6daab862-f420-4392-a0fa-b852e24dc7a0","ios":"levelo://app?vid=6daab862-f420-4392-a0fa-b852e24dc7a0"},"vehicle_type_id":"4","last_reported":1742051316,"current_range_meters":12000,"station_id":"","pricing_plan_id":"cebpf4jnsgd1na2vs0mg"},{"bike_id":"d163084b-a5f9-4e7e-9f4f-c519bed54328","system_id":"levelo_inurba_marseille","lat":43.27686,"lon":5.38889,"is_reserved":false,"is_disabled":false,"rental_uris":{"android":"levelo://app?vid=d163084b-a5f9-4e7e-9f4f-c519bed54328","ios":"levelo://app?vid=d163084b-a5f9-4e7e-9f4f-c519bed54328"},"vehicle_type_id":"4","last_reported":1742051316,"current_range_meters":12000,"station_id":"ce4bhi12rcd13ifvqfo0","pricing_plan_id":"cebpf4jnsgd1na2vs0mg"},{"bike_id":"31710fca-ccfa-43a5-ac6f-5ec923018ebf","system_id":"levelo_inurba_marseille","lat":43.27412,"lon":5.42054,"is_reserved":false,"is_disabled":false,"rental_uris":{"android":"levelo://app?vid=31710fca-ccfa-43a5-ac6f-5ec923018ebf","ios":"levelo://app?vid=31710fca-ccfa-43a5-ac6f-5ec923018ebf"},"vehicle_type_id":"4","last_reported":1742051316,"current_range_meters":12000,"station_id":"","pricing_plan_id":"cebpf4jnsgd1na2vs0mg"},{"bike_id":"8f6510a4-3ec9-41f2-a24a-499bcfc6c763","system_id":"levelo_inurba_marseille","lat":43.28273,"lon":5.35068,"is_reserved":false,"is_disabled":false,"rental_uris":{"android":"levelo://app?vid=8f6510a4-3ec9-41f2-a24a-499bcfc6c763","ios":"levelo://app?vid=8f6510a4-3ec9-41f2-a24a-499bcfc6c763"},"vehicle_type_id":"4","last_reported":1742051316,"current_range_meters":12400,"station_id":"ce4bhbp2rcd13ifvqerg","pricing_plan_id":"cebpf4jnsgd1na2vs0mg"},{"bike_id":"e7044c81-758d-4e9a-8a15-ee5d07daad53","system_id":"levelo_inurba_marseille","lat":43.30906,"lon":5.36845,"is_reserved":false,"is_disabled":false,"rental_uris":{"android":"levelo://app?vid=e7044c81-758d-4e9a-8a15-ee5d07daad53","ios":"levelo://app?vid=e7044c81-758d-4e9a-8a15-ee5d07daad53"},"vehicle_type_id":"4","last_reported":1742051316,"current_range_meters":12400,"station_id":"ce4bgn92rcd13ifvqbvg","pricing_plan_id":"cebpf4jnsgd1na2vs0mg"},{"bike_id":"3f51f1f5-7a39-4364-adc9-c4c0ef6e90b0","system_id":"levelo_inurba_marseille","lat":43.28619,"lon":5.35092,"is_reserved":false,"is_disabled":false,"rental_uris":{"android":"levelo://app?vid=3f51f1f5-7a39-4364-adc9-c4c0ef6e90b0","ios":"levelo://app?vid=3f51f1f5-7a39-4364-adc9-c4c0ef6e90b0"},"vehicle_type_id":"4","last_reported":1742051316,"current_range_meters":12400,"station_id":"ce4bhch2rcd13ifvqeug","pricing_plan_id":"cebpf4jnsgd1na2vs0mg"},{"bike_id":"74a8a8c3-549d-40cf-be1a-87eb854df8ec","system_id":"levelo_inurba_marseille","lat":43.31483,"lon":5.37309,"is_reserved":false,"is_disabled":false,"rental_uris":{"android":"levelo://app?vid=74a8a8c3-549d-40cf-be1a-87eb854df8ec","ios":"levelo://app?vid=74a8a8c3-549d-40cf-be1a-87eb854df8ec"},"vehicle_type_id":"4","last_reported":1742051316,"current_range_meters":12400,"station_id":"ce4bgt12rcd13ifvqcd0","pricing_plan_id":"cebpf4jnsgd1na2vs0mg"},{"bike_id":"e2461e35-53b7-42f4-97f1-da527f694ed0","system_id":"levelo_inurba_marseille","lat":43.28416,"lon":5.34997,"is_reserved":false,"is_disabled":false,"rental_uris":{"android":"levelo://app?vid=e2461e35-53b7-42f4-97f1-da527f694ed0","ios":"levelo://app?vid=e2461e35-53b7-42f4-97f1-da527f694ed0"},"vehicle_type_id":"4","last_reported":1742051316,"current_range_meters":12400,"station_id":"ce4bhbh2rcd13ifvqepg","pricing_plan_id":"cebpf4jnsgd1na2vs0mg"},{"bike_id":"fc071de1-2cc0-488a-a43e-f8037a5a9a49","system_id":"levelo_inurba_marseille","lat":43.23071,"lon":5.35492,"is_reserved":false,"is_disabled":false,"rental_uris":{"android":"levelo://app?vid=fc071de1-2cc0-488a-a43e-f8037a5a9a49","ios":"levelo://app?vid=fc071de1-2cc0-488a-a43e-f8037a5a9a49"},"vehicle_type_id":"4","last_reported":1742051316,"current_range_meters":12800,"station_id":"cpo3342slgdg3j2ifvpg","pricing_plan_id":"cebpf4jnsgd1na2vs0mg"},{"bike_id":"95340558-b9ec-42a2-a0b7-35aab2987204","system_id":"levelo_inurba_marseille","lat":43.29972,"lon":5.38497,"is_reserved":false,"is_disabled":false,"rental_uris":{"android":"levelo://app?vid=95340558-b9ec-42a2-a0b7-35aab2987204","ios":"levelo://app?vid=95340558-b9ec-42a2-a0b7-35aab2987204"},"vehicle_type_id":"4","last_reported":1742051316,"current_range_meters":8800,"station_id":"ce4bgj92rcd13ifvqbd0","pricing_plan_id":"cebpf4jnsgd1na2vs0mg"},{"bike_id":"e1a19640-2229-4864-af61-53030af30065","system_id":"levelo_inurba_marseille","lat":43.276171,"lon":5.361055,"is_reserved":false,"is_disabled":false,"rental_uris":{"android":"levelo://app?vid=e1a19640-2229-4864-af61-53030af30065","ios":"levelo://app?vid=e1a19640-2229-4864-af61-53030af30065"},"vehicle_type_id":"4","last_reported":1742051316,"current_range_meters":12800,"station_id":"","pricing_plan_id":"cebpf4jnsgd1na2vs0mg"},{"bike_id":"307afcb7-c4e9-467a-979c-d8512329a071","system_id":"levelo_inurba_marseille","lat":43.29579,"lon":5.37517,"is_reserved":false,"is_disabled":false,"rental_uris":{"android":"levelo://app?vid=307afcb7-c4e9-467a-979c-d8512329a071","ios":"levelo://app?vid=307afcb7-c4e9-467a-979c-d8512329a071"},"vehicle_type_id":"4","last_reported":1742051316,"current_range_meters":12800,"station_id":"ce4bgh92rcd13ifvqb50","pricing_plan_id":"cebpf4jnsgd1na2vs0mg"},{"bike_id":"3a89315b-62de-4a2c-a0ba-c40dd86a913d","system_id":"levelo_inurba_marseille","lat":43.27057,"lon":5.40269,"is_reserved":false,"is_disabled":false,"rental_uris":{"android":"levelo://app?vid=3a89315b-62de-4a2c-a0ba-c40dd86a913d","ios":"levelo://app?vid=3a89315b-62de-4a2c-a0ba-c40dd86a913d"},"vehicle_type_id":"4","last_reported":1742051316,"current_range_meters":12800,"station_id":"ce4bhk92rcd13ifvqgc0","pricing_plan_id":"cebpf4jnsgd1na2vs0mg"},{"bike_id":"74f2950d-f639-4809-bff2-7e52cd116e06","system_id":"levelo_inurba_marseille","lat":43.23146,"lon":5.43739,"is_reserved":false,"is_disabled":false,"rental_uris":{"android":"levelo://app?vid=74f2950d-f639-4809-bff2-7e52cd116e06","ios":"levelo://app?vid=74f2950d-f639-4809-bff2-7e52cd116e06"},"vehicle_type_id":"4","last_reported":1742051316,"current_range_meters":13600,"station_id":"ce4bhmp2rcd13ifvqgog","pricing_plan_id":"cebpf4jnsgd1na2vs0mg"},{"bike_id":"0b6e9248-b0c5-4b6b-a42a-2c67e4840472","system_id":"levelo_inurba_marseille","lat":43.31696,"lon":5.40477,"is_reserved":false,"is_disabled":false,"rental_uris":{"android":"levelo://app?vid=0b6e9248-b0c5-4b6b-a42a-2c67e4840472","ios":"levelo://app?vid=0b6e9248-b0c5-4b6b-a42a-2c67e4840472"},"vehicle_type_id":"4","last_reported":1742051316,"current_range_meters":13600,"station_id":"ce4bh012rcd13ifvqd00","pricing_plan_id":"cebpf4jnsgd1na2vs0mg"},{"bike_id":"71b342b8-694b-40d5-99e8-310baf77a970","system_id":"levelo_inurba_marseille","lat":43.23057,"lon":5.35499,"is_reserved":false,"is_disabled":false,"rental_uris":{"android":"levelo://app?vid=71b342b8-694b-40d5-99e8-310baf77a970","ios":"levelo://app?vid=71b342b8-694b-40d5-99e8-310baf77a970"},"vehicle_type_id":"4","last_reported":1742051316,"current_range_meters":13600,"station_id":"cpo3342slgdg3j2ifvpg","pricing_plan_id":"cebpf4jnsgd1na2vs0mg"},{"bike_id":"90c707aa-0edc-4e94-a911-252e6bd4d4c2","system_id":"levelo_inurba_marseille","lat":43.28625,"lon":5.35124,"is_reserved":false,"is_disabled":false,"rental_uris":{"android":"levelo://app?vid=90c707aa-0edc-4e94-a911-252e6bd4d4c2","ios":"levelo://app?vid=90c707aa-0edc-4e94-a911-252e6bd4d4c2"},"vehicle_type_id":"4","last_reported":1742051316,"current_range_meters":13600,"station_id":"ce4bhch2rcd13ifvqeug","pricing_plan_id":"cebpf4jnsgd1na2vs0mg"},{"bike_id":"6becdc73-1f2f-49e5-87bb-00b9f502c5f4","system_id":"levelo_inurba_marseille","lat":43.29034,"lon":5.38634,"is_reserved":false,"is_disabled":false,"rental_uris":{"android":"levelo://app?vid=6becdc73-1f2f-49e5-87bb-00b9f502c5f4","ios":"levelo://app?vid=6becdc73-1f2f-49e5-87bb-00b9f502c5f4"},"vehicle_type_id":"4","last_reported":1742051316,"current_range_meters":12800,"station_id":"ce4bh4p2rcd13ifvqe0g","pricing_plan_id":"cebpf4jnsgd1na2vs0mg"},{"bike_id":"174c9c66-b172-484e-b7f9-5752aa18aabf","system_id":"levelo_inurba_marseille","lat":43.23063,"lon":5.35499,"is_reserved":false,"is_disabled":false,"rental_uris":{"android":"levelo://app?vid=174c9c66-b172-484e-b7f9-5752aa18aabf","ios":"levelo://app?vid=174c9c66-b172-484e-b7f9-5752aa18aabf"},"vehicle_type_id":"4","last_reported":1742051316,"current_range_meters":13600,"station_id":"cpo3342slgdg3j2ifvpg","pricing_plan_id":"cebpf4jnsgd1na2vs0mg"},{"bike_id":"e1bc5517-89cc-4fbd-afdb-e8d3c61b8e55","system_id":"levelo_inurba_marseille","lat":43.32361,"lon":5.36766,"is_reserved":false,"is_disabled":false,"rental_uris":{"android":"levelo://app?vid=e1bc5517-89cc-4fbd-afdb-e8d3c61b8e55","ios":"levelo://app?vid=e1bc5517-89cc-4fbd-afdb-e8d3c61b8e55"},"vehicle_type_id":"4","last_reported":1742051316,"current_range_meters":13600,"station_id":"ce4bhsh2rcd13ifvqi2g","pricing_plan_id":"cebpf4jnsgd1na2vs0mg"},{"bike_id":"c79bb127-8198-4096-96ea-1444569e00c1","system_id":"levelo_inurba_marseille","lat":43.23964,"lon":5.36627,"is_reserved":false,"is_disabled":true,"rental_uris":{"android":"levelo://app?vid=c79bb127-8198-4096-96ea-1444569e00c1","ios":"levelo://app?vid=c79bb127-8198-4096-96ea-1444569e00c1"},"vehicle_type_id":"4","last_reported":1742051316,"current_range_meters":13600,"station_id":"ce4bhi12rcd13ifvqfp0","pricing_plan_id":"cebpf4jnsgd1na2vs0mg"},{"bike_id":"0170e801-f8e6-4c91-af64-14c7162d0933","system_id":"levelo_inurba_marseille","lat":43.28416,"lon":5.34992,"is_reserved":false,"is_disabled":false,"rental_uris":{"android":"levelo://app?vid=0170e801-f8e6-4c91-af64-14c7162d0933","ios":"levelo://app?vid=0170e801-f8e6-4c91-af64-14c7162d0933"},"vehicle_type_id":"4","last_reported":1742051316,"current_range_meters":13600,"station_id":"ce4bhbh2rcd13ifvqepg","pricing_plan_id":"cebpf4jnsgd1na2vs0mg"},{"bike_id":"f42e61df-0c92-4397-ad99-358a466be3a4","system_id":"levelo_inurba_marseille","lat":43.23152,"lon":5.43699,"is_reserved":false,"is_disabled":false,"rental_uris":{"android":"levelo://app?vid=f42e61df-0c92-4397-ad99-358a466be3a4","ios":"levelo://app?vid=f42e61df-0c92-4397-ad99-358a466be3a4"},"vehicle_type_id":"4","last_reported":1742051316,"current_range_meters":13600,"station_id":"ce4bhmp2rcd13ifvqgog","pricing_plan_id":"cebpf4jnsgd1na2vs0mg"},{"bike_id":"6144d780-e005-4e1e-89a2-c8c45184763c","system_id":"levelo_inurba_marseille","lat":43.32996,"lon":5.39022,"is_reserved":false,"is_disabled":false,"rental_uris":{"android":"levelo://app?vid=6144d780-e005-4e1e-89a2-c8c45184763c","ios":"levelo://app?vid=6144d780-e005-4e1e-89a2-c8c45184763c"},"vehicle_type_id":"4","last_reported":1742051316,"current_range_meters":13600,"station_id":"ce4bhr92rcd13ifvqhrg","pricing_plan_id":"cebpf4jnsgd1na2vs0mg"},{"bike_id":"308caf01-1ffd-4b59-9b33-1a8cae2cad4b","system_id":"levelo_inurba_marseille","lat":43.24403,"lon":5.37044,"is_reserved":false,"is_disabled":false,"rental_uris":{"android":"levelo://app?vid=308caf01-1ffd-4b59-9b33-1a8cae2cad4b","ios":"levelo://app?vid=308caf01-1ffd-4b59-9b33-1a8cae2cad4b"},"vehicle_type_id":"4","last_reported":1742051316,"current_range_meters":13600,"station_id":"ce4bhhh2rcd13ifvqfk0","pricing_plan_id":"cebpf4jnsgd1na2vs0mg"},{"bike_id":"782efdaf-2c70-4dcb-9d72-72a66a298053","system_id":"levelo_inurba_marseille","lat":43.24803,"lon":5.37459,"is_reserved":false,"is_disabled":false,"rental_uris":{"android":"levelo://app?vid=782efdaf-2c70-4dcb-9d72-72a66a298053","ios":"levelo://app?vid=782efdaf-2c70-4dcb-9d72-72a66a298053"},"vehicle_type_id":"4","last_reported":1742051316,"current_range_meters":12800,"station_id":"ce4bhgh2rcd13ifvqfb0","pricing_plan_id":"cebpf4jnsgd1na2vs0mg"},{"bike_id":"e575db3f-3b41-48f7-b498-436430c540dd","system_id":"levelo_inurba_marseille","lat":43.26205,"lon":5.37931,"is_reserved":false,"is_disabled":false,"rental_uris":{"android":"levelo://app?vid=e575db3f-3b41-48f7-b498-436430c540dd","ios":"levelo://app?vid=e575db3f-3b41-48f7-b498-436430c540dd"},"vehicle_type_id":"4","last_reported":1742051316,"current_range_meters":13600,"station_id":"ce4bhjp2rcd13ifvqg90","pricing_plan_id":"cebpf4jnsgd1na2vs0mg"},{"bike_id":"a3ce399e-6803-44f4-a5da-ebc3a05bd7be","system_id":"levelo_inurba_marseille","lat":43.29271,"lon":5.42803,"is_reserved":false,"is_disabled":false,"rental_uris":{"android":"levelo://app?vid=a3ce399e-6803-44f4-a5da-ebc3a05bd7be","ios":"levelo://app?vid=a3ce399e-6803-44f4-a5da-ebc3a05bd7be"},"vehicle_type_id":"4","last_reported":1742051316,"current_range_meters":14000,"station_id":"","pricing_plan_id":"cebpf4jnsgd1na2vs0mg"},{"bike_id":"1a1a8af7-5554-4587-8740-b6c0b2ea931f","system_id":"levelo_inurba_marseille","lat":43.30801,"lon":5.38148,"is_reserved":false,"is_disabled":false,"rental_uris":{"android":"levelo://app?vid=1a1a8af7-5554-4587-8740-b6c0b2ea931f","ios":"levelo://app?vid=1a1a8af7-5554-4587-8740-b6c0b2ea931f"},"vehicle_type_id":"4","last_reported":1742051316,"current_range_meters":14000,"station_id":"ce4bgt12rcd13ifvqce0","pricing_plan_id":"cebpf4jnsgd1na2vs0mg"},{"bike_id":"084e9cd0-ba7b-4410-911b-bd29122b16f6","system_id":"levelo_inurba_marseille","lat":43.2417,"lon":5.36402,"is_reserved":false,"is_disabled":false,"rental_uris":{"android":"levelo://app?vid=084e9cd0-ba7b-4410-911b-bd29122b16f6","ios":"levelo://app?vid=084e9cd0-ba7b-4410-911b-bd29122b16f6"},"vehicle_type_id":"4","last_reported":1742051316,"current_range_meters":14000,"station_id":"cpo36qri1sfpv3e86is0","pricing_plan_id":"cebpf4jnsgd1na2vs0mg"},{"bike_id":"11504b91-1f7a-41c2-a37e-644662f5b476","system_id":"levelo_inurba_marseille","lat":43.23153,"lon":5.43721,"is_reserved":false,"is_disabled":false,"rental_uris":{"android":"levelo://app?vid=11504b91-1f7a-41c2-a37e-644662f5b476","ios":"levelo://app?vid=11504b91-1f7a-41c2-a37e-644662f5b476"},"vehicle_type_id":"4","last_reported":1742051316,"current_range_meters":14000,"station_id":"ce4bhmp2rcd13ifvqgog","pricing_plan_id":"cebpf4jnsgd1na2vs0mg"},{"bike_id":"00422631-b21c-4dac-a29a-41866e25cfad","system_id":"levelo_inurba_marseille","lat":43.24808,"lon":5.37461,"is_reserved":false,"is_disabled":false,"rental_uris":{"android":"levelo://app?vid=00422631-b21c-4dac-a29a-41866e25cfad","ios":"levelo://app?vid=00422631-b21c-4dac-a29a-41866e25cfad"},"vehicle_type_id":"4","last_reported":1742051316,"current_range_meters":14400,"station_id":"ce4bhgh2rcd13ifvqfb0","pricing_plan_id":"cebpf4jnsgd1na2vs0mg"},{"bike_id":"b279ee1f-5e84-4fc1-a5c3-0af16dc39bcb","system_id":"levelo_inurba_marseille","lat":43.292317,"lon":5.360701,"is_reserved":false,"is_disabled":false,"rental_uris":{"android":"levelo://app?vid=b279ee1f-5e84-4fc1-a5c3-0af16dc39bcb","ios":"levelo://app?vid=b279ee1f-5e84-4fc1-a5c3-0af16dc39bcb"},"vehicle_type_id":"4","last_reported":1742051316,"current_range_meters":14400,"station_id":"ce4bhbh2rcd13ifvqeqg","pricing_plan_id":"cebpf4jnsgd1na2vs0mg"},{"bike_id":"3be20453-c79d-4afe-94d9-791c7b756a71","system_id":"levelo_inurba_marseille","lat":43.2971,"lon":5.37705,"is_reserved":false,"is_disabled":false,"rental_uris":{"android":"levelo://app?vid=3be20453-c79d-4afe-94d9-791c7b756a71","ios":"levelo://app?vid=3be20453-c79d-4afe-94d9-791c7b756a71"},"vehicle_type_id":"4","last_reported":1742051316,"current_range_meters":14400,"station_id":"ce4bgkh2rcd13ifvqbl0","pricing_plan_id":"cebpf4jnsgd1na2vs0mg"},{"bike_id":"0162ff87-7148-49d2-82e1-db37eca7d49d","system_id":"levelo_inurba_marseille","lat":43.28612,"lon":5.35103,"is_reserved":false,"is_disabled":false,"rental_uris":{"android":"levelo://app?vid=0162ff87-7148-49d2-82e1-db37eca7d49d","ios":"levelo://app?vid=0162ff87-7148-49d2-82e1-db37eca7d49d"},"vehicle_type_id":"4","last_reported":1742051316,"current_range_meters":14400,"station_id":"ce4bhch2rcd13ifvqeug","pricing_plan_id":"cebpf4jnsgd1na2vs0mg"},{"bike_id":"efa182c5-e8bb-4316-9ac4-4d06270b10d4","system_id":"levelo_inurba_marseille","lat":43.32347,"lon":5.38914,"is_reserved":false,"is_disabled":false,"rental_uris":{"android":"levelo://app?vid=efa182c5-e8bb-4316-9ac4-4d06270b10d4","ios":"levelo://app?vid=efa182c5-e8bb-4316-9ac4-4d06270b10d4"},"vehicle_type_id":"4","last_reported":1742051316,"current_range_meters":14400,"station_id":"ce4bhqp2rcd13ifvqhog","pricing_plan_id":"cebpf4jnsgd1na2vs0mg"},{"bike_id":"d0bff684-0922-480c-98de-b8e40de2d062","system_id":"levelo_inurba_marseille","lat":43.29226,"lon":5.36075,"is_reserved":false,"is_disabled":false,"rental_uris":{"android":"levelo://app?vid=d0bff684-0922-480c-98de-b8e40de2d062","ios":"levelo://app?vid=d0bff684-0922-480c-98de-b8e40de2d062"},"vehicle_type_id":"4","last_reported":1742051316,"current_range_meters":14800,"station_id":"ce4bhbh2rcd13ifvqeqg","pricing_plan_id":"cebpf4jnsgd1na2vs0mg"},{"bike_id":"00a3d553-564d-4574-920d-54b58fcd2593","system_id":"levelo_inurba_marseille","lat":43.29226,"lon":5.36051,"is_reserved":false,"is_disabled":false,"rental_uris":{"android":"levelo://app?vid=00a3d553-564d-4574-920d-54b58fcd2593","ios":"levelo://app?vid=00a3d553-564d-4574-920d-54b58fcd2593"},"vehicle_type_id":"4","last_reported":1742051316,"current_range_meters":14800,"station_id":"ce4bhbh2rcd13ifvqeqg","pricing_plan_id":"cebpf4jnsgd1na2vs0mg"},{"bike_id":"f238c0df-d3c9-4577-a186-a5d3f05e229a","system_id":"levelo_inurba_marseille","lat":43.25831,"lon":5.39448,"is_reserved":false,"is_disabled":false,"rental_uris":{"android":"levelo://app?vid=f238c0df-d3c9-4577-a186-a5d3f05e229a","ios":"levelo://app?vid=f238c0df-d3c9-4577-a186-a5d3f05e229a"},"vehicle_type_id":"4","last_reported":1742051316,"current_range_meters":14800,"station_id":"ce4bhip2rcd13ifvqft0","pricing_plan_id":"cebpf4jnsgd1na2vs0mg"},{"bike_id":"21c8b71b-ac07-4a7c-a219-5c515dea6cd0","system_id":"levelo_inurba_marseille","lat":43.32336,"lon":5.40628,"is_reserved":false,"is_disabled":false,"rental_uris":{"android":"levelo://app?vid=21c8b71b-ac07-4a7c-a219-5c515dea6cd0","ios":"levelo://app?vid=21c8b71b-ac07-4a7c-a219-5c515dea6cd0"},"vehicle_type_id":"4","last_reported":1742051316,"current_range_meters":14400,"station_id":"ce4bhq92rcd13ifvqhjg","pricing_plan_id":"cebpf4jnsgd1na2vs0mg"},{"bike_id":"f709cb7e-4bd4-4503-ab85-447b0bd380b5","system_id":"levelo_inurba_marseille","lat":43.32331,"lon":5.38947,"is_reserved":false,"is_disabled":false,"rental_uris":{"android":"levelo://app?vid=f709cb7e-4bd4-4503-ab85-447b0bd380b5","ios":"levelo://app?vid=f709cb7e-4bd4-4503-ab85-447b0bd380b5"},"vehicle_type_id":"4","last_reported":1742051316,"current_range_meters":14800,"station_id":"ce4bhqp2rcd13ifvqhog","pricing_plan_id":"cebpf4jnsgd1na2vs0mg"},{"bike_id":"6a7dabf2-77ec-495a-b1a0-1a3de9a85b35","system_id":"levelo_inurba_marseille","lat":43.23148,"lon":5.43714,"is_reserved":false,"is_disabled":false,"rental_uris":{"android":"levelo://app?vid=6a7dabf2-77ec-495a-b1a0-1a3de9a85b35","ios":"levelo://app?vid=6a7dabf2-77ec-495a-b1a0-1a3de9a85b35"},"vehicle_type_id":"4","last_reported":1742051316,"current_range_meters":14400,"station_id":"ce4bhmp2rcd13ifvqgog","pricing_plan_id":"cebpf4jnsgd1na2vs0mg"},{"bike_id":"8c040b46-fae8-466e-b505-560ba2300a4e","system_id":"levelo_inurba_marseille","lat":43.2841,"lon":5.34994,"is_reserved":false,"is_disabled":false,"rental_uris":{"android":"levelo://app?vid=8c040b46-fae8-466e-b505-560ba2300a4e","ios":"levelo://app?vid=8c040b46-fae8-466e-b505-560ba2300a4e"},"vehicle_type_id":"4","last_reported":1742051316,"current_range_meters":14800,"station_id":"ce4bhbh2rcd13ifvqepg","pricing_plan_id":"cebpf4jnsgd1na2vs0mg"},{"bike_id":"b1749b95-948e-48a3-828f-fc1248c6d71c","system_id":"levelo_inurba_marseille","lat":43.23966,"lon":5.36635,"is_reserved":false,"is_disabled":false,"rental_uris":{"android":"levelo://app?vid=b1749b95-948e-48a3-828f-fc1248c6d71c","ios":"levelo://app?vid=b1749b95-948e-48a3-828f-fc1248c6d71c"},"vehicle_type_id":"4","last_reported":1742051316,"current_range_meters":14800,"station_id":"ce4bhi12rcd13ifvqfp0","pricing_plan_id":"cebpf4jnsgd1na2vs0mg"},{"bike_id":"75ec1a70-2d45-4639-8959-72a8b55a753a","system_id":"levelo_inurba_marseille","lat":43.26062,"lon":5.37924,"is_reserved":false,"is_disabled":false,"rental_uris":{"android":"levelo://app?vid=75ec1a70-2d45-4639-8959-72a8b55a753a","ios":"levelo://app?vid=75ec1a70-2d45-4639-8959-72a8b55a753a"},"vehicle_type_id":"4","last_reported":1742051316,"current_range_meters":14800,"station_id":"","pricing_plan_id":"cebpf4jnsgd1na2vs0mg"},{"bike_id":"fbd6bade-6e7b-4f78-8e48-965d7bdeccfa","system_id":"levelo_inurba_marseille","lat":43.2796,"lon":5.38665,"is_reserved":false,"is_disabled":false,"rental_uris":{"android":"levelo://app?vid=fbd6bade-6e7b-4f78-8e48-965d7bdeccfa","ios":"levelo://app?vid=fbd6bade-6e7b-4f78-8e48-965d7bdeccfa"},"vehicle_type_id":"4","last_reported":1742051316,"current_range_meters":15200,"station_id":"","pricing_plan_id":"cebpf4jnsgd1na2vs0mg"},{"bike_id":"25d0c1d8-6764-49ef-a6d8-1bed49df9fbd","system_id":"levelo_inurba_marseille","lat":43.25113,"lon":5.40331,"is_reserved":false,"is_disabled":false,"rental_uris":{"android":"levelo://app?vid=25d0c1d8-6764-49ef-a6d8-1bed49df9fbd","ios":"levelo://app?vid=25d0c1d8-6764-49ef-a6d8-1bed49df9fbd"},"vehicle_type_id":"4","last_reported":1742051316,"current_range_meters":15200,"station_id":"ce4bhlh2rcd13ifvqgig","pricing_plan_id":"cebpf4jnsgd1na2vs0mg"},{"bike_id":"2885af77-5903-4adc-8dfd-72f019bd263c","system_id":"levelo_inurba_marseille","lat":43.2862,"lon":5.35116,"is_reserved":false,"is_disabled":false,"rental_uris":{"android":"levelo://app?vid=2885af77-5903-4adc-8dfd-72f019bd263c","ios":"levelo://app?vid=2885af77-5903-4adc-8dfd-72f019bd263c"},"vehicle_type_id":"4","last_reported":1742051316,"current_range_meters":15200,"station_id":"ce4bhch2rcd13ifvqeug","pricing_plan_id":"cebpf4jnsgd1na2vs0mg"},{"bike_id":"99388530-3199-4a9b-85e9-15b56e29535b","system_id":"levelo_inurba_marseille","lat":43.31277,"lon":5.37321,"is_reserved":false,"is_disabled":false,"rental_uris":{"android":"levelo://app?vid=99388530-3199-4a9b-85e9-15b56e29535b","ios":"levelo://app?vid=99388530-3199-4a9b-85e9-15b56e29535b"},"vehicle_type_id":"4","last_reported":1742051316,"current_range_meters":16000,"station_id":"","pricing_plan_id":"cebpf4jnsgd1na2vs0mg"},{"bike_id":"67ca7154-5ce7-4bfd-a5d8-c4711c5cc893","system_id":"levelo_inurba_marseille","lat":43.26801,"lon":5.40225,"is_reserved":false,"is_disabled":false,"rental_uris":{"android":"levelo://app?vid=67ca7154-5ce7-4bfd-a5d8-c4711c5cc893","ios":"levelo://app?vid=67ca7154-5ce7-4bfd-a5d8-c4711c5cc893"},"vehicle_type_id":"4","last_reported":1742051316,"current_range_meters":15200,"station_id":"ce501612rcd8frsf0b60","pricing_plan_id":"cebpf4jnsgd1na2vs0mg"},{"bike_id":"713488da-5161-49f4-b40c-f705aad5b061","system_id":"levelo_inurba_marseille","lat":43.2979,"lon":5.38127,"is_reserved":false,"is_disabled":false,"rental_uris":{"android":"levelo://app?vid=713488da-5161-49f4-b40c-f705aad5b061","ios":"levelo://app?vid=713488da-5161-49f4-b40c-f705aad5b061"},"vehicle_type_id":"4","last_reported":1742051316,"current_range_meters":15200,"station_id":"ce4bgip2rcd13ifvqbb0","pricing_plan_id":"cebpf4jnsgd1na2vs0mg"},{"bike_id":"1d7f8ff5-bcc8-4b92-a03a-ea3818b4617e","system_id":"levelo_inurba_marseille","lat":43.29031,"lon":5.38682,"is_reserved":false,"is_disabled":true,"rental_uris":{"android":"levelo://app?vid=1d7f8ff5-bcc8-4b92-a03a-ea3818b4617e","ios":"levelo://app?vid=1d7f8ff5-bcc8-4b92-a03a-ea3818b4617e"},"vehicle_type_id":"4","last_reported":1742051316,"current_range_meters":16000,"station_id":"ce4bh4p2rcd13ifvqe0g","pricing_plan_id":"cebpf4jnsgd1na2vs0mg"},{"bike_id":"a241e9b0-d534-4bbc-a93c-dde9aa028964","system_id":"levelo_inurba_marseille","lat":43.281589,"lon":5.426443,"is_reserved":false,"is_disabled":false,"rental_uris":{"android":"levelo://app?vid=a241e9b0-d534-4bbc-a93c-dde9aa028964","ios":"levelo://app?vid=a241e9b0-d534-4bbc-a93c-dde9aa028964"},"vehicle_type_id":"4","last_reported":1742051316,"current_range_meters":15200,"station_id":"ce4bhnh2rcd13ifvqgug","pricing_plan_id":"cebpf4jnsgd1na2vs0mg"},{"bike_id":"4d20b878-6603-4328-ab6e-4a7ae0b08224","system_id":"levelo_inurba_marseille","lat":43.25932,"lon":5.40884,"is_reserved":false,"is_disabled":false,"rental_uris":{"android":"levelo://app?vid=4d20b878-6603-4328-ab6e-4a7ae0b08224","ios":"levelo://app?vid=4d20b878-6603-4328-ab6e-4a7ae0b08224"},"vehicle_type_id":"4","last_reported":1742051316,"current_range_meters":16000,"station_id":"ce4bhm92rcd13ifvqglg","pricing_plan_id":"cebpf4jnsgd1na2vs0mg"},{"bike_id":"9b58a3d5-5d1a-4b7b-bd03-4c18297d7097","system_id":"levelo_inurba_marseille","lat":43.29228,"lon":5.36067,"is_reserved":false,"is_disabled":false,"rental_uris":{"android":"levelo://app?vid=9b58a3d5-5d1a-4b7b-bd03-4c18297d7097","ios":"levelo://app?vid=9b58a3d5-5d1a-4b7b-bd03-4c18297d7097"},"vehicle_type_id":"4","last_reported":1742051316,"current_range_meters":16000,"station_id":"ce4bhbh2rcd13ifvqeqg","pricing_plan_id":"cebpf4jnsgd1na2vs0mg"},{"bike_id":"a122b918-db52-4ad1-8408-e98d2a755c3a","system_id":"levelo_inurba_marseille","lat":43.27615,"lon":5.36107,"is_reserved":false,"is_disabled":false,"rental_uris":{"android":"levelo://app?vid=a122b918-db52-4ad1-8408-e98d2a755c3a","ios":"levelo://app?vid=a122b918-db52-4ad1-8408-e98d2a755c3a"},"vehicle_type_id":"4","last_reported":1742051316,"current_range_meters":16000,"station_id":"ce4bgj92rcd13ifvqbe0","pricing_plan_id":"cebpf4jnsgd1na2vs0mg"},{"bike_id":"e047eb05-c84e-4eb9-a430-24d024850b6f","system_id":"levelo_inurba_marseille","lat":43.22939,"lon":5.35384,"is_reserved":false,"is_disabled":false,"rental_uris":{"android":"levelo://app?vid=e047eb05-c84e-4eb9-a430-24d024850b6f","ios":"levelo://app?vid=e047eb05-c84e-4eb9-a430-24d024850b6f"},"vehicle_type_id":"4","last_reported":1742051316,"current_range_meters":16000,"station_id":"cpo3532slgdg3j2ikp40","pricing_plan_id":"cebpf4jnsgd1na2vs0mg"},{"bike_id":"56be2d76-6527-485d-ab2c-e8e4dcd7e1a1","system_id":"levelo_inurba_marseille","lat":43.23162,"lon":5.43695,"is_reserved":false,"is_disabled":false,"rental_uris":{"android":"levelo://app?vid=56be2d76-6527-485d-ab2c-e8e4dcd7e1a1","ios":"levelo://app?vid=56be2d76-6527-485d-ab2c-e8e4dcd7e1a1"},"vehicle_type_id":"4","last_reported":1742051316,"current_range_meters":16000,"station_id":"ce4bhmp2rcd13ifvqgog","pricing_plan_id":"cebpf4jnsgd1na2vs0mg"},{"bike_id":"99c2d230-b794-4259-b025-8a2cd466930a","system_id":"levelo_inurba_marseille","lat":43.24676,"lon":5.38161,"is_reserved":false,"is_disabled":false,"rental_uris":{"android":"levelo://app?vid=99c2d230-b794-4259-b025-8a2cd466930a","ios":"levelo://app?vid=99c2d230-b794-4259-b025-8a2cd466930a"},"vehicle_type_id":"4","last_reported":1742051316,"current_range_meters":16000,"station_id":"ce4bhih2rcd13ifvqfr0","pricing_plan_id":"cebpf4jnsgd1na2vs0mg"},{"bike_id":"7099c38a-2986-4dc9-9398-307b562f7d30","system_id":"levelo_inurba_marseille","lat":43.25926,"lon":5.40881,"is_reserved":false,"is_disabled":false,"rental_uris":{"android":"levelo://app?vid=7099c38a-2986-4dc9-9398-307b562f7d30","ios":"levelo://app?vid=7099c38a-2986-4dc9-9398-307b562f7d30"},"vehicle_type_id":"4","last_reported":1742051316,"current_range_meters":16000,"station_id":"ce4bhm92rcd13ifvqglg","pricing_plan_id":"cebpf4jnsgd1na2vs0mg"},{"bike_id":"3c528f7f-712c-435c-b5d4-a5694a485d73","system_id":"levelo_inurba_marseille","lat":43.29895,"lon":5.43651,"is_reserved":false,"is_disabled":false,"rental_uris":{"android":"levelo://app?vid=3c528f7f-712c-435c-b5d4-a5694a485d73","ios":"levelo://app?vid=3c528f7f-712c-435c-b5d4-a5694a485d73"},"vehicle_type_id":"4","last_reported":1742051316,"current_range_meters":16000,"station_id":"ce4bhpp2rcd13ifvqhfg","pricing_plan_id":"cebpf4jnsgd1na2vs0mg"},{"bike_id":"d2ed37e2-9d32-4a6e-8667-c56e2bed4a05","system_id":"levelo_inurba_marseille","lat":43.29051,"lon":5.35909,"is_reserved":false,"is_disabled":false,"rental_uris":{"android":"levelo://app?vid=d2ed37e2-9d32-4a6e-8667-c56e2bed4a05","ios":"levelo://app?vid=d2ed37e2-9d32-4a6e-8667-c56e2bed4a05"},"vehicle_type_id":"4","last_reported":1742051316,"current_range_meters":15200,"station_id":"ce4bha92rcd13ifvqeg0","pricing_plan_id":"cebpf4jnsgd1na2vs0mg"},{"bike_id":"21ad9322-1064-49ce-881f-b98a92db1bc0","system_id":"levelo_inurba_marseille","lat":43.27404,"lon":5.39388,"is_reserved":false,"is_disabled":false,"rental_uris":{"android":"levelo://app?vid=21ad9322-1064-49ce-881f-b98a92db1bc0","ios":"levelo://app?vid=21ad9322-1064-49ce-881f-b98a92db1bc0"},"vehicle_type_id":"4","last_reported":1742051316,"current_range_meters":16000,"station_id":"ce4bhdp2rcd13ifvqf20","pricing_plan_id":"cebpf4jnsgd1na2vs0mg"},{"bike_id":"caee3f71-707e-4a68-929b-cb563db1af94","system_id":"levelo_inurba_marseille","lat":43.24398,"lon":5.37053,"is_reserved":false,"is_disabled":false,"rental_uris":{"android":"levelo://app?vid=caee3f71-707e-4a68-929b-cb563db1af94","ios":"levelo://app?vid=caee3f71-707e-4a68-929b-cb563db1af94"},"vehicle_type_id":"4","last_reported":1742051316,"current_range_meters":16000,"station_id":"ce4bhhh2rcd13ifvqfk0","pricing_plan_id":"cebpf4jnsgd1na2vs0mg"},{"bike_id":"aacdd55e-d0f4-46dc-a0b0-93c5e5d05def","system_id":"levelo_inurba_marseille","lat":43.24805,"lon":5.3745,"is_reserved":false,"is_disabled":false,"rental_uris":{"android":"levelo://app?vid=aacdd55e-d0f4-46dc-a0b0-93c5e5d05def","ios":"levelo://app?vid=aacdd55e-d0f4-46dc-a0b0-93c5e5d05def"},"vehicle_type_id":"4","last_reported":1742051316,"current_range_meters":16400,"station_id":"ce4bhgh2rcd13ifvqfb0","pricing_plan_id":"cebpf4jnsgd1na2vs0mg"},{"bike_id":"0fafc1ff-dab5-497a-a993-825898922239","system_id":"levelo_inurba_marseille","lat":43.28483,"lon":5.38564,"is_reserved":false,"is_disabled":false,"rental_uris":{"android":"levelo://app?vid=0fafc1ff-dab5-497a-a993-825898922239","ios":"levelo://app?vid=0fafc1ff-dab5-497a-a993-825898922239"},"vehicle_type_id":"4","last_reported":1742051316,"current_range_meters":16000,"station_id":"ce4bh8p2rcd13ifvqeb0","pricing_plan_id":"cebpf4jnsgd1na2vs0mg"},{"bike_id":"3e685809-8a98-470b-b8d1-c028716361a7","system_id":"levelo_inurba_marseille","lat":43.23972,"lon":5.36623,"is_reserved":false,"is_disabled":false,"rental_uris":{"android":"levelo://app?vid=3e685809-8a98-470b-b8d1-c028716361a7","ios":"levelo://app?vid=3e685809-8a98-470b-b8d1-c028716361a7"},"vehicle_type_id":"4","last_reported":1742051316,"current_range_meters":16400,"station_id":"ce4bhi12rcd13ifvqfp0","pricing_plan_id":"cebpf4jnsgd1na2vs0mg"},{"bike_id":"b881a216-a8e0-47ad-9c6d-ce879391627c","system_id":"levelo_inurba_marseille","lat":43.29946,"lon":5.36547,"is_reserved":false,"is_disabled":true,"rental_uris":{"android":"levelo://app?vid=b881a216-a8e0-47ad-9c6d-ce879391627c","ios":"levelo://app?vid=b881a216-a8e0-47ad-9c6d-ce879391627c"},"vehicle_type_id":"4","last_reported":1742051316,"current_range_meters":16400,"station_id":"ce4bgm92rcd13ifvqbr0","pricing_plan_id":"cebpf4jnsgd1na2vs0mg"},{"bike_id":"10a5dfbf-3aa3-4cf3-ac17-cd4d12fd6782","system_id":"levelo_inurba_marseille","lat":43.32357,"lon":5.36752,"is_reserved":false,"is_disabled":false,"rental_uris":{"android":"levelo://app?vid=10a5dfbf-3aa3-4cf3-ac17-cd4d12fd6782","ios":"levelo://app?vid=10a5dfbf-3aa3-4cf3-ac17-cd4d12fd6782"},"vehicle_type_id":"4","last_reported":1742051316,"current_range_meters":16400,"station_id":"ce4bhsh2rcd13ifvqi2g","pricing_plan_id":"cebpf4jnsgd1na2vs0mg"},{"bike_id":"997c059e-22e6-415e-81fe-9b79624cef2b","system_id":"levelo_inurba_marseille","lat":43.27316,"lon":5.39076,"is_reserved":false,"is_disabled":false,"rental_uris":{"android":"levelo://app?vid=997c059e-22e6-415e-81fe-9b79624cef2b","ios":"levelo://app?vid=997c059e-22e6-415e-81fe-9b79624cef2b"},"vehicle_type_id":"4","last_reported":1742051316,"current_range_meters":16400,"station_id":"ce4bhgp2rcd13ifvqfe0","pricing_plan_id":"cebpf4jnsgd1na2vs0mg"},{"bike_id":"61a0ca11-50f2-4ed0-b604-fb7d087acf3f","system_id":"levelo_inurba_marseille","lat":43.29005,"lon":5.3562,"is_reserved":false,"is_disabled":false,"rental_uris":{"android":"levelo://app?vid=61a0ca11-50f2-4ed0-b604-fb7d087acf3f","ios":"levelo://app?vid=61a0ca11-50f2-4ed0-b604-fb7d087acf3f"},"vehicle_type_id":"4","last_reported":1742051316,"current_range_meters":16400,"station_id":"ce4bhb92rcd13ifvqen0","pricing_plan_id":"cebpf4jnsgd1na2vs0mg"},{"bike_id":"be35cd0a-d434-4cec-9731-085508cb9d5a","system_id":"levelo_inurba_marseille","lat":43.28415,"lon":5.34981,"is_reserved":false,"is_disabled":false,"rental_uris":{"android":"levelo://app?vid=be35cd0a-d434-4cec-9731-085508cb9d5a","ios":"levelo://app?vid=be35cd0a-d434-4cec-9731-085508cb9d5a"},"vehicle_type_id":"4","last_reported":1742051316,"current_range_meters":16400,"station_id":"ce4bhbh2rcd13ifvqepg","pricing_plan_id":"cebpf4jnsgd1na2vs0mg"},{"bike_id":"81ee246f-1f57-4d9f-80d6-a6a8a0c42a0e","system_id":"levelo_inurba_marseille","lat":43.26207,"lon":5.3745,"is_reserved":false,"is_disabled":false,"rental_uris":{"android":"levelo://app?vid=81ee246f-1f57-4d9f-80d6-a6a8a0c42a0e","ios":"levelo://app?vid=81ee246f-1f57-4d9f-80d6-a6a8a0c42a0e"},"vehicle_type_id":"4","last_reported":1742051316,"current_range_meters":16400,"station_id":"ce4bhgp2rcd13ifvqfc0","pricing_plan_id":"cebpf4jnsgd1na2vs0mg"},{"bike_id":"77bdde11-b24a-4930-b5f2-7bcc8a4d68cc","system_id":"levelo_inurba_marseille","lat":43.29034,"lon":5.3865,"is_reserved":false,"is_disabled":false,"rental_uris":{"android":"levelo://app?vid=77bdde11-b24a-4930-b5f2-7bcc8a4d68cc","ios":"levelo://app?vid=77bdde11-b24a-4930-b5f2-7bcc8a4d68cc"},"vehicle_type_id":"4","last_reported":1742051316,"current_range_meters":16000,"station_id":"ce4bgrh2rcd13ifvqc8g","pricing_plan_id":"cebpf4jnsgd1na2vs0mg"},{"bike_id":"367a93f1-2455-4ee1-8373-710a7500fb5b","system_id":"levelo_inurba_marseille","lat":43.23965,"lon":5.36637,"is_reserved":false,"is_disabled":false,"rental_uris":{"android":"levelo://app?vid=367a93f1-2455-4ee1-8373-710a7500fb5b","ios":"levelo://app?vid=367a93f1-2455-4ee1-8373-710a7500fb5b"},"vehicle_type_id":"4","last_reported":1742051316,"current_range_meters":16400,"station_id":"ce4bhi12rcd13ifvqfp0","pricing_plan_id":"cebpf4jnsgd1na2vs0mg"},{"bike_id":"0da1c770-5687-4af1-9877-11ab2a164fbc","system_id":"levelo_inurba_marseille","lat":43.2827,"lon":5.35085,"is_reserved":false,"is_disabled":false,"rental_uris":{"android":"levelo://app?vid=0da1c770-5687-4af1-9877-11ab2a164fbc","ios":"levelo://app?vid=0da1c770-5687-4af1-9877-11ab2a164fbc"},"vehicle_type_id":"4","last_reported":1742051316,"current_range_meters":16400,"station_id":"ce4bhbp2rcd13ifvqerg","pricing_plan_id":"cebpf4jnsgd1na2vs0mg"},