{"last_updated":1739632138,"ttl":60,"version":"2.2","data":{"bikes":[{"bike_id":"10875ff8-5ed1-47b6-aec5-6146ee62670c","system_id":"levelo_inurba_marseille","lat":43.28863,"lon":5.35847,"is_reserved":false,"is_disabled":false,"rental_uris":{"android":"levelo://app?vid=10875ff8-5ed1-47b6-aec5-6146ee62670c","ios":"levelo://app?vid=10875ff8-5ed1-47b6-aec5-6146ee62670c"},"vehicle_type_id":"4","last_reported":1739632138,"current_range_meters":24000,"station_id":"ce4bhb12rcd13ifvqem0","pricing_plan_id":"cebpf4jnsgd1na2vs0mg"},{"bike_id":"b1589c62-efb6-4964-ade1-e2ad8e9b6ead","system_id":"levelo_inurba_marseille","lat":43.23141,"lon":5.43713,"is_reserved":false,"is_disabled":true,"rental_uris":{"android":"levelo://app?vid=b1589c62-efb6-4964-ade1-e2ad8e9b6ead","ios":"levelo://app?vid=b1589c62-efb6-4964-ade1-e2ad8e9b6ead"},"vehicle_type_id":"4","last_reported":1739632138,"current_range_meters":1600,"station_id":"ce4bhmp2rcd13ifvqgog","pricing_plan_id":"cebpf4jnsgd1na2vs0mg"},{"bike_id":"36afe8ad-90c7-46c3-931b-44b8cd5ad9d4","system_id":"levelo_inurba_marseille","lat":43.29252,"lon":5.38437,"is_reserved":false,"is_disabled":true,"rental_uris":{"android":"levelo://app?vid=36afe8ad-90c7-46c3-931b-44b8cd5ad9d4","ios":"levelo://app?vid=36afe8ad-90c7-46c3-931b-44b8cd5ad9d4"},"vehicle_type_id":"4","last_reported":1739632138,"current_range_meters":10800,"station_id":"ce4bh692rcd13ifvqea0","pricing_plan_id":"cebpf4jnsgd1na2vs0mg"},{"bike_id":"314ecb77-8b90-4fdb-aaf3-bbba8b437b8a","system_id":"levelo_inurba_marseille","lat":43.2908,"lon":5.38022,"is_reserved":false,"is_disabled":false,"rental_uris":{"android":"levelo://app?vid=314ecb77-8b90-4fdb-aaf3-bbba8b437b8a","ios":"levelo://app?vid=314ecb77-8b90-4fdb-aaf3-bbba8b437b8a"},"vehicle_type_id":"4","last_reported":1739632138,"current_range_meters":8400,"station_id":"","pricing_plan_id":"cebpf4jnsgd1na2vs0mg"},{"bike_id":"8b6abb34-00fa-4d4c-96d9-ab8d9072a112","system_id":"levelo_inurba_marseille","lat":43.28616,"lon":5.35099,"is_reserved":false,"is_disabled":false,"rental_uris":{"android":"levelo://app?vid=8b6abb34-00fa-4d4c-96d9-ab8d9072a112","ios":"levelo://app?vid=8b6abb34-00fa-4d4c-96d9-ab8d9072a112"},"vehicle_type_id":"4","last_reported":1739632138,"current_range_meters":36800,"station_id":"ce4bhch2rcd13ifvqeug","pricing_plan_id":"cebpf4jnsgd1na2vs0mg"},{"bike_id":"ebf8377f-c311-4825-9b97-c6280c2187cb","system_id":"levelo_inurba_marseille","lat":43.25869,"lon":5.39908,"is_reserved":false,"is_disabled":false,"rental_uris":{"android":"levelo://app?vid=ebf8377f-c311-4825-9b97-c6280c2187cb","ios":"levelo://app?vid=ebf8377f-c311-4825-9b97-c6280c2187cb"},"vehicle_type_id":"4","last_reported":1739632138,"current_range_meters":39200,"station_id":"ce4bhl92rcd13ifvqghg","pricing_plan_id":"cebpf4jnsgd1na2vs0mg"},{"bike_id":"aeeb603c-9e21-471f-a3b4-471a46d5c228","system_id":"levelo_inurba_marseille","lat":43.24169,"lon":5.3639,"is_reserved":false,"is_disabled":false,"rental_uris":{"android":"levelo://app?vid=aeeb603c-9e21-471f-a3b4-471a46d5c228","ios":"levelo://app?vid=aeeb603c-9e21-471f-a3b4-471a46d5c228"},"vehicle_type_id":"4","last_reported":1739632138,"current_range_meters":16800,"station_id":"cpo36qri1sfpv3e86is0","pricing_plan_id":"cebpf4jnsgd1na2vs0mg"},{"bike_id":"1d4165b9-e8af-42e7-8e88-54a0f84b4f26","system_id":"levelo_inurba_marseille","lat":43.23185,"lon":5.3998,"is_reserved":false,"is_disabled":false,"rental_uris":{"android":"levelo://app?vid=1d4165b9-e8af-42e7-8e88-54a0f84b4f26","ios":"levelo://app?vid=1d4165b9-e8af-42e7-8e88-54a0f84b4f26"},"vehicle_type_id":"4","last_reported":1739632138,"current_range_meters":25200,"station_id":"ce4bhn12rcd13ifvqgqg","pricing_plan_id":"cebpf4jnsgd1na2vs0mg"},{"bike_id":"c1e76274-801b-4893-b793-e635178d8b86","system_id":"levelo_inurba_marseille","lat":43.23977,"lon":5.36606,"is_reserved":false,"is_disabled":false,"rental_uris":{"android":"levelo://app?vid=c1e76274-801b-4893-b793-e635178d8b86","ios":"levelo://app?vid=c1e76274-801b-4893-b793-e635178d8b86"},"vehicle_type_id":"4","last_reported":1739632138,"current_range_meters":37600,"station_id":"ce4bhi12rcd13ifvqfp0","pricing_plan_id":"cebpf4jnsgd1na2vs0mg"},{"bike_id":"8249d982-238a-4b8b-9e10-8dd9a4d45dc6","system_id":"levelo_inurba_marseille","lat":43.28477,"lon":5.38428,"is_reserved":false,"is_disabled":false,"rental_uris":{"android":"levelo://app?vid=8249d982-238a-4b8b-9e10-8dd9a4d45dc6","ios":"levelo://app?vid=8249d982-238a-4b8b-9e10-8dd9a4d45dc6"},"vehicle_type_id":"4","last_reported":1739632138,"current_range_meters":6400,"station_id":"ce4bh512rcd13ifvqe3g","pricing_plan_id":"cebpf4jnsgd1na2vs0mg"},{"bike_id":"484527d8-0820-40f5-8186-1686fa6584d4","system_id":"levelo_inurba_marseille","lat":43.28286,"lon":5.35076,"is_reserved":false,"is_disabled":false,"rental_uris":{"android":"levelo://app?vid=484527d8-0820-40f5-8186-1686fa6584d4","ios":"levelo://app?vid=484527d8-0820-40f5-8186-1686fa6584d4"},"vehicle_type_id":"4","last_reported":1739632138,"current_range_meters":38800,"station_id":"ce4bhbp2rcd13ifvqerg","pricing_plan_id":"cebpf4jnsgd1na2vs0mg"},{"bike_id":"c74f8124-73dc-4bd8-a98e-9fa42c510bc4","system_id":"levelo_inurba_marseille","lat":43.23179,"lon":5.39993,"is_reserved":false,"is_disabled":false,"rental_uris":{"android":"levelo://app?vid=c74f8124-73dc-4bd8-a98e-9fa42c510bc4","ios":"levelo://app?vid=c74f8124-73dc-4bd8-a98e-9fa42c510bc4"},"vehicle_type_id":"4","last_reported":1739632138,"current_range_meters":24800,"station_id":"ce4bhn12rcd13ifvqgqg","pricing_plan_id":"cebpf4jnsgd1na2vs0mg"},{"bike_id":"0feaf618-5612-41ff-a41f-8ab7905e4356","system_id":"levelo_inurba_marseille","lat":43.29196,"lon":5.35808,"is_reserved":false,"is_disabled":false,"rental_uris":{"android":"levelo://app?vid=0feaf618-5612-41ff-a41f-8ab7905e4356","ios":"levelo://app?vid=0feaf618-5612-41ff-a41f-8ab7905e4356"},"vehicle_type_id":"4","last_reported":1739632138,"current_range_meters":32000,"station_id":"ce4bhb12rcd13ifvqel0","pricing_plan_id":"cebpf4jnsgd1na2vs0mg"},{"bike_id":"c7322498-81a4-46c8-b4c9-ec796bfac1e6","system_id":"levelo_inurba_marseille","lat":43.24175,"lon":5.36396,"is_reserved":false,"is_disabled":false,"rental_uris":{"android":"levelo://app?vid=c7322498-81a4-46c8-b4c9-ec796bfac1e6","ios":"levelo://app?vid=c7322498-81a4-46c8-b4c9-ec796bfac1e6"},"vehicle_type_id":"4","last_reported":1739632138,"current_range_meters":38800,"station_id":"cpo36qri1sfpv3e86is0","pricing_plan_id":"cebpf4jnsgd1na2vs0mg"},{"bike_id":"5d2484e8-d08f-4bba-ae77-36cb31e97e9b","system_id":"levelo_inurba_marseille","lat":43.2955,"lon":5.42259,"is_reserved":false,"is_disabled":false,"rental_uris":{"android":"levelo://app?vid=5d2484e8-d08f-4bba-ae77-36cb31e97e9b","ios":"levelo://app?vid=5d2484e8-d08f-4bba-ae77-36cb31e97e9b"},"vehicle_type_id":"4","last_reported":1739632138,"current_range_meters":38800,"station_id":"ce4bhph2rcd13ifvqhdg","pricing_plan_id":"cebpf4jnsgd1na2vs0mg"},{"bike_id":"6b42f4f1-2360-420a-81a5-fa8f868ac30d","system_id":"levelo_inurba_marseille","lat":43.27166,"lon":5.39009,"is_reserved":false,"is_disabled":false,"rental_uris":{"android":"levelo://app?vid=6b42f4f1-2360-420a-81a5-fa8f868ac30d","ios":"levelo://app?vid=6b42f4f1-2360-420a-81a5-fa8f868ac30d"},"vehicle_type_id":"4","last_reported":1739632138,"current_range_meters":32800,"station_id":"","pricing_plan_id":"cebpf4jnsgd1na2vs0mg"},{"bike_id":"7d466ec5-8f36-4cc5-b050-0c720b664a1d","system_id":"levelo_inurba_marseille","lat":43.28933,"lon":5.36395,"is_reserved":false,"is_disabled":false,"rental_uris":{"android":"levelo://app?vid=7d466ec5-8f36-4cc5-b050-0c720b664a1d","ios":"levelo://app?vid=7d466ec5-8f36-4cc5-b050-0c720b664a1d"},"vehicle_type_id":"4","last_reported":1739632138,"current_range_meters":28000,"station_id":"ce4bhc92rcd13ifvqetg","pricing_plan_id":"cebpf4jnsgd1na2vs0mg"},{"bike_id":"8b47b8ed-f5fd-45ae-91e0-282a389915aa","system_id":"levelo_inurba_marseille","lat":43.29215,"lon":5.359844,"is_reserved":false,"is_disabled":false,"rental_uris":{"android":"levelo://app?vid=8b47b8ed-f5fd-45ae-91e0-282a389915aa","ios":"levelo://app?vid=8b47b8ed-f5fd-45ae-91e0-282a389915aa"},"vehicle_type_id":"4","last_reported":1739632138,"current_range_meters":38800,"station_id":"ce4bhbh2rcd13ifvqeqg","pricing_plan_id":"cebpf4jnsgd1na2vs0mg"},{"bike_id":"da91f2ff-201c-47ad-8d0a-7a000b9ffeb3","system_id":"levelo_inurba_marseille","lat":43.267822,"lon":5.394137,"is_reserved":false,"is_disabled":false,"rental_uris":{"android":"levelo://app?vid=da91f2ff-201c-47ad-8d0a-7a000b9ffeb3","ios":"levelo://app?vid=da91f2ff-201c-47ad-8d0a-7a000b9ffeb3"},"vehicle_type_id":"4","last_reported":1739632138,"current_range_meters":26000,"station_id":"ce4bhh12rcd13ifvqfg0","pricing_plan_id":"cebpf4jnsgd1na2vs0mg"},{"bike_id":"b34c6303-752a-46a1-93ad-ddbc991e20b6","system_id":"levelo_inurba_marseille","lat":43.23058,"lon":5.35489,"is_reserved":false,"is_disabled":false,"rental_uris":{"android":"levelo://app?vid=b34c6303-752a-46a1-93ad-ddbc991e20b6","ios":"levelo://app?vid=b34c6303-752a-46a1-93ad-ddbc991e20b6"},"vehicle_type_id":"4","last_reported":1739632138,"current_range_meters":37600,"station_id":"cpo3342slgdg3j2ifvpg","pricing_plan_id":"cebpf4jnsgd1na2vs0mg"},{"bike_id":"bd1de527-06ba-42ac-8627-166ed3dd1b5e","system_id":"levelo_inurba_marseille","lat":43.33756,"lon":5.37414,"is_reserved":false,"is_disabled":false,"rental_uris":{"android":"levelo://app?vid=bd1de527-06ba-42ac-8627-166ed3dd1b5e","ios":"levelo://app?vid=bd1de527-06ba-42ac-8627-166ed3dd1b5e"},"vehicle_type_id":"4","last_reported":1739632138,"current_range_meters":15200,"station_id":"","pricing_plan_id":"cebpf4jnsgd1na2vs0mg"},{"bike_id":"13856255-e8d0-4425-a0f9-aa1e73314bb9","system_id":"levelo_inurba_marseille","lat":43.27942,"lon":5.41059,"is_reserved":false,"is_disabled":false,"rental_uris":{"android":"levelo://app?vid=13856255-e8d0-4425-a0f9-aa1e73314bb9","ios":"levelo://app?vid=13856255-e8d0-4425-a0f9-aa1e73314bb9"},"vehicle_type_id":"4","last_reported":1739632138,"current_range_meters":3600,"station_id":"ce4bhnp2rcd13ifvqh0g","pricing_plan_id":"cebpf4jnsgd1na2vs0mg"},{"bike_id":"4a0e3dd1-de81-4518-8df5-c19a2d4ea0aa","system_id":"levelo_inurba_marseille","lat":43.30861,"lon":5.37586,"is_reserved":false,"is_disabled":false,"rental_uris":{"android":"levelo://app?vid=4a0e3dd1-de81-4518-8df5-c19a2d4ea0aa","ios":"levelo://app?vid=4a0e3dd1-de81-4518-8df5-c19a2d4ea0aa"},"vehicle_type_id":"4","last_reported":1739632138,"current_range_meters":28800,"station_id":"","pricing_plan_id":"cebpf4jnsgd1na2vs0mg"},{"bike_id":"c976ea39-e87a-4a66-9b6b-2b3f26a04951","system_id":"levelo_inurba_marseille","lat":43.32103,"lon":5.36767,"is_reserved":false,"is_disabled":false,"rental_uris":{"android":"levelo://app?vid=c976ea39-e87a-4a66-9b6b-2b3f26a04951","ios":"levelo://app?vid=c976ea39-e87a-4a66-9b6b-2b3f26a04951"},"vehicle_type_id":"4","last_reported":1739632138,"current_range_meters":38800,"station_id":"ce4bhrh2rcd13ifvqhug","pricing_plan_id":"cebpf4jnsgd1na2vs0mg"},{"bike_id":"996e0e62-a5a3-4869-8d9b-7d6802600e5a","system_id":"levelo_inurba_marseille","lat":43.26049,"lon":5.39399,"is_reserved":false,"is_disabled":false,"rental_uris":{"android":"levelo://app?vid=996e0e62-a5a3-4869-8d9b-7d6802600e5a","ios":"levelo://app?vid=996e0e62-a5a3-4869-8d9b-7d6802600e5a"},"vehicle_type_id":"4","last_reported":1739632138,"current_range_meters":29600,"station_id":"ce4bhh92rcd13ifvqfj0","pricing_plan_id":"cebpf4jnsgd1na2vs0mg"},{"bike_id":"9b2c19a5-3bd2-4af3-8a1a-995fc3f0bfd1","system_id":"levelo_inurba_marseille","lat":43.24385,"lon":5.37067,"is_reserved":false,"is_disabled":false,"rental_uris":{"android":"levelo://app?vid=9b2c19a5-3bd2-4af3-8a1a-995fc3f0bfd1","ios":"levelo://app?vid=9b2c19a5-3bd2-4af3-8a1a-995fc3f0bfd1"},"vehicle_type_id":"4","last_reported":1739632138,"current_range_meters":30800,"station_id":"ce4bhhh2rcd13ifvqfk0","pricing_plan_id":"cebpf4jnsgd1na2vs0mg"},{"bike_id":"27feb435-c99b-4f80-867b-2866d50d7db7","system_id":"levelo_inurba_marseille","lat":43.23063,"lon":5.35502,"is_reserved":false,"is_disabled":false,"rental_uris":{"android":"levelo://app?vid=27feb435-c99b-4f80-867b-2866d50d7db7","ios":"levelo://app?vid=27feb435-c99b-4f80-867b-2866d50d7db7"},"vehicle_type_id":"4","last_reported":1739632138,"current_range_meters":19600,"station_id":"cpo3342slgdg3j2ifvpg","pricing_plan_id":"cebpf4jnsgd1na2vs0mg"},{"bike_id":"5ac1b3e9-6624-4bab-a598-45ab544a1b2f","system_id":"levelo_inurba_marseille","lat":43.2667,"lon":5.38251,"is_reserved":false,"is_disabled":false,"rental_uris":{"android":"levelo://app?vid=5ac1b3e9-6624-4bab-a598-45ab544a1b2f","ios":"levelo://app?vid=5ac1b3e9-6624-4bab-a598-45ab544a1b2f"},"vehicle_type_id":"4","last_reported":1739632138,"current_range_meters":8400,"station_id":"ce4bhg92rcd13ifvqf90","pricing_plan_id":"cebpf4jnsgd1na2vs0mg"},{"bike_id":"455ed62d-5da4-406d-b5ce-d2448a3eeffa","system_id":"levelo_inurba_marseille","lat":43.31225,"lon":5.36889,"is_reserved":false,"is_disabled":false,"rental_uris":{"android":"levelo://app?vid=455ed62d-5da4-406d-b5ce-d2448a3eeffa","ios":"levelo://app?vid=455ed62d-5da4-406d-b5ce-d2448a3eeffa"},"vehicle_type_id":"4","last_reported":1739632138,"current_range_meters":28400,"station_id":"ce4bgl92rcd13ifvqbq0","pricing_plan_id":"cebpf4jnsgd1na2vs0mg"},{"bike_id":"1f0657bb-7196-41de-84fc-c834bbf90b28","system_id":"levelo_inurba_marseille","lat":43.28079,"lon":5.39665,"is_reserved":false,"is_disabled":true,"rental_uris":{"android":"levelo://app?vid=1f0657bb-7196-41de-84fc-c834bbf90b28","ios":"levelo://app?vid=1f0657bb-7196-41de-84fc-c834bbf90b28"},"vehicle_type_id":"4","last_reported":1739632138,"current_range_meters":36000,"station_id":"ce4bho12rcd13ifvqh2g","pricing_plan_id":"cebpf4jnsgd1na2vs0mg"},{"bike_id":"4085957e-a34f-48ec-8023-d0e7a9e56b71","system_id":"levelo_inurba_marseille","lat":43.23059,"lon":5.3548,"is_reserved":false,"is_disabled":false,"rental_uris":{"android":"levelo://app?vid=4085957e-a34f-48ec-8023-d0e7a9e56b71","ios":"levelo://app?vid=4085957e-a34f-48ec-8023-d0e7a9e56b71"},"vehicle_type_id":"4","last_reported":1739632138,"current_range_meters":38800,"station_id":"cpo3342slgdg3j2ifvpg","pricing_plan_id":"cebpf4jnsgd1na2vs0mg"},{"bike_id":"85c83b81-dcc5-4add-8e2e-5e8285eefde3","system_id":"levelo_inurba_marseille","lat":43.29215,"lon":5.36037,"is_reserved":false,"is_disabled":false,"rental_uris":{"android":"levelo://app?vid=85c83b81-dcc5-4add-8e2e-5e8285eefde3","ios":"levelo://app?vid=85c83b81-dcc5-4add-8e2e-5e8285eefde3"},"vehicle_type_id":"4","last_reported":1739632138,"current_range_meters":34000,"station_id":"ce4bhbh2rcd13ifvqeqg","pricing_plan_id":"cebpf4jnsgd1na2vs0mg"},{"bike_id":"eb76b568-2c76-47ff-9c1c-4d8d8150add3","system_id":"levelo_inurba_marseille","lat":43.26937,"lon":5.4025,"is_reserved":false,"is_disabled":false,"rental_uris":{"android":"levelo://app?vid=eb76b568-2c76-47ff-9c1c-4d8d8150add3","ios":"levelo://app?vid=eb76b568-2c76-47ff-9c1c-4d8d8150add3"},"vehicle_type_id":"4","last_reported":1739632138,"current_range_meters":32800,"station_id":"cjm6bp8fraef2m0cb0m0","pricing_plan_id":"cebpf4jnsgd1na2vs0mg"},{"bike_id":"a422c461-92a6-4632-9acb-761556b4e936","system_id":"levelo_inurba_marseille","lat":43.27061,"lon":5.40266,"is_reserved":false,"is_disabled":false,"rental_uris":{"android":"levelo://app?vid=a422c461-92a6-4632-9acb-761556b4e936","ios":"levelo://app?vid=a422c461-92a6-4632-9acb-761556b4e936"},"vehicle_type_id":"4","last_reported":1739632138,"current_range_meters":10800,"station_id":"ce4bhk92rcd13ifvqgc0","pricing_plan_id":"cebpf4jnsgd1na2vs0mg"},{"bike_id":"66c29fd4-3841-4c9c-8562-b24915bedad8","system_id":"levelo_inurba_marseille","lat":43.28617,"lon":5.35108,"is_reserved":false,"is_disabled":false,"rental_uris":{"android":"levelo://app?vid=66c29fd4-3841-4c9c-8562-b24915bedad8","ios":"levelo://app?vid=66c29fd4-3841-4c9c-8562-b24915bedad8"},"vehicle_type_id":"4","last_reported":1739632138,"current_range_meters":38800,"station_id":"ce4bhch2rcd13ifvqeug","pricing_plan_id":"cebpf4jnsgd1na2vs0mg"},{"bike_id":"ae5fef56-5863-4d4b-a1a7-4181deb667e6","system_id":"levelo_inurba_marseille","lat":43.264812,"lon":5.373092,"is_reserved":false,"is_disabled":false,"rental_uris":{"android":"levelo://app?vid=ae5fef56-5863-4d4b-a1a7-4181deb667e6","ios":"levelo://app?vid=ae5fef56-5863-4d4b-a1a7-4181deb667e6"},"vehicle_type_id":"4","last_reported":1739632138,"current_range_meters":8000,"station_id":"","pricing_plan_id":"cebpf4jnsgd1na2vs0mg"},{"bike_id":"4cfea5fc-2761-4c31-8abe-6dda3c86b5ab","system_id":"levelo_inurba_marseille","lat":43.2894,"lon":5.36396,"is_reserved":false,"is_disabled":false,"rental_uris":{"android":"levelo://app?vid=4cfea5fc-2761-4c31-8abe-6dda3c86b5ab","ios":"levelo://app?vid=4cfea5fc-2761-4c31-8abe-6dda3c86b5ab"},"vehicle_type_id":"4","last_reported":1739632138,"current_range_meters":32400,"station_id":"ce4bhc92rcd13ifvqetg","pricing_plan_id":"cebpf4jnsgd1na2vs0mg"},{"bike_id":"f92e748a-9f9b-4e54-8084-07e33515f3d5","system_id":"levelo_inurba_marseille","lat":43.27071,"lon":5.39347,"is_reserved":false,"is_disabled":true,"rental_uris":{"android":"levelo://app?vid=f92e748a-9f9b-4e54-8084-07e33515f3d5","ios":"levelo://app?vid=f92e748a-9f9b-4e54-8084-07e33515f3d5"},"vehicle_type_id":"4","last_reported":1739632138,"current_range_meters":0,"station_id":"","pricing_plan_id":"cebpf4jnsgd1na2vs0mg"},{"bike_id":"d08e85da-8116-4619-ad82-771deb872efd","system_id":"levelo_inurba_marseille","lat":43.28455,"lon":5.35887,"is_reserved":false,"is_disabled":false,"rental_uris":{"android":"levelo://app?vid=d08e85da-8116-4619-ad82-771deb872efd","ios":"levelo://app?vid=d08e85da-8116-4619-ad82-771deb872efd"},"vehicle_type_id":"4","last_reported":1739632138,"current_range_meters":38400,"station_id":"ce4bhah2rcd13ifvqei0","pricing_plan_id":"cebpf4jnsgd1na2vs0mg"},{"bike_id":"06a5a914-5089-4985-b24e-89242b63024a","system_id":"levelo_inurba_marseille","lat":43.29522,"lon":5.39047,"is_reserved":false,"is_disabled":false,"rental_uris":{"android":"levelo://app?vid=06a5a914-5089-4985-b24e-89242b63024a","ios":"levelo://app?vid=06a5a914-5089-4985-b24e-89242b63024a"},"vehicle_type_id":"4","last_reported":1739632138,"current_range_meters":36000,"station_id":"ce4bh3p2rcd13ifvqdp0","pricing_plan_id":"cebpf4jnsgd1na2vs0mg"},{"bike_id":"6b291aa8-b83c-4cef-9883-156906af533b","system_id":"levelo_inurba_marseille","lat":43.27068,"lon":5.40259,"is_reserved":false,"is_disabled":false,"rental_uris":{"android":"levelo://app?vid=6b291aa8-b83c-4cef-9883-156906af533b","ios":"levelo://app?vid=6b291aa8-b83c-4cef-9883-156906af533b"},"vehicle_type_id":"4","last_reported":1739632138,"current_range_meters":8800,"station_id":"ce4bhk92rcd13ifvqgc0","pricing_plan_id":"cebpf4jnsgd1na2vs0mg"},{"bike_id":"cd1b225c-970a-4888-be4e-5cb0af2ecc20","system_id":"levelo_inurba_marseille","lat":43.2656,"lon":5.38988,"is_reserved":false,"is_disabled":false,"rental_uris":{"android":"levelo://app?vid=cd1b225c-970a-4888-be4e-5cb0af2ecc20","ios":"levelo://app?vid=cd1b225c-970a-4888-be4e-5cb0af2ecc20"},"vehicle_type_id":"4","last_reported":1739632138,"current_range_meters":6800,"station_id":"ce4bhe12rcd13ifvqf30","pricing_plan_id":"cebpf4jnsgd1na2vs0mg"},{"bike_id":"7952817a-f953-4777-b984-7a113c67295e","system_id":"levelo_inurba_marseille","lat":43.2693,"lon":5.40241,"is_reserved":false,"is_disabled":false,"rental_uris":{"android":"levelo://app?vid=7952817a-f953-4777-b984-7a113c67295e","ios":"levelo://app?vid=7952817a-f953-4777-b984-7a113c67295e"},"vehicle_type_id":"4","last_reported":1739632138,"current_range_meters":34800,"station_id":"cjm6bp8fraef2m0cb0m0","pricing_plan_id":"cebpf4jnsgd1na2vs0mg"},{"bike_id":"cd73739e-6850-4923-81be-52053efe4bcd","system_id":"levelo_inurba_marseille","lat":43.28617,"lon":5.35119,"is_reserved":false,"is_disabled":false,"rental_uris":{"android":"levelo://app?vid=cd73739e-6850-4923-81be-52053efe4bcd","ios":"levelo://app?vid=cd73739e-6850-4923-81be-52053efe4bcd"},"vehicle_type_id":"4","last_reported":1739632138,"current_range_meters":26000,"station_id":"ce4bhch2rcd13ifvqeug","pricing_plan_id":"cebpf4jnsgd1na2vs0mg"},{"bike_id":"9cf8e6d9-67b8-441b-8ab4-08ef8560d2b0","system_id":"levelo_inurba_marseille","lat":43.33514,"lon":5.35585,"is_reserved":false,"is_disabled":true,"rental_uris":{"android":"levelo://app?vid=9cf8e6d9-67b8-441b-8ab4-08ef8560d2b0","ios":"levelo://app?vid=9cf8e6d9-67b8-441b-8ab4-08ef8560d2b0"},"vehicle_type_id":"4","last_reported":1739632138,"current_range_meters":0,"station_id":"","pricing_plan_id":"cebpf4jnsgd1na2vs0mg"},{"bike_id":"ee2e37a9-ab36-4b1a-8eaa-4c8902753e41","system_id":"levelo_inurba_marseille","lat":43.30799,"lon":5.38158,"is_reserved":false,"is_disabled":false,"rental_uris":{"android":"levelo://app?vid=ee2e37a9-ab36-4b1a-8eaa-4c8902753e41","ios":"levelo://app?vid=ee2e37a9-ab36-4b1a-8eaa-4c8902753e41"},"vehicle_type_id":"4","last_reported":1739632138,"current_range_meters":28800,"station_id":"ce4bgt12rcd13ifvqce0","pricing_plan_id":"cebpf4jnsgd1na2vs0mg"},{"bike_id":"afcc6e58-2565-4278-9956-e1816da8d33b","system_id":"levelo_inurba_marseille","lat":43.29972,"lon":5.38487,"is_reserved":false,"is_disabled":false,"rental_uris":{"android":"levelo://app?vid=afcc6e58-2565-4278-9956-e1816da8d33b","ios":"levelo://app?vid=afcc6e58-2565-4278-9956-e1816da8d33b"},"vehicle_type_id":"4","last_reported":1739632138,"current_range_meters":7200,"station_id":"ce4bgj92rcd13ifvqbd0","pricing_plan_id":"cebpf4jnsgd1na2vs0mg"},{"bike_id":"e85cd3a3-9d1a-437f-8cc9-3d2678ae13b3","system_id":"levelo_inurba_marseille","lat":43.26194,"lon":5.37463,"is_reserved":false,"is_disabled":false,"rental_uris":{"android":"levelo://app?vid=e85cd3a3-9d1a-437f-8cc9-3d2678ae13b3","ios":"levelo://app?vid=e85cd3a3-9d1a-437f-8cc9-3d2678ae13b3"},"vehicle_type_id":"4","last_reported":1739632138,"current_range_meters":17200,"station_id":"ce4bhgp2rcd13ifvqfc0","pricing_plan_id":"cebpf4jnsgd1na2vs0mg"},{"bike_id":"e83052d3-f834-4153-8159-6b1789775035","system_id":"levelo_inurba_marseille","lat":43.27369,"lon":5.36242,"is_reserved":false,"is_disabled":false,"rental_uris":{"android":"levelo://app?vid=e83052d3-f834-4153-8159-6b1789775035","ios":"levelo://app?vid=e83052d3-f834-4153-8159-6b1789775035"},"vehicle_type_id":"4","last_reported":1739632138,"current_range_meters":23200,"station_id":"ce4bhbh2rcd13ifvqeo0","pricing_plan_id":"cebpf4jnsgd1na2vs0mg"},{"bike_id":"811b63d6-9c3c-4b06-849e-3b400f65e795","system_id":"levelo_inurba_marseille","lat":43.246517,"lon":5.388881,"is_reserved":false,"is_disabled":false,"rental_uris":{"android":"levelo://app?vid=811b63d6-9c3c-4b06-849e-3b400f65e795","ios":"levelo://app?vid=811b63d6-9c3c-4b06-849e-3b400f65e795"},"vehicle_type_id":"4","last_reported":1739632138,"current_range_meters":10000,"station_id":"ce4bhg12rcd13ifvqf60","pricing_plan_id":"cebpf4jnsgd1na2vs0mg"},{"bike_id":"1446b2d7-4f4a-4c39-b3fa-33760d7fadfd","system_id":"levelo_inurba_marseille","lat":43.2768,"lon":5.38877,"is_reserved":false,"is_disabled":false,"rental_uris":{"android":"levelo://app?vid=1446b2d7-4f4a-4c39-b3fa-33760d7fadfd","ios":"levelo://app?vid=1446b2d7-4f4a-4c39-b3fa-33760d7fadfd"},"vehicle_type_id":"4","last_reported":1739632138,"current_range_meters":12800,"station_id":"ce4bhi12rcd13ifvqfo0","pricing_plan_id":"cebpf4jnsgd1na2vs0mg"},{"bike_id":"802a448c-de1b-42dc-9c21-98125d5e9bce","system_id":"levelo_inurba_marseille","lat":43.27613,"lon":5.36123,"is_reserved":false,"is_disabled":false,"rental_uris":{"android":"levelo://app?vid=802a448c-de1b-42dc-9c21-98125d5e9bce","ios":"levelo://app?vid=802a448c-de1b-42dc-9c21-98125d5e9bce"},"vehicle_type_id":"4","last_reported":1739632138,"current_range_meters":20800,"station_id":"ce4bgj92rcd13ifvqbe0","pricing_plan_id":"cebpf4jnsgd1na2vs0mg"},{"bike_id":"51ab7186-5043-4bed-baca-73708608a302","system_id":"levelo_inurba_marseille","lat":43.29584,"lon":5.37026,"is_reserved":false,"is_disabled":true,"rental_uris":{"android":"levelo://app?vid=51ab7186-5043-4bed-baca-73708608a302","ios":"levelo://app?vid=51ab7186-5043-4bed-baca-73708608a302"},"vehicle_type_id":"4","last_reported":1739632138,"current_range_meters":0,"station_id":"","pricing_plan_id":"cebpf4jnsgd1na2vs0mg"},{"bike_id":"eef2db03-76fe-4555-92b2-30d158dd6e1c","system_id":"levelo_inurba_marseille","lat":43.28276,"lon":5.35073,"is_reserved":false,"is_disabled":false,"rental_uris":{"android":"levelo://app?vid=eef2db03-76fe-4555-92b2-30d158dd6e1c","ios":"levelo://app?vid=eef2db03-76fe-4555-92b2-30d158dd6e1c"},"vehicle_type_id":"4","last_reported":1739632138,"current_range_meters":16800,"station_id":"ce4bhbp2rcd13ifvqerg","pricing_plan_id":"cebpf4jnsgd1na2vs0mg"},{"bike_id":"9fdb08b8-1ceb-474a-abf2-04c699884b4a","system_id":"levelo_inurba_marseille","lat":43.23195,"lon":5.35542,"is_reserved":false,"is_disabled":false,"rental_uris":{"android":"levelo://app?vid=9fdb08b8-1ceb-474a-abf2-04c699884b4a","ios":"levelo://app?vid=9fdb08b8-1ceb-474a-abf2-04c699884b4a"},"vehicle_type_id":"4","last_reported":1739632138,"current_range_meters":38800,"station_id":"ce4bhu92rcd13ifvqi70","pricing_plan_id":"cebpf4jnsgd1na2vs0mg"},{"bike_id":"1c320471-4448-4783-8e10-921312f08c93","system_id":"levelo_inurba_marseille","lat":43.28419,"lon":5.34977,"is_reserved":false,"is_disabled":false,"rental_uris":{"android":"levelo://app?vid=1c320471-4448-4783-8e10-921312f08c93","ios":"levelo://app?vid=1c320471-4448-4783-8e10-921312f08c93"},"vehicle_type_id":"4","last_reported":1739632138,"current_range_meters":27600,"station_id":"ce4bhbh2rcd13ifvqepg","pricing_plan_id":"cebpf4jnsgd1na2vs0mg"},{"bike_id":"8691c17d-836c-47cd-9e2a-09cf1406b8ec","system_id":"levelo_inurba_marseille","lat":43.24066,"lon":5.37765,"is_reserved":false,"is_disabled":false,"rental_uris":{"android":"levelo://app?vid=8691c17d-836c-47cd-9e2a-09cf1406b8ec","ios":"levelo://app?vid=8691c17d-836c-47cd-9e2a-09cf1406b8ec"},"vehicle_type_id":"4","last_reported":1739632138,"current_range_meters":9600,"station_id":"ce4bhnp2rcd13ifvqgvg","pricing_plan_id":"cebpf4jnsgd1na2vs0mg"},{"bike_id":"5fbe50a8-885b-4657-b77c-df4181249707","system_id":"levelo_inurba_marseille","lat":43.300768,"lon":5.404926,"is_reserved":false,"is_disabled":false,"rental_uris":{"android":"levelo://app?vid=5fbe50a8-885b-4657-b77c-df4181249707","ios":"levelo://app?vid=5fbe50a8-885b-4657-b77c-df4181249707"},"vehicle_type_id":"4","last_reported":1739632138,"current_range_meters":33600,"station_id":"","pricing_plan_id":"cebpf4jnsgd1na2vs0mg"},{"bike_id":"c40e2cb9-b89c-4dbd-956b-535ef79f1d37","system_id":"levelo_inurba_marseille","lat":43.24823,"lon":5.3745,"is_reserved":false,"is_disabled":false,"rental_uris":{"android":"levelo://app?vid=c40e2cb9-b89c-4dbd-956b-535ef79f1d37","ios":"levelo://app?vid=c40e2cb9-b89c-4dbd-956b-535ef79f1d37"},"vehicle_type_id":"4","last_reported":1739632138,"current_range_meters":24000,"station_id":"ce4bhgh2rcd13ifvqfb0","pricing_plan_id":"cebpf4jnsgd1na2vs0mg"},{"bike_id":"f99c34c0-2c5a-45bb-ab65-c6411605a743","system_id":"levelo_inurba_marseille","lat":43.29041,"lon":5.3592,"is_reserved":false,"is_disabled":false,"rental_uris":{"android":"levelo://app?vid=f99c34c0-2c5a-45bb-ab65-c6411605a743","ios":"levelo://app?vid=f99c34c0-2c5a-45bb-ab65-c6411605a743"},"vehicle_type_id":"4","last_reported":1739632138,"current_range_meters":36000,"station_id":"ce4bha92rcd13ifvqeg0","pricing_plan_id":"cebpf4jnsgd1na2vs0mg"},{"bike_id":"e6feca4f-d732-4037-a47e-a8299f1fba58","system_id":"levelo_inurba_marseille","lat":43.24165,"lon":5.36392,"is_reserved":false,"is_disabled":false,"rental_uris":{"android":"levelo://app?vid=e6feca4f-d732-4037-a47e-a8299f1fba58","ios":"levelo://app?vid=e6feca4f-d732-4037-a47e-a8299f1fba58"},"vehicle_type_id":"4","last_reported":1739632138,"current_range_meters":19200,"station_id":"cpo36qri1sfpv3e86is0","pricing_plan_id":"cebpf4jnsgd1na2vs0mg"},{"bike_id":"ef0ea1d3-81f8-4ef5-bb7e-9b2b2829821c","system_id":"levelo_inurba_marseille","lat":43.30885,"lon":5.39658,"is_reserved":false,"is_disabled":false,"rental_uris":{"android":"levelo://app?vid=ef0ea1d3-81f8-4ef5-bb7e-9b2b2829821c","ios":"levelo://app?vid=ef0ea1d3-81f8-4ef5-bb7e-9b2b2829821c"},"vehicle_type_id":"4","last_reported":1739632138,"current_range_meters":26000,"station_id":"ce4bh012rcd13ifvqcv0","pricing_plan_id":"cebpf4jnsgd1na2vs0mg"},{"bike_id":"acb44724-4345-4854-85c0-ea9f022059bb","system_id":"levelo_inurba_marseille","lat":43.24804,"lon":5.37449,"is_reserved":false,"is_disabled":false,"rental_uris":{"android":"levelo://app?vid=acb44724-4345-4854-85c0-ea9f022059bb","ios":"levelo://app?vid=acb44724-4345-4854-85c0-ea9f022059bb"},"vehicle_type_id":"4","last_reported":1739632138,"current_range_meters":39200,"station_id":"ce4bhgh2rcd13ifvqfb0","pricing_plan_id":"cebpf4jnsgd1na2vs0mg"},{"bike_id":"4afd05b5-41e1-4012-b907-304d88773920","system_id":"levelo_inurba_marseille","lat":43.23963,"lon":5.36638,"is_reserved":false,"is_disabled":false,"rental_uris":{"android":"levelo://app?vid=4afd05b5-41e1-4012-b907-304d88773920","ios":"levelo://app?vid=4afd05b5-41e1-4012-b907-304d88773920"},"vehicle_type_id":"4","last_reported":1739632138,"current_range_meters":38800,"station_id":"ce4bhi12rcd13ifvqfp0","pricing_plan_id":"cebpf4jnsgd1na2vs0mg"},{"bike_id":"67095dd8-663e-4d8c-8fb2-f5bd2e567ff7","system_id":"levelo_inurba_marseille","lat":43.28611,"lon":5.35115,"is_reserved":false,"is_disabled":false,"rental_uris":{"android":"levelo://app?vid=67095dd8-663e-4d8c-8fb2-f5bd2e567ff7","ios":"levelo://app?vid=67095dd8-663e-4d8c-8fb2-f5bd2e567ff7"},"vehicle_type_id":"4","last_reported":1739632138,"current_range_meters":17600,"station_id":"ce4bhch2rcd13ifvqeug","pricing_plan_id":"cebpf4jnsgd1na2vs0mg"},{"bike_id":"899e44e7-60b0-44a7-9ff3-d0219b681de2","system_id":"levelo_inurba_marseille","lat":43.2814,"lon":5.42657,"is_reserved":false,"is_disabled":false,"rental_uris":{"android":"levelo://app?vid=899e44e7-60b0-44a7-9ff3-d0219b681de2","ios":"levelo://app?vid=899e44e7-60b0-44a7-9ff3-d0219b681de2"},"vehicle_type_id":"4","last_reported":1739632138,"current_range_meters":34000,"station_id":"ce4bhnh2rcd13ifvqgug","pricing_plan_id":"cebpf4jnsgd1na2vs0mg"},{"bike_id":"15623bad-af87-47c3-bb1a-e76609fdcabd","system_id":"levelo_inurba_marseille","lat":43.26199,"lon":5.37932,"is_reserved":false,"is_disabled":false,"rental_uris":{"android":"levelo://app?vid=15623bad-af87-47c3-bb1a-e76609fdcabd","ios":"levelo://app?vid=15623bad-af87-47c3-bb1a-e76609fdcabd"},"vehicle_type_id":"4","last_reported":1739632138,"current_range_meters":33200,"station_id":"ce4bhjp2rcd13ifvqg90","pricing_plan_id":"cebpf4jnsgd1na2vs0mg"},{"bike_id":"cdb260d1-183e-4533-9930-149462c69b67","system_id":"levelo_inurba_marseille","lat":43.30213,"lon":5.39473,"is_reserved":false,"is_disabled":false,"rental_uris":{"android":"levelo://app?vid=cdb260d1-183e-4533-9930-149462c69b67","ios":"levelo://app?vid=cdb260d1-183e-4533-9930-149462c69b67"},"vehicle_type_id":"4","last_reported":1739632138,"current_range_meters":28800,"station_id":"ce4bh0p2rcd13ifvqd70","pricing_plan_id":"cebpf4jnsgd1na2vs0mg"},{"bike_id":"03b02bf5-5e6d-4b1c-abfe-96890ec6cf4f","system_id":"levelo_inurba_marseille","lat":43.2842,"lon":5.34989,"is_reserved":false,"is_disabled":false,"rental_uris":{"android":"levelo://app?vid=03b02bf5-5e6d-4b1c-abfe-96890ec6cf4f","ios":"levelo://app?vid=03b02bf5-5e6d-4b1c-abfe-96890ec6cf4f"},"vehicle_type_id":"4","last_reported":1739632138,"current_range_meters":7200,"station_id":"ce4bhbh2rcd13ifvqepg","pricing_plan_id":"cebpf4jnsgd1na2vs0mg"},{"bike_id":"3bf78b66-ea80-4dd6-a953-ce06f040ab6f","system_id":"levelo_inurba_marseille","lat":43.2862,"lon":5.3509,"is_reserved":false,"is_disabled":false,"rental_uris":{"android":"levelo://app?vid=3bf78b66-ea80-4dd6-a953-ce06f040ab6f","ios":"levelo://app?vid=3bf78b66-ea80-4dd6-a953-ce06f040ab6f"},"vehicle_type_id":"4","last_reported":1739632138,"current_range_meters":12400,"station_id":"ce4bhch2rcd13ifvqeug","pricing_plan_id":"cebpf4jnsgd1na2vs0mg"},{"bike_id":"fadc4a68-e83b-4744-8d0b-ca607d22da10","system_id":"levelo_inurba_marseille","lat":43.22921,"lon":5.3537,"is_reserved":false,"is_disabled":false,"rental_uris":{"android":"levelo://app?vid=fadc4a68-e83b-4744-8d0b-ca607d22da10","ios":"levelo://app?vid=fadc4a68-e83b-4744-8d0b-ca607d22da10"},"vehicle_type_id":"4","last_reported":1739632138,"current_range_meters":5600,"station_id":"cpo3532slgdg3j2ikp40","pricing_plan_id":"cebpf4jnsgd1na2vs0mg"},{"bike_id":"9596fca7-72e7-4129-9d32-f89e22cc2867","system_id":"levelo_inurba_marseille","lat":43.30539,"lon":5.36699,"is_reserved":false,"is_disabled":false,"rental_uris":{"android":"levelo://app?vid=9596fca7-72e7-4129-9d32-f89e22cc2867","ios":"levelo://app?vid=9596fca7-72e7-4129-9d32-f89e22cc2867"},"vehicle_type_id":"4","last_reported":1739632138,"current_range_meters":37600,"station_id":"ce4bgrp2rcd13ifvqc9g","pricing_plan_id":"cebpf4jnsgd1na2vs0mg"},{"bike_id":"397f7144-3e20-4f61-9149-2720265fc375","system_id":"levelo_inurba_marseille","lat":43.24073,"lon":5.37765,"is_reserved":false,"is_disabled":false,"rental_uris":{"android":"levelo://app?vid=397f7144-3e20-4f61-9149-2720265fc375","ios":"levelo://app?vid=397f7144-3e20-4f61-9149-2720265fc375"},"vehicle_type_id":"4","last_reported":1739632138,"current_range_meters":38000,"station_id":"ce4bhnp2rcd13ifvqgvg","pricing_plan_id":"cebpf4jnsgd1na2vs0mg"},{"bike_id":"b531ffe6-f458-47f6-a31f-aef31dea2dcb","system_id":"levelo_inurba_marseille","lat":43.2721,"lon":5.39178,"is_reserved":false,"is_disabled":false,"rental_uris":{"android":"levelo://app?vid=b531ffe6-f458-47f6-a31f-aef31dea2dcb","ios":"levelo://app?vid=b531ffe6-f458-47f6-a31f-aef31dea2dcb"},"vehicle_type_id":"4","last_reported":1739632138,"current_range_meters":16000,"station_id":"ce4bhhp2rcd13ifvqfm0","pricing_plan_id":"cebpf4jnsgd1na2vs0mg"},{"bike_id":"cb976fd1-127f-4e36-a203-b810fc1aa3da","system_id":"levelo_inurba_marseille","lat":43.2721,"lon":5.39183,"is_reserved":false,"is_disabled":false,"rental_uris":{"android":"levelo://app?vid=cb976fd1-127f-4e36-a203-b810fc1aa3da","ios":"levelo://app?vid=cb976fd1-127f-4e36-a203-b810fc1aa3da"},"vehicle_type_id":"4","last_reported":1739632138,"current_range_meters":31200,"station_id":"ce4bhhp2rcd13ifvqfm0","pricing_plan_id":"cebpf4jnsgd1na2vs0mg"},{"bike_id":"615a625f-d743-409f-ad88-1b4c9bae55c6","system_id":"levelo_inurba_marseille","lat":43.25715,"lon":5.41096,"is_reserved":false,"is_disabled":false,"rental_uris":{"android":"levelo://app?vid=615a625f-d743-409f-ad88-1b4c9bae55c6","ios":"levelo://app?vid=615a625f-d743-409f-ad88-1b4c9bae55c6"},"vehicle_type_id":"4","last_reported":1739632138,"current_range_meters":36400,"station_id":"ce4bhkp2rcd13ifvqgd0","pricing_plan_id":"cebpf4jnsgd1na2vs0mg"},{"bike_id":"907da6ac-e466-4f41-bfeb-cfec118a1581","system_id":"levelo_inurba_marseille","lat":43.24804,"lon":5.3746,"is_reserved":false,"is_disabled":false,"rental_uris":{"android":"levelo://app?vid=907da6ac-e466-4f41-bfeb-cfec118a1581","ios":"levelo://app?vid=907da6ac-e466-4f41-bfeb-cfec118a1581"},"vehicle_type_id":"4","last_reported":1739632138,"current_range_meters":20000,"station_id":"ce4bhgh2rcd13ifvqfb0","pricing_plan_id":"cebpf4jnsgd1na2vs0mg"},{"bike_id":"9d7c84b1-5e85-40b5-9214-0ea5f354ecac","system_id":"levelo_inurba_marseille","lat":43.28626,"lon":5.38463,"is_reserved":false,"is_disabled":false,"rental_uris":{"android":"levelo://app?vid=9d7c84b1-5e85-40b5-9214-0ea5f354ecac","ios":"levelo://app?vid=9d7c84b1-5e85-40b5-9214-0ea5f354ecac"},"vehicle_type_id":"4","last_reported":1739632138,"current_range_meters":14800,"station_id":"","pricing_plan_id":"cebpf4jnsgd1na2vs0mg"},{"bike_id":"f502759e-b105-4a56-a150-71280fec41ba","system_id":"levelo_inurba_marseille","lat":43.24396,"lon":5.37062,"is_reserved":false,"is_disabled":false,"rental_uris":{"android":"levelo://app?vid=f502759e-b105-4a56-a150-71280fec41ba","ios":"levelo://app?vid=f502759e-b105-4a56-a150-71280fec41ba"},"vehicle_type_id":"4","last_reported":1739632138,"current_range_meters":38800,"station_id":"ce4bhhh2rcd13ifvqfk0","pricing_plan_id":"cebpf4jnsgd1na2vs0mg"},{"bike_id":"b8b29d3e-10d0-41ca-977b-09397489df63","system_id":"levelo_inurba_marseille","lat":43.2678,"lon":5.39418,"is_reserved":false,"is_disabled":false,"rental_uris":{"android":"levelo://app?vid=b8b29d3e-10d0-41ca-977b-09397489df63","ios":"levelo://app?vid=b8b29d3e-10d0-41ca-977b-09397489df63"},"vehicle_type_id":"4","last_reported":1739632138,"current_range_meters":39200,"station_id":"ce4bhh12rcd13ifvqfg0","pricing_plan_id":"cebpf4jnsgd1na2vs0mg"},{"bike_id":"65749c4a-a3c4-47ab-9c15-c6a81b8e2ba9","system_id":"levelo_inurba_marseille","lat":43.27197,"lon":5.39171,"is_reserved":false,"is_disabled":false,"rental_uris":{"android":"levelo://app?vid=65749c4a-a3c4-47ab-9c15-c6a81b8e2ba9","ios":"levelo://app?vid=65749c4a-a3c4-47ab-9c15-c6a81b8e2ba9"},"vehicle_type_id":"4","last_reported":1739632138,"current_range_meters":28400,"station_id":"ce4bhhp2rcd13ifvqfm0","pricing_plan_id":"cebpf4jnsgd1na2vs0mg"},{"bike_id":"7a513f1c-e0b8-4e12-a7e4-4795f492f601","system_id":"levelo_inurba_marseille","lat":43.26785,"lon":5.39416,"is_reserved":false,"is_disabled":false,"rental_uris":{"android":"levelo://app?vid=7a513f1c-e0b8-4e12-a7e4-4795f492f601","ios":"levelo://app?vid=7a513f1c-e0b8-4e12-a7e4-4795f492f601"},"vehicle_type_id":"4","last_reported":1739632138,"current_range_meters":18800,"station_id":"ce4bhh12rcd13ifvqfg0","pricing_plan_id":"cebpf4jnsgd1na2vs0mg"},{"bike_id":"e09ad856-2119-4687-93ce-3829fee31a90","system_id":"levelo_inurba_marseille","lat":43.29039,"lon":5.35898,"is_reserved":false,"is_disabled":false,"rental_uris":{"android":"levelo://app?vid=e09ad856-2119-4687-93ce-3829fee31a90","ios":"levelo://app?vid=e09ad856-2119-4687-93ce-3829fee31a90"},"vehicle_type_id":"4","last_reported":1739632138,"current_range_meters":16400,"station_id":"ce4bha92rcd13ifvqeg0","pricing_plan_id":"cebpf4jnsgd1na2vs0mg"},{"bike_id":"7344ee3e-4940-4c22-8e1f-811995862d11","system_id":"levelo_inurba_marseille","lat":43.31083,"lon":5.42432,"is_reserved":false,"is_disabled":false,"rental_uris":{"android":"levelo://app?vid=7344ee3e-4940-4c22-8e1f-811995862d11","ios":"levelo://app?vid=7344ee3e-4940-4c22-8e1f-811995862d11"},"vehicle_type_id":"4","last_reported":1739632138,"current_range_meters":10000,"station_id":"ce4bhp92rcd13ifvqhag","pricing_plan_id":"cebpf4jnsgd1na2vs0mg"},{"bike_id":"79e19e10-6444-4fb6-ac95-ed35b98bd8c0","system_id":"levelo_inurba_marseille","lat":43.262103,"lon":5.374402,"is_reserved":false,"is_disabled":false,"rental_uris":{"android":"levelo://app?vid=79e19e10-6444-4fb6-ac95-ed35b98bd8c0","ios":"levelo://app?vid=79e19e10-6444-4fb6-ac95-ed35b98bd8c0"},"vehicle_type_id":"4","last_reported":1739632138,"current_range_meters":10000,"station_id":"ce4bhgp2rcd13ifvqfc0","pricing_plan_id":"cebpf4jnsgd1na2vs0mg"},{"bike_id":"d1b7e7c3-d876-4585-aa93-a701646b8c19","system_id":"levelo_inurba_marseille","lat":43.23184,"lon":5.39991,"is_reserved":false,"is_disabled":false,"rental_uris":{"android":"levelo://app?vid=d1b7e7c3-d876-4585-aa93-a701646b8c19","ios":"levelo://app?vid=d1b7e7c3-d876-4585-aa93-a701646b8c19"},"vehicle_type_id":"4","last_reported":1739632138,"current_range_meters":39200,"station_id":"ce4bhn12rcd13ifvqgqg","pricing_plan_id":"cebpf4jnsgd1na2vs0mg"},{"bike_id":"cb6baf93-cc85-439f-9faa-c9f956763d80","system_id":"levelo_inurba_marseille","lat":43.29977,"lon":5.37178,"is_reserved":false,"is_disabled":false,"rental_uris":{"android":"levelo://app?vid=cb6baf93-cc85-439f-9faa-c9f956763d80","ios":"levelo://app?vid=cb6baf93-cc85-439f-9faa-c9f956763d80"},"vehicle_type_id":"4","last_reported":1739632138,"current_range_meters":25200,"station_id":"ce4bgr92rcd13ifvqc7g","pricing_plan_id":"cebpf4jnsgd1na2vs0mg"},{"bike_id":"10410a5f-c872-4cbc-84fb-fe2ad13b1e20","system_id":"levelo_inurba_marseille","lat":43.28414,"lon":5.34995,"is_reserved":false,"is_disabled":false,"rental_uris":{"android":"levelo://app?vid=10410a5f-c872-4cbc-84fb-fe2ad13b1e20","ios":"levelo://app?vid=10410a5f-c872-4cbc-84fb-fe2ad13b1e20"},"vehicle_type_id":"4","last_reported":1739632138,"current_range_meters":28400,"station_id":"ce4bhbh2rcd13ifvqepg","pricing_plan_id":"cebpf4jnsgd1na2vs0mg"},{"bike_id":"0d9161e0-b4e6-4d5b-bd30-b3e7569f8cf3","system_id":"levelo_inurba_marseille","lat":43.28417,"lon":5.34993,"is_reserved":false,"is_disabled":false,"rental_uris":{"android":"levelo://app?vid=0d9161e0-b4e6-4d5b-bd30-b3e7569f8cf3","ios":"levelo://app?vid=0d9161e0-b4e6-4d5b-bd30-b3e7569f8cf3"},"vehicle_type_id":"4","last_reported":1739632138,"current_range_meters":16000,"station_id":"ce4bhbh2rcd13ifvqepg","pricing_plan_id":"cebpf4jnsgd1na2vs0mg"},{"bike_id":"d2c98906-95e6-41f0-887e-addf55786d50","system_id":"levelo_inurba_marseille","lat":43.2795,"lon":5.41031,"is_reserved":false,"is_disabled":false,"rental_uris":{"android":"levelo://app?vid=d2c98906-95e6-41f0-887e-addf55786d50","ios":"levelo://app?vid=d2c98906-95e6-41f0-887e-addf55786d50"},"vehicle_type_id":"4","last_reported":1739632138,"current_range_meters":24800,"station_id":"ce4bhnp2rcd13ifvqh0g","pricing_plan_id":"cebpf4jnsgd1na2vs0mg"},{"bike_id":"72526c7a-bad2-48be-9eb5-30027376ec95","system_id":"levelo_inurba_marseille","lat":43.23203,"lon":5.35554,"is_reserved":false,"is_disabled":false,"rental_uris":{"android":"levelo://app?vid=72526c7a-bad2-48be-9eb5-30027376ec95","ios":"levelo://app?vid=72526c7a-bad2-48be-9eb5-30027376ec95"},"vehicle_type_id":"4","last_reported":1739632138,"current_range_meters":8400,"station_id":"ce4bhu92rcd13ifvqi70","pricing_plan_id":"cebpf4jnsgd1na2vs0mg"},{"bike_id":"c41aef02-ee00-4719-ba20-e911423cf410","system_id":"levelo_inurba_marseille","lat":43.29051,"lon":5.35938,"is_reserved":false,"is_disabled":false,"rental_uris":{"android":"levelo://app?vid=c41aef02-ee00-4719-ba20-e911423cf410","ios":"levelo://app?vid=c41aef02-ee00-4719-ba20-e911423cf410"},"vehicle_type_id":"4","last_reported":1739632138,"current_range_meters":34000,"station_id":"ce4bha92rcd13ifvqeg0","pricing_plan_id":"cebpf4jnsgd1na2vs0mg"},{"bike_id":"8216f5fc-1d17-42be-8e07-0c70e1cef0fc","system_id":"levelo_inurba_marseille","lat":43.29263,"lon":5.3845,"is_reserved":false,"is_disabled":true,"rental_uris":{"android":"levelo://app?vid=8216f5fc-1d17-42be-8e07-0c70e1cef0fc","ios":"levelo://app?vid=8216f5fc-1d17-42be-8e07-0c70e1cef0fc"},"vehicle_type_id":"4","last_reported":1739632138,"current_range_meters":800,"station_id":"ce4bh692rcd13ifvqea0","pricing_plan_id":"cebpf4jnsgd1na2vs0mg"},{"bike_id":"b5697dda-de1d-4651-90dc-eda82800d3ee","system_id":"levelo_inurba_marseille","lat":43.27209,"lon":5.3918,"is_reserved":false,"is_disabled":false,"rental_uris":{"android":"levelo://app?vid=b5697dda-de1d-4651-90dc-eda82800d3ee","ios":"levelo://app?vid=b5697dda-de1d-4651-90dc-eda82800d3ee"},"vehicle_type_id":"4","last_reported":1739632138,"current_range_meters":37600,"station_id":"ce4bhhp2rcd13ifvqfm0","pricing_plan_id":"cebpf4jnsgd1na2vs0mg"},{"bike_id":"3bc5823b-3f83-4966-a897-939ee68da154","system_id":"levelo_inurba_marseille","lat":43.28446,"lon":5.35894,"is_reserved":false,"is_disabled":false,"rental_uris":{"android":"levelo://app?vid=3bc5823b-3f83-4966-a897-939ee68da154","ios":"levelo://app?vid=3bc5823b-3f83-4966-a897-939ee68da154"},"vehicle_type_id":"4","last_reported":1739632138,"current_range_meters":26800,"station_id":"ce4bhah2rcd13ifvqei0","pricing_plan_id":"cebpf4jnsgd1na2vs0mg"},{"bike_id":"03eba1d0-92c1-4e6e-a4d0-7c546f2439c0","system_id":"levelo_inurba_marseille","lat":43.337444,"lon":5.374475,"is_reserved":false,"is_disabled":true,"rental_uris":{"android":"levelo://app?vid=03eba1d0-92c1-4e6e-a4d0-7c546f2439c0","ios":"levelo://app?vid=03eba1d0-92c1-4e6e-a4d0-7c546f2439c0"},"vehicle_type_id":"4","last_reported":1739632138,"current_range_meters":0,"station_id":"","pricing_plan_id":"cebpf4jnsgd1na2vs0mg"},{"bike_id":"3ce9ce58-7c99-4dbb-a109-d0a36243ebfb","system_id":"levelo_inurba_marseille","lat":43.28436,"lon":5.39163,"is_reserved":false,"is_disabled":true,"rental_uris":{"android":"levelo://app?vid=3ce9ce58-7c99-4dbb-a109-d0a36243ebfb","ios":"levelo://app?vid=3ce9ce58-7c99-4dbb-a109-d0a36243ebfb"},"vehicle_type_id":"4","last_reported":1739632138,"current_range_meters":32000,"station_id":"ce4bhoh2rcd13ifvqh5g","pricing_plan_id":"cebpf4jnsgd1na2vs0mg"},{"bike_id":"653b3681-8d49-4063-97bd-177fe11162f9","system_id":"levelo_inurba_marseille","lat":43.25491,"lon":5.37648,"is_reserved":false,"is_disabled":true,"rental_uris":{"android":"levelo://app?vid=653b3681-8d49-4063-97bd-177fe11162f9","ios":"levelo://app?vid=653b3681-8d49-4063-97bd-177fe11162f9"},"vehicle_type_id":"4","last_reported":1739632138,"current_range_meters":36800,"station_id":"ce4bhh12rcd13ifvqff0","pricing_plan_id":"cebpf4jnsgd1na2vs0mg"},{"bike_id":"9bbcdce9-aeca-40dd-b608-48c2e64338f2","system_id":"levelo_inurba_marseille","lat":43.31886,"lon":5.40745,"is_reserved":false,"is_disabled":false,"rental_uris":{"android":"levelo://app?vid=9bbcdce9-aeca-40dd-b608-48c2e64338f2","ios":"levelo://app?vid=9bbcdce9-aeca-40dd-b608-48c2e64338f2"},"vehicle_type_id":"4","last_reported":1739632138,"current_range_meters":20800,"station_id":"ce4bhq12rcd13ifvqhig","pricing_plan_id":"cebpf4jnsgd1na2vs0mg"},{"bike_id":"683dd2bd-1e81-48dd-a1eb-4b7a7378e30c","system_id":"levelo_inurba_marseille","lat":43.24389,"lon":5.37053,"is_reserved":false,"is_disabled":false,"rental_uris":{"android":"levelo://app?vid=683dd2bd-1e81-48dd-a1eb-4b7a7378e30c","ios":"levelo://app?vid=683dd2bd-1e81-48dd-a1eb-4b7a7378e30c"},"vehicle_type_id":"4","last_reported":1739632138,"current_range_meters":39200,"station_id":"ce4bhhh2rcd13ifvqfk0","pricing_plan_id":"cebpf4jnsgd1na2vs0mg"},{"bike_id":"2d24a5b8-6d86-492d-ad11-8103a58112b5","system_id":"levelo_inurba_marseille","lat":43.26194,"lon":5.3745,"is_reserved":false,"is_disabled":true,"rental_uris":{"android":"levelo://app?vid=2d24a5b8-6d86-492d-ad11-8103a58112b5","ios":"levelo://app?vid=2d24a5b8-6d86-492d-ad11-8103a58112b5"},"vehicle_type_id":"4","last_reported":1739632138,"current_range_meters":1200,"station_id":"ce4bhgp2rcd13ifvqfc0","pricing_plan_id":"cebpf4jnsgd1na2vs0mg"},{"bike_id":"982f259d-d0a4-441b-9edd-679fa6bc44a7","system_id":"levelo_inurba_marseille","lat":43.26949,"lon":5.40257,"is_reserved":false,"is_disabled":false,"rental_uris":{"android":"levelo://app?vid=982f259d-d0a4-441b-9edd-679fa6bc44a7","ios":"levelo://app?vid=982f259d-d0a4-441b-9edd-679fa6bc44a7"},"vehicle_type_id":"4","last_reported":1739632138,"current_range_meters":22800,"station_id":"cjm6bp8fraef2m0cb0m0","pricing_plan_id":"cebpf4jnsgd1na2vs0mg"},{"bike_id":"96fc873c-94ed-42b0-9d4c-cc8a057ed253","system_id":"levelo_inurba_marseille","lat":43.2293,"lon":5.3538,"is_reserved":false,"is_disabled":false,"rental_uris":{"android":"levelo://app?vid=96fc873c-94ed-42b0-9d4c-cc8a057ed253","ios":"levelo://app?vid=96fc873c-94ed-42b0-9d4c-cc8a057ed253"},"vehicle_type_id":"4","last_reported":1739632138,"current_range_meters":19600,"station_id":"cpo3532slgdg3j2ikp40","pricing_plan_id":"cebpf4jnsgd1na2vs0mg"},{"bike_id":"bd1fbd17-5ecd-4c2a-9290-d1ffd1a70214","system_id":"levelo_inurba_marseille","lat":43.29546,"lon":5.42277,"is_reserved":false,"is_disabled":false,"rental_uris":{"android":"levelo://app?vid=bd1fbd17-5ecd-4c2a-9290-d1ffd1a70214","ios":"levelo://app?vid=bd1fbd17-5ecd-4c2a-9290-d1ffd1a70214"},"vehicle_type_id":"4","last_reported":1739632138,"current_range_meters":32400,"station_id":"ce4bhph2rcd13ifvqhdg","pricing_plan_id":"cebpf4jnsgd1na2vs0mg"},{"bike_id":"e492bf36-b9da-4024-88d1-1b3161c4bdab","system_id":"levelo_inurba_marseille","lat":43.26932,"lon":5.40243,"is_reserved":false,"is_disabled":false,"rental_uris":{"android":"levelo://app?vid=e492bf36-b9da-4024-88d1-1b3161c4bdab","ios":"levelo://app?vid=e492bf36-b9da-4024-88d1-1b3161c4bdab"},"vehicle_type_id":"4","last_reported":1739632138,"current_range_meters":38800,"station_id":"cjm6bp8fraef2m0cb0m0","pricing_plan_id":"cebpf4jnsgd1na2vs0mg"},{"bike_id":"ef7b9b94-f869-41fe-9a72-3b2be13bdcb1","system_id":"levelo_inurba_marseille","lat":43.31076,"lon":5.38359,"is_reserved":false,"is_disabled":false,"rental_uris":{"android":"levelo://app?vid=ef7b9b94-f869-41fe-9a72-3b2be13bdcb1","ios":"levelo://app?vid=ef7b9b94-f869-41fe-9a72-3b2be13bdcb1"},"vehicle_type_id":"4","last_reported":1739632138,"current_range_meters":24400,"station_id":"ce4bgv92rcd13ifvqcr0","pricing_plan_id":"cebpf4jnsgd1na2vs0mg"},{"bike_id":"4f34ac20-13f8-4bff-8fa6-5425328bb98e","system_id":"levelo_inurba_marseille","lat":43.30249,"lon":5.40059,"is_reserved":false,"is_disabled":true,"rental_uris":{"android":"levelo://app?vid=4f34ac20-13f8-4bff-8fa6-5425328bb98e","ios":"levelo://app?vid=4f34ac20-13f8-4bff-8fa6-5425328bb98e"},"vehicle_type_id":"4","last_reported":1739632138,"current_range_meters":28000,"station_id":"ce4bgvh2rcd13ifvqcs0","pricing_plan_id":"cebpf4jnsgd1na2vs0mg"},{"bike_id":"56be15fa-817f-475e-b06f-66a4f516c9c0","system_id":"levelo_inurba_marseille","lat":43.29599,"lon":5.38111,"is_reserved":false,"is_disabled":true,"rental_uris":{"android":"levelo://app?vid=56be15fa-817f-475e-b06f-66a4f516c9c0","ios":"levelo://app?vid=56be15fa-817f-475e-b06f-66a4f516c9c0"},"vehicle_type_id":"4","last_reported":1739632138,"current_range_meters":2000,"station_id":"ce4bgl12rcd13ifvqbo0","pricing_plan_id":"cebpf4jnsgd1na2vs0mg"},{"bike_id":"d63b7867-53a4-4bca-be72-b856d1cbea50","system_id":"levelo_inurba_marseille","lat":43.23961,"lon":5.36624,"is_reserved":false,"is_disabled":false,"rental_uris":{"android":"levelo://app?vid=d63b7867-53a4-4bca-be72-b856d1cbea50","ios":"levelo://app?vid=d63b7867-53a4-4bca-be72-b856d1cbea50"},"vehicle_type_id":"4","last_reported":1739632138,"current_range_meters":23200,"station_id":"ce4bhi12rcd13ifvqfp0","pricing_plan_id":"cebpf4jnsgd1na2vs0mg"},{"bike_id":"c7fffc40-3d64-4a2b-94cc-97c75c080853","system_id":"levelo_inurba_marseille","lat":43.25015,"lon":5.38933,"is_reserved":false,"is_disabled":false,"rental_uris":{"android":"levelo://app?vid=c7fffc40-3d64-4a2b-94cc-97c75c080853","ios":"levelo://app?vid=c7fffc40-3d64-4a2b-94cc-97c75c080853"},"vehicle_type_id":"4","last_reported":1739632138,"current_range_meters":22800,"station_id":"ce4bhgp2rcd13ifvqfd0","pricing_plan_id":"cebpf4jnsgd1na2vs0mg"},{"bike_id":"7ce19e4f-c127-4895-9ad8-43c92fc3fc8b","system_id":"levelo_inurba_marseille","lat":43.230554,"lon":5.354887,"is_reserved":false,"is_disabled":false,"rental_uris":{"android":"levelo://app?vid=7ce19e4f-c127-4895-9ad8-43c92fc3fc8b","ios":"levelo://app?vid=7ce19e4f-c127-4895-9ad8-43c92fc3fc8b"},"vehicle_type_id":"4","last_reported":1739632138,"current_range_meters":16000,"station_id":"cpo3342slgdg3j2ifvpg","pricing_plan_id":"cebpf4jnsgd1na2vs0mg"},{"bike_id":"20b1c36d-31b9-420f-b56d-55fdf8f8b178","system_id":"levelo_inurba_marseille","lat":43.25501,"lon":5.37643,"is_reserved":false,"is_disabled":false,"rental_uris":{"android":"levelo://app?vid=20b1c36d-31b9-420f-b56d-55fdf8f8b178","ios":"levelo://app?vid=20b1c36d-31b9-420f-b56d-55fdf8f8b178"},"vehicle_type_id":"4","last_reported":1739632138,"current_range_meters":10800,"station_id":"ce4bhh12rcd13ifvqff0","pricing_plan_id":"cebpf4jnsgd1na2vs0mg"},{"bike_id":"e45a06b2-67b3-4c85-906c-a2a05f948767","system_id":"levelo_inurba_marseille","lat":43.25491,"lon":5.37668,"is_reserved":false,"is_disabled":false,"rental_uris":{"android":"levelo://app?vid=e45a06b2-67b3-4c85-906c-a2a05f948767","ios":"levelo://app?vid=e45a06b2-67b3-4c85-906c-a2a05f948767"},"vehicle_type_id":"4","last_reported":1739632138,"current_range_meters":38800,"station_id":"ce4bhh12rcd13ifvqff0","pricing_plan_id":"cebpf4jnsgd1na2vs0mg"},{"bike_id":"6bb6fa1f-1c83-47f4-8157-14e0205b7647","system_id":"levelo_inurba_marseille","lat":43.31065,"lon":5.40121,"is_reserved":false,"is_disabled":false,"rental_uris":{"android":"levelo://app?vid=6bb6fa1f-1c83-47f4-8157-14e0205b7647","ios":"levelo://app?vid=6bb6fa1f-1c83-47f4-8157-14e0205b7647"},"vehicle_type_id":"4","last_reported":1739632138,"current_range_meters":27200,"station_id":"","pricing_plan_id":"cebpf4jnsgd1na2vs0mg"},{"bike_id":"3b2bde9a-e21b-4f53-b40f-a6b97bfabe92","system_id":"levelo_inurba_marseille","lat":43.290283,"lon":5.386689,"is_reserved":false,"is_disabled":false,"rental_uris":{"android":"levelo://app?vid=3b2bde9a-e21b-4f53-b40f-a6b97bfabe92","ios":"levelo://app?vid=3b2bde9a-e21b-4f53-b40f-a6b97bfabe92"},"vehicle_type_id":"4","last_reported":1739632138,"current_range_meters":16000,"station_id":"ce4bh4p2rcd13ifvqe0g","pricing_plan_id":"cebpf4jnsgd1na2vs0mg"},{"bike_id":"d4ccd934-9aa2-454a-99b4-3f200842e229","system_id":"levelo_inurba_marseille","lat":43.28415,"lon":5.34993,"is_reserved":false,"is_disabled":false,"rental_uris":{"android":"levelo://app?vid=d4ccd934-9aa2-454a-99b4-3f200842e229","ios":"levelo://app?vid=d4ccd934-9aa2-454a-99b4-3f200842e229"},"vehicle_type_id":"4","last_reported":1739632138,"current_range_meters":32000,"station_id":"ce4bhbh2rcd13ifvqepg","pricing_plan_id":"cebpf4jnsgd1na2vs0mg"},{"bike_id":"07044927-cf08-4e1e-a3d7-6ab730a0194d","system_id":"levelo_inurba_marseille","lat":43.26062,"lon":5.39396,"is_reserved":false,"is_disabled":true,"rental_uris":{"android":"levelo://app?vid=07044927-cf08-4e1e-a3d7-6ab730a0194d","ios":"levelo://app?vid=07044927-cf08-4e1e-a3d7-6ab730a0194d"},"vehicle_type_id":"4","last_reported":1739632138,"current_range_meters":1200,"station_id":"ce4bhh92rcd13ifvqfj0","pricing_plan_id":"cebpf4jnsgd1na2vs0mg"},{"bike_id":"d90062e7-a8fa-4cee-9fac-99e2ed535eb1","system_id":"levelo_inurba_marseille","lat":43.29223,"lon":5.36064,"is_reserved":false,"is_disabled":false,"rental_uris":{"android":"levelo://app?vid=d90062e7-a8fa-4cee-9fac-99e2ed535eb1","ios":"levelo://app?vid=d90062e7-a8fa-4cee-9fac-99e2ed535eb1"},"vehicle_type_id":"4","last_reported":1739632138,"current_range_meters":38000,"station_id":"ce4bhbh2rcd13ifvqeqg","pricing_plan_id":"cebpf4jnsgd1na2vs0mg"},{"bike_id":"24dc0f6a-ecd3-492b-a272-f678785c5dd7","system_id":"levelo_inurba_marseille","lat":43.29251,"lon":5.37626,"is_reserved":false,"is_disabled":false,"rental_uris":{"android":"levelo://app?vid=24dc0f6a-ecd3-492b-a272-f678785c5dd7","ios":"levelo://app?vid=24dc0f6a-ecd3-492b-a272-f678785c5dd7"},"vehicle_type_id":"4","last_reported":1739632138,"current_range_meters":22000,"station_id":"ce4bgi12rcd13ifvqb80","pricing_plan_id":"cebpf4jnsgd1na2vs0mg"},{"bike_id":"fe0f12a8-8d62-4d79-b629-bda6901e6297","system_id":"levelo_inurba_marseille","lat":43.26939,"lon":5.40286,"is_reserved":false,"is_disabled":true,"rental_uris":{"android":"levelo://app?vid=fe0f12a8-8d62-4d79-b629-bda6901e6297","ios":"levelo://app?vid=fe0f12a8-8d62-4d79-b629-bda6901e6297"},"vehicle_type_id":"4","last_reported":1739632138,"current_range_meters":30800,"station_id":"cjm6bp8fraef2m0cb0m0","pricing_plan_id":"cebpf4jnsgd1na2vs0mg"},{"bike_id":"32dc0a9b-13a7-466e-a5f6-a57bb4d27511","system_id":"levelo_inurba_marseille","lat":43.28408,"lon":5.34987,"is_reserved":false,"is_disabled":false,"rental_uris":{"android":"levelo://app?vid=32dc0a9b-13a7-466e-a5f6-a57bb4d27511","ios":"levelo://app?vid=32dc0a9b-13a7-466e-a5f6-a57bb4d27511"},"vehicle_type_id":"4","last_reported":1739632138,"current_range_meters":25600,"station_id":"ce4bhbh2rcd13ifvqepg","pricing_plan_id":"cebpf4jnsgd1na2vs0mg"},{"bike_id":"6409fcd1-a608-4631-83f6-7474568f5ca2","system_id":"levelo_inurba_marseille","lat":43.31012,"lon":5.39647,"is_reserved":false,"is_disabled":false,"rental_uris":{"android":"levelo://app?vid=6409fcd1-a608-4631-83f6-7474568f5ca2","ios":"levelo://app?vid=6409fcd1-a608-4631-83f6-7474568f5ca2"},"vehicle_type_id":"4","last_reported":1739632138,"current_range_meters":8000,"station_id":"","pricing_plan_id":"cebpf4jnsgd1na2vs0mg"},{"bike_id":"ad69c993-a5f5-4952-9f3c-3ac8c73e00e8","system_id":"levelo_inurba_marseille","lat":43.28428,"lon":5.34983,"is_reserved":false,"is_disabled":false,"rental_uris":{"android":"levelo://app?vid=ad69c993-a5f5-4952-9f3c-3ac8c73e00e8","ios":"levelo://app?vid=ad69c993-a5f5-4952-9f3c-3ac8c73e00e8"},"vehicle_type_id":"4","last_reported":1739632138,"current_range_meters":20800,"station_id":"ce4bhbh2rcd13ifvqepg","pricing_plan_id":"cebpf4jnsgd1na2vs0mg"},{"bike_id":"65551c02-da59-4771-9239-11231c445f31","system_id":"levelo_inurba_marseille","lat":43.24388,"lon":5.37064,"is_reserved":false,"is_disabled":false,"rental_uris":{"android":"levelo://app?vid=65551c02-da59-4771-9239-11231c445f31","ios":"levelo://app?vid=65551c02-da59-4771-9239-11231c445f31"},"vehicle_type_id":"4","last_reported":1739632138,"current_range_meters":30400,"station_id":"ce4bhhh2rcd13ifvqfk0","pricing_plan_id":"cebpf4jnsgd1na2vs0mg"},{"bike_id":"6698f747-21d4-47fa-b492-939dfbb5136d","system_id":"levelo_inurba_marseille","lat":43.25108,"lon":5.40322,"is_reserved":false,"is_disabled":true,"rental_uris":{"android":"levelo://app?vid=6698f747-21d4-47fa-b492-939dfbb5136d","ios":"levelo://app?vid=6698f747-21d4-47fa-b492-939dfbb5136d"},"vehicle_type_id":"4","last_reported":1739632138,"current_range_meters":0,"station_id":"ce4bhlh2rcd13ifvqgig","pricing_plan_id":"cebpf4jnsgd1na2vs0mg"},{"bike_id":"1ae926b5-2673-468f-ab4a-dd73fac6c27d","system_id":"levelo_inurba_marseille","lat":43.307868,"lon":5.376455,"is_reserved":false,"is_disabled":false,"rental_uris":{"android":"levelo://app?vid=1ae926b5-2673-468f-ab4a-dd73fac6c27d","ios":"levelo://app?vid=1ae926b5-2673-468f-ab4a-dd73fac6c27d"},"vehicle_type_id":"4","last_reported":1739632138,"current_range_meters":30400,"station_id":"ce4bgv92rcd13ifvqcq0","pricing_plan_id":"cebpf4jnsgd1na2vs0mg"},{"bike_id":"09f59a1f-3e7f-4aef-850a-82f9a10ee90d","system_id":"levelo_inurba_marseille","lat":43.30923,"lon":5.40141,"is_reserved":false,"is_disabled":false,"rental_uris":{"android":"levelo://app?vid=09f59a1f-3e7f-4aef-850a-82f9a10ee90d","ios":"levelo://app?vid=09f59a1f-3e7f-4aef-850a-82f9a10ee90d"},"vehicle_type_id":"4","last_reported":1739632138,"current_range_meters":3200,"station_id":"ce4bgvp2rcd13ifvqct0","pricing_plan_id":"cebpf4jnsgd1na2vs0mg"},{"bike_id":"bf0b3e15-232d-4329-8d76-62ec2d61fd50","system_id":"levelo_inurba_marseille","lat":43.26244,"lon":5.37561,"is_reserved":false,"is_disabled":false,"rental_uris":{"android":"levelo://app?vid=bf0b3e15-232d-4329-8d76-62ec2d61fd50","ios":"levelo://app?vid=bf0b3e15-232d-4329-8d76-62ec2d61fd50"},"vehicle_type_id":"4","last_reported":1739632138,"current_range_meters":17600,"station_id":"","pricing_plan_id":"cebpf4jnsgd1na2vs0mg"},{"bike_id":"0cec2f35-d5d0-4b16-ae21-b8732725e8e7","system_id":"levelo_inurba_marseille","lat":43.3233,"lon":5.4062,"is_reserved":false,"is_disabled":false,"rental_uris":{"android":"levelo://app?vid=0cec2f35-d5d0-4b16-ae21-b8732725e8e7","ios":"levelo://app?vid=0cec2f35-d5d0-4b16-ae21-b8732725e8e7"},"vehicle_type_id":"4","last_reported":1739632138,"current_range_meters":22400,"station_id":"ce4bhq92rcd13ifvqhjg","pricing_plan_id":"cebpf4jnsgd1na2vs0mg"},{"bike_id":"afbdeb5e-6000-4bdb-b0ec-874d7a3416c1","system_id":"levelo_inurba_marseille","lat":43.26944,"lon":5.40236,"is_reserved":false,"is_disabled":false,"rental_uris":{"android":"levelo://app?vid=afbdeb5e-6000-4bdb-b0ec-874d7a3416c1","ios":"levelo://app?vid=afbdeb5e-6000-4bdb-b0ec-874d7a3416c1"},"vehicle_type_id":"4","last_reported":1739632138,"current_range_meters":22000,"station_id":"cjm6bp8fraef2m0cb0m0","pricing_plan_id":"cebpf4jnsgd1na2vs0mg"},{"bike_id":"0d944c22-fb28-40c7-b2e3-fe45ed3aec48","system_id":"levelo_inurba_marseille","lat":43.28414,"lon":5.3499,"is_reserved":false,"is_disabled":false,"rental_uris":{"android":"levelo://app?vid=0d944c22-fb28-40c7-b2e3-fe45ed3aec48","ios":"levelo://app?vid=0d944c22-fb28-40c7-b2e3-fe45ed3aec48"},"vehicle_type_id":"4","last_reported":1739632138,"current_range_meters":29600,"station_id":"ce4bhbh2rcd13ifvqepg","pricing_plan_id":"cebpf4jnsgd1na2vs0mg"},{"bike_id":"53b5f8d9-591b-4722-8b93-d03568f78034","system_id":"levelo_inurba_marseille","lat":43.28466,"lon":5.3589,"is_reserved":false,"is_disabled":false,"rental_uris":{"android":"levelo://app?vid=53b5f8d9-591b-4722-8b93-d03568f78034","ios":"levelo://app?vid=53b5f8d9-591b-4722-8b93-d03568f78034"},"vehicle_type_id":"4","last_reported":1739632138,"current_range_meters":25200,"station_id":"ce4bhah2rcd13ifvqei0","pricing_plan_id":"cebpf4jnsgd1na2vs0mg"},{"bike_id":"76e29678-7cf1-47c9-833e-9f4b710e87fd","system_id":"levelo_inurba_marseille","lat":43.27373,"lon":5.36261,"is_reserved":false,"is_disabled":false,"rental_uris":{"android":"levelo://app?vid=76e29678-7cf1-47c9-833e-9f4b710e87fd","ios":"levelo://app?vid=76e29678-7cf1-47c9-833e-9f4b710e87fd"},"vehicle_type_id":"4","last_reported":1739632138,"current_range_meters":28800,"station_id":"ce4bhbh2rcd13ifvqeo0","pricing_plan_id":"cebpf4jnsgd1na2vs0mg"},{"bike_id":"15d2336c-e792-41bf-9f99-1c2476ed4c6f","system_id":"levelo_inurba_marseille","lat":43.28663,"lon":5.36353,"is_reserved":false,"is_disabled":false,"rental_uris":{"android":"levelo://app?vid=15d2336c-e792-41bf-9f99-1c2476ed4c6f","ios":"levelo://app?vid=15d2336c-e792-41bf-9f99-1c2476ed4c6f"},"vehicle_type_id":"4","last_reported":1739632138,"current_range_meters":17600,"station_id":"ce4bhah2rcd13ifvqej0","pricing_plan_id":"cebpf4jnsgd1na2vs0mg"},{"bike_id":"f00620ae-2110-4dbd-a2e7-cd7bf13fe429","system_id":"levelo_inurba_marseille","lat":43.23188,"lon":5.40003,"is_reserved":false,"is_disabled":true,"rental_uris":{"android":"levelo://app?vid=f00620ae-2110-4dbd-a2e7-cd7bf13fe429","ios":"levelo://app?vid=f00620ae-2110-4dbd-a2e7-cd7bf13fe429"},"vehicle_type_id":"4","last_reported":1739632138,"current_range_meters":9200,"station_id":"ce4bhn12rcd13ifvqgqg","pricing_plan_id":"cebpf4jnsgd1na2vs0mg"},{"bike_id":"c0b322e1-6c7c-4f23-82b7-1aa4057d1a73","system_id":"levelo_inurba_marseille","lat":43.28612,"lon":5.35108,"is_reserved":false,"is_disabled":false,"rental_uris":{"android":"levelo://app?vid=c0b322e1-6c7c-4f23-82b7-1aa4057d1a73","ios":"levelo://app?vid=c0b322e1-6c7c-4f23-82b7-1aa4057d1a73"},"vehicle_type_id":"4","last_reported":1739632138,"current_range_meters":24800,"station_id":"ce4bhch2rcd13ifvqeug","pricing_plan_id":"cebpf4jnsgd1na2vs0mg"},{"bike_id":"4c438af7-11a1-474d-b3d9-47f1165b9f19","system_id":"levelo_inurba_marseille","lat":43.2952,"lon":5.39031,"is_reserved":false,"is_disabled":false,"rental_uris":{"android":"levelo://app?vid=4c438af7-11a1-474d-b3d9-47f1165b9f19","ios":"levelo://app?vid=4c438af7-11a1-474d-b3d9-47f1165b9f19"},"vehicle_type_id":"4","last_reported":1739632138,"current_range_meters":31200,"station_id":"ce4bh3p2rcd13ifvqdp0","pricing_plan_id":"cebpf4jnsgd1na2vs0mg"},{"bike_id":"44213aba-036b-4c00-8603-7328a2b256c1","system_id":"levelo_inurba_marseille","lat":43.27499,"lon":5.42449,"is_reserved":false,"is_disabled":false,"rental_uris":{"android":"levelo://app?vid=44213aba-036b-4c00-8603-7328a2b256c1","ios":"levelo://app?vid=44213aba-036b-4c00-8603-7328a2b256c1"},"vehicle_type_id":"4","last_reported":1739632138,"current_range_meters":30000,"station_id":"ce4bhn92rcd13ifvqgrg","pricing_plan_id":"cebpf4jnsgd1na2vs0mg"},{"bike_id":"ddf1d674-41d6-443f-b0f1-1da7df267862","system_id":"levelo_inurba_marseille","lat":43.23056,"lon":5.355,"is_reserved":false,"is_disabled":false,"rental_uris":{"android":"levelo://app?vid=ddf1d674-41d6-443f-b0f1-1da7df267862","ios":"levelo://app?vid=ddf1d674-41d6-443f-b0f1-1da7df267862"},"vehicle_type_id":"4","last_reported":1739632138,"current_range_meters":20400,"station_id":"cpo3342slgdg3j2ifvpg","pricing_plan_id":"cebpf4jnsgd1na2vs0mg"},{"bike_id":"8d82dfe5-2c72-4d2c-8f7a-c511ac0da184","system_id":"levelo_inurba_marseille","lat":43.26495,"lon":5.39541,"is_reserved":false,"is_disabled":false,"rental_uris":{"android":"levelo://app?vid=8d82dfe5-2c72-4d2c-8f7a-c511ac0da184","ios":"levelo://app?vid=8d82dfe5-2c72-4d2c-8f7a-c511ac0da184"},"vehicle_type_id":"4","last_reported":1739632138,"current_range_meters":38800,"station_id":"ce4bhi12rcd13ifvqfq0","pricing_plan_id":"cebpf4jnsgd1na2vs0mg"},{"bike_id":"46f7dd7f-3698-4a4b-84b6-cdfa84e75594","system_id":"levelo_inurba_marseille","lat":43.23964,"lon":5.36622,"is_reserved":false,"is_disabled":false,"rental_uris":{"android":"levelo://app?vid=46f7dd7f-3698-4a4b-84b6-cdfa84e75594","ios":"levelo://app?vid=46f7dd7f-3698-4a4b-84b6-cdfa84e75594"},"vehicle_type_id":"4","last_reported":1739632138,"current_range_meters":27200,"station_id":"ce4bhi12rcd13ifvqfp0","pricing_plan_id":"cebpf4jnsgd1na2vs0mg"},{"bike_id":"771c6ea1-7dc0-4952-8f69-63bb1c4ca1e2","system_id":"levelo_inurba_marseille","lat":43.27432,"lon":5.39426,"is_reserved":false,"is_disabled":false,"rental_uris":{"android":"levelo://app?vid=771c6ea1-7dc0-4952-8f69-63bb1c4ca1e2","ios":"levelo://app?vid=771c6ea1-7dc0-4952-8f69-63bb1c4ca1e2"},"vehicle_type_id":"4","last_reported":1739632138,"current_range_meters":33600,"station_id":"ce4bhdp2rcd13ifvqf20","pricing_plan_id":"cebpf4jnsgd1na2vs0mg"},{"bike_id":"3657cb3a-8308-44c8-971b-092680d319de","system_id":"levelo_inurba_marseille","lat":43.23197,"lon":5.35526,"is_reserved":false,"is_disabled":false,"rental_uris":{"android":"levelo://app?vid=3657cb3a-8308-44c8-971b-092680d319de","ios":"levelo://app?vid=3657cb3a-8308-44c8-971b-092680d319de"},"vehicle_type_id":"4","last_reported":1739632138,"current_range_meters":14000,"station_id":"ce4bhu92rcd13ifvqi70","pricing_plan_id":"cebpf4jnsgd1na2vs0mg"},{"bike_id":"a8c8fd67-6899-4ec2-bdbc-39aaa4f5c440","system_id":"levelo_inurba_marseille","lat":43.29177,"lon":5.35813,"is_reserved":false,"is_disabled":false,"rental_uris":{"android":"levelo://app?vid=a8c8fd67-6899-4ec2-bdbc-39aaa4f5c440","ios":"levelo://app?vid=a8c8fd67-6899-4ec2-bdbc-39aaa4f5c440"},"vehicle_type_id":"4","last_reported":1739632138,"current_range_meters":34800,"station_id":"ce4bhb12rcd13ifvqel0","pricing_plan_id":"cebpf4jnsgd1na2vs0mg"},{"bike_id":"051299f7-a8d9-41a5-b2ea-d656fa7d31ae","system_id":"levelo_inurba_marseille","lat":43.27359,"lon":5.36242,"is_reserved":false,"is_disabled":false,"rental_uris":{"android":"levelo://app?vid=051299f7-a8d9-41a5-b2ea-d656fa7d31ae","ios":"levelo://app?vid=051299f7-a8d9-41a5-b2ea-d656fa7d31ae"},"vehicle_type_id":"4","last_reported":1739632138,"current_range_meters":39200,"station_id":"ce4bhbh2rcd13ifvqeo0","pricing_plan_id":"cebpf4jnsgd1na2vs0mg"},{"bike_id":"43781eb1-2889-4ba8-a4f2-208a747d81be","system_id":"levelo_inurba_marseille","lat":43.26953,"lon":5.40232,"is_reserved":false,"is_disabled":false,"rental_uris":{"android":"levelo://app?vid=43781eb1-2889-4ba8-a4f2-208a747d81be","ios":"levelo://app?vid=43781eb1-2889-4ba8-a4f2-208a747d81be"},"vehicle_type_id":"4","last_reported":1739632138,"current_range_meters":38000,"station_id":"cjm6bp8fraef2m0cb0m0","pricing_plan_id":"cebpf4jnsgd1na2vs0mg"},{"bike_id":"240ded99-567d-4fef-9d43-82f76bbb60fa","system_id":"levelo_inurba_marseille","lat":43.30934,"lon":5.40135,"is_reserved":false,"is_disabled":false,"rental_uris":{"android":"levelo://app?vid=240ded99-567d-4fef-9d43-82f76bbb60fa","ios":"levelo://app?vid=240ded99-567d-4fef-9d43-82f76bbb60fa"},"vehicle_type_id":"4","last_reported":1739632138,"current_range_meters":38000,"station_id":"ce4bgvp2rcd13ifvqct0","pricing_plan_id":"cebpf4jnsgd1na2vs0mg"},{"bike_id":"a8bc8483-ceef-456e-92ec-efcc9ae8cb95","system_id":"levelo_inurba_marseille","lat":43.27624,"lon":5.36129,"is_reserved":false,"is_disabled":false,"rental_uris":{"android":"levelo://app?vid=a8bc8483-ceef-456e-92ec-efcc9ae8cb95","ios":"levelo://app?vid=a8bc8483-ceef-456e-92ec-efcc9ae8cb95"},"vehicle_type_id":"4","last_reported":1739632138,"current_range_meters":35600,"station_id":"ce4bgj92rcd13ifvqbe0","pricing_plan_id":"cebpf4jnsgd1na2vs0mg"},{"bike_id":"9b1ade25-16ea-4396-ab86-72d7764df7a8","system_id":"levelo_inurba_marseille","lat":43.337444,"lon":5.374475,"is_reserved":false,"is_disabled":false,"rental_uris":{"android":"levelo://app?vid=9b1ade25-16ea-4396-ab86-72d7764df7a8","ios":"levelo://app?vid=9b1ade25-16ea-4396-ab86-72d7764df7a8"},"vehicle_type_id":"4","last_reported":1739632138,"current_range_meters":4000,"station_id":"ce4bgr92rcd13ifvqc7g","pricing_plan_id":"cebpf4jnsgd1na2vs0mg"},{"bike_id":"7c1ef472-42b4-419f-ab5c-b94d789aed3c","system_id":"levelo_inurba_marseille","lat":43.23066,"lon":5.35491,"is_reserved":false,"is_disabled":false,"rental_uris":{"android":"levelo://app?vid=7c1ef472-42b4-419f-ab5c-b94d789aed3c","ios":"levelo://app?vid=7c1ef472-42b4-419f-ab5c-b94d789aed3c"},"vehicle_type_id":"4","last_reported":1739632138,"current_range_meters":27200,"station_id":"cpo3342slgdg3j2ifvpg","pricing_plan_id":"cebpf4jnsgd1na2vs0mg"},{"bike_id":"ff89a807-7a3a-4a1c-8bb0-9ddcee53ef85","system_id":"levelo_inurba_marseille","lat":43.2292,"lon":5.3539,"is_reserved":false,"is_disabled":true,"rental_uris":{"android":"levelo://app?vid=ff89a807-7a3a-4a1c-8bb0-9ddcee53ef85","ios":"levelo://app?vid=ff89a807-7a3a-4a1c-8bb0-9ddcee53ef85"},"vehicle_type_id":"4","last_reported":1739632138,"current_range_meters":1200,"station_id":"cpo3532slgdg3j2ikp40","pricing_plan_id":"cebpf4jnsgd1na2vs0mg"},{"bike_id":"43dc5574-eed0-4b1d-9289-f32002400d84","system_id":"levelo_inurba_marseille","lat":43.24167,"lon":5.36398,"is_reserved":false,"is_disabled":false,"rental_uris":{"android":"levelo://app?vid=43dc5574-eed0-4b1d-9289-f32002400d84","ios":"levelo://app?vid=43dc5574-eed0-4b1d-9289-f32002400d84"},"vehicle_type_id":"4","last_reported":1739632138,"current_range_meters":10800,"station_id":"cpo36qri1sfpv3e86is0","pricing_plan_id":"cebpf4jnsgd1na2vs0mg"},{"bike_id":"b7675672-ea91-4212-a3c2-1e75ea117425","system_id":"levelo_inurba_marseille","lat":43.28165,"lon":5.42654,"is_reserved":false,"is_disabled":true,"rental_uris":{"android":"levelo://app?vid=b7675672-ea91-4212-a3c2-1e75ea117425","ios":"levelo://app?vid=b7675672-ea91-4212-a3c2-1e75ea117425"},"vehicle_type_id":"4","last_reported":1739632138,"current_range_meters":0,"station_id":"ce4bhnh2rcd13ifvqgug","pricing_plan_id":"cebpf4jnsgd1na2vs0mg"},{"bike_id":"90ee741f-dc36-43ba-a93f-115ce104ab5f","system_id":"levelo_inurba_marseille","lat":43.24171,"lon":5.36392,"is_reserved":false,"is_disabled":false,"rental_uris":{"android":"levelo://app?vid=90ee741f-dc36-43ba-a93f-115ce104ab5f","ios":"levelo://app?vid=90ee741f-dc36-43ba-a93f-115ce104ab5f"},"vehicle_type_id":"4","last_reported":1739632138,"current_range_meters":38800,"station_id":"cpo36qri1sfpv3e86is0","pricing_plan_id":"cebpf4jnsgd1na2vs0mg"},{"bike_id":"d6babad5-2686-429b-b30a-a7ac3321688e","system_id":"levelo_inurba_marseille","lat":43.27629,"lon":5.36097,"is_reserved":false,"is_disabled":false,"rental_uris":{"android":"levelo://app?vid=d6babad5-2686-429b-b30a-a7ac3321688e","ios":"levelo://app?vid=d6babad5-2686-429b-b30a-a7ac3321688e"},"vehicle_type_id":"4","last_reported":1739632138,"current_range_meters":37600,"station_id":"ce4bgj92rcd13ifvqbe0","pricing_plan_id":"cebpf4jnsgd1na2vs0mg"},{"bike_id":"8ad16ad5-0eeb-4ccf-a81e-9619ce1aa1b0","system_id":"levelo_inurba_marseille","lat":43.2706,"lon":5.40267,"is_reserved":false,"is_disabled":false,"rental_uris":{"android":"levelo://app?vid=8ad16ad5-0eeb-4ccf-a81e-9619ce1aa1b0","ios":"levelo://app?vid=8ad16ad5-0eeb-4ccf-a81e-9619ce1aa1b0"},"vehicle_type_id":"4","last_reported":1739632138,"current_range_meters":37600,"station_id":"ce4bhk92rcd13ifvqgc0","pricing_plan_id":"cebpf4jnsgd1na2vs0mg"},{"bike_id":"9bcc3779-160f-4f11-a908-15bc41b1ac43","system_id":"levelo_inurba_marseille","lat":43.27976,"lon":5.40012,"is_reserved":false,"is_disabled":true,"rental_uris":{"android":"levelo://app?vid=9bcc3779-160f-4f11-a908-15bc41b1ac43","ios":"levelo://app?vid=9bcc3779-160f-4f11-a908-15bc41b1ac43"},"vehicle_type_id":"4","last_reported":1739632138,"current_range_meters":6400,"station_id":"ce4bho92rcd13ifvqh4g","pricing_plan_id":"cebpf4jnsgd1na2vs0mg"},{"bike_id":"3c64c24f-16f7-46ec-b068-15fe4ebda356","system_id":"levelo_inurba_marseille","lat":43.29493,"lon":5.36395,"is_reserved":false,"is_disabled":true,"rental_uris":{"android":"levelo://app?vid=3c64c24f-16f7-46ec-b068-15fe4ebda356","ios":"levelo://app?vid=3c64c24f-16f7-46ec-b068-15fe4ebda356"},"vehicle_type_id":"4","last_reported":1739632138,"current_range_meters":21600,"station_id":"","pricing_plan_id":"cebpf4jnsgd1na2vs0mg"},{"bike_id":"07103950-cfc8-4b51-a67a-cac3df3ef5e7","system_id":"levelo_inurba_marseille","lat":43.2408,"lon":5.37745,"is_reserved":false,"is_disabled":false,"rental_uris":{"android":"levelo://app?vid=07103950-cfc8-4b51-a67a-cac3df3ef5e7","ios":"levelo://app?vid=07103950-cfc8-4b51-a67a-cac3df3ef5e7"},"vehicle_type_id":"4","last_reported":1739632138,"current_range_meters":38800,"station_id":"ce4bhnp2rcd13ifvqgvg","pricing_plan_id":"cebpf4jnsgd1na2vs0mg"},{"bike_id":"62a14e4d-2459-43ef-a27a-dcedbc83f510","system_id":"levelo_inurba_marseille","lat":43.2922,"lon":5.36056,"is_reserved":false,"is_disabled":false,"rental_uris":{"android":"levelo://app?vid=62a14e4d-2459-43ef-a27a-dcedbc83f510","ios":"levelo://app?vid=62a14e4d-2459-43ef-a27a-dcedbc83f510"},"vehicle_type_id":"4","last_reported":1739632138,"current_range_meters":37600,"station_id":"ce4bhbh2rcd13ifvqeqg","pricing_plan_id":"cebpf4jnsgd1na2vs0mg"},{"bike_id":"9ee9339f-f170-441b-b859-66e355dc3aeb","system_id":"levelo_inurba_marseille","lat":43.26192,"lon":5.37452,"is_reserved":false,"is_disabled":true,"rental_uris":{"android":"levelo://app?vid=9ee9339f-f170-441b-b859-66e355dc3aeb","ios":"levelo://app?vid=9ee9339f-f170-441b-b859-66e355dc3aeb"},"vehicle_type_id":"4","last_reported":1739632138,"current_range_meters":400,"station_id":"ce4bhgp2rcd13ifvqfc0","pricing_plan_id":"cebpf4jnsgd1na2vs0mg"},{"bike_id":"26c6ebf4-43a0-43ca-b239-1210d38cefa1","system_id":"levelo_inurba_marseille","lat":43.28267,"lon":5.35077,"is_reserved":false,"is_disabled":false,"rental_uris":{"android":"levelo://app?vid=26c6ebf4-43a0-43ca-b239-1210d38cefa1","ios":"levelo://app?vid=26c6ebf4-43a0-43ca-b239-1210d38cefa1"},"vehicle_type_id":"4","last_reported":1739632138,"current_range_meters":38800,"station_id":"ce4bhbp2rcd13ifvqerg","pricing_plan_id":"cebpf4jnsgd1na2vs0mg"},{"bike_id":"f66f74df-96d8-4ce3-87c1-7f9b86778635","system_id":"levelo_inurba_marseille","lat":43.2293,"lon":5.3538,"is_reserved":false,"is_disabled":false,"rental_uris":{"android":"levelo://app?vid=f66f74df-96d8-4ce3-87c1-7f9b86778635","ios":"levelo://app?vid=f66f74df-96d8-4ce3-87c1-7f9b86778635"},"vehicle_type_id":"4","last_reported":1739632138,"current_range_meters":22800,"station_id":"cpo3532slgdg3j2ikp40","pricing_plan_id":"cebpf4jnsgd1na2vs0mg"},{"bike_id":"e031351b-efdb-4640-8255-b69e1640bbff","system_id":"levelo_inurba_marseille","lat":43.2417,"lon":5.36379,"is_reserved":false,"is_disabled":false,"rental_uris":{"android":"levelo://app?vid=e031351b-efdb-4640-8255-b69e1640bbff","ios":"levelo://app?vid=e031351b-efdb-4640-8255-b69e1640bbff"},"vehicle_type_id":"4","last_reported":1739632138,"current_range_meters":29600,"station_id":"cpo36qri1sfpv3e86is0","pricing_plan_id":"cebpf4jnsgd1na2vs0mg"},{"bike_id":"9ebb5a9d-4361-463e-bf9a-89d36f38d7f0","system_id":"levelo_inurba_marseille","lat":43.27424,"lon":5.39406,"is_reserved":false,"is_disabled":false,"rental_uris":{"android":"levelo://app?vid=9ebb5a9d-4361-463e-bf9a-89d36f38d7f0","ios":"levelo://app?vid=9ebb5a9d-4361-463e-bf9a-89d36f38d7f0"},"vehicle_type_id":"4","last_reported":1739632138,"current_range_meters":6400,"station_id":"ce4bhdp2rcd13ifvqf20","pricing_plan_id":"cebpf4jnsgd1na2vs0mg"},{"bike_id":"4d242e08-a58c-403a-9c0b-4c37a8657be0","system_id":"levelo_inurba_marseille","lat":43.31289,"lon":5.36916,"is_reserved":false,"is_disabled":false,"rental_uris":{"android":"levelo://app?vid=4d242e08-a58c-403a-9c0b-4c37a8657be0","ios":"levelo://app?vid=4d242e08-a58c-403a-9c0b-4c37a8657be0"},"vehicle_type_id":"4","last_reported":1739632138,"current_range_meters":36800,"station_id":"ce4bgl92rcd13ifvqbq0","pricing_plan_id":"cebpf4jnsgd1na2vs0mg"},{"bike_id":"abc5a5d7-7aaa-4f21-90f0-4be14faa3a2a","system_id":"levelo_inurba_marseille","lat":43.2306,"lon":5.35497,"is_reserved":false,"is_disabled":false,"rental_uris":{"android":"levelo://app?vid=abc5a5d7-7aaa-4f21-90f0-4be14faa3a2a","ios":"levelo://app?vid=abc5a5d7-7aaa-4f21-90f0-4be14faa3a2a"},"vehicle_type_id":"4","last_reported":1739632138,"current_range_meters":16400,"station_id":"cpo3342slgdg3j2ifvpg","pricing_plan_id":"cebpf4jnsgd1na2vs0mg"},{"bike_id":"59102c6c-1681-46a2-9d38-9c0ebbd20b58","system_id":"levelo_inurba_marseille","lat":43.27209,"lon":5.3918,"is_reserved":false,"is_disabled":false,"rental_uris":{"android":"levelo://app?vid=59102c6c-1681-46a2-9d38-9c0ebbd20b58","ios":"levelo://app?vid=59102c6c-1681-46a2-9d38-9c0ebbd20b58"},"vehicle_type_id":"4","last_reported":1739632138,"current_range_meters":26800,"station_id":"ce4bhhp2rcd13ifvqfm0","pricing_plan_id":"cebpf4jnsgd1na2vs0mg"},{"bike_id":"89e645a1-b1ed-49f5-be27-7fc5d9eb3c6a","system_id":"levelo_inurba_marseille","lat":43.26778,"lon":5.39417,"is_reserved":false,"is_disabled":false,"rental_uris":{"android":"levelo://app?vid=89e645a1-b1ed-49f5-be27-7fc5d9eb3c6a","ios":"levelo://app?vid=89e645a1-b1ed-49f5-be27-7fc5d9eb3c6a"},"vehicle_type_id":"4","last_reported":1739632138,"current_range_meters":30800,"station_id":"ce4bhh12rcd13ifvqfg0","pricing_plan_id":"cebpf4jnsgd1na2vs0mg"},{"bike_id":"e1e4a299-1fe7-4bd4-8699-99b66d4d5b2d","system_id":"levelo_inurba_marseille","lat":43.27423,"lon":5.39412,"is_reserved":false,"is_disabled":false,"rental_uris":{"android":"levelo://app?vid=e1e4a299-1fe7-4bd4-8699-99b66d4d5b2d","ios":"levelo://app?vid=e1e4a299-1fe7-4bd4-8699-99b66d4d5b2d"},"vehicle_type_id":"4","last_reported":1739632138,"current_range_meters":14000,"station_id":"ce4bhdp2rcd13ifvqf20","pricing_plan_id":"cebpf4jnsgd1na2vs0mg"},{"bike_id":"ad4af932-f51b-41b8-983b-7e431dcc24a9","system_id":"levelo_inurba_marseille","lat":43.337444,"lon":5.374475,"is_reserved":false,"is_disabled":true,"rental_uris":{"android":"levelo://app?vid=ad4af932-f51b-41b8-983b-7e431dcc24a9","ios":"levelo://app?vid=ad4af932-f51b-41b8-983b-7e431dcc24a9"},"vehicle_type_id":"4","last_reported":1739632138,"current_range_meters":0,"station_id":"","pricing_plan_id":"cebpf4jnsgd1na2vs0mg"},{"bike_id":"95d42703-1a37-4cb4-8b06-69616f6b8e6d","system_id":"levelo_inurba_marseille","lat":43.276627,"lon":5.389677,"is_reserved":false,"is_disabled":true,"rental_uris":{"android":"levelo://app?vid=95d42703-1a37-4cb4-8b06-69616f6b8e6d","ios":"levelo://app?vid=95d42703-1a37-4cb4-8b06-69616f6b8e6d"},"vehicle_type_id":"4","last_reported":1739632138,"current_range_meters":37600,"station_id":"ce4bhi12rcd13ifvqfo0","pricing_plan_id":"cebpf4jnsgd1na2vs0mg"},{"bike_id":"81bec61a-1f2c-43a9-b162-eec1d41ccf13","system_id":"levelo_inurba_marseille","lat":43.27042,"lon":5.40228,"is_reserved":false,"is_disabled":false,"rental_uris":{"android":"levelo://app?vid=81bec61a-1f2c-43a9-b162-eec1d41ccf13","ios":"levelo://app?vid=81bec61a-1f2c-43a9-b162-eec1d41ccf13"},"vehicle_type_id":"4","last_reported":1739632138,"current_range_meters":30800,"station_id":"ce4bhk92rcd13ifvqgc0","pricing_plan_id":"cebpf4jnsgd1na2vs0mg"},{"bike_id":"dfb8b4bf-66b7-4f69-91ef-2703e7099d0d","system_id":"levelo_inurba_marseille","lat":43.2676,"lon":5.39393,"is_reserved":false,"is_disabled":true,"rental_uris":{"android":"levelo://app?vid=dfb8b4bf-66b7-4f69-91ef-2703e7099d0d","ios":"levelo://app?vid=dfb8b4bf-66b7-4f69-91ef-2703e7099d0d"},"vehicle_type_id":"4","last_reported":1739632138,"current_range_meters":4000,"station_id":"ce4bhh12rcd13ifvqfg0","pricing_plan_id":"cebpf4jnsgd1na2vs0mg"},{"bike_id":"e78856b5-71a9-44bc-b120-3e83e1ebc00b","system_id":"levelo_inurba_marseille","lat":43.28615,"lon":5.3511,"is_reserved":false,"is_disabled":false,"rental_uris":{"android":"levelo://app?vid=e78856b5-71a9-44bc-b120-3e83e1ebc00b","ios":"levelo://app?vid=e78856b5-71a9-44bc-b120-3e83e1ebc00b"},"vehicle_type_id":"4","last_reported":1739632138,"current_range_meters":14000,"station_id":"ce4bhch2rcd13ifvqeug","pricing_plan_id":"cebpf4jnsgd1na2vs0mg"},{"bike_id":"82722c87-452e-49bd-8471-780fd8b66bf0","system_id":"levelo_inurba_marseille","lat":43.29847,"lon":5.36286,"is_reserved":false,"is_disabled":false,"rental_uris":{"android":"levelo://app?vid=82722c87-452e-49bd-8471-780fd8b66bf0","ios":"levelo://app?vid=82722c87-452e-49bd-8471-780fd8b66bf0"},"vehicle_type_id":"4","last_reported":1739632138,"current_range_meters":37600,"station_id":"ce4bgpp2rcd13ifvqc3g","pricing_plan_id":"cebpf4jnsgd1na2vs0mg"},{"bike_id":"e146160c-5e90-409b-bb7b-23cbea7df593","system_id":"levelo_inurba_marseille","lat":43.28263,"lon":5.35067,"is_reserved":false,"is_disabled":false,"rental_uris":{"android":"levelo://app?vid=e146160c-5e90-409b-bb7b-23cbea7df593","ios":"levelo://app?vid=e146160c-5e90-409b-bb7b-23cbea7df593"},"vehicle_type_id":"4","last_reported":1739632138,"current_range_meters":17600,"station_id":"ce4bhbp2rcd13ifvqerg","pricing_plan_id":"cebpf4jnsgd1na2vs0mg"},{"bike_id":"aeb403d4-9cef-44b2-b32c-cb912f49efa3","system_id":"levelo_inurba_marseille","lat":43.23205,"lon":5.35547,"is_reserved":false,"is_disabled":false,"rental_uris":{"android":"levelo://app?vid=aeb403d4-9cef-44b2-b32c-cb912f49efa3","ios":"levelo://app?vid=aeb403d4-9cef-44b2-b32c-cb912f49efa3"},"vehicle_type_id":"4","last_reported":1739632138,"current_range_meters":33200,"station_id":"ce4bhu92rcd13ifvqi70","pricing_plan_id":"cebpf4jnsgd1na2vs0mg"},{"bike_id":"23b91d2f-614b-4724-b0c8-417df988b734","system_id":"levelo_inurba_marseille","lat":43.30278,"lon":5.37708,"is_reserved":false,"is_disabled":false,"rental_uris":{"android":"levelo://app?vid=23b91d2f-614b-4724-b0c8-417df988b734","ios":"levelo://app?vid=23b91d2f-614b-4724-b0c8-417df988b734"},"vehicle_type_id":"4","last_reported":1739632138,"current_range_meters":25600,"station_id":"ce4bguh2rcd13ifvqcj0","pricing_plan_id":"cebpf4jnsgd1na2vs0mg"},{"bike_id":"f00a432d-6e5e-4ca0-a2b9-2ac1fcc4c4f4","system_id":"levelo_inurba_marseille","lat":43.28018,"lon":5.39981,"is_reserved":false,"is_disabled":false,"rental_uris":{"android":"levelo://app?vid=f00a432d-6e5e-4ca0-a2b9-2ac1fcc4c4f4","ios":"levelo://app?vid=f00a432d-6e5e-4ca0-a2b9-2ac1fcc4c4f4"},"vehicle_type_id":"4","last_reported":1739632138,"current_range_meters":38800,"station_id":"ce4bho92rcd13ifvqh4g","pricing_plan_id":"cebpf4jnsgd1na2vs0mg"},{"bike_id":"94100bb7-48d5-467e-8066-5ddbd9e34c32","system_id":"levelo_inurba_marseille","lat":43.28936,"lon":5.36641,"is_reserved":false,"is_disabled":false,"rental_uris":{"android":"levelo://app?vid=94100bb7-48d5-467e-8066-5ddbd9e34c32","ios":"levelo://app?vid=94100bb7-48d5-467e-8066-5ddbd9e34c32"},"vehicle_type_id":"4","last_reported":1739632138,"current_range_meters":32400,"station_id":"ce4bhap2rcd13ifvqek0","pricing_plan_id":"cebpf4jnsgd1na2vs0mg"},{"bike_id":"201b0315-f60e-45b0-a64d-ce13682f54e1","system_id":"levelo_inurba_marseille","lat":43.29048,"lon":5.35891,"is_reserved":false,"is_disabled":false,"rental_uris":{"android":"levelo://app?vid=201b0315-f60e-45b0-a64d-ce13682f54e1","ios":"levelo://app?vid=201b0315-f60e-45b0-a64d-ce13682f54e1"},"vehicle_type_id":"4","last_reported":1739632138,"current_range_meters":39200,"station_id":"ce4bha92rcd13ifvqeg0","pricing_plan_id":"cebpf4jnsgd1na2vs0mg"},{"bike_id":"63ea1146-6635-4ab9-8ded-196ccb45282d","system_id":"levelo_inurba_marseille","lat":43.2307,"lon":5.35486,"is_reserved":false,"is_disabled":false,"rental_uris":{"android":"levelo://app?vid=63ea1146-6635-4ab9-8ded-196ccb45282d","ios":"levelo://app?vid=63ea1146-6635-4ab9-8ded-196ccb45282d"},"vehicle_type_id":"4","last_reported":1739632138,"current_range_meters":17200,"station_id":"cpo3342slgdg3j2ifvpg","pricing_plan_id":"cebpf4jnsgd1na2vs0mg"},{"bike_id":"f5f192a7-b2c4-4624-babd-daefaa52318e","system_id":"levelo_inurba_marseille","lat":43.30354,"lon":5.41881,"is_reserved":false,"is_disabled":false,"rental_uris":{"android":"levelo://app?vid=f5f192a7-b2c4-4624-babd-daefaa52318e","ios":"levelo://app?vid=f5f192a7-b2c4-4624-babd-daefaa52318e"},"vehicle_type_id":"4","last_reported":1739632138,"current_range_meters":27600,"station_id":"ce4bhop2rcd13ifvqh7g","pricing_plan_id":"cebpf4jnsgd1na2vs0mg"},{"bike_id":"076459a0-f045-4288-b5e6-f76a8dd2fa74","system_id":"levelo_inurba_marseille","lat":43.2694,"lon":5.4027,"is_reserved":false,"is_disabled":false,"rental_uris":{"android":"levelo://app?vid=076459a0-f045-4288-b5e6-f76a8dd2fa74","ios":"levelo://app?vid=076459a0-f045-4288-b5e6-f76a8dd2fa74"},"vehicle_type_id":"4","last_reported":1739632138,"current_range_meters":18000,"station_id":"cjm6bp8fraef2m0cb0m0","pricing_plan_id":"cebpf4jnsgd1na2vs0mg"},{"bike_id":"07094cf1-ed47-4e2b-9570-44cb6d930563","system_id":"levelo_inurba_marseille","lat":43.28947,"lon":5.3639,"is_reserved":false,"is_disabled":false,"rental_uris":{"android":"levelo://app?vid=07094cf1-ed47-4e2b-9570-44cb6d930563","ios":"levelo://app?vid=07094cf1-ed47-4e2b-9570-44cb6d930563"},"vehicle_type_id":"4","last_reported":1739632138,"current_range_meters":32000,"station_id":"ce4bhc92rcd13ifvqetg","pricing_plan_id":"cebpf4jnsgd1na2vs0mg"},{"bike_id":"194b68e1-105b-4594-bf0c-a5b7cd8379ae","system_id":"levelo_inurba_marseille","lat":43.29925,"lon":5.37462,"is_reserved":false,"is_disabled":false,"rental_uris":{"android":"levelo://app?vid=194b68e1-105b-4594-bf0c-a5b7cd8379ae","ios":"levelo://app?vid=194b68e1-105b-4594-bf0c-a5b7cd8379ae"},"vehicle_type_id":"4","last_reported":1739632138,"current_range_meters":26000,"station_id":"ce4bgjh2rcd13ifvqbg0","pricing_plan_id":"cebpf4jnsgd1na2vs0mg"},{"bike_id":"678885aa-a985-4570-9b83-1d6470e3b1c4","system_id":"levelo_inurba_marseille","lat":43.292,"lon":5.3581,"is_reserved":false,"is_disabled":false,"rental_uris":{"android":"levelo://app?vid=678885aa-a985-4570-9b83-1d6470e3b1c4","ios":"levelo://app?vid=678885aa-a985-4570-9b83-1d6470e3b1c4"},"vehicle_type_id":"4","last_reported":1739632138,"current_range_meters":39200,"station_id":"ce4bhb12rcd13ifvqel0","pricing_plan_id":"cebpf4jnsgd1na2vs0mg"},{"bike_id":"31ac5988-2e2b-4230-819c-ebed38add34d","system_id":"levelo_inurba_marseille","lat":43.26678,"lon":5.3827,"is_reserved":false,"is_disabled":false,"rental_uris":{"android":"levelo://app?vid=31ac5988-2e2b-4230-819c-ebed38add34d","ios":"levelo://app?vid=31ac5988-2e2b-4230-819c-ebed38add34d"},"vehicle_type_id":"4","last_reported":1739632138,"current_range_meters":30800,"station_id":"ce4bhg92rcd13ifvqf90","pricing_plan_id":"cebpf4jnsgd1na2vs0mg"},{"bike_id":"caec9f61-b6a4-40a8-847e-7b907ae08f34","system_id":"levelo_inurba_marseille","lat":43.24804,"lon":5.37465,"is_reserved":false,"is_disabled":false,"rental_uris":{"android":"levelo://app?vid=caec9f61-b6a4-40a8-847e-7b907ae08f34","ios":"levelo://app?vid=caec9f61-b6a4-40a8-847e-7b907ae08f34"},"vehicle_type_id":"4","last_reported":1739632138,"current_range_meters":39200,"station_id":"ce4bhgh2rcd13ifvqfb0","pricing_plan_id":"cebpf4jnsgd1na2vs0mg"},{"bike_id":"c1665b9a-8804-49fb-a2e7-87ab5bdd8b6d","system_id":"levelo_inurba_marseille","lat":43.33725,"lon":5.39182,"is_reserved":false,"is_disabled":false,"rental_uris":{"android":"levelo://app?vid=c1665b9a-8804-49fb-a2e7-87ab5bdd8b6d","ios":"levelo://app?vid=c1665b9a-8804-49fb-a2e7-87ab5bdd8b6d"},"vehicle_type_id":"4","last_reported":1739632138,"current_range_meters":38800,"station_id":"ce4bhr92rcd13ifvqhsg","pricing_plan_id":"cebpf4jnsgd1na2vs0mg"},{"bike_id":"5c381eca-4257-4fd5-9296-339ca91bf680","system_id":"levelo_inurba_marseille","lat":43.32018,"lon":5.38182,"is_reserved":false,"is_disabled":true,"rental_uris":{"android":"levelo://app?vid=5c381eca-4257-4fd5-9296-339ca91bf680","ios":"levelo://app?vid=5c381eca-4257-4fd5-9296-339ca91bf680"},"vehicle_type_id":"4","last_reported":1739632138,"current_range_meters":400,"station_id":"ce4bhr12rcd13ifvqhpg","pricing_plan_id":"cebpf4jnsgd1na2vs0mg"},{"bike_id":"d4f52d76-7af6-4c85-b975-4127ba821a6c","system_id":"levelo_inurba_marseille","lat":43.28268,"lon":5.35063,"is_reserved":false,"is_disabled":false,"rental_uris":{"android":"levelo://app?vid=d4f52d76-7af6-4c85-b975-4127ba821a6c","ios":"levelo://app?vid=d4f52d76-7af6-4c85-b975-4127ba821a6c"},"vehicle_type_id":"4","last_reported":1739632138,"current_range_meters":16800,"station_id":"ce4bhbp2rcd13ifvqerg","pricing_plan_id":"cebpf4jnsgd1na2vs0mg"},{"bike_id":"7ed11446-7c1f-4dd3-b6d2-aa1819775184","system_id":"levelo_inurba_marseille","lat":43.28273,"lon":5.35074,"is_reserved":false,"is_disabled":false,"rental_uris":{"android":"levelo://app?vid=7ed11446-7c1f-4dd3-b6d2-aa1819775184","ios":"levelo://app?vid=7ed11446-7c1f-4dd3-b6d2-aa1819775184"},"vehicle_type_id":"4","last_reported":1739632138,"current_range_meters":14800,"station_id":"ce4bhbp2rcd13ifvqerg","pricing_plan_id":"cebpf4jnsgd1na2vs0mg"},{"bike_id":"d157203c-3a5b-4bbc-9638-6eefce740d5e","system_id":"levelo_inurba_marseille","lat":43.23209,"lon":5.3554,"is_reserved":false,"is_disabled":false,"rental_uris":{"android":"levelo://app?vid=d157203c-3a5b-4bbc-9638-6eefce740d5e","ios":"levelo://app?vid=d157203c-3a5b-4bbc-9638-6eefce740d5e"},"vehicle_type_id":"4","last_reported":1739632138,"current_range_meters":24400,"station_id":"ce4bhu92rcd13ifvqi70","pricing_plan_id":"cebpf4jnsgd1na2vs0mg"},{"bike_id":"ab761f08-1e0a-4231-9bcc-bde3a6c90930","system_id":"levelo_inurba_marseille","lat":43.29961,"lon":5.41325,"is_reserved":false,"is_disabled":false,"rental_uris":{"android":"levelo://app?vid=ab761f08-1e0a-4231-9bcc-bde3a6c90930","ios":"levelo://app?vid=ab761f08-1e0a-4231-9bcc-bde3a6c90930"},"vehicle_type_id":"4","last_reported":1739632138,"current_range_meters":38800,"station_id":"ce4bhp12rcd13ifvqh9g","pricing_plan_id":"cebpf4jnsgd1na2vs0mg"},{"bike_id":"bc703baf-72de-47d6-bd3b-f784be8d5818","system_id":"levelo_inurba_marseille","lat":43.29545,"lon":5.37438,"is_reserved":false,"is_disabled":false,"rental_uris":{"android":"levelo://app?vid=bc703baf-72de-47d6-bd3b-f784be8d5818","ios":"levelo://app?vid=bc703baf-72de-47d6-bd3b-f784be8d5818"},"vehicle_type_id":"4","last_reported":1739632138,"current_range_meters":24000,"station_id":"","pricing_plan_id":"cebpf4jnsgd1na2vs0mg"},{"bike_id":"3067cc11-ea3d-4497-a8fa-3717c9b08d94","system_id":"levelo_inurba_marseille","lat":43.27323,"lon":5.39099,"is_reserved":false,"is_disabled":true,"rental_uris":{"android":"levelo://app?vid=3067cc11-ea3d-4497-a8fa-3717c9b08d94","ios":"levelo://app?vid=3067cc11-ea3d-4497-a8fa-3717c9b08d94"},"vehicle_type_id":"4","last_reported":1739632138,"current_range_meters":37600,"station_id":"ce4bhgp2rcd13ifvqfe0","pricing_plan_id":"cebpf4jnsgd1na2vs0mg"},{"bike_id":"6a2bb3c9-0567-4da7-8fd1-380f62448aab","system_id":"levelo_inurba_marseille","lat":43.22922,"lon":5.35383,"is_reserved":false,"is_disabled":false,"rental_uris":{"android":"levelo://app?vid=6a2bb3c9-0567-4da7-8fd1-380f62448aab","ios":"levelo://app?vid=6a2bb3c9-0567-4da7-8fd1-380f62448aab"},"vehicle_type_id":"4","last_reported":1739632138,"current_range_meters":20000,"station_id":"cpo3532slgdg3j2ikp40","pricing_plan_id":"cebpf4jnsgd1na2vs0mg"},{"bike_id":"88ce31aa-c55d-4f3d-b007-4c7143015990","system_id":"levelo_inurba_marseille","lat":43.28268,"lon":5.35075,"is_reserved":false,"is_disabled":false,"rental_uris":{"android":"levelo://app?vid=88ce31aa-c55d-4f3d-b007-4c7143015990","ios":"levelo://app?vid=88ce31aa-c55d-4f3d-b007-4c7143015990"},"vehicle_type_id":"4","last_reported":1739632138,"current_range_meters":33200,"station_id":"ce4bhbp2rcd13ifvqerg","pricing_plan_id":"cebpf4jnsgd1na2vs0mg"},{"bike_id":"e0a7e71d-dc2f-4b1e-9aa8-6dab872d7df0","system_id":"levelo_inurba_marseille","lat":43.24652,"lon":5.3889,"is_reserved":false,"is_disabled":false,"rental_uris":{"android":"levelo://app?vid=e0a7e71d-dc2f-4b1e-9aa8-6dab872d7df0","ios":"levelo://app?vid=e0a7e71d-dc2f-4b1e-9aa8-6dab872d7df0"},"vehicle_type_id":"4","last_reported":1739632138,"current_range_meters":38800,"station_id":"ce4bhg12rcd13ifvqf60","pricing_plan_id":"cebpf4jnsgd1na2vs0mg"},{"bike_id":"c966c1ce-0fbe-48df-83a8-da2401316a21","system_id":"levelo_inurba_marseille","lat":43.28941,"lon":5.36407,"is_reserved":false,"is_disabled":false,"rental_uris":{"android":"levelo://app?vid=c966c1ce-0fbe-48df-83a8-da2401316a21","ios":"levelo://app?vid=c966c1ce-0fbe-48df-83a8-da2401316a21"},"vehicle_type_id":"4","last_reported":1739632138,"current_range_meters":10800,"station_id":"ce4bhc92rcd13ifvqetg","pricing_plan_id":"cebpf4jnsgd1na2vs0mg"},{"bike_id":"d80860fa-7cf7-4ae7-befb-26e8065381a1","system_id":"levelo_inurba_marseille","lat":43.23199,"lon":5.35546,"is_reserved":false,"is_disabled":false,"rental_uris":{"android":"levelo://app?vid=d80860fa-7cf7-4ae7-befb-26e8065381a1","ios":"levelo://app?vid=d80860fa-7cf7-4ae7-befb-26e8065381a1"},"vehicle_type_id":"4","last_reported":1739632138,"current_range_meters":22000,"station_id":"ce4bhu92rcd13ifvqi70","pricing_plan_id":"cebpf4jnsgd1na2vs0mg"},{"bike_id":"105d9f63-3158-4a58-8927-d8e5c0881db6","system_id":"levelo_inurba_marseille","lat":43.317159,"lon":5.437095,"is_reserved":false,"is_disabled":false,"rental_uris":{"android":"levelo://app?vid=105d9f63-3158-4a58-8927-d8e5c0881db6","ios":"levelo://app?vid=105d9f63-3158-4a58-8927-d8e5c0881db6"},"vehicle_type_id":"4","last_reported":1739632138,"current_range_meters":34800,"station_id":"ce4bhp92rcd13ifvqhcg","pricing_plan_id":"cebpf4jnsgd1na2vs0mg"},{"bike_id":"9affa36b-20e9-45fc-a43b-0609d7cb9d1a","system_id":"levelo_inurba_marseille","lat":43.2908,"lon":5.38032,"is_reserved":false,"is_disabled":false,"rental_uris":{"android":"levelo://app?vid=9affa36b-20e9-45fc-a43b-0609d7cb9d1a","ios":"levelo://app?vid=9affa36b-20e9-45fc-a43b-0609d7cb9d1a"},"vehicle_type_id":"4","last_reported":1739632138,"current_range_meters":27600,"station_id":"","pricing_plan_id":"cebpf4jnsgd1na2vs0mg"},{"bike_id":"7fbc73d1-9fd4-4110-b91c-2da795de64af","system_id":"levelo_inurba_marseille","lat":43.25709,"lon":5.4108,"is_reserved":false,"is_disabled":false,"rental_uris":{"android":"levelo://app?vid=7fbc73d1-9fd4-4110-b91c-2da795de64af","ios":"levelo://app?vid=7fbc73d1-9fd4-4110-b91c-2da795de64af"},"vehicle_type_id":"4","last_reported":1739632138,"current_range_meters":38400,"station_id":"ce4bhkp2rcd13ifvqgd0","pricing_plan_id":"cebpf4jnsgd1na2vs0mg"},{"bike_id":"47ef3a27-cf04-4369-bc44-2fee4bbfaa10","system_id":"levelo_inurba_marseille","lat":43.24668,"lon":5.38187,"is_reserved":false,"is_disabled":true,"rental_uris":{"android":"levelo://app?vid=47ef3a27-cf04-4369-bc44-2fee4bbfaa10","ios":"levelo://app?vid=47ef3a27-cf04-4369-bc44-2fee4bbfaa10"},"vehicle_type_id":"4","last_reported":1739632138,"current_range_meters":14000,"station_id":"ce4bhih2rcd13ifvqfr0","pricing_plan_id":"cebpf4jnsgd1na2vs0mg"},{"bike_id":"102faded-26f9-4ebc-b701-33d277912a5a","system_id":"levelo_inurba_marseille","lat":43.24399,"lon":5.37055,"is_reserved":false,"is_disabled":false,"rental_uris":{"android":"levelo://app?vid=102faded-26f9-4ebc-b701-33d277912a5a","ios":"levelo://app?vid=102faded-26f9-4ebc-b701-33d277912a5a"},"vehicle_type_id":"4","last_reported":1739632138,"current_range_meters":38800,"station_id":"ce4bhhh2rcd13ifvqfk0","pricing_plan_id":"cebpf4jnsgd1na2vs0mg"},{"bike_id":"0555fef1-9dfe-4b9e-bfe7-044c137852a0","system_id":"levelo_inurba_marseille","lat":43.29911,"lon":5.38132,"is_reserved":false,"is_disabled":true,"rental_uris":{"android":"levelo://app?vid=0555fef1-9dfe-4b9e-bfe7-044c137852a0","ios":"levelo://app?vid=0555fef1-9dfe-4b9e-bfe7-044c137852a0"},"vehicle_type_id":"4","last_reported":1739632138,"current_range_meters":1600,"station_id":"ce4bgj12rcd13ifvqbc0","pricing_plan_id":"cebpf4jnsgd1na2vs0mg"},{"bike_id":"ce4f4277-5b34-4550-a49e-20c07d7f8834","system_id":"levelo_inurba_marseille","lat":43.22935,"lon":5.35387,"is_reserved":false,"is_disabled":false,"rental_uris":{"android":"levelo://app?vid=ce4f4277-5b34-4550-a49e-20c07d7f8834","ios":"levelo://app?vid=ce4f4277-5b34-4550-a49e-20c07d7f8834"},"vehicle_type_id":"4","last_reported":1739632138,"current_range_meters":17600,"station_id":"cpo3532slgdg3j2ikp40","pricing_plan_id":"cebpf4jnsgd1na2vs0mg"},{"bike_id":"9322770b-9ac7-49d9-9440-25a8d78cedc3","system_id":"levelo_inurba_marseille","lat":43.27319,"lon":5.39075,"is_reserved":false,"is_disabled":false,"rental_uris":{"android":"levelo://app?vid=9322770b-9ac7-49d9-9440-25a8d78cedc3","ios":"levelo://app?vid=9322770b-9ac7-49d9-9440-25a8d78cedc3"},"vehicle_type_id":"4","last_reported":1739632138,"current_range_meters":34000,"station_id":"ce4bhgp2rcd13ifvqfe0","pricing_plan_id":"cebpf4jnsgd1na2vs0mg"},{"bike_id":"8117974c-bb65-48cc-97a1-00efc5f6146b","system_id":"levelo_inurba_marseille","lat":43.26779,"lon":5.3942,"is_reserved":false,"is_disabled":false,"rental_uris":{"android":"levelo://app?vid=8117974c-bb65-48cc-97a1-00efc5f6146b","ios":"levelo://app?vid=8117974c-bb65-48cc-97a1-00efc5f6146b"},"vehicle_type_id":"4","last_reported":1739632138,"current_range_meters":8400,"station_id":"ce4bhh12rcd13ifvqfg0","pricing_plan_id":"cebpf4jnsgd1na2vs0mg"},{"bike_id":"b0fee063-725f-4300-8cfa-0b4c2bc786cc","system_id":"levelo_inurba_marseille","lat":43.29008,"lon":5.35619,"is_reserved":false,"is_disabled":false,"rental_uris":{"android":"levelo://app?vid=b0fee063-725f-4300-8cfa-0b4c2bc786cc","ios":"levelo://app?vid=b0fee063-725f-4300-8cfa-0b4c2bc786cc"},"vehicle_type_id":"4","last_reported":1739632138,"current_range_meters":38800,"station_id":"ce4bhb92rcd13ifvqen0","pricing_plan_id":"cebpf4jnsgd1na2vs0mg"},{"bike_id":"70aaca68-1213-472d-8066-0c300646bdda","system_id":"levelo_inurba_marseille","lat":43.27223,"lon":5.39174,"is_reserved":false,"is_disabled":false,"rental_uris":{"android":"levelo://app?vid=70aaca68-1213-472d-8066-0c300646bdda","ios":"levelo://app?vid=70aaca68-1213-472d-8066-0c300646bdda"},"vehicle_type_id":"4","last_reported":1739632138,"current_range_meters":28800,"station_id":"ce4bhhp2rcd13ifvqfm0","pricing_plan_id":"cebpf4jnsgd1na2vs0mg"},{"bike_id":"7324a39c-46eb-4274-9bc8-c87c280daa98","system_id":"levelo_inurba_marseille","lat":43.25586,"lon":5.38221,"is_reserved":false,"is_disabled":false,"rental_uris":{"android":"levelo://app?vid=7324a39c-46eb-4274-9bc8-c87c280daa98","ios":"levelo://app?vid=7324a39c-46eb-4274-9bc8-c87c280daa98"},"vehicle_type_id":"4","last_reported":1739632138,"current_range_meters":38400,"station_id":"ce4bhih2rcd13ifvqfs0","pricing_plan_id":"cebpf4jnsgd1na2vs0mg"},{"bike_id":"e6fd358c-b438-4d60-9a9e-462a59ce875d","system_id":"levelo_inurba_marseille","lat":43.23194,"lon":5.35553,"is_reserved":false,"is_disabled":false,"rental_uris":{"android":"levelo://app?vid=e6fd358c-b438-4d60-9a9e-462a59ce875d","ios":"levelo://app?vid=e6fd358c-b438-4d60-9a9e-462a59ce875d"},"vehicle_type_id":"4","last_reported":1739632138,"current_range_meters":30800,"station_id":"ce4bhu92rcd13ifvqi70","pricing_plan_id":"cebpf4jnsgd1na2vs0mg"},{"bike_id":"2473118c-303f-4d83-81ea-eefc0a7cabf9","system_id":"levelo_inurba_marseille","lat":43.28274,"lon":5.35079,"is_reserved":false,"is_disabled":false,"rental_uris":{"android":"levelo://app?vid=2473118c-303f-4d83-81ea-eefc0a7cabf9","ios":"levelo://app?vid=2473118c-303f-4d83-81ea-eefc0a7cabf9"},"vehicle_type_id":"4","last_reported":1739632138,"current_range_meters":30400,"station_id":"ce4bhbp2rcd13ifvqerg","pricing_plan_id":"cebpf4jnsgd1na2vs0mg"},{"bike_id":"0cb0fe49-a533-4581-9bc2-3fbe111459f5","system_id":"levelo_inurba_marseille","lat":43.25009,"lon":5.3893,"is_reserved":false,"is_disabled":false,"rental_uris":{"android":"levelo://app?vid=0cb0fe49-a533-4581-9bc2-3fbe111459f5","ios":"levelo://app?vid=0cb0fe49-a533-4581-9bc2-3fbe111459f5"},"vehicle_type_id":"4","last_reported":1739632138,"current_range_meters":39200,"station_id":"ce4bhgp2rcd13ifvqfd0","pricing_plan_id":"cebpf4jnsgd1na2vs0mg"},{"bike_id":"42f3453e-0b53-4be0-888a-97336c2a8d54","system_id":"levelo_inurba_marseille","lat":43.28609,"lon":5.35137,"is_reserved":false,"is_disabled":false,"rental_uris":{"android":"levelo://app?vid=42f3453e-0b53-4be0-888a-97336c2a8d54","ios":"levelo://app?vid=42f3453e-0b53-4be0-888a-97336c2a8d54"},"vehicle_type_id":"4","last_reported":1739632138,"current_range_meters":38800,"station_id":"ce4bhch2rcd13ifvqeug","pricing_plan_id":"cebpf4jnsgd1na2vs0mg"},{"bike_id":"f8be4ae6-adc2-4520-8321-d6b41cf92103","system_id":"levelo_inurba_marseille","lat":43.23191,"lon":5.355417,"is_reserved":false,"is_disabled":false,"rental_uris":{"android":"levelo://app?vid=f8be4ae6-adc2-4520-8321-d6b41cf92103","ios":"levelo://app?vid=f8be4ae6-adc2-4520-8321-d6b41cf92103"},