{"last_updated":1773928872,"ttl":60,"version":"2.2","data":{"bikes":[{"bike_id":"85cf966e-8410-4382-ad1a-bf9f9335b2f6","system_id":"levelo_inurba_marseille","lat":43.30614,"lon":5.43225,"is_reserved":false,"is_disabled":false,"rental_uris":{"android":"levelo://app?vid=85cf966e-8410-4382-ad1a-bf9f9335b2f6","ios":"levelo://app?vid=85cf966e-8410-4382-ad1a-bf9f9335b2f6"},"vehicle_type_id":"4","last_reported":1773928872,"current_range_meters":2800,"station_id":"","pricing_plan_id":"cebpf4jnsgd1na2vs0mg"},{"bike_id":"11d8fd6e-b7fc-43de-92a3-61fec46def35","system_id":"levelo_inurba_marseille","lat":43.30136,"lon":5.381,"is_reserved":false,"is_disabled":false,"rental_uris":{"android":"levelo://app?vid=11d8fd6e-b7fc-43de-92a3-61fec46def35","ios":"levelo://app?vid=11d8fd6e-b7fc-43de-92a3-61fec46def35"},"vehicle_type_id":"4","last_reported":1773928872,"current_range_meters":2800,"station_id":"ce4bgjp2rcd13ifvqbh0","pricing_plan_id":"cebpf4jnsgd1na2vs0mg"},{"bike_id":"641fadc8-18c8-4da9-af42-22c7c4e3360c","system_id":"levelo_inurba_marseille","lat":43.24801,"lon":5.37477,"is_reserved":false,"is_disabled":false,"rental_uris":{"android":"levelo://app?vid=641fadc8-18c8-4da9-af42-22c7c4e3360c","ios":"levelo://app?vid=641fadc8-18c8-4da9-af42-22c7c4e3360c"},"vehicle_type_id":"4","last_reported":1773928872,"current_range_meters":2800,"station_id":"ce4bhgh2rcd13ifvqfb0","pricing_plan_id":"cebpf4jnsgd1na2vs0mg"},{"bike_id":"9c3f77c9-7bfb-4160-b5b1-77b59e9b0c46","system_id":"levelo_inurba_marseille","lat":43.31118,"lon":5.37758,"is_reserved":false,"is_disabled":false,"rental_uris":{"android":"levelo://app?vid=9c3f77c9-7bfb-4160-b5b1-77b59e9b0c46","ios":"levelo://app?vid=9c3f77c9-7bfb-4160-b5b1-77b59e9b0c46"},"vehicle_type_id":"4","last_reported":1773928872,"current_range_meters":2800,"station_id":"ce4bgt92rcd13ifvqcg0","pricing_plan_id":"cebpf4jnsgd1na2vs0mg"},{"bike_id":"12f1567a-7b2b-4dc3-9da3-23d792235594","system_id":"levelo_inurba_marseille","lat":43.25486,"lon":5.37657,"is_reserved":false,"is_disabled":false,"rental_uris":{"android":"levelo://app?vid=12f1567a-7b2b-4dc3-9da3-23d792235594","ios":"levelo://app?vid=12f1567a-7b2b-4dc3-9da3-23d792235594"},"vehicle_type_id":"4","last_reported":1773928872,"current_range_meters":2800,"station_id":"ce4bhh12rcd13ifvqff0","pricing_plan_id":"cebpf4jnsgd1na2vs0mg"},{"bike_id":"8ffa06ae-b4c3-4139-b95e-aafe549f6920","system_id":"levelo_inurba_marseille","lat":43.24076,"lon":5.37747,"is_reserved":false,"is_disabled":false,"rental_uris":{"android":"levelo://app?vid=8ffa06ae-b4c3-4139-b95e-aafe549f6920","ios":"levelo://app?vid=8ffa06ae-b4c3-4139-b95e-aafe549f6920"},"vehicle_type_id":"4","last_reported":1773928872,"current_range_meters":2800,"station_id":"ce4bhnp2rcd13ifvqgvg","pricing_plan_id":"cebpf4jnsgd1na2vs0mg"},{"bike_id":"eaa9d3c5-f89d-4396-8235-4030217e81cb","system_id":"levelo_inurba_marseille","lat":43.25487,"lon":5.37628,"is_reserved":false,"is_disabled":false,"rental_uris":{"android":"levelo://app?vid=eaa9d3c5-f89d-4396-8235-4030217e81cb","ios":"levelo://app?vid=eaa9d3c5-f89d-4396-8235-4030217e81cb"},"vehicle_type_id":"4","last_reported":1773928872,"current_range_meters":2800,"station_id":"ce4bhh12rcd13ifvqff0","pricing_plan_id":"cebpf4jnsgd1na2vs0mg"},{"bike_id":"d02d5cce-b119-4e6d-889d-629c9617b412","system_id":"levelo_inurba_marseille","lat":43.2926,"lon":5.36859,"is_reserved":false,"is_disabled":false,"rental_uris":{"android":"levelo://app?vid=d02d5cce-b119-4e6d-889d-629c9617b412","ios":"levelo://app?vid=d02d5cce-b119-4e6d-889d-629c9617b412"},"vehicle_type_id":"4","last_reported":1773928872,"current_range_meters":2800,"station_id":"ce4bhbp2rcd13ifvqesg","pricing_plan_id":"cebpf4jnsgd1na2vs0mg"},{"bike_id":"1247d45b-e241-4b79-8eae-077ee621a299","system_id":"levelo_inurba_marseille","lat":43.30142,"lon":5.37413,"is_reserved":false,"is_disabled":false,"rental_uris":{"android":"levelo://app?vid=1247d45b-e241-4b79-8eae-077ee621a299","ios":"levelo://app?vid=1247d45b-e241-4b79-8eae-077ee621a299"},"vehicle_type_id":"4","last_reported":1773928872,"current_range_meters":2800,"station_id":"ce4bgs92rcd13ifvqcc0","pricing_plan_id":"cebpf4jnsgd1na2vs0mg"},{"bike_id":"7c245f6b-63fb-4c36-8493-afb8fd5288f8","system_id":"levelo_inurba_marseille","lat":43.31176,"lon":5.39078,"is_reserved":false,"is_disabled":false,"rental_uris":{"android":"levelo://app?vid=7c245f6b-63fb-4c36-8493-afb8fd5288f8","ios":"levelo://app?vid=7c245f6b-63fb-4c36-8493-afb8fd5288f8"},"vehicle_type_id":"4","last_reported":1773928872,"current_range_meters":2800,"station_id":"","pricing_plan_id":"cebpf4jnsgd1na2vs0mg"},{"bike_id":"5032ee4c-643b-4fa7-8a5c-8d5e764831f6","system_id":"levelo_inurba_marseille","lat":43.21747,"lon":5.34603,"is_reserved":false,"is_disabled":false,"rental_uris":{"android":"levelo://app?vid=5032ee4c-643b-4fa7-8a5c-8d5e764831f6","ios":"levelo://app?vid=5032ee4c-643b-4fa7-8a5c-8d5e764831f6"},"vehicle_type_id":"4","last_reported":1773928872,"current_range_meters":3200,"station_id":"st_cvj6r9ubvosntc0bgbag","pricing_plan_id":"cebpf4jnsgd1na2vs0mg"},{"bike_id":"e1c3f1b9-ac50-4e95-9233-8bcaed0b995d","system_id":"levelo_inurba_marseille","lat":43.29111,"lon":5.38138,"is_reserved":false,"is_disabled":false,"rental_uris":{"android":"levelo://app?vid=e1c3f1b9-ac50-4e95-9233-8bcaed0b995d","ios":"levelo://app?vid=e1c3f1b9-ac50-4e95-9233-8bcaed0b995d"},"vehicle_type_id":"4","last_reported":1773928872,"current_range_meters":3200,"station_id":"ce4bh512rcd13ifvqe2g","pricing_plan_id":"cebpf4jnsgd1na2vs0mg"},{"bike_id":"8cc6aea2-9d99-4846-9795-29def49af57b","system_id":"levelo_inurba_marseille","lat":43.23374,"lon":5.4124,"is_reserved":false,"is_disabled":false,"rental_uris":{"android":"levelo://app?vid=8cc6aea2-9d99-4846-9795-29def49af57b","ios":"levelo://app?vid=8cc6aea2-9d99-4846-9795-29def49af57b"},"vehicle_type_id":"4","last_reported":1773928872,"current_range_meters":3200,"station_id":"","pricing_plan_id":"cebpf4jnsgd1na2vs0mg"},{"bike_id":"ccf4cbaf-a48e-4a3a-bd43-50421be7ff22","system_id":"levelo_inurba_marseille","lat":43.273315,"lon":5.390669,"is_reserved":false,"is_disabled":true,"rental_uris":{"android":"levelo://app?vid=ccf4cbaf-a48e-4a3a-bd43-50421be7ff22","ios":"levelo://app?vid=ccf4cbaf-a48e-4a3a-bd43-50421be7ff22"},"vehicle_type_id":"4","last_reported":1773928872,"current_range_meters":3200,"station_id":"ce4bhgp2rcd13ifvqfe0","pricing_plan_id":"cebpf4jnsgd1na2vs0mg"},{"bike_id":"8a854e0a-3b9f-471d-80f2-bfadb0595e6b","system_id":"levelo_inurba_marseille","lat":43.3143,"lon":5.38357,"is_reserved":false,"is_disabled":false,"rental_uris":{"android":"levelo://app?vid=8a854e0a-3b9f-471d-80f2-bfadb0595e6b","ios":"levelo://app?vid=8a854e0a-3b9f-471d-80f2-bfadb0595e6b"},"vehicle_type_id":"4","last_reported":1773928872,"current_range_meters":3200,"station_id":"","pricing_plan_id":"cebpf4jnsgd1na2vs0mg"},{"bike_id":"cbc8599d-0f53-4276-b29f-85b323d36cb9","system_id":"levelo_inurba_marseille","lat":43.25488,"lon":5.37684,"is_reserved":false,"is_disabled":false,"rental_uris":{"android":"levelo://app?vid=cbc8599d-0f53-4276-b29f-85b323d36cb9","ios":"levelo://app?vid=cbc8599d-0f53-4276-b29f-85b323d36cb9"},"vehicle_type_id":"4","last_reported":1773928872,"current_range_meters":3200,"station_id":"ce4bhh12rcd13ifvqff0","pricing_plan_id":"cebpf4jnsgd1na2vs0mg"},{"bike_id":"5f48b784-ccd6-4c4d-ba2a-b915cab8937a","system_id":"levelo_inurba_marseille","lat":43.2407,"lon":5.37759,"is_reserved":false,"is_disabled":false,"rental_uris":{"android":"levelo://app?vid=5f48b784-ccd6-4c4d-ba2a-b915cab8937a","ios":"levelo://app?vid=5f48b784-ccd6-4c4d-ba2a-b915cab8937a"},"vehicle_type_id":"4","last_reported":1773928872,"current_range_meters":3200,"station_id":"ce4bhnp2rcd13ifvqgvg","pricing_plan_id":"cebpf4jnsgd1na2vs0mg"},{"bike_id":"f6ee1884-654a-4cf1-9550-43571ed76b0f","system_id":"levelo_inurba_marseille","lat":43.31241,"lon":5.36817,"is_reserved":false,"is_disabled":false,"rental_uris":{"android":"levelo://app?vid=f6ee1884-654a-4cf1-9550-43571ed76b0f","ios":"levelo://app?vid=f6ee1884-654a-4cf1-9550-43571ed76b0f"},"vehicle_type_id":"4","last_reported":1773928872,"current_range_meters":3200,"station_id":"ce4bgl92rcd13ifvqbq0","pricing_plan_id":"cebpf4jnsgd1na2vs0mg"},{"bike_id":"05375032-7220-474f-8065-6be5553c2007","system_id":"levelo_inurba_marseille","lat":43.28461,"lon":5.35873,"is_reserved":false,"is_disabled":true,"rental_uris":{"android":"levelo://app?vid=05375032-7220-474f-8065-6be5553c2007","ios":"levelo://app?vid=05375032-7220-474f-8065-6be5553c2007"},"vehicle_type_id":"4","last_reported":1773928872,"current_range_meters":3200,"station_id":"ce4bhah2rcd13ifvqei0","pricing_plan_id":"cebpf4jnsgd1na2vs0mg"},{"bike_id":"a572e204-6f27-4521-96d7-a0fda59f3e68","system_id":"levelo_inurba_marseille","lat":43.26778,"lon":5.39412,"is_reserved":false,"is_disabled":false,"rental_uris":{"android":"levelo://app?vid=a572e204-6f27-4521-96d7-a0fda59f3e68","ios":"levelo://app?vid=a572e204-6f27-4521-96d7-a0fda59f3e68"},"vehicle_type_id":"4","last_reported":1773928872,"current_range_meters":3200,"station_id":"ce4bhh12rcd13ifvqfg0","pricing_plan_id":"cebpf4jnsgd1na2vs0mg"},{"bike_id":"3064287c-8ed3-41e8-93b5-31fa274eed05","system_id":"levelo_inurba_marseille","lat":43.29518,"lon":5.40123,"is_reserved":false,"is_disabled":true,"rental_uris":{"android":"levelo://app?vid=3064287c-8ed3-41e8-93b5-31fa274eed05","ios":"levelo://app?vid=3064287c-8ed3-41e8-93b5-31fa274eed05"},"vehicle_type_id":"4","last_reported":1773928872,"current_range_meters":3200,"station_id":"","pricing_plan_id":"cebpf4jnsgd1na2vs0mg"},{"bike_id":"662515ca-8612-45cd-9984-7a98e9ec41c0","system_id":"levelo_inurba_marseille","lat":43.29253,"lon":5.38435,"is_reserved":false,"is_disabled":false,"rental_uris":{"android":"levelo://app?vid=662515ca-8612-45cd-9984-7a98e9ec41c0","ios":"levelo://app?vid=662515ca-8612-45cd-9984-7a98e9ec41c0"},"vehicle_type_id":"4","last_reported":1773928872,"current_range_meters":3200,"station_id":"ce4bh692rcd13ifvqea0","pricing_plan_id":"cebpf4jnsgd1na2vs0mg"},{"bike_id":"70936e10-5e7b-4a3f-ba54-11b9889c84d3","system_id":"levelo_inurba_marseille","lat":43.28404,"lon":5.3498,"is_reserved":false,"is_disabled":false,"rental_uris":{"android":"levelo://app?vid=70936e10-5e7b-4a3f-ba54-11b9889c84d3","ios":"levelo://app?vid=70936e10-5e7b-4a3f-ba54-11b9889c84d3"},"vehicle_type_id":"4","last_reported":1773928872,"current_range_meters":3200,"station_id":"ce4bhbh2rcd13ifvqepg","pricing_plan_id":"cebpf4jnsgd1na2vs0mg"},{"bike_id":"c9cfc67c-4e42-4833-b4ab-11ad690d27f6","system_id":"levelo_inurba_marseille","lat":43.33039,"lon":5.3958,"is_reserved":false,"is_disabled":false,"rental_uris":{"android":"levelo://app?vid=c9cfc67c-4e42-4833-b4ab-11ad690d27f6","ios":"levelo://app?vid=c9cfc67c-4e42-4833-b4ab-11ad690d27f6"},"vehicle_type_id":"4","last_reported":1773928872,"current_range_meters":3200,"station_id":"","pricing_plan_id":"cebpf4jnsgd1na2vs0mg"},{"bike_id":"de24bc13-60d2-47be-9b00-0469a1d5d309","system_id":"levelo_inurba_marseille","lat":43.28154,"lon":5.42614,"is_reserved":false,"is_disabled":false,"rental_uris":{"android":"levelo://app?vid=de24bc13-60d2-47be-9b00-0469a1d5d309","ios":"levelo://app?vid=de24bc13-60d2-47be-9b00-0469a1d5d309"},"vehicle_type_id":"4","last_reported":1773928872,"current_range_meters":3200,"station_id":"ce4bhnh2rcd13ifvqgug","pricing_plan_id":"cebpf4jnsgd1na2vs0mg"},{"bike_id":"a39c2269-c1be-4679-b7ec-7b13e4b25bad","system_id":"levelo_inurba_marseille","lat":43.32505,"lon":5.38774,"is_reserved":false,"is_disabled":true,"rental_uris":{"android":"levelo://app?vid=a39c2269-c1be-4679-b7ec-7b13e4b25bad","ios":"levelo://app?vid=a39c2269-c1be-4679-b7ec-7b13e4b25bad"},"vehicle_type_id":"4","last_reported":1773928872,"current_range_meters":3200,"station_id":"","pricing_plan_id":"cebpf4jnsgd1na2vs0mg"},{"bike_id":"779b8a3c-1846-46b5-9cab-bf0ec2b1118f","system_id":"levelo_inurba_marseille","lat":43.28478,"lon":5.48374,"is_reserved":false,"is_disabled":false,"rental_uris":{"android":"levelo://app?vid=779b8a3c-1846-46b5-9cab-bf0ec2b1118f","ios":"levelo://app?vid=779b8a3c-1846-46b5-9cab-bf0ec2b1118f"},"vehicle_type_id":"4","last_reported":1773928872,"current_range_meters":3200,"station_id":"st_d3svhcjqgbts73a3dn0g","pricing_plan_id":"cebpf4jnsgd1na2vs0mg"},{"bike_id":"4c5fbed2-bedd-4333-b08d-9569361b354d","system_id":"levelo_inurba_marseille","lat":43.30149,"lon":5.37414,"is_reserved":false,"is_disabled":false,"rental_uris":{"android":"levelo://app?vid=4c5fbed2-bedd-4333-b08d-9569361b354d","ios":"levelo://app?vid=4c5fbed2-bedd-4333-b08d-9569361b354d"},"vehicle_type_id":"4","last_reported":1773928872,"current_range_meters":3200,"station_id":"ce4bgs92rcd13ifvqcc0","pricing_plan_id":"cebpf4jnsgd1na2vs0mg"},{"bike_id":"9ef9fd3b-08e1-41bf-bbd1-087477917b48","system_id":"levelo_inurba_marseille","lat":43.31246,"lon":5.36824,"is_reserved":false,"is_disabled":false,"rental_uris":{"android":"levelo://app?vid=9ef9fd3b-08e1-41bf-bbd1-087477917b48","ios":"levelo://app?vid=9ef9fd3b-08e1-41bf-bbd1-087477917b48"},"vehicle_type_id":"4","last_reported":1773928872,"current_range_meters":3600,"station_id":"ce4bgl92rcd13ifvqbq0","pricing_plan_id":"cebpf4jnsgd1na2vs0mg"},{"bike_id":"1b1c91ee-b819-425b-84ab-0a4ba95f3d7d","system_id":"levelo_inurba_marseille","lat":43.30547,"lon":5.36701,"is_reserved":false,"is_disabled":false,"rental_uris":{"android":"levelo://app?vid=1b1c91ee-b819-425b-84ab-0a4ba95f3d7d","ios":"levelo://app?vid=1b1c91ee-b819-425b-84ab-0a4ba95f3d7d"},"vehicle_type_id":"4","last_reported":1773928872,"current_range_meters":3600,"station_id":"ce4bgrp2rcd13ifvqc9g","pricing_plan_id":"cebpf4jnsgd1na2vs0mg"},{"bike_id":"c0ce446a-9085-4968-895d-00725cc652ae","system_id":"levelo_inurba_marseille","lat":43.29556,"lon":5.42293,"is_reserved":false,"is_disabled":false,"rental_uris":{"android":"levelo://app?vid=c0ce446a-9085-4968-895d-00725cc652ae","ios":"levelo://app?vid=c0ce446a-9085-4968-895d-00725cc652ae"},"vehicle_type_id":"4","last_reported":1773928872,"current_range_meters":3600,"station_id":"ce4bhph2rcd13ifvqhdg","pricing_plan_id":"cebpf4jnsgd1na2vs0mg"},{"bike_id":"4eced43a-881d-4cd3-8e25-8c263cf0f4be","system_id":"levelo_inurba_marseille","lat":43.2417,"lon":5.39703,"is_reserved":false,"is_disabled":false,"rental_uris":{"android":"levelo://app?vid=4eced43a-881d-4cd3-8e25-8c263cf0f4be","ios":"levelo://app?vid=4eced43a-881d-4cd3-8e25-8c263cf0f4be"},"vehicle_type_id":"4","last_reported":1773928872,"current_range_meters":3600,"station_id":"ce4bhn12rcd13ifvqgpg","pricing_plan_id":"cebpf4jnsgd1na2vs0mg"},{"bike_id":"f992aeeb-d813-4a07-b667-bac32cecf243","system_id":"levelo_inurba_marseille","lat":43.28152,"lon":5.42619,"is_reserved":false,"is_disabled":false,"rental_uris":{"android":"levelo://app?vid=f992aeeb-d813-4a07-b667-bac32cecf243","ios":"levelo://app?vid=f992aeeb-d813-4a07-b667-bac32cecf243"},"vehicle_type_id":"4","last_reported":1773928872,"current_range_meters":3600,"station_id":"ce4bhnh2rcd13ifvqgug","pricing_plan_id":"cebpf4jnsgd1na2vs0mg"},{"bike_id":"fc161407-a29a-4a41-810b-5f3e4c01383e","system_id":"levelo_inurba_marseille","lat":43.28686,"lon":5.38663,"is_reserved":false,"is_disabled":false,"rental_uris":{"android":"levelo://app?vid=fc161407-a29a-4a41-810b-5f3e4c01383e","ios":"levelo://app?vid=fc161407-a29a-4a41-810b-5f3e4c01383e"},"vehicle_type_id":"4","last_reported":1773928872,"current_range_meters":3600,"station_id":"ce4bh492rcd13ifvqdug","pricing_plan_id":"cebpf4jnsgd1na2vs0mg"},{"bike_id":"9e4744d7-f368-459f-af93-bfca8452f77a","system_id":"levelo_inurba_marseille","lat":43.25119,"lon":5.40317,"is_reserved":false,"is_disabled":false,"rental_uris":{"android":"levelo://app?vid=9e4744d7-f368-459f-af93-bfca8452f77a","ios":"levelo://app?vid=9e4744d7-f368-459f-af93-bfca8452f77a"},"vehicle_type_id":"4","last_reported":1773928872,"current_range_meters":3600,"station_id":"ce4bhlh2rcd13ifvqgig","pricing_plan_id":"cebpf4jnsgd1na2vs0mg"},{"bike_id":"a9d31829-7e0d-482f-af05-97ddd320ae16","system_id":"levelo_inurba_marseille","lat":43.29752,"lon":5.42757,"is_reserved":false,"is_disabled":true,"rental_uris":{"android":"levelo://app?vid=a9d31829-7e0d-482f-af05-97ddd320ae16","ios":"levelo://app?vid=a9d31829-7e0d-482f-af05-97ddd320ae16"},"vehicle_type_id":"4","last_reported":1773928872,"current_range_meters":3600,"station_id":"st_d3md5207bmas73dh9klg","pricing_plan_id":"cebpf4jnsgd1na2vs0mg"},{"bike_id":"5bd8abc7-3678-4a26-92ef-cd8e416f7a05","system_id":"levelo_inurba_marseille","lat":43.30557,"lon":5.36699,"is_reserved":false,"is_disabled":false,"rental_uris":{"android":"levelo://app?vid=5bd8abc7-3678-4a26-92ef-cd8e416f7a05","ios":"levelo://app?vid=5bd8abc7-3678-4a26-92ef-cd8e416f7a05"},"vehicle_type_id":"4","last_reported":1773928872,"current_range_meters":3600,"station_id":"ce4bgrp2rcd13ifvqc9g","pricing_plan_id":"cebpf4jnsgd1na2vs0mg"},{"bike_id":"e107cb22-a13d-4c03-93ce-8114e06b9a0f","system_id":"levelo_inurba_marseille","lat":43.28481,"lon":5.4838,"is_reserved":false,"is_disabled":false,"rental_uris":{"android":"levelo://app?vid=e107cb22-a13d-4c03-93ce-8114e06b9a0f","ios":"levelo://app?vid=e107cb22-a13d-4c03-93ce-8114e06b9a0f"},"vehicle_type_id":"4","last_reported":1773928872,"current_range_meters":3600,"station_id":"","pricing_plan_id":"cebpf4jnsgd1na2vs0mg"},{"bike_id":"084697b5-723d-43e0-be94-a0a2b5ad077d","system_id":"levelo_inurba_marseille","lat":43.30134,"lon":5.37405,"is_reserved":false,"is_disabled":false,"rental_uris":{"android":"levelo://app?vid=084697b5-723d-43e0-be94-a0a2b5ad077d","ios":"levelo://app?vid=084697b5-723d-43e0-be94-a0a2b5ad077d"},"vehicle_type_id":"4","last_reported":1773928872,"current_range_meters":3600,"station_id":"ce4bgs92rcd13ifvqcc0","pricing_plan_id":"cebpf4jnsgd1na2vs0mg"},{"bike_id":"b5e19bf2-dbc7-4806-bbc0-08a12463d957","system_id":"levelo_inurba_marseille","lat":43.26701,"lon":5.38306,"is_reserved":false,"is_disabled":false,"rental_uris":{"android":"levelo://app?vid=b5e19bf2-dbc7-4806-bbc0-08a12463d957","ios":"levelo://app?vid=b5e19bf2-dbc7-4806-bbc0-08a12463d957"},"vehicle_type_id":"4","last_reported":1773928872,"current_range_meters":4000,"station_id":"ce4bhg92rcd13ifvqf90","pricing_plan_id":"cebpf4jnsgd1na2vs0mg"},{"bike_id":"2cd6d2c4-9839-4b08-8d75-805c4c2214dc","system_id":"levelo_inurba_marseille","lat":43.23047,"lon":5.35497,"is_reserved":false,"is_disabled":false,"rental_uris":{"android":"levelo://app?vid=2cd6d2c4-9839-4b08-8d75-805c4c2214dc","ios":"levelo://app?vid=2cd6d2c4-9839-4b08-8d75-805c4c2214dc"},"vehicle_type_id":"4","last_reported":1773928872,"current_range_meters":4000,"station_id":"cpo3342slgdg3j2ifvpg","pricing_plan_id":"cebpf4jnsgd1na2vs0mg"},{"bike_id":"ad1e9f99-6bd1-4b5c-a1ba-31037e1b6563","system_id":"levelo_inurba_marseille","lat":43.30239,"lon":5.40063,"is_reserved":false,"is_disabled":true,"rental_uris":{"android":"levelo://app?vid=ad1e9f99-6bd1-4b5c-a1ba-31037e1b6563","ios":"levelo://app?vid=ad1e9f99-6bd1-4b5c-a1ba-31037e1b6563"},"vehicle_type_id":"4","last_reported":1773928872,"current_range_meters":4000,"station_id":"ce4bgvh2rcd13ifvqcs0","pricing_plan_id":"cebpf4jnsgd1na2vs0mg"},{"bike_id":"61a11f67-e71e-416d-a1f8-45b381aac294","system_id":"levelo_inurba_marseille","lat":43.30479,"lon":5.37885,"is_reserved":false,"is_disabled":false,"rental_uris":{"android":"levelo://app?vid=61a11f67-e71e-416d-a1f8-45b381aac294","ios":"levelo://app?vid=61a11f67-e71e-416d-a1f8-45b381aac294"},"vehicle_type_id":"4","last_reported":1773928872,"current_range_meters":4000,"station_id":"ce4bgup2rcd13ifvqcn0","pricing_plan_id":"cebpf4jnsgd1na2vs0mg"},{"bike_id":"e3f98b8f-85ce-489c-a727-bc5b88c16674","system_id":"levelo_inurba_marseille","lat":43.29073,"lon":5.40042,"is_reserved":false,"is_disabled":false,"rental_uris":{"android":"levelo://app?vid=e3f98b8f-85ce-489c-a727-bc5b88c16674","ios":"levelo://app?vid=e3f98b8f-85ce-489c-a727-bc5b88c16674"},"vehicle_type_id":"4","last_reported":1773928872,"current_range_meters":4000,"station_id":"ce4bh392rcd13ifvqdm0","pricing_plan_id":"cebpf4jnsgd1na2vs0mg"},{"bike_id":"d0b1f448-6af4-4ef1-a755-e03baf4488aa","system_id":"levelo_inurba_marseille","lat":43.29242,"lon":5.35756,"is_reserved":false,"is_disabled":false,"rental_uris":{"android":"levelo://app?vid=d0b1f448-6af4-4ef1-a755-e03baf4488aa","ios":"levelo://app?vid=d0b1f448-6af4-4ef1-a755-e03baf4488aa"},"vehicle_type_id":"4","last_reported":1773928872,"current_range_meters":4000,"station_id":"","pricing_plan_id":"cebpf4jnsgd1na2vs0mg"},{"bike_id":"571306dc-a6ed-4a50-a094-b630d3dfd317","system_id":"levelo_inurba_marseille","lat":43.24047,"lon":5.37764,"is_reserved":false,"is_disabled":false,"rental_uris":{"android":"levelo://app?vid=571306dc-a6ed-4a50-a094-b630d3dfd317","ios":"levelo://app?vid=571306dc-a6ed-4a50-a094-b630d3dfd317"},"vehicle_type_id":"4","last_reported":1773928872,"current_range_meters":4000,"station_id":"ce4bhnp2rcd13ifvqgvg","pricing_plan_id":"cebpf4jnsgd1na2vs0mg"},{"bike_id":"0f09d40a-db70-4180-a724-24d20ea9a714","system_id":"levelo_inurba_marseille","lat":43.30299,"lon":5.3922,"is_reserved":false,"is_disabled":false,"rental_uris":{"android":"levelo://app?vid=0f09d40a-db70-4180-a724-24d20ea9a714","ios":"levelo://app?vid=0f09d40a-db70-4180-a724-24d20ea9a714"},"vehicle_type_id":"4","last_reported":1773928872,"current_range_meters":4000,"station_id":"ce4bgkh2rcd13ifvqbk0","pricing_plan_id":"cebpf4jnsgd1na2vs0mg"},{"bike_id":"49e58b45-8006-4905-8714-a8bb81e1041c","system_id":"levelo_inurba_marseille","lat":43.26955,"lon":5.38632,"is_reserved":false,"is_disabled":false,"rental_uris":{"android":"levelo://app?vid=49e58b45-8006-4905-8714-a8bb81e1041c","ios":"levelo://app?vid=49e58b45-8006-4905-8714-a8bb81e1041c"},"vehicle_type_id":"4","last_reported":1773928872,"current_range_meters":4000,"station_id":"ce4bhh92rcd13ifvqfh0","pricing_plan_id":"cebpf4jnsgd1na2vs0mg"},{"bike_id":"187b42b0-dcdd-41c7-bbff-4ef39a3817bf","system_id":"levelo_inurba_marseille","lat":43.30941,"lon":5.39055,"is_reserved":false,"is_disabled":false,"rental_uris":{"android":"levelo://app?vid=187b42b0-dcdd-41c7-bbff-4ef39a3817bf","ios":"levelo://app?vid=187b42b0-dcdd-41c7-bbff-4ef39a3817bf"},"vehicle_type_id":"4","last_reported":1773928872,"current_range_meters":4000,"station_id":"ce4bgup2rcd13ifvqco0","pricing_plan_id":"cebpf4jnsgd1na2vs0mg"},{"bike_id":"af021088-135b-42e1-97a1-be2000f7a8e2","system_id":"levelo_inurba_marseille","lat":43.28412,"lon":5.34982,"is_reserved":false,"is_disabled":false,"rental_uris":{"android":"levelo://app?vid=af021088-135b-42e1-97a1-be2000f7a8e2","ios":"levelo://app?vid=af021088-135b-42e1-97a1-be2000f7a8e2"},"vehicle_type_id":"4","last_reported":1773928872,"current_range_meters":4000,"station_id":"ce4bhbh2rcd13ifvqepg","pricing_plan_id":"cebpf4jnsgd1na2vs0mg"},{"bike_id":"2ef805d9-30ed-458c-b20f-4a2e59ed9e83","system_id":"levelo_inurba_marseille","lat":43.24071,"lon":5.37753,"is_reserved":false,"is_disabled":false,"rental_uris":{"android":"levelo://app?vid=2ef805d9-30ed-458c-b20f-4a2e59ed9e83","ios":"levelo://app?vid=2ef805d9-30ed-458c-b20f-4a2e59ed9e83"},"vehicle_type_id":"4","last_reported":1773928872,"current_range_meters":4000,"station_id":"ce4bhnp2rcd13ifvqgvg","pricing_plan_id":"cebpf4jnsgd1na2vs0mg"},{"bike_id":"ec353870-38d4-45b2-8733-694b6044316c","system_id":"levelo_inurba_marseille","lat":43.31419,"lon":5.36649,"is_reserved":false,"is_disabled":false,"rental_uris":{"android":"levelo://app?vid=ec353870-38d4-45b2-8733-694b6044316c","ios":"levelo://app?vid=ec353870-38d4-45b2-8733-694b6044316c"},"vehicle_type_id":"4","last_reported":1773928872,"current_range_meters":4000,"station_id":"","pricing_plan_id":"cebpf4jnsgd1na2vs0mg"},{"bike_id":"a4d345eb-9042-4103-a6af-92f745c66d40","system_id":"levelo_inurba_marseille","lat":43.30676,"lon":5.37058,"is_reserved":false,"is_disabled":false,"rental_uris":{"android":"levelo://app?vid=a4d345eb-9042-4103-a6af-92f745c66d40","ios":"levelo://app?vid=a4d345eb-9042-4103-a6af-92f745c66d40"},"vehicle_type_id":"4","last_reported":1773928872,"current_range_meters":4000,"station_id":"","pricing_plan_id":"cebpf4jnsgd1na2vs0mg"},{"bike_id":"74807e9c-7061-43ed-a53a-8f5de62805e4","system_id":"levelo_inurba_marseille","lat":43.26363,"lon":5.41071,"is_reserved":false,"is_disabled":false,"rental_uris":{"android":"levelo://app?vid=74807e9c-7061-43ed-a53a-8f5de62805e4","ios":"levelo://app?vid=74807e9c-7061-43ed-a53a-8f5de62805e4"},"vehicle_type_id":"4","last_reported":1773928872,"current_range_meters":4400,"station_id":"st_d4e5ca6na9uc73bfl5fg","pricing_plan_id":"cebpf4jnsgd1na2vs0mg"},{"bike_id":"f5224bed-ce0d-4ca7-877b-7e08321d9e8f","system_id":"levelo_inurba_marseille","lat":43.28712,"lon":5.37924,"is_reserved":false,"is_disabled":false,"rental_uris":{"android":"levelo://app?vid=f5224bed-ce0d-4ca7-877b-7e08321d9e8f","ios":"levelo://app?vid=f5224bed-ce0d-4ca7-877b-7e08321d9e8f"},"vehicle_type_id":"4","last_reported":1773928872,"current_range_meters":4400,"station_id":"ce4bh9p2rcd13ifvqec0","pricing_plan_id":"cebpf4jnsgd1na2vs0mg"},{"bike_id":"023876ac-2218-4ff6-98a1-8a684c19ae77","system_id":"levelo_inurba_marseille","lat":43.24073,"lon":5.37737,"is_reserved":false,"is_disabled":false,"rental_uris":{"android":"levelo://app?vid=023876ac-2218-4ff6-98a1-8a684c19ae77","ios":"levelo://app?vid=023876ac-2218-4ff6-98a1-8a684c19ae77"},"vehicle_type_id":"4","last_reported":1773928872,"current_range_meters":4400,"station_id":"ce4bhnp2rcd13ifvqgvg","pricing_plan_id":"cebpf4jnsgd1na2vs0mg"},{"bike_id":"24d974e5-bba3-4c89-b8a7-c466f3f80f92","system_id":"levelo_inurba_marseille","lat":43.30558,"lon":5.36693,"is_reserved":false,"is_disabled":false,"rental_uris":{"android":"levelo://app?vid=24d974e5-bba3-4c89-b8a7-c466f3f80f92","ios":"levelo://app?vid=24d974e5-bba3-4c89-b8a7-c466f3f80f92"},"vehicle_type_id":"4","last_reported":1773928872,"current_range_meters":4400,"station_id":"ce4bgrp2rcd13ifvqc9g","pricing_plan_id":"cebpf4jnsgd1na2vs0mg"},{"bike_id":"9740939d-62f0-4d95-b1cc-dff352f60200","system_id":"levelo_inurba_marseille","lat":43.23157,"lon":5.43685,"is_reserved":false,"is_disabled":false,"rental_uris":{"android":"levelo://app?vid=9740939d-62f0-4d95-b1cc-dff352f60200","ios":"levelo://app?vid=9740939d-62f0-4d95-b1cc-dff352f60200"},"vehicle_type_id":"4","last_reported":1773928872,"current_range_meters":4400,"station_id":"ce4bhmp2rcd13ifvqgog","pricing_plan_id":"cebpf4jnsgd1na2vs0mg"},{"bike_id":"2b9d3d39-1405-49f9-97c0-4318c8a64ea3","system_id":"levelo_inurba_marseille","lat":43.22933,"lon":5.35377,"is_reserved":false,"is_disabled":false,"rental_uris":{"android":"levelo://app?vid=2b9d3d39-1405-49f9-97c0-4318c8a64ea3","ios":"levelo://app?vid=2b9d3d39-1405-49f9-97c0-4318c8a64ea3"},"vehicle_type_id":"4","last_reported":1773928872,"current_range_meters":4400,"station_id":"cpo3532slgdg3j2ikp40","pricing_plan_id":"cebpf4jnsgd1na2vs0mg"},{"bike_id":"fad8e96d-acb2-4874-9608-7180f6b034b8","system_id":"levelo_inurba_marseille","lat":43.29166,"lon":5.40802,"is_reserved":false,"is_disabled":false,"rental_uris":{"android":"levelo://app?vid=fad8e96d-acb2-4874-9608-7180f6b034b8","ios":"levelo://app?vid=fad8e96d-acb2-4874-9608-7180f6b034b8"},"vehicle_type_id":"4","last_reported":1773928872,"current_range_meters":4400,"station_id":"","pricing_plan_id":"cebpf4jnsgd1na2vs0mg"},{"bike_id":"447b11a1-21b5-4523-80dc-ebe593853403","system_id":"levelo_inurba_marseille","lat":43.29132,"lon":5.42614,"is_reserved":false,"is_disabled":false,"rental_uris":{"android":"levelo://app?vid=447b11a1-21b5-4523-80dc-ebe593853403","ios":"levelo://app?vid=447b11a1-21b5-4523-80dc-ebe593853403"},"vehicle_type_id":"4","last_reported":1773928872,"current_range_meters":4400,"station_id":"","pricing_plan_id":"cebpf4jnsgd1na2vs0mg"},{"bike_id":"9f75c148-29b0-4bb8-830f-4649881bace1","system_id":"levelo_inurba_marseille","lat":43.3117,"lon":5.38724,"is_reserved":false,"is_disabled":false,"rental_uris":{"android":"levelo://app?vid=9f75c148-29b0-4bb8-830f-4649881bace1","ios":"levelo://app?vid=9f75c148-29b0-4bb8-830f-4649881bace1"},"vehicle_type_id":"4","last_reported":1773928872,"current_range_meters":4400,"station_id":"ce4bgv12rcd13ifvqcp0","pricing_plan_id":"cebpf4jnsgd1na2vs0mg"},{"bike_id":"3903529a-97cf-43f8-9c3a-f35f9c9bbdf2","system_id":"levelo_inurba_marseille","lat":43.31354,"lon":5.36693,"is_reserved":false,"is_disabled":true,"rental_uris":{"android":"levelo://app?vid=3903529a-97cf-43f8-9c3a-f35f9c9bbdf2","ios":"levelo://app?vid=3903529a-97cf-43f8-9c3a-f35f9c9bbdf2"},"vehicle_type_id":"4","last_reported":1773928872,"current_range_meters":4800,"station_id":"ce4bgr92rcd13ifvqc6g","pricing_plan_id":"cebpf4jnsgd1na2vs0mg"},{"bike_id":"eabf8e41-a27c-4d5b-84c1-d95bcff48f69","system_id":"levelo_inurba_marseille","lat":43.260314,"lon":5.375445,"is_reserved":false,"is_disabled":false,"rental_uris":{"android":"levelo://app?vid=eabf8e41-a27c-4d5b-84c1-d95bcff48f69","ios":"levelo://app?vid=eabf8e41-a27c-4d5b-84c1-d95bcff48f69"},"vehicle_type_id":"4","last_reported":1773928872,"current_range_meters":4800,"station_id":"ce4bhgh2rcd13ifvqfa0","pricing_plan_id":"cebpf4jnsgd1na2vs0mg"},{"bike_id":"1c51670a-46e5-4a0c-9d9c-3c2806d077a8","system_id":"levelo_inurba_marseille","lat":43.29008,"lon":5.38116,"is_reserved":false,"is_disabled":true,"rental_uris":{"android":"levelo://app?vid=1c51670a-46e5-4a0c-9d9c-3c2806d077a8","ios":"levelo://app?vid=1c51670a-46e5-4a0c-9d9c-3c2806d077a8"},"vehicle_type_id":"4","last_reported":1773928872,"current_range_meters":4800,"station_id":"ce4bh4p2rcd13ifvqe1g","pricing_plan_id":"cebpf4jnsgd1na2vs0mg"},{"bike_id":"8fc815a0-27f7-46c6-94ce-1771649a634a","system_id":"levelo_inurba_marseille","lat":43.29252,"lon":5.36835,"is_reserved":false,"is_disabled":false,"rental_uris":{"android":"levelo://app?vid=8fc815a0-27f7-46c6-94ce-1771649a634a","ios":"levelo://app?vid=8fc815a0-27f7-46c6-94ce-1771649a634a"},"vehicle_type_id":"4","last_reported":1773928872,"current_range_meters":4800,"station_id":"ce4bhbp2rcd13ifvqesg","pricing_plan_id":"cebpf4jnsgd1na2vs0mg"},{"bike_id":"1cca5431-2737-44fc-b8e2-46f08992f983","system_id":"levelo_inurba_marseille","lat":43.29579,"lon":5.37516,"is_reserved":false,"is_disabled":false,"rental_uris":{"android":"levelo://app?vid=1cca5431-2737-44fc-b8e2-46f08992f983","ios":"levelo://app?vid=1cca5431-2737-44fc-b8e2-46f08992f983"},"vehicle_type_id":"4","last_reported":1773928872,"current_range_meters":4800,"station_id":"ce4bgh92rcd13ifvqb50","pricing_plan_id":"cebpf4jnsgd1na2vs0mg"},{"bike_id":"e86b0d6c-0c42-46e1-9e38-e8993a783bc4","system_id":"levelo_inurba_marseille","lat":43.28411,"lon":5.34984,"is_reserved":false,"is_disabled":false,"rental_uris":{"android":"levelo://app?vid=e86b0d6c-0c42-46e1-9e38-e8993a783bc4","ios":"levelo://app?vid=e86b0d6c-0c42-46e1-9e38-e8993a783bc4"},"vehicle_type_id":"4","last_reported":1773928872,"current_range_meters":4800,"station_id":"ce4bhbh2rcd13ifvqepg","pricing_plan_id":"cebpf4jnsgd1na2vs0mg"},{"bike_id":"29ca079b-50a3-46cc-b23f-205697515a10","system_id":"levelo_inurba_marseille","lat":43.25574,"lon":5.38231,"is_reserved":false,"is_disabled":false,"rental_uris":{"android":"levelo://app?vid=29ca079b-50a3-46cc-b23f-205697515a10","ios":"levelo://app?vid=29ca079b-50a3-46cc-b23f-205697515a10"},"vehicle_type_id":"4","last_reported":1773928872,"current_range_meters":4800,"station_id":"ce4bhih2rcd13ifvqfs0","pricing_plan_id":"cebpf4jnsgd1na2vs0mg"},{"bike_id":"d24f41e6-665c-4423-bf1b-eb3390a18873","system_id":"levelo_inurba_marseille","lat":43.32045,"lon":5.41538,"is_reserved":false,"is_disabled":false,"rental_uris":{"android":"levelo://app?vid=d24f41e6-665c-4423-bf1b-eb3390a18873","ios":"levelo://app?vid=d24f41e6-665c-4423-bf1b-eb3390a18873"},"vehicle_type_id":"4","last_reported":1773928872,"current_range_meters":4800,"station_id":"ce4bhq92rcd13ifvqhkg","pricing_plan_id":"cebpf4jnsgd1na2vs0mg"},{"bike_id":"3cdb9282-92ea-46a0-a841-f2dd988ecc68","system_id":"levelo_inurba_marseille","lat":43.22932,"lon":5.35374,"is_reserved":false,"is_disabled":false,"rental_uris":{"android":"levelo://app?vid=3cdb9282-92ea-46a0-a841-f2dd988ecc68","ios":"levelo://app?vid=3cdb9282-92ea-46a0-a841-f2dd988ecc68"},"vehicle_type_id":"4","last_reported":1773928872,"current_range_meters":4800,"station_id":"cpo3532slgdg3j2ikp40","pricing_plan_id":"cebpf4jnsgd1na2vs0mg"},{"bike_id":"a0786a4c-b395-4096-85ae-761ead074cbe","system_id":"levelo_inurba_marseille","lat":43.28981,"lon":5.37836,"is_reserved":false,"is_disabled":false,"rental_uris":{"android":"levelo://app?vid=a0786a4c-b395-4096-85ae-761ead074cbe","ios":"levelo://app?vid=a0786a4c-b395-4096-85ae-761ead074cbe"},"vehicle_type_id":"4","last_reported":1773928872,"current_range_meters":5600,"station_id":"ce4bh9p2rcd13ifvqed0","pricing_plan_id":"cebpf4jnsgd1na2vs0mg"},{"bike_id":"89390251-13d6-48a3-9f5a-85c6e8954d53","system_id":"levelo_inurba_marseille","lat":43.26215,"lon":5.37437,"is_reserved":false,"is_disabled":false,"rental_uris":{"android":"levelo://app?vid=89390251-13d6-48a3-9f5a-85c6e8954d53","ios":"levelo://app?vid=89390251-13d6-48a3-9f5a-85c6e8954d53"},"vehicle_type_id":"4","last_reported":1773928872,"current_range_meters":5600,"station_id":"ce4bhgp2rcd13ifvqfc0","pricing_plan_id":"cebpf4jnsgd1na2vs0mg"},{"bike_id":"1fdbd032-af28-4158-a02e-01bb107fd2a7","system_id":"levelo_inurba_marseille","lat":43.337444,"lon":5.374475,"is_reserved":false,"is_disabled":false,"rental_uris":{"android":"levelo://app?vid=1fdbd032-af28-4158-a02e-01bb107fd2a7","ios":"levelo://app?vid=1fdbd032-af28-4158-a02e-01bb107fd2a7"},"vehicle_type_id":"4","last_reported":1773928872,"current_range_meters":5600,"station_id":"","pricing_plan_id":"cebpf4jnsgd1na2vs0mg"},{"bike_id":"13ad50bf-7f2f-4ad1-a82f-209db682ff58","system_id":"levelo_inurba_marseille","lat":43.26562,"lon":5.38994,"is_reserved":false,"is_disabled":true,"rental_uris":{"android":"levelo://app?vid=13ad50bf-7f2f-4ad1-a82f-209db682ff58","ios":"levelo://app?vid=13ad50bf-7f2f-4ad1-a82f-209db682ff58"},"vehicle_type_id":"4","last_reported":1773928872,"current_range_meters":5600,"station_id":"ce4bhe12rcd13ifvqf30","pricing_plan_id":"cebpf4jnsgd1na2vs0mg"},{"bike_id":"d430e9e5-fd9f-4f9a-8bb4-92da94adbedc","system_id":"levelo_inurba_marseille","lat":43.29026,"lon":5.38635,"is_reserved":false,"is_disabled":false,"rental_uris":{"android":"levelo://app?vid=d430e9e5-fd9f-4f9a-8bb4-92da94adbedc","ios":"levelo://app?vid=d430e9e5-fd9f-4f9a-8bb4-92da94adbedc"},"vehicle_type_id":"4","last_reported":1773928872,"current_range_meters":5600,"station_id":"ce4bh4p2rcd13ifvqe0g","pricing_plan_id":"cebpf4jnsgd1na2vs0mg"},{"bike_id":"95d31319-d36d-403e-adf6-0b51cdaa5b1b","system_id":"levelo_inurba_marseille","lat":43.3143,"lon":5.39256,"is_reserved":false,"is_disabled":true,"rental_uris":{"android":"levelo://app?vid=95d31319-d36d-403e-adf6-0b51cdaa5b1b","ios":"levelo://app?vid=95d31319-d36d-403e-adf6-0b51cdaa5b1b"},"vehicle_type_id":"4","last_reported":1773928872,"current_range_meters":5600,"station_id":"","pricing_plan_id":"cebpf4jnsgd1na2vs0mg"},{"bike_id":"b67a0ae9-1e5a-4269-a754-9e5211f6df68","system_id":"levelo_inurba_marseille","lat":43.26022,"lon":5.37555,"is_reserved":false,"is_disabled":false,"rental_uris":{"android":"levelo://app?vid=b67a0ae9-1e5a-4269-a754-9e5211f6df68","ios":"levelo://app?vid=b67a0ae9-1e5a-4269-a754-9e5211f6df68"},"vehicle_type_id":"4","last_reported":1773928872,"current_range_meters":5600,"station_id":"ce4bhgh2rcd13ifvqfa0","pricing_plan_id":"cebpf4jnsgd1na2vs0mg"},{"bike_id":"506661fa-d7d4-473c-8038-c16d45410fe8","system_id":"levelo_inurba_marseille","lat":43.28865,"lon":5.42522,"is_reserved":false,"is_disabled":false,"rental_uris":{"android":"levelo://app?vid=506661fa-d7d4-473c-8038-c16d45410fe8","ios":"levelo://app?vid=506661fa-d7d4-473c-8038-c16d45410fe8"},"vehicle_type_id":"4","last_reported":1773928872,"current_range_meters":5600,"station_id":"","pricing_plan_id":"cebpf4jnsgd1na2vs0mg"},{"bike_id":"44c8df88-de51-49b2-8ab0-a9e34286f417","system_id":"levelo_inurba_marseille","lat":43.30697,"lon":5.3738,"is_reserved":false,"is_disabled":false,"rental_uris":{"android":"levelo://app?vid=44c8df88-de51-49b2-8ab0-a9e34286f417","ios":"levelo://app?vid=44c8df88-de51-49b2-8ab0-a9e34286f417"},"vehicle_type_id":"4","last_reported":1773928872,"current_range_meters":5600,"station_id":"","pricing_plan_id":"cebpf4jnsgd1na2vs0mg"},{"bike_id":"1aff8517-7e68-4410-bc2a-243fc03b5f61","system_id":"levelo_inurba_marseille","lat":43.30933,"lon":5.39031,"is_reserved":false,"is_disabled":false,"rental_uris":{"android":"levelo://app?vid=1aff8517-7e68-4410-bc2a-243fc03b5f61","ios":"levelo://app?vid=1aff8517-7e68-4410-bc2a-243fc03b5f61"},"vehicle_type_id":"4","last_reported":1773928872,"current_range_meters":5600,"station_id":"ce4bgup2rcd13ifvqco0","pricing_plan_id":"cebpf4jnsgd1na2vs0mg"},{"bike_id":"8d453495-3564-45ab-8a3b-137ae72dad70","system_id":"levelo_inurba_marseille","lat":43.27375,"lon":5.3626,"is_reserved":false,"is_disabled":false,"rental_uris":{"android":"levelo://app?vid=8d453495-3564-45ab-8a3b-137ae72dad70","ios":"levelo://app?vid=8d453495-3564-45ab-8a3b-137ae72dad70"},"vehicle_type_id":"4","last_reported":1773928872,"current_range_meters":5600,"station_id":"ce4bhbh2rcd13ifvqeo0","pricing_plan_id":"cebpf4jnsgd1na2vs0mg"},{"bike_id":"43b21f40-857e-4d10-aaa9-5eb8b1b19b9c","system_id":"levelo_inurba_marseille","lat":43.29306,"lon":5.37444,"is_reserved":false,"is_disabled":false,"rental_uris":{"android":"levelo://app?vid=43b21f40-857e-4d10-aaa9-5eb8b1b19b9c","ios":"levelo://app?vid=43b21f40-857e-4d10-aaa9-5eb8b1b19b9c"},"vehicle_type_id":"4","last_reported":1773928872,"current_range_meters":5600,"station_id":"ce4bgi12rcd13ifvqb70","pricing_plan_id":"cebpf4jnsgd1na2vs0mg"},{"bike_id":"fe1092e9-fdd8-4db6-86b3-2f1b835050e1","system_id":"levelo_inurba_marseille","lat":43.30524,"lon":5.36705,"is_reserved":false,"is_disabled":false,"rental_uris":{"android":"levelo://app?vid=fe1092e9-fdd8-4db6-86b3-2f1b835050e1","ios":"levelo://app?vid=fe1092e9-fdd8-4db6-86b3-2f1b835050e1"},"vehicle_type_id":"4","last_reported":1773928872,"current_range_meters":5600,"station_id":"ce4bgrp2rcd13ifvqc9g","pricing_plan_id":"cebpf4jnsgd1na2vs0mg"},{"bike_id":"dd8390c9-eed9-4b5d-95df-1b40250bc11f","system_id":"levelo_inurba_marseille","lat":43.21591,"lon":5.34543,"is_reserved":false,"is_disabled":false,"rental_uris":{"android":"levelo://app?vid=dd8390c9-eed9-4b5d-95df-1b40250bc11f","ios":"levelo://app?vid=dd8390c9-eed9-4b5d-95df-1b40250bc11f"},"vehicle_type_id":"4","last_reported":1773928872,"current_range_meters":5600,"station_id":"","pricing_plan_id":"cebpf4jnsgd1na2vs0mg"},{"bike_id":"69eb8448-c0e0-496f-831c-8ada77fd31e2","system_id":"levelo_inurba_marseille","lat":43.2306,"lon":5.35487,"is_reserved":false,"is_disabled":false,"rental_uris":{"android":"levelo://app?vid=69eb8448-c0e0-496f-831c-8ada77fd31e2","ios":"levelo://app?vid=69eb8448-c0e0-496f-831c-8ada77fd31e2"},"vehicle_type_id":"4","last_reported":1773928872,"current_range_meters":6000,"station_id":"cpo3342slgdg3j2ifvpg","pricing_plan_id":"cebpf4jnsgd1na2vs0mg"},{"bike_id":"0ee4ce16-829f-49ee-9a2a-4b4670dfbc6f","system_id":"levelo_inurba_marseille","lat":43.28494,"lon":5.48418,"is_reserved":false,"is_disabled":false,"rental_uris":{"android":"levelo://app?vid=0ee4ce16-829f-49ee-9a2a-4b4670dfbc6f","ios":"levelo://app?vid=0ee4ce16-829f-49ee-9a2a-4b4670dfbc6f"},"vehicle_type_id":"4","last_reported":1773928872,"current_range_meters":6000,"station_id":"st_d3svhcjqgbts73a3dn0g","pricing_plan_id":"cebpf4jnsgd1na2vs0mg"},{"bike_id":"caf5e45c-f3f2-43eb-99a6-b11ec33451e8","system_id":"levelo_inurba_marseille","lat":43.2397,"lon":5.36604,"is_reserved":false,"is_disabled":false,"rental_uris":{"android":"levelo://app?vid=caf5e45c-f3f2-43eb-99a6-b11ec33451e8","ios":"levelo://app?vid=caf5e45c-f3f2-43eb-99a6-b11ec33451e8"},"vehicle_type_id":"4","last_reported":1773928872,"current_range_meters":6000,"station_id":"ce4bhi12rcd13ifvqfp0","pricing_plan_id":"cebpf4jnsgd1na2vs0mg"},{"bike_id":"23d476cd-7740-4a83-aebf-1cbb76136180","system_id":"levelo_inurba_marseille","lat":43.30539,"lon":5.38426,"is_reserved":false,"is_disabled":false,"rental_uris":{"android":"levelo://app?vid=23d476cd-7740-4a83-aebf-1cbb76136180","ios":"levelo://app?vid=23d476cd-7740-4a83-aebf-1cbb76136180"},"vehicle_type_id":"4","last_reported":1773928872,"current_range_meters":6000,"station_id":"ce4bgg92rcd13ifvqb30","pricing_plan_id":"cebpf4jnsgd1na2vs0mg"},{"bike_id":"73e44213-1cd8-4593-a09e-a9c4a914a5d2","system_id":"levelo_inurba_marseille","lat":43.28479,"lon":5.48384,"is_reserved":false,"is_disabled":false,"rental_uris":{"android":"levelo://app?vid=73e44213-1cd8-4593-a09e-a9c4a914a5d2","ios":"levelo://app?vid=73e44213-1cd8-4593-a09e-a9c4a914a5d2"},"vehicle_type_id":"4","last_reported":1773928872,"current_range_meters":6000,"station_id":"","pricing_plan_id":"cebpf4jnsgd1na2vs0mg"},{"bike_id":"b9921390-1b27-4058-b838-49261336129c","system_id":"levelo_inurba_marseille","lat":43.2604,"lon":5.37536,"is_reserved":false,"is_disabled":false,"rental_uris":{"android":"levelo://app?vid=b9921390-1b27-4058-b838-49261336129c","ios":"levelo://app?vid=b9921390-1b27-4058-b838-49261336129c"},"vehicle_type_id":"4","last_reported":1773928872,"current_range_meters":6400,"station_id":"ce4bhgh2rcd13ifvqfa0","pricing_plan_id":"cebpf4jnsgd1na2vs0mg"},{"bike_id":"fa8725db-9407-4cb4-9c72-5633d2917751","system_id":"levelo_inurba_marseille","lat":43.24068,"lon":5.37726,"is_reserved":false,"is_disabled":false,"rental_uris":{"android":"levelo://app?vid=fa8725db-9407-4cb4-9c72-5633d2917751","ios":"levelo://app?vid=fa8725db-9407-4cb4-9c72-5633d2917751"},"vehicle_type_id":"4","last_reported":1773928872,"current_range_meters":6400,"station_id":"ce4bhnp2rcd13ifvqgvg","pricing_plan_id":"cebpf4jnsgd1na2vs0mg"},{"bike_id":"3e44349d-4d67-428b-a1d0-2afa1bfae6c4","system_id":"levelo_inurba_marseille","lat":43.29283,"lon":5.37127,"is_reserved":false,"is_disabled":false,"rental_uris":{"android":"levelo://app?vid=3e44349d-4d67-428b-a1d0-2afa1bfae6c4","ios":"levelo://app?vid=3e44349d-4d67-428b-a1d0-2afa1bfae6c4"},"vehicle_type_id":"4","last_reported":1773928872,"current_range_meters":6400,"station_id":"","pricing_plan_id":"cebpf4jnsgd1na2vs0mg"},{"bike_id":"719e9861-af82-4022-a2ea-bd7d6f00ff5f","system_id":"levelo_inurba_marseille","lat":43.28744,"lon":5.42517,"is_reserved":false,"is_disabled":true,"rental_uris":{"android":"levelo://app?vid=719e9861-af82-4022-a2ea-bd7d6f00ff5f","ios":"levelo://app?vid=719e9861-af82-4022-a2ea-bd7d6f00ff5f"},"vehicle_type_id":"4","last_reported":1773928872,"current_range_meters":6400,"station_id":"","pricing_plan_id":"cebpf4jnsgd1na2vs0mg"},{"bike_id":"62d98d5f-1b24-43c0-ace6-838e955fc118","system_id":"levelo_inurba_marseille","lat":43.24483,"lon":5.42524,"is_reserved":false,"is_disabled":false,"rental_uris":{"android":"levelo://app?vid=62d98d5f-1b24-43c0-ace6-838e955fc118","ios":"levelo://app?vid=62d98d5f-1b24-43c0-ace6-838e955fc118"},"vehicle_type_id":"4","last_reported":1773928872,"current_range_meters":6400,"station_id":"st_d4a3vfp97mjs738cd8kg","pricing_plan_id":"cebpf4jnsgd1na2vs0mg"},{"bike_id":"35717fc1-f2c7-407c-8194-0913b941ae02","system_id":"levelo_inurba_marseille","lat":43.29269,"lon":5.3843,"is_reserved":false,"is_disabled":false,"rental_uris":{"android":"levelo://app?vid=35717fc1-f2c7-407c-8194-0913b941ae02","ios":"levelo://app?vid=35717fc1-f2c7-407c-8194-0913b941ae02"},"vehicle_type_id":"4","last_reported":1773928872,"current_range_meters":6400,"station_id":"ce4bh692rcd13ifvqea0","pricing_plan_id":"cebpf4jnsgd1na2vs0mg"},{"bike_id":"9028dd9f-0196-41d9-9f72-51381d8f98fc","system_id":"levelo_inurba_marseille","lat":43.24648,"lon":5.38892,"is_reserved":false,"is_disabled":false,"rental_uris":{"android":"levelo://app?vid=9028dd9f-0196-41d9-9f72-51381d8f98fc","ios":"levelo://app?vid=9028dd9f-0196-41d9-9f72-51381d8f98fc"},"vehicle_type_id":"4","last_reported":1773928872,"current_range_meters":6400,"station_id":"ce4bhg12rcd13ifvqf60","pricing_plan_id":"cebpf4jnsgd1na2vs0mg"},{"bike_id":"6f0da953-2adc-429d-bb7c-360d8a3447c9","system_id":"levelo_inurba_marseille","lat":43.27509,"lon":5.41624,"is_reserved":false,"is_disabled":false,"rental_uris":{"android":"levelo://app?vid=6f0da953-2adc-429d-bb7c-360d8a3447c9","ios":"levelo://app?vid=6f0da953-2adc-429d-bb7c-360d8a3447c9"},"vehicle_type_id":"4","last_reported":1773928872,"current_range_meters":6400,"station_id":"st_d6im8g6chgec73a5pndg","pricing_plan_id":"cebpf4jnsgd1na2vs0mg"},{"bike_id":"8911e592-806c-4ca2-9551-dc6022173986","system_id":"levelo_inurba_marseille","lat":43.32114,"lon":5.36766,"is_reserved":false,"is_disabled":false,"rental_uris":{"android":"levelo://app?vid=8911e592-806c-4ca2-9551-dc6022173986","ios":"levelo://app?vid=8911e592-806c-4ca2-9551-dc6022173986"},"vehicle_type_id":"4","last_reported":1773928872,"current_range_meters":6400,"station_id":"","pricing_plan_id":"cebpf4jnsgd1na2vs0mg"},{"bike_id":"f18ffe7e-88aa-411c-9491-88e08903d7cb","system_id":"levelo_inurba_marseille","lat":43.27074,"lon":5.4227,"is_reserved":false,"is_disabled":false,"rental_uris":{"android":"levelo://app?vid=f18ffe7e-88aa-411c-9491-88e08903d7cb","ios":"levelo://app?vid=f18ffe7e-88aa-411c-9491-88e08903d7cb"},"vehicle_type_id":"4","last_reported":1773928872,"current_range_meters":6400,"station_id":"ce4bhk92rcd13ifvqgb0","pricing_plan_id":"cebpf4jnsgd1na2vs0mg"},{"bike_id":"dce4638e-c1fc-449e-b745-77bc71106a50","system_id":"levelo_inurba_marseille","lat":43.21735,"lon":5.346084,"is_reserved":false,"is_disabled":false,"rental_uris":{"android":"levelo://app?vid=dce4638e-c1fc-449e-b745-77bc71106a50","ios":"levelo://app?vid=dce4638e-c1fc-449e-b745-77bc71106a50"},"vehicle_type_id":"4","last_reported":1773928872,"current_range_meters":6400,"station_id":"st_cvj6r9ubvosntc0bgbag","pricing_plan_id":"cebpf4jnsgd1na2vs0mg"},{"bike_id":"6cda15e7-fe2d-4eca-9a9a-008e31fbee7c","system_id":"levelo_inurba_marseille","lat":43.24674,"lon":5.38172,"is_reserved":false,"is_disabled":true,"rental_uris":{"android":"levelo://app?vid=6cda15e7-fe2d-4eca-9a9a-008e31fbee7c","ios":"levelo://app?vid=6cda15e7-fe2d-4eca-9a9a-008e31fbee7c"},"vehicle_type_id":"4","last_reported":1773928872,"current_range_meters":6400,"station_id":"ce4bhih2rcd13ifvqfr0","pricing_plan_id":"cebpf4jnsgd1na2vs0mg"},{"bike_id":"78c86868-a79f-4f2a-bb9a-961b0f22d36b","system_id":"levelo_inurba_marseille","lat":43.29985,"lon":5.38645,"is_reserved":false,"is_disabled":false,"rental_uris":{"android":"levelo://app?vid=78c86868-a79f-4f2a-bb9a-961b0f22d36b","ios":"levelo://app?vid=78c86868-a79f-4f2a-bb9a-961b0f22d36b"},"vehicle_type_id":"4","last_reported":1773928872,"current_range_meters":6400,"station_id":"","pricing_plan_id":"cebpf4jnsgd1na2vs0mg"},{"bike_id":"0c506fac-9822-4d55-93b9-ec283cf22639","system_id":"levelo_inurba_marseille","lat":43.26876,"lon":5.40467,"is_reserved":false,"is_disabled":false,"rental_uris":{"android":"levelo://app?vid=0c506fac-9822-4d55-93b9-ec283cf22639","ios":"levelo://app?vid=0c506fac-9822-4d55-93b9-ec283cf22639"},"vehicle_type_id":"4","last_reported":1773928872,"current_range_meters":6400,"station_id":"","pricing_plan_id":"cebpf4jnsgd1na2vs0mg"},{"bike_id":"f8002e32-7d40-48f8-99b3-a631b985eba5","system_id":"levelo_inurba_marseille","lat":43.337566,"lon":5.374557,"is_reserved":false,"is_disabled":false,"rental_uris":{"android":"levelo://app?vid=f8002e32-7d40-48f8-99b3-a631b985eba5","ios":"levelo://app?vid=f8002e32-7d40-48f8-99b3-a631b985eba5"},"vehicle_type_id":"4","last_reported":1773928872,"current_range_meters":6800,"station_id":"","pricing_plan_id":"cebpf4jnsgd1na2vs0mg"},{"bike_id":"2f0354fc-31aa-4398-9c3e-f0f50b7b2184","system_id":"levelo_inurba_marseille","lat":43.24154,"lon":5.39728,"is_reserved":false,"is_disabled":false,"rental_uris":{"android":"levelo://app?vid=2f0354fc-31aa-4398-9c3e-f0f50b7b2184","ios":"levelo://app?vid=2f0354fc-31aa-4398-9c3e-f0f50b7b2184"},"vehicle_type_id":"4","last_reported":1773928872,"current_range_meters":6800,"station_id":"ce4bhn12rcd13ifvqgpg","pricing_plan_id":"cebpf4jnsgd1na2vs0mg"},{"bike_id":"f7e79517-161a-451a-8a95-bb710b1b4d21","system_id":"levelo_inurba_marseille","lat":43.29852,"lon":5.37917,"is_reserved":false,"is_disabled":false,"rental_uris":{"android":"levelo://app?vid=f7e79517-161a-451a-8a95-bb710b1b4d21","ios":"levelo://app?vid=f7e79517-161a-451a-8a95-bb710b1b4d21"},"vehicle_type_id":"4","last_reported":1773928872,"current_range_meters":6800,"station_id":"","pricing_plan_id":"cebpf4jnsgd1na2vs0mg"},{"bike_id":"8c29270d-5d11-446e-a3f0-f5c56ae9c816","system_id":"levelo_inurba_marseille","lat":43.2756,"lon":5.4329,"is_reserved":false,"is_disabled":false,"rental_uris":{"android":"levelo://app?vid=8c29270d-5d11-446e-a3f0-f5c56ae9c816","ios":"levelo://app?vid=8c29270d-5d11-446e-a3f0-f5c56ae9c816"},"vehicle_type_id":"4","last_reported":1773928872,"current_range_meters":6800,"station_id":"","pricing_plan_id":"cebpf4jnsgd1na2vs0mg"},{"bike_id":"ef4d97a8-b27e-4ee9-b1dd-4c9b85711d4a","system_id":"levelo_inurba_marseille","lat":43.24398,"lon":5.37065,"is_reserved":false,"is_disabled":false,"rental_uris":{"android":"levelo://app?vid=ef4d97a8-b27e-4ee9-b1dd-4c9b85711d4a","ios":"levelo://app?vid=ef4d97a8-b27e-4ee9-b1dd-4c9b85711d4a"},"vehicle_type_id":"4","last_reported":1773928872,"current_range_meters":6800,"station_id":"ce4bhhh2rcd13ifvqfk0","pricing_plan_id":"cebpf4jnsgd1na2vs0mg"},{"bike_id":"98125a9c-ba6f-4129-9e66-52355dba2a38","system_id":"levelo_inurba_marseille","lat":43.31227,"lon":5.36854,"is_reserved":false,"is_disabled":false,"rental_uris":{"android":"levelo://app?vid=98125a9c-ba6f-4129-9e66-52355dba2a38","ios":"levelo://app?vid=98125a9c-ba6f-4129-9e66-52355dba2a38"},"vehicle_type_id":"4","last_reported":1773928872,"current_range_meters":6800,"station_id":"ce4bgl92rcd13ifvqbq0","pricing_plan_id":"cebpf4jnsgd1na2vs0mg"},{"bike_id":"d03a2022-6922-4b85-aada-659333694e5e","system_id":"levelo_inurba_marseille","lat":43.31182,"lon":5.38721,"is_reserved":false,"is_disabled":true,"rental_uris":{"android":"levelo://app?vid=d03a2022-6922-4b85-aada-659333694e5e","ios":"levelo://app?vid=d03a2022-6922-4b85-aada-659333694e5e"},"vehicle_type_id":"4","last_reported":1773928872,"current_range_meters":6800,"station_id":"ce4bgv12rcd13ifvqcp0","pricing_plan_id":"cebpf4jnsgd1na2vs0mg"},{"bike_id":"8cb04a48-8fc1-4c7d-a689-88c4d3208042","system_id":"levelo_inurba_marseille","lat":43.23151,"lon":5.43704,"is_reserved":false,"is_disabled":false,"rental_uris":{"android":"levelo://app?vid=8cb04a48-8fc1-4c7d-a689-88c4d3208042","ios":"levelo://app?vid=8cb04a48-8fc1-4c7d-a689-88c4d3208042"},"vehicle_type_id":"4","last_reported":1773928872,"current_range_meters":6800,"station_id":"ce4bhmp2rcd13ifvqgog","pricing_plan_id":"cebpf4jnsgd1na2vs0mg"},{"bike_id":"28025302-46d2-4169-9ce9-8e064c7a81fd","system_id":"levelo_inurba_marseille","lat":43.26372,"lon":5.41067,"is_reserved":false,"is_disabled":true,"rental_uris":{"android":"levelo://app?vid=28025302-46d2-4169-9ce9-8e064c7a81fd","ios":"levelo://app?vid=28025302-46d2-4169-9ce9-8e064c7a81fd"},"vehicle_type_id":"4","last_reported":1773928872,"current_range_meters":6800,"station_id":"","pricing_plan_id":"cebpf4jnsgd1na2vs0mg"},{"bike_id":"bb6e085c-850c-41bd-94ff-d8239f9c9e15","system_id":"levelo_inurba_marseille","lat":43.23148,"lon":5.43719,"is_reserved":false,"is_disabled":false,"rental_uris":{"android":"levelo://app?vid=bb6e085c-850c-41bd-94ff-d8239f9c9e15","ios":"levelo://app?vid=bb6e085c-850c-41bd-94ff-d8239f9c9e15"},"vehicle_type_id":"4","last_reported":1773928872,"current_range_meters":6800,"station_id":"ce4bhmp2rcd13ifvqgog","pricing_plan_id":"cebpf4jnsgd1na2vs0mg"},{"bike_id":"701a9f4d-55cc-4bdb-a331-717b9e5fc682","system_id":"levelo_inurba_marseille","lat":43.29535,"lon":5.39053,"is_reserved":false,"is_disabled":false,"rental_uris":{"android":"levelo://app?vid=701a9f4d-55cc-4bdb-a331-717b9e5fc682","ios":"levelo://app?vid=701a9f4d-55cc-4bdb-a331-717b9e5fc682"},"vehicle_type_id":"4","last_reported":1773928872,"current_range_meters":6800,"station_id":"ce4bh3p2rcd13ifvqdp0","pricing_plan_id":"cebpf4jnsgd1na2vs0mg"},{"bike_id":"b7b46172-885b-483b-b4f6-e2aa5b0e2d13","system_id":"levelo_inurba_marseille","lat":43.23746,"lon":5.36677,"is_reserved":false,"is_disabled":false,"rental_uris":{"android":"levelo://app?vid=b7b46172-885b-483b-b4f6-e2aa5b0e2d13","ios":"levelo://app?vid=b7b46172-885b-483b-b4f6-e2aa5b0e2d13"},"vehicle_type_id":"4","last_reported":1773928872,"current_range_meters":6800,"station_id":"st_d3nk18o9ro0c73en2l3g","pricing_plan_id":"cebpf4jnsgd1na2vs0mg"},{"bike_id":"d7a05211-2f31-4343-8057-a1f5955efaa3","system_id":"levelo_inurba_marseille","lat":43.29039,"lon":5.35942,"is_reserved":false,"is_disabled":false,"rental_uris":{"android":"levelo://app?vid=d7a05211-2f31-4343-8057-a1f5955efaa3","ios":"levelo://app?vid=d7a05211-2f31-4343-8057-a1f5955efaa3"},"vehicle_type_id":"4","last_reported":1773928872,"current_range_meters":6800,"station_id":"ce4bha92rcd13ifvqeg0","pricing_plan_id":"cebpf4jnsgd1na2vs0mg"},{"bike_id":"e0805bea-0bf9-4836-99e3-9dd0fe5c6206","system_id":"levelo_inurba_marseille","lat":43.25723,"lon":5.41119,"is_reserved":false,"is_disabled":false,"rental_uris":{"android":"levelo://app?vid=e0805bea-0bf9-4836-99e3-9dd0fe5c6206","ios":"levelo://app?vid=e0805bea-0bf9-4836-99e3-9dd0fe5c6206"},"vehicle_type_id":"4","last_reported":1773928872,"current_range_meters":6800,"station_id":"ce4bhkp2rcd13ifvqgd0","pricing_plan_id":"cebpf4jnsgd1na2vs0mg"},{"bike_id":"24dc1ce5-2db6-421b-869a-69d6f082b300","system_id":"levelo_inurba_marseille","lat":43.29807,"lon":5.36234,"is_reserved":false,"is_disabled":false,"rental_uris":{"android":"levelo://app?vid=24dc1ce5-2db6-421b-869a-69d6f082b300","ios":"levelo://app?vid=24dc1ce5-2db6-421b-869a-69d6f082b300"},"vehicle_type_id":"4","last_reported":1773928872,"current_range_meters":7200,"station_id":"","pricing_plan_id":"cebpf4jnsgd1na2vs0mg"},{"bike_id":"04b3c352-6662-4d85-9cdb-e58baf38ee9f","system_id":"levelo_inurba_marseille","lat":43.33522,"lon":5.37464,"is_reserved":false,"is_disabled":false,"rental_uris":{"android":"levelo://app?vid=04b3c352-6662-4d85-9cdb-e58baf38ee9f","ios":"levelo://app?vid=04b3c352-6662-4d85-9cdb-e58baf38ee9f"},"vehicle_type_id":"4","last_reported":1773928872,"current_range_meters":7200,"station_id":"st_d46tts09ee8s73dlu43g","pricing_plan_id":"cebpf4jnsgd1na2vs0mg"},{"bike_id":"9181f3bd-4fdd-4a4a-a50d-89d6a7aa778d","system_id":"levelo_inurba_marseille","lat":43.30938,"lon":5.40141,"is_reserved":false,"is_disabled":false,"rental_uris":{"android":"levelo://app?vid=9181f3bd-4fdd-4a4a-a50d-89d6a7aa778d","ios":"levelo://app?vid=9181f3bd-4fdd-4a4a-a50d-89d6a7aa778d"},"vehicle_type_id":"4","last_reported":1773928872,"current_range_meters":7200,"station_id":"ce4bgvp2rcd13ifvqct0","pricing_plan_id":"cebpf4jnsgd1na2vs0mg"},{"bike_id":"bd60a6ec-18d4-4476-ab1b-f354043c4b72","system_id":"levelo_inurba_marseille","lat":43.29799,"lon":5.42587,"is_reserved":false,"is_disabled":false,"rental_uris":{"android":"levelo://app?vid=bd60a6ec-18d4-4476-ab1b-f354043c4b72","ios":"levelo://app?vid=bd60a6ec-18d4-4476-ab1b-f354043c4b72"},"vehicle_type_id":"4","last_reported":1773928872,"current_range_meters":7200,"station_id":"","pricing_plan_id":"cebpf4jnsgd1na2vs0mg"},{"bike_id":"081a0881-89b6-4aec-8d87-38fd39de8439","system_id":"levelo_inurba_marseille","lat":43.28547,"lon":5.44087,"is_reserved":false,"is_disabled":false,"rental_uris":{"android":"levelo://app?vid=081a0881-89b6-4aec-8d87-38fd39de8439","ios":"levelo://app?vid=081a0881-89b6-4aec-8d87-38fd39de8439"},"vehicle_type_id":"4","last_reported":1773928872,"current_range_meters":7200,"station_id":"st_d3j3df2ikq2c7380ej80","pricing_plan_id":"cebpf4jnsgd1na2vs0mg"},{"bike_id":"2b0b0433-580a-4bd9-b353-24ceca79e418","system_id":"levelo_inurba_marseille","lat":43.3111,"lon":5.37759,"is_reserved":false,"is_disabled":false,"rental_uris":{"android":"levelo://app?vid=2b0b0433-580a-4bd9-b353-24ceca79e418","ios":"levelo://app?vid=2b0b0433-580a-4bd9-b353-24ceca79e418"},"vehicle_type_id":"4","last_reported":1773928872,"current_range_meters":7200,"station_id":"ce4bgt92rcd13ifvqcg0","pricing_plan_id":"cebpf4jnsgd1na2vs0mg"},{"bike_id":"0effcb86-530f-422c-9f0e-4d242751570e","system_id":"levelo_inurba_marseille","lat":43.30547,"lon":5.36722,"is_reserved":false,"is_disabled":false,"rental_uris":{"android":"levelo://app?vid=0effcb86-530f-422c-9f0e-4d242751570e","ios":"levelo://app?vid=0effcb86-530f-422c-9f0e-4d242751570e"},"vehicle_type_id":"4","last_reported":1773928872,"current_range_meters":7200,"station_id":"ce4bgrp2rcd13ifvqc9g","pricing_plan_id":"cebpf4jnsgd1na2vs0mg"},{"bike_id":"0341aa08-20fc-4cfa-884d-410ceb51b56a","system_id":"levelo_inurba_marseille","lat":43.28346,"lon":5.38088,"is_reserved":false,"is_disabled":false,"rental_uris":{"android":"levelo://app?vid=0341aa08-20fc-4cfa-884d-410ceb51b56a","ios":"levelo://app?vid=0341aa08-20fc-4cfa-884d-410ceb51b56a"},"vehicle_type_id":"4","last_reported":1773928872,"current_range_meters":7200,"station_id":"ce4bh9p2rcd13ifvqec0","pricing_plan_id":"cebpf4jnsgd1na2vs0mg"},{"bike_id":"a11c8cfa-453a-4892-a974-6a22bafa8290","system_id":"levelo_inurba_marseille","lat":43.23247,"lon":5.35459,"is_reserved":false,"is_disabled":false,"rental_uris":{"android":"levelo://app?vid=a11c8cfa-453a-4892-a974-6a22bafa8290","ios":"levelo://app?vid=a11c8cfa-453a-4892-a974-6a22bafa8290"},"vehicle_type_id":"4","last_reported":1773928872,"current_range_meters":8000,"station_id":"","pricing_plan_id":"cebpf4jnsgd1na2vs0mg"},{"bike_id":"864f588c-6c9a-47f2-bf8a-559a5ddb02ea","system_id":"levelo_inurba_marseille","lat":43.321,"lon":5.36791,"is_reserved":false,"is_disabled":false,"rental_uris":{"android":"levelo://app?vid=864f588c-6c9a-47f2-bf8a-559a5ddb02ea","ios":"levelo://app?vid=864f588c-6c9a-47f2-bf8a-559a5ddb02ea"},"vehicle_type_id":"4","last_reported":1773928872,"current_range_meters":8000,"station_id":"ce4bhrh2rcd13ifvqhug","pricing_plan_id":"cebpf4jnsgd1na2vs0mg"},{"bike_id":"7603f9a5-a91f-4dd4-884d-ad1569e71bd2","system_id":"levelo_inurba_marseille","lat":43.31077,"lon":5.37183,"is_reserved":false,"is_disabled":false,"rental_uris":{"android":"levelo://app?vid=7603f9a5-a91f-4dd4-884d-ad1569e71bd2","ios":"levelo://app?vid=7603f9a5-a91f-4dd4-884d-ad1569e71bd2"},"vehicle_type_id":"4","last_reported":1773928872,"current_range_meters":8000,"station_id":"st_d4kl2rp97mjs73e7tdfg","pricing_plan_id":"cebpf4jnsgd1na2vs0mg"},{"bike_id":"bc408301-6f66-4a1c-b046-2c6e90f95d68","system_id":"levelo_inurba_marseille","lat":43.24176,"lon":5.39714,"is_reserved":false,"is_disabled":false,"rental_uris":{"android":"levelo://app?vid=bc408301-6f66-4a1c-b046-2c6e90f95d68","ios":"levelo://app?vid=bc408301-6f66-4a1c-b046-2c6e90f95d68"},"vehicle_type_id":"4","last_reported":1773928872,"current_range_meters":8000,"station_id":"ce4bhn12rcd13ifvqgpg","pricing_plan_id":"cebpf4jnsgd1na2vs0mg"},{"bike_id":"6b218720-7d53-4c1e-b1c9-5dbfa513b086","system_id":"levelo_inurba_marseille","lat":43.23972,"lon":5.36622,"is_reserved":false,"is_disabled":false,"rental_uris":{"android":"levelo://app?vid=6b218720-7d53-4c1e-b1c9-5dbfa513b086","ios":"levelo://app?vid=6b218720-7d53-4c1e-b1c9-5dbfa513b086"},"vehicle_type_id":"4","last_reported":1773928872,"current_range_meters":8000,"station_id":"ce4bhi12rcd13ifvqfp0","pricing_plan_id":"cebpf4jnsgd1na2vs0mg"},{"bike_id":"7dbc4431-cbea-4327-9029-3840cd37898c","system_id":"levelo_inurba_marseille","lat":43.29277,"lon":5.38437,"is_reserved":false,"is_disabled":false,"rental_uris":{"android":"levelo://app?vid=7dbc4431-cbea-4327-9029-3840cd37898c","ios":"levelo://app?vid=7dbc4431-cbea-4327-9029-3840cd37898c"},"vehicle_type_id":"4","last_reported":1773928872,"current_range_meters":8000,"station_id":"ce4bh692rcd13ifvqea0","pricing_plan_id":"cebpf4jnsgd1na2vs0mg"},{"bike_id":"dd10efc5-28b9-436a-be78-8011941e89fc","system_id":"levelo_inurba_marseille","lat":43.28464,"lon":5.48398,"is_reserved":false,"is_disabled":false,"rental_uris":{"android":"levelo://app?vid=dd10efc5-28b9-436a-be78-8011941e89fc","ios":"levelo://app?vid=dd10efc5-28b9-436a-be78-8011941e89fc"},"vehicle_type_id":"4","last_reported":1773928872,"current_range_meters":8000,"station_id":"st_d3svhcjqgbts73a3dn0g","pricing_plan_id":"cebpf4jnsgd1na2vs0mg"},{"bike_id":"0079b1ec-0086-4d12-b897-1f686ccad4e5","system_id":"levelo_inurba_marseille","lat":43.28835,"lon":5.39316,"is_reserved":false,"is_disabled":false,"rental_uris":{"android":"levelo://app?vid=0079b1ec-0086-4d12-b897-1f686ccad4e5","ios":"levelo://app?vid=0079b1ec-0086-4d12-b897-1f686ccad4e5"},"vehicle_type_id":"4","last_reported":1773928872,"current_range_meters":8000,"station_id":"ce4bh2p2rcd13ifvqdi0","pricing_plan_id":"cebpf4jnsgd1na2vs0mg"},{"bike_id":"a7589a93-7e92-46e3-9adb-33c382fc7b2d","system_id":"levelo_inurba_marseille","lat":43.23955,"lon":5.36621,"is_reserved":false,"is_disabled":false,"rental_uris":{"android":"levelo://app?vid=a7589a93-7e92-46e3-9adb-33c382fc7b2d","ios":"levelo://app?vid=a7589a93-7e92-46e3-9adb-33c382fc7b2d"},"vehicle_type_id":"4","last_reported":1773928872,"current_range_meters":8000,"station_id":"ce4bhi12rcd13ifvqfp0","pricing_plan_id":"cebpf4jnsgd1na2vs0mg"},{"bike_id":"47b958a5-a9e9-4494-8472-abb0f760256b","system_id":"levelo_inurba_marseille","lat":43.23771,"lon":5.36635,"is_reserved":false,"is_disabled":false,"rental_uris":{"android":"levelo://app?vid=47b958a5-a9e9-4494-8472-abb0f760256b","ios":"levelo://app?vid=47b958a5-a9e9-4494-8472-abb0f760256b"},"vehicle_type_id":"4","last_reported":1773928872,"current_range_meters":8000,"station_id":"st_d3nk18o9ro0c73en2l3g","pricing_plan_id":"cebpf4jnsgd1na2vs0mg"},{"bike_id":"e84409cd-ab11-47ab-92ac-0bad50daf5c3","system_id":"levelo_inurba_marseille","lat":43.31891,"lon":5.36801,"is_reserved":false,"is_disabled":false,"rental_uris":{"android":"levelo://app?vid=e84409cd-ab11-47ab-92ac-0bad50daf5c3","ios":"levelo://app?vid=e84409cd-ab11-47ab-92ac-0bad50daf5c3"},"vehicle_type_id":"4","last_reported":1773928872,"current_range_meters":8000,"station_id":"st_d6o2h0d0559c73evc1b0","pricing_plan_id":"cebpf4jnsgd1na2vs0mg"},{"bike_id":"600469f9-bda4-4951-a61e-12b2370882e2","system_id":"levelo_inurba_marseille","lat":43.28864,"lon":5.42538,"is_reserved":false,"is_disabled":false,"rental_uris":{"android":"levelo://app?vid=600469f9-bda4-4951-a61e-12b2370882e2","ios":"levelo://app?vid=600469f9-bda4-4951-a61e-12b2370882e2"},"vehicle_type_id":"4","last_reported":1773928872,"current_range_meters":8000,"station_id":"","pricing_plan_id":"cebpf4jnsgd1na2vs0mg"},{"bike_id":"b7e87515-c3ea-478e-bf01-a70f86b2f092","system_id":"levelo_inurba_marseille","lat":43.24186,"lon":5.36386,"is_reserved":false,"is_disabled":false,"rental_uris":{"android":"levelo://app?vid=b7e87515-c3ea-478e-bf01-a70f86b2f092","ios":"levelo://app?vid=b7e87515-c3ea-478e-bf01-a70f86b2f092"},"vehicle_type_id":"4","last_reported":1773928872,"current_range_meters":8000,"station_id":"cpo36qri1sfpv3e86is0","pricing_plan_id":"cebpf4jnsgd1na2vs0mg"},{"bike_id":"591637eb-a256-445f-b11a-47e07652d095","system_id":"levelo_inurba_marseille","lat":43.28146,"lon":5.42641,"is_reserved":false,"is_disabled":false,"rental_uris":{"android":"levelo://app?vid=591637eb-a256-445f-b11a-47e07652d095","ios":"levelo://app?vid=591637eb-a256-445f-b11a-47e07652d095"},"vehicle_type_id":"4","last_reported":1773928872,"current_range_meters":8000,"station_id":"ce4bhnh2rcd13ifvqgug","pricing_plan_id":"cebpf4jnsgd1na2vs0mg"},{"bike_id":"f4dabf5a-5906-4fdd-9e91-341bb251e787","system_id":"levelo_inurba_marseille","lat":43.29001,"lon":5.35602,"is_reserved":false,"is_disabled":false,"rental_uris":{"android":"levelo://app?vid=f4dabf5a-5906-4fdd-9e91-341bb251e787","ios":"levelo://app?vid=f4dabf5a-5906-4fdd-9e91-341bb251e787"},"vehicle_type_id":"4","last_reported":1773928872,"current_range_meters":8000,"station_id":"ce4bhb92rcd13ifvqen0","pricing_plan_id":"cebpf4jnsgd1na2vs0mg"},{"bike_id":"571fa9e3-6a28-4bae-8e6e-ffe5c0067253","system_id":"levelo_inurba_marseille","lat":43.24395,"lon":5.3707,"is_reserved":false,"is_disabled":false,"rental_uris":{"android":"levelo://app?vid=571fa9e3-6a28-4bae-8e6e-ffe5c0067253","ios":"levelo://app?vid=571fa9e3-6a28-4bae-8e6e-ffe5c0067253"},"vehicle_type_id":"4","last_reported":1773928872,"current_range_meters":8000,"station_id":"ce4bhhh2rcd13ifvqfk0","pricing_plan_id":"cebpf4jnsgd1na2vs0mg"},{"bike_id":"1a35434d-c9e2-448e-ab11-b763a506a6ff","system_id":"levelo_inurba_marseille","lat":43.29928,"lon":5.38091,"is_reserved":false,"is_disabled":true,"rental_uris":{"android":"levelo://app?vid=1a35434d-c9e2-448e-ab11-b763a506a6ff","ios":"levelo://app?vid=1a35434d-c9e2-448e-ab11-b763a506a6ff"},"vehicle_type_id":"4","last_reported":1773928872,"current_range_meters":8000,"station_id":"","pricing_plan_id":"cebpf4jnsgd1na2vs0mg"},{"bike_id":"423787e7-c850-4c3d-97c1-650c3e932da3","system_id":"levelo_inurba_marseille","lat":43.30136,"lon":5.38769,"is_reserved":false,"is_disabled":false,"rental_uris":{"android":"levelo://app?vid=423787e7-c850-4c3d-97c1-650c3e932da3","ios":"levelo://app?vid=423787e7-c850-4c3d-97c1-650c3e932da3"},"vehicle_type_id":"4","last_reported":1773928872,"current_range_meters":8000,"station_id":"ce4bghh2rcd13ifvqb60","pricing_plan_id":"cebpf4jnsgd1na2vs0mg"},{"bike_id":"62d158bf-9176-4017-8f28-0b85fa5bfc6f","system_id":"levelo_inurba_marseille","lat":43.26952,"lon":5.38629,"is_reserved":false,"is_disabled":false,"rental_uris":{"android":"levelo://app?vid=62d158bf-9176-4017-8f28-0b85fa5bfc6f","ios":"levelo://app?vid=62d158bf-9176-4017-8f28-0b85fa5bfc6f"},"vehicle_type_id":"4","last_reported":1773928872,"current_range_meters":8000,"station_id":"ce4bhh92rcd13ifvqfh0","pricing_plan_id":"cebpf4jnsgd1na2vs0mg"},{"bike_id":"81150eba-c3ac-4a60-8630-bd89ee3a6525","system_id":"levelo_inurba_marseille","lat":43.31227,"lon":5.36864,"is_reserved":false,"is_disabled":false,"rental_uris":{"android":"levelo://app?vid=81150eba-c3ac-4a60-8630-bd89ee3a6525","ios":"levelo://app?vid=81150eba-c3ac-4a60-8630-bd89ee3a6525"},"vehicle_type_id":"4","last_reported":1773928872,"current_range_meters":8000,"station_id":"ce4bgl92rcd13ifvqbq0","pricing_plan_id":"cebpf4jnsgd1na2vs0mg"},{"bike_id":"13ece891-29b9-4ae9-a4c4-ae3da55ec954","system_id":"levelo_inurba_marseille","lat":43.23203,"lon":5.35532,"is_reserved":false,"is_disabled":false,"rental_uris":{"android":"levelo://app?vid=13ece891-29b9-4ae9-a4c4-ae3da55ec954","ios":"levelo://app?vid=13ece891-29b9-4ae9-a4c4-ae3da55ec954"},"vehicle_type_id":"4","last_reported":1773928872,"current_range_meters":8400,"station_id":"ce4bhu92rcd13ifvqi70","pricing_plan_id":"cebpf4jnsgd1na2vs0mg"},{"bike_id":"b0aae7c9-1bd6-4f1c-a33d-9d6ff662c2a9","system_id":"levelo_inurba_marseille","lat":43.24821,"lon":5.37461,"is_reserved":false,"is_disabled":false,"rental_uris":{"android":"levelo://app?vid=b0aae7c9-1bd6-4f1c-a33d-9d6ff662c2a9","ios":"levelo://app?vid=b0aae7c9-1bd6-4f1c-a33d-9d6ff662c2a9"},"vehicle_type_id":"4","last_reported":1773928872,"current_range_meters":8400,"station_id":"ce4bhgh2rcd13ifvqfb0","pricing_plan_id":"cebpf4jnsgd1na2vs0mg"},{"bike_id":"270936ca-db26-41f7-a028-b50ddf9a1a93","system_id":"levelo_inurba_marseille","lat":43.27208,"lon":5.39161,"is_reserved":false,"is_disabled":false,"rental_uris":{"android":"levelo://app?vid=270936ca-db26-41f7-a028-b50ddf9a1a93","ios":"levelo://app?vid=270936ca-db26-41f7-a028-b50ddf9a1a93"},"vehicle_type_id":"4","last_reported":1773928872,"current_range_meters":8400,"station_id":"ce4bhhp2rcd13ifvqfm0","pricing_plan_id":"cebpf4jnsgd1na2vs0mg"},{"bike_id":"addd9e53-bfde-4c2f-8c89-4a891b6a7add","system_id":"levelo_inurba_marseille","lat":43.31353,"lon":5.37911,"is_reserved":false,"is_disabled":false,"rental_uris":{"android":"levelo://app?vid=addd9e53-bfde-4c2f-8c89-4a891b6a7add","ios":"levelo://app?vid=addd9e53-bfde-4c2f-8c89-4a891b6a7add"},"vehicle_type_id":"4","last_reported":1773928872,"current_range_meters":8400,"station_id":"","pricing_plan_id":"cebpf4jnsgd1na2vs0mg"},{"bike_id":"b56b26bd-81d0-48d5-b304-9896ba402c97","system_id":"levelo_inurba_marseille","lat":43.25063,"lon":5.40372,"is_reserved":false,"is_disabled":false,"rental_uris":{"android":"levelo://app?vid=b56b26bd-81d0-48d5-b304-9896ba402c97","ios":"levelo://app?vid=b56b26bd-81d0-48d5-b304-9896ba402c97"},"vehicle_type_id":"4","last_reported":1773928872,"current_range_meters":8400,"station_id":"","pricing_plan_id":"cebpf4jnsgd1na2vs0mg"},{"bike_id":"92c7fa43-4f38-4f78-8075-61a5a8a0edcf","system_id":"levelo_inurba_marseille","lat":43.31238,"lon":5.36837,"is_reserved":false,"is_disabled":false,"rental_uris":{"android":"levelo://app?vid=92c7fa43-4f38-4f78-8075-61a5a8a0edcf","ios":"levelo://app?vid=92c7fa43-4f38-4f78-8075-61a5a8a0edcf"},"vehicle_type_id":"4","last_reported":1773928872,"current_range_meters":8400,"station_id":"ce4bgl92rcd13ifvqbq0","pricing_plan_id":"cebpf4jnsgd1na2vs0mg"},{"bike_id":"52f6a6b9-7af9-4956-b458-baf5061e66bf","system_id":"levelo_inurba_marseille","lat":43.23343,"lon":5.44468,"is_reserved":false,"is_disabled":false,"rental_uris":{"android":"levelo://app?vid=52f6a6b9-7af9-4956-b458-baf5061e66bf","ios":"levelo://app?vid=52f6a6b9-7af9-4956-b458-baf5061e66bf"},"vehicle_type_id":"4","last_reported":1773928872,"current_range_meters":8400,"station_id":"","pricing_plan_id":"cebpf4jnsgd1na2vs0mg"},{"bike_id":"347a0133-45d3-4213-ae48-606f4453bbf3","system_id":"levelo_inurba_marseille","lat":43.23056,"lon":5.35483,"is_reserved":false,"is_disabled":false,"rental_uris":{"android":"levelo://app?vid=347a0133-45d3-4213-ae48-606f4453bbf3","ios":"levelo://app?vid=347a0133-45d3-4213-ae48-606f4453bbf3"},"vehicle_type_id":"4","last_reported":1773928872,"current_range_meters":8400,"station_id":"cpo3342slgdg3j2ifvpg","pricing_plan_id":"cebpf4jnsgd1na2vs0mg"},{"bike_id":"88f62a4c-1dd5-4d07-a59a-902271acdb70","system_id":"levelo_inurba_marseille","lat":43.31233,"lon":5.40405,"is_reserved":false,"is_disabled":false,"rental_uris":{"android":"levelo://app?vid=88f62a4c-1dd5-4d07-a59a-902271acdb70","ios":"levelo://app?vid=88f62a4c-1dd5-4d07-a59a-902271acdb70"},"vehicle_type_id":"4","last_reported":1773928872,"current_range_meters":8400,"station_id":"","pricing_plan_id":"cebpf4jnsgd1na2vs0mg"},{"bike_id":"dd2f7881-755c-4593-bb3a-7ba359f1b823","system_id":"levelo_inurba_marseille","lat":43.29105,"lon":5.38147,"is_reserved":false,"is_disabled":true,"rental_uris":{"android":"levelo://app?vid=dd2f7881-755c-4593-bb3a-7ba359f1b823","ios":"levelo://app?vid=dd2f7881-755c-4593-bb3a-7ba359f1b823"},"vehicle_type_id":"4","last_reported":1773928872,"current_range_meters":8400,"station_id":"ce4bh512rcd13ifvqe2g","pricing_plan_id":"cebpf4jnsgd1na2vs0mg"},{"bike_id":"9389be0d-da96-4bfe-af81-4225e877ede6","system_id":"levelo_inurba_marseille","lat":43.30308,"lon":5.39192,"is_reserved":false,"is_disabled":false,"rental_uris":{"android":"levelo://app?vid=9389be0d-da96-4bfe-af81-4225e877ede6","ios":"levelo://app?vid=9389be0d-da96-4bfe-af81-4225e877ede6"},"vehicle_type_id":"4","last_reported":1773928872,"current_range_meters":8400,"station_id":"ce4bgkh2rcd13ifvqbk0","pricing_plan_id":"cebpf4jnsgd1na2vs0mg"},{"bike_id":"a843145d-ba6e-4181-8b49-22c964822983","system_id":"levelo_inurba_marseille","lat":43.24067,"lon":5.37755,"is_reserved":false,"is_disabled":false,"rental_uris":{"android":"levelo://app?vid=a843145d-ba6e-4181-8b49-22c964822983","ios":"levelo://app?vid=a843145d-ba6e-4181-8b49-22c964822983"},"vehicle_type_id":"4","last_reported":1773928872,"current_range_meters":8400,"station_id":"ce4bhnp2rcd13ifvqgvg","pricing_plan_id":"cebpf4jnsgd1na2vs0mg"},{"bike_id":"8c1bb7e1-fc52-410e-bc8b-57e5a8629823","system_id":"levelo_inurba_marseille","lat":43.29216,"lon":5.37709,"is_reserved":false,"is_disabled":false,"rental_uris":{"android":"levelo://app?vid=8c1bb7e1-fc52-410e-bc8b-57e5a8629823","ios":"levelo://app?vid=8c1bb7e1-fc52-410e-bc8b-57e5a8629823"},"vehicle_type_id":"4","last_reported":1773928872,"current_range_meters":8400,"station_id":"","pricing_plan_id":"cebpf4jnsgd1na2vs0mg"},{"bike_id":"6cc2564d-01aa-43ab-9a59-01b1477b329b","system_id":"levelo_inurba_marseille","lat":43.290972,"lon":5.381241,"is_reserved":false,"is_disabled":false,"rental_uris":{"android":"levelo://app?vid=6cc2564d-01aa-43ab-9a59-01b1477b329b","ios":"levelo://app?vid=6cc2564d-01aa-43ab-9a59-01b1477b329b"},"vehicle_type_id":"4","last_reported":1773928872,"current_range_meters":8400,"station_id":"ce4bh512rcd13ifvqe2g","pricing_plan_id":"cebpf4jnsgd1na2vs0mg"},{"bike_id":"6d0899a7-528e-4653-ae0b-7ea2c65d2f59","system_id":"levelo_inurba_marseille","lat":43.24392,"lon":5.37065,"is_reserved":false,"is_disabled":false,"rental_uris":{"android":"levelo://app?vid=6d0899a7-528e-4653-ae0b-7ea2c65d2f59","ios":"levelo://app?vid=6d0899a7-528e-4653-ae0b-7ea2c65d2f59"},"vehicle_type_id":"4","last_reported":1773928872,"current_range_meters":8400,"station_id":"ce4bhhh2rcd13ifvqfk0","pricing_plan_id":"cebpf4jnsgd1na2vs0mg"},{"bike_id":"d51fe815-5335-4e1f-8e42-efe91c7e85aa","system_id":"levelo_inurba_marseille","lat":43.22933,"lon":5.35376,"is_reserved":false,"is_disabled":false,"rental_uris":{"android":"levelo://app?vid=d51fe815-5335-4e1f-8e42-efe91c7e85aa","ios":"levelo://app?vid=d51fe815-5335-4e1f-8e42-efe91c7e85aa"},"vehicle_type_id":"4","last_reported":1773928872,"current_range_meters":8400,"station_id":"cpo3532slgdg3j2ikp40","pricing_plan_id":"cebpf4jnsgd1na2vs0mg"},{"bike_id":"fb4585a5-cc71-4e0d-9374-1fd3bdf30de8","system_id":"levelo_inurba_marseille","lat":43.25116,"lon":5.40329,"is_reserved":false,"is_disabled":false,"rental_uris":{"android":"levelo://app?vid=fb4585a5-cc71-4e0d-9374-1fd3bdf30de8","ios":"levelo://app?vid=fb4585a5-cc71-4e0d-9374-1fd3bdf30de8"},"vehicle_type_id":"4","last_reported":1773928872,"current_range_meters":8400,"station_id":"ce4bhlh2rcd13ifvqgig","pricing_plan_id":"cebpf4jnsgd1na2vs0mg"},{"bike_id":"fbe76594-cdae-4c44-988d-4fc8a957f93e","system_id":"levelo_inurba_marseille","lat":43.3095,"lon":5.39019,"is_reserved":false,"is_disabled":false,"rental_uris":{"android":"levelo://app?vid=fbe76594-cdae-4c44-988d-4fc8a957f93e","ios":"levelo://app?vid=fbe76594-cdae-4c44-988d-4fc8a957f93e"},"vehicle_type_id":"4","last_reported":1773928872,"current_range_meters":8400,"station_id":"ce4bgup2rcd13ifvqco0","pricing_plan_id":"cebpf4jnsgd1na2vs0mg"},{"bike_id":"eda428cd-e4d3-4c6f-8d82-ad6dce5e4e27","system_id":"levelo_inurba_marseille","lat":43.28864,"lon":5.35836,"is_reserved":false,"is_disabled":false,"rental_uris":{"android":"levelo://app?vid=eda428cd-e4d3-4c6f-8d82-ad6dce5e4e27","ios":"levelo://app?vid=eda428cd-e4d3-4c6f-8d82-ad6dce5e4e27"},"vehicle_type_id":"4","last_reported":1773928872,"current_range_meters":8400,"station_id":"ce4bhb12rcd13ifvqem0","pricing_plan_id":"cebpf4jnsgd1na2vs0mg"},{"bike_id":"bea21c33-d04a-4338-9da1-264162e1bcd6","system_id":"levelo_inurba_marseille","lat":43.26322,"lon":5.4105,"is_reserved":false,"is_disabled":false,"rental_uris":{"android":"levelo://app?vid=bea21c33-d04a-4338-9da1-264162e1bcd6","ios":"levelo://app?vid=bea21c33-d04a-4338-9da1-264162e1bcd6"},"vehicle_type_id":"4","last_reported":1773928872,"current_range_meters":8400,"station_id":"","pricing_plan_id":"cebpf4jnsgd1na2vs0mg"},{"bike_id":"be523ae7-f0fc-4e2a-970b-30a3029fa717","system_id":"levelo_inurba_marseille","lat":43.28478,"lon":5.48393,"is_reserved":false,"is_disabled":false,"rental_uris":{"android":"levelo://app?vid=be523ae7-f0fc-4e2a-970b-30a3029fa717","ios":"levelo://app?vid=be523ae7-f0fc-4e2a-970b-30a3029fa717"},"vehicle_type_id":"4","last_reported":1773928872,"current_range_meters":8400,"station_id":"","pricing_plan_id":"cebpf4jnsgd1na2vs0mg"},{"bike_id":"15750178-4f9b-426f-bafa-493e04eb7e36","system_id":"levelo_inurba_marseille","lat":43.30812,"lon":5.40678,"is_reserved":false,"is_disabled":false,"rental_uris":{"android":"levelo://app?vid=15750178-4f9b-426f-bafa-493e04eb7e36","ios":"levelo://app?vid=15750178-4f9b-426f-bafa-493e04eb7e36"},"vehicle_type_id":"4","last_reported":1773928872,"current_range_meters":8400,"station_id":"","pricing_plan_id":"cebpf4jnsgd1na2vs0mg"},{"bike_id":"3bcd3f37-7909-4e8a-be03-a9562a2c0e45","system_id":"levelo_inurba_marseille","lat":43.28477,"lon":5.48389,"is_reserved":false,"is_disabled":false,"rental_uris":{"android":"levelo://app?vid=3bcd3f37-7909-4e8a-be03-a9562a2c0e45","ios":"levelo://app?vid=3bcd3f37-7909-4e8a-be03-a9562a2c0e45"},"vehicle_type_id":"4","last_reported":1773928872,"current_range_meters":8800,"station_id":"","pricing_plan_id":"cebpf4jnsgd1na2vs0mg"},{"bike_id":"bc199616-bc2f-448b-a8f1-aa0277275d69","system_id":"levelo_inurba_marseille","lat":43.24094,"lon":5.37749,"is_reserved":false,"is_disabled":false,"rental_uris":{"android":"levelo://app?vid=bc199616-bc2f-448b-a8f1-aa0277275d69","ios":"levelo://app?vid=bc199616-bc2f-448b-a8f1-aa0277275d69"},"vehicle_type_id":"4","last_reported":1773928872,"current_range_meters":8800,"station_id":"ce4bhnp2rcd13ifvqgvg","pricing_plan_id":"cebpf4jnsgd1na2vs0mg"},{"bike_id":"b790cc6c-beda-4dcd-96dd-e541806c10fa","system_id":"levelo_inurba_marseille","lat":43.27476,"lon":5.41672,"is_reserved":false,"is_disabled":false,"rental_uris":{"android":"levelo://app?vid=b790cc6c-beda-4dcd-96dd-e541806c10fa","ios":"levelo://app?vid=b790cc6c-beda-4dcd-96dd-e541806c10fa"},"vehicle_type_id":"4","last_reported":1773928872,"current_range_meters":8800,"station_id":"st_d6im8g6chgec73a5pndg","pricing_plan_id":"cebpf4jnsgd1na2vs0mg"},{"bike_id":"2df47863-81d0-49be-b88f-5cff87dc63a2","system_id":"levelo_inurba_marseille","lat":43.29275,"lon":5.40097,"is_reserved":false,"is_disabled":true,"rental_uris":{"android":"levelo://app?vid=2df47863-81d0-49be-b88f-5cff87dc63a2","ios":"levelo://app?vid=2df47863-81d0-49be-b88f-5cff87dc63a2"},"vehicle_type_id":"4","last_reported":1773928872,"current_range_meters":8800,"station_id":"ce4bh312rcd13ifvqdk0","pricing_plan_id":"cebpf4jnsgd1na2vs0mg"},{"bike_id":"6018d565-5c8a-4bab-ba5d-0061fbbaec08","system_id":"levelo_inurba_marseille","lat":43.22968,"lon":5.35359,"is_reserved":false,"is_disabled":false,"rental_uris":{"android":"levelo://app?vid=6018d565-5c8a-4bab-ba5d-0061fbbaec08","ios":"levelo://app?vid=6018d565-5c8a-4bab-ba5d-0061fbbaec08"},"vehicle_type_id":"4","last_reported":1773928872,"current_range_meters":8800,"station_id":"cpo3532slgdg3j2ikp40","pricing_plan_id":"cebpf4jnsgd1na2vs0mg"},{"bike_id":"48d56448-be59-46a7-88f4-1b7e52e63b27","system_id":"levelo_inurba_marseille","lat":43.31055,"lon":5.37186,"is_reserved":false,"is_disabled":false,"rental_uris":{"android":"levelo://app?vid=48d56448-be59-46a7-88f4-1b7e52e63b27","ios":"levelo://app?vid=48d56448-be59-46a7-88f4-1b7e52e63b27"},"vehicle_type_id":"4","last_reported":1773928872,"current_range_meters":8800,"station_id":"st_d4kl2rp97mjs73e7tdfg","pricing_plan_id":"cebpf4jnsgd1na2vs0mg"},{"bike_id":"91754ca3-cd5e-47a5-b17b-b94faa181426","system_id":"levelo_inurba_marseille","lat":43.32122,"lon":5.36787,"is_reserved":false,"is_disabled":false,"rental_uris":{"android":"levelo://app?vid=91754ca3-cd5e-47a5-b17b-b94faa181426","ios":"levelo://app?vid=91754ca3-cd5e-47a5-b17b-b94faa181426"},"vehicle_type_id":"4","last_reported":1773928872,"current_range_meters":8800,"station_id":"ce4bhrh2rcd13ifvqhug","pricing_plan_id":"cebpf4jnsgd1na2vs0mg"},{"bike_id":"5b633a99-6e6c-40eb-b51a-c5e14db697a0","system_id":"levelo_inurba_marseille","lat":43.27057,"lon":5.42262,"is_reserved":false,"is_disabled":false,"rental_uris":{"android":"levelo://app?vid=5b633a99-6e6c-40eb-b51a-c5e14db697a0","ios":"levelo://app?vid=5b633a99-6e6c-40eb-b51a-c5e14db697a0"},"vehicle_type_id":"4","last_reported":1773928872,"current_range_meters":8800,"station_id":"ce4bhk92rcd13ifvqgb0","pricing_plan_id":"cebpf4jnsgd1na2vs0mg"},{"bike_id":"45a7eeba-191c-4d0b-87a5-08f3942ccff8","system_id":"levelo_inurba_marseille","lat":43.27062,"lon":5.38293,"is_reserved":false,"is_disabled":false,"rental_uris":{"android":"levelo://app?vid=45a7eeba-191c-4d0b-87a5-08f3942ccff8","ios":"levelo://app?vid=45a7eeba-191c-4d0b-87a5-08f3942ccff8"},"vehicle_type_id":"4","last_reported":1773928872,"current_range_meters":8800,"station_id":"st_d3n2fo6cfp8s73cte1j0","pricing_plan_id":"cebpf4jnsgd1na2vs0mg"},{"bike_id":"2c929730-8b8d-4228-907b-8f183d065f9c","system_id":"levelo_inurba_marseille","lat":43.24073,"lon":5.37732,"is_reserved":false,"is_disabled":false,"rental_uris":{"android":"levelo://app?vid=2c929730-8b8d-4228-907b-8f183d065f9c","ios":"levelo://app?vid=2c929730-8b8d-4228-907b-8f183d065f9c"},"vehicle_type_id":"4","last_reported":1773928872,"current_range_meters":8800,"station_id":"ce4bhnp2rcd13ifvqgvg","pricing_plan_id":"cebpf4jnsgd1na2vs0mg"},{"bike_id":"57d1ada9-1a9f-44a6-9752-b843732a3f40","system_id":"levelo_inurba_marseille","lat":43.29971,"lon":5.37154,"is_reserved":false,"is_disabled":false,"rental_uris":{"android":"levelo://app?vid=57d1ada9-1a9f-44a6-9752-b843732a3f40","ios":"levelo://app?vid=57d1ada9-1a9f-44a6-9752-b843732a3f40"},"vehicle_type_id":"4","last_reported":1773928872,"current_range_meters":8800,"station_id":"ce4bgr92rcd13ifvqc7g","pricing_plan_id":"cebpf4jnsgd1na2vs0mg"},{"bike_id":"b50e93c9-47b0-4fff-b4c5-42460e683cce","system_id":"levelo_inurba_marseille","lat":43.31345,"lon":5.367,"is_reserved":false,"is_disabled":false,"rental_uris":{"android":"levelo://app?vid=b50e93c9-47b0-4fff-b4c5-42460e683cce","ios":"levelo://app?vid=b50e93c9-47b0-4fff-b4c5-42460e683cce"},"vehicle_type_id":"4","last_reported":1773928872,"current_range_meters":8800,"station_id":"ce4bgr92rcd13ifvqc6g","pricing_plan_id":"cebpf4jnsgd1na2vs0mg"},{"bike_id":"24422860-842c-4594-b2fa-f34374d32e2b","system_id":"levelo_inurba_marseille","lat":43.27314,"lon":5.3908,"is_reserved":false,"is_disabled":false,"rental_uris":{"android":"levelo://app?vid=24422860-842c-4594-b2fa-f34374d32e2b","ios":"levelo://app?vid=24422860-842c-4594-b2fa-f34374d32e2b"},"vehicle_type_id":"4","last_reported":1773928872,"current_range_meters":8800,"station_id":"ce4bhgp2rcd13ifvqfe0","pricing_plan_id":"cebpf4jnsgd1na2vs0mg"},{"bike_id":"f1b77dee-d287-4950-9774-f4592a1d3a7a","system_id":"levelo_inurba_marseille","lat":43.30587,"lon":5.39312,"is_reserved":false,"is_disabled":false,"rental_uris":{"android":"levelo://app?vid=f1b77dee-d287-4950-9774-f4592a1d3a7a","ios":"levelo://app?vid=f1b77dee-d287-4950-9774-f4592a1d3a7a"},"vehicle_type_id":"4","last_reported":1773928872,"current_range_meters":8800,"station_id":"ce4bh0p2rcd13ifvqd80","pricing_plan_id":"cebpf4jnsgd1na2vs0mg"},{"bike_id":"85e34bd4-543e-4066-99b9-8180bc7744ae","system_id":"levelo_inurba_marseille","lat":43.29933,"lon":5.36531,"is_reserved":false,"is_disabled":false,"rental_uris":{"android":"levelo://app?vid=85e34bd4-543e-4066-99b9-8180bc7744ae","ios":"levelo://app?vid=85e34bd4-543e-4066-99b9-8180bc7744ae"},"vehicle_type_id":"4","last_reported":1773928872,"current_range_meters":8800,"station_id":"ce4bgm92rcd13ifvqbr0","pricing_plan_id":"cebpf4jnsgd1na2vs0mg"},{"bike_id":"78bb54cf-5275-4554-9f53-8437367c33f2","system_id":"levelo_inurba_marseille","lat":43.23191,"lon":5.35537,"is_reserved":false,"is_disabled":false,"rental_uris":{"android":"levelo://app?vid=78bb54cf-5275-4554-9f53-8437367c33f2","ios":"levelo://app?vid=78bb54cf-5275-4554-9f53-8437367c33f2"},"vehicle_type_id":"4","last_reported":1773928872,"current_range_meters":8800,"station_id":"ce4bhu92rcd13ifvqi70","pricing_plan_id":"cebpf4jnsgd1na2vs0mg"},{"bike_id":"6c77ca47-f655-4305-947a-aa7d770d2f7d","system_id":"levelo_inurba_marseille","lat":43.25509,"lon":5.37651,"is_reserved":false,"is_disabled":false,"rental_uris":{"android":"levelo://app?vid=6c77ca47-f655-4305-947a-aa7d770d2f7d","ios":"levelo://app?vid=6c77ca47-f655-4305-947a-aa7d770d2f7d"},"vehicle_type_id":"4","last_reported":1773928872,"current_range_meters":8800,"station_id":"ce4bhh12rcd13ifvqff0","pricing_plan_id":"cebpf4jnsgd1na2vs0mg"},{"bike_id":"02fdec96-2cc8-44c5-9ad8-23a7eea9984d","system_id":"levelo_inurba_marseille","lat":43.31276,"lon":5.40169,"is_reserved":false,"is_disabled":false,"rental_uris":{"android":"levelo://app?vid=02fdec96-2cc8-44c5-9ad8-23a7eea9984d","ios":"levelo://app?vid=02fdec96-2cc8-44c5-9ad8-23a7eea9984d"},"vehicle_type_id":"4","last_reported":1773928872,"current_range_meters":8800,"station_id":"ce4bh092rcd13ifvqd30","pricing_plan_id":"cebpf4jnsgd1na2vs0mg"},{"bike_id":"7155279d-5434-41be-97f8-74d7709c700b","system_id":"levelo_inurba_marseille","lat":43.24668,"lon":5.38139,"is_reserved":false,"is_disabled":false,"rental_uris":{"android":"levelo://app?vid=7155279d-5434-41be-97f8-74d7709c700b","ios":"levelo://app?vid=7155279d-5434-41be-97f8-74d7709c700b"},"vehicle_type_id":"4","last_reported":1773928872,"current_range_meters":8800,"station_id":"ce4bhih2rcd13ifvqfr0","pricing_plan_id":"cebpf4jnsgd1na2vs0mg"},{"bike_id":"b3c6ee7e-839e-47ca-8bd1-12618e78dd87","system_id":"levelo_inurba_marseille","lat":43.23958,"lon":5.36627,"is_reserved":false,"is_disabled":true,"rental_uris":{"android":"levelo://app?vid=b3c6ee7e-839e-47ca-8bd1-12618e78dd87","ios":"levelo://app?vid=b3c6ee7e-839e-47ca-8bd1-12618e78dd87"},"vehicle_type_id":"4","last_reported":1773928872,"current_range_meters":8800,"station_id":"ce4bhi12rcd13ifvqfp0","pricing_plan_id":"cebpf4jnsgd1na2vs0mg"},{"bike_id":"6e312198-c530-414e-8f88-168b10974032","system_id":"levelo_inurba_marseille","lat":43.22567,"lon":5.41612,"is_reserved":false,"is_disabled":false,"rental_uris":{"android":"levelo://app?vid=6e312198-c530-414e-8f88-168b10974032","ios":"levelo://app?vid=6e312198-c530-414e-8f88-168b10974032"},"vehicle_type_id":"4","last_reported":1773928872,"current_range_meters":8800,"station_id":"st_d2o4gvlbi1j2169b742g","pricing_plan_id":"cebpf4jnsgd1na2vs0mg"},{"bike_id":"6efa9aea-a458-4443-a6c8-8ba8c1c3846d","system_id":"levelo_inurba_marseille","lat":43.28469,"lon":5.38425,"is_reserved":false,"is_disabled":false,"rental_uris":{"android":"levelo://app?vid=6efa9aea-a458-4443-a6c8-8ba8c1c3846d","ios":"levelo://app?vid=6efa9aea-a458-4443-a6c8-8ba8c1c3846d"},"vehicle_type_id":"4","last_reported":1773928872,"current_range_meters":9200,"station_id":"ce4bh512rcd13ifvqe3g","pricing_plan_id":"cebpf4jnsgd1na2vs0mg"},{"bike_id":"3072c2b7-499e-4858-9501-6070c7badbaf","system_id":"levelo_inurba_marseille","lat":43.23971,"lon":5.36586,"is_reserved":false,"is_disabled":false,"rental_uris":{"android":"levelo://app?vid=3072c2b7-499e-4858-9501-6070c7badbaf","ios":"levelo://app?vid=3072c2b7-499e-4858-9501-6070c7badbaf"},"vehicle_type_id":"4","last_reported":1773928872,"current_range_meters":9200,"station_id":"ce4bhi12rcd13ifvqfp0","pricing_plan_id":"cebpf4jnsgd1na2vs0mg"},{"bike_id":"69067704-4b9d-4067-8ddd-5b71f4ef1a8a","system_id":"levelo_inurba_marseille","lat":43.25928,"lon":5.4091,"is_reserved":false,"is_disabled":true,"rental_uris":{"android":"levelo://app?vid=69067704-4b9d-4067-8ddd-5b71f4ef1a8a","ios":"levelo://app?vid=69067704-4b9d-4067-8ddd-5b71f4ef1a8a"},"vehicle_type_id":"4","last_reported":1773928872,"current_range_meters":9200,"station_id":"ce4bhm92rcd13ifvqglg","pricing_plan_id":"cebpf4jnsgd1na2vs0mg"},{"bike_id":"70bc3c79-c3e5-47f5-9f17-0b27723a6d70","system_id":"levelo_inurba_marseille","lat":43.24091,"lon":5.37748,"is_reserved":false,"is_disabled":false,"rental_uris":{"android":"levelo://app?vid=70bc3c79-c3e5-47f5-9f17-0b27723a6d70","ios":"levelo://app?vid=70bc3c79-c3e5-47f5-9f17-0b27723a6d70"},"vehicle_type_id":"4","last_reported":1773928872,"current_range_meters":9200,"station_id":"ce4bhnp2rcd13ifvqgvg","pricing_plan_id":"cebpf4jnsgd1na2vs0mg"},{"bike_id":"f15a43b5-dd47-45ae-ae7d-e4490cd6b23e","system_id":"levelo_inurba_marseille","lat":43.30908,"lon":5.3685,"is_reserved":false,"is_disabled":false,"rental_uris":{"android":"levelo://app?vid=f15a43b5-dd47-45ae-ae7d-e4490cd6b23e","ios":"levelo://app?vid=f15a43b5-dd47-45ae-ae7d-e4490cd6b23e"},"vehicle_type_id":"4","last_reported":1773928872,"current_range_meters":9200,"station_id":"ce4bgn92rcd13ifvqbvg","pricing_plan_id":"cebpf4jnsgd1na2vs0mg"},{"bike_id":"dd74091b-705a-4531-bc39-afff2195d9a1","system_id":"levelo_inurba_marseille","lat":43.24803,"lon":5.3744,"is_reserved":false,"is_disabled":false,"rental_uris":{"android":"levelo://app?vid=dd74091b-705a-4531-bc39-afff2195d9a1","ios":"levelo://app?vid=dd74091b-705a-4531-bc39-afff2195d9a1"},"vehicle_type_id":"4","last_reported":1773928872,"current_range_meters":9200,"station_id":"ce4bhgh2rcd13ifvqfb0","pricing_plan_id":"cebpf4jnsgd1na2vs0mg"},{"bike_id":"16a9a3f7-e269-42a1-b478-c1887ea6ef22","system_id":"levelo_inurba_marseille","lat":43.28619,"lon":5.35103,"is_reserved":false,"is_disabled":false,"rental_uris":{"android":"levelo://app?vid=16a9a3f7-e269-42a1-b478-c1887ea6ef22","ios":"levelo://app?vid=16a9a3f7-e269-42a1-b478-c1887ea6ef22"},"vehicle_type_id":"4","last_reported":1773928872,"current_range_meters":9200,"station_id":"ce4bhb92rcd13ifvqen0","pricing_plan_id":"cebpf4jnsgd1na2vs0mg"},{"bike_id":"4194a7ac-ed9d-4a07-9ef4-127adeacf29a","system_id":"levelo_inurba_marseille","lat":43.30138,"lon":5.39871,"is_reserved":false,"is_disabled":false,"rental_uris":{"android":"levelo://app?vid=4194a7ac-ed9d-4a07-9ef4-127adeacf29a","ios":"levelo://app?vid=4194a7ac-ed9d-4a07-9ef4-127adeacf29a"},"vehicle_type_id":"4","last_reported":1773928872,"current_range_meters":9200,"station_id":"ce4bh0h2rcd13ifvqd40","pricing_plan_id":"cebpf4jnsgd1na2vs0mg"},{"bike_id":"2429eeb3-6aff-485f-be62-016fca8ba451","system_id":"levelo_inurba_marseille","lat":43.33619,"lon":5.41015,"is_reserved":false,"is_disabled":false,"rental_uris":{"android":"levelo://app?vid=2429eeb3-6aff-485f-be62-016fca8ba451","ios":"levelo://app?vid=2429eeb3-6aff-485f-be62-016fca8ba451"},"vehicle_type_id":"4","last_reported":1773928872,"current_range_meters":9200,"station_id":"ce4bhqh2rcd13ifvqhmg","pricing_plan_id":"cebpf4jnsgd1na2vs0mg"},{"bike_id":"9d7d6495-9f08-4a8f-9cb2-f434fe09cc90","system_id":"levelo_inurba_marseille","lat":43.29801,"lon":5.42731,"is_reserved":false,"is_disabled":false,"rental_uris":{"android":"levelo://app?vid=9d7d6495-9f08-4a8f-9cb2-f434fe09cc90","ios":"levelo://app?vid=9d7d6495-9f08-4a8f-9cb2-f434fe09cc90"},"vehicle_type_id":"4","last_reported":1773928872,"current_range_meters":9200,"station_id":"","pricing_plan_id":"cebpf4jnsgd1na2vs0mg"},{"bike_id":"2858b502-13ad-4133-aab5-28b9a7f9d95d","system_id":"levelo_inurba_marseille","lat":43.30911,"lon":5.36838,"is_reserved":false,"is_disabled":false,"rental_uris":{"android":"levelo://app?vid=2858b502-13ad-4133-aab5-28b9a7f9d95d","ios":"levelo://app?vid=2858b502-13ad-4133-aab5-28b9a7f9d95d"},"vehicle_type_id":"4","last_reported":1773928872,"current_range_meters":9200,"station_id":"ce4bgn92rcd13ifvqbvg","pricing_plan_id":"cebpf4jnsgd1na2vs0mg"},{"bike_id":"e08d225b-8f4a-4ce0-895d-d9f7f842408c","system_id":"levelo_inurba_marseille","lat":43.24167,"lon":5.36394,"is_reserved":false,"is_disabled":false,"rental_uris":{"android":"levelo://app?vid=e08d225b-8f4a-4ce0-895d-d9f7f842408c","ios":"levelo://app?vid=e08d225b-8f4a-4ce0-895d-d9f7f842408c"},"vehicle_type_id":"4","last_reported":1773928872,"current_range_meters":9200,"station_id":"cpo36qri1sfpv3e86is0","pricing_plan_id":"cebpf4jnsgd1na2vs0mg"},{"bike_id":"4276c873-a1a7-4e01-9353-4e4aa8b2eafd","system_id":"levelo_inurba_marseille","lat":43.23141,"lon":5.43708,"is_reserved":false,"is_disabled":false,"rental_uris":{"android":"levelo://app?vid=4276c873-a1a7-4e01-9353-4e4aa8b2eafd","ios":"levelo://app?vid=4276c873-a1a7-4e01-9353-4e4aa8b2eafd"},"vehicle_type_id":"4","last_reported":1773928872,"current_range_meters":9200,"station_id":"ce4bhmp2rcd13ifvqgog","pricing_plan_id":"cebpf4jnsgd1na2vs0mg"},{"bike_id":"f76be1bf-b839-4363-b725-31a2cfaf3f32","system_id":"levelo_inurba_marseille","lat":43.23781,"lon":5.36623,"is_reserved":false,"is_disabled":false,"rental_uris":{"android":"levelo://app?vid=f76be1bf-b839-4363-b725-31a2cfaf3f32","ios":"levelo://app?vid=f76be1bf-b839-4363-b725-31a2cfaf3f32"},"vehicle_type_id":"4","last_reported":1773928872,"current_range_meters":9200,"station_id":"st_d3nk18o9ro0c73en2l3g","pricing_plan_id":"cebpf4jnsgd1na2vs0mg"},{"bike_id":"23f6ddf6-40f3-4b43-9401-02952c49f066","system_id":"levelo_inurba_marseille","lat":43.27942,"lon":5.41047,"is_reserved":false,"is_disabled":false,"rental_uris":{"android":"levelo://app?vid=23f6ddf6-40f3-4b43-9401-02952c49f066","ios":"levelo://app?vid=23f6ddf6-40f3-4b43-9401-02952c49f066"},"vehicle_type_id":"4","last_reported":1773928872,"current_range_meters":9200,"station_id":"ce4bhnp2rcd13ifvqh0g","pricing_plan_id":"cebpf4jnsgd1na2vs0mg"},{"bike_id":"ce9e68e1-8c85-496d-9596-71dcee2830b9","system_id":"levelo_inurba_marseille","lat":43.30961,"lon":5.39014,"is_reserved":false,"is_disabled":false,"rental_uris":{"android":"levelo://app?vid=ce9e68e1-8c85-496d-9596-71dcee2830b9","ios":"levelo://app?vid=ce9e68e1-8c85-496d-9596-71dcee2830b9"},"vehicle_type_id":"4","last_reported":1773928872,"current_range_meters":9200,"station_id":"ce4bgup2rcd13ifvqco0","pricing_plan_id":"cebpf4jnsgd1na2vs0mg"},{"bike_id":"eabf4d2f-073c-41a2-a840-9f5f81a65f64","system_id":"levelo_inurba_marseille","lat":43.29072,"lon":5.42688,"is_reserved":false,"is_disabled":false,"rental_uris":{"android":"levelo://app?vid=eabf4d2f-073c-41a2-a840-9f5f81a65f64","ios":"levelo://app?vid=eabf4d2f-073c-41a2-a840-9f5f81a65f64"},"vehicle_type_id":"4","last_reported":1773928872,"current_range_meters":9200,"station_id":"","pricing_plan_id":"cebpf4jnsgd1na2vs0mg"},{"bike_id":"b1240e70-d248-488d-b8b1-8f20c9e4815c","system_id":"levelo_inurba_marseille","lat":43.288847,"lon":5.358766,"is_reserved":false,"is_disabled":false,"rental_uris":{"android":"levelo://app?vid=b1240e70-d248-488d-b8b1-8f20c9e4815c","ios":"levelo://app?vid=b1240e70-d248-488d-b8b1-8f20c9e4815c"},"vehicle_type_id":"4","last_reported":1773928872,"current_range_meters":9600,"station_id":"ce4bhb12rcd13ifvqem0","pricing_plan_id":"cebpf4jnsgd1na2vs0mg"},{"bike_id":"b8bb4cdc-867b-40d2-a148-211dcb220274","system_id":"levelo_inurba_marseille","lat":43.31389,"lon":5.36688,"is_reserved":false,"is_disabled":false,"rental_uris":{"android":"levelo://app?vid=b8bb4cdc-867b-40d2-a148-211dcb220274","ios":"levelo://app?vid=b8bb4cdc-867b-40d2-a148-211dcb220274"},"vehicle_type_id":"4","last_reported":1773928872,"current_range_meters":9600,"station_id":"","pricing_plan_id":"cebpf4jnsgd1na2vs0mg"},{"bike_id":"1e441bb9-b545-42fa-9471-66e8ff3097bc","system_id":"levelo_inurba_marseille","lat":43.30372,"lon":5.42488,"is_reserved":false,"is_disabled":false,"rental_uris":{"android":"levelo://app?vid=1e441bb9-b545-42fa-9471-66e8ff3097bc","ios":"levelo://app?vid=1e441bb9-b545-42fa-9471-66e8ff3097bc"},"vehicle_type_id":"4","last_reported":1773928872,"current_range_meters":9600,"station_id":"ce4bhoh2rcd13ifvqh6g","pricing_plan_id":"cebpf4jnsgd1na2vs0mg"},{"bike_id":"e0ff4d39-3aba-4f25-99b6-58e3e5d61be4","system_id":"levelo_inurba_marseille","lat":43.23794,"lon":5.3662,"is_reserved":false,"is_disabled":false,"rental_uris":{"android":"levelo://app?vid=e0ff4d39-3aba-4f25-99b6-58e3e5d61be4","ios":"levelo://app?vid=e0ff4d39-3aba-4f25-99b6-58e3e5d61be4"},"vehicle_type_id":"4","last_reported":1773928872,"current_range_meters":9600,"station_id":"st_d3nk18o9ro0c73en2l3g","pricing_plan_id":"cebpf4jnsgd1na2vs0mg"},{"bike_id":"a775511c-9985-4a58-8c4c-775aad7f3e36","system_id":"levelo_inurba_marseille","lat":43.29895,"lon":5.4363,"is_reserved":false,"is_disabled":false,"rental_uris":{"android":"levelo://app?vid=a775511c-9985-4a58-8c4c-775aad7f3e36","ios":"levelo://app?vid=a775511c-9985-4a58-8c4c-775aad7f3e36"},"vehicle_type_id":"4","last_reported":1773928872,"current_range_meters":9600,"station_id":"ce4bhpp2rcd13ifvqhfg","pricing_plan_id":"cebpf4jnsgd1na2vs0mg"},{"bike_id":"12118d88-8157-4d76-ad00-12ce3bc20921","system_id":"levelo_inurba_marseille","lat":43.30822,"lon":5.3709,"is_reserved":false,"is_disabled":false,"rental_uris":{"android":"levelo://app?vid=12118d88-8157-4d76-ad00-12ce3bc20921","ios":"levelo://app?vid=12118d88-8157-4d76-ad00-12ce3bc20921"},"vehicle_type_id":"4","last_reported":1773928872,"current_range_meters":9600,"station_id":"","pricing_plan_id":"cebpf4jnsgd1na2vs0mg"},{"bike_id":"a7dd1c2f-1863-4db6-9064-755a90a3283b","system_id":"levelo_inurba_marseille","lat":43.2972,"lon":5.42585,"is_reserved":false,"is_disabled":false,"rental_uris":{"android":"levelo://app?vid=a7dd1c2f-1863-4db6-9064-755a90a3283b","ios":"levelo://app?vid=a7dd1c2f-1863-4db6-9064-755a90a3283b"},"vehicle_type_id":"4","last_reported":1773928872,"current_range_meters":9600,"station_id":"","pricing_plan_id":"cebpf4jnsgd1na2vs0mg"},{"bike_id":"0264288d-82fa-4432-8751-6c08c0e54bb7","system_id":"levelo_inurba_marseille","lat":43.30308,"lon":5.42459,"is_reserved":false,"is_disabled":false,"rental_uris":{"android":"levelo://app?vid=0264288d-82fa-4432-8751-6c08c0e54bb7","ios":"levelo://app?vid=0264288d-82fa-4432-8751-6c08c0e54bb7"},"vehicle_type_id":"4","last_reported":1773928872,"current_range_meters":9600,"station_id":"","pricing_plan_id":"cebpf4jnsgd1na2vs0mg"},{"bike_id":"acbfc5b5-b82b-4202-bbfd-e578dd757411","system_id":"levelo_inurba_marseille","lat":43.28224,"lon":5.39036,"is_reserved":false,"is_disabled":false,"rental_uris":{"android":"levelo://app?vid=acbfc5b5-b82b-4202-bbfd-e578dd757411","ios":"levelo://app?vid=acbfc5b5-b82b-4202-bbfd-e578dd757411"},"vehicle_type_id":"4","last_reported":1773928872,"current_range_meters":9600,"station_id":"ce4bhn92rcd13ifvqgsg","pricing_plan_id":"cebpf4jnsgd1na2vs0mg"},{"bike_id":"3ea2847b-ff2a-40bd-a180-54cbd3248a95","system_id":"levelo_inurba_marseille","lat":43.24814,"lon":5.37453,"is_reserved":false,"is_disabled":false,"rental_uris":{"android":"levelo://app?vid=3ea2847b-ff2a-40bd-a180-54cbd3248a95","ios":"levelo://app?vid=3ea2847b-ff2a-40bd-a180-54cbd3248a95"},"vehicle_type_id":"4","last_reported":1773928872,"current_range_meters":9600,"station_id":"ce4bhgh2rcd13ifvqfb0","pricing_plan_id":"cebpf4jnsgd1na2vs0mg"},{"bike_id":"f5900c8a-2c25-467f-8d3d-623297ef3bed","system_id":"levelo_inurba_marseille","lat":43.27194,"lon":5.40987,"is_reserved":false,"is_disabled":false,"rental_uris":{"android":"levelo://app?vid=f5900c8a-2c25-467f-8d3d-623297ef3bed","ios":"levelo://app?vid=f5900c8a-2c25-467f-8d3d-623297ef3bed"},"vehicle_type_id":"4","last_reported":1773928872,"current_range_meters":9600,"station_id":"ce4bhl12rcd13ifvqgf0","pricing_plan_id":"cebpf4jnsgd1na2vs0mg"},{"bike_id":"6c775013-9d78-45b8-98d5-99118a43801d","system_id":"levelo_inurba_marseille","lat":43.2904,"lon":5.35899,"is_reserved":false,"is_disabled":false,"rental_uris":{"android":"levelo://app?vid=6c775013-9d78-45b8-98d5-99118a43801d","ios":"levelo://app?vid=6c775013-9d78-45b8-98d5-99118a43801d"},"vehicle_type_id":"4","last_reported":1773928872,"current_range_meters":9600,"station_id":"ce4bha92rcd13ifvqeg0","pricing_plan_id":"cebpf4jnsgd1na2vs0mg"},{"bike_id":"115f01e8-c27c-4fe5-a0a2-3c97434a829c","system_id":"levelo_inurba_marseille","lat":43.28414,"lon":5.34973,"is_reserved":false,"is_disabled":false,"rental_uris":{"android":"levelo://app?vid=115f01e8-c27c-4fe5-a0a2-3c97434a829c","ios":"levelo://app?vid=115f01e8-c27c-4fe5-a0a2-3c97434a829c"},"vehicle_type_id":"4","last_reported":1773928872,"current_range_meters":9600,"station_id":"ce4bhbh2rcd13ifvqepg","pricing_plan_id":"cebpf4jnsgd1na2vs0mg"},{"bike_id":"5437eca6-c54d-4870-a1d5-8548798d4932","system_id":"levelo_inurba_marseille","lat":43.29275,"lon":5.38447,"is_reserved":false,"is_disabled":false,"rental_uris":{"android":"levelo://app?vid=5437eca6-c54d-4870-a1d5-8548798d4932","ios":"levelo://app?vid=5437eca6-c54d-4870-a1d5-8548798d4932"},"vehicle_type_id":"4","last_reported":1773928872,"current_range_meters":9600,"station_id":"ce4bh692rcd13ifvqea0","pricing_plan_id":"cebpf4jnsgd1na2vs0mg"},{"bike_id":"e8c2f714-8499-47fe-bd54-c8953cf6dca3","system_id":"levelo_inurba_marseille","lat":43.21187,"lon":5.35081,"is_reserved":false,"is_disabled":false,"rental_uris":{"android":"levelo://app?vid=e8c2f714-8499-47fe-bd54-c8953cf6dca3","ios":"levelo://app?vid=e8c2f714-8499-47fe-bd54-c8953cf6dca3"},"vehicle_type_id":"4","last_reported":1773928872,"current_range_meters":9600,"station_id":"st_cvj6sg6p6f1abm77japg","pricing_plan_id":"cebpf4jnsgd1na2vs0mg"},