{"last_updated":1702390002,"ttl":30,"version":"2.2","data":{"bikes":[{"bike_id":"b31ae012-a139-4090-8033-defb86ffbd8e","system_id":"levelo_inurba_marseille","lat":43.31341,"lon":5.367098,"is_reserved":false,"is_disabled":false,"rental_uris":{"android":"levelo://app?vid=b31ae012-a139-4090-8033-defb86ffbd8e","ios":"levelo://app?vid=b31ae012-a139-4090-8033-defb86ffbd8e"},"vehicle_type_id":"4","last_reported":1702390002,"current_range_meters":23600,"station_id":"ce4bgr92rcd13ifvqc6g","pricing_plan_id":"free"},{"bike_id":"7d308b4c-22a8-4c72-9d35-827481eef95e","system_id":"levelo_inurba_marseille","lat":43.31341,"lon":5.367098,"is_reserved":false,"is_disabled":false,"rental_uris":{"android":"levelo://app?vid=7d308b4c-22a8-4c72-9d35-827481eef95e","ios":"levelo://app?vid=7d308b4c-22a8-4c72-9d35-827481eef95e"},"vehicle_type_id":"4","last_reported":1702390002,"current_range_meters":20000,"station_id":"ce4bgr92rcd13ifvqc6g","pricing_plan_id":"free"},{"bike_id":"7bce3b70-18b6-47e7-a8b6-a3701968b1e0","system_id":"levelo_inurba_marseille","lat":43.312239,"lon":5.368562,"is_reserved":false,"is_disabled":false,"rental_uris":{"android":"levelo://app?vid=7bce3b70-18b6-47e7-a8b6-a3701968b1e0","ios":"levelo://app?vid=7bce3b70-18b6-47e7-a8b6-a3701968b1e0"},"vehicle_type_id":"4","last_reported":1702390002,"current_range_meters":22800,"station_id":"ce4bgl92rcd13ifvqbq0","pricing_plan_id":"free"},{"bike_id":"b5a2b171-bf18-4d56-b8f8-39fd563e6c0d","system_id":"levelo_inurba_marseille","lat":43.314811,"lon":5.373103,"is_reserved":false,"is_disabled":false,"rental_uris":{"android":"levelo://app?vid=b5a2b171-bf18-4d56-b8f8-39fd563e6c0d","ios":"levelo://app?vid=b5a2b171-bf18-4d56-b8f8-39fd563e6c0d"},"vehicle_type_id":"4","last_reported":1702390002,"current_range_meters":24000,"station_id":"ce4bgt12rcd13ifvqcd0","pricing_plan_id":"free"},{"bike_id":"8f1ed05c-6304-49a4-8481-5d534e977c60","system_id":"levelo_inurba_marseille","lat":43.309039,"lon":5.371797,"is_reserved":false,"is_disabled":false,"rental_uris":{"android":"levelo://app?vid=8f1ed05c-6304-49a4-8481-5d534e977c60","ios":"levelo://app?vid=8f1ed05c-6304-49a4-8481-5d534e977c60"},"vehicle_type_id":"4","last_reported":1702390002,"current_range_meters":27200,"station_id":"ce4bguh2rcd13ifvqckg","pricing_plan_id":"free"},{"bike_id":"21bbec5a-ba8c-40b8-b3c9-e721a4fafdae","system_id":"levelo_inurba_marseille","lat":43.305518,"lon":5.367016,"is_reserved":false,"is_disabled":false,"rental_uris":{"android":"levelo://app?vid=21bbec5a-ba8c-40b8-b3c9-e721a4fafdae","ios":"levelo://app?vid=21bbec5a-ba8c-40b8-b3c9-e721a4fafdae"},"vehicle_type_id":"4","last_reported":1702390002,"current_range_meters":0,"station_id":"ce4bgrp2rcd13ifvqc9g","pricing_plan_id":"free"},{"bike_id":"61356763-fb0d-4b3b-a30c-89615f77e21c","system_id":"levelo_inurba_marseille","lat":43.305714,"lon":5.365633,"is_reserved":false,"is_disabled":false,"rental_uris":{"android":"levelo://app?vid=61356763-fb0d-4b3b-a30c-89615f77e21c","ios":"levelo://app?vid=61356763-fb0d-4b3b-a30c-89615f77e21c"},"vehicle_type_id":"4","last_reported":1702390002,"current_range_meters":21200,"station_id":"ce4bgs12rcd13ifvqcag","pricing_plan_id":"free"},{"bike_id":"1c18741c-f66b-4a35-aa29-ee80a6ef2114","system_id":"levelo_inurba_marseille","lat":43.31117,"lon":5.37756,"is_reserved":false,"is_disabled":false,"rental_uris":{"android":"levelo://app?vid=1c18741c-f66b-4a35-aa29-ee80a6ef2114","ios":"levelo://app?vid=1c18741c-f66b-4a35-aa29-ee80a6ef2114"},"vehicle_type_id":"4","last_reported":1702390002,"current_range_meters":9600,"station_id":"ce4bgt92rcd13ifvqcg0","pricing_plan_id":"free"},{"bike_id":"92ad067f-f029-46f9-bf56-de782c48eb36","system_id":"levelo_inurba_marseille","lat":43.31114,"lon":5.37761,"is_reserved":false,"is_disabled":false,"rental_uris":{"android":"levelo://app?vid=92ad067f-f029-46f9-bf56-de782c48eb36","ios":"levelo://app?vid=92ad067f-f029-46f9-bf56-de782c48eb36"},"vehicle_type_id":"4","last_reported":1702390002,"current_range_meters":13600,"station_id":"ce4bgt92rcd13ifvqcg0","pricing_plan_id":"free"},{"bike_id":"aaecaef6-1da4-4493-b15a-15460e397dbd","system_id":"levelo_inurba_marseille","lat":43.311125,"lon":5.377624,"is_reserved":false,"is_disabled":false,"rental_uris":{"android":"levelo://app?vid=aaecaef6-1da4-4493-b15a-15460e397dbd","ios":"levelo://app?vid=aaecaef6-1da4-4493-b15a-15460e397dbd"},"vehicle_type_id":"4","last_reported":1702390002,"current_range_meters":9200,"station_id":"ce4bgt92rcd13ifvqcg0","pricing_plan_id":"free"},{"bike_id":"dc68debd-6203-4696-b9a5-55eea857c5a0","system_id":"levelo_inurba_marseille","lat":43.317075,"lon":5.377367,"is_reserved":false,"is_disabled":false,"rental_uris":{"android":"levelo://app?vid=dc68debd-6203-4696-b9a5-55eea857c5a0","ios":"levelo://app?vid=dc68debd-6203-4696-b9a5-55eea857c5a0"},"vehicle_type_id":"4","last_reported":1702390002,"current_range_meters":18400,"station_id":"ce4bgth2rcd13ifvqch0","pricing_plan_id":"free"},{"bike_id":"5ce7ad9f-d315-4706-9458-9360e5cb32fc","system_id":"levelo_inurba_marseille","lat":43.303046,"lon":5.368981,"is_reserved":false,"is_disabled":false,"rental_uris":{"android":"levelo://app?vid=5ce7ad9f-d315-4706-9458-9360e5cb32fc","ios":"levelo://app?vid=5ce7ad9f-d315-4706-9458-9360e5cb32fc"},"vehicle_type_id":"4","last_reported":1702390002,"current_range_meters":3600,"station_id":"ce4bgqh2rcd13ifvqc5g","pricing_plan_id":"free"},{"bike_id":"7a737edd-35fc-4cea-9fca-51095daee26c","system_id":"levelo_inurba_marseille","lat":43.315949,"lon":5.381203,"is_reserved":false,"is_disabled":false,"rental_uris":{"android":"levelo://app?vid=7a737edd-35fc-4cea-9fca-51095daee26c","ios":"levelo://app?vid=7a737edd-35fc-4cea-9fca-51095daee26c"},"vehicle_type_id":"4","last_reported":1702390002,"current_range_meters":25600,"station_id":"","pricing_plan_id":"free"},{"bike_id":"bde0e696-3b49-4902-9f86-370e683d2b0f","system_id":"levelo_inurba_marseille","lat":43.301939,"lon":5.366286,"is_reserved":false,"is_disabled":false,"rental_uris":{"android":"levelo://app?vid=bde0e696-3b49-4902-9f86-370e683d2b0f","ios":"levelo://app?vid=bde0e696-3b49-4902-9f86-370e683d2b0f"},"vehicle_type_id":"4","last_reported":1702390002,"current_range_meters":18400,"station_id":"ce4bgrh2rcd13ifvqc8g","pricing_plan_id":"free"},{"bike_id":"a2c00a25-6a2d-4aa0-9dc6-c91a9cf32ea0","system_id":"levelo_inurba_marseille","lat":43.308012,"lon":5.381511,"is_reserved":false,"is_disabled":false,"rental_uris":{"android":"levelo://app?vid=a2c00a25-6a2d-4aa0-9dc6-c91a9cf32ea0","ios":"levelo://app?vid=a2c00a25-6a2d-4aa0-9dc6-c91a9cf32ea0"},"vehicle_type_id":"4","last_reported":1702390002,"current_range_meters":0,"station_id":"ce4bgt12rcd13ifvqce0","pricing_plan_id":"free"},{"bike_id":"4da4a243-45d1-4c6a-b0de-6843ee59caf8","system_id":"levelo_inurba_marseille","lat":43.308012,"lon":5.381511,"is_reserved":false,"is_disabled":false,"rental_uris":{"android":"levelo://app?vid=4da4a243-45d1-4c6a-b0de-6843ee59caf8","ios":"levelo://app?vid=4da4a243-45d1-4c6a-b0de-6843ee59caf8"},"vehicle_type_id":"4","last_reported":1702390002,"current_range_meters":28400,"station_id":"ce4bgt12rcd13ifvqce0","pricing_plan_id":"free"},{"bike_id":"1965b1e9-f3ba-4bb7-b2c8-e417d78d53b3","system_id":"levelo_inurba_marseille","lat":43.304606,"lon":5.379026,"is_reserved":false,"is_disabled":false,"rental_uris":{"android":"levelo://app?vid=1965b1e9-f3ba-4bb7-b2c8-e417d78d53b3","ios":"levelo://app?vid=1965b1e9-f3ba-4bb7-b2c8-e417d78d53b3"},"vehicle_type_id":"4","last_reported":1702390002,"current_range_meters":12800,"station_id":"ce4bgup2rcd13ifvqcn0","pricing_plan_id":"free"},{"bike_id":"73ba75eb-71f8-47e9-826e-fa8bbc0793b0","system_id":"levelo_inurba_marseille","lat":43.304606,"lon":5.379026,"is_reserved":false,"is_disabled":false,"rental_uris":{"android":"levelo://app?vid=73ba75eb-71f8-47e9-826e-fa8bbc0793b0","ios":"levelo://app?vid=73ba75eb-71f8-47e9-826e-fa8bbc0793b0"},"vehicle_type_id":"4","last_reported":1702390002,"current_range_meters":26400,"station_id":"ce4bgup2rcd13ifvqcn0","pricing_plan_id":"free"},{"bike_id":"dbe3fe8d-25d9-432a-9911-c7cda98354a9","system_id":"levelo_inurba_marseille","lat":43.304606,"lon":5.379026,"is_reserved":false,"is_disabled":false,"rental_uris":{"android":"levelo://app?vid=dbe3fe8d-25d9-432a-9911-c7cda98354a9","ios":"levelo://app?vid=dbe3fe8d-25d9-432a-9911-c7cda98354a9"},"vehicle_type_id":"4","last_reported":1702390002,"current_range_meters":24400,"station_id":"ce4bgup2rcd13ifvqcn0","pricing_plan_id":"free"},{"bike_id":"8c322cc6-9ce4-4010-9c25-45414b149fb7","system_id":"levelo_inurba_marseille","lat":43.30279,"lon":5.37701,"is_reserved":false,"is_disabled":false,"rental_uris":{"android":"levelo://app?vid=8c322cc6-9ce4-4010-9c25-45414b149fb7","ios":"levelo://app?vid=8c322cc6-9ce4-4010-9c25-45414b149fb7"},"vehicle_type_id":"4","last_reported":1702390002,"current_range_meters":0,"station_id":"ce4bguh2rcd13ifvqcj0","pricing_plan_id":"free"},{"bike_id":"f4c093bd-1eb4-4069-ac8d-b0f4e902162f","system_id":"levelo_inurba_marseille","lat":43.3136,"lon":5.38497,"is_reserved":false,"is_disabled":false,"rental_uris":{"android":"levelo://app?vid=f4c093bd-1eb4-4069-ac8d-b0f4e902162f","ios":"levelo://app?vid=f4c093bd-1eb4-4069-ac8d-b0f4e902162f"},"vehicle_type_id":"4","last_reported":1702390002,"current_range_meters":6000,"station_id":"ce4bgt92rcd13ifvqcf0","pricing_plan_id":"free"},{"bike_id":"86e3e57e-a8e4-49c3-b917-d84fa21da843","system_id":"levelo_inurba_marseille","lat":43.299724,"lon":5.371829,"is_reserved":false,"is_disabled":false,"rental_uris":{"android":"levelo://app?vid=86e3e57e-a8e4-49c3-b917-d84fa21da843","ios":"levelo://app?vid=86e3e57e-a8e4-49c3-b917-d84fa21da843"},"vehicle_type_id":"4","last_reported":1702390002,"current_range_meters":9600,"station_id":"ce4bgr92rcd13ifvqc7g","pricing_plan_id":"free"},{"bike_id":"77a6c46d-d898-4e4f-8846-efa91689c7f0","system_id":"levelo_inurba_marseille","lat":43.302006,"lon":5.38065,"is_reserved":false,"is_disabled":false,"rental_uris":{"android":"levelo://app?vid=77a6c46d-d898-4e4f-8846-efa91689c7f0","ios":"levelo://app?vid=77a6c46d-d898-4e4f-8846-efa91689c7f0"},"vehicle_type_id":"4","last_reported":1702390002,"current_range_meters":0,"station_id":"","pricing_plan_id":"free"},{"bike_id":"115689d6-2716-41be-9749-25f1833a8986","system_id":"levelo_inurba_marseille","lat":43.32834,"lon":5.36693,"is_reserved":false,"is_disabled":false,"rental_uris":{"android":"levelo://app?vid=115689d6-2716-41be-9749-25f1833a8986","ios":"levelo://app?vid=115689d6-2716-41be-9749-25f1833a8986"},"vehicle_type_id":"4","last_reported":1702390002,"current_range_meters":24400,"station_id":"ce4bhs92rcd13ifvqi0g","pricing_plan_id":"free"},{"bike_id":"58e422f1-c872-49ec-9a4e-bd7d4e003676","system_id":"levelo_inurba_marseille","lat":43.297163,"lon":5.365866,"is_reserved":false,"is_disabled":false,"rental_uris":{"android":"levelo://app?vid=58e422f1-c872-49ec-9a4e-bd7d4e003676","ios":"levelo://app?vid=58e422f1-c872-49ec-9a4e-bd7d4e003676"},"vehicle_type_id":"4","last_reported":1702390002,"current_range_meters":23600,"station_id":"ce4bgn12rcd13ifvqbt0","pricing_plan_id":"free"},{"bike_id":"c749d5b2-e223-420e-acaf-dad7e0af42ab","system_id":"levelo_inurba_marseille","lat":43.297163,"lon":5.365866,"is_reserved":false,"is_disabled":false,"rental_uris":{"android":"levelo://app?vid=c749d5b2-e223-420e-acaf-dad7e0af42ab","ios":"levelo://app?vid=c749d5b2-e223-420e-acaf-dad7e0af42ab"},"vehicle_type_id":"4","last_reported":1702390002,"current_range_meters":18000,"station_id":"ce4bgn12rcd13ifvqbt0","pricing_plan_id":"free"},{"bike_id":"ced224ba-9672-4c17-a47f-ca8e0029d8cc","system_id":"levelo_inurba_marseille","lat":43.297163,"lon":5.365866,"is_reserved":false,"is_disabled":false,"rental_uris":{"android":"levelo://app?vid=ced224ba-9672-4c17-a47f-ca8e0029d8cc","ios":"levelo://app?vid=ced224ba-9672-4c17-a47f-ca8e0029d8cc"},"vehicle_type_id":"4","last_reported":1702390002,"current_range_meters":27200,"station_id":"ce4bgn12rcd13ifvqbt0","pricing_plan_id":"free"},{"bike_id":"9c0e9f3f-8288-4f41-8f25-507ecaec6ab7","system_id":"levelo_inurba_marseille","lat":43.297163,"lon":5.365866,"is_reserved":false,"is_disabled":false,"rental_uris":{"android":"levelo://app?vid=9c0e9f3f-8288-4f41-8f25-507ecaec6ab7","ios":"levelo://app?vid=9c0e9f3f-8288-4f41-8f25-507ecaec6ab7"},"vehicle_type_id":"4","last_reported":1702390002,"current_range_meters":23200,"station_id":"ce4bgn12rcd13ifvqbt0","pricing_plan_id":"free"},{"bike_id":"f6ba29f7-9490-4ed5-b27c-11093ca6c55e","system_id":"levelo_inurba_marseille","lat":43.299028,"lon":5.381509,"is_reserved":false,"is_disabled":false,"rental_uris":{"android":"levelo://app?vid=f6ba29f7-9490-4ed5-b27c-11093ca6c55e","ios":"levelo://app?vid=f6ba29f7-9490-4ed5-b27c-11093ca6c55e"},"vehicle_type_id":"4","last_reported":1702390002,"current_range_meters":26000,"station_id":"ce4bgj12rcd13ifvqbc0","pricing_plan_id":"free"},{"bike_id":"0af650a9-c756-4a99-912c-73c7e669a40e","system_id":"levelo_inurba_marseille","lat":43.317557,"lon":5.390173,"is_reserved":false,"is_disabled":false,"rental_uris":{"android":"levelo://app?vid=0af650a9-c756-4a99-912c-73c7e669a40e","ios":"levelo://app?vid=0af650a9-c756-4a99-912c-73c7e669a40e"},"vehicle_type_id":"4","last_reported":1702390002,"current_range_meters":12400,"station_id":"ce4bhqp2rcd13ifvqhng","pricing_plan_id":"free"},{"bike_id":"dd98db7d-13ac-431a-9d62-450a34114bcb","system_id":"levelo_inurba_marseille","lat":43.317557,"lon":5.390173,"is_reserved":false,"is_disabled":false,"rental_uris":{"android":"levelo://app?vid=dd98db7d-13ac-431a-9d62-450a34114bcb","ios":"levelo://app?vid=dd98db7d-13ac-431a-9d62-450a34114bcb"},"vehicle_type_id":"4","last_reported":1702390002,"current_range_meters":10800,"station_id":"ce4bhqp2rcd13ifvqhng","pricing_plan_id":"free"},{"bike_id":"4b569e02-ea61-48ac-9e8e-d30a5f137cd8","system_id":"levelo_inurba_marseille","lat":43.295748,"lon":5.37522,"is_reserved":false,"is_disabled":false,"rental_uris":{"android":"levelo://app?vid=4b569e02-ea61-48ac-9e8e-d30a5f137cd8","ios":"levelo://app?vid=4b569e02-ea61-48ac-9e8e-d30a5f137cd8"},"vehicle_type_id":"4","last_reported":1702390002,"current_range_meters":16400,"station_id":"ce4bgh92rcd13ifvqb50","pricing_plan_id":"free"},{"bike_id":"2ebeec87-7232-44f5-b373-6dc4f3c9cb26","system_id":"levelo_inurba_marseille","lat":43.2957,"lon":5.37508,"is_reserved":false,"is_disabled":false,"rental_uris":{"android":"levelo://app?vid=2ebeec87-7232-44f5-b373-6dc4f3c9cb26","ios":"levelo://app?vid=2ebeec87-7232-44f5-b373-6dc4f3c9cb26"},"vehicle_type_id":"4","last_reported":1702390002,"current_range_meters":16800,"station_id":"ce4bgh92rcd13ifvqb50","pricing_plan_id":"free"},{"bike_id":"a9d2ff77-5c3f-4148-95d9-c7b41f937af1","system_id":"levelo_inurba_marseille","lat":43.304278,"lon":5.388868,"is_reserved":false,"is_disabled":false,"rental_uris":{"android":"levelo://app?vid=a9d2ff77-5c3f-4148-95d9-c7b41f937af1","ios":"levelo://app?vid=a9d2ff77-5c3f-4148-95d9-c7b41f937af1"},"vehicle_type_id":"4","last_reported":1702390002,"current_range_meters":25600,"station_id":"ce4bgk12rcd13ifvqbi0","pricing_plan_id":"free"},{"bike_id":"65ea2489-1b08-4152-98dd-c55b4196d374","system_id":"levelo_inurba_marseille","lat":43.295748,"lon":5.37522,"is_reserved":false,"is_disabled":false,"rental_uris":{"android":"levelo://app?vid=65ea2489-1b08-4152-98dd-c55b4196d374","ios":"levelo://app?vid=65ea2489-1b08-4152-98dd-c55b4196d374"},"vehicle_type_id":"4","last_reported":1702390002,"current_range_meters":28400,"station_id":"ce4bgh92rcd13ifvqb50","pricing_plan_id":"free"},{"bike_id":"0f473322-53f4-45ab-b775-5832782c92b6","system_id":"levelo_inurba_marseille","lat":43.32357,"lon":5.38877,"is_reserved":false,"is_disabled":false,"rental_uris":{"android":"levelo://app?vid=0f473322-53f4-45ab-b775-5832782c92b6","ios":"levelo://app?vid=0f473322-53f4-45ab-b775-5832782c92b6"},"vehicle_type_id":"4","last_reported":1702390002,"current_range_meters":0,"station_id":"ce4bhqp2rcd13ifvqhog","pricing_plan_id":"free"},{"bike_id":"0cf7f0fc-0c00-4cbe-9839-10676459cbb0","system_id":"levelo_inurba_marseille","lat":43.32364,"lon":5.38884,"is_reserved":false,"is_disabled":false,"rental_uris":{"android":"levelo://app?vid=0cf7f0fc-0c00-4cbe-9839-10676459cbb0","ios":"levelo://app?vid=0cf7f0fc-0c00-4cbe-9839-10676459cbb0"},"vehicle_type_id":"4","last_reported":1702390002,"current_range_meters":24000,"station_id":"ce4bhqp2rcd13ifvqhog","pricing_plan_id":"free"},{"bike_id":"a6ca6254-2010-40e6-a967-bda318c06f07","system_id":"levelo_inurba_marseille","lat":43.293249,"lon":5.371578,"is_reserved":false,"is_disabled":false,"rental_uris":{"android":"levelo://app?vid=a6ca6254-2010-40e6-a967-bda318c06f07","ios":"levelo://app?vid=a6ca6254-2010-40e6-a967-bda318c06f07"},"vehicle_type_id":"4","last_reported":1702390002,"current_range_meters":24800,"station_id":"ce4bgh92rcd13ifvqb40","pricing_plan_id":"free"},{"bike_id":"a0997ff7-b420-4f47-bf7b-a266a047ca27","system_id":"levelo_inurba_marseille","lat":43.293009,"lon":5.374584,"is_reserved":false,"is_disabled":false,"rental_uris":{"android":"levelo://app?vid=a0997ff7-b420-4f47-bf7b-a266a047ca27","ios":"levelo://app?vid=a0997ff7-b420-4f47-bf7b-a266a047ca27"},"vehicle_type_id":"4","last_reported":1702390002,"current_range_meters":21600,"station_id":"ce4bgi12rcd13ifvqb70","pricing_plan_id":"free"},{"bike_id":"72266c0c-bc3b-4da2-bdac-6a0aeb0590bc","system_id":"levelo_inurba_marseille","lat":43.293009,"lon":5.374584,"is_reserved":false,"is_disabled":false,"rental_uris":{"android":"levelo://app?vid=72266c0c-bc3b-4da2-bdac-6a0aeb0590bc","ios":"levelo://app?vid=72266c0c-bc3b-4da2-bdac-6a0aeb0590bc"},"vehicle_type_id":"4","last_reported":1702390002,"current_range_meters":2000,"station_id":"ce4bgi12rcd13ifvqb70","pricing_plan_id":"free"},{"bike_id":"ccae8806-95f9-4623-a23b-bbf5ac0a1981","system_id":"levelo_inurba_marseille","lat":43.2936,"lon":5.37835,"is_reserved":false,"is_disabled":false,"rental_uris":{"android":"levelo://app?vid=ccae8806-95f9-4623-a23b-bbf5ac0a1981","ios":"levelo://app?vid=ccae8806-95f9-4623-a23b-bbf5ac0a1981"},"vehicle_type_id":"4","last_reported":1702390002,"current_range_meters":800,"station_id":"ce4bgjh2rcd13ifvqbf0","pricing_plan_id":"free"},{"bike_id":"036b60cf-5f6b-4362-a5dd-12ae8d3b3a2d","system_id":"levelo_inurba_marseille","lat":43.302992,"lon":5.392136,"is_reserved":false,"is_disabled":false,"rental_uris":{"android":"levelo://app?vid=036b60cf-5f6b-4362-a5dd-12ae8d3b3a2d","ios":"levelo://app?vid=036b60cf-5f6b-4362-a5dd-12ae8d3b3a2d"},"vehicle_type_id":"4","last_reported":1702390002,"current_range_meters":30400,"station_id":"ce4bgkh2rcd13ifvqbk0","pricing_plan_id":"free"},{"bike_id":"e3c088a8-2252-4a95-b938-99109ff86227","system_id":"levelo_inurba_marseille","lat":43.2936,"lon":5.37835,"is_reserved":false,"is_disabled":false,"rental_uris":{"android":"levelo://app?vid=e3c088a8-2252-4a95-b938-99109ff86227","ios":"levelo://app?vid=e3c088a8-2252-4a95-b938-99109ff86227"},"vehicle_type_id":"4","last_reported":1702390002,"current_range_meters":30400,"station_id":"ce4bgjh2rcd13ifvqbf0","pricing_plan_id":"free"},{"bike_id":"2ca2c37a-77c6-42c9-99dd-b71464f69a33","system_id":"levelo_inurba_marseille","lat":43.30294,"lon":5.39224,"is_reserved":false,"is_disabled":false,"rental_uris":{"android":"levelo://app?vid=2ca2c37a-77c6-42c9-99dd-b71464f69a33","ios":"levelo://app?vid=2ca2c37a-77c6-42c9-99dd-b71464f69a33"},"vehicle_type_id":"4","last_reported":1702390002,"current_range_meters":0,"station_id":"ce4bgkh2rcd13ifvqbk0","pricing_plan_id":"free"},{"bike_id":"f40d7cee-312b-4b0f-a94b-495ddc17f9fa","system_id":"levelo_inurba_marseille","lat":43.292311,"lon":5.360731,"is_reserved":false,"is_disabled":false,"rental_uris":{"android":"levelo://app?vid=f40d7cee-312b-4b0f-a94b-495ddc17f9fa","ios":"levelo://app?vid=f40d7cee-312b-4b0f-a94b-495ddc17f9fa"},"vehicle_type_id":"4","last_reported":1702390002,"current_range_meters":8000,"station_id":"ce4bhbh2rcd13ifvqeqg","pricing_plan_id":"free"},{"bike_id":"e7db5b54-896c-4dd6-9948-599c8867fbcb","system_id":"levelo_inurba_marseille","lat":43.292311,"lon":5.360731,"is_reserved":false,"is_disabled":false,"rental_uris":{"android":"levelo://app?vid=e7db5b54-896c-4dd6-9948-599c8867fbcb","ios":"levelo://app?vid=e7db5b54-896c-4dd6-9948-599c8867fbcb"},"vehicle_type_id":"4","last_reported":1702390002,"current_range_meters":19600,"station_id":"ce4bhbh2rcd13ifvqeqg","pricing_plan_id":"free"},{"bike_id":"bd07c6d0-8013-48ef-a28b-4a8a8cdf7137","system_id":"levelo_inurba_marseille","lat":43.292663,"lon":5.376394,"is_reserved":false,"is_disabled":false,"rental_uris":{"android":"levelo://app?vid=bd07c6d0-8013-48ef-a28b-4a8a8cdf7137","ios":"levelo://app?vid=bd07c6d0-8013-48ef-a28b-4a8a8cdf7137"},"vehicle_type_id":"4","last_reported":1702390002,"current_range_meters":26400,"station_id":"ce4bgi12rcd13ifvqb80","pricing_plan_id":"free"},{"bike_id":"27be574c-a526-4b31-b344-f549dd7a07a4","system_id":"levelo_inurba_marseille","lat":43.291675,"lon":5.371583,"is_reserved":false,"is_disabled":false,"rental_uris":{"android":"levelo://app?vid=27be574c-a526-4b31-b344-f549dd7a07a4","ios":"levelo://app?vid=27be574c-a526-4b31-b344-f549dd7a07a4"},"vehicle_type_id":"4","last_reported":1702390002,"current_range_meters":27200,"station_id":"ce4bha92rcd13ifvqeh0","pricing_plan_id":"free"},{"bike_id":"5444ca79-6efa-48a0-9ddd-09a335f5c83a","system_id":"levelo_inurba_marseille","lat":43.29196,"lon":5.35806,"is_reserved":false,"is_disabled":false,"rental_uris":{"android":"levelo://app?vid=5444ca79-6efa-48a0-9ddd-09a335f5c83a","ios":"levelo://app?vid=5444ca79-6efa-48a0-9ddd-09a335f5c83a"},"vehicle_type_id":"4","last_reported":1702390002,"current_range_meters":23600,"station_id":"ce4bhb12rcd13ifvqel0","pricing_plan_id":"free"},{"bike_id":"d03bb844-4a62-4018-9405-27e832c2da35","system_id":"levelo_inurba_marseille","lat":43.309038,"lon":5.396546,"is_reserved":false,"is_disabled":false,"rental_uris":{"android":"levelo://app?vid=d03bb844-4a62-4018-9405-27e832c2da35","ios":"levelo://app?vid=d03bb844-4a62-4018-9405-27e832c2da35"},"vehicle_type_id":"4","last_reported":1702390002,"current_range_meters":14400,"station_id":"ce4bh012rcd13ifvqcv0","pricing_plan_id":"free"},{"bike_id":"df5c3e1f-b8b3-4f03-8a53-ac89826de34a","system_id":"levelo_inurba_marseille","lat":43.29133,"lon":5.3771,"is_reserved":false,"is_disabled":false,"rental_uris":{"android":"levelo://app?vid=df5c3e1f-b8b3-4f03-8a53-ac89826de34a","ios":"levelo://app?vid=df5c3e1f-b8b3-4f03-8a53-ac89826de34a"},"vehicle_type_id":"4","last_reported":1702390002,"current_range_meters":3600,"station_id":"","pricing_plan_id":"free"},{"bike_id":"7e2f42c8-4ed3-4950-bda5-0ee5db225158","system_id":"levelo_inurba_marseille","lat":43.302008,"lon":5.394694,"is_reserved":false,"is_disabled":false,"rental_uris":{"android":"levelo://app?vid=7e2f42c8-4ed3-4950-bda5-0ee5db225158","ios":"levelo://app?vid=7e2f42c8-4ed3-4950-bda5-0ee5db225158"},"vehicle_type_id":"4","last_reported":1702390002,"current_range_meters":0,"station_id":"ce4bh0p2rcd13ifvqd70","pricing_plan_id":"free"},{"bike_id":"f873e354-e154-4561-b693-b309433bc508","system_id":"levelo_inurba_marseille","lat":43.290327,"lon":5.375711,"is_reserved":false,"is_disabled":false,"rental_uris":{"android":"levelo://app?vid=f873e354-e154-4561-b693-b309433bc508","ios":"levelo://app?vid=f873e354-e154-4561-b693-b309433bc508"},"vehicle_type_id":"4","last_reported":1702390002,"current_range_meters":26000,"station_id":"ce4bh692rcd13ifvqe90","pricing_plan_id":"free"},{"bike_id":"7381c382-2955-451c-acf1-6224488fbf1f","system_id":"levelo_inurba_marseille","lat":43.294153,"lon":5.386305,"is_reserved":false,"is_disabled":false,"rental_uris":{"android":"levelo://app?vid=7381c382-2955-451c-acf1-6224488fbf1f","ios":"levelo://app?vid=7381c382-2955-451c-acf1-6224488fbf1f"},"vehicle_type_id":"4","last_reported":1702390002,"current_range_meters":23600,"station_id":"ce4bh2h2rcd13ifvqdh0","pricing_plan_id":"free"},{"bike_id":"649b6924-aa71-40c6-9e2f-9c80223fe4ac","system_id":"levelo_inurba_marseille","lat":43.28956,"lon":5.364055,"is_reserved":false,"is_disabled":false,"rental_uris":{"android":"levelo://app?vid=649b6924-aa71-40c6-9e2f-9c80223fe4ac","ios":"levelo://app?vid=649b6924-aa71-40c6-9e2f-9c80223fe4ac"},"vehicle_type_id":"4","last_reported":1702390002,"current_range_meters":22000,"station_id":"ce4bhc92rcd13ifvqetg","pricing_plan_id":"free"},{"bike_id":"98f3a5ca-2358-46fe-abf7-e30e891b96c2","system_id":"levelo_inurba_marseille","lat":43.294153,"lon":5.386305,"is_reserved":false,"is_disabled":false,"rental_uris":{"android":"levelo://app?vid=98f3a5ca-2358-46fe-abf7-e30e891b96c2","ios":"levelo://app?vid=98f3a5ca-2358-46fe-abf7-e30e891b96c2"},"vehicle_type_id":"4","last_reported":1702390002,"current_range_meters":5200,"station_id":"ce4bh2h2rcd13ifvqdh0","pricing_plan_id":"free"},{"bike_id":"24c008f4-5413-4796-b528-75f5eba27d92","system_id":"levelo_inurba_marseille","lat":43.294162,"lon":5.386292,"is_reserved":false,"is_disabled":false,"rental_uris":{"android":"levelo://app?vid=24c008f4-5413-4796-b528-75f5eba27d92","ios":"levelo://app?vid=24c008f4-5413-4796-b528-75f5eba27d92"},"vehicle_type_id":"4","last_reported":1702390002,"current_range_meters":2000,"station_id":"ce4bh2h2rcd13ifvqdh0","pricing_plan_id":"free"},{"bike_id":"38a3c5e5-e320-4e35-b3cb-86cb88512a24","system_id":"levelo_inurba_marseille","lat":43.294162,"lon":5.386292,"is_reserved":false,"is_disabled":false,"rental_uris":{"android":"levelo://app?vid=38a3c5e5-e320-4e35-b3cb-86cb88512a24","ios":"levelo://app?vid=38a3c5e5-e320-4e35-b3cb-86cb88512a24"},"vehicle_type_id":"4","last_reported":1702390002,"current_range_meters":6800,"station_id":"ce4bh2h2rcd13ifvqdh0","pricing_plan_id":"free"},{"bike_id":"31e67902-d551-4431-841b-bdc83f0a62c7","system_id":"levelo_inurba_marseille","lat":43.294162,"lon":5.386292,"is_reserved":false,"is_disabled":false,"rental_uris":{"android":"levelo://app?vid=31e67902-d551-4431-841b-bdc83f0a62c7","ios":"levelo://app?vid=31e67902-d551-4431-841b-bdc83f0a62c7"},"vehicle_type_id":"4","last_reported":1702390002,"current_range_meters":19200,"station_id":"ce4bh2h2rcd13ifvqdh0","pricing_plan_id":"free"},{"bike_id":"0c64580a-533d-4f49-8154-14538ed7bb14","system_id":"levelo_inurba_marseille","lat":43.28951,"lon":5.364,"is_reserved":false,"is_disabled":false,"rental_uris":{"android":"levelo://app?vid=0c64580a-533d-4f49-8154-14538ed7bb14","ios":"levelo://app?vid=0c64580a-533d-4f49-8154-14538ed7bb14"},"vehicle_type_id":"4","last_reported":1702390002,"current_range_meters":20400,"station_id":"ce4bhc92rcd13ifvqetg","pricing_plan_id":"free"},{"bike_id":"be0289cb-249e-49d8-b018-ba10d711266e","system_id":"levelo_inurba_marseille","lat":43.28947,"lon":5.364,"is_reserved":false,"is_disabled":false,"rental_uris":{"android":"levelo://app?vid=be0289cb-249e-49d8-b018-ba10d711266e","ios":"levelo://app?vid=be0289cb-249e-49d8-b018-ba10d711266e"},"vehicle_type_id":"4","last_reported":1702390002,"current_range_meters":24000,"station_id":"ce4bhc92rcd13ifvqetg","pricing_plan_id":"free"},{"bike_id":"320adadb-643f-42da-a476-02c02b739798","system_id":"levelo_inurba_marseille","lat":43.289184,"lon":5.366408,"is_reserved":false,"is_disabled":false,"rental_uris":{"android":"levelo://app?vid=320adadb-643f-42da-a476-02c02b739798","ios":"levelo://app?vid=320adadb-643f-42da-a476-02c02b739798"},"vehicle_type_id":"4","last_reported":1702390002,"current_range_meters":12000,"station_id":"ce4bhap2rcd13ifvqek0","pricing_plan_id":"free"},{"bike_id":"c765a15b-0361-40b5-b3fe-65d2facd79c7","system_id":"levelo_inurba_marseille","lat":43.289184,"lon":5.366408,"is_reserved":false,"is_disabled":false,"rental_uris":{"android":"levelo://app?vid=c765a15b-0361-40b5-b3fe-65d2facd79c7","ios":"levelo://app?vid=c765a15b-0361-40b5-b3fe-65d2facd79c7"},"vehicle_type_id":"4","last_reported":1702390002,"current_range_meters":20800,"station_id":"ce4bhap2rcd13ifvqek0","pricing_plan_id":"free"},{"bike_id":"8d35c88f-3d85-45ce-9453-91c76f4ef5d9","system_id":"levelo_inurba_marseille","lat":43.289184,"lon":5.366408,"is_reserved":false,"is_disabled":false,"rental_uris":{"android":"levelo://app?vid=8d35c88f-3d85-45ce-9453-91c76f4ef5d9","ios":"levelo://app?vid=8d35c88f-3d85-45ce-9453-91c76f4ef5d9"},"vehicle_type_id":"4","last_reported":1702390002,"current_range_meters":18800,"station_id":"ce4bhap2rcd13ifvqek0","pricing_plan_id":"free"},{"bike_id":"673aaca8-3b21-4b7a-8361-3ff11f01334f","system_id":"levelo_inurba_marseille","lat":43.289184,"lon":5.366408,"is_reserved":false,"is_disabled":false,"rental_uris":{"android":"levelo://app?vid=673aaca8-3b21-4b7a-8361-3ff11f01334f","ios":"levelo://app?vid=673aaca8-3b21-4b7a-8361-3ff11f01334f"},"vehicle_type_id":"4","last_reported":1702390002,"current_range_meters":3200,"station_id":"ce4bhap2rcd13ifvqek0","pricing_plan_id":"free"},{"bike_id":"9503d0ba-74ec-4fcb-ad02-46804a0fb068","system_id":"levelo_inurba_marseille","lat":43.289184,"lon":5.366408,"is_reserved":false,"is_disabled":false,"rental_uris":{"android":"levelo://app?vid=9503d0ba-74ec-4fcb-ad02-46804a0fb068","ios":"levelo://app?vid=9503d0ba-74ec-4fcb-ad02-46804a0fb068"},"vehicle_type_id":"4","last_reported":1702390002,"current_range_meters":23200,"station_id":"ce4bhap2rcd13ifvqek0","pricing_plan_id":"free"},{"bike_id":"55a8dc63-8f1a-4ba9-9bc1-7daba59f47af","system_id":"levelo_inurba_marseille","lat":43.289415,"lon":5.363845,"is_reserved":false,"is_disabled":false,"rental_uris":{"android":"levelo://app?vid=55a8dc63-8f1a-4ba9-9bc1-7daba59f47af","ios":"levelo://app?vid=55a8dc63-8f1a-4ba9-9bc1-7daba59f47af"},"vehicle_type_id":"4","last_reported":1702390002,"current_range_meters":29200,"station_id":"ce4bhc92rcd13ifvqetg","pricing_plan_id":"free"},{"bike_id":"a0bac7ef-74db-46f3-bc24-7344212865a2","system_id":"levelo_inurba_marseille","lat":43.289184,"lon":5.366408,"is_reserved":false,"is_disabled":false,"rental_uris":{"android":"levelo://app?vid=a0bac7ef-74db-46f3-bc24-7344212865a2","ios":"levelo://app?vid=a0bac7ef-74db-46f3-bc24-7344212865a2"},"vehicle_type_id":"4","last_reported":1702390002,"current_range_meters":18800,"station_id":"ce4bhap2rcd13ifvqek0","pricing_plan_id":"free"},{"bike_id":"3332049b-081d-4e12-81cb-f7775c489245","system_id":"levelo_inurba_marseille","lat":43.289184,"lon":5.366408,"is_reserved":false,"is_disabled":false,"rental_uris":{"android":"levelo://app?vid=3332049b-081d-4e12-81cb-f7775c489245","ios":"levelo://app?vid=3332049b-081d-4e12-81cb-f7775c489245"},"vehicle_type_id":"4","last_reported":1702390002,"current_range_meters":11600,"station_id":"ce4bhap2rcd13ifvqek0","pricing_plan_id":"free"},{"bike_id":"0600de8b-7137-46ad-8011-e7c58a3a4231","system_id":"levelo_inurba_marseille","lat":43.289184,"lon":5.366408,"is_reserved":false,"is_disabled":false,"rental_uris":{"android":"levelo://app?vid=0600de8b-7137-46ad-8011-e7c58a3a4231","ios":"levelo://app?vid=0600de8b-7137-46ad-8011-e7c58a3a4231"},"vehicle_type_id":"4","last_reported":1702390002,"current_range_meters":13200,"station_id":"ce4bhap2rcd13ifvqek0","pricing_plan_id":"free"},{"bike_id":"b759538c-75fc-4ccb-9b73-2031bf78f0fa","system_id":"levelo_inurba_marseille","lat":43.33044,"lon":5.38923,"is_reserved":false,"is_disabled":false,"rental_uris":{"android":"levelo://app?vid=b759538c-75fc-4ccb-9b73-2031bf78f0fa","ios":"levelo://app?vid=b759538c-75fc-4ccb-9b73-2031bf78f0fa"},"vehicle_type_id":"4","last_reported":1702390002,"current_range_meters":18400,"station_id":"ce4bhr92rcd13ifvqhrg","pricing_plan_id":"free"},{"bike_id":"ab21bd84-ca1d-48df-a453-3d218349987d","system_id":"levelo_inurba_marseille","lat":43.290104,"lon":5.356111,"is_reserved":false,"is_disabled":false,"rental_uris":{"android":"levelo://app?vid=ab21bd84-ca1d-48df-a453-3d218349987d","ios":"levelo://app?vid=ab21bd84-ca1d-48df-a453-3d218349987d"},"vehicle_type_id":"4","last_reported":1702390002,"current_range_meters":28400,"station_id":"ce4bhb92rcd13ifvqen0","pricing_plan_id":"free"},{"bike_id":"a4fa1983-7cdb-4906-91a9-2daf65b1f8a3","system_id":"levelo_inurba_marseille","lat":43.290103,"lon":5.356114,"is_reserved":false,"is_disabled":false,"rental_uris":{"android":"levelo://app?vid=a4fa1983-7cdb-4906-91a9-2daf65b1f8a3","ios":"levelo://app?vid=a4fa1983-7cdb-4906-91a9-2daf65b1f8a3"},"vehicle_type_id":"4","last_reported":1702390002,"current_range_meters":27200,"station_id":"ce4bhb92rcd13ifvqen0","pricing_plan_id":"free"},{"bike_id":"c4d30e32-776f-477c-ae99-fa36fc0c3ca9","system_id":"levelo_inurba_marseille","lat":43.290995,"lon":5.381361,"is_reserved":false,"is_disabled":false,"rental_uris":{"android":"levelo://app?vid=c4d30e32-776f-477c-ae99-fa36fc0c3ca9","ios":"levelo://app?vid=c4d30e32-776f-477c-ae99-fa36fc0c3ca9"},"vehicle_type_id":"4","last_reported":1702390002,"current_range_meters":0,"station_id":"ce4bh512rcd13ifvqe2g","pricing_plan_id":"free"},{"bike_id":"6f0bb14b-7533-4739-b757-63605fa0d0b3","system_id":"levelo_inurba_marseille","lat":43.295169,"lon":5.390426,"is_reserved":false,"is_disabled":false,"rental_uris":{"android":"levelo://app?vid=6f0bb14b-7533-4739-b757-63605fa0d0b3","ios":"levelo://app?vid=6f0bb14b-7533-4739-b757-63605fa0d0b3"},"vehicle_type_id":"4","last_reported":1702390002,"current_range_meters":6800,"station_id":"ce4bh3p2rcd13ifvqdp0","pricing_plan_id":"free"},{"bike_id":"3a01eb11-ce53-49cf-ac08-1e5161c64a91","system_id":"levelo_inurba_marseille","lat":43.2897,"lon":5.37833,"is_reserved":false,"is_disabled":false,"rental_uris":{"android":"levelo://app?vid=3a01eb11-ce53-49cf-ac08-1e5161c64a91","ios":"levelo://app?vid=3a01eb11-ce53-49cf-ac08-1e5161c64a91"},"vehicle_type_id":"4","last_reported":1702390002,"current_range_meters":0,"station_id":"ce4bh9p2rcd13ifvqed0","pricing_plan_id":"free"},{"bike_id":"c53f65ad-b20c-422b-910c-586684a459a3","system_id":"levelo_inurba_marseille","lat":43.2901,"lon":5.381269,"is_reserved":false,"is_disabled":false,"rental_uris":{"android":"levelo://app?vid=c53f65ad-b20c-422b-910c-586684a459a3","ios":"levelo://app?vid=c53f65ad-b20c-422b-910c-586684a459a3"},"vehicle_type_id":"4","last_reported":1702390002,"current_range_meters":16000,"station_id":"ce4bh4p2rcd13ifvqe1g","pricing_plan_id":"free"},{"bike_id":"f41c3f97-72e6-4a26-b64b-f6b2badae021","system_id":"levelo_inurba_marseille","lat":43.2901,"lon":5.381269,"is_reserved":false,"is_disabled":false,"rental_uris":{"android":"levelo://app?vid=f41c3f97-72e6-4a26-b64b-f6b2badae021","ios":"levelo://app?vid=f41c3f97-72e6-4a26-b64b-f6b2badae021"},"vehicle_type_id":"4","last_reported":1702390002,"current_range_meters":22000,"station_id":"ce4bh4p2rcd13ifvqe1g","pricing_plan_id":"free"},{"bike_id":"cccfaa5b-9e74-478b-b3b9-351c095bb429","system_id":"levelo_inurba_marseille","lat":43.290094,"lon":5.381264,"is_reserved":false,"is_disabled":false,"rental_uris":{"android":"levelo://app?vid=cccfaa5b-9e74-478b-b3b9-351c095bb429","ios":"levelo://app?vid=cccfaa5b-9e74-478b-b3b9-351c095bb429"},"vehicle_type_id":"4","last_reported":1702390002,"current_range_meters":24400,"station_id":"ce4bh4p2rcd13ifvqe1g","pricing_plan_id":"free"},{"bike_id":"b00fd6b1-b848-4238-a945-c430294b61da","system_id":"levelo_inurba_marseille","lat":43.290094,"lon":5.381264,"is_reserved":false,"is_disabled":false,"rental_uris":{"android":"levelo://app?vid=b00fd6b1-b848-4238-a945-c430294b61da","ios":"levelo://app?vid=b00fd6b1-b848-4238-a945-c430294b61da"},"vehicle_type_id":"4","last_reported":1702390002,"current_range_meters":18000,"station_id":"ce4bh4p2rcd13ifvqe1g","pricing_plan_id":"free"},{"bike_id":"8dc72c64-b0c6-4812-be6c-a9c357bde7e5","system_id":"levelo_inurba_marseille","lat":43.33748,"lon":5.37367,"is_reserved":false,"is_disabled":false,"rental_uris":{"android":"levelo://app?vid=8dc72c64-b0c6-4812-be6c-a9c357bde7e5","ios":"levelo://app?vid=8dc72c64-b0c6-4812-be6c-a9c357bde7e5"},"vehicle_type_id":"4","last_reported":1702390002,"current_range_meters":30000,"station_id":"","pricing_plan_id":"free"},{"bike_id":"45002c57-8201-41c7-b203-362f44542741","system_id":"levelo_inurba_marseille","lat":43.309371,"lon":5.401449,"is_reserved":false,"is_disabled":false,"rental_uris":{"android":"levelo://app?vid=45002c57-8201-41c7-b203-362f44542741","ios":"levelo://app?vid=45002c57-8201-41c7-b203-362f44542741"},"vehicle_type_id":"4","last_reported":1702390002,"current_range_meters":20800,"station_id":"ce4bgvp2rcd13ifvqct0","pricing_plan_id":"free"},{"bike_id":"6f7e581f-9768-4332-a753-34a6617af82b","system_id":"levelo_inurba_marseille","lat":43.301117,"lon":5.398795,"is_reserved":false,"is_disabled":false,"rental_uris":{"android":"levelo://app?vid=6f7e581f-9768-4332-a753-34a6617af82b","ios":"levelo://app?vid=6f7e581f-9768-4332-a753-34a6617af82b"},"vehicle_type_id":"4","last_reported":1702390002,"current_range_meters":18400,"station_id":"ce4bh0h2rcd13ifvqd40","pricing_plan_id":"free"},{"bike_id":"a69ca607-a11e-4577-bc5a-1d931c46c050","system_id":"levelo_inurba_marseille","lat":43.306437,"lon":5.400957,"is_reserved":false,"is_disabled":false,"rental_uris":{"android":"levelo://app?vid=a69ca607-a11e-4577-bc5a-1d931c46c050","ios":"levelo://app?vid=a69ca607-a11e-4577-bc5a-1d931c46c050"},"vehicle_type_id":"4","last_reported":1702390002,"current_range_meters":8400,"station_id":"","pricing_plan_id":"free"},{"bike_id":"5eeb52fb-5e18-4be2-98c7-e0f2a41911f9","system_id":"levelo_inurba_marseille","lat":43.30642,"lon":5.401031,"is_reserved":false,"is_disabled":false,"rental_uris":{"android":"levelo://app?vid=5eeb52fb-5e18-4be2-98c7-e0f2a41911f9","ios":"levelo://app?vid=5eeb52fb-5e18-4be2-98c7-e0f2a41911f9"},"vehicle_type_id":"4","last_reported":1702390002,"current_range_meters":23200,"station_id":"ce4bh112rcd13ifvqda0","pricing_plan_id":"free"},{"bike_id":"6a15d18e-af37-408d-b876-87d529b2f5fd","system_id":"levelo_inurba_marseille","lat":43.28727,"lon":5.36078,"is_reserved":false,"is_disabled":false,"rental_uris":{"android":"levelo://app?vid=6a15d18e-af37-408d-b876-87d529b2f5fd","ios":"levelo://app?vid=6a15d18e-af37-408d-b876-87d529b2f5fd"},"vehicle_type_id":"4","last_reported":1702390002,"current_range_meters":20000,"station_id":"cki0cbj6b192h4jlfktg","pricing_plan_id":"free"},{"bike_id":"56cc6890-fa2b-4408-a008-955db6cb4b9b","system_id":"levelo_inurba_marseille","lat":43.298681,"lon":5.397225,"is_reserved":false,"is_disabled":false,"rental_uris":{"android":"levelo://app?vid=56cc6890-fa2b-4408-a008-955db6cb4b9b","ios":"levelo://app?vid=56cc6890-fa2b-4408-a008-955db6cb4b9b"},"vehicle_type_id":"4","last_reported":1702390002,"current_range_meters":30000,"station_id":"ce4bh0h2rcd13ifvqd50","pricing_plan_id":"free"},{"bike_id":"5f79158e-ef13-483d-ac91-ac659b1f416d","system_id":"levelo_inurba_marseille","lat":43.298681,"lon":5.397225,"is_reserved":false,"is_disabled":false,"rental_uris":{"android":"levelo://app?vid=5f79158e-ef13-483d-ac91-ac659b1f416d","ios":"levelo://app?vid=5f79158e-ef13-483d-ac91-ac659b1f416d"},"vehicle_type_id":"4","last_reported":1702390002,"current_range_meters":7200,"station_id":"ce4bh0h2rcd13ifvqd50","pricing_plan_id":"free"},{"bike_id":"0b514a4f-10ff-4807-b4a0-2abcefa220b6","system_id":"levelo_inurba_marseille","lat":43.295196,"lon":5.39397,"is_reserved":false,"is_disabled":false,"rental_uris":{"android":"levelo://app?vid=0b514a4f-10ff-4807-b4a0-2abcefa220b6","ios":"levelo://app?vid=0b514a4f-10ff-4807-b4a0-2abcefa220b6"},"vehicle_type_id":"4","last_reported":1702390002,"current_range_meters":30000,"station_id":"ce4bh292rcd13ifvqdf0","pricing_plan_id":"free"},{"bike_id":"2034bc06-1cd1-4fc1-ab47-f7aa13cf39cd","system_id":"levelo_inurba_marseille","lat":43.286591,"lon":5.363346,"is_reserved":false,"is_disabled":false,"rental_uris":{"android":"levelo://app?vid=2034bc06-1cd1-4fc1-ab47-f7aa13cf39cd","ios":"levelo://app?vid=2034bc06-1cd1-4fc1-ab47-f7aa13cf39cd"},"vehicle_type_id":"4","last_reported":1702390002,"current_range_meters":29600,"station_id":"ce4bhah2rcd13ifvqej0","pricing_plan_id":"free"},{"bike_id":"df8d44d0-f3b9-416d-bab4-d0d907abbd34","system_id":"levelo_inurba_marseille","lat":43.286593,"lon":5.363346,"is_reserved":false,"is_disabled":false,"rental_uris":{"android":"levelo://app?vid=df8d44d0-f3b9-416d-bab4-d0d907abbd34","ios":"levelo://app?vid=df8d44d0-f3b9-416d-bab4-d0d907abbd34"},"vehicle_type_id":"4","last_reported":1702390002,"current_range_meters":31200,"station_id":"ce4bhah2rcd13ifvqej0","pricing_plan_id":"free"},{"bike_id":"5e869908-0a47-4183-b6fd-3ea42a4cbced","system_id":"levelo_inurba_marseille","lat":43.298681,"lon":5.397225,"is_reserved":false,"is_disabled":false,"rental_uris":{"android":"levelo://app?vid=5e869908-0a47-4183-b6fd-3ea42a4cbced","ios":"levelo://app?vid=5e869908-0a47-4183-b6fd-3ea42a4cbced"},"vehicle_type_id":"4","last_reported":1702390002,"current_range_meters":22800,"station_id":"ce4bh0h2rcd13ifvqd50","pricing_plan_id":"free"},{"bike_id":"4d188fbc-c53e-4edc-ba6c-aa654e90dec0","system_id":"levelo_inurba_marseille","lat":43.290345,"lon":5.38646,"is_reserved":false,"is_disabled":false,"rental_uris":{"android":"levelo://app?vid=4d188fbc-c53e-4edc-ba6c-aa654e90dec0","ios":"levelo://app?vid=4d188fbc-c53e-4edc-ba6c-aa654e90dec0"},"vehicle_type_id":"4","last_reported":1702390002,"current_range_meters":26800,"station_id":"ce4bh4p2rcd13ifvqe0g","pricing_plan_id":"free"},{"bike_id":"dd55c571-beb8-4144-9eee-a018fae0dfc2","system_id":"levelo_inurba_marseille","lat":43.286039,"lon":5.370681,"is_reserved":false,"is_disabled":false,"rental_uris":{"android":"levelo://app?vid=dd55c571-beb8-4144-9eee-a018fae0dfc2","ios":"levelo://app?vid=dd55c571-beb8-4144-9eee-a018fae0dfc2"},"vehicle_type_id":"4","last_reported":1702390002,"current_range_meters":23200,"station_id":"ce4bht12rcd13ifvqi60","pricing_plan_id":"free"},{"bike_id":"9115154f-8856-4157-935f-d3326a511e75","system_id":"levelo_inurba_marseille","lat":43.286039,"lon":5.370679,"is_reserved":false,"is_disabled":false,"rental_uris":{"android":"levelo://app?vid=9115154f-8856-4157-935f-d3326a511e75","ios":"levelo://app?vid=9115154f-8856-4157-935f-d3326a511e75"},"vehicle_type_id":"4","last_reported":1702390002,"current_range_meters":28400,"station_id":"ce4bht12rcd13ifvqi60","pricing_plan_id":"free"},{"bike_id":"8b46c2bc-2cb7-4469-86be-c45df33e6792","system_id":"levelo_inurba_marseille","lat":43.290345,"lon":5.38646,"is_reserved":false,"is_disabled":false,"rental_uris":{"android":"levelo://app?vid=8b46c2bc-2cb7-4469-86be-c45df33e6792","ios":"levelo://app?vid=8b46c2bc-2cb7-4469-86be-c45df33e6792"},"vehicle_type_id":"4","last_reported":1702390002,"current_range_meters":5200,"station_id":"ce4bh4p2rcd13ifvqe0g","pricing_plan_id":"free"},{"bike_id":"dade003e-f34d-49af-aaf4-1bfc048b5ec3","system_id":"levelo_inurba_marseille","lat":43.31687,"lon":5.40477,"is_reserved":false,"is_disabled":false,"rental_uris":{"android":"levelo://app?vid=dade003e-f34d-49af-aaf4-1bfc048b5ec3","ios":"levelo://app?vid=dade003e-f34d-49af-aaf4-1bfc048b5ec3"},"vehicle_type_id":"4","last_reported":1702390002,"current_range_meters":23600,"station_id":"ce4bh012rcd13ifvqd00","pricing_plan_id":"free"},{"bike_id":"b9ccc91c-1c2a-47e4-a664-9cff13ac3c5f","system_id":"levelo_inurba_marseille","lat":43.284538,"lon":5.358657,"is_reserved":false,"is_disabled":false,"rental_uris":{"android":"levelo://app?vid=b9ccc91c-1c2a-47e4-a664-9cff13ac3c5f","ios":"levelo://app?vid=b9ccc91c-1c2a-47e4-a664-9cff13ac3c5f"},"vehicle_type_id":"4","last_reported":1702390002,"current_range_meters":28000,"station_id":"ce4bhah2rcd13ifvqei0","pricing_plan_id":"free"},{"bike_id":"9bfdfe9c-2e17-4644-a7a6-8326cb120fef","system_id":"levelo_inurba_marseille","lat":43.319179,"lon":5.407725,"is_reserved":false,"is_disabled":false,"rental_uris":{"android":"levelo://app?vid=9bfdfe9c-2e17-4644-a7a6-8326cb120fef","ios":"levelo://app?vid=9bfdfe9c-2e17-4644-a7a6-8326cb120fef"},"vehicle_type_id":"4","last_reported":1702390002,"current_range_meters":14000,"station_id":"ce4bhq12rcd13ifvqhig","pricing_plan_id":"free"},{"bike_id":"c472bf68-604d-42be-a4e2-963f8aaee165","system_id":"levelo_inurba_marseille","lat":43.33717,"lon":5.391857,"is_reserved":false,"is_disabled":false,"rental_uris":{"android":"levelo://app?vid=c472bf68-604d-42be-a4e2-963f8aaee165","ios":"levelo://app?vid=c472bf68-604d-42be-a4e2-963f8aaee165"},"vehicle_type_id":"4","last_reported":1702390002,"current_range_meters":20000,"station_id":"ce4bhr92rcd13ifvqhsg","pricing_plan_id":"free"},{"bike_id":"b67991ce-f6d9-4f63-bc82-703c62895e27","system_id":"levelo_inurba_marseille","lat":43.284787,"lon":5.384116,"is_reserved":false,"is_disabled":false,"rental_uris":{"android":"levelo://app?vid=b67991ce-f6d9-4f63-bc82-703c62895e27","ios":"levelo://app?vid=b67991ce-f6d9-4f63-bc82-703c62895e27"},"vehicle_type_id":"4","last_reported":1702390002,"current_range_meters":16000,"station_id":"ce4bh512rcd13ifvqe3g","pricing_plan_id":"free"},{"bike_id":"faa34d9b-0816-4787-88ab-bff68d82e8f6","system_id":"levelo_inurba_marseille","lat":43.283494,"lon":5.380945,"is_reserved":false,"is_disabled":false,"rental_uris":{"android":"levelo://app?vid=faa34d9b-0816-4787-88ab-bff68d82e8f6","ios":"levelo://app?vid=faa34d9b-0816-4787-88ab-bff68d82e8f6"},"vehicle_type_id":"4","last_reported":1702390002,"current_range_meters":7600,"station_id":"ce4bh412rcd13ifvqdr0","pricing_plan_id":"free"},{"bike_id":"298b6ca9-8aca-4280-9d2d-0dc1476b6fec","system_id":"levelo_inurba_marseille","lat":43.283494,"lon":5.380945,"is_reserved":false,"is_disabled":false,"rental_uris":{"android":"levelo://app?vid=298b6ca9-8aca-4280-9d2d-0dc1476b6fec","ios":"levelo://app?vid=298b6ca9-8aca-4280-9d2d-0dc1476b6fec"},"vehicle_type_id":"4","last_reported":1702390002,"current_range_meters":7600,"station_id":"ce4bh412rcd13ifvqdr0","pricing_plan_id":"free"},{"bike_id":"23ab0f53-5e35-4fc3-aee7-23a4017c47ec","system_id":"levelo_inurba_marseille","lat":43.289363,"lon":5.396322,"is_reserved":false,"is_disabled":false,"rental_uris":{"android":"levelo://app?vid=23ab0f53-5e35-4fc3-aee7-23a4017c47ec","ios":"levelo://app?vid=23ab0f53-5e35-4fc3-aee7-23a4017c47ec"},"vehicle_type_id":"4","last_reported":1702390002,"current_range_meters":25600,"station_id":"ce4bh3h2rcd13ifvqdn0","pricing_plan_id":"free"},{"bike_id":"4a8f3725-fd99-4cef-9db4-cb8d63a8cb21","system_id":"levelo_inurba_marseille","lat":43.283502,"lon":5.386471,"is_reserved":false,"is_disabled":false,"rental_uris":{"android":"levelo://app?vid=4a8f3725-fd99-4cef-9db4-cb8d63a8cb21","ios":"levelo://app?vid=4a8f3725-fd99-4cef-9db4-cb8d63a8cb21"},"vehicle_type_id":"4","last_reported":1702390002,"current_range_meters":19600,"station_id":"ce4bh492rcd13ifvqdvg","pricing_plan_id":"free"},{"bike_id":"59074438-de76-456a-98c1-86029db31ce1","system_id":"levelo_inurba_marseille","lat":43.281044,"lon":5.378308,"is_reserved":false,"is_disabled":false,"rental_uris":{"android":"levelo://app?vid=59074438-de76-456a-98c1-86029db31ce1","ios":"levelo://app?vid=59074438-de76-456a-98c1-86029db31ce1"},"vehicle_type_id":"4","last_reported":1702390002,"current_range_meters":21600,"station_id":"ce4bha12rcd13ifvqee0","pricing_plan_id":"free"},{"bike_id":"1c22b622-bbbf-4a07-9766-751657c394a2","system_id":"levelo_inurba_marseille","lat":43.296263,"lon":5.40601,"is_reserved":false,"is_disabled":false,"rental_uris":{"android":"levelo://app?vid=1c22b622-bbbf-4a07-9766-751657c394a2","ios":"levelo://app?vid=1c22b622-bbbf-4a07-9766-751657c394a2"},"vehicle_type_id":"4","last_reported":1702390002,"current_range_meters":16400,"station_id":"ce4bh0h2rcd13ifvqd60","pricing_plan_id":"free"},{"bike_id":"2e574011-feff-4577-8d85-54627cf1e575","system_id":"levelo_inurba_marseille","lat":43.281044,"lon":5.378308,"is_reserved":false,"is_disabled":false,"rental_uris":{"android":"levelo://app?vid=2e574011-feff-4577-8d85-54627cf1e575","ios":"levelo://app?vid=2e574011-feff-4577-8d85-54627cf1e575"},"vehicle_type_id":"4","last_reported":1702390002,"current_range_meters":23600,"station_id":"ce4bha12rcd13ifvqee0","pricing_plan_id":"free"},{"bike_id":"db79a0fd-a2b1-4fa5-9fdd-5414467e2667","system_id":"levelo_inurba_marseille","lat":43.284462,"lon":5.392121,"is_reserved":false,"is_disabled":false,"rental_uris":{"android":"levelo://app?vid=db79a0fd-a2b1-4fa5-9fdd-5414467e2667","ios":"levelo://app?vid=db79a0fd-a2b1-4fa5-9fdd-5414467e2667"},"vehicle_type_id":"4","last_reported":1702390002,"current_range_meters":18000,"station_id":"ce4bhoh2rcd13ifvqh5g","pricing_plan_id":"free"},{"bike_id":"d05c6c97-c3ea-47cc-bc4b-d8dbf193e90d","system_id":"levelo_inurba_marseille","lat":43.284462,"lon":5.392121,"is_reserved":false,"is_disabled":false,"rental_uris":{"android":"levelo://app?vid=d05c6c97-c3ea-47cc-bc4b-d8dbf193e90d","ios":"levelo://app?vid=d05c6c97-c3ea-47cc-bc4b-d8dbf193e90d"},"vehicle_type_id":"4","last_reported":1702390002,"current_range_meters":13600,"station_id":"ce4bhoh2rcd13ifvqh5g","pricing_plan_id":"free"},{"bike_id":"bac8b3e5-e12a-48e7-bacf-0b7eb86958bd","system_id":"levelo_inurba_marseille","lat":43.320045,"lon":5.415046,"is_reserved":false,"is_disabled":false,"rental_uris":{"android":"levelo://app?vid=bac8b3e5-e12a-48e7-bacf-0b7eb86958bd","ios":"levelo://app?vid=bac8b3e5-e12a-48e7-bacf-0b7eb86958bd"},"vehicle_type_id":"4","last_reported":1702390002,"current_range_meters":24400,"station_id":"ce4bhq92rcd13ifvqhkg","pricing_plan_id":"free"},{"bike_id":"1628049c-d2f5-460d-975b-3d826dc93544","system_id":"levelo_inurba_marseille","lat":43.27614,"lon":5.36109,"is_reserved":false,"is_disabled":false,"rental_uris":{"android":"levelo://app?vid=1628049c-d2f5-460d-975b-3d826dc93544","ios":"levelo://app?vid=1628049c-d2f5-460d-975b-3d826dc93544"},"vehicle_type_id":"4","last_reported":1702390002,"current_range_meters":15200,"station_id":"ce4bgj92rcd13ifvqbe0","pricing_plan_id":"free"},{"bike_id":"00ea128a-6f10-440e-b673-95d9a838807d","system_id":"levelo_inurba_marseille","lat":43.280784,"lon":5.396622,"is_reserved":false,"is_disabled":false,"rental_uris":{"android":"levelo://app?vid=00ea128a-6f10-440e-b673-95d9a838807d","ios":"levelo://app?vid=00ea128a-6f10-440e-b673-95d9a838807d"},"vehicle_type_id":"4","last_reported":1702390002,"current_range_meters":28000,"station_id":"ce4bho12rcd13ifvqh2g","pricing_plan_id":"free"},{"bike_id":"7e76737d-e08c-4aef-b9f7-453f056604c5","system_id":"levelo_inurba_marseille","lat":43.303837,"lon":5.418724,"is_reserved":false,"is_disabled":false,"rental_uris":{"android":"levelo://app?vid=7e76737d-e08c-4aef-b9f7-453f056604c5","ios":"levelo://app?vid=7e76737d-e08c-4aef-b9f7-453f056604c5"},"vehicle_type_id":"4","last_reported":1702390002,"current_range_meters":30400,"station_id":"ce4bhop2rcd13ifvqh7g","pricing_plan_id":"free"},{"bike_id":"22dffbd0-c3fc-4ac8-a3b3-da3741bf4b0d","system_id":"levelo_inurba_marseille","lat":43.275625,"lon":5.384392,"is_reserved":false,"is_disabled":false,"rental_uris":{"android":"levelo://app?vid=22dffbd0-c3fc-4ac8-a3b3-da3741bf4b0d","ios":"levelo://app?vid=22dffbd0-c3fc-4ac8-a3b3-da3741bf4b0d"},"vehicle_type_id":"4","last_reported":1702390002,"current_range_meters":17200,"station_id":"ce4bhh92rcd13ifvqfi0","pricing_plan_id":"free"},{"bike_id":"87aadd95-78f8-4799-af93-8c61a3bf92a3","system_id":"levelo_inurba_marseille","lat":43.273613,"lon":5.362705,"is_reserved":false,"is_disabled":false,"rental_uris":{"android":"levelo://app?vid=87aadd95-78f8-4799-af93-8c61a3bf92a3","ios":"levelo://app?vid=87aadd95-78f8-4799-af93-8c61a3bf92a3"},"vehicle_type_id":"4","last_reported":1702390002,"current_range_meters":5200,"station_id":"ce4bhbh2rcd13ifvqeo0","pricing_plan_id":"free"},{"bike_id":"8bb6577f-14ac-43c1-bd2d-bf846a82f7af","system_id":"levelo_inurba_marseille","lat":43.273613,"lon":5.362705,"is_reserved":false,"is_disabled":false,"rental_uris":{"android":"levelo://app?vid=8bb6577f-14ac-43c1-bd2d-bf846a82f7af","ios":"levelo://app?vid=8bb6577f-14ac-43c1-bd2d-bf846a82f7af"},"vehicle_type_id":"4","last_reported":1702390002,"current_range_meters":15600,"station_id":"ce4bhbh2rcd13ifvqeo0","pricing_plan_id":"free"},{"bike_id":"8a6bbdb0-3b54-4907-9d1f-91ce3424fe28","system_id":"levelo_inurba_marseille","lat":43.336148,"lon":5.410349,"is_reserved":false,"is_disabled":false,"rental_uris":{"android":"levelo://app?vid=8a6bbdb0-3b54-4907-9d1f-91ce3424fe28","ios":"levelo://app?vid=8a6bbdb0-3b54-4907-9d1f-91ce3424fe28"},"vehicle_type_id":"4","last_reported":1702390002,"current_range_meters":21200,"station_id":"ce4bhqh2rcd13ifvqhmg","pricing_plan_id":"free"},{"bike_id":"5be3d89a-3796-4eda-a28f-531ae0ec7b40","system_id":"levelo_inurba_marseille","lat":43.336148,"lon":5.410349,"is_reserved":false,"is_disabled":false,"rental_uris":{"android":"levelo://app?vid=5be3d89a-3796-4eda-a28f-531ae0ec7b40","ios":"levelo://app?vid=5be3d89a-3796-4eda-a28f-531ae0ec7b40"},"vehicle_type_id":"4","last_reported":1702390002,"current_range_meters":28000,"station_id":"ce4bhqh2rcd13ifvqhmg","pricing_plan_id":"free"},{"bike_id":"c2db7741-5fc9-40f2-92e8-28489f274ebf","system_id":"levelo_inurba_marseille","lat":43.276771,"lon":5.388799,"is_reserved":false,"is_disabled":false,"rental_uris":{"android":"levelo://app?vid=c2db7741-5fc9-40f2-92e8-28489f274ebf","ios":"levelo://app?vid=c2db7741-5fc9-40f2-92e8-28489f274ebf"},"vehicle_type_id":"4","last_reported":1702390002,"current_range_meters":8400,"station_id":"ce4bhi12rcd13ifvqfo0","pricing_plan_id":"free"},{"bike_id":"b1dafd3a-a440-496f-9523-b1636836b00a","system_id":"levelo_inurba_marseille","lat":43.279975,"lon":5.40009,"is_reserved":false,"is_disabled":false,"rental_uris":{"android":"levelo://app?vid=b1dafd3a-a440-496f-9523-b1636836b00a","ios":"levelo://app?vid=b1dafd3a-a440-496f-9523-b1636836b00a"},"vehicle_type_id":"4","last_reported":1702390002,"current_range_meters":27600,"station_id":"ce4bho92rcd13ifvqh4g","pricing_plan_id":"free"},{"bike_id":"b1c028eb-0fe1-4afa-b35c-b9783a0e9537","system_id":"levelo_inurba_marseille","lat":43.31723,"lon":5.42405,"is_reserved":false,"is_disabled":false,"rental_uris":{"android":"levelo://app?vid=b1c028eb-0fe1-4afa-b35c-b9783a0e9537","ios":"levelo://app?vid=b1c028eb-0fe1-4afa-b35c-b9783a0e9537"},"vehicle_type_id":"4","last_reported":1702390002,"current_range_meters":5600,"station_id":"ce4bhp92rcd13ifvqhbg","pricing_plan_id":"free"},{"bike_id":"b096250a-8180-4226-ad5e-c8680583970f","system_id":"levelo_inurba_marseille","lat":43.340804,"lon":5.410219,"is_reserved":false,"is_disabled":false,"rental_uris":{"android":"levelo://app?vid=b096250a-8180-4226-ad5e-c8680583970f","ios":"levelo://app?vid=b096250a-8180-4226-ad5e-c8680583970f"},"vehicle_type_id":"4","last_reported":1702390002,"current_range_meters":28800,"station_id":"ce4bhqh2rcd13ifvqhlg","pricing_plan_id":"free"},{"bike_id":"f24f390c-64e5-4566-a3af-eba244eb14ad","system_id":"levelo_inurba_marseille","lat":43.273152,"lon":5.39076,"is_reserved":false,"is_disabled":false,"rental_uris":{"android":"levelo://app?vid=f24f390c-64e5-4566-a3af-eba244eb14ad","ios":"levelo://app?vid=f24f390c-64e5-4566-a3af-eba244eb14ad"},"vehicle_type_id":"4","last_reported":1702390002,"current_range_meters":0,"station_id":"ce4bhgp2rcd13ifvqfe0","pricing_plan_id":"free"},{"bike_id":"366b316a-848e-45c5-8e32-3a4cf20326f4","system_id":"levelo_inurba_marseille","lat":43.304096,"lon":5.425385,"is_reserved":false,"is_disabled":false,"rental_uris":{"android":"levelo://app?vid=366b316a-848e-45c5-8e32-3a4cf20326f4","ios":"levelo://app?vid=366b316a-848e-45c5-8e32-3a4cf20326f4"},"vehicle_type_id":"4","last_reported":1702390002,"current_range_meters":7600,"station_id":"ce4bhoh2rcd13ifvqh6g","pricing_plan_id":"free"},{"bike_id":"840946d8-d9c9-440b-a8ee-14162bbd15ab","system_id":"levelo_inurba_marseille","lat":43.29553,"lon":5.42276,"is_reserved":false,"is_disabled":false,"rental_uris":{"android":"levelo://app?vid=840946d8-d9c9-440b-a8ee-14162bbd15ab","ios":"levelo://app?vid=840946d8-d9c9-440b-a8ee-14162bbd15ab"},"vehicle_type_id":"4","last_reported":1702390002,"current_range_meters":12400,"station_id":"ce4bhph2rcd13ifvqhdg","pricing_plan_id":"free"},{"bike_id":"dab6bfc2-c9fd-4daa-a622-37368ecfa3b2","system_id":"levelo_inurba_marseille","lat":43.29553,"lon":5.42285,"is_reserved":false,"is_disabled":false,"rental_uris":{"android":"levelo://app?vid=dab6bfc2-c9fd-4daa-a622-37368ecfa3b2","ios":"levelo://app?vid=dab6bfc2-c9fd-4daa-a622-37368ecfa3b2"},"vehicle_type_id":"4","last_reported":1702390002,"current_range_meters":31200,"station_id":"ce4bhph2rcd13ifvqhdg","pricing_plan_id":"free"},{"bike_id":"33ba5037-8b9a-4df1-96ff-c59797faeab9","system_id":"levelo_inurba_marseille","lat":43.272118,"lon":5.391758,"is_reserved":false,"is_disabled":false,"rental_uris":{"android":"levelo://app?vid=33ba5037-8b9a-4df1-96ff-c59797faeab9","ios":"levelo://app?vid=33ba5037-8b9a-4df1-96ff-c59797faeab9"},"vehicle_type_id":"4","last_reported":1702390002,"current_range_meters":1200,"station_id":"ce4bhhp2rcd13ifvqfm0","pricing_plan_id":"free"},{"bike_id":"09091c78-cd82-454c-896c-c74dcac3c876","system_id":"levelo_inurba_marseille","lat":43.269319,"lon":5.389397,"is_reserved":false,"is_disabled":false,"rental_uris":{"android":"levelo://app?vid=09091c78-cd82-454c-896c-c74dcac3c876","ios":"levelo://app?vid=09091c78-cd82-454c-896c-c74dcac3c876"},"vehicle_type_id":"4","last_reported":1702390002,"current_range_meters":30800,"station_id":"ce4bhhh2rcd13ifvqfl0","pricing_plan_id":"free"},{"bike_id":"1f838749-e38b-453a-a2b5-8af527824d86","system_id":"levelo_inurba_marseille","lat":43.26681,"lon":5.382694,"is_reserved":false,"is_disabled":false,"rental_uris":{"android":"levelo://app?vid=1f838749-e38b-453a-a2b5-8af527824d86","ios":"levelo://app?vid=1f838749-e38b-453a-a2b5-8af527824d86"},"vehicle_type_id":"4","last_reported":1702390002,"current_range_meters":30400,"station_id":"ce4bhg92rcd13ifvqf90","pricing_plan_id":"free"},{"bike_id":"38ad8321-df72-46b9-ae7a-5816f4e5e83e","system_id":"levelo_inurba_marseille","lat":43.26681,"lon":5.382694,"is_reserved":false,"is_disabled":false,"rental_uris":{"android":"levelo://app?vid=38ad8321-df72-46b9-ae7a-5816f4e5e83e","ios":"levelo://app?vid=38ad8321-df72-46b9-ae7a-5816f4e5e83e"},"vehicle_type_id":"4","last_reported":1702390002,"current_range_meters":9600,"station_id":"ce4bhg92rcd13ifvqf90","pricing_plan_id":"free"},{"bike_id":"76d290b7-0996-4f5f-8a85-126beec2bb6b","system_id":"levelo_inurba_marseille","lat":43.267966,"lon":5.393976,"is_reserved":false,"is_disabled":false,"rental_uris":{"android":"levelo://app?vid=76d290b7-0996-4f5f-8a85-126beec2bb6b","ios":"levelo://app?vid=76d290b7-0996-4f5f-8a85-126beec2bb6b"},"vehicle_type_id":"4","last_reported":1702390002,"current_range_meters":20000,"station_id":"ce4bhh12rcd13ifvqfg0","pricing_plan_id":"free"},{"bike_id":"14bc19f9-c5ac-4814-b202-5604c65f25d1","system_id":"levelo_inurba_marseille","lat":43.30801,"lon":5.43528,"is_reserved":false,"is_disabled":false,"rental_uris":{"android":"levelo://app?vid=14bc19f9-c5ac-4814-b202-5604c65f25d1","ios":"levelo://app?vid=14bc19f9-c5ac-4814-b202-5604c65f25d1"},"vehicle_type_id":"4","last_reported":1702390002,"current_range_meters":17600,"station_id":"ce4bhph2rcd13ifvqheg","pricing_plan_id":"free"},{"bike_id":"c5dcb1f5-374e-4782-ab55-b8ad7f9e18ae","system_id":"levelo_inurba_marseille","lat":43.26949,"lon":5.40262,"is_reserved":false,"is_disabled":false,"rental_uris":{"android":"levelo://app?vid=c5dcb1f5-374e-4782-ab55-b8ad7f9e18ae","ios":"levelo://app?vid=c5dcb1f5-374e-4782-ab55-b8ad7f9e18ae"},"vehicle_type_id":"4","last_reported":1702390002,"current_range_meters":4000,"station_id":"cjm6bp8fraef2m0cb0m0","pricing_plan_id":"free"},{"bike_id":"7dcc0d71-2ad6-4b3c-92e0-a1f941b95477","system_id":"levelo_inurba_marseille","lat":43.317104,"lon":5.436818,"is_reserved":false,"is_disabled":false,"rental_uris":{"android":"levelo://app?vid=7dcc0d71-2ad6-4b3c-92e0-a1f941b95477","ios":"levelo://app?vid=7dcc0d71-2ad6-4b3c-92e0-a1f941b95477"},"vehicle_type_id":"4","last_reported":1702390002,"current_range_meters":25600,"station_id":"ce4bhp92rcd13ifvqhcg","pricing_plan_id":"free"},{"bike_id":"e84d1fc7-4f43-4c97-85b3-6d7c58d3502a","system_id":"levelo_inurba_marseille","lat":43.26202,"lon":5.379299,"is_reserved":false,"is_disabled":false,"rental_uris":{"android":"levelo://app?vid=e84d1fc7-4f43-4c97-85b3-6d7c58d3502a","ios":"levelo://app?vid=e84d1fc7-4f43-4c97-85b3-6d7c58d3502a"},"vehicle_type_id":"4","last_reported":1702390002,"current_range_meters":29600,"station_id":"ce4bhjp2rcd13ifvqg90","pricing_plan_id":"free"},{"bike_id":"4c1af104-d731-4510-b308-80102d6e2d58","system_id":"levelo_inurba_marseille","lat":43.271368,"lon":5.40928,"is_reserved":false,"is_disabled":false,"rental_uris":{"android":"levelo://app?vid=4c1af104-d731-4510-b308-80102d6e2d58","ios":"levelo://app?vid=4c1af104-d731-4510-b308-80102d6e2d58"},"vehicle_type_id":"4","last_reported":1702390002,"current_range_meters":21200,"station_id":"ce4bhl12rcd13ifvqgf0","pricing_plan_id":"free"},{"bike_id":"66cd7013-3cb1-462e-9146-0b78fa7ec6f3","system_id":"levelo_inurba_marseille","lat":43.271388,"lon":5.409269,"is_reserved":false,"is_disabled":false,"rental_uris":{"android":"levelo://app?vid=66cd7013-3cb1-462e-9146-0b78fa7ec6f3","ios":"levelo://app?vid=66cd7013-3cb1-462e-9146-0b78fa7ec6f3"},"vehicle_type_id":"4","last_reported":1702390002,"current_range_meters":30400,"station_id":"ce4bhl12rcd13ifvqgf0","pricing_plan_id":"free"},{"bike_id":"39f1097f-1f3b-42f3-ab92-9467e7980416","system_id":"levelo_inurba_marseille","lat":43.26809,"lon":5.4027,"is_reserved":false,"is_disabled":false,"rental_uris":{"android":"levelo://app?vid=39f1097f-1f3b-42f3-ab92-9467e7980416","ios":"levelo://app?vid=39f1097f-1f3b-42f3-ab92-9467e7980416"},"vehicle_type_id":"4","last_reported":1702390002,"current_range_meters":4000,"station_id":"ce501612rcd8frsf0b60","pricing_plan_id":"free"},{"bike_id":"7aff87a6-0602-470f-b435-fe3bba8d34b7","system_id":"levelo_inurba_marseille","lat":43.281548,"lon":5.42643,"is_reserved":false,"is_disabled":false,"rental_uris":{"android":"levelo://app?vid=7aff87a6-0602-470f-b435-fe3bba8d34b7","ios":"levelo://app?vid=7aff87a6-0602-470f-b435-fe3bba8d34b7"},"vehicle_type_id":"4","last_reported":1702390002,"current_range_meters":8800,"station_id":"ce4bhnh2rcd13ifvqgug","pricing_plan_id":"free"},{"bike_id":"3764faf7-beec-4b88-97d8-9ac6b46998c6","system_id":"levelo_inurba_marseille","lat":43.281548,"lon":5.42643,"is_reserved":false,"is_disabled":false,"rental_uris":{"android":"levelo://app?vid=3764faf7-beec-4b88-97d8-9ac6b46998c6","ios":"levelo://app?vid=3764faf7-beec-4b88-97d8-9ac6b46998c6"},"vehicle_type_id":"4","last_reported":1702390002,"current_range_meters":26400,"station_id":"ce4bhnh2rcd13ifvqgug","pricing_plan_id":"free"},{"bike_id":"ee7af92a-15bf-41b8-81ca-d535c99d9416","system_id":"levelo_inurba_marseille","lat":43.281548,"lon":5.42643,"is_reserved":false,"is_disabled":false,"rental_uris":{"android":"levelo://app?vid=ee7af92a-15bf-41b8-81ca-d535c99d9416","ios":"levelo://app?vid=ee7af92a-15bf-41b8-81ca-d535c99d9416"},"vehicle_type_id":"4","last_reported":1702390002,"current_range_meters":0,"station_id":"ce4bhnh2rcd13ifvqgug","pricing_plan_id":"free"},{"bike_id":"170a873b-3341-4bb0-b48a-fb97e9da1708","system_id":"levelo_inurba_marseille","lat":43.275028,"lon":5.424534,"is_reserved":false,"is_disabled":false,"rental_uris":{"android":"levelo://app?vid=170a873b-3341-4bb0-b48a-fb97e9da1708","ios":"levelo://app?vid=170a873b-3341-4bb0-b48a-fb97e9da1708"},"vehicle_type_id":"4","last_reported":1702390002,"current_range_meters":30000,"station_id":"ce4bhn92rcd13ifvqgrg","pricing_plan_id":"free"},{"bike_id":"a44df085-f6e4-4989-a66f-288e8a9298e0","system_id":"levelo_inurba_marseille","lat":43.259009,"lon":5.40929,"is_reserved":false,"is_disabled":false,"rental_uris":{"android":"levelo://app?vid=a44df085-f6e4-4989-a66f-288e8a9298e0","ios":"levelo://app?vid=a44df085-f6e4-4989-a66f-288e8a9298e0"},"vehicle_type_id":"4","last_reported":1702390002,"current_range_meters":14000,"station_id":"ce4bhm92rcd13ifvqglg","pricing_plan_id":"free"},{"bike_id":"b6400bfa-ebb2-4e35-870b-f55b90b8f69f","system_id":"levelo_inurba_marseille","lat":43.257079,"lon":5.411051,"is_reserved":false,"is_disabled":false,"rental_uris":{"android":"levelo://app?vid=b6400bfa-ebb2-4e35-870b-f55b90b8f69f","ios":"levelo://app?vid=b6400bfa-ebb2-4e35-870b-f55b90b8f69f"},"vehicle_type_id":"4","last_reported":1702390002,"current_range_meters":27200,"station_id":"ce4bhkp2rcd13ifvqgd0","pricing_plan_id":"free"},{"bike_id":"bc4e767a-60af-40a0-a9f5-2079f53700c0","system_id":"levelo_inurba_marseille","lat":43.250009,"lon":5.389195,"is_reserved":false,"is_disabled":false,"rental_uris":{"android":"levelo://app?vid=bc4e767a-60af-40a0-a9f5-2079f53700c0","ios":"levelo://app?vid=bc4e767a-60af-40a0-a9f5-2079f53700c0"},"vehicle_type_id":"4","last_reported":1702390002,"current_range_meters":8400,"station_id":"ce4bhgp2rcd13ifvqfd0","pricing_plan_id":"free"},{"bike_id":"dab8ad3a-8600-426c-8830-5c7122c03dc8","system_id":"levelo_inurba_marseille","lat":43.24693,"lon":5.382096,"is_reserved":false,"is_disabled":false,"rental_uris":{"android":"levelo://app?vid=dab8ad3a-8600-426c-8830-5c7122c03dc8","ios":"levelo://app?vid=dab8ad3a-8600-426c-8830-5c7122c03dc8"},"vehicle_type_id":"4","last_reported":1702390002,"current_range_meters":30400,"station_id":"ce4bhih2rcd13ifvqfr0","pricing_plan_id":"free"},{"bike_id":"48a6c0a2-6f84-4616-89bd-6d9ccd42bf32","system_id":"levelo_inurba_marseille","lat":43.25102,"lon":5.403214,"is_reserved":false,"is_disabled":false,"rental_uris":{"android":"levelo://app?vid=48a6c0a2-6f84-4616-89bd-6d9ccd42bf32","ios":"levelo://app?vid=48a6c0a2-6f84-4616-89bd-6d9ccd42bf32"},"vehicle_type_id":"4","last_reported":1702390002,"current_range_meters":31200,"station_id":"ce4bhlh2rcd13ifvqgig","pricing_plan_id":"free"},{"bike_id":"771c11bf-114d-4933-a546-0573f5bfab24","system_id":"levelo_inurba_marseille","lat":43.25106,"lon":5.40327,"is_reserved":false,"is_disabled":false,"rental_uris":{"android":"levelo://app?vid=771c11bf-114d-4933-a546-0573f5bfab24","ios":"levelo://app?vid=771c11bf-114d-4933-a546-0573f5bfab24"},"vehicle_type_id":"4","last_reported":1702390002,"current_range_meters":0,"station_id":"ce4bhlh2rcd13ifvqgig","pricing_plan_id":"free"},{"bike_id":"31d9638c-3ea5-49d9-ae1f-e4883bd389a1","system_id":"levelo_inurba_marseille","lat":43.245406,"lon":5.373263,"is_reserved":false,"is_disabled":false,"rental_uris":{"android":"levelo://app?vid=31d9638c-3ea5-49d9-ae1f-e4883bd389a1","ios":"levelo://app?vid=31d9638c-3ea5-49d9-ae1f-e4883bd389a1"},"vehicle_type_id":"4","last_reported":1702390002,"current_range_meters":0,"station_id":"","pricing_plan_id":"free"},{"bike_id":"8e2a71fe-379b-43e6-8266-21b5c781f9e9","system_id":"levelo_inurba_marseille","lat":43.240623,"lon":5.377642,"is_reserved":false,"is_disabled":false,"rental_uris":{"android":"levelo://app?vid=8e2a71fe-379b-43e6-8266-21b5c781f9e9","ios":"levelo://app?vid=8e2a71fe-379b-43e6-8266-21b5c781f9e9"},"vehicle_type_id":"4","last_reported":1702390002,"current_range_meters":4800,"station_id":"ce4bhnp2rcd13ifvqgvg","pricing_plan_id":"free"},{"bike_id":"8396f7cf-61f2-4d2d-9344-8c07dddcc95c","system_id":"levelo_inurba_marseille","lat":43.240623,"lon":5.377642,"is_reserved":false,"is_disabled":false,"rental_uris":{"android":"levelo://app?vid=8396f7cf-61f2-4d2d-9344-8c07dddcc95c","ios":"levelo://app?vid=8396f7cf-61f2-4d2d-9344-8c07dddcc95c"},"vehicle_type_id":"4","last_reported":1702390002,"current_range_meters":23200,"station_id":"ce4bhnp2rcd13ifvqgvg","pricing_plan_id":"free"},{"bike_id":"6524475a-3558-4d80-ac63-fad7cc97ea98","system_id":"levelo_inurba_marseille","lat":43.24069,"lon":5.37764,"is_reserved":false,"is_disabled":false,"rental_uris":{"android":"levelo://app?vid=6524475a-3558-4d80-ac63-fad7cc97ea98","ios":"levelo://app?vid=6524475a-3558-4d80-ac63-fad7cc97ea98"},"vehicle_type_id":"4","last_reported":1702390002,"current_range_meters":14400,"station_id":"ce4bhnp2rcd13ifvqgvg","pricing_plan_id":"free"},{"bike_id":"9003ff76-1587-4071-9aaa-276569c658ee","system_id":"levelo_inurba_marseille","lat":43.24068,"lon":5.37763,"is_reserved":false,"is_disabled":false,"rental_uris":{"android":"levelo://app?vid=9003ff76-1587-4071-9aaa-276569c658ee","ios":"levelo://app?vid=9003ff76-1587-4071-9aaa-276569c658ee"},"vehicle_type_id":"4","last_reported":1702390002,"current_range_meters":0,"station_id":"ce4bhnp2rcd13ifvqgvg","pricing_plan_id":"free"},{"bike_id":"730f4865-7bd1-452e-bc6a-8fa100560da6","system_id":"levelo_inurba_marseille","lat":43.24067,"lon":5.37768,"is_reserved":false,"is_disabled":false,"rental_uris":{"android":"levelo://app?vid=730f4865-7bd1-452e-bc6a-8fa100560da6","ios":"levelo://app?vid=730f4865-7bd1-452e-bc6a-8fa100560da6"},"vehicle_type_id":"4","last_reported":1702390002,"current_range_meters":20400,"station_id":"ce4bhnp2rcd13ifvqgvg","pricing_plan_id":"free"},{"bike_id":"90c11212-ba4b-40d6-b1f3-914422388c7d","system_id":"levelo_inurba_marseille","lat":43.24179,"lon":5.39719,"is_reserved":false,"is_disabled":false,"rental_uris":{"android":"levelo://app?vid=90c11212-ba4b-40d6-b1f3-914422388c7d","ios":"levelo://app?vid=90c11212-ba4b-40d6-b1f3-914422388c7d"},"vehicle_type_id":"4","last_reported":1702390002,"current_range_meters":20000,"station_id":"ce4bhn12rcd13ifvqgpg","pricing_plan_id":"free"},{"bike_id":"a9dfe1e1-908a-4b49-b60c-bd9f0019d06b","system_id":"levelo_inurba_marseille","lat":43.231919,"lon":5.355532,"is_reserved":false,"is_disabled":false,"rental_uris":{"android":"levelo://app?vid=a9dfe1e1-908a-4b49-b60c-bd9f0019d06b","ios":"levelo://app?vid=a9dfe1e1-908a-4b49-b60c-bd9f0019d06b"},"vehicle_type_id":"4","last_reported":1702390002,"current_range_meters":0,"station_id":"ce4bhu92rcd13ifvqi70","pricing_plan_id":"free"},{"bike_id":"1bd22906-96ca-46e0-9d37-90eff248c859","system_id":"levelo_inurba_marseille","lat":43.231919,"lon":5.355532,"is_reserved":false,"is_disabled":false,"rental_uris":{"android":"levelo://app?vid=1bd22906-96ca-46e0-9d37-90eff248c859","ios":"levelo://app?vid=1bd22906-96ca-46e0-9d37-90eff248c859"},"vehicle_type_id":"4","last_reported":1702390002,"current_range_meters":3600,"station_id":"ce4bhu92rcd13ifvqi70","pricing_plan_id":"free"},{"bike_id":"e5f8a3f9-ad33-4c96-8f80-c9bb436ceb1b","system_id":"levelo_inurba_marseille","lat":43.235777,"lon":5.410407,"is_reserved":false,"is_disabled":false,"rental_uris":{"android":"levelo://app?vid=e5f8a3f9-ad33-4c96-8f80-c9bb436ceb1b","ios":"levelo://app?vid=e5f8a3f9-ad33-4c96-8f80-c9bb436ceb1b"},"vehicle_type_id":"4","last_reported":1702390002,"current_range_meters":15600,"station_id":"","pricing_plan_id":"free"},{"bike_id":"cbc2927c-6269-4362-a708-f04183187904","system_id":"levelo_inurba_marseille","lat":43.231793,"lon":5.400044,"is_reserved":false,"is_disabled":false,"rental_uris":{"android":"levelo://app?vid=cbc2927c-6269-4362-a708-f04183187904","ios":"levelo://app?vid=cbc2927c-6269-4362-a708-f04183187904"},"vehicle_type_id":"4","last_reported":1702390002,"current_range_meters":16000,"station_id":"ce4bhn12rcd13ifvqgqg","pricing_plan_id":"free"},{"bike_id":"25c6b94d-cc60-4af1-862f-1923b70fae6a","system_id":"levelo_inurba_marseille","lat":43.231794,"lon":5.400052,"is_reserved":false,"is_disabled":false,"rental_uris":{"android":"levelo://app?vid=25c6b94d-cc60-4af1-862f-1923b70fae6a","ios":"levelo://app?vid=25c6b94d-cc60-4af1-862f-1923b70fae6a"},"vehicle_type_id":"4","last_reported":1702390002,"current_range_meters":30800,"station_id":"ce4bhn12rcd13ifvqgqg","pricing_plan_id":"free"},{"bike_id":"9e3ccb6d-a105-4d45-aef9-97156cdb815f","system_id":"levelo_inurba_marseille","lat":43.231794,"lon":5.400052,"is_reserved":false,"is_disabled":false,"rental_uris":{"android":"levelo://app?vid=9e3ccb6d-a105-4d45-aef9-97156cdb815f","ios":"levelo://app?vid=9e3ccb6d-a105-4d45-aef9-97156cdb815f"},"vehicle_type_id":"4","last_reported":1702390002,"current_range_meters":19600,"station_id":"ce4bhn12rcd13ifvqgqg","pricing_plan_id":"free"},{"bike_id":"5c5d811b-920e-4dc2-8b5a-a33a7df9bc05","system_id":"levelo_inurba_marseille","lat":43.231562,"lon":5.436933,"is_reserved":false,"is_disabled":false,"rental_uris":{"android":"levelo://app?vid=5c5d811b-920e-4dc2-8b5a-a33a7df9bc05","ios":"levelo://app?vid=5c5d811b-920e-4dc2-8b5a-a33a7df9bc05"},"vehicle_type_id":"4","last_reported":1702390002,"current_range_meters":30800,"station_id":"ce4bhmp2rcd13ifvqgog","pricing_plan_id":"free"},{"bike_id":"5b1e43e1-157b-41db-80f1-c39aaeb1c62f","system_id":"levelo_inurba_marseille","lat":43.231562,"lon":5.436933,"is_reserved":false,"is_disabled":false,"rental_uris":{"android":"levelo://app?vid=5b1e43e1-157b-41db-80f1-c39aaeb1c62f","ios":"levelo://app?vid=5b1e43e1-157b-41db-80f1-c39aaeb1c62f"},"vehicle_type_id":"4","last_reported":1702390002,"current_range_meters":9600,"station_id":"ce4bhmp2rcd13ifvqgog","pricing_plan_id":"free"},{"bike_id":"b98a457e-cf5f-41f0-830e-89a07a2fd902","system_id":"levelo_inurba_marseille","lat":43.231562,"lon":5.436933,"is_reserved":false,"is_disabled":false,"rental_uris":{"android":"levelo://app?vid=b98a457e-cf5f-41f0-830e-89a07a2fd902","ios":"levelo://app?vid=b98a457e-cf5f-41f0-830e-89a07a2fd902"},"vehicle_type_id":"4","last_reported":1702390002,"current_range_meters":32000,"station_id":"ce4bhmp2rcd13ifvqgog","pricing_plan_id":"free"},{"bike_id":"050ca741-a095-4207-9c5a-c630bb160957","system_id":"levelo_inurba_marseille","lat":43.231443,"lon":5.437181,"is_reserved":false,"is_disabled":false,"rental_uris":{"android":"levelo://app?vid=050ca741-a095-4207-9c5a-c630bb160957","ios":"levelo://app?vid=050ca741-a095-4207-9c5a-c630bb160957"},"vehicle_type_id":"4","last_reported":1702390002,"current_range_meters":14800,"station_id":"ce4bhmp2rcd13ifvqgog","pricing_plan_id":"free"},{"bike_id":"b1e3cd70-38f8-4d10-854a-5c0a5d45a7ae","system_id":"levelo_inurba_marseille","lat":43.23147,"lon":5.43725,"is_reserved":false,"is_disabled":false,"rental_uris":{"android":"levelo://app?vid=b1e3cd70-38f8-4d10-854a-5c0a5d45a7ae","ios":"levelo://app?vid=b1e3cd70-38f8-4d10-854a-5c0a5d45a7ae"},"vehicle_type_id":"4","last_reported":1702390002,"current_range_meters":4800,"station_id":"ce4bhmp2rcd13ifvqgog","pricing_plan_id":"free"}]}}