{"last_updated":1730743958,"ttl":60,"version":"2.2","data":{"bikes":[{"bike_id":"2de734db-7500-4e0f-a5d5-b73454ba31e1","system_id":"levelo_inurba_marseille","lat":43.28705,"lon":5.3998,"is_reserved":false,"is_disabled":false,"rental_uris":{"android":"levelo://app?vid=2de734db-7500-4e0f-a5d5-b73454ba31e1","ios":"levelo://app?vid=2de734db-7500-4e0f-a5d5-b73454ba31e1"},"vehicle_type_id":"4","last_reported":1730743959,"current_range_meters":28000,"station_id":"ce4bho92rcd13ifvqh3g","pricing_plan_id":"cebpf4jnsgd1na2vs0mg"},{"bike_id":"2b6c8443-1848-4bd1-a5f7-cb79fbd151e5","system_id":"levelo_inurba_marseille","lat":43.28469,"lon":5.35888,"is_reserved":false,"is_disabled":false,"rental_uris":{"android":"levelo://app?vid=2b6c8443-1848-4bd1-a5f7-cb79fbd151e5","ios":"levelo://app?vid=2b6c8443-1848-4bd1-a5f7-cb79fbd151e5"},"vehicle_type_id":"4","last_reported":1730743959,"current_range_meters":35200,"station_id":"ce4bhah2rcd13ifvqei0","pricing_plan_id":"cebpf4jnsgd1na2vs0mg"},{"bike_id":"13ab31f8-417c-4859-b3eb-b60b38010bf0","system_id":"levelo_inurba_marseille","lat":43.2927,"lon":5.38436,"is_reserved":false,"is_disabled":false,"rental_uris":{"android":"levelo://app?vid=13ab31f8-417c-4859-b3eb-b60b38010bf0","ios":"levelo://app?vid=13ab31f8-417c-4859-b3eb-b60b38010bf0"},"vehicle_type_id":"4","last_reported":1730743959,"current_range_meters":33600,"station_id":"ce4bh692rcd13ifvqea0","pricing_plan_id":"cebpf4jnsgd1na2vs0mg"},{"bike_id":"0813b8d9-95b0-4ee8-8c30-0a2f8f5acae7","system_id":"levelo_inurba_marseille","lat":43.28665,"lon":5.36337,"is_reserved":false,"is_disabled":false,"rental_uris":{"android":"levelo://app?vid=0813b8d9-95b0-4ee8-8c30-0a2f8f5acae7","ios":"levelo://app?vid=0813b8d9-95b0-4ee8-8c30-0a2f8f5acae7"},"vehicle_type_id":"4","last_reported":1730743959,"current_range_meters":16800,"station_id":"ce4bhah2rcd13ifvqej0","pricing_plan_id":"cebpf4jnsgd1na2vs0mg"},{"bike_id":"18d2e32e-db09-4272-bb69-070d531fa2aa","system_id":"levelo_inurba_marseille","lat":43.302544,"lon":5.396994,"is_reserved":false,"is_disabled":false,"rental_uris":{"android":"levelo://app?vid=18d2e32e-db09-4272-bb69-070d531fa2aa","ios":"levelo://app?vid=18d2e32e-db09-4272-bb69-070d531fa2aa"},"vehicle_type_id":"4","last_reported":1730743959,"current_range_meters":39200,"station_id":"ce4bh192rcd13ifvqdb0","pricing_plan_id":"cebpf4jnsgd1na2vs0mg"},{"bike_id":"80e0548e-1ae1-4c14-a66c-51c7a26b1749","system_id":"levelo_inurba_marseille","lat":43.31707,"lon":5.37735,"is_reserved":false,"is_disabled":false,"rental_uris":{"android":"levelo://app?vid=80e0548e-1ae1-4c14-a66c-51c7a26b1749","ios":"levelo://app?vid=80e0548e-1ae1-4c14-a66c-51c7a26b1749"},"vehicle_type_id":"4","last_reported":1730743959,"current_range_meters":23200,"station_id":"ce4bgth2rcd13ifvqch0","pricing_plan_id":"cebpf4jnsgd1na2vs0mg"},{"bike_id":"7d640c47-a4ae-4641-8ed6-4165bb1caeb6","system_id":"levelo_inurba_marseille","lat":43.26491,"lon":5.39548,"is_reserved":false,"is_disabled":false,"rental_uris":{"android":"levelo://app?vid=7d640c47-a4ae-4641-8ed6-4165bb1caeb6","ios":"levelo://app?vid=7d640c47-a4ae-4641-8ed6-4165bb1caeb6"},"vehicle_type_id":"4","last_reported":1730743959,"current_range_meters":38400,"station_id":"ce4bhi12rcd13ifvqfq0","pricing_plan_id":"cebpf4jnsgd1na2vs0mg"},{"bike_id":"fd369ca8-e60f-452f-861a-66955d63582e","system_id":"levelo_inurba_marseille","lat":43.30088,"lon":5.39076,"is_reserved":false,"is_disabled":false,"rental_uris":{"android":"levelo://app?vid=fd369ca8-e60f-452f-861a-66955d63582e","ios":"levelo://app?vid=fd369ca8-e60f-452f-861a-66955d63582e"},"vehicle_type_id":"4","last_reported":1730743959,"current_range_meters":18800,"station_id":"ce4bh192rcd13ifvqdb0","pricing_plan_id":"cebpf4jnsgd1na2vs0mg"},{"bike_id":"d7680b91-790b-4028-b988-1d6c2608791c","system_id":"levelo_inurba_marseille","lat":43.32363,"lon":5.38885,"is_reserved":false,"is_disabled":false,"rental_uris":{"android":"levelo://app?vid=d7680b91-790b-4028-b988-1d6c2608791c","ios":"levelo://app?vid=d7680b91-790b-4028-b988-1d6c2608791c"},"vehicle_type_id":"4","last_reported":1730743959,"current_range_meters":24000,"station_id":"ce4bhqp2rcd13ifvqhog","pricing_plan_id":"cebpf4jnsgd1na2vs0mg"},{"bike_id":"3172469f-5af3-4070-845b-ee9be353fde8","system_id":"levelo_inurba_marseille","lat":43.28459,"lon":5.3589,"is_reserved":false,"is_disabled":false,"rental_uris":{"android":"levelo://app?vid=3172469f-5af3-4070-845b-ee9be353fde8","ios":"levelo://app?vid=3172469f-5af3-4070-845b-ee9be353fde8"},"vehicle_type_id":"4","last_reported":1730743959,"current_range_meters":23200,"station_id":"ce4bhah2rcd13ifvqei0","pricing_plan_id":"cebpf4jnsgd1na2vs0mg"},{"bike_id":"4147bbfb-4b14-4aca-b782-8ec6c0473609","system_id":"levelo_inurba_marseille","lat":43.23602,"lon":5.40349,"is_reserved":false,"is_disabled":false,"rental_uris":{"android":"levelo://app?vid=4147bbfb-4b14-4aca-b782-8ec6c0473609","ios":"levelo://app?vid=4147bbfb-4b14-4aca-b782-8ec6c0473609"},"vehicle_type_id":"4","last_reported":1730743959,"current_range_meters":12800,"station_id":"","pricing_plan_id":"cebpf4jnsgd1na2vs0mg"},{"bike_id":"8113a11d-faa1-4a73-a7b9-57f2c7a19838","system_id":"levelo_inurba_marseille","lat":43.3234,"lon":5.40622,"is_reserved":false,"is_disabled":false,"rental_uris":{"android":"levelo://app?vid=8113a11d-faa1-4a73-a7b9-57f2c7a19838","ios":"levelo://app?vid=8113a11d-faa1-4a73-a7b9-57f2c7a19838"},"vehicle_type_id":"4","last_reported":1730743959,"current_range_meters":17600,"station_id":"ce4bhq92rcd13ifvqhjg","pricing_plan_id":"cebpf4jnsgd1na2vs0mg"},{"bike_id":"fa66adb8-19da-4b56-aeb9-ccf1206b3e1e","system_id":"levelo_inurba_marseille","lat":43.32358,"lon":5.3675,"is_reserved":false,"is_disabled":false,"rental_uris":{"android":"levelo://app?vid=fa66adb8-19da-4b56-aeb9-ccf1206b3e1e","ios":"levelo://app?vid=fa66adb8-19da-4b56-aeb9-ccf1206b3e1e"},"vehicle_type_id":"4","last_reported":1730743959,"current_range_meters":38800,"station_id":"ce4bhsh2rcd13ifvqi2g","pricing_plan_id":"cebpf4jnsgd1na2vs0mg"},{"bike_id":"ccf75058-a3e4-4131-b94d-7d461c2bd93f","system_id":"levelo_inurba_marseille","lat":43.2866,"lon":5.38661,"is_reserved":false,"is_disabled":false,"rental_uris":{"android":"levelo://app?vid=ccf75058-a3e4-4131-b94d-7d461c2bd93f","ios":"levelo://app?vid=ccf75058-a3e4-4131-b94d-7d461c2bd93f"},"vehicle_type_id":"4","last_reported":1730743959,"current_range_meters":26800,"station_id":"ce4bh492rcd13ifvqdug","pricing_plan_id":"cebpf4jnsgd1na2vs0mg"},{"bike_id":"33a0674a-c283-49ac-9ef7-c0687ec61ec6","system_id":"levelo_inurba_marseille","lat":43.251155,"lon":5.403179,"is_reserved":false,"is_disabled":false,"rental_uris":{"android":"levelo://app?vid=33a0674a-c283-49ac-9ef7-c0687ec61ec6","ios":"levelo://app?vid=33a0674a-c283-49ac-9ef7-c0687ec61ec6"},"vehicle_type_id":"4","last_reported":1730743959,"current_range_meters":36400,"station_id":"ce4bhkp2rcd13ifvqgd0","pricing_plan_id":"cebpf4jnsgd1na2vs0mg"},{"bike_id":"a6e8d293-0bf1-434d-992b-e1996f9a5a42","system_id":"levelo_inurba_marseille","lat":43.25583,"lon":5.38232,"is_reserved":false,"is_disabled":false,"rental_uris":{"android":"levelo://app?vid=a6e8d293-0bf1-434d-992b-e1996f9a5a42","ios":"levelo://app?vid=a6e8d293-0bf1-434d-992b-e1996f9a5a42"},"vehicle_type_id":"4","last_reported":1730743959,"current_range_meters":22000,"station_id":"ce4bhih2rcd13ifvqfs0","pricing_plan_id":"cebpf4jnsgd1na2vs0mg"},{"bike_id":"47662166-db17-4d16-a97b-519c42566d41","system_id":"levelo_inurba_marseille","lat":43.27812,"lon":5.40717,"is_reserved":false,"is_disabled":false,"rental_uris":{"android":"levelo://app?vid=47662166-db17-4d16-a97b-519c42566d41","ios":"levelo://app?vid=47662166-db17-4d16-a97b-519c42566d41"},"vehicle_type_id":"4","last_reported":1730743959,"current_range_meters":7200,"station_id":"ce4bhnh2rcd13ifvqgtg","pricing_plan_id":"cebpf4jnsgd1na2vs0mg"},{"bike_id":"77e6040e-077a-4822-bbe7-c09819ecc6e9","system_id":"levelo_inurba_marseille","lat":43.29554,"lon":5.42295,"is_reserved":false,"is_disabled":false,"rental_uris":{"android":"levelo://app?vid=77e6040e-077a-4822-bbe7-c09819ecc6e9","ios":"levelo://app?vid=77e6040e-077a-4822-bbe7-c09819ecc6e9"},"vehicle_type_id":"4","last_reported":1730743959,"current_range_meters":28800,"station_id":"ce4bhph2rcd13ifvqhdg","pricing_plan_id":"cebpf4jnsgd1na2vs0mg"},{"bike_id":"ea8e0a92-9a53-4f53-a21f-c68eb89b8190","system_id":"levelo_inurba_marseille","lat":43.28472,"lon":5.38416,"is_reserved":false,"is_disabled":false,"rental_uris":{"android":"levelo://app?vid=ea8e0a92-9a53-4f53-a21f-c68eb89b8190","ios":"levelo://app?vid=ea8e0a92-9a53-4f53-a21f-c68eb89b8190"},"vehicle_type_id":"4","last_reported":1730743959,"current_range_meters":10800,"station_id":"ce4bh512rcd13ifvqe3g","pricing_plan_id":"cebpf4jnsgd1na2vs0mg"},{"bike_id":"525c40cf-ce5d-40cc-a112-46953ad38731","system_id":"levelo_inurba_marseille","lat":43.3117,"lon":5.38718,"is_reserved":false,"is_disabled":false,"rental_uris":{"android":"levelo://app?vid=525c40cf-ce5d-40cc-a112-46953ad38731","ios":"levelo://app?vid=525c40cf-ce5d-40cc-a112-46953ad38731"},"vehicle_type_id":"4","last_reported":1730743959,"current_range_meters":33200,"station_id":"ce4bgv12rcd13ifvqcp0","pricing_plan_id":"cebpf4jnsgd1na2vs0mg"},{"bike_id":"ef762b0a-886e-4da9-adfe-1739a57163ed","system_id":"levelo_inurba_marseille","lat":43.32338,"lon":5.40628,"is_reserved":false,"is_disabled":false,"rental_uris":{"android":"levelo://app?vid=ef762b0a-886e-4da9-adfe-1739a57163ed","ios":"levelo://app?vid=ef762b0a-886e-4da9-adfe-1739a57163ed"},"vehicle_type_id":"4","last_reported":1730743959,"current_range_meters":12800,"station_id":"ce4bhq92rcd13ifvqhjg","pricing_plan_id":"cebpf4jnsgd1na2vs0mg"},{"bike_id":"97e21a68-0df6-4a00-ae86-755009ed42b0","system_id":"levelo_inurba_marseille","lat":43.3136,"lon":5.38487,"is_reserved":false,"is_disabled":false,"rental_uris":{"android":"levelo://app?vid=97e21a68-0df6-4a00-ae86-755009ed42b0","ios":"levelo://app?vid=97e21a68-0df6-4a00-ae86-755009ed42b0"},"vehicle_type_id":"4","last_reported":1730743959,"current_range_meters":30400,"station_id":"ce4bgt92rcd13ifvqcf0","pricing_plan_id":"cebpf4jnsgd1na2vs0mg"},{"bike_id":"2378f453-72a7-4eb2-ab3b-946285d406fd","system_id":"levelo_inurba_marseille","lat":43.2923,"lon":5.37719,"is_reserved":false,"is_disabled":false,"rental_uris":{"android":"levelo://app?vid=2378f453-72a7-4eb2-ab3b-946285d406fd","ios":"levelo://app?vid=2378f453-72a7-4eb2-ab3b-946285d406fd"},"vehicle_type_id":"4","last_reported":1730743959,"current_range_meters":7200,"station_id":"","pricing_plan_id":"cebpf4jnsgd1na2vs0mg"},{"bike_id":"75cc4a93-4343-4693-83a4-5534a30d9a6e","system_id":"levelo_inurba_marseille","lat":43.29315,"lon":5.37185,"is_reserved":false,"is_disabled":false,"rental_uris":{"android":"levelo://app?vid=75cc4a93-4343-4693-83a4-5534a30d9a6e","ios":"levelo://app?vid=75cc4a93-4343-4693-83a4-5534a30d9a6e"},"vehicle_type_id":"4","last_reported":1730743959,"current_range_meters":22800,"station_id":"ce4bgh92rcd13ifvqb40","pricing_plan_id":"cebpf4jnsgd1na2vs0mg"},{"bike_id":"f0988fd7-d894-452c-b470-8dc5cd7a0e1d","system_id":"levelo_inurba_marseille","lat":43.2843,"lon":5.39188,"is_reserved":false,"is_disabled":false,"rental_uris":{"android":"levelo://app?vid=f0988fd7-d894-452c-b470-8dc5cd7a0e1d","ios":"levelo://app?vid=f0988fd7-d894-452c-b470-8dc5cd7a0e1d"},"vehicle_type_id":"4","last_reported":1730743959,"current_range_meters":19200,"station_id":"ce4bhoh2rcd13ifvqh5g","pricing_plan_id":"cebpf4jnsgd1na2vs0mg"},{"bike_id":"d9fa7bd9-2d2a-4396-b82b-5183421327cd","system_id":"levelo_inurba_marseille","lat":43.29505,"lon":5.39412,"is_reserved":false,"is_disabled":false,"rental_uris":{"android":"levelo://app?vid=d9fa7bd9-2d2a-4396-b82b-5183421327cd","ios":"levelo://app?vid=d9fa7bd9-2d2a-4396-b82b-5183421327cd"},"vehicle_type_id":"4","last_reported":1730743959,"current_range_meters":16800,"station_id":"ce4bh292rcd13ifvqdf0","pricing_plan_id":"cebpf4jnsgd1na2vs0mg"},{"bike_id":"e87520ab-7d44-4391-8bba-3a764130f29d","system_id":"levelo_inurba_marseille","lat":43.28457,"lon":5.35878,"is_reserved":false,"is_disabled":false,"rental_uris":{"android":"levelo://app?vid=e87520ab-7d44-4391-8bba-3a764130f29d","ios":"levelo://app?vid=e87520ab-7d44-4391-8bba-3a764130f29d"},"vehicle_type_id":"4","last_reported":1730743959,"current_range_meters":8000,"station_id":"ce4bhah2rcd13ifvqei0","pricing_plan_id":"cebpf4jnsgd1na2vs0mg"},{"bike_id":"062ab4fd-5e55-4675-a704-0f0cfb3df98e","system_id":"levelo_inurba_marseille","lat":43.28719,"lon":5.3793,"is_reserved":false,"is_disabled":false,"rental_uris":{"android":"levelo://app?vid=062ab4fd-5e55-4675-a704-0f0cfb3df98e","ios":"levelo://app?vid=062ab4fd-5e55-4675-a704-0f0cfb3df98e"},"vehicle_type_id":"4","last_reported":1730743959,"current_range_meters":39200,"station_id":"ce4bh9p2rcd13ifvqec0","pricing_plan_id":"cebpf4jnsgd1na2vs0mg"},{"bike_id":"87e2ca9d-a76f-4935-bb9d-102d5d7cfefb","system_id":"levelo_inurba_marseille","lat":43.29424,"lon":5.38625,"is_reserved":false,"is_disabled":false,"rental_uris":{"android":"levelo://app?vid=87e2ca9d-a76f-4935-bb9d-102d5d7cfefb","ios":"levelo://app?vid=87e2ca9d-a76f-4935-bb9d-102d5d7cfefb"},"vehicle_type_id":"4","last_reported":1730743959,"current_range_meters":4400,"station_id":"ce4bh2h2rcd13ifvqdh0","pricing_plan_id":"cebpf4jnsgd1na2vs0mg"},{"bike_id":"5b3d7647-9afd-4801-bfd7-362b22f62f5b","system_id":"levelo_inurba_marseille","lat":43.2993,"lon":5.36556,"is_reserved":false,"is_disabled":false,"rental_uris":{"android":"levelo://app?vid=5b3d7647-9afd-4801-bfd7-362b22f62f5b","ios":"levelo://app?vid=5b3d7647-9afd-4801-bfd7-362b22f62f5b"},"vehicle_type_id":"4","last_reported":1730743959,"current_range_meters":4000,"station_id":"ce4bgm92rcd13ifvqbr0","pricing_plan_id":"cebpf4jnsgd1na2vs0mg"},{"bike_id":"07800ca4-36cf-4b4f-a3f7-5c9140c47345","system_id":"levelo_inurba_marseille","lat":43.23971,"lon":5.36612,"is_reserved":false,"is_disabled":false,"rental_uris":{"android":"levelo://app?vid=07800ca4-36cf-4b4f-a3f7-5c9140c47345","ios":"levelo://app?vid=07800ca4-36cf-4b4f-a3f7-5c9140c47345"},"vehicle_type_id":"4","last_reported":1730743959,"current_range_meters":6800,"station_id":"ce4bhi12rcd13ifvqfp0","pricing_plan_id":"cebpf4jnsgd1na2vs0mg"},{"bike_id":"96461d7e-408e-4387-926a-7a48882a14f7","system_id":"levelo_inurba_marseille","lat":43.29421,"lon":5.38628,"is_reserved":false,"is_disabled":false,"rental_uris":{"android":"levelo://app?vid=96461d7e-408e-4387-926a-7a48882a14f7","ios":"levelo://app?vid=96461d7e-408e-4387-926a-7a48882a14f7"},"vehicle_type_id":"4","last_reported":1730743959,"current_range_meters":24800,"station_id":"ce4bh2h2rcd13ifvqdh0","pricing_plan_id":"cebpf4jnsgd1na2vs0mg"},{"bike_id":"d19e8971-5383-4c9c-ae7d-52bd0b1e8018","system_id":"levelo_inurba_marseille","lat":43.2988,"lon":5.3975,"is_reserved":false,"is_disabled":false,"rental_uris":{"android":"levelo://app?vid=d19e8971-5383-4c9c-ae7d-52bd0b1e8018","ios":"levelo://app?vid=d19e8971-5383-4c9c-ae7d-52bd0b1e8018"},"vehicle_type_id":"4","last_reported":1730743959,"current_range_meters":16000,"station_id":"ce4bh0h2rcd13ifvqd50","pricing_plan_id":"cebpf4jnsgd1na2vs0mg"},{"bike_id":"194a0114-536c-49a0-aa58-cfad50ae77c5","system_id":"levelo_inurba_marseille","lat":43.30141,"lon":5.39867,"is_reserved":false,"is_disabled":false,"rental_uris":{"android":"levelo://app?vid=194a0114-536c-49a0-aa58-cfad50ae77c5","ios":"levelo://app?vid=194a0114-536c-49a0-aa58-cfad50ae77c5"},"vehicle_type_id":"4","last_reported":1730743959,"current_range_meters":1600,"station_id":"ce4bh0h2rcd13ifvqd40","pricing_plan_id":"cebpf4jnsgd1na2vs0mg"},{"bike_id":"e12d7650-f1b2-4c4b-8eb8-23651f70543b","system_id":"levelo_inurba_marseille","lat":43.32363,"lon":5.38887,"is_reserved":false,"is_disabled":false,"rental_uris":{"android":"levelo://app?vid=e12d7650-f1b2-4c4b-8eb8-23651f70543b","ios":"levelo://app?vid=e12d7650-f1b2-4c4b-8eb8-23651f70543b"},"vehicle_type_id":"4","last_reported":1730743959,"current_range_meters":9200,"station_id":"ce4bhqp2rcd13ifvqhog","pricing_plan_id":"cebpf4jnsgd1na2vs0mg"},{"bike_id":"3d2075cc-e4c5-4829-b089-a342243ac00e","system_id":"levelo_inurba_marseille","lat":43.29418,"lon":5.38628,"is_reserved":false,"is_disabled":false,"rental_uris":{"android":"levelo://app?vid=3d2075cc-e4c5-4829-b089-a342243ac00e","ios":"levelo://app?vid=3d2075cc-e4c5-4829-b089-a342243ac00e"},"vehicle_type_id":"4","last_reported":1730743959,"current_range_meters":6400,"station_id":"ce4bh2h2rcd13ifvqdh0","pricing_plan_id":"cebpf4jnsgd1na2vs0mg"},{"bike_id":"8ecd27d2-3829-40af-873d-e7bb0aa3ecfe","system_id":"levelo_inurba_marseille","lat":43.29926,"lon":5.37474,"is_reserved":false,"is_disabled":false,"rental_uris":{"android":"levelo://app?vid=8ecd27d2-3829-40af-873d-e7bb0aa3ecfe","ios":"levelo://app?vid=8ecd27d2-3829-40af-873d-e7bb0aa3ecfe"},"vehicle_type_id":"4","last_reported":1730743959,"current_range_meters":8000,"station_id":"ce4bgjh2rcd13ifvqbg0","pricing_plan_id":"cebpf4jnsgd1na2vs0mg"},{"bike_id":"2eb7cf6f-0659-4edf-9a49-b69f8bee9772","system_id":"levelo_inurba_marseille","lat":43.297243,"lon":5.407543,"is_reserved":false,"is_disabled":false,"rental_uris":{"android":"levelo://app?vid=2eb7cf6f-0659-4edf-9a49-b69f8bee9772","ios":"levelo://app?vid=2eb7cf6f-0659-4edf-9a49-b69f8bee9772"},"vehicle_type_id":"4","last_reported":1730743959,"current_range_meters":37600,"station_id":"ce4bhp12rcd13ifvqh9g","pricing_plan_id":"cebpf4jnsgd1na2vs0mg"},{"bike_id":"91f5b76d-bdfe-4048-8a04-c9679d35526a","system_id":"levelo_inurba_marseille","lat":43.330241,"lon":5.390448,"is_reserved":false,"is_disabled":false,"rental_uris":{"android":"levelo://app?vid=91f5b76d-bdfe-4048-8a04-c9679d35526a","ios":"levelo://app?vid=91f5b76d-bdfe-4048-8a04-c9679d35526a"},"vehicle_type_id":"4","last_reported":1730743959,"current_range_meters":38800,"station_id":"ce4bhr92rcd13ifvqhrg","pricing_plan_id":"cebpf4jnsgd1na2vs0mg"},{"bike_id":"19505a76-095a-4d4b-aea1-1efd3b3c4792","system_id":"levelo_inurba_marseille","lat":43.25865,"lon":5.39908,"is_reserved":false,"is_disabled":false,"rental_uris":{"android":"levelo://app?vid=19505a76-095a-4d4b-aea1-1efd3b3c4792","ios":"levelo://app?vid=19505a76-095a-4d4b-aea1-1efd3b3c4792"},"vehicle_type_id":"4","last_reported":1730743959,"current_range_meters":27200,"station_id":"ce4bhl92rcd13ifvqghg","pricing_plan_id":"cebpf4jnsgd1na2vs0mg"},{"bike_id":"029bd975-5bc2-43f0-a947-befdc56d9adf","system_id":"levelo_inurba_marseille","lat":43.29269,"lon":5.40908,"is_reserved":false,"is_disabled":false,"rental_uris":{"android":"levelo://app?vid=029bd975-5bc2-43f0-a947-befdc56d9adf","ios":"levelo://app?vid=029bd975-5bc2-43f0-a947-befdc56d9adf"},"vehicle_type_id":"4","last_reported":1730743959,"current_range_meters":28000,"station_id":"ce4bh192rcd13ifvqdc0","pricing_plan_id":"cebpf4jnsgd1na2vs0mg"},{"bike_id":"bb6fc592-677b-4a4f-80fb-2853c8d69b24","system_id":"levelo_inurba_marseille","lat":43.307901,"lon":5.371349,"is_reserved":false,"is_disabled":false,"rental_uris":{"android":"levelo://app?vid=bb6fc592-677b-4a4f-80fb-2853c8d69b24","ios":"levelo://app?vid=bb6fc592-677b-4a4f-80fb-2853c8d69b24"},"vehicle_type_id":"4","last_reported":1730743959,"current_range_meters":28400,"station_id":"ce4bgqh2rcd13ifvqc4g","pricing_plan_id":"cebpf4jnsgd1na2vs0mg"},{"bike_id":"3c123e78-30fc-4b35-a893-fb516b58c081","system_id":"levelo_inurba_marseille","lat":43.29272,"lon":5.36847,"is_reserved":false,"is_disabled":false,"rental_uris":{"android":"levelo://app?vid=3c123e78-30fc-4b35-a893-fb516b58c081","ios":"levelo://app?vid=3c123e78-30fc-4b35-a893-fb516b58c081"},"vehicle_type_id":"4","last_reported":1730743959,"current_range_meters":22800,"station_id":"ce4bhbp2rcd13ifvqesg","pricing_plan_id":"cebpf4jnsgd1na2vs0mg"},{"bike_id":"febd90cd-2e68-4845-963a-2d4265bcc609","system_id":"levelo_inurba_marseille","lat":43.28663,"lon":5.38656,"is_reserved":false,"is_disabled":false,"rental_uris":{"android":"levelo://app?vid=febd90cd-2e68-4845-963a-2d4265bcc609","ios":"levelo://app?vid=febd90cd-2e68-4845-963a-2d4265bcc609"},"vehicle_type_id":"4","last_reported":1730743959,"current_range_meters":23200,"station_id":"ce4bh492rcd13ifvqdug","pricing_plan_id":"cebpf4jnsgd1na2vs0mg"},{"bike_id":"0688e1f9-1bf1-4863-9a6f-f01b30b1aed3","system_id":"levelo_inurba_marseille","lat":43.28464,"lon":5.35885,"is_reserved":false,"is_disabled":false,"rental_uris":{"android":"levelo://app?vid=0688e1f9-1bf1-4863-9a6f-f01b30b1aed3","ios":"levelo://app?vid=0688e1f9-1bf1-4863-9a6f-f01b30b1aed3"},"vehicle_type_id":"4","last_reported":1730743959,"current_range_meters":24800,"station_id":"ce4bhah2rcd13ifvqei0","pricing_plan_id":"cebpf4jnsgd1na2vs0mg"},{"bike_id":"2de83174-6a3b-423d-a264-6b578d1a5a84","system_id":"levelo_inurba_marseille","lat":43.29199,"lon":5.39312,"is_reserved":false,"is_disabled":false,"rental_uris":{"android":"levelo://app?vid=2de83174-6a3b-423d-a264-6b578d1a5a84","ios":"levelo://app?vid=2de83174-6a3b-423d-a264-6b578d1a5a84"},"vehicle_type_id":"4","last_reported":1730743959,"current_range_meters":38800,"station_id":"ce4bh192rcd13ifvqdd0","pricing_plan_id":"cebpf4jnsgd1na2vs0mg"},{"bike_id":"72bea112-b23d-4b2b-88a4-e67cd45e6db7","system_id":"levelo_inurba_marseille","lat":43.3033,"lon":5.40445,"is_reserved":false,"is_disabled":false,"rental_uris":{"android":"levelo://app?vid=72bea112-b23d-4b2b-88a4-e67cd45e6db7","ios":"levelo://app?vid=72bea112-b23d-4b2b-88a4-e67cd45e6db7"},"vehicle_type_id":"4","last_reported":1730743959,"current_range_meters":24000,"station_id":"ce4bh012rcd13ifvqd10","pricing_plan_id":"cebpf4jnsgd1na2vs0mg"},{"bike_id":"8caf941a-c9bc-49c3-a36c-9f6a35769069","system_id":"levelo_inurba_marseille","lat":43.280975,"lon":5.406246,"is_reserved":false,"is_disabled":false,"rental_uris":{"android":"levelo://app?vid=8caf941a-c9bc-49c3-a36c-9f6a35769069","ios":"levelo://app?vid=8caf941a-c9bc-49c3-a36c-9f6a35769069"},"vehicle_type_id":"4","last_reported":1730743959,"current_range_meters":13600,"station_id":"ce4bho92rcd13ifvqh3g","pricing_plan_id":"cebpf4jnsgd1na2vs0mg"},{"bike_id":"6f3b67e2-928c-4989-9c5f-d7e045cc1870","system_id":"levelo_inurba_marseille","lat":43.31329,"lon":5.39686,"is_reserved":false,"is_disabled":false,"rental_uris":{"android":"levelo://app?vid=6f3b67e2-928c-4989-9c5f-d7e045cc1870","ios":"levelo://app?vid=6f3b67e2-928c-4989-9c5f-d7e045cc1870"},"vehicle_type_id":"4","last_reported":1730743959,"current_range_meters":18000,"station_id":"ce4bgvp2rcd13ifvqcu0","pricing_plan_id":"cebpf4jnsgd1na2vs0mg"},{"bike_id":"146d97b6-f2dc-4480-a68d-b214db281df8","system_id":"levelo_inurba_marseille","lat":43.29313,"lon":5.37179,"is_reserved":false,"is_disabled":false,"rental_uris":{"android":"levelo://app?vid=146d97b6-f2dc-4480-a68d-b214db281df8","ios":"levelo://app?vid=146d97b6-f2dc-4480-a68d-b214db281df8"},"vehicle_type_id":"4","last_reported":1730743959,"current_range_meters":35200,"station_id":"ce4bgh92rcd13ifvqb40","pricing_plan_id":"cebpf4jnsgd1na2vs0mg"},{"bike_id":"5994cef7-23be-4f6c-9feb-8946f00a74f7","system_id":"levelo_inurba_marseille","lat":43.267915,"lon":5.392147,"is_reserved":false,"is_disabled":false,"rental_uris":{"android":"levelo://app?vid=5994cef7-23be-4f6c-9feb-8946f00a74f7","ios":"levelo://app?vid=5994cef7-23be-4f6c-9feb-8946f00a74f7"},"vehicle_type_id":"4","last_reported":1730743959,"current_range_meters":22400,"station_id":"ce4bhh12rcd13ifvqfg0","pricing_plan_id":"cebpf4jnsgd1na2vs0mg"},{"bike_id":"f03f649e-00e9-4de0-8495-ea722ea10f89","system_id":"levelo_inurba_marseille","lat":43.28033,"lon":5.36947,"is_reserved":false,"is_disabled":false,"rental_uris":{"android":"levelo://app?vid=f03f649e-00e9-4de0-8495-ea722ea10f89","ios":"levelo://app?vid=f03f649e-00e9-4de0-8495-ea722ea10f89"},"vehicle_type_id":"4","last_reported":1730743959,"current_range_meters":2800,"station_id":"ce4bha12rcd13ifvqef0","pricing_plan_id":"cebpf4jnsgd1na2vs0mg"},{"bike_id":"8a6108fb-39e5-44c9-bb0e-c92b1fbe0362","system_id":"levelo_inurba_marseille","lat":43.27998,"lon":5.4001,"is_reserved":false,"is_disabled":false,"rental_uris":{"android":"levelo://app?vid=8a6108fb-39e5-44c9-bb0e-c92b1fbe0362","ios":"levelo://app?vid=8a6108fb-39e5-44c9-bb0e-c92b1fbe0362"},"vehicle_type_id":"4","last_reported":1730743959,"current_range_meters":34800,"station_id":"ce4bho92rcd13ifvqh4g","pricing_plan_id":"cebpf4jnsgd1na2vs0mg"},{"bike_id":"8d5faf28-e526-4d5b-93d3-399bd2cb1046","system_id":"levelo_inurba_marseille","lat":43.3176,"lon":5.39016,"is_reserved":false,"is_disabled":false,"rental_uris":{"android":"levelo://app?vid=8d5faf28-e526-4d5b-93d3-399bd2cb1046","ios":"levelo://app?vid=8d5faf28-e526-4d5b-93d3-399bd2cb1046"},"vehicle_type_id":"4","last_reported":1730743959,"current_range_meters":14000,"station_id":"ce4bhqp2rcd13ifvqhng","pricing_plan_id":"cebpf4jnsgd1na2vs0mg"},{"bike_id":"c8d3bba7-c5e4-4b4b-814d-74922c1d1ba6","system_id":"levelo_inurba_marseille","lat":43.30136,"lon":5.39858,"is_reserved":false,"is_disabled":false,"rental_uris":{"android":"levelo://app?vid=c8d3bba7-c5e4-4b4b-814d-74922c1d1ba6","ios":"levelo://app?vid=c8d3bba7-c5e4-4b4b-814d-74922c1d1ba6"},"vehicle_type_id":"4","last_reported":1730743959,"current_range_meters":39200,"station_id":"ce4bh0h2rcd13ifvqd40","pricing_plan_id":"cebpf4jnsgd1na2vs0mg"},{"bike_id":"09829a24-f639-4891-80cb-ed9f598d5fde","system_id":"levelo_inurba_marseille","lat":43.29191,"lon":5.39321,"is_reserved":false,"is_disabled":false,"rental_uris":{"android":"levelo://app?vid=09829a24-f639-4891-80cb-ed9f598d5fde","ios":"levelo://app?vid=09829a24-f639-4891-80cb-ed9f598d5fde"},"vehicle_type_id":"4","last_reported":1730743959,"current_range_meters":10000,"station_id":"ce4bh192rcd13ifvqdd0","pricing_plan_id":"cebpf4jnsgd1na2vs0mg"},{"bike_id":"4d39a779-31fa-49e8-8dd7-1884b4a4ae25","system_id":"levelo_inurba_marseille","lat":43.26185,"lon":5.37453,"is_reserved":false,"is_disabled":false,"rental_uris":{"android":"levelo://app?vid=4d39a779-31fa-49e8-8dd7-1884b4a4ae25","ios":"levelo://app?vid=4d39a779-31fa-49e8-8dd7-1884b4a4ae25"},"vehicle_type_id":"4","last_reported":1730743959,"current_range_meters":20000,"station_id":"ce4bhgp2rcd13ifvqfc0","pricing_plan_id":"cebpf4jnsgd1na2vs0mg"},{"bike_id":"7f4dca72-1225-4950-854b-d6e3bbc3c450","system_id":"levelo_inurba_marseille","lat":43.29529,"lon":5.39408,"is_reserved":false,"is_disabled":false,"rental_uris":{"android":"levelo://app?vid=7f4dca72-1225-4950-854b-d6e3bbc3c450","ios":"levelo://app?vid=7f4dca72-1225-4950-854b-d6e3bbc3c450"},"vehicle_type_id":"4","last_reported":1730743959,"current_range_meters":3200,"station_id":"ce4bh292rcd13ifvqdf0","pricing_plan_id":"cebpf4jnsgd1na2vs0mg"},{"bike_id":"3e5a8634-a637-4014-bc6a-240a337f8596","system_id":"levelo_inurba_marseille","lat":43.28671,"lon":5.38661,"is_reserved":false,"is_disabled":false,"rental_uris":{"android":"levelo://app?vid=3e5a8634-a637-4014-bc6a-240a337f8596","ios":"levelo://app?vid=3e5a8634-a637-4014-bc6a-240a337f8596"},"vehicle_type_id":"4","last_reported":1730743959,"current_range_meters":28800,"station_id":"ce4bh492rcd13ifvqdug","pricing_plan_id":"cebpf4jnsgd1na2vs0mg"},{"bike_id":"971dffd0-ae0e-4018-aca6-c3c12d4d16b4","system_id":"levelo_inurba_marseille","lat":43.29425,"lon":5.38618,"is_reserved":false,"is_disabled":false,"rental_uris":{"android":"levelo://app?vid=971dffd0-ae0e-4018-aca6-c3c12d4d16b4","ios":"levelo://app?vid=971dffd0-ae0e-4018-aca6-c3c12d4d16b4"},"vehicle_type_id":"4","last_reported":1730743959,"current_range_meters":2800,"station_id":"ce4bh2h2rcd13ifvqdh0","pricing_plan_id":"cebpf4jnsgd1na2vs0mg"},{"bike_id":"37deeb23-ece9-4f69-9fee-a33b9b0b9f3f","system_id":"levelo_inurba_marseille","lat":43.29527,"lon":5.39028,"is_reserved":false,"is_disabled":false,"rental_uris":{"android":"levelo://app?vid=37deeb23-ece9-4f69-9fee-a33b9b0b9f3f","ios":"levelo://app?vid=37deeb23-ece9-4f69-9fee-a33b9b0b9f3f"},"vehicle_type_id":"4","last_reported":1730743959,"current_range_meters":35200,"station_id":"ce4bh3p2rcd13ifvqdp0","pricing_plan_id":"cebpf4jnsgd1na2vs0mg"},{"bike_id":"ed284843-2f1e-493c-a782-42f13cf947b5","system_id":"levelo_inurba_marseille","lat":43.2926,"lon":5.38434,"is_reserved":false,"is_disabled":false,"rental_uris":{"android":"levelo://app?vid=ed284843-2f1e-493c-a782-42f13cf947b5","ios":"levelo://app?vid=ed284843-2f1e-493c-a782-42f13cf947b5"},"vehicle_type_id":"4","last_reported":1730743959,"current_range_meters":38800,"station_id":"ce4bh692rcd13ifvqea0","pricing_plan_id":"cebpf4jnsgd1na2vs0mg"},{"bike_id":"a42fc36b-b834-4d89-a83d-c4af5adfd5cf","system_id":"levelo_inurba_marseille","lat":43.25085,"lon":5.39516,"is_reserved":false,"is_disabled":false,"rental_uris":{"android":"levelo://app?vid=a42fc36b-b834-4d89-a83d-c4af5adfd5cf","ios":"levelo://app?vid=a42fc36b-b834-4d89-a83d-c4af5adfd5cf"},"vehicle_type_id":"4","last_reported":1730743959,"current_range_meters":2000,"station_id":"ce4bhm12rcd13ifvqgkg","pricing_plan_id":"cebpf4jnsgd1na2vs0mg"},{"bike_id":"eb39e603-ad9f-4225-9a3b-12ae2097763c","system_id":"levelo_inurba_marseille","lat":43.25085,"lon":5.39518,"is_reserved":false,"is_disabled":false,"rental_uris":{"android":"levelo://app?vid=eb39e603-ad9f-4225-9a3b-12ae2097763c","ios":"levelo://app?vid=eb39e603-ad9f-4225-9a3b-12ae2097763c"},"vehicle_type_id":"4","last_reported":1730743959,"current_range_meters":33600,"station_id":"ce4bhm12rcd13ifvqgkg","pricing_plan_id":"cebpf4jnsgd1na2vs0mg"},{"bike_id":"04aa5b59-4bb9-497a-a1ac-eef2c51fb9a6","system_id":"levelo_inurba_marseille","lat":43.2808,"lon":5.3966,"is_reserved":false,"is_disabled":false,"rental_uris":{"android":"levelo://app?vid=04aa5b59-4bb9-497a-a1ac-eef2c51fb9a6","ios":"levelo://app?vid=04aa5b59-4bb9-497a-a1ac-eef2c51fb9a6"},"vehicle_type_id":"4","last_reported":1730743959,"current_range_meters":12800,"station_id":"ce4bho12rcd13ifvqh2g","pricing_plan_id":"cebpf4jnsgd1na2vs0mg"},{"bike_id":"3ab4030e-66fe-403c-8479-fde3f9e0f5d6","system_id":"levelo_inurba_marseille","lat":43.2987,"lon":5.39728,"is_reserved":false,"is_disabled":false,"rental_uris":{"android":"levelo://app?vid=3ab4030e-66fe-403c-8479-fde3f9e0f5d6","ios":"levelo://app?vid=3ab4030e-66fe-403c-8479-fde3f9e0f5d6"},"vehicle_type_id":"4","last_reported":1730743959,"current_range_meters":38800,"station_id":"ce4bh0h2rcd13ifvqd50","pricing_plan_id":"cebpf4jnsgd1na2vs0mg"},{"bike_id":"28c4470e-7c65-48b5-a4f3-82bb5ef8f8cd","system_id":"levelo_inurba_marseille","lat":43.32338,"lon":5.40624,"is_reserved":false,"is_disabled":false,"rental_uris":{"android":"levelo://app?vid=28c4470e-7c65-48b5-a4f3-82bb5ef8f8cd","ios":"levelo://app?vid=28c4470e-7c65-48b5-a4f3-82bb5ef8f8cd"},"vehicle_type_id":"4","last_reported":1730743959,"current_range_meters":38800,"station_id":"ce4bhq92rcd13ifvqhjg","pricing_plan_id":"cebpf4jnsgd1na2vs0mg"},{"bike_id":"c1d9de5b-72de-4c23-acfa-ea5bcd9c8c68","system_id":"levelo_inurba_marseille","lat":43.29514,"lon":5.39413,"is_reserved":false,"is_disabled":false,"rental_uris":{"android":"levelo://app?vid=c1d9de5b-72de-4c23-acfa-ea5bcd9c8c68","ios":"levelo://app?vid=c1d9de5b-72de-4c23-acfa-ea5bcd9c8c68"},"vehicle_type_id":"4","last_reported":1730743959,"current_range_meters":20400,"station_id":"ce4bh292rcd13ifvqdf0","pricing_plan_id":"cebpf4jnsgd1na2vs0mg"},{"bike_id":"07783dcd-420f-4b3d-be4e-26c77735a7b3","system_id":"levelo_inurba_marseille","lat":43.27614,"lon":5.36112,"is_reserved":false,"is_disabled":false,"rental_uris":{"android":"levelo://app?vid=07783dcd-420f-4b3d-be4e-26c77735a7b3","ios":"levelo://app?vid=07783dcd-420f-4b3d-be4e-26c77735a7b3"},"vehicle_type_id":"4","last_reported":1730743959,"current_range_meters":28000,"station_id":"ce4bgj92rcd13ifvqbe0","pricing_plan_id":"cebpf4jnsgd1na2vs0mg"},{"bike_id":"99aab957-79ae-4343-a8bc-56f317b23858","system_id":"levelo_inurba_marseille","lat":43.28031,"lon":5.36951,"is_reserved":false,"is_disabled":false,"rental_uris":{"android":"levelo://app?vid=99aab957-79ae-4343-a8bc-56f317b23858","ios":"levelo://app?vid=99aab957-79ae-4343-a8bc-56f317b23858"},"vehicle_type_id":"4","last_reported":1730743959,"current_range_meters":22800,"station_id":"ce4bha12rcd13ifvqef0","pricing_plan_id":"cebpf4jnsgd1na2vs0mg"},{"bike_id":"d4472d20-9c4b-4c70-ad00-3a005519a429","system_id":"levelo_inurba_marseille","lat":43.35366,"lon":5.35735,"is_reserved":false,"is_disabled":false,"rental_uris":{"android":"levelo://app?vid=d4472d20-9c4b-4c70-ad00-3a005519a429","ios":"levelo://app?vid=d4472d20-9c4b-4c70-ad00-3a005519a429"},"vehicle_type_id":"4","last_reported":1730743959,"current_range_meters":8400,"station_id":"","pricing_plan_id":"cebpf4jnsgd1na2vs0mg"},{"bike_id":"85e64d80-8de0-4fe7-ad6c-db427a143e82","system_id":"levelo_inurba_marseille","lat":43.318501,"lon":5.37955,"is_reserved":false,"is_disabled":false,"rental_uris":{"android":"levelo://app?vid=85e64d80-8de0-4fe7-ad6c-db427a143e82","ios":"levelo://app?vid=85e64d80-8de0-4fe7-ad6c-db427a143e82"},"vehicle_type_id":"4","last_reported":1730743959,"current_range_meters":12800,"station_id":"ce4bhr12rcd13ifvqhpg","pricing_plan_id":"cebpf4jnsgd1na2vs0mg"},{"bike_id":"e3302e8d-58eb-46b9-afd0-4c717fd4d115","system_id":"levelo_inurba_marseille","lat":43.28978,"lon":5.3783,"is_reserved":false,"is_disabled":false,"rental_uris":{"android":"levelo://app?vid=e3302e8d-58eb-46b9-afd0-4c717fd4d115","ios":"levelo://app?vid=e3302e8d-58eb-46b9-afd0-4c717fd4d115"},"vehicle_type_id":"4","last_reported":1730743959,"current_range_meters":6800,"station_id":"ce4bh9p2rcd13ifvqed0","pricing_plan_id":"cebpf4jnsgd1na2vs0mg"},{"bike_id":"098b0a0b-086f-4573-ae9e-c9d04ce55a89","system_id":"levelo_inurba_marseille","lat":43.30799,"lon":5.38152,"is_reserved":false,"is_disabled":false,"rental_uris":{"android":"levelo://app?vid=098b0a0b-086f-4573-ae9e-c9d04ce55a89","ios":"levelo://app?vid=098b0a0b-086f-4573-ae9e-c9d04ce55a89"},"vehicle_type_id":"4","last_reported":1730743959,"current_range_meters":6400,"station_id":"ce4bgt12rcd13ifvqce0","pricing_plan_id":"cebpf4jnsgd1na2vs0mg"},{"bike_id":"0cd2180d-56f3-45e6-b3f5-978b59b12b28","system_id":"levelo_inurba_marseille","lat":43.323534,"lon":5.388927,"is_reserved":false,"is_disabled":false,"rental_uris":{"android":"levelo://app?vid=0cd2180d-56f3-45e6-b3f5-978b59b12b28","ios":"levelo://app?vid=0cd2180d-56f3-45e6-b3f5-978b59b12b28"},"vehicle_type_id":"4","last_reported":1730743959,"current_range_meters":24400,"station_id":"ce4bhqp2rcd13ifvqhog","pricing_plan_id":"cebpf4jnsgd1na2vs0mg"},{"bike_id":"0a1a40db-b474-4571-b7c4-fd7400638eb1","system_id":"levelo_inurba_marseille","lat":43.31713,"lon":5.4371,"is_reserved":false,"is_disabled":false,"rental_uris":{"android":"levelo://app?vid=0a1a40db-b474-4571-b7c4-fd7400638eb1","ios":"levelo://app?vid=0a1a40db-b474-4571-b7c4-fd7400638eb1"},"vehicle_type_id":"4","last_reported":1730743959,"current_range_meters":8000,"station_id":"ce4bhp92rcd13ifvqhcg","pricing_plan_id":"cebpf4jnsgd1na2vs0mg"},{"bike_id":"be5bb167-8e9d-4764-9cac-04dc5e3697e1","system_id":"levelo_inurba_marseille","lat":43.2846,"lon":5.35885,"is_reserved":false,"is_disabled":false,"rental_uris":{"android":"levelo://app?vid=be5bb167-8e9d-4764-9cac-04dc5e3697e1","ios":"levelo://app?vid=be5bb167-8e9d-4764-9cac-04dc5e3697e1"},"vehicle_type_id":"4","last_reported":1730743959,"current_range_meters":26800,"station_id":"ce4bhah2rcd13ifvqei0","pricing_plan_id":"cebpf4jnsgd1na2vs0mg"},{"bike_id":"8600cc64-8d1b-4fa3-881d-e3e172c36461","system_id":"levelo_inurba_marseille","lat":43.29928,"lon":5.36541,"is_reserved":false,"is_disabled":false,"rental_uris":{"android":"levelo://app?vid=8600cc64-8d1b-4fa3-881d-e3e172c36461","ios":"levelo://app?vid=8600cc64-8d1b-4fa3-881d-e3e172c36461"},"vehicle_type_id":"4","last_reported":1730743959,"current_range_meters":29600,"station_id":"ce4bgm92rcd13ifvqbr0","pricing_plan_id":"cebpf4jnsgd1na2vs0mg"},{"bike_id":"2dd40e8a-347a-4069-9f04-901c41b0a3c7","system_id":"levelo_inurba_marseille","lat":43.321,"lon":5.36776,"is_reserved":false,"is_disabled":false,"rental_uris":{"android":"levelo://app?vid=2dd40e8a-347a-4069-9f04-901c41b0a3c7","ios":"levelo://app?vid=2dd40e8a-347a-4069-9f04-901c41b0a3c7"},"vehicle_type_id":"4","last_reported":1730743959,"current_range_meters":38800,"station_id":"ce4bhrh2rcd13ifvqhug","pricing_plan_id":"cebpf4jnsgd1na2vs0mg"},{"bike_id":"8e54017f-c93f-4de5-9558-1c48a24740ca","system_id":"levelo_inurba_marseille","lat":43.3133,"lon":5.39695,"is_reserved":false,"is_disabled":false,"rental_uris":{"android":"levelo://app?vid=8e54017f-c93f-4de5-9558-1c48a24740ca","ios":"levelo://app?vid=8e54017f-c93f-4de5-9558-1c48a24740ca"},"vehicle_type_id":"4","last_reported":1730743959,"current_range_meters":8400,"station_id":"ce4bgvp2rcd13ifvqcu0","pricing_plan_id":"cebpf4jnsgd1na2vs0mg"},{"bike_id":"6fc2326c-4cde-4ad0-9f66-cc0b4811ab5d","system_id":"levelo_inurba_marseille","lat":43.31993,"lon":5.38156,"is_reserved":false,"is_disabled":false,"rental_uris":{"android":"levelo://app?vid=6fc2326c-4cde-4ad0-9f66-cc0b4811ab5d","ios":"levelo://app?vid=6fc2326c-4cde-4ad0-9f66-cc0b4811ab5d"},"vehicle_type_id":"4","last_reported":1730743959,"current_range_meters":38800,"station_id":"ce4bhr12rcd13ifvqhpg","pricing_plan_id":"cebpf4jnsgd1na2vs0mg"},{"bike_id":"148ef324-e0ba-4f3f-a972-788a9d2d9cf2","system_id":"levelo_inurba_marseille","lat":43.28726,"lon":5.36095,"is_reserved":false,"is_disabled":false,"rental_uris":{"android":"levelo://app?vid=148ef324-e0ba-4f3f-a972-788a9d2d9cf2","ios":"levelo://app?vid=148ef324-e0ba-4f3f-a972-788a9d2d9cf2"},"vehicle_type_id":"4","last_reported":1730743959,"current_range_meters":38800,"station_id":"cki0cbj6b192h4jlfktg","pricing_plan_id":"cebpf4jnsgd1na2vs0mg"},{"bike_id":"78f1dd21-f4df-4702-bacd-b7fcd831c3d3","system_id":"levelo_inurba_marseille","lat":43.27055,"lon":5.38842,"is_reserved":false,"is_disabled":false,"rental_uris":{"android":"levelo://app?vid=78f1dd21-f4df-4702-bacd-b7fcd831c3d3","ios":"levelo://app?vid=78f1dd21-f4df-4702-bacd-b7fcd831c3d3"},"vehicle_type_id":"4","last_reported":1730743959,"current_range_meters":12000,"station_id":"","pricing_plan_id":"cebpf4jnsgd1na2vs0mg"},{"bike_id":"476b1032-3456-4e75-9225-7aec38b7121d","system_id":"levelo_inurba_marseille","lat":43.27811,"lon":5.4071,"is_reserved":false,"is_disabled":false,"rental_uris":{"android":"levelo://app?vid=476b1032-3456-4e75-9225-7aec38b7121d","ios":"levelo://app?vid=476b1032-3456-4e75-9225-7aec38b7121d"},"vehicle_type_id":"4","last_reported":1730743959,"current_range_meters":22800,"station_id":"ce4bhnh2rcd13ifvqgtg","pricing_plan_id":"cebpf4jnsgd1na2vs0mg"},{"bike_id":"32759978-730f-4227-b435-4e42599541d6","system_id":"levelo_inurba_marseille","lat":43.28439,"lon":5.39192,"is_reserved":false,"is_disabled":false,"rental_uris":{"android":"levelo://app?vid=32759978-730f-4227-b435-4e42599541d6","ios":"levelo://app?vid=32759978-730f-4227-b435-4e42599541d6"},"vehicle_type_id":"4","last_reported":1730743959,"current_range_meters":38000,"station_id":"ce4bhoh2rcd13ifvqh5g","pricing_plan_id":"cebpf4jnsgd1na2vs0mg"},{"bike_id":"8b751894-1161-4d7b-a0e2-88850f36a102","system_id":"levelo_inurba_marseille","lat":43.31761,"lon":5.39012,"is_reserved":false,"is_disabled":false,"rental_uris":{"android":"levelo://app?vid=8b751894-1161-4d7b-a0e2-88850f36a102","ios":"levelo://app?vid=8b751894-1161-4d7b-a0e2-88850f36a102"},"vehicle_type_id":"4","last_reported":1730743959,"current_range_meters":30800,"station_id":"ce4bhqp2rcd13ifvqhng","pricing_plan_id":"cebpf4jnsgd1na2vs0mg"},{"bike_id":"284a58f0-ac34-4623-8869-59696274e7c5","system_id":"levelo_inurba_marseille","lat":43.31063,"lon":5.38353,"is_reserved":false,"is_disabled":false,"rental_uris":{"android":"levelo://app?vid=284a58f0-ac34-4623-8869-59696274e7c5","ios":"levelo://app?vid=284a58f0-ac34-4623-8869-59696274e7c5"},"vehicle_type_id":"4","last_reported":1730743959,"current_range_meters":22800,"station_id":"ce4bgv92rcd13ifvqcr0","pricing_plan_id":"cebpf4jnsgd1na2vs0mg"},{"bike_id":"9c369908-4ba1-4205-bc52-90707875ca87","system_id":"levelo_inurba_marseille","lat":43.3116,"lon":5.3873,"is_reserved":false,"is_disabled":false,"rental_uris":{"android":"levelo://app?vid=9c369908-4ba1-4205-bc52-90707875ca87","ios":"levelo://app?vid=9c369908-4ba1-4205-bc52-90707875ca87"},"vehicle_type_id":"4","last_reported":1730743959,"current_range_meters":6400,"station_id":"ce4bgv12rcd13ifvqcp0","pricing_plan_id":"cebpf4jnsgd1na2vs0mg"},{"bike_id":"ba8f5d9a-4861-4465-b828-23e2245ef053","system_id":"levelo_inurba_marseille","lat":43.23184,"lon":5.39984,"is_reserved":false,"is_disabled":false,"rental_uris":{"android":"levelo://app?vid=ba8f5d9a-4861-4465-b828-23e2245ef053","ios":"levelo://app?vid=ba8f5d9a-4861-4465-b828-23e2245ef053"},"vehicle_type_id":"4","last_reported":1730743959,"current_range_meters":39200,"station_id":"ce4bhn12rcd13ifvqgqg","pricing_plan_id":"cebpf4jnsgd1na2vs0mg"},{"bike_id":"e2ea924d-d082-4b2a-8974-7d6589e85b70","system_id":"levelo_inurba_marseille","lat":43.28943,"lon":5.36395,"is_reserved":false,"is_disabled":false,"rental_uris":{"android":"levelo://app?vid=e2ea924d-d082-4b2a-8974-7d6589e85b70","ios":"levelo://app?vid=e2ea924d-d082-4b2a-8974-7d6589e85b70"},"vehicle_type_id":"4","last_reported":1730743959,"current_range_meters":32400,"station_id":"ce4bhc92rcd13ifvqetg","pricing_plan_id":"cebpf4jnsgd1na2vs0mg"},{"bike_id":"6c78a033-e104-48bc-bb54-3615bf76d1ad","system_id":"levelo_inurba_marseille","lat":43.25873,"lon":5.39899,"is_reserved":false,"is_disabled":false,"rental_uris":{"android":"levelo://app?vid=6c78a033-e104-48bc-bb54-3615bf76d1ad","ios":"levelo://app?vid=6c78a033-e104-48bc-bb54-3615bf76d1ad"},"vehicle_type_id":"4","last_reported":1730743959,"current_range_meters":4800,"station_id":"ce4bhl92rcd13ifvqghg","pricing_plan_id":"cebpf4jnsgd1na2vs0mg"},{"bike_id":"772f5a1a-0240-4436-8273-7fb69704d5fd","system_id":"levelo_inurba_marseille","lat":43.25088,"lon":5.39524,"is_reserved":false,"is_disabled":false,"rental_uris":{"android":"levelo://app?vid=772f5a1a-0240-4436-8273-7fb69704d5fd","ios":"levelo://app?vid=772f5a1a-0240-4436-8273-7fb69704d5fd"},"vehicle_type_id":"4","last_reported":1730743959,"current_range_meters":30800,"station_id":"ce4bhm12rcd13ifvqgkg","pricing_plan_id":"cebpf4jnsgd1na2vs0mg"},{"bike_id":"b402d15c-37c3-477a-898f-e03500cda6b3","system_id":"levelo_inurba_marseille","lat":43.31699,"lon":5.37746,"is_reserved":false,"is_disabled":false,"rental_uris":{"android":"levelo://app?vid=b402d15c-37c3-477a-898f-e03500cda6b3","ios":"levelo://app?vid=b402d15c-37c3-477a-898f-e03500cda6b3"},"vehicle_type_id":"4","last_reported":1730743959,"current_range_meters":38800,"station_id":"ce4bgth2rcd13ifvqch0","pricing_plan_id":"cebpf4jnsgd1na2vs0mg"},{"bike_id":"3e755cc9-9557-4735-93b8-9c7da166299c","system_id":"levelo_inurba_marseille","lat":43.30805,"lon":5.4352,"is_reserved":false,"is_disabled":false,"rental_uris":{"android":"levelo://app?vid=3e755cc9-9557-4735-93b8-9c7da166299c","ios":"levelo://app?vid=3e755cc9-9557-4735-93b8-9c7da166299c"},"vehicle_type_id":"4","last_reported":1730743959,"current_range_meters":16800,"station_id":"ce4bhph2rcd13ifvqheg","pricing_plan_id":"cebpf4jnsgd1na2vs0mg"},{"bike_id":"beeef4e4-0d45-4dfa-9ccc-aedb2ce31115","system_id":"levelo_inurba_marseille","lat":43.32109,"lon":5.36779,"is_reserved":false,"is_disabled":false,"rental_uris":{"android":"levelo://app?vid=beeef4e4-0d45-4dfa-9ccc-aedb2ce31115","ios":"levelo://app?vid=beeef4e4-0d45-4dfa-9ccc-aedb2ce31115"},"vehicle_type_id":"4","last_reported":1730743959,"current_range_meters":29600,"station_id":"ce4bhrh2rcd13ifvqhug","pricing_plan_id":"cebpf4jnsgd1na2vs0mg"},{"bike_id":"ed6d1e90-9c7c-45f5-ac89-f92a3b022924","system_id":"levelo_inurba_marseille","lat":43.29308,"lon":5.37178,"is_reserved":false,"is_disabled":false,"rental_uris":{"android":"levelo://app?vid=ed6d1e90-9c7c-45f5-ac89-f92a3b022924","ios":"levelo://app?vid=ed6d1e90-9c7c-45f5-ac89-f92a3b022924"},"vehicle_type_id":"4","last_reported":1730743959,"current_range_meters":9600,"station_id":"ce4bgh92rcd13ifvqb40","pricing_plan_id":"cebpf4jnsgd1na2vs0mg"},{"bike_id":"9b1531fb-8113-4032-83ff-8581ffb7f94d","system_id":"levelo_inurba_marseille","lat":43.32,"lon":5.38159,"is_reserved":false,"is_disabled":false,"rental_uris":{"android":"levelo://app?vid=9b1531fb-8113-4032-83ff-8581ffb7f94d","ios":"levelo://app?vid=9b1531fb-8113-4032-83ff-8581ffb7f94d"},"vehicle_type_id":"4","last_reported":1730743959,"current_range_meters":39200,"station_id":"ce4bhr12rcd13ifvqhpg","pricing_plan_id":"cebpf4jnsgd1na2vs0mg"},{"bike_id":"7622e7dd-8692-41f0-ac73-9d2d2c2fc77b","system_id":"levelo_inurba_marseille","lat":43.27819,"lon":5.40716,"is_reserved":false,"is_disabled":false,"rental_uris":{"android":"levelo://app?vid=7622e7dd-8692-41f0-ac73-9d2d2c2fc77b","ios":"levelo://app?vid=7622e7dd-8692-41f0-ac73-9d2d2c2fc77b"},"vehicle_type_id":"4","last_reported":1730743959,"current_range_meters":9200,"station_id":"ce4bhnh2rcd13ifvqgtg","pricing_plan_id":"cebpf4jnsgd1na2vs0mg"},{"bike_id":"e527f7a1-a232-496b-aa25-bb56119d43d2","system_id":"levelo_inurba_marseille","lat":43.30137,"lon":5.39863,"is_reserved":false,"is_disabled":false,"rental_uris":{"android":"levelo://app?vid=e527f7a1-a232-496b-aa25-bb56119d43d2","ios":"levelo://app?vid=e527f7a1-a232-496b-aa25-bb56119d43d2"},"vehicle_type_id":"4","last_reported":1730743959,"current_range_meters":26000,"station_id":"ce4bh0h2rcd13ifvqd40","pricing_plan_id":"cebpf4jnsgd1na2vs0mg"},{"bike_id":"71721fe2-35d7-41f2-9225-983e1943836f","system_id":"levelo_inurba_marseille","lat":43.33762,"lon":5.37461,"is_reserved":false,"is_disabled":false,"rental_uris":{"android":"levelo://app?vid=71721fe2-35d7-41f2-9225-983e1943836f","ios":"levelo://app?vid=71721fe2-35d7-41f2-9225-983e1943836f"},"vehicle_type_id":"4","last_reported":1730743959,"current_range_meters":38000,"station_id":"","pricing_plan_id":"cebpf4jnsgd1na2vs0mg"},{"bike_id":"de8deb44-5ba6-4cd3-b5fc-4eecbfe060ff","system_id":"levelo_inurba_marseille","lat":43.28618,"lon":5.38405,"is_reserved":false,"is_disabled":false,"rental_uris":{"android":"levelo://app?vid=de8deb44-5ba6-4cd3-b5fc-4eecbfe060ff","ios":"levelo://app?vid=de8deb44-5ba6-4cd3-b5fc-4eecbfe060ff"},"vehicle_type_id":"4","last_reported":1730743959,"current_range_meters":24800,"station_id":"ce4bgj92rcd13ifvqbd0","pricing_plan_id":"cebpf4jnsgd1na2vs0mg"},{"bike_id":"c0374e61-06cf-4331-bd99-04f58657e0ea","system_id":"levelo_inurba_marseille","lat":43.29864,"lon":5.39733,"is_reserved":false,"is_disabled":false,"rental_uris":{"android":"levelo://app?vid=c0374e61-06cf-4331-bd99-04f58657e0ea","ios":"levelo://app?vid=c0374e61-06cf-4331-bd99-04f58657e0ea"},"vehicle_type_id":"4","last_reported":1730743959,"current_range_meters":10000,"station_id":"ce4bh0h2rcd13ifvqd50","pricing_plan_id":"cebpf4jnsgd1na2vs0mg"},{"bike_id":"0120a8f6-faef-4052-9ad1-29eb4a5540d2","system_id":"levelo_inurba_marseille","lat":43.28436,"lon":5.39186,"is_reserved":false,"is_disabled":false,"rental_uris":{"android":"levelo://app?vid=0120a8f6-faef-4052-9ad1-29eb4a5540d2","ios":"levelo://app?vid=0120a8f6-faef-4052-9ad1-29eb4a5540d2"},"vehicle_type_id":"4","last_reported":1730743959,"current_range_meters":2000,"station_id":"ce4bhoh2rcd13ifvqh5g","pricing_plan_id":"cebpf4jnsgd1na2vs0mg"},{"bike_id":"697dd118-268c-406e-bad8-371dfe74ed47","system_id":"levelo_inurba_marseille","lat":43.31755,"lon":5.39015,"is_reserved":false,"is_disabled":false,"rental_uris":{"android":"levelo://app?vid=697dd118-268c-406e-bad8-371dfe74ed47","ios":"levelo://app?vid=697dd118-268c-406e-bad8-371dfe74ed47"},"vehicle_type_id":"4","last_reported":1730743959,"current_range_meters":37600,"station_id":"ce4bhqp2rcd13ifvqhng","pricing_plan_id":"cebpf4jnsgd1na2vs0mg"},{"bike_id":"ebfe2ec0-0ba6-4dc8-8aa6-6817b5670d11","system_id":"levelo_inurba_marseille","lat":43.29518,"lon":5.39028,"is_reserved":false,"is_disabled":false,"rental_uris":{"android":"levelo://app?vid=ebfe2ec0-0ba6-4dc8-8aa6-6817b5670d11","ios":"levelo://app?vid=ebfe2ec0-0ba6-4dc8-8aa6-6817b5670d11"},"vehicle_type_id":"4","last_reported":1730743959,"current_range_meters":24000,"station_id":"ce4bh3p2rcd13ifvqdp0","pricing_plan_id":"cebpf4jnsgd1na2vs0mg"},{"bike_id":"307e6e4b-f5aa-4346-a62f-e62b705a0fb2","system_id":"levelo_inurba_marseille","lat":43.28863,"lon":5.35855,"is_reserved":false,"is_disabled":false,"rental_uris":{"android":"levelo://app?vid=307e6e4b-f5aa-4346-a62f-e62b705a0fb2","ios":"levelo://app?vid=307e6e4b-f5aa-4346-a62f-e62b705a0fb2"},"vehicle_type_id":"4","last_reported":1730743959,"current_range_meters":7200,"station_id":"ce4bhb12rcd13ifvqem0","pricing_plan_id":"cebpf4jnsgd1na2vs0mg"},{"bike_id":"0c04ad83-3261-450e-829e-dc8f395383fd","system_id":"levelo_inurba_marseille","lat":43.29535,"lon":5.3854,"is_reserved":false,"is_disabled":false,"rental_uris":{"android":"levelo://app?vid=0c04ad83-3261-450e-829e-dc8f395383fd","ios":"levelo://app?vid=0c04ad83-3261-450e-829e-dc8f395383fd"},"vehicle_type_id":"4","last_reported":1730743959,"current_range_meters":38800,"station_id":"ce4bgih2rcd13ifvqba0","pricing_plan_id":"cebpf4jnsgd1na2vs0mg"},{"bike_id":"adbf1c9d-1e72-47c0-a82a-43a8b899a8b3","system_id":"levelo_inurba_marseille","lat":43.27816,"lon":5.40715,"is_reserved":false,"is_disabled":false,"rental_uris":{"android":"levelo://app?vid=adbf1c9d-1e72-47c0-a82a-43a8b899a8b3","ios":"levelo://app?vid=adbf1c9d-1e72-47c0-a82a-43a8b899a8b3"},"vehicle_type_id":"4","last_reported":1730743959,"current_range_meters":9200,"station_id":"ce4bhnh2rcd13ifvqgtg","pricing_plan_id":"cebpf4jnsgd1na2vs0mg"},{"bike_id":"b2050f86-a438-40b7-96ea-edefd8ec3cbd","system_id":"levelo_inurba_marseille","lat":43.31326,"lon":5.39695,"is_reserved":false,"is_disabled":false,"rental_uris":{"android":"levelo://app?vid=b2050f86-a438-40b7-96ea-edefd8ec3cbd","ios":"levelo://app?vid=b2050f86-a438-40b7-96ea-edefd8ec3cbd"},"vehicle_type_id":"4","last_reported":1730743959,"current_range_meters":24000,"station_id":"ce4bgvp2rcd13ifvqcu0","pricing_plan_id":"cebpf4jnsgd1na2vs0mg"},{"bike_id":"7580d83e-3d7c-46be-82b1-25f013a114af","system_id":"levelo_inurba_marseille","lat":43.31068,"lon":5.40091,"is_reserved":false,"is_disabled":false,"rental_uris":{"android":"levelo://app?vid=7580d83e-3d7c-46be-82b1-25f013a114af","ios":"levelo://app?vid=7580d83e-3d7c-46be-82b1-25f013a114af"},"vehicle_type_id":"4","last_reported":1730743959,"current_range_meters":20800,"station_id":"","pricing_plan_id":"cebpf4jnsgd1na2vs0mg"},{"bike_id":"dc11fb10-7966-4c34-a425-c94a472bc4a8","system_id":"levelo_inurba_marseille","lat":43.28002,"lon":5.4002,"is_reserved":false,"is_disabled":false,"rental_uris":{"android":"levelo://app?vid=dc11fb10-7966-4c34-a425-c94a472bc4a8","ios":"levelo://app?vid=dc11fb10-7966-4c34-a425-c94a472bc4a8"},"vehicle_type_id":"4","last_reported":1730743959,"current_range_meters":24400,"station_id":"ce4bho92rcd13ifvqh4g","pricing_plan_id":"cebpf4jnsgd1na2vs0mg"},{"bike_id":"ba04515b-2530-4f99-bfe4-78243134c10b","system_id":"levelo_inurba_marseille","lat":43.280579,"lon":5.409851,"is_reserved":false,"is_disabled":false,"rental_uris":{"android":"levelo://app?vid=ba04515b-2530-4f99-bfe4-78243134c10b","ios":"levelo://app?vid=ba04515b-2530-4f99-bfe4-78243134c10b"},"vehicle_type_id":"4","last_reported":1730743959,"current_range_meters":36000,"station_id":"","pricing_plan_id":"cebpf4jnsgd1na2vs0mg"},{"bike_id":"212bab47-8091-43b5-83ec-0b3059219e7e","system_id":"levelo_inurba_marseille","lat":43.31328,"lon":5.39696,"is_reserved":false,"is_disabled":false,"rental_uris":{"android":"levelo://app?vid=212bab47-8091-43b5-83ec-0b3059219e7e","ios":"levelo://app?vid=212bab47-8091-43b5-83ec-0b3059219e7e"},"vehicle_type_id":"4","last_reported":1730743959,"current_range_meters":24000,"station_id":"ce4bgvp2rcd13ifvqcu0","pricing_plan_id":"cebpf4jnsgd1na2vs0mg"},{"bike_id":"e3f461fe-075e-4e98-a7a3-17d36c085091","system_id":"levelo_inurba_marseille","lat":43.24388,"lon":5.37058,"is_reserved":false,"is_disabled":false,"rental_uris":{"android":"levelo://app?vid=e3f461fe-075e-4e98-a7a3-17d36c085091","ios":"levelo://app?vid=e3f461fe-075e-4e98-a7a3-17d36c085091"},"vehicle_type_id":"4","last_reported":1730743959,"current_range_meters":24000,"station_id":"ce4bhhh2rcd13ifvqfk0","pricing_plan_id":"cebpf4jnsgd1na2vs0mg"},{"bike_id":"819340a6-562b-46a4-9301-df7b52968f6c","system_id":"levelo_inurba_marseille","lat":43.25121,"lon":5.40322,"is_reserved":false,"is_disabled":false,"rental_uris":{"android":"levelo://app?vid=819340a6-562b-46a4-9301-df7b52968f6c","ios":"levelo://app?vid=819340a6-562b-46a4-9301-df7b52968f6c"},"vehicle_type_id":"4","last_reported":1730743959,"current_range_meters":9600,"station_id":"ce4bhlh2rcd13ifvqgig","pricing_plan_id":"cebpf4jnsgd1na2vs0mg"},{"bike_id":"19a64943-9e9b-40eb-8cf1-301176031f63","system_id":"levelo_inurba_marseille","lat":43.30333,"lon":5.40444,"is_reserved":false,"is_disabled":false,"rental_uris":{"android":"levelo://app?vid=19a64943-9e9b-40eb-8cf1-301176031f63","ios":"levelo://app?vid=19a64943-9e9b-40eb-8cf1-301176031f63"},"vehicle_type_id":"4","last_reported":1730743959,"current_range_meters":38800,"station_id":"ce4bh012rcd13ifvqd10","pricing_plan_id":"cebpf4jnsgd1na2vs0mg"},{"bike_id":"2c5f81eb-a71c-4408-9049-cf3d5efcb85b","system_id":"levelo_inurba_marseille","lat":43.29265,"lon":5.38441,"is_reserved":false,"is_disabled":false,"rental_uris":{"android":"levelo://app?vid=2c5f81eb-a71c-4408-9049-cf3d5efcb85b","ios":"levelo://app?vid=2c5f81eb-a71c-4408-9049-cf3d5efcb85b"},"vehicle_type_id":"4","last_reported":1730743959,"current_range_meters":13600,"station_id":"ce4bh692rcd13ifvqea0","pricing_plan_id":"cebpf4jnsgd1na2vs0mg"},{"bike_id":"e692e67e-9843-43fc-9906-1b2dbc22b648","system_id":"levelo_inurba_marseille","lat":43.2558,"lon":5.38234,"is_reserved":false,"is_disabled":false,"rental_uris":{"android":"levelo://app?vid=e692e67e-9843-43fc-9906-1b2dbc22b648","ios":"levelo://app?vid=e692e67e-9843-43fc-9906-1b2dbc22b648"},"vehicle_type_id":"4","last_reported":1730743959,"current_range_meters":38800,"station_id":"ce4bhih2rcd13ifvqfs0","pricing_plan_id":"cebpf4jnsgd1na2vs0mg"},{"bike_id":"d844a569-2803-4908-ac9c-866a60aea8c4","system_id":"levelo_inurba_marseille","lat":43.29865,"lon":5.39734,"is_reserved":false,"is_disabled":false,"rental_uris":{"android":"levelo://app?vid=d844a569-2803-4908-ac9c-866a60aea8c4","ios":"levelo://app?vid=d844a569-2803-4908-ac9c-866a60aea8c4"},"vehicle_type_id":"4","last_reported":1730743959,"current_range_meters":38800,"station_id":"ce4bh0h2rcd13ifvqd50","pricing_plan_id":"cebpf4jnsgd1na2vs0mg"},{"bike_id":"32226b21-dbcc-474c-9004-398b3fdc8208","system_id":"levelo_inurba_marseille","lat":43.28464,"lon":5.35874,"is_reserved":false,"is_disabled":false,"rental_uris":{"android":"levelo://app?vid=32226b21-dbcc-474c-9004-398b3fdc8208","ios":"levelo://app?vid=32226b21-dbcc-474c-9004-398b3fdc8208"},"vehicle_type_id":"4","last_reported":1730743959,"current_range_meters":24000,"station_id":"ce4bhah2rcd13ifvqei0","pricing_plan_id":"cebpf4jnsgd1na2vs0mg"},{"bike_id":"c1c5690c-78f0-4e18-8422-28638a6bd7a7","system_id":"levelo_inurba_marseille","lat":43.31118,"lon":5.37758,"is_reserved":false,"is_disabled":false,"rental_uris":{"android":"levelo://app?vid=c1c5690c-78f0-4e18-8422-28638a6bd7a7","ios":"levelo://app?vid=c1c5690c-78f0-4e18-8422-28638a6bd7a7"},"vehicle_type_id":"4","last_reported":1730743959,"current_range_meters":30800,"station_id":"ce4bgt92rcd13ifvqcg0","pricing_plan_id":"cebpf4jnsgd1na2vs0mg"},{"bike_id":"823967de-5ba0-4689-8bf8-641b466fd8b1","system_id":"levelo_inurba_marseille","lat":43.23196,"lon":5.3556,"is_reserved":false,"is_disabled":false,"rental_uris":{"android":"levelo://app?vid=823967de-5ba0-4689-8bf8-641b466fd8b1","ios":"levelo://app?vid=823967de-5ba0-4689-8bf8-641b466fd8b1"},"vehicle_type_id":"4","last_reported":1730743959,"current_range_meters":37600,"station_id":"ce4bhu92rcd13ifvqi70","pricing_plan_id":"cebpf4jnsgd1na2vs0mg"},{"bike_id":"c33044b0-6d3a-44c6-a25f-0a461ef0e3a6","system_id":"levelo_inurba_marseille","lat":43.31117,"lon":5.37763,"is_reserved":false,"is_disabled":false,"rental_uris":{"android":"levelo://app?vid=c33044b0-6d3a-44c6-a25f-0a461ef0e3a6","ios":"levelo://app?vid=c33044b0-6d3a-44c6-a25f-0a461ef0e3a6"},"vehicle_type_id":"4","last_reported":1730743959,"current_range_meters":31200,"station_id":"ce4bgt92rcd13ifvqcg0","pricing_plan_id":"cebpf4jnsgd1na2vs0mg"},{"bike_id":"0f713d1f-3a0b-4789-8a00-c8ad7e99173e","system_id":"levelo_inurba_marseille","lat":43.2694,"lon":5.40246,"is_reserved":false,"is_disabled":false,"rental_uris":{"android":"levelo://app?vid=0f713d1f-3a0b-4789-8a00-c8ad7e99173e","ios":"levelo://app?vid=0f713d1f-3a0b-4789-8a00-c8ad7e99173e"},"vehicle_type_id":"4","last_reported":1730743959,"current_range_meters":3600,"station_id":"cjm6bp8fraef2m0cb0m0","pricing_plan_id":"cebpf4jnsgd1na2vs0mg"},{"bike_id":"371ed9b9-117f-4304-a294-be3251d3642c","system_id":"levelo_inurba_marseille","lat":43.31756,"lon":5.39016,"is_reserved":false,"is_disabled":false,"rental_uris":{"android":"levelo://app?vid=371ed9b9-117f-4304-a294-be3251d3642c","ios":"levelo://app?vid=371ed9b9-117f-4304-a294-be3251d3642c"},"vehicle_type_id":"4","last_reported":1730743959,"current_range_meters":30000,"station_id":"ce4bhqp2rcd13ifvqhng","pricing_plan_id":"cebpf4jnsgd1na2vs0mg"},{"bike_id":"dbcbbd02-a6cd-4967-9038-e3b355b4447b","system_id":"levelo_inurba_marseille","lat":43.29421,"lon":5.38625,"is_reserved":false,"is_disabled":false,"rental_uris":{"android":"levelo://app?vid=dbcbbd02-a6cd-4967-9038-e3b355b4447b","ios":"levelo://app?vid=dbcbbd02-a6cd-4967-9038-e3b355b4447b"},"vehicle_type_id":"4","last_reported":1730743959,"current_range_meters":26800,"station_id":"ce4bh2h2rcd13ifvqdh0","pricing_plan_id":"cebpf4jnsgd1na2vs0mg"},{"bike_id":"b97d231f-b06d-444f-93ba-90193ccee906","system_id":"levelo_inurba_marseille","lat":43.25083,"lon":5.39525,"is_reserved":false,"is_disabled":false,"rental_uris":{"android":"levelo://app?vid=b97d231f-b06d-444f-93ba-90193ccee906","ios":"levelo://app?vid=b97d231f-b06d-444f-93ba-90193ccee906"},"vehicle_type_id":"4","last_reported":1730743959,"current_range_meters":28800,"station_id":"ce4bhm12rcd13ifvqgkg","pricing_plan_id":"cebpf4jnsgd1na2vs0mg"},{"bike_id":"ed3cc475-9352-4500-9e2a-f8144dc4b6f1","system_id":"levelo_inurba_marseille","lat":43.33018,"lon":5.39047,"is_reserved":false,"is_disabled":false,"rental_uris":{"android":"levelo://app?vid=ed3cc475-9352-4500-9e2a-f8144dc4b6f1","ios":"levelo://app?vid=ed3cc475-9352-4500-9e2a-f8144dc4b6f1"},"vehicle_type_id":"4","last_reported":1730743959,"current_range_meters":40000,"station_id":"ce4bhr92rcd13ifvqhrg","pricing_plan_id":"cebpf4jnsgd1na2vs0mg"},{"bike_id":"70564515-7b78-4a47-885c-ce95b9b32f7b","system_id":"levelo_inurba_marseille","lat":43.2307,"lon":5.35491,"is_reserved":false,"is_disabled":false,"rental_uris":{"android":"levelo://app?vid=70564515-7b78-4a47-885c-ce95b9b32f7b","ios":"levelo://app?vid=70564515-7b78-4a47-885c-ce95b9b32f7b"},"vehicle_type_id":"4","last_reported":1730743959,"current_range_meters":34800,"station_id":"cpo3342slgdg3j2ifvpg","pricing_plan_id":"cebpf4jnsgd1na2vs0mg"},{"bike_id":"cf7bc6ec-a8fc-4388-884a-93de75194132","system_id":"levelo_inurba_marseille","lat":43.27816,"lon":5.40716,"is_reserved":false,"is_disabled":false,"rental_uris":{"android":"levelo://app?vid=cf7bc6ec-a8fc-4388-884a-93de75194132","ios":"levelo://app?vid=cf7bc6ec-a8fc-4388-884a-93de75194132"},"vehicle_type_id":"4","last_reported":1730743959,"current_range_meters":3600,"station_id":"ce4bhnh2rcd13ifvqgtg","pricing_plan_id":"cebpf4jnsgd1na2vs0mg"},{"bike_id":"7a58136c-3165-4313-8fac-2c364b399752","system_id":"levelo_inurba_marseille","lat":43.3372,"lon":5.39181,"is_reserved":false,"is_disabled":false,"rental_uris":{"android":"levelo://app?vid=7a58136c-3165-4313-8fac-2c364b399752","ios":"levelo://app?vid=7a58136c-3165-4313-8fac-2c364b399752"},"vehicle_type_id":"4","last_reported":1730743959,"current_range_meters":27600,"station_id":"ce4bhr92rcd13ifvqhsg","pricing_plan_id":"cebpf4jnsgd1na2vs0mg"},{"bike_id":"4d2e3434-049c-4fd3-8cf0-1e6385a7c29f","system_id":"levelo_inurba_marseille","lat":43.30132,"lon":5.39855,"is_reserved":false,"is_disabled":false,"rental_uris":{"android":"levelo://app?vid=4d2e3434-049c-4fd3-8cf0-1e6385a7c29f","ios":"levelo://app?vid=4d2e3434-049c-4fd3-8cf0-1e6385a7c29f"},"vehicle_type_id":"4","last_reported":1730743959,"current_range_meters":38000,"station_id":"ce4bh0h2rcd13ifvqd40","pricing_plan_id":"cebpf4jnsgd1na2vs0mg"},{"bike_id":"410c909d-542a-44d9-8f26-dc346b3a4c10","system_id":"levelo_inurba_marseille","lat":43.31402,"lon":5.36796,"is_reserved":false,"is_disabled":false,"rental_uris":{"android":"levelo://app?vid=410c909d-542a-44d9-8f26-dc346b3a4c10","ios":"levelo://app?vid=410c909d-542a-44d9-8f26-dc346b3a4c10"},"vehicle_type_id":"4","last_reported":1730743959,"current_range_meters":28800,"station_id":"","pricing_plan_id":"cebpf4jnsgd1na2vs0mg"},{"bike_id":"d53b57e5-6868-433d-b990-24fcbe41bcf1","system_id":"levelo_inurba_marseille","lat":43.27555,"lon":5.38428,"is_reserved":false,"is_disabled":false,"rental_uris":{"android":"levelo://app?vid=d53b57e5-6868-433d-b990-24fcbe41bcf1","ios":"levelo://app?vid=d53b57e5-6868-433d-b990-24fcbe41bcf1"},"vehicle_type_id":"4","last_reported":1730743959,"current_range_meters":10800,"station_id":"ce4bhh92rcd13ifvqfi0","pricing_plan_id":"cebpf4jnsgd1na2vs0mg"},{"bike_id":"70b31ea4-cd1c-4b4d-b6ca-7823b5965417","system_id":"levelo_inurba_marseille","lat":43.292636,"lon":5.384316,"is_reserved":false,"is_disabled":false,"rental_uris":{"android":"levelo://app?vid=70b31ea4-cd1c-4b4d-b6ca-7823b5965417","ios":"levelo://app?vid=70b31ea4-cd1c-4b4d-b6ca-7823b5965417"},"vehicle_type_id":"4","last_reported":1730743959,"current_range_meters":14000,"station_id":"ce4bhc92rcd13ifvqetg","pricing_plan_id":"cebpf4jnsgd1na2vs0mg"},{"bike_id":"e2899662-72c3-41b8-8d7d-36f52aadd58c","system_id":"levelo_inurba_marseille","lat":43.24945,"lon":5.40446,"is_reserved":false,"is_disabled":false,"rental_uris":{"android":"levelo://app?vid=e2899662-72c3-41b8-8d7d-36f52aadd58c","ios":"levelo://app?vid=e2899662-72c3-41b8-8d7d-36f52aadd58c"},"vehicle_type_id":"4","last_reported":1730743959,"current_range_meters":26000,"station_id":"ce4bhmp2rcd13ifvqgog","pricing_plan_id":"cebpf4jnsgd1na2vs0mg"},{"bike_id":"5fc7697d-503e-4786-89d0-c5a0408a66b0","system_id":"levelo_inurba_marseille","lat":43.32107,"lon":5.36771,"is_reserved":false,"is_disabled":false,"rental_uris":{"android":"levelo://app?vid=5fc7697d-503e-4786-89d0-c5a0408a66b0","ios":"levelo://app?vid=5fc7697d-503e-4786-89d0-c5a0408a66b0"},"vehicle_type_id":"4","last_reported":1730743959,"current_range_meters":8400,"station_id":"ce4bhrh2rcd13ifvqhug","pricing_plan_id":"cebpf4jnsgd1na2vs0mg"},{"bike_id":"11631e5a-25f5-4552-899d-dc0c452dab65","system_id":"levelo_inurba_marseille","lat":43.32365,"lon":5.38886,"is_reserved":false,"is_disabled":false,"rental_uris":{"android":"levelo://app?vid=11631e5a-25f5-4552-899d-dc0c452dab65","ios":"levelo://app?vid=11631e5a-25f5-4552-899d-dc0c452dab65"},"vehicle_type_id":"4","last_reported":1730743959,"current_range_meters":38400,"station_id":"ce4bhqp2rcd13ifvqhog","pricing_plan_id":"cebpf4jnsgd1na2vs0mg"},{"bike_id":"6b22af91-f7aa-4ef6-98e8-ff81a3411457","system_id":"levelo_inurba_marseille","lat":43.32109,"lon":5.36775,"is_reserved":false,"is_disabled":false,"rental_uris":{"android":"levelo://app?vid=6b22af91-f7aa-4ef6-98e8-ff81a3411457","ios":"levelo://app?vid=6b22af91-f7aa-4ef6-98e8-ff81a3411457"},"vehicle_type_id":"4","last_reported":1730743959,"current_range_meters":36000,"station_id":"ce4bhrh2rcd13ifvqhug","pricing_plan_id":"cebpf4jnsgd1na2vs0mg"},{"bike_id":"5762f725-012c-4892-828f-a87d07780ac7","system_id":"levelo_inurba_marseille","lat":43.324822,"lon":5.365659,"is_reserved":false,"is_disabled":false,"rental_uris":{"android":"levelo://app?vid=5762f725-012c-4892-828f-a87d07780ac7","ios":"levelo://app?vid=5762f725-012c-4892-828f-a87d07780ac7"},"vehicle_type_id":"4","last_reported":1730743959,"current_range_meters":27200,"station_id":"ce4bguh2rcd13ifvqckg","pricing_plan_id":"cebpf4jnsgd1na2vs0mg"},{"bike_id":"d4bab125-dff3-441a-9ea7-96381412b027","system_id":"levelo_inurba_marseille","lat":43.29365,"lon":5.37847,"is_reserved":false,"is_disabled":false,"rental_uris":{"android":"levelo://app?vid=d4bab125-dff3-441a-9ea7-96381412b027","ios":"levelo://app?vid=d4bab125-dff3-441a-9ea7-96381412b027"},"vehicle_type_id":"4","last_reported":1730743959,"current_range_meters":12800,"station_id":"ce4bgjh2rcd13ifvqbf0","pricing_plan_id":"cebpf4jnsgd1na2vs0mg"},{"bike_id":"fb6ee7aa-41e0-4419-a612-12d74e72bc11","system_id":"levelo_inurba_marseille","lat":43.31121,"lon":5.37765,"is_reserved":false,"is_disabled":false,"rental_uris":{"android":"levelo://app?vid=fb6ee7aa-41e0-4419-a612-12d74e72bc11","ios":"levelo://app?vid=fb6ee7aa-41e0-4419-a612-12d74e72bc11"},"vehicle_type_id":"4","last_reported":1730743959,"current_range_meters":7200,"station_id":"ce4bgt92rcd13ifvqcg0","pricing_plan_id":"cebpf4jnsgd1na2vs0mg"},{"bike_id":"863fe607-56d5-473f-8fe9-906695997619","system_id":"levelo_inurba_marseille","lat":43.25087,"lon":5.39524,"is_reserved":false,"is_disabled":false,"rental_uris":{"android":"levelo://app?vid=863fe607-56d5-473f-8fe9-906695997619","ios":"levelo://app?vid=863fe607-56d5-473f-8fe9-906695997619"},"vehicle_type_id":"4","last_reported":1730743959,"current_range_meters":6800,"station_id":"ce4bhm12rcd13ifvqgkg","pricing_plan_id":"cebpf4jnsgd1na2vs0mg"},{"bike_id":"eeb6fa2a-003b-4e78-b5b2-99abb33a724d","system_id":"levelo_inurba_marseille","lat":43.2957,"lon":5.39983,"is_reserved":false,"is_disabled":false,"rental_uris":{"android":"levelo://app?vid=eeb6fa2a-003b-4e78-b5b2-99abb33a724d","ios":"levelo://app?vid=eeb6fa2a-003b-4e78-b5b2-99abb33a724d"},"vehicle_type_id":"4","last_reported":1730743959,"current_range_meters":5600,"station_id":"ce4bh312rcd13ifvqdj0","pricing_plan_id":"cebpf4jnsgd1na2vs0mg"},{"bike_id":"ce8e5906-0d4f-4085-a6e2-c7f244080cc6","system_id":"levelo_inurba_marseille","lat":43.32289,"lon":5.38281,"is_reserved":false,"is_disabled":false,"rental_uris":{"android":"levelo://app?vid=ce8e5906-0d4f-4085-a6e2-c7f244080cc6","ios":"levelo://app?vid=ce8e5906-0d4f-4085-a6e2-c7f244080cc6"},"vehicle_type_id":"4","last_reported":1730743959,"current_range_meters":26800,"station_id":"ce4bhr12rcd13ifvqhqg","pricing_plan_id":"cebpf4jnsgd1na2vs0mg"},{"bike_id":"8fc8c270-09a4-4f6d-9c2e-24493e92605a","system_id":"levelo_inurba_marseille","lat":43.2857,"lon":5.3949,"is_reserved":false,"is_disabled":false,"rental_uris":{"android":"levelo://app?vid=8fc8c270-09a4-4f6d-9c2e-24493e92605a","ios":"levelo://app?vid=8fc8c270-09a4-4f6d-9c2e-24493e92605a"},"vehicle_type_id":"4","last_reported":1730743959,"current_range_meters":37600,"station_id":"ce4bh292rcd13ifvqdg0","pricing_plan_id":"cebpf4jnsgd1na2vs0mg"},{"bike_id":"c29f1e6e-4af2-41ad-8ed1-5ce19a3d0ec9","system_id":"levelo_inurba_marseille","lat":43.30316,"lon":5.36887,"is_reserved":false,"is_disabled":false,"rental_uris":{"android":"levelo://app?vid=c29f1e6e-4af2-41ad-8ed1-5ce19a3d0ec9","ios":"levelo://app?vid=c29f1e6e-4af2-41ad-8ed1-5ce19a3d0ec9"},"vehicle_type_id":"4","last_reported":1730743959,"current_range_meters":0,"station_id":"ce4bgqh2rcd13ifvqc5g","pricing_plan_id":"cebpf4jnsgd1na2vs0mg"},{"bike_id":"6db0df53-e51c-44c4-b87e-fc6acdf253e2","system_id":"levelo_inurba_marseille","lat":43.2681,"lon":5.40271,"is_reserved":false,"is_disabled":false,"rental_uris":{"android":"levelo://app?vid=6db0df53-e51c-44c4-b87e-fc6acdf253e2","ios":"levelo://app?vid=6db0df53-e51c-44c4-b87e-fc6acdf253e2"},"vehicle_type_id":"4","last_reported":1730743959,"current_range_meters":39200,"station_id":"ce501612rcd8frsf0b60","pricing_plan_id":"cebpf4jnsgd1na2vs0mg"},{"bike_id":"06e8bb9d-2eeb-43df-bc6e-d41b3f32260c","system_id":"levelo_inurba_marseille","lat":43.29414,"lon":5.38626,"is_reserved":false,"is_disabled":false,"rental_uris":{"android":"levelo://app?vid=06e8bb9d-2eeb-43df-bc6e-d41b3f32260c","ios":"levelo://app?vid=06e8bb9d-2eeb-43df-bc6e-d41b3f32260c"},"vehicle_type_id":"4","last_reported":1730743959,"current_range_meters":9600,"station_id":"ce4bh2h2rcd13ifvqdh0","pricing_plan_id":"cebpf4jnsgd1na2vs0mg"},{"bike_id":"548288c9-d7e3-40e7-86f2-a8cbeae38166","system_id":"levelo_inurba_marseille","lat":43.27096,"lon":5.39888,"is_reserved":false,"is_disabled":false,"rental_uris":{"android":"levelo://app?vid=548288c9-d7e3-40e7-86f2-a8cbeae38166","ios":"levelo://app?vid=548288c9-d7e3-40e7-86f2-a8cbeae38166"},"vehicle_type_id":"4","last_reported":1730743959,"current_range_meters":25200,"station_id":"cjm6bp8fraef2m0cb0m0","pricing_plan_id":"cebpf4jnsgd1na2vs0mg"},{"bike_id":"3741adea-47a5-4887-bda2-228e2fbe6773","system_id":"levelo_inurba_marseille","lat":43.30274,"lon":5.37704,"is_reserved":false,"is_disabled":false,"rental_uris":{"android":"levelo://app?vid=3741adea-47a5-4887-bda2-228e2fbe6773","ios":"levelo://app?vid=3741adea-47a5-4887-bda2-228e2fbe6773"},"vehicle_type_id":"4","last_reported":1730743959,"current_range_meters":32800,"station_id":"ce4bguh2rcd13ifvqcj0","pricing_plan_id":"cebpf4jnsgd1na2vs0mg"},{"bike_id":"472d1ab6-f239-4aa3-8fef-63b72274bc3b","system_id":"levelo_inurba_marseille","lat":43.29876,"lon":5.38905,"is_reserved":false,"is_disabled":false,"rental_uris":{"android":"levelo://app?vid=472d1ab6-f239-4aa3-8fef-63b72274bc3b","ios":"levelo://app?vid=472d1ab6-f239-4aa3-8fef-63b72274bc3b"},"vehicle_type_id":"4","last_reported":1730743959,"current_range_meters":25600,"station_id":"ce4bh392rcd13ifvqdl0","pricing_plan_id":"cebpf4jnsgd1na2vs0mg"},{"bike_id":"f9b4fd6f-2abf-4711-9ccb-be51073e0f39","system_id":"levelo_inurba_marseille","lat":43.27953,"lon":5.41048,"is_reserved":false,"is_disabled":false,"rental_uris":{"android":"levelo://app?vid=f9b4fd6f-2abf-4711-9ccb-be51073e0f39","ios":"levelo://app?vid=f9b4fd6f-2abf-4711-9ccb-be51073e0f39"},"vehicle_type_id":"4","last_reported":1730743959,"current_range_meters":8000,"station_id":"ce4bhnp2rcd13ifvqh0g","pricing_plan_id":"cebpf4jnsgd1na2vs0mg"},{"bike_id":"5aff149a-f3d0-4758-a415-e64f0f08fded","system_id":"levelo_inurba_marseille","lat":43.30128,"lon":5.39866,"is_reserved":false,"is_disabled":false,"rental_uris":{"android":"levelo://app?vid=5aff149a-f3d0-4758-a415-e64f0f08fded","ios":"levelo://app?vid=5aff149a-f3d0-4758-a415-e64f0f08fded"},"vehicle_type_id":"4","last_reported":1730743959,"current_range_meters":14800,"station_id":"ce4bh0h2rcd13ifvqd40","pricing_plan_id":"cebpf4jnsgd1na2vs0mg"},{"bike_id":"b7715ad2-c110-4363-8267-6022f97336ab","system_id":"levelo_inurba_marseille","lat":43.23966,"lon":5.36635,"is_reserved":false,"is_disabled":false,"rental_uris":{"android":"levelo://app?vid=b7715ad2-c110-4363-8267-6022f97336ab","ios":"levelo://app?vid=b7715ad2-c110-4363-8267-6022f97336ab"},"vehicle_type_id":"4","last_reported":1730743959,"current_range_meters":14400,"station_id":"ce4bhi12rcd13ifvqfp0","pricing_plan_id":"cebpf4jnsgd1na2vs0mg"},{"bike_id":"ee6b4f46-71de-4acf-bd73-d6964878b130","system_id":"levelo_inurba_marseille","lat":43.27175,"lon":5.40992,"is_reserved":false,"is_disabled":false,"rental_uris":{"android":"levelo://app?vid=ee6b4f46-71de-4acf-bd73-d6964878b130","ios":"levelo://app?vid=ee6b4f46-71de-4acf-bd73-d6964878b130"},"vehicle_type_id":"4","last_reported":1730743959,"current_range_meters":6800,"station_id":"ce4bhl12rcd13ifvqgf0","pricing_plan_id":"cebpf4jnsgd1na2vs0mg"},{"bike_id":"c4c0de2f-a87e-415a-bc12-145e90238b59","system_id":"levelo_inurba_marseille","lat":43.27946,"lon":5.41049,"is_reserved":false,"is_disabled":false,"rental_uris":{"android":"levelo://app?vid=c4c0de2f-a87e-415a-bc12-145e90238b59","ios":"levelo://app?vid=c4c0de2f-a87e-415a-bc12-145e90238b59"},"vehicle_type_id":"4","last_reported":1730743959,"current_range_meters":10000,"station_id":"ce4bhnp2rcd13ifvqh0g","pricing_plan_id":"cebpf4jnsgd1na2vs0mg"},{"bike_id":"f2181401-da13-4dce-b8fc-9e6a7966e5e5","system_id":"levelo_inurba_marseille","lat":43.28706,"lon":5.39988,"is_reserved":false,"is_disabled":false,"rental_uris":{"android":"levelo://app?vid=f2181401-da13-4dce-b8fc-9e6a7966e5e5","ios":"levelo://app?vid=f2181401-da13-4dce-b8fc-9e6a7966e5e5"},"vehicle_type_id":"4","last_reported":1730743959,"current_range_meters":36800,"station_id":"ce4bho92rcd13ifvqh3g","pricing_plan_id":"cebpf4jnsgd1na2vs0mg"},{"bike_id":"0d163248-55b8-4db5-9db4-faf67858e7c5","system_id":"levelo_inurba_marseille","lat":43.292987,"lon":5.37472,"is_reserved":false,"is_disabled":false,"rental_uris":{"android":"levelo://app?vid=0d163248-55b8-4db5-9db4-faf67858e7c5","ios":"levelo://app?vid=0d163248-55b8-4db5-9db4-faf67858e7c5"},"vehicle_type_id":"4","last_reported":1730743959,"current_range_meters":37600,"station_id":"ce4bgi12rcd13ifvqb70","pricing_plan_id":"cebpf4jnsgd1na2vs0mg"},{"bike_id":"29f681b5-c5da-48c5-9970-08b3f9bca177","system_id":"levelo_inurba_marseille","lat":43.32336,"lon":5.40622,"is_reserved":false,"is_disabled":false,"rental_uris":{"android":"levelo://app?vid=29f681b5-c5da-48c5-9970-08b3f9bca177","ios":"levelo://app?vid=29f681b5-c5da-48c5-9970-08b3f9bca177"},"vehicle_type_id":"4","last_reported":1730743959,"current_range_meters":11200,"station_id":"ce4bhq92rcd13ifvqhjg","pricing_plan_id":"cebpf4jnsgd1na2vs0mg"},{"bike_id":"8f6ae032-9bce-4fab-b9c5-8174447ce3ce","system_id":"levelo_inurba_marseille","lat":43.29522,"lon":5.39035,"is_reserved":false,"is_disabled":false,"rental_uris":{"android":"levelo://app?vid=8f6ae032-9bce-4fab-b9c5-8174447ce3ce","ios":"levelo://app?vid=8f6ae032-9bce-4fab-b9c5-8174447ce3ce"},"vehicle_type_id":"4","last_reported":1730743959,"current_range_meters":32400,"station_id":"ce4bh3p2rcd13ifvqdp0","pricing_plan_id":"cebpf4jnsgd1na2vs0mg"},{"bike_id":"07752058-de18-45fb-9532-037f072df478","system_id":"levelo_inurba_marseille","lat":43.29268,"lon":5.38438,"is_reserved":false,"is_disabled":false,"rental_uris":{"android":"levelo://app?vid=07752058-de18-45fb-9532-037f072df478","ios":"levelo://app?vid=07752058-de18-45fb-9532-037f072df478"},"vehicle_type_id":"4","last_reported":1730743959,"current_range_meters":8400,"station_id":"ce4bh692rcd13ifvqea0","pricing_plan_id":"cebpf4jnsgd1na2vs0mg"},{"bike_id":"888d7c20-b463-46eb-b029-e6a3fec43c8f","system_id":"levelo_inurba_marseille","lat":43.29416,"lon":5.38633,"is_reserved":false,"is_disabled":false,"rental_uris":{"android":"levelo://app?vid=888d7c20-b463-46eb-b029-e6a3fec43c8f","ios":"levelo://app?vid=888d7c20-b463-46eb-b029-e6a3fec43c8f"},"vehicle_type_id":"4","last_reported":1730743959,"current_range_meters":22000,"station_id":"ce4bh2h2rcd13ifvqdh0","pricing_plan_id":"cebpf4jnsgd1na2vs0mg"},{"bike_id":"b7b7ae12-8413-4b30-9970-0736a683038d","system_id":"levelo_inurba_marseille","lat":43.28407,"lon":5.37526,"is_reserved":false,"is_disabled":false,"rental_uris":{"android":"levelo://app?vid=b7b7ae12-8413-4b30-9970-0736a683038d","ios":"levelo://app?vid=b7b7ae12-8413-4b30-9970-0736a683038d"},"vehicle_type_id":"4","last_reported":1730743959,"current_range_meters":18800,"station_id":"ce4bh412rcd13ifvqds0","pricing_plan_id":"cebpf4jnsgd1na2vs0mg"},{"bike_id":"cc164c79-47b7-41a2-8ddf-f6e1442291cb","system_id":"levelo_inurba_marseille","lat":43.27815,"lon":5.40715,"is_reserved":false,"is_disabled":false,"rental_uris":{"android":"levelo://app?vid=cc164c79-47b7-41a2-8ddf-f6e1442291cb","ios":"levelo://app?vid=cc164c79-47b7-41a2-8ddf-f6e1442291cb"},"vehicle_type_id":"4","last_reported":1730743959,"current_range_meters":27200,"station_id":"ce4bhnh2rcd13ifvqgtg","pricing_plan_id":"cebpf4jnsgd1na2vs0mg"},{"bike_id":"35a7c65a-992a-4260-87c7-50dcb6df494f","system_id":"levelo_inurba_marseille","lat":43.2991,"lon":5.38138,"is_reserved":false,"is_disabled":false,"rental_uris":{"android":"levelo://app?vid=35a7c65a-992a-4260-87c7-50dcb6df494f","ios":"levelo://app?vid=35a7c65a-992a-4260-87c7-50dcb6df494f"},"vehicle_type_id":"4","last_reported":1730743959,"current_range_meters":28400,"station_id":"ce4bgj12rcd13ifvqbc0","pricing_plan_id":"cebpf4jnsgd1na2vs0mg"},{"bike_id":"3c8ab32a-2ae8-4253-9945-e955757ce19a","system_id":"levelo_inurba_marseille","lat":43.28077,"lon":5.39659,"is_reserved":false,"is_disabled":false,"rental_uris":{"android":"levelo://app?vid=3c8ab32a-2ae8-4253-9945-e955757ce19a","ios":"levelo://app?vid=3c8ab32a-2ae8-4253-9945-e955757ce19a"},"vehicle_type_id":"4","last_reported":1730743959,"current_range_meters":38400,"station_id":"ce4bho12rcd13ifvqh2g","pricing_plan_id":"cebpf4jnsgd1na2vs0mg"},{"bike_id":"a7adc7ea-055f-47bb-b719-ed2702addb6b","system_id":"levelo_inurba_marseille","lat":43.28468,"lon":5.3589,"is_reserved":false,"is_disabled":false,"rental_uris":{"android":"levelo://app?vid=a7adc7ea-055f-47bb-b719-ed2702addb6b","ios":"levelo://app?vid=a7adc7ea-055f-47bb-b719-ed2702addb6b"},"vehicle_type_id":"4","last_reported":1730743959,"current_range_meters":36000,"station_id":"ce4bhah2rcd13ifvqei0","pricing_plan_id":"cebpf4jnsgd1na2vs0mg"},{"bike_id":"3d3e1a5c-03ce-4c66-afe1-dd14489a25ac","system_id":"levelo_inurba_marseille","lat":43.30796,"lon":5.38167,"is_reserved":false,"is_disabled":false,"rental_uris":{"android":"levelo://app?vid=3d3e1a5c-03ce-4c66-afe1-dd14489a25ac","ios":"levelo://app?vid=3d3e1a5c-03ce-4c66-afe1-dd14489a25ac"},"vehicle_type_id":"4","last_reported":1730743959,"current_range_meters":28000,"station_id":"ce4bgt12rcd13ifvqce0","pricing_plan_id":"cebpf4jnsgd1na2vs0mg"},{"bike_id":"5751a88f-767c-4216-a696-d9602092ebd5","system_id":"levelo_inurba_marseille","lat":43.30327,"lon":5.40431,"is_reserved":false,"is_disabled":false,"rental_uris":{"android":"levelo://app?vid=5751a88f-767c-4216-a696-d9602092ebd5","ios":"levelo://app?vid=5751a88f-767c-4216-a696-d9602092ebd5"},"vehicle_type_id":"4","last_reported":1730743959,"current_range_meters":3600,"station_id":"ce4bh012rcd13ifvqd10","pricing_plan_id":"cebpf4jnsgd1na2vs0mg"},{"bike_id":"e6ae3369-f41e-4fbc-9372-3615b2fcc819","system_id":"levelo_inurba_marseille","lat":43.30587,"lon":5.39354,"is_reserved":false,"is_disabled":false,"rental_uris":{"android":"levelo://app?vid=e6ae3369-f41e-4fbc-9372-3615b2fcc819","ios":"levelo://app?vid=e6ae3369-f41e-4fbc-9372-3615b2fcc819"},"vehicle_type_id":"4","last_reported":1730743959,"current_range_meters":24000,"station_id":"ce4bh0p2rcd13ifvqd80","pricing_plan_id":"cebpf4jnsgd1na2vs0mg"},{"bike_id":"90f0255f-52f3-4557-a1a9-90b5474c59d4","system_id":"levelo_inurba_marseille","lat":43.2781,"lon":5.40711,"is_reserved":false,"is_disabled":false,"rental_uris":{"android":"levelo://app?vid=90f0255f-52f3-4557-a1a9-90b5474c59d4","ios":"levelo://app?vid=90f0255f-52f3-4557-a1a9-90b5474c59d4"},"vehicle_type_id":"4","last_reported":1730743959,"current_range_meters":33600,"station_id":"ce4bhnh2rcd13ifvqgtg","pricing_plan_id":"cebpf4jnsgd1na2vs0mg"},{"bike_id":"45d2090f-01a4-4901-98c6-6325a976d2d4","system_id":"levelo_inurba_marseille","lat":43.25581,"lon":5.38232,"is_reserved":false,"is_disabled":false,"rental_uris":{"android":"levelo://app?vid=45d2090f-01a4-4901-98c6-6325a976d2d4","ios":"levelo://app?vid=45d2090f-01a4-4901-98c6-6325a976d2d4"},"vehicle_type_id":"4","last_reported":1730743959,"current_range_meters":7200,"station_id":"ce4bhih2rcd13ifvqfs0","pricing_plan_id":"cebpf4jnsgd1na2vs0mg"},{"bike_id":"97ebf39e-6ee4-4416-ad41-ede9324e714e","system_id":"levelo_inurba_marseille","lat":43.28129,"lon":5.395321,"is_reserved":false,"is_disabled":false,"rental_uris":{"android":"levelo://app?vid=97ebf39e-6ee4-4416-ad41-ede9324e714e","ios":"levelo://app?vid=97ebf39e-6ee4-4416-ad41-ede9324e714e"},"vehicle_type_id":"4","last_reported":1730743959,"current_range_meters":8800,"station_id":"ce4bho12rcd13ifvqh2g","pricing_plan_id":"cebpf4jnsgd1na2vs0mg"},{"bike_id":"4c8e72b5-aba7-4439-8dcc-1e2370b4bb8a","system_id":"levelo_inurba_marseille","lat":43.308,"lon":5.43524,"is_reserved":false,"is_disabled":false,"rental_uris":{"android":"levelo://app?vid=4c8e72b5-aba7-4439-8dcc-1e2370b4bb8a","ios":"levelo://app?vid=4c8e72b5-aba7-4439-8dcc-1e2370b4bb8a"},"vehicle_type_id":"4","last_reported":1730743959,"current_range_meters":39200,"station_id":"ce4bhph2rcd13ifvqheg","pricing_plan_id":"cebpf4jnsgd1na2vs0mg"},{"bike_id":"29c3b5d2-596b-48ea-b011-1d58b7700a3e","system_id":"levelo_inurba_marseille","lat":43.28459,"lon":5.35887,"is_reserved":false,"is_disabled":false,"rental_uris":{"android":"levelo://app?vid=29c3b5d2-596b-48ea-b011-1d58b7700a3e","ios":"levelo://app?vid=29c3b5d2-596b-48ea-b011-1d58b7700a3e"},"vehicle_type_id":"4","last_reported":1730743959,"current_range_meters":11200,"station_id":"ce4bhah2rcd13ifvqei0","pricing_plan_id":"cebpf4jnsgd1na2vs0mg"},{"bike_id":"75ed7478-abbb-49b2-99e0-8898b4b807f8","system_id":"levelo_inurba_marseille","lat":43.27618,"lon":5.36111,"is_reserved":false,"is_disabled":false,"rental_uris":{"android":"levelo://app?vid=75ed7478-abbb-49b2-99e0-8898b4b807f8","ios":"levelo://app?vid=75ed7478-abbb-49b2-99e0-8898b4b807f8"},"vehicle_type_id":"4","last_reported":1730743959,"current_range_meters":11200,"station_id":"ce4bgj92rcd13ifvqbe0","pricing_plan_id":"cebpf4jnsgd1na2vs0mg"},{"bike_id":"74715cd6-96c0-463b-a218-0a4857c1ceb6","system_id":"levelo_inurba_marseille","lat":43.27371,"lon":5.36259,"is_reserved":false,"is_disabled":false,"rental_uris":{"android":"levelo://app?vid=74715cd6-96c0-463b-a218-0a4857c1ceb6","ios":"levelo://app?vid=74715cd6-96c0-463b-a218-0a4857c1ceb6"},"vehicle_type_id":"4","last_reported":1730743959,"current_range_meters":3200,"station_id":"ce4bhbh2rcd13ifvqeo0","pricing_plan_id":"cebpf4jnsgd1na2vs0mg"},{"bike_id":"0b241463-8d53-4c09-8b90-66b472fc744c","system_id":"levelo_inurba_marseille","lat":43.27943,"lon":5.41042,"is_reserved":false,"is_disabled":false,"rental_uris":{"android":"levelo://app?vid=0b241463-8d53-4c09-8b90-66b472fc744c","ios":"levelo://app?vid=0b241463-8d53-4c09-8b90-66b472fc744c"},"vehicle_type_id":"4","last_reported":1730743959,"current_range_meters":25600,"station_id":"ce4bhnp2rcd13ifvqh0g","pricing_plan_id":"cebpf4jnsgd1na2vs0mg"},{"bike_id":"a48f8051-16c1-42f2-ae1f-45cf856647ce","system_id":"levelo_inurba_marseille","lat":43.29901,"lon":5.43666,"is_reserved":false,"is_disabled":false,"rental_uris":{"android":"levelo://app?vid=a48f8051-16c1-42f2-ae1f-45cf856647ce","ios":"levelo://app?vid=a48f8051-16c1-42f2-ae1f-45cf856647ce"},"vehicle_type_id":"4","last_reported":1730743959,"current_range_meters":12400,"station_id":"ce4bhpp2rcd13ifvqhfg","pricing_plan_id":"cebpf4jnsgd1na2vs0mg"},{"bike_id":"b03e9bdf-c54e-462a-82b0-f3fb2be4bd17","system_id":"levelo_inurba_marseille","lat":43.23185,"lon":5.3998,"is_reserved":false,"is_disabled":false,"rental_uris":{"android":"levelo://app?vid=b03e9bdf-c54e-462a-82b0-f3fb2be4bd17","ios":"levelo://app?vid=b03e9bdf-c54e-462a-82b0-f3fb2be4bd17"},"vehicle_type_id":"4","last_reported":1730743959,"current_range_meters":35600,"station_id":"ce4bhn12rcd13ifvqgqg","pricing_plan_id":"cebpf4jnsgd1na2vs0mg"},{"bike_id":"740f96c3-2e7c-4205-8a09-78483280bb9f","system_id":"levelo_inurba_marseille","lat":43.29897,"lon":5.43668,"is_reserved":false,"is_disabled":false,"rental_uris":{"android":"levelo://app?vid=740f96c3-2e7c-4205-8a09-78483280bb9f","ios":"levelo://app?vid=740f96c3-2e7c-4205-8a09-78483280bb9f"},"vehicle_type_id":"4","last_reported":1730743959,"current_range_meters":30000,"station_id":"ce4bhpp2rcd13ifvqhfg","pricing_plan_id":"cebpf4jnsgd1na2vs0mg"},{"bike_id":"e5154003-48ca-4a25-8bfd-467b2c9cd51f","system_id":"levelo_inurba_marseille","lat":43.28093,"lon":5.39673,"is_reserved":false,"is_disabled":false,"rental_uris":{"android":"levelo://app?vid=e5154003-48ca-4a25-8bfd-467b2c9cd51f","ios":"levelo://app?vid=e5154003-48ca-4a25-8bfd-467b2c9cd51f"},"vehicle_type_id":"4","last_reported":1730743959,"current_range_meters":16800,"station_id":"ce4bhh92rcd13ifvqfi0","pricing_plan_id":"cebpf4jnsgd1na2vs0mg"},{"bike_id":"826f5d34-5a23-44bd-830f-837fe01f82b3","system_id":"levelo_inurba_marseille","lat":43.29403,"lon":5.38,"is_reserved":false,"is_disabled":false,"rental_uris":{"android":"levelo://app?vid=826f5d34-5a23-44bd-830f-837fe01f82b3","ios":"levelo://app?vid=826f5d34-5a23-44bd-830f-837fe01f82b3"},"vehicle_type_id":"4","last_reported":1730743959,"current_range_meters":11600,"station_id":"","pricing_plan_id":"cebpf4jnsgd1na2vs0mg"},{"bike_id":"41bd49b9-1950-41c9-b858-83b6dfe232ea","system_id":"levelo_inurba_marseille","lat":43.23177,"lon":5.39987,"is_reserved":false,"is_disabled":false,"rental_uris":{"android":"levelo://app?vid=41bd49b9-1950-41c9-b858-83b6dfe232ea","ios":"levelo://app?vid=41bd49b9-1950-41c9-b858-83b6dfe232ea"},"vehicle_type_id":"4","last_reported":1730743959,"current_range_meters":32800,"station_id":"ce4bhn12rcd13ifvqgqg","pricing_plan_id":"cebpf4jnsgd1na2vs0mg"},{"bike_id":"82e04a68-aeb5-4f15-9c4a-0297ec779117","system_id":"levelo_inurba_marseille","lat":43.28153,"lon":5.42644,"is_reserved":false,"is_disabled":false,"rental_uris":{"android":"levelo://app?vid=82e04a68-aeb5-4f15-9c4a-0297ec779117","ios":"levelo://app?vid=82e04a68-aeb5-4f15-9c4a-0297ec779117"},"vehicle_type_id":"4","last_reported":1730743959,"current_range_meters":19600,"station_id":"ce4bhnh2rcd13ifvqgug","pricing_plan_id":"cebpf4jnsgd1na2vs0mg"},{"bike_id":"5957adca-c016-4cc1-bd6e-7a68072ffabb","system_id":"levelo_inurba_marseille","lat":43.29275,"lon":5.36838,"is_reserved":false,"is_disabled":false,"rental_uris":{"android":"levelo://app?vid=5957adca-c016-4cc1-bd6e-7a68072ffabb","ios":"levelo://app?vid=5957adca-c016-4cc1-bd6e-7a68072ffabb"},"vehicle_type_id":"4","last_reported":1730743959,"current_range_meters":7200,"station_id":"ce4bhbp2rcd13ifvqesg","pricing_plan_id":"cebpf4jnsgd1na2vs0mg"},{"bike_id":"ba8b30dc-19e3-470c-b73b-74cc2ca3ab65","system_id":"levelo_inurba_marseille","lat":43.28105,"lon":5.37837,"is_reserved":false,"is_disabled":false,"rental_uris":{"android":"levelo://app?vid=ba8b30dc-19e3-470c-b73b-74cc2ca3ab65","ios":"levelo://app?vid=ba8b30dc-19e3-470c-b73b-74cc2ca3ab65"},"vehicle_type_id":"4","last_reported":1730743959,"current_range_meters":15200,"station_id":"ce4bha12rcd13ifvqee0","pricing_plan_id":"cebpf4jnsgd1na2vs0mg"},{"bike_id":"91e5b127-af45-48df-b559-614491e0c8d5","system_id":"levelo_inurba_marseille","lat":43.33021,"lon":5.39041,"is_reserved":false,"is_disabled":false,"rental_uris":{"android":"levelo://app?vid=91e5b127-af45-48df-b559-614491e0c8d5","ios":"levelo://app?vid=91e5b127-af45-48df-b559-614491e0c8d5"},"vehicle_type_id":"4","last_reported":1730743959,"current_range_meters":36800,"station_id":"ce4bhr92rcd13ifvqhrg","pricing_plan_id":"cebpf4jnsgd1na2vs0mg"},{"bike_id":"d8bde7fb-94cd-404c-9173-a5e6f4b7733c","system_id":"levelo_inurba_marseille","lat":43.272327,"lon":5.390603,"is_reserved":false,"is_disabled":false,"rental_uris":{"android":"levelo://app?vid=d8bde7fb-94cd-404c-9173-a5e6f4b7733c","ios":"levelo://app?vid=d8bde7fb-94cd-404c-9173-a5e6f4b7733c"},"vehicle_type_id":"4","last_reported":1730743959,"current_range_meters":20800,"station_id":"ce4bhgp2rcd13ifvqfe0","pricing_plan_id":"cebpf4jnsgd1na2vs0mg"},{"bike_id":"67e5d0e7-9b13-4e5f-8ce2-0b04c520e849","system_id":"levelo_inurba_marseille","lat":43.25087,"lon":5.39525,"is_reserved":false,"is_disabled":false,"rental_uris":{"android":"levelo://app?vid=67e5d0e7-9b13-4e5f-8ce2-0b04c520e849","ios":"levelo://app?vid=67e5d0e7-9b13-4e5f-8ce2-0b04c520e849"},"vehicle_type_id":"4","last_reported":1730743959,"current_range_meters":14000,"station_id":"ce4bhm12rcd13ifvqgkg","pricing_plan_id":"cebpf4jnsgd1na2vs0mg"},{"bike_id":"a71ccd2c-562f-495e-826e-42653221645d","system_id":"levelo_inurba_marseille","lat":43.31705,"lon":5.37738,"is_reserved":false,"is_disabled":false,"rental_uris":{"android":"levelo://app?vid=a71ccd2c-562f-495e-826e-42653221645d","ios":"levelo://app?vid=a71ccd2c-562f-495e-826e-42653221645d"},"vehicle_type_id":"4","last_reported":1730743959,"current_range_meters":8400,"station_id":"ce4bgth2rcd13ifvqch0","pricing_plan_id":"cebpf4jnsgd1na2vs0mg"},{"bike_id":"5c2f3c4a-2b73-45da-9d81-ec69a9adceb4","system_id":"levelo_inurba_marseille","lat":43.25866,"lon":5.39903,"is_reserved":false,"is_disabled":false,"rental_uris":{"android":"levelo://app?vid=5c2f3c4a-2b73-45da-9d81-ec69a9adceb4","ios":"levelo://app?vid=5c2f3c4a-2b73-45da-9d81-ec69a9adceb4"},"vehicle_type_id":"4","last_reported":1730743959,"current_range_meters":6000,"station_id":"ce4bhl92rcd13ifvqghg","pricing_plan_id":"cebpf4jnsgd1na2vs0mg"},{"bike_id":"641668fb-7821-4ad5-a704-60e491c215d6","system_id":"levelo_inurba_marseille","lat":43.29868,"lon":5.39731,"is_reserved":false,"is_disabled":false,"rental_uris":{"android":"levelo://app?vid=641668fb-7821-4ad5-a704-60e491c215d6","ios":"levelo://app?vid=641668fb-7821-4ad5-a704-60e491c215d6"},"vehicle_type_id":"4","last_reported":1730743959,"current_range_meters":8800,"station_id":"ce4bh0h2rcd13ifvqd50","pricing_plan_id":"cebpf4jnsgd1na2vs0mg"},{"bike_id":"6455d4dd-e00c-4cff-935b-0b44b4254bf2","system_id":"levelo_inurba_marseille","lat":43.31326,"lon":5.39695,"is_reserved":false,"is_disabled":false,"rental_uris":{"android":"levelo://app?vid=6455d4dd-e00c-4cff-935b-0b44b4254bf2","ios":"levelo://app?vid=6455d4dd-e00c-4cff-935b-0b44b4254bf2"},"vehicle_type_id":"4","last_reported":1730743959,"current_range_meters":24000,"station_id":"ce4bgvp2rcd13ifvqcu0","pricing_plan_id":"cebpf4jnsgd1na2vs0mg"},{"bike_id":"09c4e025-0035-4b02-9331-e4c6e4b55438","system_id":"levelo_inurba_marseille","lat":43.30361,"lon":5.39151,"is_reserved":false,"is_disabled":false,"rental_uris":{"android":"levelo://app?vid=09c4e025-0035-4b02-9331-e4c6e4b55438","ios":"levelo://app?vid=09c4e025-0035-4b02-9331-e4c6e4b55438"},"vehicle_type_id":"4","last_reported":1730743959,"current_range_meters":27600,"station_id":"","pricing_plan_id":"cebpf4jnsgd1na2vs0mg"},{"bike_id":"68d9367a-1a6e-4e47-aea2-dda4327c56a5","system_id":"levelo_inurba_marseille","lat":43.28704,"lon":5.37372,"is_reserved":false,"is_disabled":false,"rental_uris":{"android":"levelo://app?vid=68d9367a-1a6e-4e47-aea2-dda4327c56a5","ios":"levelo://app?vid=68d9367a-1a6e-4e47-aea2-dda4327c56a5"},"vehicle_type_id":"4","last_reported":1730743959,"current_range_meters":9600,"station_id":"ce4bh3p2rcd13ifvqdq0","pricing_plan_id":"cebpf4jnsgd1na2vs0mg"},{"bike_id":"62a9769f-9096-471f-a55f-5a799bcfef62","system_id":"levelo_inurba_marseille","lat":43.25574,"lon":5.38233,"is_reserved":false,"is_disabled":false,"rental_uris":{"android":"levelo://app?vid=62a9769f-9096-471f-a55f-5a799bcfef62","ios":"levelo://app?vid=62a9769f-9096-471f-a55f-5a799bcfef62"},"vehicle_type_id":"4","last_reported":1730743959,"current_range_meters":20000,"station_id":"ce4bhih2rcd13ifvqfs0","pricing_plan_id":"cebpf4jnsgd1na2vs0mg"},{"bike_id":"0e193547-e95d-49cc-89de-70e8bf0062c7","system_id":"levelo_inurba_marseille","lat":43.29424,"lon":5.38628,"is_reserved":false,"is_disabled":false,"rental_uris":{"android":"levelo://app?vid=0e193547-e95d-49cc-89de-70e8bf0062c7","ios":"levelo://app?vid=0e193547-e95d-49cc-89de-70e8bf0062c7"},"vehicle_type_id":"4","last_reported":1730743959,"current_range_meters":27200,"station_id":"ce4bh2h2rcd13ifvqdh0","pricing_plan_id":"cebpf4jnsgd1na2vs0mg"},{"bike_id":"99b77a6c-5855-4036-95f0-a70e7eee49b4","system_id":"levelo_inurba_marseille","lat":43.28666,"lon":5.38675,"is_reserved":false,"is_disabled":false,"rental_uris":{"android":"levelo://app?vid=99b77a6c-5855-4036-95f0-a70e7eee49b4","ios":"levelo://app?vid=99b77a6c-5855-4036-95f0-a70e7eee49b4"},"vehicle_type_id":"4","last_reported":1730743959,"current_range_meters":32000,"station_id":"ce4bh492rcd13ifvqdug","pricing_plan_id":"cebpf4jnsgd1na2vs0mg"},{"bike_id":"65e91bb7-2a75-45dd-862b-e7bd3b4f65e0","system_id":"levelo_inurba_marseille","lat":43.29531,"lon":5.38544,"is_reserved":false,"is_disabled":false,"rental_uris":{"android":"levelo://app?vid=65e91bb7-2a75-45dd-862b-e7bd3b4f65e0","ios":"levelo://app?vid=65e91bb7-2a75-45dd-862b-e7bd3b4f65e0"},"vehicle_type_id":"4","last_reported":1730743959,"current_range_meters":8400,"station_id":"ce4bgih2rcd13ifvqba0","pricing_plan_id":"cebpf4jnsgd1na2vs0mg"},{"bike_id":"7d3e854d-2081-47f6-a20b-d014fd9aaa35","system_id":"levelo_inurba_marseille","lat":43.3127,"lon":5.40164,"is_reserved":false,"is_disabled":false,"rental_uris":{"android":"levelo://app?vid=7d3e854d-2081-47f6-a20b-d014fd9aaa35","ios":"levelo://app?vid=7d3e854d-2081-47f6-a20b-d014fd9aaa35"},"vehicle_type_id":"4","last_reported":1730743959,"current_range_meters":19600,"station_id":"ce4bh092rcd13ifvqd30","pricing_plan_id":"cebpf4jnsgd1na2vs0mg"},{"bike_id":"31487d85-f05d-4175-a98c-ef5e6e548369","system_id":"levelo_inurba_marseille","lat":43.26056,"lon":5.39392,"is_reserved":false,"is_disabled":false,"rental_uris":{"android":"levelo://app?vid=31487d85-f05d-4175-a98c-ef5e6e548369","ios":"levelo://app?vid=31487d85-f05d-4175-a98c-ef5e6e548369"},"vehicle_type_id":"4","last_reported":1730743959,"current_range_meters":39200,"station_id":"ce4bhh92rcd13ifvqfj0","pricing_plan_id":"cebpf4jnsgd1na2vs0mg"},{"bike_id":"d07be461-7f32-475f-bce7-987618c3feba","system_id":"levelo_inurba_marseille","lat":43.23185,"lon":5.39981,"is_reserved":false,"is_disabled":false,"rental_uris":{"android":"levelo://app?vid=d07be461-7f32-475f-bce7-987618c3feba","ios":"levelo://app?vid=d07be461-7f32-475f-bce7-987618c3feba"},"vehicle_type_id":"4","last_reported":1730743959,"current_range_meters":29600,"station_id":"ce4bhn12rcd13ifvqgqg","pricing_plan_id":"cebpf4jnsgd1na2vs0mg"},{"bike_id":"2274338d-825b-45f7-9d65-08dc30936a15","system_id":"levelo_inurba_marseille","lat":43.26215,"lon":5.37441,"is_reserved":false,"is_disabled":false,"rental_uris":{"android":"levelo://app?vid=2274338d-825b-45f7-9d65-08dc30936a15","ios":"levelo://app?vid=2274338d-825b-45f7-9d65-08dc30936a15"},"vehicle_type_id":"4","last_reported":1730743959,"current_range_meters":27200,"station_id":"ce4bhgp2rcd13ifvqfc0","pricing_plan_id":"cebpf4jnsgd1na2vs0mg"},{"bike_id":"755bea65-82d9-48af-ae0d-e6c5b99d20b2","system_id":"levelo_inurba_marseille","lat":43.28437,"lon":5.39185,"is_reserved":false,"is_disabled":false,"rental_uris":{"android":"levelo://app?vid=755bea65-82d9-48af-ae0d-e6c5b99d20b2","ios":"levelo://app?vid=755bea65-82d9-48af-ae0d-e6c5b99d20b2"},"vehicle_type_id":"4","last_reported":1730743959,"current_range_meters":35600,"station_id":"ce4bhoh2rcd13ifvqh5g","pricing_plan_id":"cebpf4jnsgd1na2vs0mg"},{"bike_id":"cf6affaa-d94a-4cc1-98ba-90e98ea4baed","system_id":"levelo_inurba_marseille","lat":43.23967,"lon":5.36635,"is_reserved":false,"is_disabled":false,"rental_uris":{"android":"levelo://app?vid=cf6affaa-d94a-4cc1-98ba-90e98ea4baed","ios":"levelo://app?vid=cf6affaa-d94a-4cc1-98ba-90e98ea4baed"},"vehicle_type_id":"4","last_reported":1730743959,"current_range_meters":16800,"station_id":"ce4bhi12rcd13ifvqfp0","pricing_plan_id":"cebpf4jnsgd1na2vs0mg"},{"bike_id":"5e6bf692-683c-4f47-972b-3c43bc6648da","system_id":"levelo_inurba_marseille","lat":43.292297,"lon":5.365627,"is_reserved":false,"is_disabled":false,"rental_uris":{"android":"levelo://app?vid=5e6bf692-683c-4f47-972b-3c43bc6648da","ios":"levelo://app?vid=5e6bf692-683c-4f47-972b-3c43bc6648da"},"vehicle_type_id":"4","last_reported":1730743959,"current_range_meters":20800,"station_id":"ce4bgh92rcd13ifvqb40","pricing_plan_id":"cebpf4jnsgd1na2vs0mg"},{"bike_id":"3e3c98d6-0054-4161-9654-9a791ea46f64","system_id":"levelo_inurba_marseille","lat":43.28083,"lon":5.39665,"is_reserved":false,"is_disabled":false,"rental_uris":{"android":"levelo://app?vid=3e3c98d6-0054-4161-9654-9a791ea46f64","ios":"levelo://app?vid=3e3c98d6-0054-4161-9654-9a791ea46f64"},"vehicle_type_id":"4","last_reported":1730743959,"current_range_meters":13600,"station_id":"ce4bho12rcd13ifvqh2g","pricing_plan_id":"cebpf4jnsgd1na2vs0mg"},{"bike_id":"c2fd88c3-a1b9-44b4-b2d6-655d388b30c4","system_id":"levelo_inurba_marseille","lat":43.29266,"lon":5.40913,"is_reserved":false,"is_disabled":false,"rental_uris":{"android":"levelo://app?vid=c2fd88c3-a1b9-44b4-b2d6-655d388b30c4","ios":"levelo://app?vid=c2fd88c3-a1b9-44b4-b2d6-655d388b30c4"},"vehicle_type_id":"4","last_reported":1730743959,"current_range_meters":32800,"station_id":"ce4bh192rcd13ifvqdc0","pricing_plan_id":"cebpf4jnsgd1na2vs0mg"},{"bike_id":"5010beb4-e92b-42e4-871f-917e54edd7eb","system_id":"levelo_inurba_marseille","lat":43.26805,"lon":5.40267,"is_reserved":false,"is_disabled":false,"rental_uris":{"android":"levelo://app?vid=5010beb4-e92b-42e4-871f-917e54edd7eb","ios":"levelo://app?vid=5010beb4-e92b-42e4-871f-917e54edd7eb"},"vehicle_type_id":"4","last_reported":1730743959,"current_range_meters":13600,"station_id":"ce501612rcd8frsf0b60","pricing_plan_id":"cebpf4jnsgd1na2vs0mg"},{"bike_id":"2c5e591b-8677-4ba1-92b2-a90fade58487","system_id":"levelo_inurba_marseille","lat":43.30137,"lon":5.39876,"is_reserved":false,"is_disabled":false,"rental_uris":{"android":"levelo://app?vid=2c5e591b-8677-4ba1-92b2-a90fade58487","ios":"levelo://app?vid=2c5e591b-8677-4ba1-92b2-a90fade58487"},"vehicle_type_id":"4","last_reported":1730743959,"current_range_meters":38800,"station_id":"ce4bh0h2rcd13ifvqd40","pricing_plan_id":"cebpf4jnsgd1na2vs0mg"},{"bike_id":"5eb99c17-8495-4395-a73d-5d3f7c7414bb","system_id":"levelo_inurba_marseille","lat":43.29305,"lon":5.37179,"is_reserved":false,"is_disabled":false,"rental_uris":{"android":"levelo://app?vid=5eb99c17-8495-4395-a73d-5d3f7c7414bb","ios":"levelo://app?vid=5eb99c17-8495-4395-a73d-5d3f7c7414bb"},"vehicle_type_id":"4","last_reported":1730743959,"current_range_meters":28000,"station_id":"ce4bgh92rcd13ifvqb40","pricing_plan_id":"cebpf4jnsgd1na2vs0mg"},{"bike_id":"5511fe98-d1e0-4bfd-a344-1cc7f85e8f65","system_id":"levelo_inurba_marseille","lat":43.25582,"lon":5.38231,"is_reserved":false,"is_disabled":false,"rental_uris":{"android":"levelo://app?vid=5511fe98-d1e0-4bfd-a344-1cc7f85e8f65","ios":"levelo://app?vid=5511fe98-d1e0-4bfd-a344-1cc7f85e8f65"},"vehicle_type_id":"4","last_reported":1730743959,"current_range_meters":38000,"station_id":"ce4bhih2rcd13ifvqfs0","pricing_plan_id":"cebpf4jnsgd1na2vs0mg"},{"bike_id":"d5ecc5b8-af08-4753-9396-0d9d57153cb3","system_id":"levelo_inurba_marseille","lat":43.290741,"lon":5.371594,"is_reserved":false,"is_disabled":false,"rental_uris":{"android":"levelo://app?vid=d5ecc5b8-af08-4753-9396-0d9d57153cb3","ios":"levelo://app?vid=d5ecc5b8-af08-4753-9396-0d9d57153cb3"},"vehicle_type_id":"4","last_reported":1730743959,"current_range_meters":18800,"station_id":"ce4bha92rcd13ifvqeh0","pricing_plan_id":"cebpf4jnsgd1na2vs0mg"},{"bike_id":"81236265-2d4b-4245-8e2b-cb62f64bf44b","system_id":"levelo_inurba_marseille","lat":43.25579,"lon":5.38235,"is_reserved":false,"is_disabled":false,"rental_uris":{"android":"levelo://app?vid=81236265-2d4b-4245-8e2b-cb62f64bf44b","ios":"levelo://app?vid=81236265-2d4b-4245-8e2b-cb62f64bf44b"},"vehicle_type_id":"4","last_reported":1730743959,"current_range_meters":26000,"station_id":"ce4bhih2rcd13ifvqfs0","pricing_plan_id":"cebpf4jnsgd1na2vs0mg"},{"bike_id":"e831eb8b-fdbc-4caa-90a6-157a5896cd4c","system_id":"levelo_inurba_marseille","lat":43.31756,"lon":5.39026,"is_reserved":false,"is_disabled":false,"rental_uris":{"android":"levelo://app?vid=e831eb8b-fdbc-4caa-90a6-157a5896cd4c","ios":"levelo://app?vid=e831eb8b-fdbc-4caa-90a6-157a5896cd4c"},"vehicle_type_id":"4","last_reported":1730743959,"current_range_meters":8800,"station_id":"ce4bhqp2rcd13ifvqhng","pricing_plan_id":"cebpf4jnsgd1na2vs0mg"},{"bike_id":"3a801cbb-1e2e-46c3-bc85-0c5198b9902c","system_id":"levelo_inurba_marseille","lat":43.26538,"lon":5.3884,"is_reserved":false,"is_disabled":false,"rental_uris":{"android":"levelo://app?vid=3a801cbb-1e2e-46c3-bc85-0c5198b9902c","ios":"levelo://app?vid=3a801cbb-1e2e-46c3-bc85-0c5198b9902c"},"vehicle_type_id":"4","last_reported":1730743959,"current_range_meters":25600,"station_id":"","pricing_plan_id":"cebpf4jnsgd1na2vs0mg"},{"bike_id":"d39c6122-efa8-453d-a124-e487e6942353","system_id":"levelo_inurba_marseille","lat":43.28453,"lon":5.35894,"is_reserved":false,"is_disabled":false,"rental_uris":{"android":"levelo://app?vid=d39c6122-efa8-453d-a124-e487e6942353","ios":"levelo://app?vid=d39c6122-efa8-453d-a124-e487e6942353"},"vehicle_type_id":"4","last_reported":1730743959,"current_range_meters":37600,"station_id":"ce4bhah2rcd13ifvqei0","pricing_plan_id":"cebpf4jnsgd1na2vs0mg"},