{"last_updated":1730909518,"ttl":60,"version":"2.2","data":{"bikes":[{"bike_id":"7ae96026-45f8-4be1-a705-40a234940d94","system_id":"levelo_inurba_marseille","lat":43.27989,"lon":5.4004,"is_reserved":false,"is_disabled":false,"rental_uris":{"android":"levelo://app?vid=7ae96026-45f8-4be1-a705-40a234940d94","ios":"levelo://app?vid=7ae96026-45f8-4be1-a705-40a234940d94"},"vehicle_type_id":"4","last_reported":1730909518,"current_range_meters":38400,"station_id":"ce4bho92rcd13ifvqh4g","pricing_plan_id":"cebpf4jnsgd1na2vs0mg"},{"bike_id":"19df1608-2db4-4a64-8a9a-d0d9548fc94a","system_id":"levelo_inurba_marseille","lat":43.32111,"lon":5.36774,"is_reserved":false,"is_disabled":false,"rental_uris":{"android":"levelo://app?vid=19df1608-2db4-4a64-8a9a-d0d9548fc94a","ios":"levelo://app?vid=19df1608-2db4-4a64-8a9a-d0d9548fc94a"},"vehicle_type_id":"4","last_reported":1730909518,"current_range_meters":39200,"station_id":"ce4bhrh2rcd13ifvqhug","pricing_plan_id":"cebpf4jnsgd1na2vs0mg"},{"bike_id":"6230197a-72c3-4fe9-877a-6d6f09272011","system_id":"levelo_inurba_marseille","lat":43.32339,"lon":5.4063,"is_reserved":false,"is_disabled":false,"rental_uris":{"android":"levelo://app?vid=6230197a-72c3-4fe9-877a-6d6f09272011","ios":"levelo://app?vid=6230197a-72c3-4fe9-877a-6d6f09272011"},"vehicle_type_id":"4","last_reported":1730909518,"current_range_meters":23200,"station_id":"ce4bhq92rcd13ifvqhjg","pricing_plan_id":"cebpf4jnsgd1na2vs0mg"},{"bike_id":"5bd3b30c-5ae9-4a7a-893e-b888fcc568aa","system_id":"levelo_inurba_marseille","lat":43.31689,"lon":5.40483,"is_reserved":false,"is_disabled":false,"rental_uris":{"android":"levelo://app?vid=5bd3b30c-5ae9-4a7a-893e-b888fcc568aa","ios":"levelo://app?vid=5bd3b30c-5ae9-4a7a-893e-b888fcc568aa"},"vehicle_type_id":"4","last_reported":1730909518,"current_range_meters":10000,"station_id":"ce4bh012rcd13ifvqd00","pricing_plan_id":"cebpf4jnsgd1na2vs0mg"},{"bike_id":"c88a2858-086c-4476-9a6b-76123f0509f8","system_id":"levelo_inurba_marseille","lat":43.29047,"lon":5.35921,"is_reserved":false,"is_disabled":false,"rental_uris":{"android":"levelo://app?vid=c88a2858-086c-4476-9a6b-76123f0509f8","ios":"levelo://app?vid=c88a2858-086c-4476-9a6b-76123f0509f8"},"vehicle_type_id":"4","last_reported":1730909518,"current_range_meters":20400,"station_id":"ce4bha92rcd13ifvqeg0","pricing_plan_id":"cebpf4jnsgd1na2vs0mg"},{"bike_id":"8cfac06c-664c-4191-80ef-378f683605c5","system_id":"levelo_inurba_marseille","lat":43.29531,"lon":5.38551,"is_reserved":false,"is_disabled":false,"rental_uris":{"android":"levelo://app?vid=8cfac06c-664c-4191-80ef-378f683605c5","ios":"levelo://app?vid=8cfac06c-664c-4191-80ef-378f683605c5"},"vehicle_type_id":"4","last_reported":1730909518,"current_range_meters":6400,"station_id":"ce4bgih2rcd13ifvqba0","pricing_plan_id":"cebpf4jnsgd1na2vs0mg"},{"bike_id":"dbb61991-7592-4e4d-ac73-387ebf8886c5","system_id":"levelo_inurba_marseille","lat":43.28858,"lon":5.35847,"is_reserved":false,"is_disabled":false,"rental_uris":{"android":"levelo://app?vid=dbb61991-7592-4e4d-ac73-387ebf8886c5","ios":"levelo://app?vid=dbb61991-7592-4e4d-ac73-387ebf8886c5"},"vehicle_type_id":"4","last_reported":1730909518,"current_range_meters":38800,"station_id":"ce4bhb12rcd13ifvqem0","pricing_plan_id":"cebpf4jnsgd1na2vs0mg"},{"bike_id":"aaf896be-23fc-4cde-b212-d643c208e7c1","system_id":"levelo_inurba_marseille","lat":43.30414,"lon":5.41297,"is_reserved":false,"is_disabled":false,"rental_uris":{"android":"levelo://app?vid=aaf896be-23fc-4cde-b212-d643c208e7c1","ios":"levelo://app?vid=aaf896be-23fc-4cde-b212-d643c208e7c1"},"vehicle_type_id":"4","last_reported":1730909518,"current_range_meters":37600,"station_id":"ce4bhop2rcd13ifvqh8g","pricing_plan_id":"cebpf4jnsgd1na2vs0mg"},{"bike_id":"23bfee84-6448-4c89-991d-244f796831cd","system_id":"levelo_inurba_marseille","lat":43.267389,"lon":5.383617,"is_reserved":false,"is_disabled":false,"rental_uris":{"android":"levelo://app?vid=23bfee84-6448-4c89-991d-244f796831cd","ios":"levelo://app?vid=23bfee84-6448-4c89-991d-244f796831cd"},"vehicle_type_id":"4","last_reported":1730909518,"current_range_meters":29600,"station_id":"ce4bgn12rcd13ifvqbt0","pricing_plan_id":"cebpf4jnsgd1na2vs0mg"},{"bike_id":"72efadbb-bf11-43ff-96cf-c421a3f198ee","system_id":"levelo_inurba_marseille","lat":43.27615,"lon":5.3612,"is_reserved":false,"is_disabled":false,"rental_uris":{"android":"levelo://app?vid=72efadbb-bf11-43ff-96cf-c421a3f198ee","ios":"levelo://app?vid=72efadbb-bf11-43ff-96cf-c421a3f198ee"},"vehicle_type_id":"4","last_reported":1730909518,"current_range_meters":16000,"station_id":"ce4bgj92rcd13ifvqbe0","pricing_plan_id":"cebpf4jnsgd1na2vs0mg"},{"bike_id":"3e44a259-abe4-4226-9633-ae30cd00b80d","system_id":"levelo_inurba_marseille","lat":43.308,"lon":5.38152,"is_reserved":false,"is_disabled":false,"rental_uris":{"android":"levelo://app?vid=3e44a259-abe4-4226-9633-ae30cd00b80d","ios":"levelo://app?vid=3e44a259-abe4-4226-9633-ae30cd00b80d"},"vehicle_type_id":"4","last_reported":1730909518,"current_range_meters":36400,"station_id":"ce4bgt12rcd13ifvqce0","pricing_plan_id":"cebpf4jnsgd1na2vs0mg"},{"bike_id":"a3c93c6e-2451-423f-a3a9-ecb9c0aa7228","system_id":"levelo_inurba_marseille","lat":43.30276,"lon":5.40096,"is_reserved":false,"is_disabled":false,"rental_uris":{"android":"levelo://app?vid=a3c93c6e-2451-423f-a3a9-ecb9c0aa7228","ios":"levelo://app?vid=a3c93c6e-2451-423f-a3a9-ecb9c0aa7228"},"vehicle_type_id":"4","last_reported":1730909518,"current_range_meters":28800,"station_id":"ce4bgvh2rcd13ifvqcs0","pricing_plan_id":"cebpf4jnsgd1na2vs0mg"},{"bike_id":"e2076b88-c550-48d8-a526-7ec6dbf35b4c","system_id":"levelo_inurba_marseille","lat":43.28156,"lon":5.42656,"is_reserved":false,"is_disabled":false,"rental_uris":{"android":"levelo://app?vid=e2076b88-c550-48d8-a526-7ec6dbf35b4c","ios":"levelo://app?vid=e2076b88-c550-48d8-a526-7ec6dbf35b4c"},"vehicle_type_id":"4","last_reported":1730909518,"current_range_meters":21600,"station_id":"ce4bhnh2rcd13ifvqgug","pricing_plan_id":"cebpf4jnsgd1na2vs0mg"},{"bike_id":"8af378d1-5bc4-457f-9470-74e88c52bda7","system_id":"levelo_inurba_marseille","lat":43.31996,"lon":5.38167,"is_reserved":false,"is_disabled":false,"rental_uris":{"android":"levelo://app?vid=8af378d1-5bc4-457f-9470-74e88c52bda7","ios":"levelo://app?vid=8af378d1-5bc4-457f-9470-74e88c52bda7"},"vehicle_type_id":"4","last_reported":1730909518,"current_range_meters":7200,"station_id":"ce4bhr12rcd13ifvqhpg","pricing_plan_id":"cebpf4jnsgd1na2vs0mg"},{"bike_id":"55fc641b-46b1-4285-8546-805cff3fb723","system_id":"levelo_inurba_marseille","lat":43.28079,"lon":5.39661,"is_reserved":false,"is_disabled":false,"rental_uris":{"android":"levelo://app?vid=55fc641b-46b1-4285-8546-805cff3fb723","ios":"levelo://app?vid=55fc641b-46b1-4285-8546-805cff3fb723"},"vehicle_type_id":"4","last_reported":1730909518,"current_range_meters":7200,"station_id":"ce4bho12rcd13ifvqh2g","pricing_plan_id":"cebpf4jnsgd1na2vs0mg"},{"bike_id":"44135612-fabe-4db6-b769-98ffa02d00e4","system_id":"levelo_inurba_marseille","lat":43.32291,"lon":5.38279,"is_reserved":false,"is_disabled":false,"rental_uris":{"android":"levelo://app?vid=44135612-fabe-4db6-b769-98ffa02d00e4","ios":"levelo://app?vid=44135612-fabe-4db6-b769-98ffa02d00e4"},"vehicle_type_id":"4","last_reported":1730909518,"current_range_meters":24000,"station_id":"ce4bhr12rcd13ifvqhqg","pricing_plan_id":"cebpf4jnsgd1na2vs0mg"},{"bike_id":"9143bd2b-81be-4181-916b-9882ce1fe405","system_id":"levelo_inurba_marseille","lat":43.27835,"lon":5.40695,"is_reserved":false,"is_disabled":false,"rental_uris":{"android":"levelo://app?vid=9143bd2b-81be-4181-916b-9882ce1fe405","ios":"levelo://app?vid=9143bd2b-81be-4181-916b-9882ce1fe405"},"vehicle_type_id":"4","last_reported":1730909518,"current_range_meters":12000,"station_id":"ce4bhnh2rcd13ifvqgtg","pricing_plan_id":"cebpf4jnsgd1na2vs0mg"},{"bike_id":"763c153d-ecb1-456e-bc75-88d6afa0d334","system_id":"levelo_inurba_marseille","lat":43.303558,"lon":5.364964,"is_reserved":false,"is_disabled":false,"rental_uris":{"android":"levelo://app?vid=763c153d-ecb1-456e-bc75-88d6afa0d334","ios":"levelo://app?vid=763c153d-ecb1-456e-bc75-88d6afa0d334"},"vehicle_type_id":"4","last_reported":1730909518,"current_range_meters":38800,"station_id":"ce4bgnh2rcd13ifvqc0g","pricing_plan_id":"cebpf4jnsgd1na2vs0mg"},{"bike_id":"d6d201d7-a86a-47cd-800a-529982a50722","system_id":"levelo_inurba_marseille","lat":43.30551,"lon":5.3655,"is_reserved":false,"is_disabled":false,"rental_uris":{"android":"levelo://app?vid=d6d201d7-a86a-47cd-800a-529982a50722","ios":"levelo://app?vid=d6d201d7-a86a-47cd-800a-529982a50722"},"vehicle_type_id":"4","last_reported":1730909518,"current_range_meters":36000,"station_id":"ce4bgs12rcd13ifvqcag","pricing_plan_id":"cebpf4jnsgd1na2vs0mg"},{"bike_id":"c7ef90ea-118d-4221-905a-e4634d1e3102","system_id":"levelo_inurba_marseille","lat":43.28154,"lon":5.42645,"is_reserved":false,"is_disabled":false,"rental_uris":{"android":"levelo://app?vid=c7ef90ea-118d-4221-905a-e4634d1e3102","ios":"levelo://app?vid=c7ef90ea-118d-4221-905a-e4634d1e3102"},"vehicle_type_id":"4","last_reported":1730909518,"current_range_meters":17200,"station_id":"ce4bhnh2rcd13ifvqgug","pricing_plan_id":"cebpf4jnsgd1na2vs0mg"},{"bike_id":"2238520d-8fe9-44c2-ac5b-db6e39802755","system_id":"levelo_inurba_marseille","lat":43.30293,"lon":5.39216,"is_reserved":false,"is_disabled":false,"rental_uris":{"android":"levelo://app?vid=2238520d-8fe9-44c2-ac5b-db6e39802755","ios":"levelo://app?vid=2238520d-8fe9-44c2-ac5b-db6e39802755"},"vehicle_type_id":"4","last_reported":1730909518,"current_range_meters":38800,"station_id":"ce4bgkh2rcd13ifvqbk0","pricing_plan_id":"cebpf4jnsgd1na2vs0mg"},{"bike_id":"c3df37ad-4006-4ceb-9973-dff6e59652b4","system_id":"levelo_inurba_marseille","lat":43.29978,"lon":5.37185,"is_reserved":false,"is_disabled":false,"rental_uris":{"android":"levelo://app?vid=c3df37ad-4006-4ceb-9973-dff6e59652b4","ios":"levelo://app?vid=c3df37ad-4006-4ceb-9973-dff6e59652b4"},"vehicle_type_id":"4","last_reported":1730909518,"current_range_meters":39200,"station_id":"ce4bgr92rcd13ifvqc7g","pricing_plan_id":"cebpf4jnsgd1na2vs0mg"},{"bike_id":"b5f01ca1-08a3-4b12-8a1e-5c3219f2f4c8","system_id":"levelo_inurba_marseille","lat":43.27818,"lon":5.40718,"is_reserved":false,"is_disabled":false,"rental_uris":{"android":"levelo://app?vid=b5f01ca1-08a3-4b12-8a1e-5c3219f2f4c8","ios":"levelo://app?vid=b5f01ca1-08a3-4b12-8a1e-5c3219f2f4c8"},"vehicle_type_id":"4","last_reported":1730909518,"current_range_meters":35600,"station_id":"ce4bhnh2rcd13ifvqgtg","pricing_plan_id":"cebpf4jnsgd1na2vs0mg"},{"bike_id":"40512a4d-68bc-40a3-81d1-67cc73d350d9","system_id":"levelo_inurba_marseille","lat":43.27179,"lon":5.41006,"is_reserved":false,"is_disabled":false,"rental_uris":{"android":"levelo://app?vid=40512a4d-68bc-40a3-81d1-67cc73d350d9","ios":"levelo://app?vid=40512a4d-68bc-40a3-81d1-67cc73d350d9"},"vehicle_type_id":"4","last_reported":1730909518,"current_range_meters":14400,"station_id":"ce4bhl12rcd13ifvqgf0","pricing_plan_id":"cebpf4jnsgd1na2vs0mg"},{"bike_id":"8a401a8a-30f9-4643-ad63-74116d1b600f","system_id":"levelo_inurba_marseille","lat":43.32483,"lon":5.36574,"is_reserved":false,"is_disabled":false,"rental_uris":{"android":"levelo://app?vid=8a401a8a-30f9-4643-ad63-74116d1b600f","ios":"levelo://app?vid=8a401a8a-30f9-4643-ad63-74116d1b600f"},"vehicle_type_id":"4","last_reported":1730909518,"current_range_meters":38800,"station_id":"ce4bhs12rcd13ifvqhvg","pricing_plan_id":"cebpf4jnsgd1na2vs0mg"},{"bike_id":"052cfb92-f49e-4682-abf7-5ef74aff1c0d","system_id":"levelo_inurba_marseille","lat":43.31365,"lon":5.38498,"is_reserved":false,"is_disabled":false,"rental_uris":{"android":"levelo://app?vid=052cfb92-f49e-4682-abf7-5ef74aff1c0d","ios":"levelo://app?vid=052cfb92-f49e-4682-abf7-5ef74aff1c0d"},"vehicle_type_id":"4","last_reported":1730909518,"current_range_meters":20000,"station_id":"ce4bgt92rcd13ifvqcf0","pricing_plan_id":"cebpf4jnsgd1na2vs0mg"},{"bike_id":"6c84e5d6-cbcd-4ef6-8752-fca08dfbf518","system_id":"levelo_inurba_marseille","lat":43.29935,"lon":5.36551,"is_reserved":false,"is_disabled":false,"rental_uris":{"android":"levelo://app?vid=6c84e5d6-cbcd-4ef6-8752-fca08dfbf518","ios":"levelo://app?vid=6c84e5d6-cbcd-4ef6-8752-fca08dfbf518"},"vehicle_type_id":"4","last_reported":1730909518,"current_range_meters":24800,"station_id":"ce4bgm92rcd13ifvqbr0","pricing_plan_id":"cebpf4jnsgd1na2vs0mg"},{"bike_id":"d535ed27-083b-42cd-ada7-54b78390aeca","system_id":"levelo_inurba_marseille","lat":43.30559,"lon":5.3653,"is_reserved":false,"is_disabled":false,"rental_uris":{"android":"levelo://app?vid=d535ed27-083b-42cd-ada7-54b78390aeca","ios":"levelo://app?vid=d535ed27-083b-42cd-ada7-54b78390aeca"},"vehicle_type_id":"4","last_reported":1730909518,"current_range_meters":34000,"station_id":"ce4bgs12rcd13ifvqcag","pricing_plan_id":"cebpf4jnsgd1na2vs0mg"},{"bike_id":"bcf94556-2246-41f1-8c06-a98f1a3ca966","system_id":"levelo_inurba_marseille","lat":43.28933,"lon":5.3841,"is_reserved":false,"is_disabled":false,"rental_uris":{"android":"levelo://app?vid=bcf94556-2246-41f1-8c06-a98f1a3ca966","ios":"levelo://app?vid=bcf94556-2246-41f1-8c06-a98f1a3ca966"},"vehicle_type_id":"4","last_reported":1730909518,"current_range_meters":22800,"station_id":"ce4bh612rcd13ifvqe6g","pricing_plan_id":"cebpf4jnsgd1na2vs0mg"},{"bike_id":"fe1bed46-ff84-4824-8df6-bc4776e1ff0b","system_id":"levelo_inurba_marseille","lat":43.273153,"lon":5.406211,"is_reserved":false,"is_disabled":false,"rental_uris":{"android":"levelo://app?vid=fe1bed46-ff84-4824-8df6-bc4776e1ff0b","ios":"levelo://app?vid=fe1bed46-ff84-4824-8df6-bc4776e1ff0b"},"vehicle_type_id":"4","last_reported":1730909518,"current_range_meters":35600,"station_id":"ce4bhh12rcd13ifvqfg0","pricing_plan_id":"cebpf4jnsgd1na2vs0mg"},{"bike_id":"d229beaa-ac54-4996-9589-9d5015965115","system_id":"levelo_inurba_marseille","lat":43.28579,"lon":5.39499,"is_reserved":false,"is_disabled":false,"rental_uris":{"android":"levelo://app?vid=d229beaa-ac54-4996-9589-9d5015965115","ios":"levelo://app?vid=d229beaa-ac54-4996-9589-9d5015965115"},"vehicle_type_id":"4","last_reported":1730909518,"current_range_meters":17600,"station_id":"ce4bh292rcd13ifvqdg0","pricing_plan_id":"cebpf4jnsgd1na2vs0mg"},{"bike_id":"ed09d0ed-8081-4b36-96cb-db45661a5280","system_id":"levelo_inurba_marseille","lat":43.29908,"lon":5.38156,"is_reserved":false,"is_disabled":false,"rental_uris":{"android":"levelo://app?vid=ed09d0ed-8081-4b36-96cb-db45661a5280","ios":"levelo://app?vid=ed09d0ed-8081-4b36-96cb-db45661a5280"},"vehicle_type_id":"4","last_reported":1730909518,"current_range_meters":30000,"station_id":"ce4bgj12rcd13ifvqbc0","pricing_plan_id":"cebpf4jnsgd1na2vs0mg"},{"bike_id":"692f31da-ed64-4e18-b7cc-350f01a2fb79","system_id":"levelo_inurba_marseille","lat":43.29897,"lon":5.43663,"is_reserved":false,"is_disabled":false,"rental_uris":{"android":"levelo://app?vid=692f31da-ed64-4e18-b7cc-350f01a2fb79","ios":"levelo://app?vid=692f31da-ed64-4e18-b7cc-350f01a2fb79"},"vehicle_type_id":"4","last_reported":1730909518,"current_range_meters":18800,"station_id":"ce4bhpp2rcd13ifvqhfg","pricing_plan_id":"cebpf4jnsgd1na2vs0mg"},{"bike_id":"6f99ce44-c63b-49f9-ac8d-b48dd9e074c0","system_id":"levelo_inurba_marseille","lat":43.31065,"lon":5.38364,"is_reserved":false,"is_disabled":false,"rental_uris":{"android":"levelo://app?vid=6f99ce44-c63b-49f9-ac8d-b48dd9e074c0","ios":"levelo://app?vid=6f99ce44-c63b-49f9-ac8d-b48dd9e074c0"},"vehicle_type_id":"4","last_reported":1730909518,"current_range_meters":24800,"station_id":"ce4bgv92rcd13ifvqcr0","pricing_plan_id":"cebpf4jnsgd1na2vs0mg"},{"bike_id":"877569b6-3a84-43b8-a2ca-e2da8164b0cf","system_id":"levelo_inurba_marseille","lat":43.28655,"lon":5.36353,"is_reserved":false,"is_disabled":false,"rental_uris":{"android":"levelo://app?vid=877569b6-3a84-43b8-a2ca-e2da8164b0cf","ios":"levelo://app?vid=877569b6-3a84-43b8-a2ca-e2da8164b0cf"},"vehicle_type_id":"4","last_reported":1730909518,"current_range_meters":37600,"station_id":"ce4bhah2rcd13ifvqej0","pricing_plan_id":"cebpf4jnsgd1na2vs0mg"},{"bike_id":"85c89aba-e41d-473d-b938-d2638d3aab63","system_id":"levelo_inurba_marseille","lat":43.29916,"lon":5.38131,"is_reserved":false,"is_disabled":false,"rental_uris":{"android":"levelo://app?vid=85c89aba-e41d-473d-b938-d2638d3aab63","ios":"levelo://app?vid=85c89aba-e41d-473d-b938-d2638d3aab63"},"vehicle_type_id":"4","last_reported":1730909518,"current_range_meters":12000,"station_id":"ce4bgj12rcd13ifvqbc0","pricing_plan_id":"cebpf4jnsgd1na2vs0mg"},{"bike_id":"1428eb0a-f54e-4828-a2c6-9865dbfa71c4","system_id":"levelo_inurba_marseille","lat":43.29875,"lon":5.38918,"is_reserved":false,"is_disabled":false,"rental_uris":{"android":"levelo://app?vid=1428eb0a-f54e-4828-a2c6-9865dbfa71c4","ios":"levelo://app?vid=1428eb0a-f54e-4828-a2c6-9865dbfa71c4"},"vehicle_type_id":"4","last_reported":1730909518,"current_range_meters":38400,"station_id":"ce4bh392rcd13ifvqdl0","pricing_plan_id":"cebpf4jnsgd1na2vs0mg"},{"bike_id":"575c156e-fef3-4750-807a-2263eeda9094","system_id":"levelo_inurba_marseille","lat":43.28865,"lon":5.35867,"is_reserved":false,"is_disabled":false,"rental_uris":{"android":"levelo://app?vid=575c156e-fef3-4750-807a-2263eeda9094","ios":"levelo://app?vid=575c156e-fef3-4750-807a-2263eeda9094"},"vehicle_type_id":"4","last_reported":1730909518,"current_range_meters":32400,"station_id":"ce4bhb12rcd13ifvqem0","pricing_plan_id":"cebpf4jnsgd1na2vs0mg"},{"bike_id":"c0314875-546c-4af6-b76f-540f33ba13ae","system_id":"levelo_inurba_marseille","lat":43.28576,"lon":5.39509,"is_reserved":false,"is_disabled":false,"rental_uris":{"android":"levelo://app?vid=c0314875-546c-4af6-b76f-540f33ba13ae","ios":"levelo://app?vid=c0314875-546c-4af6-b76f-540f33ba13ae"},"vehicle_type_id":"4","last_reported":1730909518,"current_range_meters":12400,"station_id":"ce4bh292rcd13ifvqdg0","pricing_plan_id":"cebpf4jnsgd1na2vs0mg"},{"bike_id":"c22cac75-91bf-4544-bd8d-adae2938f5fb","system_id":"levelo_inurba_marseille","lat":43.298549,"lon":5.383845,"is_reserved":false,"is_disabled":false,"rental_uris":{"android":"levelo://app?vid=c22cac75-91bf-4544-bd8d-adae2938f5fb","ios":"levelo://app?vid=c22cac75-91bf-4544-bd8d-adae2938f5fb"},"vehicle_type_id":"4","last_reported":1730909518,"current_range_meters":33600,"station_id":"ce4bgj92rcd13ifvqbd0","pricing_plan_id":"cebpf4jnsgd1na2vs0mg"},{"bike_id":"b30b3076-6dc0-4cb5-80a1-9fcabfa933da","system_id":"levelo_inurba_marseille","lat":43.30254,"lon":5.40079,"is_reserved":false,"is_disabled":false,"rental_uris":{"android":"levelo://app?vid=b30b3076-6dc0-4cb5-80a1-9fcabfa933da","ios":"levelo://app?vid=b30b3076-6dc0-4cb5-80a1-9fcabfa933da"},"vehicle_type_id":"4","last_reported":1730909518,"current_range_meters":29600,"station_id":"ce4bgvh2rcd13ifvqcs0","pricing_plan_id":"cebpf4jnsgd1na2vs0mg"},{"bike_id":"66cadc2f-87dc-4b78-bb91-c6d6eee1cfce","system_id":"levelo_inurba_marseille","lat":43.30142,"lon":5.39882,"is_reserved":false,"is_disabled":false,"rental_uris":{"android":"levelo://app?vid=66cadc2f-87dc-4b78-bb91-c6d6eee1cfce","ios":"levelo://app?vid=66cadc2f-87dc-4b78-bb91-c6d6eee1cfce"},"vehicle_type_id":"4","last_reported":1730909518,"current_range_meters":18800,"station_id":"ce4bh0h2rcd13ifvqd40","pricing_plan_id":"cebpf4jnsgd1na2vs0mg"},{"bike_id":"3e033577-fd0c-4b10-b77c-27b08792834a","system_id":"levelo_inurba_marseille","lat":43.26805,"lon":5.40264,"is_reserved":false,"is_disabled":false,"rental_uris":{"android":"levelo://app?vid=3e033577-fd0c-4b10-b77c-27b08792834a","ios":"levelo://app?vid=3e033577-fd0c-4b10-b77c-27b08792834a"},"vehicle_type_id":"4","last_reported":1730909518,"current_range_meters":19600,"station_id":"ce501612rcd8frsf0b60","pricing_plan_id":"cebpf4jnsgd1na2vs0mg"},{"bike_id":"6c0ec494-6a8d-470b-8cc1-989fb91438d3","system_id":"levelo_inurba_marseille","lat":43.23179,"lon":5.40002,"is_reserved":false,"is_disabled":false,"rental_uris":{"android":"levelo://app?vid=6c0ec494-6a8d-470b-8cc1-989fb91438d3","ios":"levelo://app?vid=6c0ec494-6a8d-470b-8cc1-989fb91438d3"},"vehicle_type_id":"4","last_reported":1730909518,"current_range_meters":29600,"station_id":"ce4bhn12rcd13ifvqgqg","pricing_plan_id":"cebpf4jnsgd1na2vs0mg"},{"bike_id":"75df645e-c328-486c-b1a0-5ab470da5008","system_id":"levelo_inurba_marseille","lat":43.26064,"lon":5.39395,"is_reserved":false,"is_disabled":false,"rental_uris":{"android":"levelo://app?vid=75df645e-c328-486c-b1a0-5ab470da5008","ios":"levelo://app?vid=75df645e-c328-486c-b1a0-5ab470da5008"},"vehicle_type_id":"4","last_reported":1730909518,"current_range_meters":28800,"station_id":"ce4bhh92rcd13ifvqfj0","pricing_plan_id":"cebpf4jnsgd1na2vs0mg"},{"bike_id":"22e7a747-06bd-4fec-974a-d1540f8f3dd7","system_id":"levelo_inurba_marseille","lat":43.29045,"lon":5.35933,"is_reserved":false,"is_disabled":false,"rental_uris":{"android":"levelo://app?vid=22e7a747-06bd-4fec-974a-d1540f8f3dd7","ios":"levelo://app?vid=22e7a747-06bd-4fec-974a-d1540f8f3dd7"},"vehicle_type_id":"4","last_reported":1730909518,"current_range_meters":17200,"station_id":"ce4bha92rcd13ifvqeg0","pricing_plan_id":"cebpf4jnsgd1na2vs0mg"},{"bike_id":"83175695-b5b2-48cb-8a85-31d3ba4edf4f","system_id":"levelo_inurba_marseille","lat":43.29278,"lon":5.40116,"is_reserved":false,"is_disabled":false,"rental_uris":{"android":"levelo://app?vid=83175695-b5b2-48cb-8a85-31d3ba4edf4f","ios":"levelo://app?vid=83175695-b5b2-48cb-8a85-31d3ba4edf4f"},"vehicle_type_id":"4","last_reported":1730909518,"current_range_meters":1200,"station_id":"ce4bh312rcd13ifvqdk0","pricing_plan_id":"cebpf4jnsgd1na2vs0mg"},{"bike_id":"8ab08c37-7c09-402f-bca1-437bd1535a2d","system_id":"levelo_inurba_marseille","lat":43.27684,"lon":5.40695,"is_reserved":false,"is_disabled":false,"rental_uris":{"android":"levelo://app?vid=8ab08c37-7c09-402f-bca1-437bd1535a2d","ios":"levelo://app?vid=8ab08c37-7c09-402f-bca1-437bd1535a2d"},"vehicle_type_id":"4","last_reported":1730909518,"current_range_meters":10800,"station_id":"ce4bhnh2rcd13ifvqgtg","pricing_plan_id":"cebpf4jnsgd1na2vs0mg"},{"bike_id":"a9134a2c-0cd3-42f1-aaa5-22766e2fb6e3","system_id":"levelo_inurba_marseille","lat":43.30595,"lon":5.37214,"is_reserved":false,"is_disabled":false,"rental_uris":{"android":"levelo://app?vid=a9134a2c-0cd3-42f1-aaa5-22766e2fb6e3","ios":"levelo://app?vid=a9134a2c-0cd3-42f1-aaa5-22766e2fb6e3"},"vehicle_type_id":"4","last_reported":1730909518,"current_range_meters":38800,"station_id":"ce4bgqh2rcd13ifvqc4g","pricing_plan_id":"cebpf4jnsgd1na2vs0mg"},{"bike_id":"6b188415-96d1-49e9-9e50-7df614c4c8c7","system_id":"levelo_inurba_marseille","lat":43.30195,"lon":5.36634,"is_reserved":false,"is_disabled":false,"rental_uris":{"android":"levelo://app?vid=6b188415-96d1-49e9-9e50-7df614c4c8c7","ios":"levelo://app?vid=6b188415-96d1-49e9-9e50-7df614c4c8c7"},"vehicle_type_id":"4","last_reported":1730909518,"current_range_meters":39200,"station_id":"ce4bgrh2rcd13ifvqc8g","pricing_plan_id":"cebpf4jnsgd1na2vs0mg"},{"bike_id":"42163e3e-5009-401f-a1ce-f09eb7e2a510","system_id":"levelo_inurba_marseille","lat":43.31331,"lon":5.39712,"is_reserved":false,"is_disabled":false,"rental_uris":{"android":"levelo://app?vid=42163e3e-5009-401f-a1ce-f09eb7e2a510","ios":"levelo://app?vid=42163e3e-5009-401f-a1ce-f09eb7e2a510"},"vehicle_type_id":"4","last_reported":1730909518,"current_range_meters":40000,"station_id":"ce4bgvp2rcd13ifvqcu0","pricing_plan_id":"cebpf4jnsgd1na2vs0mg"},{"bike_id":"a0db1695-32d8-4d9c-9829-ab1da773a69e","system_id":"levelo_inurba_marseille","lat":43.30144,"lon":5.39868,"is_reserved":false,"is_disabled":false,"rental_uris":{"android":"levelo://app?vid=a0db1695-32d8-4d9c-9829-ab1da773a69e","ios":"levelo://app?vid=a0db1695-32d8-4d9c-9829-ab1da773a69e"},"vehicle_type_id":"4","last_reported":1730909518,"current_range_meters":36800,"station_id":"ce4bh0h2rcd13ifvqd40","pricing_plan_id":"cebpf4jnsgd1na2vs0mg"},{"bike_id":"57ea6471-9cc9-4186-a6ef-c9174a866749","system_id":"levelo_inurba_marseille","lat":43.30307,"lon":5.39219,"is_reserved":false,"is_disabled":false,"rental_uris":{"android":"levelo://app?vid=57ea6471-9cc9-4186-a6ef-c9174a866749","ios":"levelo://app?vid=57ea6471-9cc9-4186-a6ef-c9174a866749"},"vehicle_type_id":"4","last_reported":1730909518,"current_range_meters":38800,"station_id":"ce4bgkh2rcd13ifvqbk0","pricing_plan_id":"cebpf4jnsgd1na2vs0mg"},{"bike_id":"9d5bb832-736f-447e-90e2-4b4afdee42a6","system_id":"levelo_inurba_marseille","lat":43.29239,"lon":5.3664,"is_reserved":false,"is_disabled":false,"rental_uris":{"android":"levelo://app?vid=9d5bb832-736f-447e-90e2-4b4afdee42a6","ios":"levelo://app?vid=9d5bb832-736f-447e-90e2-4b4afdee42a6"},"vehicle_type_id":"4","last_reported":1730909518,"current_range_meters":8800,"station_id":"","pricing_plan_id":"cebpf4jnsgd1na2vs0mg"},{"bike_id":"c622793d-4223-430f-b9d8-6e243bd6889b","system_id":"levelo_inurba_marseille","lat":43.29625,"lon":5.37718,"is_reserved":false,"is_disabled":false,"rental_uris":{"android":"levelo://app?vid=c622793d-4223-430f-b9d8-6e243bd6889b","ios":"levelo://app?vid=c622793d-4223-430f-b9d8-6e243bd6889b"},"vehicle_type_id":"4","last_reported":1730909518,"current_range_meters":6800,"station_id":"ce4bgi92rcd13ifvqb90","pricing_plan_id":"cebpf4jnsgd1na2vs0mg"},{"bike_id":"9dee2a82-0da7-4471-ad6f-a2711259dd5f","system_id":"levelo_inurba_marseille","lat":43.30143,"lon":5.37412,"is_reserved":false,"is_disabled":false,"rental_uris":{"android":"levelo://app?vid=9dee2a82-0da7-4471-ad6f-a2711259dd5f","ios":"levelo://app?vid=9dee2a82-0da7-4471-ad6f-a2711259dd5f"},"vehicle_type_id":"4","last_reported":1730909518,"current_range_meters":38800,"station_id":"ce4bgs92rcd13ifvqcc0","pricing_plan_id":"cebpf4jnsgd1na2vs0mg"},{"bike_id":"2be58595-1ee4-4e97-90d2-c6d933b5e1c7","system_id":"levelo_inurba_marseille","lat":43.29897,"lon":5.43667,"is_reserved":false,"is_disabled":false,"rental_uris":{"android":"levelo://app?vid=2be58595-1ee4-4e97-90d2-c6d933b5e1c7","ios":"levelo://app?vid=2be58595-1ee4-4e97-90d2-c6d933b5e1c7"},"vehicle_type_id":"4","last_reported":1730909518,"current_range_meters":19600,"station_id":"ce4bhpp2rcd13ifvqhfg","pricing_plan_id":"cebpf4jnsgd1na2vs0mg"},{"bike_id":"56774acb-db67-4ad7-a357-929e677f3cc8","system_id":"levelo_inurba_marseille","lat":43.28079,"lon":5.39651,"is_reserved":false,"is_disabled":false,"rental_uris":{"android":"levelo://app?vid=56774acb-db67-4ad7-a357-929e677f3cc8","ios":"levelo://app?vid=56774acb-db67-4ad7-a357-929e677f3cc8"},"vehicle_type_id":"4","last_reported":1730909518,"current_range_meters":40000,"station_id":"ce4bho12rcd13ifvqh2g","pricing_plan_id":"cebpf4jnsgd1na2vs0mg"},{"bike_id":"1d1c4056-7a38-429a-911c-e9f787b7be9f","system_id":"levelo_inurba_marseille","lat":43.2942,"lon":5.38631,"is_reserved":false,"is_disabled":false,"rental_uris":{"android":"levelo://app?vid=1d1c4056-7a38-429a-911c-e9f787b7be9f","ios":"levelo://app?vid=1d1c4056-7a38-429a-911c-e9f787b7be9f"},"vehicle_type_id":"4","last_reported":1730909518,"current_range_meters":24000,"station_id":"ce4bh2h2rcd13ifvqdh0","pricing_plan_id":"cebpf4jnsgd1na2vs0mg"},{"bike_id":"255415a0-fa06-4f34-a48b-92093f9a4615","system_id":"levelo_inurba_marseille","lat":43.30417,"lon":5.41288,"is_reserved":false,"is_disabled":false,"rental_uris":{"android":"levelo://app?vid=255415a0-fa06-4f34-a48b-92093f9a4615","ios":"levelo://app?vid=255415a0-fa06-4f34-a48b-92093f9a4615"},"vehicle_type_id":"4","last_reported":1730909518,"current_range_meters":28400,"station_id":"ce4bhop2rcd13ifvqh8g","pricing_plan_id":"cebpf4jnsgd1na2vs0mg"},{"bike_id":"9dd3607f-4f2f-4f96-ba92-948334cfc5ef","system_id":"levelo_inurba_marseille","lat":43.29533,"lon":5.38539,"is_reserved":false,"is_disabled":false,"rental_uris":{"android":"levelo://app?vid=9dd3607f-4f2f-4f96-ba92-948334cfc5ef","ios":"levelo://app?vid=9dd3607f-4f2f-4f96-ba92-948334cfc5ef"},"vehicle_type_id":"4","last_reported":1730909518,"current_range_meters":32000,"station_id":"ce4bgih2rcd13ifvqba0","pricing_plan_id":"cebpf4jnsgd1na2vs0mg"},{"bike_id":"0ef8de58-21b1-49f6-9fb4-7906556155f6","system_id":"levelo_inurba_marseille","lat":43.27369,"lon":5.36255,"is_reserved":false,"is_disabled":false,"rental_uris":{"android":"levelo://app?vid=0ef8de58-21b1-49f6-9fb4-7906556155f6","ios":"levelo://app?vid=0ef8de58-21b1-49f6-9fb4-7906556155f6"},"vehicle_type_id":"4","last_reported":1730909518,"current_range_meters":38800,"station_id":"ce4bhbh2rcd13ifvqeo0","pricing_plan_id":"cebpf4jnsgd1na2vs0mg"},{"bike_id":"7c4e4407-2e0a-4970-b60b-e4c318769401","system_id":"levelo_inurba_marseille","lat":43.30138,"lon":5.37425,"is_reserved":false,"is_disabled":false,"rental_uris":{"android":"levelo://app?vid=7c4e4407-2e0a-4970-b60b-e4c318769401","ios":"levelo://app?vid=7c4e4407-2e0a-4970-b60b-e4c318769401"},"vehicle_type_id":"4","last_reported":1730909518,"current_range_meters":6800,"station_id":"ce4bgs92rcd13ifvqcc0","pricing_plan_id":"cebpf4jnsgd1na2vs0mg"},{"bike_id":"f348c9f4-9a66-4443-89e4-59eadd84ea52","system_id":"levelo_inurba_marseille","lat":43.31533,"lon":5.3724,"is_reserved":false,"is_disabled":false,"rental_uris":{"android":"levelo://app?vid=f348c9f4-9a66-4443-89e4-59eadd84ea52","ios":"levelo://app?vid=f348c9f4-9a66-4443-89e4-59eadd84ea52"},"vehicle_type_id":"4","last_reported":1730909518,"current_range_meters":7200,"station_id":"","pricing_plan_id":"cebpf4jnsgd1na2vs0mg"},{"bike_id":"022241b0-2f1e-4060-80c5-96d478531549","system_id":"levelo_inurba_marseille","lat":43.29914,"lon":5.37468,"is_reserved":false,"is_disabled":false,"rental_uris":{"android":"levelo://app?vid=022241b0-2f1e-4060-80c5-96d478531549","ios":"levelo://app?vid=022241b0-2f1e-4060-80c5-96d478531549"},"vehicle_type_id":"4","last_reported":1730909518,"current_range_meters":38800,"station_id":"ce4bgjh2rcd13ifvqbg0","pricing_plan_id":"cebpf4jnsgd1na2vs0mg"},{"bike_id":"9a57b94b-08e2-46b1-a431-346b37d938e3","system_id":"levelo_inurba_marseille","lat":43.27178,"lon":5.41005,"is_reserved":false,"is_disabled":false,"rental_uris":{"android":"levelo://app?vid=9a57b94b-08e2-46b1-a431-346b37d938e3","ios":"levelo://app?vid=9a57b94b-08e2-46b1-a431-346b37d938e3"},"vehicle_type_id":"4","last_reported":1730909518,"current_range_meters":3200,"station_id":"ce4bhl12rcd13ifvqgf0","pricing_plan_id":"cebpf4jnsgd1na2vs0mg"},{"bike_id":"dfc5a11b-cfc2-4ce9-8698-799cdda3d684","system_id":"levelo_inurba_marseille","lat":43.28081,"lon":5.39675,"is_reserved":false,"is_disabled":false,"rental_uris":{"android":"levelo://app?vid=dfc5a11b-cfc2-4ce9-8698-799cdda3d684","ios":"levelo://app?vid=dfc5a11b-cfc2-4ce9-8698-799cdda3d684"},"vehicle_type_id":"4","last_reported":1730909518,"current_range_meters":40000,"station_id":"ce4bho12rcd13ifvqh2g","pricing_plan_id":"cebpf4jnsgd1na2vs0mg"},{"bike_id":"d67423fc-1978-47b1-8b0e-24c55b799007","system_id":"levelo_inurba_marseille","lat":43.28459,"lon":5.3589,"is_reserved":false,"is_disabled":false,"rental_uris":{"android":"levelo://app?vid=d67423fc-1978-47b1-8b0e-24c55b799007","ios":"levelo://app?vid=d67423fc-1978-47b1-8b0e-24c55b799007"},"vehicle_type_id":"4","last_reported":1730909518,"current_range_meters":24400,"station_id":"ce4bhah2rcd13ifvqei0","pricing_plan_id":"cebpf4jnsgd1na2vs0mg"},{"bike_id":"b50124f7-391f-422d-9a0b-49082f5dad39","system_id":"levelo_inurba_marseille","lat":43.315298,"lon":5.380361,"is_reserved":false,"is_disabled":false,"rental_uris":{"android":"levelo://app?vid=b50124f7-391f-422d-9a0b-49082f5dad39","ios":"levelo://app?vid=b50124f7-391f-422d-9a0b-49082f5dad39"},"vehicle_type_id":"4","last_reported":1730909518,"current_range_meters":25600,"station_id":"ce4bhsp2rcd13ifvqi50","pricing_plan_id":"cebpf4jnsgd1na2vs0mg"},{"bike_id":"faeea410-7e80-46b6-8613-bf50ab6edfd9","system_id":"levelo_inurba_marseille","lat":43.302739,"lon":5.3867,"is_reserved":false,"is_disabled":false,"rental_uris":{"android":"levelo://app?vid=faeea410-7e80-46b6-8613-bf50ab6edfd9","ios":"levelo://app?vid=faeea410-7e80-46b6-8613-bf50ab6edfd9"},"vehicle_type_id":"4","last_reported":1730909518,"current_range_meters":17200,"station_id":"ce4bgip2rcd13ifvqbb0","pricing_plan_id":"cebpf4jnsgd1na2vs0mg"},{"bike_id":"1f47ed8e-1934-48ce-892b-9aee2605272e","system_id":"levelo_inurba_marseille","lat":43.28925,"lon":5.38405,"is_reserved":false,"is_disabled":false,"rental_uris":{"android":"levelo://app?vid=1f47ed8e-1934-48ce-892b-9aee2605272e","ios":"levelo://app?vid=1f47ed8e-1934-48ce-892b-9aee2605272e"},"vehicle_type_id":"4","last_reported":1730909518,"current_range_meters":38800,"station_id":"ce4bh612rcd13ifvqe6g","pricing_plan_id":"cebpf4jnsgd1na2vs0mg"},{"bike_id":"2fd23dd6-005c-4cae-a126-97bd9f7f6f6d","system_id":"levelo_inurba_marseille","lat":43.28677,"lon":5.38663,"is_reserved":false,"is_disabled":false,"rental_uris":{"android":"levelo://app?vid=2fd23dd6-005c-4cae-a126-97bd9f7f6f6d","ios":"levelo://app?vid=2fd23dd6-005c-4cae-a126-97bd9f7f6f6d"},"vehicle_type_id":"4","last_reported":1730909518,"current_range_meters":35600,"station_id":"ce4bh492rcd13ifvqdug","pricing_plan_id":"cebpf4jnsgd1na2vs0mg"},{"bike_id":"7a632a08-abcd-4623-9357-6ba3612cc8e7","system_id":"levelo_inurba_marseille","lat":43.25578,"lon":5.38245,"is_reserved":false,"is_disabled":false,"rental_uris":{"android":"levelo://app?vid=7a632a08-abcd-4623-9357-6ba3612cc8e7","ios":"levelo://app?vid=7a632a08-abcd-4623-9357-6ba3612cc8e7"},"vehicle_type_id":"4","last_reported":1730909518,"current_range_meters":18800,"station_id":"ce4bhih2rcd13ifvqfs0","pricing_plan_id":"cebpf4jnsgd1na2vs0mg"},{"bike_id":"b4678c20-7935-41da-9eb4-bbd1cd730c71","system_id":"levelo_inurba_marseille","lat":43.2587,"lon":5.39903,"is_reserved":false,"is_disabled":false,"rental_uris":{"android":"levelo://app?vid=b4678c20-7935-41da-9eb4-bbd1cd730c71","ios":"levelo://app?vid=b4678c20-7935-41da-9eb4-bbd1cd730c71"},"vehicle_type_id":"4","last_reported":1730909518,"current_range_meters":37600,"station_id":"ce4bhl92rcd13ifvqghg","pricing_plan_id":"cebpf4jnsgd1na2vs0mg"},{"bike_id":"b50b8fca-8620-467d-9e17-74a99309a684","system_id":"levelo_inurba_marseille","lat":43.29229,"lon":5.36073,"is_reserved":false,"is_disabled":false,"rental_uris":{"android":"levelo://app?vid=b50b8fca-8620-467d-9e17-74a99309a684","ios":"levelo://app?vid=b50b8fca-8620-467d-9e17-74a99309a684"},"vehicle_type_id":"4","last_reported":1730909518,"current_range_meters":35200,"station_id":"ce4bhbh2rcd13ifvqeqg","pricing_plan_id":"cebpf4jnsgd1na2vs0mg"},{"bike_id":"cde33d01-4fdf-4588-9993-50576e545d63","system_id":"levelo_inurba_marseille","lat":43.29903,"lon":5.43677,"is_reserved":false,"is_disabled":false,"rental_uris":{"android":"levelo://app?vid=cde33d01-4fdf-4588-9993-50576e545d63","ios":"levelo://app?vid=cde33d01-4fdf-4588-9993-50576e545d63"},"vehicle_type_id":"4","last_reported":1730909518,"current_range_meters":37600,"station_id":"ce4bhpp2rcd13ifvqhfg","pricing_plan_id":"cebpf4jnsgd1na2vs0mg"},{"bike_id":"7b0fa45b-73b1-43d0-b318-c7b89f93ae59","system_id":"levelo_inurba_marseille","lat":43.31327,"lon":5.39712,"is_reserved":false,"is_disabled":false,"rental_uris":{"android":"levelo://app?vid=7b0fa45b-73b1-43d0-b318-c7b89f93ae59","ios":"levelo://app?vid=7b0fa45b-73b1-43d0-b318-c7b89f93ae59"},"vehicle_type_id":"4","last_reported":1730909518,"current_range_meters":8400,"station_id":"ce4bgvp2rcd13ifvqcu0","pricing_plan_id":"cebpf4jnsgd1na2vs0mg"},{"bike_id":"a9a07d55-8a5c-4444-951d-b08b7d2e7752","system_id":"levelo_inurba_marseille","lat":43.29803,"lon":5.38112,"is_reserved":false,"is_disabled":false,"rental_uris":{"android":"levelo://app?vid=a9a07d55-8a5c-4444-951d-b08b7d2e7752","ios":"levelo://app?vid=a9a07d55-8a5c-4444-951d-b08b7d2e7752"},"vehicle_type_id":"4","last_reported":1730909518,"current_range_meters":38800,"station_id":"ce4bgip2rcd13ifvqbb0","pricing_plan_id":"cebpf4jnsgd1na2vs0mg"},{"bike_id":"5956a5cb-e298-42ff-9b3c-0356908fb07f","system_id":"levelo_inurba_marseille","lat":43.30788,"lon":5.37658,"is_reserved":false,"is_disabled":false,"rental_uris":{"android":"levelo://app?vid=5956a5cb-e298-42ff-9b3c-0356908fb07f","ios":"levelo://app?vid=5956a5cb-e298-42ff-9b3c-0356908fb07f"},"vehicle_type_id":"4","last_reported":1730909518,"current_range_meters":38400,"station_id":"ce4bgv92rcd13ifvqcq0","pricing_plan_id":"cebpf4jnsgd1na2vs0mg"},{"bike_id":"6e058904-b787-4ff9-9599-1f845d643ce1","system_id":"levelo_inurba_marseille","lat":43.30548,"lon":5.38429,"is_reserved":false,"is_disabled":false,"rental_uris":{"android":"levelo://app?vid=6e058904-b787-4ff9-9599-1f845d643ce1","ios":"levelo://app?vid=6e058904-b787-4ff9-9599-1f845d643ce1"},"vehicle_type_id":"4","last_reported":1730909518,"current_range_meters":24400,"station_id":"ce4bgg92rcd13ifvqb30","pricing_plan_id":"cebpf4jnsgd1na2vs0mg"},{"bike_id":"6eb85ccd-da9a-4ffe-af26-c8aa9f5f40f1","system_id":"levelo_inurba_marseille","lat":43.27617,"lon":5.36113,"is_reserved":false,"is_disabled":false,"rental_uris":{"android":"levelo://app?vid=6eb85ccd-da9a-4ffe-af26-c8aa9f5f40f1","ios":"levelo://app?vid=6eb85ccd-da9a-4ffe-af26-c8aa9f5f40f1"},"vehicle_type_id":"4","last_reported":1730909518,"current_range_meters":24800,"station_id":"ce4bgj92rcd13ifvqbe0","pricing_plan_id":"cebpf4jnsgd1na2vs0mg"},{"bike_id":"bc8ee944-4095-408e-9184-b2d4e6d962c5","system_id":"levelo_inurba_marseille","lat":43.29202,"lon":5.39319,"is_reserved":false,"is_disabled":false,"rental_uris":{"android":"levelo://app?vid=bc8ee944-4095-408e-9184-b2d4e6d962c5","ios":"levelo://app?vid=bc8ee944-4095-408e-9184-b2d4e6d962c5"},"vehicle_type_id":"4","last_reported":1730909518,"current_range_meters":35600,"station_id":"ce4bh192rcd13ifvqdd0","pricing_plan_id":"cebpf4jnsgd1na2vs0mg"},{"bike_id":"5174ae6b-73b7-4eb9-b82e-9c61c1f78ce8","system_id":"levelo_inurba_marseille","lat":43.31217,"lon":5.40634,"is_reserved":false,"is_disabled":false,"rental_uris":{"android":"levelo://app?vid=5174ae6b-73b7-4eb9-b82e-9c61c1f78ce8","ios":"levelo://app?vid=5174ae6b-73b7-4eb9-b82e-9c61c1f78ce8"},"vehicle_type_id":"4","last_reported":1730909518,"current_range_meters":22400,"station_id":"","pricing_plan_id":"cebpf4jnsgd1na2vs0mg"},{"bike_id":"884bcd50-e859-42ec-ae66-a939f1569fab","system_id":"levelo_inurba_marseille","lat":43.31077,"lon":5.38358,"is_reserved":false,"is_disabled":false,"rental_uris":{"android":"levelo://app?vid=884bcd50-e859-42ec-ae66-a939f1569fab","ios":"levelo://app?vid=884bcd50-e859-42ec-ae66-a939f1569fab"},"vehicle_type_id":"4","last_reported":1730909518,"current_range_meters":22000,"station_id":"ce4bgv92rcd13ifvqcr0","pricing_plan_id":"cebpf4jnsgd1na2vs0mg"},{"bike_id":"dc6dea52-7723-4aab-a4b3-471bd0ac08b3","system_id":"levelo_inurba_marseille","lat":43.2866,"lon":5.36366,"is_reserved":false,"is_disabled":false,"rental_uris":{"android":"levelo://app?vid=dc6dea52-7723-4aab-a4b3-471bd0ac08b3","ios":"levelo://app?vid=dc6dea52-7723-4aab-a4b3-471bd0ac08b3"},"vehicle_type_id":"4","last_reported":1730909518,"current_range_meters":12000,"station_id":"ce4bhah2rcd13ifvqej0","pricing_plan_id":"cebpf4jnsgd1na2vs0mg"},{"bike_id":"abe2948c-ebf4-4868-99bf-717699faba72","system_id":"levelo_inurba_marseille","lat":43.306,"lon":5.37263,"is_reserved":false,"is_disabled":false,"rental_uris":{"android":"levelo://app?vid=abe2948c-ebf4-4868-99bf-717699faba72","ios":"levelo://app?vid=abe2948c-ebf4-4868-99bf-717699faba72"},"vehicle_type_id":"4","last_reported":1730909518,"current_range_meters":19200,"station_id":"ce4bgqh2rcd13ifvqc4g","pricing_plan_id":"cebpf4jnsgd1na2vs0mg"},{"bike_id":"b306063a-1fd5-487f-83bd-7aa64c5b9dda","system_id":"levelo_inurba_marseille","lat":43.307932,"lon":5.376424,"is_reserved":false,"is_disabled":false,"rental_uris":{"android":"levelo://app?vid=b306063a-1fd5-487f-83bd-7aa64c5b9dda","ios":"levelo://app?vid=b306063a-1fd5-487f-83bd-7aa64c5b9dda"},"vehicle_type_id":"4","last_reported":1730909518,"current_range_meters":10800,"station_id":"ce4bgv92rcd13ifvqcq0","pricing_plan_id":"cebpf4jnsgd1na2vs0mg"},{"bike_id":"cbd8bc23-8641-4966-9012-550259f398a2","system_id":"levelo_inurba_marseille","lat":43.25829,"lon":5.3944,"is_reserved":false,"is_disabled":false,"rental_uris":{"android":"levelo://app?vid=cbd8bc23-8641-4966-9012-550259f398a2","ios":"levelo://app?vid=cbd8bc23-8641-4966-9012-550259f398a2"},"vehicle_type_id":"4","last_reported":1730909518,"current_range_meters":18800,"station_id":"ce4bhip2rcd13ifvqft0","pricing_plan_id":"cebpf4jnsgd1na2vs0mg"},{"bike_id":"bff19b85-fa9d-4d2e-a404-1b3282f15d63","system_id":"levelo_inurba_marseille","lat":43.27995,"lon":5.40031,"is_reserved":false,"is_disabled":false,"rental_uris":{"android":"levelo://app?vid=bff19b85-fa9d-4d2e-a404-1b3282f15d63","ios":"levelo://app?vid=bff19b85-fa9d-4d2e-a404-1b3282f15d63"},"vehicle_type_id":"4","last_reported":1730909518,"current_range_meters":38000,"station_id":"ce4bho92rcd13ifvqh4g","pricing_plan_id":"cebpf4jnsgd1na2vs0mg"},{"bike_id":"401dcdb8-383b-48a1-ac39-14bb7d0992db","system_id":"levelo_inurba_marseille","lat":43.27576,"lon":5.38425,"is_reserved":false,"is_disabled":false,"rental_uris":{"android":"levelo://app?vid=401dcdb8-383b-48a1-ac39-14bb7d0992db","ios":"levelo://app?vid=401dcdb8-383b-48a1-ac39-14bb7d0992db"},"vehicle_type_id":"4","last_reported":1730909518,"current_range_meters":31200,"station_id":"ce4bhh92rcd13ifvqfi0","pricing_plan_id":"cebpf4jnsgd1na2vs0mg"},{"bike_id":"facaddb7-865b-4fc0-aede-e7720a798ab7","system_id":"levelo_inurba_marseille","lat":43.30146,"lon":5.37419,"is_reserved":false,"is_disabled":false,"rental_uris":{"android":"levelo://app?vid=facaddb7-865b-4fc0-aede-e7720a798ab7","ios":"levelo://app?vid=facaddb7-865b-4fc0-aede-e7720a798ab7"},"vehicle_type_id":"4","last_reported":1730909518,"current_range_meters":30800,"station_id":"ce4bgs92rcd13ifvqcc0","pricing_plan_id":"cebpf4jnsgd1na2vs0mg"},{"bike_id":"b3fe9c81-d894-4a06-baa2-c483f85920ff","system_id":"levelo_inurba_marseille","lat":43.323407,"lon":5.406218,"is_reserved":false,"is_disabled":false,"rental_uris":{"android":"levelo://app?vid=b3fe9c81-d894-4a06-baa2-c483f85920ff","ios":"levelo://app?vid=b3fe9c81-d894-4a06-baa2-c483f85920ff"},"vehicle_type_id":"4","last_reported":1730909518,"current_range_meters":17200,"station_id":"ce4bhq92rcd13ifvqhjg","pricing_plan_id":"cebpf4jnsgd1na2vs0mg"},{"bike_id":"ebcf6733-e41e-4f70-b758-d56fe1de23df","system_id":"levelo_inurba_marseille","lat":43.30537,"lon":5.36538,"is_reserved":false,"is_disabled":false,"rental_uris":{"android":"levelo://app?vid=ebcf6733-e41e-4f70-b758-d56fe1de23df","ios":"levelo://app?vid=ebcf6733-e41e-4f70-b758-d56fe1de23df"},"vehicle_type_id":"4","last_reported":1730909518,"current_range_meters":39200,"station_id":"ce4bgs12rcd13ifvqcag","pricing_plan_id":"cebpf4jnsgd1na2vs0mg"},{"bike_id":"dbd0a870-3175-4e8a-86e2-8f3039739848","system_id":"levelo_inurba_marseille","lat":43.24658,"lon":5.38895,"is_reserved":false,"is_disabled":false,"rental_uris":{"android":"levelo://app?vid=dbd0a870-3175-4e8a-86e2-8f3039739848","ios":"levelo://app?vid=dbd0a870-3175-4e8a-86e2-8f3039739848"},"vehicle_type_id":"4","last_reported":1730909518,"current_range_meters":39200,"station_id":"ce4bhg12rcd13ifvqf60","pricing_plan_id":"cebpf4jnsgd1na2vs0mg"},{"bike_id":"2857a6ef-eca1-4fb7-ae7a-5f0a29e5d5f8","system_id":"levelo_inurba_marseille","lat":43.29975,"lon":5.38499,"is_reserved":false,"is_disabled":false,"rental_uris":{"android":"levelo://app?vid=2857a6ef-eca1-4fb7-ae7a-5f0a29e5d5f8","ios":"levelo://app?vid=2857a6ef-eca1-4fb7-ae7a-5f0a29e5d5f8"},"vehicle_type_id":"4","last_reported":1730909518,"current_range_meters":12000,"station_id":"ce4bgj92rcd13ifvqbd0","pricing_plan_id":"cebpf4jnsgd1na2vs0mg"},{"bike_id":"51aa038e-53ca-4ef3-968e-b0d5efa70a98","system_id":"levelo_inurba_marseille","lat":43.30925,"lon":5.40144,"is_reserved":false,"is_disabled":false,"rental_uris":{"android":"levelo://app?vid=51aa038e-53ca-4ef3-968e-b0d5efa70a98","ios":"levelo://app?vid=51aa038e-53ca-4ef3-968e-b0d5efa70a98"},"vehicle_type_id":"4","last_reported":1730909518,"current_range_meters":38800,"station_id":"ce4bgvp2rcd13ifvqct0","pricing_plan_id":"cebpf4jnsgd1na2vs0mg"},{"bike_id":"13cd7d8f-f0c7-4a5b-93d1-3d08557326e9","system_id":"levelo_inurba_marseille","lat":43.31173,"lon":5.38728,"is_reserved":false,"is_disabled":false,"rental_uris":{"android":"levelo://app?vid=13cd7d8f-f0c7-4a5b-93d1-3d08557326e9","ios":"levelo://app?vid=13cd7d8f-f0c7-4a5b-93d1-3d08557326e9"},"vehicle_type_id":"4","last_reported":1730909518,"current_range_meters":38800,"station_id":"ce4bgv12rcd13ifvqcp0","pricing_plan_id":"cebpf4jnsgd1na2vs0mg"},{"bike_id":"7cfcd606-1189-4965-a84b-71ec26c0d2d4","system_id":"levelo_inurba_marseille","lat":43.26066,"lon":5.39403,"is_reserved":false,"is_disabled":false,"rental_uris":{"android":"levelo://app?vid=7cfcd606-1189-4965-a84b-71ec26c0d2d4","ios":"levelo://app?vid=7cfcd606-1189-4965-a84b-71ec26c0d2d4"},"vehicle_type_id":"4","last_reported":1730909518,"current_range_meters":30400,"station_id":"ce4bhh92rcd13ifvqfj0","pricing_plan_id":"cebpf4jnsgd1na2vs0mg"},{"bike_id":"ad936195-ebbc-4d0d-b57c-43ce0fd71164","system_id":"levelo_inurba_marseille","lat":43.30591,"lon":5.3724,"is_reserved":false,"is_disabled":false,"rental_uris":{"android":"levelo://app?vid=ad936195-ebbc-4d0d-b57c-43ce0fd71164","ios":"levelo://app?vid=ad936195-ebbc-4d0d-b57c-43ce0fd71164"},"vehicle_type_id":"4","last_reported":1730909518,"current_range_meters":31200,"station_id":"ce4bgqh2rcd13ifvqc4g","pricing_plan_id":"cebpf4jnsgd1na2vs0mg"},{"bike_id":"67c65a4c-d5fc-45c3-aaae-b079185a8771","system_id":"levelo_inurba_marseille","lat":43.28728,"lon":5.36089,"is_reserved":false,"is_disabled":false,"rental_uris":{"android":"levelo://app?vid=67c65a4c-d5fc-45c3-aaae-b079185a8771","ios":"levelo://app?vid=67c65a4c-d5fc-45c3-aaae-b079185a8771"},"vehicle_type_id":"4","last_reported":1730909518,"current_range_meters":9600,"station_id":"cki0cbj6b192h4jlfktg","pricing_plan_id":"cebpf4jnsgd1na2vs0mg"},{"bike_id":"a5bc2fce-204d-4ecc-bd2f-0a758ce61f0d","system_id":"levelo_inurba_marseille","lat":43.27996,"lon":5.40017,"is_reserved":false,"is_disabled":false,"rental_uris":{"android":"levelo://app?vid=a5bc2fce-204d-4ecc-bd2f-0a758ce61f0d","ios":"levelo://app?vid=a5bc2fce-204d-4ecc-bd2f-0a758ce61f0d"},"vehicle_type_id":"4","last_reported":1730909518,"current_range_meters":8400,"station_id":"ce4bho92rcd13ifvqh4g","pricing_plan_id":"cebpf4jnsgd1na2vs0mg"},{"bike_id":"d0196702-7429-4a2d-86eb-6777a267cff3","system_id":"levelo_inurba_marseille","lat":43.29988,"lon":5.37192,"is_reserved":false,"is_disabled":false,"rental_uris":{"android":"levelo://app?vid=d0196702-7429-4a2d-86eb-6777a267cff3","ios":"levelo://app?vid=d0196702-7429-4a2d-86eb-6777a267cff3"},"vehicle_type_id":"4","last_reported":1730909518,"current_range_meters":9200,"station_id":"ce4bgr92rcd13ifvqc7g","pricing_plan_id":"cebpf4jnsgd1na2vs0mg"},{"bike_id":"a340668b-5f25-49c9-8a20-7d200c07d3e9","system_id":"levelo_inurba_marseille","lat":43.29557,"lon":5.42281,"is_reserved":false,"is_disabled":false,"rental_uris":{"android":"levelo://app?vid=a340668b-5f25-49c9-8a20-7d200c07d3e9","ios":"levelo://app?vid=a340668b-5f25-49c9-8a20-7d200c07d3e9"},"vehicle_type_id":"4","last_reported":1730909518,"current_range_meters":19200,"station_id":"ce4bhph2rcd13ifvqhdg","pricing_plan_id":"cebpf4jnsgd1na2vs0mg"},{"bike_id":"fa7b0e37-7e18-4a6e-9d36-9bc2f765b5d0","system_id":"levelo_inurba_marseille","lat":43.33764,"lon":5.3744,"is_reserved":false,"is_disabled":false,"rental_uris":{"android":"levelo://app?vid=fa7b0e37-7e18-4a6e-9d36-9bc2f765b5d0","ios":"levelo://app?vid=fa7b0e37-7e18-4a6e-9d36-9bc2f765b5d0"},"vehicle_type_id":"4","last_reported":1730909518,"current_range_meters":36400,"station_id":"","pricing_plan_id":"cebpf4jnsgd1na2vs0mg"},{"bike_id":"dd4ab6f5-7807-48e3-9c68-8f40e4b9e74b","system_id":"levelo_inurba_marseille","lat":43.30947,"lon":5.40145,"is_reserved":false,"is_disabled":false,"rental_uris":{"android":"levelo://app?vid=dd4ab6f5-7807-48e3-9c68-8f40e4b9e74b","ios":"levelo://app?vid=dd4ab6f5-7807-48e3-9c68-8f40e4b9e74b"},"vehicle_type_id":"4","last_reported":1730909518,"current_range_meters":6800,"station_id":"ce4bgvp2rcd13ifvqct0","pricing_plan_id":"cebpf4jnsgd1na2vs0mg"},{"bike_id":"b7dd8bea-767b-4a90-a1d4-bc825086e891","system_id":"levelo_inurba_marseille","lat":43.3013,"lon":5.39883,"is_reserved":false,"is_disabled":false,"rental_uris":{"android":"levelo://app?vid=b7dd8bea-767b-4a90-a1d4-bc825086e891","ios":"levelo://app?vid=b7dd8bea-767b-4a90-a1d4-bc825086e891"},"vehicle_type_id":"4","last_reported":1730909518,"current_range_meters":28400,"station_id":"ce4bh0h2rcd13ifvqd40","pricing_plan_id":"cebpf4jnsgd1na2vs0mg"},{"bike_id":"2c4af81a-61a4-4b7d-9737-a21161e3b7d5","system_id":"levelo_inurba_marseille","lat":43.30552,"lon":5.36554,"is_reserved":false,"is_disabled":false,"rental_uris":{"android":"levelo://app?vid=2c4af81a-61a4-4b7d-9737-a21161e3b7d5","ios":"levelo://app?vid=2c4af81a-61a4-4b7d-9737-a21161e3b7d5"},"vehicle_type_id":"4","last_reported":1730909518,"current_range_meters":32800,"station_id":"ce4bgs12rcd13ifvqcag","pricing_plan_id":"cebpf4jnsgd1na2vs0mg"},{"bike_id":"462f2583-18ff-4bd3-b2d4-01f8e7cb060e","system_id":"levelo_inurba_marseille","lat":43.25581,"lon":5.38238,"is_reserved":false,"is_disabled":false,"rental_uris":{"android":"levelo://app?vid=462f2583-18ff-4bd3-b2d4-01f8e7cb060e","ios":"levelo://app?vid=462f2583-18ff-4bd3-b2d4-01f8e7cb060e"},"vehicle_type_id":"4","last_reported":1730909518,"current_range_meters":5600,"station_id":"ce4bhih2rcd13ifvqfs0","pricing_plan_id":"cebpf4jnsgd1na2vs0mg"},{"bike_id":"55a677bd-87c6-4021-ae5c-c9a5693b7d71","system_id":"levelo_inurba_marseille","lat":43.31324,"lon":5.39699,"is_reserved":false,"is_disabled":false,"rental_uris":{"android":"levelo://app?vid=55a677bd-87c6-4021-ae5c-c9a5693b7d71","ios":"levelo://app?vid=55a677bd-87c6-4021-ae5c-c9a5693b7d71"},"vehicle_type_id":"4","last_reported":1730909518,"current_range_meters":38800,"station_id":"ce4bgvp2rcd13ifvqcu0","pricing_plan_id":"cebpf4jnsgd1na2vs0mg"},{"bike_id":"4e5d727a-7c34-44b8-af94-45a54b88c1cc","system_id":"levelo_inurba_marseille","lat":43.33729,"lon":5.39184,"is_reserved":false,"is_disabled":false,"rental_uris":{"android":"levelo://app?vid=4e5d727a-7c34-44b8-af94-45a54b88c1cc","ios":"levelo://app?vid=4e5d727a-7c34-44b8-af94-45a54b88c1cc"},"vehicle_type_id":"4","last_reported":1730909518,"current_range_meters":39200,"station_id":"ce4bhr92rcd13ifvqhsg","pricing_plan_id":"cebpf4jnsgd1na2vs0mg"},{"bike_id":"63d7d687-674e-46ec-b206-51c1765d130a","system_id":"levelo_inurba_marseille","lat":43.30883,"lon":5.39649,"is_reserved":false,"is_disabled":false,"rental_uris":{"android":"levelo://app?vid=63d7d687-674e-46ec-b206-51c1765d130a","ios":"levelo://app?vid=63d7d687-674e-46ec-b206-51c1765d130a"},"vehicle_type_id":"4","last_reported":1730909518,"current_range_meters":32400,"station_id":"ce4bh012rcd13ifvqcv0","pricing_plan_id":"cebpf4jnsgd1na2vs0mg"},{"bike_id":"f6bfb57e-ca77-47ae-8d9a-6dcfac89ae0c","system_id":"levelo_inurba_marseille","lat":43.25578,"lon":5.38248,"is_reserved":false,"is_disabled":false,"rental_uris":{"android":"levelo://app?vid=f6bfb57e-ca77-47ae-8d9a-6dcfac89ae0c","ios":"levelo://app?vid=f6bfb57e-ca77-47ae-8d9a-6dcfac89ae0c"},"vehicle_type_id":"4","last_reported":1730909518,"current_range_meters":17600,"station_id":"ce4bhih2rcd13ifvqfs0","pricing_plan_id":"cebpf4jnsgd1na2vs0mg"},{"bike_id":"2ac59b30-95ad-4d41-84cd-66b709f67fc4","system_id":"levelo_inurba_marseille","lat":43.337444,"lon":5.374475,"is_reserved":false,"is_disabled":false,"rental_uris":{"android":"levelo://app?vid=2ac59b30-95ad-4d41-84cd-66b709f67fc4","ios":"levelo://app?vid=2ac59b30-95ad-4d41-84cd-66b709f67fc4"},"vehicle_type_id":"4","last_reported":1730909518,"current_range_meters":36400,"station_id":"","pricing_plan_id":"cebpf4jnsgd1na2vs0mg"},{"bike_id":"c4363896-8f0e-408d-8ac4-56b86a03b34a","system_id":"levelo_inurba_marseille","lat":43.30142,"lon":5.39851,"is_reserved":false,"is_disabled":false,"rental_uris":{"android":"levelo://app?vid=c4363896-8f0e-408d-8ac4-56b86a03b34a","ios":"levelo://app?vid=c4363896-8f0e-408d-8ac4-56b86a03b34a"},"vehicle_type_id":"4","last_reported":1730909518,"current_range_meters":7200,"station_id":"ce4bh0h2rcd13ifvqd40","pricing_plan_id":"cebpf4jnsgd1na2vs0mg"},{"bike_id":"2030e3db-a54d-430e-b6c3-ef67eedd5f3e","system_id":"levelo_inurba_marseille","lat":43.30605,"lon":5.37221,"is_reserved":false,"is_disabled":false,"rental_uris":{"android":"levelo://app?vid=2030e3db-a54d-430e-b6c3-ef67eedd5f3e","ios":"levelo://app?vid=2030e3db-a54d-430e-b6c3-ef67eedd5f3e"},"vehicle_type_id":"4","last_reported":1730909518,"current_range_meters":36800,"station_id":"ce4bgqh2rcd13ifvqc4g","pricing_plan_id":"cebpf4jnsgd1na2vs0mg"},{"bike_id":"77f0f942-cc19-4114-9693-f96851c5cf8b","system_id":"levelo_inurba_marseille","lat":43.31071,"lon":5.38351,"is_reserved":false,"is_disabled":false,"rental_uris":{"android":"levelo://app?vid=77f0f942-cc19-4114-9693-f96851c5cf8b","ios":"levelo://app?vid=77f0f942-cc19-4114-9693-f96851c5cf8b"},"vehicle_type_id":"4","last_reported":1730909518,"current_range_meters":8800,"station_id":"ce4bgv92rcd13ifvqcr0","pricing_plan_id":"cebpf4jnsgd1na2vs0mg"},{"bike_id":"ed26799c-e7a4-4b90-88a2-8ad72e73cf37","system_id":"levelo_inurba_marseille","lat":43.30247,"lon":5.40061,"is_reserved":false,"is_disabled":false,"rental_uris":{"android":"levelo://app?vid=ed26799c-e7a4-4b90-88a2-8ad72e73cf37","ios":"levelo://app?vid=ed26799c-e7a4-4b90-88a2-8ad72e73cf37"},"vehicle_type_id":"4","last_reported":1730909518,"current_range_meters":18000,"station_id":"ce4bgvh2rcd13ifvqcs0","pricing_plan_id":"cebpf4jnsgd1na2vs0mg"},{"bike_id":"4dc39439-40c9-4c70-82ec-f62ac40ac1bd","system_id":"levelo_inurba_marseille","lat":43.23061,"lon":5.35498,"is_reserved":false,"is_disabled":false,"rental_uris":{"android":"levelo://app?vid=4dc39439-40c9-4c70-82ec-f62ac40ac1bd","ios":"levelo://app?vid=4dc39439-40c9-4c70-82ec-f62ac40ac1bd"},"vehicle_type_id":"4","last_reported":1730909518,"current_range_meters":14400,"station_id":"cpo3342slgdg3j2ifvpg","pricing_plan_id":"cebpf4jnsgd1na2vs0mg"},{"bike_id":"44144d57-9c23-4136-92b5-7992ae432d41","system_id":"levelo_inurba_marseille","lat":43.29956,"lon":5.41332,"is_reserved":false,"is_disabled":false,"rental_uris":{"android":"levelo://app?vid=44144d57-9c23-4136-92b5-7992ae432d41","ios":"levelo://app?vid=44144d57-9c23-4136-92b5-7992ae432d41"},"vehicle_type_id":"4","last_reported":1730909518,"current_range_meters":26000,"station_id":"ce4bhp12rcd13ifvqh9g","pricing_plan_id":"cebpf4jnsgd1na2vs0mg"},{"bike_id":"e8889283-bac9-49fd-9d46-8b868048714d","system_id":"levelo_inurba_marseille","lat":43.30549,"lon":5.36562,"is_reserved":false,"is_disabled":false,"rental_uris":{"android":"levelo://app?vid=e8889283-bac9-49fd-9d46-8b868048714d","ios":"levelo://app?vid=e8889283-bac9-49fd-9d46-8b868048714d"},"vehicle_type_id":"4","last_reported":1730909518,"current_range_meters":36400,"station_id":"ce4bgs12rcd13ifvqcag","pricing_plan_id":"cebpf4jnsgd1na2vs0mg"},{"bike_id":"eb59b106-c77f-440d-b295-60311a3456f7","system_id":"levelo_inurba_marseille","lat":43.28995,"lon":5.35622,"is_reserved":false,"is_disabled":false,"rental_uris":{"android":"levelo://app?vid=eb59b106-c77f-440d-b295-60311a3456f7","ios":"levelo://app?vid=eb59b106-c77f-440d-b295-60311a3456f7"},"vehicle_type_id":"4","last_reported":1730909518,"current_range_meters":31200,"station_id":"ce4bhb92rcd13ifvqen0","pricing_plan_id":"cebpf4jnsgd1na2vs0mg"},{"bike_id":"cf2e00fa-fc5a-41ae-85e7-221737c09b7f","system_id":"levelo_inurba_marseille","lat":43.32369,"lon":5.38886,"is_reserved":false,"is_disabled":false,"rental_uris":{"android":"levelo://app?vid=cf2e00fa-fc5a-41ae-85e7-221737c09b7f","ios":"levelo://app?vid=cf2e00fa-fc5a-41ae-85e7-221737c09b7f"},"vehicle_type_id":"4","last_reported":1730909518,"current_range_meters":34000,"station_id":"ce4bhqp2rcd13ifvqhog","pricing_plan_id":"cebpf4jnsgd1na2vs0mg"},{"bike_id":"4b123f9c-2faa-490b-97c5-5ba398ee49d3","system_id":"levelo_inurba_marseille","lat":43.32342,"lon":5.40628,"is_reserved":false,"is_disabled":false,"rental_uris":{"android":"levelo://app?vid=4b123f9c-2faa-490b-97c5-5ba398ee49d3","ios":"levelo://app?vid=4b123f9c-2faa-490b-97c5-5ba398ee49d3"},"vehicle_type_id":"4","last_reported":1730909518,"current_range_meters":28400,"station_id":"ce4bhq92rcd13ifvqhjg","pricing_plan_id":"cebpf4jnsgd1na2vs0mg"},{"bike_id":"0072c09f-84dc-4387-89a5-d8c408b867ad","system_id":"levelo_inurba_marseille","lat":43.30143,"lon":5.39887,"is_reserved":false,"is_disabled":false,"rental_uris":{"android":"levelo://app?vid=0072c09f-84dc-4387-89a5-d8c408b867ad","ios":"levelo://app?vid=0072c09f-84dc-4387-89a5-d8c408b867ad"},"vehicle_type_id":"4","last_reported":1730909518,"current_range_meters":39200,"station_id":"ce4bh0h2rcd13ifvqd40","pricing_plan_id":"cebpf4jnsgd1na2vs0mg"},{"bike_id":"5f11cf48-311d-48b2-9e6c-6da9b2376d00","system_id":"levelo_inurba_marseille","lat":43.26554,"lon":5.37285,"is_reserved":false,"is_disabled":false,"rental_uris":{"android":"levelo://app?vid=5f11cf48-311d-48b2-9e6c-6da9b2376d00","ios":"levelo://app?vid=5f11cf48-311d-48b2-9e6c-6da9b2376d00"},"vehicle_type_id":"4","last_reported":1730909518,"current_range_meters":27200,"station_id":"ce4bhg12rcd13ifvqf70","pricing_plan_id":"cebpf4jnsgd1na2vs0mg"},{"bike_id":"1fcabca7-804e-4de0-adc8-fb6ef4ee559a","system_id":"levelo_inurba_marseille","lat":43.29026,"lon":5.37561,"is_reserved":false,"is_disabled":false,"rental_uris":{"android":"levelo://app?vid=1fcabca7-804e-4de0-adc8-fb6ef4ee559a","ios":"levelo://app?vid=1fcabca7-804e-4de0-adc8-fb6ef4ee559a"},"vehicle_type_id":"4","last_reported":1730909518,"current_range_meters":28800,"station_id":"ce4bh692rcd13ifvqe90","pricing_plan_id":"cebpf4jnsgd1na2vs0mg"},{"bike_id":"38750ab3-d88a-4fa6-8d9d-4d0ed3e80617","system_id":"levelo_inurba_marseille","lat":43.27179,"lon":5.41002,"is_reserved":false,"is_disabled":false,"rental_uris":{"android":"levelo://app?vid=38750ab3-d88a-4fa6-8d9d-4d0ed3e80617","ios":"levelo://app?vid=38750ab3-d88a-4fa6-8d9d-4d0ed3e80617"},"vehicle_type_id":"4","last_reported":1730909518,"current_range_meters":20800,"station_id":"ce4bhl12rcd13ifvqgf0","pricing_plan_id":"cebpf4jnsgd1na2vs0mg"},{"bike_id":"72dde65e-6cb9-4b4a-b5d7-a49ad8641ffd","system_id":"levelo_inurba_marseille","lat":43.29571,"lon":5.39993,"is_reserved":false,"is_disabled":false,"rental_uris":{"android":"levelo://app?vid=72dde65e-6cb9-4b4a-b5d7-a49ad8641ffd","ios":"levelo://app?vid=72dde65e-6cb9-4b4a-b5d7-a49ad8641ffd"},"vehicle_type_id":"4","last_reported":1730909518,"current_range_meters":33600,"station_id":"ce4bh312rcd13ifvqdj0","pricing_plan_id":"cebpf4jnsgd1na2vs0mg"},{"bike_id":"7d1a67f1-0513-43ca-88bf-12e59adf70dc","system_id":"levelo_inurba_marseille","lat":43.29959,"lon":5.41324,"is_reserved":false,"is_disabled":false,"rental_uris":{"android":"levelo://app?vid=7d1a67f1-0513-43ca-88bf-12e59adf70dc","ios":"levelo://app?vid=7d1a67f1-0513-43ca-88bf-12e59adf70dc"},"vehicle_type_id":"4","last_reported":1730909518,"current_range_meters":38400,"station_id":"ce4bhp12rcd13ifvqh9g","pricing_plan_id":"cebpf4jnsgd1na2vs0mg"},{"bike_id":"13d6bed8-4343-46cf-8feb-d327220ee05d","system_id":"levelo_inurba_marseille","lat":43.2873,"lon":5.36088,"is_reserved":false,"is_disabled":false,"rental_uris":{"android":"levelo://app?vid=13d6bed8-4343-46cf-8feb-d327220ee05d","ios":"levelo://app?vid=13d6bed8-4343-46cf-8feb-d327220ee05d"},"vehicle_type_id":"4","last_reported":1730909518,"current_range_meters":39200,"station_id":"cki0cbj6b192h4jlfktg","pricing_plan_id":"cebpf4jnsgd1na2vs0mg"},{"bike_id":"2d4ed3e7-2a72-4af6-9128-a0012d9f5119","system_id":"levelo_inurba_marseille","lat":43.28577,"lon":5.395,"is_reserved":false,"is_disabled":false,"rental_uris":{"android":"levelo://app?vid=2d4ed3e7-2a72-4af6-9128-a0012d9f5119","ios":"levelo://app?vid=2d4ed3e7-2a72-4af6-9128-a0012d9f5119"},"vehicle_type_id":"4","last_reported":1730909518,"current_range_meters":32400,"station_id":"ce4bh292rcd13ifvqdg0","pricing_plan_id":"cebpf4jnsgd1na2vs0mg"},{"bike_id":"6441791a-a44d-4bb0-a42c-62560f071d92","system_id":"levelo_inurba_marseille","lat":43.29527,"lon":5.38561,"is_reserved":false,"is_disabled":false,"rental_uris":{"android":"levelo://app?vid=6441791a-a44d-4bb0-a42c-62560f071d92","ios":"levelo://app?vid=6441791a-a44d-4bb0-a42c-62560f071d92"},"vehicle_type_id":"4","last_reported":1730909518,"current_range_meters":18800,"station_id":"ce4bgih2rcd13ifvqba0","pricing_plan_id":"cebpf4jnsgd1na2vs0mg"},{"bike_id":"111ba766-00f0-4f42-9a4a-cdb1221f4ba1","system_id":"levelo_inurba_marseille","lat":43.31887,"lon":5.40746,"is_reserved":false,"is_disabled":false,"rental_uris":{"android":"levelo://app?vid=111ba766-00f0-4f42-9a4a-cdb1221f4ba1","ios":"levelo://app?vid=111ba766-00f0-4f42-9a4a-cdb1221f4ba1"},"vehicle_type_id":"4","last_reported":1730909518,"current_range_meters":10000,"station_id":"ce4bhq12rcd13ifvqhig","pricing_plan_id":"cebpf4jnsgd1na2vs0mg"},{"bike_id":"c2a3f38f-e105-4c01-a9ee-27374d1772c1","system_id":"levelo_inurba_marseille","lat":43.33774,"lon":5.37434,"is_reserved":false,"is_disabled":false,"rental_uris":{"android":"levelo://app?vid=c2a3f38f-e105-4c01-a9ee-27374d1772c1","ios":"levelo://app?vid=c2a3f38f-e105-4c01-a9ee-27374d1772c1"},"vehicle_type_id":"4","last_reported":1730909518,"current_range_meters":38000,"station_id":"","pricing_plan_id":"cebpf4jnsgd1na2vs0mg"},{"bike_id":"4857aa9c-7a92-42ff-92cb-cc47db7238f5","system_id":"levelo_inurba_marseille","lat":43.28036,"lon":5.38989,"is_reserved":false,"is_disabled":false,"rental_uris":{"android":"levelo://app?vid=4857aa9c-7a92-42ff-92cb-cc47db7238f5","ios":"levelo://app?vid=4857aa9c-7a92-42ff-92cb-cc47db7238f5"},"vehicle_type_id":"4","last_reported":1730909518,"current_range_meters":5600,"station_id":"ce4bhjp2rcd13ifvqga0","pricing_plan_id":"cebpf4jnsgd1na2vs0mg"},{"bike_id":"0246aeff-0a7c-418c-a422-287c8ec2fe8f","system_id":"levelo_inurba_marseille","lat":43.27376,"lon":5.36264,"is_reserved":false,"is_disabled":false,"rental_uris":{"android":"levelo://app?vid=0246aeff-0a7c-418c-a422-287c8ec2fe8f","ios":"levelo://app?vid=0246aeff-0a7c-418c-a422-287c8ec2fe8f"},"vehicle_type_id":"4","last_reported":1730909518,"current_range_meters":38000,"station_id":"ce4bhbh2rcd13ifvqeo0","pricing_plan_id":"cebpf4jnsgd1na2vs0mg"},{"bike_id":"e58aacf2-a8a5-4ce2-835e-5eb9a75e9200","system_id":"levelo_inurba_marseille","lat":43.31106,"lon":5.37286,"is_reserved":false,"is_disabled":false,"rental_uris":{"android":"levelo://app?vid=e58aacf2-a8a5-4ce2-835e-5eb9a75e9200","ios":"levelo://app?vid=e58aacf2-a8a5-4ce2-835e-5eb9a75e9200"},"vehicle_type_id":"4","last_reported":1730909518,"current_range_meters":14800,"station_id":"","pricing_plan_id":"cebpf4jnsgd1na2vs0mg"},{"bike_id":"87751455-2438-44f1-a631-2384cb8d5bd6","system_id":"levelo_inurba_marseille","lat":43.28822,"lon":5.40011,"is_reserved":false,"is_disabled":false,"rental_uris":{"android":"levelo://app?vid=87751455-2438-44f1-a631-2384cb8d5bd6","ios":"levelo://app?vid=87751455-2438-44f1-a631-2384cb8d5bd6"},"vehicle_type_id":"4","last_reported":1730909518,"current_range_meters":30400,"station_id":"ce4bh312rcd13ifvqdj0","pricing_plan_id":"cebpf4jnsgd1na2vs0mg"},{"bike_id":"2f076aaa-29b0-4fb9-a4cc-3fad6e37f57d","system_id":"levelo_inurba_marseille","lat":43.3053,"lon":5.36548,"is_reserved":false,"is_disabled":false,"rental_uris":{"android":"levelo://app?vid=2f076aaa-29b0-4fb9-a4cc-3fad6e37f57d","ios":"levelo://app?vid=2f076aaa-29b0-4fb9-a4cc-3fad6e37f57d"},"vehicle_type_id":"4","last_reported":1730909518,"current_range_meters":38400,"station_id":"ce4bgs12rcd13ifvqcag","pricing_plan_id":"cebpf4jnsgd1na2vs0mg"},{"bike_id":"ed058e4f-9ac0-418d-bdc9-6394a770ce1f","system_id":"levelo_inurba_marseille","lat":43.29252,"lon":5.40914,"is_reserved":false,"is_disabled":false,"rental_uris":{"android":"levelo://app?vid=ed058e4f-9ac0-418d-bdc9-6394a770ce1f","ios":"levelo://app?vid=ed058e4f-9ac0-418d-bdc9-6394a770ce1f"},"vehicle_type_id":"4","last_reported":1730909518,"current_range_meters":39200,"station_id":"ce4bh192rcd13ifvqdc0","pricing_plan_id":"cebpf4jnsgd1na2vs0mg"},{"bike_id":"2a944e20-e8e7-4eb8-830e-0d449dc2dfeb","system_id":"levelo_inurba_marseille","lat":43.29705,"lon":5.36621,"is_reserved":false,"is_disabled":false,"rental_uris":{"android":"levelo://app?vid=2a944e20-e8e7-4eb8-830e-0d449dc2dfeb","ios":"levelo://app?vid=2a944e20-e8e7-4eb8-830e-0d449dc2dfeb"},"vehicle_type_id":"4","last_reported":1730909518,"current_range_meters":18000,"station_id":"ce4bgn12rcd13ifvqbt0","pricing_plan_id":"cebpf4jnsgd1na2vs0mg"},{"bike_id":"37c4356f-53a4-4fc1-9027-d635783b81a2","system_id":"levelo_inurba_marseille","lat":43.29912,"lon":5.38128,"is_reserved":false,"is_disabled":false,"rental_uris":{"android":"levelo://app?vid=37c4356f-53a4-4fc1-9027-d635783b81a2","ios":"levelo://app?vid=37c4356f-53a4-4fc1-9027-d635783b81a2"},"vehicle_type_id":"4","last_reported":1730909518,"current_range_meters":35200,"station_id":"ce4bgj12rcd13ifvqbc0","pricing_plan_id":"cebpf4jnsgd1na2vs0mg"},{"bike_id":"fd74afea-7eed-437e-9798-dbb158e97572","system_id":"levelo_inurba_marseille","lat":43.306,"lon":5.37253,"is_reserved":false,"is_disabled":false,"rental_uris":{"android":"levelo://app?vid=fd74afea-7eed-437e-9798-dbb158e97572","ios":"levelo://app?vid=fd74afea-7eed-437e-9798-dbb158e97572"},"vehicle_type_id":"4","last_reported":1730909518,"current_range_meters":38800,"station_id":"ce4bgqh2rcd13ifvqc4g","pricing_plan_id":"cebpf4jnsgd1na2vs0mg"},{"bike_id":"ac3085be-2aba-453a-b37c-d1057ee9d66b","system_id":"levelo_inurba_marseille","lat":43.31268,"lon":5.4017,"is_reserved":false,"is_disabled":false,"rental_uris":{"android":"levelo://app?vid=ac3085be-2aba-453a-b37c-d1057ee9d66b","ios":"levelo://app?vid=ac3085be-2aba-453a-b37c-d1057ee9d66b"},"vehicle_type_id":"4","last_reported":1730909518,"current_range_meters":26800,"station_id":"ce4bh092rcd13ifvqd30","pricing_plan_id":"cebpf4jnsgd1na2vs0mg"},{"bike_id":"b618ff37-03ac-46c7-a1fb-6d0704361fa9","system_id":"levelo_inurba_marseille","lat":43.25576,"lon":5.3824,"is_reserved":false,"is_disabled":false,"rental_uris":{"android":"levelo://app?vid=b618ff37-03ac-46c7-a1fb-6d0704361fa9","ios":"levelo://app?vid=b618ff37-03ac-46c7-a1fb-6d0704361fa9"},"vehicle_type_id":"4","last_reported":1730909518,"current_range_meters":18000,"station_id":"ce4bhih2rcd13ifvqfs0","pricing_plan_id":"cebpf4jnsgd1na2vs0mg"},{"bike_id":"82770596-5fb2-4a46-90e8-1a15c3eab73a","system_id":"levelo_inurba_marseille","lat":43.29554,"lon":5.42294,"is_reserved":false,"is_disabled":false,"rental_uris":{"android":"levelo://app?vid=82770596-5fb2-4a46-90e8-1a15c3eab73a","ios":"levelo://app?vid=82770596-5fb2-4a46-90e8-1a15c3eab73a"},"vehicle_type_id":"4","last_reported":1730909518,"current_range_meters":22400,"station_id":"ce4bhph2rcd13ifvqhdg","pricing_plan_id":"cebpf4jnsgd1na2vs0mg"},{"bike_id":"16e6b7bb-f4a5-49ab-be31-9a34581738d8","system_id":"levelo_inurba_marseille","lat":43.23152,"lon":5.43718,"is_reserved":false,"is_disabled":false,"rental_uris":{"android":"levelo://app?vid=16e6b7bb-f4a5-49ab-be31-9a34581738d8","ios":"levelo://app?vid=16e6b7bb-f4a5-49ab-be31-9a34581738d8"},"vehicle_type_id":"4","last_reported":1730909518,"current_range_meters":38800,"station_id":"ce4bhmp2rcd13ifvqgog","pricing_plan_id":"cebpf4jnsgd1na2vs0mg"},{"bike_id":"d42e973d-2c93-4443-b098-71d6d11cc36d","system_id":"levelo_inurba_marseille","lat":43.29587,"lon":5.3674,"is_reserved":false,"is_disabled":false,"rental_uris":{"android":"levelo://app?vid=d42e973d-2c93-4443-b098-71d6d11cc36d","ios":"levelo://app?vid=d42e973d-2c93-4443-b098-71d6d11cc36d"},"vehicle_type_id":"4","last_reported":1730909518,"current_range_meters":24400,"station_id":"ce4bgph2rcd13ifvqc2g","pricing_plan_id":"cebpf4jnsgd1na2vs0mg"},{"bike_id":"89b72991-99c2-4b3e-a7af-f3a408a8007f","system_id":"levelo_inurba_marseille","lat":43.23152,"lon":5.43717,"is_reserved":false,"is_disabled":false,"rental_uris":{"android":"levelo://app?vid=89b72991-99c2-4b3e-a7af-f3a408a8007f","ios":"levelo://app?vid=89b72991-99c2-4b3e-a7af-f3a408a8007f"},"vehicle_type_id":"4","last_reported":1730909518,"current_range_meters":24800,"station_id":"ce4bhmp2rcd13ifvqgog","pricing_plan_id":"cebpf4jnsgd1na2vs0mg"},{"bike_id":"65ad63ff-098d-4aae-b723-92c80f5a52ef","system_id":"levelo_inurba_marseille","lat":43.30523,"lon":5.38086,"is_reserved":false,"is_disabled":false,"rental_uris":{"android":"levelo://app?vid=65ad63ff-098d-4aae-b723-92c80f5a52ef","ios":"levelo://app?vid=65ad63ff-098d-4aae-b723-92c80f5a52ef"},"vehicle_type_id":"4","last_reported":1730909518,"current_range_meters":36800,"station_id":"","pricing_plan_id":"cebpf4jnsgd1na2vs0mg"},{"bike_id":"9b85f465-19ca-4428-b548-14bc229b4100","system_id":"levelo_inurba_marseille","lat":43.29306,"lon":5.37462,"is_reserved":false,"is_disabled":false,"rental_uris":{"android":"levelo://app?vid=9b85f465-19ca-4428-b548-14bc229b4100","ios":"levelo://app?vid=9b85f465-19ca-4428-b548-14bc229b4100"},"vehicle_type_id":"4","last_reported":1730909518,"current_range_meters":25600,"station_id":"ce4bgi12rcd13ifvqb70","pricing_plan_id":"cebpf4jnsgd1na2vs0mg"},{"bike_id":"76a6e6d2-4686-4b04-b754-fb622b90a2bd","system_id":"levelo_inurba_marseille","lat":43.30134,"lon":5.39875,"is_reserved":false,"is_disabled":false,"rental_uris":{"android":"levelo://app?vid=76a6e6d2-4686-4b04-b754-fb622b90a2bd","ios":"levelo://app?vid=76a6e6d2-4686-4b04-b754-fb622b90a2bd"},"vehicle_type_id":"4","last_reported":1730909518,"current_range_meters":38800,"station_id":"ce4bh0h2rcd13ifvqd40","pricing_plan_id":"cebpf4jnsgd1na2vs0mg"},{"bike_id":"8eb7ca66-5ae1-4c86-9460-7b59fa013861","system_id":"levelo_inurba_marseille","lat":43.31072,"lon":5.38345,"is_reserved":false,"is_disabled":false,"rental_uris":{"android":"levelo://app?vid=8eb7ca66-5ae1-4c86-9460-7b59fa013861","ios":"levelo://app?vid=8eb7ca66-5ae1-4c86-9460-7b59fa013861"},"vehicle_type_id":"4","last_reported":1730909518,"current_range_meters":26800,"station_id":"ce4bgv92rcd13ifvqcr0","pricing_plan_id":"cebpf4jnsgd1na2vs0mg"},{"bike_id":"90ac43f9-b186-4059-8e8b-536b1b7fcdd0","system_id":"levelo_inurba_marseille","lat":43.31171,"lon":5.3873,"is_reserved":false,"is_disabled":false,"rental_uris":{"android":"levelo://app?vid=90ac43f9-b186-4059-8e8b-536b1b7fcdd0","ios":"levelo://app?vid=90ac43f9-b186-4059-8e8b-536b1b7fcdd0"},"vehicle_type_id":"4","last_reported":1730909518,"current_range_meters":16000,"station_id":"ce4bgv12rcd13ifvqcp0","pricing_plan_id":"cebpf4jnsgd1na2vs0mg"},{"bike_id":"ce1990ac-3390-413c-9a93-5d1336a43aa1","system_id":"levelo_inurba_marseille","lat":43.27378,"lon":5.36251,"is_reserved":false,"is_disabled":false,"rental_uris":{"android":"levelo://app?vid=ce1990ac-3390-413c-9a93-5d1336a43aa1","ios":"levelo://app?vid=ce1990ac-3390-413c-9a93-5d1336a43aa1"},"vehicle_type_id":"4","last_reported":1730909518,"current_range_meters":36000,"station_id":"ce4bhbh2rcd13ifvqeo0","pricing_plan_id":"cebpf4jnsgd1na2vs0mg"},{"bike_id":"1f127e32-7467-4299-af3a-4750a3aad6d6","system_id":"levelo_inurba_marseille","lat":43.30557,"lon":5.36552,"is_reserved":false,"is_disabled":false,"rental_uris":{"android":"levelo://app?vid=1f127e32-7467-4299-af3a-4750a3aad6d6","ios":"levelo://app?vid=1f127e32-7467-4299-af3a-4750a3aad6d6"},"vehicle_type_id":"4","last_reported":1730909518,"current_range_meters":39200,"station_id":"ce4bgs12rcd13ifvqcag","pricing_plan_id":"cebpf4jnsgd1na2vs0mg"},{"bike_id":"f775dd0d-0976-4a84-bddc-c8b4040cdcc6","system_id":"levelo_inurba_marseille","lat":43.27069,"lon":5.42284,"is_reserved":false,"is_disabled":false,"rental_uris":{"android":"levelo://app?vid=f775dd0d-0976-4a84-bddc-c8b4040cdcc6","ios":"levelo://app?vid=f775dd0d-0976-4a84-bddc-c8b4040cdcc6"},"vehicle_type_id":"4","last_reported":1730909518,"current_range_meters":38800,"station_id":"ce4bhk92rcd13ifvqgb0","pricing_plan_id":"cebpf4jnsgd1na2vs0mg"},{"bike_id":"d01eeb08-252d-4cb1-aac1-24520eeea741","system_id":"levelo_inurba_marseille","lat":43.24642,"lon":5.38914,"is_reserved":false,"is_disabled":false,"rental_uris":{"android":"levelo://app?vid=d01eeb08-252d-4cb1-aac1-24520eeea741","ios":"levelo://app?vid=d01eeb08-252d-4cb1-aac1-24520eeea741"},"vehicle_type_id":"4","last_reported":1730909518,"current_range_meters":20000,"station_id":"ce4bhg12rcd13ifvqf60","pricing_plan_id":"cebpf4jnsgd1na2vs0mg"},{"bike_id":"f9a8c473-50f6-461e-98fa-f58e5ab7fcbc","system_id":"levelo_inurba_marseille","lat":43.30797,"lon":5.37389,"is_reserved":false,"is_disabled":false,"rental_uris":{"android":"levelo://app?vid=f9a8c473-50f6-461e-98fa-f58e5ab7fcbc","ios":"levelo://app?vid=f9a8c473-50f6-461e-98fa-f58e5ab7fcbc"},"vehicle_type_id":"4","last_reported":1730909518,"current_range_meters":7200,"station_id":"","pricing_plan_id":"cebpf4jnsgd1na2vs0mg"},{"bike_id":"004b88d0-2b20-4b53-9834-62653c133103","system_id":"levelo_inurba_marseille","lat":43.29783,"lon":5.3712,"is_reserved":false,"is_disabled":false,"rental_uris":{"android":"levelo://app?vid=004b88d0-2b20-4b53-9834-62653c133103","ios":"levelo://app?vid=004b88d0-2b20-4b53-9834-62653c133103"},"vehicle_type_id":"4","last_reported":1730909518,"current_range_meters":16000,"station_id":"ce4bgop2rcd13ifvqc1g","pricing_plan_id":"cebpf4jnsgd1na2vs0mg"},{"bike_id":"9c07c115-8458-42eb-a90e-dec43e520f3f","system_id":"levelo_inurba_marseille","lat":43.26028,"lon":5.37565,"is_reserved":false,"is_disabled":false,"rental_uris":{"android":"levelo://app?vid=9c07c115-8458-42eb-a90e-dec43e520f3f","ios":"levelo://app?vid=9c07c115-8458-42eb-a90e-dec43e520f3f"},"vehicle_type_id":"4","last_reported":1730909518,"current_range_meters":37600,"station_id":"ce4bhgh2rcd13ifvqfa0","pricing_plan_id":"cebpf4jnsgd1na2vs0mg"},{"bike_id":"586bf30d-3b96-4abd-a66c-3e5f4edc72f4","system_id":"levelo_inurba_marseille","lat":43.31352,"lon":5.38497,"is_reserved":false,"is_disabled":false,"rental_uris":{"android":"levelo://app?vid=586bf30d-3b96-4abd-a66c-3e5f4edc72f4","ios":"levelo://app?vid=586bf30d-3b96-4abd-a66c-3e5f4edc72f4"},"vehicle_type_id":"4","last_reported":1730909518,"current_range_meters":17600,"station_id":"ce4bgt92rcd13ifvqcf0","pricing_plan_id":"cebpf4jnsgd1na2vs0mg"},{"bike_id":"be6356fd-895c-4c38-9b36-326d5d0e0362","system_id":"levelo_inurba_marseille","lat":43.27305,"lon":5.39089,"is_reserved":false,"is_disabled":false,"rental_uris":{"android":"levelo://app?vid=be6356fd-895c-4c38-9b36-326d5d0e0362","ios":"levelo://app?vid=be6356fd-895c-4c38-9b36-326d5d0e0362"},"vehicle_type_id":"4","last_reported":1730909518,"current_range_meters":37600,"station_id":"ce4bhgp2rcd13ifvqfe0","pricing_plan_id":"cebpf4jnsgd1na2vs0mg"},{"bike_id":"67ae7db5-bdc9-4682-8671-05c37cb7fa74","system_id":"levelo_inurba_marseille","lat":43.30547,"lon":5.36712,"is_reserved":false,"is_disabled":false,"rental_uris":{"android":"levelo://app?vid=67ae7db5-bdc9-4682-8671-05c37cb7fa74","ios":"levelo://app?vid=67ae7db5-bdc9-4682-8671-05c37cb7fa74"},"vehicle_type_id":"4","last_reported":1730909518,"current_range_meters":38800,"station_id":"ce4bgrp2rcd13ifvqc9g","pricing_plan_id":"cebpf4jnsgd1na2vs0mg"},{"bike_id":"fbed8a20-ba8f-493d-a500-85e828f3ec4e","system_id":"levelo_inurba_marseille","lat":43.2872,"lon":5.36105,"is_reserved":false,"is_disabled":false,"rental_uris":{"android":"levelo://app?vid=fbed8a20-ba8f-493d-a500-85e828f3ec4e","ios":"levelo://app?vid=fbed8a20-ba8f-493d-a500-85e828f3ec4e"},"vehicle_type_id":"4","last_reported":1730909518,"current_range_meters":34800,"station_id":"cki0cbj6b192h4jlfktg","pricing_plan_id":"cebpf4jnsgd1na2vs0mg"},{"bike_id":"efd88e0f-7d23-4805-986f-1e89f9cd2ba4","system_id":"levelo_inurba_marseille","lat":43.29039,"lon":5.38667,"is_reserved":false,"is_disabled":false,"rental_uris":{"android":"levelo://app?vid=efd88e0f-7d23-4805-986f-1e89f9cd2ba4","ios":"levelo://app?vid=efd88e0f-7d23-4805-986f-1e89f9cd2ba4"},"vehicle_type_id":"4","last_reported":1730909518,"current_range_meters":12800,"station_id":"ce4bh4p2rcd13ifvqe0g","pricing_plan_id":"cebpf4jnsgd1na2vs0mg"},{"bike_id":"a21e14dc-cf6f-498e-a23a-7ecf0def0657","system_id":"levelo_inurba_marseille","lat":43.31488,"lon":5.37307,"is_reserved":false,"is_disabled":false,"rental_uris":{"android":"levelo://app?vid=a21e14dc-cf6f-498e-a23a-7ecf0def0657","ios":"levelo://app?vid=a21e14dc-cf6f-498e-a23a-7ecf0def0657"},"vehicle_type_id":"4","last_reported":1730909518,"current_range_meters":9600,"station_id":"ce4bgt12rcd13ifvqcd0","pricing_plan_id":"cebpf4jnsgd1na2vs0mg"},{"bike_id":"7dcd8e6e-f1a9-4416-9505-f86d49a701dc","system_id":"levelo_inurba_marseille","lat":43.27373,"lon":5.36257,"is_reserved":false,"is_disabled":false,"rental_uris":{"android":"levelo://app?vid=7dcd8e6e-f1a9-4416-9505-f86d49a701dc","ios":"levelo://app?vid=7dcd8e6e-f1a9-4416-9505-f86d49a701dc"},"vehicle_type_id":"4","last_reported":1730909518,"current_range_meters":20000,"station_id":"ce4bhbh2rcd13ifvqeo0","pricing_plan_id":"cebpf4jnsgd1na2vs0mg"},{"bike_id":"a0ad9079-fe37-4893-b447-7ef4518a09ca","system_id":"levelo_inurba_marseille","lat":43.29852,"lon":5.36282,"is_reserved":false,"is_disabled":false,"rental_uris":{"android":"levelo://app?vid=a0ad9079-fe37-4893-b447-7ef4518a09ca","ios":"levelo://app?vid=a0ad9079-fe37-4893-b447-7ef4518a09ca"},"vehicle_type_id":"4","last_reported":1730909518,"current_range_meters":37600,"station_id":"ce4bgpp2rcd13ifvqc3g","pricing_plan_id":"cebpf4jnsgd1na2vs0mg"},{"bike_id":"4acfa4ff-61f4-48d5-b11b-3a9d16c684ec","system_id":"levelo_inurba_marseille","lat":43.33727,"lon":5.39177,"is_reserved":false,"is_disabled":false,"rental_uris":{"android":"levelo://app?vid=4acfa4ff-61f4-48d5-b11b-3a9d16c684ec","ios":"levelo://app?vid=4acfa4ff-61f4-48d5-b11b-3a9d16c684ec"},"vehicle_type_id":"4","last_reported":1730909518,"current_range_meters":37600,"station_id":"ce4bhr92rcd13ifvqhsg","pricing_plan_id":"cebpf4jnsgd1na2vs0mg"},{"bike_id":"575ba5d2-89b1-4fa2-90a8-bfc83bb813e2","system_id":"levelo_inurba_marseille","lat":43.29863,"lon":5.3974,"is_reserved":false,"is_disabled":false,"rental_uris":{"android":"levelo://app?vid=575ba5d2-89b1-4fa2-90a8-bfc83bb813e2","ios":"levelo://app?vid=575ba5d2-89b1-4fa2-90a8-bfc83bb813e2"},"vehicle_type_id":"4","last_reported":1730909518,"current_range_meters":38800,"station_id":"ce4bh0h2rcd13ifvqd50","pricing_plan_id":"cebpf4jnsgd1na2vs0mg"},{"bike_id":"4153d831-8f39-4232-a279-c94da179091a","system_id":"levelo_inurba_marseille","lat":43.31333,"lon":5.397,"is_reserved":false,"is_disabled":false,"rental_uris":{"android":"levelo://app?vid=4153d831-8f39-4232-a279-c94da179091a","ios":"levelo://app?vid=4153d831-8f39-4232-a279-c94da179091a"},"vehicle_type_id":"4","last_reported":1730909518,"current_range_meters":32400,"station_id":"ce4bgvp2rcd13ifvqcu0","pricing_plan_id":"cebpf4jnsgd1na2vs0mg"},{"bike_id":"645db7a5-7f20-49b4-b7bf-e0c204a66382","system_id":"levelo_inurba_marseille","lat":43.28697,"lon":5.37394,"is_reserved":false,"is_disabled":false,"rental_uris":{"android":"levelo://app?vid=645db7a5-7f20-49b4-b7bf-e0c204a66382","ios":"levelo://app?vid=645db7a5-7f20-49b4-b7bf-e0c204a66382"},"vehicle_type_id":"4","last_reported":1730909518,"current_range_meters":34000,"station_id":"ce4bh3p2rcd13ifvqdq0","pricing_plan_id":"cebpf4jnsgd1na2vs0mg"},{"bike_id":"873dba15-293d-4af1-a478-817b4987f8b1","system_id":"levelo_inurba_marseille","lat":43.26062,"lon":5.39405,"is_reserved":false,"is_disabled":false,"rental_uris":{"android":"levelo://app?vid=873dba15-293d-4af1-a478-817b4987f8b1","ios":"levelo://app?vid=873dba15-293d-4af1-a478-817b4987f8b1"},"vehicle_type_id":"4","last_reported":1730909518,"current_range_meters":8800,"station_id":"ce4bhh92rcd13ifvqfj0","pricing_plan_id":"cebpf4jnsgd1na2vs0mg"},{"bike_id":"f55cc1d3-66e2-4092-8a56-209373b1b8a1","system_id":"levelo_inurba_marseille","lat":43.27615,"lon":5.3612,"is_reserved":false,"is_disabled":false,"rental_uris":{"android":"levelo://app?vid=f55cc1d3-66e2-4092-8a56-209373b1b8a1","ios":"levelo://app?vid=f55cc1d3-66e2-4092-8a56-209373b1b8a1"},"vehicle_type_id":"4","last_reported":1730909518,"current_range_meters":22800,"station_id":"ce4bgj92rcd13ifvqbe0","pricing_plan_id":"cebpf4jnsgd1na2vs0mg"},{"bike_id":"e3ef341b-f1c0-4560-aa2e-4f91758050bb","system_id":"levelo_inurba_marseille","lat":43.29598,"lon":5.37412,"is_reserved":false,"is_disabled":false,"rental_uris":{"android":"levelo://app?vid=e3ef341b-f1c0-4560-aa2e-4f91758050bb","ios":"levelo://app?vid=e3ef341b-f1c0-4560-aa2e-4f91758050bb"},"vehicle_type_id":"4","last_reported":1730909518,"current_range_meters":17600,"station_id":"","pricing_plan_id":"cebpf4jnsgd1na2vs0mg"},{"bike_id":"b642c5de-735e-450c-91a0-0259077fec8f","system_id":"levelo_inurba_marseille","lat":43.28667,"lon":5.36361,"is_reserved":false,"is_disabled":false,"rental_uris":{"android":"levelo://app?vid=b642c5de-735e-450c-91a0-0259077fec8f","ios":"levelo://app?vid=b642c5de-735e-450c-91a0-0259077fec8f"},"vehicle_type_id":"4","last_reported":1730909518,"current_range_meters":30800,"station_id":"ce4bhah2rcd13ifvqej0","pricing_plan_id":"cebpf4jnsgd1na2vs0mg"},{"bike_id":"f616718f-8981-4308-b053-e225406edfb1","system_id":"levelo_inurba_marseille","lat":43.28261,"lon":5.35083,"is_reserved":false,"is_disabled":false,"rental_uris":{"android":"levelo://app?vid=f616718f-8981-4308-b053-e225406edfb1","ios":"levelo://app?vid=f616718f-8981-4308-b053-e225406edfb1"},"vehicle_type_id":"4","last_reported":1730909518,"current_range_meters":14400,"station_id":"ce4bhbp2rcd13ifvqerg","pricing_plan_id":"cebpf4jnsgd1na2vs0mg"},{"bike_id":"61e225dc-d39d-400a-8d50-bf46e2c46640","system_id":"levelo_inurba_marseille","lat":43.271742,"lon":5.409918,"is_reserved":false,"is_disabled":false,"rental_uris":{"android":"levelo://app?vid=61e225dc-d39d-400a-8d50-bf46e2c46640","ios":"levelo://app?vid=61e225dc-d39d-400a-8d50-bf46e2c46640"},"vehicle_type_id":"4","last_reported":1730909518,"current_range_meters":33200,"station_id":"ce4bhl12rcd13ifvqgf0","pricing_plan_id":"cebpf4jnsgd1na2vs0mg"},{"bike_id":"277dc914-9234-4f69-baa3-51928332b17b","system_id":"levelo_inurba_marseille","lat":43.28482,"lon":5.38418,"is_reserved":false,"is_disabled":false,"rental_uris":{"android":"levelo://app?vid=277dc914-9234-4f69-baa3-51928332b17b","ios":"levelo://app?vid=277dc914-9234-4f69-baa3-51928332b17b"},"vehicle_type_id":"4","last_reported":1730909518,"current_range_meters":28000,"station_id":"ce4bh512rcd13ifvqe3g","pricing_plan_id":"cebpf4jnsgd1na2vs0mg"},{"bike_id":"e516ca3f-0b16-4e23-9f0e-efb3ff1801c2","system_id":"levelo_inurba_marseille","lat":43.2804,"lon":5.36954,"is_reserved":false,"is_disabled":false,"rental_uris":{"android":"levelo://app?vid=e516ca3f-0b16-4e23-9f0e-efb3ff1801c2","ios":"levelo://app?vid=e516ca3f-0b16-4e23-9f0e-efb3ff1801c2"},"vehicle_type_id":"4","last_reported":1730909518,"current_range_meters":27600,"station_id":"ce4bha12rcd13ifvqef0","pricing_plan_id":"cebpf4jnsgd1na2vs0mg"},{"bike_id":"70b352f5-7de1-4fa8-94f7-f8b251dc82f0","system_id":"levelo_inurba_marseille","lat":43.29417,"lon":5.38621,"is_reserved":false,"is_disabled":false,"rental_uris":{"android":"levelo://app?vid=70b352f5-7de1-4fa8-94f7-f8b251dc82f0","ios":"levelo://app?vid=70b352f5-7de1-4fa8-94f7-f8b251dc82f0"},"vehicle_type_id":"4","last_reported":1730909518,"current_range_meters":4000,"station_id":"ce4bh2h2rcd13ifvqdh0","pricing_plan_id":"cebpf4jnsgd1na2vs0mg"},{"bike_id":"d7409f1b-79a3-4e20-90d4-4159260b154c","system_id":"levelo_inurba_marseille","lat":43.3042,"lon":5.41295,"is_reserved":false,"is_disabled":false,"rental_uris":{"android":"levelo://app?vid=d7409f1b-79a3-4e20-90d4-4159260b154c","ios":"levelo://app?vid=d7409f1b-79a3-4e20-90d4-4159260b154c"},"vehicle_type_id":"4","last_reported":1730909518,"current_range_meters":37600,"station_id":"ce4bhop2rcd13ifvqh8g","pricing_plan_id":"cebpf4jnsgd1na2vs0mg"},{"bike_id":"615280ca-f059-40fe-82f2-b888639b02a5","system_id":"levelo_inurba_marseille","lat":43.326584,"lon":5.409937,"is_reserved":false,"is_disabled":false,"rental_uris":{"android":"levelo://app?vid=615280ca-f059-40fe-82f2-b888639b02a5","ios":"levelo://app?vid=615280ca-f059-40fe-82f2-b888639b02a5"},"vehicle_type_id":"4","last_reported":1730909518,"current_range_meters":32400,"station_id":"ce4bhpp2rcd13ifvqhgg","pricing_plan_id":"cebpf4jnsgd1na2vs0mg"},{"bike_id":"55d8bef9-f646-44e8-9e91-29d82d59470f","system_id":"levelo_inurba_marseille","lat":43.2827,"lon":5.35072,"is_reserved":false,"is_disabled":false,"rental_uris":{"android":"levelo://app?vid=55d8bef9-f646-44e8-9e91-29d82d59470f","ios":"levelo://app?vid=55d8bef9-f646-44e8-9e91-29d82d59470f"},"vehicle_type_id":"4","last_reported":1730909518,"current_range_meters":26000,"station_id":"ce4bhbp2rcd13ifvqerg","pricing_plan_id":"cebpf4jnsgd1na2vs0mg"},{"bike_id":"eacbfd83-35b6-4d42-ba39-69cf353082d8","system_id":"levelo_inurba_marseille","lat":43.31163,"lon":5.38723,"is_reserved":false,"is_disabled":false,"rental_uris":{"android":"levelo://app?vid=eacbfd83-35b6-4d42-ba39-69cf353082d8","ios":"levelo://app?vid=eacbfd83-35b6-4d42-ba39-69cf353082d8"},"vehicle_type_id":"4","last_reported":1730909518,"current_range_meters":20800,"station_id":"ce4bgv12rcd13ifvqcp0","pricing_plan_id":"cebpf4jnsgd1na2vs0mg"},{"bike_id":"1b8665b8-3fba-48e1-9f38-47bc7afbeb61","system_id":"levelo_inurba_marseille","lat":43.30135,"lon":5.3987,"is_reserved":false,"is_disabled":false,"rental_uris":{"android":"levelo://app?vid=1b8665b8-3fba-48e1-9f38-47bc7afbeb61","ios":"levelo://app?vid=1b8665b8-3fba-48e1-9f38-47bc7afbeb61"},"vehicle_type_id":"4","last_reported":1730909518,"current_range_meters":38800,"station_id":"ce4bh0h2rcd13ifvqd40","pricing_plan_id":"cebpf4jnsgd1na2vs0mg"},{"bike_id":"20c80413-bdb6-4737-bcdb-0a5d048834b3","system_id":"levelo_inurba_marseille","lat":43.23187,"lon":5.39988,"is_reserved":false,"is_disabled":false,"rental_uris":{"android":"levelo://app?vid=20c80413-bdb6-4737-bcdb-0a5d048834b3","ios":"levelo://app?vid=20c80413-bdb6-4737-bcdb-0a5d048834b3"},"vehicle_type_id":"4","last_reported":1730909518,"current_range_meters":40000,"station_id":"ce4bhn12rcd13ifvqgqg","pricing_plan_id":"cebpf4jnsgd1na2vs0mg"},{"bike_id":"bdf52a34-8790-49fd-815a-8a08721cb924","system_id":"levelo_inurba_marseille","lat":43.29868,"lon":5.39744,"is_reserved":false,"is_disabled":false,"rental_uris":{"android":"levelo://app?vid=bdf52a34-8790-49fd-815a-8a08721cb924","ios":"levelo://app?vid=bdf52a34-8790-49fd-815a-8a08721cb924"},"vehicle_type_id":"4","last_reported":1730909518,"current_range_meters":39200,"station_id":"ce4bh0h2rcd13ifvqd50","pricing_plan_id":"cebpf4jnsgd1na2vs0mg"},{"bike_id":"319d4761-c65a-4af6-b42c-312f7abb5990","system_id":"levelo_inurba_marseille","lat":43.337551,"lon":5.374532,"is_reserved":false,"is_disabled":false,"rental_uris":{"android":"levelo://app?vid=319d4761-c65a-4af6-b42c-312f7abb5990","ios":"levelo://app?vid=319d4761-c65a-4af6-b42c-312f7abb5990"},"vehicle_type_id":"4","last_reported":1730909518,"current_range_meters":31200,"station_id":"","pricing_plan_id":"cebpf4jnsgd1na2vs0mg"},{"bike_id":"b6a58992-2ba4-4b29-9a0f-7ec6e7d96688","system_id":"levelo_inurba_marseille","lat":43.28567,"lon":5.39511,"is_reserved":false,"is_disabled":false,"rental_uris":{"android":"levelo://app?vid=b6a58992-2ba4-4b29-9a0f-7ec6e7d96688","ios":"levelo://app?vid=b6a58992-2ba4-4b29-9a0f-7ec6e7d96688"},"vehicle_type_id":"4","last_reported":1730909518,"current_range_meters":40000,"station_id":"ce4bh292rcd13ifvqdg0","pricing_plan_id":"cebpf4jnsgd1na2vs0mg"},{"bike_id":"93a83a5c-0d3d-43a2-be24-e99a92c3575d","system_id":"levelo_inurba_marseille","lat":43.30841,"lon":5.37124,"is_reserved":false,"is_disabled":false,"rental_uris":{"android":"levelo://app?vid=93a83a5c-0d3d-43a2-be24-e99a92c3575d","ios":"levelo://app?vid=93a83a5c-0d3d-43a2-be24-e99a92c3575d"},"vehicle_type_id":"4","last_reported":1730909518,"current_range_meters":7200,"station_id":"","pricing_plan_id":"cebpf4jnsgd1na2vs0mg"},{"bike_id":"1a691e65-153c-4631-b31f-f914c7563e9f","system_id":"levelo_inurba_marseille","lat":43.2815,"lon":5.42642,"is_reserved":false,"is_disabled":false,"rental_uris":{"android":"levelo://app?vid=1a691e65-153c-4631-b31f-f914c7563e9f","ios":"levelo://app?vid=1a691e65-153c-4631-b31f-f914c7563e9f"},"vehicle_type_id":"4","last_reported":1730909518,"current_range_meters":36400,"station_id":"ce4bhnh2rcd13ifvqgug","pricing_plan_id":"cebpf4jnsgd1na2vs0mg"},{"bike_id":"0136d072-82da-454a-892d-a24ef211ddfd","system_id":"levelo_inurba_marseille","lat":43.28363,"lon":5.38629,"is_reserved":false,"is_disabled":false,"rental_uris":{"android":"levelo://app?vid=0136d072-82da-454a-892d-a24ef211ddfd","ios":"levelo://app?vid=0136d072-82da-454a-892d-a24ef211ddfd"},"vehicle_type_id":"4","last_reported":1730909518,"current_range_meters":31200,"station_id":"ce4bhh92rcd13ifvqfh0","pricing_plan_id":"cebpf4jnsgd1na2vs0mg"},{"bike_id":"0867c150-3252-473c-af48-909e1bb13044","system_id":"levelo_inurba_marseille","lat":43.315552,"lon":5.379755,"is_reserved":false,"is_disabled":false,"rental_uris":{"android":"levelo://app?vid=0867c150-3252-473c-af48-909e1bb13044","ios":"levelo://app?vid=0867c150-3252-473c-af48-909e1bb13044"},"vehicle_type_id":"4","last_reported":1730909518,"current_range_meters":38800,"station_id":"","pricing_plan_id":"cebpf4jnsgd1na2vs0mg"},{"bike_id":"87d0347a-0db6-49d1-a2c0-8c0833ce2247","system_id":"levelo_inurba_marseille","lat":43.31167,"lon":5.38736,"is_reserved":false,"is_disabled":false,"rental_uris":{"android":"levelo://app?vid=87d0347a-0db6-49d1-a2c0-8c0833ce2247","ios":"levelo://app?vid=87d0347a-0db6-49d1-a2c0-8c0833ce2247"},"vehicle_type_id":"4","last_reported":1730909518,"current_range_meters":10000,"station_id":"ce4bgv12rcd13ifvqcp0","pricing_plan_id":"cebpf4jnsgd1na2vs0mg"},{"bike_id":"11d34808-d097-479b-850d-ab0a17886407","system_id":"levelo_inurba_marseille","lat":43.24651,"lon":5.38893,"is_reserved":false,"is_disabled":false,"rental_uris":{"android":"levelo://app?vid=11d34808-d097-479b-850d-ab0a17886407","ios":"levelo://app?vid=11d34808-d097-479b-850d-ab0a17886407"},"vehicle_type_id":"4","last_reported":1730909518,"current_range_meters":8400,"station_id":"ce4bhg12rcd13ifvqf60","pricing_plan_id":"cebpf4jnsgd1na2vs0mg"},{"bike_id":"9c84298b-f5b3-41b5-a807-64897e4b4943","system_id":"levelo_inurba_marseille","lat":43.28568,"lon":5.39513,"is_reserved":false,"is_disabled":false,"rental_uris":{"android":"levelo://app?vid=9c84298b-f5b3-41b5-a807-64897e4b4943","ios":"levelo://app?vid=9c84298b-f5b3-41b5-a807-64897e4b4943"},"vehicle_type_id":"4","last_reported":1730909518,"current_range_meters":36400,"station_id":"ce4bh292rcd13ifvqdg0","pricing_plan_id":"cebpf4jnsgd1na2vs0mg"},{"bike_id":"04d56940-9b65-4736-bf93-8c78dfe647b8","system_id":"levelo_inurba_marseille","lat":43.29256,"lon":5.40913,"is_reserved":false,"is_disabled":false,"rental_uris":{"android":"levelo://app?vid=04d56940-9b65-4736-bf93-8c78dfe647b8","ios":"levelo://app?vid=04d56940-9b65-4736-bf93-8c78dfe647b8"},"vehicle_type_id":"4","last_reported":1730909518,"current_range_meters":10000,"station_id":"ce4bh192rcd13ifvqdc0","pricing_plan_id":"cebpf4jnsgd1na2vs0mg"},{"bike_id":"c01ed521-6e78-430c-ac1e-9791ebd2aa06","system_id":"levelo_inurba_marseille","lat":43.28718,"lon":5.37937,"is_reserved":false,"is_disabled":false,"rental_uris":{"android":"levelo://app?vid=c01ed521-6e78-430c-ac1e-9791ebd2aa06","ios":"levelo://app?vid=c01ed521-6e78-430c-ac1e-9791ebd2aa06"},"vehicle_type_id":"4","last_reported":1730909518,"current_range_meters":18800,"station_id":"ce4bh9p2rcd13ifvqec0","pricing_plan_id":"cebpf4jnsgd1na2vs0mg"},{"bike_id":"bc664be1-c88f-41a1-96df-af3bb14a8f12","system_id":"levelo_inurba_marseille","lat":43.28272,"lon":5.35078,"is_reserved":false,"is_disabled":false,"rental_uris":{"android":"levelo://app?vid=bc664be1-c88f-41a1-96df-af3bb14a8f12","ios":"levelo://app?vid=bc664be1-c88f-41a1-96df-af3bb14a8f12"},"vehicle_type_id":"4","last_reported":1730909518,"current_range_meters":38800,"station_id":"ce4bhbp2rcd13ifvqerg","pricing_plan_id":"cebpf4jnsgd1na2vs0mg"},{"bike_id":"821b0c57-a91e-44d4-b87e-4a81fc97d71f","system_id":"levelo_inurba_marseille","lat":43.2815,"lon":5.42656,"is_reserved":false,"is_disabled":false,"rental_uris":{"android":"levelo://app?vid=821b0c57-a91e-44d4-b87e-4a81fc97d71f","ios":"levelo://app?vid=821b0c57-a91e-44d4-b87e-4a81fc97d71f"},"vehicle_type_id":"4","last_reported":1730909518,"current_range_meters":16000,"station_id":"ce4bhnh2rcd13ifvqgug","pricing_plan_id":"cebpf4jnsgd1na2vs0mg"},{"bike_id":"4f2903bc-4521-4280-a3fd-8f415a987669","system_id":"levelo_inurba_marseille","lat":43.27558,"lon":5.38426,"is_reserved":false,"is_disabled":false,"rental_uris":{"android":"levelo://app?vid=4f2903bc-4521-4280-a3fd-8f415a987669","ios":"levelo://app?vid=4f2903bc-4521-4280-a3fd-8f415a987669"},"vehicle_type_id":"4","last_reported":1730909518,"current_range_meters":12400,"station_id":"ce4bhh92rcd13ifvqfi0","pricing_plan_id":"cebpf4jnsgd1na2vs0mg"},{"bike_id":"e2f533f6-e109-40ce-b372-f2348f50db15","system_id":"levelo_inurba_marseille","lat":43.25577,"lon":5.3824,"is_reserved":false,"is_disabled":false,"rental_uris":{"android":"levelo://app?vid=e2f533f6-e109-40ce-b372-f2348f50db15","ios":"levelo://app?vid=e2f533f6-e109-40ce-b372-f2348f50db15"},"vehicle_type_id":"4","last_reported":1730909518,"current_range_meters":35600,"station_id":"ce4bhih2rcd13ifvqfs0","pricing_plan_id":"cebpf4jnsgd1na2vs0mg"},{"bike_id":"7a8e0923-56d9-4e4a-9d83-7eb87a2df173","system_id":"levelo_inurba_marseille","lat":43.285715,"lon":5.395113,"is_reserved":false,"is_disabled":false,"rental_uris":{"android":"levelo://app?vid=7a8e0923-56d9-4e4a-9d83-7eb87a2df173","ios":"levelo://app?vid=7a8e0923-56d9-4e4a-9d83-7eb87a2df173"},"vehicle_type_id":"4","last_reported":1730909518,"current_range_meters":39200,"station_id":"ce4bh292rcd13ifvqdg0","pricing_plan_id":"cebpf4jnsgd1na2vs0mg"},{"bike_id":"9e66d990-5634-4c6a-a8f9-20371a314137","system_id":"levelo_inurba_marseille","lat":43.32337,"lon":5.40629,"is_reserved":false,"is_disabled":false,"rental_uris":{"android":"levelo://app?vid=9e66d990-5634-4c6a-a8f9-20371a314137","ios":"levelo://app?vid=9e66d990-5634-4c6a-a8f9-20371a314137"},"vehicle_type_id":"4","last_reported":1730909518,"current_range_meters":35200,"station_id":"ce4bhq92rcd13ifvqhjg","pricing_plan_id":"cebpf4jnsgd1na2vs0mg"},{"bike_id":"c37e6351-6641-4f18-9ac0-1f6b7e66c406","system_id":"levelo_inurba_marseille","lat":43.28698,"lon":5.39987,"is_reserved":false,"is_disabled":false,"rental_uris":{"android":"levelo://app?vid=c37e6351-6641-4f18-9ac0-1f6b7e66c406","ios":"levelo://app?vid=c37e6351-6641-4f18-9ac0-1f6b7e66c406"},"vehicle_type_id":"4","last_reported":1730909518,"current_range_meters":19600,"station_id":"ce4bho92rcd13ifvqh3g","pricing_plan_id":"cebpf4jnsgd1na2vs0mg"},{"bike_id":"202248ad-c2be-4b61-ae17-45e21c3b62c4","system_id":"levelo_inurba_marseille","lat":43.32482,"lon":5.36565,"is_reserved":false,"is_disabled":false,"rental_uris":{"android":"levelo://app?vid=202248ad-c2be-4b61-ae17-45e21c3b62c4","ios":"levelo://app?vid=202248ad-c2be-4b61-ae17-45e21c3b62c4"},"vehicle_type_id":"4","last_reported":1730909518,"current_range_meters":36000,"station_id":"ce4bhs12rcd13ifvqhvg","pricing_plan_id":"cebpf4jnsgd1na2vs0mg"},{"bike_id":"ae0b390c-a9c9-4b2a-8f82-406c4e21cdcd","system_id":"levelo_inurba_marseille","lat":43.29738,"lon":5.35947,"is_reserved":false,"is_disabled":false,"rental_uris":{"android":"levelo://app?vid=ae0b390c-a9c9-4b2a-8f82-406c4e21cdcd","ios":"levelo://app?vid=ae0b390c-a9c9-4b2a-8f82-406c4e21cdcd"},"vehicle_type_id":"4","last_reported":1730909518,"current_range_meters":10000,"station_id":"","pricing_plan_id":"cebpf4jnsgd1na2vs0mg"},{"bike_id":"f4d103b3-0422-4e95-916d-f96aae27bfed","system_id":"levelo_inurba_marseille","lat":43.30418,"lon":5.4128,"is_reserved":false,"is_disabled":false,"rental_uris":{"android":"levelo://app?vid=f4d103b3-0422-4e95-916d-f96aae27bfed","ios":"levelo://app?vid=f4d103b3-0422-4e95-916d-f96aae27bfed"},"vehicle_type_id":"4","last_reported":1730909518,"current_range_meters":27200,"station_id":"ce4bhop2rcd13ifvqh8g","pricing_plan_id":"cebpf4jnsgd1na2vs0mg"},{"bike_id":"f6c46074-ee4d-4805-bb20-ceb2811f9382","system_id":"levelo_inurba_marseille","lat":43.29982,"lon":5.38485,"is_reserved":false,"is_disabled":false,"rental_uris":{"android":"levelo://app?vid=f6c46074-ee4d-4805-bb20-ceb2811f9382","ios":"levelo://app?vid=f6c46074-ee4d-4805-bb20-ceb2811f9382"},"vehicle_type_id":"4","last_reported":1730909518,"current_range_meters":38800,"station_id":"ce4bgj92rcd13ifvqbd0","pricing_plan_id":"cebpf4jnsgd1na2vs0mg"},{"bike_id":"4fd336fb-ec63-4d09-84d4-45cf143f4508","system_id":"levelo_inurba_marseille","lat":43.31326,"lon":5.397,"is_reserved":false,"is_disabled":false,"rental_uris":{"android":"levelo://app?vid=4fd336fb-ec63-4d09-84d4-45cf143f4508","ios":"levelo://app?vid=4fd336fb-ec63-4d09-84d4-45cf143f4508"},"vehicle_type_id":"4","last_reported":1730909518,"current_range_meters":33200,"station_id":"ce4bgvp2rcd13ifvqcu0","pricing_plan_id":"cebpf4jnsgd1na2vs0mg"},{"bike_id":"f7725d2d-7a88-49b6-a1b4-8a22a1f97f9d","system_id":"levelo_inurba_marseille","lat":43.28941,"lon":5.36645,"is_reserved":false,"is_disabled":false,"rental_uris":{"android":"levelo://app?vid=f7725d2d-7a88-49b6-a1b4-8a22a1f97f9d","ios":"levelo://app?vid=f7725d2d-7a88-49b6-a1b4-8a22a1f97f9d"},"vehicle_type_id":"4","last_reported":1730909518,"current_range_meters":7200,"station_id":"ce4bhap2rcd13ifvqek0","pricing_plan_id":"cebpf4jnsgd1na2vs0mg"},{"bike_id":"3d865ad7-bc99-4997-9d95-289dd7cd6b01","system_id":"levelo_inurba_marseille","lat":43.29976,"lon":5.37193,"is_reserved":false,"is_disabled":false,"rental_uris":{"android":"levelo://app?vid=3d865ad7-bc99-4997-9d95-289dd7cd6b01","ios":"levelo://app?vid=3d865ad7-bc99-4997-9d95-289dd7cd6b01"},"vehicle_type_id":"4","last_reported":1730909518,"current_range_meters":4800,"station_id":"ce4bgr92rcd13ifvqc7g","pricing_plan_id":"cebpf4jnsgd1na2vs0mg"},{"bike_id":"6d5edb14-56c4-453f-8fa1-6c5da7f7dc0f","system_id":"levelo_inurba_marseille","lat":43.24546,"lon":5.39525,"is_reserved":false,"is_disabled":false,"rental_uris":{"android":"levelo://app?vid=6d5edb14-56c4-453f-8fa1-6c5da7f7dc0f","ios":"levelo://app?vid=6d5edb14-56c4-453f-8fa1-6c5da7f7dc0f"},"vehicle_type_id":"4","last_reported":1730909518,"current_range_meters":24800,"station_id":"ce4bhlp2rcd13ifvqgjg","pricing_plan_id":"cebpf4jnsgd1na2vs0mg"},{"bike_id":"449007b1-3212-49d4-a958-020d7fedd26c","system_id":"levelo_inurba_marseille","lat":43.24637,"lon":5.38918,"is_reserved":false,"is_disabled":false,"rental_uris":{"android":"levelo://app?vid=449007b1-3212-49d4-a958-020d7fedd26c","ios":"levelo://app?vid=449007b1-3212-49d4-a958-020d7fedd26c"},"vehicle_type_id":"4","last_reported":1730909518,"current_range_meters":29600,"station_id":"ce4bhg12rcd13ifvqf60","pricing_plan_id":"cebpf4jnsgd1na2vs0mg"},{"bike_id":"5ecc8895-54e6-4f89-b2dd-c62414020a53","system_id":"levelo_inurba_marseille","lat":43.30256,"lon":5.40054,"is_reserved":false,"is_disabled":false,"rental_uris":{"android":"levelo://app?vid=5ecc8895-54e6-4f89-b2dd-c62414020a53","ios":"levelo://app?vid=5ecc8895-54e6-4f89-b2dd-c62414020a53"},"vehicle_type_id":"4","last_reported":1730909518,"current_range_meters":35200,"station_id":"ce4bgvh2rcd13ifvqcs0","pricing_plan_id":"cebpf4jnsgd1na2vs0mg"},{"bike_id":"eb228ca5-2d5b-4291-9bfb-d4eb9b238c83","system_id":"levelo_inurba_marseille","lat":43.302412,"lon":5.400826,"is_reserved":false,"is_disabled":false,"rental_uris":{"android":"levelo://app?vid=eb228ca5-2d5b-4291-9bfb-d4eb9b238c83","ios":"levelo://app?vid=eb228ca5-2d5b-4291-9bfb-d4eb9b238c83"},"vehicle_type_id":"4","last_reported":1730909518,"current_range_meters":16800,"station_id":"ce4bgvh2rcd13ifvqcs0","pricing_plan_id":"cebpf4jnsgd1na2vs0mg"},{"bike_id":"1836f12b-c3e3-4b6c-a002-1cd6d734136a","system_id":"levelo_inurba_marseille","lat":43.23183,"lon":5.39994,"is_reserved":false,"is_disabled":false,"rental_uris":{"android":"levelo://app?vid=1836f12b-c3e3-4b6c-a002-1cd6d734136a","ios":"levelo://app?vid=1836f12b-c3e3-4b6c-a002-1cd6d734136a"},"vehicle_type_id":"4","last_reported":1730909518,"current_range_meters":29600,"station_id":"ce4bhn12rcd13ifvqgqg","pricing_plan_id":"cebpf4jnsgd1na2vs0mg"},