{"last_updated":1743545371,"ttl":60,"version":"2.2","data":{"bikes":[{"bike_id":"e4d45b32-136d-425a-9f75-38f726935582","system_id":"levelo_inurba_marseille","lat":43.28852,"lon":5.35858,"is_reserved":false,"is_disabled":false,"rental_uris":{"android":"levelo://app?vid=e4d45b32-136d-425a-9f75-38f726935582","ios":"levelo://app?vid=e4d45b32-136d-425a-9f75-38f726935582"},"vehicle_type_id":"4","last_reported":1743545372,"current_range_meters":2800,"station_id":"ce4bhb12rcd13ifvqem0","pricing_plan_id":"cebpf4jnsgd1na2vs0mg"},{"bike_id":"cdc4be9c-5a8f-4dd3-8f66-175dd8843454","system_id":"levelo_inurba_marseille","lat":43.29924,"lon":5.37475,"is_reserved":false,"is_disabled":true,"rental_uris":{"android":"levelo://app?vid=cdc4be9c-5a8f-4dd3-8f66-175dd8843454","ios":"levelo://app?vid=cdc4be9c-5a8f-4dd3-8f66-175dd8843454"},"vehicle_type_id":"4","last_reported":1743545372,"current_range_meters":2800,"station_id":"ce4bgjh2rcd13ifvqbg0","pricing_plan_id":"cebpf4jnsgd1na2vs0mg"},{"bike_id":"3f7fb305-4d65-41a3-9470-7dedb7e96321","system_id":"levelo_inurba_marseille","lat":43.26969,"lon":5.40238,"is_reserved":false,"is_disabled":true,"rental_uris":{"android":"levelo://app?vid=3f7fb305-4d65-41a3-9470-7dedb7e96321","ios":"levelo://app?vid=3f7fb305-4d65-41a3-9470-7dedb7e96321"},"vehicle_type_id":"4","last_reported":1743545372,"current_range_meters":2800,"station_id":"cjm6bp8fraef2m0cb0m0","pricing_plan_id":"cebpf4jnsgd1na2vs0mg"},{"bike_id":"3df664a5-ca9e-4e57-8cb9-ad7af6d9bc21","system_id":"levelo_inurba_marseille","lat":43.28049,"lon":5.36936,"is_reserved":false,"is_disabled":false,"rental_uris":{"android":"levelo://app?vid=3df664a5-ca9e-4e57-8cb9-ad7af6d9bc21","ios":"levelo://app?vid=3df664a5-ca9e-4e57-8cb9-ad7af6d9bc21"},"vehicle_type_id":"4","last_reported":1743545372,"current_range_meters":3200,"station_id":"ce4bha12rcd13ifvqef0","pricing_plan_id":"cebpf4jnsgd1na2vs0mg"},{"bike_id":"f6827568-2adb-4992-8dfe-1799b639c00c","system_id":"levelo_inurba_marseille","lat":43.28349,"lon":5.38097,"is_reserved":false,"is_disabled":false,"rental_uris":{"android":"levelo://app?vid=f6827568-2adb-4992-8dfe-1799b639c00c","ios":"levelo://app?vid=f6827568-2adb-4992-8dfe-1799b639c00c"},"vehicle_type_id":"4","last_reported":1743545372,"current_range_meters":3600,"station_id":"ce4bh412rcd13ifvqdr0","pricing_plan_id":"cebpf4jnsgd1na2vs0mg"},{"bike_id":"0c40db3f-32b6-4ea9-9b45-f4c085819df2","system_id":"levelo_inurba_marseille","lat":43.28319,"lon":5.3888,"is_reserved":false,"is_disabled":false,"rental_uris":{"android":"levelo://app?vid=0c40db3f-32b6-4ea9-9b45-f4c085819df2","ios":"levelo://app?vid=0c40db3f-32b6-4ea9-9b45-f4c085819df2"},"vehicle_type_id":"4","last_reported":1743545372,"current_range_meters":3600,"station_id":"","pricing_plan_id":"cebpf4jnsgd1na2vs0mg"},{"bike_id":"dc8e92f8-fd68-476d-83c6-a0bad33751eb","system_id":"levelo_inurba_marseille","lat":43.28699,"lon":5.39996,"is_reserved":false,"is_disabled":false,"rental_uris":{"android":"levelo://app?vid=dc8e92f8-fd68-476d-83c6-a0bad33751eb","ios":"levelo://app?vid=dc8e92f8-fd68-476d-83c6-a0bad33751eb"},"vehicle_type_id":"4","last_reported":1743545372,"current_range_meters":3600,"station_id":"ce4bho92rcd13ifvqh3g","pricing_plan_id":"cebpf4jnsgd1na2vs0mg"},{"bike_id":"8e2f9228-6839-44b4-8ec6-0b42ed2aac6e","system_id":"levelo_inurba_marseille","lat":43.32748,"lon":5.42409,"is_reserved":false,"is_disabled":false,"rental_uris":{"android":"levelo://app?vid=8e2f9228-6839-44b4-8ec6-0b42ed2aac6e","ios":"levelo://app?vid=8e2f9228-6839-44b4-8ec6-0b42ed2aac6e"},"vehicle_type_id":"4","last_reported":1743545372,"current_range_meters":4000,"station_id":"","pricing_plan_id":"cebpf4jnsgd1na2vs0mg"},{"bike_id":"254fd4bb-e2c1-41d7-a4c0-66d183343462","system_id":"levelo_inurba_marseille","lat":43.315277,"lon":5.380363,"is_reserved":false,"is_disabled":false,"rental_uris":{"android":"levelo://app?vid=254fd4bb-e2c1-41d7-a4c0-66d183343462","ios":"levelo://app?vid=254fd4bb-e2c1-41d7-a4c0-66d183343462"},"vehicle_type_id":"4","last_reported":1743545372,"current_range_meters":800,"station_id":"ce4bhsp2rcd13ifvqi50","pricing_plan_id":"cebpf4jnsgd1na2vs0mg"},{"bike_id":"1b167083-12b7-424b-b082-ddc2382f2cdc","system_id":"levelo_inurba_marseille","lat":43.285986,"lon":5.35095,"is_reserved":false,"is_disabled":false,"rental_uris":{"android":"levelo://app?vid=1b167083-12b7-424b-b082-ddc2382f2cdc","ios":"levelo://app?vid=1b167083-12b7-424b-b082-ddc2382f2cdc"},"vehicle_type_id":"4","last_reported":1743545372,"current_range_meters":4000,"station_id":"","pricing_plan_id":"cebpf4jnsgd1na2vs0mg"},{"bike_id":"c6438c46-204d-4a79-9a65-1f7b29c6cbc4","system_id":"levelo_inurba_marseille","lat":43.28434,"lon":5.39195,"is_reserved":false,"is_disabled":true,"rental_uris":{"android":"levelo://app?vid=c6438c46-204d-4a79-9a65-1f7b29c6cbc4","ios":"levelo://app?vid=c6438c46-204d-4a79-9a65-1f7b29c6cbc4"},"vehicle_type_id":"4","last_reported":1743545372,"current_range_meters":4400,"station_id":"ce4bhoh2rcd13ifvqh5g","pricing_plan_id":"cebpf4jnsgd1na2vs0mg"},{"bike_id":"1945ebeb-6ec8-4a0c-9d89-2d8219042cad","system_id":"levelo_inurba_marseille","lat":43.28123,"lon":5.37812,"is_reserved":false,"is_disabled":false,"rental_uris":{"android":"levelo://app?vid=1945ebeb-6ec8-4a0c-9d89-2d8219042cad","ios":"levelo://app?vid=1945ebeb-6ec8-4a0c-9d89-2d8219042cad"},"vehicle_type_id":"4","last_reported":1743545372,"current_range_meters":4400,"station_id":"ce4bha12rcd13ifvqee0","pricing_plan_id":"cebpf4jnsgd1na2vs0mg"},{"bike_id":"3f634d3e-6bff-4897-944e-8b03798edf32","system_id":"levelo_inurba_marseille","lat":43.25873,"lon":5.39892,"is_reserved":false,"is_disabled":false,"rental_uris":{"android":"levelo://app?vid=3f634d3e-6bff-4897-944e-8b03798edf32","ios":"levelo://app?vid=3f634d3e-6bff-4897-944e-8b03798edf32"},"vehicle_type_id":"4","last_reported":1743545372,"current_range_meters":4400,"station_id":"ce4bhl92rcd13ifvqghg","pricing_plan_id":"cebpf4jnsgd1na2vs0mg"},{"bike_id":"4f6db61e-8293-4a0d-bb9c-f9aae02e4996","system_id":"levelo_inurba_marseille","lat":43.25092,"lon":5.39526,"is_reserved":false,"is_disabled":true,"rental_uris":{"android":"levelo://app?vid=4f6db61e-8293-4a0d-bb9c-f9aae02e4996","ios":"levelo://app?vid=4f6db61e-8293-4a0d-bb9c-f9aae02e4996"},"vehicle_type_id":"4","last_reported":1743545372,"current_range_meters":4400,"station_id":"ce4bhm12rcd13ifvqgkg","pricing_plan_id":"cebpf4jnsgd1na2vs0mg"},{"bike_id":"acd20690-d96c-48bc-b672-d3c6c6c77404","system_id":"levelo_inurba_marseille","lat":43.30885,"lon":5.39626,"is_reserved":false,"is_disabled":true,"rental_uris":{"android":"levelo://app?vid=acd20690-d96c-48bc-b672-d3c6c6c77404","ios":"levelo://app?vid=acd20690-d96c-48bc-b672-d3c6c6c77404"},"vehicle_type_id":"4","last_reported":1743545372,"current_range_meters":4800,"station_id":"ce4bh012rcd13ifvqcv0","pricing_plan_id":"cebpf4jnsgd1na2vs0mg"},{"bike_id":"02a25f28-67d1-4aa1-aa41-7bde5309c86e","system_id":"levelo_inurba_marseille","lat":43.287239,"lon":5.383562,"is_reserved":false,"is_disabled":false,"rental_uris":{"android":"levelo://app?vid=02a25f28-67d1-4aa1-aa41-7bde5309c86e","ios":"levelo://app?vid=02a25f28-67d1-4aa1-aa41-7bde5309c86e"},"vehicle_type_id":"4","last_reported":1743545372,"current_range_meters":4800,"station_id":"ce4bgqh2rcd13ifvqc4g","pricing_plan_id":"cebpf4jnsgd1na2vs0mg"},{"bike_id":"07f21796-10e5-401c-b1d2-7284537d6f26","system_id":"levelo_inurba_marseille","lat":43.296234,"lon":5.377215,"is_reserved":false,"is_disabled":false,"rental_uris":{"android":"levelo://app?vid=07f21796-10e5-401c-b1d2-7284537d6f26","ios":"levelo://app?vid=07f21796-10e5-401c-b1d2-7284537d6f26"},"vehicle_type_id":"4","last_reported":1743545372,"current_range_meters":4800,"station_id":"ce4bh3h2rcd13ifvqdo0","pricing_plan_id":"cebpf4jnsgd1na2vs0mg"},{"bike_id":"f48d79f5-c11c-40ac-bea7-a54a81f6a2e6","system_id":"levelo_inurba_marseille","lat":43.29697,"lon":5.36636,"is_reserved":false,"is_disabled":false,"rental_uris":{"android":"levelo://app?vid=f48d79f5-c11c-40ac-bea7-a54a81f6a2e6","ios":"levelo://app?vid=f48d79f5-c11c-40ac-bea7-a54a81f6a2e6"},"vehicle_type_id":"4","last_reported":1743545372,"current_range_meters":5600,"station_id":"ce4bgn12rcd13ifvqbt0","pricing_plan_id":"cebpf4jnsgd1na2vs0mg"},{"bike_id":"3159a373-26dc-43aa-8a81-81890d794247","system_id":"levelo_inurba_marseille","lat":43.29316,"lon":5.37487,"is_reserved":false,"is_disabled":true,"rental_uris":{"android":"levelo://app?vid=3159a373-26dc-43aa-8a81-81890d794247","ios":"levelo://app?vid=3159a373-26dc-43aa-8a81-81890d794247"},"vehicle_type_id":"4","last_reported":1743545372,"current_range_meters":5600,"station_id":"ce4bgi12rcd13ifvqb70","pricing_plan_id":"cebpf4jnsgd1na2vs0mg"},{"bike_id":"23a2997f-acca-44d1-a72c-cccdd94a796c","system_id":"levelo_inurba_marseille","lat":43.30936,"lon":5.40137,"is_reserved":false,"is_disabled":true,"rental_uris":{"android":"levelo://app?vid=23a2997f-acca-44d1-a72c-cccdd94a796c","ios":"levelo://app?vid=23a2997f-acca-44d1-a72c-cccdd94a796c"},"vehicle_type_id":"4","last_reported":1743545372,"current_range_meters":6000,"station_id":"ce4bgvp2rcd13ifvqct0","pricing_plan_id":"cebpf4jnsgd1na2vs0mg"},{"bike_id":"eebf72b5-e3ef-4e3f-8181-c82b2045fd37","system_id":"levelo_inurba_marseille","lat":43.26549,"lon":5.37299,"is_reserved":false,"is_disabled":false,"rental_uris":{"android":"levelo://app?vid=eebf72b5-e3ef-4e3f-8181-c82b2045fd37","ios":"levelo://app?vid=eebf72b5-e3ef-4e3f-8181-c82b2045fd37"},"vehicle_type_id":"4","last_reported":1743545372,"current_range_meters":6000,"station_id":"ce4bhg12rcd13ifvqf70","pricing_plan_id":"cebpf4jnsgd1na2vs0mg"},{"bike_id":"cc50a121-30f5-4ec0-9fd0-0d8cc5adbd88","system_id":"levelo_inurba_marseille","lat":43.26556,"lon":5.39029,"is_reserved":false,"is_disabled":false,"rental_uris":{"android":"levelo://app?vid=cc50a121-30f5-4ec0-9fd0-0d8cc5adbd88","ios":"levelo://app?vid=cc50a121-30f5-4ec0-9fd0-0d8cc5adbd88"},"vehicle_type_id":"4","last_reported":1743545372,"current_range_meters":6000,"station_id":"ce4bhe12rcd13ifvqf30","pricing_plan_id":"cebpf4jnsgd1na2vs0mg"},{"bike_id":"8f188c1f-e79b-4d9c-bdf0-db34efe70778","system_id":"levelo_inurba_marseille","lat":43.23198,"lon":5.3555,"is_reserved":false,"is_disabled":false,"rental_uris":{"android":"levelo://app?vid=8f188c1f-e79b-4d9c-bdf0-db34efe70778","ios":"levelo://app?vid=8f188c1f-e79b-4d9c-bdf0-db34efe70778"},"vehicle_type_id":"4","last_reported":1743545372,"current_range_meters":6000,"station_id":"ce4bhu92rcd13ifvqi70","pricing_plan_id":"cebpf4jnsgd1na2vs0mg"},{"bike_id":"654d82ea-01fe-49c3-b14b-b6f61c48dfdd","system_id":"levelo_inurba_marseille","lat":43.28672,"lon":5.39947,"is_reserved":false,"is_disabled":false,"rental_uris":{"android":"levelo://app?vid=654d82ea-01fe-49c3-b14b-b6f61c48dfdd","ios":"levelo://app?vid=654d82ea-01fe-49c3-b14b-b6f61c48dfdd"},"vehicle_type_id":"4","last_reported":1743545372,"current_range_meters":6000,"station_id":"ce4bho92rcd13ifvqh3g","pricing_plan_id":"cebpf4jnsgd1na2vs0mg"},{"bike_id":"9bab9577-f0a6-4162-bef5-85b5a79a8e57","system_id":"levelo_inurba_marseille","lat":43.29034,"lon":5.39979,"is_reserved":false,"is_disabled":true,"rental_uris":{"android":"levelo://app?vid=9bab9577-f0a6-4162-bef5-85b5a79a8e57","ios":"levelo://app?vid=9bab9577-f0a6-4162-bef5-85b5a79a8e57"},"vehicle_type_id":"4","last_reported":1743545372,"current_range_meters":6000,"station_id":"ce4bh392rcd13ifvqdm0","pricing_plan_id":"cebpf4jnsgd1na2vs0mg"},{"bike_id":"889c4013-740f-4bce-87b7-e986dabab5d1","system_id":"levelo_inurba_marseille","lat":43.30879,"lon":5.37213,"is_reserved":false,"is_disabled":false,"rental_uris":{"android":"levelo://app?vid=889c4013-740f-4bce-87b7-e986dabab5d1","ios":"levelo://app?vid=889c4013-740f-4bce-87b7-e986dabab5d1"},"vehicle_type_id":"4","last_reported":1743545372,"current_range_meters":6000,"station_id":"ce4bguh2rcd13ifvqckg","pricing_plan_id":"cebpf4jnsgd1na2vs0mg"},{"bike_id":"1b7879b7-bf13-49eb-97a4-50916b33bf0b","system_id":"levelo_inurba_marseille","lat":43.28003,"lon":5.41676,"is_reserved":false,"is_disabled":false,"rental_uris":{"android":"levelo://app?vid=1b7879b7-bf13-49eb-97a4-50916b33bf0b","ios":"levelo://app?vid=1b7879b7-bf13-49eb-97a4-50916b33bf0b"},"vehicle_type_id":"4","last_reported":1743545372,"current_range_meters":6000,"station_id":"ce4bho12rcd13ifvqh1g","pricing_plan_id":"cebpf4jnsgd1na2vs0mg"},{"bike_id":"f69d4072-9a93-44cc-9167-b628deba3bbf","system_id":"levelo_inurba_marseille","lat":43.29979,"lon":5.413351,"is_reserved":false,"is_disabled":false,"rental_uris":{"android":"levelo://app?vid=f69d4072-9a93-44cc-9167-b628deba3bbf","ios":"levelo://app?vid=f69d4072-9a93-44cc-9167-b628deba3bbf"},"vehicle_type_id":"4","last_reported":1743545372,"current_range_meters":6000,"station_id":"ce4bhp12rcd13ifvqh9g","pricing_plan_id":"cebpf4jnsgd1na2vs0mg"},{"bike_id":"791f8b6d-c7b8-43a3-af53-554de4edbd8b","system_id":"levelo_inurba_marseille","lat":43.27034,"lon":5.40021,"is_reserved":false,"is_disabled":true,"rental_uris":{"android":"levelo://app?vid=791f8b6d-c7b8-43a3-af53-554de4edbd8b","ios":"levelo://app?vid=791f8b6d-c7b8-43a3-af53-554de4edbd8b"},"vehicle_type_id":"4","last_reported":1743545372,"current_range_meters":6400,"station_id":"","pricing_plan_id":"cebpf4jnsgd1na2vs0mg"},{"bike_id":"fa36f309-6b39-4046-9bcf-4e553f3ec51d","system_id":"levelo_inurba_marseille","lat":43.25557,"lon":5.38213,"is_reserved":false,"is_disabled":false,"rental_uris":{"android":"levelo://app?vid=fa36f309-6b39-4046-9bcf-4e553f3ec51d","ios":"levelo://app?vid=fa36f309-6b39-4046-9bcf-4e553f3ec51d"},"vehicle_type_id":"4","last_reported":1743545372,"current_range_meters":6400,"station_id":"ce4bhih2rcd13ifvqfs0","pricing_plan_id":"cebpf4jnsgd1na2vs0mg"},{"bike_id":"a0f4e2b1-3f78-4ef7-bcfc-960b8ba32a79","system_id":"levelo_inurba_marseille","lat":43.30606,"lon":5.37212,"is_reserved":false,"is_disabled":false,"rental_uris":{"android":"levelo://app?vid=a0f4e2b1-3f78-4ef7-bcfc-960b8ba32a79","ios":"levelo://app?vid=a0f4e2b1-3f78-4ef7-bcfc-960b8ba32a79"},"vehicle_type_id":"4","last_reported":1743545372,"current_range_meters":6800,"station_id":"ce4bgqh2rcd13ifvqc4g","pricing_plan_id":"cebpf4jnsgd1na2vs0mg"},{"bike_id":"136fa5c3-be28-408f-a7f8-789863dfd2ef","system_id":"levelo_inurba_marseille","lat":43.2973,"lon":5.3657,"is_reserved":false,"is_disabled":false,"rental_uris":{"android":"levelo://app?vid=136fa5c3-be28-408f-a7f8-789863dfd2ef","ios":"levelo://app?vid=136fa5c3-be28-408f-a7f8-789863dfd2ef"},"vehicle_type_id":"4","last_reported":1743545372,"current_range_meters":6800,"station_id":"ce4bgn12rcd13ifvqbt0","pricing_plan_id":"cebpf4jnsgd1na2vs0mg"},{"bike_id":"d662608d-504d-43ae-8d4a-6ba237d6c000","system_id":"levelo_inurba_marseille","lat":43.27846,"lon":5.38488,"is_reserved":false,"is_disabled":false,"rental_uris":{"android":"levelo://app?vid=d662608d-504d-43ae-8d4a-6ba237d6c000","ios":"levelo://app?vid=d662608d-504d-43ae-8d4a-6ba237d6c000"},"vehicle_type_id":"4","last_reported":1743545372,"current_range_meters":6800,"station_id":"","pricing_plan_id":"cebpf4jnsgd1na2vs0mg"},{"bike_id":"ab150c86-a818-4fd2-9923-471f33edb0ea","system_id":"levelo_inurba_marseille","lat":43.32002,"lon":5.38174,"is_reserved":false,"is_disabled":false,"rental_uris":{"android":"levelo://app?vid=ab150c86-a818-4fd2-9923-471f33edb0ea","ios":"levelo://app?vid=ab150c86-a818-4fd2-9923-471f33edb0ea"},"vehicle_type_id":"4","last_reported":1743545372,"current_range_meters":7200,"station_id":"ce4bhr12rcd13ifvqhpg","pricing_plan_id":"cebpf4jnsgd1na2vs0mg"},{"bike_id":"721bcc92-6b82-4aac-988d-3c86699ef60a","system_id":"levelo_inurba_marseille","lat":43.27786,"lon":5.3923,"is_reserved":false,"is_disabled":true,"rental_uris":{"android":"levelo://app?vid=721bcc92-6b82-4aac-988d-3c86699ef60a","ios":"levelo://app?vid=721bcc92-6b82-4aac-988d-3c86699ef60a"},"vehicle_type_id":"4","last_reported":1743545372,"current_range_meters":7200,"station_id":"","pricing_plan_id":"cebpf4jnsgd1na2vs0mg"},{"bike_id":"3d1029bb-e27c-4cea-8135-c4c5037de3f0","system_id":"levelo_inurba_marseille","lat":43.29877,"lon":5.3973,"is_reserved":false,"is_disabled":false,"rental_uris":{"android":"levelo://app?vid=3d1029bb-e27c-4cea-8135-c4c5037de3f0","ios":"levelo://app?vid=3d1029bb-e27c-4cea-8135-c4c5037de3f0"},"vehicle_type_id":"4","last_reported":1743545372,"current_range_meters":7200,"station_id":"ce4bh0h2rcd13ifvqd50","pricing_plan_id":"cebpf4jnsgd1na2vs0mg"},{"bike_id":"ab917714-e47d-4ed7-b902-4c1637c1701e","system_id":"levelo_inurba_marseille","lat":43.28859,"lon":5.3589,"is_reserved":false,"is_disabled":false,"rental_uris":{"android":"levelo://app?vid=ab917714-e47d-4ed7-b902-4c1637c1701e","ios":"levelo://app?vid=ab917714-e47d-4ed7-b902-4c1637c1701e"},"vehicle_type_id":"4","last_reported":1743545372,"current_range_meters":7200,"station_id":"ce4bhb12rcd13ifvqem0","pricing_plan_id":"cebpf4jnsgd1na2vs0mg"},{"bike_id":"187e3cf0-1c9c-47df-a281-64190c4a38e7","system_id":"levelo_inurba_marseille","lat":43.30431,"lon":5.388853,"is_reserved":false,"is_disabled":false,"rental_uris":{"android":"levelo://app?vid=187e3cf0-1c9c-47df-a281-64190c4a38e7","ios":"levelo://app?vid=187e3cf0-1c9c-47df-a281-64190c4a38e7"},"vehicle_type_id":"4","last_reported":1743545372,"current_range_meters":7200,"station_id":"ce4bgk12rcd13ifvqbi0","pricing_plan_id":"cebpf4jnsgd1na2vs0mg"},{"bike_id":"fef1d547-feef-4239-90b2-e0f3b60672f8","system_id":"levelo_inurba_marseille","lat":43.29574,"lon":5.39964,"is_reserved":false,"is_disabled":true,"rental_uris":{"android":"levelo://app?vid=fef1d547-feef-4239-90b2-e0f3b60672f8","ios":"levelo://app?vid=fef1d547-feef-4239-90b2-e0f3b60672f8"},"vehicle_type_id":"4","last_reported":1743545372,"current_range_meters":8000,"station_id":"ce4bh312rcd13ifvqdj0","pricing_plan_id":"cebpf4jnsgd1na2vs0mg"},{"bike_id":"d10bd936-2fca-4607-82d0-6e154162cbfd","system_id":"levelo_inurba_marseille","lat":43.30896,"lon":5.39641,"is_reserved":false,"is_disabled":true,"rental_uris":{"android":"levelo://app?vid=d10bd936-2fca-4607-82d0-6e154162cbfd","ios":"levelo://app?vid=d10bd936-2fca-4607-82d0-6e154162cbfd"},"vehicle_type_id":"4","last_reported":1743545372,"current_range_meters":8000,"station_id":"ce4bh012rcd13ifvqcv0","pricing_plan_id":"cebpf4jnsgd1na2vs0mg"},{"bike_id":"3a21b672-7501-4151-b579-3c3525dcd7c3","system_id":"levelo_inurba_marseille","lat":43.2654,"lon":5.37295,"is_reserved":false,"is_disabled":false,"rental_uris":{"android":"levelo://app?vid=3a21b672-7501-4151-b579-3c3525dcd7c3","ios":"levelo://app?vid=3a21b672-7501-4151-b579-3c3525dcd7c3"},"vehicle_type_id":"4","last_reported":1743545372,"current_range_meters":8000,"station_id":"ce4bhg12rcd13ifvqf70","pricing_plan_id":"cebpf4jnsgd1na2vs0mg"},{"bike_id":"a98ca414-5a9d-44e4-9fe8-4c3a59245923","system_id":"levelo_inurba_marseille","lat":43.30798,"lon":5.43542,"is_reserved":false,"is_disabled":false,"rental_uris":{"android":"levelo://app?vid=a98ca414-5a9d-44e4-9fe8-4c3a59245923","ios":"levelo://app?vid=a98ca414-5a9d-44e4-9fe8-4c3a59245923"},"vehicle_type_id":"4","last_reported":1743545372,"current_range_meters":8000,"station_id":"ce4bhph2rcd13ifvqheg","pricing_plan_id":"cebpf4jnsgd1na2vs0mg"},{"bike_id":"28b6a25f-1d3c-4a54-b29e-afa1b303d4b2","system_id":"levelo_inurba_marseille","lat":43.31343,"lon":5.39688,"is_reserved":false,"is_disabled":false,"rental_uris":{"android":"levelo://app?vid=28b6a25f-1d3c-4a54-b29e-afa1b303d4b2","ios":"levelo://app?vid=28b6a25f-1d3c-4a54-b29e-afa1b303d4b2"},"vehicle_type_id":"4","last_reported":1743545372,"current_range_meters":8000,"station_id":"ce4bgvp2rcd13ifvqcu0","pricing_plan_id":"cebpf4jnsgd1na2vs0mg"},{"bike_id":"33b8dd29-56e2-488c-9bb6-7f788906afe5","system_id":"levelo_inurba_marseille","lat":43.30768,"lon":5.37287,"is_reserved":false,"is_disabled":false,"rental_uris":{"android":"levelo://app?vid=33b8dd29-56e2-488c-9bb6-7f788906afe5","ios":"levelo://app?vid=33b8dd29-56e2-488c-9bb6-7f788906afe5"},"vehicle_type_id":"4","last_reported":1743545372,"current_range_meters":8000,"station_id":"","pricing_plan_id":"cebpf4jnsgd1na2vs0mg"},{"bike_id":"4ad73676-975d-4eb4-8ab0-34916f3a4594","system_id":"levelo_inurba_marseille","lat":43.30659,"lon":5.37144,"is_reserved":false,"is_disabled":false,"rental_uris":{"android":"levelo://app?vid=4ad73676-975d-4eb4-8ab0-34916f3a4594","ios":"levelo://app?vid=4ad73676-975d-4eb4-8ab0-34916f3a4594"},"vehicle_type_id":"4","last_reported":1743545372,"current_range_meters":8000,"station_id":"","pricing_plan_id":"cebpf4jnsgd1na2vs0mg"},{"bike_id":"11fb0821-8afa-433a-9d88-19545526da74","system_id":"levelo_inurba_marseille","lat":43.279,"lon":5.37981,"is_reserved":false,"is_disabled":true,"rental_uris":{"android":"levelo://app?vid=11fb0821-8afa-433a-9d88-19545526da74","ios":"levelo://app?vid=11fb0821-8afa-433a-9d88-19545526da74"},"vehicle_type_id":"4","last_reported":1743545372,"current_range_meters":8000,"station_id":"ce4bhf92rcd13ifvqf50","pricing_plan_id":"cebpf4jnsgd1na2vs0mg"},{"bike_id":"5e33a95c-77ec-45d3-911d-392849531992","system_id":"levelo_inurba_marseille","lat":43.28603,"lon":5.3512,"is_reserved":false,"is_disabled":false,"rental_uris":{"android":"levelo://app?vid=5e33a95c-77ec-45d3-911d-392849531992","ios":"levelo://app?vid=5e33a95c-77ec-45d3-911d-392849531992"},"vehicle_type_id":"4","last_reported":1743545372,"current_range_meters":8000,"station_id":"ce4bhch2rcd13ifvqeug","pricing_plan_id":"cebpf4jnsgd1na2vs0mg"},{"bike_id":"d7e94a04-56bd-41c4-a7fd-d5876e694f5d","system_id":"levelo_inurba_marseille","lat":43.24545,"lon":5.39541,"is_reserved":false,"is_disabled":false,"rental_uris":{"android":"levelo://app?vid=d7e94a04-56bd-41c4-a7fd-d5876e694f5d","ios":"levelo://app?vid=d7e94a04-56bd-41c4-a7fd-d5876e694f5d"},"vehicle_type_id":"4","last_reported":1743545372,"current_range_meters":8000,"station_id":"ce4bhlp2rcd13ifvqgjg","pricing_plan_id":"cebpf4jnsgd1na2vs0mg"},{"bike_id":"44f052c8-8c9e-46bc-a958-7adccf1a5867","system_id":"levelo_inurba_marseille","lat":43.2587,"lon":5.39892,"is_reserved":false,"is_disabled":false,"rental_uris":{"android":"levelo://app?vid=44f052c8-8c9e-46bc-a958-7adccf1a5867","ios":"levelo://app?vid=44f052c8-8c9e-46bc-a958-7adccf1a5867"},"vehicle_type_id":"4","last_reported":1743545372,"current_range_meters":8000,"station_id":"ce4bhl92rcd13ifvqghg","pricing_plan_id":"cebpf4jnsgd1na2vs0mg"},{"bike_id":"91d48793-5dd7-45b0-b672-d2eea9be4411","system_id":"levelo_inurba_marseille","lat":43.25001,"lon":5.38922,"is_reserved":false,"is_disabled":false,"rental_uris":{"android":"levelo://app?vid=91d48793-5dd7-45b0-b672-d2eea9be4411","ios":"levelo://app?vid=91d48793-5dd7-45b0-b672-d2eea9be4411"},"vehicle_type_id":"4","last_reported":1743545372,"current_range_meters":8000,"station_id":"ce4bhgp2rcd13ifvqfd0","pricing_plan_id":"cebpf4jnsgd1na2vs0mg"},{"bike_id":"8075b667-14a1-4a2e-bae6-b0affeb897b1","system_id":"levelo_inurba_marseille","lat":43.31095,"lon":5.42452,"is_reserved":false,"is_disabled":false,"rental_uris":{"android":"levelo://app?vid=8075b667-14a1-4a2e-bae6-b0affeb897b1","ios":"levelo://app?vid=8075b667-14a1-4a2e-bae6-b0affeb897b1"},"vehicle_type_id":"4","last_reported":1743545372,"current_range_meters":8400,"station_id":"ce4bhp92rcd13ifvqhag","pricing_plan_id":"cebpf4jnsgd1na2vs0mg"},{"bike_id":"1167d76f-0701-42ca-9566-e6b8288b4501","system_id":"levelo_inurba_marseille","lat":43.28277,"lon":5.37866,"is_reserved":false,"is_disabled":false,"rental_uris":{"android":"levelo://app?vid=1167d76f-0701-42ca-9566-e6b8288b4501","ios":"levelo://app?vid=1167d76f-0701-42ca-9566-e6b8288b4501"},"vehicle_type_id":"4","last_reported":1743545372,"current_range_meters":8400,"station_id":"","pricing_plan_id":"cebpf4jnsgd1na2vs0mg"},{"bike_id":"5df5cc2e-3e49-4df8-affb-4cf5d8f44cd9","system_id":"levelo_inurba_marseille","lat":43.29805,"lon":5.3811,"is_reserved":false,"is_disabled":false,"rental_uris":{"android":"levelo://app?vid=5df5cc2e-3e49-4df8-affb-4cf5d8f44cd9","ios":"levelo://app?vid=5df5cc2e-3e49-4df8-affb-4cf5d8f44cd9"},"vehicle_type_id":"4","last_reported":1743545372,"current_range_meters":8400,"station_id":"ce4bgip2rcd13ifvqbb0","pricing_plan_id":"cebpf4jnsgd1na2vs0mg"},{"bike_id":"7549bd43-15b2-4001-a4c7-d590c7fffdef","system_id":"levelo_inurba_marseille","lat":43.32105,"lon":5.36775,"is_reserved":false,"is_disabled":false,"rental_uris":{"android":"levelo://app?vid=7549bd43-15b2-4001-a4c7-d590c7fffdef","ios":"levelo://app?vid=7549bd43-15b2-4001-a4c7-d590c7fffdef"},"vehicle_type_id":"4","last_reported":1743545372,"current_range_meters":8400,"station_id":"ce4bhrh2rcd13ifvqhug","pricing_plan_id":"cebpf4jnsgd1na2vs0mg"},{"bike_id":"fa8c30fd-1a18-42df-bec5-552f041972d5","system_id":"levelo_inurba_marseille","lat":43.293244,"lon":5.371668,"is_reserved":false,"is_disabled":false,"rental_uris":{"android":"levelo://app?vid=fa8c30fd-1a18-42df-bec5-552f041972d5","ios":"levelo://app?vid=fa8c30fd-1a18-42df-bec5-552f041972d5"},"vehicle_type_id":"4","last_reported":1743545372,"current_range_meters":8400,"station_id":"ce4bhg12rcd13ifvqf80","pricing_plan_id":"cebpf4jnsgd1na2vs0mg"},{"bike_id":"06b1d6c7-37b4-4959-bca4-885ccac8901f","system_id":"levelo_inurba_marseille","lat":43.3108,"lon":5.38347,"is_reserved":false,"is_disabled":false,"rental_uris":{"android":"levelo://app?vid=06b1d6c7-37b4-4959-bca4-885ccac8901f","ios":"levelo://app?vid=06b1d6c7-37b4-4959-bca4-885ccac8901f"},"vehicle_type_id":"4","last_reported":1743545372,"current_range_meters":8400,"station_id":"ce4bgv92rcd13ifvqcr0","pricing_plan_id":"cebpf4jnsgd1na2vs0mg"},{"bike_id":"c6c438e8-d3ab-4770-968b-7a1a93e8a8c6","system_id":"levelo_inurba_marseille","lat":43.28896,"lon":5.45871,"is_reserved":false,"is_disabled":false,"rental_uris":{"android":"levelo://app?vid=c6c438e8-d3ab-4770-968b-7a1a93e8a8c6","ios":"levelo://app?vid=c6c438e8-d3ab-4770-968b-7a1a93e8a8c6"},"vehicle_type_id":"4","last_reported":1743545372,"current_range_meters":8400,"station_id":"","pricing_plan_id":"cebpf4jnsgd1na2vs0mg"},{"bike_id":"94d63a3f-f766-461e-b70d-c33b50ae7606","system_id":"levelo_inurba_marseille","lat":43.30116,"lon":5.39867,"is_reserved":false,"is_disabled":false,"rental_uris":{"android":"levelo://app?vid=94d63a3f-f766-461e-b70d-c33b50ae7606","ios":"levelo://app?vid=94d63a3f-f766-461e-b70d-c33b50ae7606"},"vehicle_type_id":"4","last_reported":1743545372,"current_range_meters":8400,"station_id":"ce4bh0h2rcd13ifvqd40","pricing_plan_id":"cebpf4jnsgd1na2vs0mg"},{"bike_id":"c78b9a95-987d-4523-b4bc-3f61fb9b6b7b","system_id":"levelo_inurba_marseille","lat":43.25492,"lon":5.37646,"is_reserved":false,"is_disabled":false,"rental_uris":{"android":"levelo://app?vid=c78b9a95-987d-4523-b4bc-3f61fb9b6b7b","ios":"levelo://app?vid=c78b9a95-987d-4523-b4bc-3f61fb9b6b7b"},"vehicle_type_id":"4","last_reported":1743545372,"current_range_meters":8400,"station_id":"ce4bhh12rcd13ifvqff0","pricing_plan_id":"cebpf4jnsgd1na2vs0mg"},{"bike_id":"50e764f6-9c8f-4e9a-91b8-c43a38140e8f","system_id":"levelo_inurba_marseille","lat":43.307805,"lon":5.376554,"is_reserved":false,"is_disabled":false,"rental_uris":{"android":"levelo://app?vid=50e764f6-9c8f-4e9a-91b8-c43a38140e8f","ios":"levelo://app?vid=50e764f6-9c8f-4e9a-91b8-c43a38140e8f"},"vehicle_type_id":"4","last_reported":1743545372,"current_range_meters":8800,"station_id":"ce4bgv92rcd13ifvqcq0","pricing_plan_id":"cebpf4jnsgd1na2vs0mg"},{"bike_id":"a776e107-592d-439a-9156-f4fcf0d5240a","system_id":"levelo_inurba_marseille","lat":43.30662,"lon":5.40073,"is_reserved":false,"is_disabled":false,"rental_uris":{"android":"levelo://app?vid=a776e107-592d-439a-9156-f4fcf0d5240a","ios":"levelo://app?vid=a776e107-592d-439a-9156-f4fcf0d5240a"},"vehicle_type_id":"4","last_reported":1743545372,"current_range_meters":8800,"station_id":"ce4bh112rcd13ifvqda0","pricing_plan_id":"cebpf4jnsgd1na2vs0mg"},{"bike_id":"66f4eb91-cb1e-483a-9841-e69f8e9ca2fc","system_id":"levelo_inurba_marseille","lat":43.283463,"lon":5.381096,"is_reserved":false,"is_disabled":false,"rental_uris":{"android":"levelo://app?vid=66f4eb91-cb1e-483a-9841-e69f8e9ca2fc","ios":"levelo://app?vid=66f4eb91-cb1e-483a-9841-e69f8e9ca2fc"},"vehicle_type_id":"4","last_reported":1743545372,"current_range_meters":8800,"station_id":"","pricing_plan_id":"cebpf4jnsgd1na2vs0mg"},{"bike_id":"878f9e7d-25c6-4abc-95a4-555c77068785","system_id":"levelo_inurba_marseille","lat":43.30308,"lon":5.40452,"is_reserved":false,"is_disabled":false,"rental_uris":{"android":"levelo://app?vid=878f9e7d-25c6-4abc-95a4-555c77068785","ios":"levelo://app?vid=878f9e7d-25c6-4abc-95a4-555c77068785"},"vehicle_type_id":"4","last_reported":1743545372,"current_range_meters":8800,"station_id":"ce4bh012rcd13ifvqd10","pricing_plan_id":"cebpf4jnsgd1na2vs0mg"},{"bike_id":"49423b93-28c3-4afa-893a-d3004cba0328","system_id":"levelo_inurba_marseille","lat":43.27827,"lon":5.39202,"is_reserved":false,"is_disabled":false,"rental_uris":{"android":"levelo://app?vid=49423b93-28c3-4afa-893a-d3004cba0328","ios":"levelo://app?vid=49423b93-28c3-4afa-893a-d3004cba0328"},"vehicle_type_id":"4","last_reported":1743545372,"current_range_meters":8800,"station_id":"ce4bhjp2rcd13ifvqga0","pricing_plan_id":"cebpf4jnsgd1na2vs0mg"},{"bike_id":"a495ab47-72d1-4f9e-8b95-72d772792f33","system_id":"levelo_inurba_marseille","lat":43.30443,"lon":5.36881,"is_reserved":false,"is_disabled":false,"rental_uris":{"android":"levelo://app?vid=a495ab47-72d1-4f9e-8b95-72d772792f33","ios":"levelo://app?vid=a495ab47-72d1-4f9e-8b95-72d772792f33"},"vehicle_type_id":"4","last_reported":1743545372,"current_range_meters":8800,"station_id":"","pricing_plan_id":"cebpf4jnsgd1na2vs0mg"},{"bike_id":"8f3bcfa2-2b91-40a6-9e03-5127a49831c2","system_id":"levelo_inurba_marseille","lat":43.27944,"lon":5.38678,"is_reserved":false,"is_disabled":false,"rental_uris":{"android":"levelo://app?vid=8f3bcfa2-2b91-40a6-9e03-5127a49831c2","ios":"levelo://app?vid=8f3bcfa2-2b91-40a6-9e03-5127a49831c2"},"vehicle_type_id":"4","last_reported":1743545372,"current_range_meters":8800,"station_id":"ce4bhg12rcd13ifvqf80","pricing_plan_id":"cebpf4jnsgd1na2vs0mg"},{"bike_id":"4e731b01-8520-49d5-a2ac-5d6dcf51d952","system_id":"levelo_inurba_marseille","lat":43.25132,"lon":5.40345,"is_reserved":false,"is_disabled":false,"rental_uris":{"android":"levelo://app?vid=4e731b01-8520-49d5-a2ac-5d6dcf51d952","ios":"levelo://app?vid=4e731b01-8520-49d5-a2ac-5d6dcf51d952"},"vehicle_type_id":"4","last_reported":1743545372,"current_range_meters":8800,"station_id":"ce4bhlh2rcd13ifvqgig","pricing_plan_id":"cebpf4jnsgd1na2vs0mg"},{"bike_id":"4a48f963-6e5f-4777-9bcd-540f020d49d5","system_id":"levelo_inurba_marseille","lat":43.27821,"lon":5.39212,"is_reserved":false,"is_disabled":true,"rental_uris":{"android":"levelo://app?vid=4a48f963-6e5f-4777-9bcd-540f020d49d5","ios":"levelo://app?vid=4a48f963-6e5f-4777-9bcd-540f020d49d5"},"vehicle_type_id":"4","last_reported":1743545372,"current_range_meters":8800,"station_id":"ce4bhjp2rcd13ifvqga0","pricing_plan_id":"cebpf4jnsgd1na2vs0mg"},{"bike_id":"66a6759f-f104-404f-ba35-7dd5d87e6d0b","system_id":"levelo_inurba_marseille","lat":43.30164,"lon":5.3768,"is_reserved":false,"is_disabled":false,"rental_uris":{"android":"levelo://app?vid=66a6759f-f104-404f-ba35-7dd5d87e6d0b","ios":"levelo://app?vid=66a6759f-f104-404f-ba35-7dd5d87e6d0b"},"vehicle_type_id":"4","last_reported":1743545372,"current_range_meters":8800,"station_id":"","pricing_plan_id":"cebpf4jnsgd1na2vs0mg"},{"bike_id":"bde09dae-8316-463c-85bb-76fe0a313387","system_id":"levelo_inurba_marseille","lat":43.287386,"lon":5.365984,"is_reserved":false,"is_disabled":false,"rental_uris":{"android":"levelo://app?vid=bde09dae-8316-463c-85bb-76fe0a313387","ios":"levelo://app?vid=bde09dae-8316-463c-85bb-76fe0a313387"},"vehicle_type_id":"4","last_reported":1743545372,"current_range_meters":9200,"station_id":"ce4bhah2rcd13ifvqej0","pricing_plan_id":"cebpf4jnsgd1na2vs0mg"},{"bike_id":"dfca37a9-cfd4-401c-b5ce-c9c4d656bffe","system_id":"levelo_inurba_marseille","lat":43.28464,"lon":5.35887,"is_reserved":false,"is_disabled":false,"rental_uris":{"android":"levelo://app?vid=dfca37a9-cfd4-401c-b5ce-c9c4d656bffe","ios":"levelo://app?vid=dfca37a9-cfd4-401c-b5ce-c9c4d656bffe"},"vehicle_type_id":"4","last_reported":1743545372,"current_range_meters":9200,"station_id":"ce4bhah2rcd13ifvqei0","pricing_plan_id":"cebpf4jnsgd1na2vs0mg"},{"bike_id":"8fc84e5d-a782-4374-b0cd-d3d9e7c82d43","system_id":"levelo_inurba_marseille","lat":43.294374,"lon":5.397508,"is_reserved":false,"is_disabled":false,"rental_uris":{"android":"levelo://app?vid=8fc84e5d-a782-4374-b0cd-d3d9e7c82d43","ios":"levelo://app?vid=8fc84e5d-a782-4374-b0cd-d3d9e7c82d43"},"vehicle_type_id":"4","last_reported":1743545372,"current_range_meters":9200,"station_id":"ce4bh3h2rcd13ifvqdo0","pricing_plan_id":"cebpf4jnsgd1na2vs0mg"},{"bike_id":"0466cb97-aeaf-4a1f-9c0c-b9e00b7baa3d","system_id":"levelo_inurba_marseille","lat":43.307831,"lon":5.376492,"is_reserved":false,"is_disabled":false,"rental_uris":{"android":"levelo://app?vid=0466cb97-aeaf-4a1f-9c0c-b9e00b7baa3d","ios":"levelo://app?vid=0466cb97-aeaf-4a1f-9c0c-b9e00b7baa3d"},"vehicle_type_id":"4","last_reported":1743545372,"current_range_meters":9200,"station_id":"ce4bgv92rcd13ifvqcq0","pricing_plan_id":"cebpf4jnsgd1na2vs0mg"},{"bike_id":"e6928b84-bc47-4de0-8a23-14baa6be129c","system_id":"levelo_inurba_marseille","lat":43.301118,"lon":5.399199,"is_reserved":false,"is_disabled":true,"rental_uris":{"android":"levelo://app?vid=e6928b84-bc47-4de0-8a23-14baa6be129c","ios":"levelo://app?vid=e6928b84-bc47-4de0-8a23-14baa6be129c"},"vehicle_type_id":"4","last_reported":1743545372,"current_range_meters":9200,"station_id":"ce4bh0h2rcd13ifvqd40","pricing_plan_id":"cebpf4jnsgd1na2vs0mg"},{"bike_id":"298e6dc1-9010-409a-b215-7b4e1f56fb69","system_id":"levelo_inurba_marseille","lat":43.28273,"lon":5.35056,"is_reserved":false,"is_disabled":false,"rental_uris":{"android":"levelo://app?vid=298e6dc1-9010-409a-b215-7b4e1f56fb69","ios":"levelo://app?vid=298e6dc1-9010-409a-b215-7b4e1f56fb69"},"vehicle_type_id":"4","last_reported":1743545372,"current_range_meters":9200,"station_id":"ce4bhbp2rcd13ifvqerg","pricing_plan_id":"cebpf4jnsgd1na2vs0mg"},{"bike_id":"8f65cf44-a162-441c-a7f7-23db3fe93296","system_id":"levelo_inurba_marseille","lat":43.28103,"lon":5.37852,"is_reserved":false,"is_disabled":false,"rental_uris":{"android":"levelo://app?vid=8f65cf44-a162-441c-a7f7-23db3fe93296","ios":"levelo://app?vid=8f65cf44-a162-441c-a7f7-23db3fe93296"},"vehicle_type_id":"4","last_reported":1743545372,"current_range_meters":9200,"station_id":"ce4bha12rcd13ifvqee0","pricing_plan_id":"cebpf4jnsgd1na2vs0mg"},{"bike_id":"e47bc61d-df2d-41b3-b26b-dd94e6e5e301","system_id":"levelo_inurba_marseille","lat":43.26244,"lon":5.42124,"is_reserved":false,"is_disabled":false,"rental_uris":{"android":"levelo://app?vid=e47bc61d-df2d-41b3-b26b-dd94e6e5e301","ios":"levelo://app?vid=e47bc61d-df2d-41b3-b26b-dd94e6e5e301"},"vehicle_type_id":"4","last_reported":1743545372,"current_range_meters":9200,"station_id":"","pricing_plan_id":"cebpf4jnsgd1na2vs0mg"},{"bike_id":"84d2566a-114f-4e55-959b-c6c35a39731c","system_id":"levelo_inurba_marseille","lat":43.2783,"lon":5.39212,"is_reserved":false,"is_disabled":false,"rental_uris":{"android":"levelo://app?vid=84d2566a-114f-4e55-959b-c6c35a39731c","ios":"levelo://app?vid=84d2566a-114f-4e55-959b-c6c35a39731c"},"vehicle_type_id":"4","last_reported":1743545372,"current_range_meters":9200,"station_id":"ce4bhjp2rcd13ifvqga0","pricing_plan_id":"cebpf4jnsgd1na2vs0mg"},{"bike_id":"7bdf0d60-3026-4723-ac07-ebb25b9cf79f","system_id":"levelo_inurba_marseille","lat":43.28788,"lon":5.38664,"is_reserved":false,"is_disabled":false,"rental_uris":{"android":"levelo://app?vid=7bdf0d60-3026-4723-ac07-ebb25b9cf79f","ios":"levelo://app?vid=7bdf0d60-3026-4723-ac07-ebb25b9cf79f"},"vehicle_type_id":"4","last_reported":1743545372,"current_range_meters":9200,"station_id":"","pricing_plan_id":"cebpf4jnsgd1na2vs0mg"},{"bike_id":"517f170b-3b70-4a91-bbc1-e2feedbce1b4","system_id":"levelo_inurba_marseille","lat":43.28346,"lon":5.38101,"is_reserved":false,"is_disabled":false,"rental_uris":{"android":"levelo://app?vid=517f170b-3b70-4a91-bbc1-e2feedbce1b4","ios":"levelo://app?vid=517f170b-3b70-4a91-bbc1-e2feedbce1b4"},"vehicle_type_id":"4","last_reported":1743545372,"current_range_meters":9200,"station_id":"ce4bh412rcd13ifvqdr0","pricing_plan_id":"cebpf4jnsgd1na2vs0mg"},{"bike_id":"ab52962f-bc93-4ddd-be76-164eb31c1a2f","system_id":"levelo_inurba_marseille","lat":43.249977,"lon":5.389311,"is_reserved":false,"is_disabled":false,"rental_uris":{"android":"levelo://app?vid=ab52962f-bc93-4ddd-be76-164eb31c1a2f","ios":"levelo://app?vid=ab52962f-bc93-4ddd-be76-164eb31c1a2f"},"vehicle_type_id":"4","last_reported":1743545372,"current_range_meters":9200,"station_id":"ce4bhgp2rcd13ifvqfd0","pricing_plan_id":"cebpf4jnsgd1na2vs0mg"},{"bike_id":"5fa5d7e5-05ea-4278-a98b-a43064d3ec2a","system_id":"levelo_inurba_marseille","lat":43.28395,"lon":5.37553,"is_reserved":false,"is_disabled":true,"rental_uris":{"android":"levelo://app?vid=5fa5d7e5-05ea-4278-a98b-a43064d3ec2a","ios":"levelo://app?vid=5fa5d7e5-05ea-4278-a98b-a43064d3ec2a"},"vehicle_type_id":"4","last_reported":1743545372,"current_range_meters":9200,"station_id":"ce4bh412rcd13ifvqds0","pricing_plan_id":"cebpf4jnsgd1na2vs0mg"},{"bike_id":"2c567be4-626d-4614-8796-6c92d09d2fa1","system_id":"levelo_inurba_marseille","lat":43.29716,"lon":5.37932,"is_reserved":false,"is_disabled":false,"rental_uris":{"android":"levelo://app?vid=2c567be4-626d-4614-8796-6c92d09d2fa1","ios":"levelo://app?vid=2c567be4-626d-4614-8796-6c92d09d2fa1"},"vehicle_type_id":"4","last_reported":1743545372,"current_range_meters":9600,"station_id":"","pricing_plan_id":"cebpf4jnsgd1na2vs0mg"},{"bike_id":"67e02190-fe32-43d4-8320-0b46d4310805","system_id":"levelo_inurba_marseille","lat":43.23171,"lon":5.39993,"is_reserved":false,"is_disabled":false,"rental_uris":{"android":"levelo://app?vid=67e02190-fe32-43d4-8320-0b46d4310805","ios":"levelo://app?vid=67e02190-fe32-43d4-8320-0b46d4310805"},"vehicle_type_id":"4","last_reported":1743545372,"current_range_meters":9600,"station_id":"ce4bhn12rcd13ifvqgqg","pricing_plan_id":"cebpf4jnsgd1na2vs0mg"},{"bike_id":"6fe50303-3adc-422d-9b31-96597a73342b","system_id":"levelo_inurba_marseille","lat":43.23201,"lon":5.39974,"is_reserved":false,"is_disabled":false,"rental_uris":{"android":"levelo://app?vid=6fe50303-3adc-422d-9b31-96597a73342b","ios":"levelo://app?vid=6fe50303-3adc-422d-9b31-96597a73342b"},"vehicle_type_id":"4","last_reported":1743545372,"current_range_meters":9600,"station_id":"ce4bhn12rcd13ifvqgqg","pricing_plan_id":"cebpf4jnsgd1na2vs0mg"},{"bike_id":"515665b8-e5fc-4dbc-b90f-05d42ba5c9a9","system_id":"levelo_inurba_marseille","lat":43.30119,"lon":5.39862,"is_reserved":false,"is_disabled":true,"rental_uris":{"android":"levelo://app?vid=515665b8-e5fc-4dbc-b90f-05d42ba5c9a9","ios":"levelo://app?vid=515665b8-e5fc-4dbc-b90f-05d42ba5c9a9"},"vehicle_type_id":"4","last_reported":1743545372,"current_range_meters":9600,"station_id":"ce4bh0h2rcd13ifvqd40","pricing_plan_id":"cebpf4jnsgd1na2vs0mg"},{"bike_id":"b3cc6af8-4e04-47ee-b7ed-e72bfdc8a57b","system_id":"levelo_inurba_marseille","lat":43.31712,"lon":5.39018,"is_reserved":false,"is_disabled":false,"rental_uris":{"android":"levelo://app?vid=b3cc6af8-4e04-47ee-b7ed-e72bfdc8a57b","ios":"levelo://app?vid=b3cc6af8-4e04-47ee-b7ed-e72bfdc8a57b"},"vehicle_type_id":"4","last_reported":1743545372,"current_range_meters":9600,"station_id":"ce4bhqp2rcd13ifvqhng","pricing_plan_id":"cebpf4jnsgd1na2vs0mg"},{"bike_id":"7af49adf-a82e-48dc-90ce-8f8adc353b59","system_id":"levelo_inurba_marseille","lat":43.34239,"lon":5.38512,"is_reserved":false,"is_disabled":false,"rental_uris":{"android":"levelo://app?vid=7af49adf-a82e-48dc-90ce-8f8adc353b59","ios":"levelo://app?vid=7af49adf-a82e-48dc-90ce-8f8adc353b59"},"vehicle_type_id":"4","last_reported":1743545372,"current_range_meters":9600,"station_id":"","pricing_plan_id":"cebpf4jnsgd1na2vs0mg"},{"bike_id":"3e5329f3-c0cd-422c-afb1-2f46242590da","system_id":"levelo_inurba_marseille","lat":43.31901,"lon":5.37572,"is_reserved":false,"is_disabled":false,"rental_uris":{"android":"levelo://app?vid=3e5329f3-c0cd-422c-afb1-2f46242590da","ios":"levelo://app?vid=3e5329f3-c0cd-422c-afb1-2f46242590da"},"vehicle_type_id":"4","last_reported":1743545372,"current_range_meters":9600,"station_id":"","pricing_plan_id":"cebpf4jnsgd1na2vs0mg"},{"bike_id":"caf01d1e-a67e-4a73-91cb-da4d5f57bbb4","system_id":"levelo_inurba_marseille","lat":43.30611,"lon":5.37205,"is_reserved":false,"is_disabled":false,"rental_uris":{"android":"levelo://app?vid=caf01d1e-a67e-4a73-91cb-da4d5f57bbb4","ios":"levelo://app?vid=caf01d1e-a67e-4a73-91cb-da4d5f57bbb4"},"vehicle_type_id":"4","last_reported":1743545372,"current_range_meters":9600,"station_id":"ce4bgqh2rcd13ifvqc4g","pricing_plan_id":"cebpf4jnsgd1na2vs0mg"},{"bike_id":"5ecafc64-86c4-4df5-818d-7b60b3345ce1","system_id":"levelo_inurba_marseille","lat":43.28619,"lon":5.35096,"is_reserved":false,"is_disabled":false,"rental_uris":{"android":"levelo://app?vid=5ecafc64-86c4-4df5-818d-7b60b3345ce1","ios":"levelo://app?vid=5ecafc64-86c4-4df5-818d-7b60b3345ce1"},"vehicle_type_id":"4","last_reported":1743545372,"current_range_meters":9600,"station_id":"ce4bhch2rcd13ifvqeug","pricing_plan_id":"cebpf4jnsgd1na2vs0mg"},{"bike_id":"27773214-4312-4127-aa54-e74cba3d6d07","system_id":"levelo_inurba_marseille","lat":43.27798,"lon":5.40724,"is_reserved":false,"is_disabled":false,"rental_uris":{"android":"levelo://app?vid=27773214-4312-4127-aa54-e74cba3d6d07","ios":"levelo://app?vid=27773214-4312-4127-aa54-e74cba3d6d07"},"vehicle_type_id":"4","last_reported":1743545372,"current_range_meters":9600,"station_id":"ce4bhnh2rcd13ifvqgtg","pricing_plan_id":"cebpf4jnsgd1na2vs0mg"},{"bike_id":"f2dfd2a0-5846-4c43-9aae-f5b5157fea3b","system_id":"levelo_inurba_marseille","lat":43.28623,"lon":5.35101,"is_reserved":false,"is_disabled":false,"rental_uris":{"android":"levelo://app?vid=f2dfd2a0-5846-4c43-9aae-f5b5157fea3b","ios":"levelo://app?vid=f2dfd2a0-5846-4c43-9aae-f5b5157fea3b"},"vehicle_type_id":"4","last_reported":1743545372,"current_range_meters":9600,"station_id":"ce4bhch2rcd13ifvqeug","pricing_plan_id":"cebpf4jnsgd1na2vs0mg"},{"bike_id":"7c2c5032-ba7e-4fad-9e3f-0857e0ce2703","system_id":"levelo_inurba_marseille","lat":43.30795,"lon":5.38175,"is_reserved":false,"is_disabled":false,"rental_uris":{"android":"levelo://app?vid=7c2c5032-ba7e-4fad-9e3f-0857e0ce2703","ios":"levelo://app?vid=7c2c5032-ba7e-4fad-9e3f-0857e0ce2703"},"vehicle_type_id":"4","last_reported":1743545372,"current_range_meters":10000,"station_id":"ce4bgt12rcd13ifvqce0","pricing_plan_id":"cebpf4jnsgd1na2vs0mg"},{"bike_id":"eb7da56b-5c69-49ae-a682-c31364575d55","system_id":"levelo_inurba_marseille","lat":43.25699,"lon":5.41115,"is_reserved":false,"is_disabled":false,"rental_uris":{"android":"levelo://app?vid=eb7da56b-5c69-49ae-a682-c31364575d55","ios":"levelo://app?vid=eb7da56b-5c69-49ae-a682-c31364575d55"},"vehicle_type_id":"4","last_reported":1743545372,"current_range_meters":10000,"station_id":"ce4bhkp2rcd13ifvqgd0","pricing_plan_id":"cebpf4jnsgd1na2vs0mg"},{"bike_id":"2e8d8654-23f7-434b-a09e-ae1e8d2abb71","system_id":"levelo_inurba_marseille","lat":43.25085,"lon":5.39529,"is_reserved":false,"is_disabled":false,"rental_uris":{"android":"levelo://app?vid=2e8d8654-23f7-434b-a09e-ae1e8d2abb71","ios":"levelo://app?vid=2e8d8654-23f7-434b-a09e-ae1e8d2abb71"},"vehicle_type_id":"4","last_reported":1743545372,"current_range_meters":10000,"station_id":"ce4bhm12rcd13ifvqgkg","pricing_plan_id":"cebpf4jnsgd1na2vs0mg"},{"bike_id":"34ead93f-0548-429e-a369-3703fc242f80","system_id":"levelo_inurba_marseille","lat":43.25572,"lon":5.38258,"is_reserved":false,"is_disabled":false,"rental_uris":{"android":"levelo://app?vid=34ead93f-0548-429e-a369-3703fc242f80","ios":"levelo://app?vid=34ead93f-0548-429e-a369-3703fc242f80"},"vehicle_type_id":"4","last_reported":1743545372,"current_range_meters":10000,"station_id":"ce4bhih2rcd13ifvqfs0","pricing_plan_id":"cebpf4jnsgd1na2vs0mg"},{"bike_id":"dff10669-72e0-417b-81c5-123d7d018f6a","system_id":"levelo_inurba_marseille","lat":43.28037,"lon":5.36953,"is_reserved":false,"is_disabled":false,"rental_uris":{"android":"levelo://app?vid=dff10669-72e0-417b-81c5-123d7d018f6a","ios":"levelo://app?vid=dff10669-72e0-417b-81c5-123d7d018f6a"},"vehicle_type_id":"4","last_reported":1743545372,"current_range_meters":10000,"station_id":"ce4bha12rcd13ifvqef0","pricing_plan_id":"cebpf4jnsgd1na2vs0mg"},{"bike_id":"50b2e74c-a7bd-4c62-9bd2-b5e8d27179dd","system_id":"levelo_inurba_marseille","lat":43.30951,"lon":5.39037,"is_reserved":false,"is_disabled":false,"rental_uris":{"android":"levelo://app?vid=50b2e74c-a7bd-4c62-9bd2-b5e8d27179dd","ios":"levelo://app?vid=50b2e74c-a7bd-4c62-9bd2-b5e8d27179dd"},"vehicle_type_id":"4","last_reported":1743545372,"current_range_meters":10000,"station_id":"ce4bgup2rcd13ifvqco0","pricing_plan_id":"cebpf4jnsgd1na2vs0mg"},{"bike_id":"7d24f7f3-5a91-46ae-971d-a7a715309919","system_id":"levelo_inurba_marseille","lat":43.23191,"lon":5.39987,"is_reserved":false,"is_disabled":false,"rental_uris":{"android":"levelo://app?vid=7d24f7f3-5a91-46ae-971d-a7a715309919","ios":"levelo://app?vid=7d24f7f3-5a91-46ae-971d-a7a715309919"},"vehicle_type_id":"4","last_reported":1743545372,"current_range_meters":10000,"station_id":"ce4bhn12rcd13ifvqgqg","pricing_plan_id":"cebpf4jnsgd1na2vs0mg"},{"bike_id":"d1319251-b1e3-4059-8116-8418ade3d3d9","system_id":"levelo_inurba_marseille","lat":43.2583,"lon":5.39432,"is_reserved":false,"is_disabled":false,"rental_uris":{"android":"levelo://app?vid=d1319251-b1e3-4059-8116-8418ade3d3d9","ios":"levelo://app?vid=d1319251-b1e3-4059-8116-8418ade3d3d9"},"vehicle_type_id":"4","last_reported":1743545372,"current_range_meters":10000,"station_id":"ce4bhip2rcd13ifvqft0","pricing_plan_id":"cebpf4jnsgd1na2vs0mg"},{"bike_id":"a6dcb119-06c7-4ddf-8dd4-d841276950c7","system_id":"levelo_inurba_marseille","lat":43.29636,"lon":5.40598,"is_reserved":false,"is_disabled":false,"rental_uris":{"android":"levelo://app?vid=a6dcb119-06c7-4ddf-8dd4-d841276950c7","ios":"levelo://app?vid=a6dcb119-06c7-4ddf-8dd4-d841276950c7"},"vehicle_type_id":"4","last_reported":1743545372,"current_range_meters":10000,"station_id":"ce4bh0h2rcd13ifvqd60","pricing_plan_id":"cebpf4jnsgd1na2vs0mg"},{"bike_id":"693a6c20-3e8f-40ba-985f-e72f8969ee75","system_id":"levelo_inurba_marseille","lat":43.28699,"lon":5.39977,"is_reserved":false,"is_disabled":false,"rental_uris":{"android":"levelo://app?vid=693a6c20-3e8f-40ba-985f-e72f8969ee75","ios":"levelo://app?vid=693a6c20-3e8f-40ba-985f-e72f8969ee75"},"vehicle_type_id":"4","last_reported":1743545372,"current_range_meters":10000,"station_id":"ce4bho92rcd13ifvqh3g","pricing_plan_id":"cebpf4jnsgd1na2vs0mg"},{"bike_id":"09226cf3-bd7e-458e-aa2e-ad6cee0d95ca","system_id":"levelo_inurba_marseille","lat":43.326586,"lon":5.409827,"is_reserved":false,"is_disabled":false,"rental_uris":{"android":"levelo://app?vid=09226cf3-bd7e-458e-aa2e-ad6cee0d95ca","ios":"levelo://app?vid=09226cf3-bd7e-458e-aa2e-ad6cee0d95ca"},"vehicle_type_id":"4","last_reported":1743545372,"current_range_meters":10000,"station_id":"ce4bhpp2rcd13ifvqhgg","pricing_plan_id":"cebpf4jnsgd1na2vs0mg"},{"bike_id":"f68ae7db-23ad-4afd-a177-74b2d9f9241d","system_id":"levelo_inurba_marseille","lat":43.28713,"lon":5.39987,"is_reserved":false,"is_disabled":false,"rental_uris":{"android":"levelo://app?vid=f68ae7db-23ad-4afd-a177-74b2d9f9241d","ios":"levelo://app?vid=f68ae7db-23ad-4afd-a177-74b2d9f9241d"},"vehicle_type_id":"4","last_reported":1743545372,"current_range_meters":10000,"station_id":"ce4bho92rcd13ifvqh3g","pricing_plan_id":"cebpf4jnsgd1na2vs0mg"},{"bike_id":"56cfda8b-2674-4efc-8ad1-c51e28d4f008","system_id":"levelo_inurba_marseille","lat":43.280321,"lon":5.369464,"is_reserved":false,"is_disabled":false,"rental_uris":{"android":"levelo://app?vid=56cfda8b-2674-4efc-8ad1-c51e28d4f008","ios":"levelo://app?vid=56cfda8b-2674-4efc-8ad1-c51e28d4f008"},"vehicle_type_id":"4","last_reported":1743545372,"current_range_meters":10800,"station_id":"ce4bha12rcd13ifvqef0","pricing_plan_id":"cebpf4jnsgd1na2vs0mg"},{"bike_id":"5432c552-efcb-4a0c-b202-5b7eac25ce40","system_id":"levelo_inurba_marseille","lat":43.25146,"lon":5.40342,"is_reserved":false,"is_disabled":false,"rental_uris":{"android":"levelo://app?vid=5432c552-efcb-4a0c-b202-5b7eac25ce40","ios":"levelo://app?vid=5432c552-efcb-4a0c-b202-5b7eac25ce40"},"vehicle_type_id":"4","last_reported":1743545372,"current_range_meters":10800,"station_id":"ce4bhlh2rcd13ifvqgig","pricing_plan_id":"cebpf4jnsgd1na2vs0mg"},{"bike_id":"8f4c73f8-1c17-489a-bfae-2c6f102fd4d6","system_id":"levelo_inurba_marseille","lat":43.25725,"lon":5.41101,"is_reserved":false,"is_disabled":false,"rental_uris":{"android":"levelo://app?vid=8f4c73f8-1c17-489a-bfae-2c6f102fd4d6","ios":"levelo://app?vid=8f4c73f8-1c17-489a-bfae-2c6f102fd4d6"},"vehicle_type_id":"4","last_reported":1743545372,"current_range_meters":10800,"station_id":"ce4bhkp2rcd13ifvqgd0","pricing_plan_id":"cebpf4jnsgd1na2vs0mg"},{"bike_id":"60129d40-45b0-48c5-8fe5-8766c358d773","system_id":"levelo_inurba_marseille","lat":43.25095,"lon":5.39525,"is_reserved":false,"is_disabled":false,"rental_uris":{"android":"levelo://app?vid=60129d40-45b0-48c5-8fe5-8766c358d773","ios":"levelo://app?vid=60129d40-45b0-48c5-8fe5-8766c358d773"},"vehicle_type_id":"4","last_reported":1743545372,"current_range_meters":10800,"station_id":"ce4bhm12rcd13ifvqgkg","pricing_plan_id":"cebpf4jnsgd1na2vs0mg"},{"bike_id":"6cbd8faa-ab2b-482d-9f08-169f36426a75","system_id":"levelo_inurba_marseille","lat":43.28697,"lon":5.37389,"is_reserved":false,"is_disabled":false,"rental_uris":{"android":"levelo://app?vid=6cbd8faa-ab2b-482d-9f08-169f36426a75","ios":"levelo://app?vid=6cbd8faa-ab2b-482d-9f08-169f36426a75"},"vehicle_type_id":"4","last_reported":1743545372,"current_range_meters":10800,"station_id":"ce4bh3p2rcd13ifvqdq0","pricing_plan_id":"cebpf4jnsgd1na2vs0mg"},{"bike_id":"c3742909-8ac1-45e8-bbc0-0a14494abaa8","system_id":"levelo_inurba_marseille","lat":43.2462,"lon":5.38892,"is_reserved":false,"is_disabled":false,"rental_uris":{"android":"levelo://app?vid=c3742909-8ac1-45e8-bbc0-0a14494abaa8","ios":"levelo://app?vid=c3742909-8ac1-45e8-bbc0-0a14494abaa8"},"vehicle_type_id":"4","last_reported":1743545372,"current_range_meters":10800,"station_id":"ce4bhg12rcd13ifvqf60","pricing_plan_id":"cebpf4jnsgd1na2vs0mg"},{"bike_id":"497521ca-b3a2-43b6-a510-32bdc6fdbb07","system_id":"levelo_inurba_marseille","lat":43.27911,"lon":5.38006,"is_reserved":false,"is_disabled":false,"rental_uris":{"android":"levelo://app?vid=497521ca-b3a2-43b6-a510-32bdc6fdbb07","ios":"levelo://app?vid=497521ca-b3a2-43b6-a510-32bdc6fdbb07"},"vehicle_type_id":"4","last_reported":1743545372,"current_range_meters":10800,"station_id":"ce4bhf92rcd13ifvqf50","pricing_plan_id":"cebpf4jnsgd1na2vs0mg"},{"bike_id":"4d41c06d-8177-4456-a41b-45d5ec041b86","system_id":"levelo_inurba_marseille","lat":43.28698,"lon":5.37401,"is_reserved":false,"is_disabled":false,"rental_uris":{"android":"levelo://app?vid=4d41c06d-8177-4456-a41b-45d5ec041b86","ios":"levelo://app?vid=4d41c06d-8177-4456-a41b-45d5ec041b86"},"vehicle_type_id":"4","last_reported":1743545372,"current_range_meters":10800,"station_id":"ce4bh3p2rcd13ifvqdq0","pricing_plan_id":"cebpf4jnsgd1na2vs0mg"},{"bike_id":"041c6bb4-25e5-4d13-ad6c-53bcd18cf89f","system_id":"levelo_inurba_marseille","lat":43.25093,"lon":5.39532,"is_reserved":false,"is_disabled":false,"rental_uris":{"android":"levelo://app?vid=041c6bb4-25e5-4d13-ad6c-53bcd18cf89f","ios":"levelo://app?vid=041c6bb4-25e5-4d13-ad6c-53bcd18cf89f"},"vehicle_type_id":"4","last_reported":1743545372,"current_range_meters":10800,"station_id":"ce4bhm12rcd13ifvqgkg","pricing_plan_id":"cebpf4jnsgd1na2vs0mg"},{"bike_id":"3ba6ccff-1eda-46d4-acbd-01dbdd65bb76","system_id":"levelo_inurba_marseille","lat":43.29883,"lon":5.43692,"is_reserved":false,"is_disabled":false,"rental_uris":{"android":"levelo://app?vid=3ba6ccff-1eda-46d4-acbd-01dbdd65bb76","ios":"levelo://app?vid=3ba6ccff-1eda-46d4-acbd-01dbdd65bb76"},"vehicle_type_id":"4","last_reported":1743545372,"current_range_meters":10800,"station_id":"ce4bhpp2rcd13ifvqhfg","pricing_plan_id":"cebpf4jnsgd1na2vs0mg"},{"bike_id":"0d41bc29-3be7-4125-9d5d-5bd61565dc0d","system_id":"levelo_inurba_marseille","lat":43.31321,"lon":5.39706,"is_reserved":false,"is_disabled":false,"rental_uris":{"android":"levelo://app?vid=0d41bc29-3be7-4125-9d5d-5bd61565dc0d","ios":"levelo://app?vid=0d41bc29-3be7-4125-9d5d-5bd61565dc0d"},"vehicle_type_id":"4","last_reported":1743545372,"current_range_meters":10800,"station_id":"ce4bgvp2rcd13ifvqcu0","pricing_plan_id":"cebpf4jnsgd1na2vs0mg"},{"bike_id":"e3fceebb-95a7-4e22-b1f0-cd4761a88cc1","system_id":"levelo_inurba_marseille","lat":43.30605,"lon":5.37244,"is_reserved":false,"is_disabled":false,"rental_uris":{"android":"levelo://app?vid=e3fceebb-95a7-4e22-b1f0-cd4761a88cc1","ios":"levelo://app?vid=e3fceebb-95a7-4e22-b1f0-cd4761a88cc1"},"vehicle_type_id":"4","last_reported":1743545372,"current_range_meters":11200,"station_id":"ce4bgqh2rcd13ifvqc4g","pricing_plan_id":"cebpf4jnsgd1na2vs0mg"},{"bike_id":"7389e233-ff90-448b-8bc1-9c8d13e14edb","system_id":"levelo_inurba_marseille","lat":43.30306,"lon":5.36904,"is_reserved":false,"is_disabled":false,"rental_uris":{"android":"levelo://app?vid=7389e233-ff90-448b-8bc1-9c8d13e14edb","ios":"levelo://app?vid=7389e233-ff90-448b-8bc1-9c8d13e14edb"},"vehicle_type_id":"4","last_reported":1743545372,"current_range_meters":11200,"station_id":"ce4bgqh2rcd13ifvqc5g","pricing_plan_id":"cebpf4jnsgd1na2vs0mg"},{"bike_id":"b0497066-241b-4e4f-b570-35c79fa0b46a","system_id":"levelo_inurba_marseille","lat":43.31058,"lon":5.38368,"is_reserved":false,"is_disabled":false,"rental_uris":{"android":"levelo://app?vid=b0497066-241b-4e4f-b570-35c79fa0b46a","ios":"levelo://app?vid=b0497066-241b-4e4f-b570-35c79fa0b46a"},"vehicle_type_id":"4","last_reported":1743545372,"current_range_meters":11200,"station_id":"ce4bgv92rcd13ifvqcr0","pricing_plan_id":"cebpf4jnsgd1na2vs0mg"},{"bike_id":"e055ff70-1e02-469e-8b20-efb9a9753d96","system_id":"levelo_inurba_marseille","lat":43.28455,"lon":5.35901,"is_reserved":false,"is_disabled":false,"rental_uris":{"android":"levelo://app?vid=e055ff70-1e02-469e-8b20-efb9a9753d96","ios":"levelo://app?vid=e055ff70-1e02-469e-8b20-efb9a9753d96"},"vehicle_type_id":"4","last_reported":1743545372,"current_range_meters":11200,"station_id":"ce4bhah2rcd13ifvqei0","pricing_plan_id":"cebpf4jnsgd1na2vs0mg"},{"bike_id":"3230e19e-78f2-4e1b-9043-cdf173a0a585","system_id":"levelo_inurba_marseille","lat":43.28708,"lon":5.3742,"is_reserved":false,"is_disabled":false,"rental_uris":{"android":"levelo://app?vid=3230e19e-78f2-4e1b-9043-cdf173a0a585","ios":"levelo://app?vid=3230e19e-78f2-4e1b-9043-cdf173a0a585"},"vehicle_type_id":"4","last_reported":1743545372,"current_range_meters":11200,"station_id":"ce4bh3p2rcd13ifvqdq0","pricing_plan_id":"cebpf4jnsgd1na2vs0mg"},{"bike_id":"a87c03f6-1e0b-496a-ba35-8cae889bb9b4","system_id":"levelo_inurba_marseille","lat":43.26813,"lon":5.40238,"is_reserved":false,"is_disabled":false,"rental_uris":{"android":"levelo://app?vid=a87c03f6-1e0b-496a-ba35-8cae889bb9b4","ios":"levelo://app?vid=a87c03f6-1e0b-496a-ba35-8cae889bb9b4"},"vehicle_type_id":"4","last_reported":1743545372,"current_range_meters":11600,"station_id":"ce501612rcd8frsf0b60","pricing_plan_id":"cebpf4jnsgd1na2vs0mg"},{"bike_id":"10ac22e7-0615-4d5b-b9c9-881c2f67435a","system_id":"levelo_inurba_marseille","lat":43.264935,"lon":5.395254,"is_reserved":false,"is_disabled":false,"rental_uris":{"android":"levelo://app?vid=10ac22e7-0615-4d5b-b9c9-881c2f67435a","ios":"levelo://app?vid=10ac22e7-0615-4d5b-b9c9-881c2f67435a"},"vehicle_type_id":"4","last_reported":1743545372,"current_range_meters":11600,"station_id":"ce4bgj92rcd13ifvqbd0","pricing_plan_id":"cebpf4jnsgd1na2vs0mg"},{"bike_id":"0955bcb1-f8dc-47f4-a135-54218809acb7","system_id":"levelo_inurba_marseille","lat":43.2656,"lon":5.37318,"is_reserved":false,"is_disabled":true,"rental_uris":{"android":"levelo://app?vid=0955bcb1-f8dc-47f4-a135-54218809acb7","ios":"levelo://app?vid=0955bcb1-f8dc-47f4-a135-54218809acb7"},"vehicle_type_id":"4","last_reported":1743545372,"current_range_meters":11600,"station_id":"ce4bhg12rcd13ifvqf70","pricing_plan_id":"cebpf4jnsgd1na2vs0mg"},{"bike_id":"6e6a66e5-58ca-4db1-9695-b46ed5c28827","system_id":"levelo_inurba_marseille","lat":43.31802,"lon":5.36821,"is_reserved":false,"is_disabled":false,"rental_uris":{"android":"levelo://app?vid=6e6a66e5-58ca-4db1-9695-b46ed5c28827","ios":"levelo://app?vid=6e6a66e5-58ca-4db1-9695-b46ed5c28827"},"vehicle_type_id":"4","last_reported":1743545372,"current_range_meters":11600,"station_id":"","pricing_plan_id":"cebpf4jnsgd1na2vs0mg"},{"bike_id":"c7a56d6b-aa3b-4d96-9423-49ffd9b57bfa","system_id":"levelo_inurba_marseille","lat":43.32366,"lon":5.38885,"is_reserved":false,"is_disabled":false,"rental_uris":{"android":"levelo://app?vid=c7a56d6b-aa3b-4d96-9423-49ffd9b57bfa","ios":"levelo://app?vid=c7a56d6b-aa3b-4d96-9423-49ffd9b57bfa"},"vehicle_type_id":"4","last_reported":1743545372,"current_range_meters":11600,"station_id":"ce4bhqp2rcd13ifvqhog","pricing_plan_id":"cebpf4jnsgd1na2vs0mg"},{"bike_id":"8e9118c1-2907-46a2-b63b-5db47d7da80b","system_id":"levelo_inurba_marseille","lat":43.28685,"lon":5.37387,"is_reserved":false,"is_disabled":false,"rental_uris":{"android":"levelo://app?vid=8e9118c1-2907-46a2-b63b-5db47d7da80b","ios":"levelo://app?vid=8e9118c1-2907-46a2-b63b-5db47d7da80b"},"vehicle_type_id":"4","last_reported":1743545372,"current_range_meters":11600,"station_id":"ce4bh3p2rcd13ifvqdq0","pricing_plan_id":"cebpf4jnsgd1na2vs0mg"},{"bike_id":"7725e19b-5945-40a0-870f-785dc9ebfbed","system_id":"levelo_inurba_marseille","lat":43.32277,"lon":5.383,"is_reserved":false,"is_disabled":false,"rental_uris":{"android":"levelo://app?vid=7725e19b-5945-40a0-870f-785dc9ebfbed","ios":"levelo://app?vid=7725e19b-5945-40a0-870f-785dc9ebfbed"},"vehicle_type_id":"4","last_reported":1743545372,"current_range_meters":11600,"station_id":"ce4bhr12rcd13ifvqhqg","pricing_plan_id":"cebpf4jnsgd1na2vs0mg"},{"bike_id":"7c04395c-cf35-4015-b8de-eb2d32465638","system_id":"levelo_inurba_marseille","lat":43.30806,"lon":5.38157,"is_reserved":false,"is_disabled":false,"rental_uris":{"android":"levelo://app?vid=7c04395c-cf35-4015-b8de-eb2d32465638","ios":"levelo://app?vid=7c04395c-cf35-4015-b8de-eb2d32465638"},"vehicle_type_id":"4","last_reported":1743545372,"current_range_meters":11600,"station_id":"ce4bgt12rcd13ifvqce0","pricing_plan_id":"cebpf4jnsgd1na2vs0mg"},{"bike_id":"7089a631-8b55-4bae-8225-d55053097321","system_id":"levelo_inurba_marseille","lat":43.26533,"lon":5.39038,"is_reserved":false,"is_disabled":false,"rental_uris":{"android":"levelo://app?vid=7089a631-8b55-4bae-8225-d55053097321","ios":"levelo://app?vid=7089a631-8b55-4bae-8225-d55053097321"},"vehicle_type_id":"4","last_reported":1743545372,"current_range_meters":11600,"station_id":"ce4bhe12rcd13ifvqf30","pricing_plan_id":"cebpf4jnsgd1na2vs0mg"},{"bike_id":"673cd2fb-9a5c-412d-a385-2a1c87de78c8","system_id":"levelo_inurba_marseille","lat":43.28672,"lon":5.37055,"is_reserved":false,"is_disabled":false,"rental_uris":{"android":"levelo://app?vid=673cd2fb-9a5c-412d-a385-2a1c87de78c8","ios":"levelo://app?vid=673cd2fb-9a5c-412d-a385-2a1c87de78c8"},"vehicle_type_id":"4","last_reported":1743545372,"current_range_meters":11600,"station_id":"","pricing_plan_id":"cebpf4jnsgd1na2vs0mg"},{"bike_id":"3d7b7470-b8e0-4279-9d38-5755593017cd","system_id":"levelo_inurba_marseille","lat":43.29703,"lon":5.36613,"is_reserved":false,"is_disabled":false,"rental_uris":{"android":"levelo://app?vid=3d7b7470-b8e0-4279-9d38-5755593017cd","ios":"levelo://app?vid=3d7b7470-b8e0-4279-9d38-5755593017cd"},"vehicle_type_id":"4","last_reported":1743545372,"current_range_meters":12000,"station_id":"ce4bgn12rcd13ifvqbt0","pricing_plan_id":"cebpf4jnsgd1na2vs0mg"},{"bike_id":"f616f89a-6b5f-47f2-be4a-c1252268f5f4","system_id":"levelo_inurba_marseille","lat":43.29411,"lon":5.38612,"is_reserved":false,"is_disabled":true,"rental_uris":{"android":"levelo://app?vid=f616f89a-6b5f-47f2-be4a-c1252268f5f4","ios":"levelo://app?vid=f616f89a-6b5f-47f2-be4a-c1252268f5f4"},"vehicle_type_id":"4","last_reported":1743545372,"current_range_meters":12000,"station_id":"ce4bh2h2rcd13ifvqdh0","pricing_plan_id":"cebpf4jnsgd1na2vs0mg"},{"bike_id":"9e87d8e6-7d87-4853-81e0-a9b8308d82de","system_id":"levelo_inurba_marseille","lat":43.28419,"lon":5.37535,"is_reserved":false,"is_disabled":false,"rental_uris":{"android":"levelo://app?vid=9e87d8e6-7d87-4853-81e0-a9b8308d82de","ios":"levelo://app?vid=9e87d8e6-7d87-4853-81e0-a9b8308d82de"},"vehicle_type_id":"4","last_reported":1743545372,"current_range_meters":12000,"station_id":"ce4bh412rcd13ifvqds0","pricing_plan_id":"cebpf4jnsgd1na2vs0mg"},{"bike_id":"675a0a27-7270-4ab5-a2e8-82ae19020864","system_id":"levelo_inurba_marseille","lat":43.2511,"lon":5.40342,"is_reserved":false,"is_disabled":false,"rental_uris":{"android":"levelo://app?vid=675a0a27-7270-4ab5-a2e8-82ae19020864","ios":"levelo://app?vid=675a0a27-7270-4ab5-a2e8-82ae19020864"},"vehicle_type_id":"4","last_reported":1743545372,"current_range_meters":12000,"station_id":"ce4bhlh2rcd13ifvqgig","pricing_plan_id":"cebpf4jnsgd1na2vs0mg"},{"bike_id":"e1617979-1bcd-470f-b8c5-56ebedcf17a9","system_id":"levelo_inurba_marseille","lat":43.30209,"lon":5.39473,"is_reserved":false,"is_disabled":false,"rental_uris":{"android":"levelo://app?vid=e1617979-1bcd-470f-b8c5-56ebedcf17a9","ios":"levelo://app?vid=e1617979-1bcd-470f-b8c5-56ebedcf17a9"},"vehicle_type_id":"4","last_reported":1743545372,"current_range_meters":12000,"station_id":"ce4bh0p2rcd13ifvqd70","pricing_plan_id":"cebpf4jnsgd1na2vs0mg"},{"bike_id":"79a43b3b-6f2e-4e5a-a5a1-5c1998f67a64","system_id":"levelo_inurba_marseille","lat":43.28074,"lon":5.39649,"is_reserved":false,"is_disabled":false,"rental_uris":{"android":"levelo://app?vid=79a43b3b-6f2e-4e5a-a5a1-5c1998f67a64","ios":"levelo://app?vid=79a43b3b-6f2e-4e5a-a5a1-5c1998f67a64"},"vehicle_type_id":"4","last_reported":1743545372,"current_range_meters":12000,"station_id":"ce4bho12rcd13ifvqh2g","pricing_plan_id":"cebpf4jnsgd1na2vs0mg"},{"bike_id":"a742bd78-af1e-4121-b6a0-11d74214de10","system_id":"levelo_inurba_marseille","lat":43.30305,"lon":5.36921,"is_reserved":false,"is_disabled":false,"rental_uris":{"android":"levelo://app?vid=a742bd78-af1e-4121-b6a0-11d74214de10","ios":"levelo://app?vid=a742bd78-af1e-4121-b6a0-11d74214de10"},"vehicle_type_id":"4","last_reported":1743545372,"current_range_meters":12000,"station_id":"ce4bgqh2rcd13ifvqc5g","pricing_plan_id":"cebpf4jnsgd1na2vs0mg"},{"bike_id":"85fb8933-d5ee-4f13-94f2-e81ab2fde0cb","system_id":"levelo_inurba_marseille","lat":43.28704,"lon":5.39971,"is_reserved":false,"is_disabled":false,"rental_uris":{"android":"levelo://app?vid=85fb8933-d5ee-4f13-94f2-e81ab2fde0cb","ios":"levelo://app?vid=85fb8933-d5ee-4f13-94f2-e81ab2fde0cb"},"vehicle_type_id":"4","last_reported":1743545372,"current_range_meters":12400,"station_id":"ce4bho92rcd13ifvqh3g","pricing_plan_id":"cebpf4jnsgd1na2vs0mg"},{"bike_id":"55e226fc-2cde-47d8-a439-a82e54a265c7","system_id":"levelo_inurba_marseille","lat":43.28714,"lon":5.37932,"is_reserved":false,"is_disabled":false,"rental_uris":{"android":"levelo://app?vid=55e226fc-2cde-47d8-a439-a82e54a265c7","ios":"levelo://app?vid=55e226fc-2cde-47d8-a439-a82e54a265c7"},"vehicle_type_id":"4","last_reported":1743545372,"current_range_meters":12400,"station_id":"ce4bh9p2rcd13ifvqec0","pricing_plan_id":"cebpf4jnsgd1na2vs0mg"},{"bike_id":"1b672112-1a49-4518-8828-abbf42b6ebac","system_id":"levelo_inurba_marseille","lat":43.28834,"lon":5.35899,"is_reserved":false,"is_disabled":false,"rental_uris":{"android":"levelo://app?vid=1b672112-1a49-4518-8828-abbf42b6ebac","ios":"levelo://app?vid=1b672112-1a49-4518-8828-abbf42b6ebac"},"vehicle_type_id":"4","last_reported":1743545372,"current_range_meters":12400,"station_id":"","pricing_plan_id":"cebpf4jnsgd1na2vs0mg"},{"bike_id":"062f662a-fdc3-4404-96a7-532a807a62a2","system_id":"levelo_inurba_marseille","lat":43.28709,"lon":5.37946,"is_reserved":false,"is_disabled":true,"rental_uris":{"android":"levelo://app?vid=062f662a-fdc3-4404-96a7-532a807a62a2","ios":"levelo://app?vid=062f662a-fdc3-4404-96a7-532a807a62a2"},"vehicle_type_id":"4","last_reported":1743545372,"current_range_meters":12400,"station_id":"ce4bh9p2rcd13ifvqec0","pricing_plan_id":"cebpf4jnsgd1na2vs0mg"},{"bike_id":"7d156641-bfb5-4ed5-8854-13167bfd0e2d","system_id":"levelo_inurba_marseille","lat":43.307858,"lon":5.376584,"is_reserved":false,"is_disabled":false,"rental_uris":{"android":"levelo://app?vid=7d156641-bfb5-4ed5-8854-13167bfd0e2d","ios":"levelo://app?vid=7d156641-bfb5-4ed5-8854-13167bfd0e2d"},"vehicle_type_id":"4","last_reported":1743545372,"current_range_meters":12400,"station_id":"ce4bgv92rcd13ifvqcq0","pricing_plan_id":"cebpf4jnsgd1na2vs0mg"},{"bike_id":"b2cabdca-6be8-4efa-8903-8b392db9b9f2","system_id":"levelo_inurba_marseille","lat":43.29785,"lon":5.39357,"is_reserved":false,"is_disabled":false,"rental_uris":{"android":"levelo://app?vid=b2cabdca-6be8-4efa-8903-8b392db9b9f2","ios":"levelo://app?vid=b2cabdca-6be8-4efa-8903-8b392db9b9f2"},"vehicle_type_id":"4","last_reported":1743545372,"current_range_meters":12400,"station_id":"chh1huq6cuj3fo74tm60","pricing_plan_id":"cebpf4jnsgd1na2vs0mg"},{"bike_id":"9498370b-0fc6-40fc-9177-8b95d4297642","system_id":"levelo_inurba_marseille","lat":43.28621,"lon":5.35108,"is_reserved":false,"is_disabled":false,"rental_uris":{"android":"levelo://app?vid=9498370b-0fc6-40fc-9177-8b95d4297642","ios":"levelo://app?vid=9498370b-0fc6-40fc-9177-8b95d4297642"},"vehicle_type_id":"4","last_reported":1743545372,"current_range_meters":12400,"station_id":"ce4bhch2rcd13ifvqeug","pricing_plan_id":"cebpf4jnsgd1na2vs0mg"},{"bike_id":"17011927-5eb5-4a38-a132-35a6858ea1fb","system_id":"levelo_inurba_marseille","lat":43.30296,"lon":5.3921,"is_reserved":false,"is_disabled":true,"rental_uris":{"android":"levelo://app?vid=17011927-5eb5-4a38-a132-35a6858ea1fb","ios":"levelo://app?vid=17011927-5eb5-4a38-a132-35a6858ea1fb"},"vehicle_type_id":"4","last_reported":1743545372,"current_range_meters":12400,"station_id":"ce4bgkh2rcd13ifvqbk0","pricing_plan_id":"cebpf4jnsgd1na2vs0mg"},{"bike_id":"a1be82eb-9886-49d8-9b3e-9d0743153815","system_id":"levelo_inurba_marseille","lat":43.28705,"lon":5.37388,"is_reserved":false,"is_disabled":false,"rental_uris":{"android":"levelo://app?vid=a1be82eb-9886-49d8-9b3e-9d0743153815","ios":"levelo://app?vid=a1be82eb-9886-49d8-9b3e-9d0743153815"},"vehicle_type_id":"4","last_reported":1743545372,"current_range_meters":12800,"station_id":"ce4bh3p2rcd13ifvqdq0","pricing_plan_id":"cebpf4jnsgd1na2vs0mg"},{"bike_id":"b80ee275-2592-4659-b2e9-175feb839700","system_id":"levelo_inurba_marseille","lat":43.23195,"lon":5.35543,"is_reserved":false,"is_disabled":false,"rental_uris":{"android":"levelo://app?vid=b80ee275-2592-4659-b2e9-175feb839700","ios":"levelo://app?vid=b80ee275-2592-4659-b2e9-175feb839700"},"vehicle_type_id":"4","last_reported":1743545372,"current_range_meters":12800,"station_id":"ce4bhu92rcd13ifvqi70","pricing_plan_id":"cebpf4jnsgd1na2vs0mg"},{"bike_id":"7cace08d-6193-4805-82b0-cd09b5c05eae","system_id":"levelo_inurba_marseille","lat":43.31538,"lon":5.38928,"is_reserved":false,"is_disabled":false,"rental_uris":{"android":"levelo://app?vid=7cace08d-6193-4805-82b0-cd09b5c05eae","ios":"levelo://app?vid=7cace08d-6193-4805-82b0-cd09b5c05eae"},"vehicle_type_id":"4","last_reported":1743545372,"current_range_meters":12800,"station_id":"","pricing_plan_id":"cebpf4jnsgd1na2vs0mg"},{"bike_id":"dd3db03f-0f43-4986-9ec8-2a76818fb28c","system_id":"levelo_inurba_marseille","lat":43.23241,"lon":5.3554,"is_reserved":false,"is_disabled":false,"rental_uris":{"android":"levelo://app?vid=dd3db03f-0f43-4986-9ec8-2a76818fb28c","ios":"levelo://app?vid=dd3db03f-0f43-4986-9ec8-2a76818fb28c"},"vehicle_type_id":"4","last_reported":1743545372,"current_range_meters":12800,"station_id":"","pricing_plan_id":"cebpf4jnsgd1na2vs0mg"},{"bike_id":"1b1f7340-6171-418f-a826-7c8c5b344429","system_id":"levelo_inurba_marseille","lat":43.26802,"lon":5.40259,"is_reserved":false,"is_disabled":false,"rental_uris":{"android":"levelo://app?vid=1b1f7340-6171-418f-a826-7c8c5b344429","ios":"levelo://app?vid=1b1f7340-6171-418f-a826-7c8c5b344429"},"vehicle_type_id":"4","last_reported":1743545372,"current_range_meters":12800,"station_id":"ce501612rcd8frsf0b60","pricing_plan_id":"cebpf4jnsgd1na2vs0mg"},{"bike_id":"49428efe-bbd8-4963-9aaf-ed822fd5c61b","system_id":"levelo_inurba_marseille","lat":43.29182,"lon":5.44365,"is_reserved":false,"is_disabled":false,"rental_uris":{"android":"levelo://app?vid=49428efe-bbd8-4963-9aaf-ed822fd5c61b","ios":"levelo://app?vid=49428efe-bbd8-4963-9aaf-ed822fd5c61b"},"vehicle_type_id":"4","last_reported":1743545372,"current_range_meters":12800,"station_id":"","pricing_plan_id":"cebpf4jnsgd1na2vs0mg"},{"bike_id":"0ed80ee8-56b7-4580-8a94-56be39e58fa3","system_id":"levelo_inurba_marseille","lat":43.25562,"lon":5.38233,"is_reserved":false,"is_disabled":false,"rental_uris":{"android":"levelo://app?vid=0ed80ee8-56b7-4580-8a94-56be39e58fa3","ios":"levelo://app?vid=0ed80ee8-56b7-4580-8a94-56be39e58fa3"},"vehicle_type_id":"4","last_reported":1743545372,"current_range_meters":12800,"station_id":"ce4bhih2rcd13ifvqfs0","pricing_plan_id":"cebpf4jnsgd1na2vs0mg"},{"bike_id":"92cbddfd-edd3-44c1-afe8-ef504697d896","system_id":"levelo_inurba_marseille","lat":43.31171,"lon":5.38725,"is_reserved":false,"is_disabled":false,"rental_uris":{"android":"levelo://app?vid=92cbddfd-edd3-44c1-afe8-ef504697d896","ios":"levelo://app?vid=92cbddfd-edd3-44c1-afe8-ef504697d896"},"vehicle_type_id":"4","last_reported":1743545372,"current_range_meters":12800,"station_id":"ce4bgv12rcd13ifvqcp0","pricing_plan_id":"cebpf4jnsgd1na2vs0mg"},{"bike_id":"f3f4145c-28be-46c7-b604-e8f83a47e6c6","system_id":"levelo_inurba_marseille","lat":43.28457,"lon":5.35891,"is_reserved":false,"is_disabled":false,"rental_uris":{"android":"levelo://app?vid=f3f4145c-28be-46c7-b604-e8f83a47e6c6","ios":"levelo://app?vid=f3f4145c-28be-46c7-b604-e8f83a47e6c6"},"vehicle_type_id":"4","last_reported":1743545372,"current_range_meters":13600,"station_id":"ce4bhah2rcd13ifvqei0","pricing_plan_id":"cebpf4jnsgd1na2vs0mg"},{"bike_id":"8c8c904f-4688-4edc-8d5e-ac5ec4c04aa2","system_id":"levelo_inurba_marseille","lat":43.26069,"lon":5.39394,"is_reserved":false,"is_disabled":true,"rental_uris":{"android":"levelo://app?vid=8c8c904f-4688-4edc-8d5e-ac5ec4c04aa2","ios":"levelo://app?vid=8c8c904f-4688-4edc-8d5e-ac5ec4c04aa2"},"vehicle_type_id":"4","last_reported":1743545372,"current_range_meters":13600,"station_id":"ce4bhh92rcd13ifvqfj0","pricing_plan_id":"cebpf4jnsgd1na2vs0mg"},{"bike_id":"7e016232-e275-46b2-9007-3a933cc654b1","system_id":"levelo_inurba_marseille","lat":43.23186,"lon":5.39987,"is_reserved":false,"is_disabled":false,"rental_uris":{"android":"levelo://app?vid=7e016232-e275-46b2-9007-3a933cc654b1","ios":"levelo://app?vid=7e016232-e275-46b2-9007-3a933cc654b1"},"vehicle_type_id":"4","last_reported":1743545372,"current_range_meters":13600,"station_id":"ce4bhn12rcd13ifvqgqg","pricing_plan_id":"cebpf4jnsgd1na2vs0mg"},{"bike_id":"9c8eecec-e70a-4826-9811-8377457bfbb4","system_id":"levelo_inurba_marseille","lat":43.3119,"lon":5.38748,"is_reserved":false,"is_disabled":false,"rental_uris":{"android":"levelo://app?vid=9c8eecec-e70a-4826-9811-8377457bfbb4","ios":"levelo://app?vid=9c8eecec-e70a-4826-9811-8377457bfbb4"},"vehicle_type_id":"4","last_reported":1743545372,"current_range_meters":13600,"station_id":"ce4bgv12rcd13ifvqcp0","pricing_plan_id":"cebpf4jnsgd1na2vs0mg"},{"bike_id":"f55695a6-b65f-4a30-99ab-94b2bfa63268","system_id":"levelo_inurba_marseille","lat":43.23198,"lon":5.35536,"is_reserved":false,"is_disabled":false,"rental_uris":{"android":"levelo://app?vid=f55695a6-b65f-4a30-99ab-94b2bfa63268","ios":"levelo://app?vid=f55695a6-b65f-4a30-99ab-94b2bfa63268"},"vehicle_type_id":"4","last_reported":1743545372,"current_range_meters":13600,"station_id":"ce4bhu92rcd13ifvqi70","pricing_plan_id":"cebpf4jnsgd1na2vs0mg"},{"bike_id":"abd16f10-e2f6-4aa8-933b-8debd6835752","system_id":"levelo_inurba_marseille","lat":43.26516,"lon":5.39063,"is_reserved":false,"is_disabled":false,"rental_uris":{"android":"levelo://app?vid=abd16f10-e2f6-4aa8-933b-8debd6835752","ios":"levelo://app?vid=abd16f10-e2f6-4aa8-933b-8debd6835752"},"vehicle_type_id":"4","last_reported":1743545372,"current_range_meters":13600,"station_id":"ce4bhe12rcd13ifvqf30","pricing_plan_id":"cebpf4jnsgd1na2vs0mg"},{"bike_id":"7b869cea-1d61-42d2-b04b-29df5bd7497f","system_id":"levelo_inurba_marseille","lat":43.32108,"lon":5.36778,"is_reserved":false,"is_disabled":false,"rental_uris":{"android":"levelo://app?vid=7b869cea-1d61-42d2-b04b-29df5bd7497f","ios":"levelo://app?vid=7b869cea-1d61-42d2-b04b-29df5bd7497f"},"vehicle_type_id":"4","last_reported":1743545372,"current_range_meters":14000,"station_id":"ce4bhrh2rcd13ifvqhug","pricing_plan_id":"cebpf4jnsgd1na2vs0mg"},{"bike_id":"f589c491-61bb-4ca1-aa3e-7e3bb3446950","system_id":"levelo_inurba_marseille","lat":43.23189,"lon":5.3556,"is_reserved":false,"is_disabled":false,"rental_uris":{"android":"levelo://app?vid=f589c491-61bb-4ca1-aa3e-7e3bb3446950","ios":"levelo://app?vid=f589c491-61bb-4ca1-aa3e-7e3bb3446950"},"vehicle_type_id":"4","last_reported":1743545372,"current_range_meters":14000,"station_id":"ce4bhu92rcd13ifvqi70","pricing_plan_id":"cebpf4jnsgd1na2vs0mg"},{"bike_id":"7be06644-e888-41f2-9c08-173a9a3965bc","system_id":"levelo_inurba_marseille","lat":43.23194,"lon":5.39984,"is_reserved":false,"is_disabled":false,"rental_uris":{"android":"levelo://app?vid=7be06644-e888-41f2-9c08-173a9a3965bc","ios":"levelo://app?vid=7be06644-e888-41f2-9c08-173a9a3965bc"},"vehicle_type_id":"4","last_reported":1743545372,"current_range_meters":14000,"station_id":"ce4bhn12rcd13ifvqgqg","pricing_plan_id":"cebpf4jnsgd1na2vs0mg"},{"bike_id":"d239b0b5-a2d0-4e84-945d-fd7291dce43c","system_id":"levelo_inurba_marseille","lat":43.28684,"lon":5.37407,"is_reserved":false,"is_disabled":false,"rental_uris":{"android":"levelo://app?vid=d239b0b5-a2d0-4e84-945d-fd7291dce43c","ios":"levelo://app?vid=d239b0b5-a2d0-4e84-945d-fd7291dce43c"},"vehicle_type_id":"4","last_reported":1743545372,"current_range_meters":14000,"station_id":"ce4bh3p2rcd13ifvqdq0","pricing_plan_id":"cebpf4jnsgd1na2vs0mg"},{"bike_id":"eecda0f9-9577-419e-ac17-763aa0083960","system_id":"levelo_inurba_marseille","lat":43.30931,"lon":5.40153,"is_reserved":false,"is_disabled":false,"rental_uris":{"android":"levelo://app?vid=eecda0f9-9577-419e-ac17-763aa0083960","ios":"levelo://app?vid=eecda0f9-9577-419e-ac17-763aa0083960"},"vehicle_type_id":"4","last_reported":1743545372,"current_range_meters":14000,"station_id":"ce4bgvp2rcd13ifvqct0","pricing_plan_id":"cebpf4jnsgd1na2vs0mg"},{"bike_id":"75dae32f-059a-4b5b-a5e8-963c6eda2f66","system_id":"levelo_inurba_marseille","lat":43.27511,"lon":5.41037,"is_reserved":false,"is_disabled":false,"rental_uris":{"android":"levelo://app?vid=75dae32f-059a-4b5b-a5e8-963c6eda2f66","ios":"levelo://app?vid=75dae32f-059a-4b5b-a5e8-963c6eda2f66"},"vehicle_type_id":"4","last_reported":1743545372,"current_range_meters":14000,"station_id":"","pricing_plan_id":"cebpf4jnsgd1na2vs0mg"},{"bike_id":"df986530-967c-4571-aae5-891dc8d7d4cc","system_id":"levelo_inurba_marseille","lat":43.31988,"lon":5.38135,"is_reserved":false,"is_disabled":false,"rental_uris":{"android":"levelo://app?vid=df986530-967c-4571-aae5-891dc8d7d4cc","ios":"levelo://app?vid=df986530-967c-4571-aae5-891dc8d7d4cc"},"vehicle_type_id":"4","last_reported":1743545372,"current_range_meters":14400,"station_id":"ce4bhr12rcd13ifvqhpg","pricing_plan_id":"cebpf4jnsgd1na2vs0mg"},{"bike_id":"64e153bf-2796-40c3-9214-6801d0fa35ba","system_id":"levelo_inurba_marseille","lat":43.28454,"lon":5.35889,"is_reserved":false,"is_disabled":false,"rental_uris":{"android":"levelo://app?vid=64e153bf-2796-40c3-9214-6801d0fa35ba","ios":"levelo://app?vid=64e153bf-2796-40c3-9214-6801d0fa35ba"},"vehicle_type_id":"4","last_reported":1743545372,"current_range_meters":14400,"station_id":"ce4bhah2rcd13ifvqei0","pricing_plan_id":"cebpf4jnsgd1na2vs0mg"},{"bike_id":"facaca46-7e62-4a2e-ab17-cc09f773590c","system_id":"levelo_inurba_marseille","lat":43.27626,"lon":5.36114,"is_reserved":false,"is_disabled":false,"rental_uris":{"android":"levelo://app?vid=facaca46-7e62-4a2e-ab17-cc09f773590c","ios":"levelo://app?vid=facaca46-7e62-4a2e-ab17-cc09f773590c"},"vehicle_type_id":"4","last_reported":1743545372,"current_range_meters":14400,"station_id":"ce4bgj92rcd13ifvqbe0","pricing_plan_id":"cebpf4jnsgd1na2vs0mg"},{"bike_id":"94a9ac48-4da8-432a-9ec6-f34133bf8e78","system_id":"levelo_inurba_marseille","lat":43.2781,"lon":5.4071,"is_reserved":false,"is_disabled":false,"rental_uris":{"android":"levelo://app?vid=94a9ac48-4da8-432a-9ec6-f34133bf8e78","ios":"levelo://app?vid=94a9ac48-4da8-432a-9ec6-f34133bf8e78"},"vehicle_type_id":"4","last_reported":1743545372,"current_range_meters":14400,"station_id":"ce4bhnh2rcd13ifvqgtg","pricing_plan_id":"cebpf4jnsgd1na2vs0mg"},{"bike_id":"d1d152b9-8f83-4dfd-819d-90885ae33fbf","system_id":"levelo_inurba_marseille","lat":43.29907,"lon":5.43671,"is_reserved":false,"is_disabled":false,"rental_uris":{"android":"levelo://app?vid=d1d152b9-8f83-4dfd-819d-90885ae33fbf","ios":"levelo://app?vid=d1d152b9-8f83-4dfd-819d-90885ae33fbf"},"vehicle_type_id":"4","last_reported":1743545372,"current_range_meters":14400,"station_id":"ce4bhpp2rcd13ifvqhfg","pricing_plan_id":"cebpf4jnsgd1na2vs0mg"},{"bike_id":"e27553c0-1907-4428-8a3d-8f7850fb2303","system_id":"levelo_inurba_marseille","lat":43.28947,"lon":5.39631,"is_reserved":false,"is_disabled":false,"rental_uris":{"android":"levelo://app?vid=e27553c0-1907-4428-8a3d-8f7850fb2303","ios":"levelo://app?vid=e27553c0-1907-4428-8a3d-8f7850fb2303"},"vehicle_type_id":"4","last_reported":1743545372,"current_range_meters":14400,"station_id":"ce4bh3h2rcd13ifvqdn0","pricing_plan_id":"cebpf4jnsgd1na2vs0mg"},{"bike_id":"b465ce82-d3d5-48ff-a6a0-874e8160d2a2","system_id":"levelo_inurba_marseille","lat":43.28923,"lon":5.36644,"is_reserved":false,"is_disabled":false,"rental_uris":{"android":"levelo://app?vid=b465ce82-d3d5-48ff-a6a0-874e8160d2a2","ios":"levelo://app?vid=b465ce82-d3d5-48ff-a6a0-874e8160d2a2"},"vehicle_type_id":"4","last_reported":1743545372,"current_range_meters":14400,"station_id":"ce4bhap2rcd13ifvqek0","pricing_plan_id":"cebpf4jnsgd1na2vs0mg"},{"bike_id":"a680fcef-3560-458d-9c46-af5039ad5317","system_id":"levelo_inurba_marseille","lat":43.265717,"lon":5.372972,"is_reserved":false,"is_disabled":false,"rental_uris":{"android":"levelo://app?vid=a680fcef-3560-458d-9c46-af5039ad5317","ios":"levelo://app?vid=a680fcef-3560-458d-9c46-af5039ad5317"},"vehicle_type_id":"4","last_reported":1743545372,"current_range_meters":14400,"station_id":"ce4bhg12rcd13ifvqf70","pricing_plan_id":"cebpf4jnsgd1na2vs0mg"},{"bike_id":"3ba63f53-a15c-4f4b-9c12-77969d9bd4b2","system_id":"levelo_inurba_marseille","lat":43.31272,"lon":5.40183,"is_reserved":false,"is_disabled":false,"rental_uris":{"android":"levelo://app?vid=3ba63f53-a15c-4f4b-9c12-77969d9bd4b2","ios":"levelo://app?vid=3ba63f53-a15c-4f4b-9c12-77969d9bd4b2"},"vehicle_type_id":"4","last_reported":1743545372,"current_range_meters":14400,"station_id":"ce4bh092rcd13ifvqd30","pricing_plan_id":"cebpf4jnsgd1na2vs0mg"},{"bike_id":"bf377d5e-6736-429c-8f7e-c6c7517393f7","system_id":"levelo_inurba_marseille","lat":43.310743,"lon":5.422731,"is_reserved":false,"is_disabled":false,"rental_uris":{"android":"levelo://app?vid=bf377d5e-6736-429c-8f7e-c6c7517393f7","ios":"levelo://app?vid=bf377d5e-6736-429c-8f7e-c6c7517393f7"},"vehicle_type_id":"4","last_reported":1743545372,"current_range_meters":14400,"station_id":"ce4bhp92rcd13ifvqhag","pricing_plan_id":"cebpf4jnsgd1na2vs0mg"},{"bike_id":"d7045921-f1e9-4f00-924b-59a57bde6ed8","system_id":"levelo_inurba_marseille","lat":43.3134,"lon":5.39701,"is_reserved":false,"is_disabled":false,"rental_uris":{"android":"levelo://app?vid=d7045921-f1e9-4f00-924b-59a57bde6ed8","ios":"levelo://app?vid=d7045921-f1e9-4f00-924b-59a57bde6ed8"},"vehicle_type_id":"4","last_reported":1743545372,"current_range_meters":14400,"station_id":"ce4bgvp2rcd13ifvqcu0","pricing_plan_id":"cebpf4jnsgd1na2vs0mg"},{"bike_id":"96c612aa-77c6-411a-bd6e-bd76188eeb50","system_id":"levelo_inurba_marseille","lat":43.27833,"lon":5.39204,"is_reserved":false,"is_disabled":false,"rental_uris":{"android":"levelo://app?vid=96c612aa-77c6-411a-bd6e-bd76188eeb50","ios":"levelo://app?vid=96c612aa-77c6-411a-bd6e-bd76188eeb50"},"vehicle_type_id":"4","last_reported":1743545372,"current_range_meters":14800,"station_id":"ce4bhjp2rcd13ifvqga0","pricing_plan_id":"cebpf4jnsgd1na2vs0mg"},{"bike_id":"d157a8ac-f1ea-480a-a1ee-9ac00962bb01","system_id":"levelo_inurba_marseille","lat":43.29551,"lon":5.42311,"is_reserved":false,"is_disabled":false,"rental_uris":{"android":"levelo://app?vid=d157a8ac-f1ea-480a-a1ee-9ac00962bb01","ios":"levelo://app?vid=d157a8ac-f1ea-480a-a1ee-9ac00962bb01"},"vehicle_type_id":"4","last_reported":1743545372,"current_range_meters":14800,"station_id":"ce4bhph2rcd13ifvqhdg","pricing_plan_id":"cebpf4jnsgd1na2vs0mg"},{"bike_id":"414b1618-8907-418c-9232-e3993fbc4299","system_id":"levelo_inurba_marseille","lat":43.31995,"lon":5.38173,"is_reserved":false,"is_disabled":false,"rental_uris":{"android":"levelo://app?vid=414b1618-8907-418c-9232-e3993fbc4299","ios":"levelo://app?vid=414b1618-8907-418c-9232-e3993fbc4299"},"vehicle_type_id":"4","last_reported":1743545372,"current_range_meters":14800,"station_id":"ce4bhr12rcd13ifvqhpg","pricing_plan_id":"cebpf4jnsgd1na2vs0mg"},{"bike_id":"8cb59195-b173-4dee-b543-e398f163ad6e","system_id":"levelo_inurba_marseille","lat":43.27921,"lon":5.41039,"is_reserved":false,"is_disabled":false,"rental_uris":{"android":"levelo://app?vid=8cb59195-b173-4dee-b543-e398f163ad6e","ios":"levelo://app?vid=8cb59195-b173-4dee-b543-e398f163ad6e"},"vehicle_type_id":"4","last_reported":1743545372,"current_range_meters":14800,"station_id":"ce4bhnp2rcd13ifvqh0g","pricing_plan_id":"cebpf4jnsgd1na2vs0mg"},{"bike_id":"9e542567-b0c5-4b3b-8ac2-0d73aafa9313","system_id":"levelo_inurba_marseille","lat":43.29789,"lon":5.39335,"is_reserved":false,"is_disabled":false,"rental_uris":{"android":"levelo://app?vid=9e542567-b0c5-4b3b-8ac2-0d73aafa9313","ios":"levelo://app?vid=9e542567-b0c5-4b3b-8ac2-0d73aafa9313"},"vehicle_type_id":"4","last_reported":1743545372,"current_range_meters":14800,"station_id":"chh1huq6cuj3fo74tm60","pricing_plan_id":"cebpf4jnsgd1na2vs0mg"},{"bike_id":"b6144d09-6dd1-4ca4-97f5-4ec37918d3dd","system_id":"levelo_inurba_marseille","lat":43.26685,"lon":5.38279,"is_reserved":false,"is_disabled":true,"rental_uris":{"android":"levelo://app?vid=b6144d09-6dd1-4ca4-97f5-4ec37918d3dd","ios":"levelo://app?vid=b6144d09-6dd1-4ca4-97f5-4ec37918d3dd"},"vehicle_type_id":"4","last_reported":1743545372,"current_range_meters":14800,"station_id":"ce4bhg92rcd13ifvqf90","pricing_plan_id":"cebpf4jnsgd1na2vs0mg"},{"bike_id":"e371411f-48e4-4de0-9373-4c9b6bf9290c","system_id":"levelo_inurba_marseille","lat":43.27923,"lon":5.39579,"is_reserved":false,"is_disabled":false,"rental_uris":{"android":"levelo://app?vid=e371411f-48e4-4de0-9373-4c9b6bf9290c","ios":"levelo://app?vid=e371411f-48e4-4de0-9373-4c9b6bf9290c"},"vehicle_type_id":"4","last_reported":1743545372,"current_range_meters":15200,"station_id":"ce4bhf92rcd13ifvqf40","pricing_plan_id":"cebpf4jnsgd1na2vs0mg"},{"bike_id":"9083a6ee-5c0b-4067-8b44-17f863c33e0c","system_id":"levelo_inurba_marseille","lat":43.30327,"lon":5.40435,"is_reserved":false,"is_disabled":false,"rental_uris":{"android":"levelo://app?vid=9083a6ee-5c0b-4067-8b44-17f863c33e0c","ios":"levelo://app?vid=9083a6ee-5c0b-4067-8b44-17f863c33e0c"},"vehicle_type_id":"4","last_reported":1743545372,"current_range_meters":15200,"station_id":"ce4bh012rcd13ifvqd10","pricing_plan_id":"cebpf4jnsgd1na2vs0mg"},{"bike_id":"1a346cc6-dc71-4bf1-9b80-dea4b47b07ad","system_id":"levelo_inurba_marseille","lat":43.27671,"lon":5.389,"is_reserved":false,"is_disabled":true,"rental_uris":{"android":"levelo://app?vid=1a346cc6-dc71-4bf1-9b80-dea4b47b07ad","ios":"levelo://app?vid=1a346cc6-dc71-4bf1-9b80-dea4b47b07ad"},"vehicle_type_id":"4","last_reported":1743545372,"current_range_meters":15200,"station_id":"ce4bhi12rcd13ifvqfo0","pricing_plan_id":"cebpf4jnsgd1na2vs0mg"},{"bike_id":"cae56ddb-a593-4aba-a1c1-64c6f598d777","system_id":"levelo_inurba_marseille","lat":43.2512,"lon":5.40318,"is_reserved":false,"is_disabled":false,"rental_uris":{"android":"levelo://app?vid=cae56ddb-a593-4aba-a1c1-64c6f598d777","ios":"levelo://app?vid=cae56ddb-a593-4aba-a1c1-64c6f598d777"},"vehicle_type_id":"4","last_reported":1743545372,"current_range_meters":15200,"station_id":"ce4bhlh2rcd13ifvqgig","pricing_plan_id":"cebpf4jnsgd1na2vs0mg"},{"bike_id":"c1e09bd1-135e-46c4-a253-43b9efe61c0f","system_id":"levelo_inurba_marseille","lat":43.30287,"lon":5.36914,"is_reserved":false,"is_disabled":true,"rental_uris":{"android":"levelo://app?vid=c1e09bd1-135e-46c4-a253-43b9efe61c0f","ios":"levelo://app?vid=c1e09bd1-135e-46c4-a253-43b9efe61c0f"},"vehicle_type_id":"4","last_reported":1743545372,"current_range_meters":15200,"station_id":"ce4bgqh2rcd13ifvqc5g","pricing_plan_id":"cebpf4jnsgd1na2vs0mg"},{"bike_id":"88dbd027-7b05-4c40-9cde-ac00a9fed7b0","system_id":"levelo_inurba_marseille","lat":43.30808,"lon":5.43507,"is_reserved":false,"is_disabled":false,"rental_uris":{"android":"levelo://app?vid=88dbd027-7b05-4c40-9cde-ac00a9fed7b0","ios":"levelo://app?vid=88dbd027-7b05-4c40-9cde-ac00a9fed7b0"},"vehicle_type_id":"4","last_reported":1743545372,"current_range_meters":15200,"station_id":"ce4bhph2rcd13ifvqheg","pricing_plan_id":"cebpf4jnsgd1na2vs0mg"},{"bike_id":"dd351c20-2273-414e-8b8c-94efdde7d1a0","system_id":"levelo_inurba_marseille","lat":43.29044,"lon":5.35928,"is_reserved":false,"is_disabled":false,"rental_uris":{"android":"levelo://app?vid=dd351c20-2273-414e-8b8c-94efdde7d1a0","ios":"levelo://app?vid=dd351c20-2273-414e-8b8c-94efdde7d1a0"},"vehicle_type_id":"4","last_reported":1743545372,"current_range_meters":15200,"station_id":"ce4bha92rcd13ifvqeg0","pricing_plan_id":"cebpf4jnsgd1na2vs0mg"},{"bike_id":"7408871e-c525-4dcf-9189-15a12bf2355d","system_id":"levelo_inurba_marseille","lat":43.265514,"lon":5.372981,"is_reserved":false,"is_disabled":false,"rental_uris":{"android":"levelo://app?vid=7408871e-c525-4dcf-9189-15a12bf2355d","ios":"levelo://app?vid=7408871e-c525-4dcf-9189-15a12bf2355d"},"vehicle_type_id":"4","last_reported":1743545372,"current_range_meters":15200,"station_id":"ce4bhg12rcd13ifvqf70","pricing_plan_id":"cebpf4jnsgd1na2vs0mg"},{"bike_id":"4e03cd8f-595f-4da6-b751-38ed2c7d3d6b","system_id":"levelo_inurba_marseille","lat":43.314431,"lon":5.373835,"is_reserved":false,"is_disabled":false,"rental_uris":{"android":"levelo://app?vid=4e03cd8f-595f-4da6-b751-38ed2c7d3d6b","ios":"levelo://app?vid=4e03cd8f-595f-4da6-b751-38ed2c7d3d6b"},"vehicle_type_id":"4","last_reported":1743545372,"current_range_meters":15200,"station_id":"","pricing_plan_id":"cebpf4jnsgd1na2vs0mg"},{"bike_id":"e5584f6d-d18b-45e9-87ed-f7ff94ac558c","system_id":"levelo_inurba_marseille","lat":43.28616,"lon":5.35109,"is_reserved":false,"is_disabled":false,"rental_uris":{"android":"levelo://app?vid=e5584f6d-d18b-45e9-87ed-f7ff94ac558c","ios":"levelo://app?vid=e5584f6d-d18b-45e9-87ed-f7ff94ac558c"},"vehicle_type_id":"4","last_reported":1743545372,"current_range_meters":16000,"station_id":"ce4bhch2rcd13ifvqeug","pricing_plan_id":"cebpf4jnsgd1na2vs0mg"},{"bike_id":"6b354774-faed-4518-9b4f-cb27508d52d9","system_id":"levelo_inurba_marseille","lat":43.28685,"lon":5.37429,"is_reserved":false,"is_disabled":false,"rental_uris":{"android":"levelo://app?vid=6b354774-faed-4518-9b4f-cb27508d52d9","ios":"levelo://app?vid=6b354774-faed-4518-9b4f-cb27508d52d9"},"vehicle_type_id":"4","last_reported":1743545372,"current_range_meters":16000,"station_id":"ce4bh3p2rcd13ifvqdq0","pricing_plan_id":"cebpf4jnsgd1na2vs0mg"},{"bike_id":"c5d59ee9-7502-4fae-aa22-15acd54456b1","system_id":"levelo_inurba_marseille","lat":43.31169,"lon":5.3872,"is_reserved":false,"is_disabled":false,"rental_uris":{"android":"levelo://app?vid=c5d59ee9-7502-4fae-aa22-15acd54456b1","ios":"levelo://app?vid=c5d59ee9-7502-4fae-aa22-15acd54456b1"},"vehicle_type_id":"4","last_reported":1743545372,"current_range_meters":16000,"station_id":"ce4bgv12rcd13ifvqcp0","pricing_plan_id":"cebpf4jnsgd1na2vs0mg"},{"bike_id":"f970c5cf-11e1-474d-95ff-b31a12081a41","system_id":"levelo_inurba_marseille","lat":43.30798,"lon":5.39637,"is_reserved":false,"is_disabled":false,"rental_uris":{"android":"levelo://app?vid=f970c5cf-11e1-474d-95ff-b31a12081a41","ios":"levelo://app?vid=f970c5cf-11e1-474d-95ff-b31a12081a41"},"vehicle_type_id":"4","last_reported":1743545372,"current_range_meters":16000,"station_id":"ce4bh012rcd13ifvqcv0","pricing_plan_id":"cebpf4jnsgd1na2vs0mg"},{"bike_id":"ee8a8693-214b-4d74-9b65-a3d3107de8c7","system_id":"levelo_inurba_marseille","lat":43.28945,"lon":5.36393,"is_reserved":false,"is_disabled":false,"rental_uris":{"android":"levelo://app?vid=ee8a8693-214b-4d74-9b65-a3d3107de8c7","ios":"levelo://app?vid=ee8a8693-214b-4d74-9b65-a3d3107de8c7"},"vehicle_type_id":"4","last_reported":1743545372,"current_range_meters":16000,"station_id":"ce4bhc92rcd13ifvqetg","pricing_plan_id":"cebpf4jnsgd1na2vs0mg"},{"bike_id":"ddf4f7bc-b429-4ca6-98cc-3ac180d0ed5f","system_id":"levelo_inurba_marseille","lat":43.23188,"lon":5.35563,"is_reserved":false,"is_disabled":false,"rental_uris":{"android":"levelo://app?vid=ddf4f7bc-b429-4ca6-98cc-3ac180d0ed5f","ios":"levelo://app?vid=ddf4f7bc-b429-4ca6-98cc-3ac180d0ed5f"},"vehicle_type_id":"4","last_reported":1743545372,"current_range_meters":16000,"station_id":"ce4bhu92rcd13ifvqi70","pricing_plan_id":"cebpf4jnsgd1na2vs0mg"},{"bike_id":"743d82c4-ab12-4c03-8dc6-563657d08d7d","system_id":"levelo_inurba_marseille","lat":43.304214,"lon":5.388775,"is_reserved":false,"is_disabled":false,"rental_uris":{"android":"levelo://app?vid=743d82c4-ab12-4c03-8dc6-563657d08d7d","ios":"levelo://app?vid=743d82c4-ab12-4c03-8dc6-563657d08d7d"},"vehicle_type_id":"4","last_reported":1743545372,"current_range_meters":16000,"station_id":"ce4bgk12rcd13ifvqbi0","pricing_plan_id":"cebpf4jnsgd1na2vs0mg"},{"bike_id":"5e2027b8-221f-4b34-8432-61e79e87550f","system_id":"levelo_inurba_marseille","lat":43.29048,"lon":5.35896,"is_reserved":false,"is_disabled":false,"rental_uris":{"android":"levelo://app?vid=5e2027b8-221f-4b34-8432-61e79e87550f","ios":"levelo://app?vid=5e2027b8-221f-4b34-8432-61e79e87550f"},"vehicle_type_id":"4","last_reported":1743545372,"current_range_meters":16000,"station_id":"ce4bha92rcd13ifvqeg0","pricing_plan_id":"cebpf4jnsgd1na2vs0mg"},{"bike_id":"70e5b39f-29e3-4ea9-aa83-5a60a8eec6f8","system_id":"levelo_inurba_marseille","lat":43.25738,"lon":5.41089,"is_reserved":false,"is_disabled":false,"rental_uris":{"android":"levelo://app?vid=70e5b39f-29e3-4ea9-aa83-5a60a8eec6f8","ios":"levelo://app?vid=70e5b39f-29e3-4ea9-aa83-5a60a8eec6f8"},"vehicle_type_id":"4","last_reported":1743545372,"current_range_meters":16000,"station_id":"ce4bhkp2rcd13ifvqgd0","pricing_plan_id":"cebpf4jnsgd1na2vs0mg"},{"bike_id":"4645db37-b43f-4218-9c5b-d0586a28f4f3","system_id":"levelo_inurba_marseille","lat":43.2885,"lon":5.35885,"is_reserved":false,"is_disabled":false,"rental_uris":{"android":"levelo://app?vid=4645db37-b43f-4218-9c5b-d0586a28f4f3","ios":"levelo://app?vid=4645db37-b43f-4218-9c5b-d0586a28f4f3"},"vehicle_type_id":"4","last_reported":1743545372,"current_range_meters":16000,"station_id":"ce4bhb12rcd13ifvqem0","pricing_plan_id":"cebpf4jnsgd1na2vs0mg"},{"bike_id":"7a5cc168-8f6c-4d8f-86cb-7de15764bd5c","system_id":"levelo_inurba_marseille","lat":43.26559,"lon":5.39042,"is_reserved":false,"is_disabled":false,"rental_uris":{"android":"levelo://app?vid=7a5cc168-8f6c-4d8f-86cb-7de15764bd5c","ios":"levelo://app?vid=7a5cc168-8f6c-4d8f-86cb-7de15764bd5c"},"vehicle_type_id":"4","last_reported":1743545372,"current_range_meters":16000,"station_id":"ce4bhe12rcd13ifvqf30","pricing_plan_id":"cebpf4jnsgd1na2vs0mg"},{"bike_id":"4a60d82a-6972-439f-ad55-36575230fa50","system_id":"levelo_inurba_marseille","lat":43.28696,"lon":5.37407,"is_reserved":false,"is_disabled":false,"rental_uris":{"android":"levelo://app?vid=4a60d82a-6972-439f-ad55-36575230fa50","ios":"levelo://app?vid=4a60d82a-6972-439f-ad55-36575230fa50"},"vehicle_type_id":"4","last_reported":1743545372,"current_range_meters":16400,"station_id":"ce4bh3p2rcd13ifvqdq0","pricing_plan_id":"cebpf4jnsgd1na2vs0mg"},{"bike_id":"c2e6881a-04a3-4a38-9cc0-75cacf165e78","system_id":"levelo_inurba_marseille","lat":43.28832,"lon":5.364645,"is_reserved":false,"is_disabled":false,"rental_uris":{"android":"levelo://app?vid=c2e6881a-04a3-4a38-9cc0-75cacf165e78","ios":"levelo://app?vid=c2e6881a-04a3-4a38-9cc0-75cacf165e78"},"vehicle_type_id":"4","last_reported":1743545372,"current_range_meters":16400,"station_id":"","pricing_plan_id":"cebpf4jnsgd1na2vs0mg"},{"bike_id":"135ffc3a-60e2-4771-a298-33f9016f196d","system_id":"levelo_inurba_marseille","lat":43.30376,"lon":5.42486,"is_reserved":false,"is_disabled":false,"rental_uris":{"android":"levelo://app?vid=135ffc3a-60e2-4771-a298-33f9016f196d","ios":"levelo://app?vid=135ffc3a-60e2-4771-a298-33f9016f196d"},"vehicle_type_id":"4","last_reported":1743545372,"current_range_meters":16400,"station_id":"ce4bhoh2rcd13ifvqh6g","pricing_plan_id":"cebpf4jnsgd1na2vs0mg"},{"bike_id":"c87dfbca-94ac-4e34-ad01-a0fbfbff32de","system_id":"levelo_inurba_marseille","lat":43.28042,"lon":5.36936,"is_reserved":false,"is_disabled":false,"rental_uris":{"android":"levelo://app?vid=c87dfbca-94ac-4e34-ad01-a0fbfbff32de","ios":"levelo://app?vid=c87dfbca-94ac-4e34-ad01-a0fbfbff32de"},"vehicle_type_id":"4","last_reported":1743545372,"current_range_meters":16400,"station_id":"ce4bha12rcd13ifvqef0","pricing_plan_id":"cebpf4jnsgd1na2vs0mg"},{"bike_id":"c81287e3-19fe-4e50-b480-ea383988e9c8","system_id":"levelo_inurba_marseille","lat":43.25821,"lon":5.39421,"is_reserved":false,"is_disabled":false,"rental_uris":{"android":"levelo://app?vid=c81287e3-19fe-4e50-b480-ea383988e9c8","ios":"levelo://app?vid=c81287e3-19fe-4e50-b480-ea383988e9c8"},"vehicle_type_id":"4","last_reported":1743545372,"current_range_meters":16400,"station_id":"ce4bhip2rcd13ifvqft0","pricing_plan_id":"cebpf4jnsgd1na2vs0mg"},{"bike_id":"7d49898d-4c6e-4131-9fdb-37de62f2c79c","system_id":"levelo_inurba_marseille","lat":43.28639,"lon":5.37051,"is_reserved":false,"is_disabled":false,"rental_uris":{"android":"levelo://app?vid=7d49898d-4c6e-4131-9fdb-37de62f2c79c","ios":"levelo://app?vid=7d49898d-4c6e-4131-9fdb-37de62f2c79c"},"vehicle_type_id":"4","last_reported":1743545372,"current_range_meters":16400,"station_id":"ce4bht12rcd13ifvqi60","pricing_plan_id":"cebpf4jnsgd1na2vs0mg"},{"bike_id":"f445c01c-5a14-424c-9491-1c64b5d700ba","system_id":"levelo_inurba_marseille","lat":43.23192,"lon":5.39991,"is_reserved":false,"is_disabled":false,"rental_uris":{"android":"levelo://app?vid=f445c01c-5a14-424c-9491-1c64b5d700ba","ios":"levelo://app?vid=f445c01c-5a14-424c-9491-1c64b5d700ba"},"vehicle_type_id":"4","last_reported":1743545372,"current_range_meters":16400,"station_id":"ce4bhn12rcd13ifvqgqg","pricing_plan_id":"cebpf4jnsgd1na2vs0mg"},{"bike_id":"3026be77-df9c-4a4a-83d6-132b5a38a0dc","system_id":"levelo_inurba_marseille","lat":43.23165,"lon":5.40007,"is_reserved":false,"is_disabled":false,"rental_uris":{"android":"levelo://app?vid=3026be77-df9c-4a4a-83d6-132b5a38a0dc","ios":"levelo://app?vid=3026be77-df9c-4a4a-83d6-132b5a38a0dc"},"vehicle_type_id":"4","last_reported":1743545372,"current_range_meters":16400,"station_id":"ce4bhn12rcd13ifvqgqg","pricing_plan_id":"cebpf4jnsgd1na2vs0mg"},{"bike_id":"8ae9a0aa-eba4-4b51-8418-5d3278519c36","system_id":"levelo_inurba_marseille","lat":43.26126,"lon":5.41465,"is_reserved":false,"is_disabled":false,"rental_uris":{"android":"levelo://app?vid=8ae9a0aa-eba4-4b51-8418-5d3278519c36","ios":"levelo://app?vid=8ae9a0aa-eba4-4b51-8418-5d3278519c36"},"vehicle_type_id":"4","last_reported":1743545372,"current_range_meters":16400,"station_id":"","pricing_plan_id":"cebpf4jnsgd1na2vs0mg"},{"bike_id":"cd83c8ac-ed09-4369-9279-b6f36f2bbd3c","system_id":"levelo_inurba_marseille","lat":43.30788,"lon":5.38273,"is_reserved":false,"is_disabled":false,"rental_uris":{"android":"levelo://app?vid=cd83c8ac-ed09-4369-9279-b6f36f2bbd3c","ios":"levelo://app?vid=cd83c8ac-ed09-4369-9279-b6f36f2bbd3c"},"vehicle_type_id":"4","last_reported":1743545372,"current_range_meters":16800,"station_id":"","pricing_plan_id":"cebpf4jnsgd1na2vs0mg"},{"bike_id":"98b075ec-204c-4e1c-bc94-123a4aded46f","system_id":"levelo_inurba_marseille","lat":43.288583,"lon":5.35861,"is_reserved":false,"is_disabled":false,"rental_uris":{"android":"levelo://app?vid=98b075ec-204c-4e1c-bc94-123a4aded46f","ios":"levelo://app?vid=98b075ec-204c-4e1c-bc94-123a4aded46f"},"vehicle_type_id":"4","last_reported":1743545372,"current_range_meters":16800,"station_id":"ce4bhb12rcd13ifvqem0","pricing_plan_id":"cebpf4jnsgd1na2vs0mg"},{"bike_id":"455c26fb-a61b-4576-9afc-e510cc8c6aa5","system_id":"levelo_inurba_marseille","lat":43.2903,"lon":5.35934,"is_reserved":false,"is_disabled":false,"rental_uris":{"android":"levelo://app?vid=455c26fb-a61b-4576-9afc-e510cc8c6aa5","ios":"levelo://app?vid=455c26fb-a61b-4576-9afc-e510cc8c6aa5"},"vehicle_type_id":"4","last_reported":1743545372,"current_range_meters":16800,"station_id":"ce4bha92rcd13ifvqeg0","pricing_plan_id":"cebpf4jnsgd1na2vs0mg"},{"bike_id":"c26f680e-59c0-4272-a68a-73a55d4fa01f","system_id":"levelo_inurba_marseille","lat":43.24575,"lon":5.39521,"is_reserved":false,"is_disabled":false,"rental_uris":{"android":"levelo://app?vid=c26f680e-59c0-4272-a68a-73a55d4fa01f","ios":"levelo://app?vid=c26f680e-59c0-4272-a68a-73a55d4fa01f"},"vehicle_type_id":"4","last_reported":1743545372,"current_range_meters":16800,"station_id":"ce4bhlp2rcd13ifvqgjg","pricing_plan_id":"cebpf4jnsgd1na2vs0mg"},{"bike_id":"02648e18-ed60-4641-bf60-71eba0e9337b","system_id":"levelo_inurba_marseille","lat":43.29249,"lon":5.38437,"is_reserved":false,"is_disabled":true,"rental_uris":{"android":"levelo://app?vid=02648e18-ed60-4641-bf60-71eba0e9337b","ios":"levelo://app?vid=02648e18-ed60-4641-bf60-71eba0e9337b"},"vehicle_type_id":"4","last_reported":1743545372,"current_range_meters":16800,"station_id":"ce4bh692rcd13ifvqea0","pricing_plan_id":"cebpf4jnsgd1na2vs0mg"},{"bike_id":"61b5b365-7f5e-4b3a-b5e1-99287a9378e6","system_id":"levelo_inurba_marseille","lat":43.245194,"lon":5.395548,"is_reserved":false,"is_disabled":false,"rental_uris":{"android":"levelo://app?vid=61b5b365-7f5e-4b3a-b5e1-99287a9378e6","ios":"levelo://app?vid=61b5b365-7f5e-4b3a-b5e1-99287a9378e6"},"vehicle_type_id":"4","last_reported":1743545372,"current_range_meters":16800,"station_id":"ce4bhlp2rcd13ifvqgjg","pricing_plan_id":"cebpf4jnsgd1na2vs0mg"},{"bike_id":"37bc0bd0-0d35-47d6-8254-0f25b77b8c2c","system_id":"levelo_inurba_marseille","lat":43.302559,"lon":5.400855,"is_reserved":false,"is_disabled":false,"rental_uris":{"android":"levelo://app?vid=37bc0bd0-0d35-47d6-8254-0f25b77b8c2c","ios":"levelo://app?vid=37bc0bd0-0d35-47d6-8254-0f25b77b8c2c"},"vehicle_type_id":"4","last_reported":1743545372,"current_range_meters":16800,"station_id":"ce4bgvh2rcd13ifvqcs0","pricing_plan_id":"cebpf4jnsgd1na2vs0mg"},{"bike_id":"171d892b-face-4f92-beee-b1367bb94c95","system_id":"levelo_inurba_marseille","lat":43.27838,"lon":5.40727,"is_reserved":false,"is_disabled":false,"rental_uris":{"android":"levelo://app?vid=171d892b-face-4f92-beee-b1367bb94c95","ios":"levelo://app?vid=171d892b-face-4f92-beee-b1367bb94c95"},"vehicle_type_id":"4","last_reported":1743545372,"current_range_meters":16800,"station_id":"ce4bhnh2rcd13ifvqgtg","pricing_plan_id":"cebpf4jnsgd1na2vs0mg"},