{"last_updated":1729462081,"ttl":60,"version":"2.2","data":{"bikes":[{"bike_id":"9184e00a-b6ec-4bae-bf55-7db7d1efed40","system_id":"levelo_inurba_marseille","lat":43.28362,"lon":5.38622,"is_reserved":false,"is_disabled":false,"rental_uris":{"android":"levelo://app?vid=9184e00a-b6ec-4bae-bf55-7db7d1efed40","ios":"levelo://app?vid=9184e00a-b6ec-4bae-bf55-7db7d1efed40"},"vehicle_type_id":"4","last_reported":1729462081,"current_range_meters":14400,"station_id":"ce4bh492rcd13ifvqdvg","pricing_plan_id":"cebpf4jnsgd1na2vs0mg"},{"bike_id":"dc93bb9b-0ec8-42bf-bfa8-9ae4300b412b","system_id":"levelo_inurba_marseille","lat":43.28478,"lon":5.38546,"is_reserved":false,"is_disabled":false,"rental_uris":{"android":"levelo://app?vid=dc93bb9b-0ec8-42bf-bfa8-9ae4300b412b","ios":"levelo://app?vid=dc93bb9b-0ec8-42bf-bfa8-9ae4300b412b"},"vehicle_type_id":"4","last_reported":1729462081,"current_range_meters":9600,"station_id":"ce4bh8p2rcd13ifvqeb0","pricing_plan_id":"cebpf4jnsgd1na2vs0mg"},{"bike_id":"f2cf55f4-aa83-4a41-8c86-05d88bb3727e","system_id":"levelo_inurba_marseille","lat":43.3113,"lon":5.37752,"is_reserved":false,"is_disabled":false,"rental_uris":{"android":"levelo://app?vid=f2cf55f4-aa83-4a41-8c86-05d88bb3727e","ios":"levelo://app?vid=f2cf55f4-aa83-4a41-8c86-05d88bb3727e"},"vehicle_type_id":"4","last_reported":1729462081,"current_range_meters":21600,"station_id":"ce4bgt92rcd13ifvqcg0","pricing_plan_id":"cebpf4jnsgd1na2vs0mg"},{"bike_id":"2aae6609-bf72-4b69-8776-85ccbbd9b0e5","system_id":"levelo_inurba_marseille","lat":43.22927,"lon":5.35375,"is_reserved":false,"is_disabled":false,"rental_uris":{"android":"levelo://app?vid=2aae6609-bf72-4b69-8776-85ccbbd9b0e5","ios":"levelo://app?vid=2aae6609-bf72-4b69-8776-85ccbbd9b0e5"},"vehicle_type_id":"4","last_reported":1729462081,"current_range_meters":38400,"station_id":"cpo3532slgdg3j2ikp40","pricing_plan_id":"cebpf4jnsgd1na2vs0mg"},{"bike_id":"138f2d49-214b-48e8-9db4-98a6dc22aa3c","system_id":"levelo_inurba_marseille","lat":43.28439,"lon":5.39199,"is_reserved":false,"is_disabled":false,"rental_uris":{"android":"levelo://app?vid=138f2d49-214b-48e8-9db4-98a6dc22aa3c","ios":"levelo://app?vid=138f2d49-214b-48e8-9db4-98a6dc22aa3c"},"vehicle_type_id":"4","last_reported":1729462081,"current_range_meters":28800,"station_id":"ce4bhoh2rcd13ifvqh5g","pricing_plan_id":"cebpf4jnsgd1na2vs0mg"},{"bike_id":"685a354f-ff49-4ca8-a6ba-515d8049af7f","system_id":"levelo_inurba_marseille","lat":43.27617,"lon":5.36112,"is_reserved":false,"is_disabled":false,"rental_uris":{"android":"levelo://app?vid=685a354f-ff49-4ca8-a6ba-515d8049af7f","ios":"levelo://app?vid=685a354f-ff49-4ca8-a6ba-515d8049af7f"},"vehicle_type_id":"4","last_reported":1729462081,"current_range_meters":38800,"station_id":"ce4bgj92rcd13ifvqbe0","pricing_plan_id":"cebpf4jnsgd1na2vs0mg"},{"bike_id":"652a7bf6-e88b-4b4f-8146-020c522ee5b0","system_id":"levelo_inurba_marseille","lat":43.27493,"lon":5.42449,"is_reserved":false,"is_disabled":false,"rental_uris":{"android":"levelo://app?vid=652a7bf6-e88b-4b4f-8146-020c522ee5b0","ios":"levelo://app?vid=652a7bf6-e88b-4b4f-8146-020c522ee5b0"},"vehicle_type_id":"4","last_reported":1729462081,"current_range_meters":25600,"station_id":"ce4bhn92rcd13ifvqgrg","pricing_plan_id":"cebpf4jnsgd1na2vs0mg"},{"bike_id":"c26a172e-a0ff-4214-bbea-24c50739bea4","system_id":"levelo_inurba_marseille","lat":43.31117,"lon":5.37763,"is_reserved":false,"is_disabled":false,"rental_uris":{"android":"levelo://app?vid=c26a172e-a0ff-4214-bbea-24c50739bea4","ios":"levelo://app?vid=c26a172e-a0ff-4214-bbea-24c50739bea4"},"vehicle_type_id":"4","last_reported":1729462081,"current_range_meters":38800,"station_id":"ce4bgt92rcd13ifvqcg0","pricing_plan_id":"cebpf4jnsgd1na2vs0mg"},{"bike_id":"c5e3e1df-1a2a-44f0-be91-b1d1b57c457b","system_id":"levelo_inurba_marseille","lat":43.297098,"lon":5.366174,"is_reserved":false,"is_disabled":false,"rental_uris":{"android":"levelo://app?vid=c5e3e1df-1a2a-44f0-be91-b1d1b57c457b","ios":"levelo://app?vid=c5e3e1df-1a2a-44f0-be91-b1d1b57c457b"},"vehicle_type_id":"4","last_reported":1729462081,"current_range_meters":38800,"station_id":"ce4bgn12rcd13ifvqbt0","pricing_plan_id":"cebpf4jnsgd1na2vs0mg"},{"bike_id":"921931b1-5cdf-46b7-9243-9a8cf25a811b","system_id":"levelo_inurba_marseille","lat":43.31754,"lon":5.39021,"is_reserved":false,"is_disabled":false,"rental_uris":{"android":"levelo://app?vid=921931b1-5cdf-46b7-9243-9a8cf25a811b","ios":"levelo://app?vid=921931b1-5cdf-46b7-9243-9a8cf25a811b"},"vehicle_type_id":"4","last_reported":1729462081,"current_range_meters":28800,"station_id":"ce4bhqp2rcd13ifvqhng","pricing_plan_id":"cebpf4jnsgd1na2vs0mg"},{"bike_id":"afed1fa8-c2df-4e79-b5a8-2ea4c66dfad8","system_id":"levelo_inurba_marseille","lat":43.29306,"lon":5.371687,"is_reserved":false,"is_disabled":false,"rental_uris":{"android":"levelo://app?vid=afed1fa8-c2df-4e79-b5a8-2ea4c66dfad8","ios":"levelo://app?vid=afed1fa8-c2df-4e79-b5a8-2ea4c66dfad8"},"vehicle_type_id":"4","last_reported":1729462081,"current_range_meters":8000,"station_id":"ce4bgh92rcd13ifvqb40","pricing_plan_id":"cebpf4jnsgd1na2vs0mg"},{"bike_id":"7a6ba3d7-846e-45d3-92b4-25ce5cda8a53","system_id":"levelo_inurba_marseille","lat":43.33719,"lon":5.39181,"is_reserved":false,"is_disabled":false,"rental_uris":{"android":"levelo://app?vid=7a6ba3d7-846e-45d3-92b4-25ce5cda8a53","ios":"levelo://app?vid=7a6ba3d7-846e-45d3-92b4-25ce5cda8a53"},"vehicle_type_id":"4","last_reported":1729462081,"current_range_meters":38800,"station_id":"ce4bhr92rcd13ifvqhsg","pricing_plan_id":"cebpf4jnsgd1na2vs0mg"},{"bike_id":"29dc69ab-e0fe-4b96-9cff-bca8448603d4","system_id":"levelo_inurba_marseille","lat":43.31759,"lon":5.39019,"is_reserved":false,"is_disabled":false,"rental_uris":{"android":"levelo://app?vid=29dc69ab-e0fe-4b96-9cff-bca8448603d4","ios":"levelo://app?vid=29dc69ab-e0fe-4b96-9cff-bca8448603d4"},"vehicle_type_id":"4","last_reported":1729462081,"current_range_meters":26000,"station_id":"ce4bhqp2rcd13ifvqhng","pricing_plan_id":"cebpf4jnsgd1na2vs0mg"},{"bike_id":"e8bfb2e9-6e95-4178-92fa-4adfe6334c3f","system_id":"levelo_inurba_marseille","lat":43.28075,"lon":5.39649,"is_reserved":false,"is_disabled":false,"rental_uris":{"android":"levelo://app?vid=e8bfb2e9-6e95-4178-92fa-4adfe6334c3f","ios":"levelo://app?vid=e8bfb2e9-6e95-4178-92fa-4adfe6334c3f"},"vehicle_type_id":"4","last_reported":1729462081,"current_range_meters":8400,"station_id":"ce4bho12rcd13ifvqh2g","pricing_plan_id":"cebpf4jnsgd1na2vs0mg"},{"bike_id":"b5b1494f-9fa3-417e-bc80-0d223074cefd","system_id":"levelo_inurba_marseille","lat":43.32369,"lon":5.38886,"is_reserved":false,"is_disabled":false,"rental_uris":{"android":"levelo://app?vid=b5b1494f-9fa3-417e-bc80-0d223074cefd","ios":"levelo://app?vid=b5b1494f-9fa3-417e-bc80-0d223074cefd"},"vehicle_type_id":"4","last_reported":1729462081,"current_range_meters":30800,"station_id":"ce4bhqp2rcd13ifvqhog","pricing_plan_id":"cebpf4jnsgd1na2vs0mg"},{"bike_id":"681fa753-0ee1-4a2d-a509-c25ca35f06ea","system_id":"levelo_inurba_marseille","lat":43.2884,"lon":5.39304,"is_reserved":false,"is_disabled":false,"rental_uris":{"android":"levelo://app?vid=681fa753-0ee1-4a2d-a509-c25ca35f06ea","ios":"levelo://app?vid=681fa753-0ee1-4a2d-a509-c25ca35f06ea"},"vehicle_type_id":"4","last_reported":1729462081,"current_range_meters":36800,"station_id":"ce4bh2p2rcd13ifvqdi0","pricing_plan_id":"cebpf4jnsgd1na2vs0mg"},{"bike_id":"107b7fa0-2250-4d9c-b76c-3a6cd5a97d78","system_id":"levelo_inurba_marseille","lat":43.25119,"lon":5.40331,"is_reserved":false,"is_disabled":false,"rental_uris":{"android":"levelo://app?vid=107b7fa0-2250-4d9c-b76c-3a6cd5a97d78","ios":"levelo://app?vid=107b7fa0-2250-4d9c-b76c-3a6cd5a97d78"},"vehicle_type_id":"4","last_reported":1729462081,"current_range_meters":17600,"station_id":"ce4bhlh2rcd13ifvqgig","pricing_plan_id":"cebpf4jnsgd1na2vs0mg"},{"bike_id":"061c6e28-82c3-4625-b74d-9de61e4c5778","system_id":"levelo_inurba_marseille","lat":43.27378,"lon":5.36258,"is_reserved":false,"is_disabled":false,"rental_uris":{"android":"levelo://app?vid=061c6e28-82c3-4625-b74d-9de61e4c5778","ios":"levelo://app?vid=061c6e28-82c3-4625-b74d-9de61e4c5778"},"vehicle_type_id":"4","last_reported":1729462081,"current_range_meters":38800,"station_id":"ce4bhbh2rcd13ifvqeo0","pricing_plan_id":"cebpf4jnsgd1na2vs0mg"},{"bike_id":"16dac4f2-8478-493a-9a10-7049598541d2","system_id":"levelo_inurba_marseille","lat":43.28409,"lon":5.37524,"is_reserved":false,"is_disabled":false,"rental_uris":{"android":"levelo://app?vid=16dac4f2-8478-493a-9a10-7049598541d2","ios":"levelo://app?vid=16dac4f2-8478-493a-9a10-7049598541d2"},"vehicle_type_id":"4","last_reported":1729462081,"current_range_meters":38800,"station_id":"ce4bh412rcd13ifvqds0","pricing_plan_id":"cebpf4jnsgd1na2vs0mg"},{"bike_id":"930058b5-a542-44e1-9a8f-6ff096965cd6","system_id":"levelo_inurba_marseille","lat":43.28413,"lon":5.34986,"is_reserved":false,"is_disabled":false,"rental_uris":{"android":"levelo://app?vid=930058b5-a542-44e1-9a8f-6ff096965cd6","ios":"levelo://app?vid=930058b5-a542-44e1-9a8f-6ff096965cd6"},"vehicle_type_id":"4","last_reported":1729462081,"current_range_meters":26000,"station_id":"ce4bhbh2rcd13ifvqepg","pricing_plan_id":"cebpf4jnsgd1na2vs0mg"},{"bike_id":"4385264a-fc92-4c3e-958e-a25b26129730","system_id":"levelo_inurba_marseille","lat":43.28709,"lon":5.39989,"is_reserved":false,"is_disabled":false,"rental_uris":{"android":"levelo://app?vid=4385264a-fc92-4c3e-958e-a25b26129730","ios":"levelo://app?vid=4385264a-fc92-4c3e-958e-a25b26129730"},"vehicle_type_id":"4","last_reported":1729462081,"current_range_meters":8000,"station_id":"ce4bho92rcd13ifvqh3g","pricing_plan_id":"cebpf4jnsgd1na2vs0mg"},{"bike_id":"0110ffb5-a63d-45d5-b867-2e5bae3721ec","system_id":"levelo_inurba_marseille","lat":43.3266,"lon":5.40987,"is_reserved":false,"is_disabled":false,"rental_uris":{"android":"levelo://app?vid=0110ffb5-a63d-45d5-b867-2e5bae3721ec","ios":"levelo://app?vid=0110ffb5-a63d-45d5-b867-2e5bae3721ec"},"vehicle_type_id":"4","last_reported":1729462081,"current_range_meters":12800,"station_id":"ce4bhpp2rcd13ifvqhgg","pricing_plan_id":"cebpf4jnsgd1na2vs0mg"},{"bike_id":"f4301c02-1b81-46e9-992f-1f3f8d6be553","system_id":"levelo_inurba_marseille","lat":43.30321,"lon":5.40439,"is_reserved":false,"is_disabled":false,"rental_uris":{"android":"levelo://app?vid=f4301c02-1b81-46e9-992f-1f3f8d6be553","ios":"levelo://app?vid=f4301c02-1b81-46e9-992f-1f3f8d6be553"},"vehicle_type_id":"4","last_reported":1729462081,"current_range_meters":15200,"station_id":"ce4bh012rcd13ifvqd10","pricing_plan_id":"cebpf4jnsgd1na2vs0mg"},{"bike_id":"cffc72a1-9762-4ffa-83d6-8b9856072bf4","system_id":"levelo_inurba_marseille","lat":43.31717,"lon":5.42404,"is_reserved":false,"is_disabled":false,"rental_uris":{"android":"levelo://app?vid=cffc72a1-9762-4ffa-83d6-8b9856072bf4","ios":"levelo://app?vid=cffc72a1-9762-4ffa-83d6-8b9856072bf4"},"vehicle_type_id":"4","last_reported":1729462081,"current_range_meters":33200,"station_id":"ce4bhp92rcd13ifvqhbg","pricing_plan_id":"cebpf4jnsgd1na2vs0mg"},{"bike_id":"bda848a9-9c0f-4e86-b399-a0580de506e0","system_id":"levelo_inurba_marseille","lat":43.27616,"lon":5.36111,"is_reserved":false,"is_disabled":false,"rental_uris":{"android":"levelo://app?vid=bda848a9-9c0f-4e86-b399-a0580de506e0","ios":"levelo://app?vid=bda848a9-9c0f-4e86-b399-a0580de506e0"},"vehicle_type_id":"4","last_reported":1729462081,"current_range_meters":38800,"station_id":"ce4bgj92rcd13ifvqbe0","pricing_plan_id":"cebpf4jnsgd1na2vs0mg"},{"bike_id":"161f2039-5df7-4a61-81c0-32074e166b21","system_id":"levelo_inurba_marseille","lat":43.29613,"lon":5.36917,"is_reserved":false,"is_disabled":false,"rental_uris":{"android":"levelo://app?vid=161f2039-5df7-4a61-81c0-32074e166b21","ios":"levelo://app?vid=161f2039-5df7-4a61-81c0-32074e166b21"},"vehicle_type_id":"4","last_reported":1729462081,"current_range_meters":4000,"station_id":"","pricing_plan_id":"cebpf4jnsgd1na2vs0mg"},{"bike_id":"37a4f9f2-5f27-41f6-8e49-92d6bbb82296","system_id":"levelo_inurba_marseille","lat":43.23193,"lon":5.35556,"is_reserved":false,"is_disabled":false,"rental_uris":{"android":"levelo://app?vid=37a4f9f2-5f27-41f6-8e49-92d6bbb82296","ios":"levelo://app?vid=37a4f9f2-5f27-41f6-8e49-92d6bbb82296"},"vehicle_type_id":"4","last_reported":1729462081,"current_range_meters":37600,"station_id":"ce4bhu92rcd13ifvqi70","pricing_plan_id":"cebpf4jnsgd1na2vs0mg"},{"bike_id":"e1967d5c-6489-4288-b6b9-65fd91de494e","system_id":"levelo_inurba_marseille","lat":43.31171,"lon":5.38713,"is_reserved":false,"is_disabled":false,"rental_uris":{"android":"levelo://app?vid=e1967d5c-6489-4288-b6b9-65fd91de494e","ios":"levelo://app?vid=e1967d5c-6489-4288-b6b9-65fd91de494e"},"vehicle_type_id":"4","last_reported":1729462081,"current_range_meters":39200,"station_id":"ce4bgv12rcd13ifvqcp0","pricing_plan_id":"cebpf4jnsgd1na2vs0mg"},{"bike_id":"5cd96af5-3e17-42ae-9025-24dfef705577","system_id":"levelo_inurba_marseille","lat":43.29203,"lon":5.39316,"is_reserved":false,"is_disabled":false,"rental_uris":{"android":"levelo://app?vid=5cd96af5-3e17-42ae-9025-24dfef705577","ios":"levelo://app?vid=5cd96af5-3e17-42ae-9025-24dfef705577"},"vehicle_type_id":"4","last_reported":1729462081,"current_range_meters":5600,"station_id":"ce4bh192rcd13ifvqdd0","pricing_plan_id":"cebpf4jnsgd1na2vs0mg"},{"bike_id":"dc37fd46-5084-46a0-9174-3c99fcea243a","system_id":"levelo_inurba_marseille","lat":43.27565,"lon":5.38426,"is_reserved":false,"is_disabled":false,"rental_uris":{"android":"levelo://app?vid=dc37fd46-5084-46a0-9174-3c99fcea243a","ios":"levelo://app?vid=dc37fd46-5084-46a0-9174-3c99fcea243a"},"vehicle_type_id":"4","last_reported":1729462081,"current_range_meters":6400,"station_id":"ce4bhh92rcd13ifvqfi0","pricing_plan_id":"cebpf4jnsgd1na2vs0mg"},{"bike_id":"2a7d19b4-0a2b-429f-b4de-c6b211592f48","system_id":"levelo_inurba_marseille","lat":43.31327,"lon":5.39688,"is_reserved":false,"is_disabled":false,"rental_uris":{"android":"levelo://app?vid=2a7d19b4-0a2b-429f-b4de-c6b211592f48","ios":"levelo://app?vid=2a7d19b4-0a2b-429f-b4de-c6b211592f48"},"vehicle_type_id":"4","last_reported":1729462081,"current_range_meters":36400,"station_id":"ce4bgvp2rcd13ifvqcu0","pricing_plan_id":"cebpf4jnsgd1na2vs0mg"},{"bike_id":"af9cd77a-18ee-4714-82b7-eddfda19dd69","system_id":"levelo_inurba_marseille","lat":43.24073,"lon":5.37762,"is_reserved":false,"is_disabled":false,"rental_uris":{"android":"levelo://app?vid=af9cd77a-18ee-4714-82b7-eddfda19dd69","ios":"levelo://app?vid=af9cd77a-18ee-4714-82b7-eddfda19dd69"},"vehicle_type_id":"4","last_reported":1729462081,"current_range_meters":38800,"station_id":"ce4bhnp2rcd13ifvqgvg","pricing_plan_id":"cebpf4jnsgd1na2vs0mg"},{"bike_id":"efd5dc80-a5e8-4b0c-9022-e046d98c4248","system_id":"levelo_inurba_marseille","lat":43.31329,"lon":5.39693,"is_reserved":false,"is_disabled":false,"rental_uris":{"android":"levelo://app?vid=efd5dc80-a5e8-4b0c-9022-e046d98c4248","ios":"levelo://app?vid=efd5dc80-a5e8-4b0c-9022-e046d98c4248"},"vehicle_type_id":"4","last_reported":1729462081,"current_range_meters":35600,"station_id":"ce4bgvp2rcd13ifvqcu0","pricing_plan_id":"cebpf4jnsgd1na2vs0mg"},{"bike_id":"befb068b-7b18-4dbe-9d54-7889699e7dea","system_id":"levelo_inurba_marseille","lat":43.22924,"lon":5.35379,"is_reserved":false,"is_disabled":false,"rental_uris":{"android":"levelo://app?vid=befb068b-7b18-4dbe-9d54-7889699e7dea","ios":"levelo://app?vid=befb068b-7b18-4dbe-9d54-7889699e7dea"},"vehicle_type_id":"4","last_reported":1729462081,"current_range_meters":38800,"station_id":"cpo3532slgdg3j2ikp40","pricing_plan_id":"cebpf4jnsgd1na2vs0mg"},{"bike_id":"5b47cbfd-3740-4a35-b9bd-478cf093a87d","system_id":"levelo_inurba_marseille","lat":43.23959,"lon":5.36625,"is_reserved":false,"is_disabled":false,"rental_uris":{"android":"levelo://app?vid=5b47cbfd-3740-4a35-b9bd-478cf093a87d","ios":"levelo://app?vid=5b47cbfd-3740-4a35-b9bd-478cf093a87d"},"vehicle_type_id":"4","last_reported":1729462081,"current_range_meters":26000,"station_id":"ce4bhi12rcd13ifvqfp0","pricing_plan_id":"cebpf4jnsgd1na2vs0mg"},{"bike_id":"9cdd8dd9-b29f-454d-ae53-de682a959e62","system_id":"levelo_inurba_marseille","lat":43.323653,"lon":5.388877,"is_reserved":false,"is_disabled":false,"rental_uris":{"android":"levelo://app?vid=9cdd8dd9-b29f-454d-ae53-de682a959e62","ios":"levelo://app?vid=9cdd8dd9-b29f-454d-ae53-de682a959e62"},"vehicle_type_id":"4","last_reported":1729462081,"current_range_meters":38800,"station_id":"ce4bhqp2rcd13ifvqhog","pricing_plan_id":"cebpf4jnsgd1na2vs0mg"},{"bike_id":"6a239e90-1da0-443e-a751-9621878cc664","system_id":"levelo_inurba_marseille","lat":43.28428,"lon":5.34986,"is_reserved":false,"is_disabled":false,"rental_uris":{"android":"levelo://app?vid=6a239e90-1da0-443e-a751-9621878cc664","ios":"levelo://app?vid=6a239e90-1da0-443e-a751-9621878cc664"},"vehicle_type_id":"4","last_reported":1729462081,"current_range_meters":39200,"station_id":"ce4bhbh2rcd13ifvqepg","pricing_plan_id":"cebpf4jnsgd1na2vs0mg"},{"bike_id":"4eeaf0c9-1610-4ecb-acbf-9d8b7b9f4f98","system_id":"levelo_inurba_marseille","lat":43.30798,"lon":5.3818,"is_reserved":false,"is_disabled":false,"rental_uris":{"android":"levelo://app?vid=4eeaf0c9-1610-4ecb-acbf-9d8b7b9f4f98","ios":"levelo://app?vid=4eeaf0c9-1610-4ecb-acbf-9d8b7b9f4f98"},"vehicle_type_id":"4","last_reported":1729462081,"current_range_meters":10000,"station_id":"ce4bgt12rcd13ifvqce0","pricing_plan_id":"cebpf4jnsgd1na2vs0mg"},{"bike_id":"58342ce2-48b6-4554-b620-09ec4681a912","system_id":"levelo_inurba_marseille","lat":43.23962,"lon":5.36623,"is_reserved":false,"is_disabled":false,"rental_uris":{"android":"levelo://app?vid=58342ce2-48b6-4554-b620-09ec4681a912","ios":"levelo://app?vid=58342ce2-48b6-4554-b620-09ec4681a912"},"vehicle_type_id":"4","last_reported":1729462081,"current_range_meters":38400,"station_id":"ce4bhi12rcd13ifvqfp0","pricing_plan_id":"cebpf4jnsgd1na2vs0mg"},{"bike_id":"bbc22622-ce69-4e1e-b115-4db577bf1cd6","system_id":"levelo_inurba_marseille","lat":43.306829,"lon":5.383313,"is_reserved":false,"is_disabled":false,"rental_uris":{"android":"levelo://app?vid=bbc22622-ce69-4e1e-b115-4db577bf1cd6","ios":"levelo://app?vid=bbc22622-ce69-4e1e-b115-4db577bf1cd6"},"vehicle_type_id":"4","last_reported":1729462081,"current_range_meters":22800,"station_id":"ce4bgg92rcd13ifvqb30","pricing_plan_id":"cebpf4jnsgd1na2vs0mg"},{"bike_id":"ab25e50e-031e-49b2-92c3-bc31c1e4e638","system_id":"levelo_inurba_marseille","lat":43.279779,"lon":5.416771,"is_reserved":false,"is_disabled":false,"rental_uris":{"android":"levelo://app?vid=ab25e50e-031e-49b2-92c3-bc31c1e4e638","ios":"levelo://app?vid=ab25e50e-031e-49b2-92c3-bc31c1e4e638"},"vehicle_type_id":"4","last_reported":1729462081,"current_range_meters":6400,"station_id":"ce4bho12rcd13ifvqh1g","pricing_plan_id":"cebpf4jnsgd1na2vs0mg"},{"bike_id":"ed56807b-c98e-4c13-b324-7b6dc4b81ac2","system_id":"levelo_inurba_marseille","lat":43.32339,"lon":5.40622,"is_reserved":false,"is_disabled":false,"rental_uris":{"android":"levelo://app?vid=ed56807b-c98e-4c13-b324-7b6dc4b81ac2","ios":"levelo://app?vid=ed56807b-c98e-4c13-b324-7b6dc4b81ac2"},"vehicle_type_id":"4","last_reported":1729462081,"current_range_meters":20400,"station_id":"ce4bhq92rcd13ifvqhjg","pricing_plan_id":"cebpf4jnsgd1na2vs0mg"},{"bike_id":"17c2e2b5-4d41-40ee-9ac7-27f2fafea751","system_id":"levelo_inurba_marseille","lat":43.28029,"lon":5.36949,"is_reserved":false,"is_disabled":false,"rental_uris":{"android":"levelo://app?vid=17c2e2b5-4d41-40ee-9ac7-27f2fafea751","ios":"levelo://app?vid=17c2e2b5-4d41-40ee-9ac7-27f2fafea751"},"vehicle_type_id":"4","last_reported":1729462081,"current_range_meters":28800,"station_id":"ce4bha12rcd13ifvqef0","pricing_plan_id":"cebpf4jnsgd1na2vs0mg"},{"bike_id":"57dd0012-e7c2-43e3-90a1-087125ac63fa","system_id":"levelo_inurba_marseille","lat":43.33753,"lon":5.37454,"is_reserved":false,"is_disabled":false,"rental_uris":{"android":"levelo://app?vid=57dd0012-e7c2-43e3-90a1-087125ac63fa","ios":"levelo://app?vid=57dd0012-e7c2-43e3-90a1-087125ac63fa"},"vehicle_type_id":"4","last_reported":1729462081,"current_range_meters":33200,"station_id":"","pricing_plan_id":"cebpf4jnsgd1na2vs0mg"},{"bike_id":"ad1c3d3d-b4cc-42d4-beb2-2f2573d3d2dd","system_id":"levelo_inurba_marseille","lat":43.31072,"lon":5.3835,"is_reserved":false,"is_disabled":false,"rental_uris":{"android":"levelo://app?vid=ad1c3d3d-b4cc-42d4-beb2-2f2573d3d2dd","ios":"levelo://app?vid=ad1c3d3d-b4cc-42d4-beb2-2f2573d3d2dd"},"vehicle_type_id":"4","last_reported":1729462081,"current_range_meters":38800,"station_id":"ce4bgv92rcd13ifvqcr0","pricing_plan_id":"cebpf4jnsgd1na2vs0mg"},{"bike_id":"0a6df673-e856-4343-b24f-084796475cea","system_id":"levelo_inurba_marseille","lat":43.31483,"lon":5.37292,"is_reserved":false,"is_disabled":false,"rental_uris":{"android":"levelo://app?vid=0a6df673-e856-4343-b24f-084796475cea","ios":"levelo://app?vid=0a6df673-e856-4343-b24f-084796475cea"},"vehicle_type_id":"4","last_reported":1729462081,"current_range_meters":32800,"station_id":"ce4bgt12rcd13ifvqcd0","pricing_plan_id":"cebpf4jnsgd1na2vs0mg"},{"bike_id":"acc80eec-b7f4-4a87-8f02-9235715cbd20","system_id":"levelo_inurba_marseille","lat":43.310677,"lon":5.383583,"is_reserved":false,"is_disabled":false,"rental_uris":{"android":"levelo://app?vid=acc80eec-b7f4-4a87-8f02-9235715cbd20","ios":"levelo://app?vid=acc80eec-b7f4-4a87-8f02-9235715cbd20"},"vehicle_type_id":"4","last_reported":1729462081,"current_range_meters":28000,"station_id":"ce4bgv92rcd13ifvqcr0","pricing_plan_id":"cebpf4jnsgd1na2vs0mg"},{"bike_id":"3b77581e-631c-40dd-a9c7-afc3c4336841","system_id":"levelo_inurba_marseille","lat":43.31171,"lon":5.38727,"is_reserved":false,"is_disabled":false,"rental_uris":{"android":"levelo://app?vid=3b77581e-631c-40dd-a9c7-afc3c4336841","ios":"levelo://app?vid=3b77581e-631c-40dd-a9c7-afc3c4336841"},"vehicle_type_id":"4","last_reported":1729462081,"current_range_meters":2800,"station_id":"ce4bgv12rcd13ifvqcp0","pricing_plan_id":"cebpf4jnsgd1na2vs0mg"},{"bike_id":"495d773a-77c3-4538-91d4-69a5f6ca5507","system_id":"levelo_inurba_marseille","lat":43.27367,"lon":5.36261,"is_reserved":false,"is_disabled":false,"rental_uris":{"android":"levelo://app?vid=495d773a-77c3-4538-91d4-69a5f6ca5507","ios":"levelo://app?vid=495d773a-77c3-4538-91d4-69a5f6ca5507"},"vehicle_type_id":"4","last_reported":1729462081,"current_range_meters":39200,"station_id":"ce4bhbh2rcd13ifvqeo0","pricing_plan_id":"cebpf4jnsgd1na2vs0mg"},{"bike_id":"3c8eee48-055f-42dc-9d7e-d971aed0982c","system_id":"levelo_inurba_marseille","lat":43.3095,"lon":5.39033,"is_reserved":false,"is_disabled":false,"rental_uris":{"android":"levelo://app?vid=3c8eee48-055f-42dc-9d7e-d971aed0982c","ios":"levelo://app?vid=3c8eee48-055f-42dc-9d7e-d971aed0982c"},"vehicle_type_id":"4","last_reported":1729462081,"current_range_meters":20000,"station_id":"ce4bgup2rcd13ifvqco0","pricing_plan_id":"cebpf4jnsgd1na2vs0mg"},{"bike_id":"6fc5767c-7409-405d-8c24-4a08a7e916fc","system_id":"levelo_inurba_marseille","lat":43.2408,"lon":5.37756,"is_reserved":false,"is_disabled":false,"rental_uris":{"android":"levelo://app?vid=6fc5767c-7409-405d-8c24-4a08a7e916fc","ios":"levelo://app?vid=6fc5767c-7409-405d-8c24-4a08a7e916fc"},"vehicle_type_id":"4","last_reported":1729462081,"current_range_meters":38800,"station_id":"ce4bhnp2rcd13ifvqgvg","pricing_plan_id":"cebpf4jnsgd1na2vs0mg"},{"bike_id":"0c8d62df-ce7f-4d2a-93d3-2a0c7123f00e","system_id":"levelo_inurba_marseille","lat":43.27896,"lon":5.38007,"is_reserved":false,"is_disabled":false,"rental_uris":{"android":"levelo://app?vid=0c8d62df-ce7f-4d2a-93d3-2a0c7123f00e","ios":"levelo://app?vid=0c8d62df-ce7f-4d2a-93d3-2a0c7123f00e"},"vehicle_type_id":"4","last_reported":1729462081,"current_range_meters":30400,"station_id":"ce4bhf92rcd13ifvqf50","pricing_plan_id":"cebpf4jnsgd1na2vs0mg"},{"bike_id":"5cfbc1a6-134e-45b7-94aa-5539d074af8a","system_id":"levelo_inurba_marseille","lat":43.31227,"lon":5.36863,"is_reserved":false,"is_disabled":false,"rental_uris":{"android":"levelo://app?vid=5cfbc1a6-134e-45b7-94aa-5539d074af8a","ios":"levelo://app?vid=5cfbc1a6-134e-45b7-94aa-5539d074af8a"},"vehicle_type_id":"4","last_reported":1729462081,"current_range_meters":37600,"station_id":"ce4bgl92rcd13ifvqbq0","pricing_plan_id":"cebpf4jnsgd1na2vs0mg"},{"bike_id":"6cdae302-fc68-4bfd-af63-d4e77279cde7","system_id":"levelo_inurba_marseille","lat":43.28839,"lon":5.39307,"is_reserved":false,"is_disabled":false,"rental_uris":{"android":"levelo://app?vid=6cdae302-fc68-4bfd-af63-d4e77279cde7","ios":"levelo://app?vid=6cdae302-fc68-4bfd-af63-d4e77279cde7"},"vehicle_type_id":"4","last_reported":1729462081,"current_range_meters":32000,"station_id":"ce4bh2p2rcd13ifvqdi0","pricing_plan_id":"cebpf4jnsgd1na2vs0mg"},{"bike_id":"e36e8b70-cdbc-4b6c-9fe9-c4fbf657cc2e","system_id":"levelo_inurba_marseille","lat":43.31327,"lon":5.39696,"is_reserved":false,"is_disabled":false,"rental_uris":{"android":"levelo://app?vid=e36e8b70-cdbc-4b6c-9fe9-c4fbf657cc2e","ios":"levelo://app?vid=e36e8b70-cdbc-4b6c-9fe9-c4fbf657cc2e"},"vehicle_type_id":"4","last_reported":1729462081,"current_range_meters":25600,"station_id":"ce4bgvp2rcd13ifvqcu0","pricing_plan_id":"cebpf4jnsgd1na2vs0mg"},{"bike_id":"bf6b57fc-4872-420f-a3f7-fe294bcf43f7","system_id":"levelo_inurba_marseille","lat":43.29256,"lon":5.40917,"is_reserved":false,"is_disabled":false,"rental_uris":{"android":"levelo://app?vid=bf6b57fc-4872-420f-a3f7-fe294bcf43f7","ios":"levelo://app?vid=bf6b57fc-4872-420f-a3f7-fe294bcf43f7"},"vehicle_type_id":"4","last_reported":1729462081,"current_range_meters":38800,"station_id":"ce4bh192rcd13ifvqdc0","pricing_plan_id":"cebpf4jnsgd1na2vs0mg"},{"bike_id":"f3499667-7382-42a0-8d1a-973ab5c95006","system_id":"levelo_inurba_marseille","lat":43.25867,"lon":5.39896,"is_reserved":false,"is_disabled":false,"rental_uris":{"android":"levelo://app?vid=f3499667-7382-42a0-8d1a-973ab5c95006","ios":"levelo://app?vid=f3499667-7382-42a0-8d1a-973ab5c95006"},"vehicle_type_id":"4","last_reported":1729462081,"current_range_meters":37600,"station_id":"ce4bhl92rcd13ifvqghg","pricing_plan_id":"cebpf4jnsgd1na2vs0mg"},{"bike_id":"7016fe06-7c51-4aaa-a595-a770a350c975","system_id":"levelo_inurba_marseille","lat":43.29024,"lon":5.38644,"is_reserved":false,"is_disabled":false,"rental_uris":{"android":"levelo://app?vid=7016fe06-7c51-4aaa-a595-a770a350c975","ios":"levelo://app?vid=7016fe06-7c51-4aaa-a595-a770a350c975"},"vehicle_type_id":"4","last_reported":1729462081,"current_range_meters":36400,"station_id":"ce4bh4p2rcd13ifvqe0g","pricing_plan_id":"cebpf4jnsgd1na2vs0mg"},{"bike_id":"cd0dce23-200f-416c-916b-7be9d153fea3","system_id":"levelo_inurba_marseille","lat":43.26066,"lon":5.38552,"is_reserved":false,"is_disabled":false,"rental_uris":{"android":"levelo://app?vid=cd0dce23-200f-416c-916b-7be9d153fea3","ios":"levelo://app?vid=cd0dce23-200f-416c-916b-7be9d153fea3"},"vehicle_type_id":"4","last_reported":1729462081,"current_range_meters":17600,"station_id":"","pricing_plan_id":"cebpf4jnsgd1na2vs0mg"},{"bike_id":"53928c67-9a1e-42ca-af09-1851b26aa73d","system_id":"levelo_inurba_marseille","lat":43.28408,"lon":5.37527,"is_reserved":false,"is_disabled":false,"rental_uris":{"android":"levelo://app?vid=53928c67-9a1e-42ca-af09-1851b26aa73d","ios":"levelo://app?vid=53928c67-9a1e-42ca-af09-1851b26aa73d"},"vehicle_type_id":"4","last_reported":1729462081,"current_range_meters":37600,"station_id":"ce4bh412rcd13ifvqds0","pricing_plan_id":"cebpf4jnsgd1na2vs0mg"},{"bike_id":"23115ac6-aff5-45af-87d0-ffdacdb28fd5","system_id":"levelo_inurba_marseille","lat":43.22929,"lon":5.35379,"is_reserved":false,"is_disabled":false,"rental_uris":{"android":"levelo://app?vid=23115ac6-aff5-45af-87d0-ffdacdb28fd5","ios":"levelo://app?vid=23115ac6-aff5-45af-87d0-ffdacdb28fd5"},"vehicle_type_id":"4","last_reported":1729462081,"current_range_meters":38800,"station_id":"cpo3532slgdg3j2ikp40","pricing_plan_id":"cebpf4jnsgd1na2vs0mg"},{"bike_id":"ff66bb49-f5c8-4e9d-b222-b24325108550","system_id":"levelo_inurba_marseille","lat":43.29632,"lon":5.40603,"is_reserved":false,"is_disabled":false,"rental_uris":{"android":"levelo://app?vid=ff66bb49-f5c8-4e9d-b222-b24325108550","ios":"levelo://app?vid=ff66bb49-f5c8-4e9d-b222-b24325108550"},"vehicle_type_id":"4","last_reported":1729462081,"current_range_meters":25600,"station_id":"ce4bh0h2rcd13ifvqd60","pricing_plan_id":"cebpf4jnsgd1na2vs0mg"},{"bike_id":"694f65f2-751e-4109-8708-3d5d2b47119d","system_id":"levelo_inurba_marseille","lat":43.24684,"lon":5.38156,"is_reserved":false,"is_disabled":false,"rental_uris":{"android":"levelo://app?vid=694f65f2-751e-4109-8708-3d5d2b47119d","ios":"levelo://app?vid=694f65f2-751e-4109-8708-3d5d2b47119d"},"vehicle_type_id":"4","last_reported":1729462081,"current_range_meters":6400,"station_id":"ce4bhih2rcd13ifvqfr0","pricing_plan_id":"cebpf4jnsgd1na2vs0mg"},{"bike_id":"4baa99ae-2e1a-436a-bb1d-886404f1cc4d","system_id":"levelo_inurba_marseille","lat":43.28278,"lon":5.35062,"is_reserved":false,"is_disabled":false,"rental_uris":{"android":"levelo://app?vid=4baa99ae-2e1a-436a-bb1d-886404f1cc4d","ios":"levelo://app?vid=4baa99ae-2e1a-436a-bb1d-886404f1cc4d"},"vehicle_type_id":"4","last_reported":1729462081,"current_range_meters":38800,"station_id":"ce4bhbp2rcd13ifvqerg","pricing_plan_id":"cebpf4jnsgd1na2vs0mg"},{"bike_id":"f0cfec0e-7cdf-4c0b-9b7d-8fc3c33f3f22","system_id":"levelo_inurba_marseille","lat":43.25086,"lon":5.39522,"is_reserved":false,"is_disabled":false,"rental_uris":{"android":"levelo://app?vid=f0cfec0e-7cdf-4c0b-9b7d-8fc3c33f3f22","ios":"levelo://app?vid=f0cfec0e-7cdf-4c0b-9b7d-8fc3c33f3f22"},"vehicle_type_id":"4","last_reported":1729462081,"current_range_meters":5600,"station_id":"ce4bhm12rcd13ifvqgkg","pricing_plan_id":"cebpf4jnsgd1na2vs0mg"},{"bike_id":"831bfbfb-4b6d-4eb3-92b7-d40fca12a136","system_id":"levelo_inurba_marseille","lat":43.23957,"lon":5.36638,"is_reserved":false,"is_disabled":false,"rental_uris":{"android":"levelo://app?vid=831bfbfb-4b6d-4eb3-92b7-d40fca12a136","ios":"levelo://app?vid=831bfbfb-4b6d-4eb3-92b7-d40fca12a136"},"vehicle_type_id":"4","last_reported":1729462081,"current_range_meters":37600,"station_id":"ce4bhi12rcd13ifvqfp0","pricing_plan_id":"cebpf4jnsgd1na2vs0mg"},{"bike_id":"5fb83cb5-1b9e-44dc-ad82-fe8e448bfa99","system_id":"levelo_inurba_marseille","lat":43.32104,"lon":5.36779,"is_reserved":false,"is_disabled":false,"rental_uris":{"android":"levelo://app?vid=5fb83cb5-1b9e-44dc-ad82-fe8e448bfa99","ios":"levelo://app?vid=5fb83cb5-1b9e-44dc-ad82-fe8e448bfa99"},"vehicle_type_id":"4","last_reported":1729462081,"current_range_meters":38400,"station_id":"ce4bhrh2rcd13ifvqhug","pricing_plan_id":"cebpf4jnsgd1na2vs0mg"},{"bike_id":"ce664f76-069e-4d26-848b-5bba883a0f8f","system_id":"levelo_inurba_marseille","lat":43.28413,"lon":5.37535,"is_reserved":false,"is_disabled":false,"rental_uris":{"android":"levelo://app?vid=ce664f76-069e-4d26-848b-5bba883a0f8f","ios":"levelo://app?vid=ce664f76-069e-4d26-848b-5bba883a0f8f"},"vehicle_type_id":"4","last_reported":1729462081,"current_range_meters":38800,"station_id":"ce4bh412rcd13ifvqds0","pricing_plan_id":"cebpf4jnsgd1na2vs0mg"},{"bike_id":"1c46af18-9fa9-4b20-aa2c-36f4cc2ac30e","system_id":"levelo_inurba_marseille","lat":43.31162,"lon":5.38721,"is_reserved":false,"is_disabled":false,"rental_uris":{"android":"levelo://app?vid=1c46af18-9fa9-4b20-aa2c-36f4cc2ac30e","ios":"levelo://app?vid=1c46af18-9fa9-4b20-aa2c-36f4cc2ac30e"},"vehicle_type_id":"4","last_reported":1729462081,"current_range_meters":39200,"station_id":"ce4bgv12rcd13ifvqcp0","pricing_plan_id":"cebpf4jnsgd1na2vs0mg"},{"bike_id":"397aa16f-9086-4144-b23e-c12febf82b55","system_id":"levelo_inurba_marseille","lat":43.30205,"lon":5.39472,"is_reserved":false,"is_disabled":false,"rental_uris":{"android":"levelo://app?vid=397aa16f-9086-4144-b23e-c12febf82b55","ios":"levelo://app?vid=397aa16f-9086-4144-b23e-c12febf82b55"},"vehicle_type_id":"4","last_reported":1729462081,"current_range_meters":40000,"station_id":"ce4bh0p2rcd13ifvqd70","pricing_plan_id":"cebpf4jnsgd1na2vs0mg"},{"bike_id":"d94abd10-f1f2-4572-ab8e-169add889ea4","system_id":"levelo_inurba_marseille","lat":43.28035,"lon":5.36949,"is_reserved":false,"is_disabled":false,"rental_uris":{"android":"levelo://app?vid=d94abd10-f1f2-4572-ab8e-169add889ea4","ios":"levelo://app?vid=d94abd10-f1f2-4572-ab8e-169add889ea4"},"vehicle_type_id":"4","last_reported":1729462081,"current_range_meters":30000,"station_id":"ce4bha12rcd13ifvqef0","pricing_plan_id":"cebpf4jnsgd1na2vs0mg"},{"bike_id":"a79bce0c-a0b7-467d-9ece-663bed40c9d4","system_id":"levelo_inurba_marseille","lat":43.28849,"lon":5.35858,"is_reserved":false,"is_disabled":false,"rental_uris":{"android":"levelo://app?vid=a79bce0c-a0b7-467d-9ece-663bed40c9d4","ios":"levelo://app?vid=a79bce0c-a0b7-467d-9ece-663bed40c9d4"},"vehicle_type_id":"4","last_reported":1729462081,"current_range_meters":38800,"station_id":"ce4bhb12rcd13ifvqem0","pricing_plan_id":"cebpf4jnsgd1na2vs0mg"},{"bike_id":"28cf6995-f40e-413a-bb6c-faa2a779d004","system_id":"levelo_inurba_marseille","lat":43.30802,"lon":5.38157,"is_reserved":false,"is_disabled":false,"rental_uris":{"android":"levelo://app?vid=28cf6995-f40e-413a-bb6c-faa2a779d004","ios":"levelo://app?vid=28cf6995-f40e-413a-bb6c-faa2a779d004"},"vehicle_type_id":"4","last_reported":1729462081,"current_range_meters":25200,"station_id":"ce4bgt12rcd13ifvqce0","pricing_plan_id":"cebpf4jnsgd1na2vs0mg"},{"bike_id":"3936565c-18a4-450b-9552-bdc1ba21cf35","system_id":"levelo_inurba_marseille","lat":43.34141,"lon":5.40907,"is_reserved":false,"is_disabled":false,"rental_uris":{"android":"levelo://app?vid=3936565c-18a4-450b-9552-bdc1ba21cf35","ios":"levelo://app?vid=3936565c-18a4-450b-9552-bdc1ba21cf35"},"vehicle_type_id":"4","last_reported":1729462081,"current_range_meters":38400,"station_id":"ce4bhqh2rcd13ifvqhlg","pricing_plan_id":"cebpf4jnsgd1na2vs0mg"},{"bike_id":"d06a881c-f80d-48b8-9719-6afcceb956d7","system_id":"levelo_inurba_marseille","lat":43.33021,"lon":5.39049,"is_reserved":false,"is_disabled":false,"rental_uris":{"android":"levelo://app?vid=d06a881c-f80d-48b8-9719-6afcceb956d7","ios":"levelo://app?vid=d06a881c-f80d-48b8-9719-6afcceb956d7"},"vehicle_type_id":"4","last_reported":1729462081,"current_range_meters":38800,"station_id":"ce4bhr92rcd13ifvqhrg","pricing_plan_id":"cebpf4jnsgd1na2vs0mg"},{"bike_id":"e19c222f-a253-48d1-98c2-e66a57d39a04","system_id":"levelo_inurba_marseille","lat":43.25114,"lon":5.40329,"is_reserved":false,"is_disabled":false,"rental_uris":{"android":"levelo://app?vid=e19c222f-a253-48d1-98c2-e66a57d39a04","ios":"levelo://app?vid=e19c222f-a253-48d1-98c2-e66a57d39a04"},"vehicle_type_id":"4","last_reported":1729462081,"current_range_meters":6000,"station_id":"ce4bhlh2rcd13ifvqgig","pricing_plan_id":"cebpf4jnsgd1na2vs0mg"},{"bike_id":"1e18c599-6c40-4c34-805b-3e674da0ddd0","system_id":"levelo_inurba_marseille","lat":43.2841,"lon":5.3499,"is_reserved":false,"is_disabled":false,"rental_uris":{"android":"levelo://app?vid=1e18c599-6c40-4c34-805b-3e674da0ddd0","ios":"levelo://app?vid=1e18c599-6c40-4c34-805b-3e674da0ddd0"},"vehicle_type_id":"4","last_reported":1729462081,"current_range_meters":38800,"station_id":"ce4bhbh2rcd13ifvqepg","pricing_plan_id":"cebpf4jnsgd1na2vs0mg"},{"bike_id":"766da900-471d-42f5-8cfa-8db494f945d7","system_id":"levelo_inurba_marseille","lat":43.28909,"lon":5.46054,"is_reserved":false,"is_disabled":false,"rental_uris":{"android":"levelo://app?vid=766da900-471d-42f5-8cfa-8db494f945d7","ios":"levelo://app?vid=766da900-471d-42f5-8cfa-8db494f945d7"},"vehicle_type_id":"4","last_reported":1729462081,"current_range_meters":22800,"station_id":"","pricing_plan_id":"cebpf4jnsgd1na2vs0mg"},{"bike_id":"36e3023c-d0b0-43c6-8ec6-0c97d78dbe93","system_id":"levelo_inurba_marseille","lat":43.25002,"lon":5.38923,"is_reserved":false,"is_disabled":false,"rental_uris":{"android":"levelo://app?vid=36e3023c-d0b0-43c6-8ec6-0c97d78dbe93","ios":"levelo://app?vid=36e3023c-d0b0-43c6-8ec6-0c97d78dbe93"},"vehicle_type_id":"4","last_reported":1729462081,"current_range_meters":19200,"station_id":"ce4bhgp2rcd13ifvqfd0","pricing_plan_id":"cebpf4jnsgd1na2vs0mg"},{"bike_id":"2b732e07-d55f-46d2-9872-de0a6a9ddc8d","system_id":"levelo_inurba_marseille","lat":43.27616,"lon":5.36114,"is_reserved":false,"is_disabled":false,"rental_uris":{"android":"levelo://app?vid=2b732e07-d55f-46d2-9872-de0a6a9ddc8d","ios":"levelo://app?vid=2b732e07-d55f-46d2-9872-de0a6a9ddc8d"},"vehicle_type_id":"4","last_reported":1729462081,"current_range_meters":38800,"station_id":"ce4bgj92rcd13ifvqbe0","pricing_plan_id":"cebpf4jnsgd1na2vs0mg"},{"bike_id":"e71d3fcf-5ffb-42f6-ba1e-7e333adab3db","system_id":"levelo_inurba_marseille","lat":43.30888,"lon":5.37196,"is_reserved":false,"is_disabled":false,"rental_uris":{"android":"levelo://app?vid=e71d3fcf-5ffb-42f6-ba1e-7e333adab3db","ios":"levelo://app?vid=e71d3fcf-5ffb-42f6-ba1e-7e333adab3db"},"vehicle_type_id":"4","last_reported":1729462081,"current_range_meters":39200,"station_id":"ce4bguh2rcd13ifvqckg","pricing_plan_id":"cebpf4jnsgd1na2vs0mg"},{"bike_id":"6b9d203a-0d44-47b8-9615-bd46a99162a3","system_id":"levelo_inurba_marseille","lat":43.29255,"lon":5.40916,"is_reserved":false,"is_disabled":false,"rental_uris":{"android":"levelo://app?vid=6b9d203a-0d44-47b8-9615-bd46a99162a3","ios":"levelo://app?vid=6b9d203a-0d44-47b8-9615-bd46a99162a3"},"vehicle_type_id":"4","last_reported":1729462081,"current_range_meters":39200,"station_id":"ce4bh192rcd13ifvqdc0","pricing_plan_id":"cebpf4jnsgd1na2vs0mg"},{"bike_id":"a7a43baf-f2fd-4868-8a06-1cf018459f25","system_id":"levelo_inurba_marseille","lat":43.32336,"lon":5.40622,"is_reserved":false,"is_disabled":false,"rental_uris":{"android":"levelo://app?vid=a7a43baf-f2fd-4868-8a06-1cf018459f25","ios":"levelo://app?vid=a7a43baf-f2fd-4868-8a06-1cf018459f25"},"vehicle_type_id":"4","last_reported":1729462081,"current_range_meters":9200,"station_id":"ce4bhq92rcd13ifvqhjg","pricing_plan_id":"cebpf4jnsgd1na2vs0mg"},{"bike_id":"6e89931a-24ab-4d7b-a2d3-95f19d27cbfd","system_id":"levelo_inurba_marseille","lat":43.29441,"lon":5.39748,"is_reserved":false,"is_disabled":false,"rental_uris":{"android":"levelo://app?vid=6e89931a-24ab-4d7b-a2d3-95f19d27cbfd","ios":"levelo://app?vid=6e89931a-24ab-4d7b-a2d3-95f19d27cbfd"},"vehicle_type_id":"4","last_reported":1729462081,"current_range_meters":12400,"station_id":"ce4bh3h2rcd13ifvqdo0","pricing_plan_id":"cebpf4jnsgd1na2vs0mg"},{"bike_id":"8b5750f9-649c-4473-98b9-96b3cfdc7f74","system_id":"levelo_inurba_marseille","lat":43.2511,"lon":5.40322,"is_reserved":false,"is_disabled":false,"rental_uris":{"android":"levelo://app?vid=8b5750f9-649c-4473-98b9-96b3cfdc7f74","ios":"levelo://app?vid=8b5750f9-649c-4473-98b9-96b3cfdc7f74"},"vehicle_type_id":"4","last_reported":1729462081,"current_range_meters":35200,"station_id":"ce4bhlh2rcd13ifvqgig","pricing_plan_id":"cebpf4jnsgd1na2vs0mg"},{"bike_id":"25d9321c-815c-4a97-8ef1-c177cb234b90","system_id":"levelo_inurba_marseille","lat":43.29775,"lon":5.37106,"is_reserved":false,"is_disabled":false,"rental_uris":{"android":"levelo://app?vid=25d9321c-815c-4a97-8ef1-c177cb234b90","ios":"levelo://app?vid=25d9321c-815c-4a97-8ef1-c177cb234b90"},"vehicle_type_id":"4","last_reported":1729462081,"current_range_meters":32000,"station_id":"ce4bgop2rcd13ifvqc1g","pricing_plan_id":"cebpf4jnsgd1na2vs0mg"},{"bike_id":"6b0b00df-acb0-4528-adb6-b3172252b95b","system_id":"levelo_inurba_marseille","lat":43.28707,"lon":5.37395,"is_reserved":false,"is_disabled":false,"rental_uris":{"android":"levelo://app?vid=6b0b00df-acb0-4528-adb6-b3172252b95b","ios":"levelo://app?vid=6b0b00df-acb0-4528-adb6-b3172252b95b"},"vehicle_type_id":"4","last_reported":1729462081,"current_range_meters":16000,"station_id":"ce4bh3p2rcd13ifvqdq0","pricing_plan_id":"cebpf4jnsgd1na2vs0mg"},{"bike_id":"e4165dbd-d7e2-49b1-86de-b3128e01e161","system_id":"levelo_inurba_marseille","lat":43.28455,"lon":5.35905,"is_reserved":false,"is_disabled":false,"rental_uris":{"android":"levelo://app?vid=e4165dbd-d7e2-49b1-86de-b3128e01e161","ios":"levelo://app?vid=e4165dbd-d7e2-49b1-86de-b3128e01e161"},"vehicle_type_id":"4","last_reported":1729462081,"current_range_meters":38800,"station_id":"ce4bhah2rcd13ifvqei0","pricing_plan_id":"cebpf4jnsgd1na2vs0mg"},{"bike_id":"2bbf3f7b-7876-479c-b375-c567106e1cb4","system_id":"levelo_inurba_marseille","lat":43.27942,"lon":5.41039,"is_reserved":false,"is_disabled":false,"rental_uris":{"android":"levelo://app?vid=2bbf3f7b-7876-479c-b375-c567106e1cb4","ios":"levelo://app?vid=2bbf3f7b-7876-479c-b375-c567106e1cb4"},"vehicle_type_id":"4","last_reported":1729462081,"current_range_meters":14400,"station_id":"ce4bhnp2rcd13ifvqh0g","pricing_plan_id":"cebpf4jnsgd1na2vs0mg"},{"bike_id":"1104b19b-39e4-4f3f-a954-dd9a3478dd76","system_id":"levelo_inurba_marseille","lat":43.29216,"lon":5.36056,"is_reserved":false,"is_disabled":false,"rental_uris":{"android":"levelo://app?vid=1104b19b-39e4-4f3f-a954-dd9a3478dd76","ios":"levelo://app?vid=1104b19b-39e4-4f3f-a954-dd9a3478dd76"},"vehicle_type_id":"4","last_reported":1729462081,"current_range_meters":29600,"station_id":"ce4bhbh2rcd13ifvqeqg","pricing_plan_id":"cebpf4jnsgd1na2vs0mg"},{"bike_id":"3a90cd5a-8d84-4a1f-9da8-3547bb5d20c1","system_id":"levelo_inurba_marseille","lat":43.23194,"lon":5.35557,"is_reserved":false,"is_disabled":false,"rental_uris":{"android":"levelo://app?vid=3a90cd5a-8d84-4a1f-9da8-3547bb5d20c1","ios":"levelo://app?vid=3a90cd5a-8d84-4a1f-9da8-3547bb5d20c1"},"vehicle_type_id":"4","last_reported":1729462081,"current_range_meters":38800,"station_id":"ce4bhu92rcd13ifvqi70","pricing_plan_id":"cebpf4jnsgd1na2vs0mg"},{"bike_id":"a1d396a3-1842-4ccb-9c35-2fac21ba193b","system_id":"levelo_inurba_marseille","lat":43.32659,"lon":5.40987,"is_reserved":false,"is_disabled":false,"rental_uris":{"android":"levelo://app?vid=a1d396a3-1842-4ccb-9c35-2fac21ba193b","ios":"levelo://app?vid=a1d396a3-1842-4ccb-9c35-2fac21ba193b"},"vehicle_type_id":"4","last_reported":1729462081,"current_range_meters":38800,"station_id":"ce4bhpp2rcd13ifvqhgg","pricing_plan_id":"cebpf4jnsgd1na2vs0mg"},{"bike_id":"2312c285-1a3f-403c-a153-5ad410d8231a","system_id":"levelo_inurba_marseille","lat":43.25115,"lon":5.40318,"is_reserved":false,"is_disabled":false,"rental_uris":{"android":"levelo://app?vid=2312c285-1a3f-403c-a153-5ad410d8231a","ios":"levelo://app?vid=2312c285-1a3f-403c-a153-5ad410d8231a"},"vehicle_type_id":"4","last_reported":1729462081,"current_range_meters":29600,"station_id":"ce4bhlh2rcd13ifvqgig","pricing_plan_id":"cebpf4jnsgd1na2vs0mg"},{"bike_id":"27d7397b-3a64-4c8d-985f-c89fa0625145","system_id":"levelo_inurba_marseille","lat":43.231967,"lon":5.35551,"is_reserved":false,"is_disabled":false,"rental_uris":{"android":"levelo://app?vid=27d7397b-3a64-4c8d-985f-c89fa0625145","ios":"levelo://app?vid=27d7397b-3a64-4c8d-985f-c89fa0625145"},"vehicle_type_id":"4","last_reported":1729462081,"current_range_meters":38800,"station_id":"ce4bhu92rcd13ifvqi70","pricing_plan_id":"cebpf4jnsgd1na2vs0mg"},{"bike_id":"c47ccd47-d873-4fd2-ba35-77b6357180ca","system_id":"levelo_inurba_marseille","lat":43.28108,"lon":5.37844,"is_reserved":false,"is_disabled":false,"rental_uris":{"android":"levelo://app?vid=c47ccd47-d873-4fd2-ba35-77b6357180ca","ios":"levelo://app?vid=c47ccd47-d873-4fd2-ba35-77b6357180ca"},"vehicle_type_id":"4","last_reported":1729462081,"current_range_meters":26800,"station_id":"ce4bha12rcd13ifvqee0","pricing_plan_id":"cebpf4jnsgd1na2vs0mg"},{"bike_id":"fcbe071f-bb82-431b-954d-e8c0ba6fb35b","system_id":"levelo_inurba_marseille","lat":43.29016,"lon":5.38132,"is_reserved":false,"is_disabled":false,"rental_uris":{"android":"levelo://app?vid=fcbe071f-bb82-431b-954d-e8c0ba6fb35b","ios":"levelo://app?vid=fcbe071f-bb82-431b-954d-e8c0ba6fb35b"},"vehicle_type_id":"4","last_reported":1729462081,"current_range_meters":8800,"station_id":"ce4bh4p2rcd13ifvqe1g","pricing_plan_id":"cebpf4jnsgd1na2vs0mg"},{"bike_id":"4b0e1ae9-90da-4b3c-97a7-9fcaa6ea9192","system_id":"levelo_inurba_marseille","lat":43.28105,"lon":5.37843,"is_reserved":false,"is_disabled":false,"rental_uris":{"android":"levelo://app?vid=4b0e1ae9-90da-4b3c-97a7-9fcaa6ea9192","ios":"levelo://app?vid=4b0e1ae9-90da-4b3c-97a7-9fcaa6ea9192"},"vehicle_type_id":"4","last_reported":1729462081,"current_range_meters":40000,"station_id":"ce4bha12rcd13ifvqee0","pricing_plan_id":"cebpf4jnsgd1na2vs0mg"},{"bike_id":"c03fbd20-86ef-48e9-8de5-9cb4bceff8ae","system_id":"levelo_inurba_marseille","lat":43.31278,"lon":5.40158,"is_reserved":false,"is_disabled":false,"rental_uris":{"android":"levelo://app?vid=c03fbd20-86ef-48e9-8de5-9cb4bceff8ae","ios":"levelo://app?vid=c03fbd20-86ef-48e9-8de5-9cb4bceff8ae"},"vehicle_type_id":"4","last_reported":1729462081,"current_range_meters":30800,"station_id":"ce4bh092rcd13ifvqd30","pricing_plan_id":"cebpf4jnsgd1na2vs0mg"},{"bike_id":"61f6fcba-0270-4e6f-bab2-fc32e0baeaf0","system_id":"levelo_inurba_marseille","lat":43.28108,"lon":5.37837,"is_reserved":false,"is_disabled":false,"rental_uris":{"android":"levelo://app?vid=61f6fcba-0270-4e6f-bab2-fc32e0baeaf0","ios":"levelo://app?vid=61f6fcba-0270-4e6f-bab2-fc32e0baeaf0"},"vehicle_type_id":"4","last_reported":1729462081,"current_range_meters":24400,"station_id":"ce4bha12rcd13ifvqee0","pricing_plan_id":"cebpf4jnsgd1na2vs0mg"},{"bike_id":"7772d39f-5e28-445c-af91-069b0cf63793","system_id":"levelo_inurba_marseille","lat":43.33765,"lon":5.37438,"is_reserved":false,"is_disabled":false,"rental_uris":{"android":"levelo://app?vid=7772d39f-5e28-445c-af91-069b0cf63793","ios":"levelo://app?vid=7772d39f-5e28-445c-af91-069b0cf63793"},"vehicle_type_id":"4","last_reported":1729462081,"current_range_meters":2800,"station_id":"","pricing_plan_id":"cebpf4jnsgd1na2vs0mg"},{"bike_id":"b7a735d7-f1dd-4ee6-9916-5d65507bb1f6","system_id":"levelo_inurba_marseille","lat":43.3361,"lon":5.41035,"is_reserved":false,"is_disabled":false,"rental_uris":{"android":"levelo://app?vid=b7a735d7-f1dd-4ee6-9916-5d65507bb1f6","ios":"levelo://app?vid=b7a735d7-f1dd-4ee6-9916-5d65507bb1f6"},"vehicle_type_id":"4","last_reported":1729462081,"current_range_meters":34000,"station_id":"ce4bhqh2rcd13ifvqhmg","pricing_plan_id":"cebpf4jnsgd1na2vs0mg"},{"bike_id":"3213665e-989c-4d22-9f5a-31c8522597dd","system_id":"levelo_inurba_marseille","lat":43.296,"lon":5.36142,"is_reserved":false,"is_disabled":false,"rental_uris":{"android":"levelo://app?vid=3213665e-989c-4d22-9f5a-31c8522597dd","ios":"levelo://app?vid=3213665e-989c-4d22-9f5a-31c8522597dd"},"vehicle_type_id":"4","last_reported":1729462081,"current_range_meters":12800,"station_id":"","pricing_plan_id":"cebpf4jnsgd1na2vs0mg"},{"bike_id":"c0d3d32e-e5a1-4781-982b-6fe954b368b7","system_id":"levelo_inurba_marseille","lat":43.28727,"lon":5.36083,"is_reserved":false,"is_disabled":false,"rental_uris":{"android":"levelo://app?vid=c0d3d32e-e5a1-4781-982b-6fe954b368b7","ios":"levelo://app?vid=c0d3d32e-e5a1-4781-982b-6fe954b368b7"},"vehicle_type_id":"4","last_reported":1729462081,"current_range_meters":38400,"station_id":"cki0cbj6b192h4jlfktg","pricing_plan_id":"cebpf4jnsgd1na2vs0mg"},{"bike_id":"63ff4834-9c29-49b0-bb82-d72dc6e04e3c","system_id":"levelo_inurba_marseille","lat":43.291962,"lon":5.393195,"is_reserved":false,"is_disabled":false,"rental_uris":{"android":"levelo://app?vid=63ff4834-9c29-49b0-bb82-d72dc6e04e3c","ios":"levelo://app?vid=63ff4834-9c29-49b0-bb82-d72dc6e04e3c"},"vehicle_type_id":"4","last_reported":1729462081,"current_range_meters":3200,"station_id":"ce4bh192rcd13ifvqdd0","pricing_plan_id":"cebpf4jnsgd1na2vs0mg"},{"bike_id":"9a2117f0-c5b0-4dc2-891b-026a24af23f1","system_id":"levelo_inurba_marseille","lat":43.3105,"lon":5.40092,"is_reserved":false,"is_disabled":false,"rental_uris":{"android":"levelo://app?vid=9a2117f0-c5b0-4dc2-891b-026a24af23f1","ios":"levelo://app?vid=9a2117f0-c5b0-4dc2-891b-026a24af23f1"},"vehicle_type_id":"4","last_reported":1729462081,"current_range_meters":33600,"station_id":"","pricing_plan_id":"cebpf4jnsgd1na2vs0mg"},{"bike_id":"150b2076-fa3d-4436-b76f-3b9f9d8be659","system_id":"levelo_inurba_marseille","lat":43.33607,"lon":5.41035,"is_reserved":false,"is_disabled":false,"rental_uris":{"android":"levelo://app?vid=150b2076-fa3d-4436-b76f-3b9f9d8be659","ios":"levelo://app?vid=150b2076-fa3d-4436-b76f-3b9f9d8be659"},"vehicle_type_id":"4","last_reported":1729462081,"current_range_meters":38800,"station_id":"ce4bhqh2rcd13ifvqhmg","pricing_plan_id":"cebpf4jnsgd1na2vs0mg"},{"bike_id":"85c464d2-b6dd-40c8-826b-f01a6bbc92a3","system_id":"levelo_inurba_marseille","lat":43.28455,"lon":5.35886,"is_reserved":false,"is_disabled":false,"rental_uris":{"android":"levelo://app?vid=85c464d2-b6dd-40c8-826b-f01a6bbc92a3","ios":"levelo://app?vid=85c464d2-b6dd-40c8-826b-f01a6bbc92a3"},"vehicle_type_id":"4","last_reported":1729462081,"current_range_meters":13600,"station_id":"ce4bhah2rcd13ifvqei0","pricing_plan_id":"cebpf4jnsgd1na2vs0mg"},{"bike_id":"a9b453e0-5f79-4cec-bb73-a00a31634e61","system_id":"levelo_inurba_marseille","lat":43.2867,"lon":5.36352,"is_reserved":false,"is_disabled":false,"rental_uris":{"android":"levelo://app?vid=a9b453e0-5f79-4cec-bb73-a00a31634e61","ios":"levelo://app?vid=a9b453e0-5f79-4cec-bb73-a00a31634e61"},"vehicle_type_id":"4","last_reported":1729462081,"current_range_meters":24400,"station_id":"ce4bhah2rcd13ifvqej0","pricing_plan_id":"cebpf4jnsgd1na2vs0mg"},{"bike_id":"c294329c-67d3-4719-8415-ae0d1f00af5d","system_id":"levelo_inurba_marseille","lat":43.25583,"lon":5.38231,"is_reserved":false,"is_disabled":false,"rental_uris":{"android":"levelo://app?vid=c294329c-67d3-4719-8415-ae0d1f00af5d","ios":"levelo://app?vid=c294329c-67d3-4719-8415-ae0d1f00af5d"},"vehicle_type_id":"4","last_reported":1729462081,"current_range_meters":24000,"station_id":"ce4bhih2rcd13ifvqfs0","pricing_plan_id":"cebpf4jnsgd1na2vs0mg"},{"bike_id":"5d5ca3e6-06a9-4ef4-88f8-e8d21bffc448","system_id":"levelo_inurba_marseille","lat":43.323535,"lon":5.406233,"is_reserved":false,"is_disabled":false,"rental_uris":{"android":"levelo://app?vid=5d5ca3e6-06a9-4ef4-88f8-e8d21bffc448","ios":"levelo://app?vid=5d5ca3e6-06a9-4ef4-88f8-e8d21bffc448"},"vehicle_type_id":"4","last_reported":1729462081,"current_range_meters":39200,"station_id":"ce4bhq92rcd13ifvqhjg","pricing_plan_id":"cebpf4jnsgd1na2vs0mg"},{"bike_id":"281e81c1-388d-4c02-97b1-953fbc7b2b90","system_id":"levelo_inurba_marseille","lat":43.27057,"lon":5.4026,"is_reserved":false,"is_disabled":false,"rental_uris":{"android":"levelo://app?vid=281e81c1-388d-4c02-97b1-953fbc7b2b90","ios":"levelo://app?vid=281e81c1-388d-4c02-97b1-953fbc7b2b90"},"vehicle_type_id":"4","last_reported":1729462081,"current_range_meters":30800,"station_id":"ce4bhk92rcd13ifvqgc0","pricing_plan_id":"cebpf4jnsgd1na2vs0mg"},{"bike_id":"ac69515a-2b4c-4f03-b511-e10ff5d0241f","system_id":"levelo_inurba_marseille","lat":43.308832,"lon":5.371892,"is_reserved":false,"is_disabled":false,"rental_uris":{"android":"levelo://app?vid=ac69515a-2b4c-4f03-b511-e10ff5d0241f","ios":"levelo://app?vid=ac69515a-2b4c-4f03-b511-e10ff5d0241f"},"vehicle_type_id":"4","last_reported":1729462081,"current_range_meters":16000,"station_id":"ce4bguh2rcd13ifvqckg","pricing_plan_id":"cebpf4jnsgd1na2vs0mg"},{"bike_id":"28d92b0f-31be-485b-b607-bb4ae4ef5b5f","system_id":"levelo_inurba_marseille","lat":43.30302,"lon":5.36884,"is_reserved":false,"is_disabled":false,"rental_uris":{"android":"levelo://app?vid=28d92b0f-31be-485b-b607-bb4ae4ef5b5f","ios":"levelo://app?vid=28d92b0f-31be-485b-b607-bb4ae4ef5b5f"},"vehicle_type_id":"4","last_reported":1729462081,"current_range_meters":38800,"station_id":"ce4bgqh2rcd13ifvqc5g","pricing_plan_id":"cebpf4jnsgd1na2vs0mg"},{"bike_id":"836dc57c-4fbc-47b4-b795-4de826fbae87","system_id":"levelo_inurba_marseille","lat":43.28456,"lon":5.35894,"is_reserved":false,"is_disabled":false,"rental_uris":{"android":"levelo://app?vid=836dc57c-4fbc-47b4-b795-4de826fbae87","ios":"levelo://app?vid=836dc57c-4fbc-47b4-b795-4de826fbae87"},"vehicle_type_id":"4","last_reported":1729462081,"current_range_meters":36800,"station_id":"ce4bhah2rcd13ifvqei0","pricing_plan_id":"cebpf4jnsgd1na2vs0mg"},{"bike_id":"12bd3036-1eeb-409e-83a9-f84f7c98205c","system_id":"levelo_inurba_marseille","lat":43.27616,"lon":5.36117,"is_reserved":false,"is_disabled":false,"rental_uris":{"android":"levelo://app?vid=12bd3036-1eeb-409e-83a9-f84f7c98205c","ios":"levelo://app?vid=12bd3036-1eeb-409e-83a9-f84f7c98205c"},"vehicle_type_id":"4","last_reported":1729462081,"current_range_meters":37600,"station_id":"ce4bgj92rcd13ifvqbe0","pricing_plan_id":"cebpf4jnsgd1na2vs0mg"},{"bike_id":"615a7b9b-e8d1-4cb2-b926-2eb364cb53b0","system_id":"levelo_inurba_marseille","lat":43.27839,"lon":5.3921,"is_reserved":false,"is_disabled":false,"rental_uris":{"android":"levelo://app?vid=615a7b9b-e8d1-4cb2-b926-2eb364cb53b0","ios":"levelo://app?vid=615a7b9b-e8d1-4cb2-b926-2eb364cb53b0"},"vehicle_type_id":"4","last_reported":1729462081,"current_range_meters":38800,"station_id":"ce4bhjp2rcd13ifvqga0","pricing_plan_id":"cebpf4jnsgd1na2vs0mg"},{"bike_id":"b3b04b16-142e-41af-b4de-fec206b687f4","system_id":"levelo_inurba_marseille","lat":43.32071,"lon":5.41595,"is_reserved":false,"is_disabled":false,"rental_uris":{"android":"levelo://app?vid=b3b04b16-142e-41af-b4de-fec206b687f4","ios":"levelo://app?vid=b3b04b16-142e-41af-b4de-fec206b687f4"},"vehicle_type_id":"4","last_reported":1729462081,"current_range_meters":22400,"station_id":"ce4bhq92rcd13ifvqhkg","pricing_plan_id":"cebpf4jnsgd1na2vs0mg"},{"bike_id":"b0e24c63-793a-4dc3-99e1-7494a931facb","system_id":"levelo_inurba_marseille","lat":43.28404,"lon":5.37521,"is_reserved":false,"is_disabled":false,"rental_uris":{"android":"levelo://app?vid=b0e24c63-793a-4dc3-99e1-7494a931facb","ios":"levelo://app?vid=b0e24c63-793a-4dc3-99e1-7494a931facb"},"vehicle_type_id":"4","last_reported":1729462081,"current_range_meters":32000,"station_id":"ce4bh412rcd13ifvqds0","pricing_plan_id":"cebpf4jnsgd1na2vs0mg"},{"bike_id":"6ac2a2e1-1b55-4a6c-8aed-bc4ee6d35ef1","system_id":"levelo_inurba_marseille","lat":43.3149,"lon":5.37297,"is_reserved":false,"is_disabled":false,"rental_uris":{"android":"levelo://app?vid=6ac2a2e1-1b55-4a6c-8aed-bc4ee6d35ef1","ios":"levelo://app?vid=6ac2a2e1-1b55-4a6c-8aed-bc4ee6d35ef1"},"vehicle_type_id":"4","last_reported":1729462081,"current_range_meters":27600,"station_id":"ce4bgt12rcd13ifvqcd0","pricing_plan_id":"cebpf4jnsgd1na2vs0mg"},{"bike_id":"eaaa5fbc-63f7-46b3-b6d4-fd6dc86ad4e8","system_id":"levelo_inurba_marseille","lat":43.23955,"lon":5.36642,"is_reserved":false,"is_disabled":false,"rental_uris":{"android":"levelo://app?vid=eaaa5fbc-63f7-46b3-b6d4-fd6dc86ad4e8","ios":"levelo://app?vid=eaaa5fbc-63f7-46b3-b6d4-fd6dc86ad4e8"},"vehicle_type_id":"4","last_reported":1729462081,"current_range_meters":38800,"station_id":"ce4bhi12rcd13ifvqfp0","pricing_plan_id":"cebpf4jnsgd1na2vs0mg"},{"bike_id":"b543e16a-d175-47d9-9d54-4ef74d8e26d1","system_id":"levelo_inurba_marseille","lat":43.28705,"lon":5.39984,"is_reserved":false,"is_disabled":false,"rental_uris":{"android":"levelo://app?vid=b543e16a-d175-47d9-9d54-4ef74d8e26d1","ios":"levelo://app?vid=b543e16a-d175-47d9-9d54-4ef74d8e26d1"},"vehicle_type_id":"4","last_reported":1729462081,"current_range_meters":26000,"station_id":"ce4bho92rcd13ifvqh3g","pricing_plan_id":"cebpf4jnsgd1na2vs0mg"},{"bike_id":"2a8cfce5-93d5-4a5e-832b-148482060dca","system_id":"levelo_inurba_marseille","lat":43.32371,"lon":5.38875,"is_reserved":false,"is_disabled":false,"rental_uris":{"android":"levelo://app?vid=2a8cfce5-93d5-4a5e-832b-148482060dca","ios":"levelo://app?vid=2a8cfce5-93d5-4a5e-832b-148482060dca"},"vehicle_type_id":"4","last_reported":1729462081,"current_range_meters":24800,"station_id":"ce4bhqp2rcd13ifvqhog","pricing_plan_id":"cebpf4jnsgd1na2vs0mg"},{"bike_id":"115e3db0-037e-43f4-8fed-cc520aa5d554","system_id":"levelo_inurba_marseille","lat":43.31359,"lon":5.38495,"is_reserved":false,"is_disabled":false,"rental_uris":{"android":"levelo://app?vid=115e3db0-037e-43f4-8fed-cc520aa5d554","ios":"levelo://app?vid=115e3db0-037e-43f4-8fed-cc520aa5d554"},"vehicle_type_id":"4","last_reported":1729462081,"current_range_meters":22800,"station_id":"ce4bgt92rcd13ifvqcf0","pricing_plan_id":"cebpf4jnsgd1na2vs0mg"},{"bike_id":"b2c1343a-3efb-4af2-8d17-530273fb49cc","system_id":"levelo_inurba_marseille","lat":43.33603,"lon":5.41021,"is_reserved":false,"is_disabled":false,"rental_uris":{"android":"levelo://app?vid=b2c1343a-3efb-4af2-8d17-530273fb49cc","ios":"levelo://app?vid=b2c1343a-3efb-4af2-8d17-530273fb49cc"},"vehicle_type_id":"4","last_reported":1729462081,"current_range_meters":12800,"station_id":"ce4bhqh2rcd13ifvqhmg","pricing_plan_id":"cebpf4jnsgd1na2vs0mg"},{"bike_id":"af95ced9-5b43-46e2-bfd7-64cf80b53320","system_id":"levelo_inurba_marseille","lat":43.31331,"lon":5.39698,"is_reserved":false,"is_disabled":false,"rental_uris":{"android":"levelo://app?vid=af95ced9-5b43-46e2-bfd7-64cf80b53320","ios":"levelo://app?vid=af95ced9-5b43-46e2-bfd7-64cf80b53320"},"vehicle_type_id":"4","last_reported":1729462081,"current_range_meters":30400,"station_id":"ce4bgvp2rcd13ifvqcu0","pricing_plan_id":"cebpf4jnsgd1na2vs0mg"},{"bike_id":"9cb0d92f-3b5d-4604-bbb8-cf8f5daee3e0","system_id":"levelo_inurba_marseille","lat":43.24651,"lon":5.38905,"is_reserved":false,"is_disabled":false,"rental_uris":{"android":"levelo://app?vid=9cb0d92f-3b5d-4604-bbb8-cf8f5daee3e0","ios":"levelo://app?vid=9cb0d92f-3b5d-4604-bbb8-cf8f5daee3e0"},"vehicle_type_id":"4","last_reported":1729462081,"current_range_meters":27600,"station_id":"ce4bhg12rcd13ifvqf60","pricing_plan_id":"cebpf4jnsgd1na2vs0mg"},{"bike_id":"282935c4-43ab-4b54-8fd3-5b03ec7ae879","system_id":"levelo_inurba_marseille","lat":43.28001,"lon":5.40004,"is_reserved":false,"is_disabled":false,"rental_uris":{"android":"levelo://app?vid=282935c4-43ab-4b54-8fd3-5b03ec7ae879","ios":"levelo://app?vid=282935c4-43ab-4b54-8fd3-5b03ec7ae879"},"vehicle_type_id":"4","last_reported":1729462081,"current_range_meters":33600,"station_id":"ce4bho92rcd13ifvqh4g","pricing_plan_id":"cebpf4jnsgd1na2vs0mg"},{"bike_id":"af00502d-b5af-402e-bab9-2b06b78e3677","system_id":"levelo_inurba_marseille","lat":43.31112,"lon":5.37766,"is_reserved":false,"is_disabled":false,"rental_uris":{"android":"levelo://app?vid=af00502d-b5af-402e-bab9-2b06b78e3677","ios":"levelo://app?vid=af00502d-b5af-402e-bab9-2b06b78e3677"},"vehicle_type_id":"4","last_reported":1729462081,"current_range_meters":6800,"station_id":"ce4bgt92rcd13ifvqcg0","pricing_plan_id":"cebpf4jnsgd1na2vs0mg"},{"bike_id":"d863885c-9de8-4c1e-b0fe-4dac0fde31c8","system_id":"levelo_inurba_marseille","lat":43.26194,"lon":5.37451,"is_reserved":false,"is_disabled":false,"rental_uris":{"android":"levelo://app?vid=d863885c-9de8-4c1e-b0fe-4dac0fde31c8","ios":"levelo://app?vid=d863885c-9de8-4c1e-b0fe-4dac0fde31c8"},"vehicle_type_id":"4","last_reported":1729462081,"current_range_meters":36800,"station_id":"ce4bhgp2rcd13ifvqfc0","pricing_plan_id":"cebpf4jnsgd1na2vs0mg"},{"bike_id":"1683d216-d715-408c-8da1-7acbf6f7c18e","system_id":"levelo_inurba_marseille","lat":43.28695,"lon":5.3998,"is_reserved":false,"is_disabled":false,"rental_uris":{"android":"levelo://app?vid=1683d216-d715-408c-8da1-7acbf6f7c18e","ios":"levelo://app?vid=1683d216-d715-408c-8da1-7acbf6f7c18e"},"vehicle_type_id":"4","last_reported":1729462081,"current_range_meters":16400,"station_id":"ce4bho92rcd13ifvqh3g","pricing_plan_id":"cebpf4jnsgd1na2vs0mg"},{"bike_id":"bcf77c3b-4114-4e73-a559-eba8a74a59a2","system_id":"levelo_inurba_marseille","lat":43.29523,"lon":5.39396,"is_reserved":false,"is_disabled":false,"rental_uris":{"android":"levelo://app?vid=bcf77c3b-4114-4e73-a559-eba8a74a59a2","ios":"levelo://app?vid=bcf77c3b-4114-4e73-a559-eba8a74a59a2"},"vehicle_type_id":"4","last_reported":1729462081,"current_range_meters":9200,"station_id":"ce4bh292rcd13ifvqdf0","pricing_plan_id":"cebpf4jnsgd1na2vs0mg"},{"bike_id":"a833175e-1305-4b25-99ef-69e8de6efc8f","system_id":"levelo_inurba_marseille","lat":43.3372,"lon":5.39183,"is_reserved":false,"is_disabled":false,"rental_uris":{"android":"levelo://app?vid=a833175e-1305-4b25-99ef-69e8de6efc8f","ios":"levelo://app?vid=a833175e-1305-4b25-99ef-69e8de6efc8f"},"vehicle_type_id":"4","last_reported":1729462081,"current_range_meters":29600,"station_id":"ce4bhr92rcd13ifvqhsg","pricing_plan_id":"cebpf4jnsgd1na2vs0mg"},{"bike_id":"c45fe0be-d587-41d6-a0e3-3d22e2e72fb2","system_id":"levelo_inurba_marseille","lat":43.30318,"lon":5.40439,"is_reserved":false,"is_disabled":false,"rental_uris":{"android":"levelo://app?vid=c45fe0be-d587-41d6-a0e3-3d22e2e72fb2","ios":"levelo://app?vid=c45fe0be-d587-41d6-a0e3-3d22e2e72fb2"},"vehicle_type_id":"4","last_reported":1729462081,"current_range_meters":8400,"station_id":"ce4bh012rcd13ifvqd10","pricing_plan_id":"cebpf4jnsgd1na2vs0mg"},{"bike_id":"adea3a59-bfe3-4359-9707-8838ade5bc09","system_id":"levelo_inurba_marseille","lat":43.28403,"lon":5.37592,"is_reserved":false,"is_disabled":false,"rental_uris":{"android":"levelo://app?vid=adea3a59-bfe3-4359-9707-8838ade5bc09","ios":"levelo://app?vid=adea3a59-bfe3-4359-9707-8838ade5bc09"},"vehicle_type_id":"4","last_reported":1729462081,"current_range_meters":34800,"station_id":"","pricing_plan_id":"cebpf4jnsgd1na2vs0mg"},{"bike_id":"4cf3e5d8-4f9a-4007-b965-622ecd99339e","system_id":"levelo_inurba_marseille","lat":43.31074,"lon":5.40085,"is_reserved":false,"is_disabled":false,"rental_uris":{"android":"levelo://app?vid=4cf3e5d8-4f9a-4007-b965-622ecd99339e","ios":"levelo://app?vid=4cf3e5d8-4f9a-4007-b965-622ecd99339e"},"vehicle_type_id":"4","last_reported":1729462081,"current_range_meters":6800,"station_id":"","pricing_plan_id":"cebpf4jnsgd1na2vs0mg"},{"bike_id":"3de5f9c6-824d-4fba-b9de-50e1c84c4cf7","system_id":"levelo_inurba_marseille","lat":43.28701,"lon":5.39979,"is_reserved":false,"is_disabled":false,"rental_uris":{"android":"levelo://app?vid=3de5f9c6-824d-4fba-b9de-50e1c84c4cf7","ios":"levelo://app?vid=3de5f9c6-824d-4fba-b9de-50e1c84c4cf7"},"vehicle_type_id":"4","last_reported":1729462081,"current_range_meters":6800,"station_id":"ce4bho92rcd13ifvqh3g","pricing_plan_id":"cebpf4jnsgd1na2vs0mg"},{"bike_id":"9421caad-2551-42be-b07b-74158ccb9f29","system_id":"levelo_inurba_marseille","lat":43.30883,"lon":5.37192,"is_reserved":false,"is_disabled":false,"rental_uris":{"android":"levelo://app?vid=9421caad-2551-42be-b07b-74158ccb9f29","ios":"levelo://app?vid=9421caad-2551-42be-b07b-74158ccb9f29"},"vehicle_type_id":"4","last_reported":1729462081,"current_range_meters":4800,"station_id":"ce4bguh2rcd13ifvqckg","pricing_plan_id":"cebpf4jnsgd1na2vs0mg"},{"bike_id":"eb28c191-e5cc-4e35-8818-10ea0b1447e3","system_id":"levelo_inurba_marseille","lat":43.3032,"lon":5.3691,"is_reserved":false,"is_disabled":false,"rental_uris":{"android":"levelo://app?vid=eb28c191-e5cc-4e35-8818-10ea0b1447e3","ios":"levelo://app?vid=eb28c191-e5cc-4e35-8818-10ea0b1447e3"},"vehicle_type_id":"4","last_reported":1729462081,"current_range_meters":38800,"station_id":"ce4bgqh2rcd13ifvqc5g","pricing_plan_id":"cebpf4jnsgd1na2vs0mg"},{"bike_id":"0e91db8a-6d75-446d-abe7-8c30bd1e270b","system_id":"levelo_inurba_marseille","lat":43.26941,"lon":5.40245,"is_reserved":false,"is_disabled":false,"rental_uris":{"android":"levelo://app?vid=0e91db8a-6d75-446d-abe7-8c30bd1e270b","ios":"levelo://app?vid=0e91db8a-6d75-446d-abe7-8c30bd1e270b"},"vehicle_type_id":"4","last_reported":1729462081,"current_range_meters":4400,"station_id":"cjm6bp8fraef2m0cb0m0","pricing_plan_id":"cebpf4jnsgd1na2vs0mg"},{"bike_id":"2afa9398-54a2-4161-bdfe-0b17240da32e","system_id":"levelo_inurba_marseille","lat":43.28703,"lon":5.39971,"is_reserved":false,"is_disabled":false,"rental_uris":{"android":"levelo://app?vid=2afa9398-54a2-4161-bdfe-0b17240da32e","ios":"levelo://app?vid=2afa9398-54a2-4161-bdfe-0b17240da32e"},"vehicle_type_id":"4","last_reported":1729462081,"current_range_meters":38800,"station_id":"ce4bho92rcd13ifvqh3g","pricing_plan_id":"cebpf4jnsgd1na2vs0mg"},{"bike_id":"8662eb95-69fb-4f96-bc45-6f001019953c","system_id":"levelo_inurba_marseille","lat":43.28456,"lon":5.35881,"is_reserved":false,"is_disabled":false,"rental_uris":{"android":"levelo://app?vid=8662eb95-69fb-4f96-bc45-6f001019953c","ios":"levelo://app?vid=8662eb95-69fb-4f96-bc45-6f001019953c"},"vehicle_type_id":"4","last_reported":1729462081,"current_range_meters":16400,"station_id":"ce4bhah2rcd13ifvqei0","pricing_plan_id":"cebpf4jnsgd1na2vs0mg"},{"bike_id":"6824f93a-0738-4123-a171-d044a8e74f15","system_id":"levelo_inurba_marseille","lat":43.29419,"lon":5.38621,"is_reserved":false,"is_disabled":false,"rental_uris":{"android":"levelo://app?vid=6824f93a-0738-4123-a171-d044a8e74f15","ios":"levelo://app?vid=6824f93a-0738-4123-a171-d044a8e74f15"},"vehicle_type_id":"4","last_reported":1729462081,"current_range_meters":27600,"station_id":"ce4bh2h2rcd13ifvqdh0","pricing_plan_id":"cebpf4jnsgd1na2vs0mg"},{"bike_id":"d78bf987-94d5-4bce-a097-faca6ea1d530","system_id":"levelo_inurba_marseille","lat":43.313498,"lon":5.367058,"is_reserved":false,"is_disabled":false,"rental_uris":{"android":"levelo://app?vid=d78bf987-94d5-4bce-a097-faca6ea1d530","ios":"levelo://app?vid=d78bf987-94d5-4bce-a097-faca6ea1d530"},"vehicle_type_id":"4","last_reported":1729462081,"current_range_meters":38800,"station_id":"ce4bgr92rcd13ifvqc6g","pricing_plan_id":"cebpf4jnsgd1na2vs0mg"},{"bike_id":"44dbe7b3-d52f-4e77-a683-be6a7d7b31b1","system_id":"levelo_inurba_marseille","lat":43.2707,"lon":5.42282,"is_reserved":false,"is_disabled":false,"rental_uris":{"android":"levelo://app?vid=44dbe7b3-d52f-4e77-a683-be6a7d7b31b1","ios":"levelo://app?vid=44dbe7b3-d52f-4e77-a683-be6a7d7b31b1"},"vehicle_type_id":"4","last_reported":1729462081,"current_range_meters":25600,"station_id":"ce4bhk92rcd13ifvqgb0","pricing_plan_id":"cebpf4jnsgd1na2vs0mg"},{"bike_id":"544588ac-9264-4072-9f1a-b69be7d61e62","system_id":"levelo_inurba_marseille","lat":43.28511,"lon":5.37797,"is_reserved":false,"is_disabled":false,"rental_uris":{"android":"levelo://app?vid=544588ac-9264-4072-9f1a-b69be7d61e62","ios":"levelo://app?vid=544588ac-9264-4072-9f1a-b69be7d61e62"},"vehicle_type_id":"4","last_reported":1729462081,"current_range_meters":38800,"station_id":"ce4bha12rcd13ifvqee0","pricing_plan_id":"cebpf4jnsgd1na2vs0mg"},{"bike_id":"931da876-d0ed-4146-82c7-6d132f483c10","system_id":"levelo_inurba_marseille","lat":43.32104,"lon":5.36778,"is_reserved":false,"is_disabled":false,"rental_uris":{"android":"levelo://app?vid=931da876-d0ed-4146-82c7-6d132f483c10","ios":"levelo://app?vid=931da876-d0ed-4146-82c7-6d132f483c10"},"vehicle_type_id":"4","last_reported":1729462081,"current_range_meters":39200,"station_id":"ce4bhrh2rcd13ifvqhug","pricing_plan_id":"cebpf4jnsgd1na2vs0mg"},{"bike_id":"a4705844-1af2-4926-b690-9542bead35e7","system_id":"levelo_inurba_marseille","lat":43.25864,"lon":5.39896,"is_reserved":false,"is_disabled":false,"rental_uris":{"android":"levelo://app?vid=a4705844-1af2-4926-b690-9542bead35e7","ios":"levelo://app?vid=a4705844-1af2-4926-b690-9542bead35e7"},"vehicle_type_id":"4","last_reported":1729462081,"current_range_meters":36000,"station_id":"ce4bhl92rcd13ifvqghg","pricing_plan_id":"cebpf4jnsgd1na2vs0mg"},{"bike_id":"2c262605-a444-40e1-8b27-6a2dcb95d67d","system_id":"levelo_inurba_marseille","lat":43.31757,"lon":5.39011,"is_reserved":false,"is_disabled":false,"rental_uris":{"android":"levelo://app?vid=2c262605-a444-40e1-8b27-6a2dcb95d67d","ios":"levelo://app?vid=2c262605-a444-40e1-8b27-6a2dcb95d67d"},"vehicle_type_id":"4","last_reported":1729462081,"current_range_meters":8800,"station_id":"ce4bhqp2rcd13ifvqhng","pricing_plan_id":"cebpf4jnsgd1na2vs0mg"},{"bike_id":"6eba1120-147e-4bac-b6d9-824faa8df75f","system_id":"levelo_inurba_marseille","lat":43.31331,"lon":5.397,"is_reserved":false,"is_disabled":false,"rental_uris":{"android":"levelo://app?vid=6eba1120-147e-4bac-b6d9-824faa8df75f","ios":"levelo://app?vid=6eba1120-147e-4bac-b6d9-824faa8df75f"},"vehicle_type_id":"4","last_reported":1729462081,"current_range_meters":32400,"station_id":"ce4bgvp2rcd13ifvqcu0","pricing_plan_id":"cebpf4jnsgd1na2vs0mg"},{"bike_id":"69822444-a1c8-4fad-a942-f117269c6331","system_id":"levelo_inurba_marseille","lat":43.287,"lon":5.39989,"is_reserved":false,"is_disabled":false,"rental_uris":{"android":"levelo://app?vid=69822444-a1c8-4fad-a942-f117269c6331","ios":"levelo://app?vid=69822444-a1c8-4fad-a942-f117269c6331"},"vehicle_type_id":"4","last_reported":1729462081,"current_range_meters":35200,"station_id":"ce4bho92rcd13ifvqh3g","pricing_plan_id":"cebpf4jnsgd1na2vs0mg"},{"bike_id":"b122dc9a-f1c9-4551-b961-b2f3ff369bcc","system_id":"levelo_inurba_marseille","lat":43.32335,"lon":5.40619,"is_reserved":false,"is_disabled":false,"rental_uris":{"android":"levelo://app?vid=b122dc9a-f1c9-4551-b961-b2f3ff369bcc","ios":"levelo://app?vid=b122dc9a-f1c9-4551-b961-b2f3ff369bcc"},"vehicle_type_id":"4","last_reported":1729462081,"current_range_meters":7200,"station_id":"ce4bhq92rcd13ifvqhjg","pricing_plan_id":"cebpf4jnsgd1na2vs0mg"},{"bike_id":"b5cd4a32-ddd1-4a1e-9b4c-b2d28ec47ac5","system_id":"levelo_inurba_marseille","lat":43.28105,"lon":5.37844,"is_reserved":false,"is_disabled":false,"rental_uris":{"android":"levelo://app?vid=b5cd4a32-ddd1-4a1e-9b4c-b2d28ec47ac5","ios":"levelo://app?vid=b5cd4a32-ddd1-4a1e-9b4c-b2d28ec47ac5"},"vehicle_type_id":"4","last_reported":1729462081,"current_range_meters":38800,"station_id":"ce4bha12rcd13ifvqee0","pricing_plan_id":"cebpf4jnsgd1na2vs0mg"},{"bike_id":"0c1c7708-b979-4d7e-982d-190e9148b9a6","system_id":"levelo_inurba_marseille","lat":43.2668,"lon":5.38274,"is_reserved":false,"is_disabled":false,"rental_uris":{"android":"levelo://app?vid=0c1c7708-b979-4d7e-982d-190e9148b9a6","ios":"levelo://app?vid=0c1c7708-b979-4d7e-982d-190e9148b9a6"},"vehicle_type_id":"4","last_reported":1729462081,"current_range_meters":37600,"station_id":"ce4bhg92rcd13ifvqf90","pricing_plan_id":"cebpf4jnsgd1na2vs0mg"},{"bike_id":"724c3898-fa40-46b5-a6ca-5091666cabb4","system_id":"levelo_inurba_marseille","lat":43.23197,"lon":5.35556,"is_reserved":false,"is_disabled":false,"rental_uris":{"android":"levelo://app?vid=724c3898-fa40-46b5-a6ca-5091666cabb4","ios":"levelo://app?vid=724c3898-fa40-46b5-a6ca-5091666cabb4"},"vehicle_type_id":"4","last_reported":1729462081,"current_range_meters":38800,"station_id":"ce4bhu92rcd13ifvqi70","pricing_plan_id":"cebpf4jnsgd1na2vs0mg"},{"bike_id":"e7108eda-f21f-45b8-a5d8-0f4dc4ae5dbf","system_id":"levelo_inurba_marseille","lat":43.283645,"lon":5.386296,"is_reserved":false,"is_disabled":false,"rental_uris":{"android":"levelo://app?vid=e7108eda-f21f-45b8-a5d8-0f4dc4ae5dbf","ios":"levelo://app?vid=e7108eda-f21f-45b8-a5d8-0f4dc4ae5dbf"},"vehicle_type_id":"4","last_reported":1729462081,"current_range_meters":32400,"station_id":"ce4bh292rcd13ifvqdg0","pricing_plan_id":"cebpf4jnsgd1na2vs0mg"},{"bike_id":"6b578d3c-d134-48e2-9662-c2d97d97ea58","system_id":"levelo_inurba_marseille","lat":43.3199,"lon":5.38144,"is_reserved":false,"is_disabled":false,"rental_uris":{"android":"levelo://app?vid=6b578d3c-d134-48e2-9662-c2d97d97ea58","ios":"levelo://app?vid=6b578d3c-d134-48e2-9662-c2d97d97ea58"},"vehicle_type_id":"4","last_reported":1729462081,"current_range_meters":37600,"station_id":"ce4bhr12rcd13ifvqhpg","pricing_plan_id":"cebpf4jnsgd1na2vs0mg"},{"bike_id":"60054e84-c649-49a6-8a62-beec3c569f32","system_id":"levelo_inurba_marseille","lat":43.30213,"lon":5.39474,"is_reserved":false,"is_disabled":false,"rental_uris":{"android":"levelo://app?vid=60054e84-c649-49a6-8a62-beec3c569f32","ios":"levelo://app?vid=60054e84-c649-49a6-8a62-beec3c569f32"},"vehicle_type_id":"4","last_reported":1729462081,"current_range_meters":38800,"station_id":"ce4bh0p2rcd13ifvqd70","pricing_plan_id":"cebpf4jnsgd1na2vs0mg"},{"bike_id":"83341eed-4a77-4ec8-936f-2be77f1d3b59","system_id":"levelo_inurba_marseille","lat":43.30205,"lon":5.39466,"is_reserved":false,"is_disabled":false,"rental_uris":{"android":"levelo://app?vid=83341eed-4a77-4ec8-936f-2be77f1d3b59","ios":"levelo://app?vid=83341eed-4a77-4ec8-936f-2be77f1d3b59"},"vehicle_type_id":"4","last_reported":1729462081,"current_range_meters":36000,"station_id":"ce4bh0p2rcd13ifvqd70","pricing_plan_id":"cebpf4jnsgd1na2vs0mg"},{"bike_id":"813f8a68-8dee-42ee-821c-e07a4137856f","system_id":"levelo_inurba_marseille","lat":43.279,"lon":5.37996,"is_reserved":false,"is_disabled":false,"rental_uris":{"android":"levelo://app?vid=813f8a68-8dee-42ee-821c-e07a4137856f","ios":"levelo://app?vid=813f8a68-8dee-42ee-821c-e07a4137856f"},"vehicle_type_id":"4","last_reported":1729462081,"current_range_meters":8800,"station_id":"ce4bhf92rcd13ifvqf50","pricing_plan_id":"cebpf4jnsgd1na2vs0mg"},{"bike_id":"a26636ff-e6a9-465f-8584-c6bc1fb9aacd","system_id":"levelo_inurba_marseille","lat":43.28712,"lon":5.37947,"is_reserved":false,"is_disabled":false,"rental_uris":{"android":"levelo://app?vid=a26636ff-e6a9-465f-8584-c6bc1fb9aacd","ios":"levelo://app?vid=a26636ff-e6a9-465f-8584-c6bc1fb9aacd"},"vehicle_type_id":"4","last_reported":1729462081,"current_range_meters":38800,"station_id":"ce4bh9p2rcd13ifvqec0","pricing_plan_id":"cebpf4jnsgd1na2vs0mg"},{"bike_id":"563e8b6a-b39c-4c88-b0b1-c1b2277ee1d9","system_id":"levelo_inurba_marseille","lat":43.28106,"lon":5.37846,"is_reserved":false,"is_disabled":false,"rental_uris":{"android":"levelo://app?vid=563e8b6a-b39c-4c88-b0b1-c1b2277ee1d9","ios":"levelo://app?vid=563e8b6a-b39c-4c88-b0b1-c1b2277ee1d9"},"vehicle_type_id":"4","last_reported":1729462081,"current_range_meters":22000,"station_id":"ce4bha12rcd13ifvqee0","pricing_plan_id":"cebpf4jnsgd1na2vs0mg"},{"bike_id":"b832e25c-76cc-4154-bf16-84886a46605d","system_id":"levelo_inurba_marseille","lat":43.28702,"lon":5.37388,"is_reserved":false,"is_disabled":false,"rental_uris":{"android":"levelo://app?vid=b832e25c-76cc-4154-bf16-84886a46605d","ios":"levelo://app?vid=b832e25c-76cc-4154-bf16-84886a46605d"},"vehicle_type_id":"4","last_reported":1729462081,"current_range_meters":12800,"station_id":"ce4bh3p2rcd13ifvqdq0","pricing_plan_id":"cebpf4jnsgd1na2vs0mg"},{"bike_id":"f3b18d4c-688e-4e02-9104-7f1d559134af","system_id":"levelo_inurba_marseille","lat":43.32081,"lon":5.36763,"is_reserved":false,"is_disabled":false,"rental_uris":{"android":"levelo://app?vid=f3b18d4c-688e-4e02-9104-7f1d559134af","ios":"levelo://app?vid=f3b18d4c-688e-4e02-9104-7f1d559134af"},"vehicle_type_id":"4","last_reported":1729462081,"current_range_meters":34000,"station_id":"ce4bhrh2rcd13ifvqhug","pricing_plan_id":"cebpf4jnsgd1na2vs0mg"},{"bike_id":"8ee97442-5f9f-4f16-b15a-1e32c3342e44","system_id":"levelo_inurba_marseille","lat":43.28459,"lon":5.35888,"is_reserved":false,"is_disabled":false,"rental_uris":{"android":"levelo://app?vid=8ee97442-5f9f-4f16-b15a-1e32c3342e44","ios":"levelo://app?vid=8ee97442-5f9f-4f16-b15a-1e32c3342e44"},"vehicle_type_id":"4","last_reported":1729462081,"current_range_meters":23200,"station_id":"ce4bhah2rcd13ifvqei0","pricing_plan_id":"cebpf4jnsgd1na2vs0mg"},{"bike_id":"931c2ea1-cfcd-444f-8380-a94475153822","system_id":"levelo_inurba_marseille","lat":43.250793,"lon":5.395216,"is_reserved":false,"is_disabled":false,"rental_uris":{"android":"levelo://app?vid=931c2ea1-cfcd-444f-8380-a94475153822","ios":"levelo://app?vid=931c2ea1-cfcd-444f-8380-a94475153822"},"vehicle_type_id":"4","last_reported":1729462081,"current_range_meters":38000,"station_id":"ce4bhm12rcd13ifvqgkg","pricing_plan_id":"cebpf4jnsgd1na2vs0mg"},{"bike_id":"062124db-4122-4fdd-9a6e-6533ec2073f0","system_id":"levelo_inurba_marseille","lat":43.23183,"lon":5.43728,"is_reserved":false,"is_disabled":false,"rental_uris":{"android":"levelo://app?vid=062124db-4122-4fdd-9a6e-6533ec2073f0","ios":"levelo://app?vid=062124db-4122-4fdd-9a6e-6533ec2073f0"},"vehicle_type_id":"4","last_reported":1729462081,"current_range_meters":10800,"station_id":"ce4bhmp2rcd13ifvqgog","pricing_plan_id":"cebpf4jnsgd1na2vs0mg"},{"bike_id":"cc36c76b-afac-4d90-87ad-c1ef90269180","system_id":"levelo_inurba_marseille","lat":43.25118,"lon":5.40325,"is_reserved":false,"is_disabled":false,"rental_uris":{"android":"levelo://app?vid=cc36c76b-afac-4d90-87ad-c1ef90269180","ios":"levelo://app?vid=cc36c76b-afac-4d90-87ad-c1ef90269180"},"vehicle_type_id":"4","last_reported":1729462081,"current_range_meters":20800,"station_id":"ce4bhlh2rcd13ifvqgig","pricing_plan_id":"cebpf4jnsgd1na2vs0mg"},{"bike_id":"7edb78b4-ac37-4dc6-ba53-f4bc85e5e3ea","system_id":"levelo_inurba_marseille","lat":43.31274,"lon":5.40176,"is_reserved":false,"is_disabled":false,"rental_uris":{"android":"levelo://app?vid=7edb78b4-ac37-4dc6-ba53-f4bc85e5e3ea","ios":"levelo://app?vid=7edb78b4-ac37-4dc6-ba53-f4bc85e5e3ea"},"vehicle_type_id":"4","last_reported":1729462081,"current_range_meters":2800,"station_id":"ce4bh092rcd13ifvqd30","pricing_plan_id":"cebpf4jnsgd1na2vs0mg"},{"bike_id":"f4136449-9460-4030-a711-33bcf5b01ae1","system_id":"levelo_inurba_marseille","lat":43.28668,"lon":5.36359,"is_reserved":false,"is_disabled":false,"rental_uris":{"android":"levelo://app?vid=f4136449-9460-4030-a711-33bcf5b01ae1","ios":"levelo://app?vid=f4136449-9460-4030-a711-33bcf5b01ae1"},"vehicle_type_id":"4","last_reported":1729462081,"current_range_meters":38400,"station_id":"ce4bhah2rcd13ifvqej0","pricing_plan_id":"cebpf4jnsgd1na2vs0mg"},{"bike_id":"3bf2ae1c-49b2-4936-93d0-295eb17bee45","system_id":"levelo_inurba_marseille","lat":43.23063,"lon":5.35488,"is_reserved":false,"is_disabled":false,"rental_uris":{"android":"levelo://app?vid=3bf2ae1c-49b2-4936-93d0-295eb17bee45","ios":"levelo://app?vid=3bf2ae1c-49b2-4936-93d0-295eb17bee45"},"vehicle_type_id":"4","last_reported":1729462081,"current_range_meters":38800,"station_id":"cpo3342slgdg3j2ifvpg","pricing_plan_id":"cebpf4jnsgd1na2vs0mg"},{"bike_id":"a4bf4c37-492b-43fb-8327-d4e18ba08dac","system_id":"levelo_inurba_marseille","lat":43.28259,"lon":5.35054,"is_reserved":false,"is_disabled":false,"rental_uris":{"android":"levelo://app?vid=a4bf4c37-492b-43fb-8327-d4e18ba08dac","ios":"levelo://app?vid=a4bf4c37-492b-43fb-8327-d4e18ba08dac"},"vehicle_type_id":"4","last_reported":1729462081,"current_range_meters":36800,"station_id":"ce4bhbp2rcd13ifvqerg","pricing_plan_id":"cebpf4jnsgd1na2vs0mg"},{"bike_id":"df22b311-39fc-43e3-865f-9c014d6f9eb7","system_id":"levelo_inurba_marseille","lat":43.30327,"lon":5.40433,"is_reserved":false,"is_disabled":false,"rental_uris":{"android":"levelo://app?vid=df22b311-39fc-43e3-865f-9c014d6f9eb7","ios":"levelo://app?vid=df22b311-39fc-43e3-865f-9c014d6f9eb7"},"vehicle_type_id":"4","last_reported":1729462081,"current_range_meters":33200,"station_id":"ce4bh012rcd13ifvqd10","pricing_plan_id":"cebpf4jnsgd1na2vs0mg"},{"bike_id":"ce31eadd-c06c-4cff-b404-1b6cada5e4a8","system_id":"levelo_inurba_marseille","lat":43.28852,"lon":5.39324,"is_reserved":false,"is_disabled":false,"rental_uris":{"android":"levelo://app?vid=ce31eadd-c06c-4cff-b404-1b6cada5e4a8","ios":"levelo://app?vid=ce31eadd-c06c-4cff-b404-1b6cada5e4a8"},"vehicle_type_id":"4","last_reported":1729462081,"current_range_meters":8800,"station_id":"ce4bh2p2rcd13ifvqdi0","pricing_plan_id":"cebpf4jnsgd1na2vs0mg"},{"bike_id":"666e0536-0420-4706-8e49-6450568c8c72","system_id":"levelo_inurba_marseille","lat":43.2857,"lon":5.39504,"is_reserved":false,"is_disabled":false,"rental_uris":{"android":"levelo://app?vid=666e0536-0420-4706-8e49-6450568c8c72","ios":"levelo://app?vid=666e0536-0420-4706-8e49-6450568c8c72"},"vehicle_type_id":"4","last_reported":1729462081,"current_range_meters":38800,"station_id":"ce4bh292rcd13ifvqdg0","pricing_plan_id":"cebpf4jnsgd1na2vs0mg"},{"bike_id":"ea93ad3b-2f63-4f71-9050-1fa0b897a3ad","system_id":"levelo_inurba_marseille","lat":43.27569,"lon":5.38412,"is_reserved":false,"is_disabled":false,"rental_uris":{"android":"levelo://app?vid=ea93ad3b-2f63-4f71-9050-1fa0b897a3ad","ios":"levelo://app?vid=ea93ad3b-2f63-4f71-9050-1fa0b897a3ad"},"vehicle_type_id":"4","last_reported":1729462081,"current_range_meters":18800,"station_id":"ce4bhh92rcd13ifvqfi0","pricing_plan_id":"cebpf4jnsgd1na2vs0mg"},{"bike_id":"72227f72-be48-4182-8659-01fea53b4691","system_id":"levelo_inurba_marseille","lat":43.28363,"lon":5.38639,"is_reserved":false,"is_disabled":false,"rental_uris":{"android":"levelo://app?vid=72227f72-be48-4182-8659-01fea53b4691","ios":"levelo://app?vid=72227f72-be48-4182-8659-01fea53b4691"},"vehicle_type_id":"4","last_reported":1729462081,"current_range_meters":8400,"station_id":"ce4bh492rcd13ifvqdvg","pricing_plan_id":"cebpf4jnsgd1na2vs0mg"},{"bike_id":"684997cb-a782-4cca-a670-ca233ed67c97","system_id":"levelo_inurba_marseille","lat":43.26549,"lon":5.3729,"is_reserved":false,"is_disabled":false,"rental_uris":{"android":"levelo://app?vid=684997cb-a782-4cca-a670-ca233ed67c97","ios":"levelo://app?vid=684997cb-a782-4cca-a670-ca233ed67c97"},"vehicle_type_id":"4","last_reported":1729462081,"current_range_meters":38800,"station_id":"ce4bhg12rcd13ifvqf70","pricing_plan_id":"cebpf4jnsgd1na2vs0mg"},{"bike_id":"62738b42-4d14-4992-87b3-65556f57f437","system_id":"levelo_inurba_marseille","lat":43.24392,"lon":5.37058,"is_reserved":false,"is_disabled":false,"rental_uris":{"android":"levelo://app?vid=62738b42-4d14-4992-87b3-65556f57f437","ios":"levelo://app?vid=62738b42-4d14-4992-87b3-65556f57f437"},"vehicle_type_id":"4","last_reported":1729462081,"current_range_meters":31200,"station_id":"ce4bhhh2rcd13ifvqfk0","pricing_plan_id":"cebpf4jnsgd1na2vs0mg"},{"bike_id":"3208a7db-b2ba-42d5-b984-b06e7befcf38","system_id":"levelo_inurba_marseille","lat":43.31077,"lon":5.38361,"is_reserved":false,"is_disabled":false,"rental_uris":{"android":"levelo://app?vid=3208a7db-b2ba-42d5-b984-b06e7befcf38","ios":"levelo://app?vid=3208a7db-b2ba-42d5-b984-b06e7befcf38"},"vehicle_type_id":"4","last_reported":1729462081,"current_range_meters":39200,"station_id":"ce4bgv92rcd13ifvqcr0","pricing_plan_id":"cebpf4jnsgd1na2vs0mg"},{"bike_id":"1e489223-3fd9-4459-a32e-233b3b82752f","system_id":"levelo_inurba_marseille","lat":43.26944,"lon":5.40259,"is_reserved":false,"is_disabled":false,"rental_uris":{"android":"levelo://app?vid=1e489223-3fd9-4459-a32e-233b3b82752f","ios":"levelo://app?vid=1e489223-3fd9-4459-a32e-233b3b82752f"},"vehicle_type_id":"4","last_reported":1729462081,"current_range_meters":37600,"station_id":"cjm6bp8fraef2m0cb0m0","pricing_plan_id":"cebpf4jnsgd1na2vs0mg"},{"bike_id":"342bb506-8e82-4fe8-8123-2298181f1aa1","system_id":"levelo_inurba_marseille","lat":43.30797,"lon":5.38167,"is_reserved":false,"is_disabled":false,"rental_uris":{"android":"levelo://app?vid=342bb506-8e82-4fe8-8123-2298181f1aa1","ios":"levelo://app?vid=342bb506-8e82-4fe8-8123-2298181f1aa1"},"vehicle_type_id":"4","last_reported":1729462081,"current_range_meters":35200,"station_id":"","pricing_plan_id":"cebpf4jnsgd1na2vs0mg"},{"bike_id":"49f034c7-bcc2-44a1-a2c0-c64d1cae1fa9","system_id":"levelo_inurba_marseille","lat":43.2762,"lon":5.36118,"is_reserved":false,"is_disabled":false,"rental_uris":{"android":"levelo://app?vid=49f034c7-bcc2-44a1-a2c0-c64d1cae1fa9","ios":"levelo://app?vid=49f034c7-bcc2-44a1-a2c0-c64d1cae1fa9"},"vehicle_type_id":"4","last_reported":1729462081,"current_range_meters":38800,"station_id":"ce4bgj92rcd13ifvqbe0","pricing_plan_id":"cebpf4jnsgd1na2vs0mg"},{"bike_id":"fe7a5596-2dd8-4c23-883a-1fe9ebf74f3f","system_id":"levelo_inurba_marseille","lat":43.29054,"lon":5.35906,"is_reserved":false,"is_disabled":false,"rental_uris":{"android":"levelo://app?vid=fe7a5596-2dd8-4c23-883a-1fe9ebf74f3f","ios":"levelo://app?vid=fe7a5596-2dd8-4c23-883a-1fe9ebf74f3f"},"vehicle_type_id":"4","last_reported":1729462081,"current_range_meters":4000,"station_id":"ce4bha92rcd13ifvqeg0","pricing_plan_id":"cebpf4jnsgd1na2vs0mg"},{"bike_id":"0d1237ca-7274-46a6-af1f-0faf0000e3a2","system_id":"levelo_inurba_marseille","lat":43.31176,"lon":5.38723,"is_reserved":false,"is_disabled":false,"rental_uris":{"android":"levelo://app?vid=0d1237ca-7274-46a6-af1f-0faf0000e3a2","ios":"levelo://app?vid=0d1237ca-7274-46a6-af1f-0faf0000e3a2"},"vehicle_type_id":"4","last_reported":1729462081,"current_range_meters":8000,"station_id":"ce4bgv12rcd13ifvqcp0","pricing_plan_id":"cebpf4jnsgd1na2vs0mg"},{"bike_id":"4cf12f06-e712-4a2e-893a-94b02cd6a386","system_id":"levelo_inurba_marseille","lat":43.27992,"lon":5.41658,"is_reserved":false,"is_disabled":false,"rental_uris":{"android":"levelo://app?vid=4cf12f06-e712-4a2e-893a-94b02cd6a386","ios":"levelo://app?vid=4cf12f06-e712-4a2e-893a-94b02cd6a386"},"vehicle_type_id":"4","last_reported":1729462081,"current_range_meters":30800,"station_id":"ce4bho12rcd13ifvqh1g","pricing_plan_id":"cebpf4jnsgd1na2vs0mg"},{"bike_id":"639cf9d6-ef22-4646-a7a7-04edb947934a","system_id":"levelo_inurba_marseille","lat":43.291935,"lon":5.39324,"is_reserved":false,"is_disabled":false,"rental_uris":{"android":"levelo://app?vid=639cf9d6-ef22-4646-a7a7-04edb947934a","ios":"levelo://app?vid=639cf9d6-ef22-4646-a7a7-04edb947934a"},"vehicle_type_id":"4","last_reported":1729462081,"current_range_meters":39200,"station_id":"ce4bh192rcd13ifvqdd0","pricing_plan_id":"cebpf4jnsgd1na2vs0mg"},{"bike_id":"a5f4198d-b10a-4392-bfb6-f2d38359fb82","system_id":"levelo_inurba_marseille","lat":43.23171,"lon":5.4373,"is_reserved":false,"is_disabled":false,"rental_uris":{"android":"levelo://app?vid=a5f4198d-b10a-4392-bfb6-f2d38359fb82","ios":"levelo://app?vid=a5f4198d-b10a-4392-bfb6-f2d38359fb82"},"vehicle_type_id":"4","last_reported":1729462081,"current_range_meters":11200,"station_id":"ce4bhmp2rcd13ifvqgog","pricing_plan_id":"cebpf4jnsgd1na2vs0mg"},{"bike_id":"418bd683-b6c0-4394-90d1-454d0664a04c","system_id":"levelo_inurba_marseille","lat":43.33611,"lon":5.4101,"is_reserved":false,"is_disabled":false,"rental_uris":{"android":"levelo://app?vid=418bd683-b6c0-4394-90d1-454d0664a04c","ios":"levelo://app?vid=418bd683-b6c0-4394-90d1-454d0664a04c"},"vehicle_type_id":"4","last_reported":1729462081,"current_range_meters":38000,"station_id":"ce4bhqh2rcd13ifvqhmg","pricing_plan_id":"cebpf4jnsgd1na2vs0mg"},{"bike_id":"1f300510-7ba6-40d0-9830-6ef332a1f9ab","system_id":"levelo_inurba_marseille","lat":43.30212,"lon":5.39466,"is_reserved":false,"is_disabled":false,"rental_uris":{"android":"levelo://app?vid=1f300510-7ba6-40d0-9830-6ef332a1f9ab","ios":"levelo://app?vid=1f300510-7ba6-40d0-9830-6ef332a1f9ab"},"vehicle_type_id":"4","last_reported":1729462081,"current_range_meters":26000,"station_id":"ce4bh0p2rcd13ifvqd70","pricing_plan_id":"cebpf4jnsgd1na2vs0mg"},{"bike_id":"aaf6b3b0-6fb9-4153-bb37-57af18ec9484","system_id":"levelo_inurba_marseille","lat":43.27671,"lon":5.389,"is_reserved":false,"is_disabled":false,"rental_uris":{"android":"levelo://app?vid=aaf6b3b0-6fb9-4153-bb37-57af18ec9484","ios":"levelo://app?vid=aaf6b3b0-6fb9-4153-bb37-57af18ec9484"},"vehicle_type_id":"4","last_reported":1729462081,"current_range_meters":30000,"station_id":"ce4bhi12rcd13ifvqfo0","pricing_plan_id":"cebpf4jnsgd1na2vs0mg"},{"bike_id":"81054c37-140d-4004-8fbb-6023ca4a93e9","system_id":"levelo_inurba_marseille","lat":43.273695,"lon":5.362526,"is_reserved":false,"is_disabled":false,"rental_uris":{"android":"levelo://app?vid=81054c37-140d-4004-8fbb-6023ca4a93e9","ios":"levelo://app?vid=81054c37-140d-4004-8fbb-6023ca4a93e9"},"vehicle_type_id":"4","last_reported":1729462081,"current_range_meters":38800,"station_id":"ce4bhbh2rcd13ifvqeo0","pricing_plan_id":"cebpf4jnsgd1na2vs0mg"},{"bike_id":"f59a9b71-873d-44f4-891e-235d78219f75","system_id":"levelo_inurba_marseille","lat":43.28703,"lon":5.39971,"is_reserved":false,"is_disabled":false,"rental_uris":{"android":"levelo://app?vid=f59a9b71-873d-44f4-891e-235d78219f75","ios":"levelo://app?vid=f59a9b71-873d-44f4-891e-235d78219f75"},"vehicle_type_id":"4","last_reported":1729462081,"current_range_meters":9200,"station_id":"ce4bho92rcd13ifvqh3g","pricing_plan_id":"cebpf4jnsgd1na2vs0mg"},{"bike_id":"09f6d023-807b-48b8-aeb1-b94eaf409ef5","system_id":"levelo_inurba_marseille","lat":43.308058,"lon":5.381555,"is_reserved":false,"is_disabled":false,"rental_uris":{"android":"levelo://app?vid=09f6d023-807b-48b8-aeb1-b94eaf409ef5","ios":"levelo://app?vid=09f6d023-807b-48b8-aeb1-b94eaf409ef5"},"vehicle_type_id":"4","last_reported":1729462081,"current_range_meters":29600,"station_id":"ce4bgt12rcd13ifvqce0","pricing_plan_id":"cebpf4jnsgd1na2vs0mg"},{"bike_id":"ca670114-50e3-468d-871a-fd7705d3b87f","system_id":"levelo_inurba_marseille","lat":43.29794,"lon":5.38105,"is_reserved":false,"is_disabled":false,"rental_uris":{"android":"levelo://app?vid=ca670114-50e3-468d-871a-fd7705d3b87f","ios":"levelo://app?vid=ca670114-50e3-468d-871a-fd7705d3b87f"},"vehicle_type_id":"4","last_reported":1729462081,"current_range_meters":38800,"station_id":"ce4bgip2rcd13ifvqbb0","pricing_plan_id":"cebpf4jnsgd1na2vs0mg"},{"bike_id":"92d49266-4e64-4017-8b59-4b1b0cb8630d","system_id":"levelo_inurba_marseille","lat":43.31706,"lon":5.37743,"is_reserved":false,"is_disabled":false,"rental_uris":{"android":"levelo://app?vid=92d49266-4e64-4017-8b59-4b1b0cb8630d","ios":"levelo://app?vid=92d49266-4e64-4017-8b59-4b1b0cb8630d"},"vehicle_type_id":"4","last_reported":1729462081,"current_range_meters":39200,"station_id":"ce4bgth2rcd13ifvqch0","pricing_plan_id":"cebpf4jnsgd1na2vs0mg"},{"bike_id":"ca9652e1-b360-4039-a82c-ba9272ccce60","system_id":"levelo_inurba_marseille","lat":43.31757,"lon":5.3902,"is_reserved":false,"is_disabled":false,"rental_uris":{"android":"levelo://app?vid=ca9652e1-b360-4039-a82c-ba9272ccce60","ios":"levelo://app?vid=ca9652e1-b360-4039-a82c-ba9272ccce60"},"vehicle_type_id":"4","last_reported":1729462081,"current_range_meters":36400,"station_id":"ce4bhqp2rcd13ifvqhng","pricing_plan_id":"cebpf4jnsgd1na2vs0mg"},{"bike_id":"6632393e-fe23-49cd-a41c-f0e9399d0364","system_id":"levelo_inurba_marseille","lat":43.28485,"lon":5.38411,"is_reserved":false,"is_disabled":false,"rental_uris":{"android":"levelo://app?vid=6632393e-fe23-49cd-a41c-f0e9399d0364","ios":"levelo://app?vid=6632393e-fe23-49cd-a41c-f0e9399d0364"},"vehicle_type_id":"4","last_reported":1729462081,"current_range_meters":22400,"station_id":"ce4bh512rcd13ifvqe3g","pricing_plan_id":"cebpf4jnsgd1na2vs0mg"},{"bike_id":"4881d9a4-a477-421a-a7fd-7c7ccd2627fd","system_id":"levelo_inurba_marseille","lat":43.24663,"lon":5.38168,"is_reserved":false,"is_disabled":false,"rental_uris":{"android":"levelo://app?vid=4881d9a4-a477-421a-a7fd-7c7ccd2627fd","ios":"levelo://app?vid=4881d9a4-a477-421a-a7fd-7c7ccd2627fd"},"vehicle_type_id":"4","last_reported":1729462081,"current_range_meters":24800,"station_id":"ce4bhih2rcd13ifvqfr0","pricing_plan_id":"cebpf4jnsgd1na2vs0mg"},{"bike_id":"5a77814f-16dc-417e-bf39-fa5d481c24b5","system_id":"levelo_inurba_marseille","lat":43.28001,"lon":5.4166,"is_reserved":false,"is_disabled":false,"rental_uris":{"android":"levelo://app?vid=5a77814f-16dc-417e-bf39-fa5d481c24b5","ios":"levelo://app?vid=5a77814f-16dc-417e-bf39-fa5d481c24b5"},"vehicle_type_id":"4","last_reported":1729462081,"current_range_meters":29600,"station_id":"ce4bho12rcd13ifvqh1g","pricing_plan_id":"cebpf4jnsgd1na2vs0mg"},{"bike_id":"0c76e86e-401c-46ad-a4d9-6a511692ed21","system_id":"levelo_inurba_marseille","lat":43.28728,"lon":5.36075,"is_reserved":false,"is_disabled":false,"rental_uris":{"android":"levelo://app?vid=0c76e86e-401c-46ad-a4d9-6a511692ed21","ios":"levelo://app?vid=0c76e86e-401c-46ad-a4d9-6a511692ed21"},"vehicle_type_id":"4","last_reported":1729462081,"current_range_meters":39200,"station_id":"cki0cbj6b192h4jlfktg","pricing_plan_id":"cebpf4jnsgd1na2vs0mg"},{"bike_id":"8c489d6a-8c5d-4ace-8ce1-8ade01fdb678","system_id":"levelo_inurba_marseille","lat":43.26686,"lon":5.38276,"is_reserved":false,"is_disabled":false,"rental_uris":{"android":"levelo://app?vid=8c489d6a-8c5d-4ace-8ce1-8ade01fdb678","ios":"levelo://app?vid=8c489d6a-8c5d-4ace-8ce1-8ade01fdb678"},"vehicle_type_id":"4","last_reported":1729462081,"current_range_meters":38800,"station_id":"ce4bhg92rcd13ifvqf90","pricing_plan_id":"cebpf4jnsgd1na2vs0mg"},{"bike_id":"9f9a5bdb-4b79-4b43-b005-b6477f61c09a","system_id":"levelo_inurba_marseille","lat":43.28105,"lon":5.37841,"is_reserved":false,"is_disabled":false,"rental_uris":{"android":"levelo://app?vid=9f9a5bdb-4b79-4b43-b005-b6477f61c09a","ios":"levelo://app?vid=9f9a5bdb-4b79-4b43-b005-b6477f61c09a"},"vehicle_type_id":"4","last_reported":1729462081,"current_range_meters":10800,"station_id":"ce4bha12rcd13ifvqee0","pricing_plan_id":"cebpf4jnsgd1na2vs0mg"},{"bike_id":"04f6d470-47ba-45dd-9a23-9e93f4c901f5","system_id":"levelo_inurba_marseille","lat":43.299812,"lon":5.37178,"is_reserved":false,"is_disabled":false,"rental_uris":{"android":"levelo://app?vid=04f6d470-47ba-45dd-9a23-9e93f4c901f5","ios":"levelo://app?vid=04f6d470-47ba-45dd-9a23-9e93f4c901f5"},"vehicle_type_id":"4","last_reported":1729462081,"current_range_meters":19600,"station_id":"ce4bgr92rcd13ifvqc7g","pricing_plan_id":"cebpf4jnsgd1na2vs0mg"},{"bike_id":"28b31e36-cf74-4eea-aa8c-e2b592877b49","system_id":"levelo_inurba_marseille","lat":43.28857,"lon":5.393,"is_reserved":false,"is_disabled":false,"rental_uris":{"android":"levelo://app?vid=28b31e36-cf74-4eea-aa8c-e2b592877b49","ios":"levelo://app?vid=28b31e36-cf74-4eea-aa8c-e2b592877b49"},"vehicle_type_id":"4","last_reported":1729462081,"current_range_meters":16800,"station_id":"ce4bh2p2rcd13ifvqdi0","pricing_plan_id":"cebpf4jnsgd1na2vs0mg"},{"bike_id":"e29e816e-fb6a-4a05-877f-741f2615a7bc","system_id":"levelo_inurba_marseille","lat":43.33724,"lon":5.39186,"is_reserved":false,"is_disabled":false,"rental_uris":{"android":"levelo://app?vid=e29e816e-fb6a-4a05-877f-741f2615a7bc","ios":"levelo://app?vid=e29e816e-fb6a-4a05-877f-741f2615a7bc"},"vehicle_type_id":"4","last_reported":1729462081,"current_range_meters":38800,"station_id":"ce4bhr92rcd13ifvqhsg","pricing_plan_id":"cebpf4jnsgd1na2vs0mg"},{"bike_id":"0ddba076-1a6b-4092-a0a7-ba020d1bfe55","system_id":"levelo_inurba_marseille","lat":43.31225,"lon":5.36849,"is_reserved":false,"is_disabled":false,"rental_uris":{"android":"levelo://app?vid=0ddba076-1a6b-4092-a0a7-ba020d1bfe55","ios":"levelo://app?vid=0ddba076-1a6b-4092-a0a7-ba020d1bfe55"},"vehicle_type_id":"4","last_reported":1729462081,"current_range_meters":38400,"station_id":"ce4bgl92rcd13ifvqbq0","pricing_plan_id":"cebpf4jnsgd1na2vs0mg"},{"bike_id":"2e03f4fe-b964-41c0-b585-2a6fe4a2e513","system_id":"levelo_inurba_marseille","lat":43.31071,"lon":5.40105,"is_reserved":false,"is_disabled":false,"rental_uris":{"android":"levelo://app?vid=2e03f4fe-b964-41c0-b585-2a6fe4a2e513","ios":"levelo://app?vid=2e03f4fe-b964-41c0-b585-2a6fe4a2e513"},"vehicle_type_id":"4","last_reported":1729462081,"current_range_meters":38800,"station_id":"","pricing_plan_id":"cebpf4jnsgd1na2vs0mg"},{"bike_id":"70c63d4e-abbb-4a08-9a63-c8ca9d05919c","system_id":"levelo_inurba_marseille","lat":43.28439,"lon":5.39193,"is_reserved":false,"is_disabled":false,"rental_uris":{"android":"levelo://app?vid=70c63d4e-abbb-4a08-9a63-c8ca9d05919c","ios":"levelo://app?vid=70c63d4e-abbb-4a08-9a63-c8ca9d05919c"},"vehicle_type_id":"4","last_reported":1729462081,"current_range_meters":9600,"station_id":"ce4bhoh2rcd13ifvqh5g","pricing_plan_id":"cebpf4jnsgd1na2vs0mg"},{"bike_id":"330d9e00-72c2-48cb-9f82-64a1aecc264a","system_id":"levelo_inurba_marseille","lat":43.27558,"lon":5.38423,"is_reserved":false,"is_disabled":false,"rental_uris":{"android":"levelo://app?vid=330d9e00-72c2-48cb-9f82-64a1aecc264a","ios":"levelo://app?vid=330d9e00-72c2-48cb-9f82-64a1aecc264a"},"vehicle_type_id":"4","last_reported":1729462081,"current_range_meters":32000,"station_id":"ce4bhh92rcd13ifvqfi0","pricing_plan_id":"cebpf4jnsgd1na2vs0mg"},{"bike_id":"09c742b9-67aa-44f1-b833-7cf3d42021e8","system_id":"levelo_inurba_marseille","lat":43.2558,"lon":5.38235,"is_reserved":false,"is_disabled":false,"rental_uris":{"android":"levelo://app?vid=09c742b9-67aa-44f1-b833-7cf3d42021e8","ios":"levelo://app?vid=09c742b9-67aa-44f1-b833-7cf3d42021e8"},"vehicle_type_id":"4","last_reported":1729462081,"current_range_meters":36000,"station_id":"ce4bhih2rcd13ifvqfs0","pricing_plan_id":"cebpf4jnsgd1na2vs0mg"},{"bike_id":"1f29e96e-683e-467b-bb06-4f743ae4dcdf","system_id":"levelo_inurba_marseille","lat":43.31491,"lon":5.37296,"is_reserved":false,"is_disabled":false,"rental_uris":{"android":"levelo://app?vid=1f29e96e-683e-467b-bb06-4f743ae4dcdf","ios":"levelo://app?vid=1f29e96e-683e-467b-bb06-4f743ae4dcdf"},"vehicle_type_id":"4","last_reported":1729462081,"current_range_meters":38000,"station_id":"ce4bgt12rcd13ifvqcd0","pricing_plan_id":"cebpf4jnsgd1na2vs0mg"},{"bike_id":"5fac0cab-b534-4c4c-9546-1f735202e4db","system_id":"levelo_inurba_marseille","lat":43.28041,"lon":5.36945,"is_reserved":false,"is_disabled":false,"rental_uris":{"android":"levelo://app?vid=5fac0cab-b534-4c4c-9546-1f735202e4db","ios":"levelo://app?vid=5fac0cab-b534-4c4c-9546-1f735202e4db"},"vehicle_type_id":"4","last_reported":1729462081,"current_range_meters":32000,"station_id":"ce4bha12rcd13ifvqef0","pricing_plan_id":"cebpf4jnsgd1na2vs0mg"},{"bike_id":"78054b3e-f16a-4a39-ad3b-ecb9b322513d","system_id":"levelo_inurba_marseille","lat":43.2737,"lon":5.3626,"is_reserved":false,"is_disabled":false,"rental_uris":{"android":"levelo://app?vid=78054b3e-f16a-4a39-ad3b-ecb9b322513d","ios":"levelo://app?vid=78054b3e-f16a-4a39-ad3b-ecb9b322513d"},"vehicle_type_id":"4","last_reported":1729462081,"current_range_meters":38800,"station_id":"ce4bhbh2rcd13ifvqeo0","pricing_plan_id":"cebpf4jnsgd1na2vs0mg"},{"bike_id":"fc289f90-5c3d-40c6-8307-2ff56067ff59","system_id":"levelo_inurba_marseille","lat":43.292764,"lon":5.368494,"is_reserved":false,"is_disabled":false,"rental_uris":{"android":"levelo://app?vid=fc289f90-5c3d-40c6-8307-2ff56067ff59","ios":"levelo://app?vid=fc289f90-5c3d-40c6-8307-2ff56067ff59"},"vehicle_type_id":"4","last_reported":1729462081,"current_range_meters":22800,"station_id":"ce4bhbp2rcd13ifvqesg","pricing_plan_id":"cebpf4jnsgd1na2vs0mg"},{"bike_id":"a4988356-8192-430a-8cc6-0d4d4957e38b","system_id":"levelo_inurba_marseille","lat":43.30797,"lon":5.43522,"is_reserved":false,"is_disabled":false,"rental_uris":{"android":"levelo://app?vid=a4988356-8192-430a-8cc6-0d4d4957e38b","ios":"levelo://app?vid=a4988356-8192-430a-8cc6-0d4d4957e38b"},"vehicle_type_id":"4","last_reported":1729462081,"current_range_meters":19600,"station_id":"ce4bhph2rcd13ifvqheg","pricing_plan_id":"cebpf4jnsgd1na2vs0mg"},{"bike_id":"304e116c-22b7-4fec-8df3-5316f5ceb0f4","system_id":"levelo_inurba_marseille","lat":43.33726,"lon":5.39182,"is_reserved":false,"is_disabled":false,"rental_uris":{"android":"levelo://app?vid=304e116c-22b7-4fec-8df3-5316f5ceb0f4","ios":"levelo://app?vid=304e116c-22b7-4fec-8df3-5316f5ceb0f4"},"vehicle_type_id":"4","last_reported":1729462081,"current_range_meters":38800,"station_id":"ce4bhr92rcd13ifvqhsg","pricing_plan_id":"cebpf4jnsgd1na2vs0mg"},{"bike_id":"54e71ec7-7ea0-4c56-aff1-902c4c15f330","system_id":"levelo_inurba_marseille","lat":43.31488,"lon":5.37296,"is_reserved":false,"is_disabled":false,"rental_uris":{"android":"levelo://app?vid=54e71ec7-7ea0-4c56-aff1-902c4c15f330","ios":"levelo://app?vid=54e71ec7-7ea0-4c56-aff1-902c4c15f330"},"vehicle_type_id":"4","last_reported":1729462081,"current_range_meters":38800,"station_id":"ce4bgt12rcd13ifvqcd0","pricing_plan_id":"cebpf4jnsgd1na2vs0mg"},{"bike_id":"35444db1-d71f-4df4-b56c-cd1c0619e499","system_id":"levelo_inurba_marseille","lat":43.28456,"lon":5.35886,"is_reserved":false,"is_disabled":false,"rental_uris":{"android":"levelo://app?vid=35444db1-d71f-4df4-b56c-cd1c0619e499","ios":"levelo://app?vid=35444db1-d71f-4df4-b56c-cd1c0619e499"},"vehicle_type_id":"4","last_reported":1729462081,"current_range_meters":39200,"station_id":"ce4bhah2rcd13ifvqei0","pricing_plan_id":"cebpf4jnsgd1na2vs0mg"},{"bike_id":"f1d0119e-3fe3-411c-ac9b-3f7a6a4fa987","system_id":"levelo_inurba_marseille","lat":43.33603,"lon":5.41023,"is_reserved":false,"is_disabled":false,"rental_uris":{"android":"levelo://app?vid=f1d0119e-3fe3-411c-ac9b-3f7a6a4fa987","ios":"levelo://app?vid=f1d0119e-3fe3-411c-ac9b-3f7a6a4fa987"},"vehicle_type_id":"4","last_reported":1729462081,"current_range_meters":38800,"station_id":"ce4bhqh2rcd13ifvqhmg","pricing_plan_id":"cebpf4jnsgd1na2vs0mg"},