{"last_updated":1767291425,"ttl":60,"version":"2.2","data":{"bikes":[{"bike_id":"4f3e209d-9fb1-4ec7-a826-a14fff8594a9","system_id":"levelo_inurba_marseille","lat":43.296,"lon":5.38106,"is_reserved":false,"is_disabled":false,"rental_uris":{"android":"levelo://app?vid=4f3e209d-9fb1-4ec7-a826-a14fff8594a9","ios":"levelo://app?vid=4f3e209d-9fb1-4ec7-a826-a14fff8594a9"},"vehicle_type_id":"4","last_reported":1767291426,"current_range_meters":2800,"station_id":"ce4bgl12rcd13ifvqbo0","pricing_plan_id":"cebpf4jnsgd1na2vs0mg"},{"bike_id":"525b9930-0e12-477a-b45a-9a1630f38e2b","system_id":"levelo_inurba_marseille","lat":43.295205,"lon":5.375001,"is_reserved":false,"is_disabled":false,"rental_uris":{"android":"levelo://app?vid=525b9930-0e12-477a-b45a-9a1630f38e2b","ios":"levelo://app?vid=525b9930-0e12-477a-b45a-9a1630f38e2b"},"vehicle_type_id":"4","last_reported":1767291426,"current_range_meters":2800,"station_id":"ce4bgkp2rcd13ifvqbmg","pricing_plan_id":"cebpf4jnsgd1na2vs0mg"},{"bike_id":"bd794269-3fb9-46a4-bf7b-c9a751f722b3","system_id":"levelo_inurba_marseille","lat":43.27961,"lon":5.3875,"is_reserved":false,"is_disabled":false,"rental_uris":{"android":"levelo://app?vid=bd794269-3fb9-46a4-bf7b-c9a751f722b3","ios":"levelo://app?vid=bd794269-3fb9-46a4-bf7b-c9a751f722b3"},"vehicle_type_id":"4","last_reported":1767291426,"current_range_meters":2800,"station_id":"ce4bhg12rcd13ifvqf80","pricing_plan_id":"cebpf4jnsgd1na2vs0mg"},{"bike_id":"65bcb155-d26f-40af-9b01-2b9a18976370","system_id":"levelo_inurba_marseille","lat":43.29984,"lon":5.37161,"is_reserved":false,"is_disabled":false,"rental_uris":{"android":"levelo://app?vid=65bcb155-d26f-40af-9b01-2b9a18976370","ios":"levelo://app?vid=65bcb155-d26f-40af-9b01-2b9a18976370"},"vehicle_type_id":"4","last_reported":1767291426,"current_range_meters":2800,"station_id":"ce4bgr92rcd13ifvqc7g","pricing_plan_id":"cebpf4jnsgd1na2vs0mg"},{"bike_id":"d9958a1d-2d5c-4160-83ef-ffd730301151","system_id":"levelo_inurba_marseille","lat":43.26215,"lon":5.3744,"is_reserved":false,"is_disabled":false,"rental_uris":{"android":"levelo://app?vid=d9958a1d-2d5c-4160-83ef-ffd730301151","ios":"levelo://app?vid=d9958a1d-2d5c-4160-83ef-ffd730301151"},"vehicle_type_id":"4","last_reported":1767291426,"current_range_meters":2800,"station_id":"ce4bhgp2rcd13ifvqfc0","pricing_plan_id":"cebpf4jnsgd1na2vs0mg"},{"bike_id":"f286cb25-e980-4c39-bc53-80307cc66fbd","system_id":"levelo_inurba_marseille","lat":43.28461,"lon":5.35878,"is_reserved":false,"is_disabled":false,"rental_uris":{"android":"levelo://app?vid=f286cb25-e980-4c39-bc53-80307cc66fbd","ios":"levelo://app?vid=f286cb25-e980-4c39-bc53-80307cc66fbd"},"vehicle_type_id":"4","last_reported":1767291426,"current_range_meters":2800,"station_id":"ce4bhah2rcd13ifvqei0","pricing_plan_id":"cebpf4jnsgd1na2vs0mg"},{"bike_id":"2350a43b-549f-425a-a2e1-d8a5699a4cb1","system_id":"levelo_inurba_marseille","lat":43.30809,"lon":5.37637,"is_reserved":false,"is_disabled":false,"rental_uris":{"android":"levelo://app?vid=2350a43b-549f-425a-a2e1-d8a5699a4cb1","ios":"levelo://app?vid=2350a43b-549f-425a-a2e1-d8a5699a4cb1"},"vehicle_type_id":"4","last_reported":1767291426,"current_range_meters":3200,"station_id":"ce4bgv92rcd13ifvqcq0","pricing_plan_id":"cebpf4jnsgd1na2vs0mg"},{"bike_id":"fd70642a-c834-4fd2-9b22-49f45ba82646","system_id":"levelo_inurba_marseille","lat":43.30607,"lon":5.37234,"is_reserved":false,"is_disabled":false,"rental_uris":{"android":"levelo://app?vid=fd70642a-c834-4fd2-9b22-49f45ba82646","ios":"levelo://app?vid=fd70642a-c834-4fd2-9b22-49f45ba82646"},"vehicle_type_id":"4","last_reported":1767291426,"current_range_meters":3200,"station_id":"ce4bgqh2rcd13ifvqc4g","pricing_plan_id":"cebpf4jnsgd1na2vs0mg"},{"bike_id":"53f9191b-e003-49c7-90f1-f6c658d01ab0","system_id":"levelo_inurba_marseille","lat":43.290007,"lon":5.356173,"is_reserved":false,"is_disabled":false,"rental_uris":{"android":"levelo://app?vid=53f9191b-e003-49c7-90f1-f6c658d01ab0","ios":"levelo://app?vid=53f9191b-e003-49c7-90f1-f6c658d01ab0"},"vehicle_type_id":"4","last_reported":1767291426,"current_range_meters":3200,"station_id":"","pricing_plan_id":"cebpf4jnsgd1na2vs0mg"},{"bike_id":"15d4b3a9-2a0c-4e9d-a44e-678b77ebd8cf","system_id":"levelo_inurba_marseille","lat":43.30305,"lon":5.36887,"is_reserved":false,"is_disabled":false,"rental_uris":{"android":"levelo://app?vid=15d4b3a9-2a0c-4e9d-a44e-678b77ebd8cf","ios":"levelo://app?vid=15d4b3a9-2a0c-4e9d-a44e-678b77ebd8cf"},"vehicle_type_id":"4","last_reported":1767291426,"current_range_meters":3200,"station_id":"ce4bgqh2rcd13ifvqc5g","pricing_plan_id":"cebpf4jnsgd1na2vs0mg"},{"bike_id":"12913337-040c-4cd7-a523-928eb3e610c8","system_id":"levelo_inurba_marseille","lat":43.29579,"lon":5.39969,"is_reserved":false,"is_disabled":false,"rental_uris":{"android":"levelo://app?vid=12913337-040c-4cd7-a523-928eb3e610c8","ios":"levelo://app?vid=12913337-040c-4cd7-a523-928eb3e610c8"},"vehicle_type_id":"4","last_reported":1767291426,"current_range_meters":3200,"station_id":"ce4bh312rcd13ifvqdj0","pricing_plan_id":"cebpf4jnsgd1na2vs0mg"},{"bike_id":"94ee93ac-87a7-4ee7-b8d4-f9e39b961f5a","system_id":"levelo_inurba_marseille","lat":43.30298,"lon":5.3922,"is_reserved":false,"is_disabled":false,"rental_uris":{"android":"levelo://app?vid=94ee93ac-87a7-4ee7-b8d4-f9e39b961f5a","ios":"levelo://app?vid=94ee93ac-87a7-4ee7-b8d4-f9e39b961f5a"},"vehicle_type_id":"4","last_reported":1767291426,"current_range_meters":3600,"station_id":"ce4bgkh2rcd13ifvqbk0","pricing_plan_id":"cebpf4jnsgd1na2vs0mg"},{"bike_id":"06b0c70a-561f-4d8b-ad9f-f3162b9a9a82","system_id":"levelo_inurba_marseille","lat":43.30541,"lon":5.36692,"is_reserved":false,"is_disabled":false,"rental_uris":{"android":"levelo://app?vid=06b0c70a-561f-4d8b-ad9f-f3162b9a9a82","ios":"levelo://app?vid=06b0c70a-561f-4d8b-ad9f-f3162b9a9a82"},"vehicle_type_id":"4","last_reported":1767291426,"current_range_meters":3600,"station_id":"ce4bgrp2rcd13ifvqc9g","pricing_plan_id":"cebpf4jnsgd1na2vs0mg"},{"bike_id":"dc9feb7e-742c-4c15-83bb-7db4fa4848d4","system_id":"levelo_inurba_marseille","lat":43.3226,"lon":5.38956,"is_reserved":false,"is_disabled":false,"rental_uris":{"android":"levelo://app?vid=dc9feb7e-742c-4c15-83bb-7db4fa4848d4","ios":"levelo://app?vid=dc9feb7e-742c-4c15-83bb-7db4fa4848d4"},"vehicle_type_id":"4","last_reported":1767291426,"current_range_meters":3600,"station_id":"","pricing_plan_id":"cebpf4jnsgd1na2vs0mg"},{"bike_id":"2cff0033-8f1a-46ec-aa02-f241834f2618","system_id":"levelo_inurba_marseille","lat":43.32,"lon":5.38158,"is_reserved":false,"is_disabled":false,"rental_uris":{"android":"levelo://app?vid=2cff0033-8f1a-46ec-aa02-f241834f2618","ios":"levelo://app?vid=2cff0033-8f1a-46ec-aa02-f241834f2618"},"vehicle_type_id":"4","last_reported":1767291426,"current_range_meters":3600,"station_id":"ce4bhr12rcd13ifvqhpg","pricing_plan_id":"cebpf4jnsgd1na2vs0mg"},{"bike_id":"54f6ec4b-5c5e-4e7c-a924-d8d70c9ee744","system_id":"levelo_inurba_marseille","lat":43.30359,"lon":5.39753,"is_reserved":false,"is_disabled":false,"rental_uris":{"android":"levelo://app?vid=54f6ec4b-5c5e-4e7c-a924-d8d70c9ee744","ios":"levelo://app?vid=54f6ec4b-5c5e-4e7c-a924-d8d70c9ee744"},"vehicle_type_id":"4","last_reported":1767291426,"current_range_meters":3600,"station_id":"","pricing_plan_id":"cebpf4jnsgd1na2vs0mg"},{"bike_id":"8b03412a-810b-4a8f-91ea-45d30d05d0ee","system_id":"levelo_inurba_marseille","lat":43.231302,"lon":5.39978,"is_reserved":false,"is_disabled":false,"rental_uris":{"android":"levelo://app?vid=8b03412a-810b-4a8f-91ea-45d30d05d0ee","ios":"levelo://app?vid=8b03412a-810b-4a8f-91ea-45d30d05d0ee"},"vehicle_type_id":"4","last_reported":1767291426,"current_range_meters":3600,"station_id":"","pricing_plan_id":"cebpf4jnsgd1na2vs0mg"},{"bike_id":"a274e1f3-90e8-4548-9a2a-4f53c59abc4e","system_id":"levelo_inurba_marseille","lat":43.31705,"lon":5.40463,"is_reserved":false,"is_disabled":true,"rental_uris":{"android":"levelo://app?vid=a274e1f3-90e8-4548-9a2a-4f53c59abc4e","ios":"levelo://app?vid=a274e1f3-90e8-4548-9a2a-4f53c59abc4e"},"vehicle_type_id":"4","last_reported":1767291426,"current_range_meters":3600,"station_id":"ce4bh012rcd13ifvqd00","pricing_plan_id":"cebpf4jnsgd1na2vs0mg"},{"bike_id":"b9f5bb9a-d9aa-4714-a9ae-ceaed3ab533e","system_id":"levelo_inurba_marseille","lat":43.29643,"lon":5.38045,"is_reserved":false,"is_disabled":false,"rental_uris":{"android":"levelo://app?vid=b9f5bb9a-d9aa-4714-a9ae-ceaed3ab533e","ios":"levelo://app?vid=b9f5bb9a-d9aa-4714-a9ae-ceaed3ab533e"},"vehicle_type_id":"4","last_reported":1767291426,"current_range_meters":3600,"station_id":"","pricing_plan_id":"cebpf4jnsgd1na2vs0mg"},{"bike_id":"efd33062-2cef-445f-af98-648f578e9c2a","system_id":"levelo_inurba_marseille","lat":43.32615,"lon":5.41987,"is_reserved":false,"is_disabled":false,"rental_uris":{"android":"levelo://app?vid=efd33062-2cef-445f-af98-648f578e9c2a","ios":"levelo://app?vid=efd33062-2cef-445f-af98-648f578e9c2a"},"vehicle_type_id":"4","last_reported":1767291426,"current_range_meters":4000,"station_id":"","pricing_plan_id":"cebpf4jnsgd1na2vs0mg"},{"bike_id":"9cf20d61-ddfa-467e-90ea-ddf7859b95f0","system_id":"levelo_inurba_marseille","lat":43.30363,"lon":5.42477,"is_reserved":false,"is_disabled":false,"rental_uris":{"android":"levelo://app?vid=9cf20d61-ddfa-467e-90ea-ddf7859b95f0","ios":"levelo://app?vid=9cf20d61-ddfa-467e-90ea-ddf7859b95f0"},"vehicle_type_id":"4","last_reported":1767291426,"current_range_meters":4000,"station_id":"ce4bhoh2rcd13ifvqh6g","pricing_plan_id":"cebpf4jnsgd1na2vs0mg"},{"bike_id":"4504234f-d7bf-4d16-baad-bb2d051b7c49","system_id":"levelo_inurba_marseille","lat":43.297109,"lon":5.376967,"is_reserved":false,"is_disabled":false,"rental_uris":{"android":"levelo://app?vid=4504234f-d7bf-4d16-baad-bb2d051b7c49","ios":"levelo://app?vid=4504234f-d7bf-4d16-baad-bb2d051b7c49"},"vehicle_type_id":"4","last_reported":1767291426,"current_range_meters":4000,"station_id":"ce4bgkh2rcd13ifvqbl0","pricing_plan_id":"cebpf4jnsgd1na2vs0mg"},{"bike_id":"dce28840-1b59-4930-917a-12d88071d00f","system_id":"levelo_inurba_marseille","lat":43.28545,"lon":5.44102,"is_reserved":false,"is_disabled":false,"rental_uris":{"android":"levelo://app?vid=dce28840-1b59-4930-917a-12d88071d00f","ios":"levelo://app?vid=dce28840-1b59-4930-917a-12d88071d00f"},"vehicle_type_id":"4","last_reported":1767291426,"current_range_meters":4000,"station_id":"st_d3j3df2ikq2c7380ej80","pricing_plan_id":"cebpf4jnsgd1na2vs0mg"},{"bike_id":"4a19781c-8ab8-4459-a32c-4a5bdcabf7e6","system_id":"levelo_inurba_marseille","lat":43.21746,"lon":5.34604,"is_reserved":false,"is_disabled":false,"rental_uris":{"android":"levelo://app?vid=4a19781c-8ab8-4459-a32c-4a5bdcabf7e6","ios":"levelo://app?vid=4a19781c-8ab8-4459-a32c-4a5bdcabf7e6"},"vehicle_type_id":"4","last_reported":1767291426,"current_range_meters":4000,"station_id":"st_cvj6r9ubvosntc0bgbag","pricing_plan_id":"cebpf4jnsgd1na2vs0mg"},{"bike_id":"e947d07e-a895-48d3-9bf1-fbd7a22aeb68","system_id":"levelo_inurba_marseille","lat":43.30427,"lon":5.39762,"is_reserved":false,"is_disabled":false,"rental_uris":{"android":"levelo://app?vid=e947d07e-a895-48d3-9bf1-fbd7a22aeb68","ios":"levelo://app?vid=e947d07e-a895-48d3-9bf1-fbd7a22aeb68"},"vehicle_type_id":"4","last_reported":1767291426,"current_range_meters":4000,"station_id":"ce4bh092rcd13ifvqd20","pricing_plan_id":"cebpf4jnsgd1na2vs0mg"},{"bike_id":"681c5b2e-33f5-44fa-b4bf-54d0eaea0b39","system_id":"levelo_inurba_marseille","lat":43.29387,"lon":5.3805,"is_reserved":false,"is_disabled":false,"rental_uris":{"android":"levelo://app?vid=681c5b2e-33f5-44fa-b4bf-54d0eaea0b39","ios":"levelo://app?vid=681c5b2e-33f5-44fa-b4bf-54d0eaea0b39"},"vehicle_type_id":"4","last_reported":1767291426,"current_range_meters":4400,"station_id":"","pricing_plan_id":"cebpf4jnsgd1na2vs0mg"},{"bike_id":"1485075b-1bb5-48d2-b0e5-402379126b05","system_id":"levelo_inurba_marseille","lat":43.29868,"lon":5.38089,"is_reserved":false,"is_disabled":false,"rental_uris":{"android":"levelo://app?vid=1485075b-1bb5-48d2-b0e5-402379126b05","ios":"levelo://app?vid=1485075b-1bb5-48d2-b0e5-402379126b05"},"vehicle_type_id":"4","last_reported":1767291426,"current_range_meters":4400,"station_id":"","pricing_plan_id":"cebpf4jnsgd1na2vs0mg"},{"bike_id":"149a94e7-8065-4440-a1ab-1ba416a8f181","system_id":"levelo_inurba_marseille","lat":43.28483,"lon":5.48395,"is_reserved":false,"is_disabled":false,"rental_uris":{"android":"levelo://app?vid=149a94e7-8065-4440-a1ab-1ba416a8f181","ios":"levelo://app?vid=149a94e7-8065-4440-a1ab-1ba416a8f181"},"vehicle_type_id":"4","last_reported":1767291426,"current_range_meters":4400,"station_id":"","pricing_plan_id":"cebpf4jnsgd1na2vs0mg"},{"bike_id":"b7440949-7f22-4301-98e2-5f9623b5a9cd","system_id":"levelo_inurba_marseille","lat":43.299731,"lon":5.37179,"is_reserved":false,"is_disabled":false,"rental_uris":{"android":"levelo://app?vid=b7440949-7f22-4301-98e2-5f9623b5a9cd","ios":"levelo://app?vid=b7440949-7f22-4301-98e2-5f9623b5a9cd"},"vehicle_type_id":"4","last_reported":1767291426,"current_range_meters":4400,"station_id":"ce4bgr92rcd13ifvqc7g","pricing_plan_id":"cebpf4jnsgd1na2vs0mg"},{"bike_id":"46f0ec81-32bc-442c-a431-ee89909da882","system_id":"levelo_inurba_marseille","lat":43.297065,"lon":5.36608,"is_reserved":false,"is_disabled":false,"rental_uris":{"android":"levelo://app?vid=46f0ec81-32bc-442c-a431-ee89909da882","ios":"levelo://app?vid=46f0ec81-32bc-442c-a431-ee89909da882"},"vehicle_type_id":"4","last_reported":1767291426,"current_range_meters":4400,"station_id":"ce4bgn12rcd13ifvqbt0","pricing_plan_id":"cebpf4jnsgd1na2vs0mg"},{"bike_id":"9965e254-3ed1-4de1-bf61-0390d3f08dfa","system_id":"levelo_inurba_marseille","lat":43.3013,"lon":5.38776,"is_reserved":false,"is_disabled":false,"rental_uris":{"android":"levelo://app?vid=9965e254-3ed1-4de1-bf61-0390d3f08dfa","ios":"levelo://app?vid=9965e254-3ed1-4de1-bf61-0390d3f08dfa"},"vehicle_type_id":"4","last_reported":1767291426,"current_range_meters":4400,"station_id":"ce4bghh2rcd13ifvqb60","pricing_plan_id":"cebpf4jnsgd1na2vs0mg"},{"bike_id":"9a2077a2-cebc-468c-82f9-fecda68a9ec3","system_id":"levelo_inurba_marseille","lat":43.2949,"lon":5.40896,"is_reserved":false,"is_disabled":false,"rental_uris":{"android":"levelo://app?vid=9a2077a2-cebc-468c-82f9-fecda68a9ec3","ios":"levelo://app?vid=9a2077a2-cebc-468c-82f9-fecda68a9ec3"},"vehicle_type_id":"4","last_reported":1767291426,"current_range_meters":4400,"station_id":"","pricing_plan_id":"cebpf4jnsgd1na2vs0mg"},{"bike_id":"5265762e-9468-4f8e-963d-e1d647f4d72d","system_id":"levelo_inurba_marseille","lat":43.337444,"lon":5.374475,"is_reserved":false,"is_disabled":false,"rental_uris":{"android":"levelo://app?vid=5265762e-9468-4f8e-963d-e1d647f4d72d","ios":"levelo://app?vid=5265762e-9468-4f8e-963d-e1d647f4d72d"},"vehicle_type_id":"4","last_reported":1767291426,"current_range_meters":4800,"station_id":"","pricing_plan_id":"cebpf4jnsgd1na2vs0mg"},{"bike_id":"5ac76dd4-8341-4c0d-b496-0898a4870a5a","system_id":"levelo_inurba_marseille","lat":43.2941,"lon":5.4133,"is_reserved":false,"is_disabled":false,"rental_uris":{"android":"levelo://app?vid=5ac76dd4-8341-4c0d-b496-0898a4870a5a","ios":"levelo://app?vid=5ac76dd4-8341-4c0d-b496-0898a4870a5a"},"vehicle_type_id":"4","last_reported":1767291426,"current_range_meters":4800,"station_id":"","pricing_plan_id":"cebpf4jnsgd1na2vs0mg"},{"bike_id":"e93c83d5-bafc-41ab-b80f-422d8d8d6d2a","system_id":"levelo_inurba_marseille","lat":43.26848,"lon":5.40078,"is_reserved":false,"is_disabled":false,"rental_uris":{"android":"levelo://app?vid=e93c83d5-bafc-41ab-b80f-422d8d8d6d2a","ios":"levelo://app?vid=e93c83d5-bafc-41ab-b80f-422d8d8d6d2a"},"vehicle_type_id":"4","last_reported":1767291426,"current_range_meters":4800,"station_id":"","pricing_plan_id":"cebpf4jnsgd1na2vs0mg"},{"bike_id":"78ed77cb-47f0-4c82-bf8a-f958576ec953","system_id":"levelo_inurba_marseille","lat":43.2816,"lon":5.42641,"is_reserved":false,"is_disabled":false,"rental_uris":{"android":"levelo://app?vid=78ed77cb-47f0-4c82-bf8a-f958576ec953","ios":"levelo://app?vid=78ed77cb-47f0-4c82-bf8a-f958576ec953"},"vehicle_type_id":"4","last_reported":1767291426,"current_range_meters":4800,"station_id":"ce4bhnh2rcd13ifvqgug","pricing_plan_id":"cebpf4jnsgd1na2vs0mg"},{"bike_id":"535d562b-448c-43ac-86cc-1d98462f2032","system_id":"levelo_inurba_marseille","lat":43.27936,"lon":5.39589,"is_reserved":false,"is_disabled":false,"rental_uris":{"android":"levelo://app?vid=535d562b-448c-43ac-86cc-1d98462f2032","ios":"levelo://app?vid=535d562b-448c-43ac-86cc-1d98462f2032"},"vehicle_type_id":"4","last_reported":1767291426,"current_range_meters":4800,"station_id":"ce4bhf92rcd13ifvqf40","pricing_plan_id":"cebpf4jnsgd1na2vs0mg"},{"bike_id":"cee46e39-3687-4fee-9a5f-ffb17c75dbd2","system_id":"levelo_inurba_marseille","lat":43.24391,"lon":5.37069,"is_reserved":false,"is_disabled":false,"rental_uris":{"android":"levelo://app?vid=cee46e39-3687-4fee-9a5f-ffb17c75dbd2","ios":"levelo://app?vid=cee46e39-3687-4fee-9a5f-ffb17c75dbd2"},"vehicle_type_id":"4","last_reported":1767291426,"current_range_meters":4800,"station_id":"ce4bhhh2rcd13ifvqfk0","pricing_plan_id":"cebpf4jnsgd1na2vs0mg"},{"bike_id":"0fa76090-b264-4d7f-a0bc-7de1e50f19da","system_id":"levelo_inurba_marseille","lat":43.28017,"lon":5.40421,"is_reserved":false,"is_disabled":false,"rental_uris":{"android":"levelo://app?vid=0fa76090-b264-4d7f-a0bc-7de1e50f19da","ios":"levelo://app?vid=0fa76090-b264-4d7f-a0bc-7de1e50f19da"},"vehicle_type_id":"4","last_reported":1767291426,"current_range_meters":4800,"station_id":"","pricing_plan_id":"cebpf4jnsgd1na2vs0mg"},{"bike_id":"f1cd3895-536b-472c-8d66-26190ec7d7d8","system_id":"levelo_inurba_marseille","lat":43.28463,"lon":5.35873,"is_reserved":false,"is_disabled":false,"rental_uris":{"android":"levelo://app?vid=f1cd3895-536b-472c-8d66-26190ec7d7d8","ios":"levelo://app?vid=f1cd3895-536b-472c-8d66-26190ec7d7d8"},"vehicle_type_id":"4","last_reported":1767291426,"current_range_meters":4800,"station_id":"ce4bhah2rcd13ifvqei0","pricing_plan_id":"cebpf4jnsgd1na2vs0mg"},{"bike_id":"90dac6f2-4e58-4623-b929-4f8d06ec1c31","system_id":"levelo_inurba_marseille","lat":43.28502,"lon":5.42542,"is_reserved":false,"is_disabled":false,"rental_uris":{"android":"levelo://app?vid=90dac6f2-4e58-4623-b929-4f8d06ec1c31","ios":"levelo://app?vid=90dac6f2-4e58-4623-b929-4f8d06ec1c31"},"vehicle_type_id":"4","last_reported":1767291426,"current_range_meters":5600,"station_id":"","pricing_plan_id":"cebpf4jnsgd1na2vs0mg"},{"bike_id":"8fa53ddb-80a9-4b81-a17d-6b07554edef4","system_id":"levelo_inurba_marseille","lat":43.28478,"lon":5.48392,"is_reserved":false,"is_disabled":false,"rental_uris":{"android":"levelo://app?vid=8fa53ddb-80a9-4b81-a17d-6b07554edef4","ios":"levelo://app?vid=8fa53ddb-80a9-4b81-a17d-6b07554edef4"},"vehicle_type_id":"4","last_reported":1767291426,"current_range_meters":5600,"station_id":"st_d3svhcjqgbts73a3dn0g","pricing_plan_id":"cebpf4jnsgd1na2vs0mg"},{"bike_id":"559d9256-9d76-4a0b-a693-a48dae850216","system_id":"levelo_inurba_marseille","lat":43.267956,"lon":5.40257,"is_reserved":false,"is_disabled":false,"rental_uris":{"android":"levelo://app?vid=559d9256-9d76-4a0b-a693-a48dae850216","ios":"levelo://app?vid=559d9256-9d76-4a0b-a693-a48dae850216"},"vehicle_type_id":"4","last_reported":1767291426,"current_range_meters":5600,"station_id":"ce501612rcd8frsf0b60","pricing_plan_id":"cebpf4jnsgd1na2vs0mg"},{"bike_id":"5a7515ff-e2fc-4b00-9961-f190eb04c14e","system_id":"levelo_inurba_marseille","lat":43.28717,"lon":5.37947,"is_reserved":false,"is_disabled":false,"rental_uris":{"android":"levelo://app?vid=5a7515ff-e2fc-4b00-9961-f190eb04c14e","ios":"levelo://app?vid=5a7515ff-e2fc-4b00-9961-f190eb04c14e"},"vehicle_type_id":"4","last_reported":1767291426,"current_range_meters":5600,"station_id":"ce4bh9p2rcd13ifvqec0","pricing_plan_id":"cebpf4jnsgd1na2vs0mg"},{"bike_id":"2d4772b7-d16b-4cb4-a135-dc76b6fe23e3","system_id":"levelo_inurba_marseille","lat":43.27978,"lon":5.40033,"is_reserved":false,"is_disabled":false,"rental_uris":{"android":"levelo://app?vid=2d4772b7-d16b-4cb4-a135-dc76b6fe23e3","ios":"levelo://app?vid=2d4772b7-d16b-4cb4-a135-dc76b6fe23e3"},"vehicle_type_id":"4","last_reported":1767291426,"current_range_meters":5600,"station_id":"ce4bho92rcd13ifvqh4g","pricing_plan_id":"cebpf4jnsgd1na2vs0mg"},{"bike_id":"32a7b5d7-5af3-4910-b418-797951028920","system_id":"levelo_inurba_marseille","lat":43.2914,"lon":5.38522,"is_reserved":false,"is_disabled":false,"rental_uris":{"android":"levelo://app?vid=32a7b5d7-5af3-4910-b418-797951028920","ios":"levelo://app?vid=32a7b5d7-5af3-4910-b418-797951028920"},"vehicle_type_id":"4","last_reported":1767291426,"current_range_meters":5600,"station_id":"","pricing_plan_id":"cebpf4jnsgd1na2vs0mg"},{"bike_id":"b7142933-5bc0-4beb-a4ab-a3152aae03ce","system_id":"levelo_inurba_marseille","lat":43.26034,"lon":5.4174,"is_reserved":false,"is_disabled":false,"rental_uris":{"android":"levelo://app?vid=b7142933-5bc0-4beb-a4ab-a3152aae03ce","ios":"levelo://app?vid=b7142933-5bc0-4beb-a4ab-a3152aae03ce"},"vehicle_type_id":"4","last_reported":1767291426,"current_range_meters":5600,"station_id":"","pricing_plan_id":"cebpf4jnsgd1na2vs0mg"},{"bike_id":"f2b9bcba-5330-4207-9f9e-28a6386d385d","system_id":"levelo_inurba_marseille","lat":43.29593,"lon":5.38126,"is_reserved":false,"is_disabled":false,"rental_uris":{"android":"levelo://app?vid=f2b9bcba-5330-4207-9f9e-28a6386d385d","ios":"levelo://app?vid=f2b9bcba-5330-4207-9f9e-28a6386d385d"},"vehicle_type_id":"4","last_reported":1767291426,"current_range_meters":5600,"station_id":"ce4bgl12rcd13ifvqbo0","pricing_plan_id":"cebpf4jnsgd1na2vs0mg"},{"bike_id":"51a6cb45-f15e-42f0-b843-74841766bad4","system_id":"levelo_inurba_marseille","lat":43.270691,"lon":5.422794,"is_reserved":false,"is_disabled":false,"rental_uris":{"android":"levelo://app?vid=51a6cb45-f15e-42f0-b843-74841766bad4","ios":"levelo://app?vid=51a6cb45-f15e-42f0-b843-74841766bad4"},"vehicle_type_id":"4","last_reported":1767291426,"current_range_meters":5600,"station_id":"ce4bhk92rcd13ifvqgb0","pricing_plan_id":"cebpf4jnsgd1na2vs0mg"},{"bike_id":"4624d1ee-d4eb-4d7e-9132-0d5b7855618d","system_id":"levelo_inurba_marseille","lat":43.33547,"lon":5.3745,"is_reserved":false,"is_disabled":false,"rental_uris":{"android":"levelo://app?vid=4624d1ee-d4eb-4d7e-9132-0d5b7855618d","ios":"levelo://app?vid=4624d1ee-d4eb-4d7e-9132-0d5b7855618d"},"vehicle_type_id":"4","last_reported":1767291426,"current_range_meters":6000,"station_id":"st_d46tts09ee8s73dlu43g","pricing_plan_id":"cebpf4jnsgd1na2vs0mg"},{"bike_id":"2b23942c-0d5b-4193-b718-e6099c5527d3","system_id":"levelo_inurba_marseille","lat":43.231913,"lon":5.355562,"is_reserved":false,"is_disabled":false,"rental_uris":{"android":"levelo://app?vid=2b23942c-0d5b-4193-b718-e6099c5527d3","ios":"levelo://app?vid=2b23942c-0d5b-4193-b718-e6099c5527d3"},"vehicle_type_id":"4","last_reported":1767291426,"current_range_meters":6000,"station_id":"ce4bhu92rcd13ifvqi70","pricing_plan_id":"cebpf4jnsgd1na2vs0mg"},{"bike_id":"0dd59461-22df-4bce-8d23-e88af1c5c68c","system_id":"levelo_inurba_marseille","lat":43.295347,"lon":5.385443,"is_reserved":false,"is_disabled":false,"rental_uris":{"android":"levelo://app?vid=0dd59461-22df-4bce-8d23-e88af1c5c68c","ios":"levelo://app?vid=0dd59461-22df-4bce-8d23-e88af1c5c68c"},"vehicle_type_id":"4","last_reported":1767291426,"current_range_meters":6000,"station_id":"ce4bgih2rcd13ifvqba0","pricing_plan_id":"cebpf4jnsgd1na2vs0mg"},{"bike_id":"13391d9d-76d7-4fec-b2f0-5b738a1a1639","system_id":"levelo_inurba_marseille","lat":43.24169,"lon":5.39696,"is_reserved":false,"is_disabled":false,"rental_uris":{"android":"levelo://app?vid=13391d9d-76d7-4fec-b2f0-5b738a1a1639","ios":"levelo://app?vid=13391d9d-76d7-4fec-b2f0-5b738a1a1639"},"vehicle_type_id":"4","last_reported":1767291426,"current_range_meters":6000,"station_id":"ce4bhn12rcd13ifvqgpg","pricing_plan_id":"cebpf4jnsgd1na2vs0mg"},{"bike_id":"19c8fae4-b80c-498c-a4ef-76cc1120fdb3","system_id":"levelo_inurba_marseille","lat":43.27943,"lon":5.41045,"is_reserved":false,"is_disabled":false,"rental_uris":{"android":"levelo://app?vid=19c8fae4-b80c-498c-a4ef-76cc1120fdb3","ios":"levelo://app?vid=19c8fae4-b80c-498c-a4ef-76cc1120fdb3"},"vehicle_type_id":"4","last_reported":1767291426,"current_range_meters":6000,"station_id":"ce4bhnp2rcd13ifvqh0g","pricing_plan_id":"cebpf4jnsgd1na2vs0mg"},{"bike_id":"d09bb08f-b70f-4a7f-aae3-ce59a17f62f3","system_id":"levelo_inurba_marseille","lat":43.294116,"lon":5.374177,"is_reserved":false,"is_disabled":false,"rental_uris":{"android":"levelo://app?vid=d09bb08f-b70f-4a7f-aae3-ce59a17f62f3","ios":"levelo://app?vid=d09bb08f-b70f-4a7f-aae3-ce59a17f62f3"},"vehicle_type_id":"4","last_reported":1767291426,"current_range_meters":6000,"station_id":"ce4bghh2rcd13ifvqb60","pricing_plan_id":"cebpf4jnsgd1na2vs0mg"},{"bike_id":"b0483a3e-92c3-45e1-84fc-22906381c04b","system_id":"levelo_inurba_marseille","lat":43.23971,"lon":5.36625,"is_reserved":false,"is_disabled":false,"rental_uris":{"android":"levelo://app?vid=b0483a3e-92c3-45e1-84fc-22906381c04b","ios":"levelo://app?vid=b0483a3e-92c3-45e1-84fc-22906381c04b"},"vehicle_type_id":"4","last_reported":1767291426,"current_range_meters":6000,"station_id":"ce4bhi12rcd13ifvqfp0","pricing_plan_id":"cebpf4jnsgd1na2vs0mg"},{"bike_id":"be8ffce0-92be-4864-a534-c85c9ae0632c","system_id":"levelo_inurba_marseille","lat":43.26216,"lon":5.37459,"is_reserved":false,"is_disabled":false,"rental_uris":{"android":"levelo://app?vid=be8ffce0-92be-4864-a534-c85c9ae0632c","ios":"levelo://app?vid=be8ffce0-92be-4864-a534-c85c9ae0632c"},"vehicle_type_id":"4","last_reported":1767291426,"current_range_meters":6000,"station_id":"ce4bhgp2rcd13ifvqfc0","pricing_plan_id":"cebpf4jnsgd1na2vs0mg"},{"bike_id":"49998141-cac4-4767-a907-b8a3171a3b09","system_id":"levelo_inurba_marseille","lat":43.2916,"lon":5.38502,"is_reserved":false,"is_disabled":false,"rental_uris":{"android":"levelo://app?vid=49998141-cac4-4767-a907-b8a3171a3b09","ios":"levelo://app?vid=49998141-cac4-4767-a907-b8a3171a3b09"},"vehicle_type_id":"4","last_reported":1767291426,"current_range_meters":6000,"station_id":"","pricing_plan_id":"cebpf4jnsgd1na2vs0mg"},{"bike_id":"650cf425-f87e-4c30-9156-354d5fef94cd","system_id":"levelo_inurba_marseille","lat":43.30117,"lon":5.36729,"is_reserved":false,"is_disabled":false,"rental_uris":{"android":"levelo://app?vid=650cf425-f87e-4c30-9156-354d5fef94cd","ios":"levelo://app?vid=650cf425-f87e-4c30-9156-354d5fef94cd"},"vehicle_type_id":"4","last_reported":1767291426,"current_range_meters":6000,"station_id":"","pricing_plan_id":"cebpf4jnsgd1na2vs0mg"},{"bike_id":"9da63dcf-3a89-489d-88ff-2a48134ab0f8","system_id":"levelo_inurba_marseille","lat":43.337444,"lon":5.374475,"is_reserved":false,"is_disabled":false,"rental_uris":{"android":"levelo://app?vid=9da63dcf-3a89-489d-88ff-2a48134ab0f8","ios":"levelo://app?vid=9da63dcf-3a89-489d-88ff-2a48134ab0f8"},"vehicle_type_id":"4","last_reported":1767291426,"current_range_meters":6000,"station_id":"ce4bgh92rcd13ifvqb50","pricing_plan_id":"cebpf4jnsgd1na2vs0mg"},{"bike_id":"00f10e68-8346-4c92-aadd-174d2f94ed8f","system_id":"levelo_inurba_marseille","lat":43.30277,"lon":5.37259,"is_reserved":false,"is_disabled":false,"rental_uris":{"android":"levelo://app?vid=00f10e68-8346-4c92-aadd-174d2f94ed8f","ios":"levelo://app?vid=00f10e68-8346-4c92-aadd-174d2f94ed8f"},"vehicle_type_id":"4","last_reported":1767291426,"current_range_meters":6000,"station_id":"","pricing_plan_id":"cebpf4jnsgd1na2vs0mg"},{"bike_id":"a16142eb-a396-4d91-9944-47a5a95847e5","system_id":"levelo_inurba_marseille","lat":43.30144,"lon":5.39859,"is_reserved":false,"is_disabled":false,"rental_uris":{"android":"levelo://app?vid=a16142eb-a396-4d91-9944-47a5a95847e5","ios":"levelo://app?vid=a16142eb-a396-4d91-9944-47a5a95847e5"},"vehicle_type_id":"4","last_reported":1767291426,"current_range_meters":6000,"station_id":"ce4bh0h2rcd13ifvqd40","pricing_plan_id":"cebpf4jnsgd1na2vs0mg"},{"bike_id":"440d1d78-88ea-4485-b754-e87ee1700f65","system_id":"levelo_inurba_marseille","lat":43.29779,"lon":5.38098,"is_reserved":false,"is_disabled":false,"rental_uris":{"android":"levelo://app?vid=440d1d78-88ea-4485-b754-e87ee1700f65","ios":"levelo://app?vid=440d1d78-88ea-4485-b754-e87ee1700f65"},"vehicle_type_id":"4","last_reported":1767291426,"current_range_meters":6000,"station_id":"ce4bgip2rcd13ifvqbb0","pricing_plan_id":"cebpf4jnsgd1na2vs0mg"},{"bike_id":"c1d47fd9-2972-4d0b-a004-6f3bc778398e","system_id":"levelo_inurba_marseille","lat":43.25507,"lon":5.37669,"is_reserved":false,"is_disabled":false,"rental_uris":{"android":"levelo://app?vid=c1d47fd9-2972-4d0b-a004-6f3bc778398e","ios":"levelo://app?vid=c1d47fd9-2972-4d0b-a004-6f3bc778398e"},"vehicle_type_id":"4","last_reported":1767291426,"current_range_meters":6400,"station_id":"ce4bhh12rcd13ifvqff0","pricing_plan_id":"cebpf4jnsgd1na2vs0mg"},{"bike_id":"409af472-b6df-44d0-867f-ae2c60de00e4","system_id":"levelo_inurba_marseille","lat":43.2871,"lon":5.38692,"is_reserved":false,"is_disabled":false,"rental_uris":{"android":"levelo://app?vid=409af472-b6df-44d0-867f-ae2c60de00e4","ios":"levelo://app?vid=409af472-b6df-44d0-867f-ae2c60de00e4"},"vehicle_type_id":"4","last_reported":1767291426,"current_range_meters":6400,"station_id":"","pricing_plan_id":"cebpf4jnsgd1na2vs0mg"},{"bike_id":"38dd17e8-5d80-4ad5-aa01-1fd6c367a77e","system_id":"levelo_inurba_marseille","lat":43.28355,"lon":5.3811,"is_reserved":false,"is_disabled":false,"rental_uris":{"android":"levelo://app?vid=38dd17e8-5d80-4ad5-aa01-1fd6c367a77e","ios":"levelo://app?vid=38dd17e8-5d80-4ad5-aa01-1fd6c367a77e"},"vehicle_type_id":"4","last_reported":1767291426,"current_range_meters":6400,"station_id":"ce4bh412rcd13ifvqdr0","pricing_plan_id":"cebpf4jnsgd1na2vs0mg"},{"bike_id":"6c5a0f93-b4f0-4709-9bde-46b446fc69f4","system_id":"levelo_inurba_marseille","lat":43.22552,"lon":5.41641,"is_reserved":false,"is_disabled":false,"rental_uris":{"android":"levelo://app?vid=6c5a0f93-b4f0-4709-9bde-46b446fc69f4","ios":"levelo://app?vid=6c5a0f93-b4f0-4709-9bde-46b446fc69f4"},"vehicle_type_id":"4","last_reported":1767291426,"current_range_meters":6400,"station_id":"st_d2o4gvlbi1j2169b742g","pricing_plan_id":"cebpf4jnsgd1na2vs0mg"},{"bike_id":"0a26e3d8-2471-4a85-80c8-7c573a48fe16","system_id":"levelo_inurba_marseille","lat":43.30147,"lon":5.37418,"is_reserved":false,"is_disabled":false,"rental_uris":{"android":"levelo://app?vid=0a26e3d8-2471-4a85-80c8-7c573a48fe16","ios":"levelo://app?vid=0a26e3d8-2471-4a85-80c8-7c573a48fe16"},"vehicle_type_id":"4","last_reported":1767291426,"current_range_meters":6400,"station_id":"ce4bgs92rcd13ifvqcc0","pricing_plan_id":"cebpf4jnsgd1na2vs0mg"},{"bike_id":"b4c42f3c-4854-46f3-bd1e-c8cd6c329e4e","system_id":"levelo_inurba_marseille","lat":43.29607,"lon":5.38074,"is_reserved":false,"is_disabled":false,"rental_uris":{"android":"levelo://app?vid=b4c42f3c-4854-46f3-bd1e-c8cd6c329e4e","ios":"levelo://app?vid=b4c42f3c-4854-46f3-bd1e-c8cd6c329e4e"},"vehicle_type_id":"4","last_reported":1767291426,"current_range_meters":6400,"station_id":"ce4bgl12rcd13ifvqbo0","pricing_plan_id":"cebpf4jnsgd1na2vs0mg"},{"bike_id":"3e3f7bbb-d8be-4283-a158-c83a5251eb44","system_id":"levelo_inurba_marseille","lat":43.24404,"lon":5.37089,"is_reserved":false,"is_disabled":false,"rental_uris":{"android":"levelo://app?vid=3e3f7bbb-d8be-4283-a158-c83a5251eb44","ios":"levelo://app?vid=3e3f7bbb-d8be-4283-a158-c83a5251eb44"},"vehicle_type_id":"4","last_reported":1767291426,"current_range_meters":6400,"station_id":"ce4bhhh2rcd13ifvqfk0","pricing_plan_id":"cebpf4jnsgd1na2vs0mg"},{"bike_id":"7df75586-262d-4ec2-8f98-c0691702c6c8","system_id":"levelo_inurba_marseille","lat":43.28173,"lon":5.42663,"is_reserved":false,"is_disabled":false,"rental_uris":{"android":"levelo://app?vid=7df75586-262d-4ec2-8f98-c0691702c6c8","ios":"levelo://app?vid=7df75586-262d-4ec2-8f98-c0691702c6c8"},"vehicle_type_id":"4","last_reported":1767291426,"current_range_meters":6400,"station_id":"ce4bhnh2rcd13ifvqgug","pricing_plan_id":"cebpf4jnsgd1na2vs0mg"},{"bike_id":"ddb72e2a-0652-4ebc-926e-830ca62edf2f","system_id":"levelo_inurba_marseille","lat":43.29806,"lon":5.38086,"is_reserved":false,"is_disabled":false,"rental_uris":{"android":"levelo://app?vid=ddb72e2a-0652-4ebc-926e-830ca62edf2f","ios":"levelo://app?vid=ddb72e2a-0652-4ebc-926e-830ca62edf2f"},"vehicle_type_id":"4","last_reported":1767291426,"current_range_meters":6400,"station_id":"ce4bgip2rcd13ifvqbb0","pricing_plan_id":"cebpf4jnsgd1na2vs0mg"},{"bike_id":"c398a130-0c0d-4ecb-9920-e3a7bb5e654c","system_id":"levelo_inurba_marseille","lat":43.30296,"lon":5.392,"is_reserved":false,"is_disabled":false,"rental_uris":{"android":"levelo://app?vid=c398a130-0c0d-4ecb-9920-e3a7bb5e654c","ios":"levelo://app?vid=c398a130-0c0d-4ecb-9920-e3a7bb5e654c"},"vehicle_type_id":"4","last_reported":1767291426,"current_range_meters":6400,"station_id":"ce4bgkh2rcd13ifvqbk0","pricing_plan_id":"cebpf4jnsgd1na2vs0mg"},{"bike_id":"9bcb8b3c-1b67-4d78-8a75-3cf0d494e82a","system_id":"levelo_inurba_marseille","lat":43.30889,"lon":5.39634,"is_reserved":false,"is_disabled":false,"rental_uris":{"android":"levelo://app?vid=9bcb8b3c-1b67-4d78-8a75-3cf0d494e82a","ios":"levelo://app?vid=9bcb8b3c-1b67-4d78-8a75-3cf0d494e82a"},"vehicle_type_id":"4","last_reported":1767291426,"current_range_meters":6400,"station_id":"ce4bh012rcd13ifvqcv0","pricing_plan_id":"cebpf4jnsgd1na2vs0mg"},{"bike_id":"43464ac5-5123-4584-a572-085a071fa175","system_id":"levelo_inurba_marseille","lat":43.32393,"lon":5.40432,"is_reserved":false,"is_disabled":false,"rental_uris":{"android":"levelo://app?vid=43464ac5-5123-4584-a572-085a071fa175","ios":"levelo://app?vid=43464ac5-5123-4584-a572-085a071fa175"},"vehicle_type_id":"4","last_reported":1767291426,"current_range_meters":6400,"station_id":"","pricing_plan_id":"cebpf4jnsgd1na2vs0mg"},{"bike_id":"fe656346-0ab8-4865-9472-a8d3ff4b3c00","system_id":"levelo_inurba_marseille","lat":43.293017,"lon":5.374622,"is_reserved":false,"is_disabled":false,"rental_uris":{"android":"levelo://app?vid=fe656346-0ab8-4865-9472-a8d3ff4b3c00","ios":"levelo://app?vid=fe656346-0ab8-4865-9472-a8d3ff4b3c00"},"vehicle_type_id":"4","last_reported":1767291426,"current_range_meters":6400,"station_id":"","pricing_plan_id":"cebpf4jnsgd1na2vs0mg"},{"bike_id":"fa1d2879-7499-4c80-a305-780210541454","system_id":"levelo_inurba_marseille","lat":43.30905,"lon":5.39992,"is_reserved":false,"is_disabled":false,"rental_uris":{"android":"levelo://app?vid=fa1d2879-7499-4c80-a305-780210541454","ios":"levelo://app?vid=fa1d2879-7499-4c80-a305-780210541454"},"vehicle_type_id":"4","last_reported":1767291426,"current_range_meters":6800,"station_id":"","pricing_plan_id":"cebpf4jnsgd1na2vs0mg"},{"bike_id":"ae16ff2f-039d-4cdf-a936-aa3dd9f21d44","system_id":"levelo_inurba_marseille","lat":43.27057,"lon":5.38299,"is_reserved":false,"is_disabled":false,"rental_uris":{"android":"levelo://app?vid=ae16ff2f-039d-4cdf-a936-aa3dd9f21d44","ios":"levelo://app?vid=ae16ff2f-039d-4cdf-a936-aa3dd9f21d44"},"vehicle_type_id":"4","last_reported":1767291426,"current_range_meters":6800,"station_id":"st_d3n2fo6cfp8s73cte1j0","pricing_plan_id":"cebpf4jnsgd1na2vs0mg"},{"bike_id":"e091a64d-3bea-4eb4-be23-0d33eb28eebf","system_id":"levelo_inurba_marseille","lat":43.26941,"lon":5.40269,"is_reserved":false,"is_disabled":false,"rental_uris":{"android":"levelo://app?vid=e091a64d-3bea-4eb4-be23-0d33eb28eebf","ios":"levelo://app?vid=e091a64d-3bea-4eb4-be23-0d33eb28eebf"},"vehicle_type_id":"4","last_reported":1767291426,"current_range_meters":6800,"station_id":"cjm6bp8fraef2m0cb0m0","pricing_plan_id":"cebpf4jnsgd1na2vs0mg"},{"bike_id":"3282aea1-9bed-44e6-a833-eea50b551ac8","system_id":"levelo_inurba_marseille","lat":43.26953,"lon":5.38893,"is_reserved":false,"is_disabled":false,"rental_uris":{"android":"levelo://app?vid=3282aea1-9bed-44e6-a833-eea50b551ac8","ios":"levelo://app?vid=3282aea1-9bed-44e6-a833-eea50b551ac8"},"vehicle_type_id":"4","last_reported":1767291426,"current_range_meters":6800,"station_id":"ce4bhhh2rcd13ifvqfl0","pricing_plan_id":"cebpf4jnsgd1na2vs0mg"},{"bike_id":"a8800cd5-9636-49e9-b1fe-ec75f21420d4","system_id":"levelo_inurba_marseille","lat":43.22584,"lon":5.41625,"is_reserved":false,"is_disabled":false,"rental_uris":{"android":"levelo://app?vid=a8800cd5-9636-49e9-b1fe-ec75f21420d4","ios":"levelo://app?vid=a8800cd5-9636-49e9-b1fe-ec75f21420d4"},"vehicle_type_id":"4","last_reported":1767291426,"current_range_meters":6800,"station_id":"st_d2o4gvlbi1j2169b742g","pricing_plan_id":"cebpf4jnsgd1na2vs0mg"},{"bike_id":"4372a42a-b334-4e8f-9141-9b6d15dd3e03","system_id":"levelo_inurba_marseille","lat":43.28482,"lon":5.48391,"is_reserved":false,"is_disabled":false,"rental_uris":{"android":"levelo://app?vid=4372a42a-b334-4e8f-9141-9b6d15dd3e03","ios":"levelo://app?vid=4372a42a-b334-4e8f-9141-9b6d15dd3e03"},"vehicle_type_id":"4","last_reported":1767291426,"current_range_meters":6800,"station_id":"","pricing_plan_id":"cebpf4jnsgd1na2vs0mg"},{"bike_id":"9e5dafc7-f2da-4d0b-b668-e32cc043ceb4","system_id":"levelo_inurba_marseille","lat":43.28047,"lon":5.40073,"is_reserved":false,"is_disabled":false,"rental_uris":{"android":"levelo://app?vid=9e5dafc7-f2da-4d0b-b668-e32cc043ceb4","ios":"levelo://app?vid=9e5dafc7-f2da-4d0b-b668-e32cc043ceb4"},"vehicle_type_id":"4","last_reported":1767291426,"current_range_meters":6800,"station_id":"","pricing_plan_id":"cebpf4jnsgd1na2vs0mg"},{"bike_id":"a02fb672-5bdf-46c8-9fc1-e8fcbc8dc4d2","system_id":"levelo_inurba_marseille","lat":43.30296,"lon":5.38641,"is_reserved":false,"is_disabled":false,"rental_uris":{"android":"levelo://app?vid=a02fb672-5bdf-46c8-9fc1-e8fcbc8dc4d2","ios":"levelo://app?vid=a02fb672-5bdf-46c8-9fc1-e8fcbc8dc4d2"},"vehicle_type_id":"4","last_reported":1767291426,"current_range_meters":6800,"station_id":"","pricing_plan_id":"cebpf4jnsgd1na2vs0mg"},{"bike_id":"bb76a84a-e98e-48d3-9c1a-cb33c8071e80","system_id":"levelo_inurba_marseille","lat":43.31328,"lon":5.3969,"is_reserved":false,"is_disabled":false,"rental_uris":{"android":"levelo://app?vid=bb76a84a-e98e-48d3-9c1a-cb33c8071e80","ios":"levelo://app?vid=bb76a84a-e98e-48d3-9c1a-cb33c8071e80"},"vehicle_type_id":"4","last_reported":1767291426,"current_range_meters":6800,"station_id":"ce4bgvp2rcd13ifvqcu0","pricing_plan_id":"cebpf4jnsgd1na2vs0mg"},{"bike_id":"9b31c737-9919-4753-902d-88d0177986b8","system_id":"levelo_inurba_marseille","lat":43.28869,"lon":5.42516,"is_reserved":false,"is_disabled":false,"rental_uris":{"android":"levelo://app?vid=9b31c737-9919-4753-902d-88d0177986b8","ios":"levelo://app?vid=9b31c737-9919-4753-902d-88d0177986b8"},"vehicle_type_id":"4","last_reported":1767291426,"current_range_meters":6800,"station_id":"st_d3b462108ojc7389ooeg","pricing_plan_id":"cebpf4jnsgd1na2vs0mg"},{"bike_id":"9e1c64d3-e7b9-49f4-8f17-a4e4b7f40d5a","system_id":"levelo_inurba_marseille","lat":43.24651,"lon":5.38893,"is_reserved":false,"is_disabled":false,"rental_uris":{"android":"levelo://app?vid=9e1c64d3-e7b9-49f4-8f17-a4e4b7f40d5a","ios":"levelo://app?vid=9e1c64d3-e7b9-49f4-8f17-a4e4b7f40d5a"},"vehicle_type_id":"4","last_reported":1767291426,"current_range_meters":6800,"station_id":"ce4bhg12rcd13ifvqf60","pricing_plan_id":"cebpf4jnsgd1na2vs0mg"},{"bike_id":"1e979309-d823-4aaf-b851-f1be8461cefe","system_id":"levelo_inurba_marseille","lat":43.28468,"lon":5.48422,"is_reserved":false,"is_disabled":false,"rental_uris":{"android":"levelo://app?vid=1e979309-d823-4aaf-b851-f1be8461cefe","ios":"levelo://app?vid=1e979309-d823-4aaf-b851-f1be8461cefe"},"vehicle_type_id":"4","last_reported":1767291426,"current_range_meters":6800,"station_id":"st_d3svhcjqgbts73a3dn0g","pricing_plan_id":"cebpf4jnsgd1na2vs0mg"},{"bike_id":"f297e1d0-d6d1-470d-832a-7cfd1d704b5f","system_id":"levelo_inurba_marseille","lat":43.26929,"lon":5.39296,"is_reserved":false,"is_disabled":false,"rental_uris":{"android":"levelo://app?vid=f297e1d0-d6d1-470d-832a-7cfd1d704b5f","ios":"levelo://app?vid=f297e1d0-d6d1-470d-832a-7cfd1d704b5f"},"vehicle_type_id":"4","last_reported":1767291426,"current_range_meters":6800,"station_id":"","pricing_plan_id":"cebpf4jnsgd1na2vs0mg"},{"bike_id":"119c8565-da91-4721-910c-25c4234ec3ce","system_id":"levelo_inurba_marseille","lat":43.30714,"lon":5.41006,"is_reserved":false,"is_disabled":false,"rental_uris":{"android":"levelo://app?vid=119c8565-da91-4721-910c-25c4234ec3ce","ios":"levelo://app?vid=119c8565-da91-4721-910c-25c4234ec3ce"},"vehicle_type_id":"4","last_reported":1767291426,"current_range_meters":6800,"station_id":"","pricing_plan_id":"cebpf4jnsgd1na2vs0mg"},{"bike_id":"4eb0751a-8bca-42d2-9653-099c337dc79b","system_id":"levelo_inurba_marseille","lat":43.32727,"lon":5.39225,"is_reserved":false,"is_disabled":false,"rental_uris":{"android":"levelo://app?vid=4eb0751a-8bca-42d2-9653-099c337dc79b","ios":"levelo://app?vid=4eb0751a-8bca-42d2-9653-099c337dc79b"},"vehicle_type_id":"4","last_reported":1767291426,"current_range_meters":6800,"station_id":"","pricing_plan_id":"cebpf4jnsgd1na2vs0mg"},{"bike_id":"49a01a11-8673-492e-9b5e-b92964e4e9ba","system_id":"levelo_inurba_marseille","lat":43.28155,"lon":5.42635,"is_reserved":false,"is_disabled":false,"rental_uris":{"android":"levelo://app?vid=49a01a11-8673-492e-9b5e-b92964e4e9ba","ios":"levelo://app?vid=49a01a11-8673-492e-9b5e-b92964e4e9ba"},"vehicle_type_id":"4","last_reported":1767291426,"current_range_meters":6800,"station_id":"ce4bhnh2rcd13ifvqgug","pricing_plan_id":"cebpf4jnsgd1na2vs0mg"},{"bike_id":"f489c472-ee6d-42dd-8be8-3a531cfd3f02","system_id":"levelo_inurba_marseille","lat":43.2877,"lon":5.45483,"is_reserved":false,"is_disabled":false,"rental_uris":{"android":"levelo://app?vid=f489c472-ee6d-42dd-8be8-3a531cfd3f02","ios":"levelo://app?vid=f489c472-ee6d-42dd-8be8-3a531cfd3f02"},"vehicle_type_id":"4","last_reported":1767291426,"current_range_meters":6800,"station_id":"","pricing_plan_id":"cebpf4jnsgd1na2vs0mg"},{"bike_id":"ee1959ff-d4ae-4b6f-9140-6704900b9ea6","system_id":"levelo_inurba_marseille","lat":43.25082,"lon":5.39511,"is_reserved":false,"is_disabled":false,"rental_uris":{"android":"levelo://app?vid=ee1959ff-d4ae-4b6f-9140-6704900b9ea6","ios":"levelo://app?vid=ee1959ff-d4ae-4b6f-9140-6704900b9ea6"},"vehicle_type_id":"4","last_reported":1767291426,"current_range_meters":6800,"station_id":"ce4bhm12rcd13ifvqgkg","pricing_plan_id":"cebpf4jnsgd1na2vs0mg"},{"bike_id":"10082815-dbf9-4a48-b9bb-b7d9a21347fa","system_id":"levelo_inurba_marseille","lat":43.21751,"lon":5.34607,"is_reserved":false,"is_disabled":false,"rental_uris":{"android":"levelo://app?vid=10082815-dbf9-4a48-b9bb-b7d9a21347fa","ios":"levelo://app?vid=10082815-dbf9-4a48-b9bb-b7d9a21347fa"},"vehicle_type_id":"4","last_reported":1767291426,"current_range_meters":6800,"station_id":"","pricing_plan_id":"cebpf4jnsgd1na2vs0mg"},{"bike_id":"45ba5a83-d4b7-42f3-8130-25ab5c9667d7","system_id":"levelo_inurba_marseille","lat":43.23189,"lon":5.39984,"is_reserved":false,"is_disabled":false,"rental_uris":{"android":"levelo://app?vid=45ba5a83-d4b7-42f3-8130-25ab5c9667d7","ios":"levelo://app?vid=45ba5a83-d4b7-42f3-8130-25ab5c9667d7"},"vehicle_type_id":"4","last_reported":1767291426,"current_range_meters":6800,"station_id":"ce4bhn12rcd13ifvqgqg","pricing_plan_id":"cebpf4jnsgd1na2vs0mg"},{"bike_id":"54ad4c28-8ec0-4677-891c-50587b9f61d1","system_id":"levelo_inurba_marseille","lat":43.29905,"lon":5.38146,"is_reserved":false,"is_disabled":false,"rental_uris":{"android":"levelo://app?vid=54ad4c28-8ec0-4677-891c-50587b9f61d1","ios":"levelo://app?vid=54ad4c28-8ec0-4677-891c-50587b9f61d1"},"vehicle_type_id":"4","last_reported":1767291426,"current_range_meters":7200,"station_id":"ce4bgj12rcd13ifvqbc0","pricing_plan_id":"cebpf4jnsgd1na2vs0mg"},{"bike_id":"dc1d1fd3-287c-4df2-89a3-973e9127dcfe","system_id":"levelo_inurba_marseille","lat":43.24631,"lon":5.43146,"is_reserved":false,"is_disabled":false,"rental_uris":{"android":"levelo://app?vid=dc1d1fd3-287c-4df2-89a3-973e9127dcfe","ios":"levelo://app?vid=dc1d1fd3-287c-4df2-89a3-973e9127dcfe"},"vehicle_type_id":"4","last_reported":1767291426,"current_range_meters":7200,"station_id":"st_d2m6c4gdas8pm72e190g","pricing_plan_id":"cebpf4jnsgd1na2vs0mg"},{"bike_id":"254a9f26-9c40-4cac-bed2-d3a1cdae0385","system_id":"levelo_inurba_marseille","lat":43.25499,"lon":5.37651,"is_reserved":false,"is_disabled":false,"rental_uris":{"android":"levelo://app?vid=254a9f26-9c40-4cac-bed2-d3a1cdae0385","ios":"levelo://app?vid=254a9f26-9c40-4cac-bed2-d3a1cdae0385"},"vehicle_type_id":"4","last_reported":1767291426,"current_range_meters":7200,"station_id":"ce4bhh12rcd13ifvqff0","pricing_plan_id":"cebpf4jnsgd1na2vs0mg"},{"bike_id":"4b612c97-f84b-459a-bc6d-0cd90c252bf8","system_id":"levelo_inurba_marseille","lat":43.26517,"lon":5.37956,"is_reserved":false,"is_disabled":false,"rental_uris":{"android":"levelo://app?vid=4b612c97-f84b-459a-bc6d-0cd90c252bf8","ios":"levelo://app?vid=4b612c97-f84b-459a-bc6d-0cd90c252bf8"},"vehicle_type_id":"4","last_reported":1767291426,"current_range_meters":7200,"station_id":"","pricing_plan_id":"cebpf4jnsgd1na2vs0mg"},{"bike_id":"1cf2101f-3872-42fc-985d-1b4e41f6241c","system_id":"levelo_inurba_marseille","lat":43.27997,"lon":5.41671,"is_reserved":false,"is_disabled":false,"rental_uris":{"android":"levelo://app?vid=1cf2101f-3872-42fc-985d-1b4e41f6241c","ios":"levelo://app?vid=1cf2101f-3872-42fc-985d-1b4e41f6241c"},"vehicle_type_id":"4","last_reported":1767291426,"current_range_meters":7200,"station_id":"ce4bho12rcd13ifvqh1g","pricing_plan_id":"cebpf4jnsgd1na2vs0mg"},{"bike_id":"b5f80a1c-7345-44ae-9c2d-843287ace1f8","system_id":"levelo_inurba_marseille","lat":43.27417,"lon":5.42419,"is_reserved":false,"is_disabled":false,"rental_uris":{"android":"levelo://app?vid=b5f80a1c-7345-44ae-9c2d-843287ace1f8","ios":"levelo://app?vid=b5f80a1c-7345-44ae-9c2d-843287ace1f8"},"vehicle_type_id":"4","last_reported":1767291426,"current_range_meters":7200,"station_id":"","pricing_plan_id":"cebpf4jnsgd1na2vs0mg"},{"bike_id":"25f3b82f-06ca-4f8f-a005-18bf90572843","system_id":"levelo_inurba_marseille","lat":43.30183,"lon":5.36621,"is_reserved":false,"is_disabled":false,"rental_uris":{"android":"levelo://app?vid=25f3b82f-06ca-4f8f-a005-18bf90572843","ios":"levelo://app?vid=25f3b82f-06ca-4f8f-a005-18bf90572843"},"vehicle_type_id":"4","last_reported":1767291426,"current_range_meters":7200,"station_id":"ce4bgrh2rcd13ifvqc8g","pricing_plan_id":"cebpf4jnsgd1na2vs0mg"},{"bike_id":"1763bda5-9a2f-4323-b228-f44726653fd8","system_id":"levelo_inurba_marseille","lat":43.28427,"lon":5.34992,"is_reserved":false,"is_disabled":false,"rental_uris":{"android":"levelo://app?vid=1763bda5-9a2f-4323-b228-f44726653fd8","ios":"levelo://app?vid=1763bda5-9a2f-4323-b228-f44726653fd8"},"vehicle_type_id":"4","last_reported":1767291426,"current_range_meters":7200,"station_id":"ce4bhbh2rcd13ifvqepg","pricing_plan_id":"cebpf4jnsgd1na2vs0mg"},{"bike_id":"254341d0-3abd-479a-8502-da748008714b","system_id":"levelo_inurba_marseille","lat":43.24543,"lon":5.39535,"is_reserved":false,"is_disabled":false,"rental_uris":{"android":"levelo://app?vid=254341d0-3abd-479a-8502-da748008714b","ios":"levelo://app?vid=254341d0-3abd-479a-8502-da748008714b"},"vehicle_type_id":"4","last_reported":1767291426,"current_range_meters":7200,"station_id":"ce4bhlp2rcd13ifvqgjg","pricing_plan_id":"cebpf4jnsgd1na2vs0mg"},{"bike_id":"23dd68b5-83fe-4e9e-b59e-9beb906eba90","system_id":"levelo_inurba_marseille","lat":43.28416,"lon":5.34985,"is_reserved":false,"is_disabled":false,"rental_uris":{"android":"levelo://app?vid=23dd68b5-83fe-4e9e-b59e-9beb906eba90","ios":"levelo://app?vid=23dd68b5-83fe-4e9e-b59e-9beb906eba90"},"vehicle_type_id":"4","last_reported":1767291426,"current_range_meters":7200,"station_id":"ce4bhbh2rcd13ifvqepg","pricing_plan_id":"cebpf4jnsgd1na2vs0mg"},{"bike_id":"d51b6a44-a05b-4deb-9147-7a5a8c9b7a34","system_id":"levelo_inurba_marseille","lat":43.29615,"lon":5.38085,"is_reserved":false,"is_disabled":false,"rental_uris":{"android":"levelo://app?vid=d51b6a44-a05b-4deb-9147-7a5a8c9b7a34","ios":"levelo://app?vid=d51b6a44-a05b-4deb-9147-7a5a8c9b7a34"},"vehicle_type_id":"4","last_reported":1767291426,"current_range_meters":7200,"station_id":"ce4bgl12rcd13ifvqbo0","pricing_plan_id":"cebpf4jnsgd1na2vs0mg"},{"bike_id":"d49fd2c9-dca5-4864-87e0-359520dd27b8","system_id":"levelo_inurba_marseille","lat":43.2614,"lon":5.39747,"is_reserved":false,"is_disabled":false,"rental_uris":{"android":"levelo://app?vid=d49fd2c9-dca5-4864-87e0-359520dd27b8","ios":"levelo://app?vid=d49fd2c9-dca5-4864-87e0-359520dd27b8"},"vehicle_type_id":"4","last_reported":1767291426,"current_range_meters":7200,"station_id":"","pricing_plan_id":"cebpf4jnsgd1na2vs0mg"},{"bike_id":"6d39cb04-ab3b-45c1-90d7-0c7a54998c4a","system_id":"levelo_inurba_marseille","lat":43.27902,"lon":5.38007,"is_reserved":false,"is_disabled":false,"rental_uris":{"android":"levelo://app?vid=6d39cb04-ab3b-45c1-90d7-0c7a54998c4a","ios":"levelo://app?vid=6d39cb04-ab3b-45c1-90d7-0c7a54998c4a"},"vehicle_type_id":"4","last_reported":1767291426,"current_range_meters":7200,"station_id":"ce4bhf92rcd13ifvqf50","pricing_plan_id":"cebpf4jnsgd1na2vs0mg"},{"bike_id":"ca2a4141-2d11-4724-ae9a-5df9c6e34715","system_id":"levelo_inurba_marseille","lat":43.2466,"lon":5.38884,"is_reserved":false,"is_disabled":false,"rental_uris":{"android":"levelo://app?vid=ca2a4141-2d11-4724-ae9a-5df9c6e34715","ios":"levelo://app?vid=ca2a4141-2d11-4724-ae9a-5df9c6e34715"},"vehicle_type_id":"4","last_reported":1767291426,"current_range_meters":7200,"station_id":"ce4bhg12rcd13ifvqf60","pricing_plan_id":"cebpf4jnsgd1na2vs0mg"},{"bike_id":"edb144c4-7934-4963-a970-3320a0ca02a8","system_id":"levelo_inurba_marseille","lat":43.21771,"lon":5.34572,"is_reserved":false,"is_disabled":false,"rental_uris":{"android":"levelo://app?vid=edb144c4-7934-4963-a970-3320a0ca02a8","ios":"levelo://app?vid=edb144c4-7934-4963-a970-3320a0ca02a8"},"vehicle_type_id":"4","last_reported":1767291426,"current_range_meters":7200,"station_id":"st_cvj6r9ubvosntc0bgbag","pricing_plan_id":"cebpf4jnsgd1na2vs0mg"},{"bike_id":"f9e9fd89-b7c6-4e84-90bb-2a2dc045365a","system_id":"levelo_inurba_marseille","lat":43.25945,"lon":5.40925,"is_reserved":false,"is_disabled":false,"rental_uris":{"android":"levelo://app?vid=f9e9fd89-b7c6-4e84-90bb-2a2dc045365a","ios":"levelo://app?vid=f9e9fd89-b7c6-4e84-90bb-2a2dc045365a"},"vehicle_type_id":"4","last_reported":1767291426,"current_range_meters":7200,"station_id":"ce4bhm92rcd13ifvqglg","pricing_plan_id":"cebpf4jnsgd1na2vs0mg"},{"bike_id":"f67b27fd-3187-4788-bd7d-e0af66f9e610","system_id":"levelo_inurba_marseille","lat":43.31698,"lon":5.4036,"is_reserved":false,"is_disabled":false,"rental_uris":{"android":"levelo://app?vid=f67b27fd-3187-4788-bd7d-e0af66f9e610","ios":"levelo://app?vid=f67b27fd-3187-4788-bd7d-e0af66f9e610"},"vehicle_type_id":"4","last_reported":1767291426,"current_range_meters":7200,"station_id":"","pricing_plan_id":"cebpf4jnsgd1na2vs0mg"},{"bike_id":"4923ea53-6005-45d8-b2dd-54dea860518f","system_id":"levelo_inurba_marseille","lat":43.281516,"lon":5.426437,"is_reserved":false,"is_disabled":false,"rental_uris":{"android":"levelo://app?vid=4923ea53-6005-45d8-b2dd-54dea860518f","ios":"levelo://app?vid=4923ea53-6005-45d8-b2dd-54dea860518f"},"vehicle_type_id":"4","last_reported":1767291426,"current_range_meters":7200,"station_id":"","pricing_plan_id":"cebpf4jnsgd1na2vs0mg"},{"bike_id":"14a063dc-6bdd-4941-b6ce-72e2ea651aa8","system_id":"levelo_inurba_marseille","lat":43.29197,"lon":5.35827,"is_reserved":false,"is_disabled":false,"rental_uris":{"android":"levelo://app?vid=14a063dc-6bdd-4941-b6ce-72e2ea651aa8","ios":"levelo://app?vid=14a063dc-6bdd-4941-b6ce-72e2ea651aa8"},"vehicle_type_id":"4","last_reported":1767291426,"current_range_meters":7200,"station_id":"ce4bhb12rcd13ifvqel0","pricing_plan_id":"cebpf4jnsgd1na2vs0mg"},{"bike_id":"73ffe705-5471-4050-890d-67e3966b70ed","system_id":"levelo_inurba_marseille","lat":43.30123,"lon":5.43134,"is_reserved":false,"is_disabled":false,"rental_uris":{"android":"levelo://app?vid=73ffe705-5471-4050-890d-67e3966b70ed","ios":"levelo://app?vid=73ffe705-5471-4050-890d-67e3966b70ed"},"vehicle_type_id":"4","last_reported":1767291426,"current_range_meters":7200,"station_id":"st_d3js3co5814s73ftftug","pricing_plan_id":"cebpf4jnsgd1na2vs0mg"},{"bike_id":"8f36adfd-9702-444f-9761-701cb7e1083e","system_id":"levelo_inurba_marseille","lat":43.28954,"lon":5.3641,"is_reserved":false,"is_disabled":false,"rental_uris":{"android":"levelo://app?vid=8f36adfd-9702-444f-9761-701cb7e1083e","ios":"levelo://app?vid=8f36adfd-9702-444f-9761-701cb7e1083e"},"vehicle_type_id":"4","last_reported":1767291426,"current_range_meters":8000,"station_id":"ce4bhc92rcd13ifvqetg","pricing_plan_id":"cebpf4jnsgd1na2vs0mg"},{"bike_id":"b4422379-8f35-4517-b201-f5765672c974","system_id":"levelo_inurba_marseille","lat":43.29308,"lon":5.37451,"is_reserved":false,"is_disabled":false,"rental_uris":{"android":"levelo://app?vid=b4422379-8f35-4517-b201-f5765672c974","ios":"levelo://app?vid=b4422379-8f35-4517-b201-f5765672c974"},"vehicle_type_id":"4","last_reported":1767291426,"current_range_meters":8000,"station_id":"ce4bgi12rcd13ifvqb70","pricing_plan_id":"cebpf4jnsgd1na2vs0mg"},{"bike_id":"531267e4-ddcb-4440-918c-e02e3020fc45","system_id":"levelo_inurba_marseille","lat":43.28499,"lon":5.38566,"is_reserved":false,"is_disabled":false,"rental_uris":{"android":"levelo://app?vid=531267e4-ddcb-4440-918c-e02e3020fc45","ios":"levelo://app?vid=531267e4-ddcb-4440-918c-e02e3020fc45"},"vehicle_type_id":"4","last_reported":1767291426,"current_range_meters":8000,"station_id":"ce4bh8p2rcd13ifvqeb0","pricing_plan_id":"cebpf4jnsgd1na2vs0mg"},{"bike_id":"6d172131-32dd-4471-aae8-b5be3a5a59d1","system_id":"levelo_inurba_marseille","lat":43.27375,"lon":5.3626,"is_reserved":false,"is_disabled":false,"rental_uris":{"android":"levelo://app?vid=6d172131-32dd-4471-aae8-b5be3a5a59d1","ios":"levelo://app?vid=6d172131-32dd-4471-aae8-b5be3a5a59d1"},"vehicle_type_id":"4","last_reported":1767291426,"current_range_meters":8000,"station_id":"ce4bhbh2rcd13ifvqeo0","pricing_plan_id":"cebpf4jnsgd1na2vs0mg"},{"bike_id":"07c77036-3690-4a43-891b-a3243caa0294","system_id":"levelo_inurba_marseille","lat":43.23786,"lon":5.36628,"is_reserved":false,"is_disabled":false,"rental_uris":{"android":"levelo://app?vid=07c77036-3690-4a43-891b-a3243caa0294","ios":"levelo://app?vid=07c77036-3690-4a43-891b-a3243caa0294"},"vehicle_type_id":"4","last_reported":1767291426,"current_range_meters":8000,"station_id":"st_d3nk18o9ro0c73en2l3g","pricing_plan_id":"cebpf4jnsgd1na2vs0mg"},{"bike_id":"9f5e1e9f-aa67-4c2a-a3fe-9bb16905fbb8","system_id":"levelo_inurba_marseille","lat":43.26943,"lon":5.40261,"is_reserved":false,"is_disabled":false,"rental_uris":{"android":"levelo://app?vid=9f5e1e9f-aa67-4c2a-a3fe-9bb16905fbb8","ios":"levelo://app?vid=9f5e1e9f-aa67-4c2a-a3fe-9bb16905fbb8"},"vehicle_type_id":"4","last_reported":1767291426,"current_range_meters":8000,"station_id":"cjm6bp8fraef2m0cb0m0","pricing_plan_id":"cebpf4jnsgd1na2vs0mg"},{"bike_id":"15535b78-92b9-46c7-ac4c-9d282c3dd513","system_id":"levelo_inurba_marseille","lat":43.28718,"lon":5.39996,"is_reserved":false,"is_disabled":true,"rental_uris":{"android":"levelo://app?vid=15535b78-92b9-46c7-ac4c-9d282c3dd513","ios":"levelo://app?vid=15535b78-92b9-46c7-ac4c-9d282c3dd513"},"vehicle_type_id":"4","last_reported":1767291426,"current_range_meters":8000,"station_id":"ce4bho92rcd13ifvqh3g","pricing_plan_id":"cebpf4jnsgd1na2vs0mg"},{"bike_id":"d0a14b8c-493b-4124-bec9-8bc814d9e57b","system_id":"levelo_inurba_marseille","lat":43.30798,"lon":5.37631,"is_reserved":false,"is_disabled":false,"rental_uris":{"android":"levelo://app?vid=d0a14b8c-493b-4124-bec9-8bc814d9e57b","ios":"levelo://app?vid=d0a14b8c-493b-4124-bec9-8bc814d9e57b"},"vehicle_type_id":"4","last_reported":1767291426,"current_range_meters":8000,"station_id":"ce4bgv92rcd13ifvqcq0","pricing_plan_id":"cebpf4jnsgd1na2vs0mg"},{"bike_id":"65586352-19ee-4979-8cba-b52cca760c9d","system_id":"levelo_inurba_marseille","lat":43.29228,"lon":5.38772,"is_reserved":false,"is_disabled":false,"rental_uris":{"android":"levelo://app?vid=65586352-19ee-4979-8cba-b52cca760c9d","ios":"levelo://app?vid=65586352-19ee-4979-8cba-b52cca760c9d"},"vehicle_type_id":"4","last_reported":1767291426,"current_range_meters":8000,"station_id":"","pricing_plan_id":"cebpf4jnsgd1na2vs0mg"},{"bike_id":"7f8bc2f4-3256-4176-a803-fa7e148de4c6","system_id":"levelo_inurba_marseille","lat":43.2436,"lon":5.40891,"is_reserved":false,"is_disabled":false,"rental_uris":{"android":"levelo://app?vid=7f8bc2f4-3256-4176-a803-fa7e148de4c6","ios":"levelo://app?vid=7f8bc2f4-3256-4176-a803-fa7e148de4c6"},"vehicle_type_id":"4","last_reported":1767291426,"current_range_meters":8000,"station_id":"","pricing_plan_id":"cebpf4jnsgd1na2vs0mg"},{"bike_id":"83a5ad5a-fe84-4c67-bbe0-e18050e1f9a3","system_id":"levelo_inurba_marseille","lat":43.27687,"lon":5.38888,"is_reserved":false,"is_disabled":false,"rental_uris":{"android":"levelo://app?vid=83a5ad5a-fe84-4c67-bbe0-e18050e1f9a3","ios":"levelo://app?vid=83a5ad5a-fe84-4c67-bbe0-e18050e1f9a3"},"vehicle_type_id":"4","last_reported":1767291426,"current_range_meters":8000,"station_id":"ce4bhi12rcd13ifvqfo0","pricing_plan_id":"cebpf4jnsgd1na2vs0mg"},{"bike_id":"051f3fd6-8a3b-4cb8-bc8d-666a69e5cd08","system_id":"levelo_inurba_marseille","lat":43.24403,"lon":5.37038,"is_reserved":false,"is_disabled":false,"rental_uris":{"android":"levelo://app?vid=051f3fd6-8a3b-4cb8-bc8d-666a69e5cd08","ios":"levelo://app?vid=051f3fd6-8a3b-4cb8-bc8d-666a69e5cd08"},"vehicle_type_id":"4","last_reported":1767291426,"current_range_meters":8000,"station_id":"ce4bhhh2rcd13ifvqfk0","pricing_plan_id":"cebpf4jnsgd1na2vs0mg"},{"bike_id":"ea5031e4-b749-4d48-ba29-71e8d8d5383b","system_id":"levelo_inurba_marseille","lat":43.26402,"lon":5.37394,"is_reserved":false,"is_disabled":false,"rental_uris":{"android":"levelo://app?vid=ea5031e4-b749-4d48-ba29-71e8d8d5383b","ios":"levelo://app?vid=ea5031e4-b749-4d48-ba29-71e8d8d5383b"},"vehicle_type_id":"4","last_reported":1767291426,"current_range_meters":8000,"station_id":"","pricing_plan_id":"cebpf4jnsgd1na2vs0mg"},{"bike_id":"0d8b64dc-d3a4-4c37-80be-c48d945a81e3","system_id":"levelo_inurba_marseille","lat":43.28479,"lon":5.38433,"is_reserved":false,"is_disabled":true,"rental_uris":{"android":"levelo://app?vid=0d8b64dc-d3a4-4c37-80be-c48d945a81e3","ios":"levelo://app?vid=0d8b64dc-d3a4-4c37-80be-c48d945a81e3"},"vehicle_type_id":"4","last_reported":1767291426,"current_range_meters":8000,"station_id":"","pricing_plan_id":"cebpf4jnsgd1na2vs0mg"},{"bike_id":"0d3bffad-4f8a-4783-9b79-cda94c03ec70","system_id":"levelo_inurba_marseille","lat":43.26565,"lon":5.39007,"is_reserved":false,"is_disabled":false,"rental_uris":{"android":"levelo://app?vid=0d3bffad-4f8a-4783-9b79-cda94c03ec70","ios":"levelo://app?vid=0d3bffad-4f8a-4783-9b79-cda94c03ec70"},"vehicle_type_id":"4","last_reported":1767291426,"current_range_meters":8000,"station_id":"ce4bhe12rcd13ifvqf30","pricing_plan_id":"cebpf4jnsgd1na2vs0mg"},{"bike_id":"60f73fd6-7d9e-48ce-baec-d6e4735f2066","system_id":"levelo_inurba_marseille","lat":43.28002,"lon":5.40015,"is_reserved":false,"is_disabled":false,"rental_uris":{"android":"levelo://app?vid=60f73fd6-7d9e-48ce-baec-d6e4735f2066","ios":"levelo://app?vid=60f73fd6-7d9e-48ce-baec-d6e4735f2066"},"vehicle_type_id":"4","last_reported":1767291426,"current_range_meters":8000,"station_id":"ce4bho92rcd13ifvqh4g","pricing_plan_id":"cebpf4jnsgd1na2vs0mg"},{"bike_id":"73342cd1-bf95-4a1c-9f45-49ae6f0fd972","system_id":"levelo_inurba_marseille","lat":43.28863,"lon":5.425305,"is_reserved":false,"is_disabled":false,"rental_uris":{"android":"levelo://app?vid=73342cd1-bf95-4a1c-9f45-49ae6f0fd972","ios":"levelo://app?vid=73342cd1-bf95-4a1c-9f45-49ae6f0fd972"},"vehicle_type_id":"4","last_reported":1767291426,"current_range_meters":8000,"station_id":"st_d3b462108ojc7389ooeg","pricing_plan_id":"cebpf4jnsgd1na2vs0mg"},{"bike_id":"47502a4f-6643-4d86-adaf-d4a1bda6584d","system_id":"levelo_inurba_marseille","lat":43.30319,"lon":5.4044,"is_reserved":false,"is_disabled":false,"rental_uris":{"android":"levelo://app?vid=47502a4f-6643-4d86-adaf-d4a1bda6584d","ios":"levelo://app?vid=47502a4f-6643-4d86-adaf-d4a1bda6584d"},"vehicle_type_id":"4","last_reported":1767291426,"current_range_meters":8000,"station_id":"ce4bh012rcd13ifvqd10","pricing_plan_id":"cebpf4jnsgd1na2vs0mg"},{"bike_id":"1e7dea1a-e844-4e37-903a-7cdf32baf2c6","system_id":"levelo_inurba_marseille","lat":43.28858,"lon":5.35854,"is_reserved":false,"is_disabled":false,"rental_uris":{"android":"levelo://app?vid=1e7dea1a-e844-4e37-903a-7cdf32baf2c6","ios":"levelo://app?vid=1e7dea1a-e844-4e37-903a-7cdf32baf2c6"},"vehicle_type_id":"4","last_reported":1767291426,"current_range_meters":8000,"station_id":"ce4bhb12rcd13ifvqem0","pricing_plan_id":"cebpf4jnsgd1na2vs0mg"},{"bike_id":"a0c38dff-5554-41ff-84ec-b60f27b14e8d","system_id":"levelo_inurba_marseille","lat":43.28729,"lon":5.37935,"is_reserved":false,"is_disabled":false,"rental_uris":{"android":"levelo://app?vid=a0c38dff-5554-41ff-84ec-b60f27b14e8d","ios":"levelo://app?vid=a0c38dff-5554-41ff-84ec-b60f27b14e8d"},"vehicle_type_id":"4","last_reported":1767291426,"current_range_meters":8000,"station_id":"ce4bh9p2rcd13ifvqec0","pricing_plan_id":"cebpf4jnsgd1na2vs0mg"},{"bike_id":"59b9f952-f261-4669-9bf2-ec09f3352df3","system_id":"levelo_inurba_marseille","lat":43.27071,"lon":5.42267,"is_reserved":false,"is_disabled":false,"rental_uris":{"android":"levelo://app?vid=59b9f952-f261-4669-9bf2-ec09f3352df3","ios":"levelo://app?vid=59b9f952-f261-4669-9bf2-ec09f3352df3"},"vehicle_type_id":"4","last_reported":1767291426,"current_range_meters":8000,"station_id":"ce4bhk92rcd13ifvqgb0","pricing_plan_id":"cebpf4jnsgd1na2vs0mg"},{"bike_id":"f50376ee-187b-422c-bfb2-3bcff51c7529","system_id":"levelo_inurba_marseille","lat":43.29011,"lon":5.35621,"is_reserved":false,"is_disabled":false,"rental_uris":{"android":"levelo://app?vid=f50376ee-187b-422c-bfb2-3bcff51c7529","ios":"levelo://app?vid=f50376ee-187b-422c-bfb2-3bcff51c7529"},"vehicle_type_id":"4","last_reported":1767291426,"current_range_meters":8000,"station_id":"ce4bhb92rcd13ifvqen0","pricing_plan_id":"cebpf4jnsgd1na2vs0mg"},{"bike_id":"e607b3c9-5b36-49a8-8479-bd0521cc0ad8","system_id":"levelo_inurba_marseille","lat":43.3015,"lon":5.3807,"is_reserved":false,"is_disabled":false,"rental_uris":{"android":"levelo://app?vid=e607b3c9-5b36-49a8-8479-bd0521cc0ad8","ios":"levelo://app?vid=e607b3c9-5b36-49a8-8479-bd0521cc0ad8"},"vehicle_type_id":"4","last_reported":1767291426,"current_range_meters":8000,"station_id":"ce4bgjp2rcd13ifvqbh0","pricing_plan_id":"cebpf4jnsgd1na2vs0mg"},{"bike_id":"6bda29c0-298a-4931-b152-ee72aefab1c3","system_id":"levelo_inurba_marseille","lat":43.29843,"lon":5.37654,"is_reserved":false,"is_disabled":false,"rental_uris":{"android":"levelo://app?vid=6bda29c0-298a-4931-b152-ee72aefab1c3","ios":"levelo://app?vid=6bda29c0-298a-4931-b152-ee72aefab1c3"},"vehicle_type_id":"4","last_reported":1767291426,"current_range_meters":8000,"station_id":"","pricing_plan_id":"cebpf4jnsgd1na2vs0mg"},{"bike_id":"a9d7370e-c542-4ea5-b026-82659eb4c204","system_id":"levelo_inurba_marseille","lat":43.23953,"lon":5.36674,"is_reserved":false,"is_disabled":false,"rental_uris":{"android":"levelo://app?vid=a9d7370e-c542-4ea5-b026-82659eb4c204","ios":"levelo://app?vid=a9d7370e-c542-4ea5-b026-82659eb4c204"},"vehicle_type_id":"4","last_reported":1767291426,"current_range_meters":8000,"station_id":"ce4bhi12rcd13ifvqfp0","pricing_plan_id":"cebpf4jnsgd1na2vs0mg"},{"bike_id":"84e86dfc-b61a-42c1-93b8-a112038f791b","system_id":"levelo_inurba_marseille","lat":43.28614,"lon":5.35108,"is_reserved":false,"is_disabled":false,"rental_uris":{"android":"levelo://app?vid=84e86dfc-b61a-42c1-93b8-a112038f791b","ios":"levelo://app?vid=84e86dfc-b61a-42c1-93b8-a112038f791b"},"vehicle_type_id":"4","last_reported":1767291426,"current_range_meters":8000,"station_id":"ce4bhch2rcd13ifvqeug","pricing_plan_id":"cebpf4jnsgd1na2vs0mg"},{"bike_id":"f27745bc-a703-4c7b-b0b1-1028a16be233","system_id":"levelo_inurba_marseille","lat":43.29605,"lon":5.38088,"is_reserved":false,"is_disabled":false,"rental_uris":{"android":"levelo://app?vid=f27745bc-a703-4c7b-b0b1-1028a16be233","ios":"levelo://app?vid=f27745bc-a703-4c7b-b0b1-1028a16be233"},"vehicle_type_id":"4","last_reported":1767291426,"current_range_meters":8000,"station_id":"ce4bgl12rcd13ifvqbo0","pricing_plan_id":"cebpf4jnsgd1na2vs0mg"},{"bike_id":"20b80e5c-5b37-41dc-a98b-394c8cdb4a29","system_id":"levelo_inurba_marseille","lat":43.25868,"lon":5.39922,"is_reserved":false,"is_disabled":false,"rental_uris":{"android":"levelo://app?vid=20b80e5c-5b37-41dc-a98b-394c8cdb4a29","ios":"levelo://app?vid=20b80e5c-5b37-41dc-a98b-394c8cdb4a29"},"vehicle_type_id":"4","last_reported":1767291426,"current_range_meters":8400,"station_id":"ce4bhl92rcd13ifvqghg","pricing_plan_id":"cebpf4jnsgd1na2vs0mg"},{"bike_id":"67057471-b7f6-4964-9f3d-d28fd0a7dcdb","system_id":"levelo_inurba_marseille","lat":43.31895,"lon":5.40741,"is_reserved":false,"is_disabled":true,"rental_uris":{"android":"levelo://app?vid=67057471-b7f6-4964-9f3d-d28fd0a7dcdb","ios":"levelo://app?vid=67057471-b7f6-4964-9f3d-d28fd0a7dcdb"},"vehicle_type_id":"4","last_reported":1767291426,"current_range_meters":8400,"station_id":"ce4bhq12rcd13ifvqhig","pricing_plan_id":"cebpf4jnsgd1na2vs0mg"},{"bike_id":"02382ba1-c53a-4d54-ae09-ac85bbe6d34b","system_id":"levelo_inurba_marseille","lat":43.29307,"lon":5.37461,"is_reserved":false,"is_disabled":false,"rental_uris":{"android":"levelo://app?vid=02382ba1-c53a-4d54-ae09-ac85bbe6d34b","ios":"levelo://app?vid=02382ba1-c53a-4d54-ae09-ac85bbe6d34b"},"vehicle_type_id":"4","last_reported":1767291426,"current_range_meters":8400,"station_id":"ce4bgi12rcd13ifvqb70","pricing_plan_id":"cebpf4jnsgd1na2vs0mg"},{"bike_id":"d4c6dc95-f402-4619-8161-a90cb01a834e","system_id":"levelo_inurba_marseille","lat":43.2891,"lon":5.42478,"is_reserved":false,"is_disabled":false,"rental_uris":{"android":"levelo://app?vid=d4c6dc95-f402-4619-8161-a90cb01a834e","ios":"levelo://app?vid=d4c6dc95-f402-4619-8161-a90cb01a834e"},"vehicle_type_id":"4","last_reported":1767291426,"current_range_meters":8400,"station_id":"","pricing_plan_id":"cebpf4jnsgd1na2vs0mg"},{"bike_id":"89da9f1f-320c-40d1-85bc-bfe896dcaaea","system_id":"levelo_inurba_marseille","lat":43.324958,"lon":5.383064,"is_reserved":false,"is_disabled":false,"rental_uris":{"android":"levelo://app?vid=89da9f1f-320c-40d1-85bc-bfe896dcaaea","ios":"levelo://app?vid=89da9f1f-320c-40d1-85bc-bfe896dcaaea"},"vehicle_type_id":"4","last_reported":1767291426,"current_range_meters":8400,"station_id":"st_d4asgbiv49dc73anf9m0","pricing_plan_id":"cebpf4jnsgd1na2vs0mg"},{"bike_id":"ca3f2db3-b93a-4ad8-90f8-de36e33fe8b4","system_id":"levelo_inurba_marseille","lat":43.217402,"lon":5.346037,"is_reserved":false,"is_disabled":false,"rental_uris":{"android":"levelo://app?vid=ca3f2db3-b93a-4ad8-90f8-de36e33fe8b4","ios":"levelo://app?vid=ca3f2db3-b93a-4ad8-90f8-de36e33fe8b4"},"vehicle_type_id":"4","last_reported":1767291426,"current_range_meters":8400,"station_id":"","pricing_plan_id":"cebpf4jnsgd1na2vs0mg"},{"bike_id":"d0f568b9-b5bf-4480-b688-e3d8ab9f0c4f","system_id":"levelo_inurba_marseille","lat":43.28417,"lon":5.37525,"is_reserved":false,"is_disabled":false,"rental_uris":{"android":"levelo://app?vid=d0f568b9-b5bf-4480-b688-e3d8ab9f0c4f","ios":"levelo://app?vid=d0f568b9-b5bf-4480-b688-e3d8ab9f0c4f"},"vehicle_type_id":"4","last_reported":1767291426,"current_range_meters":8400,"station_id":"ce4bh412rcd13ifvqds0","pricing_plan_id":"cebpf4jnsgd1na2vs0mg"},{"bike_id":"1bfe9249-d951-400f-9000-6353f879fa7f","system_id":"levelo_inurba_marseille","lat":43.29525,"lon":5.39402,"is_reserved":false,"is_disabled":false,"rental_uris":{"android":"levelo://app?vid=1bfe9249-d951-400f-9000-6353f879fa7f","ios":"levelo://app?vid=1bfe9249-d951-400f-9000-6353f879fa7f"},"vehicle_type_id":"4","last_reported":1767291426,"current_range_meters":8400,"station_id":"ce4bh292rcd13ifvqdf0","pricing_plan_id":"cebpf4jnsgd1na2vs0mg"},{"bike_id":"5f318697-ab49-41ba-a1aa-9b672e030b2d","system_id":"levelo_inurba_marseille","lat":43.3176,"lon":5.39022,"is_reserved":false,"is_disabled":false,"rental_uris":{"android":"levelo://app?vid=5f318697-ab49-41ba-a1aa-9b672e030b2d","ios":"levelo://app?vid=5f318697-ab49-41ba-a1aa-9b672e030b2d"},"vehicle_type_id":"4","last_reported":1767291426,"current_range_meters":8400,"station_id":"ce4bhqp2rcd13ifvqhng","pricing_plan_id":"cebpf4jnsgd1na2vs0mg"},{"bike_id":"71feabac-18bb-4c38-9f1c-553d18ed10d6","system_id":"levelo_inurba_marseille","lat":43.29603,"lon":5.37178,"is_reserved":false,"is_disabled":false,"rental_uris":{"android":"levelo://app?vid=71feabac-18bb-4c38-9f1c-553d18ed10d6","ios":"levelo://app?vid=71feabac-18bb-4c38-9f1c-553d18ed10d6"},"vehicle_type_id":"4","last_reported":1767291426,"current_range_meters":8400,"station_id":"ce4bgnh2rcd13ifvqc0g","pricing_plan_id":"cebpf4jnsgd1na2vs0mg"},{"bike_id":"48cee1df-16aa-460a-ae1f-9b5bc1595f79","system_id":"levelo_inurba_marseille","lat":43.22933,"lon":5.35365,"is_reserved":false,"is_disabled":false,"rental_uris":{"android":"levelo://app?vid=48cee1df-16aa-460a-ae1f-9b5bc1595f79","ios":"levelo://app?vid=48cee1df-16aa-460a-ae1f-9b5bc1595f79"},"vehicle_type_id":"4","last_reported":1767291426,"current_range_meters":8400,"station_id":"cpo3532slgdg3j2ikp40","pricing_plan_id":"cebpf4jnsgd1na2vs0mg"},{"bike_id":"3726ff5a-3e12-42b0-b68f-b0200516c587","system_id":"levelo_inurba_marseille","lat":43.21186,"lon":5.35074,"is_reserved":false,"is_disabled":false,"rental_uris":{"android":"levelo://app?vid=3726ff5a-3e12-42b0-b68f-b0200516c587","ios":"levelo://app?vid=3726ff5a-3e12-42b0-b68f-b0200516c587"},"vehicle_type_id":"4","last_reported":1767291426,"current_range_meters":8400,"station_id":"st_cvj6sg6p6f1abm77japg","pricing_plan_id":"cebpf4jnsgd1na2vs0mg"},{"bike_id":"c649d049-2670-4c1f-88c5-542d48b7fa4b","system_id":"levelo_inurba_marseille","lat":43.324814,"lon":5.365411,"is_reserved":false,"is_disabled":false,"rental_uris":{"android":"levelo://app?vid=c649d049-2670-4c1f-88c5-542d48b7fa4b","ios":"levelo://app?vid=c649d049-2670-4c1f-88c5-542d48b7fa4b"},"vehicle_type_id":"4","last_reported":1767291426,"current_range_meters":8400,"station_id":"ce4bhs12rcd13ifvqhvg","pricing_plan_id":"cebpf4jnsgd1na2vs0mg"},{"bike_id":"7194ccbb-9a71-4089-b879-19a9182577e3","system_id":"levelo_inurba_marseille","lat":43.2656,"lon":5.39007,"is_reserved":false,"is_disabled":false,"rental_uris":{"android":"levelo://app?vid=7194ccbb-9a71-4089-b879-19a9182577e3","ios":"levelo://app?vid=7194ccbb-9a71-4089-b879-19a9182577e3"},"vehicle_type_id":"4","last_reported":1767291426,"current_range_meters":8400,"station_id":"ce4bhe12rcd13ifvqf30","pricing_plan_id":"cebpf4jnsgd1na2vs0mg"},{"bike_id":"bd706bad-1cdd-46da-9aa9-c9b2e6f3f4f0","system_id":"levelo_inurba_marseille","lat":43.26492,"lon":5.39577,"is_reserved":false,"is_disabled":false,"rental_uris":{"android":"levelo://app?vid=bd706bad-1cdd-46da-9aa9-c9b2e6f3f4f0","ios":"levelo://app?vid=bd706bad-1cdd-46da-9aa9-c9b2e6f3f4f0"},"vehicle_type_id":"4","last_reported":1767291426,"current_range_meters":8400,"station_id":"ce4bhi12rcd13ifvqfq0","pricing_plan_id":"cebpf4jnsgd1na2vs0mg"},{"bike_id":"27f62b3e-34a5-44c0-b8d2-5a7048902926","system_id":"levelo_inurba_marseille","lat":43.29553,"lon":5.38194,"is_reserved":false,"is_disabled":false,"rental_uris":{"android":"levelo://app?vid=27f62b3e-34a5-44c0-b8d2-5a7048902926","ios":"levelo://app?vid=27f62b3e-34a5-44c0-b8d2-5a7048902926"},"vehicle_type_id":"4","last_reported":1767291426,"current_range_meters":8800,"station_id":"","pricing_plan_id":"cebpf4jnsgd1na2vs0mg"},{"bike_id":"f86a25f1-ea9e-4c4d-8fca-5f1887ab98fa","system_id":"levelo_inurba_marseille","lat":43.28482,"lon":5.38432,"is_reserved":false,"is_disabled":false,"rental_uris":{"android":"levelo://app?vid=f86a25f1-ea9e-4c4d-8fca-5f1887ab98fa","ios":"levelo://app?vid=f86a25f1-ea9e-4c4d-8fca-5f1887ab98fa"},"vehicle_type_id":"4","last_reported":1767291426,"current_range_meters":8800,"station_id":"ce4bh512rcd13ifvqe3g","pricing_plan_id":"cebpf4jnsgd1na2vs0mg"},{"bike_id":"bab8f5ce-6ea3-45fd-aa21-29b68816a77a","system_id":"levelo_inurba_marseille","lat":43.26488,"lon":5.39548,"is_reserved":false,"is_disabled":false,"rental_uris":{"android":"levelo://app?vid=bab8f5ce-6ea3-45fd-aa21-29b68816a77a","ios":"levelo://app?vid=bab8f5ce-6ea3-45fd-aa21-29b68816a77a"},"vehicle_type_id":"4","last_reported":1767291426,"current_range_meters":8800,"station_id":"ce4bhi12rcd13ifvqfq0","pricing_plan_id":"cebpf4jnsgd1na2vs0mg"},{"bike_id":"a37546a5-5ed0-437a-8b08-467eedf47722","system_id":"levelo_inurba_marseille","lat":43.24535,"lon":5.39534,"is_reserved":false,"is_disabled":false,"rental_uris":{"android":"levelo://app?vid=a37546a5-5ed0-437a-8b08-467eedf47722","ios":"levelo://app?vid=a37546a5-5ed0-437a-8b08-467eedf47722"},"vehicle_type_id":"4","last_reported":1767291426,"current_range_meters":8800,"station_id":"ce4bhlp2rcd13ifvqgjg","pricing_plan_id":"cebpf4jnsgd1na2vs0mg"},{"bike_id":"c033d2f6-a6cb-4fd7-a961-50f17588c0a8","system_id":"levelo_inurba_marseille","lat":43.28207,"lon":5.39076,"is_reserved":false,"is_disabled":false,"rental_uris":{"android":"levelo://app?vid=c033d2f6-a6cb-4fd7-a961-50f17588c0a8","ios":"levelo://app?vid=c033d2f6-a6cb-4fd7-a961-50f17588c0a8"},"vehicle_type_id":"4","last_reported":1767291426,"current_range_meters":8800,"station_id":"ce4bhn92rcd13ifvqgsg","pricing_plan_id":"cebpf4jnsgd1na2vs0mg"},{"bike_id":"a0873333-ecdf-4ac4-985a-045fb2238f0a","system_id":"levelo_inurba_marseille","lat":43.28462,"lon":5.35882,"is_reserved":false,"is_disabled":false,"rental_uris":{"android":"levelo://app?vid=a0873333-ecdf-4ac4-985a-045fb2238f0a","ios":"levelo://app?vid=a0873333-ecdf-4ac4-985a-045fb2238f0a"},"vehicle_type_id":"4","last_reported":1767291426,"current_range_meters":8800,"station_id":"ce4bhah2rcd13ifvqei0","pricing_plan_id":"cebpf4jnsgd1na2vs0mg"},{"bike_id":"2e432000-19e4-474b-acb8-4742408d8ecf","system_id":"levelo_inurba_marseille","lat":43.29646,"lon":5.37955,"is_reserved":false,"is_disabled":false,"rental_uris":{"android":"levelo://app?vid=2e432000-19e4-474b-acb8-4742408d8ecf","ios":"levelo://app?vid=2e432000-19e4-474b-acb8-4742408d8ecf"},"vehicle_type_id":"4","last_reported":1767291426,"current_range_meters":8800,"station_id":"","pricing_plan_id":"cebpf4jnsgd1na2vs0mg"},{"bike_id":"81586eb2-5997-4a7f-910d-f12ada7984c8","system_id":"levelo_inurba_marseille","lat":43.29887,"lon":5.38629,"is_reserved":false,"is_disabled":false,"rental_uris":{"android":"levelo://app?vid=81586eb2-5997-4a7f-910d-f12ada7984c8","ios":"levelo://app?vid=81586eb2-5997-4a7f-910d-f12ada7984c8"},"vehicle_type_id":"4","last_reported":1767291426,"current_range_meters":8800,"station_id":"","pricing_plan_id":"cebpf4jnsgd1na2vs0mg"},{"bike_id":"95c0c609-fad2-4431-8988-ea6027b9dc34","system_id":"levelo_inurba_marseille","lat":43.30444,"lon":5.39723,"is_reserved":false,"is_disabled":false,"rental_uris":{"android":"levelo://app?vid=95c0c609-fad2-4431-8988-ea6027b9dc34","ios":"levelo://app?vid=95c0c609-fad2-4431-8988-ea6027b9dc34"},"vehicle_type_id":"4","last_reported":1767291426,"current_range_meters":8800,"station_id":"ce4bh092rcd13ifvqd20","pricing_plan_id":"cebpf4jnsgd1na2vs0mg"},{"bike_id":"f6e35b31-fba3-427e-ad6d-c4136ff774ce","system_id":"levelo_inurba_marseille","lat":43.27568,"lon":5.38417,"is_reserved":false,"is_disabled":false,"rental_uris":{"android":"levelo://app?vid=f6e35b31-fba3-427e-ad6d-c4136ff774ce","ios":"levelo://app?vid=f6e35b31-fba3-427e-ad6d-c4136ff774ce"},"vehicle_type_id":"4","last_reported":1767291426,"current_range_meters":8800,"station_id":"ce4bhh92rcd13ifvqfi0","pricing_plan_id":"cebpf4jnsgd1na2vs0mg"},{"bike_id":"475de299-2917-42da-9347-8b67ff473f85","system_id":"levelo_inurba_marseille","lat":43.30125,"lon":5.43117,"is_reserved":false,"is_disabled":false,"rental_uris":{"android":"levelo://app?vid=475de299-2917-42da-9347-8b67ff473f85","ios":"levelo://app?vid=475de299-2917-42da-9347-8b67ff473f85"},"vehicle_type_id":"4","last_reported":1767291426,"current_range_meters":8800,"station_id":"st_d3js3co5814s73ftftug","pricing_plan_id":"cebpf4jnsgd1na2vs0mg"},{"bike_id":"0b723d19-50a0-4d60-97d8-99ef6ef92673","system_id":"levelo_inurba_marseille","lat":43.30097,"lon":5.39081,"is_reserved":false,"is_disabled":false,"rental_uris":{"android":"levelo://app?vid=0b723d19-50a0-4d60-97d8-99ef6ef92673","ios":"levelo://app?vid=0b723d19-50a0-4d60-97d8-99ef6ef92673"},"vehicle_type_id":"4","last_reported":1767291426,"current_range_meters":8800,"station_id":"ce4bh192rcd13ifvqdb0","pricing_plan_id":"cebpf4jnsgd1na2vs0mg"},{"bike_id":"40c441d3-1782-46f9-a969-b91a22f7d5a1","system_id":"levelo_inurba_marseille","lat":43.28483,"lon":5.38399,"is_reserved":false,"is_disabled":false,"rental_uris":{"android":"levelo://app?vid=40c441d3-1782-46f9-a969-b91a22f7d5a1","ios":"levelo://app?vid=40c441d3-1782-46f9-a969-b91a22f7d5a1"},"vehicle_type_id":"4","last_reported":1767291426,"current_range_meters":8800,"station_id":"ce4bh512rcd13ifvqe3g","pricing_plan_id":"cebpf4jnsgd1na2vs0mg"},{"bike_id":"152a1365-ee25-421d-85dd-2a6424d5b6f1","system_id":"levelo_inurba_marseille","lat":43.29968,"lon":5.37167,"is_reserved":false,"is_disabled":false,"rental_uris":{"android":"levelo://app?vid=152a1365-ee25-421d-85dd-2a6424d5b6f1","ios":"levelo://app?vid=152a1365-ee25-421d-85dd-2a6424d5b6f1"},"vehicle_type_id":"4","last_reported":1767291426,"current_range_meters":8800,"station_id":"ce4bgr92rcd13ifvqc7g","pricing_plan_id":"cebpf4jnsgd1na2vs0mg"},{"bike_id":"9df51a33-d8d1-4b42-9888-b57cc9ef08bc","system_id":"levelo_inurba_marseille","lat":43.29512,"lon":5.38741,"is_reserved":false,"is_disabled":false,"rental_uris":{"android":"levelo://app?vid=9df51a33-d8d1-4b42-9888-b57cc9ef08bc","ios":"levelo://app?vid=9df51a33-d8d1-4b42-9888-b57cc9ef08bc"},"vehicle_type_id":"4","last_reported":1767291426,"current_range_meters":8800,"station_id":"","pricing_plan_id":"cebpf4jnsgd1na2vs0mg"},{"bike_id":"da51a696-5705-48cd-a174-f63e3c15d9de","system_id":"levelo_inurba_marseille","lat":43.28868,"lon":5.42514,"is_reserved":false,"is_disabled":false,"rental_uris":{"android":"levelo://app?vid=da51a696-5705-48cd-a174-f63e3c15d9de","ios":"levelo://app?vid=da51a696-5705-48cd-a174-f63e3c15d9de"},"vehicle_type_id":"4","last_reported":1767291426,"current_range_meters":8800,"station_id":"st_d3b462108ojc7389ooeg","pricing_plan_id":"cebpf4jnsgd1na2vs0mg"},{"bike_id":"8ea54828-04c1-451e-9aa1-3a957440d23c","system_id":"levelo_inurba_marseille","lat":43.24632,"lon":5.38228,"is_reserved":false,"is_disabled":false,"rental_uris":{"android":"levelo://app?vid=8ea54828-04c1-451e-9aa1-3a957440d23c","ios":"levelo://app?vid=8ea54828-04c1-451e-9aa1-3a957440d23c"},"vehicle_type_id":"4","last_reported":1767291426,"current_range_meters":8800,"station_id":"ce4bhih2rcd13ifvqfr0","pricing_plan_id":"cebpf4jnsgd1na2vs0mg"},{"bike_id":"53924fd8-5777-4f20-9ea2-dc16a02b5d55","system_id":"levelo_inurba_marseille","lat":43.26574,"lon":5.37286,"is_reserved":false,"is_disabled":false,"rental_uris":{"android":"levelo://app?vid=53924fd8-5777-4f20-9ea2-dc16a02b5d55","ios":"levelo://app?vid=53924fd8-5777-4f20-9ea2-dc16a02b5d55"},"vehicle_type_id":"4","last_reported":1767291426,"current_range_meters":9200,"station_id":"ce4bhg12rcd13ifvqf70","pricing_plan_id":"cebpf4jnsgd1na2vs0mg"},{"bike_id":"5294767e-dd69-4945-8c8e-03dd74e904a7","system_id":"levelo_inurba_marseille","lat":43.23068,"lon":5.35493,"is_reserved":false,"is_disabled":false,"rental_uris":{"android":"levelo://app?vid=5294767e-dd69-4945-8c8e-03dd74e904a7","ios":"levelo://app?vid=5294767e-dd69-4945-8c8e-03dd74e904a7"},"vehicle_type_id":"4","last_reported":1767291426,"current_range_meters":9200,"station_id":"cpo3342slgdg3j2ifvpg","pricing_plan_id":"cebpf4jnsgd1na2vs0mg"},{"bike_id":"9cd71620-62fb-4f72-a225-41e5a96f4b2e","system_id":"levelo_inurba_marseille","lat":43.24809,"lon":5.37462,"is_reserved":false,"is_disabled":false,"rental_uris":{"android":"levelo://app?vid=9cd71620-62fb-4f72-a225-41e5a96f4b2e","ios":"levelo://app?vid=9cd71620-62fb-4f72-a225-41e5a96f4b2e"},"vehicle_type_id":"4","last_reported":1767291426,"current_range_meters":9200,"station_id":"ce4bhgh2rcd13ifvqfb0","pricing_plan_id":"cebpf4jnsgd1na2vs0mg"},{"bike_id":"a4bf83f6-5478-4dbd-a08e-d579e90306ee","system_id":"levelo_inurba_marseille","lat":43.33605,"lon":5.41013,"is_reserved":false,"is_disabled":false,"rental_uris":{"android":"levelo://app?vid=a4bf83f6-5478-4dbd-a08e-d579e90306ee","ios":"levelo://app?vid=a4bf83f6-5478-4dbd-a08e-d579e90306ee"},"vehicle_type_id":"4","last_reported":1767291426,"current_range_meters":9200,"station_id":"ce4bhqh2rcd13ifvqhmg","pricing_plan_id":"cebpf4jnsgd1na2vs0mg"},{"bike_id":"057c9c8d-777a-4461-a92a-6845c43c397c","system_id":"levelo_inurba_marseille","lat":43.29531,"lon":5.39401,"is_reserved":false,"is_disabled":false,"rental_uris":{"android":"levelo://app?vid=057c9c8d-777a-4461-a92a-6845c43c397c","ios":"levelo://app?vid=057c9c8d-777a-4461-a92a-6845c43c397c"},"vehicle_type_id":"4","last_reported":1767291426,"current_range_meters":9200,"station_id":"ce4bh292rcd13ifvqdf0","pricing_plan_id":"cebpf4jnsgd1na2vs0mg"},{"bike_id":"95ef63f3-7281-4363-b859-2e0d817e364e","system_id":"levelo_inurba_marseille","lat":43.29488,"lon":5.43309,"is_reserved":false,"is_disabled":false,"rental_uris":{"android":"levelo://app?vid=95ef63f3-7281-4363-b859-2e0d817e364e","ios":"levelo://app?vid=95ef63f3-7281-4363-b859-2e0d817e364e"},"vehicle_type_id":"4","last_reported":1767291426,"current_range_meters":9200,"station_id":"st_d3j5ugp08ojc73fj9d10","pricing_plan_id":"cebpf4jnsgd1na2vs0mg"},{"bike_id":"833f040f-d0af-41ac-b103-c33ebe1a5661","system_id":"levelo_inurba_marseille","lat":43.28533,"lon":5.44085,"is_reserved":false,"is_disabled":false,"rental_uris":{"android":"levelo://app?vid=833f040f-d0af-41ac-b103-c33ebe1a5661","ios":"levelo://app?vid=833f040f-d0af-41ac-b103-c33ebe1a5661"},"vehicle_type_id":"4","last_reported":1767291426,"current_range_meters":9200,"station_id":"st_d3j3df2ikq2c7380ej80","pricing_plan_id":"cebpf4jnsgd1na2vs0mg"},{"bike_id":"25f1743a-a2b2-454e-84ce-5c43f5ea30d3","system_id":"levelo_inurba_marseille","lat":43.29896,"lon":5.43689,"is_reserved":false,"is_disabled":false,"rental_uris":{"android":"levelo://app?vid=25f1743a-a2b2-454e-84ce-5c43f5ea30d3","ios":"levelo://app?vid=25f1743a-a2b2-454e-84ce-5c43f5ea30d3"},"vehicle_type_id":"4","last_reported":1767291426,"current_range_meters":9200,"station_id":"ce4bhpp2rcd13ifvqhfg","pricing_plan_id":"cebpf4jnsgd1na2vs0mg"},{"bike_id":"733bf242-5a53-4ca9-b230-a06388271b0f","system_id":"levelo_inurba_marseille","lat":43.30929,"lon":5.4015,"is_reserved":false,"is_disabled":false,"rental_uris":{"android":"levelo://app?vid=733bf242-5a53-4ca9-b230-a06388271b0f","ios":"levelo://app?vid=733bf242-5a53-4ca9-b230-a06388271b0f"},"vehicle_type_id":"4","last_reported":1767291426,"current_range_meters":9200,"station_id":"ce4bgvp2rcd13ifvqct0","pricing_plan_id":"cebpf4jnsgd1na2vs0mg"},{"bike_id":"4c1a9204-8bd3-4b28-a4a1-69926dca390c","system_id":"levelo_inurba_marseille","lat":43.29627,"lon":5.37723,"is_reserved":false,"is_disabled":false,"rental_uris":{"android":"levelo://app?vid=4c1a9204-8bd3-4b28-a4a1-69926dca390c","ios":"levelo://app?vid=4c1a9204-8bd3-4b28-a4a1-69926dca390c"},"vehicle_type_id":"4","last_reported":1767291426,"current_range_meters":9200,"station_id":"ce4bgi92rcd13ifvqb90","pricing_plan_id":"cebpf4jnsgd1na2vs0mg"},{"bike_id":"f3a4c2fd-c27a-4ca6-bbe5-3949d2a88808","system_id":"levelo_inurba_marseille","lat":43.28604,"lon":5.42958,"is_reserved":false,"is_disabled":false,"rental_uris":{"android":"levelo://app?vid=f3a4c2fd-c27a-4ca6-bbe5-3949d2a88808","ios":"levelo://app?vid=f3a4c2fd-c27a-4ca6-bbe5-3949d2a88808"},"vehicle_type_id":"4","last_reported":1767291426,"current_range_meters":9200,"station_id":"","pricing_plan_id":"cebpf4jnsgd1na2vs0mg"},{"bike_id":"c70225d4-a502-4469-93b2-aecf70c63654","system_id":"levelo_inurba_marseille","lat":43.25587,"lon":5.38223,"is_reserved":false,"is_disabled":false,"rental_uris":{"android":"levelo://app?vid=c70225d4-a502-4469-93b2-aecf70c63654","ios":"levelo://app?vid=c70225d4-a502-4469-93b2-aecf70c63654"},"vehicle_type_id":"4","last_reported":1767291426,"current_range_meters":9200,"station_id":"ce4bhih2rcd13ifvqfs0","pricing_plan_id":"cebpf4jnsgd1na2vs0mg"},{"bike_id":"4ab66b80-95a0-46d9-82e9-e0a6563b7b29","system_id":"levelo_inurba_marseille","lat":43.30543,"lon":5.367,"is_reserved":false,"is_disabled":false,"rental_uris":{"android":"levelo://app?vid=4ab66b80-95a0-46d9-82e9-e0a6563b7b29","ios":"levelo://app?vid=4ab66b80-95a0-46d9-82e9-e0a6563b7b29"},"vehicle_type_id":"4","last_reported":1767291426,"current_range_meters":9200,"station_id":"ce4bgrp2rcd13ifvqc9g","pricing_plan_id":"cebpf4jnsgd1na2vs0mg"},{"bike_id":"406f64a0-da6e-49db-a7ac-d7a777f3175c","system_id":"levelo_inurba_marseille","lat":43.27318,"lon":5.39084,"is_reserved":false,"is_disabled":false,"rental_uris":{"android":"levelo://app?vid=406f64a0-da6e-49db-a7ac-d7a777f3175c","ios":"levelo://app?vid=406f64a0-da6e-49db-a7ac-d7a777f3175c"},"vehicle_type_id":"4","last_reported":1767291426,"current_range_meters":9200,"station_id":"ce4bhgp2rcd13ifvqfe0","pricing_plan_id":"cebpf4jnsgd1na2vs0mg"},{"bike_id":"3fd00cb0-0645-4a8c-874a-2e0df62cb4f5","system_id":"levelo_inurba_marseille","lat":43.297255,"lon":5.380692,"is_reserved":false,"is_disabled":false,"rental_uris":{"android":"levelo://app?vid=3fd00cb0-0645-4a8c-874a-2e0df62cb4f5","ios":"levelo://app?vid=3fd00cb0-0645-4a8c-874a-2e0df62cb4f5"},"vehicle_type_id":"4","last_reported":1767291426,"current_range_meters":9200,"station_id":"","pricing_plan_id":"cebpf4jnsgd1na2vs0mg"},{"bike_id":"aa12a6b9-cfb1-4b8c-a54c-21411a1fc69e","system_id":"levelo_inurba_marseille","lat":43.2655,"lon":5.39013,"is_reserved":false,"is_disabled":false,"rental_uris":{"android":"levelo://app?vid=aa12a6b9-cfb1-4b8c-a54c-21411a1fc69e","ios":"levelo://app?vid=aa12a6b9-cfb1-4b8c-a54c-21411a1fc69e"},"vehicle_type_id":"4","last_reported":1767291426,"current_range_meters":9200,"station_id":"ce4bhe12rcd13ifvqf30","pricing_plan_id":"cebpf4jnsgd1na2vs0mg"},{"bike_id":"452c9308-1d65-46c9-a1e4-f23f0d8a5152","system_id":"levelo_inurba_marseille","lat":43.28034,"lon":5.36948,"is_reserved":false,"is_disabled":false,"rental_uris":{"android":"levelo://app?vid=452c9308-1d65-46c9-a1e4-f23f0d8a5152","ios":"levelo://app?vid=452c9308-1d65-46c9-a1e4-f23f0d8a5152"},"vehicle_type_id":"4","last_reported":1767291426,"current_range_meters":9200,"station_id":"ce4bha12rcd13ifvqef0","pricing_plan_id":"cebpf4jnsgd1na2vs0mg"},{"bike_id":"8ec323f5-d892-40a6-914f-420edb6cdb0a","system_id":"levelo_inurba_marseille","lat":43.28853,"lon":5.39315,"is_reserved":false,"is_disabled":false,"rental_uris":{"android":"levelo://app?vid=8ec323f5-d892-40a6-914f-420edb6cdb0a","ios":"levelo://app?vid=8ec323f5-d892-40a6-914f-420edb6cdb0a"},"vehicle_type_id":"4","last_reported":1767291426,"current_range_meters":9200,"station_id":"ce4bh2p2rcd13ifvqdi0","pricing_plan_id":"cebpf4jnsgd1na2vs0mg"},{"bike_id":"bebec6bc-9df3-406e-90bc-396ce2b3b0b3","system_id":"levelo_inurba_marseille","lat":43.2637,"lon":5.3741,"is_reserved":false,"is_disabled":false,"rental_uris":{"android":"levelo://app?vid=bebec6bc-9df3-406e-90bc-396ce2b3b0b3","ios":"levelo://app?vid=bebec6bc-9df3-406e-90bc-396ce2b3b0b3"},"vehicle_type_id":"4","last_reported":1767291426,"current_range_meters":9200,"station_id":"","pricing_plan_id":"cebpf4jnsgd1na2vs0mg"},{"bike_id":"1e76a634-1236-4429-a6ca-562668962923","system_id":"levelo_inurba_marseille","lat":43.25227,"lon":5.39435,"is_reserved":false,"is_disabled":false,"rental_uris":{"android":"levelo://app?vid=1e76a634-1236-4429-a6ca-562668962923","ios":"levelo://app?vid=1e76a634-1236-4429-a6ca-562668962923"},"vehicle_type_id":"4","last_reported":1767291426,"current_range_meters":9600,"station_id":"","pricing_plan_id":"cebpf4jnsgd1na2vs0mg"},{"bike_id":"eae3ff06-d7a5-464a-8297-c6b4b0ceb3a3","system_id":"levelo_inurba_marseille","lat":43.2952,"lon":5.38548,"is_reserved":false,"is_disabled":false,"rental_uris":{"android":"levelo://app?vid=eae3ff06-d7a5-464a-8297-c6b4b0ceb3a3","ios":"levelo://app?vid=eae3ff06-d7a5-464a-8297-c6b4b0ceb3a3"},"vehicle_type_id":"4","last_reported":1767291426,"current_range_meters":9600,"station_id":"ce4bgih2rcd13ifvqba0","pricing_plan_id":"cebpf4jnsgd1na2vs0mg"},{"bike_id":"1976f061-e064-45cd-9d75-48c90f29fe4d","system_id":"levelo_inurba_marseille","lat":43.28411,"lon":5.34984,"is_reserved":false,"is_disabled":false,"rental_uris":{"android":"levelo://app?vid=1976f061-e064-45cd-9d75-48c90f29fe4d","ios":"levelo://app?vid=1976f061-e064-45cd-9d75-48c90f29fe4d"},"vehicle_type_id":"4","last_reported":1767291426,"current_range_meters":9600,"station_id":"ce4bhbh2rcd13ifvqepg","pricing_plan_id":"cebpf4jnsgd1na2vs0mg"},{"bike_id":"ede706ac-0aa1-4fac-a91c-dde6c443a110","system_id":"levelo_inurba_marseille","lat":43.29042,"lon":5.39954,"is_reserved":false,"is_disabled":false,"rental_uris":{"android":"levelo://app?vid=ede706ac-0aa1-4fac-a91c-dde6c443a110","ios":"levelo://app?vid=ede706ac-0aa1-4fac-a91c-dde6c443a110"},"vehicle_type_id":"4","last_reported":1767291426,"current_range_meters":9600,"station_id":"ce4bh392rcd13ifvqdm0","pricing_plan_id":"cebpf4jnsgd1na2vs0mg"},{"bike_id":"7f8c1213-60b7-4367-a2bf-21350ef37308","system_id":"levelo_inurba_marseille","lat":43.27375,"lon":5.36256,"is_reserved":false,"is_disabled":true,"rental_uris":{"android":"levelo://app?vid=7f8c1213-60b7-4367-a2bf-21350ef37308","ios":"levelo://app?vid=7f8c1213-60b7-4367-a2bf-21350ef37308"},"vehicle_type_id":"4","last_reported":1767291426,"current_range_meters":9600,"station_id":"ce4bhbh2rcd13ifvqeo0","pricing_plan_id":"cebpf4jnsgd1na2vs0mg"},{"bike_id":"de4d6dec-43d6-4438-b1b1-061395e51b1a","system_id":"levelo_inurba_marseille","lat":43.28468,"lon":5.38405,"is_reserved":false,"is_disabled":false,"rental_uris":{"android":"levelo://app?vid=de4d6dec-43d6-4438-b1b1-061395e51b1a","ios":"levelo://app?vid=de4d6dec-43d6-4438-b1b1-061395e51b1a"},"vehicle_type_id":"4","last_reported":1767291426,"current_range_meters":9600,"station_id":"ce4bh512rcd13ifvqe3g","pricing_plan_id":"cebpf4jnsgd1na2vs0mg"},{"bike_id":"54045760-2072-46e5-a5c4-00c3b9646aa6","system_id":"levelo_inurba_marseille","lat":43.29989,"lon":5.37165,"is_reserved":false,"is_disabled":false,"rental_uris":{"android":"levelo://app?vid=54045760-2072-46e5-a5c4-00c3b9646aa6","ios":"levelo://app?vid=54045760-2072-46e5-a5c4-00c3b9646aa6"},"vehicle_type_id":"4","last_reported":1767291426,"current_range_meters":9600,"station_id":"ce4bgr92rcd13ifvqc7g","pricing_plan_id":"cebpf4jnsgd1na2vs0mg"},{"bike_id":"b6c2de47-37fa-44c1-ae2a-ab2b9c904820","system_id":"levelo_inurba_marseille","lat":43.28475,"lon":5.38486,"is_reserved":false,"is_disabled":false,"rental_uris":{"android":"levelo://app?vid=b6c2de47-37fa-44c1-ae2a-ab2b9c904820","ios":"levelo://app?vid=b6c2de47-37fa-44c1-ae2a-ab2b9c904820"},"vehicle_type_id":"4","last_reported":1767291426,"current_range_meters":9600,"station_id":"","pricing_plan_id":"cebpf4jnsgd1na2vs0mg"},{"bike_id":"d8431e58-d3e8-4456-9570-729e3ebbcc73","system_id":"levelo_inurba_marseille","lat":43.30171,"lon":5.37254,"is_reserved":false,"is_disabled":false,"rental_uris":{"android":"levelo://app?vid=d8431e58-d3e8-4456-9570-729e3ebbcc73","ios":"levelo://app?vid=d8431e58-d3e8-4456-9570-729e3ebbcc73"},"vehicle_type_id":"4","last_reported":1767291426,"current_range_meters":9600,"station_id":"","pricing_plan_id":"cebpf4jnsgd1na2vs0mg"},{"bike_id":"27eab711-3794-4c67-b72c-787e5b4b546b","system_id":"levelo_inurba_marseille","lat":43.25579,"lon":5.3822,"is_reserved":false,"is_disabled":false,"rental_uris":{"android":"levelo://app?vid=27eab711-3794-4c67-b72c-787e5b4b546b","ios":"levelo://app?vid=27eab711-3794-4c67-b72c-787e5b4b546b"},"vehicle_type_id":"4","last_reported":1767291426,"current_range_meters":9600,"station_id":"ce4bhih2rcd13ifvqfs0","pricing_plan_id":"cebpf4jnsgd1na2vs0mg"},{"bike_id":"d65f38a0-16ac-411e-b5ad-4378b79af6aa","system_id":"levelo_inurba_marseille","lat":43.31335,"lon":5.39688,"is_reserved":false,"is_disabled":false,"rental_uris":{"android":"levelo://app?vid=d65f38a0-16ac-411e-b5ad-4378b79af6aa","ios":"levelo://app?vid=d65f38a0-16ac-411e-b5ad-4378b79af6aa"},"vehicle_type_id":"4","last_reported":1767291426,"current_range_meters":9600,"station_id":"ce4bgvp2rcd13ifvqcu0","pricing_plan_id":"cebpf4jnsgd1na2vs0mg"},{"bike_id":"4d2ab501-3ef8-4761-b035-45ba42b71b81","system_id":"levelo_inurba_marseille","lat":43.31076,"lon":5.38352,"is_reserved":false,"is_disabled":false,"rental_uris":{"android":"levelo://app?vid=4d2ab501-3ef8-4761-b035-45ba42b71b81","ios":"levelo://app?vid=4d2ab501-3ef8-4761-b035-45ba42b71b81"},"vehicle_type_id":"4","last_reported":1767291426,"current_range_meters":9600,"station_id":"ce4bgv92rcd13ifvqcr0","pricing_plan_id":"cebpf4jnsgd1na2vs0mg"},{"bike_id":"961a4b80-6a80-41fc-af4e-cb7c655480a6","system_id":"levelo_inurba_marseille","lat":43.283003,"lon":5.397544,"is_reserved":false,"is_disabled":true,"rental_uris":{"android":"levelo://app?vid=961a4b80-6a80-41fc-af4e-cb7c655480a6","ios":"levelo://app?vid=961a4b80-6a80-41fc-af4e-cb7c655480a6"},"vehicle_type_id":"4","last_reported":1767291426,"current_range_meters":9600,"station_id":"","pricing_plan_id":"cebpf4jnsgd1na2vs0mg"},{"bike_id":"c9130f24-ffb5-404d-851b-31b1e51ee848","system_id":"levelo_inurba_marseille","lat":43.29277,"lon":5.38451,"is_reserved":false,"is_disabled":false,"rental_uris":{"android":"levelo://app?vid=c9130f24-ffb5-404d-851b-31b1e51ee848","ios":"levelo://app?vid=c9130f24-ffb5-404d-851b-31b1e51ee848"},"vehicle_type_id":"4","last_reported":1767291426,"current_range_meters":9600,"station_id":"ce4bh692rcd13ifvqea0","pricing_plan_id":"cebpf4jnsgd1na2vs0mg"},{"bike_id":"d91ae54a-7bf3-4ed8-8530-59d902b2e096","system_id":"levelo_inurba_marseille","lat":43.30146,"lon":5.38088,"is_reserved":false,"is_disabled":false,"rental_uris":{"android":"levelo://app?vid=d91ae54a-7bf3-4ed8-8530-59d902b2e096","ios":"levelo://app?vid=d91ae54a-7bf3-4ed8-8530-59d902b2e096"},"vehicle_type_id":"4","last_reported":1767291426,"current_range_meters":9600,"station_id":"ce4bgjp2rcd13ifvqbh0","pricing_plan_id":"cebpf4jnsgd1na2vs0mg"},{"bike_id":"9084a57a-ca9b-4855-8c61-8dc66fb8e1a1","system_id":"levelo_inurba_marseille","lat":43.30535,"lon":5.38423,"is_reserved":false,"is_disabled":false,"rental_uris":{"android":"levelo://app?vid=9084a57a-ca9b-4855-8c61-8dc66fb8e1a1","ios":"levelo://app?vid=9084a57a-ca9b-4855-8c61-8dc66fb8e1a1"},"vehicle_type_id":"4","last_reported":1767291426,"current_range_meters":9600,"station_id":"ce4bgg92rcd13ifvqb30","pricing_plan_id":"cebpf4jnsgd1na2vs0mg"},{"bike_id":"742c6f83-505c-4b7a-9287-055944847b8e","system_id":"levelo_inurba_marseille","lat":43.2318,"lon":5.35627,"is_reserved":false,"is_disabled":false,"rental_uris":{"android":"levelo://app?vid=742c6f83-505c-4b7a-9287-055944847b8e","ios":"levelo://app?vid=742c6f83-505c-4b7a-9287-055944847b8e"},"vehicle_type_id":"4","last_reported":1767291426,"current_range_meters":9600,"station_id":"","pricing_plan_id":"cebpf4jnsgd1na2vs0mg"},{"bike_id":"f7cc14a3-8c73-4fca-a4c6-edd380709817","system_id":"levelo_inurba_marseille","lat":43.3356,"lon":5.37464,"is_reserved":false,"is_disabled":false,"rental_uris":{"android":"levelo://app?vid=f7cc14a3-8c73-4fca-a4c6-edd380709817","ios":"levelo://app?vid=f7cc14a3-8c73-4fca-a4c6-edd380709817"},"vehicle_type_id":"4","last_reported":1767291426,"current_range_meters":9600,"station_id":"st_d46tts09ee8s73dlu43g","pricing_plan_id":"cebpf4jnsgd1na2vs0mg"},{"bike_id":"9a253175-fef0-4c75-a8d8-bb357322efb0","system_id":"levelo_inurba_marseille","lat":43.2119,"lon":5.35083,"is_reserved":false,"is_disabled":false,"rental_uris":{"android":"levelo://app?vid=9a253175-fef0-4c75-a8d8-bb357322efb0","ios":"levelo://app?vid=9a253175-fef0-4c75-a8d8-bb357322efb0"},"vehicle_type_id":"4","last_reported":1767291426,"current_range_meters":9600,"station_id":"st_cvj6sg6p6f1abm77japg","pricing_plan_id":"cebpf4jnsgd1na2vs0mg"},{"bike_id":"0dd4a556-e681-468a-b7b3-d7d51ff9dd07","system_id":"levelo_inurba_marseille","lat":43.26504,"lon":5.39545,"is_reserved":false,"is_disabled":false,"rental_uris":{"android":"levelo://app?vid=0dd4a556-e681-468a-b7b3-d7d51ff9dd07","ios":"levelo://app?vid=0dd4a556-e681-468a-b7b3-d7d51ff9dd07"},"vehicle_type_id":"4","last_reported":1767291426,"current_range_meters":9600,"station_id":"ce4bhi12rcd13ifvqfq0","pricing_plan_id":"cebpf4jnsgd1na2vs0mg"},{"bike_id":"f706dea8-efae-45c7-a0d0-ef3606201ff7","system_id":"levelo_inurba_marseille","lat":43.23972,"lon":5.36633,"is_reserved":false,"is_disabled":false,"rental_uris":{"android":"levelo://app?vid=f706dea8-efae-45c7-a0d0-ef3606201ff7","ios":"levelo://app?vid=f706dea8-efae-45c7-a0d0-ef3606201ff7"},"vehicle_type_id":"4","last_reported":1767291426,"current_range_meters":9600,"station_id":"ce4bhi12rcd13ifvqfp0","pricing_plan_id":"cebpf4jnsgd1na2vs0mg"},{"bike_id":"713b2eaa-bc4b-456a-9c0e-6bd5e8150b43","system_id":"levelo_inurba_marseille","lat":43.29554,"lon":5.38511,"is_reserved":false,"is_disabled":false,"rental_uris":{"android":"levelo://app?vid=713b2eaa-bc4b-456a-9c0e-6bd5e8150b43","ios":"levelo://app?vid=713b2eaa-bc4b-456a-9c0e-6bd5e8150b43"},"vehicle_type_id":"4","last_reported":1767291426,"current_range_meters":10000,"station_id":"ce4bgih2rcd13ifvqba0","pricing_plan_id":"cebpf4jnsgd1na2vs0mg"},{"bike_id":"62bbb4f8-cd37-4703-914d-4c2cbb4345e1","system_id":"levelo_inurba_marseille","lat":43.28062,"lon":5.39633,"is_reserved":false,"is_disabled":false,"rental_uris":{"android":"levelo://app?vid=62bbb4f8-cd37-4703-914d-4c2cbb4345e1","ios":"levelo://app?vid=62bbb4f8-cd37-4703-914d-4c2cbb4345e1"},"vehicle_type_id":"4","last_reported":1767291426,"current_range_meters":10000,"station_id":"ce4bho12rcd13ifvqh2g","pricing_plan_id":"cebpf4jnsgd1na2vs0mg"},{"bike_id":"9b0b3a33-0018-400c-b05f-2dc1b1ae2357","system_id":"levelo_inurba_marseille","lat":43.28264,"lon":5.35079,"is_reserved":false,"is_disabled":false,"rental_uris":{"android":"levelo://app?vid=9b0b3a33-0018-400c-b05f-2dc1b1ae2357","ios":"levelo://app?vid=9b0b3a33-0018-400c-b05f-2dc1b1ae2357"},"vehicle_type_id":"4","last_reported":1767291426,"current_range_meters":10000,"station_id":"ce4bhbp2rcd13ifvqerg","pricing_plan_id":"cebpf4jnsgd1na2vs0mg"},{"bike_id":"303fc977-bc34-40d7-a7b6-1a8c63d2d925","system_id":"levelo_inurba_marseille","lat":43.217393,"lon":5.345996,"is_reserved":false,"is_disabled":false,"rental_uris":{"android":"levelo://app?vid=303fc977-bc34-40d7-a7b6-1a8c63d2d925","ios":"levelo://app?vid=303fc977-bc34-40d7-a7b6-1a8c63d2d925"},"vehicle_type_id":"4","last_reported":1767291426,"current_range_meters":10000,"station_id":"st_cvj6r9ubvosntc0bgbag","pricing_plan_id":"cebpf4jnsgd1na2vs0mg"},{"bike_id":"6d9b2f2c-2b32-4802-8d10-2918fe31bf10","system_id":"levelo_inurba_marseille","lat":43.28473,"lon":5.38432,"is_reserved":false,"is_disabled":false,"rental_uris":{"android":"levelo://app?vid=6d9b2f2c-2b32-4802-8d10-2918fe31bf10","ios":"levelo://app?vid=6d9b2f2c-2b32-4802-8d10-2918fe31bf10"},"vehicle_type_id":"4","last_reported":1767291426,"current_range_meters":10000,"station_id":"ce4bh512rcd13ifvqe3g","pricing_plan_id":"cebpf4jnsgd1na2vs0mg"},{"bike_id":"61dc19d1-1245-4744-8a4c-a9a5206d460f","system_id":"levelo_inurba_marseille","lat":43.28418,"lon":5.37516,"is_reserved":false,"is_disabled":false,"rental_uris":{"android":"levelo://app?vid=61dc19d1-1245-4744-8a4c-a9a5206d460f","ios":"levelo://app?vid=61dc19d1-1245-4744-8a4c-a9a5206d460f"},"vehicle_type_id":"4","last_reported":1767291426,"current_range_meters":10000,"station_id":"ce4bh412rcd13ifvqds0","pricing_plan_id":"cebpf4jnsgd1na2vs0mg"},