{"last_updated":1735610968,"ttl":60,"version":"2.2","data":{"bikes":[{"bike_id":"9ee1cc8c-fe91-459c-8e66-f749615c0868","system_id":"levelo_inurba_marseille","lat":43.28348,"lon":5.38113,"is_reserved":false,"is_disabled":false,"rental_uris":{"android":"levelo://app?vid=9ee1cc8c-fe91-459c-8e66-f749615c0868","ios":"levelo://app?vid=9ee1cc8c-fe91-459c-8e66-f749615c0868"},"vehicle_type_id":"4","last_reported":1735610968,"current_range_meters":30800,"station_id":"ce4bh412rcd13ifvqdr0","pricing_plan_id":"cebpf4jnsgd1na2vs0mg"},{"bike_id":"dfe733a5-4ff0-4b3d-be5f-5f6c47573692","system_id":"levelo_inurba_marseille","lat":43.27991,"lon":5.40014,"is_reserved":false,"is_disabled":false,"rental_uris":{"android":"levelo://app?vid=dfe733a5-4ff0-4b3d-be5f-5f6c47573692","ios":"levelo://app?vid=dfe733a5-4ff0-4b3d-be5f-5f6c47573692"},"vehicle_type_id":"4","last_reported":1735610968,"current_range_meters":24800,"station_id":"ce4bho92rcd13ifvqh4g","pricing_plan_id":"cebpf4jnsgd1na2vs0mg"},{"bike_id":"446d3da9-7829-402c-97cb-ca1dad65cd97","system_id":"levelo_inurba_marseille","lat":43.27188,"lon":5.40978,"is_reserved":false,"is_disabled":false,"rental_uris":{"android":"levelo://app?vid=446d3da9-7829-402c-97cb-ca1dad65cd97","ios":"levelo://app?vid=446d3da9-7829-402c-97cb-ca1dad65cd97"},"vehicle_type_id":"4","last_reported":1735610968,"current_range_meters":31200,"station_id":"ce4bhl12rcd13ifvqgf0","pricing_plan_id":"cebpf4jnsgd1na2vs0mg"},{"bike_id":"5618551c-9f45-4731-8c96-d09b63ba91c0","system_id":"levelo_inurba_marseille","lat":43.23966,"lon":5.36631,"is_reserved":false,"is_disabled":false,"rental_uris":{"android":"levelo://app?vid=5618551c-9f45-4731-8c96-d09b63ba91c0","ios":"levelo://app?vid=5618551c-9f45-4731-8c96-d09b63ba91c0"},"vehicle_type_id":"4","last_reported":1735610968,"current_range_meters":39200,"station_id":"ce4bhi12rcd13ifvqfp0","pricing_plan_id":"cebpf4jnsgd1na2vs0mg"},{"bike_id":"e913f89e-e946-4c8d-92ee-602bc62b9ac4","system_id":"levelo_inurba_marseille","lat":43.27996,"lon":5.41667,"is_reserved":false,"is_disabled":false,"rental_uris":{"android":"levelo://app?vid=e913f89e-e946-4c8d-92ee-602bc62b9ac4","ios":"levelo://app?vid=e913f89e-e946-4c8d-92ee-602bc62b9ac4"},"vehicle_type_id":"4","last_reported":1735610968,"current_range_meters":19200,"station_id":"ce4bho12rcd13ifvqh1g","pricing_plan_id":"cebpf4jnsgd1na2vs0mg"},{"bike_id":"fcfecb48-844e-4db1-a48b-032182849c4f","system_id":"levelo_inurba_marseille","lat":43.24689,"lon":5.38146,"is_reserved":false,"is_disabled":false,"rental_uris":{"android":"levelo://app?vid=fcfecb48-844e-4db1-a48b-032182849c4f","ios":"levelo://app?vid=fcfecb48-844e-4db1-a48b-032182849c4f"},"vehicle_type_id":"4","last_reported":1735610968,"current_range_meters":38800,"station_id":"ce4bhih2rcd13ifvqfr0","pricing_plan_id":"cebpf4jnsgd1na2vs0mg"},{"bike_id":"0c4d407c-6cb3-4649-ac2d-959dc9dbd1fc","system_id":"levelo_inurba_marseille","lat":43.27948,"lon":5.41049,"is_reserved":false,"is_disabled":false,"rental_uris":{"android":"levelo://app?vid=0c4d407c-6cb3-4649-ac2d-959dc9dbd1fc","ios":"levelo://app?vid=0c4d407c-6cb3-4649-ac2d-959dc9dbd1fc"},"vehicle_type_id":"4","last_reported":1735610968,"current_range_meters":26000,"station_id":"ce4bhnp2rcd13ifvqh0g","pricing_plan_id":"cebpf4jnsgd1na2vs0mg"},{"bike_id":"672570b7-0021-456f-9c33-3ddc7cb8bcc3","system_id":"levelo_inurba_marseille","lat":43.31761,"lon":5.39022,"is_reserved":false,"is_disabled":false,"rental_uris":{"android":"levelo://app?vid=672570b7-0021-456f-9c33-3ddc7cb8bcc3","ios":"levelo://app?vid=672570b7-0021-456f-9c33-3ddc7cb8bcc3"},"vehicle_type_id":"4","last_reported":1735610968,"current_range_meters":37600,"station_id":"ce4bhqp2rcd13ifvqhng","pricing_plan_id":"cebpf4jnsgd1na2vs0mg"},{"bike_id":"7b249d70-461f-44a0-85a7-27da2f485954","system_id":"levelo_inurba_marseille","lat":43.30476,"lon":5.37895,"is_reserved":false,"is_disabled":false,"rental_uris":{"android":"levelo://app?vid=7b249d70-461f-44a0-85a7-27da2f485954","ios":"levelo://app?vid=7b249d70-461f-44a0-85a7-27da2f485954"},"vehicle_type_id":"4","last_reported":1735610968,"current_range_meters":20400,"station_id":"ce4bgup2rcd13ifvqcn0","pricing_plan_id":"cebpf4jnsgd1na2vs0mg"},{"bike_id":"3991aac2-ec7f-43c8-801f-23e11845f2d6","system_id":"levelo_inurba_marseille","lat":43.28169,"lon":5.42649,"is_reserved":false,"is_disabled":false,"rental_uris":{"android":"levelo://app?vid=3991aac2-ec7f-43c8-801f-23e11845f2d6","ios":"levelo://app?vid=3991aac2-ec7f-43c8-801f-23e11845f2d6"},"vehicle_type_id":"4","last_reported":1735610968,"current_range_meters":38800,"station_id":"ce4bhnh2rcd13ifvqgug","pricing_plan_id":"cebpf4jnsgd1na2vs0mg"},{"bike_id":"a1ab0d28-2140-447a-a8bd-848b59581399","system_id":"levelo_inurba_marseille","lat":43.29963,"lon":5.38497,"is_reserved":false,"is_disabled":false,"rental_uris":{"android":"levelo://app?vid=a1ab0d28-2140-447a-a8bd-848b59581399","ios":"levelo://app?vid=a1ab0d28-2140-447a-a8bd-848b59581399"},"vehicle_type_id":"4","last_reported":1735610968,"current_range_meters":16000,"station_id":"ce4bgj92rcd13ifvqbd0","pricing_plan_id":"cebpf4jnsgd1na2vs0mg"},{"bike_id":"2d5d90b5-c94c-4665-a965-8f41c4180208","system_id":"levelo_inurba_marseille","lat":43.303185,"lon":5.404312,"is_reserved":false,"is_disabled":false,"rental_uris":{"android":"levelo://app?vid=2d5d90b5-c94c-4665-a965-8f41c4180208","ios":"levelo://app?vid=2d5d90b5-c94c-4665-a965-8f41c4180208"},"vehicle_type_id":"4","last_reported":1735610968,"current_range_meters":12800,"station_id":"ce4bh012rcd13ifvqd10","pricing_plan_id":"cebpf4jnsgd1na2vs0mg"},{"bike_id":"baaa04e6-afd5-4746-9e82-9d2e405bde6f","system_id":"levelo_inurba_marseille","lat":43.28461,"lon":5.35889,"is_reserved":false,"is_disabled":false,"rental_uris":{"android":"levelo://app?vid=baaa04e6-afd5-4746-9e82-9d2e405bde6f","ios":"levelo://app?vid=baaa04e6-afd5-4746-9e82-9d2e405bde6f"},"vehicle_type_id":"4","last_reported":1735610968,"current_range_meters":20400,"station_id":"ce4bhah2rcd13ifvqei0","pricing_plan_id":"cebpf4jnsgd1na2vs0mg"},{"bike_id":"5f61f6d8-7fca-4f20-a60d-8d6b18956b4d","system_id":"levelo_inurba_marseille","lat":43.314986,"lon":5.373018,"is_reserved":false,"is_disabled":false,"rental_uris":{"android":"levelo://app?vid=5f61f6d8-7fca-4f20-a60d-8d6b18956b4d","ios":"levelo://app?vid=5f61f6d8-7fca-4f20-a60d-8d6b18956b4d"},"vehicle_type_id":"4","last_reported":1735610968,"current_range_meters":39200,"station_id":"ce4bgt12rcd13ifvqcd0","pricing_plan_id":"cebpf4jnsgd1na2vs0mg"},{"bike_id":"3b3d2c75-4195-4f81-af35-afa13ebc8eea","system_id":"levelo_inurba_marseille","lat":43.27381,"lon":5.36252,"is_reserved":false,"is_disabled":true,"rental_uris":{"android":"levelo://app?vid=3b3d2c75-4195-4f81-af35-afa13ebc8eea","ios":"levelo://app?vid=3b3d2c75-4195-4f81-af35-afa13ebc8eea"},"vehicle_type_id":"4","last_reported":1735610968,"current_range_meters":19200,"station_id":"ce4bhbh2rcd13ifvqeo0","pricing_plan_id":"cebpf4jnsgd1na2vs0mg"},{"bike_id":"34746fd6-7d22-4962-bfa1-605bd86ec832","system_id":"levelo_inurba_marseille","lat":43.25488,"lon":5.37664,"is_reserved":false,"is_disabled":false,"rental_uris":{"android":"levelo://app?vid=34746fd6-7d22-4962-bfa1-605bd86ec832","ios":"levelo://app?vid=34746fd6-7d22-4962-bfa1-605bd86ec832"},"vehicle_type_id":"4","last_reported":1735610968,"current_range_meters":39200,"station_id":"ce4bhh12rcd13ifvqff0","pricing_plan_id":"cebpf4jnsgd1na2vs0mg"},{"bike_id":"a6d96a10-8654-43e1-a269-aa0800b72273","system_id":"levelo_inurba_marseille","lat":43.24409,"lon":5.37056,"is_reserved":false,"is_disabled":false,"rental_uris":{"android":"levelo://app?vid=a6d96a10-8654-43e1-a269-aa0800b72273","ios":"levelo://app?vid=a6d96a10-8654-43e1-a269-aa0800b72273"},"vehicle_type_id":"4","last_reported":1735610968,"current_range_meters":38000,"station_id":"ce4bhhh2rcd13ifvqfk0","pricing_plan_id":"cebpf4jnsgd1na2vs0mg"},{"bike_id":"1b5e180c-fe57-4417-8089-79e593d5636b","system_id":"levelo_inurba_marseille","lat":43.29229,"lon":5.36081,"is_reserved":false,"is_disabled":false,"rental_uris":{"android":"levelo://app?vid=1b5e180c-fe57-4417-8089-79e593d5636b","ios":"levelo://app?vid=1b5e180c-fe57-4417-8089-79e593d5636b"},"vehicle_type_id":"4","last_reported":1735610968,"current_range_meters":38800,"station_id":"ce4bhbh2rcd13ifvqeqg","pricing_plan_id":"cebpf4jnsgd1na2vs0mg"},{"bike_id":"42829605-3223-405b-88a1-d9f016e12eae","system_id":"levelo_inurba_marseille","lat":43.295315,"lon":5.385383,"is_reserved":false,"is_disabled":false,"rental_uris":{"android":"levelo://app?vid=42829605-3223-405b-88a1-d9f016e12eae","ios":"levelo://app?vid=42829605-3223-405b-88a1-d9f016e12eae"},"vehicle_type_id":"4","last_reported":1735610968,"current_range_meters":38000,"station_id":"ce4bgih2rcd13ifvqba0","pricing_plan_id":"cebpf4jnsgd1na2vs0mg"},{"bike_id":"4b2d39f3-d5d3-4cb8-a84c-a1c267b615dd","system_id":"levelo_inurba_marseille","lat":43.28262,"lon":5.35096,"is_reserved":false,"is_disabled":true,"rental_uris":{"android":"levelo://app?vid=4b2d39f3-d5d3-4cb8-a84c-a1c267b615dd","ios":"levelo://app?vid=4b2d39f3-d5d3-4cb8-a84c-a1c267b615dd"},"vehicle_type_id":"4","last_reported":1735610968,"current_range_meters":9200,"station_id":"ce4bhbp2rcd13ifvqerg","pricing_plan_id":"cebpf4jnsgd1na2vs0mg"},{"bike_id":"43d70a12-f23b-4eab-80ce-32f6ec951a07","system_id":"levelo_inurba_marseille","lat":43.27998,"lon":5.40014,"is_reserved":false,"is_disabled":false,"rental_uris":{"android":"levelo://app?vid=43d70a12-f23b-4eab-80ce-32f6ec951a07","ios":"levelo://app?vid=43d70a12-f23b-4eab-80ce-32f6ec951a07"},"vehicle_type_id":"4","last_reported":1735610968,"current_range_meters":38800,"station_id":"ce4bho92rcd13ifvqh4g","pricing_plan_id":"cebpf4jnsgd1na2vs0mg"},{"bike_id":"212240d8-dabe-419b-928f-404217f3ab31","system_id":"levelo_inurba_marseille","lat":43.30803,"lon":5.43533,"is_reserved":false,"is_disabled":false,"rental_uris":{"android":"levelo://app?vid=212240d8-dabe-419b-928f-404217f3ab31","ios":"levelo://app?vid=212240d8-dabe-419b-928f-404217f3ab31"},"vehicle_type_id":"4","last_reported":1735610968,"current_range_meters":30400,"station_id":"ce4bhph2rcd13ifvqheg","pricing_plan_id":"cebpf4jnsgd1na2vs0mg"},{"bike_id":"0c2c534d-73f6-4f28-b75b-7de36bf2593b","system_id":"levelo_inurba_marseille","lat":43.30955,"lon":5.3904,"is_reserved":false,"is_disabled":false,"rental_uris":{"android":"levelo://app?vid=0c2c534d-73f6-4f28-b75b-7de36bf2593b","ios":"levelo://app?vid=0c2c534d-73f6-4f28-b75b-7de36bf2593b"},"vehicle_type_id":"4","last_reported":1735610968,"current_range_meters":38800,"station_id":"ce4bgup2rcd13ifvqco0","pricing_plan_id":"cebpf4jnsgd1na2vs0mg"},{"bike_id":"a21363e4-dc7c-42de-85fa-b3f83ee8b9c2","system_id":"levelo_inurba_marseille","lat":43.24669,"lon":5.38162,"is_reserved":false,"is_disabled":true,"rental_uris":{"android":"levelo://app?vid=a21363e4-dc7c-42de-85fa-b3f83ee8b9c2","ios":"levelo://app?vid=a21363e4-dc7c-42de-85fa-b3f83ee8b9c2"},"vehicle_type_id":"4","last_reported":1735610968,"current_range_meters":32800,"station_id":"ce4bhih2rcd13ifvqfr0","pricing_plan_id":"cebpf4jnsgd1na2vs0mg"},{"bike_id":"837ce477-c0c2-4637-a705-d8844455f896","system_id":"levelo_inurba_marseille","lat":43.27567,"lon":5.38401,"is_reserved":false,"is_disabled":false,"rental_uris":{"android":"levelo://app?vid=837ce477-c0c2-4637-a705-d8844455f896","ios":"levelo://app?vid=837ce477-c0c2-4637-a705-d8844455f896"},"vehicle_type_id":"4","last_reported":1735610968,"current_range_meters":27600,"station_id":"ce4bhh92rcd13ifvqfi0","pricing_plan_id":"cebpf4jnsgd1na2vs0mg"},{"bike_id":"abfa2e5d-18b5-464f-93d1-e9e4d7a39628","system_id":"levelo_inurba_marseille","lat":43.27945,"lon":5.41043,"is_reserved":false,"is_disabled":false,"rental_uris":{"android":"levelo://app?vid=abfa2e5d-18b5-464f-93d1-e9e4d7a39628","ios":"levelo://app?vid=abfa2e5d-18b5-464f-93d1-e9e4d7a39628"},"vehicle_type_id":"4","last_reported":1735610968,"current_range_meters":10800,"station_id":"ce4bhnp2rcd13ifvqh0g","pricing_plan_id":"cebpf4jnsgd1na2vs0mg"},{"bike_id":"9f127707-1c6c-48e8-a99a-10ac0b7741a1","system_id":"levelo_inurba_marseille","lat":43.33603,"lon":5.41023,"is_reserved":false,"is_disabled":false,"rental_uris":{"android":"levelo://app?vid=9f127707-1c6c-48e8-a99a-10ac0b7741a1","ios":"levelo://app?vid=9f127707-1c6c-48e8-a99a-10ac0b7741a1"},"vehicle_type_id":"4","last_reported":1735610968,"current_range_meters":21600,"station_id":"ce4bhqh2rcd13ifvqhmg","pricing_plan_id":"cebpf4jnsgd1na2vs0mg"},{"bike_id":"4013f656-35a5-4926-aa2e-d8f7b73a3453","system_id":"levelo_inurba_marseille","lat":43.28405,"lon":5.37518,"is_reserved":false,"is_disabled":false,"rental_uris":{"android":"levelo://app?vid=4013f656-35a5-4926-aa2e-d8f7b73a3453","ios":"levelo://app?vid=4013f656-35a5-4926-aa2e-d8f7b73a3453"},"vehicle_type_id":"4","last_reported":1735610968,"current_range_meters":10800,"station_id":"ce4bh412rcd13ifvqds0","pricing_plan_id":"cebpf4jnsgd1na2vs0mg"},{"bike_id":"1d2cb942-2166-48e0-a31f-be8bfd073f3f","system_id":"levelo_inurba_marseille","lat":43.29915,"lon":5.37449,"is_reserved":false,"is_disabled":false,"rental_uris":{"android":"levelo://app?vid=1d2cb942-2166-48e0-a31f-be8bfd073f3f","ios":"levelo://app?vid=1d2cb942-2166-48e0-a31f-be8bfd073f3f"},"vehicle_type_id":"4","last_reported":1735610968,"current_range_meters":38800,"station_id":"ce4bgjh2rcd13ifvqbg0","pricing_plan_id":"cebpf4jnsgd1na2vs0mg"},{"bike_id":"f390e0a7-3d51-4aeb-a1cd-e4aac533a40f","system_id":"levelo_inurba_marseille","lat":43.29796,"lon":5.404007,"is_reserved":false,"is_disabled":false,"rental_uris":{"android":"levelo://app?vid=f390e0a7-3d51-4aeb-a1cd-e4aac533a40f","ios":"levelo://app?vid=f390e0a7-3d51-4aeb-a1cd-e4aac533a40f"},"vehicle_type_id":"4","last_reported":1735610968,"current_range_meters":28000,"station_id":"ce4bh112rcd13ifvqd90","pricing_plan_id":"cebpf4jnsgd1na2vs0mg"},{"bike_id":"7f73ce30-609a-484f-a99c-33ed9330ed99","system_id":"levelo_inurba_marseille","lat":43.30637,"lon":5.40065,"is_reserved":false,"is_disabled":false,"rental_uris":{"android":"levelo://app?vid=7f73ce30-609a-484f-a99c-33ed9330ed99","ios":"levelo://app?vid=7f73ce30-609a-484f-a99c-33ed9330ed99"},"vehicle_type_id":"4","last_reported":1735610968,"current_range_meters":17200,"station_id":"ce4bh112rcd13ifvqda0","pricing_plan_id":"cebpf4jnsgd1na2vs0mg"},{"bike_id":"b4d130c6-4fa7-4fa3-83b8-3ae416781279","system_id":"levelo_inurba_marseille","lat":43.27433,"lon":5.39259,"is_reserved":false,"is_disabled":false,"rental_uris":{"android":"levelo://app?vid=b4d130c6-4fa7-4fa3-83b8-3ae416781279","ios":"levelo://app?vid=b4d130c6-4fa7-4fa3-83b8-3ae416781279"},"vehicle_type_id":"4","last_reported":1735610968,"current_range_meters":8400,"station_id":"","pricing_plan_id":"cebpf4jnsgd1na2vs0mg"},{"bike_id":"00fe8d92-c7ff-48a9-963b-cb862cc37bc1","system_id":"levelo_inurba_marseille","lat":43.32366,"lon":5.38881,"is_reserved":false,"is_disabled":false,"rental_uris":{"android":"levelo://app?vid=00fe8d92-c7ff-48a9-963b-cb862cc37bc1","ios":"levelo://app?vid=00fe8d92-c7ff-48a9-963b-cb862cc37bc1"},"vehicle_type_id":"4","last_reported":1735610968,"current_range_meters":24400,"station_id":"ce4bhqp2rcd13ifvqhog","pricing_plan_id":"cebpf4jnsgd1na2vs0mg"},{"bike_id":"3e90302f-f220-44a8-9d81-4d013e538f37","system_id":"levelo_inurba_marseille","lat":43.23148,"lon":5.43711,"is_reserved":false,"is_disabled":false,"rental_uris":{"android":"levelo://app?vid=3e90302f-f220-44a8-9d81-4d013e538f37","ios":"levelo://app?vid=3e90302f-f220-44a8-9d81-4d013e538f37"},"vehicle_type_id":"4","last_reported":1735610968,"current_range_meters":26800,"station_id":"ce4bhmp2rcd13ifvqgog","pricing_plan_id":"cebpf4jnsgd1na2vs0mg"},{"bike_id":"ff49d49a-53c3-499a-b296-89a67f332a8a","system_id":"levelo_inurba_marseille","lat":43.24186,"lon":5.36391,"is_reserved":false,"is_disabled":false,"rental_uris":{"android":"levelo://app?vid=ff49d49a-53c3-499a-b296-89a67f332a8a","ios":"levelo://app?vid=ff49d49a-53c3-499a-b296-89a67f332a8a"},"vehicle_type_id":"4","last_reported":1735610968,"current_range_meters":38800,"station_id":"cpo36qri1sfpv3e86is0","pricing_plan_id":"cebpf4jnsgd1na2vs0mg"},{"bike_id":"1c9e8f39-47e2-4ae3-a11d-376dd6c0e5a6","system_id":"levelo_inurba_marseille","lat":43.31069,"lon":5.38346,"is_reserved":false,"is_disabled":false,"rental_uris":{"android":"levelo://app?vid=1c9e8f39-47e2-4ae3-a11d-376dd6c0e5a6","ios":"levelo://app?vid=1c9e8f39-47e2-4ae3-a11d-376dd6c0e5a6"},"vehicle_type_id":"4","last_reported":1735610968,"current_range_meters":38000,"station_id":"ce4bgv92rcd13ifvqcr0","pricing_plan_id":"cebpf4jnsgd1na2vs0mg"},{"bike_id":"1fe5f6af-1678-4698-9b64-be39aae22df2","system_id":"levelo_inurba_marseille","lat":43.3153,"lon":5.38032,"is_reserved":false,"is_disabled":false,"rental_uris":{"android":"levelo://app?vid=1fe5f6af-1678-4698-9b64-be39aae22df2","ios":"levelo://app?vid=1fe5f6af-1678-4698-9b64-be39aae22df2"},"vehicle_type_id":"4","last_reported":1735610968,"current_range_meters":37600,"station_id":"ce4bhsp2rcd13ifvqi50","pricing_plan_id":"cebpf4jnsgd1na2vs0mg"},{"bike_id":"68ce89d7-2c49-47a3-af51-4cee0b21d337","system_id":"levelo_inurba_marseille","lat":43.27962,"lon":5.38699,"is_reserved":false,"is_disabled":false,"rental_uris":{"android":"levelo://app?vid=68ce89d7-2c49-47a3-af51-4cee0b21d337","ios":"levelo://app?vid=68ce89d7-2c49-47a3-af51-4cee0b21d337"},"vehicle_type_id":"4","last_reported":1735610968,"current_range_meters":36800,"station_id":"ce4bhg12rcd13ifvqf80","pricing_plan_id":"cebpf4jnsgd1na2vs0mg"},{"bike_id":"294c14cb-577f-4c56-859e-2380db7a357a","system_id":"levelo_inurba_marseille","lat":43.23126,"lon":5.43715,"is_reserved":false,"is_disabled":false,"rental_uris":{"android":"levelo://app?vid=294c14cb-577f-4c56-859e-2380db7a357a","ios":"levelo://app?vid=294c14cb-577f-4c56-859e-2380db7a357a"},"vehicle_type_id":"4","last_reported":1735610968,"current_range_meters":38800,"station_id":"ce4bhmp2rcd13ifvqgog","pricing_plan_id":"cebpf4jnsgd1na2vs0mg"},{"bike_id":"8f37c6fa-5603-482a-b632-2166ba675ae9","system_id":"levelo_inurba_marseille","lat":43.29679,"lon":5.37314,"is_reserved":false,"is_disabled":false,"rental_uris":{"android":"levelo://app?vid=8f37c6fa-5603-482a-b632-2166ba675ae9","ios":"levelo://app?vid=8f37c6fa-5603-482a-b632-2166ba675ae9"},"vehicle_type_id":"4","last_reported":1735610968,"current_range_meters":38000,"station_id":"ce4bgk12rcd13ifvqbj0","pricing_plan_id":"cebpf4jnsgd1na2vs0mg"},{"bike_id":"3e3d7eb2-cc37-4e8b-bcff-08840fd7fcf6","system_id":"levelo_inurba_marseille","lat":43.275843,"lon":5.412679,"is_reserved":false,"is_disabled":false,"rental_uris":{"android":"levelo://app?vid=3e3d7eb2-cc37-4e8b-bcff-08840fd7fcf6","ios":"levelo://app?vid=3e3d7eb2-cc37-4e8b-bcff-08840fd7fcf6"},"vehicle_type_id":"4","last_reported":1735610968,"current_range_meters":33600,"station_id":"","pricing_plan_id":"cebpf4jnsgd1na2vs0mg"},{"bike_id":"13f84696-4405-43e0-b0f5-1a61d67abe32","system_id":"levelo_inurba_marseille","lat":43.27835,"lon":5.39195,"is_reserved":false,"is_disabled":false,"rental_uris":{"android":"levelo://app?vid=13f84696-4405-43e0-b0f5-1a61d67abe32","ios":"levelo://app?vid=13f84696-4405-43e0-b0f5-1a61d67abe32"},"vehicle_type_id":"4","last_reported":1735610968,"current_range_meters":16400,"station_id":"ce4bhjp2rcd13ifvqga0","pricing_plan_id":"cebpf4jnsgd1na2vs0mg"},{"bike_id":"ebead0f0-90ff-4f27-bd6a-d4a1c0766ad2","system_id":"levelo_inurba_marseille","lat":43.31268,"lon":5.40173,"is_reserved":false,"is_disabled":false,"rental_uris":{"android":"levelo://app?vid=ebead0f0-90ff-4f27-bd6a-d4a1c0766ad2","ios":"levelo://app?vid=ebead0f0-90ff-4f27-bd6a-d4a1c0766ad2"},"vehicle_type_id":"4","last_reported":1735610968,"current_range_meters":12400,"station_id":"ce4bh092rcd13ifvqd30","pricing_plan_id":"cebpf4jnsgd1na2vs0mg"},{"bike_id":"caab34a4-5264-4b72-a12f-e55159fe93b6","system_id":"levelo_inurba_marseille","lat":43.27064,"lon":5.42284,"is_reserved":false,"is_disabled":false,"rental_uris":{"android":"levelo://app?vid=caab34a4-5264-4b72-a12f-e55159fe93b6","ios":"levelo://app?vid=caab34a4-5264-4b72-a12f-e55159fe93b6"},"vehicle_type_id":"4","last_reported":1735610968,"current_range_meters":16400,"station_id":"ce4bhk92rcd13ifvqgb0","pricing_plan_id":"cebpf4jnsgd1na2vs0mg"},{"bike_id":"8e93d70a-d0ee-4fc3-a7e7-63e94e7a481d","system_id":"levelo_inurba_marseille","lat":43.3012,"lon":5.37416,"is_reserved":false,"is_disabled":false,"rental_uris":{"android":"levelo://app?vid=8e93d70a-d0ee-4fc3-a7e7-63e94e7a481d","ios":"levelo://app?vid=8e93d70a-d0ee-4fc3-a7e7-63e94e7a481d"},"vehicle_type_id":"4","last_reported":1735610968,"current_range_meters":38800,"station_id":"ce4bgs92rcd13ifvqcc0","pricing_plan_id":"cebpf4jnsgd1na2vs0mg"},{"bike_id":"77b53b84-97e5-4c64-92e4-19b45cf13fa5","system_id":"levelo_inurba_marseille","lat":43.29262,"lon":5.38438,"is_reserved":false,"is_disabled":false,"rental_uris":{"android":"levelo://app?vid=77b53b84-97e5-4c64-92e4-19b45cf13fa5","ios":"levelo://app?vid=77b53b84-97e5-4c64-92e4-19b45cf13fa5"},"vehicle_type_id":"4","last_reported":1735610968,"current_range_meters":24400,"station_id":"ce4bh692rcd13ifvqea0","pricing_plan_id":"cebpf4jnsgd1na2vs0mg"},{"bike_id":"4842c154-d00a-47d0-9f03-cd219ede7c47","system_id":"levelo_inurba_marseille","lat":43.29505,"lon":5.39022,"is_reserved":false,"is_disabled":false,"rental_uris":{"android":"levelo://app?vid=4842c154-d00a-47d0-9f03-cd219ede7c47","ios":"levelo://app?vid=4842c154-d00a-47d0-9f03-cd219ede7c47"},"vehicle_type_id":"4","last_reported":1735610968,"current_range_meters":36000,"station_id":"ce4bh3p2rcd13ifvqdp0","pricing_plan_id":"cebpf4jnsgd1na2vs0mg"},{"bike_id":"4a41385d-d21a-40f9-aaca-d1542a0bae6e","system_id":"levelo_inurba_marseille","lat":43.28353,"lon":5.38112,"is_reserved":false,"is_disabled":false,"rental_uris":{"android":"levelo://app?vid=4a41385d-d21a-40f9-aaca-d1542a0bae6e","ios":"levelo://app?vid=4a41385d-d21a-40f9-aaca-d1542a0bae6e"},"vehicle_type_id":"4","last_reported":1735610968,"current_range_meters":18800,"station_id":"ce4bh412rcd13ifvqdr0","pricing_plan_id":"cebpf4jnsgd1na2vs0mg"},{"bike_id":"1fdff105-c85f-4157-a441-abd257fe29bb","system_id":"levelo_inurba_marseille","lat":43.33031,"lon":5.39049,"is_reserved":false,"is_disabled":false,"rental_uris":{"android":"levelo://app?vid=1fdff105-c85f-4157-a441-abd257fe29bb","ios":"levelo://app?vid=1fdff105-c85f-4157-a441-abd257fe29bb"},"vehicle_type_id":"4","last_reported":1735610968,"current_range_meters":26800,"station_id":"ce4bhr92rcd13ifvqhrg","pricing_plan_id":"cebpf4jnsgd1na2vs0mg"},{"bike_id":"ad874850-10ba-44f2-8c0f-024bb1d635c0","system_id":"levelo_inurba_marseille","lat":43.31171,"lon":5.38707,"is_reserved":false,"is_disabled":false,"rental_uris":{"android":"levelo://app?vid=ad874850-10ba-44f2-8c0f-024bb1d635c0","ios":"levelo://app?vid=ad874850-10ba-44f2-8c0f-024bb1d635c0"},"vehicle_type_id":"4","last_reported":1735610968,"current_range_meters":26800,"station_id":"ce4bgv12rcd13ifvqcp0","pricing_plan_id":"cebpf4jnsgd1na2vs0mg"},{"bike_id":"713a1cc1-0684-4c54-ad69-4b8e0d591463","system_id":"levelo_inurba_marseille","lat":43.29339,"lon":5.37147,"is_reserved":false,"is_disabled":false,"rental_uris":{"android":"levelo://app?vid=713a1cc1-0684-4c54-ad69-4b8e0d591463","ios":"levelo://app?vid=713a1cc1-0684-4c54-ad69-4b8e0d591463"},"vehicle_type_id":"4","last_reported":1735610968,"current_range_meters":38800,"station_id":"ce4bgh92rcd13ifvqb40","pricing_plan_id":"cebpf4jnsgd1na2vs0mg"},{"bike_id":"10328e97-3b3f-42b6-8efd-3406f4be98f7","system_id":"levelo_inurba_marseille","lat":43.28429,"lon":5.34991,"is_reserved":false,"is_disabled":false,"rental_uris":{"android":"levelo://app?vid=10328e97-3b3f-42b6-8efd-3406f4be98f7","ios":"levelo://app?vid=10328e97-3b3f-42b6-8efd-3406f4be98f7"},"vehicle_type_id":"4","last_reported":1735610968,"current_range_meters":32400,"station_id":"ce4bhbh2rcd13ifvqepg","pricing_plan_id":"cebpf4jnsgd1na2vs0mg"},{"bike_id":"6eba8fb8-a8dc-4c1c-b5b2-8ff97466cc2d","system_id":"levelo_inurba_marseille","lat":43.25082,"lon":5.39511,"is_reserved":false,"is_disabled":false,"rental_uris":{"android":"levelo://app?vid=6eba8fb8-a8dc-4c1c-b5b2-8ff97466cc2d","ios":"levelo://app?vid=6eba8fb8-a8dc-4c1c-b5b2-8ff97466cc2d"},"vehicle_type_id":"4","last_reported":1735610968,"current_range_meters":38800,"station_id":"ce4bhm12rcd13ifvqgkg","pricing_plan_id":"cebpf4jnsgd1na2vs0mg"},{"bike_id":"da3075ee-8070-42f9-8350-58e475a60c82","system_id":"levelo_inurba_marseille","lat":43.2756,"lon":5.38421,"is_reserved":false,"is_disabled":false,"rental_uris":{"android":"levelo://app?vid=da3075ee-8070-42f9-8350-58e475a60c82","ios":"levelo://app?vid=da3075ee-8070-42f9-8350-58e475a60c82"},"vehicle_type_id":"4","last_reported":1735610968,"current_range_meters":38800,"station_id":"ce4bhh92rcd13ifvqfi0","pricing_plan_id":"cebpf4jnsgd1na2vs0mg"},{"bike_id":"2a3f47eb-dd9c-4419-ba6d-5fcf468cc565","system_id":"levelo_inurba_marseille","lat":43.28104,"lon":5.37847,"is_reserved":false,"is_disabled":false,"rental_uris":{"android":"levelo://app?vid=2a3f47eb-dd9c-4419-ba6d-5fcf468cc565","ios":"levelo://app?vid=2a3f47eb-dd9c-4419-ba6d-5fcf468cc565"},"vehicle_type_id":"4","last_reported":1735610968,"current_range_meters":34800,"station_id":"ce4bha12rcd13ifvqee0","pricing_plan_id":"cebpf4jnsgd1na2vs0mg"},{"bike_id":"adb4841a-312a-4547-b197-93c1bb2698c5","system_id":"levelo_inurba_marseille","lat":43.30887,"lon":5.39635,"is_reserved":false,"is_disabled":false,"rental_uris":{"android":"levelo://app?vid=adb4841a-312a-4547-b197-93c1bb2698c5","ios":"levelo://app?vid=adb4841a-312a-4547-b197-93c1bb2698c5"},"vehicle_type_id":"4","last_reported":1735610968,"current_range_meters":28000,"station_id":"ce4bh012rcd13ifvqcv0","pricing_plan_id":"cebpf4jnsgd1na2vs0mg"},{"bike_id":"07c99ec9-f027-47a4-9b93-3697bcc5f573","system_id":"levelo_inurba_marseille","lat":43.26928,"lon":5.40262,"is_reserved":false,"is_disabled":false,"rental_uris":{"android":"levelo://app?vid=07c99ec9-f027-47a4-9b93-3697bcc5f573","ios":"levelo://app?vid=07c99ec9-f027-47a4-9b93-3697bcc5f573"},"vehicle_type_id":"4","last_reported":1735610968,"current_range_meters":28000,"station_id":"cjm6bp8fraef2m0cb0m0","pricing_plan_id":"cebpf4jnsgd1na2vs0mg"},{"bike_id":"14c526e1-5037-4934-8226-6240aab7d63f","system_id":"levelo_inurba_marseille","lat":43.27482,"lon":5.42473,"is_reserved":false,"is_disabled":false,"rental_uris":{"android":"levelo://app?vid=14c526e1-5037-4934-8226-6240aab7d63f","ios":"levelo://app?vid=14c526e1-5037-4934-8226-6240aab7d63f"},"vehicle_type_id":"4","last_reported":1735610968,"current_range_meters":33600,"station_id":"ce4bhn92rcd13ifvqgrg","pricing_plan_id":"cebpf4jnsgd1na2vs0mg"},{"bike_id":"c754264e-2257-42b1-89f9-0bf9a740ba42","system_id":"levelo_inurba_marseille","lat":43.27554,"lon":5.3843,"is_reserved":false,"is_disabled":false,"rental_uris":{"android":"levelo://app?vid=c754264e-2257-42b1-89f9-0bf9a740ba42","ios":"levelo://app?vid=c754264e-2257-42b1-89f9-0bf9a740ba42"},"vehicle_type_id":"4","last_reported":1735610968,"current_range_meters":32400,"station_id":"ce4bhh92rcd13ifvqfi0","pricing_plan_id":"cebpf4jnsgd1na2vs0mg"},{"bike_id":"b6e077b3-4fd9-4907-9b13-f495e45e5145","system_id":"levelo_inurba_marseille","lat":43.30598,"lon":5.39352,"is_reserved":false,"is_disabled":false,"rental_uris":{"android":"levelo://app?vid=b6e077b3-4fd9-4907-9b13-f495e45e5145","ios":"levelo://app?vid=b6e077b3-4fd9-4907-9b13-f495e45e5145"},"vehicle_type_id":"4","last_reported":1735610968,"current_range_meters":10000,"station_id":"ce4bh0p2rcd13ifvqd80","pricing_plan_id":"cebpf4jnsgd1na2vs0mg"},{"bike_id":"7703770a-4bfb-49d5-8a4d-d38f7b1c8b6c","system_id":"levelo_inurba_marseille","lat":43.23062,"lon":5.35494,"is_reserved":false,"is_disabled":false,"rental_uris":{"android":"levelo://app?vid=7703770a-4bfb-49d5-8a4d-d38f7b1c8b6c","ios":"levelo://app?vid=7703770a-4bfb-49d5-8a4d-d38f7b1c8b6c"},"vehicle_type_id":"4","last_reported":1735610968,"current_range_meters":38800,"station_id":"cpo3342slgdg3j2ifvpg","pricing_plan_id":"cebpf4jnsgd1na2vs0mg"},{"bike_id":"18bf1569-fc77-43a2-abeb-3b9b106e67ec","system_id":"levelo_inurba_marseille","lat":43.30586,"lon":5.37213,"is_reserved":false,"is_disabled":false,"rental_uris":{"android":"levelo://app?vid=18bf1569-fc77-43a2-abeb-3b9b106e67ec","ios":"levelo://app?vid=18bf1569-fc77-43a2-abeb-3b9b106e67ec"},"vehicle_type_id":"4","last_reported":1735610968,"current_range_meters":34000,"station_id":"ce4bgqh2rcd13ifvqc4g","pricing_plan_id":"cebpf4jnsgd1na2vs0mg"},{"bike_id":"bc517bd2-f229-485b-a8bd-639b42ce23c3","system_id":"levelo_inurba_marseille","lat":43.24796,"lon":5.374463,"is_reserved":false,"is_disabled":false,"rental_uris":{"android":"levelo://app?vid=bc517bd2-f229-485b-a8bd-639b42ce23c3","ios":"levelo://app?vid=bc517bd2-f229-485b-a8bd-639b42ce23c3"},"vehicle_type_id":"4","last_reported":1735610968,"current_range_meters":35200,"station_id":"ce4bhgh2rcd13ifvqfb0","pricing_plan_id":"cebpf4jnsgd1na2vs0mg"},{"bike_id":"b02171ef-d666-4cad-b1e0-4c9353146b8a","system_id":"levelo_inurba_marseille","lat":43.29522,"lon":5.39402,"is_reserved":false,"is_disabled":false,"rental_uris":{"android":"levelo://app?vid=b02171ef-d666-4cad-b1e0-4c9353146b8a","ios":"levelo://app?vid=b02171ef-d666-4cad-b1e0-4c9353146b8a"},"vehicle_type_id":"4","last_reported":1735610968,"current_range_meters":38800,"station_id":"ce4bh292rcd13ifvqdf0","pricing_plan_id":"cebpf4jnsgd1na2vs0mg"},{"bike_id":"b577f04f-9b10-4090-99ac-8f444e70b3e5","system_id":"levelo_inurba_marseille","lat":43.27496,"lon":5.42463,"is_reserved":false,"is_disabled":false,"rental_uris":{"android":"levelo://app?vid=b577f04f-9b10-4090-99ac-8f444e70b3e5","ios":"levelo://app?vid=b577f04f-9b10-4090-99ac-8f444e70b3e5"},"vehicle_type_id":"4","last_reported":1735610968,"current_range_meters":23200,"station_id":"ce4bhn92rcd13ifvqgrg","pricing_plan_id":"cebpf4jnsgd1na2vs0mg"},{"bike_id":"589b0912-4cc2-40c2-8297-fcf15d6327ab","system_id":"levelo_inurba_marseille","lat":43.29521,"lon":5.39409,"is_reserved":false,"is_disabled":false,"rental_uris":{"android":"levelo://app?vid=589b0912-4cc2-40c2-8297-fcf15d6327ab","ios":"levelo://app?vid=589b0912-4cc2-40c2-8297-fcf15d6327ab"},"vehicle_type_id":"4","last_reported":1735610968,"current_range_meters":28400,"station_id":"ce4bh292rcd13ifvqdf0","pricing_plan_id":"cebpf4jnsgd1na2vs0mg"},{"bike_id":"f5237a56-7c3e-482c-81f6-629b1f9ac345","system_id":"levelo_inurba_marseille","lat":43.29623,"lon":5.37161,"is_reserved":false,"is_disabled":false,"rental_uris":{"android":"levelo://app?vid=f5237a56-7c3e-482c-81f6-629b1f9ac345","ios":"levelo://app?vid=f5237a56-7c3e-482c-81f6-629b1f9ac345"},"vehicle_type_id":"4","last_reported":1735610968,"current_range_meters":38800,"station_id":"ce4bgnh2rcd13ifvqc0g","pricing_plan_id":"cebpf4jnsgd1na2vs0mg"},{"bike_id":"2a945904-4a56-477a-9d15-a8e3027d2aa4","system_id":"levelo_inurba_marseille","lat":43.28259,"lon":5.3505,"is_reserved":false,"is_disabled":false,"rental_uris":{"android":"levelo://app?vid=2a945904-4a56-477a-9d15-a8e3027d2aa4","ios":"levelo://app?vid=2a945904-4a56-477a-9d15-a8e3027d2aa4"},"vehicle_type_id":"4","last_reported":1735610968,"current_range_meters":38800,"station_id":"ce4bhbp2rcd13ifvqerg","pricing_plan_id":"cebpf4jnsgd1na2vs0mg"},{"bike_id":"bb53d1ad-da35-458b-a1d4-26a70699759f","system_id":"levelo_inurba_marseille","lat":43.292,"lon":5.35797,"is_reserved":false,"is_disabled":false,"rental_uris":{"android":"levelo://app?vid=bb53d1ad-da35-458b-a1d4-26a70699759f","ios":"levelo://app?vid=bb53d1ad-da35-458b-a1d4-26a70699759f"},"vehicle_type_id":"4","last_reported":1735610968,"current_range_meters":38800,"station_id":"ce4bhb12rcd13ifvqel0","pricing_plan_id":"cebpf4jnsgd1na2vs0mg"},{"bike_id":"836b6dd0-960f-486b-ba6e-6a5a1da8ba53","system_id":"levelo_inurba_marseille","lat":43.29532,"lon":5.38538,"is_reserved":false,"is_disabled":false,"rental_uris":{"android":"levelo://app?vid=836b6dd0-960f-486b-ba6e-6a5a1da8ba53","ios":"levelo://app?vid=836b6dd0-960f-486b-ba6e-6a5a1da8ba53"},"vehicle_type_id":"4","last_reported":1735610968,"current_range_meters":35200,"station_id":"ce4bgih2rcd13ifvqba0","pricing_plan_id":"cebpf4jnsgd1na2vs0mg"},{"bike_id":"e72c6d65-0b04-411e-bf0f-f72d15cad0d7","system_id":"levelo_inurba_marseille","lat":43.33716,"lon":5.3918,"is_reserved":false,"is_disabled":false,"rental_uris":{"android":"levelo://app?vid=e72c6d65-0b04-411e-bf0f-f72d15cad0d7","ios":"levelo://app?vid=e72c6d65-0b04-411e-bf0f-f72d15cad0d7"},"vehicle_type_id":"4","last_reported":1735610968,"current_range_meters":38800,"station_id":"ce4bhr92rcd13ifvqhsg","pricing_plan_id":"cebpf4jnsgd1na2vs0mg"},{"bike_id":"fa8dbd94-3421-4d3b-bb36-8e83648d5d4c","system_id":"levelo_inurba_marseille","lat":43.27662,"lon":5.38901,"is_reserved":false,"is_disabled":false,"rental_uris":{"android":"levelo://app?vid=fa8dbd94-3421-4d3b-bb36-8e83648d5d4c","ios":"levelo://app?vid=fa8dbd94-3421-4d3b-bb36-8e83648d5d4c"},"vehicle_type_id":"4","last_reported":1735610968,"current_range_meters":33600,"station_id":"ce4bhi12rcd13ifvqfo0","pricing_plan_id":"cebpf4jnsgd1na2vs0mg"},{"bike_id":"922f50a4-84de-453e-b928-5027b3618100","system_id":"levelo_inurba_marseille","lat":43.265613,"lon":5.372851,"is_reserved":false,"is_disabled":false,"rental_uris":{"android":"levelo://app?vid=922f50a4-84de-453e-b928-5027b3618100","ios":"levelo://app?vid=922f50a4-84de-453e-b928-5027b3618100"},"vehicle_type_id":"4","last_reported":1735610968,"current_range_meters":35600,"station_id":"ce4bhg12rcd13ifvqf70","pricing_plan_id":"cebpf4jnsgd1na2vs0mg"},{"bike_id":"548a7169-7fed-46bd-aa40-21df3fb41ef4","system_id":"levelo_inurba_marseille","lat":43.28631,"lon":5.35104,"is_reserved":false,"is_disabled":false,"rental_uris":{"android":"levelo://app?vid=548a7169-7fed-46bd-aa40-21df3fb41ef4","ios":"levelo://app?vid=548a7169-7fed-46bd-aa40-21df3fb41ef4"},"vehicle_type_id":"4","last_reported":1735610968,"current_range_meters":32800,"station_id":"ce4bhch2rcd13ifvqeug","pricing_plan_id":"cebpf4jnsgd1na2vs0mg"},{"bike_id":"17f4ae22-8bbd-467e-a66f-0e0c3f31d9fe","system_id":"levelo_inurba_marseille","lat":43.29026,"lon":5.37575,"is_reserved":false,"is_disabled":false,"rental_uris":{"android":"levelo://app?vid=17f4ae22-8bbd-467e-a66f-0e0c3f31d9fe","ios":"levelo://app?vid=17f4ae22-8bbd-467e-a66f-0e0c3f31d9fe"},"vehicle_type_id":"4","last_reported":1735610968,"current_range_meters":38800,"station_id":"ce4bh692rcd13ifvqe90","pricing_plan_id":"cebpf4jnsgd1na2vs0mg"},{"bike_id":"931b1634-ff1b-468a-b5c6-459a7a66dd49","system_id":"levelo_inurba_marseille","lat":43.29006,"lon":5.38636,"is_reserved":false,"is_disabled":true,"rental_uris":{"android":"levelo://app?vid=931b1634-ff1b-468a-b5c6-459a7a66dd49","ios":"levelo://app?vid=931b1634-ff1b-468a-b5c6-459a7a66dd49"},"vehicle_type_id":"4","last_reported":1735610968,"current_range_meters":32000,"station_id":"ce4bh4p2rcd13ifvqe0g","pricing_plan_id":"cebpf4jnsgd1na2vs0mg"},{"bike_id":"65f804fe-c160-4737-b148-b86f0eb0ad04","system_id":"levelo_inurba_marseille","lat":43.27969,"lon":5.38757,"is_reserved":false,"is_disabled":false,"rental_uris":{"android":"levelo://app?vid=65f804fe-c160-4737-b148-b86f0eb0ad04","ios":"levelo://app?vid=65f804fe-c160-4737-b148-b86f0eb0ad04"},"vehicle_type_id":"4","last_reported":1735610968,"current_range_meters":38000,"station_id":"ce4bhg12rcd13ifvqf80","pricing_plan_id":"cebpf4jnsgd1na2vs0mg"},{"bike_id":"b5c47d31-d3ab-425d-ba82-4676ee8ceba8","system_id":"levelo_inurba_marseille","lat":43.27823,"lon":5.40724,"is_reserved":false,"is_disabled":false,"rental_uris":{"android":"levelo://app?vid=b5c47d31-d3ab-425d-ba82-4676ee8ceba8","ios":"levelo://app?vid=b5c47d31-d3ab-425d-ba82-4676ee8ceba8"},"vehicle_type_id":"4","last_reported":1735610968,"current_range_meters":21600,"station_id":"ce4bhnh2rcd13ifvqgtg","pricing_plan_id":"cebpf4jnsgd1na2vs0mg"},{"bike_id":"57103b12-06fc-494b-9a1a-1903f8f245d5","system_id":"levelo_inurba_marseille","lat":43.27996,"lon":5.41659,"is_reserved":false,"is_disabled":false,"rental_uris":{"android":"levelo://app?vid=57103b12-06fc-494b-9a1a-1903f8f245d5","ios":"levelo://app?vid=57103b12-06fc-494b-9a1a-1903f8f245d5"},"vehicle_type_id":"4","last_reported":1735610968,"current_range_meters":8800,"station_id":"ce4bho12rcd13ifvqh1g","pricing_plan_id":"cebpf4jnsgd1na2vs0mg"},{"bike_id":"c93a8900-340a-4a6d-ac3e-8882057837af","system_id":"levelo_inurba_marseille","lat":43.27381,"lon":5.36257,"is_reserved":false,"is_disabled":false,"rental_uris":{"android":"levelo://app?vid=c93a8900-340a-4a6d-ac3e-8882057837af","ios":"levelo://app?vid=c93a8900-340a-4a6d-ac3e-8882057837af"},"vehicle_type_id":"4","last_reported":1735610968,"current_range_meters":28800,"station_id":"ce4bhbh2rcd13ifvqeo0","pricing_plan_id":"cebpf4jnsgd1na2vs0mg"},{"bike_id":"d6890ba0-3902-4dd2-a1df-8fd75e9898dc","system_id":"levelo_inurba_marseille","lat":43.31993,"lon":5.38161,"is_reserved":false,"is_disabled":false,"rental_uris":{"android":"levelo://app?vid=d6890ba0-3902-4dd2-a1df-8fd75e9898dc","ios":"levelo://app?vid=d6890ba0-3902-4dd2-a1df-8fd75e9898dc"},"vehicle_type_id":"4","last_reported":1735610968,"current_range_meters":38800,"station_id":"ce4bhr12rcd13ifvqhpg","pricing_plan_id":"cebpf4jnsgd1na2vs0mg"},{"bike_id":"dad825e9-c481-4ecb-8e5a-ab3402dc32ab","system_id":"levelo_inurba_marseille","lat":43.30129,"lon":5.37416,"is_reserved":false,"is_disabled":false,"rental_uris":{"android":"levelo://app?vid=dad825e9-c481-4ecb-8e5a-ab3402dc32ab","ios":"levelo://app?vid=dad825e9-c481-4ecb-8e5a-ab3402dc32ab"},"vehicle_type_id":"4","last_reported":1735610968,"current_range_meters":22000,"station_id":"ce4bgs92rcd13ifvqcc0","pricing_plan_id":"cebpf4jnsgd1na2vs0mg"},{"bike_id":"bd7d92e6-11db-4b83-8aed-eea6719d4836","system_id":"levelo_inurba_marseille","lat":43.30294,"lon":5.39216,"is_reserved":false,"is_disabled":false,"rental_uris":{"android":"levelo://app?vid=bd7d92e6-11db-4b83-8aed-eea6719d4836","ios":"levelo://app?vid=bd7d92e6-11db-4b83-8aed-eea6719d4836"},"vehicle_type_id":"4","last_reported":1735610968,"current_range_meters":38400,"station_id":"ce4bgkh2rcd13ifvqbk0","pricing_plan_id":"cebpf4jnsgd1na2vs0mg"},{"bike_id":"d503b310-b90e-4511-bb55-4bc0d3a68ba2","system_id":"levelo_inurba_marseille","lat":43.28398,"lon":5.37563,"is_reserved":false,"is_disabled":false,"rental_uris":{"android":"levelo://app?vid=d503b310-b90e-4511-bb55-4bc0d3a68ba2","ios":"levelo://app?vid=d503b310-b90e-4511-bb55-4bc0d3a68ba2"},"vehicle_type_id":"4","last_reported":1735610968,"current_range_meters":35600,"station_id":"ce4bh412rcd13ifvqds0","pricing_plan_id":"cebpf4jnsgd1na2vs0mg"},{"bike_id":"30a49652-d136-44e4-a4d9-d7c1b83f0627","system_id":"levelo_inurba_marseille","lat":43.337444,"lon":5.374475,"is_reserved":false,"is_disabled":false,"rental_uris":{"android":"levelo://app?vid=30a49652-d136-44e4-a4d9-d7c1b83f0627","ios":"levelo://app?vid=30a49652-d136-44e4-a4d9-d7c1b83f0627"},"vehicle_type_id":"4","last_reported":1735610968,"current_range_meters":20800,"station_id":"","pricing_plan_id":"cebpf4jnsgd1na2vs0mg"},{"bike_id":"eb994913-3c86-4aad-a4cb-4da3355c5509","system_id":"levelo_inurba_marseille","lat":43.28407,"lon":5.37521,"is_reserved":false,"is_disabled":false,"rental_uris":{"android":"levelo://app?vid=eb994913-3c86-4aad-a4cb-4da3355c5509","ios":"levelo://app?vid=eb994913-3c86-4aad-a4cb-4da3355c5509"},"vehicle_type_id":"4","last_reported":1735610968,"current_range_meters":14000,"station_id":"ce4bh412rcd13ifvqds0","pricing_plan_id":"cebpf4jnsgd1na2vs0mg"},{"bike_id":"482b0b80-c53d-4d05-aa82-218b22575b6c","system_id":"levelo_inurba_marseille","lat":43.23156,"lon":5.43689,"is_reserved":false,"is_disabled":true,"rental_uris":{"android":"levelo://app?vid=482b0b80-c53d-4d05-aa82-218b22575b6c","ios":"levelo://app?vid=482b0b80-c53d-4d05-aa82-218b22575b6c"},"vehicle_type_id":"4","last_reported":1735610968,"current_range_meters":32000,"station_id":"ce4bhmp2rcd13ifvqgog","pricing_plan_id":"cebpf4jnsgd1na2vs0mg"},{"bike_id":"9a716e5d-f84a-4446-8deb-b518e6295159","system_id":"levelo_inurba_marseille","lat":43.337444,"lon":5.374475,"is_reserved":false,"is_disabled":false,"rental_uris":{"android":"levelo://app?vid=9a716e5d-f84a-4446-8deb-b518e6295159","ios":"levelo://app?vid=9a716e5d-f84a-4446-8deb-b518e6295159"},"vehicle_type_id":"4","last_reported":1735610968,"current_range_meters":8000,"station_id":"","pricing_plan_id":"cebpf4jnsgd1na2vs0mg"},{"bike_id":"d1a5e610-03f6-499e-8178-ce25b0eaed77","system_id":"levelo_inurba_marseille","lat":43.27807,"lon":5.40701,"is_reserved":false,"is_disabled":false,"rental_uris":{"android":"levelo://app?vid=d1a5e610-03f6-499e-8178-ce25b0eaed77","ios":"levelo://app?vid=d1a5e610-03f6-499e-8178-ce25b0eaed77"},"vehicle_type_id":"4","last_reported":1735610968,"current_range_meters":39200,"station_id":"ce4bhnh2rcd13ifvqgtg","pricing_plan_id":"cebpf4jnsgd1na2vs0mg"},{"bike_id":"6d65cc81-1386-49e1-a01a-5f976a13edda","system_id":"levelo_inurba_marseille","lat":43.28449,"lon":5.35891,"is_reserved":false,"is_disabled":true,"rental_uris":{"android":"levelo://app?vid=6d65cc81-1386-49e1-a01a-5f976a13edda","ios":"levelo://app?vid=6d65cc81-1386-49e1-a01a-5f976a13edda"},"vehicle_type_id":"4","last_reported":1735610968,"current_range_meters":6800,"station_id":"ce4bhah2rcd13ifvqei0","pricing_plan_id":"cebpf4jnsgd1na2vs0mg"},{"bike_id":"518a71c1-c563-436a-b635-e4b4b62cf834","system_id":"levelo_inurba_marseille","lat":43.29874,"lon":5.38906,"is_reserved":false,"is_disabled":false,"rental_uris":{"android":"levelo://app?vid=518a71c1-c563-436a-b635-e4b4b62cf834","ios":"levelo://app?vid=518a71c1-c563-436a-b635-e4b4b62cf834"},"vehicle_type_id":"4","last_reported":1735610968,"current_range_meters":36400,"station_id":"ce4bh392rcd13ifvqdl0","pricing_plan_id":"cebpf4jnsgd1na2vs0mg"},{"bike_id":"5d2018aa-7074-4fb0-bd19-46c785b0343c","system_id":"levelo_inurba_marseille","lat":43.27944,"lon":5.41042,"is_reserved":false,"is_disabled":false,"rental_uris":{"android":"levelo://app?vid=5d2018aa-7074-4fb0-bd19-46c785b0343c","ios":"levelo://app?vid=5d2018aa-7074-4fb0-bd19-46c785b0343c"},"vehicle_type_id":"4","last_reported":1735610968,"current_range_meters":38800,"station_id":"ce4bhnp2rcd13ifvqh0g","pricing_plan_id":"cebpf4jnsgd1na2vs0mg"},{"bike_id":"3c751ea0-4573-4a6e-8e68-4c2b609646bf","system_id":"levelo_inurba_marseille","lat":43.290152,"lon":5.381311,"is_reserved":false,"is_disabled":false,"rental_uris":{"android":"levelo://app?vid=3c751ea0-4573-4a6e-8e68-4c2b609646bf","ios":"levelo://app?vid=3c751ea0-4573-4a6e-8e68-4c2b609646bf"},"vehicle_type_id":"4","last_reported":1735610968,"current_range_meters":39200,"station_id":"ce4bh4p2rcd13ifvqe1g","pricing_plan_id":"cebpf4jnsgd1na2vs0mg"},{"bike_id":"6aeb54c3-fd9c-48c6-8629-6bb466aa3cc6","system_id":"levelo_inurba_marseille","lat":43.28073,"lon":5.39659,"is_reserved":false,"is_disabled":false,"rental_uris":{"android":"levelo://app?vid=6aeb54c3-fd9c-48c6-8629-6bb466aa3cc6","ios":"levelo://app?vid=6aeb54c3-fd9c-48c6-8629-6bb466aa3cc6"},"vehicle_type_id":"4","last_reported":1735610968,"current_range_meters":38800,"station_id":"ce4bho12rcd13ifvqh2g","pricing_plan_id":"cebpf4jnsgd1na2vs0mg"},{"bike_id":"26c2d6ee-0d5f-45f5-bff8-8ab00bdec4f0","system_id":"levelo_inurba_marseille","lat":43.28924,"lon":5.427749,"is_reserved":false,"is_disabled":false,"rental_uris":{"android":"levelo://app?vid=26c2d6ee-0d5f-45f5-bff8-8ab00bdec4f0","ios":"levelo://app?vid=26c2d6ee-0d5f-45f5-bff8-8ab00bdec4f0"},"vehicle_type_id":"4","last_reported":1735610968,"current_range_meters":28000,"station_id":"","pricing_plan_id":"cebpf4jnsgd1na2vs0mg"},{"bike_id":"507d32c0-7715-4b98-b9af-b081c3eb8cf2","system_id":"levelo_inurba_marseille","lat":43.3118,"lon":5.38715,"is_reserved":false,"is_disabled":false,"rental_uris":{"android":"levelo://app?vid=507d32c0-7715-4b98-b9af-b081c3eb8cf2","ios":"levelo://app?vid=507d32c0-7715-4b98-b9af-b081c3eb8cf2"},"vehicle_type_id":"4","last_reported":1735610968,"current_range_meters":24000,"station_id":"ce4bgv12rcd13ifvqcp0","pricing_plan_id":"cebpf4jnsgd1na2vs0mg"},{"bike_id":"ec47220d-dc0d-4691-8ef7-09aaf867c0e1","system_id":"levelo_inurba_marseille","lat":43.23179,"lon":5.39984,"is_reserved":false,"is_disabled":false,"rental_uris":{"android":"levelo://app?vid=ec47220d-dc0d-4691-8ef7-09aaf867c0e1","ios":"levelo://app?vid=ec47220d-dc0d-4691-8ef7-09aaf867c0e1"},"vehicle_type_id":"4","last_reported":1735610968,"current_range_meters":13600,"station_id":"ce4bhn12rcd13ifvqgqg","pricing_plan_id":"cebpf4jnsgd1na2vs0mg"},{"bike_id":"216a1752-6291-4cd2-944a-f00d197e33eb","system_id":"levelo_inurba_marseille","lat":43.28469,"lon":5.35879,"is_reserved":false,"is_disabled":false,"rental_uris":{"android":"levelo://app?vid=216a1752-6291-4cd2-944a-f00d197e33eb","ios":"levelo://app?vid=216a1752-6291-4cd2-944a-f00d197e33eb"},"vehicle_type_id":"4","last_reported":1735610968,"current_range_meters":38400,"station_id":"ce4bhah2rcd13ifvqei0","pricing_plan_id":"cebpf4jnsgd1na2vs0mg"},{"bike_id":"de0e09cb-a518-4679-80e1-adf8fbe05840","system_id":"levelo_inurba_marseille","lat":43.31107,"lon":5.37764,"is_reserved":false,"is_disabled":false,"rental_uris":{"android":"levelo://app?vid=de0e09cb-a518-4679-80e1-adf8fbe05840","ios":"levelo://app?vid=de0e09cb-a518-4679-80e1-adf8fbe05840"},"vehicle_type_id":"4","last_reported":1735610968,"current_range_meters":38000,"station_id":"ce4bgt92rcd13ifvqcg0","pricing_plan_id":"cebpf4jnsgd1na2vs0mg"},{"bike_id":"261f84eb-7209-4691-ba89-1395784a623f","system_id":"levelo_inurba_marseille","lat":43.27571,"lon":5.38414,"is_reserved":false,"is_disabled":false,"rental_uris":{"android":"levelo://app?vid=261f84eb-7209-4691-ba89-1395784a623f","ios":"levelo://app?vid=261f84eb-7209-4691-ba89-1395784a623f"},"vehicle_type_id":"4","last_reported":1735610968,"current_range_meters":34800,"station_id":"ce4bhh92rcd13ifvqfi0","pricing_plan_id":"cebpf4jnsgd1na2vs0mg"},{"bike_id":"b78ed370-8862-4306-ab4b-87e090a11435","system_id":"levelo_inurba_marseille","lat":43.29581,"lon":5.39978,"is_reserved":false,"is_disabled":false,"rental_uris":{"android":"levelo://app?vid=b78ed370-8862-4306-ab4b-87e090a11435","ios":"levelo://app?vid=b78ed370-8862-4306-ab4b-87e090a11435"},"vehicle_type_id":"4","last_reported":1735610968,"current_range_meters":34000,"station_id":"ce4bh312rcd13ifvqdj0","pricing_plan_id":"cebpf4jnsgd1na2vs0mg"},{"bike_id":"59967545-a23a-42ec-a129-e67beba050a8","system_id":"levelo_inurba_marseille","lat":43.30807,"lon":5.38162,"is_reserved":false,"is_disabled":false,"rental_uris":{"android":"levelo://app?vid=59967545-a23a-42ec-a129-e67beba050a8","ios":"levelo://app?vid=59967545-a23a-42ec-a129-e67beba050a8"},"vehicle_type_id":"4","last_reported":1735610968,"current_range_meters":38800,"station_id":"ce4bgt12rcd13ifvqce0","pricing_plan_id":"cebpf4jnsgd1na2vs0mg"},{"bike_id":"d124b3fa-f3a5-4c6d-bebc-2f7ad1a1004e","system_id":"levelo_inurba_marseille","lat":43.26955,"lon":5.38652,"is_reserved":false,"is_disabled":false,"rental_uris":{"android":"levelo://app?vid=d124b3fa-f3a5-4c6d-bebc-2f7ad1a1004e","ios":"levelo://app?vid=d124b3fa-f3a5-4c6d-bebc-2f7ad1a1004e"},"vehicle_type_id":"4","last_reported":1735610968,"current_range_meters":36400,"station_id":"ce4bhh92rcd13ifvqfh0","pricing_plan_id":"cebpf4jnsgd1na2vs0mg"},{"bike_id":"ea990fc9-5f95-4acd-a2be-29105099e24e","system_id":"levelo_inurba_marseille","lat":43.23063,"lon":5.35489,"is_reserved":false,"is_disabled":false,"rental_uris":{"android":"levelo://app?vid=ea990fc9-5f95-4acd-a2be-29105099e24e","ios":"levelo://app?vid=ea990fc9-5f95-4acd-a2be-29105099e24e"},"vehicle_type_id":"4","last_reported":1735610968,"current_range_meters":37600,"station_id":"cpo3342slgdg3j2ifvpg","pricing_plan_id":"cebpf4jnsgd1na2vs0mg"},{"bike_id":"ccdcc8d7-f0ea-4982-9481-05fb5d8e53f1","system_id":"levelo_inurba_marseille","lat":43.25716,"lon":5.41109,"is_reserved":false,"is_disabled":false,"rental_uris":{"android":"levelo://app?vid=ccdcc8d7-f0ea-4982-9481-05fb5d8e53f1","ios":"levelo://app?vid=ccdcc8d7-f0ea-4982-9481-05fb5d8e53f1"},"vehicle_type_id":"4","last_reported":1735610968,"current_range_meters":36400,"station_id":"ce4bhkp2rcd13ifvqgd0","pricing_plan_id":"cebpf4jnsgd1na2vs0mg"},{"bike_id":"6b94ab52-1ac2-4aca-80d2-ee804673b889","system_id":"levelo_inurba_marseille","lat":43.31166,"lon":5.38727,"is_reserved":false,"is_disabled":false,"rental_uris":{"android":"levelo://app?vid=6b94ab52-1ac2-4aca-80d2-ee804673b889","ios":"levelo://app?vid=6b94ab52-1ac2-4aca-80d2-ee804673b889"},"vehicle_type_id":"4","last_reported":1735610968,"current_range_meters":39200,"station_id":"ce4bgv12rcd13ifvqcp0","pricing_plan_id":"cebpf4jnsgd1na2vs0mg"},{"bike_id":"c2e6adc6-dcc6-4cce-87ab-fdf46518ff0d","system_id":"levelo_inurba_marseille","lat":43.28102,"lon":5.37844,"is_reserved":false,"is_disabled":false,"rental_uris":{"android":"levelo://app?vid=c2e6adc6-dcc6-4cce-87ab-fdf46518ff0d","ios":"levelo://app?vid=c2e6adc6-dcc6-4cce-87ab-fdf46518ff0d"},"vehicle_type_id":"4","last_reported":1735610968,"current_range_meters":38800,"station_id":"ce4bha12rcd13ifvqee0","pricing_plan_id":"cebpf4jnsgd1na2vs0mg"},{"bike_id":"7197a6d6-1005-459f-b698-3f131f91b54c","system_id":"levelo_inurba_marseille","lat":43.30948,"lon":5.39053,"is_reserved":false,"is_disabled":false,"rental_uris":{"android":"levelo://app?vid=7197a6d6-1005-459f-b698-3f131f91b54c","ios":"levelo://app?vid=7197a6d6-1005-459f-b698-3f131f91b54c"},"vehicle_type_id":"4","last_reported":1735610968,"current_range_meters":38400,"station_id":"ce4bgup2rcd13ifvqco0","pricing_plan_id":"cebpf4jnsgd1na2vs0mg"},{"bike_id":"49e19ac1-9da1-47f2-921a-89dac4cfdac2","system_id":"levelo_inurba_marseille","lat":43.27831,"lon":5.39212,"is_reserved":false,"is_disabled":false,"rental_uris":{"android":"levelo://app?vid=49e19ac1-9da1-47f2-921a-89dac4cfdac2","ios":"levelo://app?vid=49e19ac1-9da1-47f2-921a-89dac4cfdac2"},"vehicle_type_id":"4","last_reported":1735610968,"current_range_meters":16800,"station_id":"ce4bhjp2rcd13ifvqga0","pricing_plan_id":"cebpf4jnsgd1na2vs0mg"},{"bike_id":"3a806f89-f7b1-4be3-a809-33dc947f1b04","system_id":"levelo_inurba_marseille","lat":43.29534,"lon":5.38541,"is_reserved":false,"is_disabled":false,"rental_uris":{"android":"levelo://app?vid=3a806f89-f7b1-4be3-a809-33dc947f1b04","ios":"levelo://app?vid=3a806f89-f7b1-4be3-a809-33dc947f1b04"},"vehicle_type_id":"4","last_reported":1735610968,"current_range_meters":28400,"station_id":"ce4bgih2rcd13ifvqba0","pricing_plan_id":"cebpf4jnsgd1na2vs0mg"},{"bike_id":"787919a6-8e36-451d-a124-a2df1f05d596","system_id":"levelo_inurba_marseille","lat":43.29269,"lon":5.36849,"is_reserved":false,"is_disabled":false,"rental_uris":{"android":"levelo://app?vid=787919a6-8e36-451d-a124-a2df1f05d596","ios":"levelo://app?vid=787919a6-8e36-451d-a124-a2df1f05d596"},"vehicle_type_id":"4","last_reported":1735610968,"current_range_meters":34800,"station_id":"ce4bhbp2rcd13ifvqesg","pricing_plan_id":"cebpf4jnsgd1na2vs0mg"},{"bike_id":"32afc6cc-1544-4f88-ab5c-34496cc35b04","system_id":"levelo_inurba_marseille","lat":43.23052,"lon":5.35505,"is_reserved":false,"is_disabled":false,"rental_uris":{"android":"levelo://app?vid=32afc6cc-1544-4f88-ab5c-34496cc35b04","ios":"levelo://app?vid=32afc6cc-1544-4f88-ab5c-34496cc35b04"},"vehicle_type_id":"4","last_reported":1735610968,"current_range_meters":19200,"station_id":"cpo3342slgdg3j2ifvpg","pricing_plan_id":"cebpf4jnsgd1na2vs0mg"},{"bike_id":"7261d916-f4d4-4aac-a48e-4cab22c9764b","system_id":"levelo_inurba_marseille","lat":43.27819,"lon":5.40699,"is_reserved":false,"is_disabled":false,"rental_uris":{"android":"levelo://app?vid=7261d916-f4d4-4aac-a48e-4cab22c9764b","ios":"levelo://app?vid=7261d916-f4d4-4aac-a48e-4cab22c9764b"},"vehicle_type_id":"4","last_reported":1735610968,"current_range_meters":28400,"station_id":"ce4bhnh2rcd13ifvqgtg","pricing_plan_id":"cebpf4jnsgd1na2vs0mg"},{"bike_id":"281b3059-d80b-4230-9848-885b787f078e","system_id":"levelo_inurba_marseille","lat":43.31169,"lon":5.38755,"is_reserved":false,"is_disabled":false,"rental_uris":{"android":"levelo://app?vid=281b3059-d80b-4230-9848-885b787f078e","ios":"levelo://app?vid=281b3059-d80b-4230-9848-885b787f078e"},"vehicle_type_id":"4","last_reported":1735610968,"current_range_meters":39200,"station_id":"ce4bgv12rcd13ifvqcp0","pricing_plan_id":"cebpf4jnsgd1na2vs0mg"},{"bike_id":"8e399b83-39eb-456b-ab1a-95b6ac2111d6","system_id":"levelo_inurba_marseille","lat":43.30683,"lon":5.40095,"is_reserved":false,"is_disabled":false,"rental_uris":{"android":"levelo://app?vid=8e399b83-39eb-456b-ab1a-95b6ac2111d6","ios":"levelo://app?vid=8e399b83-39eb-456b-ab1a-95b6ac2111d6"},"vehicle_type_id":"4","last_reported":1735610968,"current_range_meters":36000,"station_id":"ce4bh112rcd13ifvqda0","pricing_plan_id":"cebpf4jnsgd1na2vs0mg"},{"bike_id":"f592253e-4f61-44fe-8f6f-8d14964d367c","system_id":"levelo_inurba_marseille","lat":43.24813,"lon":5.37451,"is_reserved":false,"is_disabled":false,"rental_uris":{"android":"levelo://app?vid=f592253e-4f61-44fe-8f6f-8d14964d367c","ios":"levelo://app?vid=f592253e-4f61-44fe-8f6f-8d14964d367c"},"vehicle_type_id":"4","last_reported":1735610968,"current_range_meters":20800,"station_id":"ce4bhgh2rcd13ifvqfb0","pricing_plan_id":"cebpf4jnsgd1na2vs0mg"},{"bike_id":"33716b8d-d98e-4f2c-a4d8-10f6322d23ea","system_id":"levelo_inurba_marseille","lat":43.30238,"lon":5.40055,"is_reserved":false,"is_disabled":false,"rental_uris":{"android":"levelo://app?vid=33716b8d-d98e-4f2c-a4d8-10f6322d23ea","ios":"levelo://app?vid=33716b8d-d98e-4f2c-a4d8-10f6322d23ea"},"vehicle_type_id":"4","last_reported":1735610968,"current_range_meters":25600,"station_id":"ce4bgvh2rcd13ifvqcs0","pricing_plan_id":"cebpf4jnsgd1na2vs0mg"},{"bike_id":"6b00b519-4203-4d71-bc5a-cca3ee5acea0","system_id":"levelo_inurba_marseille","lat":43.29581,"lon":5.36723,"is_reserved":false,"is_disabled":false,"rental_uris":{"android":"levelo://app?vid=6b00b519-4203-4d71-bc5a-cca3ee5acea0","ios":"levelo://app?vid=6b00b519-4203-4d71-bc5a-cca3ee5acea0"},"vehicle_type_id":"4","last_reported":1735610968,"current_range_meters":23200,"station_id":"ce4bgph2rcd13ifvqc2g","pricing_plan_id":"cebpf4jnsgd1na2vs0mg"},{"bike_id":"c82b87c2-e108-42c1-b279-e8cd6c99b45f","system_id":"levelo_inurba_marseille","lat":43.32349,"lon":5.3892,"is_reserved":false,"is_disabled":false,"rental_uris":{"android":"levelo://app?vid=c82b87c2-e108-42c1-b279-e8cd6c99b45f","ios":"levelo://app?vid=c82b87c2-e108-42c1-b279-e8cd6c99b45f"},"vehicle_type_id":"4","last_reported":1735610968,"current_range_meters":11600,"station_id":"ce4bhqp2rcd13ifvqhog","pricing_plan_id":"cebpf4jnsgd1na2vs0mg"},{"bike_id":"c21daa8f-2c4e-4b7c-b119-f22d2cc6b5c3","system_id":"levelo_inurba_marseille","lat":43.29242,"lon":5.40915,"is_reserved":false,"is_disabled":false,"rental_uris":{"android":"levelo://app?vid=c21daa8f-2c4e-4b7c-b119-f22d2cc6b5c3","ios":"levelo://app?vid=c21daa8f-2c4e-4b7c-b119-f22d2cc6b5c3"},"vehicle_type_id":"4","last_reported":1735610968,"current_range_meters":23200,"station_id":"ce4bh192rcd13ifvqdc0","pricing_plan_id":"cebpf4jnsgd1na2vs0mg"},{"bike_id":"ce872ff4-1114-4dbb-a1cd-0587f9a75e23","system_id":"levelo_inurba_marseille","lat":43.24808,"lon":5.3745,"is_reserved":false,"is_disabled":false,"rental_uris":{"android":"levelo://app?vid=ce872ff4-1114-4dbb-a1cd-0587f9a75e23","ios":"levelo://app?vid=ce872ff4-1114-4dbb-a1cd-0587f9a75e23"},"vehicle_type_id":"4","last_reported":1735610968,"current_range_meters":38800,"station_id":"ce4bhgh2rcd13ifvqfb0","pricing_plan_id":"cebpf4jnsgd1na2vs0mg"},{"bike_id":"022d826a-d31d-48ef-b07e-f8dd0ceaa746","system_id":"levelo_inurba_marseille","lat":43.2501,"lon":5.38915,"is_reserved":false,"is_disabled":false,"rental_uris":{"android":"levelo://app?vid=022d826a-d31d-48ef-b07e-f8dd0ceaa746","ios":"levelo://app?vid=022d826a-d31d-48ef-b07e-f8dd0ceaa746"},"vehicle_type_id":"4","last_reported":1735610968,"current_range_meters":38800,"station_id":"ce4bhgp2rcd13ifvqfd0","pricing_plan_id":"cebpf4jnsgd1na2vs0mg"},{"bike_id":"fb9871c8-d2c1-41c6-a98d-832e02dcb3f4","system_id":"levelo_inurba_marseille","lat":43.27994,"lon":5.40006,"is_reserved":false,"is_disabled":false,"rental_uris":{"android":"levelo://app?vid=fb9871c8-d2c1-41c6-a98d-832e02dcb3f4","ios":"levelo://app?vid=fb9871c8-d2c1-41c6-a98d-832e02dcb3f4"},"vehicle_type_id":"4","last_reported":1735610968,"current_range_meters":27600,"station_id":"ce4bho92rcd13ifvqh4g","pricing_plan_id":"cebpf4jnsgd1na2vs0mg"},{"bike_id":"4fd865bd-f616-40b0-929f-9aa7e1c56a7b","system_id":"levelo_inurba_marseille","lat":43.28837,"lon":5.35856,"is_reserved":false,"is_disabled":false,"rental_uris":{"android":"levelo://app?vid=4fd865bd-f616-40b0-929f-9aa7e1c56a7b","ios":"levelo://app?vid=4fd865bd-f616-40b0-929f-9aa7e1c56a7b"},"vehicle_type_id":"4","last_reported":1735610968,"current_range_meters":35200,"station_id":"ce4bhb12rcd13ifvqem0","pricing_plan_id":"cebpf4jnsgd1na2vs0mg"},{"bike_id":"7254445c-c24d-4fea-b24b-3d5caccf476c","system_id":"levelo_inurba_marseille","lat":43.32338,"lon":5.40617,"is_reserved":false,"is_disabled":false,"rental_uris":{"android":"levelo://app?vid=7254445c-c24d-4fea-b24b-3d5caccf476c","ios":"levelo://app?vid=7254445c-c24d-4fea-b24b-3d5caccf476c"},"vehicle_type_id":"4","last_reported":1735610968,"current_range_meters":39200,"station_id":"ce4bhq92rcd13ifvqhjg","pricing_plan_id":"cebpf4jnsgd1na2vs0mg"},{"bike_id":"29031046-4c84-4ef0-b2fd-d2f06176aac5","system_id":"levelo_inurba_marseille","lat":43.34202,"lon":5.3599,"is_reserved":false,"is_disabled":true,"rental_uris":{"android":"levelo://app?vid=29031046-4c84-4ef0-b2fd-d2f06176aac5","ios":"levelo://app?vid=29031046-4c84-4ef0-b2fd-d2f06176aac5"},"vehicle_type_id":"4","last_reported":1735610968,"current_range_meters":0,"station_id":"","pricing_plan_id":"cebpf4jnsgd1na2vs0mg"},{"bike_id":"84600fa5-9d01-4cb4-8cb6-01480a60ec02","system_id":"levelo_inurba_marseille","lat":43.31214,"lon":5.36831,"is_reserved":false,"is_disabled":false,"rental_uris":{"android":"levelo://app?vid=84600fa5-9d01-4cb4-8cb6-01480a60ec02","ios":"levelo://app?vid=84600fa5-9d01-4cb4-8cb6-01480a60ec02"},"vehicle_type_id":"4","last_reported":1735610968,"current_range_meters":38800,"station_id":"ce4bgl92rcd13ifvqbq0","pricing_plan_id":"cebpf4jnsgd1na2vs0mg"},{"bike_id":"db34b9f1-9a00-424e-b76f-120cac2b9665","system_id":"levelo_inurba_marseille","lat":43.26938,"lon":5.3864,"is_reserved":false,"is_disabled":true,"rental_uris":{"android":"levelo://app?vid=db34b9f1-9a00-424e-b76f-120cac2b9665","ios":"levelo://app?vid=db34b9f1-9a00-424e-b76f-120cac2b9665"},"vehicle_type_id":"4","last_reported":1735610968,"current_range_meters":38400,"station_id":"ce4bhh92rcd13ifvqfh0","pricing_plan_id":"cebpf4jnsgd1na2vs0mg"},{"bike_id":"91893e1f-f038-4c69-8c95-097770951c3f","system_id":"levelo_inurba_marseille","lat":43.30862,"lon":5.4017,"is_reserved":false,"is_disabled":false,"rental_uris":{"android":"levelo://app?vid=91893e1f-f038-4c69-8c95-097770951c3f","ios":"levelo://app?vid=91893e1f-f038-4c69-8c95-097770951c3f"},"vehicle_type_id":"4","last_reported":1735610968,"current_range_meters":38800,"station_id":"ce4bgvp2rcd13ifvqct0","pricing_plan_id":"cebpf4jnsgd1na2vs0mg"},{"bike_id":"88af5fdd-3244-4dee-89ac-facb7b5aa521","system_id":"levelo_inurba_marseille","lat":43.30083,"lon":5.39078,"is_reserved":false,"is_disabled":false,"rental_uris":{"android":"levelo://app?vid=88af5fdd-3244-4dee-89ac-facb7b5aa521","ios":"levelo://app?vid=88af5fdd-3244-4dee-89ac-facb7b5aa521"},"vehicle_type_id":"4","last_reported":1735610968,"current_range_meters":39200,"station_id":"ce4bh192rcd13ifvqdb0","pricing_plan_id":"cebpf4jnsgd1na2vs0mg"},{"bike_id":"fff51dc7-8905-421d-a9bb-05c387c8d644","system_id":"levelo_inurba_marseille","lat":43.30443,"lon":5.38889,"is_reserved":false,"is_disabled":false,"rental_uris":{"android":"levelo://app?vid=fff51dc7-8905-421d-a9bb-05c387c8d644","ios":"levelo://app?vid=fff51dc7-8905-421d-a9bb-05c387c8d644"},"vehicle_type_id":"4","last_reported":1735610968,"current_range_meters":33600,"station_id":"ce4bgk12rcd13ifvqbi0","pricing_plan_id":"cebpf4jnsgd1na2vs0mg"},{"bike_id":"35c2c095-e215-44a0-bbc2-feea0af9e5d1","system_id":"levelo_inurba_marseille","lat":43.26694,"lon":5.38284,"is_reserved":false,"is_disabled":false,"rental_uris":{"android":"levelo://app?vid=35c2c095-e215-44a0-bbc2-feea0af9e5d1","ios":"levelo://app?vid=35c2c095-e215-44a0-bbc2-feea0af9e5d1"},"vehicle_type_id":"4","last_reported":1735610968,"current_range_meters":25600,"station_id":"ce4bhg92rcd13ifvqf90","pricing_plan_id":"cebpf4jnsgd1na2vs0mg"},{"bike_id":"3ad593ee-7021-409e-921b-8eff64fa1228","system_id":"levelo_inurba_marseille","lat":43.29802,"lon":5.40423,"is_reserved":false,"is_disabled":false,"rental_uris":{"android":"levelo://app?vid=3ad593ee-7021-409e-921b-8eff64fa1228","ios":"levelo://app?vid=3ad593ee-7021-409e-921b-8eff64fa1228"},"vehicle_type_id":"4","last_reported":1735610968,"current_range_meters":38000,"station_id":"ce4bh112rcd13ifvqd90","pricing_plan_id":"cebpf4jnsgd1na2vs0mg"},{"bike_id":"b3c26cb8-3206-4024-bd51-f5a9d4b106d3","system_id":"levelo_inurba_marseille","lat":43.23958,"lon":5.36646,"is_reserved":false,"is_disabled":false,"rental_uris":{"android":"levelo://app?vid=b3c26cb8-3206-4024-bd51-f5a9d4b106d3","ios":"levelo://app?vid=b3c26cb8-3206-4024-bd51-f5a9d4b106d3"},"vehicle_type_id":"4","last_reported":1735610968,"current_range_meters":39200,"station_id":"ce4bhi12rcd13ifvqfp0","pricing_plan_id":"cebpf4jnsgd1na2vs0mg"},{"bike_id":"17649a3a-77d9-424f-a14d-140ae630f131","system_id":"levelo_inurba_marseille","lat":43.2872,"lon":5.37938,"is_reserved":false,"is_disabled":false,"rental_uris":{"android":"levelo://app?vid=17649a3a-77d9-424f-a14d-140ae630f131","ios":"levelo://app?vid=17649a3a-77d9-424f-a14d-140ae630f131"},"vehicle_type_id":"4","last_reported":1735610968,"current_range_meters":38800,"station_id":"ce4bh9p2rcd13ifvqec0","pricing_plan_id":"cebpf4jnsgd1na2vs0mg"},{"bike_id":"f6c3569e-efa4-4a1c-b75b-94ded8df3e64","system_id":"levelo_inurba_marseille","lat":43.27948,"lon":5.3872,"is_reserved":false,"is_disabled":false,"rental_uris":{"android":"levelo://app?vid=f6c3569e-efa4-4a1c-b75b-94ded8df3e64","ios":"levelo://app?vid=f6c3569e-efa4-4a1c-b75b-94ded8df3e64"},"vehicle_type_id":"4","last_reported":1735610968,"current_range_meters":35200,"station_id":"ce4bhg12rcd13ifvqf80","pricing_plan_id":"cebpf4jnsgd1na2vs0mg"},{"bike_id":"28bb21b9-e526-418c-8d06-85bc12d7da3f","system_id":"levelo_inurba_marseille","lat":43.27809,"lon":5.40706,"is_reserved":false,"is_disabled":false,"rental_uris":{"android":"levelo://app?vid=28bb21b9-e526-418c-8d06-85bc12d7da3f","ios":"levelo://app?vid=28bb21b9-e526-418c-8d06-85bc12d7da3f"},"vehicle_type_id":"4","last_reported":1735610968,"current_range_meters":38800,"station_id":"ce4bhnh2rcd13ifvqgtg","pricing_plan_id":"cebpf4jnsgd1na2vs0mg"},{"bike_id":"1b6ebad1-297a-48f0-9911-f4462b938642","system_id":"levelo_inurba_marseille","lat":43.32117,"lon":5.3679,"is_reserved":false,"is_disabled":true,"rental_uris":{"android":"levelo://app?vid=1b6ebad1-297a-48f0-9911-f4462b938642","ios":"levelo://app?vid=1b6ebad1-297a-48f0-9911-f4462b938642"},"vehicle_type_id":"4","last_reported":1735610968,"current_range_meters":38800,"station_id":"ce4bhrh2rcd13ifvqhug","pricing_plan_id":"cebpf4jnsgd1na2vs0mg"},{"bike_id":"399d896b-3d0e-4c61-9fe3-18ed271b8dd5","system_id":"levelo_inurba_marseille","lat":43.29775,"lon":5.38117,"is_reserved":false,"is_disabled":true,"rental_uris":{"android":"levelo://app?vid=399d896b-3d0e-4c61-9fe3-18ed271b8dd5","ios":"levelo://app?vid=399d896b-3d0e-4c61-9fe3-18ed271b8dd5"},"vehicle_type_id":"4","last_reported":1735610968,"current_range_meters":19600,"station_id":"ce4bgip2rcd13ifvqbb0","pricing_plan_id":"cebpf4jnsgd1na2vs0mg"},{"bike_id":"782ac4f8-43d6-48d5-bebe-d3b623304674","system_id":"levelo_inurba_marseille","lat":43.29613,"lon":5.37711,"is_reserved":false,"is_disabled":true,"rental_uris":{"android":"levelo://app?vid=782ac4f8-43d6-48d5-bebe-d3b623304674","ios":"levelo://app?vid=782ac4f8-43d6-48d5-bebe-d3b623304674"},"vehicle_type_id":"4","last_reported":1735610968,"current_range_meters":30000,"station_id":"ce4bgi92rcd13ifvqb90","pricing_plan_id":"cebpf4jnsgd1na2vs0mg"},{"bike_id":"ad91d635-5925-4ac5-b2ac-c63c6082c562","system_id":"levelo_inurba_marseille","lat":43.28406,"lon":5.3916,"is_reserved":false,"is_disabled":false,"rental_uris":{"android":"levelo://app?vid=ad91d635-5925-4ac5-b2ac-c63c6082c562","ios":"levelo://app?vid=ad91d635-5925-4ac5-b2ac-c63c6082c562"},"vehicle_type_id":"4","last_reported":1735610968,"current_range_meters":23200,"station_id":"ce4bhoh2rcd13ifvqh5g","pricing_plan_id":"cebpf4jnsgd1na2vs0mg"},{"bike_id":"3f85ce8b-2fdd-4846-86c7-195e7b202f6b","system_id":"levelo_inurba_marseille","lat":43.26715,"lon":5.38263,"is_reserved":false,"is_disabled":false,"rental_uris":{"android":"levelo://app?vid=3f85ce8b-2fdd-4846-86c7-195e7b202f6b","ios":"levelo://app?vid=3f85ce8b-2fdd-4846-86c7-195e7b202f6b"},"vehicle_type_id":"4","last_reported":1735610968,"current_range_meters":33600,"station_id":"ce4bhg92rcd13ifvqf90","pricing_plan_id":"cebpf4jnsgd1na2vs0mg"},{"bike_id":"4ec70de7-66cc-4828-9656-d20a859e57b9","system_id":"levelo_inurba_marseille","lat":43.27664,"lon":5.38979,"is_reserved":false,"is_disabled":false,"rental_uris":{"android":"levelo://app?vid=4ec70de7-66cc-4828-9656-d20a859e57b9","ios":"levelo://app?vid=4ec70de7-66cc-4828-9656-d20a859e57b9"},"vehicle_type_id":"4","last_reported":1735610968,"current_range_meters":38800,"station_id":"ce4bhi12rcd13ifvqfo0","pricing_plan_id":"cebpf4jnsgd1na2vs0mg"},{"bike_id":"dfd0134d-73ec-4fd9-b561-a804c0959d48","system_id":"levelo_inurba_marseille","lat":43.27437,"lon":5.39454,"is_reserved":false,"is_disabled":false,"rental_uris":{"android":"levelo://app?vid=dfd0134d-73ec-4fd9-b561-a804c0959d48","ios":"levelo://app?vid=dfd0134d-73ec-4fd9-b561-a804c0959d48"},"vehicle_type_id":"4","last_reported":1735610968,"current_range_meters":38400,"station_id":"","pricing_plan_id":"cebpf4jnsgd1na2vs0mg"},{"bike_id":"b4bdbeae-aef0-491b-a4b3-30d4739d80e8","system_id":"levelo_inurba_marseille","lat":43.2511,"lon":5.40317,"is_reserved":false,"is_disabled":false,"rental_uris":{"android":"levelo://app?vid=b4bdbeae-aef0-491b-a4b3-30d4739d80e8","ios":"levelo://app?vid=b4bdbeae-aef0-491b-a4b3-30d4739d80e8"},"vehicle_type_id":"4","last_reported":1735610968,"current_range_meters":30400,"station_id":"ce4bhlh2rcd13ifvqgig","pricing_plan_id":"cebpf4jnsgd1na2vs0mg"},{"bike_id":"e70ce8bb-674e-436b-ab6d-79ca756c291a","system_id":"levelo_inurba_marseille","lat":43.25727,"lon":5.41106,"is_reserved":false,"is_disabled":false,"rental_uris":{"android":"levelo://app?vid=e70ce8bb-674e-436b-ab6d-79ca756c291a","ios":"levelo://app?vid=e70ce8bb-674e-436b-ab6d-79ca756c291a"},"vehicle_type_id":"4","last_reported":1735610968,"current_range_meters":24800,"station_id":"ce4bhkp2rcd13ifvqgd0","pricing_plan_id":"cebpf4jnsgd1na2vs0mg"},{"bike_id":"bef1de8d-5f3e-49eb-b762-638ef746fa76","system_id":"levelo_inurba_marseille","lat":43.29251,"lon":5.40912,"is_reserved":false,"is_disabled":false,"rental_uris":{"android":"levelo://app?vid=bef1de8d-5f3e-49eb-b762-638ef746fa76","ios":"levelo://app?vid=bef1de8d-5f3e-49eb-b762-638ef746fa76"},"vehicle_type_id":"4","last_reported":1735610968,"current_range_meters":39200,"station_id":"ce4bh192rcd13ifvqdc0","pricing_plan_id":"cebpf4jnsgd1na2vs0mg"},{"bike_id":"fd9c27ba-b836-43d9-bd9d-4a6e69976d7f","system_id":"levelo_inurba_marseille","lat":43.29404,"lon":5.38617,"is_reserved":false,"is_disabled":false,"rental_uris":{"android":"levelo://app?vid=fd9c27ba-b836-43d9-bd9d-4a6e69976d7f","ios":"levelo://app?vid=fd9c27ba-b836-43d9-bd9d-4a6e69976d7f"},"vehicle_type_id":"4","last_reported":1735610968,"current_range_meters":38800,"station_id":"ce4bh2h2rcd13ifvqdh0","pricing_plan_id":"cebpf4jnsgd1na2vs0mg"},{"bike_id":"4a325b3d-6882-4014-84fa-6e9434b1e5ab","system_id":"levelo_inurba_marseille","lat":43.306057,"lon":5.372198,"is_reserved":false,"is_disabled":false,"rental_uris":{"android":"levelo://app?vid=4a325b3d-6882-4014-84fa-6e9434b1e5ab","ios":"levelo://app?vid=4a325b3d-6882-4014-84fa-6e9434b1e5ab"},"vehicle_type_id":"4","last_reported":1735610968,"current_range_meters":22800,"station_id":"ce4bgqh2rcd13ifvqc4g","pricing_plan_id":"cebpf4jnsgd1na2vs0mg"},{"bike_id":"1a821a66-e0f6-4530-86b3-250338051818","system_id":"levelo_inurba_marseille","lat":43.27055,"lon":5.42271,"is_reserved":false,"is_disabled":false,"rental_uris":{"android":"levelo://app?vid=1a821a66-e0f6-4530-86b3-250338051818","ios":"levelo://app?vid=1a821a66-e0f6-4530-86b3-250338051818"},"vehicle_type_id":"4","last_reported":1735610968,"current_range_meters":38800,"station_id":"ce4bhk92rcd13ifvqgb0","pricing_plan_id":"cebpf4jnsgd1na2vs0mg"},{"bike_id":"cc13412c-af8c-4499-ba81-47d78fbd6474","system_id":"levelo_inurba_marseille","lat":43.28612,"lon":5.37055,"is_reserved":false,"is_disabled":false,"rental_uris":{"android":"levelo://app?vid=cc13412c-af8c-4499-ba81-47d78fbd6474","ios":"levelo://app?vid=cc13412c-af8c-4499-ba81-47d78fbd6474"},"vehicle_type_id":"4","last_reported":1735610968,"current_range_meters":37600,"station_id":"ce4bht12rcd13ifvqi60","pricing_plan_id":"cebpf4jnsgd1na2vs0mg"},{"bike_id":"991a2c2b-5db7-4441-9b6a-d78c2503216d","system_id":"levelo_inurba_marseille","lat":43.28348,"lon":5.38113,"is_reserved":false,"is_disabled":false,"rental_uris":{"android":"levelo://app?vid=991a2c2b-5db7-4441-9b6a-d78c2503216d","ios":"levelo://app?vid=991a2c2b-5db7-4441-9b6a-d78c2503216d"},"vehicle_type_id":"4","last_reported":1735610968,"current_range_meters":19600,"station_id":"ce4bh412rcd13ifvqdr0","pricing_plan_id":"cebpf4jnsgd1na2vs0mg"},{"bike_id":"a63d74e4-f257-4d94-9bc6-8b8c030a11c2","system_id":"levelo_inurba_marseille","lat":43.23151,"lon":5.43723,"is_reserved":false,"is_disabled":false,"rental_uris":{"android":"levelo://app?vid=a63d74e4-f257-4d94-9bc6-8b8c030a11c2","ios":"levelo://app?vid=a63d74e4-f257-4d94-9bc6-8b8c030a11c2"},"vehicle_type_id":"4","last_reported":1735610968,"current_range_meters":38800,"station_id":"ce4bhmp2rcd13ifvqgog","pricing_plan_id":"cebpf4jnsgd1na2vs0mg"},{"bike_id":"f5997a88-606e-48c9-933e-041b10894cea","system_id":"levelo_inurba_marseille","lat":43.2706,"lon":5.42286,"is_reserved":false,"is_disabled":false,"rental_uris":{"android":"levelo://app?vid=f5997a88-606e-48c9-933e-041b10894cea","ios":"levelo://app?vid=f5997a88-606e-48c9-933e-041b10894cea"},"vehicle_type_id":"4","last_reported":1735610968,"current_range_meters":26000,"station_id":"ce4bhk92rcd13ifvqgb0","pricing_plan_id":"cebpf4jnsgd1na2vs0mg"},{"bike_id":"3b4402ef-28a9-49fc-9e19-5c9608f1a890","system_id":"levelo_inurba_marseille","lat":43.30406,"lon":5.36761,"is_reserved":false,"is_disabled":false,"rental_uris":{"android":"levelo://app?vid=3b4402ef-28a9-49fc-9e19-5c9608f1a890","ios":"levelo://app?vid=3b4402ef-28a9-49fc-9e19-5c9608f1a890"},"vehicle_type_id":"4","last_reported":1735610968,"current_range_meters":37600,"station_id":"","pricing_plan_id":"cebpf4jnsgd1na2vs0mg"},{"bike_id":"6f7afd48-cfe2-4867-94b0-1c7f0bfc8089","system_id":"levelo_inurba_marseille","lat":43.28093,"lon":5.37867,"is_reserved":false,"is_disabled":false,"rental_uris":{"android":"levelo://app?vid=6f7afd48-cfe2-4867-94b0-1c7f0bfc8089","ios":"levelo://app?vid=6f7afd48-cfe2-4867-94b0-1c7f0bfc8089"},"vehicle_type_id":"4","last_reported":1735610968,"current_range_meters":38800,"station_id":"ce4bha12rcd13ifvqee0","pricing_plan_id":"cebpf4jnsgd1na2vs0mg"},{"bike_id":"04beb72d-95df-4508-ab8f-21f369f8ae7d","system_id":"levelo_inurba_marseille","lat":43.28706,"lon":5.39976,"is_reserved":false,"is_disabled":false,"rental_uris":{"android":"levelo://app?vid=04beb72d-95df-4508-ab8f-21f369f8ae7d","ios":"levelo://app?vid=04beb72d-95df-4508-ab8f-21f369f8ae7d"},"vehicle_type_id":"4","last_reported":1735610968,"current_range_meters":13600,"station_id":"ce4bho92rcd13ifvqh3g","pricing_plan_id":"cebpf4jnsgd1na2vs0mg"},{"bike_id":"29e22d08-10b1-4400-9d78-16f5f774d15e","system_id":"levelo_inurba_marseille","lat":43.28022,"lon":5.36955,"is_reserved":false,"is_disabled":false,"rental_uris":{"android":"levelo://app?vid=29e22d08-10b1-4400-9d78-16f5f774d15e","ios":"levelo://app?vid=29e22d08-10b1-4400-9d78-16f5f774d15e"},"vehicle_type_id":"4","last_reported":1735610968,"current_range_meters":38800,"station_id":"ce4bha12rcd13ifvqef0","pricing_plan_id":"cebpf4jnsgd1na2vs0mg"},{"bike_id":"0caaf074-58ea-4ef9-a033-3c9eb9ea2c47","system_id":"levelo_inurba_marseille","lat":43.30885,"lon":5.3963,"is_reserved":false,"is_disabled":false,"rental_uris":{"android":"levelo://app?vid=0caaf074-58ea-4ef9-a033-3c9eb9ea2c47","ios":"levelo://app?vid=0caaf074-58ea-4ef9-a033-3c9eb9ea2c47"},"vehicle_type_id":"4","last_reported":1735610968,"current_range_meters":36400,"station_id":"ce4bh012rcd13ifvqcv0","pricing_plan_id":"cebpf4jnsgd1na2vs0mg"},{"bike_id":"79a9cc94-882c-4645-897a-abb5a5249316","system_id":"levelo_inurba_marseille","lat":43.337444,"lon":5.374475,"is_reserved":false,"is_disabled":false,"rental_uris":{"android":"levelo://app?vid=79a9cc94-882c-4645-897a-abb5a5249316","ios":"levelo://app?vid=79a9cc94-882c-4645-897a-abb5a5249316"},"vehicle_type_id":"4","last_reported":1735610968,"current_range_meters":33200,"station_id":"","pricing_plan_id":"cebpf4jnsgd1na2vs0mg"},{"bike_id":"2c33038e-7670-40a2-bea3-07077b80fc21","system_id":"levelo_inurba_marseille","lat":43.26703,"lon":5.38262,"is_reserved":false,"is_disabled":false,"rental_uris":{"android":"levelo://app?vid=2c33038e-7670-40a2-bea3-07077b80fc21","ios":"levelo://app?vid=2c33038e-7670-40a2-bea3-07077b80fc21"},"vehicle_type_id":"4","last_reported":1735610968,"current_range_meters":38800,"station_id":"ce4bhg92rcd13ifvqf90","pricing_plan_id":"cebpf4jnsgd1na2vs0mg"},{"bike_id":"31cbd68a-b3a2-4d97-bc05-e5c249588baf","system_id":"levelo_inurba_marseille","lat":43.28698,"lon":5.38658,"is_reserved":false,"is_disabled":false,"rental_uris":{"android":"levelo://app?vid=31cbd68a-b3a2-4d97-bc05-e5c249588baf","ios":"levelo://app?vid=31cbd68a-b3a2-4d97-bc05-e5c249588baf"},"vehicle_type_id":"4","last_reported":1735610968,"current_range_meters":38800,"station_id":"ce4bh492rcd13ifvqdug","pricing_plan_id":"cebpf4jnsgd1na2vs0mg"},{"bike_id":"ced42de8-977b-4ea8-8197-544d53317089","system_id":"levelo_inurba_marseille","lat":43.28224,"lon":5.40296,"is_reserved":false,"is_disabled":false,"rental_uris":{"android":"levelo://app?vid=ced42de8-977b-4ea8-8197-544d53317089","ios":"levelo://app?vid=ced42de8-977b-4ea8-8197-544d53317089"},"vehicle_type_id":"4","last_reported":1735610968,"current_range_meters":21600,"station_id":"","pricing_plan_id":"cebpf4jnsgd1na2vs0mg"},{"bike_id":"0c85ca13-031c-4199-ad79-f9b475e982aa","system_id":"levelo_inurba_marseille","lat":43.28014,"lon":5.36945,"is_reserved":false,"is_disabled":false,"rental_uris":{"android":"levelo://app?vid=0c85ca13-031c-4199-ad79-f9b475e982aa","ios":"levelo://app?vid=0c85ca13-031c-4199-ad79-f9b475e982aa"},"vehicle_type_id":"4","last_reported":1735610968,"current_range_meters":38800,"station_id":"ce4bha12rcd13ifvqef0","pricing_plan_id":"cebpf4jnsgd1na2vs0mg"},{"bike_id":"60b40321-c7fb-44eb-b4a9-cd1d16b5cf01","system_id":"levelo_inurba_marseille","lat":43.3064,"lon":5.40076,"is_reserved":false,"is_disabled":false,"rental_uris":{"android":"levelo://app?vid=60b40321-c7fb-44eb-b4a9-cd1d16b5cf01","ios":"levelo://app?vid=60b40321-c7fb-44eb-b4a9-cd1d16b5cf01"},"vehicle_type_id":"4","last_reported":1735610968,"current_range_meters":38800,"station_id":"ce4bh112rcd13ifvqda0","pricing_plan_id":"cebpf4jnsgd1na2vs0mg"},{"bike_id":"8fdbb3a1-ea97-4b2c-aa37-2d8996c834b2","system_id":"levelo_inurba_marseille","lat":43.28098,"lon":5.37865,"is_reserved":false,"is_disabled":false,"rental_uris":{"android":"levelo://app?vid=8fdbb3a1-ea97-4b2c-aa37-2d8996c834b2","ios":"levelo://app?vid=8fdbb3a1-ea97-4b2c-aa37-2d8996c834b2"},"vehicle_type_id":"4","last_reported":1735610968,"current_range_meters":38000,"station_id":"ce4bha12rcd13ifvqee0","pricing_plan_id":"cebpf4jnsgd1na2vs0mg"},{"bike_id":"94e6dee2-3159-449e-9ee5-297188ebe26e","system_id":"levelo_inurba_marseille","lat":43.299174,"lon":5.374561,"is_reserved":false,"is_disabled":false,"rental_uris":{"android":"levelo://app?vid=94e6dee2-3159-449e-9ee5-297188ebe26e","ios":"levelo://app?vid=94e6dee2-3159-449e-9ee5-297188ebe26e"},"vehicle_type_id":"4","last_reported":1735610968,"current_range_meters":27600,"station_id":"ce4bgjh2rcd13ifvqbg0","pricing_plan_id":"cebpf4jnsgd1na2vs0mg"},{"bike_id":"62195449-186b-4ba8-a48f-a81f59c722e3","system_id":"levelo_inurba_marseille","lat":43.31364,"lon":5.38504,"is_reserved":false,"is_disabled":false,"rental_uris":{"android":"levelo://app?vid=62195449-186b-4ba8-a48f-a81f59c722e3","ios":"levelo://app?vid=62195449-186b-4ba8-a48f-a81f59c722e3"},"vehicle_type_id":"4","last_reported":1735610968,"current_range_meters":23200,"station_id":"ce4bgt92rcd13ifvqcf0","pricing_plan_id":"cebpf4jnsgd1na2vs0mg"},{"bike_id":"abb384d4-50ff-4793-a8c5-8fc16babe629","system_id":"levelo_inurba_marseille","lat":43.30148,"lon":5.37413,"is_reserved":false,"is_disabled":false,"rental_uris":{"android":"levelo://app?vid=abb384d4-50ff-4793-a8c5-8fc16babe629","ios":"levelo://app?vid=abb384d4-50ff-4793-a8c5-8fc16babe629"},"vehicle_type_id":"4","last_reported":1735610968,"current_range_meters":38800,"station_id":"ce4bgs92rcd13ifvqcc0","pricing_plan_id":"cebpf4jnsgd1na2vs0mg"},{"bike_id":"56731e3e-7f36-4713-a4bd-24b5ee5d43d3","system_id":"levelo_inurba_marseille","lat":43.28035,"lon":5.369386,"is_reserved":false,"is_disabled":false,"rental_uris":{"android":"levelo://app?vid=56731e3e-7f36-4713-a4bd-24b5ee5d43d3","ios":"levelo://app?vid=56731e3e-7f36-4713-a4bd-24b5ee5d43d3"},"vehicle_type_id":"4","last_reported":1735610968,"current_range_meters":38400,"station_id":"ce4bha12rcd13ifvqef0","pricing_plan_id":"cebpf4jnsgd1na2vs0mg"},{"bike_id":"03a83e49-1d38-4607-b5f8-e258036bdc9f","system_id":"levelo_inurba_marseille","lat":43.29297,"lon":5.37166,"is_reserved":false,"is_disabled":false,"rental_uris":{"android":"levelo://app?vid=03a83e49-1d38-4607-b5f8-e258036bdc9f","ios":"levelo://app?vid=03a83e49-1d38-4607-b5f8-e258036bdc9f"},"vehicle_type_id":"4","last_reported":1735610968,"current_range_meters":38800,"station_id":"ce4bgh92rcd13ifvqb40","pricing_plan_id":"cebpf4jnsgd1na2vs0mg"},{"bike_id":"dd708212-6c95-4591-b555-43b33b8da7f5","system_id":"levelo_inurba_marseille","lat":43.25748,"lon":5.4111,"is_reserved":false,"is_disabled":false,"rental_uris":{"android":"levelo://app?vid=dd708212-6c95-4591-b555-43b33b8da7f5","ios":"levelo://app?vid=dd708212-6c95-4591-b555-43b33b8da7f5"},"vehicle_type_id":"4","last_reported":1735610968,"current_range_meters":30800,"station_id":"ce4bhkp2rcd13ifvqgd0","pricing_plan_id":"cebpf4jnsgd1na2vs0mg"},{"bike_id":"51b5e52d-3052-4972-af0e-85c90ed76a11","system_id":"levelo_inurba_marseille","lat":43.30614,"lon":5.39356,"is_reserved":false,"is_disabled":false,"rental_uris":{"android":"levelo://app?vid=51b5e52d-3052-4972-af0e-85c90ed76a11","ios":"levelo://app?vid=51b5e52d-3052-4972-af0e-85c90ed76a11"},"vehicle_type_id":"4","last_reported":1735610968,"current_range_meters":22000,"station_id":"ce4bh0p2rcd13ifvqd80","pricing_plan_id":"cebpf4jnsgd1na2vs0mg"},{"bike_id":"73a8b095-bee6-42fb-a11d-f93149228c21","system_id":"levelo_inurba_marseille","lat":43.3061,"lon":5.37246,"is_reserved":false,"is_disabled":false,"rental_uris":{"android":"levelo://app?vid=73a8b095-bee6-42fb-a11d-f93149228c21","ios":"levelo://app?vid=73a8b095-bee6-42fb-a11d-f93149228c21"},"vehicle_type_id":"4","last_reported":1735610968,"current_range_meters":28400,"station_id":"ce4bgqh2rcd13ifvqc4g","pricing_plan_id":"cebpf4jnsgd1na2vs0mg"},{"bike_id":"7686e9a1-b495-4cbd-9cf0-a8331cae3345","system_id":"levelo_inurba_marseille","lat":43.31757,"lon":5.39019,"is_reserved":false,"is_disabled":false,"rental_uris":{"android":"levelo://app?vid=7686e9a1-b495-4cbd-9cf0-a8331cae3345","ios":"levelo://app?vid=7686e9a1-b495-4cbd-9cf0-a8331cae3345"},"vehicle_type_id":"4","last_reported":1735610968,"current_range_meters":38800,"station_id":"ce4bhqp2rcd13ifvqhng","pricing_plan_id":"cebpf4jnsgd1na2vs0mg"},{"bike_id":"53a6fb77-ae87-4252-8b46-0b6c355db75f","system_id":"levelo_inurba_marseille","lat":43.2798,"lon":5.41659,"is_reserved":false,"is_disabled":false,"rental_uris":{"android":"levelo://app?vid=53a6fb77-ae87-4252-8b46-0b6c355db75f","ios":"levelo://app?vid=53a6fb77-ae87-4252-8b46-0b6c355db75f"},"vehicle_type_id":"4","last_reported":1735610968,"current_range_meters":22000,"station_id":"ce4bho12rcd13ifvqh1g","pricing_plan_id":"cebpf4jnsgd1na2vs0mg"},{"bike_id":"85d36f50-9b9f-47af-9a68-4824dcde3822","system_id":"levelo_inurba_marseille","lat":43.29754,"lon":5.379098,"is_reserved":false,"is_disabled":true,"rental_uris":{"android":"levelo://app?vid=85d36f50-9b9f-47af-9a68-4824dcde3822","ios":"levelo://app?vid=85d36f50-9b9f-47af-9a68-4824dcde3822"},"vehicle_type_id":"4","last_reported":1735610968,"current_range_meters":0,"station_id":"ce4bgkh2rcd13ifvqbl0","pricing_plan_id":"cebpf4jnsgd1na2vs0mg"},{"bike_id":"c778484b-ba68-43bd-bfc6-dce2a38afd71","system_id":"levelo_inurba_marseille","lat":43.336163,"lon":5.410282,"is_reserved":false,"is_disabled":false,"rental_uris":{"android":"levelo://app?vid=c778484b-ba68-43bd-bfc6-dce2a38afd71","ios":"levelo://app?vid=c778484b-ba68-43bd-bfc6-dce2a38afd71"},"vehicle_type_id":"4","last_reported":1735610968,"current_range_meters":26000,"station_id":"ce4bhqh2rcd13ifvqhmg","pricing_plan_id":"cebpf4jnsgd1na2vs0mg"},{"bike_id":"d8cef4a7-11ba-4a41-8aac-49b8b245e410","system_id":"levelo_inurba_marseille","lat":43.24667,"lon":5.38156,"is_reserved":false,"is_disabled":false,"rental_uris":{"android":"levelo://app?vid=d8cef4a7-11ba-4a41-8aac-49b8b245e410","ios":"levelo://app?vid=d8cef4a7-11ba-4a41-8aac-49b8b245e410"},"vehicle_type_id":"4","last_reported":1735610968,"current_range_meters":37600,"station_id":"ce4bhih2rcd13ifvqfr0","pricing_plan_id":"cebpf4jnsgd1na2vs0mg"},{"bike_id":"40ce93ad-2d17-4ef0-aff1-624c9d9ec9fc","system_id":"levelo_inurba_marseille","lat":43.30647,"lon":5.40075,"is_reserved":false,"is_disabled":false,"rental_uris":{"android":"levelo://app?vid=40ce93ad-2d17-4ef0-aff1-624c9d9ec9fc","ios":"levelo://app?vid=40ce93ad-2d17-4ef0-aff1-624c9d9ec9fc"},"vehicle_type_id":"4","last_reported":1735610968,"current_range_meters":37600,"station_id":"ce4bh112rcd13ifvqda0","pricing_plan_id":"cebpf4jnsgd1na2vs0mg"},{"bike_id":"5f8ee9c5-4e33-43ee-b8aa-ac908ba0aac5","system_id":"levelo_inurba_marseille","lat":43.27494,"lon":5.42452,"is_reserved":false,"is_disabled":false,"rental_uris":{"android":"levelo://app?vid=5f8ee9c5-4e33-43ee-b8aa-ac908ba0aac5","ios":"levelo://app?vid=5f8ee9c5-4e33-43ee-b8aa-ac908ba0aac5"},"vehicle_type_id":"4","last_reported":1735610968,"current_range_meters":17200,"station_id":"ce4bhn92rcd13ifvqgrg","pricing_plan_id":"cebpf4jnsgd1na2vs0mg"},{"bike_id":"5855f3fa-9562-470e-a62b-7d9ee3175ccb","system_id":"levelo_inurba_marseille","lat":43.29974,"lon":5.38519,"is_reserved":false,"is_disabled":false,"rental_uris":{"android":"levelo://app?vid=5855f3fa-9562-470e-a62b-7d9ee3175ccb","ios":"levelo://app?vid=5855f3fa-9562-470e-a62b-7d9ee3175ccb"},"vehicle_type_id":"4","last_reported":1735610968,"current_range_meters":10800,"station_id":"ce4bgj92rcd13ifvqbd0","pricing_plan_id":"cebpf4jnsgd1na2vs0mg"},{"bike_id":"db32cf0d-643f-4166-93d9-c2dd42363683","system_id":"levelo_inurba_marseille","lat":43.303089,"lon":5.369049,"is_reserved":false,"is_disabled":false,"rental_uris":{"android":"levelo://app?vid=db32cf0d-643f-4166-93d9-c2dd42363683","ios":"levelo://app?vid=db32cf0d-643f-4166-93d9-c2dd42363683"},"vehicle_type_id":"4","last_reported":1735610968,"current_range_meters":28800,"station_id":"ce4bgqh2rcd13ifvqc5g","pricing_plan_id":"cebpf4jnsgd1na2vs0mg"},{"bike_id":"49172bc7-2221-49fa-a677-72919f418277","system_id":"levelo_inurba_marseille","lat":43.25723,"lon":5.41114,"is_reserved":false,"is_disabled":false,"rental_uris":{"android":"levelo://app?vid=49172bc7-2221-49fa-a677-72919f418277","ios":"levelo://app?vid=49172bc7-2221-49fa-a677-72919f418277"},"vehicle_type_id":"4","last_reported":1735610968,"current_range_meters":35200,"station_id":"ce4bhkp2rcd13ifvqgd0","pricing_plan_id":"cebpf4jnsgd1na2vs0mg"},{"bike_id":"56be731f-e715-4554-bde0-0f784ad844d3","system_id":"levelo_inurba_marseille","lat":43.30592,"lon":5.37207,"is_reserved":false,"is_disabled":false,"rental_uris":{"android":"levelo://app?vid=56be731f-e715-4554-bde0-0f784ad844d3","ios":"levelo://app?vid=56be731f-e715-4554-bde0-0f784ad844d3"},"vehicle_type_id":"4","last_reported":1735610968,"current_range_meters":38800,"station_id":"ce4bgqh2rcd13ifvqc4g","pricing_plan_id":"cebpf4jnsgd1na2vs0mg"},{"bike_id":"923c8f4c-11ee-4d68-88a4-4f22af762798","system_id":"levelo_inurba_marseille","lat":43.32472,"lon":5.36556,"is_reserved":false,"is_disabled":false,"rental_uris":{"android":"levelo://app?vid=923c8f4c-11ee-4d68-88a4-4f22af762798","ios":"levelo://app?vid=923c8f4c-11ee-4d68-88a4-4f22af762798"},"vehicle_type_id":"4","last_reported":1735610968,"current_range_meters":33600,"station_id":"ce4bhs12rcd13ifvqhvg","pricing_plan_id":"cebpf4jnsgd1na2vs0mg"},{"bike_id":"5367a292-5564-4681-91cd-97babb89fc00","system_id":"levelo_inurba_marseille","lat":43.229236,"lon":5.353726,"is_reserved":false,"is_disabled":false,"rental_uris":{"android":"levelo://app?vid=5367a292-5564-4681-91cd-97babb89fc00","ios":"levelo://app?vid=5367a292-5564-4681-91cd-97babb89fc00"},"vehicle_type_id":"4","last_reported":1735610968,"current_range_meters":30000,"station_id":"cpo3532slgdg3j2ikp40","pricing_plan_id":"cebpf4jnsgd1na2vs0mg"},{"bike_id":"5299e611-556c-461b-b8b5-013c6d965cdc","system_id":"levelo_inurba_marseille","lat":43.3095,"lon":5.39021,"is_reserved":false,"is_disabled":false,"rental_uris":{"android":"levelo://app?vid=5299e611-556c-461b-b8b5-013c6d965cdc","ios":"levelo://app?vid=5299e611-556c-461b-b8b5-013c6d965cdc"},"vehicle_type_id":"4","last_reported":1735610968,"current_range_meters":38800,"station_id":"ce4bgup2rcd13ifvqco0","pricing_plan_id":"cebpf4jnsgd1na2vs0mg"},{"bike_id":"0483d5a5-12c2-4b90-8e6c-47d6d5a4b82c","system_id":"levelo_inurba_marseille","lat":43.25825,"lon":5.39436,"is_reserved":false,"is_disabled":false,"rental_uris":{"android":"levelo://app?vid=0483d5a5-12c2-4b90-8e6c-47d6d5a4b82c","ios":"levelo://app?vid=0483d5a5-12c2-4b90-8e6c-47d6d5a4b82c"},"vehicle_type_id":"4","last_reported":1735610968,"current_range_meters":9200,"station_id":"ce4bhip2rcd13ifvqft0","pricing_plan_id":"cebpf4jnsgd1na2vs0mg"},{"bike_id":"a447cce0-d4b1-4106-b714-79d973dc0d27","system_id":"levelo_inurba_marseille","lat":43.293052,"lon":5.3717,"is_reserved":false,"is_disabled":false,"rental_uris":{"android":"levelo://app?vid=a447cce0-d4b1-4106-b714-79d973dc0d27","ios":"levelo://app?vid=a447cce0-d4b1-4106-b714-79d973dc0d27"},"vehicle_type_id":"4","last_reported":1735610968,"current_range_meters":38800,"station_id":"ce4bgh92rcd13ifvqb40","pricing_plan_id":"cebpf4jnsgd1na2vs0mg"},{"bike_id":"61c1ae34-8f49-48d2-8238-30c5eec14641","system_id":"levelo_inurba_marseille","lat":43.27993,"lon":5.4003,"is_reserved":false,"is_disabled":false,"rental_uris":{"android":"levelo://app?vid=61c1ae34-8f49-48d2-8238-30c5eec14641","ios":"levelo://app?vid=61c1ae34-8f49-48d2-8238-30c5eec14641"},"vehicle_type_id":"4","last_reported":1735610968,"current_range_meters":28800,"station_id":"ce4bho92rcd13ifvqh4g","pricing_plan_id":"cebpf4jnsgd1na2vs0mg"},{"bike_id":"12e18c6e-8c01-41db-9a35-48a765227bcf","system_id":"levelo_inurba_marseille","lat":43.30317,"lon":5.36886,"is_reserved":false,"is_disabled":true,"rental_uris":{"android":"levelo://app?vid=12e18c6e-8c01-41db-9a35-48a765227bcf","ios":"levelo://app?vid=12e18c6e-8c01-41db-9a35-48a765227bcf"},"vehicle_type_id":"4","last_reported":1735610968,"current_range_meters":4000,"station_id":"ce4bgqh2rcd13ifvqc5g","pricing_plan_id":"cebpf4jnsgd1na2vs0mg"},{"bike_id":"9929057c-0eef-47c3-8149-7e4103570dcf","system_id":"levelo_inurba_marseille","lat":43.27558,"lon":5.38437,"is_reserved":false,"is_disabled":false,"rental_uris":{"android":"levelo://app?vid=9929057c-0eef-47c3-8149-7e4103570dcf","ios":"levelo://app?vid=9929057c-0eef-47c3-8149-7e4103570dcf"},"vehicle_type_id":"4","last_reported":1735610968,"current_range_meters":24800,"station_id":"ce4bhh92rcd13ifvqfi0","pricing_plan_id":"cebpf4jnsgd1na2vs0mg"},{"bike_id":"314cfe14-af0b-41ab-b053-9975e7cb9ae3","system_id":"levelo_inurba_marseille","lat":43.23223,"lon":5.39947,"is_reserved":false,"is_disabled":false,"rental_uris":{"android":"levelo://app?vid=314cfe14-af0b-41ab-b053-9975e7cb9ae3","ios":"levelo://app?vid=314cfe14-af0b-41ab-b053-9975e7cb9ae3"},"vehicle_type_id":"4","last_reported":1735610968,"current_range_meters":38400,"station_id":"ce4bhn12rcd13ifvqgqg","pricing_plan_id":"cebpf4jnsgd1na2vs0mg"},{"bike_id":"94d38955-21a2-4852-a963-0a3cc1374e49","system_id":"levelo_inurba_marseille","lat":43.23198,"lon":5.35552,"is_reserved":false,"is_disabled":false,"rental_uris":{"android":"levelo://app?vid=94d38955-21a2-4852-a963-0a3cc1374e49","ios":"levelo://app?vid=94d38955-21a2-4852-a963-0a3cc1374e49"},"vehicle_type_id":"4","last_reported":1735610968,"current_range_meters":38000,"station_id":"ce4bhu92rcd13ifvqi70","pricing_plan_id":"cebpf4jnsgd1na2vs0mg"},{"bike_id":"f87ba839-da30-4325-8444-7c8ce841424d","system_id":"levelo_inurba_marseille","lat":43.23185,"lon":5.35603,"is_reserved":false,"is_disabled":false,"rental_uris":{"android":"levelo://app?vid=f87ba839-da30-4325-8444-7c8ce841424d","ios":"levelo://app?vid=f87ba839-da30-4325-8444-7c8ce841424d"},"vehicle_type_id":"4","last_reported":1735610968,"current_range_meters":19200,"station_id":"ce4bhu92rcd13ifvqi70","pricing_plan_id":"cebpf4jnsgd1na2vs0mg"},{"bike_id":"d885ca17-918a-434f-a8c7-4cb6cc60e2e8","system_id":"levelo_inurba_marseille","lat":43.27218,"lon":5.39168,"is_reserved":false,"is_disabled":false,"rental_uris":{"android":"levelo://app?vid=d885ca17-918a-434f-a8c7-4cb6cc60e2e8","ios":"levelo://app?vid=d885ca17-918a-434f-a8c7-4cb6cc60e2e8"},"vehicle_type_id":"4","last_reported":1735610968,"current_range_meters":38000,"station_id":"ce4bhhp2rcd13ifvqfm0","pricing_plan_id":"cebpf4jnsgd1na2vs0mg"},{"bike_id":"647d23b8-4e7c-4423-a02a-d60eef618897","system_id":"levelo_inurba_marseille","lat":43.27812,"lon":5.40714,"is_reserved":false,"is_disabled":false,"rental_uris":{"android":"levelo://app?vid=647d23b8-4e7c-4423-a02a-d60eef618897","ios":"levelo://app?vid=647d23b8-4e7c-4423-a02a-d60eef618897"},"vehicle_type_id":"4","last_reported":1735610968,"current_range_meters":24400,"station_id":"ce4bhnh2rcd13ifvqgtg","pricing_plan_id":"cebpf4jnsgd1na2vs0mg"},{"bike_id":"41be1757-3962-4817-94f1-c8d4d2d7fdd5","system_id":"levelo_inurba_marseille","lat":43.292558,"lon":5.409168,"is_reserved":false,"is_disabled":false,"rental_uris":{"android":"levelo://app?vid=41be1757-3962-4817-94f1-c8d4d2d7fdd5","ios":"levelo://app?vid=41be1757-3962-4817-94f1-c8d4d2d7fdd5"},"vehicle_type_id":"4","last_reported":1735610968,"current_range_meters":15200,"station_id":"ce4bh192rcd13ifvqdc0","pricing_plan_id":"cebpf4jnsgd1na2vs0mg"},{"bike_id":"2335dd20-ed33-4ac3-95ca-7f01883c82d5","system_id":"levelo_inurba_marseille","lat":43.30302,"lon":5.39206,"is_reserved":false,"is_disabled":true,"rental_uris":{"android":"levelo://app?vid=2335dd20-ed33-4ac3-95ca-7f01883c82d5","ios":"levelo://app?vid=2335dd20-ed33-4ac3-95ca-7f01883c82d5"},"vehicle_type_id":"4","last_reported":1735610968,"current_range_meters":8400,"station_id":"ce4bgkh2rcd13ifvqbk0","pricing_plan_id":"cebpf4jnsgd1na2vs0mg"},{"bike_id":"179f7c7e-cf60-4979-b064-1b4336e1db8c","system_id":"levelo_inurba_marseille","lat":43.278307,"lon":5.392126,"is_reserved":false,"is_disabled":false,"rental_uris":{"android":"levelo://app?vid=179f7c7e-cf60-4979-b064-1b4336e1db8c","ios":"levelo://app?vid=179f7c7e-cf60-4979-b064-1b4336e1db8c"},"vehicle_type_id":"4","last_reported":1735610968,"current_range_meters":38800,"station_id":"ce4bhjp2rcd13ifvqga0","pricing_plan_id":"cebpf4jnsgd1na2vs0mg"},{"bike_id":"2e19126c-44cf-40bf-a549-dc01e1a05272","system_id":"levelo_inurba_marseille","lat":43.28414,"lon":5.37523,"is_reserved":false,"is_disabled":false,"rental_uris":{"android":"levelo://app?vid=2e19126c-44cf-40bf-a549-dc01e1a05272","ios":"levelo://app?vid=2e19126c-44cf-40bf-a549-dc01e1a05272"},"vehicle_type_id":"4","last_reported":1735610968,"current_range_meters":8800,"station_id":"ce4bh412rcd13ifvqds0","pricing_plan_id":"cebpf4jnsgd1na2vs0mg"},{"bike_id":"d78cf0e2-ae72-45db-99b3-46999fae7e68","system_id":"levelo_inurba_marseille","lat":43.25579,"lon":5.3823,"is_reserved":false,"is_disabled":false,"rental_uris":{"android":"levelo://app?vid=d78cf0e2-ae72-45db-99b3-46999fae7e68","ios":"levelo://app?vid=d78cf0e2-ae72-45db-99b3-46999fae7e68"},"vehicle_type_id":"4","last_reported":1735610968,"current_range_meters":4800,"station_id":"ce4bhih2rcd13ifvqfs0","pricing_plan_id":"cebpf4jnsgd1na2vs0mg"},{"bike_id":"6ac0ba84-4639-409e-88c9-45fa7962ac64","system_id":"levelo_inurba_marseille","lat":43.29699,"lon":5.36598,"is_reserved":false,"is_disabled":false,"rental_uris":{"android":"levelo://app?vid=6ac0ba84-4639-409e-88c9-45fa7962ac64","ios":"levelo://app?vid=6ac0ba84-4639-409e-88c9-45fa7962ac64"},"vehicle_type_id":"4","last_reported":1735610968,"current_range_meters":32400,"station_id":"ce4bgn12rcd13ifvqbt0","pricing_plan_id":"cebpf4jnsgd1na2vs0mg"},{"bike_id":"7f10fdf8-d7c6-46b9-94b4-cd895f175782","system_id":"levelo_inurba_marseille","lat":43.29605,"lon":5.37716,"is_reserved":false,"is_disabled":true,"rental_uris":{"android":"levelo://app?vid=7f10fdf8-d7c6-46b9-94b4-cd895f175782","ios":"levelo://app?vid=7f10fdf8-d7c6-46b9-94b4-cd895f175782"},"vehicle_type_id":"4","last_reported":1735610968,"current_range_meters":14400,"station_id":"ce4bgi92rcd13ifvqb90","pricing_plan_id":"cebpf4jnsgd1na2vs0mg"},{"bike_id":"241c1b16-80d4-48c5-94d8-8865b0ce5c7e","system_id":"levelo_inurba_marseille","lat":43.24801,"lon":5.37474,"is_reserved":false,"is_disabled":false,"rental_uris":{"android":"levelo://app?vid=241c1b16-80d4-48c5-94d8-8865b0ce5c7e","ios":"levelo://app?vid=241c1b16-80d4-48c5-94d8-8865b0ce5c7e"},"vehicle_type_id":"4","last_reported":1735610968,"current_range_meters":9200,"station_id":"ce4bhgh2rcd13ifvqfb0","pricing_plan_id":"cebpf4jnsgd1na2vs0mg"},{"bike_id":"dac94ecf-3203-4c89-acc0-21c14e979588","system_id":"levelo_inurba_marseille","lat":43.26684,"lon":5.38272,"is_reserved":false,"is_disabled":false,"rental_uris":{"android":"levelo://app?vid=dac94ecf-3203-4c89-acc0-21c14e979588","ios":"levelo://app?vid=dac94ecf-3203-4c89-acc0-21c14e979588"},"vehicle_type_id":"4","last_reported":1735610968,"current_range_meters":17600,"station_id":"ce4bhg92rcd13ifvqf90","pricing_plan_id":"cebpf4jnsgd1na2vs0mg"},{"bike_id":"91bb292a-df5c-4dce-bd7e-6647a12df4cd","system_id":"levelo_inurba_marseille","lat":43.26946,"lon":5.38633,"is_reserved":false,"is_disabled":false,"rental_uris":{"android":"levelo://app?vid=91bb292a-df5c-4dce-bd7e-6647a12df4cd","ios":"levelo://app?vid=91bb292a-df5c-4dce-bd7e-6647a12df4cd"},"vehicle_type_id":"4","last_reported":1735610968,"current_range_meters":38800,"station_id":"ce4bhh92rcd13ifvqfh0","pricing_plan_id":"cebpf4jnsgd1na2vs0mg"},{"bike_id":"d0187ed9-1b0c-469e-9167-b3ccc990fe12","system_id":"levelo_inurba_marseille","lat":43.32517,"lon":5.41484,"is_reserved":false,"is_disabled":false,"rental_uris":{"android":"levelo://app?vid=d0187ed9-1b0c-469e-9167-b3ccc990fe12","ios":"levelo://app?vid=d0187ed9-1b0c-469e-9167-b3ccc990fe12"},"vehicle_type_id":"4","last_reported":1735610968,"current_range_meters":38000,"station_id":"ce4bhq12rcd13ifvqhhg","pricing_plan_id":"cebpf4jnsgd1na2vs0mg"},{"bike_id":"9c42c59a-a990-48ee-91ac-32ebebcaabf5","system_id":"levelo_inurba_marseille","lat":43.27573,"lon":5.38423,"is_reserved":false,"is_disabled":false,"rental_uris":{"android":"levelo://app?vid=9c42c59a-a990-48ee-91ac-32ebebcaabf5","ios":"levelo://app?vid=9c42c59a-a990-48ee-91ac-32ebebcaabf5"},"vehicle_type_id":"4","last_reported":1735610968,"current_range_meters":38800,"station_id":"ce4bhh92rcd13ifvqfi0","pricing_plan_id":"cebpf4jnsgd1na2vs0mg"},{"bike_id":"47cce18d-671d-4908-9316-66a1a9733798","system_id":"levelo_inurba_marseille","lat":43.30137,"lon":5.3988,"is_reserved":false,"is_disabled":false,"rental_uris":{"android":"levelo://app?vid=47cce18d-671d-4908-9316-66a1a9733798","ios":"levelo://app?vid=47cce18d-671d-4908-9316-66a1a9733798"},"vehicle_type_id":"4","last_reported":1735610968,"current_range_meters":39200,"station_id":"ce4bh0h2rcd13ifvqd40","pricing_plan_id":"cebpf4jnsgd1na2vs0mg"},{"bike_id":"d03c46bd-d8c1-4904-b26d-3530eab9a1ec","system_id":"levelo_inurba_marseille","lat":43.26038,"lon":5.39409,"is_reserved":false,"is_disabled":false,"rental_uris":{"android":"levelo://app?vid=d03c46bd-d8c1-4904-b26d-3530eab9a1ec","ios":"levelo://app?vid=d03c46bd-d8c1-4904-b26d-3530eab9a1ec"},"vehicle_type_id":"4","last_reported":1735610968,"current_range_meters":19600,"station_id":"ce4bhh92rcd13ifvqfj0","pricing_plan_id":"cebpf4jnsgd1na2vs0mg"},{"bike_id":"fd9430e4-8bee-4117-895c-86fd175bd02f","system_id":"levelo_inurba_marseille","lat":43.27175,"lon":5.40992,"is_reserved":false,"is_disabled":false,"rental_uris":{"android":"levelo://app?vid=fd9430e4-8bee-4117-895c-86fd175bd02f","ios":"levelo://app?vid=fd9430e4-8bee-4117-895c-86fd175bd02f"},"vehicle_type_id":"4","last_reported":1735610968,"current_range_meters":24800,"station_id":"ce4bhl12rcd13ifvqgf0","pricing_plan_id":"cebpf4jnsgd1na2vs0mg"},{"bike_id":"6932dc62-cb74-4b30-80c3-25c13eac113d","system_id":"levelo_inurba_marseille","lat":43.24673,"lon":5.38163,"is_reserved":false,"is_disabled":false,"rental_uris":{"android":"levelo://app?vid=6932dc62-cb74-4b30-80c3-25c13eac113d","ios":"levelo://app?vid=6932dc62-cb74-4b30-80c3-25c13eac113d"},"vehicle_type_id":"4","last_reported":1735610968,"current_range_meters":13600,"station_id":"ce4bhih2rcd13ifvqfr0","pricing_plan_id":"cebpf4jnsgd1na2vs0mg"},{"bike_id":"b8e2e3d4-597b-4721-a36a-769f7d940844","system_id":"levelo_inurba_marseille","lat":43.2656,"lon":5.42095,"is_reserved":false,"is_disabled":false,"rental_uris":{"android":"levelo://app?vid=b8e2e3d4-597b-4721-a36a-769f7d940844","ios":"levelo://app?vid=b8e2e3d4-597b-4721-a36a-769f7d940844"},"vehicle_type_id":"4","last_reported":1735610968,"current_range_meters":23200,"station_id":"","pricing_plan_id":"cebpf4jnsgd1na2vs0mg"},{"bike_id":"477549f8-3ea7-4189-964f-26bca2791d6d","system_id":"levelo_inurba_marseille","lat":43.32537,"lon":5.41433,"is_reserved":false,"is_disabled":false,"rental_uris":{"android":"levelo://app?vid=477549f8-3ea7-4189-964f-26bca2791d6d","ios":"levelo://app?vid=477549f8-3ea7-4189-964f-26bca2791d6d"},"vehicle_type_id":"4","last_reported":1735610968,"current_range_meters":38000,"station_id":"ce4bhq12rcd13ifvqhhg","pricing_plan_id":"cebpf4jnsgd1na2vs0mg"},{"bike_id":"ddaa2fb9-dbb8-4086-8c94-de0ff251173c","system_id":"levelo_inurba_marseille","lat":43.27835,"lon":5.39212,"is_reserved":false,"is_disabled":false,"rental_uris":{"android":"levelo://app?vid=ddaa2fb9-dbb8-4086-8c94-de0ff251173c","ios":"levelo://app?vid=ddaa2fb9-dbb8-4086-8c94-de0ff251173c"},"vehicle_type_id":"4","last_reported":1735610968,"current_range_meters":38800,"station_id":"ce4bhjp2rcd13ifvqga0","pricing_plan_id":"cebpf4jnsgd1na2vs0mg"},{"bike_id":"b5f1cb34-1fef-4806-9758-3cf4cf172f13","system_id":"levelo_inurba_marseille","lat":43.28037,"lon":5.36942,"is_reserved":false,"is_disabled":false,"rental_uris":{"android":"levelo://app?vid=b5f1cb34-1fef-4806-9758-3cf4cf172f13","ios":"levelo://app?vid=b5f1cb34-1fef-4806-9758-3cf4cf172f13"},"vehicle_type_id":"4","last_reported":1735610968,"current_range_meters":38800,"station_id":"ce4bha12rcd13ifvqef0","pricing_plan_id":"cebpf4jnsgd1na2vs0mg"},{"bike_id":"5e57eef6-8100-463f-8b9f-a736bec4d03f","system_id":"levelo_inurba_marseille","lat":43.2695,"lon":5.38635,"is_reserved":false,"is_disabled":false,"rental_uris":{"android":"levelo://app?vid=5e57eef6-8100-463f-8b9f-a736bec4d03f","ios":"levelo://app?vid=5e57eef6-8100-463f-8b9f-a736bec4d03f"},"vehicle_type_id":"4","last_reported":1735610968,"current_range_meters":38800,"station_id":"ce4bhh92rcd13ifvqfh0","pricing_plan_id":"cebpf4jnsgd1na2vs0mg"},