{"last_updated":1743793670,"ttl":60,"version":"2.2","data":{"bikes":[{"bike_id":"be28bc2d-378b-49a4-8782-ef9ec851a367","system_id":"levelo_inurba_marseille","lat":43.2857,"lon":5.39504,"is_reserved":false,"is_disabled":false,"rental_uris":{"android":"levelo://app?vid=be28bc2d-378b-49a4-8782-ef9ec851a367","ios":"levelo://app?vid=be28bc2d-378b-49a4-8782-ef9ec851a367"},"vehicle_type_id":"4","last_reported":1743793670,"current_range_meters":2800,"station_id":"ce4bh292rcd13ifvqdg0","pricing_plan_id":"cebpf4jnsgd1na2vs0mg"},{"bike_id":"9451a575-2190-41d5-b662-e0225a496446","system_id":"levelo_inurba_marseille","lat":43.23152,"lon":5.43697,"is_reserved":false,"is_disabled":false,"rental_uris":{"android":"levelo://app?vid=9451a575-2190-41d5-b662-e0225a496446","ios":"levelo://app?vid=9451a575-2190-41d5-b662-e0225a496446"},"vehicle_type_id":"4","last_reported":1743793670,"current_range_meters":2800,"station_id":"ce4bhmp2rcd13ifvqgog","pricing_plan_id":"cebpf4jnsgd1na2vs0mg"},{"bike_id":"a3e36a26-7786-4e21-b06b-1f2cfeb903db","system_id":"levelo_inurba_marseille","lat":43.27213,"lon":5.3918,"is_reserved":false,"is_disabled":false,"rental_uris":{"android":"levelo://app?vid=a3e36a26-7786-4e21-b06b-1f2cfeb903db","ios":"levelo://app?vid=a3e36a26-7786-4e21-b06b-1f2cfeb903db"},"vehicle_type_id":"4","last_reported":1743793670,"current_range_meters":2800,"station_id":"ce4bhhp2rcd13ifvqfm0","pricing_plan_id":"cebpf4jnsgd1na2vs0mg"},{"bike_id":"9b4e5b3d-6f7d-4e3a-ae6c-3ea7a308685d","system_id":"levelo_inurba_marseille","lat":43.29534,"lon":5.38542,"is_reserved":false,"is_disabled":false,"rental_uris":{"android":"levelo://app?vid=9b4e5b3d-6f7d-4e3a-ae6c-3ea7a308685d","ios":"levelo://app?vid=9b4e5b3d-6f7d-4e3a-ae6c-3ea7a308685d"},"vehicle_type_id":"4","last_reported":1743793670,"current_range_meters":3200,"station_id":"ce4bgih2rcd13ifvqba0","pricing_plan_id":"cebpf4jnsgd1na2vs0mg"},{"bike_id":"85504edf-234d-4ece-9264-1577e34105f6","system_id":"levelo_inurba_marseille","lat":43.2928,"lon":5.40115,"is_reserved":false,"is_disabled":false,"rental_uris":{"android":"levelo://app?vid=85504edf-234d-4ece-9264-1577e34105f6","ios":"levelo://app?vid=85504edf-234d-4ece-9264-1577e34105f6"},"vehicle_type_id":"4","last_reported":1743793670,"current_range_meters":4400,"station_id":"ce4bh312rcd13ifvqdk0","pricing_plan_id":"cebpf4jnsgd1na2vs0mg"},{"bike_id":"91227471-25b2-4219-a256-9fdb6f527d29","system_id":"levelo_inurba_marseille","lat":43.308,"lon":5.43531,"is_reserved":false,"is_disabled":false,"rental_uris":{"android":"levelo://app?vid=91227471-25b2-4219-a256-9fdb6f527d29","ios":"levelo://app?vid=91227471-25b2-4219-a256-9fdb6f527d29"},"vehicle_type_id":"4","last_reported":1743793670,"current_range_meters":3200,"station_id":"ce4bhph2rcd13ifvqheg","pricing_plan_id":"cebpf4jnsgd1na2vs0mg"},{"bike_id":"60a40424-c004-484d-997c-2f22b6942810","system_id":"levelo_inurba_marseille","lat":43.30327,"lon":5.40435,"is_reserved":false,"is_disabled":false,"rental_uris":{"android":"levelo://app?vid=60a40424-c004-484d-997c-2f22b6942810","ios":"levelo://app?vid=60a40424-c004-484d-997c-2f22b6942810"},"vehicle_type_id":"4","last_reported":1743793670,"current_range_meters":3200,"station_id":"ce4bh012rcd13ifvqd10","pricing_plan_id":"cebpf4jnsgd1na2vs0mg"},{"bike_id":"42a527c9-8a72-4ce2-976e-c1aab0052b39","system_id":"levelo_inurba_marseille","lat":43.29523,"lon":5.39399,"is_reserved":false,"is_disabled":false,"rental_uris":{"android":"levelo://app?vid=42a527c9-8a72-4ce2-976e-c1aab0052b39","ios":"levelo://app?vid=42a527c9-8a72-4ce2-976e-c1aab0052b39"},"vehicle_type_id":"4","last_reported":1743793670,"current_range_meters":3200,"station_id":"ce4bh292rcd13ifvqdf0","pricing_plan_id":"cebpf4jnsgd1na2vs0mg"},{"bike_id":"61f7922b-8b64-42bf-a1c9-1ef32ddf6daa","system_id":"levelo_inurba_marseille","lat":43.29621,"lon":5.37751,"is_reserved":false,"is_disabled":false,"rental_uris":{"android":"levelo://app?vid=61f7922b-8b64-42bf-a1c9-1ef32ddf6daa","ios":"levelo://app?vid=61f7922b-8b64-42bf-a1c9-1ef32ddf6daa"},"vehicle_type_id":"4","last_reported":1743793670,"current_range_meters":3200,"station_id":"ce4bgi92rcd13ifvqb90","pricing_plan_id":"cebpf4jnsgd1na2vs0mg"},{"bike_id":"12ce1a3e-4c6c-45e5-93e9-3041191f8cf1","system_id":"levelo_inurba_marseille","lat":43.25718,"lon":5.41118,"is_reserved":false,"is_disabled":false,"rental_uris":{"android":"levelo://app?vid=12ce1a3e-4c6c-45e5-93e9-3041191f8cf1","ios":"levelo://app?vid=12ce1a3e-4c6c-45e5-93e9-3041191f8cf1"},"vehicle_type_id":"4","last_reported":1743793670,"current_range_meters":3200,"station_id":"ce4bhkp2rcd13ifvqgd0","pricing_plan_id":"cebpf4jnsgd1na2vs0mg"},{"bike_id":"3494155a-3fb8-47d4-b3da-ac8e596a6d7a","system_id":"levelo_inurba_marseille","lat":43.2804,"lon":5.36953,"is_reserved":false,"is_disabled":false,"rental_uris":{"android":"levelo://app?vid=3494155a-3fb8-47d4-b3da-ac8e596a6d7a","ios":"levelo://app?vid=3494155a-3fb8-47d4-b3da-ac8e596a6d7a"},"vehicle_type_id":"4","last_reported":1743793670,"current_range_meters":3200,"station_id":"ce4bha12rcd13ifvqef0","pricing_plan_id":"cebpf4jnsgd1na2vs0mg"},{"bike_id":"8cdb02c0-97e2-49b7-9984-3ec99b6ac0da","system_id":"levelo_inurba_marseille","lat":43.2439,"lon":5.37063,"is_reserved":false,"is_disabled":true,"rental_uris":{"android":"levelo://app?vid=8cdb02c0-97e2-49b7-9984-3ec99b6ac0da","ios":"levelo://app?vid=8cdb02c0-97e2-49b7-9984-3ec99b6ac0da"},"vehicle_type_id":"4","last_reported":1743793670,"current_range_meters":3200,"station_id":"ce4bhhh2rcd13ifvqfk0","pricing_plan_id":"cebpf4jnsgd1na2vs0mg"},{"bike_id":"99771786-0acf-49a9-9d05-6d76fc2a9107","system_id":"levelo_inurba_marseille","lat":43.29523,"lon":5.37503,"is_reserved":false,"is_disabled":false,"rental_uris":{"android":"levelo://app?vid=99771786-0acf-49a9-9d05-6d76fc2a9107","ios":"levelo://app?vid=99771786-0acf-49a9-9d05-6d76fc2a9107"},"vehicle_type_id":"4","last_reported":1743793670,"current_range_meters":3200,"station_id":"ce4bgkp2rcd13ifvqbmg","pricing_plan_id":"cebpf4jnsgd1na2vs0mg"},{"bike_id":"e99b437c-4308-4e53-966e-f7affeedf27e","system_id":"levelo_inurba_marseille","lat":43.27573,"lon":5.38422,"is_reserved":false,"is_disabled":false,"rental_uris":{"android":"levelo://app?vid=e99b437c-4308-4e53-966e-f7affeedf27e","ios":"levelo://app?vid=e99b437c-4308-4e53-966e-f7affeedf27e"},"vehicle_type_id":"4","last_reported":1743793670,"current_range_meters":3600,"station_id":"ce4bhh92rcd13ifvqfi0","pricing_plan_id":"cebpf4jnsgd1na2vs0mg"},{"bike_id":"58b08a58-5c2c-4a02-8000-0e6343a57c97","system_id":"levelo_inurba_marseille","lat":43.28932,"lon":5.36637,"is_reserved":false,"is_disabled":false,"rental_uris":{"android":"levelo://app?vid=58b08a58-5c2c-4a02-8000-0e6343a57c97","ios":"levelo://app?vid=58b08a58-5c2c-4a02-8000-0e6343a57c97"},"vehicle_type_id":"4","last_reported":1743793670,"current_range_meters":3600,"station_id":"ce4bhap2rcd13ifvqek0","pricing_plan_id":"cebpf4jnsgd1na2vs0mg"},{"bike_id":"1394959a-f9ed-49d4-9817-8dcd7fd261f6","system_id":"levelo_inurba_marseille","lat":43.295327,"lon":5.385442,"is_reserved":false,"is_disabled":false,"rental_uris":{"android":"levelo://app?vid=1394959a-f9ed-49d4-9817-8dcd7fd261f6","ios":"levelo://app?vid=1394959a-f9ed-49d4-9817-8dcd7fd261f6"},"vehicle_type_id":"4","last_reported":1743793670,"current_range_meters":3600,"station_id":"ce4bgih2rcd13ifvqba0","pricing_plan_id":"cebpf4jnsgd1na2vs0mg"},{"bike_id":"010da739-2aa2-4f13-bc01-37ee668aae26","system_id":"levelo_inurba_marseille","lat":43.28162,"lon":5.426522,"is_reserved":false,"is_disabled":true,"rental_uris":{"android":"levelo://app?vid=010da739-2aa2-4f13-bc01-37ee668aae26","ios":"levelo://app?vid=010da739-2aa2-4f13-bc01-37ee668aae26"},"vehicle_type_id":"4","last_reported":1743793670,"current_range_meters":3600,"station_id":"ce4bhnh2rcd13ifvqgug","pricing_plan_id":"cebpf4jnsgd1na2vs0mg"},{"bike_id":"28122322-cfa0-44d1-8284-d34b791c8a5e","system_id":"levelo_inurba_marseille","lat":43.30732,"lon":5.42445,"is_reserved":false,"is_disabled":false,"rental_uris":{"android":"levelo://app?vid=28122322-cfa0-44d1-8284-d34b791c8a5e","ios":"levelo://app?vid=28122322-cfa0-44d1-8284-d34b791c8a5e"},"vehicle_type_id":"4","last_reported":1743793670,"current_range_meters":3600,"station_id":"st_cvj6ca6bvosntc0bfgr0","pricing_plan_id":"cebpf4jnsgd1na2vs0mg"},{"bike_id":"72211047-1029-41ad-a478-6f5ab1004e04","system_id":"levelo_inurba_marseille","lat":43.31489,"lon":5.37308,"is_reserved":false,"is_disabled":false,"rental_uris":{"android":"levelo://app?vid=72211047-1029-41ad-a478-6f5ab1004e04","ios":"levelo://app?vid=72211047-1029-41ad-a478-6f5ab1004e04"},"vehicle_type_id":"4","last_reported":1743793670,"current_range_meters":4000,"station_id":"ce4bgt12rcd13ifvqcd0","pricing_plan_id":"cebpf4jnsgd1na2vs0mg"},{"bike_id":"adac5af7-64dd-4efc-9f30-d823ac8378db","system_id":"levelo_inurba_marseille","lat":43.29261,"lon":5.38444,"is_reserved":false,"is_disabled":false,"rental_uris":{"android":"levelo://app?vid=adac5af7-64dd-4efc-9f30-d823ac8378db","ios":"levelo://app?vid=adac5af7-64dd-4efc-9f30-d823ac8378db"},"vehicle_type_id":"4","last_reported":1743793670,"current_range_meters":4000,"station_id":"ce4bh692rcd13ifvqea0","pricing_plan_id":"cebpf4jnsgd1na2vs0mg"},{"bike_id":"cd83c8ac-ed09-4369-9279-b6f36f2bbd3c","system_id":"levelo_inurba_marseille","lat":43.30818,"lon":5.38209,"is_reserved":false,"is_disabled":false,"rental_uris":{"android":"levelo://app?vid=cd83c8ac-ed09-4369-9279-b6f36f2bbd3c","ios":"levelo://app?vid=cd83c8ac-ed09-4369-9279-b6f36f2bbd3c"},"vehicle_type_id":"4","last_reported":1743793670,"current_range_meters":4000,"station_id":"","pricing_plan_id":"cebpf4jnsgd1na2vs0mg"},{"bike_id":"3104dc12-732b-46f6-a1b4-c502560126c6","system_id":"levelo_inurba_marseille","lat":43.29266,"lon":5.3844,"is_reserved":false,"is_disabled":false,"rental_uris":{"android":"levelo://app?vid=3104dc12-732b-46f6-a1b4-c502560126c6","ios":"levelo://app?vid=3104dc12-732b-46f6-a1b4-c502560126c6"},"vehicle_type_id":"4","last_reported":1743793670,"current_range_meters":4400,"station_id":"ce4bh692rcd13ifvqea0","pricing_plan_id":"cebpf4jnsgd1na2vs0mg"},{"bike_id":"5f19abf2-adda-4e05-8cd1-0d115c993c33","system_id":"levelo_inurba_marseille","lat":43.29301,"lon":5.37172,"is_reserved":false,"is_disabled":false,"rental_uris":{"android":"levelo://app?vid=5f19abf2-adda-4e05-8cd1-0d115c993c33","ios":"levelo://app?vid=5f19abf2-adda-4e05-8cd1-0d115c993c33"},"vehicle_type_id":"4","last_reported":1743793670,"current_range_meters":4400,"station_id":"ce4bgh92rcd13ifvqb40","pricing_plan_id":"cebpf4jnsgd1na2vs0mg"},{"bike_id":"2ed02ad5-476a-4a95-9411-05d63febdfab","system_id":"levelo_inurba_marseille","lat":43.29265,"lon":5.40909,"is_reserved":false,"is_disabled":false,"rental_uris":{"android":"levelo://app?vid=2ed02ad5-476a-4a95-9411-05d63febdfab","ios":"levelo://app?vid=2ed02ad5-476a-4a95-9411-05d63febdfab"},"vehicle_type_id":"4","last_reported":1743793670,"current_range_meters":4400,"station_id":"ce4bh192rcd13ifvqdc0","pricing_plan_id":"cebpf4jnsgd1na2vs0mg"},{"bike_id":"a848eab8-c216-49d4-a987-409d915ffa16","system_id":"levelo_inurba_marseille","lat":43.29279,"lon":5.36843,"is_reserved":false,"is_disabled":false,"rental_uris":{"android":"levelo://app?vid=a848eab8-c216-49d4-a987-409d915ffa16","ios":"levelo://app?vid=a848eab8-c216-49d4-a987-409d915ffa16"},"vehicle_type_id":"4","last_reported":1743793670,"current_range_meters":4400,"station_id":"ce4bhbp2rcd13ifvqesg","pricing_plan_id":"cebpf4jnsgd1na2vs0mg"},{"bike_id":"2c7e6212-545c-4b4c-9986-99f2df7d588e","system_id":"levelo_inurba_marseille","lat":43.302246,"lon":5.400826,"is_reserved":false,"is_disabled":false,"rental_uris":{"android":"levelo://app?vid=2c7e6212-545c-4b4c-9986-99f2df7d588e","ios":"levelo://app?vid=2c7e6212-545c-4b4c-9986-99f2df7d588e"},"vehicle_type_id":"4","last_reported":1743793670,"current_range_meters":4400,"station_id":"ce4bgvh2rcd13ifvqcs0","pricing_plan_id":"cebpf4jnsgd1na2vs0mg"},{"bike_id":"6b5e40af-4bc4-4794-a40e-e7501cdba688","system_id":"levelo_inurba_marseille","lat":43.29601,"lon":5.381,"is_reserved":false,"is_disabled":false,"rental_uris":{"android":"levelo://app?vid=6b5e40af-4bc4-4794-a40e-e7501cdba688","ios":"levelo://app?vid=6b5e40af-4bc4-4794-a40e-e7501cdba688"},"vehicle_type_id":"4","last_reported":1743793670,"current_range_meters":4400,"station_id":"ce4bgl12rcd13ifvqbo0","pricing_plan_id":"cebpf4jnsgd1na2vs0mg"},{"bike_id":"1a44b2c3-ce4a-49dc-999f-8238b6b93e97","system_id":"levelo_inurba_marseille","lat":43.295328,"lon":5.385467,"is_reserved":false,"is_disabled":false,"rental_uris":{"android":"levelo://app?vid=1a44b2c3-ce4a-49dc-999f-8238b6b93e97","ios":"levelo://app?vid=1a44b2c3-ce4a-49dc-999f-8238b6b93e97"},"vehicle_type_id":"4","last_reported":1743793670,"current_range_meters":4400,"station_id":"ce4bgih2rcd13ifvqba0","pricing_plan_id":"cebpf4jnsgd1na2vs0mg"},{"bike_id":"ed6b3741-584a-4d20-ae4b-7d7436035d7b","system_id":"levelo_inurba_marseille","lat":43.29523,"lon":5.39048,"is_reserved":false,"is_disabled":false,"rental_uris":{"android":"levelo://app?vid=ed6b3741-584a-4d20-ae4b-7d7436035d7b","ios":"levelo://app?vid=ed6b3741-584a-4d20-ae4b-7d7436035d7b"},"vehicle_type_id":"4","last_reported":1743793670,"current_range_meters":4400,"station_id":"ce4bh3p2rcd13ifvqdp0","pricing_plan_id":"cebpf4jnsgd1na2vs0mg"},{"bike_id":"78fa92e4-3aaf-4739-9911-52c6ad98e1c3","system_id":"levelo_inurba_marseille","lat":43.26062,"lon":5.39398,"is_reserved":false,"is_disabled":false,"rental_uris":{"android":"levelo://app?vid=78fa92e4-3aaf-4739-9911-52c6ad98e1c3","ios":"levelo://app?vid=78fa92e4-3aaf-4739-9911-52c6ad98e1c3"},"vehicle_type_id":"4","last_reported":1743793670,"current_range_meters":4800,"station_id":"ce4bhh92rcd13ifvqfj0","pricing_plan_id":"cebpf4jnsgd1na2vs0mg"},{"bike_id":"d47b1869-916f-44a3-8c16-2b799dad19a5","system_id":"levelo_inurba_marseille","lat":43.31076,"lon":5.38354,"is_reserved":false,"is_disabled":false,"rental_uris":{"android":"levelo://app?vid=d47b1869-916f-44a3-8c16-2b799dad19a5","ios":"levelo://app?vid=d47b1869-916f-44a3-8c16-2b799dad19a5"},"vehicle_type_id":"4","last_reported":1743793670,"current_range_meters":4800,"station_id":"ce4bgv92rcd13ifvqcr0","pricing_plan_id":"cebpf4jnsgd1na2vs0mg"},{"bike_id":"331db363-f7e4-4b55-b4fe-73dbfbc303f6","system_id":"levelo_inurba_marseille","lat":43.2606,"lon":5.39395,"is_reserved":false,"is_disabled":false,"rental_uris":{"android":"levelo://app?vid=331db363-f7e4-4b55-b4fe-73dbfbc303f6","ios":"levelo://app?vid=331db363-f7e4-4b55-b4fe-73dbfbc303f6"},"vehicle_type_id":"4","last_reported":1743793670,"current_range_meters":4800,"station_id":"ce4bhh92rcd13ifvqfj0","pricing_plan_id":"cebpf4jnsgd1na2vs0mg"},{"bike_id":"308d8bc9-db48-47e2-8794-2a13d449bd1c","system_id":"levelo_inurba_marseille","lat":43.27897,"lon":5.3802,"is_reserved":false,"is_disabled":false,"rental_uris":{"android":"levelo://app?vid=308d8bc9-db48-47e2-8794-2a13d449bd1c","ios":"levelo://app?vid=308d8bc9-db48-47e2-8794-2a13d449bd1c"},"vehicle_type_id":"4","last_reported":1743793670,"current_range_meters":4800,"station_id":"ce4bhf92rcd13ifvqf50","pricing_plan_id":"cebpf4jnsgd1na2vs0mg"},{"bike_id":"2e9d652b-0674-43c5-b667-fa379bed10f3","system_id":"levelo_inurba_marseille","lat":43.29809,"lon":5.38087,"is_reserved":false,"is_disabled":false,"rental_uris":{"android":"levelo://app?vid=2e9d652b-0674-43c5-b667-fa379bed10f3","ios":"levelo://app?vid=2e9d652b-0674-43c5-b667-fa379bed10f3"},"vehicle_type_id":"4","last_reported":1743793670,"current_range_meters":5600,"station_id":"ce4bgip2rcd13ifvqbb0","pricing_plan_id":"cebpf4jnsgd1na2vs0mg"},{"bike_id":"4f63106c-bda6-4513-96ab-29fc013842bb","system_id":"levelo_inurba_marseille","lat":43.28979,"lon":5.37834,"is_reserved":false,"is_disabled":false,"rental_uris":{"android":"levelo://app?vid=4f63106c-bda6-4513-96ab-29fc013842bb","ios":"levelo://app?vid=4f63106c-bda6-4513-96ab-29fc013842bb"},"vehicle_type_id":"4","last_reported":1743793670,"current_range_meters":5600,"station_id":"ce4bh9p2rcd13ifvqed0","pricing_plan_id":"cebpf4jnsgd1na2vs0mg"},{"bike_id":"33d000d3-31fe-4430-9fe9-c2ea66dabf55","system_id":"levelo_inurba_marseille","lat":43.28933,"lon":5.364043,"is_reserved":false,"is_disabled":false,"rental_uris":{"android":"levelo://app?vid=33d000d3-31fe-4430-9fe9-c2ea66dabf55","ios":"levelo://app?vid=33d000d3-31fe-4430-9fe9-c2ea66dabf55"},"vehicle_type_id":"4","last_reported":1743793670,"current_range_meters":5600,"station_id":"ce4bhc92rcd13ifvqetg","pricing_plan_id":"cebpf4jnsgd1na2vs0mg"},{"bike_id":"99b68388-5b60-4849-8d97-3651f58918dd","system_id":"levelo_inurba_marseille","lat":43.29532,"lon":5.38556,"is_reserved":false,"is_disabled":false,"rental_uris":{"android":"levelo://app?vid=99b68388-5b60-4849-8d97-3651f58918dd","ios":"levelo://app?vid=99b68388-5b60-4849-8d97-3651f58918dd"},"vehicle_type_id":"4","last_reported":1743793670,"current_range_meters":5600,"station_id":"ce4bgih2rcd13ifvqba0","pricing_plan_id":"cebpf4jnsgd1na2vs0mg"},{"bike_id":"9b33541f-e853-4f9d-bbc2-c1f6b0a10edc","system_id":"levelo_inurba_marseille","lat":43.32099,"lon":5.36776,"is_reserved":false,"is_disabled":false,"rental_uris":{"android":"levelo://app?vid=9b33541f-e853-4f9d-bbc2-c1f6b0a10edc","ios":"levelo://app?vid=9b33541f-e853-4f9d-bbc2-c1f6b0a10edc"},"vehicle_type_id":"4","last_reported":1743793670,"current_range_meters":5600,"station_id":"","pricing_plan_id":"cebpf4jnsgd1na2vs0mg"},{"bike_id":"0ccaa39f-4f41-4df7-9c06-e99a080065df","system_id":"levelo_inurba_marseille","lat":43.295096,"lon":5.375004,"is_reserved":false,"is_disabled":false,"rental_uris":{"android":"levelo://app?vid=0ccaa39f-4f41-4df7-9c06-e99a080065df","ios":"levelo://app?vid=0ccaa39f-4f41-4df7-9c06-e99a080065df"},"vehicle_type_id":"4","last_reported":1743793670,"current_range_meters":4800,"station_id":"ce4bgkp2rcd13ifvqbmg","pricing_plan_id":"cebpf4jnsgd1na2vs0mg"},{"bike_id":"c13336a2-47ce-488c-b5b6-77c01a3ac1d1","system_id":"levelo_inurba_marseille","lat":43.318959,"lon":5.407398,"is_reserved":false,"is_disabled":true,"rental_uris":{"android":"levelo://app?vid=c13336a2-47ce-488c-b5b6-77c01a3ac1d1","ios":"levelo://app?vid=c13336a2-47ce-488c-b5b6-77c01a3ac1d1"},"vehicle_type_id":"4","last_reported":1743793670,"current_range_meters":5600,"station_id":"ce4bhq12rcd13ifvqhig","pricing_plan_id":"cebpf4jnsgd1na2vs0mg"},{"bike_id":"e34a53f8-6a8a-4d25-b36b-e697ec5abbd8","system_id":"levelo_inurba_marseille","lat":43.29259,"lon":5.38444,"is_reserved":false,"is_disabled":false,"rental_uris":{"android":"levelo://app?vid=e34a53f8-6a8a-4d25-b36b-e697ec5abbd8","ios":"levelo://app?vid=e34a53f8-6a8a-4d25-b36b-e697ec5abbd8"},"vehicle_type_id":"4","last_reported":1743793670,"current_range_meters":6000,"station_id":"ce4bh692rcd13ifvqea0","pricing_plan_id":"cebpf4jnsgd1na2vs0mg"},{"bike_id":"4e297090-1fc2-44f5-9754-fdab91e5bd54","system_id":"levelo_inurba_marseille","lat":43.29782,"lon":5.39345,"is_reserved":false,"is_disabled":false,"rental_uris":{"android":"levelo://app?vid=4e297090-1fc2-44f5-9754-fdab91e5bd54","ios":"levelo://app?vid=4e297090-1fc2-44f5-9754-fdab91e5bd54"},"vehicle_type_id":"4","last_reported":1743793670,"current_range_meters":4800,"station_id":"chh1huq6cuj3fo74tm60","pricing_plan_id":"cebpf4jnsgd1na2vs0mg"},{"bike_id":"16aa3ad7-bf85-4d4b-ad5b-a965d4038764","system_id":"levelo_inurba_marseille","lat":43.3124,"lon":5.37451,"is_reserved":false,"is_disabled":false,"rental_uris":{"android":"levelo://app?vid=16aa3ad7-bf85-4d4b-ad5b-a965d4038764","ios":"levelo://app?vid=16aa3ad7-bf85-4d4b-ad5b-a965d4038764"},"vehicle_type_id":"4","last_reported":1743793670,"current_range_meters":6400,"station_id":"","pricing_plan_id":"cebpf4jnsgd1na2vs0mg"},{"bike_id":"b3509477-fdff-4b92-aec9-2528a73ec2a1","system_id":"levelo_inurba_marseille","lat":43.2904,"lon":5.35916,"is_reserved":false,"is_disabled":false,"rental_uris":{"android":"levelo://app?vid=b3509477-fdff-4b92-aec9-2528a73ec2a1","ios":"levelo://app?vid=b3509477-fdff-4b92-aec9-2528a73ec2a1"},"vehicle_type_id":"4","last_reported":1743793670,"current_range_meters":7200,"station_id":"ce4bha92rcd13ifvqeg0","pricing_plan_id":"cebpf4jnsgd1na2vs0mg"},{"bike_id":"d36efd53-fa7d-4eed-9d7f-55dc40ee5332","system_id":"levelo_inurba_marseille","lat":43.29032,"lon":5.38645,"is_reserved":false,"is_disabled":false,"rental_uris":{"android":"levelo://app?vid=d36efd53-fa7d-4eed-9d7f-55dc40ee5332","ios":"levelo://app?vid=d36efd53-fa7d-4eed-9d7f-55dc40ee5332"},"vehicle_type_id":"4","last_reported":1743793670,"current_range_meters":6400,"station_id":"ce4bh4p2rcd13ifvqe0g","pricing_plan_id":"cebpf4jnsgd1na2vs0mg"},{"bike_id":"e9823df9-8cf8-4889-8040-c8d41386f09c","system_id":"levelo_inurba_marseille","lat":43.29277,"lon":5.36852,"is_reserved":false,"is_disabled":false,"rental_uris":{"android":"levelo://app?vid=e9823df9-8cf8-4889-8040-c8d41386f09c","ios":"levelo://app?vid=e9823df9-8cf8-4889-8040-c8d41386f09c"},"vehicle_type_id":"4","last_reported":1743793670,"current_range_meters":6400,"station_id":"ce4bhbp2rcd13ifvqesg","pricing_plan_id":"cebpf4jnsgd1na2vs0mg"},{"bike_id":"e3a29d38-a611-4b12-87ef-2fb8a21c41d5","system_id":"levelo_inurba_marseille","lat":43.22917,"lon":5.35367,"is_reserved":false,"is_disabled":false,"rental_uris":{"android":"levelo://app?vid=e3a29d38-a611-4b12-87ef-2fb8a21c41d5","ios":"levelo://app?vid=e3a29d38-a611-4b12-87ef-2fb8a21c41d5"},"vehicle_type_id":"4","last_reported":1743793670,"current_range_meters":6400,"station_id":"cpo3532slgdg3j2ikp40","pricing_plan_id":"cebpf4jnsgd1na2vs0mg"},{"bike_id":"c3ae07f1-5bb6-4a59-978f-ba307696f4b1","system_id":"levelo_inurba_marseille","lat":43.307858,"lon":5.376577,"is_reserved":false,"is_disabled":false,"rental_uris":{"android":"levelo://app?vid=c3ae07f1-5bb6-4a59-978f-ba307696f4b1","ios":"levelo://app?vid=c3ae07f1-5bb6-4a59-978f-ba307696f4b1"},"vehicle_type_id":"4","last_reported":1743793670,"current_range_meters":6400,"station_id":"","pricing_plan_id":"cebpf4jnsgd1na2vs0mg"},{"bike_id":"5164de41-fcae-4117-ac6f-789077a4fae1","system_id":"levelo_inurba_marseille","lat":43.24666,"lon":5.38169,"is_reserved":false,"is_disabled":false,"rental_uris":{"android":"levelo://app?vid=5164de41-fcae-4117-ac6f-789077a4fae1","ios":"levelo://app?vid=5164de41-fcae-4117-ac6f-789077a4fae1"},"vehicle_type_id":"4","last_reported":1743793670,"current_range_meters":6400,"station_id":"ce4bhih2rcd13ifvqfr0","pricing_plan_id":"cebpf4jnsgd1na2vs0mg"},{"bike_id":"130bdb44-00e8-44d0-a3fb-56c679a3ab00","system_id":"levelo_inurba_marseille","lat":43.2893,"lon":5.36641,"is_reserved":false,"is_disabled":false,"rental_uris":{"android":"levelo://app?vid=130bdb44-00e8-44d0-a3fb-56c679a3ab00","ios":"levelo://app?vid=130bdb44-00e8-44d0-a3fb-56c679a3ab00"},"vehicle_type_id":"4","last_reported":1743793670,"current_range_meters":6400,"station_id":"ce4bhap2rcd13ifvqek0","pricing_plan_id":"cebpf4jnsgd1na2vs0mg"},{"bike_id":"6356cdc5-d1ca-4103-a174-a9558dd259da","system_id":"levelo_inurba_marseille","lat":43.28739,"lon":5.36072,"is_reserved":false,"is_disabled":false,"rental_uris":{"android":"levelo://app?vid=6356cdc5-d1ca-4103-a174-a9558dd259da","ios":"levelo://app?vid=6356cdc5-d1ca-4103-a174-a9558dd259da"},"vehicle_type_id":"4","last_reported":1743793670,"current_range_meters":6400,"station_id":"cki0cbj6b192h4jlfktg","pricing_plan_id":"cebpf4jnsgd1na2vs0mg"},{"bike_id":"bcb7220b-502f-4bca-a7bd-11bae8f0deea","system_id":"levelo_inurba_marseille","lat":43.30156,"lon":5.37415,"is_reserved":false,"is_disabled":false,"rental_uris":{"android":"levelo://app?vid=bcb7220b-502f-4bca-a7bd-11bae8f0deea","ios":"levelo://app?vid=bcb7220b-502f-4bca-a7bd-11bae8f0deea"},"vehicle_type_id":"4","last_reported":1743793670,"current_range_meters":6400,"station_id":"ce4bgs92rcd13ifvqcc0","pricing_plan_id":"cebpf4jnsgd1na2vs0mg"},{"bike_id":"997ba78b-72e0-468d-8b69-292ee3dd0696","system_id":"levelo_inurba_marseille","lat":43.2979,"lon":5.381,"is_reserved":false,"is_disabled":false,"rental_uris":{"android":"levelo://app?vid=997ba78b-72e0-468d-8b69-292ee3dd0696","ios":"levelo://app?vid=997ba78b-72e0-468d-8b69-292ee3dd0696"},"vehicle_type_id":"4","last_reported":1743793670,"current_range_meters":6400,"station_id":"ce4bgip2rcd13ifvqbb0","pricing_plan_id":"cebpf4jnsgd1na2vs0mg"},{"bike_id":"715eff50-001a-413a-8e2d-3344911b1ca7","system_id":"levelo_inurba_marseille","lat":43.33338,"lon":5.39885,"is_reserved":false,"is_disabled":false,"rental_uris":{"android":"levelo://app?vid=715eff50-001a-413a-8e2d-3344911b1ca7","ios":"levelo://app?vid=715eff50-001a-413a-8e2d-3344911b1ca7"},"vehicle_type_id":"4","last_reported":1743793670,"current_range_meters":6400,"station_id":"","pricing_plan_id":"cebpf4jnsgd1na2vs0mg"},{"bike_id":"13a8a5dc-54a2-4219-a266-8faac89558e1","system_id":"levelo_inurba_marseille","lat":43.31495,"lon":5.3731,"is_reserved":false,"is_disabled":false,"rental_uris":{"android":"levelo://app?vid=13a8a5dc-54a2-4219-a266-8faac89558e1","ios":"levelo://app?vid=13a8a5dc-54a2-4219-a266-8faac89558e1"},"vehicle_type_id":"4","last_reported":1743793670,"current_range_meters":6400,"station_id":"ce4bgt12rcd13ifvqcd0","pricing_plan_id":"cebpf4jnsgd1na2vs0mg"},{"bike_id":"d0d83fc2-1e42-4d50-8b76-8e513f433b89","system_id":"levelo_inurba_marseille","lat":43.29307,"lon":5.37177,"is_reserved":false,"is_disabled":false,"rental_uris":{"android":"levelo://app?vid=d0d83fc2-1e42-4d50-8b76-8e513f433b89","ios":"levelo://app?vid=d0d83fc2-1e42-4d50-8b76-8e513f433b89"},"vehicle_type_id":"4","last_reported":1743793670,"current_range_meters":6800,"station_id":"ce4bgh92rcd13ifvqb40","pricing_plan_id":"cebpf4jnsgd1na2vs0mg"},{"bike_id":"0e88f134-2423-4b08-bc3c-5f7a38937552","system_id":"levelo_inurba_marseille","lat":43.23188,"lon":5.39983,"is_reserved":false,"is_disabled":false,"rental_uris":{"android":"levelo://app?vid=0e88f134-2423-4b08-bc3c-5f7a38937552","ios":"levelo://app?vid=0e88f134-2423-4b08-bc3c-5f7a38937552"},"vehicle_type_id":"4","last_reported":1743793670,"current_range_meters":6800,"station_id":"ce4bhn12rcd13ifvqgqg","pricing_plan_id":"cebpf4jnsgd1na2vs0mg"},{"bike_id":"f3634618-d136-41f4-8653-ac0cc32637ed","system_id":"levelo_inurba_marseille","lat":43.23179,"lon":5.39994,"is_reserved":false,"is_disabled":false,"rental_uris":{"android":"levelo://app?vid=f3634618-d136-41f4-8653-ac0cc32637ed","ios":"levelo://app?vid=f3634618-d136-41f4-8653-ac0cc32637ed"},"vehicle_type_id":"4","last_reported":1743793670,"current_range_meters":6800,"station_id":"ce4bhn12rcd13ifvqgqg","pricing_plan_id":"cebpf4jnsgd1na2vs0mg"},{"bike_id":"0e2409c3-9dd4-4e84-818d-c492ae4f1d03","system_id":"levelo_inurba_marseille","lat":43.25576,"lon":5.38242,"is_reserved":false,"is_disabled":false,"rental_uris":{"android":"levelo://app?vid=0e2409c3-9dd4-4e84-818d-c492ae4f1d03","ios":"levelo://app?vid=0e2409c3-9dd4-4e84-818d-c492ae4f1d03"},"vehicle_type_id":"4","last_reported":1743793670,"current_range_meters":6800,"station_id":"ce4bhih2rcd13ifvqfs0","pricing_plan_id":"cebpf4jnsgd1na2vs0mg"},{"bike_id":"855ab7a3-7dab-43bf-ba3b-fd657d6bdcfd","system_id":"levelo_inurba_marseille","lat":43.31275,"lon":5.4017,"is_reserved":false,"is_disabled":false,"rental_uris":{"android":"levelo://app?vid=855ab7a3-7dab-43bf-ba3b-fd657d6bdcfd","ios":"levelo://app?vid=855ab7a3-7dab-43bf-ba3b-fd657d6bdcfd"},"vehicle_type_id":"4","last_reported":1743793670,"current_range_meters":7200,"station_id":"ce4bh092rcd13ifvqd30","pricing_plan_id":"cebpf4jnsgd1na2vs0mg"},{"bike_id":"dceb5704-96f9-448f-9847-4aee053fdb03","system_id":"levelo_inurba_marseille","lat":43.29538,"lon":5.39056,"is_reserved":false,"is_disabled":false,"rental_uris":{"android":"levelo://app?vid=dceb5704-96f9-448f-9847-4aee053fdb03","ios":"levelo://app?vid=dceb5704-96f9-448f-9847-4aee053fdb03"},"vehicle_type_id":"4","last_reported":1743793670,"current_range_meters":7200,"station_id":"ce4bh3p2rcd13ifvqdp0","pricing_plan_id":"cebpf4jnsgd1na2vs0mg"},{"bike_id":"a5e8964c-04f2-44c5-8749-2d87b13877b5","system_id":"levelo_inurba_marseille","lat":43.336,"lon":5.4103,"is_reserved":false,"is_disabled":false,"rental_uris":{"android":"levelo://app?vid=a5e8964c-04f2-44c5-8749-2d87b13877b5","ios":"levelo://app?vid=a5e8964c-04f2-44c5-8749-2d87b13877b5"},"vehicle_type_id":"4","last_reported":1743793670,"current_range_meters":7200,"station_id":"ce4bhqh2rcd13ifvqhmg","pricing_plan_id":"cebpf4jnsgd1na2vs0mg"},{"bike_id":"26a9400e-71cd-45c6-9211-9781e64f8fa6","system_id":"levelo_inurba_marseille","lat":43.28609,"lon":5.37066,"is_reserved":false,"is_disabled":false,"rental_uris":{"android":"levelo://app?vid=26a9400e-71cd-45c6-9211-9781e64f8fa6","ios":"levelo://app?vid=26a9400e-71cd-45c6-9211-9781e64f8fa6"},"vehicle_type_id":"4","last_reported":1743793670,"current_range_meters":7200,"station_id":"ce4bht12rcd13ifvqi60","pricing_plan_id":"cebpf4jnsgd1na2vs0mg"},{"bike_id":"c55a0c46-58c0-4499-b21b-ecc280024e5d","system_id":"levelo_inurba_marseille","lat":43.24175,"lon":5.3642,"is_reserved":false,"is_disabled":false,"rental_uris":{"android":"levelo://app?vid=c55a0c46-58c0-4499-b21b-ecc280024e5d","ios":"levelo://app?vid=c55a0c46-58c0-4499-b21b-ecc280024e5d"},"vehicle_type_id":"4","last_reported":1743793670,"current_range_meters":7200,"station_id":"cpo36qri1sfpv3e86is0","pricing_plan_id":"cebpf4jnsgd1na2vs0mg"},{"bike_id":"d76832c4-3604-4de9-b7a5-182f7c6e995c","system_id":"levelo_inurba_marseille","lat":43.31353,"lon":5.38506,"is_reserved":false,"is_disabled":true,"rental_uris":{"android":"levelo://app?vid=d76832c4-3604-4de9-b7a5-182f7c6e995c","ios":"levelo://app?vid=d76832c4-3604-4de9-b7a5-182f7c6e995c"},"vehicle_type_id":"4","last_reported":1743793670,"current_range_meters":7200,"station_id":"ce4bgt92rcd13ifvqcf0","pricing_plan_id":"cebpf4jnsgd1na2vs0mg"},{"bike_id":"fd65bd0d-b7ce-4f5a-a73e-9657d5d75f8f","system_id":"levelo_inurba_marseille","lat":43.28999,"lon":5.35616,"is_reserved":false,"is_disabled":false,"rental_uris":{"android":"levelo://app?vid=fd65bd0d-b7ce-4f5a-a73e-9657d5d75f8f","ios":"levelo://app?vid=fd65bd0d-b7ce-4f5a-a73e-9657d5d75f8f"},"vehicle_type_id":"4","last_reported":1743793670,"current_range_meters":7200,"station_id":"ce4bhb92rcd13ifvqen0","pricing_plan_id":"cebpf4jnsgd1na2vs0mg"},{"bike_id":"ba60ea6d-37fb-4772-a041-4492fe978c12","system_id":"levelo_inurba_marseille","lat":43.297821,"lon":5.381069,"is_reserved":false,"is_disabled":false,"rental_uris":{"android":"levelo://app?vid=ba60ea6d-37fb-4772-a041-4492fe978c12","ios":"levelo://app?vid=ba60ea6d-37fb-4772-a041-4492fe978c12"},"vehicle_type_id":"4","last_reported":1743793670,"current_range_meters":7200,"station_id":"ce4bgip2rcd13ifvqbb0","pricing_plan_id":"cebpf4jnsgd1na2vs0mg"},{"bike_id":"eccc109c-1b47-4172-8205-51114089adb5","system_id":"levelo_inurba_marseille","lat":43.28054,"lon":5.41706,"is_reserved":false,"is_disabled":false,"rental_uris":{"android":"levelo://app?vid=eccc109c-1b47-4172-8205-51114089adb5","ios":"levelo://app?vid=eccc109c-1b47-4172-8205-51114089adb5"},"vehicle_type_id":"4","last_reported":1743793670,"current_range_meters":7200,"station_id":"","pricing_plan_id":"cebpf4jnsgd1na2vs0mg"},{"bike_id":"e0f7f863-f012-4775-8a7c-934534dd456f","system_id":"levelo_inurba_marseille","lat":43.32477,"lon":5.36562,"is_reserved":false,"is_disabled":false,"rental_uris":{"android":"levelo://app?vid=e0f7f863-f012-4775-8a7c-934534dd456f","ios":"levelo://app?vid=e0f7f863-f012-4775-8a7c-934534dd456f"},"vehicle_type_id":"4","last_reported":1743793670,"current_range_meters":7200,"station_id":"ce4bhs12rcd13ifvqhvg","pricing_plan_id":"cebpf4jnsgd1na2vs0mg"},{"bike_id":"f8b47f57-c72c-4ac5-bfc1-55e460e151db","system_id":"levelo_inurba_marseille","lat":43.25102,"lon":5.40357,"is_reserved":false,"is_disabled":false,"rental_uris":{"android":"levelo://app?vid=f8b47f57-c72c-4ac5-bfc1-55e460e151db","ios":"levelo://app?vid=f8b47f57-c72c-4ac5-bfc1-55e460e151db"},"vehicle_type_id":"4","last_reported":1743793670,"current_range_meters":7200,"station_id":"ce4bhlh2rcd13ifvqgig","pricing_plan_id":"cebpf4jnsgd1na2vs0mg"},{"bike_id":"6e7e8bd0-971a-4bf5-a521-0d1053f36753","system_id":"levelo_inurba_marseille","lat":43.31078,"lon":5.42436,"is_reserved":false,"is_disabled":true,"rental_uris":{"android":"levelo://app?vid=6e7e8bd0-971a-4bf5-a521-0d1053f36753","ios":"levelo://app?vid=6e7e8bd0-971a-4bf5-a521-0d1053f36753"},"vehicle_type_id":"4","last_reported":1743793670,"current_range_meters":7200,"station_id":"ce4bhp92rcd13ifvqhag","pricing_plan_id":"cebpf4jnsgd1na2vs0mg"},{"bike_id":"aec7620d-7b4d-45ae-9307-348c991636c5","system_id":"levelo_inurba_marseille","lat":43.27189,"lon":5.41003,"is_reserved":false,"is_disabled":false,"rental_uris":{"android":"levelo://app?vid=aec7620d-7b4d-45ae-9307-348c991636c5","ios":"levelo://app?vid=aec7620d-7b4d-45ae-9307-348c991636c5"},"vehicle_type_id":"4","last_reported":1743793670,"current_range_meters":8000,"station_id":"ce4bhl12rcd13ifvqgf0","pricing_plan_id":"cebpf4jnsgd1na2vs0mg"},{"bike_id":"92648e7a-b4d1-43f7-92c1-83047c1305ff","system_id":"levelo_inurba_marseille","lat":43.290446,"lon":5.383515,"is_reserved":false,"is_disabled":false,"rental_uris":{"android":"levelo://app?vid=92648e7a-b4d1-43f7-92c1-83047c1305ff","ios":"levelo://app?vid=92648e7a-b4d1-43f7-92c1-83047c1305ff"},"vehicle_type_id":"4","last_reported":1743793670,"current_range_meters":8800,"station_id":"ce4bgvp2rcd13ifvqct0","pricing_plan_id":"cebpf4jnsgd1na2vs0mg"},{"bike_id":"1049ba71-fb41-4dc5-8c5a-67fbc6fe8421","system_id":"levelo_inurba_marseille","lat":43.25504,"lon":5.37662,"is_reserved":false,"is_disabled":true,"rental_uris":{"android":"levelo://app?vid=1049ba71-fb41-4dc5-8c5a-67fbc6fe8421","ios":"levelo://app?vid=1049ba71-fb41-4dc5-8c5a-67fbc6fe8421"},"vehicle_type_id":"4","last_reported":1743793670,"current_range_meters":8000,"station_id":"ce4bhh12rcd13ifvqff0","pricing_plan_id":"cebpf4jnsgd1na2vs0mg"},{"bike_id":"e5eec906-416c-4dd4-a7ac-d27a56c397d7","system_id":"levelo_inurba_marseille","lat":43.25869,"lon":5.39899,"is_reserved":false,"is_disabled":false,"rental_uris":{"android":"levelo://app?vid=e5eec906-416c-4dd4-a7ac-d27a56c397d7","ios":"levelo://app?vid=e5eec906-416c-4dd4-a7ac-d27a56c397d7"},"vehicle_type_id":"4","last_reported":1743793670,"current_range_meters":8000,"station_id":"ce4bhl92rcd13ifvqghg","pricing_plan_id":"cebpf4jnsgd1na2vs0mg"},{"bike_id":"73a44256-565a-4ff8-ba47-401f4768f444","system_id":"levelo_inurba_marseille","lat":43.27566,"lon":5.38432,"is_reserved":false,"is_disabled":false,"rental_uris":{"android":"levelo://app?vid=73a44256-565a-4ff8-ba47-401f4768f444","ios":"levelo://app?vid=73a44256-565a-4ff8-ba47-401f4768f444"},"vehicle_type_id":"4","last_reported":1743793670,"current_range_meters":8000,"station_id":"ce4bhh92rcd13ifvqfi0","pricing_plan_id":"cebpf4jnsgd1na2vs0mg"},{"bike_id":"229a4587-a3df-4a83-ac7c-2d538a878c52","system_id":"levelo_inurba_marseille","lat":43.3211,"lon":5.36804,"is_reserved":false,"is_disabled":false,"rental_uris":{"android":"levelo://app?vid=229a4587-a3df-4a83-ac7c-2d538a878c52","ios":"levelo://app?vid=229a4587-a3df-4a83-ac7c-2d538a878c52"},"vehicle_type_id":"4","last_reported":1743793670,"current_range_meters":8000,"station_id":"ce4bhrh2rcd13ifvqhug","pricing_plan_id":"cebpf4jnsgd1na2vs0mg"},{"bike_id":"fafffd16-8d3f-4952-9910-016855f73c8a","system_id":"levelo_inurba_marseille","lat":43.30813,"lon":5.43546,"is_reserved":false,"is_disabled":false,"rental_uris":{"android":"levelo://app?vid=fafffd16-8d3f-4952-9910-016855f73c8a","ios":"levelo://app?vid=fafffd16-8d3f-4952-9910-016855f73c8a"},"vehicle_type_id":"4","last_reported":1743793670,"current_range_meters":8000,"station_id":"ce4bhph2rcd13ifvqheg","pricing_plan_id":"cebpf4jnsgd1na2vs0mg"},{"bike_id":"68349669-008b-4219-8bbb-def8fae77ab0","system_id":"levelo_inurba_marseille","lat":43.28417,"lon":5.37517,"is_reserved":false,"is_disabled":false,"rental_uris":{"android":"levelo://app?vid=68349669-008b-4219-8bbb-def8fae77ab0","ios":"levelo://app?vid=68349669-008b-4219-8bbb-def8fae77ab0"},"vehicle_type_id":"4","last_reported":1743793670,"current_range_meters":8000,"station_id":"ce4bh412rcd13ifvqds0","pricing_plan_id":"cebpf4jnsgd1na2vs0mg"},{"bike_id":"5f46717b-05d1-4f34-a220-8087932d755b","system_id":"levelo_inurba_marseille","lat":43.30096,"lon":5.36937,"is_reserved":false,"is_disabled":false,"rental_uris":{"android":"levelo://app?vid=5f46717b-05d1-4f34-a220-8087932d755b","ios":"levelo://app?vid=5f46717b-05d1-4f34-a220-8087932d755b"},"vehicle_type_id":"4","last_reported":1743793670,"current_range_meters":8000,"station_id":"","pricing_plan_id":"cebpf4jnsgd1na2vs0mg"},{"bike_id":"384698f5-a5af-4151-9f87-a2267fb38939","system_id":"levelo_inurba_marseille","lat":43.32005,"lon":5.38144,"is_reserved":false,"is_disabled":false,"rental_uris":{"android":"levelo://app?vid=384698f5-a5af-4151-9f87-a2267fb38939","ios":"levelo://app?vid=384698f5-a5af-4151-9f87-a2267fb38939"},"vehicle_type_id":"4","last_reported":1743793670,"current_range_meters":8000,"station_id":"ce4bhr12rcd13ifvqhpg","pricing_plan_id":"cebpf4jnsgd1na2vs0mg"},{"bike_id":"59025bae-d6cc-40c6-ac48-f55c28ec7f4e","system_id":"levelo_inurba_marseille","lat":43.317078,"lon":5.377414,"is_reserved":false,"is_disabled":false,"rental_uris":{"android":"levelo://app?vid=59025bae-d6cc-40c6-ac48-f55c28ec7f4e","ios":"levelo://app?vid=59025bae-d6cc-40c6-ac48-f55c28ec7f4e"},"vehicle_type_id":"4","last_reported":1743793670,"current_range_meters":8400,"station_id":"ce4bgth2rcd13ifvqch0","pricing_plan_id":"cebpf4jnsgd1na2vs0mg"},{"bike_id":"36d996d1-147d-4367-84e7-9ff54765b37a","system_id":"levelo_inurba_marseille","lat":43.23191,"lon":5.35543,"is_reserved":false,"is_disabled":false,"rental_uris":{"android":"levelo://app?vid=36d996d1-147d-4367-84e7-9ff54765b37a","ios":"levelo://app?vid=36d996d1-147d-4367-84e7-9ff54765b37a"},"vehicle_type_id":"4","last_reported":1743793670,"current_range_meters":8400,"station_id":"ce4bhu92rcd13ifvqi70","pricing_plan_id":"cebpf4jnsgd1na2vs0mg"},{"bike_id":"d1a8e8dd-a5f7-48fd-bed2-eeb2440a93f9","system_id":"levelo_inurba_marseille","lat":43.2895,"lon":5.36633,"is_reserved":false,"is_disabled":false,"rental_uris":{"android":"levelo://app?vid=d1a8e8dd-a5f7-48fd-bed2-eeb2440a93f9","ios":"levelo://app?vid=d1a8e8dd-a5f7-48fd-bed2-eeb2440a93f9"},"vehicle_type_id":"4","last_reported":1743793670,"current_range_meters":8400,"station_id":"ce4bhap2rcd13ifvqek0","pricing_plan_id":"cebpf4jnsgd1na2vs0mg"},{"bike_id":"820c1965-ecb8-4574-8ddb-2df09330c1da","system_id":"levelo_inurba_marseille","lat":43.270603,"lon":5.391513,"is_reserved":false,"is_disabled":false,"rental_uris":{"android":"levelo://app?vid=820c1965-ecb8-4574-8ddb-2df09330c1da","ios":"levelo://app?vid=820c1965-ecb8-4574-8ddb-2df09330c1da"},"vehicle_type_id":"4","last_reported":1743793670,"current_range_meters":8400,"station_id":"","pricing_plan_id":"cebpf4jnsgd1na2vs0mg"},{"bike_id":"69c0db05-6ded-4dc6-9720-2452c83c1020","system_id":"levelo_inurba_marseille","lat":43.22955,"lon":5.35363,"is_reserved":false,"is_disabled":false,"rental_uris":{"android":"levelo://app?vid=69c0db05-6ded-4dc6-9720-2452c83c1020","ios":"levelo://app?vid=69c0db05-6ded-4dc6-9720-2452c83c1020"},"vehicle_type_id":"4","last_reported":1743793670,"current_range_meters":8400,"station_id":"cpo3532slgdg3j2ikp40","pricing_plan_id":"cebpf4jnsgd1na2vs0mg"},{"bike_id":"118d0a8c-50a1-4694-bc84-729963e8ad71","system_id":"levelo_inurba_marseille","lat":43.295322,"lon":5.385576,"is_reserved":false,"is_disabled":false,"rental_uris":{"android":"levelo://app?vid=118d0a8c-50a1-4694-bc84-729963e8ad71","ios":"levelo://app?vid=118d0a8c-50a1-4694-bc84-729963e8ad71"},"vehicle_type_id":"4","last_reported":1743793670,"current_range_meters":8400,"station_id":"ce4bgih2rcd13ifvqba0","pricing_plan_id":"cebpf4jnsgd1na2vs0mg"},{"bike_id":"46680ba8-37bd-4718-ad54-dfe4d48e315a","system_id":"levelo_inurba_marseille","lat":43.28106,"lon":5.37838,"is_reserved":false,"is_disabled":false,"rental_uris":{"android":"levelo://app?vid=46680ba8-37bd-4718-ad54-dfe4d48e315a","ios":"levelo://app?vid=46680ba8-37bd-4718-ad54-dfe4d48e315a"},"vehicle_type_id":"4","last_reported":1743793670,"current_range_meters":8400,"station_id":"ce4bha12rcd13ifvqee0","pricing_plan_id":"cebpf4jnsgd1na2vs0mg"},{"bike_id":"05505314-b2b7-49ba-b9b0-90b89e44ca61","system_id":"levelo_inurba_marseille","lat":43.292666,"lon":5.384456,"is_reserved":false,"is_disabled":false,"rental_uris":{"android":"levelo://app?vid=05505314-b2b7-49ba-b9b0-90b89e44ca61","ios":"levelo://app?vid=05505314-b2b7-49ba-b9b0-90b89e44ca61"},"vehicle_type_id":"4","last_reported":1743793670,"current_range_meters":8800,"station_id":"ce4bh692rcd13ifvqea0","pricing_plan_id":"cebpf4jnsgd1na2vs0mg"},{"bike_id":"58d24f42-17aa-40a2-ac62-60f84e384385","system_id":"levelo_inurba_marseille","lat":43.24818,"lon":5.37457,"is_reserved":false,"is_disabled":false,"rental_uris":{"android":"levelo://app?vid=58d24f42-17aa-40a2-ac62-60f84e384385","ios":"levelo://app?vid=58d24f42-17aa-40a2-ac62-60f84e384385"},"vehicle_type_id":"4","last_reported":1743793670,"current_range_meters":8800,"station_id":"ce4bhgh2rcd13ifvqfb0","pricing_plan_id":"cebpf4jnsgd1na2vs0mg"},{"bike_id":"dbe12e46-a529-45bf-b8e0-78356f90b72a","system_id":"levelo_inurba_marseille","lat":43.29415,"lon":5.38634,"is_reserved":false,"is_disabled":false,"rental_uris":{"android":"levelo://app?vid=dbe12e46-a529-45bf-b8e0-78356f90b72a","ios":"levelo://app?vid=dbe12e46-a529-45bf-b8e0-78356f90b72a"},"vehicle_type_id":"4","last_reported":1743793670,"current_range_meters":8800,"station_id":"ce4bh2h2rcd13ifvqdh0","pricing_plan_id":"cebpf4jnsgd1na2vs0mg"},{"bike_id":"1803b0ca-bad1-4dd5-aa36-17113f89440f","system_id":"levelo_inurba_marseille","lat":43.30608,"lon":5.37232,"is_reserved":false,"is_disabled":false,"rental_uris":{"android":"levelo://app?vid=1803b0ca-bad1-4dd5-aa36-17113f89440f","ios":"levelo://app?vid=1803b0ca-bad1-4dd5-aa36-17113f89440f"},"vehicle_type_id":"4","last_reported":1743793670,"current_range_meters":8800,"station_id":"ce4bgqh2rcd13ifvqc4g","pricing_plan_id":"cebpf4jnsgd1na2vs0mg"},{"bike_id":"4f5f3b82-dc6b-4d71-9425-8bd28e0259fc","system_id":"levelo_inurba_marseille","lat":43.293,"lon":5.37174,"is_reserved":false,"is_disabled":false,"rental_uris":{"android":"levelo://app?vid=4f5f3b82-dc6b-4d71-9425-8bd28e0259fc","ios":"levelo://app?vid=4f5f3b82-dc6b-4d71-9425-8bd28e0259fc"},"vehicle_type_id":"4","last_reported":1743793670,"current_range_meters":8800,"station_id":"ce4bgh92rcd13ifvqb40","pricing_plan_id":"cebpf4jnsgd1na2vs0mg"},{"bike_id":"0d9cbb90-603c-4d0b-9a7a-90e2b8b328ae","system_id":"levelo_inurba_marseille","lat":43.29268,"lon":5.3843,"is_reserved":false,"is_disabled":false,"rental_uris":{"android":"levelo://app?vid=0d9cbb90-603c-4d0b-9a7a-90e2b8b328ae","ios":"levelo://app?vid=0d9cbb90-603c-4d0b-9a7a-90e2b8b328ae"},"vehicle_type_id":"4","last_reported":1743793670,"current_range_meters":8800,"station_id":"ce4bh692rcd13ifvqea0","pricing_plan_id":"cebpf4jnsgd1na2vs0mg"},{"bike_id":"113e6ac0-7714-4107-b2e0-e8ca998a3347","system_id":"levelo_inurba_marseille","lat":43.267341,"lon":5.382974,"is_reserved":false,"is_disabled":false,"rental_uris":{"android":"levelo://app?vid=113e6ac0-7714-4107-b2e0-e8ca998a3347","ios":"levelo://app?vid=113e6ac0-7714-4107-b2e0-e8ca998a3347"},"vehicle_type_id":"4","last_reported":1743793670,"current_range_meters":8800,"station_id":"ce4bhg92rcd13ifvqf90","pricing_plan_id":"cebpf4jnsgd1na2vs0mg"},{"bike_id":"758c2355-846a-4f3d-bcd8-eac4b3145cd6","system_id":"levelo_inurba_marseille","lat":43.23188,"lon":5.35555,"is_reserved":false,"is_disabled":false,"rental_uris":{"android":"levelo://app?vid=758c2355-846a-4f3d-bcd8-eac4b3145cd6","ios":"levelo://app?vid=758c2355-846a-4f3d-bcd8-eac4b3145cd6"},"vehicle_type_id":"4","last_reported":1743793670,"current_range_meters":8800,"station_id":"ce4bhu92rcd13ifvqi70","pricing_plan_id":"cebpf4jnsgd1na2vs0mg"},{"bike_id":"ed034283-1492-4da7-9409-35bdead80f30","system_id":"levelo_inurba_marseille","lat":43.30122,"lon":5.38691,"is_reserved":false,"is_disabled":true,"rental_uris":{"android":"levelo://app?vid=ed034283-1492-4da7-9409-35bdead80f30","ios":"levelo://app?vid=ed034283-1492-4da7-9409-35bdead80f30"},"vehicle_type_id":"4","last_reported":1743793670,"current_range_meters":8800,"station_id":"ce4bghh2rcd13ifvqb60","pricing_plan_id":"cebpf4jnsgd1na2vs0mg"},{"bike_id":"57a274f7-0c24-49fe-b1ae-32f043faaf63","system_id":"levelo_inurba_marseille","lat":43.29532,"lon":5.38535,"is_reserved":false,"is_disabled":false,"rental_uris":{"android":"levelo://app?vid=57a274f7-0c24-49fe-b1ae-32f043faaf63","ios":"levelo://app?vid=57a274f7-0c24-49fe-b1ae-32f043faaf63"},"vehicle_type_id":"4","last_reported":1743793670,"current_range_meters":8800,"station_id":"ce4bgih2rcd13ifvqba0","pricing_plan_id":"cebpf4jnsgd1na2vs0mg"},{"bike_id":"cdb7e4b1-8ea1-4a1d-91f3-73a8b3b493a5","system_id":"levelo_inurba_marseille","lat":43.31086,"lon":5.42437,"is_reserved":false,"is_disabled":false,"rental_uris":{"android":"levelo://app?vid=cdb7e4b1-8ea1-4a1d-91f3-73a8b3b493a5","ios":"levelo://app?vid=cdb7e4b1-8ea1-4a1d-91f3-73a8b3b493a5"},"vehicle_type_id":"4","last_reported":1743793670,"current_range_meters":8800,"station_id":"ce4bhp92rcd13ifvqhag","pricing_plan_id":"cebpf4jnsgd1na2vs0mg"},{"bike_id":"af58f483-0022-44a1-9e18-7b938a36815b","system_id":"levelo_inurba_marseille","lat":43.28859,"lon":5.35868,"is_reserved":false,"is_disabled":false,"rental_uris":{"android":"levelo://app?vid=af58f483-0022-44a1-9e18-7b938a36815b","ios":"levelo://app?vid=af58f483-0022-44a1-9e18-7b938a36815b"},"vehicle_type_id":"4","last_reported":1743793670,"current_range_meters":8800,"station_id":"ce4bhb12rcd13ifvqem0","pricing_plan_id":"cebpf4jnsgd1na2vs0mg"},{"bike_id":"63081022-824b-4b5a-b713-5936340173df","system_id":"levelo_inurba_marseille","lat":43.2942,"lon":5.38617,"is_reserved":false,"is_disabled":false,"rental_uris":{"android":"levelo://app?vid=63081022-824b-4b5a-b713-5936340173df","ios":"levelo://app?vid=63081022-824b-4b5a-b713-5936340173df"},"vehicle_type_id":"4","last_reported":1743793670,"current_range_meters":8800,"station_id":"ce4bh2h2rcd13ifvqdh0","pricing_plan_id":"cebpf4jnsgd1na2vs0mg"},{"bike_id":"e96084ca-be96-4a25-95a5-8534af60297e","system_id":"levelo_inurba_marseille","lat":43.29265,"lon":5.38438,"is_reserved":false,"is_disabled":false,"rental_uris":{"android":"levelo://app?vid=e96084ca-be96-4a25-95a5-8534af60297e","ios":"levelo://app?vid=e96084ca-be96-4a25-95a5-8534af60297e"},"vehicle_type_id":"4","last_reported":1743793670,"current_range_meters":9200,"station_id":"ce4bh692rcd13ifvqea0","pricing_plan_id":"cebpf4jnsgd1na2vs0mg"},{"bike_id":"c1e7edcd-ef39-4a27-acf1-7537827f1daf","system_id":"levelo_inurba_marseille","lat":43.27997,"lon":5.41664,"is_reserved":false,"is_disabled":false,"rental_uris":{"android":"levelo://app?vid=c1e7edcd-ef39-4a27-acf1-7537827f1daf","ios":"levelo://app?vid=c1e7edcd-ef39-4a27-acf1-7537827f1daf"},"vehicle_type_id":"4","last_reported":1743793670,"current_range_meters":9200,"station_id":"ce4bho12rcd13ifvqh1g","pricing_plan_id":"cebpf4jnsgd1na2vs0mg"},{"bike_id":"b3f95c92-1581-4f7a-96df-0ea338a04eed","system_id":"levelo_inurba_marseille","lat":43.28268,"lon":5.35067,"is_reserved":false,"is_disabled":false,"rental_uris":{"android":"levelo://app?vid=b3f95c92-1581-4f7a-96df-0ea338a04eed","ios":"levelo://app?vid=b3f95c92-1581-4f7a-96df-0ea338a04eed"},"vehicle_type_id":"4","last_reported":1743793670,"current_range_meters":9200,"station_id":"ce4bhbp2rcd13ifvqerg","pricing_plan_id":"cebpf4jnsgd1na2vs0mg"},{"bike_id":"50297066-959d-45c5-a71e-b062cc3724ec","system_id":"levelo_inurba_marseille","lat":43.30821,"lon":5.37302,"is_reserved":false,"is_disabled":false,"rental_uris":{"android":"levelo://app?vid=50297066-959d-45c5-a71e-b062cc3724ec","ios":"levelo://app?vid=50297066-959d-45c5-a71e-b062cc3724ec"},"vehicle_type_id":"4","last_reported":1743793670,"current_range_meters":9200,"station_id":"","pricing_plan_id":"cebpf4jnsgd1na2vs0mg"},{"bike_id":"74a13a18-430a-4f50-ba26-e7dfbad23482","system_id":"levelo_inurba_marseille","lat":43.23064,"lon":5.35525,"is_reserved":false,"is_disabled":false,"rental_uris":{"android":"levelo://app?vid=74a13a18-430a-4f50-ba26-e7dfbad23482","ios":"levelo://app?vid=74a13a18-430a-4f50-ba26-e7dfbad23482"},"vehicle_type_id":"4","last_reported":1743793670,"current_range_meters":9200,"station_id":"cpo3342slgdg3j2ifvpg","pricing_plan_id":"cebpf4jnsgd1na2vs0mg"},{"bike_id":"9cacf06c-547e-4680-9f29-2c8204246f1b","system_id":"levelo_inurba_marseille","lat":43.28943,"lon":5.3663,"is_reserved":false,"is_disabled":false,"rental_uris":{"android":"levelo://app?vid=9cacf06c-547e-4680-9f29-2c8204246f1b","ios":"levelo://app?vid=9cacf06c-547e-4680-9f29-2c8204246f1b"},"vehicle_type_id":"4","last_reported":1743793670,"current_range_meters":9200,"station_id":"ce4bhap2rcd13ifvqek0","pricing_plan_id":"cebpf4jnsgd1na2vs0mg"},{"bike_id":"d5a3cef5-472c-4e1e-8fc2-f818276798de","system_id":"levelo_inurba_marseille","lat":43.2559,"lon":5.38231,"is_reserved":false,"is_disabled":false,"rental_uris":{"android":"levelo://app?vid=d5a3cef5-472c-4e1e-8fc2-f818276798de","ios":"levelo://app?vid=d5a3cef5-472c-4e1e-8fc2-f818276798de"},"vehicle_type_id":"4","last_reported":1743793670,"current_range_meters":9600,"station_id":"ce4bhih2rcd13ifvqfs0","pricing_plan_id":"cebpf4jnsgd1na2vs0mg"},{"bike_id":"fb348b09-6abb-47a4-a266-91f2eeaee291","system_id":"levelo_inurba_marseille","lat":43.3209,"lon":5.3679,"is_reserved":false,"is_disabled":false,"rental_uris":{"android":"levelo://app?vid=fb348b09-6abb-47a4-a266-91f2eeaee291","ios":"levelo://app?vid=fb348b09-6abb-47a4-a266-91f2eeaee291"},"vehicle_type_id":"4","last_reported":1743793670,"current_range_meters":9600,"station_id":"ce4bhrh2rcd13ifvqhug","pricing_plan_id":"cebpf4jnsgd1na2vs0mg"},{"bike_id":"0e25d205-69d4-4cd8-9999-c01e72852306","system_id":"levelo_inurba_marseille","lat":43.26804,"lon":5.40282,"is_reserved":false,"is_disabled":false,"rental_uris":{"android":"levelo://app?vid=0e25d205-69d4-4cd8-9999-c01e72852306","ios":"levelo://app?vid=0e25d205-69d4-4cd8-9999-c01e72852306"},"vehicle_type_id":"4","last_reported":1743793670,"current_range_meters":9600,"station_id":"ce501612rcd8frsf0b60","pricing_plan_id":"cebpf4jnsgd1na2vs0mg"},{"bike_id":"92e0cecd-95b2-4ee5-b7d7-77d61edf6008","system_id":"levelo_inurba_marseille","lat":43.292,"lon":5.35809,"is_reserved":false,"is_disabled":false,"rental_uris":{"android":"levelo://app?vid=92e0cecd-95b2-4ee5-b7d7-77d61edf6008","ios":"levelo://app?vid=92e0cecd-95b2-4ee5-b7d7-77d61edf6008"},"vehicle_type_id":"4","last_reported":1743793670,"current_range_meters":9600,"station_id":"ce4bhb12rcd13ifvqel0","pricing_plan_id":"cebpf4jnsgd1na2vs0mg"},{"bike_id":"cb2aad6d-61e8-4de9-9f75-4e440e9fa1e5","system_id":"levelo_inurba_marseille","lat":43.29297,"lon":5.37176,"is_reserved":false,"is_disabled":false,"rental_uris":{"android":"levelo://app?vid=cb2aad6d-61e8-4de9-9f75-4e440e9fa1e5","ios":"levelo://app?vid=cb2aad6d-61e8-4de9-9f75-4e440e9fa1e5"},"vehicle_type_id":"4","last_reported":1743793670,"current_range_meters":9600,"station_id":"ce4bgh92rcd13ifvqb40","pricing_plan_id":"cebpf4jnsgd1na2vs0mg"},{"bike_id":"9b02f742-f038-4739-9c1b-418a3e5904eb","system_id":"levelo_inurba_marseille","lat":43.31359,"lon":5.366283,"is_reserved":false,"is_disabled":true,"rental_uris":{"android":"levelo://app?vid=9b02f742-f038-4739-9c1b-418a3e5904eb","ios":"levelo://app?vid=9b02f742-f038-4739-9c1b-418a3e5904eb"},"vehicle_type_id":"4","last_reported":1743793670,"current_range_meters":9600,"station_id":"ce4bgr92rcd13ifvqc6g","pricing_plan_id":"cebpf4jnsgd1na2vs0mg"},{"bike_id":"d0aae37b-8c71-4ebe-bb22-7bc9174bb75d","system_id":"levelo_inurba_marseille","lat":43.28934,"lon":5.36629,"is_reserved":false,"is_disabled":false,"rental_uris":{"android":"levelo://app?vid=d0aae37b-8c71-4ebe-bb22-7bc9174bb75d","ios":"levelo://app?vid=d0aae37b-8c71-4ebe-bb22-7bc9174bb75d"},"vehicle_type_id":"4","last_reported":1743793670,"current_range_meters":9600,"station_id":"ce4bhap2rcd13ifvqek0","pricing_plan_id":"cebpf4jnsgd1na2vs0mg"},{"bike_id":"0318628e-ab49-4885-8703-0d738f06e394","system_id":"levelo_inurba_marseille","lat":43.32359,"lon":5.38885,"is_reserved":false,"is_disabled":false,"rental_uris":{"android":"levelo://app?vid=0318628e-ab49-4885-8703-0d738f06e394","ios":"levelo://app?vid=0318628e-ab49-4885-8703-0d738f06e394"},"vehicle_type_id":"4","last_reported":1743793670,"current_range_meters":9600,"station_id":"ce4bhqp2rcd13ifvqhog","pricing_plan_id":"cebpf4jnsgd1na2vs0mg"},{"bike_id":"3a673a01-13fc-4ed6-b9b1-08a0faf2fd75","system_id":"levelo_inurba_marseille","lat":43.23175,"lon":5.39959,"is_reserved":false,"is_disabled":false,"rental_uris":{"android":"levelo://app?vid=3a673a01-13fc-4ed6-b9b1-08a0faf2fd75","ios":"levelo://app?vid=3a673a01-13fc-4ed6-b9b1-08a0faf2fd75"},"vehicle_type_id":"4","last_reported":1743793670,"current_range_meters":9600,"station_id":"ce4bhn12rcd13ifvqgqg","pricing_plan_id":"cebpf4jnsgd1na2vs0mg"},{"bike_id":"2231814d-9cee-4023-853f-deb5697a539c","system_id":"levelo_inurba_marseille","lat":43.29598,"lon":5.38109,"is_reserved":false,"is_disabled":false,"rental_uris":{"android":"levelo://app?vid=2231814d-9cee-4023-853f-deb5697a539c","ios":"levelo://app?vid=2231814d-9cee-4023-853f-deb5697a539c"},"vehicle_type_id":"4","last_reported":1743793670,"current_range_meters":9600,"station_id":"ce4bgl12rcd13ifvqbo0","pricing_plan_id":"cebpf4jnsgd1na2vs0mg"},{"bike_id":"ad707a01-b942-4cbb-8387-1610aa262357","system_id":"levelo_inurba_marseille","lat":43.24812,"lon":5.37448,"is_reserved":false,"is_disabled":false,"rental_uris":{"android":"levelo://app?vid=ad707a01-b942-4cbb-8387-1610aa262357","ios":"levelo://app?vid=ad707a01-b942-4cbb-8387-1610aa262357"},"vehicle_type_id":"4","last_reported":1743793670,"current_range_meters":10000,"station_id":"ce4bhgh2rcd13ifvqfb0","pricing_plan_id":"cebpf4jnsgd1na2vs0mg"},{"bike_id":"0b955fa2-f48b-4ba4-aeee-a3d2cc020917","system_id":"levelo_inurba_marseille","lat":43.30256,"lon":5.40088,"is_reserved":false,"is_disabled":false,"rental_uris":{"android":"levelo://app?vid=0b955fa2-f48b-4ba4-aeee-a3d2cc020917","ios":"levelo://app?vid=0b955fa2-f48b-4ba4-aeee-a3d2cc020917"},"vehicle_type_id":"4","last_reported":1743793670,"current_range_meters":10000,"station_id":"ce4bgvh2rcd13ifvqcs0","pricing_plan_id":"cebpf4jnsgd1na2vs0mg"},{"bike_id":"87504117-eba9-48dc-8898-7b4b92727352","system_id":"levelo_inurba_marseille","lat":43.3042,"lon":5.41297,"is_reserved":false,"is_disabled":false,"rental_uris":{"android":"levelo://app?vid=87504117-eba9-48dc-8898-7b4b92727352","ios":"levelo://app?vid=87504117-eba9-48dc-8898-7b4b92727352"},"vehicle_type_id":"4","last_reported":1743793670,"current_range_meters":10000,"station_id":"ce4bhop2rcd13ifvqh8g","pricing_plan_id":"cebpf4jnsgd1na2vs0mg"},{"bike_id":"b1cb7cba-5dfd-4ecb-ab06-5dbd752283ea","system_id":"levelo_inurba_marseille","lat":43.24138,"lon":5.39715,"is_reserved":false,"is_disabled":false,"rental_uris":{"android":"levelo://app?vid=b1cb7cba-5dfd-4ecb-ab06-5dbd752283ea","ios":"levelo://app?vid=b1cb7cba-5dfd-4ecb-ab06-5dbd752283ea"},"vehicle_type_id":"4","last_reported":1743793670,"current_range_meters":10000,"station_id":"ce4bhn12rcd13ifvqgpg","pricing_plan_id":"cebpf4jnsgd1na2vs0mg"},{"bike_id":"ef076cc9-b478-41aa-802a-ed7212300556","system_id":"levelo_inurba_marseille","lat":43.2294,"lon":5.35377,"is_reserved":false,"is_disabled":false,"rental_uris":{"android":"levelo://app?vid=ef076cc9-b478-41aa-802a-ed7212300556","ios":"levelo://app?vid=ef076cc9-b478-41aa-802a-ed7212300556"},"vehicle_type_id":"4","last_reported":1743793670,"current_range_meters":10000,"station_id":"cpo3532slgdg3j2ikp40","pricing_plan_id":"cebpf4jnsgd1na2vs0mg"},{"bike_id":"ed562682-b9c4-45a5-a5d9-628992c2c17c","system_id":"levelo_inurba_marseille","lat":43.33022,"lon":5.39053,"is_reserved":false,"is_disabled":false,"rental_uris":{"android":"levelo://app?vid=ed562682-b9c4-45a5-a5d9-628992c2c17c","ios":"levelo://app?vid=ed562682-b9c4-45a5-a5d9-628992c2c17c"},"vehicle_type_id":"4","last_reported":1743793670,"current_range_meters":10000,"station_id":"ce4bhr92rcd13ifvqhrg","pricing_plan_id":"cebpf4jnsgd1na2vs0mg"},{"bike_id":"d523991c-f3a7-408f-a1e1-72807c9fa3be","system_id":"levelo_inurba_marseille","lat":43.31528,"lon":5.3803,"is_reserved":false,"is_disabled":false,"rental_uris":{"android":"levelo://app?vid=d523991c-f3a7-408f-a1e1-72807c9fa3be","ios":"levelo://app?vid=d523991c-f3a7-408f-a1e1-72807c9fa3be"},"vehicle_type_id":"4","last_reported":1743793670,"current_range_meters":10000,"station_id":"ce4bhsp2rcd13ifvqi50","pricing_plan_id":"cebpf4jnsgd1na2vs0mg"},{"bike_id":"0a21aa20-0c21-4088-b21b-d881f94fe3dc","system_id":"levelo_inurba_marseille","lat":43.29217,"lon":5.36066,"is_reserved":false,"is_disabled":false,"rental_uris":{"android":"levelo://app?vid=0a21aa20-0c21-4088-b21b-d881f94fe3dc","ios":"levelo://app?vid=0a21aa20-0c21-4088-b21b-d881f94fe3dc"},"vehicle_type_id":"4","last_reported":1743793670,"current_range_meters":10000,"station_id":"ce4bhbh2rcd13ifvqeqg","pricing_plan_id":"cebpf4jnsgd1na2vs0mg"},{"bike_id":"64c6ebbe-5103-4486-8c0f-f775d54220af","system_id":"levelo_inurba_marseille","lat":43.28036,"lon":5.3695,"is_reserved":false,"is_disabled":false,"rental_uris":{"android":"levelo://app?vid=64c6ebbe-5103-4486-8c0f-f775d54220af","ios":"levelo://app?vid=64c6ebbe-5103-4486-8c0f-f775d54220af"},"vehicle_type_id":"4","last_reported":1743793670,"current_range_meters":12000,"station_id":"ce4bha12rcd13ifvqef0","pricing_plan_id":"cebpf4jnsgd1na2vs0mg"},{"bike_id":"cc019844-4292-4830-a99e-3c9a719e6306","system_id":"levelo_inurba_marseille","lat":43.29207,"lon":5.36051,"is_reserved":false,"is_disabled":false,"rental_uris":{"android":"levelo://app?vid=cc019844-4292-4830-a99e-3c9a719e6306","ios":"levelo://app?vid=cc019844-4292-4830-a99e-3c9a719e6306"},"vehicle_type_id":"4","last_reported":1743793670,"current_range_meters":10000,"station_id":"ce4bhbh2rcd13ifvqeqg","pricing_plan_id":"cebpf4jnsgd1na2vs0mg"},{"bike_id":"0cd8fca5-0c72-47f1-84cc-4a6eab487c21","system_id":"levelo_inurba_marseille","lat":43.294237,"lon":5.386293,"is_reserved":false,"is_disabled":false,"rental_uris":{"android":"levelo://app?vid=0cd8fca5-0c72-47f1-84cc-4a6eab487c21","ios":"levelo://app?vid=0cd8fca5-0c72-47f1-84cc-4a6eab487c21"},"vehicle_type_id":"4","last_reported":1743793670,"current_range_meters":10000,"station_id":"ce4bh2h2rcd13ifvqdh0","pricing_plan_id":"cebpf4jnsgd1na2vs0mg"},{"bike_id":"cbf310bd-69e8-4547-acc5-48e870e93453","system_id":"levelo_inurba_marseille","lat":43.29414,"lon":5.38625,"is_reserved":false,"is_disabled":false,"rental_uris":{"android":"levelo://app?vid=cbf310bd-69e8-4547-acc5-48e870e93453","ios":"levelo://app?vid=cbf310bd-69e8-4547-acc5-48e870e93453"},"vehicle_type_id":"4","last_reported":1743793670,"current_range_meters":10000,"station_id":"ce4bh2h2rcd13ifvqdh0","pricing_plan_id":"cebpf4jnsgd1na2vs0mg"},{"bike_id":"f1c94e73-6d75-46c1-a24a-f82d52996508","system_id":"levelo_inurba_marseille","lat":43.30933,"lon":5.40151,"is_reserved":false,"is_disabled":false,"rental_uris":{"android":"levelo://app?vid=f1c94e73-6d75-46c1-a24a-f82d52996508","ios":"levelo://app?vid=f1c94e73-6d75-46c1-a24a-f82d52996508"},"vehicle_type_id":"4","last_reported":1743793670,"current_range_meters":10000,"station_id":"ce4bgvp2rcd13ifvqct0","pricing_plan_id":"cebpf4jnsgd1na2vs0mg"},{"bike_id":"f820121a-6527-4fda-8df2-ff2b3162f49f","system_id":"levelo_inurba_marseille","lat":43.28942,"lon":5.3663,"is_reserved":false,"is_disabled":false,"rental_uris":{"android":"levelo://app?vid=f820121a-6527-4fda-8df2-ff2b3162f49f","ios":"levelo://app?vid=f820121a-6527-4fda-8df2-ff2b3162f49f"},"vehicle_type_id":"4","last_reported":1743793670,"current_range_meters":10000,"station_id":"ce4bhap2rcd13ifvqek0","pricing_plan_id":"cebpf4jnsgd1na2vs0mg"},{"bike_id":"db526bca-5447-4ac0-922d-45ecb017eb78","system_id":"levelo_inurba_marseille","lat":43.30814,"lon":5.43558,"is_reserved":false,"is_disabled":false,"rental_uris":{"android":"levelo://app?vid=db526bca-5447-4ac0-922d-45ecb017eb78","ios":"levelo://app?vid=db526bca-5447-4ac0-922d-45ecb017eb78"},"vehicle_type_id":"4","last_reported":1743793670,"current_range_meters":10000,"station_id":"ce4bhph2rcd13ifvqheg","pricing_plan_id":"cebpf4jnsgd1na2vs0mg"},{"bike_id":"c9ab5bfd-fa91-4b45-8fa2-52813c43fa45","system_id":"levelo_inurba_marseille","lat":43.230613,"lon":5.354924,"is_reserved":false,"is_disabled":false,"rental_uris":{"android":"levelo://app?vid=c9ab5bfd-fa91-4b45-8fa2-52813c43fa45","ios":"levelo://app?vid=c9ab5bfd-fa91-4b45-8fa2-52813c43fa45"},"vehicle_type_id":"4","last_reported":1743793670,"current_range_meters":10800,"station_id":"cpo3342slgdg3j2ifvpg","pricing_plan_id":"cebpf4jnsgd1na2vs0mg"},{"bike_id":"4d95ff97-2db2-4609-94f0-24aab0a2e93a","system_id":"levelo_inurba_marseille","lat":43.315856,"lon":5.402591,"is_reserved":false,"is_disabled":false,"rental_uris":{"android":"levelo://app?vid=4d95ff97-2db2-4609-94f0-24aab0a2e93a","ios":"levelo://app?vid=4d95ff97-2db2-4609-94f0-24aab0a2e93a"},"vehicle_type_id":"4","last_reported":1743793670,"current_range_meters":6400,"station_id":"ce4bgup2rcd13ifvqco0","pricing_plan_id":"cebpf4jnsgd1na2vs0mg"},{"bike_id":"28ec9a87-53e6-4b69-ad07-1c65d75ada71","system_id":"levelo_inurba_marseille","lat":43.28413,"lon":5.34989,"is_reserved":false,"is_disabled":false,"rental_uris":{"android":"levelo://app?vid=28ec9a87-53e6-4b69-ad07-1c65d75ada71","ios":"levelo://app?vid=28ec9a87-53e6-4b69-ad07-1c65d75ada71"},"vehicle_type_id":"4","last_reported":1743793670,"current_range_meters":10800,"station_id":"ce4bhbh2rcd13ifvqepg","pricing_plan_id":"cebpf4jnsgd1na2vs0mg"},{"bike_id":"2f9de47d-5d8b-434f-a349-907871768984","system_id":"levelo_inurba_marseille","lat":43.29299,"lon":5.38449,"is_reserved":false,"is_disabled":false,"rental_uris":{"android":"levelo://app?vid=2f9de47d-5d8b-434f-a349-907871768984","ios":"levelo://app?vid=2f9de47d-5d8b-434f-a349-907871768984"},"vehicle_type_id":"4","last_reported":1743793670,"current_range_meters":10800,"station_id":"ce4bh692rcd13ifvqea0","pricing_plan_id":"cebpf4jnsgd1na2vs0mg"},{"bike_id":"908c0033-ebf3-400a-acb3-0a621b83539f","system_id":"levelo_inurba_marseille","lat":43.23191,"lon":5.39974,"is_reserved":false,"is_disabled":false,"rental_uris":{"android":"levelo://app?vid=908c0033-ebf3-400a-acb3-0a621b83539f","ios":"levelo://app?vid=908c0033-ebf3-400a-acb3-0a621b83539f"},"vehicle_type_id":"4","last_reported":1743793670,"current_range_meters":10800,"station_id":"ce4bhn12rcd13ifvqgqg","pricing_plan_id":"cebpf4jnsgd1na2vs0mg"},{"bike_id":"a1f62289-28e9-4714-b9be-20b608fe8151","system_id":"levelo_inurba_marseille","lat":43.29865,"lon":5.39736,"is_reserved":false,"is_disabled":false,"rental_uris":{"android":"levelo://app?vid=a1f62289-28e9-4714-b9be-20b608fe8151","ios":"levelo://app?vid=a1f62289-28e9-4714-b9be-20b608fe8151"},"vehicle_type_id":"4","last_reported":1743793670,"current_range_meters":10800,"station_id":"ce4bh0h2rcd13ifvqd50","pricing_plan_id":"cebpf4jnsgd1na2vs0mg"},{"bike_id":"b243a966-3110-4899-b82f-3313e11f599d","system_id":"levelo_inurba_marseille","lat":43.29276,"lon":5.3685,"is_reserved":false,"is_disabled":false,"rental_uris":{"android":"levelo://app?vid=b243a966-3110-4899-b82f-3313e11f599d","ios":"levelo://app?vid=b243a966-3110-4899-b82f-3313e11f599d"},"vehicle_type_id":"4","last_reported":1743793670,"current_range_meters":10800,"station_id":"ce4bhbp2rcd13ifvqesg","pricing_plan_id":"cebpf4jnsgd1na2vs0mg"},{"bike_id":"495a5936-22f2-451e-ab15-52e9d0402042","system_id":"levelo_inurba_marseille","lat":43.29413,"lon":5.38639,"is_reserved":false,"is_disabled":false,"rental_uris":{"android":"levelo://app?vid=495a5936-22f2-451e-ab15-52e9d0402042","ios":"levelo://app?vid=495a5936-22f2-451e-ab15-52e9d0402042"},"vehicle_type_id":"4","last_reported":1743793670,"current_range_meters":10800,"station_id":"ce4bh2h2rcd13ifvqdh0","pricing_plan_id":"cebpf4jnsgd1na2vs0mg"},{"bike_id":"2ba69920-a890-40bd-af20-0d1d415822a8","system_id":"levelo_inurba_marseille","lat":43.3129,"lon":5.40166,"is_reserved":false,"is_disabled":false,"rental_uris":{"android":"levelo://app?vid=2ba69920-a890-40bd-af20-0d1d415822a8","ios":"levelo://app?vid=2ba69920-a890-40bd-af20-0d1d415822a8"},"vehicle_type_id":"4","last_reported":1743793670,"current_range_meters":10800,"station_id":"ce4bh092rcd13ifvqd30","pricing_plan_id":"cebpf4jnsgd1na2vs0mg"},{"bike_id":"bab2da8c-b371-478f-8616-4c2ad6e07079","system_id":"levelo_inurba_marseille","lat":43.25939,"lon":5.40909,"is_reserved":false,"is_disabled":false,"rental_uris":{"android":"levelo://app?vid=bab2da8c-b371-478f-8616-4c2ad6e07079","ios":"levelo://app?vid=bab2da8c-b371-478f-8616-4c2ad6e07079"},"vehicle_type_id":"4","last_reported":1743793670,"current_range_meters":12000,"station_id":"ce4bhm92rcd13ifvqglg","pricing_plan_id":"cebpf4jnsgd1na2vs0mg"},{"bike_id":"c91a6301-d46d-458e-a0a6-5762e813d6dd","system_id":"levelo_inurba_marseille","lat":43.2954,"lon":5.38551,"is_reserved":false,"is_disabled":true,"rental_uris":{"android":"levelo://app?vid=c91a6301-d46d-458e-a0a6-5762e813d6dd","ios":"levelo://app?vid=c91a6301-d46d-458e-a0a6-5762e813d6dd"},"vehicle_type_id":"4","last_reported":1743793670,"current_range_meters":11200,"station_id":"ce4bgih2rcd13ifvqba0","pricing_plan_id":"cebpf4jnsgd1na2vs0mg"},{"bike_id":"f40fc4e8-cfdd-40aa-8507-3bd8857476a8","system_id":"levelo_inurba_marseille","lat":43.30251,"lon":5.4006,"is_reserved":false,"is_disabled":true,"rental_uris":{"android":"levelo://app?vid=f40fc4e8-cfdd-40aa-8507-3bd8857476a8","ios":"levelo://app?vid=f40fc4e8-cfdd-40aa-8507-3bd8857476a8"},"vehicle_type_id":"4","last_reported":1743793670,"current_range_meters":11200,"station_id":"ce4bgvh2rcd13ifvqcs0","pricing_plan_id":"cebpf4jnsgd1na2vs0mg"},{"bike_id":"52e791d5-f4ca-43cd-9a3c-f178b23269be","system_id":"levelo_inurba_marseille","lat":43.28353,"lon":5.38108,"is_reserved":false,"is_disabled":false,"rental_uris":{"android":"levelo://app?vid=52e791d5-f4ca-43cd-9a3c-f178b23269be","ios":"levelo://app?vid=52e791d5-f4ca-43cd-9a3c-f178b23269be"},"vehicle_type_id":"4","last_reported":1743793670,"current_range_meters":11200,"station_id":"ce4bh412rcd13ifvqdr0","pricing_plan_id":"cebpf4jnsgd1na2vs0mg"},{"bike_id":"ec1efc42-6b50-45b4-9b36-065198ebc403","system_id":"levelo_inurba_marseille","lat":43.29252,"lon":5.3843,"is_reserved":false,"is_disabled":false,"rental_uris":{"android":"levelo://app?vid=ec1efc42-6b50-45b4-9b36-065198ebc403","ios":"levelo://app?vid=ec1efc42-6b50-45b4-9b36-065198ebc403"},"vehicle_type_id":"4","last_reported":1743793670,"current_range_meters":11200,"station_id":"ce4bh692rcd13ifvqea0","pricing_plan_id":"cebpf4jnsgd1na2vs0mg"},{"bike_id":"d0764e00-ddd2-47df-8a98-0f2793651d61","system_id":"levelo_inurba_marseille","lat":43.29267,"lon":5.38448,"is_reserved":false,"is_disabled":false,"rental_uris":{"android":"levelo://app?vid=d0764e00-ddd2-47df-8a98-0f2793651d61","ios":"levelo://app?vid=d0764e00-ddd2-47df-8a98-0f2793651d61"},"vehicle_type_id":"4","last_reported":1743793670,"current_range_meters":11200,"station_id":"ce4bh692rcd13ifvqea0","pricing_plan_id":"cebpf4jnsgd1na2vs0mg"},{"bike_id":"2fffd82c-44cf-49f4-8349-cccad13e6663","system_id":"levelo_inurba_marseille","lat":43.28721,"lon":5.37936,"is_reserved":false,"is_disabled":false,"rental_uris":{"android":"levelo://app?vid=2fffd82c-44cf-49f4-8349-cccad13e6663","ios":"levelo://app?vid=2fffd82c-44cf-49f4-8349-cccad13e6663"},"vehicle_type_id":"4","last_reported":1743793670,"current_range_meters":11200,"station_id":"ce4bh9p2rcd13ifvqec0","pricing_plan_id":"cebpf4jnsgd1na2vs0mg"},{"bike_id":"9acd8593-7de6-48f1-b31d-99a1cf23cb69","system_id":"levelo_inurba_marseille","lat":43.24062,"lon":5.37753,"is_reserved":false,"is_disabled":false,"rental_uris":{"android":"levelo://app?vid=9acd8593-7de6-48f1-b31d-99a1cf23cb69","ios":"levelo://app?vid=9acd8593-7de6-48f1-b31d-99a1cf23cb69"},"vehicle_type_id":"4","last_reported":1743793670,"current_range_meters":11200,"station_id":"ce4bhnp2rcd13ifvqgvg","pricing_plan_id":"cebpf4jnsgd1na2vs0mg"},{"bike_id":"69765911-a657-4873-ab71-1b6674378393","system_id":"levelo_inurba_marseille","lat":43.29315,"lon":5.37432,"is_reserved":false,"is_disabled":true,"rental_uris":{"android":"levelo://app?vid=69765911-a657-4873-ab71-1b6674378393","ios":"levelo://app?vid=69765911-a657-4873-ab71-1b6674378393"},"vehicle_type_id":"4","last_reported":1743793670,"current_range_meters":11600,"station_id":"ce4bgi12rcd13ifvqb70","pricing_plan_id":"cebpf4jnsgd1na2vs0mg"},{"bike_id":"b5a88808-888b-4609-b0c8-f153b51d1dd2","system_id":"levelo_inurba_marseille","lat":43.29255,"lon":5.38435,"is_reserved":false,"is_disabled":false,"rental_uris":{"android":"levelo://app?vid=b5a88808-888b-4609-b0c8-f153b51d1dd2","ios":"levelo://app?vid=b5a88808-888b-4609-b0c8-f153b51d1dd2"},"vehicle_type_id":"4","last_reported":1743793670,"current_range_meters":11600,"station_id":"ce4bh692rcd13ifvqea0","pricing_plan_id":"cebpf4jnsgd1na2vs0mg"},{"bike_id":"8d1d3d55-964c-4023-a7c1-03db3b64f9c1","system_id":"levelo_inurba_marseille","lat":43.29869,"lon":5.39737,"is_reserved":false,"is_disabled":false,"rental_uris":{"android":"levelo://app?vid=8d1d3d55-964c-4023-a7c1-03db3b64f9c1","ios":"levelo://app?vid=8d1d3d55-964c-4023-a7c1-03db3b64f9c1"},"vehicle_type_id":"4","last_reported":1743793670,"current_range_meters":11600,"station_id":"ce4bh0h2rcd13ifvqd50","pricing_plan_id":"cebpf4jnsgd1na2vs0mg"},{"bike_id":"d314ddb1-ff62-4601-8e47-b5d5fbd0cec2","system_id":"levelo_inurba_marseille","lat":43.29534,"lon":5.385525,"is_reserved":false,"is_disabled":false,"rental_uris":{"android":"levelo://app?vid=d314ddb1-ff62-4601-8e47-b5d5fbd0cec2","ios":"levelo://app?vid=d314ddb1-ff62-4601-8e47-b5d5fbd0cec2"},"vehicle_type_id":"4","last_reported":1743793670,"current_range_meters":11600,"station_id":"ce4bgih2rcd13ifvqba0","pricing_plan_id":"cebpf4jnsgd1na2vs0mg"},{"bike_id":"783ef245-163c-4c81-b038-df23059b7c57","system_id":"levelo_inurba_marseille","lat":43.310755,"lon":5.383546,"is_reserved":false,"is_disabled":false,"rental_uris":{"android":"levelo://app?vid=783ef245-163c-4c81-b038-df23059b7c57","ios":"levelo://app?vid=783ef245-163c-4c81-b038-df23059b7c57"},"vehicle_type_id":"4","last_reported":1743793670,"current_range_meters":11600,"station_id":"","pricing_plan_id":"cebpf4jnsgd1na2vs0mg"},{"bike_id":"829acafc-221e-41d2-b87e-1eaa511b3313","system_id":"levelo_inurba_marseille","lat":43.29052,"lon":5.39969,"is_reserved":false,"is_disabled":true,"rental_uris":{"android":"levelo://app?vid=829acafc-221e-41d2-b87e-1eaa511b3313","ios":"levelo://app?vid=829acafc-221e-41d2-b87e-1eaa511b3313"},"vehicle_type_id":"4","last_reported":1743793670,"current_range_meters":11600,"station_id":"ce4bh392rcd13ifvqdm0","pricing_plan_id":"cebpf4jnsgd1na2vs0mg"},{"bike_id":"ccbaad60-ee1e-4837-a1f8-1af8e79dfa40","system_id":"levelo_inurba_marseille","lat":43.306152,"lon":5.393393,"is_reserved":false,"is_disabled":true,"rental_uris":{"android":"levelo://app?vid=ccbaad60-ee1e-4837-a1f8-1af8e79dfa40","ios":"levelo://app?vid=ccbaad60-ee1e-4837-a1f8-1af8e79dfa40"},"vehicle_type_id":"4","last_reported":1743793670,"current_range_meters":11600,"station_id":"ce4bh0p2rcd13ifvqd80","pricing_plan_id":"cebpf4jnsgd1na2vs0mg"},{"bike_id":"d932dbb0-9a50-4b33-8e02-f1fe75adfe61","system_id":"levelo_inurba_marseille","lat":43.28356,"lon":5.38104,"is_reserved":false,"is_disabled":false,"rental_uris":{"android":"levelo://app?vid=d932dbb0-9a50-4b33-8e02-f1fe75adfe61","ios":"levelo://app?vid=d932dbb0-9a50-4b33-8e02-f1fe75adfe61"},"vehicle_type_id":"4","last_reported":1743793670,"current_range_meters":11600,"station_id":"ce4bh412rcd13ifvqdr0","pricing_plan_id":"cebpf4jnsgd1na2vs0mg"},{"bike_id":"45019ec3-f28f-4e40-bc8b-1fb83d7a99c5","system_id":"levelo_inurba_marseille","lat":43.284119,"lon":5.349849,"is_reserved":false,"is_disabled":false,"rental_uris":{"android":"levelo://app?vid=45019ec3-f28f-4e40-bc8b-1fb83d7a99c5","ios":"levelo://app?vid=45019ec3-f28f-4e40-bc8b-1fb83d7a99c5"},"vehicle_type_id":"4","last_reported":1743793670,"current_range_meters":11600,"station_id":"ce4bhb92rcd13ifvqen0","pricing_plan_id":"cebpf4jnsgd1na2vs0mg"},{"bike_id":"42b6e9f3-5f73-450f-b07e-7dc6be473063","system_id":"levelo_inurba_marseille","lat":43.29069,"lon":5.37185,"is_reserved":false,"is_disabled":false,"rental_uris":{"android":"levelo://app?vid=42b6e9f3-5f73-450f-b07e-7dc6be473063","ios":"levelo://app?vid=42b6e9f3-5f73-450f-b07e-7dc6be473063"},"vehicle_type_id":"4","last_reported":1743793670,"current_range_meters":11600,"station_id":"ce4bh5p2rcd13ifvqe4g","pricing_plan_id":"cebpf4jnsgd1na2vs0mg"},{"bike_id":"f21b2c07-ed6c-481f-9214-3fa02f2743ba","system_id":"levelo_inurba_marseille","lat":43.28956,"lon":5.3839,"is_reserved":false,"is_disabled":false,"rental_uris":{"android":"levelo://app?vid=f21b2c07-ed6c-481f-9214-3fa02f2743ba","ios":"levelo://app?vid=f21b2c07-ed6c-481f-9214-3fa02f2743ba"},"vehicle_type_id":"4","last_reported":1743793670,"current_range_meters":11600,"station_id":"ce4bh612rcd13ifvqe6g","pricing_plan_id":"cebpf4jnsgd1na2vs0mg"},{"bike_id":"706fc506-2aa0-4db5-833c-3cdac573bb9a","system_id":"levelo_inurba_marseille","lat":43.29062,"lon":5.38592,"is_reserved":false,"is_disabled":true,"rental_uris":{"android":"levelo://app?vid=706fc506-2aa0-4db5-833c-3cdac573bb9a","ios":"levelo://app?vid=706fc506-2aa0-4db5-833c-3cdac573bb9a"},"vehicle_type_id":"4","last_reported":1743793670,"current_range_meters":11600,"station_id":"ce4bh4p2rcd13ifvqe0g","pricing_plan_id":"cebpf4jnsgd1na2vs0mg"},{"bike_id":"ae85a7a4-7c38-4e25-9e50-a9a925b58789","system_id":"levelo_inurba_marseille","lat":43.31091,"lon":5.42431,"is_reserved":false,"is_disabled":false,"rental_uris":{"android":"levelo://app?vid=ae85a7a4-7c38-4e25-9e50-a9a925b58789","ios":"levelo://app?vid=ae85a7a4-7c38-4e25-9e50-a9a925b58789"},"vehicle_type_id":"4","last_reported":1743793670,"current_range_meters":11600,"station_id":"ce4bhp92rcd13ifvqhag","pricing_plan_id":"cebpf4jnsgd1na2vs0mg"},{"bike_id":"3eec2bfd-c78f-448c-8f21-78f101d43737","system_id":"levelo_inurba_marseille","lat":43.28725,"lon":5.36095,"is_reserved":false,"is_disabled":false,"rental_uris":{"android":"levelo://app?vid=3eec2bfd-c78f-448c-8f21-78f101d43737","ios":"levelo://app?vid=3eec2bfd-c78f-448c-8f21-78f101d43737"},"vehicle_type_id":"4","last_reported":1743793670,"current_range_meters":12000,"station_id":"cki0cbj6b192h4jlfktg","pricing_plan_id":"cebpf4jnsgd1na2vs0mg"},{"bike_id":"3b4ad8c6-6244-4378-90d7-dac703d1508d","system_id":"levelo_inurba_marseille","lat":43.23193,"lon":5.35563,"is_reserved":false,"is_disabled":false,"rental_uris":{"android":"levelo://app?vid=3b4ad8c6-6244-4378-90d7-dac703d1508d","ios":"levelo://app?vid=3b4ad8c6-6244-4378-90d7-dac703d1508d"},"vehicle_type_id":"4","last_reported":1743793670,"current_range_meters":12000,"station_id":"ce4bhu92rcd13ifvqi70","pricing_plan_id":"cebpf4jnsgd1na2vs0mg"},{"bike_id":"203176fb-52f7-45ec-88b4-caa4115f7b7b","system_id":"levelo_inurba_marseille","lat":43.296298,"lon":5.40022,"is_reserved":false,"is_disabled":false,"rental_uris":{"android":"levelo://app?vid=203176fb-52f7-45ec-88b4-caa4115f7b7b","ios":"levelo://app?vid=203176fb-52f7-45ec-88b4-caa4115f7b7b"},"vehicle_type_id":"4","last_reported":1743793670,"current_range_meters":12000,"station_id":"","pricing_plan_id":"cebpf4jnsgd1na2vs0mg"},{"bike_id":"30b728c0-dc32-4248-9b2a-bfb605f5ab55","system_id":"levelo_inurba_marseille","lat":43.29421,"lon":5.38633,"is_reserved":false,"is_disabled":false,"rental_uris":{"android":"levelo://app?vid=30b728c0-dc32-4248-9b2a-bfb605f5ab55","ios":"levelo://app?vid=30b728c0-dc32-4248-9b2a-bfb605f5ab55"},"vehicle_type_id":"4","last_reported":1743793670,"current_range_meters":12000,"station_id":"ce4bh2h2rcd13ifvqdh0","pricing_plan_id":"cebpf4jnsgd1na2vs0mg"},{"bike_id":"a6303451-5b45-435c-bf0e-748f94cc010d","system_id":"levelo_inurba_marseille","lat":43.23206,"lon":5.35551,"is_reserved":false,"is_disabled":false,"rental_uris":{"android":"levelo://app?vid=a6303451-5b45-435c-bf0e-748f94cc010d","ios":"levelo://app?vid=a6303451-5b45-435c-bf0e-748f94cc010d"},"vehicle_type_id":"4","last_reported":1743793670,"current_range_meters":12000,"station_id":"ce4bhu92rcd13ifvqi70","pricing_plan_id":"cebpf4jnsgd1na2vs0mg"},{"bike_id":"82094fca-82b5-45b4-81a5-df2e6ffd6728","system_id":"levelo_inurba_marseille","lat":43.32359,"lon":5.40632,"is_reserved":false,"is_disabled":false,"rental_uris":{"android":"levelo://app?vid=82094fca-82b5-45b4-81a5-df2e6ffd6728","ios":"levelo://app?vid=82094fca-82b5-45b4-81a5-df2e6ffd6728"},"vehicle_type_id":"4","last_reported":1743793670,"current_range_meters":12000,"station_id":"ce4bhq92rcd13ifvqhjg","pricing_plan_id":"cebpf4jnsgd1na2vs0mg"},{"bike_id":"0eb30f16-826e-404e-9494-cbd59d704ab7","system_id":"levelo_inurba_marseille","lat":43.29035,"lon":5.38623,"is_reserved":false,"is_disabled":true,"rental_uris":{"android":"levelo://app?vid=0eb30f16-826e-404e-9494-cbd59d704ab7","ios":"levelo://app?vid=0eb30f16-826e-404e-9494-cbd59d704ab7"},"vehicle_type_id":"4","last_reported":1743793670,"current_range_meters":12000,"station_id":"ce4bh4p2rcd13ifvqe0g","pricing_plan_id":"cebpf4jnsgd1na2vs0mg"},{"bike_id":"c8cc48d2-031f-48bb-a86d-2c1c879f7d00","system_id":"levelo_inurba_marseille","lat":43.31366,"lon":5.36696,"is_reserved":false,"is_disabled":false,"rental_uris":{"android":"levelo://app?vid=c8cc48d2-031f-48bb-a86d-2c1c879f7d00","ios":"levelo://app?vid=c8cc48d2-031f-48bb-a86d-2c1c879f7d00"},"vehicle_type_id":"4","last_reported":1743793670,"current_range_meters":12000,"station_id":"ce4bgr92rcd13ifvqc6g","pricing_plan_id":"cebpf4jnsgd1na2vs0mg"},{"bike_id":"3f328e24-0370-4224-a20e-74da0de0f916","system_id":"levelo_inurba_marseille","lat":43.24544,"lon":5.39522,"is_reserved":false,"is_disabled":false,"rental_uris":{"android":"levelo://app?vid=3f328e24-0370-4224-a20e-74da0de0f916","ios":"levelo://app?vid=3f328e24-0370-4224-a20e-74da0de0f916"},"vehicle_type_id":"4","last_reported":1743793670,"current_range_meters":12000,"station_id":"ce4bhlp2rcd13ifvqgjg","pricing_plan_id":"cebpf4jnsgd1na2vs0mg"},{"bike_id":"c2055a2a-1cff-4f19-a52d-9b52baeaa63f","system_id":"levelo_inurba_marseille","lat":43.3202,"lon":5.38121,"is_reserved":false,"is_disabled":true,"rental_uris":{"android":"levelo://app?vid=c2055a2a-1cff-4f19-a52d-9b52baeaa63f","ios":"levelo://app?vid=c2055a2a-1cff-4f19-a52d-9b52baeaa63f"},"vehicle_type_id":"4","last_reported":1743793670,"current_range_meters":12000,"station_id":"ce4bhr12rcd13ifvqhpg","pricing_plan_id":"cebpf4jnsgd1na2vs0mg"},{"bike_id":"0bdb00ae-03b5-4f63-8f02-86f0fa81528b","system_id":"levelo_inurba_marseille","lat":43.28264,"lon":5.35081,"is_reserved":false,"is_disabled":false,"rental_uris":{"android":"levelo://app?vid=0bdb00ae-03b5-4f63-8f02-86f0fa81528b","ios":"levelo://app?vid=0bdb00ae-03b5-4f63-8f02-86f0fa81528b"},"vehicle_type_id":"4","last_reported":1743793670,"current_range_meters":12000,"station_id":"ce4bhbp2rcd13ifvqerg","pricing_plan_id":"cebpf4jnsgd1na2vs0mg"},{"bike_id":"2b6d2339-6fa0-424d-8430-79afc4778ef2","system_id":"levelo_inurba_marseille","lat":43.23156,"lon":5.43711,"is_reserved":false,"is_disabled":false,"rental_uris":{"android":"levelo://app?vid=2b6d2339-6fa0-424d-8430-79afc4778ef2","ios":"levelo://app?vid=2b6d2339-6fa0-424d-8430-79afc4778ef2"},"vehicle_type_id":"4","last_reported":1743793670,"current_range_meters":12000,"station_id":"ce4bhmp2rcd13ifvqgog","pricing_plan_id":"cebpf4jnsgd1na2vs0mg"},{"bike_id":"197450f8-968e-4f2b-b885-eeff82e8c053","system_id":"levelo_inurba_marseille","lat":43.24176,"lon":5.39729,"is_reserved":false,"is_disabled":false,"rental_uris":{"android":"levelo://app?vid=197450f8-968e-4f2b-b885-eeff82e8c053","ios":"levelo://app?vid=197450f8-968e-4f2b-b885-eeff82e8c053"},"vehicle_type_id":"4","last_reported":1743793670,"current_range_meters":12400,"station_id":"ce4bhn12rcd13ifvqgpg","pricing_plan_id":"cebpf4jnsgd1na2vs0mg"},{"bike_id":"a07480da-f5a9-4597-b3e6-cc405effeae7","system_id":"levelo_inurba_marseille","lat":43.28961,"lon":5.39675,"is_reserved":false,"is_disabled":true,"rental_uris":{"android":"levelo://app?vid=a07480da-f5a9-4597-b3e6-cc405effeae7","ios":"levelo://app?vid=a07480da-f5a9-4597-b3e6-cc405effeae7"},"vehicle_type_id":"4","last_reported":1743793670,"current_range_meters":12400,"station_id":"ce4bh3h2rcd13ifvqdn0","pricing_plan_id":"cebpf4jnsgd1na2vs0mg"},{"bike_id":"f7a3d3f3-31d5-4ddb-9023-cddaaff09d1c","system_id":"levelo_inurba_marseille","lat":43.29632,"lon":5.40605,"is_reserved":false,"is_disabled":false,"rental_uris":{"android":"levelo://app?vid=f7a3d3f3-31d5-4ddb-9023-cddaaff09d1c","ios":"levelo://app?vid=f7a3d3f3-31d5-4ddb-9023-cddaaff09d1c"},"vehicle_type_id":"4","last_reported":1743793670,"current_range_meters":12400,"station_id":"ce4bhn92rcd13ifvqgrg","pricing_plan_id":"cebpf4jnsgd1na2vs0mg"},{"bike_id":"9df2e517-b618-4d6d-ae3a-3b20dba81f15","system_id":"levelo_inurba_marseille","lat":43.28941,"lon":5.36637,"is_reserved":false,"is_disabled":false,"rental_uris":{"android":"levelo://app?vid=9df2e517-b618-4d6d-ae3a-3b20dba81f15","ios":"levelo://app?vid=9df2e517-b618-4d6d-ae3a-3b20dba81f15"},"vehicle_type_id":"4","last_reported":1743793670,"current_range_meters":12400,"station_id":"ce4bhap2rcd13ifvqek0","pricing_plan_id":"cebpf4jnsgd1na2vs0mg"},{"bike_id":"9a75cc6a-a7fd-40a9-971e-a445f22b1875","system_id":"levelo_inurba_marseille","lat":43.29417,"lon":5.38628,"is_reserved":false,"is_disabled":false,"rental_uris":{"android":"levelo://app?vid=9a75cc6a-a7fd-40a9-971e-a445f22b1875","ios":"levelo://app?vid=9a75cc6a-a7fd-40a9-971e-a445f22b1875"},"vehicle_type_id":"4","last_reported":1743793670,"current_range_meters":12400,"station_id":"ce4bh2h2rcd13ifvqdh0","pricing_plan_id":"cebpf4jnsgd1na2vs0mg"},{"bike_id":"2ac6a623-063c-4fc4-8bde-f17112b0788e","system_id":"levelo_inurba_marseille","lat":43.23418,"lon":5.40591,"is_reserved":false,"is_disabled":false,"rental_uris":{"android":"levelo://app?vid=2ac6a623-063c-4fc4-8bde-f17112b0788e","ios":"levelo://app?vid=2ac6a623-063c-4fc4-8bde-f17112b0788e"},"vehicle_type_id":"4","last_reported":1743793670,"current_range_meters":12400,"station_id":"","pricing_plan_id":"cebpf4jnsgd1na2vs0mg"},{"bike_id":"6b8df6c6-e69f-416d-869f-6c58b572d426","system_id":"levelo_inurba_marseille","lat":43.23189,"lon":5.39983,"is_reserved":false,"is_disabled":false,"rental_uris":{"android":"levelo://app?vid=6b8df6c6-e69f-416d-869f-6c58b572d426","ios":"levelo://app?vid=6b8df6c6-e69f-416d-869f-6c58b572d426"},"vehicle_type_id":"4","last_reported":1743793670,"current_range_meters":12400,"station_id":"ce4bhn12rcd13ifvqgqg","pricing_plan_id":"cebpf4jnsgd1na2vs0mg"},{"bike_id":"fb0d4993-67fa-4314-9525-ef2ba9197c72","system_id":"levelo_inurba_marseille","lat":43.30264,"lon":5.4063,"is_reserved":false,"is_disabled":false,"rental_uris":{"android":"levelo://app?vid=fb0d4993-67fa-4314-9525-ef2ba9197c72","ios":"levelo://app?vid=fb0d4993-67fa-4314-9525-ef2ba9197c72"},"vehicle_type_id":"4","last_reported":1743793670,"current_range_meters":12400,"station_id":"","pricing_plan_id":"cebpf4jnsgd1na2vs0mg"},{"bike_id":"766411c1-473c-46ec-80ec-e09667aab3de","system_id":"levelo_inurba_marseille","lat":43.26944,"lon":5.38644,"is_reserved":false,"is_disabled":false,"rental_uris":{"android":"levelo://app?vid=766411c1-473c-46ec-80ec-e09667aab3de","ios":"levelo://app?vid=766411c1-473c-46ec-80ec-e09667aab3de"},"vehicle_type_id":"4","last_reported":1743793670,"current_range_meters":12400,"station_id":"ce4bhh92rcd13ifvqfh0","pricing_plan_id":"cebpf4jnsgd1na2vs0mg"},{"bike_id":"aa3e1d15-61dc-425b-945c-c6fd4bf6822a","system_id":"levelo_inurba_marseille","lat":43.29266,"lon":5.38441,"is_reserved":false,"is_disabled":false,"rental_uris":{"android":"levelo://app?vid=aa3e1d15-61dc-425b-945c-c6fd4bf6822a","ios":"levelo://app?vid=aa3e1d15-61dc-425b-945c-c6fd4bf6822a"},"vehicle_type_id":"4","last_reported":1743793670,"current_range_meters":12400,"station_id":"ce4bh692rcd13ifvqea0","pricing_plan_id":"cebpf4jnsgd1na2vs0mg"},{"bike_id":"6e1c9c66-c456-4a0c-9f32-8624123a9ee0","system_id":"levelo_inurba_marseille","lat":43.30791,"lon":5.43513,"is_reserved":false,"is_disabled":false,"rental_uris":{"android":"levelo://app?vid=6e1c9c66-c456-4a0c-9f32-8624123a9ee0","ios":"levelo://app?vid=6e1c9c66-c456-4a0c-9f32-8624123a9ee0"},"vehicle_type_id":"4","last_reported":1743793670,"current_range_meters":12400,"station_id":"ce4bhph2rcd13ifvqheg","pricing_plan_id":"cebpf4jnsgd1na2vs0mg"},{"bike_id":"2ee3a78d-3d43-4848-a90f-dec1781d5c45","system_id":"levelo_inurba_marseille","lat":43.28789,"lon":5.37842,"is_reserved":false,"is_disabled":false,"rental_uris":{"android":"levelo://app?vid=2ee3a78d-3d43-4848-a90f-dec1781d5c45","ios":"levelo://app?vid=2ee3a78d-3d43-4848-a90f-dec1781d5c45"},"vehicle_type_id":"4","last_reported":1743793670,"current_range_meters":12400,"station_id":"","pricing_plan_id":"cebpf4jnsgd1na2vs0mg"},{"bike_id":"65795d72-b549-4c3d-806a-78d914bb35d5","system_id":"levelo_inurba_marseille","lat":43.29174,"lon":5.37171,"is_reserved":false,"is_disabled":false,"rental_uris":{"android":"levelo://app?vid=65795d72-b549-4c3d-806a-78d914bb35d5","ios":"levelo://app?vid=65795d72-b549-4c3d-806a-78d914bb35d5"},"vehicle_type_id":"4","last_reported":1743793670,"current_range_meters":12400,"station_id":"ce4bha92rcd13ifvqeh0","pricing_plan_id":"cebpf4jnsgd1na2vs0mg"},{"bike_id":"1d5ef6d0-a413-45b3-8100-7222d11689f2","system_id":"levelo_inurba_marseille","lat":43.28897,"lon":5.38453,"is_reserved":false,"is_disabled":true,"rental_uris":{"android":"levelo://app?vid=1d5ef6d0-a413-45b3-8100-7222d11689f2","ios":"levelo://app?vid=1d5ef6d0-a413-45b3-8100-7222d11689f2"},"vehicle_type_id":"4","last_reported":1743793670,"current_range_meters":12400,"station_id":"ce4bh612rcd13ifvqe6g","pricing_plan_id":"cebpf4jnsgd1na2vs0mg"},{"bike_id":"54a9c35d-1779-42e3-8045-1a7ede8cd295","system_id":"levelo_inurba_marseille","lat":43.28925,"lon":5.38401,"is_reserved":false,"is_disabled":false,"rental_uris":{"android":"levelo://app?vid=54a9c35d-1779-42e3-8045-1a7ede8cd295","ios":"levelo://app?vid=54a9c35d-1779-42e3-8045-1a7ede8cd295"},"vehicle_type_id":"4","last_reported":1743793670,"current_range_meters":12800,"station_id":"ce4bh612rcd13ifvqe6g","pricing_plan_id":"cebpf4jnsgd1na2vs0mg"},{"bike_id":"48ec1fe3-fdf4-49a5-977a-526829b4e2e3","system_id":"levelo_inurba_marseille","lat":43.23079,"lon":5.35494,"is_reserved":false,"is_disabled":false,"rental_uris":{"android":"levelo://app?vid=48ec1fe3-fdf4-49a5-977a-526829b4e2e3","ios":"levelo://app?vid=48ec1fe3-fdf4-49a5-977a-526829b4e2e3"},"vehicle_type_id":"4","last_reported":1743793670,"current_range_meters":12800,"station_id":"cpo3342slgdg3j2ifvpg","pricing_plan_id":"cebpf4jnsgd1na2vs0mg"},{"bike_id":"fdad6e5e-1467-4616-9d72-68b29d343e00","system_id":"levelo_inurba_marseille","lat":43.32301,"lon":5.38272,"is_reserved":false,"is_disabled":false,"rental_uris":{"android":"levelo://app?vid=fdad6e5e-1467-4616-9d72-68b29d343e00","ios":"levelo://app?vid=fdad6e5e-1467-4616-9d72-68b29d343e00"},"vehicle_type_id":"4","last_reported":1743793670,"current_range_meters":12800,"station_id":"ce4bhr12rcd13ifvqhqg","pricing_plan_id":"cebpf4jnsgd1na2vs0mg"},{"bike_id":"41296888-352e-4ce3-b582-026d48019870","system_id":"levelo_inurba_marseille","lat":43.2914,"lon":5.37945,"is_reserved":false,"is_disabled":false,"rental_uris":{"android":"levelo://app?vid=41296888-352e-4ce3-b582-026d48019870","ios":"levelo://app?vid=41296888-352e-4ce3-b582-026d48019870"},"vehicle_type_id":"4","last_reported":1743793670,"current_range_meters":12800,"station_id":"","pricing_plan_id":"cebpf4jnsgd1na2vs0mg"},{"bike_id":"ae0e7d34-c3b2-4f4a-82f6-96a3fe807cb7","system_id":"levelo_inurba_marseille","lat":43.28855,"lon":5.3586,"is_reserved":false,"is_disabled":false,"rental_uris":{"android":"levelo://app?vid=ae0e7d34-c3b2-4f4a-82f6-96a3fe807cb7","ios":"levelo://app?vid=ae0e7d34-c3b2-4f4a-82f6-96a3fe807cb7"},"vehicle_type_id":"4","last_reported":1743793670,"current_range_meters":12800,"station_id":"ce4bhb12rcd13ifvqem0","pricing_plan_id":"cebpf4jnsgd1na2vs0mg"},{"bike_id":"b2dd4286-e2a1-4bf6-9558-757f944c9aeb","system_id":"levelo_inurba_marseille","lat":43.29271,"lon":5.38455,"is_reserved":false,"is_disabled":false,"rental_uris":{"android":"levelo://app?vid=b2dd4286-e2a1-4bf6-9558-757f944c9aeb","ios":"levelo://app?vid=b2dd4286-e2a1-4bf6-9558-757f944c9aeb"},"vehicle_type_id":"4","last_reported":1743793670,"current_range_meters":12800,"station_id":"ce4bh692rcd13ifvqea0","pricing_plan_id":"cebpf4jnsgd1na2vs0mg"},{"bike_id":"60b1ae6c-a57f-4787-b274-70290cc4c095","system_id":"levelo_inurba_marseille","lat":43.3015,"lon":5.37421,"is_reserved":false,"is_disabled":false,"rental_uris":{"android":"levelo://app?vid=60b1ae6c-a57f-4787-b274-70290cc4c095","ios":"levelo://app?vid=60b1ae6c-a57f-4787-b274-70290cc4c095"},"vehicle_type_id":"4","last_reported":1743793670,"current_range_meters":12800,"station_id":"ce4bgs92rcd13ifvqcc0","pricing_plan_id":"cebpf4jnsgd1na2vs0mg"},{"bike_id":"eb79d1f9-7c91-4ea2-b5f8-796189743e1a","system_id":"levelo_inurba_marseille","lat":43.33738,"lon":5.39179,"is_reserved":false,"is_disabled":false,"rental_uris":{"android":"levelo://app?vid=eb79d1f9-7c91-4ea2-b5f8-796189743e1a","ios":"levelo://app?vid=eb79d1f9-7c91-4ea2-b5f8-796189743e1a"},"vehicle_type_id":"4","last_reported":1743793670,"current_range_meters":13600,"station_id":"ce4bhr92rcd13ifvqhsg","pricing_plan_id":"cebpf4jnsgd1na2vs0mg"},{"bike_id":"c1890ece-70f9-4f85-b2a2-171ce8f60046","system_id":"levelo_inurba_marseille","lat":43.33211,"lon":5.38843,"is_reserved":false,"is_disabled":false,"rental_uris":{"android":"levelo://app?vid=c1890ece-70f9-4f85-b2a2-171ce8f60046","ios":"levelo://app?vid=c1890ece-70f9-4f85-b2a2-171ce8f60046"},"vehicle_type_id":"4","last_reported":1743793670,"current_range_meters":13600,"station_id":"ce4bhr92rcd13ifvqhrg","pricing_plan_id":"cebpf4jnsgd1na2vs0mg"},{"bike_id":"2ce32aac-b051-472a-8d7d-485bf6653588","system_id":"levelo_inurba_marseille","lat":43.30894,"lon":5.37197,"is_reserved":false,"is_disabled":false,"rental_uris":{"android":"levelo://app?vid=2ce32aac-b051-472a-8d7d-485bf6653588","ios":"levelo://app?vid=2ce32aac-b051-472a-8d7d-485bf6653588"},"vehicle_type_id":"4","last_reported":1743793670,"current_range_meters":13600,"station_id":"ce4bguh2rcd13ifvqckg","pricing_plan_id":"cebpf4jnsgd1na2vs0mg"},{"bike_id":"340e3872-d18f-48cb-9e03-1ba163ec6337","system_id":"levelo_inurba_marseille","lat":43.28674,"lon":5.36347,"is_reserved":false,"is_disabled":false,"rental_uris":{"android":"levelo://app?vid=340e3872-d18f-48cb-9e03-1ba163ec6337","ios":"levelo://app?vid=340e3872-d18f-48cb-9e03-1ba163ec6337"},"vehicle_type_id":"4","last_reported":1743793670,"current_range_meters":13600,"station_id":"ce4bhah2rcd13ifvqej0","pricing_plan_id":"cebpf4jnsgd1na2vs0mg"},{"bike_id":"6d9715e6-045f-417b-844a-144b6e5c1132","system_id":"levelo_inurba_marseille","lat":43.29207,"lon":5.35729,"is_reserved":false,"is_disabled":false,"rental_uris":{"android":"levelo://app?vid=6d9715e6-045f-417b-844a-144b6e5c1132","ios":"levelo://app?vid=6d9715e6-045f-417b-844a-144b6e5c1132"},"vehicle_type_id":"4","last_reported":1743793670,"current_range_meters":13600,"station_id":"ce4bhb12rcd13ifvqel0","pricing_plan_id":"cebpf4jnsgd1na2vs0mg"},{"bike_id":"dafb0e47-46be-4d27-baed-b7490a64e9e2","system_id":"levelo_inurba_marseille","lat":43.32347,"lon":5.40605,"is_reserved":false,"is_disabled":false,"rental_uris":{"android":"levelo://app?vid=dafb0e47-46be-4d27-baed-b7490a64e9e2","ios":"levelo://app?vid=dafb0e47-46be-4d27-baed-b7490a64e9e2"},"vehicle_type_id":"4","last_reported":1743793670,"current_range_meters":14000,"station_id":"ce4bhq92rcd13ifvqhjg","pricing_plan_id":"cebpf4jnsgd1na2vs0mg"},{"bike_id":"3719d63c-6535-40a3-9206-8644906174c4","system_id":"levelo_inurba_marseille","lat":43.2991,"lon":5.43652,"is_reserved":false,"is_disabled":false,"rental_uris":{"android":"levelo://app?vid=3719d63c-6535-40a3-9206-8644906174c4","ios":"levelo://app?vid=3719d63c-6535-40a3-9206-8644906174c4"},"vehicle_type_id":"4","last_reported":1743793670,"current_range_meters":14000,"station_id":"ce4bhpp2rcd13ifvqhfg","pricing_plan_id":"cebpf4jnsgd1na2vs0mg"},{"bike_id":"16232be7-d41f-418d-ae00-db396d026e29","system_id":"levelo_inurba_marseille","lat":43.242251,"lon":5.370998,"is_reserved":false,"is_disabled":false,"rental_uris":{"android":"levelo://app?vid=16232be7-d41f-418d-ae00-db396d026e29","ios":"levelo://app?vid=16232be7-d41f-418d-ae00-db396d026e29"},"vehicle_type_id":"4","last_reported":1743793670,"current_range_meters":14000,"station_id":"ce4bhh12rcd13ifvqff0","pricing_plan_id":"cebpf4jnsgd1na2vs0mg"},{"bike_id":"d89bb348-a2b2-475f-b66f-22fe74c882fd","system_id":"levelo_inurba_marseille","lat":43.23188,"lon":5.39982,"is_reserved":false,"is_disabled":false,"rental_uris":{"android":"levelo://app?vid=d89bb348-a2b2-475f-b66f-22fe74c882fd","ios":"levelo://app?vid=d89bb348-a2b2-475f-b66f-22fe74c882fd"},"vehicle_type_id":"4","last_reported":1743793670,"current_range_meters":14000,"station_id":"ce4bhn12rcd13ifvqgqg","pricing_plan_id":"cebpf4jnsgd1na2vs0mg"},{"bike_id":"232179ee-313e-4ae4-8b33-1b9b8edd7cae","system_id":"levelo_inurba_marseille","lat":43.28347,"lon":5.38108,"is_reserved":false,"is_disabled":false,"rental_uris":{"android":"levelo://app?vid=232179ee-313e-4ae4-8b33-1b9b8edd7cae","ios":"levelo://app?vid=232179ee-313e-4ae4-8b33-1b9b8edd7cae"},"vehicle_type_id":"4","last_reported":1743793670,"current_range_meters":14000,"station_id":"ce4bh412rcd13ifvqdr0","pricing_plan_id":"cebpf4jnsgd1na2vs0mg"},{"bike_id":"2dc0677d-8f25-4c70-a26e-20c3ec5d2790","system_id":"levelo_inurba_marseille","lat":43.28275,"lon":5.35071,"is_reserved":false,"is_disabled":false,"rental_uris":{"android":"levelo://app?vid=2dc0677d-8f25-4c70-a26e-20c3ec5d2790","ios":"levelo://app?vid=2dc0677d-8f25-4c70-a26e-20c3ec5d2790"},"vehicle_type_id":"4","last_reported":1743793670,"current_range_meters":14000,"station_id":"ce4bhbp2rcd13ifvqerg","pricing_plan_id":"cebpf4jnsgd1na2vs0mg"},{"bike_id":"fe170406-eea7-4a5d-8189-d1a75075cd60","system_id":"levelo_inurba_marseille","lat":43.2989,"lon":5.39727,"is_reserved":false,"is_disabled":false,"rental_uris":{"android":"levelo://app?vid=fe170406-eea7-4a5d-8189-d1a75075cd60","ios":"levelo://app?vid=fe170406-eea7-4a5d-8189-d1a75075cd60"},"vehicle_type_id":"4","last_reported":1743793670,"current_range_meters":14000,"station_id":"ce4bh0h2rcd13ifvqd50","pricing_plan_id":"cebpf4jnsgd1na2vs0mg"},{"bike_id":"1edc9b8f-069c-4a73-b056-332d912ad4c7","system_id":"levelo_inurba_marseille","lat":43.29422,"lon":5.38613,"is_reserved":false,"is_disabled":false,"rental_uris":{"android":"levelo://app?vid=1edc9b8f-069c-4a73-b056-332d912ad4c7","ios":"levelo://app?vid=1edc9b8f-069c-4a73-b056-332d912ad4c7"},"vehicle_type_id":"4","last_reported":1743793670,"current_range_meters":14400,"station_id":"ce4bh2h2rcd13ifvqdh0","pricing_plan_id":"cebpf4jnsgd1na2vs0mg"},{"bike_id":"d377ff6f-cf36-4bfd-a1ab-5dc27c6bee83","system_id":"levelo_inurba_marseille","lat":43.24659,"lon":5.38164,"is_reserved":false,"is_disabled":false,"rental_uris":{"android":"levelo://app?vid=d377ff6f-cf36-4bfd-a1ab-5dc27c6bee83","ios":"levelo://app?vid=d377ff6f-cf36-4bfd-a1ab-5dc27c6bee83"},"vehicle_type_id":"4","last_reported":1743793670,"current_range_meters":14400,"station_id":"ce4bhih2rcd13ifvqfr0","pricing_plan_id":"cebpf4jnsgd1na2vs0mg"},{"bike_id":"5827acd2-19b0-45a4-977e-251b81b3da50","system_id":"levelo_inurba_marseille","lat":43.29417,"lon":5.3863,"is_reserved":false,"is_disabled":false,"rental_uris":{"android":"levelo://app?vid=5827acd2-19b0-45a4-977e-251b81b3da50","ios":"levelo://app?vid=5827acd2-19b0-45a4-977e-251b81b3da50"},"vehicle_type_id":"4","last_reported":1743793670,"current_range_meters":14400,"station_id":"ce4bh2h2rcd13ifvqdh0","pricing_plan_id":"cebpf4jnsgd1na2vs0mg"},{"bike_id":"921ba7f4-82a5-49c2-b0c0-a5e606ce0136","system_id":"levelo_inurba_marseille","lat":43.29261,"lon":5.38438,"is_reserved":false,"is_disabled":false,"rental_uris":{"android":"levelo://app?vid=921ba7f4-82a5-49c2-b0c0-a5e606ce0136","ios":"levelo://app?vid=921ba7f4-82a5-49c2-b0c0-a5e606ce0136"},"vehicle_type_id":"4","last_reported":1743793670,"current_range_meters":14400,"station_id":"ce4bh692rcd13ifvqea0","pricing_plan_id":"cebpf4jnsgd1na2vs0mg"},{"bike_id":"472b9d92-ab75-4647-a1c8-feef744c63b0","system_id":"levelo_inurba_marseille","lat":43.2903,"lon":5.38645,"is_reserved":false,"is_disabled":false,"rental_uris":{"android":"levelo://app?vid=472b9d92-ab75-4647-a1c8-feef744c63b0","ios":"levelo://app?vid=472b9d92-ab75-4647-a1c8-feef744c63b0"},"vehicle_type_id":"4","last_reported":1743793670,"current_range_meters":14400,"station_id":"ce4bh4p2rcd13ifvqe0g","pricing_plan_id":"cebpf4jnsgd1na2vs0mg"},{"bike_id":"04ed6834-c5a2-4c58-a3e9-addc0e80384b","system_id":"levelo_inurba_marseille","lat":43.29598,"lon":5.37718,"is_reserved":false,"is_disabled":false,"rental_uris":{"android":"levelo://app?vid=04ed6834-c5a2-4c58-a3e9-addc0e80384b","ios":"levelo://app?vid=04ed6834-c5a2-4c58-a3e9-addc0e80384b"},"vehicle_type_id":"4","last_reported":1743793670,"current_range_meters":14400,"station_id":"ce4bgi92rcd13ifvqb90","pricing_plan_id":"cebpf4jnsgd1na2vs0mg"},{"bike_id":"f34546ba-bbe3-4f1a-9318-e2256d18e3ce","system_id":"levelo_inurba_marseille","lat":43.28411,"lon":5.34993,"is_reserved":false,"is_disabled":false,"rental_uris":{"android":"levelo://app?vid=f34546ba-bbe3-4f1a-9318-e2256d18e3ce","ios":"levelo://app?vid=f34546ba-bbe3-4f1a-9318-e2256d18e3ce"},"vehicle_type_id":"4","last_reported":1743793670,"current_range_meters":14400,"station_id":"ce4bhbh2rcd13ifvqepg","pricing_plan_id":"cebpf4jnsgd1na2vs0mg"},{"bike_id":"57ab7f45-a5cd-466b-8b11-11cb11587816","system_id":"levelo_inurba_marseille","lat":43.29277,"lon":5.38436,"is_reserved":false,"is_disabled":false,"rental_uris":{"android":"levelo://app?vid=57ab7f45-a5cd-466b-8b11-11cb11587816","ios":"levelo://app?vid=57ab7f45-a5cd-466b-8b11-11cb11587816"},"vehicle_type_id":"4","last_reported":1743793670,"current_range_meters":14400,"station_id":"ce4bh692rcd13ifvqea0","pricing_plan_id":"cebpf4jnsgd1na2vs0mg"},{"bike_id":"68e6a3e3-19ca-457b-baef-a7a456e3f3f2","system_id":"levelo_inurba_marseille","lat":43.29307,"lon":5.37179,"is_reserved":false,"is_disabled":false,"rental_uris":{"android":"levelo://app?vid=68e6a3e3-19ca-457b-baef-a7a456e3f3f2","ios":"levelo://app?vid=68e6a3e3-19ca-457b-baef-a7a456e3f3f2"},"vehicle_type_id":"4","last_reported":1743793670,"current_range_meters":14400,"station_id":"ce4bgh92rcd13ifvqb40","pricing_plan_id":"cebpf4jnsgd1na2vs0mg"},{"bike_id":"ad5ba5ed-cd38-4b09-b5c1-56e41805904c","system_id":"levelo_inurba_marseille","lat":43.29278,"lon":5.36848,"is_reserved":false,"is_disabled":false,"rental_uris":{"android":"levelo://app?vid=ad5ba5ed-cd38-4b09-b5c1-56e41805904c","ios":"levelo://app?vid=ad5ba5ed-cd38-4b09-b5c1-56e41805904c"},"vehicle_type_id":"4","last_reported":1743793670,"current_range_meters":14400,"station_id":"ce4bhbp2rcd13ifvqesg","pricing_plan_id":"cebpf4jnsgd1na2vs0mg"},{"bike_id":"4c364a14-a14f-4fad-ae4a-d1fa8696b548","system_id":"levelo_inurba_marseille","lat":43.25117,"lon":5.40321,"is_reserved":false,"is_disabled":true,"rental_uris":{"android":"levelo://app?vid=4c364a14-a14f-4fad-ae4a-d1fa8696b548","ios":"levelo://app?vid=4c364a14-a14f-4fad-ae4a-d1fa8696b548"},"vehicle_type_id":"4","last_reported":1743793670,"current_range_meters":14400,"station_id":"ce4bhlh2rcd13ifvqgig","pricing_plan_id":"cebpf4jnsgd1na2vs0mg"},{"bike_id":"e0025ce5-fe29-4293-8000-c88ee2bac657","system_id":"levelo_inurba_marseille","lat":43.31456,"lon":5.39214,"is_reserved":false,"is_disabled":false,"rental_uris":{"android":"levelo://app?vid=e0025ce5-fe29-4293-8000-c88ee2bac657","ios":"levelo://app?vid=e0025ce5-fe29-4293-8000-c88ee2bac657"},"vehicle_type_id":"4","last_reported":1743793670,"current_range_meters":14400,"station_id":"","pricing_plan_id":"cebpf4jnsgd1na2vs0mg"},{"bike_id":"93a5f900-5195-446b-87b9-61c9ad7dedd0","system_id":"levelo_inurba_marseille","lat":43.29424,"lon":5.38615,"is_reserved":false,"is_disabled":false,"rental_uris":{"android":"levelo://app?vid=93a5f900-5195-446b-87b9-61c9ad7dedd0","ios":"levelo://app?vid=93a5f900-5195-446b-87b9-61c9ad7dedd0"},