{"last_updated":1748556610,"ttl":60,"version":"2.2","data":{"bikes":[{"bike_id":"55d42eeb-6b71-4987-a0f2-3d758b10d43e","system_id":"levelo_inurba_marseille","lat":43.33771,"lon":5.37424,"is_reserved":false,"is_disabled":true,"rental_uris":{"android":"levelo://app?vid=55d42eeb-6b71-4987-a0f2-3d758b10d43e","ios":"levelo://app?vid=55d42eeb-6b71-4987-a0f2-3d758b10d43e"},"vehicle_type_id":"4","last_reported":1748556610,"current_range_meters":0,"station_id":"","pricing_plan_id":"cebpf4jnsgd1na2vs0mg"},{"bike_id":"b0e2300b-cafc-4d59-b30f-70aae6a0084c","system_id":"levelo_inurba_marseille","lat":43.30043,"lon":5.40171,"is_reserved":false,"is_disabled":true,"rental_uris":{"android":"levelo://app?vid=b0e2300b-cafc-4d59-b30f-70aae6a0084c","ios":"levelo://app?vid=b0e2300b-cafc-4d59-b30f-70aae6a0084c"},"vehicle_type_id":"4","last_reported":1748556610,"current_range_meters":0,"station_id":"","pricing_plan_id":"cebpf4jnsgd1na2vs0mg"},{"bike_id":"b7fe4621-b706-42f0-9085-4811142f84e8","system_id":"levelo_inurba_marseille","lat":43.337499,"lon":5.374469,"is_reserved":false,"is_disabled":true,"rental_uris":{"android":"levelo://app?vid=b7fe4621-b706-42f0-9085-4811142f84e8","ios":"levelo://app?vid=b7fe4621-b706-42f0-9085-4811142f84e8"},"vehicle_type_id":"4","last_reported":1748556610,"current_range_meters":0,"station_id":"","pricing_plan_id":"cebpf4jnsgd1na2vs0mg"},{"bike_id":"026ed65d-07ee-4955-b98a-dcd4f8ac417e","system_id":"levelo_inurba_marseille","lat":43.217856,"lon":5.345808,"is_reserved":false,"is_disabled":true,"rental_uris":{"android":"levelo://app?vid=026ed65d-07ee-4955-b98a-dcd4f8ac417e","ios":"levelo://app?vid=026ed65d-07ee-4955-b98a-dcd4f8ac417e"},"vehicle_type_id":"4","last_reported":1748556610,"current_range_meters":0,"station_id":"","pricing_plan_id":"cebpf4jnsgd1na2vs0mg"},{"bike_id":"ad402f0f-3192-410c-afac-8cf064a40c6d","system_id":"levelo_inurba_marseille","lat":43.337444,"lon":5.374475,"is_reserved":false,"is_disabled":true,"rental_uris":{"android":"levelo://app?vid=ad402f0f-3192-410c-afac-8cf064a40c6d","ios":"levelo://app?vid=ad402f0f-3192-410c-afac-8cf064a40c6d"},"vehicle_type_id":"4","last_reported":1748556610,"current_range_meters":0,"station_id":"","pricing_plan_id":"cebpf4jnsgd1na2vs0mg"},{"bike_id":"64fceeed-f4e8-40df-995a-9a2b05abc560","system_id":"levelo_inurba_marseille","lat":43.32545,"lon":5.42981,"is_reserved":false,"is_disabled":true,"rental_uris":{"android":"levelo://app?vid=64fceeed-f4e8-40df-995a-9a2b05abc560","ios":"levelo://app?vid=64fceeed-f4e8-40df-995a-9a2b05abc560"},"vehicle_type_id":"4","last_reported":1748556610,"current_range_meters":0,"station_id":"","pricing_plan_id":"cebpf4jnsgd1na2vs0mg"},{"bike_id":"905911a0-7b6f-416a-b65c-aec34d47998b","system_id":"levelo_inurba_marseille","lat":43.29766,"lon":5.38108,"is_reserved":false,"is_disabled":true,"rental_uris":{"android":"levelo://app?vid=905911a0-7b6f-416a-b65c-aec34d47998b","ios":"levelo://app?vid=905911a0-7b6f-416a-b65c-aec34d47998b"},"vehicle_type_id":"4","last_reported":1748556610,"current_range_meters":0,"station_id":"","pricing_plan_id":"cebpf4jnsgd1na2vs0mg"},{"bike_id":"80dc1064-d63f-4a22-ad21-d8abd70986c0","system_id":"levelo_inurba_marseille","lat":43.33748,"lon":5.374748,"is_reserved":false,"is_disabled":true,"rental_uris":{"android":"levelo://app?vid=80dc1064-d63f-4a22-ad21-d8abd70986c0","ios":"levelo://app?vid=80dc1064-d63f-4a22-ad21-d8abd70986c0"},"vehicle_type_id":"4","last_reported":1748556610,"current_range_meters":0,"station_id":"","pricing_plan_id":"cebpf4jnsgd1na2vs0mg"},{"bike_id":"528e54e0-df6b-40ef-9929-2e4f1ee5a533","system_id":"levelo_inurba_marseille","lat":43.29419,"lon":5.38212,"is_reserved":false,"is_disabled":true,"rental_uris":{"android":"levelo://app?vid=528e54e0-df6b-40ef-9929-2e4f1ee5a533","ios":"levelo://app?vid=528e54e0-df6b-40ef-9929-2e4f1ee5a533"},"vehicle_type_id":"4","last_reported":1748556610,"current_range_meters":0,"station_id":"","pricing_plan_id":"cebpf4jnsgd1na2vs0mg"},{"bike_id":"8cbecde8-255a-4a8d-86be-d8f1082ae579","system_id":"levelo_inurba_marseille","lat":43.28717,"lon":5.37293,"is_reserved":false,"is_disabled":true,"rental_uris":{"android":"levelo://app?vid=8cbecde8-255a-4a8d-86be-d8f1082ae579","ios":"levelo://app?vid=8cbecde8-255a-4a8d-86be-d8f1082ae579"},"vehicle_type_id":"4","last_reported":1748556610,"current_range_meters":0,"station_id":"","pricing_plan_id":"cebpf4jnsgd1na2vs0mg"},{"bike_id":"987b70df-a246-4bbc-966b-0c7b3f4b7350","system_id":"levelo_inurba_marseille","lat":43.28234,"lon":5.39068,"is_reserved":false,"is_disabled":true,"rental_uris":{"android":"levelo://app?vid=987b70df-a246-4bbc-966b-0c7b3f4b7350","ios":"levelo://app?vid=987b70df-a246-4bbc-966b-0c7b3f4b7350"},"vehicle_type_id":"4","last_reported":1748556610,"current_range_meters":0,"station_id":"","pricing_plan_id":"cebpf4jnsgd1na2vs0mg"},{"bike_id":"2fd7e160-685c-4858-b57b-dcaef27a8e94","system_id":"levelo_inurba_marseille","lat":43.230331,"lon":5.401847,"is_reserved":false,"is_disabled":true,"rental_uris":{"android":"levelo://app?vid=2fd7e160-685c-4858-b57b-dcaef27a8e94","ios":"levelo://app?vid=2fd7e160-685c-4858-b57b-dcaef27a8e94"},"vehicle_type_id":"4","last_reported":1748556610,"current_range_meters":0,"station_id":"","pricing_plan_id":"cebpf4jnsgd1na2vs0mg"},{"bike_id":"2c08f058-11cb-4c96-b63a-5cf20fe05e84","system_id":"levelo_inurba_marseille","lat":43.3014,"lon":5.38784,"is_reserved":false,"is_disabled":true,"rental_uris":{"android":"levelo://app?vid=2c08f058-11cb-4c96-b63a-5cf20fe05e84","ios":"levelo://app?vid=2c08f058-11cb-4c96-b63a-5cf20fe05e84"},"vehicle_type_id":"4","last_reported":1748556610,"current_range_meters":0,"station_id":"ce4bghh2rcd13ifvqb60","pricing_plan_id":"cebpf4jnsgd1na2vs0mg"},{"bike_id":"d82c13a1-71a7-41db-94f0-486530ab630d","system_id":"levelo_inurba_marseille","lat":43.29254,"lon":5.37622,"is_reserved":false,"is_disabled":true,"rental_uris":{"android":"levelo://app?vid=d82c13a1-71a7-41db-94f0-486530ab630d","ios":"levelo://app?vid=d82c13a1-71a7-41db-94f0-486530ab630d"},"vehicle_type_id":"4","last_reported":1748556610,"current_range_meters":0,"station_id":"ce4bgi12rcd13ifvqb80","pricing_plan_id":"cebpf4jnsgd1na2vs0mg"},{"bike_id":"0c85def2-060b-49d7-8401-a891af724a60","system_id":"levelo_inurba_marseille","lat":43.30322,"lon":5.40427,"is_reserved":false,"is_disabled":true,"rental_uris":{"android":"levelo://app?vid=0c85def2-060b-49d7-8401-a891af724a60","ios":"levelo://app?vid=0c85def2-060b-49d7-8401-a891af724a60"},"vehicle_type_id":"4","last_reported":1748556610,"current_range_meters":0,"station_id":"ce4bh012rcd13ifvqd10","pricing_plan_id":"cebpf4jnsgd1na2vs0mg"},{"bike_id":"d2109634-a7ba-474f-9ad6-fb422b2ced0d","system_id":"levelo_inurba_marseille","lat":43.29624,"lon":5.40587,"is_reserved":false,"is_disabled":true,"rental_uris":{"android":"levelo://app?vid=d2109634-a7ba-474f-9ad6-fb422b2ced0d","ios":"levelo://app?vid=d2109634-a7ba-474f-9ad6-fb422b2ced0d"},"vehicle_type_id":"4","last_reported":1748556610,"current_range_meters":0,"station_id":"ce4bh0h2rcd13ifvqd60","pricing_plan_id":"cebpf4jnsgd1na2vs0mg"},{"bike_id":"5838f425-c610-4291-afc9-11f5b6241c4b","system_id":"levelo_inurba_marseille","lat":43.28482,"lon":5.38416,"is_reserved":false,"is_disabled":true,"rental_uris":{"android":"levelo://app?vid=5838f425-c610-4291-afc9-11f5b6241c4b","ios":"levelo://app?vid=5838f425-c610-4291-afc9-11f5b6241c4b"},"vehicle_type_id":"4","last_reported":1748556610,"current_range_meters":0,"station_id":"ce4bh512rcd13ifvqe3g","pricing_plan_id":"cebpf4jnsgd1na2vs0mg"},{"bike_id":"74d03a7f-e646-4519-9f75-ee5a39fcc825","system_id":"levelo_inurba_marseille","lat":43.30374,"lon":5.42481,"is_reserved":false,"is_disabled":true,"rental_uris":{"android":"levelo://app?vid=74d03a7f-e646-4519-9f75-ee5a39fcc825","ios":"levelo://app?vid=74d03a7f-e646-4519-9f75-ee5a39fcc825"},"vehicle_type_id":"4","last_reported":1748556610,"current_range_meters":0,"station_id":"ce4bhoh2rcd13ifvqh6g","pricing_plan_id":"cebpf4jnsgd1na2vs0mg"},{"bike_id":"cd018a14-e83d-4d40-ac42-b66ab9d8e9cc","system_id":"levelo_inurba_marseille","lat":43.2252,"lon":5.34827,"is_reserved":false,"is_disabled":true,"rental_uris":{"android":"levelo://app?vid=cd018a14-e83d-4d40-ac42-b66ab9d8e9cc","ios":"levelo://app?vid=cd018a14-e83d-4d40-ac42-b66ab9d8e9cc"},"vehicle_type_id":"4","last_reported":1748556610,"current_range_meters":0,"station_id":"st_cvj5dfep6f1abm77gieg","pricing_plan_id":"cebpf4jnsgd1na2vs0mg"},{"bike_id":"180e4da0-00a9-4461-bfd1-11630824fb3b","system_id":"levelo_inurba_marseille","lat":43.24329,"lon":5.40162,"is_reserved":false,"is_disabled":true,"rental_uris":{"android":"levelo://app?vid=180e4da0-00a9-4461-bfd1-11630824fb3b","ios":"levelo://app?vid=180e4da0-00a9-4461-bfd1-11630824fb3b"},"vehicle_type_id":"4","last_reported":1748556610,"current_range_meters":400,"station_id":"","pricing_plan_id":"cebpf4jnsgd1na2vs0mg"},{"bike_id":"5215640d-2fd5-4a51-af38-ba665e8ec76a","system_id":"levelo_inurba_marseille","lat":43.32595,"lon":5.43069,"is_reserved":false,"is_disabled":true,"rental_uris":{"android":"levelo://app?vid=5215640d-2fd5-4a51-af38-ba665e8ec76a","ios":"levelo://app?vid=5215640d-2fd5-4a51-af38-ba665e8ec76a"},"vehicle_type_id":"4","last_reported":1748556610,"current_range_meters":800,"station_id":"","pricing_plan_id":"cebpf4jnsgd1na2vs0mg"},{"bike_id":"c7287d8d-0a40-4fbb-810b-4f61245d0189","system_id":"levelo_inurba_marseille","lat":43.29983,"lon":5.37168,"is_reserved":false,"is_disabled":true,"rental_uris":{"android":"levelo://app?vid=c7287d8d-0a40-4fbb-810b-4f61245d0189","ios":"levelo://app?vid=c7287d8d-0a40-4fbb-810b-4f61245d0189"},"vehicle_type_id":"4","last_reported":1748556610,"current_range_meters":800,"station_id":"ce4bgr92rcd13ifvqc7g","pricing_plan_id":"cebpf4jnsgd1na2vs0mg"},{"bike_id":"4165355b-7fd5-4f4d-bebd-4b5d510681db","system_id":"levelo_inurba_marseille","lat":43.25583,"lon":5.38231,"is_reserved":false,"is_disabled":true,"rental_uris":{"android":"levelo://app?vid=4165355b-7fd5-4f4d-bebd-4b5d510681db","ios":"levelo://app?vid=4165355b-7fd5-4f4d-bebd-4b5d510681db"},"vehicle_type_id":"4","last_reported":1748556610,"current_range_meters":800,"station_id":"ce4bhih2rcd13ifvqfs0","pricing_plan_id":"cebpf4jnsgd1na2vs0mg"},{"bike_id":"0f265ce4-d8bb-4ee7-990f-abbf9b8888a7","system_id":"levelo_inurba_marseille","lat":43.28236,"lon":5.39045,"is_reserved":false,"is_disabled":true,"rental_uris":{"android":"levelo://app?vid=0f265ce4-d8bb-4ee7-990f-abbf9b8888a7","ios":"levelo://app?vid=0f265ce4-d8bb-4ee7-990f-abbf9b8888a7"},"vehicle_type_id":"4","last_reported":1748556610,"current_range_meters":1200,"station_id":"","pricing_plan_id":"cebpf4jnsgd1na2vs0mg"},{"bike_id":"d0a04ac1-1039-448d-8fdd-884e88f4f7bf","system_id":"levelo_inurba_marseille","lat":43.29531,"lon":5.38537,"is_reserved":false,"is_disabled":true,"rental_uris":{"android":"levelo://app?vid=d0a04ac1-1039-448d-8fdd-884e88f4f7bf","ios":"levelo://app?vid=d0a04ac1-1039-448d-8fdd-884e88f4f7bf"},"vehicle_type_id":"4","last_reported":1748556610,"current_range_meters":1200,"station_id":"ce4bgih2rcd13ifvqba0","pricing_plan_id":"cebpf4jnsgd1na2vs0mg"},{"bike_id":"d90baf97-e6b3-4c48-bcd2-63bc44243da4","system_id":"levelo_inurba_marseille","lat":43.21651,"lon":5.34309,"is_reserved":false,"is_disabled":true,"rental_uris":{"android":"levelo://app?vid=d90baf97-e6b3-4c48-bcd2-63bc44243da4","ios":"levelo://app?vid=d90baf97-e6b3-4c48-bcd2-63bc44243da4"},"vehicle_type_id":"4","last_reported":1748556610,"current_range_meters":2000,"station_id":"","pricing_plan_id":"cebpf4jnsgd1na2vs0mg"},{"bike_id":"ee868192-5c15-4843-ac7a-4bf077e9c22d","system_id":"levelo_inurba_marseille","lat":43.32571,"lon":5.43084,"is_reserved":false,"is_disabled":true,"rental_uris":{"android":"levelo://app?vid=ee868192-5c15-4843-ac7a-4bf077e9c22d","ios":"levelo://app?vid=ee868192-5c15-4843-ac7a-4bf077e9c22d"},"vehicle_type_id":"4","last_reported":1748556610,"current_range_meters":2000,"station_id":"","pricing_plan_id":"cebpf4jnsgd1na2vs0mg"},{"bike_id":"e4cf96f7-9b4d-4e4c-a9f6-1ab4ab98919b","system_id":"levelo_inurba_marseille","lat":43.289823,"lon":5.381516,"is_reserved":false,"is_disabled":false,"rental_uris":{"android":"levelo://app?vid=e4cf96f7-9b4d-4e4c-a9f6-1ab4ab98919b","ios":"levelo://app?vid=e4cf96f7-9b4d-4e4c-a9f6-1ab4ab98919b"},"vehicle_type_id":"4","last_reported":1748556610,"current_range_meters":3200,"station_id":"ce4bgkh2rcd13ifvqbk0","pricing_plan_id":"cebpf4jnsgd1na2vs0mg"},{"bike_id":"61e5ccb5-718d-4b82-ba49-0829a90b1a4f","system_id":"levelo_inurba_marseille","lat":43.2869,"lon":5.38656,"is_reserved":false,"is_disabled":false,"rental_uris":{"android":"levelo://app?vid=61e5ccb5-718d-4b82-ba49-0829a90b1a4f","ios":"levelo://app?vid=61e5ccb5-718d-4b82-ba49-0829a90b1a4f"},"vehicle_type_id":"4","last_reported":1748556610,"current_range_meters":3200,"station_id":"ce4bh492rcd13ifvqdug","pricing_plan_id":"cebpf4jnsgd1na2vs0mg"},{"bike_id":"7cbd82b7-fb66-41f5-a7be-e140e2d9e61f","system_id":"levelo_inurba_marseille","lat":43.27173,"lon":5.40992,"is_reserved":false,"is_disabled":false,"rental_uris":{"android":"levelo://app?vid=7cbd82b7-fb66-41f5-a7be-e140e2d9e61f","ios":"levelo://app?vid=7cbd82b7-fb66-41f5-a7be-e140e2d9e61f"},"vehicle_type_id":"4","last_reported":1748556610,"current_range_meters":3200,"station_id":"ce4bhl12rcd13ifvqgf0","pricing_plan_id":"cebpf4jnsgd1na2vs0mg"},{"bike_id":"3f0441b1-6cb6-41fd-b679-f454d34b2118","system_id":"levelo_inurba_marseille","lat":43.211984,"lon":5.350616,"is_reserved":false,"is_disabled":false,"rental_uris":{"android":"levelo://app?vid=3f0441b1-6cb6-41fd-b679-f454d34b2118","ios":"levelo://app?vid=3f0441b1-6cb6-41fd-b679-f454d34b2118"},"vehicle_type_id":"4","last_reported":1748556610,"current_range_meters":3600,"station_id":"st_cvj6sg6p6f1abm77japg","pricing_plan_id":"cebpf4jnsgd1na2vs0mg"},{"bike_id":"6d7cfdcd-f061-4eee-b4e5-78d9b6729328","system_id":"levelo_inurba_marseille","lat":43.33003,"lon":5.43829,"is_reserved":false,"is_disabled":false,"rental_uris":{"android":"levelo://app?vid=6d7cfdcd-f061-4eee-b4e5-78d9b6729328","ios":"levelo://app?vid=6d7cfdcd-f061-4eee-b4e5-78d9b6729328"},"vehicle_type_id":"4","last_reported":1748556610,"current_range_meters":4000,"station_id":"","pricing_plan_id":"cebpf4jnsgd1na2vs0mg"},{"bike_id":"c0c5027f-c041-4b12-acfa-e6b17680071b","system_id":"levelo_inurba_marseille","lat":43.23802,"lon":5.43577,"is_reserved":false,"is_disabled":false,"rental_uris":{"android":"levelo://app?vid=c0c5027f-c041-4b12-acfa-e6b17680071b","ios":"levelo://app?vid=c0c5027f-c041-4b12-acfa-e6b17680071b"},"vehicle_type_id":"4","last_reported":1748556610,"current_range_meters":4400,"station_id":"","pricing_plan_id":"cebpf4jnsgd1na2vs0mg"},{"bike_id":"9a869239-5672-4a55-9235-38d7bbe8293b","system_id":"levelo_inurba_marseille","lat":43.32579,"lon":5.43075,"is_reserved":false,"is_disabled":false,"rental_uris":{"android":"levelo://app?vid=9a869239-5672-4a55-9235-38d7bbe8293b","ios":"levelo://app?vid=9a869239-5672-4a55-9235-38d7bbe8293b"},"vehicle_type_id":"4","last_reported":1748556610,"current_range_meters":4400,"station_id":"","pricing_plan_id":"cebpf4jnsgd1na2vs0mg"},{"bike_id":"6a9e48ef-7e8c-4253-806d-60ce1a84d149","system_id":"levelo_inurba_marseille","lat":43.29527,"lon":5.38538,"is_reserved":false,"is_disabled":false,"rental_uris":{"android":"levelo://app?vid=6a9e48ef-7e8c-4253-806d-60ce1a84d149","ios":"levelo://app?vid=6a9e48ef-7e8c-4253-806d-60ce1a84d149"},"vehicle_type_id":"4","last_reported":1748556610,"current_range_meters":4400,"station_id":"ce4bgih2rcd13ifvqba0","pricing_plan_id":"cebpf4jnsgd1na2vs0mg"},{"bike_id":"cab46264-38dd-46be-b8b4-cda3ff417e21","system_id":"levelo_inurba_marseille","lat":43.31225,"lon":5.3686,"is_reserved":false,"is_disabled":false,"rental_uris":{"android":"levelo://app?vid=cab46264-38dd-46be-b8b4-cda3ff417e21","ios":"levelo://app?vid=cab46264-38dd-46be-b8b4-cda3ff417e21"},"vehicle_type_id":"4","last_reported":1748556610,"current_range_meters":4400,"station_id":"ce4bgl92rcd13ifvqbq0","pricing_plan_id":"cebpf4jnsgd1na2vs0mg"},{"bike_id":"c6e0c180-aa6d-49e2-9c8b-018433f5b42d","system_id":"levelo_inurba_marseille","lat":43.25581,"lon":5.38227,"is_reserved":false,"is_disabled":false,"rental_uris":{"android":"levelo://app?vid=c6e0c180-aa6d-49e2-9c8b-018433f5b42d","ios":"levelo://app?vid=c6e0c180-aa6d-49e2-9c8b-018433f5b42d"},"vehicle_type_id":"4","last_reported":1748556610,"current_range_meters":4400,"station_id":"ce4bhih2rcd13ifvqfs0","pricing_plan_id":"cebpf4jnsgd1na2vs0mg"},{"bike_id":"b285fb1b-6c34-40e0-9288-6425549f53b8","system_id":"levelo_inurba_marseille","lat":43.24549,"lon":5.3952,"is_reserved":false,"is_disabled":false,"rental_uris":{"android":"levelo://app?vid=b285fb1b-6c34-40e0-9288-6425549f53b8","ios":"levelo://app?vid=b285fb1b-6c34-40e0-9288-6425549f53b8"},"vehicle_type_id":"4","last_reported":1748556610,"current_range_meters":4400,"station_id":"ce4bhlp2rcd13ifvqgjg","pricing_plan_id":"cebpf4jnsgd1na2vs0mg"},{"bike_id":"40144e4e-b1ef-49c2-adc2-0f16c21476b6","system_id":"levelo_inurba_marseille","lat":43.3302,"lon":5.39057,"is_reserved":false,"is_disabled":false,"rental_uris":{"android":"levelo://app?vid=40144e4e-b1ef-49c2-adc2-0f16c21476b6","ios":"levelo://app?vid=40144e4e-b1ef-49c2-adc2-0f16c21476b6"},"vehicle_type_id":"4","last_reported":1748556610,"current_range_meters":4400,"station_id":"ce4bhr92rcd13ifvqhrg","pricing_plan_id":"cebpf4jnsgd1na2vs0mg"},{"bike_id":"497ec4a5-8002-40cf-b66d-3b629c958e7f","system_id":"levelo_inurba_marseille","lat":43.29177,"lon":5.39977,"is_reserved":false,"is_disabled":false,"rental_uris":{"android":"levelo://app?vid=497ec4a5-8002-40cf-b66d-3b629c958e7f","ios":"levelo://app?vid=497ec4a5-8002-40cf-b66d-3b629c958e7f"},"vehicle_type_id":"4","last_reported":1748556610,"current_range_meters":4800,"station_id":"","pricing_plan_id":"cebpf4jnsgd1na2vs0mg"},{"bike_id":"1eed49fb-ce64-4ebd-9903-7d87835a2ccf","system_id":"levelo_inurba_marseille","lat":43.29776,"lon":5.45979,"is_reserved":false,"is_disabled":false,"rental_uris":{"android":"levelo://app?vid=1eed49fb-ce64-4ebd-9903-7d87835a2ccf","ios":"levelo://app?vid=1eed49fb-ce64-4ebd-9903-7d87835a2ccf"},"vehicle_type_id":"4","last_reported":1748556610,"current_range_meters":5600,"station_id":"","pricing_plan_id":"cebpf4jnsgd1na2vs0mg"},{"bike_id":"119c7c38-f3ab-4f59-97b4-c8f46a504142","system_id":"levelo_inurba_marseille","lat":43.299023,"lon":5.436654,"is_reserved":false,"is_disabled":false,"rental_uris":{"android":"levelo://app?vid=119c7c38-f3ab-4f59-97b4-c8f46a504142","ios":"levelo://app?vid=119c7c38-f3ab-4f59-97b4-c8f46a504142"},"vehicle_type_id":"4","last_reported":1748556610,"current_range_meters":5600,"station_id":"ce4bhpp2rcd13ifvqhfg","pricing_plan_id":"cebpf4jnsgd1na2vs0mg"},{"bike_id":"99c28eb1-caee-433f-99f2-c397e9a6a068","system_id":"levelo_inurba_marseille","lat":43.26557,"lon":5.37276,"is_reserved":false,"is_disabled":false,"rental_uris":{"android":"levelo://app?vid=99c28eb1-caee-433f-99f2-c397e9a6a068","ios":"levelo://app?vid=99c28eb1-caee-433f-99f2-c397e9a6a068"},"vehicle_type_id":"4","last_reported":1748556610,"current_range_meters":6000,"station_id":"ce4bhg12rcd13ifvqf70","pricing_plan_id":"cebpf4jnsgd1na2vs0mg"},{"bike_id":"21269a47-fc82-4c15-9854-941f461a9d86","system_id":"levelo_inurba_marseille","lat":43.2481,"lon":5.37444,"is_reserved":false,"is_disabled":false,"rental_uris":{"android":"levelo://app?vid=21269a47-fc82-4c15-9854-941f461a9d86","ios":"levelo://app?vid=21269a47-fc82-4c15-9854-941f461a9d86"},"vehicle_type_id":"4","last_reported":1748556610,"current_range_meters":6000,"station_id":"ce4bhgh2rcd13ifvqfb0","pricing_plan_id":"cebpf4jnsgd1na2vs0mg"},{"bike_id":"7bc7d243-ed5b-4c60-8e63-df4e7708939c","system_id":"levelo_inurba_marseille","lat":43.30376,"lon":5.42487,"is_reserved":false,"is_disabled":false,"rental_uris":{"android":"levelo://app?vid=7bc7d243-ed5b-4c60-8e63-df4e7708939c","ios":"levelo://app?vid=7bc7d243-ed5b-4c60-8e63-df4e7708939c"},"vehicle_type_id":"4","last_reported":1748556610,"current_range_meters":6000,"station_id":"ce4bhoh2rcd13ifvqh6g","pricing_plan_id":"cebpf4jnsgd1na2vs0mg"},{"bike_id":"23c85c8e-4c43-4b2c-9f21-d3b371c82943","system_id":"levelo_inurba_marseille","lat":43.21748,"lon":5.34602,"is_reserved":false,"is_disabled":false,"rental_uris":{"android":"levelo://app?vid=23c85c8e-4c43-4b2c-9f21-d3b371c82943","ios":"levelo://app?vid=23c85c8e-4c43-4b2c-9f21-d3b371c82943"},"vehicle_type_id":"4","last_reported":1748556610,"current_range_meters":6000,"station_id":"st_cvj6r9ubvosntc0bgbag","pricing_plan_id":"cebpf4jnsgd1na2vs0mg"},{"bike_id":"7f6b38d0-dcd2-4848-86a0-7b44e451f43f","system_id":"levelo_inurba_marseille","lat":43.27694,"lon":5.41533,"is_reserved":false,"is_disabled":false,"rental_uris":{"android":"levelo://app?vid=7f6b38d0-dcd2-4848-86a0-7b44e451f43f","ios":"levelo://app?vid=7f6b38d0-dcd2-4848-86a0-7b44e451f43f"},"vehicle_type_id":"4","last_reported":1748556610,"current_range_meters":6400,"station_id":"","pricing_plan_id":"cebpf4jnsgd1na2vs0mg"},{"bike_id":"1a1dac5e-0e0a-42cb-be45-3d31548d3c60","system_id":"levelo_inurba_marseille","lat":43.30435,"lon":5.38889,"is_reserved":false,"is_disabled":false,"rental_uris":{"android":"levelo://app?vid=1a1dac5e-0e0a-42cb-be45-3d31548d3c60","ios":"levelo://app?vid=1a1dac5e-0e0a-42cb-be45-3d31548d3c60"},"vehicle_type_id":"4","last_reported":1748556610,"current_range_meters":6400,"station_id":"ce4bgk12rcd13ifvqbi0","pricing_plan_id":"cebpf4jnsgd1na2vs0mg"},{"bike_id":"c1c51125-b169-41b9-b7df-e87ff78b4aea","system_id":"levelo_inurba_marseille","lat":43.2625,"lon":5.40428,"is_reserved":false,"is_disabled":false,"rental_uris":{"android":"levelo://app?vid=c1c51125-b169-41b9-b7df-e87ff78b4aea","ios":"levelo://app?vid=c1c51125-b169-41b9-b7df-e87ff78b4aea"},"vehicle_type_id":"4","last_reported":1748556610,"current_range_meters":6400,"station_id":"ce4bhmh2rcd13ifvqgmg","pricing_plan_id":"cebpf4jnsgd1na2vs0mg"},{"bike_id":"3a0c6dba-4343-4405-897f-f0554194b481","system_id":"levelo_inurba_marseille","lat":43.30349,"lon":5.41872,"is_reserved":false,"is_disabled":false,"rental_uris":{"android":"levelo://app?vid=3a0c6dba-4343-4405-897f-f0554194b481","ios":"levelo://app?vid=3a0c6dba-4343-4405-897f-f0554194b481"},"vehicle_type_id":"4","last_reported":1748556610,"current_range_meters":6400,"station_id":"ce4bhop2rcd13ifvqh7g","pricing_plan_id":"cebpf4jnsgd1na2vs0mg"},{"bike_id":"c006505c-40ec-4dbb-8fb7-e9d75b9aa51f","system_id":"levelo_inurba_marseille","lat":43.33155,"lon":5.38158,"is_reserved":false,"is_disabled":false,"rental_uris":{"android":"levelo://app?vid=c006505c-40ec-4dbb-8fb7-e9d75b9aa51f","ios":"levelo://app?vid=c006505c-40ec-4dbb-8fb7-e9d75b9aa51f"},"vehicle_type_id":"4","last_reported":1748556610,"current_range_meters":6800,"station_id":"","pricing_plan_id":"cebpf4jnsgd1na2vs0mg"},{"bike_id":"2f650bb1-6027-4191-83d2-16315820a0a7","system_id":"levelo_inurba_marseille","lat":43.29995,"lon":5.37368,"is_reserved":false,"is_disabled":false,"rental_uris":{"android":"levelo://app?vid=2f650bb1-6027-4191-83d2-16315820a0a7","ios":"levelo://app?vid=2f650bb1-6027-4191-83d2-16315820a0a7"},"vehicle_type_id":"4","last_reported":1748556610,"current_range_meters":6800,"station_id":"","pricing_plan_id":"cebpf4jnsgd1na2vs0mg"},{"bike_id":"5da679d6-c7c7-4888-99cc-a2fafb45b79e","system_id":"levelo_inurba_marseille","lat":43.31715,"lon":5.37735,"is_reserved":false,"is_disabled":false,"rental_uris":{"android":"levelo://app?vid=5da679d6-c7c7-4888-99cc-a2fafb45b79e","ios":"levelo://app?vid=5da679d6-c7c7-4888-99cc-a2fafb45b79e"},"vehicle_type_id":"4","last_reported":1748556610,"current_range_meters":6800,"station_id":"ce4bgth2rcd13ifvqch0","pricing_plan_id":"cebpf4jnsgd1na2vs0mg"},{"bike_id":"6113551a-8ca7-43fd-b764-c8e51354f3ed","system_id":"levelo_inurba_marseille","lat":43.269356,"lon":5.40248,"is_reserved":false,"is_disabled":false,"rental_uris":{"android":"levelo://app?vid=6113551a-8ca7-43fd-b764-c8e51354f3ed","ios":"levelo://app?vid=6113551a-8ca7-43fd-b764-c8e51354f3ed"},"vehicle_type_id":"4","last_reported":1748556610,"current_range_meters":6800,"station_id":"cjm6bp8fraef2m0cb0m0","pricing_plan_id":"cebpf4jnsgd1na2vs0mg"},{"bike_id":"11488e1b-74ae-4459-8884-1588199aa112","system_id":"levelo_inurba_marseille","lat":43.26935,"lon":5.40241,"is_reserved":false,"is_disabled":false,"rental_uris":{"android":"levelo://app?vid=11488e1b-74ae-4459-8884-1588199aa112","ios":"levelo://app?vid=11488e1b-74ae-4459-8884-1588199aa112"},"vehicle_type_id":"4","last_reported":1748556610,"current_range_meters":6800,"station_id":"cjm6bp8fraef2m0cb0m0","pricing_plan_id":"cebpf4jnsgd1na2vs0mg"},{"bike_id":"7ad6fa5f-df46-4408-be3a-66a4244a5a34","system_id":"levelo_inurba_marseille","lat":43.265675,"lon":5.403207,"is_reserved":false,"is_disabled":false,"rental_uris":{"android":"levelo://app?vid=7ad6fa5f-df46-4408-be3a-66a4244a5a34","ios":"levelo://app?vid=7ad6fa5f-df46-4408-be3a-66a4244a5a34"},"vehicle_type_id":"4","last_reported":1748556610,"current_range_meters":7200,"station_id":"","pricing_plan_id":"cebpf4jnsgd1na2vs0mg"},{"bike_id":"18b13977-375c-4da1-b1e8-2b0d0ef9b74a","system_id":"levelo_inurba_marseille","lat":43.30205,"lon":5.39457,"is_reserved":false,"is_disabled":false,"rental_uris":{"android":"levelo://app?vid=18b13977-375c-4da1-b1e8-2b0d0ef9b74a","ios":"levelo://app?vid=18b13977-375c-4da1-b1e8-2b0d0ef9b74a"},"vehicle_type_id":"4","last_reported":1748556610,"current_range_meters":7200,"station_id":"ce4bh0p2rcd13ifvqd70","pricing_plan_id":"cebpf4jnsgd1na2vs0mg"},{"bike_id":"9fecae58-7f1c-45b2-9ea1-ba40ccdb9129","system_id":"levelo_inurba_marseille","lat":43.27577,"lon":5.3842,"is_reserved":false,"is_disabled":false,"rental_uris":{"android":"levelo://app?vid=9fecae58-7f1c-45b2-9ea1-ba40ccdb9129","ios":"levelo://app?vid=9fecae58-7f1c-45b2-9ea1-ba40ccdb9129"},"vehicle_type_id":"4","last_reported":1748556610,"current_range_meters":7200,"station_id":"ce4bhh92rcd13ifvqfi0","pricing_plan_id":"cebpf4jnsgd1na2vs0mg"},{"bike_id":"92cc41b1-86b4-4ddd-8208-549b320e7443","system_id":"levelo_inurba_marseille","lat":43.32662,"lon":5.40992,"is_reserved":false,"is_disabled":false,"rental_uris":{"android":"levelo://app?vid=92cc41b1-86b4-4ddd-8208-549b320e7443","ios":"levelo://app?vid=92cc41b1-86b4-4ddd-8208-549b320e7443"},"vehicle_type_id":"4","last_reported":1748556610,"current_range_meters":7200,"station_id":"ce4bhpp2rcd13ifvqhgg","pricing_plan_id":"cebpf4jnsgd1na2vs0mg"},{"bike_id":"22771043-09b1-43eb-91e0-5c845144e1e3","system_id":"levelo_inurba_marseille","lat":43.27689,"lon":5.40847,"is_reserved":false,"is_disabled":false,"rental_uris":{"android":"levelo://app?vid=22771043-09b1-43eb-91e0-5c845144e1e3","ios":"levelo://app?vid=22771043-09b1-43eb-91e0-5c845144e1e3"},"vehicle_type_id":"4","last_reported":1748556610,"current_range_meters":8000,"station_id":"","pricing_plan_id":"cebpf4jnsgd1na2vs0mg"},{"bike_id":"439c2428-01fc-4528-992a-e5af19ad7cb7","system_id":"levelo_inurba_marseille","lat":43.31367,"lon":5.3848,"is_reserved":false,"is_disabled":false,"rental_uris":{"android":"levelo://app?vid=439c2428-01fc-4528-992a-e5af19ad7cb7","ios":"levelo://app?vid=439c2428-01fc-4528-992a-e5af19ad7cb7"},"vehicle_type_id":"4","last_reported":1748556610,"current_range_meters":8000,"station_id":"ce4bgt92rcd13ifvqcf0","pricing_plan_id":"cebpf4jnsgd1na2vs0mg"},{"bike_id":"2a0682f8-0ba4-4e21-9326-7a5912220f6c","system_id":"levelo_inurba_marseille","lat":43.31164,"lon":5.38701,"is_reserved":false,"is_disabled":false,"rental_uris":{"android":"levelo://app?vid=2a0682f8-0ba4-4e21-9326-7a5912220f6c","ios":"levelo://app?vid=2a0682f8-0ba4-4e21-9326-7a5912220f6c"},"vehicle_type_id":"4","last_reported":1748556610,"current_range_meters":8000,"station_id":"ce4bgv12rcd13ifvqcp0","pricing_plan_id":"cebpf4jnsgd1na2vs0mg"},{"bike_id":"0b7cc989-d94a-40b3-81ea-f37020314baa","system_id":"levelo_inurba_marseille","lat":43.310748,"lon":5.383516,"is_reserved":false,"is_disabled":false,"rental_uris":{"android":"levelo://app?vid=0b7cc989-d94a-40b3-81ea-f37020314baa","ios":"levelo://app?vid=0b7cc989-d94a-40b3-81ea-f37020314baa"},"vehicle_type_id":"4","last_reported":1748556610,"current_range_meters":8000,"station_id":"ce4bgv92rcd13ifvqcr0","pricing_plan_id":"cebpf4jnsgd1na2vs0mg"},{"bike_id":"047bbed6-33d9-4486-b038-6c0f2513bd98","system_id":"levelo_inurba_marseille","lat":43.246653,"lon":5.381654,"is_reserved":false,"is_disabled":false,"rental_uris":{"android":"levelo://app?vid=047bbed6-33d9-4486-b038-6c0f2513bd98","ios":"levelo://app?vid=047bbed6-33d9-4486-b038-6c0f2513bd98"},"vehicle_type_id":"4","last_reported":1748556610,"current_range_meters":8000,"station_id":"ce4bhih2rcd13ifvqfr0","pricing_plan_id":"cebpf4jnsgd1na2vs0mg"},{"bike_id":"8b4147ce-e8e3-4100-9c8c-386f8c6c82cf","system_id":"levelo_inurba_marseille","lat":43.27841,"lon":5.39209,"is_reserved":false,"is_disabled":false,"rental_uris":{"android":"levelo://app?vid=8b4147ce-e8e3-4100-9c8c-386f8c6c82cf","ios":"levelo://app?vid=8b4147ce-e8e3-4100-9c8c-386f8c6c82cf"},"vehicle_type_id":"4","last_reported":1748556610,"current_range_meters":8000,"station_id":"ce4bhjp2rcd13ifvqga0","pricing_plan_id":"cebpf4jnsgd1na2vs0mg"},{"bike_id":"4fd6056e-aadb-4699-b1fa-8b8dbd97a31c","system_id":"levelo_inurba_marseille","lat":43.33607,"lon":5.41033,"is_reserved":false,"is_disabled":false,"rental_uris":{"android":"levelo://app?vid=4fd6056e-aadb-4699-b1fa-8b8dbd97a31c","ios":"levelo://app?vid=4fd6056e-aadb-4699-b1fa-8b8dbd97a31c"},"vehicle_type_id":"4","last_reported":1748556610,"current_range_meters":8000,"station_id":"ce4bhqh2rcd13ifvqhmg","pricing_plan_id":"cebpf4jnsgd1na2vs0mg"},{"bike_id":"7c6e48ab-b87e-4e89-9339-a1a2992e6797","system_id":"levelo_inurba_marseille","lat":43.2612,"lon":5.41455,"is_reserved":false,"is_disabled":false,"rental_uris":{"android":"levelo://app?vid=7c6e48ab-b87e-4e89-9339-a1a2992e6797","ios":"levelo://app?vid=7c6e48ab-b87e-4e89-9339-a1a2992e6797"},"vehicle_type_id":"4","last_reported":1748556610,"current_range_meters":8400,"station_id":"","pricing_plan_id":"cebpf4jnsgd1na2vs0mg"},{"bike_id":"b9ae16bc-ec39-406e-9e42-55cba52b28fe","system_id":"levelo_inurba_marseille","lat":43.26022,"lon":5.4174,"is_reserved":false,"is_disabled":false,"rental_uris":{"android":"levelo://app?vid=b9ae16bc-ec39-406e-9e42-55cba52b28fe","ios":"levelo://app?vid=b9ae16bc-ec39-406e-9e42-55cba52b28fe"},"vehicle_type_id":"4","last_reported":1748556610,"current_range_meters":8400,"station_id":"","pricing_plan_id":"cebpf4jnsgd1na2vs0mg"},{"bike_id":"b119fa7a-cfe4-4f76-ba1a-e6d78186cca2","system_id":"levelo_inurba_marseille","lat":43.30788,"lon":5.38154,"is_reserved":false,"is_disabled":false,"rental_uris":{"android":"levelo://app?vid=b119fa7a-cfe4-4f76-ba1a-e6d78186cca2","ios":"levelo://app?vid=b119fa7a-cfe4-4f76-ba1a-e6d78186cca2"},"vehicle_type_id":"4","last_reported":1748556610,"current_range_meters":8400,"station_id":"ce4bgt12rcd13ifvqce0","pricing_plan_id":"cebpf4jnsgd1na2vs0mg"},{"bike_id":"9fa3982a-78e9-408f-aaa3-19562a00ad34","system_id":"levelo_inurba_marseille","lat":43.31173,"lon":5.38699,"is_reserved":false,"is_disabled":false,"rental_uris":{"android":"levelo://app?vid=9fa3982a-78e9-408f-aaa3-19562a00ad34","ios":"levelo://app?vid=9fa3982a-78e9-408f-aaa3-19562a00ad34"},"vehicle_type_id":"4","last_reported":1748556610,"current_range_meters":8400,"station_id":"ce4bgv12rcd13ifvqcp0","pricing_plan_id":"cebpf4jnsgd1na2vs0mg"},{"bike_id":"d3f92fd6-293c-4ace-9e82-475ffd1b302b","system_id":"levelo_inurba_marseille","lat":43.31313,"lon":5.39713,"is_reserved":false,"is_disabled":false,"rental_uris":{"android":"levelo://app?vid=d3f92fd6-293c-4ace-9e82-475ffd1b302b","ios":"levelo://app?vid=d3f92fd6-293c-4ace-9e82-475ffd1b302b"},"vehicle_type_id":"4","last_reported":1748556610,"current_range_meters":8400,"station_id":"ce4bgvp2rcd13ifvqcu0","pricing_plan_id":"cebpf4jnsgd1na2vs0mg"},{"bike_id":"dc33532d-2959-4b6a-9a23-f7e227b7db2b","system_id":"levelo_inurba_marseille","lat":43.29892,"lon":5.38899,"is_reserved":false,"is_disabled":false,"rental_uris":{"android":"levelo://app?vid=dc33532d-2959-4b6a-9a23-f7e227b7db2b","ios":"levelo://app?vid=dc33532d-2959-4b6a-9a23-f7e227b7db2b"},"vehicle_type_id":"4","last_reported":1748556610,"current_range_meters":8400,"station_id":"ce4bh392rcd13ifvqdl0","pricing_plan_id":"cebpf4jnsgd1na2vs0mg"},{"bike_id":"a329eac8-e7c4-4479-b5f4-6f80ea2c1466","system_id":"levelo_inurba_marseille","lat":43.28397,"lon":5.37508,"is_reserved":false,"is_disabled":false,"rental_uris":{"android":"levelo://app?vid=a329eac8-e7c4-4479-b5f4-6f80ea2c1466","ios":"levelo://app?vid=a329eac8-e7c4-4479-b5f4-6f80ea2c1466"},"vehicle_type_id":"4","last_reported":1748556610,"current_range_meters":8400,"station_id":"ce4bh412rcd13ifvqds0","pricing_plan_id":"cebpf4jnsgd1na2vs0mg"},{"bike_id":"7203405e-5726-470e-b6e7-416d2f1da43a","system_id":"levelo_inurba_marseille","lat":43.28411,"lon":5.37492,"is_reserved":false,"is_disabled":false,"rental_uris":{"android":"levelo://app?vid=7203405e-5726-470e-b6e7-416d2f1da43a","ios":"levelo://app?vid=7203405e-5726-470e-b6e7-416d2f1da43a"},"vehicle_type_id":"4","last_reported":1748556610,"current_range_meters":8400,"station_id":"ce4bh412rcd13ifvqds0","pricing_plan_id":"cebpf4jnsgd1na2vs0mg"},{"bike_id":"5789706c-a0fd-4925-92d7-1da0570942c7","system_id":"levelo_inurba_marseille","lat":43.25581,"lon":5.38228,"is_reserved":false,"is_disabled":false,"rental_uris":{"android":"levelo://app?vid=5789706c-a0fd-4925-92d7-1da0570942c7","ios":"levelo://app?vid=5789706c-a0fd-4925-92d7-1da0570942c7"},"vehicle_type_id":"4","last_reported":1748556610,"current_range_meters":8400,"station_id":"ce4bhih2rcd13ifvqfs0","pricing_plan_id":"cebpf4jnsgd1na2vs0mg"},{"bike_id":"41393039-4fda-48a5-9a5c-403ea21fcbd1","system_id":"levelo_inurba_marseille","lat":43.27073,"lon":5.40287,"is_reserved":false,"is_disabled":false,"rental_uris":{"android":"levelo://app?vid=41393039-4fda-48a5-9a5c-403ea21fcbd1","ios":"levelo://app?vid=41393039-4fda-48a5-9a5c-403ea21fcbd1"},"vehicle_type_id":"4","last_reported":1748556610,"current_range_meters":8400,"station_id":"ce4bhk92rcd13ifvqgc0","pricing_plan_id":"cebpf4jnsgd1na2vs0mg"},{"bike_id":"8c869018-c2f1-47df-8e3b-e48407b32a24","system_id":"levelo_inurba_marseille","lat":43.27168,"lon":5.41007,"is_reserved":false,"is_disabled":false,"rental_uris":{"android":"levelo://app?vid=8c869018-c2f1-47df-8e3b-e48407b32a24","ios":"levelo://app?vid=8c869018-c2f1-47df-8e3b-e48407b32a24"},"vehicle_type_id":"4","last_reported":1748556610,"current_range_meters":8400,"station_id":"ce4bhl12rcd13ifvqgf0","pricing_plan_id":"cebpf4jnsgd1na2vs0mg"},{"bike_id":"956b6fae-56c8-4855-84db-9daa41ff5836","system_id":"levelo_inurba_marseille","lat":43.24542,"lon":5.39531,"is_reserved":false,"is_disabled":false,"rental_uris":{"android":"levelo://app?vid=956b6fae-56c8-4855-84db-9daa41ff5836","ios":"levelo://app?vid=956b6fae-56c8-4855-84db-9daa41ff5836"},"vehicle_type_id":"4","last_reported":1748556610,"current_range_meters":8400,"station_id":"ce4bhlp2rcd13ifvqgjg","pricing_plan_id":"cebpf4jnsgd1na2vs0mg"},{"bike_id":"d5717ce5-c661-467b-a0d0-ac1d0564b554","system_id":"levelo_inurba_marseille","lat":43.32003,"lon":5.38163,"is_reserved":false,"is_disabled":false,"rental_uris":{"android":"levelo://app?vid=d5717ce5-c661-467b-a0d0-ac1d0564b554","ios":"levelo://app?vid=d5717ce5-c661-467b-a0d0-ac1d0564b554"},"vehicle_type_id":"4","last_reported":1748556610,"current_range_meters":8400,"station_id":"ce4bhr12rcd13ifvqhpg","pricing_plan_id":"cebpf4jnsgd1na2vs0mg"},{"bike_id":"49a2055a-20f4-49a7-9c2e-034a27e01ac8","system_id":"levelo_inurba_marseille","lat":43.31066,"lon":5.38332,"is_reserved":false,"is_disabled":false,"rental_uris":{"android":"levelo://app?vid=49a2055a-20f4-49a7-9c2e-034a27e01ac8","ios":"levelo://app?vid=49a2055a-20f4-49a7-9c2e-034a27e01ac8"},"vehicle_type_id":"4","last_reported":1748556610,"current_range_meters":8800,"station_id":"ce4bgv92rcd13ifvqcr0","pricing_plan_id":"cebpf4jnsgd1na2vs0mg"},{"bike_id":"dab2f626-29c7-41fb-b59f-689ffb6e1b9f","system_id":"levelo_inurba_marseille","lat":43.31322,"lon":5.39691,"is_reserved":false,"is_disabled":false,"rental_uris":{"android":"levelo://app?vid=dab2f626-29c7-41fb-b59f-689ffb6e1b9f","ios":"levelo://app?vid=dab2f626-29c7-41fb-b59f-689ffb6e1b9f"},"vehicle_type_id":"4","last_reported":1748556610,"current_range_meters":8800,"station_id":"ce4bgvp2rcd13ifvqcu0","pricing_plan_id":"cebpf4jnsgd1na2vs0mg"},{"bike_id":"f293ba09-4b7e-4261-9c45-5e8e5f6ff81c","system_id":"levelo_inurba_marseille","lat":43.304008,"lon":5.424913,"is_reserved":false,"is_disabled":false,"rental_uris":{"android":"levelo://app?vid=f293ba09-4b7e-4261-9c45-5e8e5f6ff81c","ios":"levelo://app?vid=f293ba09-4b7e-4261-9c45-5e8e5f6ff81c"},"vehicle_type_id":"4","last_reported":1748556610,"current_range_meters":8800,"station_id":"ce4bhoh2rcd13ifvqh6g","pricing_plan_id":"cebpf4jnsgd1na2vs0mg"},{"bike_id":"0a21f6ea-8804-44cb-804a-65780ecc91a1","system_id":"levelo_inurba_marseille","lat":43.29416,"lon":5.37408,"is_reserved":false,"is_disabled":false,"rental_uris":{"android":"levelo://app?vid=0a21f6ea-8804-44cb-804a-65780ecc91a1","ios":"levelo://app?vid=0a21f6ea-8804-44cb-804a-65780ecc91a1"},"vehicle_type_id":"4","last_reported":1748556610,"current_range_meters":9200,"station_id":"","pricing_plan_id":"cebpf4jnsgd1na2vs0mg"},{"bike_id":"6ef21fe8-8256-49ae-8da7-304f7429a96c","system_id":"levelo_inurba_marseille","lat":43.309,"lon":5.37199,"is_reserved":false,"is_disabled":false,"rental_uris":{"android":"levelo://app?vid=6ef21fe8-8256-49ae-8da7-304f7429a96c","ios":"levelo://app?vid=6ef21fe8-8256-49ae-8da7-304f7429a96c"},"vehicle_type_id":"4","last_reported":1748556610,"current_range_meters":9200,"station_id":"ce4bguh2rcd13ifvqckg","pricing_plan_id":"cebpf4jnsgd1na2vs0mg"},{"bike_id":"5b69e164-78f6-4c7c-a38d-cecca846267f","system_id":"levelo_inurba_marseille","lat":43.302023,"lon":5.400684,"is_reserved":false,"is_disabled":false,"rental_uris":{"android":"levelo://app?vid=5b69e164-78f6-4c7c-a38d-cecca846267f","ios":"levelo://app?vid=5b69e164-78f6-4c7c-a38d-cecca846267f"},"vehicle_type_id":"4","last_reported":1748556610,"current_range_meters":9200,"station_id":"ce4bgvh2rcd13ifvqcs0","pricing_plan_id":"cebpf4jnsgd1na2vs0mg"},{"bike_id":"b0813d94-af54-4487-9355-54c660a8b884","system_id":"levelo_inurba_marseille","lat":43.303207,"lon":5.404313,"is_reserved":false,"is_disabled":false,"rental_uris":{"android":"levelo://app?vid=b0813d94-af54-4487-9355-54c660a8b884","ios":"levelo://app?vid=b0813d94-af54-4487-9355-54c660a8b884"},"vehicle_type_id":"4","last_reported":1748556610,"current_range_meters":9200,"station_id":"ce4bh012rcd13ifvqd10","pricing_plan_id":"cebpf4jnsgd1na2vs0mg"},{"bike_id":"9a357a0b-8c98-4eb3-93c5-7eefa9d7718a","system_id":"levelo_inurba_marseille","lat":43.25003,"lon":5.38924,"is_reserved":false,"is_disabled":false,"rental_uris":{"android":"levelo://app?vid=9a357a0b-8c98-4eb3-93c5-7eefa9d7718a","ios":"levelo://app?vid=9a357a0b-8c98-4eb3-93c5-7eefa9d7718a"},"vehicle_type_id":"4","last_reported":1748556610,"current_range_meters":9200,"station_id":"ce4bhgp2rcd13ifvqfd0","pricing_plan_id":"cebpf4jnsgd1na2vs0mg"},{"bike_id":"62f69875-0e85-49ec-b3c9-96e9b12997d5","system_id":"levelo_inurba_marseille","lat":43.27841,"lon":5.39207,"is_reserved":false,"is_disabled":false,"rental_uris":{"android":"levelo://app?vid=62f69875-0e85-49ec-b3c9-96e9b12997d5","ios":"levelo://app?vid=62f69875-0e85-49ec-b3c9-96e9b12997d5"},"vehicle_type_id":"4","last_reported":1748556610,"current_range_meters":9200,"station_id":"ce4bhjp2rcd13ifvqga0","pricing_plan_id":"cebpf4jnsgd1na2vs0mg"},{"bike_id":"42dca157-bdb0-4361-8022-7979135f94aa","system_id":"levelo_inurba_marseille","lat":43.28575,"lon":5.36552,"is_reserved":false,"is_disabled":false,"rental_uris":{"android":"levelo://app?vid=42dca157-bdb0-4361-8022-7979135f94aa","ios":"levelo://app?vid=42dca157-bdb0-4361-8022-7979135f94aa"},"vehicle_type_id":"4","last_reported":1748556610,"current_range_meters":9600,"station_id":"","pricing_plan_id":"cebpf4jnsgd1na2vs0mg"},{"bike_id":"08818466-c8d1-44f6-a5b1-b36755983432","system_id":"levelo_inurba_marseille","lat":43.32087,"lon":5.44083,"is_reserved":false,"is_disabled":false,"rental_uris":{"android":"levelo://app?vid=08818466-c8d1-44f6-a5b1-b36755983432","ios":"levelo://app?vid=08818466-c8d1-44f6-a5b1-b36755983432"},"vehicle_type_id":"4","last_reported":1748556610,"current_range_meters":9600,"station_id":"","pricing_plan_id":"cebpf4jnsgd1na2vs0mg"},{"bike_id":"2e493f57-82c8-4f6d-b7fc-8794e2799f9b","system_id":"levelo_inurba_marseille","lat":43.30142,"lon":5.38783,"is_reserved":false,"is_disabled":false,"rental_uris":{"android":"levelo://app?vid=2e493f57-82c8-4f6d-b7fc-8794e2799f9b","ios":"levelo://app?vid=2e493f57-82c8-4f6d-b7fc-8794e2799f9b"},"vehicle_type_id":"4","last_reported":1748556610,"current_range_meters":9600,"station_id":"ce4bghh2rcd13ifvqb60","pricing_plan_id":"cebpf4jnsgd1na2vs0mg"},{"bike_id":"92a2ca16-c950-4b2d-ac5b-d565b7fc399a","system_id":"levelo_inurba_marseille","lat":43.28032,"lon":5.36951,"is_reserved":false,"is_disabled":false,"rental_uris":{"android":"levelo://app?vid=92a2ca16-c950-4b2d-ac5b-d565b7fc399a","ios":"levelo://app?vid=92a2ca16-c950-4b2d-ac5b-d565b7fc399a"},"vehicle_type_id":"4","last_reported":1748556610,"current_range_meters":9600,"station_id":"ce4bha12rcd13ifvqef0","pricing_plan_id":"cebpf4jnsgd1na2vs0mg"},{"bike_id":"23e62eb5-e1d5-4362-8dc1-b4d4e26cddda","system_id":"levelo_inurba_marseille","lat":43.26056,"lon":5.39394,"is_reserved":false,"is_disabled":false,"rental_uris":{"android":"levelo://app?vid=23e62eb5-e1d5-4362-8dc1-b4d4e26cddda","ios":"levelo://app?vid=23e62eb5-e1d5-4362-8dc1-b4d4e26cddda"},"vehicle_type_id":"4","last_reported":1748556610,"current_range_meters":9600,"station_id":"ce4bhh92rcd13ifvqfj0","pricing_plan_id":"cebpf4jnsgd1na2vs0mg"},{"bike_id":"279a10e7-e84b-43fd-983f-0a5dd993c8a0","system_id":"levelo_inurba_marseille","lat":43.28157,"lon":5.42658,"is_reserved":false,"is_disabled":false,"rental_uris":{"android":"levelo://app?vid=279a10e7-e84b-43fd-983f-0a5dd993c8a0","ios":"levelo://app?vid=279a10e7-e84b-43fd-983f-0a5dd993c8a0"},"vehicle_type_id":"4","last_reported":1748556610,"current_range_meters":9600,"station_id":"ce4bhnh2rcd13ifvqgug","pricing_plan_id":"cebpf4jnsgd1na2vs0mg"},{"bike_id":"0e009545-9acc-491d-b143-22cbd0096db4","system_id":"levelo_inurba_marseille","lat":43.33823,"lon":5.39268,"is_reserved":false,"is_disabled":false,"rental_uris":{"android":"levelo://app?vid=0e009545-9acc-491d-b143-22cbd0096db4","ios":"levelo://app?vid=0e009545-9acc-491d-b143-22cbd0096db4"},"vehicle_type_id":"4","last_reported":1748556610,"current_range_meters":10000,"station_id":"","pricing_plan_id":"cebpf4jnsgd1na2vs0mg"},{"bike_id":"faba20ec-99ce-4488-9e02-fac93f7eccdb","system_id":"levelo_inurba_marseille","lat":43.29687,"lon":5.37303,"is_reserved":false,"is_disabled":false,"rental_uris":{"android":"levelo://app?vid=faba20ec-99ce-4488-9e02-fac93f7eccdb","ios":"levelo://app?vid=faba20ec-99ce-4488-9e02-fac93f7eccdb"},"vehicle_type_id":"4","last_reported":1748556610,"current_range_meters":10000,"station_id":"ce4bgk12rcd13ifvqbj0","pricing_plan_id":"cebpf4jnsgd1na2vs0mg"},{"bike_id":"6ad5c3ef-6839-4e1c-9425-30e460d8bcf4","system_id":"levelo_inurba_marseille","lat":43.31169,"lon":5.38716,"is_reserved":false,"is_disabled":false,"rental_uris":{"android":"levelo://app?vid=6ad5c3ef-6839-4e1c-9425-30e460d8bcf4","ios":"levelo://app?vid=6ad5c3ef-6839-4e1c-9425-30e460d8bcf4"},"vehicle_type_id":"4","last_reported":1748556610,"current_range_meters":10000,"station_id":"ce4bgv12rcd13ifvqcp0","pricing_plan_id":"cebpf4jnsgd1na2vs0mg"},{"bike_id":"f8bc173a-daa9-4ce4-a9bf-8100197dee35","system_id":"levelo_inurba_marseille","lat":43.31327,"lon":5.3969,"is_reserved":false,"is_disabled":false,"rental_uris":{"android":"levelo://app?vid=f8bc173a-daa9-4ce4-a9bf-8100197dee35","ios":"levelo://app?vid=f8bc173a-daa9-4ce4-a9bf-8100197dee35"},"vehicle_type_id":"4","last_reported":1748556610,"current_range_meters":10000,"station_id":"ce4bgvp2rcd13ifvqcu0","pricing_plan_id":"cebpf4jnsgd1na2vs0mg"},{"bike_id":"c48b21be-a200-48c7-b6a5-2e7f96bd845a","system_id":"levelo_inurba_marseille","lat":43.29247,"lon":5.40907,"is_reserved":false,"is_disabled":false,"rental_uris":{"android":"levelo://app?vid=c48b21be-a200-48c7-b6a5-2e7f96bd845a","ios":"levelo://app?vid=c48b21be-a200-48c7-b6a5-2e7f96bd845a"},"vehicle_type_id":"4","last_reported":1748556610,"current_range_meters":10000,"station_id":"ce4bh192rcd13ifvqdc0","pricing_plan_id":"cebpf4jnsgd1na2vs0mg"},{"bike_id":"dc77ed57-3919-4471-9468-9212c032a498","system_id":"levelo_inurba_marseille","lat":43.29029,"lon":5.38641,"is_reserved":false,"is_disabled":false,"rental_uris":{"android":"levelo://app?vid=dc77ed57-3919-4471-9468-9212c032a498","ios":"levelo://app?vid=dc77ed57-3919-4471-9468-9212c032a498"},"vehicle_type_id":"4","last_reported":1748556610,"current_range_meters":10000,"station_id":"ce4bh4p2rcd13ifvqe0g","pricing_plan_id":"cebpf4jnsgd1na2vs0mg"},{"bike_id":"fa6c8914-a372-4ee3-8403-f3f52f1267f2","system_id":"levelo_inurba_marseille","lat":43.25826,"lon":5.39414,"is_reserved":false,"is_disabled":false,"rental_uris":{"android":"levelo://app?vid=fa6c8914-a372-4ee3-8403-f3f52f1267f2","ios":"levelo://app?vid=fa6c8914-a372-4ee3-8403-f3f52f1267f2"},"vehicle_type_id":"4","last_reported":1748556610,"current_range_meters":10000,"station_id":"ce4bhip2rcd13ifvqft0","pricing_plan_id":"cebpf4jnsgd1na2vs0mg"},{"bike_id":"b0f67d6d-3250-42ef-8f19-4e74e6760f9a","system_id":"levelo_inurba_marseille","lat":43.344,"lon":5.38126,"is_reserved":false,"is_disabled":false,"rental_uris":{"android":"levelo://app?vid=b0f67d6d-3250-42ef-8f19-4e74e6760f9a","ios":"levelo://app?vid=b0f67d6d-3250-42ef-8f19-4e74e6760f9a"},"vehicle_type_id":"4","last_reported":1748556610,"current_range_meters":10800,"station_id":"","pricing_plan_id":"cebpf4jnsgd1na2vs0mg"},{"bike_id":"165c2fe1-e34c-45ba-84e6-42aa2205cac3","system_id":"levelo_inurba_marseille","lat":43.30292,"lon":5.36909,"is_reserved":false,"is_disabled":false,"rental_uris":{"android":"levelo://app?vid=165c2fe1-e34c-45ba-84e6-42aa2205cac3","ios":"levelo://app?vid=165c2fe1-e34c-45ba-84e6-42aa2205cac3"},"vehicle_type_id":"4","last_reported":1748556610,"current_range_meters":10800,"station_id":"ce4bgqh2rcd13ifvqc5g","pricing_plan_id":"cebpf4jnsgd1na2vs0mg"},{"bike_id":"e9c30b57-7837-4fe1-a273-a8d78343aa83","system_id":"levelo_inurba_marseille","lat":43.30879,"lon":5.39649,"is_reserved":false,"is_disabled":false,"rental_uris":{"android":"levelo://app?vid=e9c30b57-7837-4fe1-a273-a8d78343aa83","ios":"levelo://app?vid=e9c30b57-7837-4fe1-a273-a8d78343aa83"},"vehicle_type_id":"4","last_reported":1748556610,"current_range_meters":10800,"station_id":"ce4bh012rcd13ifvqcv0","pricing_plan_id":"cebpf4jnsgd1na2vs0mg"},{"bike_id":"572f964a-6e64-4c5e-b089-ce909a800028","system_id":"levelo_inurba_marseille","lat":43.29273,"lon":5.40138,"is_reserved":false,"is_disabled":false,"rental_uris":{"android":"levelo://app?vid=572f964a-6e64-4c5e-b089-ce909a800028","ios":"levelo://app?vid=572f964a-6e64-4c5e-b089-ce909a800028"},"vehicle_type_id":"4","last_reported":1748556610,"current_range_meters":10800,"station_id":"ce4bh312rcd13ifvqdk0","pricing_plan_id":"cebpf4jnsgd1na2vs0mg"},{"bike_id":"9645fd54-db8d-4cf3-9341-8f046247c936","system_id":"levelo_inurba_marseille","lat":43.265663,"lon":5.389983,"is_reserved":false,"is_disabled":false,"rental_uris":{"android":"levelo://app?vid=9645fd54-db8d-4cf3-9341-8f046247c936","ios":"levelo://app?vid=9645fd54-db8d-4cf3-9341-8f046247c936"},"vehicle_type_id":"4","last_reported":1748556610,"current_range_meters":10800,"station_id":"ce4bhe12rcd13ifvqf30","pricing_plan_id":"cebpf4jnsgd1na2vs0mg"},{"bike_id":"cd438c88-7f17-4c01-b238-d05b58df7798","system_id":"levelo_inurba_marseille","lat":43.27971,"lon":5.3874,"is_reserved":false,"is_disabled":false,"rental_uris":{"android":"levelo://app?vid=cd438c88-7f17-4c01-b238-d05b58df7798","ios":"levelo://app?vid=cd438c88-7f17-4c01-b238-d05b58df7798"},"vehicle_type_id":"4","last_reported":1748556610,"current_range_meters":10800,"station_id":"ce4bhg12rcd13ifvqf80","pricing_plan_id":"cebpf4jnsgd1na2vs0mg"},{"bike_id":"6497f928-b492-441b-adb0-b2293f76870d","system_id":"levelo_inurba_marseille","lat":43.24556,"lon":5.39526,"is_reserved":false,"is_disabled":false,"rental_uris":{"android":"levelo://app?vid=6497f928-b492-441b-adb0-b2293f76870d","ios":"levelo://app?vid=6497f928-b492-441b-adb0-b2293f76870d"},"vehicle_type_id":"4","last_reported":1748556610,"current_range_meters":10800,"station_id":"ce4bhlp2rcd13ifvqgjg","pricing_plan_id":"cebpf4jnsgd1na2vs0mg"},{"bike_id":"9afff74f-25c0-4cce-8476-3dd3e572dd8c","system_id":"levelo_inurba_marseille","lat":43.24089,"lon":5.37745,"is_reserved":false,"is_disabled":false,"rental_uris":{"android":"levelo://app?vid=9afff74f-25c0-4cce-8476-3dd3e572dd8c","ios":"levelo://app?vid=9afff74f-25c0-4cce-8476-3dd3e572dd8c"},"vehicle_type_id":"4","last_reported":1748556610,"current_range_meters":10800,"station_id":"ce4bhnp2rcd13ifvqgvg","pricing_plan_id":"cebpf4jnsgd1na2vs0mg"},{"bike_id":"61a789b9-188c-419e-a495-9d8bb5585016","system_id":"levelo_inurba_marseille","lat":43.27997,"lon":5.41658,"is_reserved":false,"is_disabled":false,"rental_uris":{"android":"levelo://app?vid=61a789b9-188c-419e-a495-9d8bb5585016","ios":"levelo://app?vid=61a789b9-188c-419e-a495-9d8bb5585016"},"vehicle_type_id":"4","last_reported":1748556610,"current_range_meters":10800,"station_id":"ce4bho12rcd13ifvqh1g","pricing_plan_id":"cebpf4jnsgd1na2vs0mg"},{"bike_id":"f312f103-e2b6-4687-9bd9-dd72b30d6a0c","system_id":"levelo_inurba_marseille","lat":43.34142,"lon":5.40907,"is_reserved":false,"is_disabled":false,"rental_uris":{"android":"levelo://app?vid=f312f103-e2b6-4687-9bd9-dd72b30d6a0c","ios":"levelo://app?vid=f312f103-e2b6-4687-9bd9-dd72b30d6a0c"},"vehicle_type_id":"4","last_reported":1748556610,"current_range_meters":10800,"station_id":"ce4bhqh2rcd13ifvqhlg","pricing_plan_id":"cebpf4jnsgd1na2vs0mg"},{"bike_id":"a8230de5-34c0-444f-a9cb-eb048c8a377c","system_id":"levelo_inurba_marseille","lat":43.31072,"lon":5.38347,"is_reserved":false,"is_disabled":false,"rental_uris":{"android":"levelo://app?vid=a8230de5-34c0-444f-a9cb-eb048c8a377c","ios":"levelo://app?vid=a8230de5-34c0-444f-a9cb-eb048c8a377c"},"vehicle_type_id":"4","last_reported":1748556610,"current_range_meters":11200,"station_id":"ce4bgv92rcd13ifvqcr0","pricing_plan_id":"cebpf4jnsgd1na2vs0mg"},{"bike_id":"2a210de7-b044-4df0-8bc0-e91402de5f7a","system_id":"levelo_inurba_marseille","lat":43.29873,"lon":5.38903,"is_reserved":false,"is_disabled":false,"rental_uris":{"android":"levelo://app?vid=2a210de7-b044-4df0-8bc0-e91402de5f7a","ios":"levelo://app?vid=2a210de7-b044-4df0-8bc0-e91402de5f7a"},"vehicle_type_id":"4","last_reported":1748556610,"current_range_meters":11200,"station_id":"ce4bh392rcd13ifvqdl0","pricing_plan_id":"cebpf4jnsgd1na2vs0mg"},{"bike_id":"47ce111d-da00-44e1-bb4b-5c32f8d4730e","system_id":"levelo_inurba_marseille","lat":43.29035,"lon":5.38626,"is_reserved":false,"is_disabled":false,"rental_uris":{"android":"levelo://app?vid=47ce111d-da00-44e1-bb4b-5c32f8d4730e","ios":"levelo://app?vid=47ce111d-da00-44e1-bb4b-5c32f8d4730e"},"vehicle_type_id":"4","last_reported":1748556610,"current_range_meters":11200,"station_id":"ce4bh4p2rcd13ifvqe0g","pricing_plan_id":"cebpf4jnsgd1na2vs0mg"},{"bike_id":"d2efc7ef-e8cf-48f9-9e09-ac995bd4b4ef","system_id":"levelo_inurba_marseille","lat":43.2847,"lon":5.38423,"is_reserved":false,"is_disabled":false,"rental_uris":{"android":"levelo://app?vid=d2efc7ef-e8cf-48f9-9e09-ac995bd4b4ef","ios":"levelo://app?vid=d2efc7ef-e8cf-48f9-9e09-ac995bd4b4ef"},"vehicle_type_id":"4","last_reported":1748556610,"current_range_meters":11200,"station_id":"ce4bh512rcd13ifvqe3g","pricing_plan_id":"cebpf4jnsgd1na2vs0mg"},{"bike_id":"d1096873-14b6-4783-a074-41ed382fc392","system_id":"levelo_inurba_marseille","lat":43.24814,"lon":5.37457,"is_reserved":false,"is_disabled":false,"rental_uris":{"android":"levelo://app?vid=d1096873-14b6-4783-a074-41ed382fc392","ios":"levelo://app?vid=d1096873-14b6-4783-a074-41ed382fc392"},"vehicle_type_id":"4","last_reported":1748556610,"current_range_meters":11200,"station_id":"ce4bhgh2rcd13ifvqfb0","pricing_plan_id":"cebpf4jnsgd1na2vs0mg"},{"bike_id":"48e23968-eea7-47d2-a60a-bfc420776f15","system_id":"levelo_inurba_marseille","lat":43.26222,"lon":5.40448,"is_reserved":false,"is_disabled":false,"rental_uris":{"android":"levelo://app?vid=48e23968-eea7-47d2-a60a-bfc420776f15","ios":"levelo://app?vid=48e23968-eea7-47d2-a60a-bfc420776f15"},"vehicle_type_id":"4","last_reported":1748556610,"current_range_meters":11200,"station_id":"ce4bhmh2rcd13ifvqgmg","pricing_plan_id":"cebpf4jnsgd1na2vs0mg"},{"bike_id":"f794aef5-99dc-4499-b1ca-44ab1e7b6ef4","system_id":"levelo_inurba_marseille","lat":43.31713,"lon":5.43696,"is_reserved":false,"is_disabled":false,"rental_uris":{"android":"levelo://app?vid=f794aef5-99dc-4499-b1ca-44ab1e7b6ef4","ios":"levelo://app?vid=f794aef5-99dc-4499-b1ca-44ab1e7b6ef4"},"vehicle_type_id":"4","last_reported":1748556610,"current_range_meters":11200,"station_id":"ce4bhp92rcd13ifvqhcg","pricing_plan_id":"cebpf4jnsgd1na2vs0mg"},{"bike_id":"bb847ccc-3cb9-4689-8144-cf087d1af0be","system_id":"levelo_inurba_marseille","lat":43.31707,"lon":5.37739,"is_reserved":false,"is_disabled":false,"rental_uris":{"android":"levelo://app?vid=bb847ccc-3cb9-4689-8144-cf087d1af0be","ios":"levelo://app?vid=bb847ccc-3cb9-4689-8144-cf087d1af0be"},"vehicle_type_id":"4","last_reported":1748556610,"current_range_meters":11600,"station_id":"ce4bgth2rcd13ifvqch0","pricing_plan_id":"cebpf4jnsgd1na2vs0mg"},{"bike_id":"c3708d46-6d3f-473e-a7dd-aaed7b1ccfcb","system_id":"levelo_inurba_marseille","lat":43.28102,"lon":5.37836,"is_reserved":false,"is_disabled":false,"rental_uris":{"android":"levelo://app?vid=c3708d46-6d3f-473e-a7dd-aaed7b1ccfcb","ios":"levelo://app?vid=c3708d46-6d3f-473e-a7dd-aaed7b1ccfcb"},"vehicle_type_id":"4","last_reported":1748556610,"current_range_meters":11600,"station_id":"ce4bha12rcd13ifvqee0","pricing_plan_id":"cebpf4jnsgd1na2vs0mg"},{"bike_id":"017ab689-a589-43d4-84d1-7c23a7e39ffb","system_id":"levelo_inurba_marseille","lat":43.31531,"lon":5.38035,"is_reserved":false,"is_disabled":false,"rental_uris":{"android":"levelo://app?vid=017ab689-a589-43d4-84d1-7c23a7e39ffb","ios":"levelo://app?vid=017ab689-a589-43d4-84d1-7c23a7e39ffb"},"vehicle_type_id":"4","last_reported":1748556610,"current_range_meters":11600,"station_id":"ce4bhsp2rcd13ifvqi50","pricing_plan_id":"cebpf4jnsgd1na2vs0mg"},{"bike_id":"a426f99b-d34a-41bf-bbda-59f7dfd6939b","system_id":"levelo_inurba_marseille","lat":43.255796,"lon":5.382262,"is_reserved":false,"is_disabled":false,"rental_uris":{"android":"levelo://app?vid=a426f99b-d34a-41bf-bbda-59f7dfd6939b","ios":"levelo://app?vid=a426f99b-d34a-41bf-bbda-59f7dfd6939b"},"vehicle_type_id":"4","last_reported":1748556610,"current_range_meters":11600,"station_id":"ce501612rcd8frsf0b60","pricing_plan_id":"cebpf4jnsgd1na2vs0mg"},{"bike_id":"f5733814-9732-4748-bcc9-3b2fac8e1564","system_id":"levelo_inurba_marseille","lat":43.31256,"lon":5.37829,"is_reserved":false,"is_disabled":false,"rental_uris":{"android":"levelo://app?vid=f5733814-9732-4748-bcc9-3b2fac8e1564","ios":"levelo://app?vid=f5733814-9732-4748-bcc9-3b2fac8e1564"},"vehicle_type_id":"4","last_reported":1748556610,"current_range_meters":12000,"station_id":"","pricing_plan_id":"cebpf4jnsgd1na2vs0mg"},{"bike_id":"9106b7cd-70ae-456d-906e-062a4ff9165b","system_id":"levelo_inurba_marseille","lat":43.33014,"lon":5.394295,"is_reserved":false,"is_disabled":false,"rental_uris":{"android":"levelo://app?vid=9106b7cd-70ae-456d-906e-062a4ff9165b","ios":"levelo://app?vid=9106b7cd-70ae-456d-906e-062a4ff9165b"},"vehicle_type_id":"4","last_reported":1748556610,"current_range_meters":12000,"station_id":"","pricing_plan_id":"cebpf4jnsgd1na2vs0mg"},{"bike_id":"93aec664-0f84-4f27-8a49-b4312c93f35d","system_id":"levelo_inurba_marseille","lat":43.31332,"lon":5.39685,"is_reserved":false,"is_disabled":false,"rental_uris":{"android":"levelo://app?vid=93aec664-0f84-4f27-8a49-b4312c93f35d","ios":"levelo://app?vid=93aec664-0f84-4f27-8a49-b4312c93f35d"},"vehicle_type_id":"4","last_reported":1748556610,"current_range_meters":12000,"station_id":"ce4bgvp2rcd13ifvqcu0","pricing_plan_id":"cebpf4jnsgd1na2vs0mg"},{"bike_id":"1333daa3-0391-4557-9220-9c35ccdc132b","system_id":"levelo_inurba_marseille","lat":43.28854,"lon":5.39324,"is_reserved":false,"is_disabled":false,"rental_uris":{"android":"levelo://app?vid=1333daa3-0391-4557-9220-9c35ccdc132b","ios":"levelo://app?vid=1333daa3-0391-4557-9220-9c35ccdc132b"},"vehicle_type_id":"4","last_reported":1748556610,"current_range_meters":12000,"station_id":"ce4bh2p2rcd13ifvqdi0","pricing_plan_id":"cebpf4jnsgd1na2vs0mg"},{"bike_id":"0f6eabd4-ec8e-4d6d-a961-9033e0942a15","system_id":"levelo_inurba_marseille","lat":43.29872,"lon":5.38901,"is_reserved":false,"is_disabled":false,"rental_uris":{"android":"levelo://app?vid=0f6eabd4-ec8e-4d6d-a961-9033e0942a15","ios":"levelo://app?vid=0f6eabd4-ec8e-4d6d-a961-9033e0942a15"},"vehicle_type_id":"4","last_reported":1748556610,"current_range_meters":12000,"station_id":"ce4bh392rcd13ifvqdl0","pricing_plan_id":"cebpf4jnsgd1na2vs0mg"},{"bike_id":"1be21534-ca7b-4f38-8bff-a7515afc85f6","system_id":"levelo_inurba_marseille","lat":43.24804,"lon":5.37452,"is_reserved":false,"is_disabled":false,"rental_uris":{"android":"levelo://app?vid=1be21534-ca7b-4f38-8bff-a7515afc85f6","ios":"levelo://app?vid=1be21534-ca7b-4f38-8bff-a7515afc85f6"},"vehicle_type_id":"4","last_reported":1748556610,"current_range_meters":12000,"station_id":"ce4bhgh2rcd13ifvqfb0","pricing_plan_id":"cebpf4jnsgd1na2vs0mg"},{"bike_id":"8fcab441-2770-4830-a8cf-1492a38135af","system_id":"levelo_inurba_marseille","lat":43.27069,"lon":5.42271,"is_reserved":false,"is_disabled":false,"rental_uris":{"android":"levelo://app?vid=8fcab441-2770-4830-a8cf-1492a38135af","ios":"levelo://app?vid=8fcab441-2770-4830-a8cf-1492a38135af"},"vehicle_type_id":"4","last_reported":1748556610,"current_range_meters":12000,"station_id":"ce4bhk92rcd13ifvqgb0","pricing_plan_id":"cebpf4jnsgd1na2vs0mg"},{"bike_id":"72248e32-616d-4c01-8c01-acbec0f57485","system_id":"levelo_inurba_marseille","lat":43.31082,"lon":5.42433,"is_reserved":false,"is_disabled":false,"rental_uris":{"android":"levelo://app?vid=72248e32-616d-4c01-8c01-acbec0f57485","ios":"levelo://app?vid=72248e32-616d-4c01-8c01-acbec0f57485"},"vehicle_type_id":"4","last_reported":1748556610,"current_range_meters":12000,"station_id":"ce4bhp92rcd13ifvqhag","pricing_plan_id":"cebpf4jnsgd1na2vs0mg"},{"bike_id":"e9cda520-c6f4-465d-ad7f-8c059b3dc45a","system_id":"levelo_inurba_marseille","lat":43.313967,"lon":5.383993,"is_reserved":false,"is_disabled":false,"rental_uris":{"android":"levelo://app?vid=e9cda520-c6f4-465d-ad7f-8c059b3dc45a","ios":"levelo://app?vid=e9cda520-c6f4-465d-ad7f-8c059b3dc45a"},"vehicle_type_id":"4","last_reported":1748556610,"current_range_meters":12400,"station_id":"","pricing_plan_id":"cebpf4jnsgd1na2vs0mg"},{"bike_id":"aa93e157-1744-4ee5-a5fd-ec20fad97560","system_id":"levelo_inurba_marseille","lat":43.30145,"lon":5.37422,"is_reserved":false,"is_disabled":false,"rental_uris":{"android":"levelo://app?vid=aa93e157-1744-4ee5-a5fd-ec20fad97560","ios":"levelo://app?vid=aa93e157-1744-4ee5-a5fd-ec20fad97560"},"vehicle_type_id":"4","last_reported":1748556610,"current_range_meters":12400,"station_id":"ce4bgs92rcd13ifvqcc0","pricing_plan_id":"cebpf4jnsgd1na2vs0mg"},{"bike_id":"6d9461e9-afcf-430b-8179-bb7d54f00db5","system_id":"levelo_inurba_marseille","lat":43.31482,"lon":5.37306,"is_reserved":false,"is_disabled":false,"rental_uris":{"android":"levelo://app?vid=6d9461e9-afcf-430b-8179-bb7d54f00db5","ios":"levelo://app?vid=6d9461e9-afcf-430b-8179-bb7d54f00db5"},"vehicle_type_id":"4","last_reported":1748556610,"current_range_meters":12400,"station_id":"ce4bgt12rcd13ifvqcd0","pricing_plan_id":"cebpf4jnsgd1na2vs0mg"},{"bike_id":"765e1f4b-2882-486e-aa5d-7a83010bfc1a","system_id":"levelo_inurba_marseille","lat":43.313623,"lon":5.384853,"is_reserved":false,"is_disabled":false,"rental_uris":{"android":"levelo://app?vid=765e1f4b-2882-486e-aa5d-7a83010bfc1a","ios":"levelo://app?vid=765e1f4b-2882-486e-aa5d-7a83010bfc1a"},"vehicle_type_id":"4","last_reported":1748556610,"current_range_meters":12400,"station_id":"ce4bgt92rcd13ifvqcf0","pricing_plan_id":"cebpf4jnsgd1na2vs0mg"},{"bike_id":"39a0cdda-838d-400d-be68-01d2b3f00022","system_id":"levelo_inurba_marseille","lat":43.302591,"lon":5.400884,"is_reserved":false,"is_disabled":false,"rental_uris":{"android":"levelo://app?vid=39a0cdda-838d-400d-be68-01d2b3f00022","ios":"levelo://app?vid=39a0cdda-838d-400d-be68-01d2b3f00022"},"vehicle_type_id":"4","last_reported":1748556610,"current_range_meters":12400,"station_id":"ce4bgvh2rcd13ifvqcs0","pricing_plan_id":"cebpf4jnsgd1na2vs0mg"},{"bike_id":"9bf1b7e1-a405-4164-ac13-67b15ad4c6c6","system_id":"levelo_inurba_marseille","lat":43.30255,"lon":5.40055,"is_reserved":false,"is_disabled":false,"rental_uris":{"android":"levelo://app?vid=9bf1b7e1-a405-4164-ac13-67b15ad4c6c6","ios":"levelo://app?vid=9bf1b7e1-a405-4164-ac13-67b15ad4c6c6"},"vehicle_type_id":"4","last_reported":1748556610,"current_range_meters":12400,"station_id":"ce4bgvh2rcd13ifvqcs0","pricing_plan_id":"cebpf4jnsgd1na2vs0mg"},{"bike_id":"6df048b1-b400-44e3-98b5-b9feb6ceddd4","system_id":"levelo_inurba_marseille","lat":43.29028,"lon":5.38649,"is_reserved":false,"is_disabled":false,"rental_uris":{"android":"levelo://app?vid=6df048b1-b400-44e3-98b5-b9feb6ceddd4","ios":"levelo://app?vid=6df048b1-b400-44e3-98b5-b9feb6ceddd4"},"vehicle_type_id":"4","last_reported":1748556610,"current_range_meters":12400,"station_id":"ce4bh4p2rcd13ifvqe0g","pricing_plan_id":"cebpf4jnsgd1na2vs0mg"},{"bike_id":"12d82717-493b-4e9e-a776-4cc57c58f0e1","system_id":"levelo_inurba_marseille","lat":43.26707,"lon":5.38219,"is_reserved":false,"is_disabled":false,"rental_uris":{"android":"levelo://app?vid=12d82717-493b-4e9e-a776-4cc57c58f0e1","ios":"levelo://app?vid=12d82717-493b-4e9e-a776-4cc57c58f0e1"},"vehicle_type_id":"4","last_reported":1748556610,"current_range_meters":12400,"station_id":"ce4bhg92rcd13ifvqf90","pricing_plan_id":"cebpf4jnsgd1na2vs0mg"},{"bike_id":"d2194095-52f0-44b2-9c32-a4332a95867e","system_id":"levelo_inurba_marseille","lat":43.270642,"lon":5.402554,"is_reserved":false,"is_disabled":false,"rental_uris":{"android":"levelo://app?vid=d2194095-52f0-44b2-9c32-a4332a95867e","ios":"levelo://app?vid=d2194095-52f0-44b2-9c32-a4332a95867e"},"vehicle_type_id":"4","last_reported":1748556610,"current_range_meters":12400,"station_id":"ce4bhk92rcd13ifvqgc0","pricing_plan_id":"cebpf4jnsgd1na2vs0mg"},{"bike_id":"747224c9-7e52-4c58-9390-d943c4f5446c","system_id":"levelo_inurba_marseille","lat":43.27183,"lon":5.40994,"is_reserved":false,"is_disabled":false,"rental_uris":{"android":"levelo://app?vid=747224c9-7e52-4c58-9390-d943c4f5446c","ios":"levelo://app?vid=747224c9-7e52-4c58-9390-d943c4f5446c"},"vehicle_type_id":"4","last_reported":1748556610,"current_range_meters":12400,"station_id":"ce4bhl12rcd13ifvqgf0","pricing_plan_id":"cebpf4jnsgd1na2vs0mg"},{"bike_id":"da279776-c099-4cdd-acd3-f802ffed4965","system_id":"levelo_inurba_marseille","lat":43.29566,"lon":5.42293,"is_reserved":false,"is_disabled":false,"rental_uris":{"android":"levelo://app?vid=da279776-c099-4cdd-acd3-f802ffed4965","ios":"levelo://app?vid=da279776-c099-4cdd-acd3-f802ffed4965"},"vehicle_type_id":"4","last_reported":1748556610,"current_range_meters":12400,"station_id":"ce4bhph2rcd13ifvqhdg","pricing_plan_id":"cebpf4jnsgd1na2vs0mg"},{"bike_id":"dddeb80d-3057-46be-833d-4a0c2415e343","system_id":"levelo_inurba_marseille","lat":43.31931,"lon":5.38201,"is_reserved":false,"is_disabled":false,"rental_uris":{"android":"levelo://app?vid=dddeb80d-3057-46be-833d-4a0c2415e343","ios":"levelo://app?vid=dddeb80d-3057-46be-833d-4a0c2415e343"},"vehicle_type_id":"4","last_reported":1748556610,"current_range_meters":12800,"station_id":"","pricing_plan_id":"cebpf4jnsgd1na2vs0mg"},{"bike_id":"4114dddd-5a43-44e5-8c22-8d633b6390bc","system_id":"levelo_inurba_marseille","lat":43.29535,"lon":5.38552,"is_reserved":false,"is_disabled":false,"rental_uris":{"android":"levelo://app?vid=4114dddd-5a43-44e5-8c22-8d633b6390bc","ios":"levelo://app?vid=4114dddd-5a43-44e5-8c22-8d633b6390bc"},"vehicle_type_id":"4","last_reported":1748556610,"current_range_meters":12800,"station_id":"ce4bgih2rcd13ifvqba0","pricing_plan_id":"cebpf4jnsgd1na2vs0mg"},{"bike_id":"978e8fd3-01a7-4b79-b825-32f6f7ed896f","system_id":"levelo_inurba_marseille","lat":43.29592,"lon":5.36718,"is_reserved":false,"is_disabled":false,"rental_uris":{"android":"levelo://app?vid=978e8fd3-01a7-4b79-b825-32f6f7ed896f","ios":"levelo://app?vid=978e8fd3-01a7-4b79-b825-32f6f7ed896f"},"vehicle_type_id":"4","last_reported":1748556610,"current_range_meters":12800,"station_id":"ce4bgph2rcd13ifvqc2g","pricing_plan_id":"cebpf4jnsgd1na2vs0mg"},{"bike_id":"89527f10-1804-4136-9f29-4b4553047a6c","system_id":"levelo_inurba_marseille","lat":43.31078,"lon":5.38337,"is_reserved":false,"is_disabled":false,"rental_uris":{"android":"levelo://app?vid=89527f10-1804-4136-9f29-4b4553047a6c","ios":"levelo://app?vid=89527f10-1804-4136-9f29-4b4553047a6c"},"vehicle_type_id":"4","last_reported":1748556610,"current_range_meters":12800,"station_id":"ce4bgv92rcd13ifvqcr0","pricing_plan_id":"cebpf4jnsgd1na2vs0mg"},{"bike_id":"e7a37b8f-2870-44c3-83e0-befad4eaa503","system_id":"levelo_inurba_marseille","lat":43.23963,"lon":5.36628,"is_reserved":false,"is_disabled":false,"rental_uris":{"android":"levelo://app?vid=e7a37b8f-2870-44c3-83e0-befad4eaa503","ios":"levelo://app?vid=e7a37b8f-2870-44c3-83e0-befad4eaa503"},"vehicle_type_id":"4","last_reported":1748556610,"current_range_meters":12800,"station_id":"ce4bhi12rcd13ifvqfp0","pricing_plan_id":"cebpf4jnsgd1na2vs0mg"},{"bike_id":"438d1ea3-5c8f-4d35-9360-e6d605c5cfb2","system_id":"levelo_inurba_marseille","lat":43.24665,"lon":5.38155,"is_reserved":false,"is_disabled":false,"rental_uris":{"android":"levelo://app?vid=438d1ea3-5c8f-4d35-9360-e6d605c5cfb2","ios":"levelo://app?vid=438d1ea3-5c8f-4d35-9360-e6d605c5cfb2"},"vehicle_type_id":"4","last_reported":1748556610,"current_range_meters":12800,"station_id":"ce4bhih2rcd13ifvqfr0","pricing_plan_id":"cebpf4jnsgd1na2vs0mg"},{"bike_id":"6cddb488-bc63-402f-9ae9-4b2b965663c6","system_id":"levelo_inurba_marseille","lat":43.28077,"lon":5.39641,"is_reserved":false,"is_disabled":false,"rental_uris":{"android":"levelo://app?vid=6cddb488-bc63-402f-9ae9-4b2b965663c6","ios":"levelo://app?vid=6cddb488-bc63-402f-9ae9-4b2b965663c6"},"vehicle_type_id":"4","last_reported":1748556610,"current_range_meters":12800,"station_id":"ce4bho12rcd13ifvqh2g","pricing_plan_id":"cebpf4jnsgd1na2vs0mg"},{"bike_id":"25f58006-0670-4b9b-9a5d-81321b2ee4c3","system_id":"levelo_inurba_marseille","lat":43.28702,"lon":5.39971,"is_reserved":false,"is_disabled":false,"rental_uris":{"android":"levelo://app?vid=25f58006-0670-4b9b-9a5d-81321b2ee4c3","ios":"levelo://app?vid=25f58006-0670-4b9b-9a5d-81321b2ee4c3"},"vehicle_type_id":"4","last_reported":1748556610,"current_range_meters":12800,"station_id":"ce4bho92rcd13ifvqh3g","pricing_plan_id":"cebpf4jnsgd1na2vs0mg"},{"bike_id":"fc703e3d-4a8e-4404-88f1-4c82d56173f8","system_id":"levelo_inurba_marseille","lat":43.30798,"lon":5.43536,"is_reserved":false,"is_disabled":false,"rental_uris":{"android":"levelo://app?vid=fc703e3d-4a8e-4404-88f1-4c82d56173f8","ios":"levelo://app?vid=fc703e3d-4a8e-4404-88f1-4c82d56173f8"},"vehicle_type_id":"4","last_reported":1748556610,"current_range_meters":12800,"station_id":"ce4bhph2rcd13ifvqheg","pricing_plan_id":"cebpf4jnsgd1na2vs0mg"},{"bike_id":"e044c9db-ce02-4ecf-bf86-8eaa46f9c414","system_id":"levelo_inurba_marseille","lat":43.25702,"lon":5.39118,"is_reserved":false,"is_disabled":false,"rental_uris":{"android":"levelo://app?vid=e044c9db-ce02-4ecf-bf86-8eaa46f9c414","ios":"levelo://app?vid=e044c9db-ce02-4ecf-bf86-8eaa46f9c414"},"vehicle_type_id":"4","last_reported":1748556610,"current_range_meters":13600,"station_id":"","pricing_plan_id":"cebpf4jnsgd1na2vs0mg"},{"bike_id":"41d7891f-eb13-4d0d-95d6-205e27d65967","system_id":"levelo_inurba_marseille","lat":43.30162,"lon":5.38092,"is_reserved":false,"is_disabled":false,"rental_uris":{"android":"levelo://app?vid=41d7891f-eb13-4d0d-95d6-205e27d65967","ios":"levelo://app?vid=41d7891f-eb13-4d0d-95d6-205e27d65967"},"vehicle_type_id":"4","last_reported":1748556610,"current_range_meters":13600,"station_id":"ce4bgjp2rcd13ifvqbh0","pricing_plan_id":"cebpf4jnsgd1na2vs0mg"},{"bike_id":"9cb4476e-b395-4676-aa45-a25b6a900241","system_id":"levelo_inurba_marseille","lat":43.30309,"lon":5.36908,"is_reserved":false,"is_disabled":false,"rental_uris":{"android":"levelo://app?vid=9cb4476e-b395-4676-aa45-a25b6a900241","ios":"levelo://app?vid=9cb4476e-b395-4676-aa45-a25b6a900241"},"vehicle_type_id":"4","last_reported":1748556610,"current_range_meters":13600,"station_id":"ce4bgqh2rcd13ifvqc5g","pricing_plan_id":"cebpf4jnsgd1na2vs0mg"},{"bike_id":"5ebcab2d-592d-446c-bba6-9706c8bc4b45","system_id":"levelo_inurba_marseille","lat":43.31331,"lon":5.366735,"is_reserved":false,"is_disabled":false,"rental_uris":{"android":"levelo://app?vid=5ebcab2d-592d-446c-bba6-9706c8bc4b45","ios":"levelo://app?vid=5ebcab2d-592d-446c-bba6-9706c8bc4b45"},"vehicle_type_id":"4","last_reported":1748556610,"current_range_meters":13600,"station_id":"ce4bgr92rcd13ifvqc6g","pricing_plan_id":"cebpf4jnsgd1na2vs0mg"},{"bike_id":"01e35211-7a7d-498f-9b85-349277cc4988","system_id":"levelo_inurba_marseille","lat":43.29247,"lon":5.40905,"is_reserved":false,"is_disabled":false,"rental_uris":{"android":"levelo://app?vid=01e35211-7a7d-498f-9b85-349277cc4988","ios":"levelo://app?vid=01e35211-7a7d-498f-9b85-349277cc4988"},"vehicle_type_id":"4","last_reported":1748556610,"current_range_meters":13600,"station_id":"ce4bh192rcd13ifvqdc0","pricing_plan_id":"cebpf4jnsgd1na2vs0mg"},{"bike_id":"c7976280-845b-4c77-bb3e-bc4afeb3150a","system_id":"levelo_inurba_marseille","lat":43.29418,"lon":5.38608,"is_reserved":false,"is_disabled":false,"rental_uris":{"android":"levelo://app?vid=c7976280-845b-4c77-bb3e-bc4afeb3150a","ios":"levelo://app?vid=c7976280-845b-4c77-bb3e-bc4afeb3150a"},"vehicle_type_id":"4","last_reported":1748556610,"current_range_meters":13600,"station_id":"ce4bh2h2rcd13ifvqdh0","pricing_plan_id":"cebpf4jnsgd1na2vs0mg"},{"bike_id":"318705d8-3560-457d-b89f-c777a99988b6","system_id":"levelo_inurba_marseille","lat":43.28371,"lon":5.38636,"is_reserved":false,"is_disabled":false,"rental_uris":{"android":"levelo://app?vid=318705d8-3560-457d-b89f-c777a99988b6","ios":"levelo://app?vid=318705d8-3560-457d-b89f-c777a99988b6"},"vehicle_type_id":"4","last_reported":1748556610,"current_range_meters":13600,"station_id":"ce4bh492rcd13ifvqdvg","pricing_plan_id":"cebpf4jnsgd1na2vs0mg"},{"bike_id":"1a3bfc78-a7fb-4188-bf74-224057e3d99e","system_id":"levelo_inurba_marseille","lat":43.29076,"lon":5.38106,"is_reserved":false,"is_disabled":false,"rental_uris":{"android":"levelo://app?vid=1a3bfc78-a7fb-4188-bf74-224057e3d99e","ios":"levelo://app?vid=1a3bfc78-a7fb-4188-bf74-224057e3d99e"},"vehicle_type_id":"4","last_reported":1748556610,"current_range_meters":13600,"station_id":"ce4bh512rcd13ifvqe2g","pricing_plan_id":"cebpf4jnsgd1na2vs0mg"},{"bike_id":"48e26ea8-1795-4299-a1c4-724bbc46d8d5","system_id":"levelo_inurba_marseille","lat":43.28928,"lon":5.36643,"is_reserved":false,"is_disabled":false,"rental_uris":{"android":"levelo://app?vid=48e26ea8-1795-4299-a1c4-724bbc46d8d5","ios":"levelo://app?vid=48e26ea8-1795-4299-a1c4-724bbc46d8d5"},"vehicle_type_id":"4","last_reported":1748556610,"current_range_meters":13600,"station_id":"ce4bhap2rcd13ifvqek0","pricing_plan_id":"cebpf4jnsgd1na2vs0mg"},{"bike_id":"c81bbe6e-138d-4fd7-ab74-b00b6263d429","system_id":"levelo_inurba_marseille","lat":43.28277,"lon":5.39087,"is_reserved":false,"is_disabled":false,"rental_uris":{"android":"levelo://app?vid=c81bbe6e-138d-4fd7-ab74-b00b6263d429","ios":"levelo://app?vid=c81bbe6e-138d-4fd7-ab74-b00b6263d429"},"vehicle_type_id":"4","last_reported":1748556610,"current_range_meters":14000,"station_id":"","pricing_plan_id":"cebpf4jnsgd1na2vs0mg"},{"bike_id":"9f47e54a-b931-48b2-abc4-efa6b74c3494","system_id":"levelo_inurba_marseille","lat":43.28923,"lon":5.38385,"is_reserved":false,"is_disabled":false,"rental_uris":{"android":"levelo://app?vid=9f47e54a-b931-48b2-abc4-efa6b74c3494","ios":"levelo://app?vid=9f47e54a-b931-48b2-abc4-efa6b74c3494"},"vehicle_type_id":"4","last_reported":1748556610,"current_range_meters":14000,"station_id":"ce4bh612rcd13ifvqe6g","pricing_plan_id":"cebpf4jnsgd1na2vs0mg"},{"bike_id":"6530242f-b0b0-4481-a762-bfc24a4d29eb","system_id":"levelo_inurba_marseille","lat":43.2466,"lon":5.38162,"is_reserved":false,"is_disabled":false,"rental_uris":{"android":"levelo://app?vid=6530242f-b0b0-4481-a762-bfc24a4d29eb","ios":"levelo://app?vid=6530242f-b0b0-4481-a762-bfc24a4d29eb"},"vehicle_type_id":"4","last_reported":1748556610,"current_range_meters":14000,"station_id":"ce4bhih2rcd13ifvqfr0","pricing_plan_id":"cebpf4jnsgd1na2vs0mg"},{"bike_id":"e22389ce-d4fb-4700-9f41-b20a5b9cd3f2","system_id":"levelo_inurba_marseille","lat":43.28701,"lon":5.39968,"is_reserved":false,"is_disabled":false,"rental_uris":{"android":"levelo://app?vid=e22389ce-d4fb-4700-9f41-b20a5b9cd3f2","ios":"levelo://app?vid=e22389ce-d4fb-4700-9f41-b20a5b9cd3f2"},"vehicle_type_id":"4","last_reported":1748556610,"current_range_meters":14000,"station_id":"ce4bho92rcd13ifvqh3g","pricing_plan_id":"cebpf4jnsgd1na2vs0mg"},{"bike_id":"bdbee15d-3458-4da8-8553-de9903cf45df","system_id":"levelo_inurba_marseille","lat":43.28437,"lon":5.39179,"is_reserved":false,"is_disabled":false,"rental_uris":{"android":"levelo://app?vid=bdbee15d-3458-4da8-8553-de9903cf45df","ios":"levelo://app?vid=bdbee15d-3458-4da8-8553-de9903cf45df"},"vehicle_type_id":"4","last_reported":1748556610,"current_range_meters":14000,"station_id":"ce4bhoh2rcd13ifvqh5g","pricing_plan_id":"cebpf4jnsgd1na2vs0mg"},{"bike_id":"c76ccdf2-9856-4f37-8fdc-95257458e63d","system_id":"levelo_inurba_marseille","lat":43.2963,"lon":5.406,"is_reserved":false,"is_disabled":false,"rental_uris":{"android":"levelo://app?vid=c76ccdf2-9856-4f37-8fdc-95257458e63d","ios":"levelo://app?vid=c76ccdf2-9856-4f37-8fdc-95257458e63d"},"vehicle_type_id":"4","last_reported":1748556610,"current_range_meters":14400,"station_id":"ce4bh0h2rcd13ifvqd60","pricing_plan_id":"cebpf4jnsgd1na2vs0mg"},{"bike_id":"765378e2-59d4-471d-96a5-e6ee4f9f4602","system_id":"levelo_inurba_marseille","lat":43.26061,"lon":5.393717,"is_reserved":false,"is_disabled":false,"rental_uris":{"android":"levelo://app?vid=765378e2-59d4-471d-96a5-e6ee4f9f4602","ios":"levelo://app?vid=765378e2-59d4-471d-96a5-e6ee4f9f4602"},"vehicle_type_id":"4","last_reported":1748556610,"current_range_meters":14400,"station_id":"ce4bhh92rcd13ifvqfj0","pricing_plan_id":"cebpf4jnsgd1na2vs0mg"},{"bike_id":"94d74484-c00f-4773-98b4-43f5ef9035c3","system_id":"levelo_inurba_marseille","lat":43.262269,"lon":5.404564,"is_reserved":false,"is_disabled":false,"rental_uris":{"android":"levelo://app?vid=94d74484-c00f-4773-98b4-43f5ef9035c3","ios":"levelo://app?vid=94d74484-c00f-4773-98b4-43f5ef9035c3"},"vehicle_type_id":"4","last_reported":1748556610,"current_range_meters":14400,"station_id":"ce4bhmh2rcd13ifvqgmg","pricing_plan_id":"cebpf4jnsgd1na2vs0mg"},{"bike_id":"cdb08d01-37f6-4410-98bb-80bc1e793589","system_id":"levelo_inurba_marseille","lat":43.29969,"lon":5.37177,"is_reserved":false,"is_disabled":false,"rental_uris":{"android":"levelo://app?vid=cdb08d01-37f6-4410-98bb-80bc1e793589","ios":"levelo://app?vid=cdb08d01-37f6-4410-98bb-80bc1e793589"},"vehicle_type_id":"4","last_reported":1748556610,"current_range_meters":14800,"station_id":"ce4bgr92rcd13ifvqc7g","pricing_plan_id":"cebpf4jnsgd1na2vs0mg"},{"bike_id":"ece14277-a1e5-45de-b872-3b5401b47b8b","system_id":"levelo_inurba_marseille","lat":43.30877,"lon":5.37198,"is_reserved":false,"is_disabled":false,"rental_uris":{"android":"levelo://app?vid=ece14277-a1e5-45de-b872-3b5401b47b8b","ios":"levelo://app?vid=ece14277-a1e5-45de-b872-3b5401b47b8b"},"vehicle_type_id":"4","last_reported":1748556610,"current_range_meters":14800,"station_id":"ce4bguh2rcd13ifvqckg","pricing_plan_id":"cebpf4jnsgd1na2vs0mg"},{"bike_id":"b2a6a94f-562b-430d-968b-557e39b40e29","system_id":"levelo_inurba_marseille","lat":43.31051,"lon":5.38334,"is_reserved":false,"is_disabled":false,"rental_uris":{"android":"levelo://app?vid=b2a6a94f-562b-430d-968b-557e39b40e29","ios":"levelo://app?vid=b2a6a94f-562b-430d-968b-557e39b40e29"},"vehicle_type_id":"4","last_reported":1748556610,"current_range_meters":14800,"station_id":"ce4bgv92rcd13ifvqcr0","pricing_plan_id":"cebpf4jnsgd1na2vs0mg"},{"bike_id":"294b1dda-9734-42a0-8ea1-99377c201681","system_id":"levelo_inurba_marseille","lat":43.30657,"lon":5.40076,"is_reserved":false,"is_disabled":false,"rental_uris":{"android":"levelo://app?vid=294b1dda-9734-42a0-8ea1-99377c201681","ios":"levelo://app?vid=294b1dda-9734-42a0-8ea1-99377c201681"},"vehicle_type_id":"4","last_reported":1748556610,"current_range_meters":14800,"station_id":"ce4bh112rcd13ifvqda0","pricing_plan_id":"cebpf4jnsgd1na2vs0mg"},{"bike_id":"7d4ba91c-7a7a-4535-9018-7a0082a8e326","system_id":"levelo_inurba_marseille","lat":43.27944,"lon":5.41046,"is_reserved":false,"is_disabled":false,"rental_uris":{"android":"levelo://app?vid=7d4ba91c-7a7a-4535-9018-7a0082a8e326","ios":"levelo://app?vid=7d4ba91c-7a7a-4535-9018-7a0082a8e326"},"vehicle_type_id":"4","last_reported":1748556610,"current_range_meters":14800,"station_id":"ce4bhnp2rcd13ifvqh0g","pricing_plan_id":"cebpf4jnsgd1na2vs0mg"},{"bike_id":"ff392818-f13b-4ef0-b2ad-6e7155767c9d","system_id":"levelo_inurba_marseille","lat":43.33727,"lon":5.39184,"is_reserved":false,"is_disabled":false,"rental_uris":{"android":"levelo://app?vid=ff392818-f13b-4ef0-b2ad-6e7155767c9d","ios":"levelo://app?vid=ff392818-f13b-4ef0-b2ad-6e7155767c9d"},"vehicle_type_id":"4","last_reported":1748556610,"current_range_meters":14800,"station_id":"ce4bhr92rcd13ifvqhsg","pricing_plan_id":"cebpf4jnsgd1na2vs0mg"},{"bike_id":"7243d7c8-02f5-4392-89cf-8c360e846d55","system_id":"levelo_inurba_marseille","lat":43.25269,"lon":5.37851,"is_reserved":false,"is_disabled":false,"rental_uris":{"android":"levelo://app?vid=7243d7c8-02f5-4392-89cf-8c360e846d55","ios":"levelo://app?vid=7243d7c8-02f5-4392-89cf-8c360e846d55"},"vehicle_type_id":"4","last_reported":1748556610,"current_range_meters":15200,"station_id":"","pricing_plan_id":"cebpf4jnsgd1na2vs0mg"},{"bike_id":"d041ba9b-b157-420b-92de-857f860b4947","system_id":"levelo_inurba_marseille","lat":43.28216,"lon":5.39057,"is_reserved":false,"is_disabled":false,"rental_uris":{"android":"levelo://app?vid=d041ba9b-b157-420b-92de-857f860b4947","ios":"levelo://app?vid=d041ba9b-b157-420b-92de-857f860b4947"},"vehicle_type_id":"4","last_reported":1748556610,"current_range_meters":15200,"station_id":"","pricing_plan_id":"cebpf4jnsgd1na2vs0mg"},{"bike_id":"7b24454f-d585-4c44-ac73-0fa13d9d8caf","system_id":"levelo_inurba_marseille","lat":43.301483,"lon":5.380628,"is_reserved":false,"is_disabled":false,"rental_uris":{"android":"levelo://app?vid=7b24454f-d585-4c44-ac73-0fa13d9d8caf","ios":"levelo://app?vid=7b24454f-d585-4c44-ac73-0fa13d9d8caf"},"vehicle_type_id":"4","last_reported":1748556610,"current_range_meters":15200,"station_id":"ce4bgjp2rcd13ifvqbh0","pricing_plan_id":"cebpf4jnsgd1na2vs0mg"},{"bike_id":"9529abe4-3341-476b-be87-761930805e74","system_id":"levelo_inurba_marseille","lat":43.30091,"lon":5.39078,"is_reserved":false,"is_disabled":false,"rental_uris":{"android":"levelo://app?vid=9529abe4-3341-476b-be87-761930805e74","ios":"levelo://app?vid=9529abe4-3341-476b-be87-761930805e74"},"vehicle_type_id":"4","last_reported":1748556610,"current_range_meters":15200,"station_id":"ce4bh192rcd13ifvqdb0","pricing_plan_id":"cebpf4jnsgd1na2vs0mg"},{"bike_id":"09903d18-0a4a-47b8-b680-8a828784967e","system_id":"levelo_inurba_marseille","lat":43.29026,"lon":5.39982,"is_reserved":false,"is_disabled":false,"rental_uris":{"android":"levelo://app?vid=09903d18-0a4a-47b8-b680-8a828784967e","ios":"levelo://app?vid=09903d18-0a4a-47b8-b680-8a828784967e"},"vehicle_type_id":"4","last_reported":1748556610,"current_range_meters":15200,"station_id":"ce4bh392rcd13ifvqdm0","pricing_plan_id":"cebpf4jnsgd1na2vs0mg"},{"bike_id":"3cd1a198-ab90-4078-97eb-205e01dc68fd","system_id":"levelo_inurba_marseille","lat":43.26228,"lon":5.40454,"is_reserved":false,"is_disabled":false,"rental_uris":{"android":"levelo://app?vid=3cd1a198-ab90-4078-97eb-205e01dc68fd","ios":"levelo://app?vid=3cd1a198-ab90-4078-97eb-205e01dc68fd"},"vehicle_type_id":"4","last_reported":1748556610,"current_range_meters":15200,"station_id":"ce4bhmh2rcd13ifvqgmg","pricing_plan_id":"cebpf4jnsgd1na2vs0mg"},{"bike_id":"2236b6c0-f763-40f5-8e40-14b379518f91","system_id":"levelo_inurba_marseille","lat":43.24605,"lon":5.39298,"is_reserved":false,"is_disabled":false,"rental_uris":{"android":"levelo://app?vid=2236b6c0-f763-40f5-8e40-14b379518f91","ios":"levelo://app?vid=2236b6c0-f763-40f5-8e40-14b379518f91"},"vehicle_type_id":"4","last_reported":1748556610,"current_range_meters":16000,"station_id":"","pricing_plan_id":"cebpf4jnsgd1na2vs0mg"},{"bike_id":"9e077e27-33c0-4331-96cc-ce43f93f1c2b","system_id":"levelo_inurba_marseille","lat":43.26741,"lon":5.37208,"is_reserved":false,"is_disabled":false,"rental_uris":{"android":"levelo://app?vid=9e077e27-33c0-4331-96cc-ce43f93f1c2b","ios":"levelo://app?vid=9e077e27-33c0-4331-96cc-ce43f93f1c2b"},"vehicle_type_id":"4","last_reported":1748556610,"current_range_meters":16000,"station_id":"","pricing_plan_id":"cebpf4jnsgd1na2vs0mg"},{"bike_id":"1332a20e-ca24-4c75-921e-e6e14530fe23","system_id":"levelo_inurba_marseille","lat":43.310694,"lon":5.3835,"is_reserved":false,"is_disabled":false,"rental_uris":{"android":"levelo://app?vid=1332a20e-ca24-4c75-921e-e6e14530fe23","ios":"levelo://app?vid=1332a20e-ca24-4c75-921e-e6e14530fe23"},"vehicle_type_id":"4","last_reported":1748556610,"current_range_meters":16000,"station_id":"ce4bgv92rcd13ifvqcr0","pricing_plan_id":"cebpf4jnsgd1na2vs0mg"},{"bike_id":"9b8c8665-ef63-45c8-aff5-1c0f6a4a89f7","system_id":"levelo_inurba_marseille","lat":43.31065,"lon":5.38323,"is_reserved":false,"is_disabled":false,"rental_uris":{"android":"levelo://app?vid=9b8c8665-ef63-45c8-aff5-1c0f6a4a89f7","ios":"levelo://app?vid=9b8c8665-ef63-45c8-aff5-1c0f6a4a89f7"},"vehicle_type_id":"4","last_reported":1748556610,"current_range_meters":16000,"station_id":"ce4bgv92rcd13ifvqcr0","pricing_plan_id":"cebpf4jnsgd1na2vs0mg"},{"bike_id":"a0d2130a-19cb-440c-a5df-928780c2594b","system_id":"levelo_inurba_marseille","lat":43.24801,"lon":5.3745,"is_reserved":false,"is_disabled":false,"rental_uris":{"android":"levelo://app?vid=a0d2130a-19cb-440c-a5df-928780c2594b","ios":"levelo://app?vid=a0d2130a-19cb-440c-a5df-928780c2594b"},"vehicle_type_id":"4","last_reported":1748556610,"current_range_meters":16000,"station_id":"ce4bhgh2rcd13ifvqfb0","pricing_plan_id":"cebpf4jnsgd1na2vs0mg"},{"bike_id":"d4f1fc23-8207-42c2-bd4d-e7c9bec8c86d","system_id":"levelo_inurba_marseille","lat":43.28436,"lon":5.39176,"is_reserved":false,"is_disabled":false,"rental_uris":{"android":"levelo://app?vid=d4f1fc23-8207-42c2-bd4d-e7c9bec8c86d","ios":"levelo://app?vid=d4f1fc23-8207-42c2-bd4d-e7c9bec8c86d"},"vehicle_type_id":"4","last_reported":1748556610,"current_range_meters":16000,"station_id":"ce4bhoh2rcd13ifvqh5g","pricing_plan_id":"cebpf4jnsgd1na2vs0mg"},{"bike_id":"c10cb07c-0505-466d-9908-c10eb1939ad3","system_id":"levelo_inurba_marseille","lat":43.28723,"lon":5.36088,"is_reserved":false,"is_disabled":false,"rental_uris":{"android":"levelo://app?vid=c10cb07c-0505-466d-9908-c10eb1939ad3","ios":"levelo://app?vid=c10cb07c-0505-466d-9908-c10eb1939ad3"},"vehicle_type_id":"4","last_reported":1748556610,"current_range_meters":16000,"station_id":"cki0cbj6b192h4jlfktg","pricing_plan_id":"cebpf4jnsgd1na2vs0mg"},{"bike_id":"9fe1e697-36ec-421f-b0be-031c2f5ed7f3","system_id":"levelo_inurba_marseille","lat":43.33718,"lon":5.37371,"is_reserved":false,"is_disabled":false,"rental_uris":{"android":"levelo://app?vid=9fe1e697-36ec-421f-b0be-031c2f5ed7f3","ios":"levelo://app?vid=9fe1e697-36ec-421f-b0be-031c2f5ed7f3"},"vehicle_type_id":"4","last_reported":1748556610,"current_range_meters":16400,"station_id":"","pricing_plan_id":"cebpf4jnsgd1na2vs0mg"},{"bike_id":"a511d578-129f-44e0-a573-a31884933e6b","system_id":"levelo_inurba_marseille","lat":43.27508,"lon":5.40931,"is_reserved":false,"is_disabled":false,"rental_uris":{"android":"levelo://app?vid=a511d578-129f-44e0-a573-a31884933e6b","ios":"levelo://app?vid=a511d578-129f-44e0-a573-a31884933e6b"},"vehicle_type_id":"4","last_reported":1748556610,"current_range_meters":16400,"station_id":"","pricing_plan_id":"cebpf4jnsgd1na2vs0mg"},{"bike_id":"f2327b2b-c332-4575-a244-94a9e48b9710","system_id":"levelo_inurba_marseille","lat":43.306149,"lon":5.384593,"is_reserved":false,"is_disabled":false,"rental_uris":{"android":"levelo://app?vid=f2327b2b-c332-4575-a244-94a9e48b9710","ios":"levelo://app?vid=f2327b2b-c332-4575-a244-94a9e48b9710"},"vehicle_type_id":"4","last_reported":1748556610,"current_range_meters":16400,"station_id":"ce4bgg92rcd13ifvqb30","pricing_plan_id":"cebpf4jnsgd1na2vs0mg"},{"bike_id":"7f20e79f-7534-48cb-872e-e8fc538f0a14","system_id":"levelo_inurba_marseille","lat":43.30881,"lon":5.3965,"is_reserved":false,"is_disabled":false,"rental_uris":{"android":"levelo://app?vid=7f20e79f-7534-48cb-872e-e8fc538f0a14","ios":"levelo://app?vid=7f20e79f-7534-48cb-872e-e8fc538f0a14"},"vehicle_type_id":"4","last_reported":1748556610,"current_range_meters":16400,"station_id":"ce4bh012rcd13ifvqcv0","pricing_plan_id":"cebpf4jnsgd1na2vs0mg"},{"bike_id":"5505f9fc-1b95-4054-97de-19bb3f7fda65","system_id":"levelo_inurba_marseille","lat":43.29631,"lon":5.40596,"is_reserved":false,"is_disabled":false,"rental_uris":{"android":"levelo://app?vid=5505f9fc-1b95-4054-97de-19bb3f7fda65","ios":"levelo://app?vid=5505f9fc-1b95-4054-97de-19bb3f7fda65"},"vehicle_type_id":"4","last_reported":1748556610,"current_range_meters":16400,"station_id":"ce4bh0h2rcd13ifvqd60","pricing_plan_id":"cebpf4jnsgd1na2vs0mg"},{"bike_id":"41d1c689-7882-4f1f-b65b-db3009a22424","system_id":"levelo_inurba_marseille","lat":43.2952,"lon":5.39401,"is_reserved":false,"is_disabled":false,"rental_uris":{"android":"levelo://app?vid=41d1c689-7882-4f1f-b65b-db3009a22424","ios":"levelo://app?vid=41d1c689-7882-4f1f-b65b-db3009a22424"},"vehicle_type_id":"4","last_reported":1748556610,"current_range_meters":16400,"station_id":"ce4bh292rcd13ifvqdf0","pricing_plan_id":"cebpf4jnsgd1na2vs0mg"},{"bike_id":"94fab7f0-906e-4ec7-95e9-0bc00b03b609","system_id":"levelo_inurba_marseille","lat":43.25067,"lon":5.39538,"is_reserved":false,"is_disabled":false,"rental_uris":{"android":"levelo://app?vid=94fab7f0-906e-4ec7-95e9-0bc00b03b609","ios":"levelo://app?vid=94fab7f0-906e-4ec7-95e9-0bc00b03b609"},"vehicle_type_id":"4","last_reported":1748556610,"current_range_meters":16400,"station_id":"ce4bhm12rcd13ifvqgkg","pricing_plan_id":"cebpf4jnsgd1na2vs0mg"},{"bike_id":"cd0a7850-7610-418f-a948-39c49631ef2b","system_id":"levelo_inurba_marseille","lat":43.31688,"lon":5.40478,"is_reserved":false,"is_disabled":false,"rental_uris":{"android":"levelo://app?vid=cd0a7850-7610-418f-a948-39c49631ef2b","ios":"levelo://app?vid=cd0a7850-7610-418f-a948-39c49631ef2b"},"vehicle_type_id":"4","last_reported":1748556610,"current_range_meters":16800,"station_id":"ce4bh012rcd13ifvqd00","pricing_plan_id":"cebpf4jnsgd1na2vs0mg"},{"bike_id":"13bed428-c03a-4684-8d63-d182e8dca0c1","system_id":"levelo_inurba_marseille","lat":43.294224,"lon":5.386334,"is_reserved":false,"is_disabled":false,"rental_uris":{"android":"levelo://app?vid=13bed428-c03a-4684-8d63-d182e8dca0c1","ios":"levelo://app?vid=13bed428-c03a-4684-8d63-d182e8dca0c1"},"vehicle_type_id":"4","last_reported":1748556610,"current_range_meters":16800,"station_id":"ce4bh2h2rcd13ifvqdh0","pricing_plan_id":"cebpf4jnsgd1na2vs0mg"},{"bike_id":"07a859cc-1cff-40ca-b1c6-288543a3ee14","system_id":"levelo_inurba_marseille","lat":43.29419,"lon":5.38641,"is_reserved":false,"is_disabled":false,"rental_uris":{"android":"levelo://app?vid=07a859cc-1cff-40ca-b1c6-288543a3ee14","ios":"levelo://app?vid=07a859cc-1cff-40ca-b1c6-288543a3ee14"},"vehicle_type_id":"4","last_reported":1748556610,"current_range_meters":16800,"station_id":"ce4bh2h2rcd13ifvqdh0","pricing_plan_id":"cebpf4jnsgd1na2vs0mg"},{"bike_id":"e8df6e55-a561-4b7a-912e-d9ea01a18adc","system_id":"levelo_inurba_marseille","lat":43.29282,"lon":5.40111,"is_reserved":false,"is_disabled":false,"rental_uris":{"android":"levelo://app?vid=e8df6e55-a561-4b7a-912e-d9ea01a18adc","ios":"levelo://app?vid=e8df6e55-a561-4b7a-912e-d9ea01a18adc"},"vehicle_type_id":"4","last_reported":1748556610,"current_range_meters":16800,"station_id":"ce4bh312rcd13ifvqdk0","pricing_plan_id":"cebpf4jnsgd1na2vs0mg"},{"bike_id":"46f366af-896d-4bee-9d54-b2429dc95480","system_id":"levelo_inurba_marseille","lat":43.28931,"lon":5.38382,"is_reserved":false,"is_disabled":false,"rental_uris":{"android":"levelo://app?vid=46f366af-896d-4bee-9d54-b2429dc95480","ios":"levelo://app?vid=46f366af-896d-4bee-9d54-b2429dc95480"},"vehicle_type_id":"4","last_reported":1748556610,"current_range_meters":16800,"station_id":"ce4bh612rcd13ifvqe6g","pricing_plan_id":"cebpf4jnsgd1na2vs0mg"},{"bike_id":"9162a4d8-7561-4771-a6d5-6cc99ea0e7b6","system_id":"levelo_inurba_marseille","lat":43.28285,"lon":5.39084,"is_reserved":false,"is_disabled":false,"rental_uris":{"android":"levelo://app?vid=9162a4d8-7561-4771-a6d5-6cc99ea0e7b6","ios":"levelo://app?vid=9162a4d8-7561-4771-a6d5-6cc99ea0e7b6"},"vehicle_type_id":"4","last_reported":1748556610,"current_range_meters":17200,"station_id":"","pricing_plan_id":"cebpf4jnsgd1na2vs0mg"},{"bike_id":"f9107c1a-9003-4ce3-805a-9b8c191b7dff","system_id":"levelo_inurba_marseille","lat":43.31355,"lon":5.38491,"is_reserved":false,"is_disabled":false,"rental_uris":{"android":"levelo://app?vid=f9107c1a-9003-4ce3-805a-9b8c191b7dff","ios":"levelo://app?vid=f9107c1a-9003-4ce3-805a-9b8c191b7dff"},"vehicle_type_id":"4","last_reported":1748556610,"current_range_meters":17200,"station_id":"ce4bgt92rcd13ifvqcf0","pricing_plan_id":"cebpf4jnsgd1na2vs0mg"},{"bike_id":"8d4c06a4-5264-4c28-b3f4-78a4e60dd47a","system_id":"levelo_inurba_marseille","lat":43.301694,"lon":5.393637,"is_reserved":false,"is_disabled":false,"rental_uris":{"android":"levelo://app?vid=8d4c06a4-5264-4c28-b3f4-78a4e60dd47a","ios":"levelo://app?vid=8d4c06a4-5264-4c28-b3f4-78a4e60dd47a"},"vehicle_type_id":"4","last_reported":1748556610,"current_range_meters":17200,"station_id":"ce4bh0p2rcd13ifvqd70","pricing_plan_id":"cebpf4jnsgd1na2vs0mg"},{"bike_id":"b18036e4-cdbb-441f-a4f1-99c9cdbece34","system_id":"levelo_inurba_marseille","lat":43.29497,"lon":5.39073,"is_reserved":false,"is_disabled":false,"rental_uris":{"android":"levelo://app?vid=b18036e4-cdbb-441f-a4f1-99c9cdbece34","ios":"levelo://app?vid=b18036e4-cdbb-441f-a4f1-99c9cdbece34"},"vehicle_type_id":"4","last_reported":1748556610,"current_range_meters":17200,"station_id":"ce4bh3p2rcd13ifvqdp0","pricing_plan_id":"cebpf4jnsgd1na2vs0mg"},{"bike_id":"b747b40b-4078-4e67-8642-0cbd9ef0eb59","system_id":"levelo_inurba_marseille","lat":43.26557,"lon":5.37281,"is_reserved":false,"is_disabled":false,"rental_uris":{"android":"levelo://app?vid=b747b40b-4078-4e67-8642-0cbd9ef0eb59","ios":"levelo://app?vid=b747b40b-4078-4e67-8642-0cbd9ef0eb59"},"vehicle_type_id":"4","last_reported":1748556610,"current_range_meters":17200,"station_id":"ce4bhg12rcd13ifvqf70","pricing_plan_id":"cebpf4jnsgd1na2vs0mg"},{"bike_id":"0fbfc8d7-51f2-48ba-bf46-e03726ce033d","system_id":"levelo_inurba_marseille","lat":43.2466,"lon":5.3816,"is_reserved":false,"is_disabled":false,"rental_uris":{"android":"levelo://app?vid=0fbfc8d7-51f2-48ba-bf46-e03726ce033d","ios":"levelo://app?vid=0fbfc8d7-51f2-48ba-bf46-e03726ce033d"},"vehicle_type_id":"4","last_reported":1748556610,"current_range_meters":17200,"station_id":"ce4bhih2rcd13ifvqfr0","pricing_plan_id":"cebpf4jnsgd1na2vs0mg"},{"bike_id":"6d47f846-5bcf-454b-9012-776b91cd9b1f","system_id":"levelo_inurba_marseille","lat":43.27178,"lon":5.40994,"is_reserved":false,"is_disabled":false,"rental_uris":{"android":"levelo://app?vid=6d47f846-5bcf-454b-9012-776b91cd9b1f","ios":"levelo://app?vid=6d47f846-5bcf-454b-9012-776b91cd9b1f"},"vehicle_type_id":"4","last_reported":1748556610,"current_range_meters":17200,"station_id":"ce4bhl12rcd13ifvqgf0","pricing_plan_id":"cebpf4jnsgd1na2vs0mg"},{"bike_id":"23be7b8b-a75d-4a5e-83d6-aa551003c2c4","system_id":"levelo_inurba_marseille","lat":43.26805,"lon":5.40258,"is_reserved":false,"is_disabled":false,"rental_uris":{"android":"levelo://app?vid=23be7b8b-a75d-4a5e-83d6-aa551003c2c4","ios":"levelo://app?vid=23be7b8b-a75d-4a5e-83d6-aa551003c2c4"},"vehicle_type_id":"4","last_reported":1748556610,"current_range_meters":17200,"station_id":"ce501612rcd8frsf0b60","pricing_plan_id":"cebpf4jnsgd1na2vs0mg"},{"bike_id":"75070cf3-b446-4fc5-b910-081a0475117c","system_id":"levelo_inurba_marseille","lat":43.28725,"lon":5.36095,"is_reserved":false,"is_disabled":false,"rental_uris":{"android":"levelo://app?vid=75070cf3-b446-4fc5-b910-081a0475117c","ios":"levelo://app?vid=75070cf3-b446-4fc5-b910-081a0475117c"},"vehicle_type_id":"4","last_reported":1748556610,"current_range_meters":17200,"station_id":"cki0cbj6b192h4jlfktg","pricing_plan_id":"cebpf4jnsgd1na2vs0mg"},{"bike_id":"fd7ad8b5-d599-4a91-b59b-ac2aa9cb4f73","system_id":"levelo_inurba_marseille","lat":43.271303,"lon":5.399983,"is_reserved":false,"is_disabled":false,"rental_uris":{"android":"levelo://app?vid=fd7ad8b5-d599-4a91-b59b-ac2aa9cb4f73","ios":"levelo://app?vid=fd7ad8b5-d599-4a91-b59b-ac2aa9cb4f73"},"vehicle_type_id":"4","last_reported":1748556610,"current_range_meters":17600,"station_id":"","pricing_plan_id":"cebpf4jnsgd1na2vs0mg"},{"bike_id":"d6d1ada7-d095-4848-a9c7-71d520f6d868","system_id":"levelo_inurba_marseille","lat":43.299666,"lon":5.384894,"is_reserved":false,"is_disabled":false,"rental_uris":{"android":"levelo://app?vid=d6d1ada7-d095-4848-a9c7-71d520f6d868","ios":"levelo://app?vid=d6d1ada7-d095-4848-a9c7-71d520f6d868"},"vehicle_type_id":"4","last_reported":1748556610,"current_range_meters":17600,"station_id":"","pricing_plan_id":"cebpf4jnsgd1na2vs0mg"},{"bike_id":"14960bf0-5194-4f14-bef0-766957d27bb3","system_id":"levelo_inurba_marseille","lat":43.2928,"lon":5.40155,"is_reserved":false,"is_disabled":false,"rental_uris":{"android":"levelo://app?vid=14960bf0-5194-4f14-bef0-766957d27bb3","ios":"levelo://app?vid=14960bf0-5194-4f14-bef0-766957d27bb3"},"vehicle_type_id":"4","last_reported":1748556610,"current_range_meters":17600,"station_id":"ce4bh312rcd13ifvqdk0","pricing_plan_id":"cebpf4jnsgd1na2vs0mg"},{"bike_id":"0bf52645-bb43-42b3-9040-e1913a21ba77","system_id":"levelo_inurba_marseille","lat":43.289302,"lon":5.383996,"is_reserved":false,"is_disabled":false,"rental_uris":{"android":"levelo://app?vid=0bf52645-bb43-42b3-9040-e1913a21ba77","ios":"levelo://app?vid=0bf52645-bb43-42b3-9040-e1913a21ba77"},"vehicle_type_id":"4","last_reported":1748556610,"current_range_meters":17600,"station_id":"ce4bh612rcd13ifvqe6g","pricing_plan_id":"cebpf4jnsgd1na2vs0mg"},{"bike_id":"950a66c6-0112-4714-a007-202e42172c1f","system_id":"levelo_inurba_marseille","lat":43.24813,"lon":5.37446,"is_reserved":false,"is_disabled":false,"rental_uris":{"android":"levelo://app?vid=950a66c6-0112-4714-a007-202e42172c1f","ios":"levelo://app?vid=950a66c6-0112-4714-a007-202e42172c1f"},"vehicle_type_id":"4","last_reported":1748556610,"current_range_meters":17600,"station_id":"ce4bhgh2rcd13ifvqfb0","pricing_plan_id":"cebpf4jnsgd1na2vs0mg"},{"bike_id":"03c5fbb1-cc40-457d-980a-b551faec06e9","system_id":"levelo_inurba_marseille","lat":43.25089,"lon":5.39522,"is_reserved":false,"is_disabled":false,"rental_uris":{"android":"levelo://app?vid=03c5fbb1-cc40-457d-980a-b551faec06e9","ios":"levelo://app?vid=03c5fbb1-cc40-457d-980a-b551faec06e9"},"vehicle_type_id":"4","last_reported":1748556610,"current_range_meters":17600,"station_id":"ce4bhm12rcd13ifvqgkg","pricing_plan_id":"cebpf4jnsgd1na2vs0mg"},{"bike_id":"7eca6927-0eee-41fb-838c-8606d041ec62","system_id":"levelo_inurba_marseille","lat":43.26229,"lon":5.40458,"is_reserved":false,"is_disabled":false,"rental_uris":{"android":"levelo://app?vid=7eca6927-0eee-41fb-838c-8606d041ec62","ios":"levelo://app?vid=7eca6927-0eee-41fb-838c-8606d041ec62"},"vehicle_type_id":"4","last_reported":1748556610,"current_range_meters":17600,"station_id":"ce4bhmh2rcd13ifvqgmg","pricing_plan_id":"cebpf4jnsgd1na2vs0mg"},{"bike_id":"3d195318-0d26-40fe-b3db-097a9a81e2fa","system_id":"levelo_inurba_marseille","lat":43.31084,"lon":5.4243,"is_reserved":false,"is_disabled":false,"rental_uris":{"android":"levelo://app?vid=3d195318-0d26-40fe-b3db-097a9a81e2fa","ios":"levelo://app?vid=3d195318-0d26-40fe-b3db-097a9a81e2fa"},"vehicle_type_id":"4","last_reported":1748556610,"current_range_meters":17600,"station_id":"ce4bhp92rcd13ifvqhag","pricing_plan_id":"cebpf4jnsgd1na2vs0mg"},{"bike_id":"c58b4350-b167-4621-84df-7309144435ea","system_id":"levelo_inurba_marseille","lat":43.29532,"lon":5.38523,"is_reserved":false,"is_disabled":false,"rental_uris":{"android":"levelo://app?vid=c58b4350-b167-4621-84df-7309144435ea","ios":"levelo://app?vid=c58b4350-b167-4621-84df-7309144435ea"},"vehicle_type_id":"4","last_reported":1748556610,"current_range_meters":18000,"station_id":"ce4bgih2rcd13ifvqba0","pricing_plan_id":"cebpf4jnsgd1na2vs0mg"},{"bike_id":"e7ae23e4-fd0c-4bf8-8c3a-750906d9cbcf","system_id":"levelo_inurba_marseille","lat":43.30602,"lon":5.37226,"is_reserved":false,"is_disabled":false,"rental_uris":{"android":"levelo://app?vid=e7ae23e4-fd0c-4bf8-8c3a-750906d9cbcf","ios":"levelo://app?vid=e7ae23e4-fd0c-4bf8-8c3a-750906d9cbcf"},"vehicle_type_id":"4","last_reported":1748556610,"current_range_meters":18000,"station_id":"ce4bgqh2rcd13ifvqc4g","pricing_plan_id":"cebpf4jnsgd1na2vs0mg"},{"bike_id":"36420f9c-fe45-411c-b06c-efc92d24bc41","system_id":"levelo_inurba_marseille","lat":43.3061,"lon":5.37217,"is_reserved":false,"is_disabled":false,"rental_uris":{"android":"levelo://app?vid=36420f9c-fe45-411c-b06c-efc92d24bc41","ios":"levelo://app?vid=36420f9c-fe45-411c-b06c-efc92d24bc41"},"vehicle_type_id":"4","last_reported":1748556610,"current_range_meters":18000,"station_id":"ce4bgqh2rcd13ifvqc4g","pricing_plan_id":"cebpf4jnsgd1na2vs0mg"},{"bike_id":"c7a12a61-8627-478d-b94d-1223391012bf","system_id":"levelo_inurba_marseille","lat":43.31117,"lon":5.37763,"is_reserved":false,"is_disabled":false,"rental_uris":{"android":"levelo://app?vid=c7a12a61-8627-478d-b94d-1223391012bf","ios":"levelo://app?vid=c7a12a61-8627-478d-b94d-1223391012bf"},"vehicle_type_id":"4","last_reported":1748556610,"current_range_meters":18000,"station_id":"ce4bgt92rcd13ifvqcg0","pricing_plan_id":"cebpf4jnsgd1na2vs0mg"},{"bike_id":"ddfda52e-ff7f-45d5-8787-43dd5979ae08","system_id":"levelo_inurba_marseille","lat":43.316155,"lon":5.374383,"is_reserved":false,"is_disabled":false,"rental_uris":{"android":"levelo://app?vid=ddfda52e-ff7f-45d5-8787-43dd5979ae08","ios":"levelo://app?vid=ddfda52e-ff7f-45d5-8787-43dd5979ae08"},"vehicle_type_id":"4","last_reported":1748556610,"current_range_meters":18000,"station_id":"ce4bgth2rcd13ifvqch0","pricing_plan_id":"cebpf4jnsgd1na2vs0mg"},{"bike_id":"aafe2f57-e2ec-44cd-b95f-d6871f482382","system_id":"levelo_inurba_marseille","lat":43.30655,"lon":5.40074,"is_reserved":false,"is_disabled":false,"rental_uris":{"android":"levelo://app?vid=aafe2f57-e2ec-44cd-b95f-d6871f482382","ios":"levelo://app?vid=aafe2f57-e2ec-44cd-b95f-d6871f482382"},"vehicle_type_id":"4","last_reported":1748556610,"current_range_meters":18000,"station_id":"ce4bh112rcd13ifvqda0","pricing_plan_id":"cebpf4jnsgd1na2vs0mg"},