{"last_updated":1725948767,"ttl":30,"version":"2.2","data":{"bikes":[{"bike_id":"e0cab103-a3ad-43e4-ba70-1279d2ccc89f","system_id":"levelo_inurba_marseille","lat":43.30941,"lon":5.390302,"is_reserved":false,"is_disabled":false,"rental_uris":{"android":"levelo://app?vid=e0cab103-a3ad-43e4-ba70-1279d2ccc89f","ios":"levelo://app?vid=e0cab103-a3ad-43e4-ba70-1279d2ccc89f"},"vehicle_type_id":"4","last_reported":1725948767,"current_range_meters":28800,"station_id":"ce4bgup2rcd13ifvqco0","pricing_plan_id":"cebpf4jnsgd1na2vs0mg"},{"bike_id":"8e77d467-e689-4e16-82d1-497da63a73c9","system_id":"levelo_inurba_marseille","lat":43.29601,"lon":5.38095,"is_reserved":false,"is_disabled":false,"rental_uris":{"android":"levelo://app?vid=8e77d467-e689-4e16-82d1-497da63a73c9","ios":"levelo://app?vid=8e77d467-e689-4e16-82d1-497da63a73c9"},"vehicle_type_id":"4","last_reported":1725948767,"current_range_meters":36000,"station_id":"ce4bgl12rcd13ifvqbo0","pricing_plan_id":"cebpf4jnsgd1na2vs0mg"},{"bike_id":"e62629a8-f83e-4869-8564-dc818f1c42a7","system_id":"levelo_inurba_marseille","lat":43.31176,"lon":5.38705,"is_reserved":false,"is_disabled":false,"rental_uris":{"android":"levelo://app?vid=e62629a8-f83e-4869-8564-dc818f1c42a7","ios":"levelo://app?vid=e62629a8-f83e-4869-8564-dc818f1c42a7"},"vehicle_type_id":"4","last_reported":1725948767,"current_range_meters":38800,"station_id":"ce4bgv12rcd13ifvqcp0","pricing_plan_id":"cebpf4jnsgd1na2vs0mg"},{"bike_id":"317167fb-451a-48ab-aff6-0945e2c67bfb","system_id":"levelo_inurba_marseille","lat":43.23204,"lon":5.39968,"is_reserved":false,"is_disabled":false,"rental_uris":{"android":"levelo://app?vid=317167fb-451a-48ab-aff6-0945e2c67bfb","ios":"levelo://app?vid=317167fb-451a-48ab-aff6-0945e2c67bfb"},"vehicle_type_id":"4","last_reported":1725948767,"current_range_meters":21600,"station_id":"ce4bhn12rcd13ifvqgqg","pricing_plan_id":"cebpf4jnsgd1na2vs0mg"},{"bike_id":"bc30dbe3-2402-4b3a-b5da-8f5d9a126da2","system_id":"levelo_inurba_marseille","lat":43.259369,"lon":5.409038,"is_reserved":false,"is_disabled":false,"rental_uris":{"android":"levelo://app?vid=bc30dbe3-2402-4b3a-b5da-8f5d9a126da2","ios":"levelo://app?vid=bc30dbe3-2402-4b3a-b5da-8f5d9a126da2"},"vehicle_type_id":"4","last_reported":1725948767,"current_range_meters":26800,"station_id":"ce4bhm92rcd13ifvqglg","pricing_plan_id":"cebpf4jnsgd1na2vs0mg"},{"bike_id":"d40d5247-41a0-4c4b-b369-d9331c518c50","system_id":"levelo_inurba_marseille","lat":43.28082,"lon":5.39658,"is_reserved":false,"is_disabled":false,"rental_uris":{"android":"levelo://app?vid=d40d5247-41a0-4c4b-b369-d9331c518c50","ios":"levelo://app?vid=d40d5247-41a0-4c4b-b369-d9331c518c50"},"vehicle_type_id":"4","last_reported":1725948767,"current_range_meters":4400,"station_id":"ce4bho12rcd13ifvqh2g","pricing_plan_id":"cebpf4jnsgd1na2vs0mg"},{"bike_id":"25e83a89-e64d-4a1e-b951-7f94e803b073","system_id":"levelo_inurba_marseille","lat":43.28958,"lon":5.36656,"is_reserved":false,"is_disabled":false,"rental_uris":{"android":"levelo://app?vid=25e83a89-e64d-4a1e-b951-7f94e803b073","ios":"levelo://app?vid=25e83a89-e64d-4a1e-b951-7f94e803b073"},"vehicle_type_id":"4","last_reported":1725948767,"current_range_meters":25600,"station_id":"ce4bhap2rcd13ifvqek0","pricing_plan_id":"cebpf4jnsgd1na2vs0mg"},{"bike_id":"9938e91c-265b-40a5-a9ee-a8a818767b92","system_id":"levelo_inurba_marseille","lat":43.24676,"lon":5.38163,"is_reserved":false,"is_disabled":false,"rental_uris":{"android":"levelo://app?vid=9938e91c-265b-40a5-a9ee-a8a818767b92","ios":"levelo://app?vid=9938e91c-265b-40a5-a9ee-a8a818767b92"},"vehicle_type_id":"4","last_reported":1725948767,"current_range_meters":16000,"station_id":"ce4bhih2rcd13ifvqfr0","pricing_plan_id":"cebpf4jnsgd1na2vs0mg"},{"bike_id":"b02222ec-0387-4ff5-8918-29e62bcf5a98","system_id":"levelo_inurba_marseille","lat":43.32486,"lon":5.36565,"is_reserved":false,"is_disabled":false,"rental_uris":{"android":"levelo://app?vid=b02222ec-0387-4ff5-8918-29e62bcf5a98","ios":"levelo://app?vid=b02222ec-0387-4ff5-8918-29e62bcf5a98"},"vehicle_type_id":"4","last_reported":1725948767,"current_range_meters":22400,"station_id":"ce4bhs12rcd13ifvqhvg","pricing_plan_id":"cebpf4jnsgd1na2vs0mg"},{"bike_id":"25a734f0-5a58-49fa-9e2e-761a6040d468","system_id":"levelo_inurba_marseille","lat":43.2315,"lon":5.43715,"is_reserved":false,"is_disabled":false,"rental_uris":{"android":"levelo://app?vid=25a734f0-5a58-49fa-9e2e-761a6040d468","ios":"levelo://app?vid=25a734f0-5a58-49fa-9e2e-761a6040d468"},"vehicle_type_id":"4","last_reported":1725948767,"current_range_meters":19600,"station_id":"ce4bhmp2rcd13ifvqgog","pricing_plan_id":"cebpf4jnsgd1na2vs0mg"},{"bike_id":"273bfe13-bc71-40ca-9955-e31d49cb88e0","system_id":"levelo_inurba_marseille","lat":43.23961,"lon":5.36621,"is_reserved":false,"is_disabled":false,"rental_uris":{"android":"levelo://app?vid=273bfe13-bc71-40ca-9955-e31d49cb88e0","ios":"levelo://app?vid=273bfe13-bc71-40ca-9955-e31d49cb88e0"},"vehicle_type_id":"4","last_reported":1725948767,"current_range_meters":38000,"station_id":"ce4bhi12rcd13ifvqfp0","pricing_plan_id":"cebpf4jnsgd1na2vs0mg"},{"bike_id":"1004d728-47f8-412d-8377-50e23da8c190","system_id":"levelo_inurba_marseille","lat":43.30477,"lon":5.37916,"is_reserved":false,"is_disabled":false,"rental_uris":{"android":"levelo://app?vid=1004d728-47f8-412d-8377-50e23da8c190","ios":"levelo://app?vid=1004d728-47f8-412d-8377-50e23da8c190"},"vehicle_type_id":"4","last_reported":1725948767,"current_range_meters":25200,"station_id":"ce4bgup2rcd13ifvqcn0","pricing_plan_id":"cebpf4jnsgd1na2vs0mg"},{"bike_id":"f5c9d5a3-bded-4bdf-a211-9658b468f702","system_id":"levelo_inurba_marseille","lat":43.32293,"lon":5.38275,"is_reserved":false,"is_disabled":false,"rental_uris":{"android":"levelo://app?vid=f5c9d5a3-bded-4bdf-a211-9658b468f702","ios":"levelo://app?vid=f5c9d5a3-bded-4bdf-a211-9658b468f702"},"vehicle_type_id":"4","last_reported":1725948767,"current_range_meters":38000,"station_id":"ce4bhr12rcd13ifvqhqg","pricing_plan_id":"cebpf4jnsgd1na2vs0mg"},{"bike_id":"49fec638-a96b-42fd-9f27-ec7b044f5323","system_id":"levelo_inurba_marseille","lat":43.27074,"lon":5.42273,"is_reserved":false,"is_disabled":false,"rental_uris":{"android":"levelo://app?vid=49fec638-a96b-42fd-9f27-ec7b044f5323","ios":"levelo://app?vid=49fec638-a96b-42fd-9f27-ec7b044f5323"},"vehicle_type_id":"4","last_reported":1725948767,"current_range_meters":36800,"station_id":"ce4bhk92rcd13ifvqgb0","pricing_plan_id":"cebpf4jnsgd1na2vs0mg"},{"bike_id":"73a1f507-b56c-43d3-a62b-4708c2b556d0","system_id":"levelo_inurba_marseille","lat":43.33759,"lon":5.37433,"is_reserved":false,"is_disabled":false,"rental_uris":{"android":"levelo://app?vid=73a1f507-b56c-43d3-a62b-4708c2b556d0","ios":"levelo://app?vid=73a1f507-b56c-43d3-a62b-4708c2b556d0"},"vehicle_type_id":"4","last_reported":1725948767,"current_range_meters":38800,"station_id":"","pricing_plan_id":"cebpf4jnsgd1na2vs0mg"},{"bike_id":"ebd57153-7455-42ad-8f15-54d859317b27","system_id":"levelo_inurba_marseille","lat":43.24809,"lon":5.37454,"is_reserved":false,"is_disabled":false,"rental_uris":{"android":"levelo://app?vid=ebd57153-7455-42ad-8f15-54d859317b27","ios":"levelo://app?vid=ebd57153-7455-42ad-8f15-54d859317b27"},"vehicle_type_id":"4","last_reported":1725948767,"current_range_meters":38800,"station_id":"ce4bhgh2rcd13ifvqfb0","pricing_plan_id":"cebpf4jnsgd1na2vs0mg"},{"bike_id":"a1590e55-a3cf-4bd5-929b-b82361cc07ad","system_id":"levelo_inurba_marseille","lat":43.25936,"lon":5.40903,"is_reserved":false,"is_disabled":false,"rental_uris":{"android":"levelo://app?vid=a1590e55-a3cf-4bd5-929b-b82361cc07ad","ios":"levelo://app?vid=a1590e55-a3cf-4bd5-929b-b82361cc07ad"},"vehicle_type_id":"4","last_reported":1725948767,"current_range_meters":25600,"station_id":"ce4bhm92rcd13ifvqglg","pricing_plan_id":"cebpf4jnsgd1na2vs0mg"},{"bike_id":"72c0a3a8-30a5-49fd-98b2-2b890fb8b1d4","system_id":"levelo_inurba_marseille","lat":43.29503,"lon":5.37508,"is_reserved":false,"is_disabled":false,"rental_uris":{"android":"levelo://app?vid=72c0a3a8-30a5-49fd-98b2-2b890fb8b1d4","ios":"levelo://app?vid=72c0a3a8-30a5-49fd-98b2-2b890fb8b1d4"},"vehicle_type_id":"4","last_reported":1725948767,"current_range_meters":2800,"station_id":"ce4bgkp2rcd13ifvqbmg","pricing_plan_id":"cebpf4jnsgd1na2vs0mg"},{"bike_id":"fd6a6319-572d-49cb-8188-b8725f0c5d2d","system_id":"levelo_inurba_marseille","lat":43.31487,"lon":5.37305,"is_reserved":false,"is_disabled":false,"rental_uris":{"android":"levelo://app?vid=fd6a6319-572d-49cb-8188-b8725f0c5d2d","ios":"levelo://app?vid=fd6a6319-572d-49cb-8188-b8725f0c5d2d"},"vehicle_type_id":"4","last_reported":1725948767,"current_range_meters":5600,"station_id":"ce4bgt12rcd13ifvqcd0","pricing_plan_id":"cebpf4jnsgd1na2vs0mg"},{"bike_id":"488cdd4b-b5b7-406b-afc8-e750963c9892","system_id":"levelo_inurba_marseille","lat":43.24811,"lon":5.37462,"is_reserved":false,"is_disabled":false,"rental_uris":{"android":"levelo://app?vid=488cdd4b-b5b7-406b-afc8-e750963c9892","ios":"levelo://app?vid=488cdd4b-b5b7-406b-afc8-e750963c9892"},"vehicle_type_id":"4","last_reported":1725948767,"current_range_meters":37600,"station_id":"ce4bhgh2rcd13ifvqfb0","pricing_plan_id":"cebpf4jnsgd1na2vs0mg"},{"bike_id":"762670d1-0dc2-4222-866a-ed1573cf0a69","system_id":"levelo_inurba_marseille","lat":43.30606,"lon":5.3936,"is_reserved":false,"is_disabled":false,"rental_uris":{"android":"levelo://app?vid=762670d1-0dc2-4222-866a-ed1573cf0a69","ios":"levelo://app?vid=762670d1-0dc2-4222-866a-ed1573cf0a69"},"vehicle_type_id":"4","last_reported":1725948767,"current_range_meters":36800,"station_id":"ce4bh0p2rcd13ifvqd80","pricing_plan_id":"cebpf4jnsgd1na2vs0mg"},{"bike_id":"92fe2e63-ce0b-42e3-b314-b4b16f31ac51","system_id":"levelo_inurba_marseille","lat":43.24804,"lon":5.37454,"is_reserved":false,"is_disabled":false,"rental_uris":{"android":"levelo://app?vid=92fe2e63-ce0b-42e3-b314-b4b16f31ac51","ios":"levelo://app?vid=92fe2e63-ce0b-42e3-b314-b4b16f31ac51"},"vehicle_type_id":"4","last_reported":1725948767,"current_range_meters":38800,"station_id":"ce4bhgh2rcd13ifvqfb0","pricing_plan_id":"cebpf4jnsgd1na2vs0mg"},{"bike_id":"af527a2d-626b-44c3-bbde-b664da621391","system_id":"levelo_inurba_marseille","lat":43.31497,"lon":5.37305,"is_reserved":false,"is_disabled":false,"rental_uris":{"android":"levelo://app?vid=af527a2d-626b-44c3-bbde-b664da621391","ios":"levelo://app?vid=af527a2d-626b-44c3-bbde-b664da621391"},"vehicle_type_id":"4","last_reported":1725948767,"current_range_meters":36000,"station_id":"ce4bgt12rcd13ifvqcd0","pricing_plan_id":"cebpf4jnsgd1na2vs0mg"},{"bike_id":"ba52f075-3a56-4d9b-86e4-11d6484c8af6","system_id":"levelo_inurba_marseille","lat":43.3372,"lon":5.39179,"is_reserved":false,"is_disabled":false,"rental_uris":{"android":"levelo://app?vid=ba52f075-3a56-4d9b-86e4-11d6484c8af6","ios":"levelo://app?vid=ba52f075-3a56-4d9b-86e4-11d6484c8af6"},"vehicle_type_id":"4","last_reported":1725948767,"current_range_meters":38800,"station_id":"ce4bhr92rcd13ifvqhsg","pricing_plan_id":"cebpf4jnsgd1na2vs0mg"},{"bike_id":"e81672a3-b650-44bb-8fcc-7e2bd7119e92","system_id":"levelo_inurba_marseille","lat":43.301475,"lon":5.392296,"is_reserved":false,"is_disabled":false,"rental_uris":{"android":"levelo://app?vid=e81672a3-b650-44bb-8fcc-7e2bd7119e92","ios":"levelo://app?vid=e81672a3-b650-44bb-8fcc-7e2bd7119e92"},"vehicle_type_id":"4","last_reported":1725948767,"current_range_meters":23200,"station_id":"ce4bh0p2rcd13ifvqd70","pricing_plan_id":"cebpf4jnsgd1na2vs0mg"},{"bike_id":"6012e6e8-c626-4ef5-ab0f-f61ec5af57ed","system_id":"levelo_inurba_marseille","lat":43.30938,"lon":5.37222,"is_reserved":false,"is_disabled":false,"rental_uris":{"android":"levelo://app?vid=6012e6e8-c626-4ef5-ab0f-f61ec5af57ed","ios":"levelo://app?vid=6012e6e8-c626-4ef5-ab0f-f61ec5af57ed"},"vehicle_type_id":"4","last_reported":1725948767,"current_range_meters":2800,"station_id":"","pricing_plan_id":"cebpf4jnsgd1na2vs0mg"},{"bike_id":"875ea4f5-d8a6-4d32-9e99-ec60f0eb2a55","system_id":"levelo_inurba_marseille","lat":43.24076,"lon":5.37755,"is_reserved":false,"is_disabled":false,"rental_uris":{"android":"levelo://app?vid=875ea4f5-d8a6-4d32-9e99-ec60f0eb2a55","ios":"levelo://app?vid=875ea4f5-d8a6-4d32-9e99-ec60f0eb2a55"},"vehicle_type_id":"4","last_reported":1725948767,"current_range_meters":34800,"station_id":"ce4bhnp2rcd13ifvqgvg","pricing_plan_id":"cebpf4jnsgd1na2vs0mg"},{"bike_id":"6b3ead00-6b2f-4cd5-9bdb-98b5d185151d","system_id":"levelo_inurba_marseille","lat":43.2835,"lon":5.38113,"is_reserved":false,"is_disabled":false,"rental_uris":{"android":"levelo://app?vid=6b3ead00-6b2f-4cd5-9bdb-98b5d185151d","ios":"levelo://app?vid=6b3ead00-6b2f-4cd5-9bdb-98b5d185151d"},"vehicle_type_id":"4","last_reported":1725948767,"current_range_meters":33600,"station_id":"ce4bh412rcd13ifvqdr0","pricing_plan_id":"cebpf4jnsgd1na2vs0mg"},{"bike_id":"04b40354-0a41-443d-a7a4-cb3814eb64b6","system_id":"levelo_inurba_marseille","lat":43.25819,"lon":5.3941,"is_reserved":false,"is_disabled":false,"rental_uris":{"android":"levelo://app?vid=04b40354-0a41-443d-a7a4-cb3814eb64b6","ios":"levelo://app?vid=04b40354-0a41-443d-a7a4-cb3814eb64b6"},"vehicle_type_id":"4","last_reported":1725948767,"current_range_meters":9200,"station_id":"ce4bhip2rcd13ifvqft0","pricing_plan_id":"cebpf4jnsgd1na2vs0mg"},{"bike_id":"d0a22151-5873-4516-ad59-35801290152e","system_id":"levelo_inurba_marseille","lat":43.23196,"lon":5.3556,"is_reserved":false,"is_disabled":false,"rental_uris":{"android":"levelo://app?vid=d0a22151-5873-4516-ad59-35801290152e","ios":"levelo://app?vid=d0a22151-5873-4516-ad59-35801290152e"},"vehicle_type_id":"4","last_reported":1725948767,"current_range_meters":11200,"station_id":"ce4bhu92rcd13ifvqi70","pricing_plan_id":"cebpf4jnsgd1na2vs0mg"},{"bike_id":"68f8b6e1-4d03-45ce-841c-3f3408c75648","system_id":"levelo_inurba_marseille","lat":43.32538,"lon":5.41424,"is_reserved":false,"is_disabled":false,"rental_uris":{"android":"levelo://app?vid=68f8b6e1-4d03-45ce-841c-3f3408c75648","ios":"levelo://app?vid=68f8b6e1-4d03-45ce-841c-3f3408c75648"},"vehicle_type_id":"4","last_reported":1725948767,"current_range_meters":16000,"station_id":"ce4bhq12rcd13ifvqhhg","pricing_plan_id":"cebpf4jnsgd1na2vs0mg"},{"bike_id":"80bf8542-5b26-4c6f-9b6e-95d2c1436f01","system_id":"levelo_inurba_marseille","lat":43.286986,"lon":5.399911,"is_reserved":false,"is_disabled":false,"rental_uris":{"android":"levelo://app?vid=80bf8542-5b26-4c6f-9b6e-95d2c1436f01","ios":"levelo://app?vid=80bf8542-5b26-4c6f-9b6e-95d2c1436f01"},"vehicle_type_id":"4","last_reported":1725948767,"current_range_meters":37600,"station_id":"ce4bho92rcd13ifvqh3g","pricing_plan_id":"cebpf4jnsgd1na2vs0mg"},{"bike_id":"f1550f9b-18b8-4a8d-996d-92694dcb57a8","system_id":"levelo_inurba_marseille","lat":43.283753,"lon":5.381076,"is_reserved":false,"is_disabled":false,"rental_uris":{"android":"levelo://app?vid=f1550f9b-18b8-4a8d-996d-92694dcb57a8","ios":"levelo://app?vid=f1550f9b-18b8-4a8d-996d-92694dcb57a8"},"vehicle_type_id":"4","last_reported":1725948767,"current_range_meters":15200,"station_id":"ce4bh412rcd13ifvqdr0","pricing_plan_id":"cebpf4jnsgd1na2vs0mg"},{"bike_id":"00b29d2b-8603-4598-bb82-f78900b5570b","system_id":"levelo_inurba_marseille","lat":43.3254,"lon":5.41419,"is_reserved":false,"is_disabled":false,"rental_uris":{"android":"levelo://app?vid=00b29d2b-8603-4598-bb82-f78900b5570b","ios":"levelo://app?vid=00b29d2b-8603-4598-bb82-f78900b5570b"},"vehicle_type_id":"4","last_reported":1725948767,"current_range_meters":33600,"station_id":"ce4bhq12rcd13ifvqhhg","pricing_plan_id":"cebpf4jnsgd1na2vs0mg"},{"bike_id":"6f7cb75b-be50-43f9-a266-b55c9db99782","system_id":"levelo_inurba_marseille","lat":43.30609,"lon":5.39356,"is_reserved":false,"is_disabled":false,"rental_uris":{"android":"levelo://app?vid=6f7cb75b-be50-43f9-a266-b55c9db99782","ios":"levelo://app?vid=6f7cb75b-be50-43f9-a266-b55c9db99782"},"vehicle_type_id":"4","last_reported":1725948767,"current_range_meters":28800,"station_id":"ce4bh0p2rcd13ifvqd80","pricing_plan_id":"cebpf4jnsgd1na2vs0mg"},{"bike_id":"cd0c9a40-3318-4129-a065-aab2c695e3a9","system_id":"levelo_inurba_marseille","lat":43.30591,"lon":5.39354,"is_reserved":false,"is_disabled":false,"rental_uris":{"android":"levelo://app?vid=cd0c9a40-3318-4129-a065-aab2c695e3a9","ios":"levelo://app?vid=cd0c9a40-3318-4129-a065-aab2c695e3a9"},"vehicle_type_id":"4","last_reported":1725948767,"current_range_meters":38000,"station_id":"ce4bh0p2rcd13ifvqd80","pricing_plan_id":"cebpf4jnsgd1na2vs0mg"},{"bike_id":"9882420d-74d2-4d70-ad32-7ffbd115843f","system_id":"levelo_inurba_marseille","lat":43.31893,"lon":5.40724,"is_reserved":false,"is_disabled":false,"rental_uris":{"android":"levelo://app?vid=9882420d-74d2-4d70-ad32-7ffbd115843f","ios":"levelo://app?vid=9882420d-74d2-4d70-ad32-7ffbd115843f"},"vehicle_type_id":"4","last_reported":1725948767,"current_range_meters":38400,"station_id":"ce4bhq12rcd13ifvqhig","pricing_plan_id":"cebpf4jnsgd1na2vs0mg"},{"bike_id":"38bd18d9-3104-4071-aa70-2fdd2fbf5125","system_id":"levelo_inurba_marseille","lat":43.28037,"lon":5.36943,"is_reserved":false,"is_disabled":false,"rental_uris":{"android":"levelo://app?vid=38bd18d9-3104-4071-aa70-2fdd2fbf5125","ios":"levelo://app?vid=38bd18d9-3104-4071-aa70-2fdd2fbf5125"},"vehicle_type_id":"4","last_reported":1725948767,"current_range_meters":4800,"station_id":"ce4bha12rcd13ifvqef0","pricing_plan_id":"cebpf4jnsgd1na2vs0mg"},{"bike_id":"da648d69-f732-4603-9756-14a7b9677cbc","system_id":"levelo_inurba_marseille","lat":43.30953,"lon":5.39037,"is_reserved":false,"is_disabled":false,"rental_uris":{"android":"levelo://app?vid=da648d69-f732-4603-9756-14a7b9677cbc","ios":"levelo://app?vid=da648d69-f732-4603-9756-14a7b9677cbc"},"vehicle_type_id":"4","last_reported":1725948767,"current_range_meters":34800,"station_id":"ce4bgup2rcd13ifvqco0","pricing_plan_id":"cebpf4jnsgd1na2vs0mg"},{"bike_id":"77995488-d8a9-444f-a101-742852a14ecf","system_id":"levelo_inurba_marseille","lat":43.295605,"lon":5.42287,"is_reserved":false,"is_disabled":false,"rental_uris":{"android":"levelo://app?vid=77995488-d8a9-444f-a101-742852a14ecf","ios":"levelo://app?vid=77995488-d8a9-444f-a101-742852a14ecf"},"vehicle_type_id":"4","last_reported":1725948767,"current_range_meters":38800,"station_id":"ce4bhph2rcd13ifvqhdg","pricing_plan_id":"cebpf4jnsgd1na2vs0mg"},{"bike_id":"c379a911-ce29-4e70-83a3-e7a9d2fe4120","system_id":"levelo_inurba_marseille","lat":43.26959,"lon":5.3863,"is_reserved":false,"is_disabled":false,"rental_uris":{"android":"levelo://app?vid=c379a911-ce29-4e70-83a3-e7a9d2fe4120","ios":"levelo://app?vid=c379a911-ce29-4e70-83a3-e7a9d2fe4120"},"vehicle_type_id":"4","last_reported":1725948767,"current_range_meters":33600,"station_id":"ce4bhh92rcd13ifvqfh0","pricing_plan_id":"cebpf4jnsgd1na2vs0mg"},{"bike_id":"43c1f2d1-5b3f-4241-affc-81a36f12db93","system_id":"levelo_inurba_marseille","lat":43.26817,"lon":5.40256,"is_reserved":false,"is_disabled":false,"rental_uris":{"android":"levelo://app?vid=43c1f2d1-5b3f-4241-affc-81a36f12db93","ios":"levelo://app?vid=43c1f2d1-5b3f-4241-affc-81a36f12db93"},"vehicle_type_id":"4","last_reported":1725948767,"current_range_meters":17200,"station_id":"ce501612rcd8frsf0b60","pricing_plan_id":"cebpf4jnsgd1na2vs0mg"},{"bike_id":"fc1f95a4-525e-4527-8b76-c3ff0387b8bb","system_id":"levelo_inurba_marseille","lat":43.2721,"lon":5.39175,"is_reserved":false,"is_disabled":false,"rental_uris":{"android":"levelo://app?vid=fc1f95a4-525e-4527-8b76-c3ff0387b8bb","ios":"levelo://app?vid=fc1f95a4-525e-4527-8b76-c3ff0387b8bb"},"vehicle_type_id":"4","last_reported":1725948767,"current_range_meters":28800,"station_id":"ce4bhhp2rcd13ifvqfm0","pricing_plan_id":"cebpf4jnsgd1na2vs0mg"},{"bike_id":"6afacdb5-576e-4768-95d4-421fa11258dc","system_id":"levelo_inurba_marseille","lat":43.3361,"lon":5.41031,"is_reserved":false,"is_disabled":false,"rental_uris":{"android":"levelo://app?vid=6afacdb5-576e-4768-95d4-421fa11258dc","ios":"levelo://app?vid=6afacdb5-576e-4768-95d4-421fa11258dc"},"vehicle_type_id":"4","last_reported":1725948767,"current_range_meters":30000,"station_id":"ce4bhqh2rcd13ifvqhmg","pricing_plan_id":"cebpf4jnsgd1na2vs0mg"},{"bike_id":"641a6f9a-c272-44cf-92d6-cbef97fa1631","system_id":"levelo_inurba_marseille","lat":43.26566,"lon":5.39,"is_reserved":false,"is_disabled":false,"rental_uris":{"android":"levelo://app?vid=641a6f9a-c272-44cf-92d6-cbef97fa1631","ios":"levelo://app?vid=641a6f9a-c272-44cf-92d6-cbef97fa1631"},"vehicle_type_id":"4","last_reported":1725948767,"current_range_meters":20400,"station_id":"ce4bhe12rcd13ifvqf30","pricing_plan_id":"cebpf4jnsgd1na2vs0mg"},{"bike_id":"efc28d49-6d1b-43f6-b1fb-b7628502cfda","system_id":"levelo_inurba_marseille","lat":43.26195,"lon":5.37444,"is_reserved":false,"is_disabled":false,"rental_uris":{"android":"levelo://app?vid=efc28d49-6d1b-43f6-b1fb-b7628502cfda","ios":"levelo://app?vid=efc28d49-6d1b-43f6-b1fb-b7628502cfda"},"vehicle_type_id":"4","last_reported":1725948767,"current_range_meters":29600,"station_id":"ce4bhgp2rcd13ifvqfc0","pricing_plan_id":"cebpf4jnsgd1na2vs0mg"},{"bike_id":"1d94c5fd-df31-4f34-99cd-6861e67d9d9f","system_id":"levelo_inurba_marseille","lat":43.33616,"lon":5.41042,"is_reserved":false,"is_disabled":false,"rental_uris":{"android":"levelo://app?vid=1d94c5fd-df31-4f34-99cd-6861e67d9d9f","ios":"levelo://app?vid=1d94c5fd-df31-4f34-99cd-6861e67d9d9f"},"vehicle_type_id":"4","last_reported":1725948767,"current_range_meters":18800,"station_id":"ce4bhqh2rcd13ifvqhmg","pricing_plan_id":"cebpf4jnsgd1na2vs0mg"},{"bike_id":"6ede3d5d-269a-4c3c-a289-83ba06a4837e","system_id":"levelo_inurba_marseille","lat":43.31177,"lon":5.38696,"is_reserved":false,"is_disabled":false,"rental_uris":{"android":"levelo://app?vid=6ede3d5d-269a-4c3c-a289-83ba06a4837e","ios":"levelo://app?vid=6ede3d5d-269a-4c3c-a289-83ba06a4837e"},"vehicle_type_id":"4","last_reported":1725948767,"current_range_meters":16800,"station_id":"ce4bgv12rcd13ifvqcp0","pricing_plan_id":"cebpf4jnsgd1na2vs0mg"},{"bike_id":"9db97c3f-9dee-426b-bbfc-f16d43f3a632","system_id":"levelo_inurba_marseille","lat":43.28035,"lon":5.36946,"is_reserved":false,"is_disabled":false,"rental_uris":{"android":"levelo://app?vid=9db97c3f-9dee-426b-bbfc-f16d43f3a632","ios":"levelo://app?vid=9db97c3f-9dee-426b-bbfc-f16d43f3a632"},"vehicle_type_id":"4","last_reported":1725948767,"current_range_meters":39200,"station_id":"ce4bha12rcd13ifvqef0","pricing_plan_id":"cebpf4jnsgd1na2vs0mg"},{"bike_id":"9bda4d35-5b4b-499b-886d-b99227b8c19a","system_id":"levelo_inurba_marseille","lat":43.301451,"lon":5.373946,"is_reserved":false,"is_disabled":false,"rental_uris":{"android":"levelo://app?vid=9bda4d35-5b4b-499b-886d-b99227b8c19a","ios":"levelo://app?vid=9bda4d35-5b4b-499b-886d-b99227b8c19a"},"vehicle_type_id":"4","last_reported":1725948767,"current_range_meters":32800,"station_id":"ce4bgs92rcd13ifvqcc0","pricing_plan_id":"cebpf4jnsgd1na2vs0mg"},{"bike_id":"051e01fb-9f71-49d4-9c51-e410dd2e1450","system_id":"levelo_inurba_marseille","lat":43.301485,"lon":5.380774,"is_reserved":false,"is_disabled":false,"rental_uris":{"android":"levelo://app?vid=051e01fb-9f71-49d4-9c51-e410dd2e1450","ios":"levelo://app?vid=051e01fb-9f71-49d4-9c51-e410dd2e1450"},"vehicle_type_id":"4","last_reported":1725948767,"current_range_meters":9600,"station_id":"ce4bgjp2rcd13ifvqbh0","pricing_plan_id":"cebpf4jnsgd1na2vs0mg"},{"bike_id":"90c7fb9d-c48f-4d20-af50-573c6b0c1ef2","system_id":"levelo_inurba_marseille","lat":43.32543,"lon":5.41423,"is_reserved":false,"is_disabled":false,"rental_uris":{"android":"levelo://app?vid=90c7fb9d-c48f-4d20-af50-573c6b0c1ef2","ios":"levelo://app?vid=90c7fb9d-c48f-4d20-af50-573c6b0c1ef2"},"vehicle_type_id":"4","last_reported":1725948767,"current_range_meters":26800,"station_id":"ce4bhq12rcd13ifvqhhg","pricing_plan_id":"cebpf4jnsgd1na2vs0mg"},{"bike_id":"3fb3489a-3dba-4e60-9499-357d8b3b9977","system_id":"levelo_inurba_marseille","lat":43.27574,"lon":5.38417,"is_reserved":false,"is_disabled":false,"rental_uris":{"android":"levelo://app?vid=3fb3489a-3dba-4e60-9499-357d8b3b9977","ios":"levelo://app?vid=3fb3489a-3dba-4e60-9499-357d8b3b9977"},"vehicle_type_id":"4","last_reported":1725948767,"current_range_meters":33200,"station_id":"ce4bhh92rcd13ifvqfi0","pricing_plan_id":"cebpf4jnsgd1na2vs0mg"},{"bike_id":"35323f7f-9cdb-4e75-a5b2-afda2685b808","system_id":"levelo_inurba_marseille","lat":43.31229,"lon":5.36852,"is_reserved":false,"is_disabled":false,"rental_uris":{"android":"levelo://app?vid=35323f7f-9cdb-4e75-a5b2-afda2685b808","ios":"levelo://app?vid=35323f7f-9cdb-4e75-a5b2-afda2685b808"},"vehicle_type_id":"4","last_reported":1725948767,"current_range_meters":35200,"station_id":"ce4bgl92rcd13ifvqbq0","pricing_plan_id":"cebpf4jnsgd1na2vs0mg"},{"bike_id":"d927a538-f208-40d7-af9c-a94b875396ee","system_id":"levelo_inurba_marseille","lat":43.28623,"lon":5.37049,"is_reserved":false,"is_disabled":false,"rental_uris":{"android":"levelo://app?vid=d927a538-f208-40d7-af9c-a94b875396ee","ios":"levelo://app?vid=d927a538-f208-40d7-af9c-a94b875396ee"},"vehicle_type_id":"4","last_reported":1725948767,"current_range_meters":27200,"station_id":"ce4bht12rcd13ifvqi60","pricing_plan_id":"cebpf4jnsgd1na2vs0mg"},{"bike_id":"2584050f-f46d-4f1c-9e01-ea44df4b7f56","system_id":"levelo_inurba_marseille","lat":43.24388,"lon":5.37058,"is_reserved":false,"is_disabled":false,"rental_uris":{"android":"levelo://app?vid=2584050f-f46d-4f1c-9e01-ea44df4b7f56","ios":"levelo://app?vid=2584050f-f46d-4f1c-9e01-ea44df4b7f56"},"vehicle_type_id":"4","last_reported":1725948767,"current_range_meters":7200,"station_id":"ce4bhhh2rcd13ifvqfk0","pricing_plan_id":"cebpf4jnsgd1na2vs0mg"},{"bike_id":"03750b00-9c9d-4e79-ad45-589bcc218443","system_id":"levelo_inurba_marseille","lat":43.25011,"lon":5.38924,"is_reserved":false,"is_disabled":false,"rental_uris":{"android":"levelo://app?vid=03750b00-9c9d-4e79-ad45-589bcc218443","ios":"levelo://app?vid=03750b00-9c9d-4e79-ad45-589bcc218443"},"vehicle_type_id":"4","last_reported":1725948767,"current_range_meters":39200,"station_id":"ce4bhgp2rcd13ifvqfd0","pricing_plan_id":"cebpf4jnsgd1na2vs0mg"},{"bike_id":"e453de79-6f5c-448a-a60e-01e0ce154adc","system_id":"levelo_inurba_marseille","lat":43.28032,"lon":5.36939,"is_reserved":false,"is_disabled":false,"rental_uris":{"android":"levelo://app?vid=e453de79-6f5c-448a-a60e-01e0ce154adc","ios":"levelo://app?vid=e453de79-6f5c-448a-a60e-01e0ce154adc"},"vehicle_type_id":"4","last_reported":1725948767,"current_range_meters":36400,"station_id":"ce4bha12rcd13ifvqef0","pricing_plan_id":"cebpf4jnsgd1na2vs0mg"},{"bike_id":"ba71fde6-330c-4694-b58a-6b28fa15c9ce","system_id":"levelo_inurba_marseille","lat":43.3046,"lon":5.37889,"is_reserved":false,"is_disabled":false,"rental_uris":{"android":"levelo://app?vid=ba71fde6-330c-4694-b58a-6b28fa15c9ce","ios":"levelo://app?vid=ba71fde6-330c-4694-b58a-6b28fa15c9ce"},"vehicle_type_id":"4","last_reported":1725948767,"current_range_meters":30000,"station_id":"ce4bgup2rcd13ifvqcn0","pricing_plan_id":"cebpf4jnsgd1na2vs0mg"},{"bike_id":"1f8ddd8f-f5dc-4f53-9383-a418807ed736","system_id":"levelo_inurba_marseille","lat":43.29804,"lon":5.38085,"is_reserved":false,"is_disabled":false,"rental_uris":{"android":"levelo://app?vid=1f8ddd8f-f5dc-4f53-9383-a418807ed736","ios":"levelo://app?vid=1f8ddd8f-f5dc-4f53-9383-a418807ed736"},"vehicle_type_id":"4","last_reported":1725948767,"current_range_meters":35200,"station_id":"ce4bgip2rcd13ifvqbb0","pricing_plan_id":"cebpf4jnsgd1na2vs0mg"},{"bike_id":"9395e962-76ca-4e02-9084-a21e990a1068","system_id":"levelo_inurba_marseille","lat":43.26575,"lon":5.38999,"is_reserved":false,"is_disabled":false,"rental_uris":{"android":"levelo://app?vid=9395e962-76ca-4e02-9084-a21e990a1068","ios":"levelo://app?vid=9395e962-76ca-4e02-9084-a21e990a1068"},"vehicle_type_id":"4","last_reported":1725948767,"current_range_meters":32400,"station_id":"ce4bhe12rcd13ifvqf30","pricing_plan_id":"cebpf4jnsgd1na2vs0mg"},{"bike_id":"ece08e1c-9af5-4705-9cfd-3482df10a082","system_id":"levelo_inurba_marseille","lat":43.3361,"lon":5.41032,"is_reserved":false,"is_disabled":false,"rental_uris":{"android":"levelo://app?vid=ece08e1c-9af5-4705-9cfd-3482df10a082","ios":"levelo://app?vid=ece08e1c-9af5-4705-9cfd-3482df10a082"},"vehicle_type_id":"4","last_reported":1725948767,"current_range_meters":8400,"station_id":"ce4bhqh2rcd13ifvqhmg","pricing_plan_id":"cebpf4jnsgd1na2vs0mg"},{"bike_id":"bc372122-c73f-4f4b-8344-0c5566f9eefc","system_id":"levelo_inurba_marseille","lat":43.27211,"lon":5.39175,"is_reserved":false,"is_disabled":false,"rental_uris":{"android":"levelo://app?vid=bc372122-c73f-4f4b-8344-0c5566f9eefc","ios":"levelo://app?vid=bc372122-c73f-4f4b-8344-0c5566f9eefc"},"vehicle_type_id":"4","last_reported":1725948767,"current_range_meters":32800,"station_id":"ce4bhhp2rcd13ifvqfm0","pricing_plan_id":"cebpf4jnsgd1na2vs0mg"},{"bike_id":"90437a4a-a8ed-419f-b482-00ce1f86e2f2","system_id":"levelo_inurba_marseille","lat":43.30463,"lon":5.37896,"is_reserved":false,"is_disabled":false,"rental_uris":{"android":"levelo://app?vid=90437a4a-a8ed-419f-b482-00ce1f86e2f2","ios":"levelo://app?vid=90437a4a-a8ed-419f-b482-00ce1f86e2f2"},"vehicle_type_id":"4","last_reported":1725948767,"current_range_meters":20000,"station_id":"ce4bgup2rcd13ifvqcn0","pricing_plan_id":"cebpf4jnsgd1na2vs0mg"},{"bike_id":"4b1223e5-e9d6-445b-9534-c59ff6ede178","system_id":"levelo_inurba_marseille","lat":43.30594,"lon":5.39356,"is_reserved":false,"is_disabled":false,"rental_uris":{"android":"levelo://app?vid=4b1223e5-e9d6-445b-9534-c59ff6ede178","ios":"levelo://app?vid=4b1223e5-e9d6-445b-9534-c59ff6ede178"},"vehicle_type_id":"4","last_reported":1725948767,"current_range_meters":32400,"station_id":"ce4bh0p2rcd13ifvqd80","pricing_plan_id":"cebpf4jnsgd1na2vs0mg"},{"bike_id":"3cddb0ec-ac23-4b98-9326-31bbc7ea7368","system_id":"levelo_inurba_marseille","lat":43.30476,"lon":5.37901,"is_reserved":false,"is_disabled":false,"rental_uris":{"android":"levelo://app?vid=3cddb0ec-ac23-4b98-9326-31bbc7ea7368","ios":"levelo://app?vid=3cddb0ec-ac23-4b98-9326-31bbc7ea7368"},"vehicle_type_id":"4","last_reported":1725948767,"current_range_meters":30000,"station_id":"ce4bgup2rcd13ifvqcn0","pricing_plan_id":"cebpf4jnsgd1na2vs0mg"},{"bike_id":"7931cda6-a2f4-4ffc-bbcd-6d51b5729dec","system_id":"levelo_inurba_marseille","lat":43.33719,"lon":5.39185,"is_reserved":false,"is_disabled":false,"rental_uris":{"android":"levelo://app?vid=7931cda6-a2f4-4ffc-bbcd-6d51b5729dec","ios":"levelo://app?vid=7931cda6-a2f4-4ffc-bbcd-6d51b5729dec"},"vehicle_type_id":"4","last_reported":1725948767,"current_range_meters":24400,"station_id":"ce4bhr92rcd13ifvqhsg","pricing_plan_id":"cebpf4jnsgd1na2vs0mg"},{"bike_id":"99ff5113-63b8-4286-bc76-22496d34f647","system_id":"levelo_inurba_marseille","lat":43.23194,"lon":5.35559,"is_reserved":false,"is_disabled":false,"rental_uris":{"android":"levelo://app?vid=99ff5113-63b8-4286-bc76-22496d34f647","ios":"levelo://app?vid=99ff5113-63b8-4286-bc76-22496d34f647"},"vehicle_type_id":"4","last_reported":1725948767,"current_range_meters":6400,"station_id":"ce4bhu92rcd13ifvqi70","pricing_plan_id":"cebpf4jnsgd1na2vs0mg"},{"bike_id":"564d59a7-37f7-4749-9d7c-782d2d7ae974","system_id":"levelo_inurba_marseille","lat":43.3254,"lon":5.41424,"is_reserved":false,"is_disabled":false,"rental_uris":{"android":"levelo://app?vid=564d59a7-37f7-4749-9d7c-782d2d7ae974","ios":"levelo://app?vid=564d59a7-37f7-4749-9d7c-782d2d7ae974"},"vehicle_type_id":"4","last_reported":1725948767,"current_range_meters":6400,"station_id":"ce4bhq12rcd13ifvqhhg","pricing_plan_id":"cebpf4jnsgd1na2vs0mg"},{"bike_id":"8509b927-508d-442f-8255-2319e20c6ef7","system_id":"levelo_inurba_marseille","lat":43.30466,"lon":5.37915,"is_reserved":false,"is_disabled":false,"rental_uris":{"android":"levelo://app?vid=8509b927-508d-442f-8255-2319e20c6ef7","ios":"levelo://app?vid=8509b927-508d-442f-8255-2319e20c6ef7"},"vehicle_type_id":"4","last_reported":1725948767,"current_range_meters":36800,"station_id":"ce4bgup2rcd13ifvqcn0","pricing_plan_id":"cebpf4jnsgd1na2vs0mg"},{"bike_id":"4150f827-9d1c-4b32-ab31-ab975ffe38e6","system_id":"levelo_inurba_marseille","lat":43.260583,"lon":5.39396,"is_reserved":false,"is_disabled":false,"rental_uris":{"android":"levelo://app?vid=4150f827-9d1c-4b32-ab31-ab975ffe38e6","ios":"levelo://app?vid=4150f827-9d1c-4b32-ab31-ab975ffe38e6"},"vehicle_type_id":"4","last_reported":1725948767,"current_range_meters":27200,"station_id":"ce4bhh92rcd13ifvqfj0","pricing_plan_id":"cebpf4jnsgd1na2vs0mg"},{"bike_id":"56fe391e-723e-42df-8d0c-af51e6441891","system_id":"levelo_inurba_marseille","lat":43.23067,"lon":5.35488,"is_reserved":false,"is_disabled":false,"rental_uris":{"android":"levelo://app?vid=56fe391e-723e-42df-8d0c-af51e6441891","ios":"levelo://app?vid=56fe391e-723e-42df-8d0c-af51e6441891"},"vehicle_type_id":"4","last_reported":1725948767,"current_range_meters":4800,"station_id":"cpo3342slgdg3j2ifvpg","pricing_plan_id":"cebpf4jnsgd1na2vs0mg"},{"bike_id":"db325a0a-19de-4255-bd3a-78347a574d9e","system_id":"levelo_inurba_marseille","lat":43.30418,"lon":5.41287,"is_reserved":false,"is_disabled":false,"rental_uris":{"android":"levelo://app?vid=db325a0a-19de-4255-bd3a-78347a574d9e","ios":"levelo://app?vid=db325a0a-19de-4255-bd3a-78347a574d9e"},"vehicle_type_id":"4","last_reported":1725948767,"current_range_meters":38000,"station_id":"ce4bhop2rcd13ifvqh8g","pricing_plan_id":"cebpf4jnsgd1na2vs0mg"},{"bike_id":"c5b54f07-9e8a-4d5d-af65-a461c660ca45","system_id":"levelo_inurba_marseille","lat":43.32289,"lon":5.38252,"is_reserved":false,"is_disabled":false,"rental_uris":{"android":"levelo://app?vid=c5b54f07-9e8a-4d5d-af65-a461c660ca45","ios":"levelo://app?vid=c5b54f07-9e8a-4d5d-af65-a461c660ca45"},"vehicle_type_id":"4","last_reported":1725948767,"current_range_meters":11200,"station_id":"ce4bhr12rcd13ifvqhqg","pricing_plan_id":"cebpf4jnsgd1na2vs0mg"},{"bike_id":"d0952ab0-3044-44df-af2c-2dcfb366a544","system_id":"levelo_inurba_marseille","lat":43.23157,"lon":5.43702,"is_reserved":false,"is_disabled":false,"rental_uris":{"android":"levelo://app?vid=d0952ab0-3044-44df-af2c-2dcfb366a544","ios":"levelo://app?vid=d0952ab0-3044-44df-af2c-2dcfb366a544"},"vehicle_type_id":"4","last_reported":1725948767,"current_range_meters":18000,"station_id":"ce4bhmp2rcd13ifvqgog","pricing_plan_id":"cebpf4jnsgd1na2vs0mg"},{"bike_id":"0980e2d8-7b57-4d6b-8987-4f9fef4df7f0","system_id":"levelo_inurba_marseille","lat":43.29966,"lon":5.37162,"is_reserved":false,"is_disabled":false,"rental_uris":{"android":"levelo://app?vid=0980e2d8-7b57-4d6b-8987-4f9fef4df7f0","ios":"levelo://app?vid=0980e2d8-7b57-4d6b-8987-4f9fef4df7f0"},"vehicle_type_id":"4","last_reported":1725948767,"current_range_meters":22400,"station_id":"ce4bgr92rcd13ifvqc7g","pricing_plan_id":"cebpf4jnsgd1na2vs0mg"},{"bike_id":"0e6d8ac9-eb06-4686-b2a2-953fdab7dd5a","system_id":"levelo_inurba_marseille","lat":43.336,"lon":5.41024,"is_reserved":false,"is_disabled":false,"rental_uris":{"android":"levelo://app?vid=0e6d8ac9-eb06-4686-b2a2-953fdab7dd5a","ios":"levelo://app?vid=0e6d8ac9-eb06-4686-b2a2-953fdab7dd5a"},"vehicle_type_id":"4","last_reported":1725948767,"current_range_meters":22000,"station_id":"ce4bhqh2rcd13ifvqhmg","pricing_plan_id":"cebpf4jnsgd1na2vs0mg"},{"bike_id":"f6e5da73-ccf8-4b97-8f30-fb73228ad24c","system_id":"levelo_inurba_marseille","lat":43.280353,"lon":5.369443,"is_reserved":false,"is_disabled":false,"rental_uris":{"android":"levelo://app?vid=f6e5da73-ccf8-4b97-8f30-fb73228ad24c","ios":"levelo://app?vid=f6e5da73-ccf8-4b97-8f30-fb73228ad24c"},"vehicle_type_id":"4","last_reported":1725948767,"current_range_meters":13600,"station_id":"ce4bha12rcd13ifvqef0","pricing_plan_id":"cebpf4jnsgd1na2vs0mg"},{"bike_id":"3a0aa0ba-6a94-4968-b2b1-168b6f2b6b60","system_id":"levelo_inurba_marseille","lat":43.279043,"lon":5.380143,"is_reserved":false,"is_disabled":false,"rental_uris":{"android":"levelo://app?vid=3a0aa0ba-6a94-4968-b2b1-168b6f2b6b60","ios":"levelo://app?vid=3a0aa0ba-6a94-4968-b2b1-168b6f2b6b60"},"vehicle_type_id":"4","last_reported":1725948767,"current_range_meters":19200,"station_id":"ce4bhf92rcd13ifvqf50","pricing_plan_id":"cebpf4jnsgd1na2vs0mg"},{"bike_id":"175d2f5e-fa49-4e7e-b790-b3e9ce9522af","system_id":"levelo_inurba_marseille","lat":43.29849,"lon":5.36264,"is_reserved":false,"is_disabled":false,"rental_uris":{"android":"levelo://app?vid=175d2f5e-fa49-4e7e-b790-b3e9ce9522af","ios":"levelo://app?vid=175d2f5e-fa49-4e7e-b790-b3e9ce9522af"},"vehicle_type_id":"4","last_reported":1725948767,"current_range_meters":36400,"station_id":"ce4bgpp2rcd13ifvqc3g","pricing_plan_id":"cebpf4jnsgd1na2vs0mg"},{"bike_id":"9c1c2862-72f5-485b-8155-229a5d029ce6","system_id":"levelo_inurba_marseille","lat":43.26951,"lon":5.3862,"is_reserved":false,"is_disabled":false,"rental_uris":{"android":"levelo://app?vid=9c1c2862-72f5-485b-8155-229a5d029ce6","ios":"levelo://app?vid=9c1c2862-72f5-485b-8155-229a5d029ce6"},"vehicle_type_id":"4","last_reported":1725948767,"current_range_meters":30400,"station_id":"ce4bhh92rcd13ifvqfh0","pricing_plan_id":"cebpf4jnsgd1na2vs0mg"},{"bike_id":"67ac8788-dbe0-4233-b413-1fc1ddc5cb67","system_id":"levelo_inurba_marseille","lat":43.254993,"lon":5.37656,"is_reserved":false,"is_disabled":false,"rental_uris":{"android":"levelo://app?vid=67ac8788-dbe0-4233-b413-1fc1ddc5cb67","ios":"levelo://app?vid=67ac8788-dbe0-4233-b413-1fc1ddc5cb67"},"vehicle_type_id":"4","last_reported":1725948767,"current_range_meters":24000,"station_id":"ce4bhh12rcd13ifvqff0","pricing_plan_id":"cebpf4jnsgd1na2vs0mg"},{"bike_id":"ada994dc-6212-4768-a7c2-2788a0f56bfb","system_id":"levelo_inurba_marseille","lat":43.28733,"lon":5.36083,"is_reserved":false,"is_disabled":false,"rental_uris":{"android":"levelo://app?vid=ada994dc-6212-4768-a7c2-2788a0f56bfb","ios":"levelo://app?vid=ada994dc-6212-4768-a7c2-2788a0f56bfb"},"vehicle_type_id":"4","last_reported":1725948767,"current_range_meters":24000,"station_id":"cki0cbj6b192h4jlfktg","pricing_plan_id":"cebpf4jnsgd1na2vs0mg"},{"bike_id":"0447f5eb-8ddc-47d7-8883-e0dd520dfd97","system_id":"levelo_inurba_marseille","lat":43.31757,"lon":5.39014,"is_reserved":false,"is_disabled":false,"rental_uris":{"android":"levelo://app?vid=0447f5eb-8ddc-47d7-8883-e0dd520dfd97","ios":"levelo://app?vid=0447f5eb-8ddc-47d7-8883-e0dd520dfd97"},"vehicle_type_id":"4","last_reported":1725948767,"current_range_meters":15200,"station_id":"ce4bhqp2rcd13ifvqhng","pricing_plan_id":"cebpf4jnsgd1na2vs0mg"},{"bike_id":"35a92e2d-d77b-400b-aeba-f522bf358e49","system_id":"levelo_inurba_marseille","lat":43.31882,"lon":5.3738,"is_reserved":false,"is_disabled":false,"rental_uris":{"android":"levelo://app?vid=35a92e2d-d77b-400b-aeba-f522bf358e49","ios":"levelo://app?vid=35a92e2d-d77b-400b-aeba-f522bf358e49"},"vehicle_type_id":"4","last_reported":1725948767,"current_range_meters":17600,"station_id":"ce4bgup2rcd13ifvqco0","pricing_plan_id":"cebpf4jnsgd1na2vs0mg"},{"bike_id":"9b773f6f-3350-46bf-80bd-7e6a08271d41","system_id":"levelo_inurba_marseille","lat":43.30878,"lon":5.39636,"is_reserved":false,"is_disabled":false,"rental_uris":{"android":"levelo://app?vid=9b773f6f-3350-46bf-80bd-7e6a08271d41","ios":"levelo://app?vid=9b773f6f-3350-46bf-80bd-7e6a08271d41"},"vehicle_type_id":"4","last_reported":1725948767,"current_range_meters":20800,"station_id":"ce4bh012rcd13ifvqcv0","pricing_plan_id":"cebpf4jnsgd1na2vs0mg"},{"bike_id":"080c7b59-af9b-4684-a1b3-a8785e08146e","system_id":"levelo_inurba_marseille","lat":43.32291,"lon":5.3827,"is_reserved":false,"is_disabled":false,"rental_uris":{"android":"levelo://app?vid=080c7b59-af9b-4684-a1b3-a8785e08146e","ios":"levelo://app?vid=080c7b59-af9b-4684-a1b3-a8785e08146e"},"vehicle_type_id":"4","last_reported":1725948767,"current_range_meters":38000,"station_id":"ce4bhr12rcd13ifvqhqg","pricing_plan_id":"cebpf4jnsgd1na2vs0mg"},{"bike_id":"f2121536-f8b7-4eef-baaf-64a80b1105c2","system_id":"levelo_inurba_marseille","lat":43.26496,"lon":5.39538,"is_reserved":false,"is_disabled":false,"rental_uris":{"android":"levelo://app?vid=f2121536-f8b7-4eef-baaf-64a80b1105c2","ios":"levelo://app?vid=f2121536-f8b7-4eef-baaf-64a80b1105c2"},"vehicle_type_id":"4","last_reported":1725948767,"current_range_meters":32800,"station_id":"ce4bhi12rcd13ifvqfq0","pricing_plan_id":"cebpf4jnsgd1na2vs0mg"},{"bike_id":"892910b3-0339-4461-8c0f-bc59016e4f1f","system_id":"levelo_inurba_marseille","lat":43.25823,"lon":5.39428,"is_reserved":false,"is_disabled":false,"rental_uris":{"android":"levelo://app?vid=892910b3-0339-4461-8c0f-bc59016e4f1f","ios":"levelo://app?vid=892910b3-0339-4461-8c0f-bc59016e4f1f"},"vehicle_type_id":"4","last_reported":1725948767,"current_range_meters":30000,"station_id":"ce4bhip2rcd13ifvqft0","pricing_plan_id":"cebpf4jnsgd1na2vs0mg"},{"bike_id":"ccefaf24-b653-4b6a-88e1-166312a264d8","system_id":"levelo_inurba_marseille","lat":43.26958,"lon":5.38632,"is_reserved":false,"is_disabled":false,"rental_uris":{"android":"levelo://app?vid=ccefaf24-b653-4b6a-88e1-166312a264d8","ios":"levelo://app?vid=ccefaf24-b653-4b6a-88e1-166312a264d8"},"vehicle_type_id":"4","last_reported":1725948767,"current_range_meters":33600,"station_id":"ce4bhh92rcd13ifvqfh0","pricing_plan_id":"cebpf4jnsgd1na2vs0mg"},{"bike_id":"78778da8-03c2-4260-b5d2-a398d9400b64","system_id":"levelo_inurba_marseille","lat":43.23146,"lon":5.43716,"is_reserved":false,"is_disabled":false,"rental_uris":{"android":"levelo://app?vid=78778da8-03c2-4260-b5d2-a398d9400b64","ios":"levelo://app?vid=78778da8-03c2-4260-b5d2-a398d9400b64"},"vehicle_type_id":"4","last_reported":1725948767,"current_range_meters":36000,"station_id":"ce4bhmp2rcd13ifvqgog","pricing_plan_id":"cebpf4jnsgd1na2vs0mg"},{"bike_id":"5b6b64cf-0485-4d04-b562-50fc388be6b2","system_id":"levelo_inurba_marseille","lat":43.32591,"lon":5.40554,"is_reserved":false,"is_disabled":false,"rental_uris":{"android":"levelo://app?vid=5b6b64cf-0485-4d04-b562-50fc388be6b2","ios":"levelo://app?vid=5b6b64cf-0485-4d04-b562-50fc388be6b2"},"vehicle_type_id":"4","last_reported":1725948767,"current_range_meters":12800,"station_id":"ce4bhq92rcd13ifvqhjg","pricing_plan_id":"cebpf4jnsgd1na2vs0mg"},{"bike_id":"35a7d6da-18a1-4a72-9797-66d4de1b8339","system_id":"levelo_inurba_marseille","lat":43.29935,"lon":5.40361,"is_reserved":false,"is_disabled":false,"rental_uris":{"android":"levelo://app?vid=35a7d6da-18a1-4a72-9797-66d4de1b8339","ios":"levelo://app?vid=35a7d6da-18a1-4a72-9797-66d4de1b8339"},"vehicle_type_id":"4","last_reported":1725948767,"current_range_meters":23200,"station_id":"","pricing_plan_id":"cebpf4jnsgd1na2vs0mg"},{"bike_id":"6a0dbc59-5eb3-4f2a-9f99-261408abbc87","system_id":"levelo_inurba_marseille","lat":43.29189,"lon":5.400263,"is_reserved":false,"is_disabled":false,"rental_uris":{"android":"levelo://app?vid=6a0dbc59-5eb3-4f2a-9f99-261408abbc87","ios":"levelo://app?vid=6a0dbc59-5eb3-4f2a-9f99-261408abbc87"},"vehicle_type_id":"4","last_reported":1725948767,"current_range_meters":8800,"station_id":"ce4bh312rcd13ifvqdk0","pricing_plan_id":"cebpf4jnsgd1na2vs0mg"},{"bike_id":"02e9227e-4d15-45e3-b464-2b03b597a05f","system_id":"levelo_inurba_marseille","lat":43.30472,"lon":5.366992,"is_reserved":false,"is_disabled":false,"rental_uris":{"android":"levelo://app?vid=02e9227e-4d15-45e3-b464-2b03b597a05f","ios":"levelo://app?vid=02e9227e-4d15-45e3-b464-2b03b597a05f"},"vehicle_type_id":"4","last_reported":1725948767,"current_range_meters":34000,"station_id":"ce4bgrp2rcd13ifvqc9g","pricing_plan_id":"cebpf4jnsgd1na2vs0mg"},{"bike_id":"1d583431-4535-43ff-9cfe-97c3afe38e61","system_id":"levelo_inurba_marseille","lat":43.30959,"lon":5.40058,"is_reserved":false,"is_disabled":false,"rental_uris":{"android":"levelo://app?vid=1d583431-4535-43ff-9cfe-97c3afe38e61","ios":"levelo://app?vid=1d583431-4535-43ff-9cfe-97c3afe38e61"},"vehicle_type_id":"4","last_reported":1725948767,"current_range_meters":14400,"station_id":"ce4bhpp2rcd13ifvqhgg","pricing_plan_id":"cebpf4jnsgd1na2vs0mg"},{"bike_id":"5d411a94-71dc-41e3-ae74-13086227871e","system_id":"levelo_inurba_marseille","lat":43.27494,"lon":5.42459,"is_reserved":false,"is_disabled":false,"rental_uris":{"android":"levelo://app?vid=5d411a94-71dc-41e3-ae74-13086227871e","ios":"levelo://app?vid=5d411a94-71dc-41e3-ae74-13086227871e"},"vehicle_type_id":"4","last_reported":1725948767,"current_range_meters":35600,"station_id":"ce4bhn92rcd13ifvqgrg","pricing_plan_id":"cebpf4jnsgd1na2vs0mg"},{"bike_id":"236416d9-6b35-4df9-9d2f-b00c6f6e9b7c","system_id":"levelo_inurba_marseille","lat":43.27176,"lon":5.40983,"is_reserved":false,"is_disabled":false,"rental_uris":{"android":"levelo://app?vid=236416d9-6b35-4df9-9d2f-b00c6f6e9b7c","ios":"levelo://app?vid=236416d9-6b35-4df9-9d2f-b00c6f6e9b7c"},"vehicle_type_id":"4","last_reported":1725948767,"current_range_meters":35200,"station_id":"ce4bhl12rcd13ifvqgf0","pricing_plan_id":"cebpf4jnsgd1na2vs0mg"},{"bike_id":"07d70a6a-8074-40e1-ae01-8ee8594cd9e3","system_id":"levelo_inurba_marseille","lat":43.2408,"lon":5.3776,"is_reserved":false,"is_disabled":false,"rental_uris":{"android":"levelo://app?vid=07d70a6a-8074-40e1-ae01-8ee8594cd9e3","ios":"levelo://app?vid=07d70a6a-8074-40e1-ae01-8ee8594cd9e3"},"vehicle_type_id":"4","last_reported":1725948767,"current_range_meters":18800,"station_id":"ce4bhnp2rcd13ifvqgvg","pricing_plan_id":"cebpf4jnsgd1na2vs0mg"},{"bike_id":"d72f7398-84de-46ac-b4a5-0c23160eefe5","system_id":"levelo_inurba_marseille","lat":43.27816,"lon":5.40707,"is_reserved":false,"is_disabled":false,"rental_uris":{"android":"levelo://app?vid=d72f7398-84de-46ac-b4a5-0c23160eefe5","ios":"levelo://app?vid=d72f7398-84de-46ac-b4a5-0c23160eefe5"},"vehicle_type_id":"4","last_reported":1725948767,"current_range_meters":30800,"station_id":"ce4bhnh2rcd13ifvqgtg","pricing_plan_id":"cebpf4jnsgd1na2vs0mg"},{"bike_id":"e4067140-ef5f-4d5d-b312-3ad8fb897ba0","system_id":"levelo_inurba_marseille","lat":43.25586,"lon":5.38225,"is_reserved":false,"is_disabled":false,"rental_uris":{"android":"levelo://app?vid=e4067140-ef5f-4d5d-b312-3ad8fb897ba0","ios":"levelo://app?vid=e4067140-ef5f-4d5d-b312-3ad8fb897ba0"},"vehicle_type_id":"4","last_reported":1725948767,"current_range_meters":30400,"station_id":"ce4bhih2rcd13ifvqfs0","pricing_plan_id":"cebpf4jnsgd1na2vs0mg"},{"bike_id":"ec66178c-9377-4a8d-ba34-1a39bc42f1ac","system_id":"levelo_inurba_marseille","lat":43.32287,"lon":5.38277,"is_reserved":false,"is_disabled":false,"rental_uris":{"android":"levelo://app?vid=ec66178c-9377-4a8d-ba34-1a39bc42f1ac","ios":"levelo://app?vid=ec66178c-9377-4a8d-ba34-1a39bc42f1ac"},"vehicle_type_id":"4","last_reported":1725948767,"current_range_meters":38000,"station_id":"ce4bhr12rcd13ifvqhqg","pricing_plan_id":"cebpf4jnsgd1na2vs0mg"},{"bike_id":"ef85f407-e32a-4fc2-ad1d-f80b024714f7","system_id":"levelo_inurba_marseille","lat":43.33753,"lon":5.37444,"is_reserved":false,"is_disabled":false,"rental_uris":{"android":"levelo://app?vid=ef85f407-e32a-4fc2-ad1d-f80b024714f7","ios":"levelo://app?vid=ef85f407-e32a-4fc2-ad1d-f80b024714f7"},"vehicle_type_id":"4","last_reported":1725948767,"current_range_meters":35200,"station_id":"","pricing_plan_id":"cebpf4jnsgd1na2vs0mg"},{"bike_id":"c8566ff8-48bb-4153-8f25-6ecc62ca6edb","system_id":"levelo_inurba_marseille","lat":43.34149,"lon":5.40909,"is_reserved":false,"is_disabled":false,"rental_uris":{"android":"levelo://app?vid=c8566ff8-48bb-4153-8f25-6ecc62ca6edb","ios":"levelo://app?vid=c8566ff8-48bb-4153-8f25-6ecc62ca6edb"},"vehicle_type_id":"4","last_reported":1725948767,"current_range_meters":38400,"station_id":"ce4bhqh2rcd13ifvqhlg","pricing_plan_id":"cebpf4jnsgd1na2vs0mg"},{"bike_id":"bc745383-2511-4656-a4d1-e131400dfd60","system_id":"levelo_inurba_marseille","lat":43.23194,"lon":5.35561,"is_reserved":false,"is_disabled":false,"rental_uris":{"android":"levelo://app?vid=bc745383-2511-4656-a4d1-e131400dfd60","ios":"levelo://app?vid=bc745383-2511-4656-a4d1-e131400dfd60"},"vehicle_type_id":"4","last_reported":1725948767,"current_range_meters":18800,"station_id":"ce4bhu92rcd13ifvqi70","pricing_plan_id":"cebpf4jnsgd1na2vs0mg"},{"bike_id":"da79121b-839b-4688-8795-d88ebc670735","system_id":"levelo_inurba_marseille","lat":43.28037,"lon":5.36935,"is_reserved":false,"is_disabled":false,"rental_uris":{"android":"levelo://app?vid=da79121b-839b-4688-8795-d88ebc670735","ios":"levelo://app?vid=da79121b-839b-4688-8795-d88ebc670735"},"vehicle_type_id":"4","last_reported":1725948767,"current_range_meters":24000,"station_id":"ce4bha12rcd13ifvqef0","pricing_plan_id":"cebpf4jnsgd1na2vs0mg"},{"bike_id":"afb196cf-0911-4d41-b110-79b0354aa1b9","system_id":"levelo_inurba_marseille","lat":43.25827,"lon":5.39432,"is_reserved":false,"is_disabled":false,"rental_uris":{"android":"levelo://app?vid=afb196cf-0911-4d41-b110-79b0354aa1b9","ios":"levelo://app?vid=afb196cf-0911-4d41-b110-79b0354aa1b9"},"vehicle_type_id":"4","last_reported":1725948767,"current_range_meters":6000,"station_id":"ce4bhip2rcd13ifvqft0","pricing_plan_id":"cebpf4jnsgd1na2vs0mg"},{"bike_id":"256ff1b4-3cda-4078-ac92-9b2b566638b7","system_id":"levelo_inurba_marseille","lat":43.25582,"lon":5.3823,"is_reserved":false,"is_disabled":false,"rental_uris":{"android":"levelo://app?vid=256ff1b4-3cda-4078-ac92-9b2b566638b7","ios":"levelo://app?vid=256ff1b4-3cda-4078-ac92-9b2b566638b7"},"vehicle_type_id":"4","last_reported":1725948767,"current_range_meters":32400,"station_id":"ce4bhih2rcd13ifvqfs0","pricing_plan_id":"cebpf4jnsgd1na2vs0mg"},{"bike_id":"9f74d383-8915-47e2-a490-880ad9f65251","system_id":"levelo_inurba_marseille","lat":43.290122,"lon":5.356123,"is_reserved":false,"is_disabled":false,"rental_uris":{"android":"levelo://app?vid=9f74d383-8915-47e2-a490-880ad9f65251","ios":"levelo://app?vid=9f74d383-8915-47e2-a490-880ad9f65251"},"vehicle_type_id":"4","last_reported":1725948767,"current_range_meters":38000,"station_id":"ce4bhb92rcd13ifvqen0","pricing_plan_id":"cebpf4jnsgd1na2vs0mg"},{"bike_id":"45b7ed4c-9360-4103-8798-411ac78a4321","system_id":"levelo_inurba_marseille","lat":43.33605,"lon":5.41025,"is_reserved":false,"is_disabled":false,"rental_uris":{"android":"levelo://app?vid=45b7ed4c-9360-4103-8798-411ac78a4321","ios":"levelo://app?vid=45b7ed4c-9360-4103-8798-411ac78a4321"},"vehicle_type_id":"4","last_reported":1725948767,"current_range_meters":10000,"station_id":"ce4bhqh2rcd13ifvqhmg","pricing_plan_id":"cebpf4jnsgd1na2vs0mg"},{"bike_id":"da8a68f1-1395-46d4-8f87-cc27bd0ad0b9","system_id":"levelo_inurba_marseille","lat":43.30925,"lon":5.40142,"is_reserved":false,"is_disabled":false,"rental_uris":{"android":"levelo://app?vid=da8a68f1-1395-46d4-8f87-cc27bd0ad0b9","ios":"levelo://app?vid=da8a68f1-1395-46d4-8f87-cc27bd0ad0b9"},"vehicle_type_id":"4","last_reported":1725948767,"current_range_meters":37600,"station_id":"ce4bgvp2rcd13ifvqct0","pricing_plan_id":"cebpf4jnsgd1na2vs0mg"},{"bike_id":"ccbf5e43-be0f-4330-aa14-cfe13aff8a11","system_id":"levelo_inurba_marseille","lat":43.27293,"lon":5.41598,"is_reserved":false,"is_disabled":false,"rental_uris":{"android":"levelo://app?vid=ccbf5e43-be0f-4330-aa14-cfe13aff8a11","ios":"levelo://app?vid=ccbf5e43-be0f-4330-aa14-cfe13aff8a11"},"vehicle_type_id":"4","last_reported":1725948767,"current_range_meters":8400,"station_id":"","pricing_plan_id":"cebpf4jnsgd1na2vs0mg"},{"bike_id":"da764ccc-041e-48ea-ab92-193ffed061bc","system_id":"levelo_inurba_marseille","lat":43.3088,"lon":5.37176,"is_reserved":false,"is_disabled":false,"rental_uris":{"android":"levelo://app?vid=da764ccc-041e-48ea-ab92-193ffed061bc","ios":"levelo://app?vid=da764ccc-041e-48ea-ab92-193ffed061bc"},"vehicle_type_id":"4","last_reported":1725948767,"current_range_meters":35200,"station_id":"ce4bguh2rcd13ifvqckg","pricing_plan_id":"cebpf4jnsgd1na2vs0mg"},{"bike_id":"24515886-22f3-4117-bd58-b2996903d4eb","system_id":"levelo_inurba_marseille","lat":43.2871,"lon":5.37922,"is_reserved":false,"is_disabled":false,"rental_uris":{"android":"levelo://app?vid=24515886-22f3-4117-bd58-b2996903d4eb","ios":"levelo://app?vid=24515886-22f3-4117-bd58-b2996903d4eb"},"vehicle_type_id":"4","last_reported":1725948767,"current_range_meters":22000,"station_id":"ce4bh9p2rcd13ifvqec0","pricing_plan_id":"cebpf4jnsgd1na2vs0mg"},{"bike_id":"8d715331-6b75-4e51-ab62-b63fb3c65bfb","system_id":"levelo_inurba_marseille","lat":43.30477,"lon":5.37905,"is_reserved":false,"is_disabled":false,"rental_uris":{"android":"levelo://app?vid=8d715331-6b75-4e51-ab62-b63fb3c65bfb","ios":"levelo://app?vid=8d715331-6b75-4e51-ab62-b63fb3c65bfb"},"vehicle_type_id":"4","last_reported":1725948767,"current_range_meters":8000,"station_id":"ce4bgup2rcd13ifvqcn0","pricing_plan_id":"cebpf4jnsgd1na2vs0mg"},{"bike_id":"ce626fdd-43b5-4171-ae4a-818161e70682","system_id":"levelo_inurba_marseille","lat":43.30201,"lon":5.39821,"is_reserved":false,"is_disabled":false,"rental_uris":{"android":"levelo://app?vid=ce626fdd-43b5-4171-ae4a-818161e70682","ios":"levelo://app?vid=ce626fdd-43b5-4171-ae4a-818161e70682"},"vehicle_type_id":"4","last_reported":1725948767,"current_range_meters":32000,"station_id":"","pricing_plan_id":"cebpf4jnsgd1na2vs0mg"},{"bike_id":"69e887f5-8a63-4dc2-8534-1bb6d6ddd4fa","system_id":"levelo_inurba_marseille","lat":43.231795,"lon":5.435881,"is_reserved":false,"is_disabled":false,"rental_uris":{"android":"levelo://app?vid=69e887f5-8a63-4dc2-8534-1bb6d6ddd4fa","ios":"levelo://app?vid=69e887f5-8a63-4dc2-8534-1bb6d6ddd4fa"},"vehicle_type_id":"4","last_reported":1725948767,"current_range_meters":30000,"station_id":"ce4bhmp2rcd13ifvqgog","pricing_plan_id":"cebpf4jnsgd1na2vs0mg"},{"bike_id":"21357381-083c-4d50-ab6b-c381f1f29938","system_id":"levelo_inurba_marseille","lat":43.33026,"lon":5.39044,"is_reserved":false,"is_disabled":false,"rental_uris":{"android":"levelo://app?vid=21357381-083c-4d50-ab6b-c381f1f29938","ios":"levelo://app?vid=21357381-083c-4d50-ab6b-c381f1f29938"},"vehicle_type_id":"4","last_reported":1725948767,"current_range_meters":19600,"station_id":"ce4bhr92rcd13ifvqhrg","pricing_plan_id":"cebpf4jnsgd1na2vs0mg"},{"bike_id":"a5dfc335-a67d-41b2-9004-34054d67646c","system_id":"levelo_inurba_marseille","lat":43.26804,"lon":5.40263,"is_reserved":false,"is_disabled":false,"rental_uris":{"android":"levelo://app?vid=a5dfc335-a67d-41b2-9004-34054d67646c","ios":"levelo://app?vid=a5dfc335-a67d-41b2-9004-34054d67646c"},"vehicle_type_id":"4","last_reported":1725948767,"current_range_meters":38800,"station_id":"ce501612rcd8frsf0b60","pricing_plan_id":"cebpf4jnsgd1na2vs0mg"},{"bike_id":"d04518f9-b0c0-4d86-8db0-e1d859d3a811","system_id":"levelo_inurba_marseille","lat":43.26208,"lon":5.37924,"is_reserved":false,"is_disabled":false,"rental_uris":{"android":"levelo://app?vid=d04518f9-b0c0-4d86-8db0-e1d859d3a811","ios":"levelo://app?vid=d04518f9-b0c0-4d86-8db0-e1d859d3a811"},"vehicle_type_id":"4","last_reported":1725948767,"current_range_meters":38400,"station_id":"ce4bhjp2rcd13ifvqg90","pricing_plan_id":"cebpf4jnsgd1na2vs0mg"},{"bike_id":"a8e92420-ae6b-4b19-ad0e-d0351c412d7e","system_id":"levelo_inurba_marseille","lat":43.29033,"lon":5.38637,"is_reserved":false,"is_disabled":false,"rental_uris":{"android":"levelo://app?vid=a8e92420-ae6b-4b19-ad0e-d0351c412d7e","ios":"levelo://app?vid=a8e92420-ae6b-4b19-ad0e-d0351c412d7e"},"vehicle_type_id":"4","last_reported":1725948767,"current_range_meters":18000,"station_id":"ce4bh4p2rcd13ifvqe0g","pricing_plan_id":"cebpf4jnsgd1na2vs0mg"},{"bike_id":"f9b3f92e-7022-42e5-b209-a3886c441dde","system_id":"levelo_inurba_marseille","lat":43.28349,"lon":5.38095,"is_reserved":false,"is_disabled":false,"rental_uris":{"android":"levelo://app?vid=f9b3f92e-7022-42e5-b209-a3886c441dde","ios":"levelo://app?vid=f9b3f92e-7022-42e5-b209-a3886c441dde"},"vehicle_type_id":"4","last_reported":1725948767,"current_range_meters":35200,"station_id":"ce4bh412rcd13ifvqdr0","pricing_plan_id":"cebpf4jnsgd1na2vs0mg"},{"bike_id":"6b0dbfcc-4a2e-4496-a840-341e8adbca2f","system_id":"levelo_inurba_marseille","lat":43.24072,"lon":5.37762,"is_reserved":false,"is_disabled":false,"rental_uris":{"android":"levelo://app?vid=6b0dbfcc-4a2e-4496-a840-341e8adbca2f","ios":"levelo://app?vid=6b0dbfcc-4a2e-4496-a840-341e8adbca2f"},"vehicle_type_id":"4","last_reported":1725948767,"current_range_meters":17600,"station_id":"ce4bhnp2rcd13ifvqgvg","pricing_plan_id":"cebpf4jnsgd1na2vs0mg"},{"bike_id":"b431ae45-151f-44c8-8690-790461e8ccc2","system_id":"levelo_inurba_marseille","lat":43.27497,"lon":5.42445,"is_reserved":false,"is_disabled":false,"rental_uris":{"android":"levelo://app?vid=b431ae45-151f-44c8-8690-790461e8ccc2","ios":"levelo://app?vid=b431ae45-151f-44c8-8690-790461e8ccc2"},"vehicle_type_id":"4","last_reported":1725948767,"current_range_meters":24000,"station_id":"ce4bhn92rcd13ifvqgrg","pricing_plan_id":"cebpf4jnsgd1na2vs0mg"},{"bike_id":"836c9d06-faba-4ac0-8871-605c5aae73a4","system_id":"levelo_inurba_marseille","lat":43.26061,"lon":5.39395,"is_reserved":false,"is_disabled":false,"rental_uris":{"android":"levelo://app?vid=836c9d06-faba-4ac0-8871-605c5aae73a4","ios":"levelo://app?vid=836c9d06-faba-4ac0-8871-605c5aae73a4"},"vehicle_type_id":"4","last_reported":1725948767,"current_range_meters":18800,"station_id":"ce4bhh92rcd13ifvqfj0","pricing_plan_id":"cebpf4jnsgd1na2vs0mg"},{"bike_id":"6dbcdeff-b539-4902-89b1-ada746ec74d4","system_id":"levelo_inurba_marseille","lat":43.24675,"lon":5.3815,"is_reserved":false,"is_disabled":false,"rental_uris":{"android":"levelo://app?vid=6dbcdeff-b539-4902-89b1-ada746ec74d4","ios":"levelo://app?vid=6dbcdeff-b539-4902-89b1-ada746ec74d4"},"vehicle_type_id":"4","last_reported":1725948767,"current_range_meters":24400,"station_id":"ce4bhih2rcd13ifvqfr0","pricing_plan_id":"cebpf4jnsgd1na2vs0mg"},{"bike_id":"058501bb-5a22-4398-ae6a-7b4d1f5de701","system_id":"levelo_inurba_marseille","lat":43.32293,"lon":5.38267,"is_reserved":false,"is_disabled":false,"rental_uris":{"android":"levelo://app?vid=058501bb-5a22-4398-ae6a-7b4d1f5de701","ios":"levelo://app?vid=058501bb-5a22-4398-ae6a-7b4d1f5de701"},"vehicle_type_id":"4","last_reported":1725948767,"current_range_meters":34800,"station_id":"ce4bhr12rcd13ifvqhqg","pricing_plan_id":"cebpf4jnsgd1na2vs0mg"},{"bike_id":"f39d7447-ae84-4fd4-a6e3-626c5f517aee","system_id":"levelo_inurba_marseille","lat":43.31275,"lon":5.40161,"is_reserved":false,"is_disabled":false,"rental_uris":{"android":"levelo://app?vid=f39d7447-ae84-4fd4-a6e3-626c5f517aee","ios":"levelo://app?vid=f39d7447-ae84-4fd4-a6e3-626c5f517aee"},"vehicle_type_id":"4","last_reported":1725948767,"current_range_meters":36000,"station_id":"ce4bh092rcd13ifvqd30","pricing_plan_id":"cebpf4jnsgd1na2vs0mg"},{"bike_id":"820f72bf-9002-4e70-87bc-8104f4920a83","system_id":"levelo_inurba_marseille","lat":43.30431,"lon":5.38879,"is_reserved":false,"is_disabled":false,"rental_uris":{"android":"levelo://app?vid=820f72bf-9002-4e70-87bc-8104f4920a83","ios":"levelo://app?vid=820f72bf-9002-4e70-87bc-8104f4920a83"},"vehicle_type_id":"4","last_reported":1725948767,"current_range_meters":22000,"station_id":"ce4bgt12rcd13ifvqcd0","pricing_plan_id":"cebpf4jnsgd1na2vs0mg"},{"bike_id":"a095d557-e884-4866-b6c4-5dbebc1d04a9","system_id":"levelo_inurba_marseille","lat":43.29554,"lon":5.4229,"is_reserved":false,"is_disabled":false,"rental_uris":{"android":"levelo://app?vid=a095d557-e884-4866-b6c4-5dbebc1d04a9","ios":"levelo://app?vid=a095d557-e884-4866-b6c4-5dbebc1d04a9"},"vehicle_type_id":"4","last_reported":1725948767,"current_range_meters":20800,"station_id":"ce4bhph2rcd13ifvqhdg","pricing_plan_id":"cebpf4jnsgd1na2vs0mg"},{"bike_id":"4960cf2e-5f29-4dea-8554-ed4a77540a81","system_id":"levelo_inurba_marseille","lat":43.33608,"lon":5.41024,"is_reserved":false,"is_disabled":false,"rental_uris":{"android":"levelo://app?vid=4960cf2e-5f29-4dea-8554-ed4a77540a81","ios":"levelo://app?vid=4960cf2e-5f29-4dea-8554-ed4a77540a81"},"vehicle_type_id":"4","last_reported":1725948767,"current_range_meters":34000,"station_id":"ce4bhqh2rcd13ifvqhmg","pricing_plan_id":"cebpf4jnsgd1na2vs0mg"},{"bike_id":"ccdbfbda-93aa-45a6-ba3a-1df13fd94b65","system_id":"levelo_inurba_marseille","lat":43.30458,"lon":5.37897,"is_reserved":false,"is_disabled":false,"rental_uris":{"android":"levelo://app?vid=ccdbfbda-93aa-45a6-ba3a-1df13fd94b65","ios":"levelo://app?vid=ccdbfbda-93aa-45a6-ba3a-1df13fd94b65"},"vehicle_type_id":"4","last_reported":1725948767,"current_range_meters":33200,"station_id":"ce4bgup2rcd13ifvqcn0","pricing_plan_id":"cebpf4jnsgd1na2vs0mg"},{"bike_id":"835ae718-d954-4895-8110-addc0146bee5","system_id":"levelo_inurba_marseille","lat":43.31354,"lon":5.36715,"is_reserved":false,"is_disabled":false,"rental_uris":{"android":"levelo://app?vid=835ae718-d954-4895-8110-addc0146bee5","ios":"levelo://app?vid=835ae718-d954-4895-8110-addc0146bee5"},"vehicle_type_id":"4","last_reported":1725948767,"current_range_meters":39200,"station_id":"ce4bgr92rcd13ifvqc6g","pricing_plan_id":"cebpf4jnsgd1na2vs0mg"},{"bike_id":"bc39867f-2820-41a9-b55c-f390ff078c0e","system_id":"levelo_inurba_marseille","lat":43.30882,"lon":5.371868,"is_reserved":false,"is_disabled":false,"rental_uris":{"android":"levelo://app?vid=bc39867f-2820-41a9-b55c-f390ff078c0e","ios":"levelo://app?vid=bc39867f-2820-41a9-b55c-f390ff078c0e"},"vehicle_type_id":"4","last_reported":1725948767,"current_range_meters":17600,"station_id":"ce4bguh2rcd13ifvqckg","pricing_plan_id":"cebpf4jnsgd1na2vs0mg"},{"bike_id":"e1a869db-a9c9-40ff-852a-8793cc94c5a8","system_id":"levelo_inurba_marseille","lat":43.27492,"lon":5.42451,"is_reserved":false,"is_disabled":false,"rental_uris":{"android":"levelo://app?vid=e1a869db-a9c9-40ff-852a-8793cc94c5a8","ios":"levelo://app?vid=e1a869db-a9c9-40ff-852a-8793cc94c5a8"},"vehicle_type_id":"4","last_reported":1725948767,"current_range_meters":33600,"station_id":"ce4bhn92rcd13ifvqgrg","pricing_plan_id":"cebpf4jnsgd1na2vs0mg"},{"bike_id":"e1afa912-2bf9-49f5-ab54-6e9af09aacb3","system_id":"levelo_inurba_marseille","lat":43.23195,"lon":5.39979,"is_reserved":false,"is_disabled":false,"rental_uris":{"android":"levelo://app?vid=e1afa912-2bf9-49f5-ab54-6e9af09aacb3","ios":"levelo://app?vid=e1afa912-2bf9-49f5-ab54-6e9af09aacb3"},"vehicle_type_id":"4","last_reported":1725948767,"current_range_meters":12400,"station_id":"ce4bhn12rcd13ifvqgqg","pricing_plan_id":"cebpf4jnsgd1na2vs0mg"},{"bike_id":"d0285eec-7995-4f26-8fb0-e4be6a31b8e7","system_id":"levelo_inurba_marseille","lat":43.30954,"lon":5.39031,"is_reserved":false,"is_disabled":false,"rental_uris":{"android":"levelo://app?vid=d0285eec-7995-4f26-8fb0-e4be6a31b8e7","ios":"levelo://app?vid=d0285eec-7995-4f26-8fb0-e4be6a31b8e7"},"vehicle_type_id":"4","last_reported":1725948767,"current_range_meters":14800,"station_id":"ce4bgup2rcd13ifvqco0","pricing_plan_id":"cebpf4jnsgd1na2vs0mg"},{"bike_id":"3f04d19c-3606-4d71-9791-16811c739214","system_id":"levelo_inurba_marseille","lat":43.24172,"lon":5.36397,"is_reserved":false,"is_disabled":false,"rental_uris":{"android":"levelo://app?vid=3f04d19c-3606-4d71-9791-16811c739214","ios":"levelo://app?vid=3f04d19c-3606-4d71-9791-16811c739214"},"vehicle_type_id":"4","last_reported":1725948767,"current_range_meters":36800,"station_id":"cpo36qri1sfpv3e86is0","pricing_plan_id":"cebpf4jnsgd1na2vs0mg"},{"bike_id":"2f824156-96da-43d7-90fd-bf156c3d9316","system_id":"levelo_inurba_marseille","lat":43.31492,"lon":5.37297,"is_reserved":false,"is_disabled":false,"rental_uris":{"android":"levelo://app?vid=2f824156-96da-43d7-90fd-bf156c3d9316","ios":"levelo://app?vid=2f824156-96da-43d7-90fd-bf156c3d9316"},"vehicle_type_id":"4","last_reported":1725948767,"current_range_meters":11600,"station_id":"ce4bgt12rcd13ifvqcd0","pricing_plan_id":"cebpf4jnsgd1na2vs0mg"},{"bike_id":"e60d5a93-0875-46b5-8a8f-6fbbc823494b","system_id":"levelo_inurba_marseille","lat":43.27188,"lon":5.40983,"is_reserved":false,"is_disabled":false,"rental_uris":{"android":"levelo://app?vid=e60d5a93-0875-46b5-8a8f-6fbbc823494b","ios":"levelo://app?vid=e60d5a93-0875-46b5-8a8f-6fbbc823494b"},"vehicle_type_id":"4","last_reported":1725948767,"current_range_meters":36000,"station_id":"ce4bhl12rcd13ifvqgf0","pricing_plan_id":"cebpf4jnsgd1na2vs0mg"},{"bike_id":"5da2003d-fb1c-434c-ae81-c10b92dc97e9","system_id":"levelo_inurba_marseille","lat":43.30468,"lon":5.37898,"is_reserved":false,"is_disabled":false,"rental_uris":{"android":"levelo://app?vid=5da2003d-fb1c-434c-ae81-c10b92dc97e9","ios":"levelo://app?vid=5da2003d-fb1c-434c-ae81-c10b92dc97e9"},"vehicle_type_id":"4","last_reported":1725948767,"current_range_meters":38800,"station_id":"ce4bgup2rcd13ifvqcn0","pricing_plan_id":"cebpf4jnsgd1na2vs0mg"},{"bike_id":"ee1733ee-1eba-4ebd-b9e2-8a8e1c2ee0c4","system_id":"levelo_inurba_marseille","lat":43.28947,"lon":5.36632,"is_reserved":false,"is_disabled":false,"rental_uris":{"android":"levelo://app?vid=ee1733ee-1eba-4ebd-b9e2-8a8e1c2ee0c4","ios":"levelo://app?vid=ee1733ee-1eba-4ebd-b9e2-8a8e1c2ee0c4"},"vehicle_type_id":"4","last_reported":1725948767,"current_range_meters":36000,"station_id":"ce4bhap2rcd13ifvqek0","pricing_plan_id":"cebpf4jnsgd1na2vs0mg"},{"bike_id":"12d3602a-b418-413b-aeec-7697165bcc4f","system_id":"levelo_inurba_marseille","lat":43.28042,"lon":5.3694,"is_reserved":false,"is_disabled":false,"rental_uris":{"android":"levelo://app?vid=12d3602a-b418-413b-aeec-7697165bcc4f","ios":"levelo://app?vid=12d3602a-b418-413b-aeec-7697165bcc4f"},"vehicle_type_id":"4","last_reported":1725948767,"current_range_meters":35200,"station_id":"ce4bha12rcd13ifvqef0","pricing_plan_id":"cebpf4jnsgd1na2vs0mg"},{"bike_id":"37070a74-00b0-4f72-8eca-a9d173186f92","system_id":"levelo_inurba_marseille","lat":43.24074,"lon":5.3776,"is_reserved":false,"is_disabled":false,"rental_uris":{"android":"levelo://app?vid=37070a74-00b0-4f72-8eca-a9d173186f92","ios":"levelo://app?vid=37070a74-00b0-4f72-8eca-a9d173186f92"},"vehicle_type_id":"4","last_reported":1725948767,"current_range_meters":15200,"station_id":"ce4bhnp2rcd13ifvqgvg","pricing_plan_id":"cebpf4jnsgd1na2vs0mg"},{"bike_id":"a85c78bc-418c-4af0-8edd-59c76790768f","system_id":"levelo_inurba_marseille","lat":43.32479,"lon":5.36571,"is_reserved":false,"is_disabled":false,"rental_uris":{"android":"levelo://app?vid=a85c78bc-418c-4af0-8edd-59c76790768f","ios":"levelo://app?vid=a85c78bc-418c-4af0-8edd-59c76790768f"},"vehicle_type_id":"4","last_reported":1725948767,"current_range_meters":28800,"station_id":"ce4bhs12rcd13ifvqhvg","pricing_plan_id":"cebpf4jnsgd1na2vs0mg"},{"bike_id":"695808d4-4dde-4560-b2f3-11ee31f4e177","system_id":"levelo_inurba_marseille","lat":43.24672,"lon":5.38152,"is_reserved":false,"is_disabled":false,"rental_uris":{"android":"levelo://app?vid=695808d4-4dde-4560-b2f3-11ee31f4e177","ios":"levelo://app?vid=695808d4-4dde-4560-b2f3-11ee31f4e177"},"vehicle_type_id":"4","last_reported":1725948767,"current_range_meters":33600,"station_id":"ce4bhih2rcd13ifvqfr0","pricing_plan_id":"cebpf4jnsgd1na2vs0mg"},{"bike_id":"69d87a96-62d5-48ac-a203-3fc99ced94d7","system_id":"levelo_inurba_marseille","lat":43.26949,"lon":5.38614,"is_reserved":false,"is_disabled":false,"rental_uris":{"android":"levelo://app?vid=69d87a96-62d5-48ac-a203-3fc99ced94d7","ios":"levelo://app?vid=69d87a96-62d5-48ac-a203-3fc99ced94d7"},"vehicle_type_id":"4","last_reported":1725948767,"current_range_meters":30800,"station_id":"ce4bhh92rcd13ifvqfh0","pricing_plan_id":"cebpf4jnsgd1na2vs0mg"},{"bike_id":"d12b0250-5c7f-4add-96f7-d571b6142981","system_id":"levelo_inurba_marseille","lat":43.34141,"lon":5.40898,"is_reserved":false,"is_disabled":false,"rental_uris":{"android":"levelo://app?vid=d12b0250-5c7f-4add-96f7-d571b6142981","ios":"levelo://app?vid=d12b0250-5c7f-4add-96f7-d571b6142981"},"vehicle_type_id":"4","last_reported":1725948767,"current_range_meters":29600,"station_id":"ce4bhqh2rcd13ifvqhlg","pricing_plan_id":"cebpf4jnsgd1na2vs0mg"},{"bike_id":"b48779f9-dd77-4147-957c-83dfb6bd2b17","system_id":"levelo_inurba_marseille","lat":43.3237,"lon":5.38882,"is_reserved":false,"is_disabled":false,"rental_uris":{"android":"levelo://app?vid=b48779f9-dd77-4147-957c-83dfb6bd2b17","ios":"levelo://app?vid=b48779f9-dd77-4147-957c-83dfb6bd2b17"},"vehicle_type_id":"4","last_reported":1725948767,"current_range_meters":28400,"station_id":"ce4bhqp2rcd13ifvqhog","pricing_plan_id":"cebpf4jnsgd1na2vs0mg"},{"bike_id":"9c97f9ec-7a9d-41fa-833c-34ce56ba5dfe","system_id":"levelo_inurba_marseille","lat":43.2293,"lon":5.35375,"is_reserved":false,"is_disabled":false,"rental_uris":{"android":"levelo://app?vid=9c97f9ec-7a9d-41fa-833c-34ce56ba5dfe","ios":"levelo://app?vid=9c97f9ec-7a9d-41fa-833c-34ce56ba5dfe"},"vehicle_type_id":"4","last_reported":1725948767,"current_range_meters":7200,"station_id":"cpo3532slgdg3j2ikp40","pricing_plan_id":"cebpf4jnsgd1na2vs0mg"},{"bike_id":"7e3198b2-5741-4e37-9189-0f522781081f","system_id":"levelo_inurba_marseille","lat":43.2836,"lon":5.38096,"is_reserved":false,"is_disabled":false,"rental_uris":{"android":"levelo://app?vid=7e3198b2-5741-4e37-9189-0f522781081f","ios":"levelo://app?vid=7e3198b2-5741-4e37-9189-0f522781081f"},"vehicle_type_id":"4","last_reported":1725948767,"current_range_meters":27200,"station_id":"ce4bh412rcd13ifvqdr0","pricing_plan_id":"cebpf4jnsgd1na2vs0mg"},{"bike_id":"6bc78a58-cf39-436d-963c-76da93ea5d85","system_id":"levelo_inurba_marseille","lat":43.33767,"lon":5.3743,"is_reserved":false,"is_disabled":false,"rental_uris":{"android":"levelo://app?vid=6bc78a58-cf39-436d-963c-76da93ea5d85","ios":"levelo://app?vid=6bc78a58-cf39-436d-963c-76da93ea5d85"},"vehicle_type_id":"4","last_reported":1725948767,"current_range_meters":27600,"station_id":"","pricing_plan_id":"cebpf4jnsgd1na2vs0mg"},{"bike_id":"2a232d4c-0caf-4608-80d1-9bfef437d62b","system_id":"levelo_inurba_marseille","lat":43.27495,"lon":5.42452,"is_reserved":false,"is_disabled":false,"rental_uris":{"android":"levelo://app?vid=2a232d4c-0caf-4608-80d1-9bfef437d62b","ios":"levelo://app?vid=2a232d4c-0caf-4608-80d1-9bfef437d62b"},"vehicle_type_id":"4","last_reported":1725948767,"current_range_meters":33200,"station_id":"ce4bhn92rcd13ifvqgrg","pricing_plan_id":"cebpf4jnsgd1na2vs0mg"},{"bike_id":"5d94381a-a9cf-43bf-8b2a-e9404759db99","system_id":"levelo_inurba_marseille","lat":43.2904,"lon":5.38637,"is_reserved":false,"is_disabled":false,"rental_uris":{"android":"levelo://app?vid=5d94381a-a9cf-43bf-8b2a-e9404759db99","ios":"levelo://app?vid=5d94381a-a9cf-43bf-8b2a-e9404759db99"},"vehicle_type_id":"4","last_reported":1725948767,"current_range_meters":6000,"station_id":"ce4bh4p2rcd13ifvqe0g","pricing_plan_id":"cebpf4jnsgd1na2vs0mg"},{"bike_id":"4490c6dd-a0b6-4c6a-8bd3-d2268595024a","system_id":"levelo_inurba_marseille","lat":43.240796,"lon":5.378162,"is_reserved":false,"is_disabled":false,"rental_uris":{"android":"levelo://app?vid=4490c6dd-a0b6-4c6a-8bd3-d2268595024a","ios":"levelo://app?vid=4490c6dd-a0b6-4c6a-8bd3-d2268595024a"},"vehicle_type_id":"4","last_reported":1725948767,"current_range_meters":8800,"station_id":"ce4bhnp2rcd13ifvqgvg","pricing_plan_id":"cebpf4jnsgd1na2vs0mg"},{"bike_id":"1a9dfcb8-d4cc-46d1-bada-7d344f8f428d","system_id":"levelo_inurba_marseille","lat":43.30551,"lon":5.36533,"is_reserved":false,"is_disabled":false,"rental_uris":{"android":"levelo://app?vid=1a9dfcb8-d4cc-46d1-bada-7d344f8f428d","ios":"levelo://app?vid=1a9dfcb8-d4cc-46d1-bada-7d344f8f428d"},"vehicle_type_id":"4","last_reported":1725948767,"current_range_meters":38800,"station_id":"ce4bgs12rcd13ifvqcag","pricing_plan_id":"cebpf4jnsgd1na2vs0mg"},{"bike_id":"957f5501-98e5-436f-b1b5-906f5ab68b8c","system_id":"levelo_inurba_marseille","lat":43.26954,"lon":5.3863,"is_reserved":false,"is_disabled":false,"rental_uris":{"android":"levelo://app?vid=957f5501-98e5-436f-b1b5-906f5ab68b8c","ios":"levelo://app?vid=957f5501-98e5-436f-b1b5-906f5ab68b8c"},"vehicle_type_id":"4","last_reported":1725948767,"current_range_meters":38400,"station_id":"ce4bhh92rcd13ifvqfh0","pricing_plan_id":"cebpf4jnsgd1na2vs0mg"},{"bike_id":"7bb5a6c7-6dd5-4a42-9215-dad1557690cc","system_id":"levelo_inurba_marseille","lat":43.32296,"lon":5.38261,"is_reserved":false,"is_disabled":false,"rental_uris":{"android":"levelo://app?vid=7bb5a6c7-6dd5-4a42-9215-dad1557690cc","ios":"levelo://app?vid=7bb5a6c7-6dd5-4a42-9215-dad1557690cc"},"vehicle_type_id":"4","last_reported":1725948767,"current_range_meters":38000,"station_id":"ce4bhr12rcd13ifvqhqg","pricing_plan_id":"cebpf4jnsgd1na2vs0mg"},{"bike_id":"d30e9082-d592-4f06-9593-6ebb33230019","system_id":"levelo_inurba_marseille","lat":43.30605,"lon":5.39358,"is_reserved":false,"is_disabled":false,"rental_uris":{"android":"levelo://app?vid=d30e9082-d592-4f06-9593-6ebb33230019","ios":"levelo://app?vid=d30e9082-d592-4f06-9593-6ebb33230019"},"vehicle_type_id":"4","last_reported":1725948767,"current_range_meters":38000,"station_id":"ce4bh0p2rcd13ifvqd80","pricing_plan_id":"cebpf4jnsgd1na2vs0mg"},{"bike_id":"4d3ba965-b7c3-468a-b8ee-8b5bc8e89720","system_id":"levelo_inurba_marseille","lat":43.27618,"lon":5.36111,"is_reserved":false,"is_disabled":false,"rental_uris":{"android":"levelo://app?vid=4d3ba965-b7c3-468a-b8ee-8b5bc8e89720","ios":"levelo://app?vid=4d3ba965-b7c3-468a-b8ee-8b5bc8e89720"},"vehicle_type_id":"4","last_reported":1725948767,"current_range_meters":38800,"station_id":"ce4bgj92rcd13ifvqbe0","pricing_plan_id":"cebpf4jnsgd1na2vs0mg"},{"bike_id":"8c317ca4-ae87-4e85-8597-c0aa99af97e9","system_id":"levelo_inurba_marseille","lat":43.25004,"lon":5.38931,"is_reserved":false,"is_disabled":false,"rental_uris":{"android":"levelo://app?vid=8c317ca4-ae87-4e85-8597-c0aa99af97e9","ios":"levelo://app?vid=8c317ca4-ae87-4e85-8597-c0aa99af97e9"},"vehicle_type_id":"4","last_reported":1725948767,"current_range_meters":13600,"station_id":"ce4bhgp2rcd13ifvqfd0","pricing_plan_id":"cebpf4jnsgd1na2vs0mg"},{"bike_id":"f25790de-aa0d-4ab3-854f-f631ba5dff5c","system_id":"levelo_inurba_marseille","lat":43.2681,"lon":5.40266,"is_reserved":false,"is_disabled":false,"rental_uris":{"android":"levelo://app?vid=f25790de-aa0d-4ab3-854f-f631ba5dff5c","ios":"levelo://app?vid=f25790de-aa0d-4ab3-854f-f631ba5dff5c"},"vehicle_type_id":"4","last_reported":1725948767,"current_range_meters":3600,"station_id":"ce501612rcd8frsf0b60","pricing_plan_id":"cebpf4jnsgd1na2vs0mg"},{"bike_id":"0ae8c7a4-54fd-4ff8-a045-e1471016df7b","system_id":"levelo_inurba_marseille","lat":43.24072,"lon":5.37758,"is_reserved":false,"is_disabled":false,"rental_uris":{"android":"levelo://app?vid=0ae8c7a4-54fd-4ff8-a045-e1471016df7b","ios":"levelo://app?vid=0ae8c7a4-54fd-4ff8-a045-e1471016df7b"},"vehicle_type_id":"4","last_reported":1725948767,"current_range_meters":35200,"station_id":"ce4bhnp2rcd13ifvqgvg","pricing_plan_id":"cebpf4jnsgd1na2vs0mg"},{"bike_id":"70e15b0d-e526-428f-b70a-08deda153a5b","system_id":"levelo_inurba_marseille","lat":43.287097,"lon":5.399906,"is_reserved":false,"is_disabled":false,"rental_uris":{"android":"levelo://app?vid=70e15b0d-e526-428f-b70a-08deda153a5b","ios":"levelo://app?vid=70e15b0d-e526-428f-b70a-08deda153a5b"},"vehicle_type_id":"4","last_reported":1725948767,"current_range_meters":10800,"station_id":"ce4bho92rcd13ifvqh3g","pricing_plan_id":"cebpf4jnsgd1na2vs0mg"},{"bike_id":"a652abbb-929e-48bc-bf09-b29a9abba6ab","system_id":"levelo_inurba_marseille","lat":43.30466,"lon":5.37892,"is_reserved":false,"is_disabled":false,"rental_uris":{"android":"levelo://app?vid=a652abbb-929e-48bc-bf09-b29a9abba6ab","ios":"levelo://app?vid=a652abbb-929e-48bc-bf09-b29a9abba6ab"},"vehicle_type_id":"4","last_reported":1725948767,"current_range_meters":14400,"station_id":"ce4bgup2rcd13ifvqcn0","pricing_plan_id":"cebpf4jnsgd1na2vs0mg"},{"bike_id":"e79dc6d1-d6a3-467f-a9dd-348e2da1839e","system_id":"levelo_inurba_marseille","lat":43.25579,"lon":5.38226,"is_reserved":false,"is_disabled":false,"rental_uris":{"android":"levelo://app?vid=e79dc6d1-d6a3-467f-a9dd-348e2da1839e","ios":"levelo://app?vid=e79dc6d1-d6a3-467f-a9dd-348e2da1839e"},"vehicle_type_id":"4","last_reported":1725948767,"current_range_meters":32000,"station_id":"ce4bhih2rcd13ifvqfs0","pricing_plan_id":"cebpf4jnsgd1na2vs0mg"},{"bike_id":"928bdf89-368c-42eb-a79b-1e3e4a15c911","system_id":"levelo_inurba_marseille","lat":43.290354,"lon":5.375542,"is_reserved":false,"is_disabled":false,"rental_uris":{"android":"levelo://app?vid=928bdf89-368c-42eb-a79b-1e3e4a15c911","ios":"levelo://app?vid=928bdf89-368c-42eb-a79b-1e3e4a15c911"},"vehicle_type_id":"4","last_reported":1725948767,"current_range_meters":9200,"station_id":"ce4bh692rcd13ifvqe90","pricing_plan_id":"cebpf4jnsgd1na2vs0mg"},{"bike_id":"96c7cf39-d830-4845-ad82-0305120b5fb7","system_id":"levelo_inurba_marseille","lat":43.31758,"lon":5.39011,"is_reserved":false,"is_disabled":false,"rental_uris":{"android":"levelo://app?vid=96c7cf39-d830-4845-ad82-0305120b5fb7","ios":"levelo://app?vid=96c7cf39-d830-4845-ad82-0305120b5fb7"},"vehicle_type_id":"4","last_reported":1725948767,"current_range_meters":39200,"station_id":"ce4bhqp2rcd13ifvqhng","pricing_plan_id":"cebpf4jnsgd1na2vs0mg"},{"bike_id":"354299b7-cdd8-40ee-99ee-bdf89d563bc0","system_id":"levelo_inurba_marseille","lat":43.25828,"lon":5.39429,"is_reserved":false,"is_disabled":false,"rental_uris":{"android":"levelo://app?vid=354299b7-cdd8-40ee-99ee-bdf89d563bc0","ios":"levelo://app?vid=354299b7-cdd8-40ee-99ee-bdf89d563bc0"},"vehicle_type_id":"4","last_reported":1725948767,"current_range_meters":30800,"station_id":"ce4bhip2rcd13ifvqft0","pricing_plan_id":"cebpf4jnsgd1na2vs0mg"},{"bike_id":"69887564-2232-4e24-85c7-9fb1bcc97ed9","system_id":"levelo_inurba_marseille","lat":43.26783,"lon":5.39412,"is_reserved":false,"is_disabled":false,"rental_uris":{"android":"levelo://app?vid=69887564-2232-4e24-85c7-9fb1bcc97ed9","ios":"levelo://app?vid=69887564-2232-4e24-85c7-9fb1bcc97ed9"},"vehicle_type_id":"4","last_reported":1725948767,"current_range_meters":32000,"station_id":"ce4bhh12rcd13ifvqfg0","pricing_plan_id":"cebpf4jnsgd1na2vs0mg"},{"bike_id":"032a5afd-3026-4629-a0d5-befb69e8274f","system_id":"levelo_inurba_marseille","lat":43.27839,"lon":5.39207,"is_reserved":false,"is_disabled":false,"rental_uris":{"android":"levelo://app?vid=032a5afd-3026-4629-a0d5-befb69e8274f","ios":"levelo://app?vid=032a5afd-3026-4629-a0d5-befb69e8274f"},"vehicle_type_id":"4","last_reported":1725948767,"current_range_meters":36400,"station_id":"ce4bhjp2rcd13ifvqga0","pricing_plan_id":"cebpf4jnsgd1na2vs0mg"},{"bike_id":"7455bc20-60a5-48d2-9928-62fe204b368f","system_id":"levelo_inurba_marseille","lat":43.26569,"lon":5.39005,"is_reserved":false,"is_disabled":false,"rental_uris":{"android":"levelo://app?vid=7455bc20-60a5-48d2-9928-62fe204b368f","ios":"levelo://app?vid=7455bc20-60a5-48d2-9928-62fe204b368f"},"vehicle_type_id":"4","last_reported":1725948767,"current_range_meters":30000,"station_id":"ce4bhe12rcd13ifvqf30","pricing_plan_id":"cebpf4jnsgd1na2vs0mg"},{"bike_id":"79dfdd4c-1583-4a47-90bc-949ec56c62d2","system_id":"levelo_inurba_marseille","lat":43.31722,"lon":5.42392,"is_reserved":false,"is_disabled":false,"rental_uris":{"android":"levelo://app?vid=79dfdd4c-1583-4a47-90bc-949ec56c62d2","ios":"levelo://app?vid=79dfdd4c-1583-4a47-90bc-949ec56c62d2"},"vehicle_type_id":"4","last_reported":1725948767,"current_range_meters":38800,"station_id":"ce4bhp92rcd13ifvqhbg","pricing_plan_id":"cebpf4jnsgd1na2vs0mg"},{"bike_id":"3d8aa3b4-bbca-47f7-b4b0-b5638037c663","system_id":"levelo_inurba_marseille","lat":43.29837,"lon":5.38091,"is_reserved":false,"is_disabled":false,"rental_uris":{"android":"levelo://app?vid=3d8aa3b4-bbca-47f7-b4b0-b5638037c663","ios":"levelo://app?vid=3d8aa3b4-bbca-47f7-b4b0-b5638037c663"},"vehicle_type_id":"4","last_reported":1725948767,"current_range_meters":3200,"station_id":"ce4bgip2rcd13ifvqbb0","pricing_plan_id":"cebpf4jnsgd1na2vs0mg"},{"bike_id":"b52eb134-3d5f-4196-a2fc-255d04f3727a","system_id":"levelo_inurba_marseille","lat":43.3016,"lon":5.38079,"is_reserved":false,"is_disabled":false,"rental_uris":{"android":"levelo://app?vid=b52eb134-3d5f-4196-a2fc-255d04f3727a","ios":"levelo://app?vid=b52eb134-3d5f-4196-a2fc-255d04f3727a"},"vehicle_type_id":"4","last_reported":1725948767,"current_range_meters":33200,"station_id":"ce4bgjp2rcd13ifvqbh0","pricing_plan_id":"cebpf4jnsgd1na2vs0mg"},{"bike_id":"b67357ee-48ea-4477-9752-bb18a5a0f543","system_id":"levelo_inurba_marseille","lat":43.31898,"lon":5.40739,"is_reserved":false,"is_disabled":false,"rental_uris":{"android":"levelo://app?vid=b67357ee-48ea-4477-9752-bb18a5a0f543","ios":"levelo://app?vid=b67357ee-48ea-4477-9752-bb18a5a0f543"},"vehicle_type_id":"4","last_reported":1725948767,"current_range_meters":10000,"station_id":"ce4bhq12rcd13ifvqhig","pricing_plan_id":"cebpf4jnsgd1na2vs0mg"},{"bike_id":"08797811-4e64-4d38-ac96-24a7e0ce2ecc","system_id":"levelo_inurba_marseille","lat":43.27375,"lon":5.36255,"is_reserved":false,"is_disabled":false,"rental_uris":{"android":"levelo://app?vid=08797811-4e64-4d38-ac96-24a7e0ce2ecc","ios":"levelo://app?vid=08797811-4e64-4d38-ac96-24a7e0ce2ecc"},"vehicle_type_id":"4","last_reported":1725948767,"current_range_meters":30400,"station_id":"ce4bhbh2rcd13ifvqeo0","pricing_plan_id":"cebpf4jnsgd1na2vs0mg"},{"bike_id":"2aa9f8e9-2a94-4754-95ae-f411c231ebd3","system_id":"levelo_inurba_marseille","lat":43.31171,"lon":5.38716,"is_reserved":false,"is_disabled":false,"rental_uris":{"android":"levelo://app?vid=2aa9f8e9-2a94-4754-95ae-f411c231ebd3","ios":"levelo://app?vid=2aa9f8e9-2a94-4754-95ae-f411c231ebd3"},"vehicle_type_id":"4","last_reported":1725948767,"current_range_meters":38800,"station_id":"ce4bgv12rcd13ifvqcp0","pricing_plan_id":"cebpf4jnsgd1na2vs0mg"},{"bike_id":"bf3f6b11-b600-497a-84fe-1a0c1f2f273f","system_id":"levelo_inurba_marseille","lat":43.3237,"lon":5.38926,"is_reserved":false,"is_disabled":false,"rental_uris":{"android":"levelo://app?vid=bf3f6b11-b600-497a-84fe-1a0c1f2f273f","ios":"levelo://app?vid=bf3f6b11-b600-497a-84fe-1a0c1f2f273f"},"vehicle_type_id":"4","last_reported":1725948767,"current_range_meters":19600,"station_id":"","pricing_plan_id":"cebpf4jnsgd1na2vs0mg"},{"bike_id":"5af68b02-edd4-4c08-853d-cb794cf33d60","system_id":"levelo_inurba_marseille","lat":43.25824,"lon":5.3943,"is_reserved":false,"is_disabled":false,"rental_uris":{"android":"levelo://app?vid=5af68b02-edd4-4c08-853d-cb794cf33d60","ios":"levelo://app?vid=5af68b02-edd4-4c08-853d-cb794cf33d60"},"vehicle_type_id":"4","last_reported":1725948767,"current_range_meters":12800,"station_id":"ce4bhip2rcd13ifvqft0","pricing_plan_id":"cebpf4jnsgd1na2vs0mg"},{"bike_id":"904ccbc6-f524-4451-8592-622d7f75bd6b","system_id":"levelo_inurba_marseille","lat":43.32344,"lon":5.40616,"is_reserved":false,"is_disabled":false,"rental_uris":{"android":"levelo://app?vid=904ccbc6-f524-4451-8592-622d7f75bd6b","ios":"levelo://app?vid=904ccbc6-f524-4451-8592-622d7f75bd6b"},"vehicle_type_id":"4","last_reported":1725948767,"current_range_meters":14000,"station_id":"ce4bhq92rcd13ifvqhjg","pricing_plan_id":"cebpf4jnsgd1na2vs0mg"},{"bike_id":"32f6e5be-5d73-4af6-a9d5-6834402b7f99","system_id":"levelo_inurba_marseille","lat":43.25583,"lon":5.38227,"is_reserved":false,"is_disabled":false,"rental_uris":{"android":"levelo://app?vid=32f6e5be-5d73-4af6-a9d5-6834402b7f99","ios":"levelo://app?vid=32f6e5be-5d73-4af6-a9d5-6834402b7f99"},"vehicle_type_id":"4","last_reported":1725948767,"current_range_meters":38400,"station_id":"ce4bhih2rcd13ifvqfs0","pricing_plan_id":"cebpf4jnsgd1na2vs0mg"},{"bike_id":"cffe04c1-88f0-4a0d-adc5-1c17f442f6b0","system_id":"levelo_inurba_marseille","lat":43.24391,"lon":5.37057,"is_reserved":false,"is_disabled":false,"rental_uris":{"android":"levelo://app?vid=cffe04c1-88f0-4a0d-adc5-1c17f442f6b0","ios":"levelo://app?vid=cffe04c1-88f0-4a0d-adc5-1c17f442f6b0"},"vehicle_type_id":"4","last_reported":1725948767,"current_range_meters":38800,"station_id":"ce4bhhh2rcd13ifvqfk0","pricing_plan_id":"cebpf4jnsgd1na2vs0mg"},{"bike_id":"2fab2f64-f490-4758-921a-3009b4ba8bca","system_id":"levelo_inurba_marseille","lat":43.3229,"lon":5.38268,"is_reserved":false,"is_disabled":false,"rental_uris":{"android":"levelo://app?vid=2fab2f64-f490-4758-921a-3009b4ba8bca","ios":"levelo://app?vid=2fab2f64-f490-4758-921a-3009b4ba8bca"},"vehicle_type_id":"4","last_reported":1725948767,"current_range_meters":38400,"station_id":"ce4bhr12rcd13ifvqhqg","pricing_plan_id":"cebpf4jnsgd1na2vs0mg"},{"bike_id":"6e3cdfb9-fe5c-4830-adfd-7542b79c6d41","system_id":"levelo_inurba_marseille","lat":43.2501,"lon":5.38926,"is_reserved":false,"is_disabled":false,"rental_uris":{"android":"levelo://app?vid=6e3cdfb9-fe5c-4830-adfd-7542b79c6d41","ios":"levelo://app?vid=6e3cdfb9-fe5c-4830-adfd-7542b79c6d41"},"vehicle_type_id":"4","last_reported":1725948767,"current_range_meters":31200,"station_id":"ce4bhgp2rcd13ifvqfd0","pricing_plan_id":"cebpf4jnsgd1na2vs0mg"},{"bike_id":"d48e0dec-518d-4e84-94f6-11981c7616c0","system_id":"levelo_inurba_marseille","lat":43.24075,"lon":5.37758,"is_reserved":false,"is_disabled":false,"rental_uris":{"android":"levelo://app?vid=d48e0dec-518d-4e84-94f6-11981c7616c0","ios":"levelo://app?vid=d48e0dec-518d-4e84-94f6-11981c7616c0"},"vehicle_type_id":"4","last_reported":1725948767,"current_range_meters":28400,"station_id":"ce4bhnp2rcd13ifvqgvg","pricing_plan_id":"cebpf4jnsgd1na2vs0mg"},{"bike_id":"230b4c99-92fa-4a4d-b3bc-d5758b89c606","system_id":"levelo_inurba_marseille","lat":43.29796,"lon":5.38089,"is_reserved":false,"is_disabled":false,"rental_uris":{"android":"levelo://app?vid=230b4c99-92fa-4a4d-b3bc-d5758b89c606","ios":"levelo://app?vid=230b4c99-92fa-4a4d-b3bc-d5758b89c606"},"vehicle_type_id":"4","last_reported":1725948767,"current_range_meters":34800,"station_id":"ce4bgip2rcd13ifvqbb0","pricing_plan_id":"cebpf4jnsgd1na2vs0mg"},{"bike_id":"92b076ac-b409-4123-a2a3-d1c3f8da0aac","system_id":"levelo_inurba_marseille","lat":43.30655,"lon":5.40089,"is_reserved":false,"is_disabled":false,"rental_uris":{"android":"levelo://app?vid=92b076ac-b409-4123-a2a3-d1c3f8da0aac","ios":"levelo://app?vid=92b076ac-b409-4123-a2a3-d1c3f8da0aac"},"vehicle_type_id":"4","last_reported":1725948767,"current_range_meters":25600,"station_id":"ce4bh112rcd13ifvqda0","pricing_plan_id":"cebpf4jnsgd1na2vs0mg"},{"bike_id":"72f833ca-370e-469e-a6b2-a3b2bf6fb689","system_id":"levelo_inurba_marseille","lat":43.33774,"lon":5.37431,"is_reserved":false,"is_disabled":false,"rental_uris":{"android":"levelo://app?vid=72f833ca-370e-469e-a6b2-a3b2bf6fb689","ios":"levelo://app?vid=72f833ca-370e-469e-a6b2-a3b2bf6fb689"},"vehicle_type_id":"4","last_reported":1725948767,"current_range_meters":38000,"station_id":"","pricing_plan_id":"cebpf4jnsgd1na2vs0mg"},{"bike_id":"daf6a3ba-2164-4a27-beb4-c576906cea03","system_id":"levelo_inurba_marseille","lat":43.25002,"lon":5.38938,"is_reserved":false,"is_disabled":false,"rental_uris":{"android":"levelo://app?vid=daf6a3ba-2164-4a27-beb4-c576906cea03","ios":"levelo://app?vid=daf6a3ba-2164-4a27-beb4-c576906cea03"},"vehicle_type_id":"4","last_reported":1725948767,"current_range_meters":35600,"station_id":"ce4bhgp2rcd13ifvqfd0","pricing_plan_id":"cebpf4jnsgd1na2vs0mg"},{"bike_id":"3f536e7c-50cf-4fb2-809a-dbe225c421c4","system_id":"levelo_inurba_marseille","lat":43.30602,"lon":5.39353,"is_reserved":false,"is_disabled":false,"rental_uris":{"android":"levelo://app?vid=3f536e7c-50cf-4fb2-809a-dbe225c421c4","ios":"levelo://app?vid=3f536e7c-50cf-4fb2-809a-dbe225c421c4"},"vehicle_type_id":"4","last_reported":1725948767,"current_range_meters":27200,"station_id":"ce4bh0p2rcd13ifvqd80","pricing_plan_id":"cebpf4jnsgd1na2vs0mg"},{"bike_id":"a56e0313-2f46-466c-b71e-0dddf2401d63","system_id":"levelo_inurba_marseille","lat":43.23055,"lon":5.35494,"is_reserved":false,"is_disabled":false,"rental_uris":{"android":"levelo://app?vid=a56e0313-2f46-466c-b71e-0dddf2401d63","ios":"levelo://app?vid=a56e0313-2f46-466c-b71e-0dddf2401d63"},"vehicle_type_id":"4","last_reported":1725948767,"current_range_meters":21600,"station_id":"cpo3342slgdg3j2ifvpg","pricing_plan_id":"cebpf4jnsgd1na2vs0mg"},{"bike_id":"5d16bdb3-8ecb-4bbf-81f3-2bc338bd29da","system_id":"levelo_inurba_marseille","lat":43.3192,"lon":5.3849,"is_reserved":false,"is_disabled":false,"rental_uris":{"android":"levelo://app?vid=5d16bdb3-8ecb-4bbf-81f3-2bc338bd29da","ios":"levelo://app?vid=5d16bdb3-8ecb-4bbf-81f3-2bc338bd29da"},"vehicle_type_id":"4","last_reported":1725948767,"current_range_meters":32400,"station_id":"ce4bhqp2rcd13ifvqhng","pricing_plan_id":"cebpf4jnsgd1na2vs0mg"},{"bike_id":"1027f522-e178-4bc0-af70-7f39f6500966","system_id":"levelo_inurba_marseille","lat":43.33754,"lon":5.37447,"is_reserved":false,"is_disabled":false,"rental_uris":{"android":"levelo://app?vid=1027f522-e178-4bc0-af70-7f39f6500966","ios":"levelo://app?vid=1027f522-e178-4bc0-af70-7f39f6500966"},"vehicle_type_id":"4","last_reported":1725948767,"current_range_meters":29600,"station_id":"","pricing_plan_id":"cebpf4jnsgd1na2vs0mg"},{"bike_id":"8b1de65a-29ab-434a-bf74-8a588d6871fe","system_id":"levelo_inurba_marseille","lat":43.27208,"lon":5.39175,"is_reserved":false,"is_disabled":false,"rental_uris":{"android":"levelo://app?vid=8b1de65a-29ab-434a-bf74-8a588d6871fe","ios":"levelo://app?vid=8b1de65a-29ab-434a-bf74-8a588d6871fe"},"vehicle_type_id":"4","last_reported":1725948767,"current_range_meters":9200,"station_id":"ce4bhhp2rcd13ifvqfm0","pricing_plan_id":"cebpf4jnsgd1na2vs0mg"},{"bike_id":"ad0e26a7-5851-44b7-b64b-33c69ce39f65","system_id":"levelo_inurba_marseille","lat":43.30599,"lon":5.3935,"is_reserved":false,"is_disabled":false,"rental_uris":{"android":"levelo://app?vid=ad0e26a7-5851-44b7-b64b-33c69ce39f65","ios":"levelo://app?vid=ad0e26a7-5851-44b7-b64b-33c69ce39f65"},"vehicle_type_id":"4","last_reported":1725948767,"current_range_meters":10000,"station_id":"ce4bh0p2rcd13ifvqd80","pricing_plan_id":"cebpf4jnsgd1na2vs0mg"},{"bike_id":"59d2893a-d1ce-4346-9856-cf825097e6cb","system_id":"levelo_inurba_marseille","lat":43.23197,"lon":5.35551,"is_reserved":false,"is_disabled":false,"rental_uris":{"android":"levelo://app?vid=59d2893a-d1ce-4346-9856-cf825097e6cb","ios":"levelo://app?vid=59d2893a-d1ce-4346-9856-cf825097e6cb"},"vehicle_type_id":"4","last_reported":1725948767,"current_range_meters":24400,"station_id":"ce4bhu92rcd13ifvqi70","pricing_plan_id":"cebpf4jnsgd1na2vs0mg"},{"bike_id":"340e4376-2578-41a7-8b22-74d628f1e3d4","system_id":"levelo_inurba_marseille","lat":43.26691,"lon":5.38275,"is_reserved":false,"is_disabled":false,"rental_uris":{"android":"levelo://app?vid=340e4376-2578-41a7-8b22-74d628f1e3d4","ios":"levelo://app?vid=340e4376-2578-41a7-8b22-74d628f1e3d4"},"vehicle_type_id":"4","last_reported":1725948767,"current_range_meters":38400,"station_id":"ce4bhg92rcd13ifvqf90","pricing_plan_id":"cebpf4jnsgd1na2vs0mg"},{"bike_id":"45a1624e-6516-4350-bfa4-5b695cffef6a","system_id":"levelo_inurba_marseille","lat":43.22928,"lon":5.35379,"is_reserved":false,"is_disabled":false,"rental_uris":{"android":"levelo://app?vid=45a1624e-6516-4350-bfa4-5b695cffef6a","ios":"levelo://app?vid=45a1624e-6516-4350-bfa4-5b695cffef6a"},"vehicle_type_id":"4","last_reported":1725948767,"current_range_meters":36800,"station_id":"cpo3532slgdg3j2ikp40","pricing_plan_id":"cebpf4jnsgd1na2vs0mg"},{"bike_id":"62f78e9e-6289-4c92-8c5d-69696057778c","system_id":"levelo_inurba_marseille","lat":43.326319,"lon":5.413576,"is_reserved":false,"is_disabled":false,"rental_uris":{"android":"levelo://app?vid=62f78e9e-6289-4c92-8c5d-69696057778c","ios":"levelo://app?vid=62f78e9e-6289-4c92-8c5d-69696057778c"},"vehicle_type_id":"4","last_reported":1725948767,"current_range_meters":33200,"station_id":"","pricing_plan_id":"cebpf4jnsgd1na2vs0mg"},{"bike_id":"2d529c2b-e937-431f-91e5-04175a413180","system_id":"levelo_inurba_marseille","lat":43.31071,"lon":5.40065,"is_reserved":false,"is_disabled":false,"rental_uris":{"android":"levelo://app?vid=2d529c2b-e937-431f-91e5-04175a413180","ios":"levelo://app?vid=2d529c2b-e937-431f-91e5-04175a413180"},"vehicle_type_id":"4","last_reported":1725948767,"current_range_meters":14400,"station_id":"ce4bhq92rcd13ifvqhjg","pricing_plan_id":"cebpf4jnsgd1na2vs0mg"},{"bike_id":"35b4ccbe-337e-42f5-b64b-d3d4516b0316","system_id":"levelo_inurba_marseille","lat":43.27494,"lon":5.42447,"is_reserved":false,"is_disabled":false,"rental_uris":{"android":"levelo://app?vid=35b4ccbe-337e-42f5-b64b-d3d4516b0316","ios":"levelo://app?vid=35b4ccbe-337e-42f5-b64b-d3d4516b0316"},"vehicle_type_id":"4","last_reported":1725948767,"current_range_meters":30800,"station_id":"ce4bhn92rcd13ifvqgrg","pricing_plan_id":"cebpf4jnsgd1na2vs0mg"},{"bike_id":"7aacbaf0-4358-4266-8e4a-b7855383f70e","system_id":"levelo_inurba_marseille","lat":43.27496,"lon":5.42453,"is_reserved":false,"is_disabled":false,"rental_uris":{"android":"levelo://app?vid=7aacbaf0-4358-4266-8e4a-b7855383f70e","ios":"levelo://app?vid=7aacbaf0-4358-4266-8e4a-b7855383f70e"},"vehicle_type_id":"4","last_reported":1725948767,"current_range_meters":5600,"station_id":"ce4bhn92rcd13ifvqgrg","pricing_plan_id":"cebpf4jnsgd1na2vs0mg"},{"bike_id":"2a131b9c-6918-479e-8510-691547539408","system_id":"levelo_inurba_marseille","lat":43.27203,"lon":5.39175,"is_reserved":false,"is_disabled":false,"rental_uris":{"android":"levelo://app?vid=2a131b9c-6918-479e-8510-691547539408","ios":"levelo://app?vid=2a131b9c-6918-479e-8510-691547539408"},"vehicle_type_id":"4","last_reported":1725948767,"current_range_meters":14800,"station_id":"ce4bhhp2rcd13ifvqfm0","pricing_plan_id":"cebpf4jnsgd1na2vs0mg"},{"bike_id":"414f5def-dd0c-49b8-9345-99091281a72f","system_id":"levelo_inurba_marseille","lat":43.26565,"lon":5.39003,"is_reserved":false,"is_disabled":false,"rental_uris":{"android":"levelo://app?vid=414f5def-dd0c-49b8-9345-99091281a72f","ios":"levelo://app?vid=414f5def-dd0c-49b8-9345-99091281a72f"},"vehicle_type_id":"4","last_reported":1725948767,"current_range_meters":29600,"station_id":"ce4bhe12rcd13ifvqf30","pricing_plan_id":"cebpf4jnsgd1na2vs0mg"},{"bike_id":"6b9e71d1-c008-48f1-9a0d-997e9b37a845","system_id":"levelo_inurba_marseille","lat":43.25576,"lon":5.38234,"is_reserved":false,"is_disabled":false,"rental_uris":{"android":"levelo://app?vid=6b9e71d1-c008-48f1-9a0d-997e9b37a845","ios":"levelo://app?vid=6b9e71d1-c008-48f1-9a0d-997e9b37a845"},"vehicle_type_id":"4","last_reported":1725948767,"current_range_meters":35200,"station_id":"ce4bhih2rcd13ifvqfs0","pricing_plan_id":"cebpf4jnsgd1na2vs0mg"},{"bike_id":"5b0baab9-c0b3-4496-b07a-4edc11919d74","system_id":"levelo_inurba_marseille","lat":43.26492,"lon":5.3954,"is_reserved":false,"is_disabled":false,"rental_uris":{"android":"levelo://app?vid=5b0baab9-c0b3-4496-b07a-4edc11919d74","ios":"levelo://app?vid=5b0baab9-c0b3-4496-b07a-4edc11919d74"},"vehicle_type_id":"4","last_reported":1725948767,"current_range_meters":24800,"station_id":"ce4bhi12rcd13ifvqfq0","pricing_plan_id":"cebpf4jnsgd1na2vs0mg"},{"bike_id":"3a567a7d-c01e-4dfa-9644-e9ff1c40b572","system_id":"levelo_inurba_marseille","lat":43.28719,"lon":5.3793,"is_reserved":false,"is_disabled":false,"rental_uris":{"android":"levelo://app?vid=3a567a7d-c01e-4dfa-9644-e9ff1c40b572","ios":"levelo://app?vid=3a567a7d-c01e-4dfa-9644-e9ff1c40b572"},"vehicle_type_id":"4","last_reported":1725948767,"current_range_meters":4400,"station_id":"ce4bh9p2rcd13ifvqec0","pricing_plan_id":"cebpf4jnsgd1na2vs0mg"},{"bike_id":"7d4236b0-d19b-4de7-acc4-1c5f7f5686c5","system_id":"levelo_inurba_marseille","lat":43.231529,"lon":5.437317,"is_reserved":false,"is_disabled":false,"rental_uris":{"android":"levelo://app?vid=7d4236b0-d19b-4de7-acc4-1c5f7f5686c5","ios":"levelo://app?vid=7d4236b0-d19b-4de7-acc4-1c5f7f5686c5"},"vehicle_type_id":"4","last_reported":1725948767,"current_range_meters":16400,"station_id":"ce4bhmp2rcd13ifvqgog","pricing_plan_id":"cebpf4jnsgd1na2vs0mg"},{"bike_id":"4457b460-fcdd-45f2-abe1-a04596555a94","system_id":"levelo_inurba_marseille","lat":43.28358,"lon":5.38099,"is_reserved":false,"is_disabled":false,"rental_uris":{"android":"levelo://app?vid=4457b460-fcdd-45f2-abe1-a04596555a94","ios":"levelo://app?vid=4457b460-fcdd-45f2-abe1-a04596555a94"},"vehicle_type_id":"4","last_reported":1725948767,"current_range_meters":31200,"station_id":"ce4bh412rcd13ifvqdr0","pricing_plan_id":"cebpf4jnsgd1na2vs0mg"},{"bike_id":"e1c53e64-87ee-4154-8c4d-6546b817d027","system_id":"levelo_inurba_marseille","lat":43.27844,"lon":5.39207,"is_reserved":false,"is_disabled":false,"rental_uris":{"android":"levelo://app?vid=e1c53e64-87ee-4154-8c4d-6546b817d027","ios":"levelo://app?vid=e1c53e64-87ee-4154-8c4d-6546b817d027"},"vehicle_type_id":"4","last_reported":1725948767,"current_range_meters":22000,"station_id":"ce4bhjp2rcd13ifvqga0","pricing_plan_id":"cebpf4jnsgd1na2vs0mg"},{"bike_id":"9eee4d83-487c-42fe-a6a6-9a2c8a50c774","system_id":"levelo_inurba_marseille","lat":43.33603,"lon":5.41015,"is_reserved":false,"is_disabled":false,"rental_uris":{"android":"levelo://app?vid=9eee4d83-487c-42fe-a6a6-9a2c8a50c774","ios":"levelo://app?vid=9eee4d83-487c-42fe-a6a6-9a2c8a50c774"},"vehicle_type_id":"4","last_reported":1725948767,"current_range_meters":32000,"station_id":"ce4bhqh2rcd13ifvqhmg","pricing_plan_id":"cebpf4jnsgd1na2vs0mg"},{"bike_id":"9ba650cb-b3aa-4630-94c4-9f64d07f7a2b","system_id":"levelo_inurba_marseille","lat":43.26502,"lon":5.39538,"is_reserved":false,"is_disabled":false,"rental_uris":{"android":"levelo://app?vid=9ba650cb-b3aa-4630-94c4-9f64d07f7a2b","ios":"levelo://app?vid=9ba650cb-b3aa-4630-94c4-9f64d07f7a2b"},"vehicle_type_id":"4","last_reported":1725948767,"current_range_meters":22400,"station_id":"ce4bhi12rcd13ifvqfq0","pricing_plan_id":"cebpf4jnsgd1na2vs0mg"},{"bike_id":"f9775d8f-4220-4ed5-bf5f-6156401c86a7","system_id":"levelo_inurba_marseille","lat":43.33024,"lon":5.39045,"is_reserved":false,"is_disabled":false,"rental_uris":{"android":"levelo://app?vid=f9775d8f-4220-4ed5-bf5f-6156401c86a7","ios":"levelo://app?vid=f9775d8f-4220-4ed5-bf5f-6156401c86a7"},"vehicle_type_id":"4","last_reported":1725948767,"current_range_meters":39200,"station_id":"ce4bhr92rcd13ifvqhrg","pricing_plan_id":"cebpf4jnsgd1na2vs0mg"},{"bike_id":"6897eed4-2ba2-49f7-93db-4900d9e0f691","system_id":"levelo_inurba_marseille","lat":43.31363,"lon":5.36691,"is_reserved":false,"is_disabled":false,"rental_uris":{"android":"levelo://app?vid=6897eed4-2ba2-49f7-93db-4900d9e0f691","ios":"levelo://app?vid=6897eed4-2ba2-49f7-93db-4900d9e0f691"},"vehicle_type_id":"4","last_reported":1725948767,"current_range_meters":38400,"station_id":"ce4bgr92rcd13ifvqc6g","pricing_plan_id":"cebpf4jnsgd1na2vs0mg"},{"bike_id":"dbb073ab-dd15-4525-b75b-4ca3c2f4de0f","system_id":"levelo_inurba_marseille","lat":43.324589,"lon":5.415418,"is_reserved":false,"is_disabled":false,"rental_uris":{"android":"levelo://app?vid=dbb073ab-dd15-4525-b75b-4ca3c2f4de0f","ios":"levelo://app?vid=dbb073ab-dd15-4525-b75b-4ca3c2f4de0f"},"vehicle_type_id":"4","last_reported":1725948767,"current_range_meters":17600,"station_id":"ce4bhq12rcd13ifvqhhg","pricing_plan_id":"cebpf4jnsgd1na2vs0mg"},{"bike_id":"d7d8c95c-9a73-4f31-b7ca-0c01751303a0","system_id":"levelo_inurba_marseille","lat":43.23061,"lon":5.35489,"is_reserved":false,"is_disabled":false,"rental_uris":{"android":"levelo://app?vid=d7d8c95c-9a73-4f31-b7ca-0c01751303a0","ios":"levelo://app?vid=d7d8c95c-9a73-4f31-b7ca-0c01751303a0"},"vehicle_type_id":"4","last_reported":1725948767,"current_range_meters":12400,"station_id":"cpo3342slgdg3j2ifvpg","pricing_plan_id":"cebpf4jnsgd1na2vs0mg"},{"bike_id":"ae1eb74c-347c-482e-8930-4dc428cc17f0","system_id":"levelo_inurba_marseille","lat":43.34142,"lon":5.40901,"is_reserved":false,"is_disabled":false,"rental_uris":{"android":"levelo://app?vid=ae1eb74c-347c-482e-8930-4dc428cc17f0","ios":"levelo://app?vid=ae1eb74c-347c-482e-8930-4dc428cc17f0"},"vehicle_type_id":"4","last_reported":1725948767,"current_range_meters":33200,"station_id":"ce4bhqh2rcd13ifvqhlg","pricing_plan_id":"cebpf4jnsgd1na2vs0mg"},{"bike_id":"cf0e8986-f6a9-4f5b-9547-4ee9fd512e06","system_id":"levelo_inurba_marseille","lat":43.28163,"lon":5.40433,"is_reserved":false,"is_disabled":false,"rental_uris":{"android":"levelo://app?vid=cf0e8986-f6a9-4f5b-9547-4ee9fd512e06","ios":"levelo://app?vid=cf0e8986-f6a9-4f5b-9547-4ee9fd512e06"},"vehicle_type_id":"4","last_reported":1725948767,"current_range_meters":33200,"station_id":"","pricing_plan_id":"cebpf4jnsgd1na2vs0mg"},