{"last_updated":1736086022,"ttl":60,"version":"2.2","data":{"bikes":[{"bike_id":"a1d3c3ea-178c-47e7-8db4-fc8d6b350e53","system_id":"levelo_inurba_marseille","lat":43.29619,"lon":5.37711,"is_reserved":false,"is_disabled":false,"rental_uris":{"android":"levelo://app?vid=a1d3c3ea-178c-47e7-8db4-fc8d6b350e53","ios":"levelo://app?vid=a1d3c3ea-178c-47e7-8db4-fc8d6b350e53"},"vehicle_type_id":"4","last_reported":1736086022,"current_range_meters":27200,"station_id":"ce4bgi92rcd13ifvqb90","pricing_plan_id":"cebpf4jnsgd1na2vs0mg"},{"bike_id":"8f29603c-5d9a-4bc6-963d-711ada2a168a","system_id":"levelo_inurba_marseille","lat":43.246429,"lon":5.398364,"is_reserved":false,"is_disabled":true,"rental_uris":{"android":"levelo://app?vid=8f29603c-5d9a-4bc6-963d-711ada2a168a","ios":"levelo://app?vid=8f29603c-5d9a-4bc6-963d-711ada2a168a"},"vehicle_type_id":"4","last_reported":1736086022,"current_range_meters":24800,"station_id":"","pricing_plan_id":"cebpf4jnsgd1na2vs0mg"},{"bike_id":"4517f105-c6cd-42b4-a2b8-453f0a872c81","system_id":"levelo_inurba_marseille","lat":43.24662,"lon":5.38159,"is_reserved":false,"is_disabled":false,"rental_uris":{"android":"levelo://app?vid=4517f105-c6cd-42b4-a2b8-453f0a872c81","ios":"levelo://app?vid=4517f105-c6cd-42b4-a2b8-453f0a872c81"},"vehicle_type_id":"4","last_reported":1736086022,"current_range_meters":18000,"station_id":"ce4bhih2rcd13ifvqfr0","pricing_plan_id":"cebpf4jnsgd1na2vs0mg"},{"bike_id":"305acb20-0a4f-43d2-91f7-644747bed2ca","system_id":"levelo_inurba_marseille","lat":43.3117,"lon":5.38721,"is_reserved":false,"is_disabled":false,"rental_uris":{"android":"levelo://app?vid=305acb20-0a4f-43d2-91f7-644747bed2ca","ios":"levelo://app?vid=305acb20-0a4f-43d2-91f7-644747bed2ca"},"vehicle_type_id":"4","last_reported":1736086022,"current_range_meters":24000,"station_id":"ce4bgv12rcd13ifvqcp0","pricing_plan_id":"cebpf4jnsgd1na2vs0mg"},{"bike_id":"9fd6ac51-3e65-405c-9187-61441ea67dcf","system_id":"levelo_inurba_marseille","lat":43.30555,"lon":5.36527,"is_reserved":false,"is_disabled":false,"rental_uris":{"android":"levelo://app?vid=9fd6ac51-3e65-405c-9187-61441ea67dcf","ios":"levelo://app?vid=9fd6ac51-3e65-405c-9187-61441ea67dcf"},"vehicle_type_id":"4","last_reported":1736086022,"current_range_meters":38800,"station_id":"ce4bgs12rcd13ifvqcag","pricing_plan_id":"cebpf4jnsgd1na2vs0mg"},{"bike_id":"2f08c9fc-4d21-46b6-8ae3-3acb81bd9994","system_id":"levelo_inurba_marseille","lat":43.32457,"lon":5.36577,"is_reserved":false,"is_disabled":false,"rental_uris":{"android":"levelo://app?vid=2f08c9fc-4d21-46b6-8ae3-3acb81bd9994","ios":"levelo://app?vid=2f08c9fc-4d21-46b6-8ae3-3acb81bd9994"},"vehicle_type_id":"4","last_reported":1736086022,"current_range_meters":38400,"station_id":"ce4bhs12rcd13ifvqhvg","pricing_plan_id":"cebpf4jnsgd1na2vs0mg"},{"bike_id":"b0ef85f0-1088-4fc6-a319-4d61854132f5","system_id":"levelo_inurba_marseille","lat":43.30186,"lon":5.36607,"is_reserved":false,"is_disabled":false,"rental_uris":{"android":"levelo://app?vid=b0ef85f0-1088-4fc6-a319-4d61854132f5","ios":"levelo://app?vid=b0ef85f0-1088-4fc6-a319-4d61854132f5"},"vehicle_type_id":"4","last_reported":1736086022,"current_range_meters":39200,"station_id":"ce4bgrh2rcd13ifvqc8g","pricing_plan_id":"cebpf4jnsgd1na2vs0mg"},{"bike_id":"0153ae28-9422-4039-87f8-952c80b8c9cc","system_id":"levelo_inurba_marseille","lat":43.27311,"lon":5.39092,"is_reserved":false,"is_disabled":true,"rental_uris":{"android":"levelo://app?vid=0153ae28-9422-4039-87f8-952c80b8c9cc","ios":"levelo://app?vid=0153ae28-9422-4039-87f8-952c80b8c9cc"},"vehicle_type_id":"4","last_reported":1736086022,"current_range_meters":38800,"station_id":"ce4bhgp2rcd13ifvqfe0","pricing_plan_id":"cebpf4jnsgd1na2vs0mg"},{"bike_id":"de5fca51-10a1-4c71-88c1-502a0b1cc4dc","system_id":"levelo_inurba_marseille","lat":43.3055,"lon":5.36517,"is_reserved":false,"is_disabled":false,"rental_uris":{"android":"levelo://app?vid=de5fca51-10a1-4c71-88c1-502a0b1cc4dc","ios":"levelo://app?vid=de5fca51-10a1-4c71-88c1-502a0b1cc4dc"},"vehicle_type_id":"4","last_reported":1736086022,"current_range_meters":26000,"station_id":"ce4bgs12rcd13ifvqcag","pricing_plan_id":"cebpf4jnsgd1na2vs0mg"},{"bike_id":"3e5fec54-113c-4d87-b847-1977b09113ba","system_id":"levelo_inurba_marseille","lat":43.24814,"lon":5.37456,"is_reserved":false,"is_disabled":false,"rental_uris":{"android":"levelo://app?vid=3e5fec54-113c-4d87-b847-1977b09113ba","ios":"levelo://app?vid=3e5fec54-113c-4d87-b847-1977b09113ba"},"vehicle_type_id":"4","last_reported":1736086022,"current_range_meters":38800,"station_id":"ce4bhgh2rcd13ifvqfb0","pricing_plan_id":"cebpf4jnsgd1na2vs0mg"},{"bike_id":"0081482c-3a3c-4780-9458-4f79eb7e8bf9","system_id":"levelo_inurba_marseille","lat":43.27071,"lon":5.42281,"is_reserved":false,"is_disabled":false,"rental_uris":{"android":"levelo://app?vid=0081482c-3a3c-4780-9458-4f79eb7e8bf9","ios":"levelo://app?vid=0081482c-3a3c-4780-9458-4f79eb7e8bf9"},"vehicle_type_id":"4","last_reported":1736086022,"current_range_meters":30800,"station_id":"ce4bhk92rcd13ifvqgb0","pricing_plan_id":"cebpf4jnsgd1na2vs0mg"},{"bike_id":"bf5ecd27-149a-49ef-b066-56f830053cfe","system_id":"levelo_inurba_marseille","lat":43.31491,"lon":5.37291,"is_reserved":false,"is_disabled":false,"rental_uris":{"android":"levelo://app?vid=bf5ecd27-149a-49ef-b066-56f830053cfe","ios":"levelo://app?vid=bf5ecd27-149a-49ef-b066-56f830053cfe"},"vehicle_type_id":"4","last_reported":1736086022,"current_range_meters":37600,"station_id":"ce4bgt12rcd13ifvqcd0","pricing_plan_id":"cebpf4jnsgd1na2vs0mg"},{"bike_id":"bcf0bc77-feb4-4e25-93da-4721812265a5","system_id":"levelo_inurba_marseille","lat":43.2986,"lon":5.36283,"is_reserved":false,"is_disabled":false,"rental_uris":{"android":"levelo://app?vid=bcf0bc77-feb4-4e25-93da-4721812265a5","ios":"levelo://app?vid=bcf0bc77-feb4-4e25-93da-4721812265a5"},"vehicle_type_id":"4","last_reported":1736086022,"current_range_meters":38800,"station_id":"ce4bgpp2rcd13ifvqc3g","pricing_plan_id":"cebpf4jnsgd1na2vs0mg"},{"bike_id":"f7d224dc-194c-4644-bfbe-20b6020eac60","system_id":"levelo_inurba_marseille","lat":43.28937,"lon":5.36639,"is_reserved":false,"is_disabled":false,"rental_uris":{"android":"levelo://app?vid=f7d224dc-194c-4644-bfbe-20b6020eac60","ios":"levelo://app?vid=f7d224dc-194c-4644-bfbe-20b6020eac60"},"vehicle_type_id":"4","last_reported":1736086022,"current_range_meters":19200,"station_id":"ce4bhap2rcd13ifvqek0","pricing_plan_id":"cebpf4jnsgd1na2vs0mg"},{"bike_id":"7e7cf6c3-7e05-477d-a018-118349a41f1c","system_id":"levelo_inurba_marseille","lat":43.229313,"lon":5.353703,"is_reserved":false,"is_disabled":false,"rental_uris":{"android":"levelo://app?vid=7e7cf6c3-7e05-477d-a018-118349a41f1c","ios":"levelo://app?vid=7e7cf6c3-7e05-477d-a018-118349a41f1c"},"vehicle_type_id":"4","last_reported":1736086022,"current_range_meters":29600,"station_id":"cpo3532slgdg3j2ikp40","pricing_plan_id":"cebpf4jnsgd1na2vs0mg"},{"bike_id":"cfa9ca20-27d4-44a2-a7d9-d2b75ed2f4ac","system_id":"levelo_inurba_marseille","lat":43.31068,"lon":5.38351,"is_reserved":false,"is_disabled":true,"rental_uris":{"android":"levelo://app?vid=cfa9ca20-27d4-44a2-a7d9-d2b75ed2f4ac","ios":"levelo://app?vid=cfa9ca20-27d4-44a2-a7d9-d2b75ed2f4ac"},"vehicle_type_id":"4","last_reported":1736086022,"current_range_meters":6800,"station_id":"ce4bgv92rcd13ifvqcr0","pricing_plan_id":"cebpf4jnsgd1na2vs0mg"},{"bike_id":"2e3020fc-739e-484f-aff1-968aa18f2ac1","system_id":"levelo_inurba_marseille","lat":43.27989,"lon":5.41644,"is_reserved":false,"is_disabled":true,"rental_uris":{"android":"levelo://app?vid=2e3020fc-739e-484f-aff1-968aa18f2ac1","ios":"levelo://app?vid=2e3020fc-739e-484f-aff1-968aa18f2ac1"},"vehicle_type_id":"4","last_reported":1736086022,"current_range_meters":4400,"station_id":"ce4bho12rcd13ifvqh1g","pricing_plan_id":"cebpf4jnsgd1na2vs0mg"},{"bike_id":"d6817ba3-a5fd-4bf0-8eed-c4c2abb69107","system_id":"levelo_inurba_marseille","lat":43.27316,"lon":5.39075,"is_reserved":false,"is_disabled":false,"rental_uris":{"android":"levelo://app?vid=d6817ba3-a5fd-4bf0-8eed-c4c2abb69107","ios":"levelo://app?vid=d6817ba3-a5fd-4bf0-8eed-c4c2abb69107"},"vehicle_type_id":"4","last_reported":1736086022,"current_range_meters":18000,"station_id":"ce4bhgp2rcd13ifvqfe0","pricing_plan_id":"cebpf4jnsgd1na2vs0mg"},{"bike_id":"a0b55828-30da-458c-94ac-c776d37bc39a","system_id":"levelo_inurba_marseille","lat":43.2919,"lon":5.3581,"is_reserved":false,"is_disabled":false,"rental_uris":{"android":"levelo://app?vid=a0b55828-30da-458c-94ac-c776d37bc39a","ios":"levelo://app?vid=a0b55828-30da-458c-94ac-c776d37bc39a"},"vehicle_type_id":"4","last_reported":1736086022,"current_range_meters":19200,"station_id":"ce4bhb12rcd13ifvqel0","pricing_plan_id":"cebpf4jnsgd1na2vs0mg"},{"bike_id":"a0adb3c4-caf9-464d-8f3e-6b5be1eb9699","system_id":"levelo_inurba_marseille","lat":43.25114,"lon":5.40331,"is_reserved":false,"is_disabled":false,"rental_uris":{"android":"levelo://app?vid=a0adb3c4-caf9-464d-8f3e-6b5be1eb9699","ios":"levelo://app?vid=a0adb3c4-caf9-464d-8f3e-6b5be1eb9699"},"vehicle_type_id":"4","last_reported":1736086022,"current_range_meters":38800,"station_id":"ce4bhlh2rcd13ifvqgig","pricing_plan_id":"cebpf4jnsgd1na2vs0mg"},{"bike_id":"593d8424-f565-422e-8480-e0f50e2c043e","system_id":"levelo_inurba_marseille","lat":43.27967,"lon":5.38715,"is_reserved":false,"is_disabled":true,"rental_uris":{"android":"levelo://app?vid=593d8424-f565-422e-8480-e0f50e2c043e","ios":"levelo://app?vid=593d8424-f565-422e-8480-e0f50e2c043e"},"vehicle_type_id":"4","last_reported":1736086022,"current_range_meters":33600,"station_id":"ce4bhg12rcd13ifvqf80","pricing_plan_id":"cebpf4jnsgd1na2vs0mg"},{"bike_id":"a944f865-f260-4d6e-8bfb-34b22d4c0ecd","system_id":"levelo_inurba_marseille","lat":43.30194,"lon":5.36639,"is_reserved":false,"is_disabled":true,"rental_uris":{"android":"levelo://app?vid=a944f865-f260-4d6e-8bfb-34b22d4c0ecd","ios":"levelo://app?vid=a944f865-f260-4d6e-8bfb-34b22d4c0ecd"},"vehicle_type_id":"4","last_reported":1736086022,"current_range_meters":30800,"station_id":"ce4bgrh2rcd13ifvqc8g","pricing_plan_id":"cebpf4jnsgd1na2vs0mg"},{"bike_id":"71ec6daf-4582-4331-a625-fdabe18a7368","system_id":"levelo_inurba_marseille","lat":43.32056,"lon":5.41539,"is_reserved":false,"is_disabled":false,"rental_uris":{"android":"levelo://app?vid=71ec6daf-4582-4331-a625-fdabe18a7368","ios":"levelo://app?vid=71ec6daf-4582-4331-a625-fdabe18a7368"},"vehicle_type_id":"4","last_reported":1736086022,"current_range_meters":38800,"station_id":"ce4bhq92rcd13ifvqhkg","pricing_plan_id":"cebpf4jnsgd1na2vs0mg"},{"bike_id":"168f8923-6b97-4196-b130-7522c90cdd44","system_id":"levelo_inurba_marseille","lat":43.29878,"lon":5.36273,"is_reserved":false,"is_disabled":false,"rental_uris":{"android":"levelo://app?vid=168f8923-6b97-4196-b130-7522c90cdd44","ios":"levelo://app?vid=168f8923-6b97-4196-b130-7522c90cdd44"},"vehicle_type_id":"4","last_reported":1736086022,"current_range_meters":38800,"station_id":"ce4bgpp2rcd13ifvqc3g","pricing_plan_id":"cebpf4jnsgd1na2vs0mg"},{"bike_id":"748f79a8-3ea6-4dc9-97d0-2262edf3720d","system_id":"levelo_inurba_marseille","lat":43.29966,"lon":5.37188,"is_reserved":false,"is_disabled":false,"rental_uris":{"android":"levelo://app?vid=748f79a8-3ea6-4dc9-97d0-2262edf3720d","ios":"levelo://app?vid=748f79a8-3ea6-4dc9-97d0-2262edf3720d"},"vehicle_type_id":"4","last_reported":1736086022,"current_range_meters":24000,"station_id":"ce4bgr92rcd13ifvqc7g","pricing_plan_id":"cebpf4jnsgd1na2vs0mg"},{"bike_id":"67c4d4d8-5c2d-44c8-955d-3e0cbaaa00bd","system_id":"levelo_inurba_marseille","lat":43.31329,"lon":5.39715,"is_reserved":false,"is_disabled":false,"rental_uris":{"android":"levelo://app?vid=67c4d4d8-5c2d-44c8-955d-3e0cbaaa00bd","ios":"levelo://app?vid=67c4d4d8-5c2d-44c8-955d-3e0cbaaa00bd"},"vehicle_type_id":"4","last_reported":1736086022,"current_range_meters":30400,"station_id":"ce4bgvp2rcd13ifvqcu0","pricing_plan_id":"cebpf4jnsgd1na2vs0mg"},{"bike_id":"41219422-cdd8-44ff-8bba-d3016d90af3c","system_id":"levelo_inurba_marseille","lat":43.26957,"lon":5.3664,"is_reserved":false,"is_disabled":false,"rental_uris":{"android":"levelo://app?vid=41219422-cdd8-44ff-8bba-d3016d90af3c","ios":"levelo://app?vid=41219422-cdd8-44ff-8bba-d3016d90af3c"},"vehicle_type_id":"4","last_reported":1736086022,"current_range_meters":28400,"station_id":"","pricing_plan_id":"cebpf4jnsgd1na2vs0mg"},{"bike_id":"11bab6b1-8f19-4376-9cab-a89cad5be186","system_id":"levelo_inurba_marseille","lat":43.3248,"lon":5.36586,"is_reserved":false,"is_disabled":false,"rental_uris":{"android":"levelo://app?vid=11bab6b1-8f19-4376-9cab-a89cad5be186","ios":"levelo://app?vid=11bab6b1-8f19-4376-9cab-a89cad5be186"},"vehicle_type_id":"4","last_reported":1736086022,"current_range_meters":34000,"station_id":"ce4bhs12rcd13ifvqhvg","pricing_plan_id":"cebpf4jnsgd1na2vs0mg"},{"bike_id":"9bd04c4d-bba3-44a3-88b7-e0bf363fe6b8","system_id":"levelo_inurba_marseille","lat":43.24657,"lon":5.38166,"is_reserved":false,"is_disabled":false,"rental_uris":{"android":"levelo://app?vid=9bd04c4d-bba3-44a3-88b7-e0bf363fe6b8","ios":"levelo://app?vid=9bd04c4d-bba3-44a3-88b7-e0bf363fe6b8"},"vehicle_type_id":"4","last_reported":1736086022,"current_range_meters":32800,"station_id":"ce4bhih2rcd13ifvqfr0","pricing_plan_id":"cebpf4jnsgd1na2vs0mg"},{"bike_id":"ab68ed21-148d-4a0e-ae51-a2dd92014de0","system_id":"levelo_inurba_marseille","lat":43.24991,"lon":5.38964,"is_reserved":false,"is_disabled":false,"rental_uris":{"android":"levelo://app?vid=ab68ed21-148d-4a0e-ae51-a2dd92014de0","ios":"levelo://app?vid=ab68ed21-148d-4a0e-ae51-a2dd92014de0"},"vehicle_type_id":"4","last_reported":1736086022,"current_range_meters":38800,"station_id":"ce4bhgp2rcd13ifvqfd0","pricing_plan_id":"cebpf4jnsgd1na2vs0mg"},{"bike_id":"8fc8ec41-70f9-4248-a931-bd9b460b2315","system_id":"levelo_inurba_marseille","lat":43.283449,"lon":5.381047,"is_reserved":false,"is_disabled":false,"rental_uris":{"android":"levelo://app?vid=8fc8ec41-70f9-4248-a931-bd9b460b2315","ios":"levelo://app?vid=8fc8ec41-70f9-4248-a931-bd9b460b2315"},"vehicle_type_id":"4","last_reported":1736086022,"current_range_meters":17600,"station_id":"ce4bh412rcd13ifvqdr0","pricing_plan_id":"cebpf4jnsgd1na2vs0mg"},{"bike_id":"c023aed8-c4af-47de-bf55-7ec6cfb1c879","system_id":"levelo_inurba_marseille","lat":43.26188,"lon":5.37456,"is_reserved":false,"is_disabled":true,"rental_uris":{"android":"levelo://app?vid=c023aed8-c4af-47de-bf55-7ec6cfb1c879","ios":"levelo://app?vid=c023aed8-c4af-47de-bf55-7ec6cfb1c879"},"vehicle_type_id":"4","last_reported":1736086022,"current_range_meters":36000,"station_id":"ce4bhgp2rcd13ifvqfc0","pricing_plan_id":"cebpf4jnsgd1na2vs0mg"},{"bike_id":"4d010683-2ccf-478e-baa7-c439fbf0a201","system_id":"levelo_inurba_marseille","lat":43.257181,"lon":5.411184,"is_reserved":false,"is_disabled":false,"rental_uris":{"android":"levelo://app?vid=4d010683-2ccf-478e-baa7-c439fbf0a201","ios":"levelo://app?vid=4d010683-2ccf-478e-baa7-c439fbf0a201"},"vehicle_type_id":"4","last_reported":1736086022,"current_range_meters":36800,"station_id":"ce4bhkp2rcd13ifvqgd0","pricing_plan_id":"cebpf4jnsgd1na2vs0mg"},{"bike_id":"ad036647-e9f4-4246-953d-37ee6601db50","system_id":"levelo_inurba_marseille","lat":43.24661,"lon":5.3812,"is_reserved":false,"is_disabled":false,"rental_uris":{"android":"levelo://app?vid=ad036647-e9f4-4246-953d-37ee6601db50","ios":"levelo://app?vid=ad036647-e9f4-4246-953d-37ee6601db50"},"vehicle_type_id":"4","last_reported":1736086022,"current_range_meters":26000,"station_id":"ce4bhih2rcd13ifvqfr0","pricing_plan_id":"cebpf4jnsgd1na2vs0mg"},{"bike_id":"c3496726-b8ea-47ac-a44b-66bc69a8d7e9","system_id":"levelo_inurba_marseille","lat":43.29847,"lon":5.36271,"is_reserved":false,"is_disabled":false,"rental_uris":{"android":"levelo://app?vid=c3496726-b8ea-47ac-a44b-66bc69a8d7e9","ios":"levelo://app?vid=c3496726-b8ea-47ac-a44b-66bc69a8d7e9"},"vehicle_type_id":"4","last_reported":1736086022,"current_range_meters":33600,"station_id":"ce4bgpp2rcd13ifvqc3g","pricing_plan_id":"cebpf4jnsgd1na2vs0mg"},{"bike_id":"f154f60e-a653-4ea0-b756-ef2fc8bbcbec","system_id":"levelo_inurba_marseille","lat":43.27311,"lon":5.39077,"is_reserved":false,"is_disabled":false,"rental_uris":{"android":"levelo://app?vid=f154f60e-a653-4ea0-b756-ef2fc8bbcbec","ios":"levelo://app?vid=f154f60e-a653-4ea0-b756-ef2fc8bbcbec"},"vehicle_type_id":"4","last_reported":1736086022,"current_range_meters":36400,"station_id":"ce4bhgp2rcd13ifvqfe0","pricing_plan_id":"cebpf4jnsgd1na2vs0mg"},{"bike_id":"ebdcdb0b-1897-4e7c-ba98-6626ed5e8aef","system_id":"levelo_inurba_marseille","lat":43.29719,"lon":5.36605,"is_reserved":false,"is_disabled":false,"rental_uris":{"android":"levelo://app?vid=ebdcdb0b-1897-4e7c-ba98-6626ed5e8aef","ios":"levelo://app?vid=ebdcdb0b-1897-4e7c-ba98-6626ed5e8aef"},"vehicle_type_id":"4","last_reported":1736086022,"current_range_meters":28000,"station_id":"ce4bgn12rcd13ifvqbt0","pricing_plan_id":"cebpf4jnsgd1na2vs0mg"},{"bike_id":"d5b42207-8f9e-454e-85d7-a83f6e0f47f8","system_id":"levelo_inurba_marseille","lat":43.30569,"lon":5.39241,"is_reserved":false,"is_disabled":false,"rental_uris":{"android":"levelo://app?vid=d5b42207-8f9e-454e-85d7-a83f6e0f47f8","ios":"levelo://app?vid=d5b42207-8f9e-454e-85d7-a83f6e0f47f8"},"vehicle_type_id":"4","last_reported":1736086022,"current_range_meters":16400,"station_id":"","pricing_plan_id":"cebpf4jnsgd1na2vs0mg"},{"bike_id":"1b7d2371-0eba-4a43-8133-800073020b26","system_id":"levelo_inurba_marseille","lat":43.3153,"lon":5.38025,"is_reserved":false,"is_disabled":false,"rental_uris":{"android":"levelo://app?vid=1b7d2371-0eba-4a43-8133-800073020b26","ios":"levelo://app?vid=1b7d2371-0eba-4a43-8133-800073020b26"},"vehicle_type_id":"4","last_reported":1736086022,"current_range_meters":29600,"station_id":"ce4bhsp2rcd13ifvqi50","pricing_plan_id":"cebpf4jnsgd1na2vs0mg"},{"bike_id":"f0014140-97a3-45bb-aef7-9c6560d6bda8","system_id":"levelo_inurba_marseille","lat":43.27994,"lon":5.40025,"is_reserved":false,"is_disabled":false,"rental_uris":{"android":"levelo://app?vid=f0014140-97a3-45bb-aef7-9c6560d6bda8","ios":"levelo://app?vid=f0014140-97a3-45bb-aef7-9c6560d6bda8"},"vehicle_type_id":"4","last_reported":1736086022,"current_range_meters":24000,"station_id":"ce4bho92rcd13ifvqh4g","pricing_plan_id":"cebpf4jnsgd1na2vs0mg"},{"bike_id":"66d3e1ef-7727-44f9-b619-eeddb54c1fba","system_id":"levelo_inurba_marseille","lat":43.30443,"lon":5.38894,"is_reserved":false,"is_disabled":true,"rental_uris":{"android":"levelo://app?vid=66d3e1ef-7727-44f9-b619-eeddb54c1fba","ios":"levelo://app?vid=66d3e1ef-7727-44f9-b619-eeddb54c1fba"},"vehicle_type_id":"4","last_reported":1736086022,"current_range_meters":10000,"station_id":"ce4bgk12rcd13ifvqbi0","pricing_plan_id":"cebpf4jnsgd1na2vs0mg"},{"bike_id":"f2dc1d94-9180-4b3c-a6e7-f306abcf4d69","system_id":"levelo_inurba_marseille","lat":43.27986,"lon":5.41668,"is_reserved":false,"is_disabled":false,"rental_uris":{"android":"levelo://app?vid=f2dc1d94-9180-4b3c-a6e7-f306abcf4d69","ios":"levelo://app?vid=f2dc1d94-9180-4b3c-a6e7-f306abcf4d69"},"vehicle_type_id":"4","last_reported":1736086022,"current_range_meters":37600,"station_id":"ce4bho12rcd13ifvqh1g","pricing_plan_id":"cebpf4jnsgd1na2vs0mg"},{"bike_id":"1071baaa-52df-4eea-b4c3-9ff0e7f316ec","system_id":"levelo_inurba_marseille","lat":43.28693,"lon":5.39973,"is_reserved":false,"is_disabled":true,"rental_uris":{"android":"levelo://app?vid=1071baaa-52df-4eea-b4c3-9ff0e7f316ec","ios":"levelo://app?vid=1071baaa-52df-4eea-b4c3-9ff0e7f316ec"},"vehicle_type_id":"4","last_reported":1736086022,"current_range_meters":800,"station_id":"ce4bho92rcd13ifvqh3g","pricing_plan_id":"cebpf4jnsgd1na2vs0mg"},{"bike_id":"683c3a18-2fe8-4db2-829b-d8065bc8adc1","system_id":"levelo_inurba_marseille","lat":43.24093,"lon":5.37782,"is_reserved":false,"is_disabled":false,"rental_uris":{"android":"levelo://app?vid=683c3a18-2fe8-4db2-829b-d8065bc8adc1","ios":"levelo://app?vid=683c3a18-2fe8-4db2-829b-d8065bc8adc1"},"vehicle_type_id":"4","last_reported":1736086022,"current_range_meters":38800,"station_id":"ce4bhnp2rcd13ifvqgvg","pricing_plan_id":"cebpf4jnsgd1na2vs0mg"},{"bike_id":"e94faf45-e7ad-4b75-8797-d211f5d1c425","system_id":"levelo_inurba_marseille","lat":43.31174,"lon":5.38703,"is_reserved":false,"is_disabled":false,"rental_uris":{"android":"levelo://app?vid=e94faf45-e7ad-4b75-8797-d211f5d1c425","ios":"levelo://app?vid=e94faf45-e7ad-4b75-8797-d211f5d1c425"},"vehicle_type_id":"4","last_reported":1736086022,"current_range_meters":30800,"station_id":"ce4bgv12rcd13ifvqcp0","pricing_plan_id":"cebpf4jnsgd1na2vs0mg"},{"bike_id":"dde364e8-3457-4213-b9f9-557d6e40768d","system_id":"levelo_inurba_marseille","lat":43.32044,"lon":5.41546,"is_reserved":false,"is_disabled":false,"rental_uris":{"android":"levelo://app?vid=dde364e8-3457-4213-b9f9-557d6e40768d","ios":"levelo://app?vid=dde364e8-3457-4213-b9f9-557d6e40768d"},"vehicle_type_id":"4","last_reported":1736086022,"current_range_meters":37600,"station_id":"ce4bhq92rcd13ifvqhkg","pricing_plan_id":"cebpf4jnsgd1na2vs0mg"},{"bike_id":"6e37b7fe-6fc0-4288-ba90-1804f1b3f282","system_id":"levelo_inurba_marseille","lat":43.3059,"lon":5.37207,"is_reserved":false,"is_disabled":false,"rental_uris":{"android":"levelo://app?vid=6e37b7fe-6fc0-4288-ba90-1804f1b3f282","ios":"levelo://app?vid=6e37b7fe-6fc0-4288-ba90-1804f1b3f282"},"vehicle_type_id":"4","last_reported":1736086022,"current_range_meters":30800,"station_id":"ce4bgqh2rcd13ifvqc4g","pricing_plan_id":"cebpf4jnsgd1na2vs0mg"},{"bike_id":"129f4a27-3f16-458e-9683-5a51caa24518","system_id":"levelo_inurba_marseille","lat":43.244,"lon":5.37057,"is_reserved":false,"is_disabled":false,"rental_uris":{"android":"levelo://app?vid=129f4a27-3f16-458e-9683-5a51caa24518","ios":"levelo://app?vid=129f4a27-3f16-458e-9683-5a51caa24518"},"vehicle_type_id":"4","last_reported":1736086022,"current_range_meters":20800,"station_id":"ce4bhhh2rcd13ifvqfk0","pricing_plan_id":"cebpf4jnsgd1na2vs0mg"},{"bike_id":"58524289-f85b-4db2-b506-7378d449201d","system_id":"levelo_inurba_marseille","lat":43.28627,"lon":5.35104,"is_reserved":false,"is_disabled":false,"rental_uris":{"android":"levelo://app?vid=58524289-f85b-4db2-b506-7378d449201d","ios":"levelo://app?vid=58524289-f85b-4db2-b506-7378d449201d"},"vehicle_type_id":"4","last_reported":1736086022,"current_range_meters":27200,"station_id":"ce4bhch2rcd13ifvqeug","pricing_plan_id":"cebpf4jnsgd1na2vs0mg"},{"bike_id":"8bf5141e-3146-496b-828c-aa16db841e56","system_id":"levelo_inurba_marseille","lat":43.3254,"lon":5.414577,"is_reserved":false,"is_disabled":false,"rental_uris":{"android":"levelo://app?vid=8bf5141e-3146-496b-828c-aa16db841e56","ios":"levelo://app?vid=8bf5141e-3146-496b-828c-aa16db841e56"},"vehicle_type_id":"4","last_reported":1736086022,"current_range_meters":38800,"station_id":"ce4bhq12rcd13ifvqhhg","pricing_plan_id":"cebpf4jnsgd1na2vs0mg"},{"bike_id":"2332862a-3884-4317-af82-ee9793e9b62c","system_id":"levelo_inurba_marseille","lat":43.24079,"lon":5.37718,"is_reserved":false,"is_disabled":false,"rental_uris":{"android":"levelo://app?vid=2332862a-3884-4317-af82-ee9793e9b62c","ios":"levelo://app?vid=2332862a-3884-4317-af82-ee9793e9b62c"},"vehicle_type_id":"4","last_reported":1736086022,"current_range_meters":11600,"station_id":"ce4bhnp2rcd13ifvqgvg","pricing_plan_id":"cebpf4jnsgd1na2vs0mg"},{"bike_id":"3fed1827-13aa-4afe-a0f9-8be0a428d811","system_id":"levelo_inurba_marseille","lat":43.32344,"lon":5.38914,"is_reserved":false,"is_disabled":false,"rental_uris":{"android":"levelo://app?vid=3fed1827-13aa-4afe-a0f9-8be0a428d811","ios":"levelo://app?vid=3fed1827-13aa-4afe-a0f9-8be0a428d811"},"vehicle_type_id":"4","last_reported":1736086022,"current_range_meters":37600,"station_id":"ce4bhqp2rcd13ifvqhog","pricing_plan_id":"cebpf4jnsgd1na2vs0mg"},{"bike_id":"ba2b0799-90e5-436b-a8ac-d2a80ff5da69","system_id":"levelo_inurba_marseille","lat":43.24807,"lon":5.37458,"is_reserved":false,"is_disabled":false,"rental_uris":{"android":"levelo://app?vid=ba2b0799-90e5-436b-a8ac-d2a80ff5da69","ios":"levelo://app?vid=ba2b0799-90e5-436b-a8ac-d2a80ff5da69"},"vehicle_type_id":"4","last_reported":1736086022,"current_range_meters":38400,"station_id":"ce4bhgh2rcd13ifvqfb0","pricing_plan_id":"cebpf4jnsgd1na2vs0mg"},{"bike_id":"ed5c7331-be48-4af1-a745-0b91efe806e2","system_id":"levelo_inurba_marseille","lat":43.29711,"lon":5.37292,"is_reserved":false,"is_disabled":false,"rental_uris":{"android":"levelo://app?vid=ed5c7331-be48-4af1-a745-0b91efe806e2","ios":"levelo://app?vid=ed5c7331-be48-4af1-a745-0b91efe806e2"},"vehicle_type_id":"4","last_reported":1736086022,"current_range_meters":38800,"station_id":"ce4bgk12rcd13ifvqbj0","pricing_plan_id":"cebpf4jnsgd1na2vs0mg"},{"bike_id":"a4b88f13-ec02-4843-9542-0fb850def081","system_id":"levelo_inurba_marseille","lat":43.24993,"lon":5.3893,"is_reserved":false,"is_disabled":false,"rental_uris":{"android":"levelo://app?vid=a4b88f13-ec02-4843-9542-0fb850def081","ios":"levelo://app?vid=a4b88f13-ec02-4843-9542-0fb850def081"},"vehicle_type_id":"4","last_reported":1736086022,"current_range_meters":26800,"station_id":"ce4bhgp2rcd13ifvqfd0","pricing_plan_id":"cebpf4jnsgd1na2vs0mg"},{"bike_id":"75769094-2e19-4635-bd03-cda12fc38c05","system_id":"levelo_inurba_marseille","lat":43.2846,"lon":5.38421,"is_reserved":false,"is_disabled":false,"rental_uris":{"android":"levelo://app?vid=75769094-2e19-4635-bd03-cda12fc38c05","ios":"levelo://app?vid=75769094-2e19-4635-bd03-cda12fc38c05"},"vehicle_type_id":"4","last_reported":1736086022,"current_range_meters":39200,"station_id":"ce4bh512rcd13ifvqe3g","pricing_plan_id":"cebpf4jnsgd1na2vs0mg"},{"bike_id":"29e1c849-f967-4272-876a-68b95f11895c","system_id":"levelo_inurba_marseille","lat":43.26683,"lon":5.38277,"is_reserved":false,"is_disabled":false,"rental_uris":{"android":"levelo://app?vid=29e1c849-f967-4272-876a-68b95f11895c","ios":"levelo://app?vid=29e1c849-f967-4272-876a-68b95f11895c"},"vehicle_type_id":"4","last_reported":1736086022,"current_range_meters":39200,"station_id":"ce4bhg92rcd13ifvqf90","pricing_plan_id":"cebpf4jnsgd1na2vs0mg"},{"bike_id":"7ee45656-cc2b-4090-8514-bcfd033cfdf8","system_id":"levelo_inurba_marseille","lat":43.33742,"lon":5.39196,"is_reserved":false,"is_disabled":false,"rental_uris":{"android":"levelo://app?vid=7ee45656-cc2b-4090-8514-bcfd033cfdf8","ios":"levelo://app?vid=7ee45656-cc2b-4090-8514-bcfd033cfdf8"},"vehicle_type_id":"4","last_reported":1736086022,"current_range_meters":38800,"station_id":"ce4bhr92rcd13ifvqhsg","pricing_plan_id":"cebpf4jnsgd1na2vs0mg"},{"bike_id":"c8529c5f-726c-44b9-8f81-1b72db6f4e53","system_id":"levelo_inurba_marseille","lat":43.32351,"lon":5.389,"is_reserved":false,"is_disabled":false,"rental_uris":{"android":"levelo://app?vid=c8529c5f-726c-44b9-8f81-1b72db6f4e53","ios":"levelo://app?vid=c8529c5f-726c-44b9-8f81-1b72db6f4e53"},"vehicle_type_id":"4","last_reported":1736086022,"current_range_meters":38000,"station_id":"ce4bhqp2rcd13ifvqhog","pricing_plan_id":"cebpf4jnsgd1na2vs0mg"},{"bike_id":"66c1f4a8-00f2-48da-ab15-4047c3fa8786","system_id":"levelo_inurba_marseille","lat":43.3089,"lon":5.39617,"is_reserved":false,"is_disabled":false,"rental_uris":{"android":"levelo://app?vid=66c1f4a8-00f2-48da-ab15-4047c3fa8786","ios":"levelo://app?vid=66c1f4a8-00f2-48da-ab15-4047c3fa8786"},"vehicle_type_id":"4","last_reported":1736086022,"current_range_meters":38800,"station_id":"ce4bh012rcd13ifvqcv0","pricing_plan_id":"cebpf4jnsgd1na2vs0mg"},{"bike_id":"9a483109-5bce-4e89-a527-a3ced035742c","system_id":"levelo_inurba_marseille","lat":43.26931,"lon":5.38656,"is_reserved":false,"is_disabled":false,"rental_uris":{"android":"levelo://app?vid=9a483109-5bce-4e89-a527-a3ced035742c","ios":"levelo://app?vid=9a483109-5bce-4e89-a527-a3ced035742c"},"vehicle_type_id":"4","last_reported":1736086022,"current_range_meters":11200,"station_id":"ce4bhh92rcd13ifvqfh0","pricing_plan_id":"cebpf4jnsgd1na2vs0mg"},{"bike_id":"619d6245-ee2f-4dcf-940f-599d7d2b302e","system_id":"levelo_inurba_marseille","lat":43.29846,"lon":5.36267,"is_reserved":false,"is_disabled":false,"rental_uris":{"android":"levelo://app?vid=619d6245-ee2f-4dcf-940f-599d7d2b302e","ios":"levelo://app?vid=619d6245-ee2f-4dcf-940f-599d7d2b302e"},"vehicle_type_id":"4","last_reported":1736086022,"current_range_meters":33600,"station_id":"ce4bgpp2rcd13ifvqc3g","pricing_plan_id":"cebpf4jnsgd1na2vs0mg"},{"bike_id":"f53ebab8-f8a0-476a-a469-061c3d38595a","system_id":"levelo_inurba_marseille","lat":43.31346,"lon":5.39724,"is_reserved":false,"is_disabled":false,"rental_uris":{"android":"levelo://app?vid=f53ebab8-f8a0-476a-a469-061c3d38595a","ios":"levelo://app?vid=f53ebab8-f8a0-476a-a469-061c3d38595a"},"vehicle_type_id":"4","last_reported":1736086022,"current_range_meters":36000,"station_id":"ce4bgvp2rcd13ifvqcu0","pricing_plan_id":"cebpf4jnsgd1na2vs0mg"},{"bike_id":"7f1ce4ed-0cd0-4d23-b89e-099e0df8c108","system_id":"levelo_inurba_marseille","lat":43.25718,"lon":5.41107,"is_reserved":false,"is_disabled":false,"rental_uris":{"android":"levelo://app?vid=7f1ce4ed-0cd0-4d23-b89e-099e0df8c108","ios":"levelo://app?vid=7f1ce4ed-0cd0-4d23-b89e-099e0df8c108"},"vehicle_type_id":"4","last_reported":1736086022,"current_range_meters":38800,"station_id":"ce4bhkp2rcd13ifvqgd0","pricing_plan_id":"cebpf4jnsgd1na2vs0mg"},{"bike_id":"9db30acb-5eb1-4a75-9331-1f42fd694337","system_id":"levelo_inurba_marseille","lat":43.27915,"lon":5.39582,"is_reserved":false,"is_disabled":false,"rental_uris":{"android":"levelo://app?vid=9db30acb-5eb1-4a75-9331-1f42fd694337","ios":"levelo://app?vid=9db30acb-5eb1-4a75-9331-1f42fd694337"},"vehicle_type_id":"4","last_reported":1736086022,"current_range_meters":23200,"station_id":"ce4bhf92rcd13ifvqf40","pricing_plan_id":"cebpf4jnsgd1na2vs0mg"},{"bike_id":"969c8a84-cf60-4395-8c81-a1d2e7dc81af","system_id":"levelo_inurba_marseille","lat":43.25861,"lon":5.39901,"is_reserved":false,"is_disabled":false,"rental_uris":{"android":"levelo://app?vid=969c8a84-cf60-4395-8c81-a1d2e7dc81af","ios":"levelo://app?vid=969c8a84-cf60-4395-8c81-a1d2e7dc81af"},"vehicle_type_id":"4","last_reported":1736086022,"current_range_meters":16000,"station_id":"ce4bhl92rcd13ifvqghg","pricing_plan_id":"cebpf4jnsgd1na2vs0mg"},{"bike_id":"f8142e8a-f886-4c5e-b399-88d8fa1c1d32","system_id":"levelo_inurba_marseille","lat":43.24663,"lon":5.38169,"is_reserved":false,"is_disabled":false,"rental_uris":{"android":"levelo://app?vid=f8142e8a-f886-4c5e-b399-88d8fa1c1d32","ios":"levelo://app?vid=f8142e8a-f886-4c5e-b399-88d8fa1c1d32"},"vehicle_type_id":"4","last_reported":1736086022,"current_range_meters":26000,"station_id":"ce4bhih2rcd13ifvqfr0","pricing_plan_id":"cebpf4jnsgd1na2vs0mg"},{"bike_id":"9d2065c5-e801-47c6-a32c-5834d37e9dab","system_id":"levelo_inurba_marseille","lat":43.32359,"lon":5.38923,"is_reserved":false,"is_disabled":false,"rental_uris":{"android":"levelo://app?vid=9d2065c5-e801-47c6-a32c-5834d37e9dab","ios":"levelo://app?vid=9d2065c5-e801-47c6-a32c-5834d37e9dab"},"vehicle_type_id":"4","last_reported":1736086022,"current_range_meters":35600,"station_id":"ce4bhqp2rcd13ifvqhog","pricing_plan_id":"cebpf4jnsgd1na2vs0mg"},{"bike_id":"1aba21f4-1bc8-481b-8d4e-71db03f213fd","system_id":"levelo_inurba_marseille","lat":43.25121,"lon":5.40319,"is_reserved":false,"is_disabled":false,"rental_uris":{"android":"levelo://app?vid=1aba21f4-1bc8-481b-8d4e-71db03f213fd","ios":"levelo://app?vid=1aba21f4-1bc8-481b-8d4e-71db03f213fd"},"vehicle_type_id":"4","last_reported":1736086022,"current_range_meters":30800,"station_id":"ce4bhlh2rcd13ifvqgig","pricing_plan_id":"cebpf4jnsgd1na2vs0mg"},{"bike_id":"5acd51ab-33ae-465f-9994-b539f1713987","system_id":"levelo_inurba_marseille","lat":43.33722,"lon":5.39165,"is_reserved":false,"is_disabled":false,"rental_uris":{"android":"levelo://app?vid=5acd51ab-33ae-465f-9994-b539f1713987","ios":"levelo://app?vid=5acd51ab-33ae-465f-9994-b539f1713987"},"vehicle_type_id":"4","last_reported":1736086022,"current_range_meters":35600,"station_id":"ce4bhr92rcd13ifvqhsg","pricing_plan_id":"cebpf4jnsgd1na2vs0mg"},{"bike_id":"f3d41f41-839d-41a5-aa6d-f2ba87ff18f0","system_id":"levelo_inurba_marseille","lat":43.24084,"lon":5.37744,"is_reserved":false,"is_disabled":true,"rental_uris":{"android":"levelo://app?vid=f3d41f41-839d-41a5-aa6d-f2ba87ff18f0","ios":"levelo://app?vid=f3d41f41-839d-41a5-aa6d-f2ba87ff18f0"},"vehicle_type_id":"4","last_reported":1736086022,"current_range_meters":38400,"station_id":"ce4bhnp2rcd13ifvqgvg","pricing_plan_id":"cebpf4jnsgd1na2vs0mg"},{"bike_id":"15702e89-0fc5-47ef-a5b2-f901b999e94a","system_id":"levelo_inurba_marseille","lat":43.32285,"lon":5.38275,"is_reserved":false,"is_disabled":false,"rental_uris":{"android":"levelo://app?vid=15702e89-0fc5-47ef-a5b2-f901b999e94a","ios":"levelo://app?vid=15702e89-0fc5-47ef-a5b2-f901b999e94a"},"vehicle_type_id":"4","last_reported":1736086022,"current_range_meters":37600,"station_id":"ce4bhr12rcd13ifvqhqg","pricing_plan_id":"cebpf4jnsgd1na2vs0mg"},{"bike_id":"9f326815-9d5b-4c57-b098-1465cece3aff","system_id":"levelo_inurba_marseille","lat":43.28074,"lon":5.44166,"is_reserved":false,"is_disabled":false,"rental_uris":{"android":"levelo://app?vid=9f326815-9d5b-4c57-b098-1465cece3aff","ios":"levelo://app?vid=9f326815-9d5b-4c57-b098-1465cece3aff"},"vehicle_type_id":"4","last_reported":1736086022,"current_range_meters":16000,"station_id":"","pricing_plan_id":"cebpf4jnsgd1na2vs0mg"},{"bike_id":"c2c66233-c34e-48db-9b0f-538a025d3f18","system_id":"levelo_inurba_marseille","lat":43.27072,"lon":5.4227,"is_reserved":false,"is_disabled":false,"rental_uris":{"android":"levelo://app?vid=c2c66233-c34e-48db-9b0f-538a025d3f18","ios":"levelo://app?vid=c2c66233-c34e-48db-9b0f-538a025d3f18"},"vehicle_type_id":"4","last_reported":1736086022,"current_range_meters":18000,"station_id":"ce4bhk92rcd13ifvqgb0","pricing_plan_id":"cebpf4jnsgd1na2vs0mg"},{"bike_id":"7b78d5e2-5142-402d-a4f8-0f3037a6c533","system_id":"levelo_inurba_marseille","lat":43.26938,"lon":5.38645,"is_reserved":false,"is_disabled":true,"rental_uris":{"android":"levelo://app?vid=7b78d5e2-5142-402d-a4f8-0f3037a6c533","ios":"levelo://app?vid=7b78d5e2-5142-402d-a4f8-0f3037a6c533"},"vehicle_type_id":"4","last_reported":1736086022,"current_range_meters":38800,"station_id":"ce4bhh92rcd13ifvqfh0","pricing_plan_id":"cebpf4jnsgd1na2vs0mg"},{"bike_id":"a2f3c8c2-40cc-40c5-bc2a-9a8a1f549a5d","system_id":"levelo_inurba_marseille","lat":43.23963,"lon":5.36642,"is_reserved":false,"is_disabled":false,"rental_uris":{"android":"levelo://app?vid=a2f3c8c2-40cc-40c5-bc2a-9a8a1f549a5d","ios":"levelo://app?vid=a2f3c8c2-40cc-40c5-bc2a-9a8a1f549a5d"},"vehicle_type_id":"4","last_reported":1736086022,"current_range_meters":16400,"station_id":"ce4bhi12rcd13ifvqfp0","pricing_plan_id":"cebpf4jnsgd1na2vs0mg"},{"bike_id":"d0d21930-fe1d-478b-8251-bcf89564599d","system_id":"levelo_inurba_marseille","lat":43.29553,"lon":5.42288,"is_reserved":false,"is_disabled":false,"rental_uris":{"android":"levelo://app?vid=d0d21930-fe1d-478b-8251-bcf89564599d","ios":"levelo://app?vid=d0d21930-fe1d-478b-8251-bcf89564599d"},"vehicle_type_id":"4","last_reported":1736086022,"current_range_meters":27200,"station_id":"ce4bhph2rcd13ifvqhdg","pricing_plan_id":"cebpf4jnsgd1na2vs0mg"},{"bike_id":"17772594-9d67-4e0b-a884-8dcf9dd31d22","system_id":"levelo_inurba_marseille","lat":43.29846,"lon":5.36268,"is_reserved":false,"is_disabled":false,"rental_uris":{"android":"levelo://app?vid=17772594-9d67-4e0b-a884-8dcf9dd31d22","ios":"levelo://app?vid=17772594-9d67-4e0b-a884-8dcf9dd31d22"},"vehicle_type_id":"4","last_reported":1736086022,"current_range_meters":12800,"station_id":"ce4bgpp2rcd13ifvqc3g","pricing_plan_id":"cebpf4jnsgd1na2vs0mg"},{"bike_id":"1793541c-83c8-4541-af39-7c3a3986aec9","system_id":"levelo_inurba_marseille","lat":43.22929,"lon":5.35381,"is_reserved":false,"is_disabled":false,"rental_uris":{"android":"levelo://app?vid=1793541c-83c8-4541-af39-7c3a3986aec9","ios":"levelo://app?vid=1793541c-83c8-4541-af39-7c3a3986aec9"},"vehicle_type_id":"4","last_reported":1736086022,"current_range_meters":26800,"station_id":"cpo3532slgdg3j2ikp40","pricing_plan_id":"cebpf4jnsgd1na2vs0mg"},{"bike_id":"337f3b6f-2cd7-4dc5-8d5f-11acfc8d9e29","system_id":"levelo_inurba_marseille","lat":43.27835,"lon":5.39196,"is_reserved":false,"is_disabled":false,"rental_uris":{"android":"levelo://app?vid=337f3b6f-2cd7-4dc5-8d5f-11acfc8d9e29","ios":"levelo://app?vid=337f3b6f-2cd7-4dc5-8d5f-11acfc8d9e29"},"vehicle_type_id":"4","last_reported":1736086022,"current_range_meters":8800,"station_id":"ce4bhjp2rcd13ifvqga0","pricing_plan_id":"cebpf4jnsgd1na2vs0mg"},{"bike_id":"7c8a16a6-d5de-4b31-8914-401123a2c650","system_id":"levelo_inurba_marseille","lat":43.33048,"lon":5.3906,"is_reserved":false,"is_disabled":false,"rental_uris":{"android":"levelo://app?vid=7c8a16a6-d5de-4b31-8914-401123a2c650","ios":"levelo://app?vid=7c8a16a6-d5de-4b31-8914-401123a2c650"},"vehicle_type_id":"4","last_reported":1736086022,"current_range_meters":38400,"station_id":"ce4bhr92rcd13ifvqhrg","pricing_plan_id":"cebpf4jnsgd1na2vs0mg"},{"bike_id":"ca27ddb0-1a26-483a-a9cf-8105225c367f","system_id":"levelo_inurba_marseille","lat":43.30149,"lon":5.3808,"is_reserved":false,"is_disabled":false,"rental_uris":{"android":"levelo://app?vid=ca27ddb0-1a26-483a-a9cf-8105225c367f","ios":"levelo://app?vid=ca27ddb0-1a26-483a-a9cf-8105225c367f"},"vehicle_type_id":"4","last_reported":1736086022,"current_range_meters":36000,"station_id":"ce4bgjp2rcd13ifvqbh0","pricing_plan_id":"cebpf4jnsgd1na2vs0mg"},{"bike_id":"9cdd1c80-6014-4d8f-b792-71faf08dcd85","system_id":"levelo_inurba_marseille","lat":43.30541,"lon":5.36528,"is_reserved":false,"is_disabled":false,"rental_uris":{"android":"levelo://app?vid=9cdd1c80-6014-4d8f-b792-71faf08dcd85","ios":"levelo://app?vid=9cdd1c80-6014-4d8f-b792-71faf08dcd85"},"vehicle_type_id":"4","last_reported":1736086022,"current_range_meters":14400,"station_id":"ce4bgs12rcd13ifvqcag","pricing_plan_id":"cebpf4jnsgd1na2vs0mg"},{"bike_id":"bc2adf72-523b-40d5-aa65-4dcb678a89d8","system_id":"levelo_inurba_marseille","lat":43.31993,"lon":5.38151,"is_reserved":false,"is_disabled":false,"rental_uris":{"android":"levelo://app?vid=bc2adf72-523b-40d5-aa65-4dcb678a89d8","ios":"levelo://app?vid=bc2adf72-523b-40d5-aa65-4dcb678a89d8"},"vehicle_type_id":"4","last_reported":1736086022,"current_range_meters":30800,"station_id":"ce4bhr12rcd13ifvqhpg","pricing_plan_id":"cebpf4jnsgd1na2vs0mg"},{"bike_id":"097509b4-071e-4e92-8d73-acc6d6c486f0","system_id":"levelo_inurba_marseille","lat":43.28415,"lon":5.3498,"is_reserved":false,"is_disabled":false,"rental_uris":{"android":"levelo://app?vid=097509b4-071e-4e92-8d73-acc6d6c486f0","ios":"levelo://app?vid=097509b4-071e-4e92-8d73-acc6d6c486f0"},"vehicle_type_id":"4","last_reported":1736086022,"current_range_meters":30000,"station_id":"ce4bhbh2rcd13ifvqepg","pricing_plan_id":"cebpf4jnsgd1na2vs0mg"},{"bike_id":"830b5d3b-cabb-4fdb-be27-c9d3d8ea9fde","system_id":"levelo_inurba_marseille","lat":43.24824,"lon":5.37462,"is_reserved":false,"is_disabled":false,"rental_uris":{"android":"levelo://app?vid=830b5d3b-cabb-4fdb-be27-c9d3d8ea9fde","ios":"levelo://app?vid=830b5d3b-cabb-4fdb-be27-c9d3d8ea9fde"},"vehicle_type_id":"4","last_reported":1736086022,"current_range_meters":37600,"station_id":"ce4bhgh2rcd13ifvqfb0","pricing_plan_id":"cebpf4jnsgd1na2vs0mg"},{"bike_id":"f6cda62c-d367-4a5d-bb8d-8df2b24ad814","system_id":"levelo_inurba_marseille","lat":43.29579,"lon":5.37505,"is_reserved":false,"is_disabled":false,"rental_uris":{"android":"levelo://app?vid=f6cda62c-d367-4a5d-bb8d-8df2b24ad814","ios":"levelo://app?vid=f6cda62c-d367-4a5d-bb8d-8df2b24ad814"},"vehicle_type_id":"4","last_reported":1736086022,"current_range_meters":33600,"station_id":"ce4bgh92rcd13ifvqb50","pricing_plan_id":"cebpf4jnsgd1na2vs0mg"},{"bike_id":"4f9028fb-78bf-4441-88a1-0cf50c119ce0","system_id":"levelo_inurba_marseille","lat":43.29827,"lon":5.38078,"is_reserved":false,"is_disabled":false,"rental_uris":{"android":"levelo://app?vid=4f9028fb-78bf-4441-88a1-0cf50c119ce0","ios":"levelo://app?vid=4f9028fb-78bf-4441-88a1-0cf50c119ce0"},"vehicle_type_id":"4","last_reported":1736086022,"current_range_meters":22000,"station_id":"ce4bgip2rcd13ifvqbb0","pricing_plan_id":"cebpf4jnsgd1na2vs0mg"},{"bike_id":"8785ddf2-7225-4c15-a282-1f8baeace2a7","system_id":"levelo_inurba_marseille","lat":43.26058,"lon":5.39401,"is_reserved":false,"is_disabled":false,"rental_uris":{"android":"levelo://app?vid=8785ddf2-7225-4c15-a282-1f8baeace2a7","ios":"levelo://app?vid=8785ddf2-7225-4c15-a282-1f8baeace2a7"},"vehicle_type_id":"4","last_reported":1736086022,"current_range_meters":26000,"station_id":"ce4bhh92rcd13ifvqfj0","pricing_plan_id":"cebpf4jnsgd1na2vs0mg"},{"bike_id":"baaabb63-03d7-46b0-b392-f607b1506ff3","system_id":"levelo_inurba_marseille","lat":43.32022,"lon":5.41519,"is_reserved":false,"is_disabled":false,"rental_uris":{"android":"levelo://app?vid=baaabb63-03d7-46b0-b392-f607b1506ff3","ios":"levelo://app?vid=baaabb63-03d7-46b0-b392-f607b1506ff3"},"vehicle_type_id":"4","last_reported":1736086022,"current_range_meters":24400,"station_id":"ce4bhq92rcd13ifvqhkg","pricing_plan_id":"cebpf4jnsgd1na2vs0mg"},{"bike_id":"a6f828f1-5f97-4da7-bf33-7d48a155db3e","system_id":"levelo_inurba_marseille","lat":43.27835,"lon":5.39204,"is_reserved":false,"is_disabled":false,"rental_uris":{"android":"levelo://app?vid=a6f828f1-5f97-4da7-bf33-7d48a155db3e","ios":"levelo://app?vid=a6f828f1-5f97-4da7-bf33-7d48a155db3e"},"vehicle_type_id":"4","last_reported":1736086022,"current_range_meters":22800,"station_id":"ce4bhjp2rcd13ifvqga0","pricing_plan_id":"cebpf4jnsgd1na2vs0mg"},{"bike_id":"dfd9d58c-9392-4107-b2f8-9af02aac969b","system_id":"levelo_inurba_marseille","lat":43.292617,"lon":5.367887,"is_reserved":false,"is_disabled":false,"rental_uris":{"android":"levelo://app?vid=dfd9d58c-9392-4107-b2f8-9af02aac969b","ios":"levelo://app?vid=dfd9d58c-9392-4107-b2f8-9af02aac969b"},"vehicle_type_id":"4","last_reported":1736086022,"current_range_meters":19200,"station_id":"ce4bhb12rcd13ifvqem0","pricing_plan_id":"cebpf4jnsgd1na2vs0mg"},{"bike_id":"a522c7f8-85db-4294-bcdd-44c45cbf4d5e","system_id":"levelo_inurba_marseille","lat":43.23183,"lon":5.39986,"is_reserved":false,"is_disabled":false,"rental_uris":{"android":"levelo://app?vid=a522c7f8-85db-4294-bcdd-44c45cbf4d5e","ios":"levelo://app?vid=a522c7f8-85db-4294-bcdd-44c45cbf4d5e"},"vehicle_type_id":"4","last_reported":1736086022,"current_range_meters":37600,"station_id":"ce4bhn12rcd13ifvqgqg","pricing_plan_id":"cebpf4jnsgd1na2vs0mg"},{"bike_id":"1cf532b1-0bd2-46dc-9a48-1355a09acf30","system_id":"levelo_inurba_marseille","lat":43.3025,"lon":5.40067,"is_reserved":false,"is_disabled":false,"rental_uris":{"android":"levelo://app?vid=1cf532b1-0bd2-46dc-9a48-1355a09acf30","ios":"levelo://app?vid=1cf532b1-0bd2-46dc-9a48-1355a09acf30"},"vehicle_type_id":"4","last_reported":1736086022,"current_range_meters":28000,"station_id":"ce4bgvh2rcd13ifvqcs0","pricing_plan_id":"cebpf4jnsgd1na2vs0mg"},{"bike_id":"e8a185b3-d63a-46a8-a06c-c198a1239fb6","system_id":"levelo_inurba_marseille","lat":43.27543,"lon":5.39644,"is_reserved":false,"is_disabled":false,"rental_uris":{"android":"levelo://app?vid=e8a185b3-d63a-46a8-a06c-c198a1239fb6","ios":"levelo://app?vid=e8a185b3-d63a-46a8-a06c-c198a1239fb6"},"vehicle_type_id":"4","last_reported":1736086022,"current_range_meters":25600,"station_id":"","pricing_plan_id":"cebpf4jnsgd1na2vs0mg"},{"bike_id":"2bb365b9-b0ab-4842-8b8c-e8de6374870a","system_id":"levelo_inurba_marseille","lat":43.246502,"lon":5.388797,"is_reserved":false,"is_disabled":false,"rental_uris":{"android":"levelo://app?vid=2bb365b9-b0ab-4842-8b8c-e8de6374870a","ios":"levelo://app?vid=2bb365b9-b0ab-4842-8b8c-e8de6374870a"},"vehicle_type_id":"4","last_reported":1736086022,"current_range_meters":38800,"station_id":"ce4bhg12rcd13ifvqf60","pricing_plan_id":"cebpf4jnsgd1na2vs0mg"},{"bike_id":"8a950bf5-c765-4897-b9b9-107ab86025cf","system_id":"levelo_inurba_marseille","lat":43.30255,"lon":5.40073,"is_reserved":false,"is_disabled":false,"rental_uris":{"android":"levelo://app?vid=8a950bf5-c765-4897-b9b9-107ab86025cf","ios":"levelo://app?vid=8a950bf5-c765-4897-b9b9-107ab86025cf"},"vehicle_type_id":"4","last_reported":1736086022,"current_range_meters":14800,"station_id":"ce4bgvh2rcd13ifvqcs0","pricing_plan_id":"cebpf4jnsgd1na2vs0mg"},{"bike_id":"7c58da07-847f-4b88-a783-b00e9c36ed30","system_id":"levelo_inurba_marseille","lat":43.27206,"lon":5.39182,"is_reserved":false,"is_disabled":false,"rental_uris":{"android":"levelo://app?vid=7c58da07-847f-4b88-a783-b00e9c36ed30","ios":"levelo://app?vid=7c58da07-847f-4b88-a783-b00e9c36ed30"},"vehicle_type_id":"4","last_reported":1736086022,"current_range_meters":30400,"station_id":"ce4bhhp2rcd13ifvqfm0","pricing_plan_id":"cebpf4jnsgd1na2vs0mg"},{"bike_id":"d580587d-6a34-4028-a032-9ca5028e06c1","system_id":"levelo_inurba_marseille","lat":43.25107,"lon":5.40324,"is_reserved":false,"is_disabled":false,"rental_uris":{"android":"levelo://app?vid=d580587d-6a34-4028-a032-9ca5028e06c1","ios":"levelo://app?vid=d580587d-6a34-4028-a032-9ca5028e06c1"},"vehicle_type_id":"4","last_reported":1736086022,"current_range_meters":24800,"station_id":"ce4bhlh2rcd13ifvqgig","pricing_plan_id":"cebpf4jnsgd1na2vs0mg"},{"bike_id":"d49af3af-f9f9-4223-bef7-ad7508592233","system_id":"levelo_inurba_marseille","lat":43.23175,"lon":5.39993,"is_reserved":false,"is_disabled":false,"rental_uris":{"android":"levelo://app?vid=d49af3af-f9f9-4223-bef7-ad7508592233","ios":"levelo://app?vid=d49af3af-f9f9-4223-bef7-ad7508592233"},"vehicle_type_id":"4","last_reported":1736086022,"current_range_meters":29600,"station_id":"ce4bhn12rcd13ifvqgqg","pricing_plan_id":"cebpf4jnsgd1na2vs0mg"},{"bike_id":"641d8acc-50b2-4173-ab23-c70f2a11d28e","system_id":"levelo_inurba_marseille","lat":43.281555,"lon":5.426566,"is_reserved":false,"is_disabled":true,"rental_uris":{"android":"levelo://app?vid=641d8acc-50b2-4173-ab23-c70f2a11d28e","ios":"levelo://app?vid=641d8acc-50b2-4173-ab23-c70f2a11d28e"},"vehicle_type_id":"4","last_reported":1736086022,"current_range_meters":32800,"station_id":"ce4bhnh2rcd13ifvqgug","pricing_plan_id":"cebpf4jnsgd1na2vs0mg"},{"bike_id":"5e1410a8-2898-4c41-8f96-f8d8591cd1e8","system_id":"levelo_inurba_marseille","lat":43.28455,"lon":5.39203,"is_reserved":false,"is_disabled":false,"rental_uris":{"android":"levelo://app?vid=5e1410a8-2898-4c41-8f96-f8d8591cd1e8","ios":"levelo://app?vid=5e1410a8-2898-4c41-8f96-f8d8591cd1e8"},"vehicle_type_id":"4","last_reported":1736086022,"current_range_meters":36800,"station_id":"ce4bhoh2rcd13ifvqh5g","pricing_plan_id":"cebpf4jnsgd1na2vs0mg"},{"bike_id":"15e503f5-1d52-42d6-a98f-33a61fd8b554","system_id":"levelo_inurba_marseille","lat":43.284595,"lon":5.358954,"is_reserved":false,"is_disabled":true,"rental_uris":{"android":"levelo://app?vid=15e503f5-1d52-42d6-a98f-33a61fd8b554","ios":"levelo://app?vid=15e503f5-1d52-42d6-a98f-33a61fd8b554"},"vehicle_type_id":"4","last_reported":1736086022,"current_range_meters":26000,"station_id":"ce4bhah2rcd13ifvqei0","pricing_plan_id":"cebpf4jnsgd1na2vs0mg"},{"bike_id":"6a6cde56-543d-4320-b530-a8d4d4944794","system_id":"levelo_inurba_marseille","lat":43.29897,"lon":5.43657,"is_reserved":false,"is_disabled":false,"rental_uris":{"android":"levelo://app?vid=6a6cde56-543d-4320-b530-a8d4d4944794","ios":"levelo://app?vid=6a6cde56-543d-4320-b530-a8d4d4944794"},"vehicle_type_id":"4","last_reported":1736086022,"current_range_meters":27600,"station_id":"ce4bhpp2rcd13ifvqhfg","pricing_plan_id":"cebpf4jnsgd1na2vs0mg"},{"bike_id":"88fbd2f9-edba-4674-927d-ce8a9c56a0e7","system_id":"levelo_inurba_marseille","lat":43.28149,"lon":5.42669,"is_reserved":false,"is_disabled":false,"rental_uris":{"android":"levelo://app?vid=88fbd2f9-edba-4674-927d-ce8a9c56a0e7","ios":"levelo://app?vid=88fbd2f9-edba-4674-927d-ce8a9c56a0e7"},"vehicle_type_id":"4","last_reported":1736086022,"current_range_meters":32000,"station_id":"ce4bhnh2rcd13ifvqgug","pricing_plan_id":"cebpf4jnsgd1na2vs0mg"},{"bike_id":"bd609247-c05b-4bfd-8224-3974e4956916","system_id":"levelo_inurba_marseille","lat":43.309,"lon":5.36867,"is_reserved":false,"is_disabled":true,"rental_uris":{"android":"levelo://app?vid=bd609247-c05b-4bfd-8224-3974e4956916","ios":"levelo://app?vid=bd609247-c05b-4bfd-8224-3974e4956916"},"vehicle_type_id":"4","last_reported":1736086022,"current_range_meters":32000,"station_id":"ce4bgn92rcd13ifvqbvg","pricing_plan_id":"cebpf4jnsgd1na2vs0mg"},{"bike_id":"d84701b0-2902-4d22-9d39-e83ce2cc37b5","system_id":"levelo_inurba_marseille","lat":43.29561,"lon":5.37505,"is_reserved":false,"is_disabled":false,"rental_uris":{"android":"levelo://app?vid=d84701b0-2902-4d22-9d39-e83ce2cc37b5","ios":"levelo://app?vid=d84701b0-2902-4d22-9d39-e83ce2cc37b5"},"vehicle_type_id":"4","last_reported":1736086022,"current_range_meters":38800,"station_id":"ce4bgh92rcd13ifvqb50","pricing_plan_id":"cebpf4jnsgd1na2vs0mg"},{"bike_id":"6a57460f-924c-4af0-b7ed-95637eee2780","system_id":"levelo_inurba_marseille","lat":43.2979,"lon":5.39359,"is_reserved":false,"is_disabled":false,"rental_uris":{"android":"levelo://app?vid=6a57460f-924c-4af0-b7ed-95637eee2780","ios":"levelo://app?vid=6a57460f-924c-4af0-b7ed-95637eee2780"},"vehicle_type_id":"4","last_reported":1736086022,"current_range_meters":38400,"station_id":"chh1huq6cuj3fo74tm60","pricing_plan_id":"cebpf4jnsgd1na2vs0mg"},{"bike_id":"6258cff8-4980-490d-ae23-30974cc87352","system_id":"levelo_inurba_marseille","lat":43.26692,"lon":5.38296,"is_reserved":false,"is_disabled":false,"rental_uris":{"android":"levelo://app?vid=6258cff8-4980-490d-ae23-30974cc87352","ios":"levelo://app?vid=6258cff8-4980-490d-ae23-30974cc87352"},"vehicle_type_id":"4","last_reported":1736086022,"current_range_meters":16000,"station_id":"ce4bhg92rcd13ifvqf90","pricing_plan_id":"cebpf4jnsgd1na2vs0mg"},{"bike_id":"50b46b06-9521-42f4-a35c-b326c9eae1f5","system_id":"levelo_inurba_marseille","lat":43.32357,"lon":5.38895,"is_reserved":false,"is_disabled":false,"rental_uris":{"android":"levelo://app?vid=50b46b06-9521-42f4-a35c-b326c9eae1f5","ios":"levelo://app?vid=50b46b06-9521-42f4-a35c-b326c9eae1f5"},"vehicle_type_id":"4","last_reported":1736086022,"current_range_meters":33200,"station_id":"ce4bhqp2rcd13ifvqhog","pricing_plan_id":"cebpf4jnsgd1na2vs0mg"},{"bike_id":"8b42ce4a-db99-433f-a82a-bdd2f9a5df17","system_id":"levelo_inurba_marseille","lat":43.3188,"lon":5.40737,"is_reserved":false,"is_disabled":false,"rental_uris":{"android":"levelo://app?vid=8b42ce4a-db99-433f-a82a-bdd2f9a5df17","ios":"levelo://app?vid=8b42ce4a-db99-433f-a82a-bdd2f9a5df17"},"vehicle_type_id":"4","last_reported":1736086022,"current_range_meters":14000,"station_id":"ce4bhq12rcd13ifvqhig","pricing_plan_id":"cebpf4jnsgd1na2vs0mg"},{"bike_id":"8d4566f5-07fe-47f4-85a6-9546b8b4eddd","system_id":"levelo_inurba_marseille","lat":43.25111,"lon":5.40323,"is_reserved":false,"is_disabled":false,"rental_uris":{"android":"levelo://app?vid=8d4566f5-07fe-47f4-85a6-9546b8b4eddd","ios":"levelo://app?vid=8d4566f5-07fe-47f4-85a6-9546b8b4eddd"},"vehicle_type_id":"4","last_reported":1736086022,"current_range_meters":38800,"station_id":"ce4bhlh2rcd13ifvqgig","pricing_plan_id":"cebpf4jnsgd1na2vs0mg"},{"bike_id":"64535576-a10b-4267-bb39-70ba1ad202c1","system_id":"levelo_inurba_marseille","lat":43.24646,"lon":5.38887,"is_reserved":false,"is_disabled":false,"rental_uris":{"android":"levelo://app?vid=64535576-a10b-4267-bb39-70ba1ad202c1","ios":"levelo://app?vid=64535576-a10b-4267-bb39-70ba1ad202c1"},"vehicle_type_id":"4","last_reported":1736086022,"current_range_meters":38000,"station_id":"ce4bhg12rcd13ifvqf60","pricing_plan_id":"cebpf4jnsgd1na2vs0mg"},{"bike_id":"237eb7a7-7331-4631-9377-6cdbdc6e4e98","system_id":"levelo_inurba_marseille","lat":43.26593,"lon":5.39032,"is_reserved":false,"is_disabled":true,"rental_uris":{"android":"levelo://app?vid=237eb7a7-7331-4631-9377-6cdbdc6e4e98","ios":"levelo://app?vid=237eb7a7-7331-4631-9377-6cdbdc6e4e98"},"vehicle_type_id":"4","last_reported":1736086022,"current_range_meters":38800,"station_id":"ce4bhe12rcd13ifvqf30","pricing_plan_id":"cebpf4jnsgd1na2vs0mg"},{"bike_id":"4d4510ea-c8af-461f-9a1d-ace479473212","system_id":"levelo_inurba_marseille","lat":43.24393,"lon":5.37062,"is_reserved":false,"is_disabled":true,"rental_uris":{"android":"levelo://app?vid=4d4510ea-c8af-461f-9a1d-ace479473212","ios":"levelo://app?vid=4d4510ea-c8af-461f-9a1d-ace479473212"},"vehicle_type_id":"4","last_reported":1736086022,"current_range_meters":1200,"station_id":"ce4bhhh2rcd13ifvqfk0","pricing_plan_id":"cebpf4jnsgd1na2vs0mg"},{"bike_id":"5c20cd92-8718-4cbd-b83a-d1b881317617","system_id":"levelo_inurba_marseille","lat":43.29917,"lon":5.3748,"is_reserved":false,"is_disabled":false,"rental_uris":{"android":"levelo://app?vid=5c20cd92-8718-4cbd-b83a-d1b881317617","ios":"levelo://app?vid=5c20cd92-8718-4cbd-b83a-d1b881317617"},"vehicle_type_id":"4","last_reported":1736086022,"current_range_meters":32000,"station_id":"ce4bgjh2rcd13ifvqbg0","pricing_plan_id":"cebpf4jnsgd1na2vs0mg"},{"bike_id":"983a939f-0c90-4b41-8e07-1ba37a328643","system_id":"levelo_inurba_marseille","lat":43.2417,"lon":5.36415,"is_reserved":false,"is_disabled":false,"rental_uris":{"android":"levelo://app?vid=983a939f-0c90-4b41-8e07-1ba37a328643","ios":"levelo://app?vid=983a939f-0c90-4b41-8e07-1ba37a328643"},"vehicle_type_id":"4","last_reported":1736086022,"current_range_meters":20800,"station_id":"cpo36qri1sfpv3e86is0","pricing_plan_id":"cebpf4jnsgd1na2vs0mg"},{"bike_id":"e92918ec-92c9-453f-8a2f-aeaed83ac5fd","system_id":"levelo_inurba_marseille","lat":43.24083,"lon":5.3775,"is_reserved":false,"is_disabled":false,"rental_uris":{"android":"levelo://app?vid=e92918ec-92c9-453f-8a2f-aeaed83ac5fd","ios":"levelo://app?vid=e92918ec-92c9-453f-8a2f-aeaed83ac5fd"},"vehicle_type_id":"4","last_reported":1736086022,"current_range_meters":38800,"station_id":"ce4bhnp2rcd13ifvqgvg","pricing_plan_id":"cebpf4jnsgd1na2vs0mg"},{"bike_id":"2744d3d7-1c79-4955-8dfb-cd899dddfff5","system_id":"levelo_inurba_marseille","lat":43.28452,"lon":5.39202,"is_reserved":false,"is_disabled":false,"rental_uris":{"android":"levelo://app?vid=2744d3d7-1c79-4955-8dfb-cd899dddfff5","ios":"levelo://app?vid=2744d3d7-1c79-4955-8dfb-cd899dddfff5"},"vehicle_type_id":"4","last_reported":1736086022,"current_range_meters":38000,"station_id":"ce4bhoh2rcd13ifvqh5g","pricing_plan_id":"cebpf4jnsgd1na2vs0mg"},{"bike_id":"1f95228b-2707-4808-8d35-1365263ec69f","system_id":"levelo_inurba_marseille","lat":43.29947,"lon":5.36538,"is_reserved":false,"is_disabled":false,"rental_uris":{"android":"levelo://app?vid=1f95228b-2707-4808-8d35-1365263ec69f","ios":"levelo://app?vid=1f95228b-2707-4808-8d35-1365263ec69f"},"vehicle_type_id":"4","last_reported":1736086022,"current_range_meters":22000,"station_id":"ce4bgm92rcd13ifvqbr0","pricing_plan_id":"cebpf4jnsgd1na2vs0mg"},{"bike_id":"32fac1ac-160b-43ec-a560-a05ca5d5e872","system_id":"levelo_inurba_marseille","lat":43.31892,"lon":5.40738,"is_reserved":false,"is_disabled":false,"rental_uris":{"android":"levelo://app?vid=32fac1ac-160b-43ec-a560-a05ca5d5e872","ios":"levelo://app?vid=32fac1ac-160b-43ec-a560-a05ca5d5e872"},"vehicle_type_id":"4","last_reported":1736086022,"current_range_meters":38800,"station_id":"ce4bhq12rcd13ifvqhig","pricing_plan_id":"cebpf4jnsgd1na2vs0mg"},{"bike_id":"be8ef685-e8b1-4c4a-8312-a7768d85aa72","system_id":"levelo_inurba_marseille","lat":43.23963,"lon":5.36637,"is_reserved":false,"is_disabled":false,"rental_uris":{"android":"levelo://app?vid=be8ef685-e8b1-4c4a-8312-a7768d85aa72","ios":"levelo://app?vid=be8ef685-e8b1-4c4a-8312-a7768d85aa72"},"vehicle_type_id":"4","last_reported":1736086022,"current_range_meters":30800,"station_id":"ce4bhi12rcd13ifvqfp0","pricing_plan_id":"cebpf4jnsgd1na2vs0mg"},{"bike_id":"b8615680-9ffc-4468-b450-4d5384dbb56c","system_id":"levelo_inurba_marseille","lat":43.27943,"lon":5.41042,"is_reserved":false,"is_disabled":false,"rental_uris":{"android":"levelo://app?vid=b8615680-9ffc-4468-b450-4d5384dbb56c","ios":"levelo://app?vid=b8615680-9ffc-4468-b450-4d5384dbb56c"},"vehicle_type_id":"4","last_reported":1736086022,"current_range_meters":25600,"station_id":"ce4bhnp2rcd13ifvqh0g","pricing_plan_id":"cebpf4jnsgd1na2vs0mg"},{"bike_id":"d9288af1-5f8c-4fd9-8c46-d082ffb038e4","system_id":"levelo_inurba_marseille","lat":43.27186,"lon":5.41007,"is_reserved":false,"is_disabled":false,"rental_uris":{"android":"levelo://app?vid=d9288af1-5f8c-4fd9-8c46-d082ffb038e4","ios":"levelo://app?vid=d9288af1-5f8c-4fd9-8c46-d082ffb038e4"},"vehicle_type_id":"4","last_reported":1736086022,"current_range_meters":38800,"station_id":"ce4bhl12rcd13ifvqgf0","pricing_plan_id":"cebpf4jnsgd1na2vs0mg"},{"bike_id":"cca2f7c7-45e7-4f8a-80d9-cffca2b70c93","system_id":"levelo_inurba_marseille","lat":43.26691,"lon":5.38264,"is_reserved":false,"is_disabled":true,"rental_uris":{"android":"levelo://app?vid=cca2f7c7-45e7-4f8a-80d9-cffca2b70c93","ios":"levelo://app?vid=cca2f7c7-45e7-4f8a-80d9-cffca2b70c93"},"vehicle_type_id":"4","last_reported":1736086022,"current_range_meters":38400,"station_id":"ce4bhg92rcd13ifvqf90","pricing_plan_id":"cebpf4jnsgd1na2vs0mg"},{"bike_id":"f4da3421-c1ef-415d-bec2-78360a6a0213","system_id":"levelo_inurba_marseille","lat":43.30529,"lon":5.36528,"is_reserved":false,"is_disabled":false,"rental_uris":{"android":"levelo://app?vid=f4da3421-c1ef-415d-bec2-78360a6a0213","ios":"levelo://app?vid=f4da3421-c1ef-415d-bec2-78360a6a0213"},"vehicle_type_id":"4","last_reported":1736086022,"current_range_meters":38800,"station_id":"ce4bgs12rcd13ifvqcag","pricing_plan_id":"cebpf4jnsgd1na2vs0mg"},{"bike_id":"ee8c1d47-4940-4958-a47f-9b1fe679f986","system_id":"levelo_inurba_marseille","lat":43.2318,"lon":5.3999,"is_reserved":false,"is_disabled":false,"rental_uris":{"android":"levelo://app?vid=ee8c1d47-4940-4958-a47f-9b1fe679f986","ios":"levelo://app?vid=ee8c1d47-4940-4958-a47f-9b1fe679f986"},"vehicle_type_id":"4","last_reported":1736086022,"current_range_meters":11200,"station_id":"ce4bhn12rcd13ifvqgqg","pricing_plan_id":"cebpf4jnsgd1na2vs0mg"},{"bike_id":"1d889d92-122f-4ede-978f-63961fe2cb70","system_id":"levelo_inurba_marseille","lat":43.30191,"lon":5.39474,"is_reserved":false,"is_disabled":false,"rental_uris":{"android":"levelo://app?vid=1d889d92-122f-4ede-978f-63961fe2cb70","ios":"levelo://app?vid=1d889d92-122f-4ede-978f-63961fe2cb70"},"vehicle_type_id":"4","last_reported":1736086022,"current_range_meters":38800,"station_id":"ce4bh0p2rcd13ifvqd70","pricing_plan_id":"cebpf4jnsgd1na2vs0mg"},{"bike_id":"b88a24fd-7611-470c-838a-5bb668f24279","system_id":"levelo_inurba_marseille","lat":43.27319,"lon":5.39086,"is_reserved":false,"is_disabled":false,"rental_uris":{"android":"levelo://app?vid=b88a24fd-7611-470c-838a-5bb668f24279","ios":"levelo://app?vid=b88a24fd-7611-470c-838a-5bb668f24279"},"vehicle_type_id":"4","last_reported":1736086022,"current_range_meters":38800,"station_id":"ce4bhgp2rcd13ifvqfe0","pricing_plan_id":"cebpf4jnsgd1na2vs0mg"},{"bike_id":"e153e98c-5cb0-443d-aae0-68595312ad2a","system_id":"levelo_inurba_marseille","lat":43.26804,"lon":5.40268,"is_reserved":false,"is_disabled":false,"rental_uris":{"android":"levelo://app?vid=e153e98c-5cb0-443d-aae0-68595312ad2a","ios":"levelo://app?vid=e153e98c-5cb0-443d-aae0-68595312ad2a"},"vehicle_type_id":"4","last_reported":1736086022,"current_range_meters":24000,"station_id":"ce501612rcd8frsf0b60","pricing_plan_id":"cebpf4jnsgd1na2vs0mg"},{"bike_id":"6de85284-42f3-49da-a197-6f1fc845a0b8","system_id":"levelo_inurba_marseille","lat":43.2997,"lon":5.37177,"is_reserved":false,"is_disabled":false,"rental_uris":{"android":"levelo://app?vid=6de85284-42f3-49da-a197-6f1fc845a0b8","ios":"levelo://app?vid=6de85284-42f3-49da-a197-6f1fc845a0b8"},"vehicle_type_id":"4","last_reported":1736086022,"current_range_meters":28400,"station_id":"ce4bgr92rcd13ifvqc7g","pricing_plan_id":"cebpf4jnsgd1na2vs0mg"},{"bike_id":"182c8827-ad8b-4aa6-9862-5b2da55309dc","system_id":"levelo_inurba_marseille","lat":43.29218,"lon":5.36069,"is_reserved":false,"is_disabled":true,"rental_uris":{"android":"levelo://app?vid=182c8827-ad8b-4aa6-9862-5b2da55309dc","ios":"levelo://app?vid=182c8827-ad8b-4aa6-9862-5b2da55309dc"},"vehicle_type_id":"4","last_reported":1736086022,"current_range_meters":38400,"station_id":"ce4bhbh2rcd13ifvqeqg","pricing_plan_id":"cebpf4jnsgd1na2vs0mg"},{"bike_id":"b4451bbb-9a4b-4792-8dd0-0107ff9c33c9","system_id":"levelo_inurba_marseille","lat":43.30364,"lon":5.41879,"is_reserved":false,"is_disabled":false,"rental_uris":{"android":"levelo://app?vid=b4451bbb-9a4b-4792-8dd0-0107ff9c33c9","ios":"levelo://app?vid=b4451bbb-9a4b-4792-8dd0-0107ff9c33c9"},"vehicle_type_id":"4","last_reported":1736086022,"current_range_meters":38800,"station_id":"ce4bhop2rcd13ifvqh7g","pricing_plan_id":"cebpf4jnsgd1na2vs0mg"},{"bike_id":"d8b76d84-2dfc-400f-9630-9e7b0787e9cc","system_id":"levelo_inurba_marseille","lat":43.27501,"lon":5.42466,"is_reserved":false,"is_disabled":true,"rental_uris":{"android":"levelo://app?vid=d8b76d84-2dfc-400f-9630-9e7b0787e9cc","ios":"levelo://app?vid=d8b76d84-2dfc-400f-9630-9e7b0787e9cc"},"vehicle_type_id":"4","last_reported":1736086022,"current_range_meters":38800,"station_id":"ce4bhn92rcd13ifvqgrg","pricing_plan_id":"cebpf4jnsgd1na2vs0mg"},{"bike_id":"eaecfcca-aa89-4e9a-8d17-c5be1539665b","system_id":"levelo_inurba_marseille","lat":43.28283,"lon":5.35073,"is_reserved":false,"is_disabled":true,"rental_uris":{"android":"levelo://app?vid=eaecfcca-aa89-4e9a-8d17-c5be1539665b","ios":"levelo://app?vid=eaecfcca-aa89-4e9a-8d17-c5be1539665b"},"vehicle_type_id":"4","last_reported":1736086022,"current_range_meters":38800,"station_id":"ce4bhbp2rcd13ifvqerg","pricing_plan_id":"cebpf4jnsgd1na2vs0mg"},{"bike_id":"6bf3b311-17ee-452c-ac9c-2d9801c21dff","system_id":"levelo_inurba_marseille","lat":43.30138,"lon":5.39834,"is_reserved":false,"is_disabled":false,"rental_uris":{"android":"levelo://app?vid=6bf3b311-17ee-452c-ac9c-2d9801c21dff","ios":"levelo://app?vid=6bf3b311-17ee-452c-ac9c-2d9801c21dff"},"vehicle_type_id":"4","last_reported":1736086022,"current_range_meters":14800,"station_id":"ce4bh0h2rcd13ifvqd40","pricing_plan_id":"cebpf4jnsgd1na2vs0mg"},{"bike_id":"bbf16901-1354-41cb-b2ef-aa011be26434","system_id":"levelo_inurba_marseille","lat":43.26819,"lon":5.40276,"is_reserved":false,"is_disabled":false,"rental_uris":{"android":"levelo://app?vid=bbf16901-1354-41cb-b2ef-aa011be26434","ios":"levelo://app?vid=bbf16901-1354-41cb-b2ef-aa011be26434"},"vehicle_type_id":"4","last_reported":1736086022,"current_range_meters":38800,"station_id":"ce501612rcd8frsf0b60","pricing_plan_id":"cebpf4jnsgd1na2vs0mg"},{"bike_id":"4e86006f-38d3-401d-be15-e8dd8ff28846","system_id":"levelo_inurba_marseille","lat":43.27901,"lon":5.38027,"is_reserved":false,"is_disabled":false,"rental_uris":{"android":"levelo://app?vid=4e86006f-38d3-401d-be15-e8dd8ff28846","ios":"levelo://app?vid=4e86006f-38d3-401d-be15-e8dd8ff28846"},"vehicle_type_id":"4","last_reported":1736086022,"current_range_meters":38800,"station_id":"ce4bhf92rcd13ifvqf50","pricing_plan_id":"cebpf4jnsgd1na2vs0mg"},{"bike_id":"6870e70b-2e83-49a0-bd86-eb3e4f45c6c2","system_id":"levelo_inurba_marseille","lat":43.23195,"lon":5.35546,"is_reserved":false,"is_disabled":false,"rental_uris":{"android":"levelo://app?vid=6870e70b-2e83-49a0-bd86-eb3e4f45c6c2","ios":"levelo://app?vid=6870e70b-2e83-49a0-bd86-eb3e4f45c6c2"},"vehicle_type_id":"4","last_reported":1736086022,"current_range_meters":38800,"station_id":"ce4bhu92rcd13ifvqi70","pricing_plan_id":"cebpf4jnsgd1na2vs0mg"},{"bike_id":"79aa7d4c-f5b8-4721-b8ec-20e5eeec0901","system_id":"levelo_inurba_marseille","lat":43.2831,"lon":5.38507,"is_reserved":false,"is_disabled":false,"rental_uris":{"android":"levelo://app?vid=79aa7d4c-f5b8-4721-b8ec-20e5eeec0901","ios":"levelo://app?vid=79aa7d4c-f5b8-4721-b8ec-20e5eeec0901"},"vehicle_type_id":"4","last_reported":1736086022,"current_range_meters":22000,"station_id":"ce4bhf92rcd13ifvqf50","pricing_plan_id":"cebpf4jnsgd1na2vs0mg"},{"bike_id":"4b95bc3d-118d-46d4-a1ef-6fc1b63fe941","system_id":"levelo_inurba_marseille","lat":43.28367,"lon":5.38618,"is_reserved":false,"is_disabled":false,"rental_uris":{"android":"levelo://app?vid=4b95bc3d-118d-46d4-a1ef-6fc1b63fe941","ios":"levelo://app?vid=4b95bc3d-118d-46d4-a1ef-6fc1b63fe941"},"vehicle_type_id":"4","last_reported":1736086022,"current_range_meters":39200,"station_id":"ce4bh492rcd13ifvqdvg","pricing_plan_id":"cebpf4jnsgd1na2vs0mg"},{"bike_id":"478b79ff-b061-464f-b89b-3fa6af477f65","system_id":"levelo_inurba_marseille","lat":43.286175,"lon":5.351029,"is_reserved":false,"is_disabled":false,"rental_uris":{"android":"levelo://app?vid=478b79ff-b061-464f-b89b-3fa6af477f65","ios":"levelo://app?vid=478b79ff-b061-464f-b89b-3fa6af477f65"},"vehicle_type_id":"4","last_reported":1736086022,"current_range_meters":30400,"station_id":"ce4bhch2rcd13ifvqeug","pricing_plan_id":"cebpf4jnsgd1na2vs0mg"},{"bike_id":"24bccac7-1e4b-45e8-bc23-0feeff5509f0","system_id":"levelo_inurba_marseille","lat":43.264952,"lon":5.395695,"is_reserved":false,"is_disabled":true,"rental_uris":{"android":"levelo://app?vid=24bccac7-1e4b-45e8-bc23-0feeff5509f0","ios":"levelo://app?vid=24bccac7-1e4b-45e8-bc23-0feeff5509f0"},"vehicle_type_id":"4","last_reported":1736086022,"current_range_meters":0,"station_id":"ce4bhi12rcd13ifvqfq0","pricing_plan_id":"cebpf4jnsgd1na2vs0mg"},{"bike_id":"d400eb61-16e5-4772-875c-c1ea2e3b188d","system_id":"levelo_inurba_marseille","lat":43.27665,"lon":5.38922,"is_reserved":false,"is_disabled":true,"rental_uris":{"android":"levelo://app?vid=d400eb61-16e5-4772-875c-c1ea2e3b188d","ios":"levelo://app?vid=d400eb61-16e5-4772-875c-c1ea2e3b188d"},"vehicle_type_id":"4","last_reported":1736086022,"current_range_meters":400,"station_id":"ce4bhi12rcd13ifvqfo0","pricing_plan_id":"cebpf4jnsgd1na2vs0mg"},{"bike_id":"cb09a876-6570-4ef2-b224-6b3f8af875c5","system_id":"levelo_inurba_marseille","lat":43.29681,"lon":5.37295,"is_reserved":false,"is_disabled":false,"rental_uris":{"android":"levelo://app?vid=cb09a876-6570-4ef2-b224-6b3f8af875c5","ios":"levelo://app?vid=cb09a876-6570-4ef2-b224-6b3f8af875c5"},"vehicle_type_id":"4","last_reported":1736086022,"current_range_meters":39200,"station_id":"ce4bgk12rcd13ifvqbj0","pricing_plan_id":"cebpf4jnsgd1na2vs0mg"},{"bike_id":"270f72ca-6ff0-4006-b955-8701cfe72efd","system_id":"levelo_inurba_marseille","lat":43.29274,"lon":5.40127,"is_reserved":false,"is_disabled":true,"rental_uris":{"android":"levelo://app?vid=270f72ca-6ff0-4006-b955-8701cfe72efd","ios":"levelo://app?vid=270f72ca-6ff0-4006-b955-8701cfe72efd"},"vehicle_type_id":"4","last_reported":1736086022,"current_range_meters":1200,"station_id":"ce4bh312rcd13ifvqdk0","pricing_plan_id":"cebpf4jnsgd1na2vs0mg"},{"bike_id":"dec48ff9-46f1-45b2-af89-3775a7227852","system_id":"levelo_inurba_marseille","lat":43.27376,"lon":5.36278,"is_reserved":false,"is_disabled":false,"rental_uris":{"android":"levelo://app?vid=dec48ff9-46f1-45b2-af89-3775a7227852","ios":"levelo://app?vid=dec48ff9-46f1-45b2-af89-3775a7227852"},"vehicle_type_id":"4","last_reported":1736086022,"current_range_meters":38800,"station_id":"ce4bhbh2rcd13ifvqeo0","pricing_plan_id":"cebpf4jnsgd1na2vs0mg"},{"bike_id":"177c1e4d-2fcb-4b52-a3bf-88a2132c12b4","system_id":"levelo_inurba_marseille","lat":43.28689,"lon":5.374,"is_reserved":false,"is_disabled":true,"rental_uris":{"android":"levelo://app?vid=177c1e4d-2fcb-4b52-a3bf-88a2132c12b4","ios":"levelo://app?vid=177c1e4d-2fcb-4b52-a3bf-88a2132c12b4"},"vehicle_type_id":"4","last_reported":1736086022,"current_range_meters":2000,"station_id":"ce4bh3p2rcd13ifvqdq0","pricing_plan_id":"cebpf4jnsgd1na2vs0mg"},{"bike_id":"d45d0089-5e8c-41ac-a04c-9866c8dc94cc","system_id":"levelo_inurba_marseille","lat":43.23192,"lon":5.35546,"is_reserved":false,"is_disabled":false,"rental_uris":{"android":"levelo://app?vid=d45d0089-5e8c-41ac-a04c-9866c8dc94cc","ios":"levelo://app?vid=d45d0089-5e8c-41ac-a04c-9866c8dc94cc"},"vehicle_type_id":"4","last_reported":1736086022,"current_range_meters":11200,"station_id":"ce4bhu92rcd13ifvqi70","pricing_plan_id":"cebpf4jnsgd1na2vs0mg"},{"bike_id":"1667798b-1164-409d-b902-5f39d1272260","system_id":"levelo_inurba_marseille","lat":43.27326,"lon":5.39067,"is_reserved":false,"is_disabled":false,"rental_uris":{"android":"levelo://app?vid=1667798b-1164-409d-b902-5f39d1272260","ios":"levelo://app?vid=1667798b-1164-409d-b902-5f39d1272260"},"vehicle_type_id":"4","last_reported":1736086022,"current_range_meters":24000,"station_id":"ce4bhgp2rcd13ifvqfe0","pricing_plan_id":"cebpf4jnsgd1na2vs0mg"},{"bike_id":"b5de95e0-8f34-41aa-a5fc-c4e76e03a994","system_id":"levelo_inurba_marseille","lat":43.28088,"lon":5.39659,"is_reserved":false,"is_disabled":true,"rental_uris":{"android":"levelo://app?vid=b5de95e0-8f34-41aa-a5fc-c4e76e03a994","ios":"levelo://app?vid=b5de95e0-8f34-41aa-a5fc-c4e76e03a994"},"vehicle_type_id":"4","last_reported":1736086022,"current_range_meters":31200,"station_id":"ce4bho12rcd13ifvqh2g","pricing_plan_id":"cebpf4jnsgd1na2vs0mg"},{"bike_id":"aa33a53e-f806-43a8-ad7e-8e2bd9644426","system_id":"levelo_inurba_marseille","lat":43.32345,"lon":5.40629,"is_reserved":false,"is_disabled":true,"rental_uris":{"android":"levelo://app?vid=aa33a53e-f806-43a8-ad7e-8e2bd9644426","ios":"levelo://app?vid=aa33a53e-f806-43a8-ad7e-8e2bd9644426"},"vehicle_type_id":"4","last_reported":1736086022,"current_range_meters":0,"station_id":"ce4bhq92rcd13ifvqhjg","pricing_plan_id":"cebpf4jnsgd1na2vs0mg"},{"bike_id":"b9dc4ae5-8ee5-4a0e-8a96-a2e835ae7769","system_id":"levelo_inurba_marseille","lat":43.243948,"lon":5.370583,"is_reserved":false,"is_disabled":false,"rental_uris":{"android":"levelo://app?vid=b9dc4ae5-8ee5-4a0e-8a96-a2e835ae7769","ios":"levelo://app?vid=b9dc4ae5-8ee5-4a0e-8a96-a2e835ae7769"},"vehicle_type_id":"4","last_reported":1736086022,"current_range_meters":12800,"station_id":"ce4bhhh2rcd13ifvqfk0","pricing_plan_id":"cebpf4jnsgd1na2vs0mg"},{"bike_id":"be19a5cb-6dd8-4bfa-80d4-2363aed27b68","system_id":"levelo_inurba_marseille","lat":43.30275,"lon":5.38491,"is_reserved":false,"is_disabled":false,"rental_uris":{"android":"levelo://app?vid=be19a5cb-6dd8-4bfa-80d4-2363aed27b68","ios":"levelo://app?vid=be19a5cb-6dd8-4bfa-80d4-2363aed27b68"},"vehicle_type_id":"4","last_reported":1736086022,"current_range_meters":32000,"station_id":"","pricing_plan_id":"cebpf4jnsgd1na2vs0mg"},{"bike_id":"aba7c48e-7604-4954-a19e-77253b21ee70","system_id":"levelo_inurba_marseille","lat":43.2587,"lon":5.39892,"is_reserved":false,"is_disabled":false,"rental_uris":{"android":"levelo://app?vid=aba7c48e-7604-4954-a19e-77253b21ee70","ios":"levelo://app?vid=aba7c48e-7604-4954-a19e-77253b21ee70"},"vehicle_type_id":"4","last_reported":1736086022,"current_range_meters":15200,"station_id":"ce4bhl92rcd13ifvqghg","pricing_plan_id":"cebpf4jnsgd1na2vs0mg"},{"bike_id":"7e8fd350-fb1f-4e9d-a07c-4a5122cca9a5","system_id":"levelo_inurba_marseille","lat":43.30536,"lon":5.36529,"is_reserved":false,"is_disabled":false,"rental_uris":{"android":"levelo://app?vid=7e8fd350-fb1f-4e9d-a07c-4a5122cca9a5","ios":"levelo://app?vid=7e8fd350-fb1f-4e9d-a07c-4a5122cca9a5"},"vehicle_type_id":"4","last_reported":1736086022,"current_range_meters":38800,"station_id":"ce4bgs12rcd13ifvqcag","pricing_plan_id":"cebpf4jnsgd1na2vs0mg"},{"bike_id":"8f4729a7-c22b-413e-a606-7762bb00a9ff","system_id":"levelo_inurba_marseille","lat":43.31696,"lon":5.37754,"is_reserved":false,"is_disabled":false,"rental_uris":{"android":"levelo://app?vid=8f4729a7-c22b-413e-a606-7762bb00a9ff","ios":"levelo://app?vid=8f4729a7-c22b-413e-a606-7762bb00a9ff"},"vehicle_type_id":"4","last_reported":1736086022,"current_range_meters":36000,"station_id":"ce4bgth2rcd13ifvqch0","pricing_plan_id":"cebpf4jnsgd1na2vs0mg"},{"bike_id":"45744d07-eb73-453c-b6ee-d9a256b9901b","system_id":"levelo_inurba_marseille","lat":43.28727,"lon":5.38752,"is_reserved":false,"is_disabled":true,"rental_uris":{"android":"levelo://app?vid=45744d07-eb73-453c-b6ee-d9a256b9901b","ios":"levelo://app?vid=45744d07-eb73-453c-b6ee-d9a256b9901b"},"vehicle_type_id":"4","last_reported":1736086022,"current_range_meters":14000,"station_id":"","pricing_plan_id":"cebpf4jnsgd1na2vs0mg"},{"bike_id":"a4b49f45-757c-43f5-bd22-2dc89371c25b","system_id":"levelo_inurba_marseille","lat":43.28,"lon":5.40025,"is_reserved":false,"is_disabled":false,"rental_uris":{"android":"levelo://app?vid=a4b49f45-757c-43f5-bd22-2dc89371c25b","ios":"levelo://app?vid=a4b49f45-757c-43f5-bd22-2dc89371c25b"},"vehicle_type_id":"4","last_reported":1736086022,"current_range_meters":19600,"station_id":"ce4bho92rcd13ifvqh4g","pricing_plan_id":"cebpf4jnsgd1na2vs0mg"},{"bike_id":"e14fc727-e110-4847-a3c5-e82ea6a6fcb8","system_id":"levelo_inurba_marseille","lat":43.28938,"lon":5.39636,"is_reserved":false,"is_disabled":true,"rental_uris":{"android":"levelo://app?vid=e14fc727-e110-4847-a3c5-e82ea6a6fcb8","ios":"levelo://app?vid=e14fc727-e110-4847-a3c5-e82ea6a6fcb8"},"vehicle_type_id":"4","last_reported":1736086022,"current_range_meters":36400,"station_id":"ce4bh3h2rcd13ifvqdn0","pricing_plan_id":"cebpf4jnsgd1na2vs0mg"},{"bike_id":"a4921462-1554-446a-9397-2037bdaaa869","system_id":"levelo_inurba_marseille","lat":43.30416,"lon":5.39745,"is_reserved":false,"is_disabled":false,"rental_uris":{"android":"levelo://app?vid=a4921462-1554-446a-9397-2037bdaaa869","ios":"levelo://app?vid=a4921462-1554-446a-9397-2037bdaaa869"},"vehicle_type_id":"4","last_reported":1736086022,"current_range_meters":39200,"station_id":"ce4bh092rcd13ifvqd20","pricing_plan_id":"cebpf4jnsgd1na2vs0mg"},{"bike_id":"cdde791c-00c7-4d4f-abe9-f9cd2bd23184","system_id":"levelo_inurba_marseille","lat":43.29788,"lon":5.38101,"is_reserved":false,"is_disabled":false,"rental_uris":{"android":"levelo://app?vid=cdde791c-00c7-4d4f-abe9-f9cd2bd23184","ios":"levelo://app?vid=cdde791c-00c7-4d4f-abe9-f9cd2bd23184"},"vehicle_type_id":"4","last_reported":1736086022,"current_range_meters":38400,"station_id":"ce4bgip2rcd13ifvqbb0","pricing_plan_id":"cebpf4jnsgd1na2vs0mg"},{"bike_id":"ad539604-9e59-421d-a71a-49da59bdd974","system_id":"levelo_inurba_marseille","lat":43.29026,"lon":5.38637,"is_reserved":false,"is_disabled":true,"rental_uris":{"android":"levelo://app?vid=ad539604-9e59-421d-a71a-49da59bdd974","ios":"levelo://app?vid=ad539604-9e59-421d-a71a-49da59bdd974"},"vehicle_type_id":"4","last_reported":1736086022,"current_range_meters":28800,"station_id":"ce4bh4p2rcd13ifvqe0g","pricing_plan_id":"cebpf4jnsgd1na2vs0mg"},{"bike_id":"68b409ba-7a44-42dc-ae3b-6418ba6f5e03","system_id":"levelo_inurba_marseille","lat":43.299149,"lon":5.374716,"is_reserved":false,"is_disabled":false,"rental_uris":{"android":"levelo://app?vid=68b409ba-7a44-42dc-ae3b-6418ba6f5e03","ios":"levelo://app?vid=68b409ba-7a44-42dc-ae3b-6418ba6f5e03"},"vehicle_type_id":"4","last_reported":1736086022,"current_range_meters":38800,"station_id":"ce4bgjh2rcd13ifvqbg0","pricing_plan_id":"cebpf4jnsgd1na2vs0mg"},{"bike_id":"47482a76-601c-4d8d-9a9c-6565b981ebaf","system_id":"levelo_inurba_marseille","lat":43.29865,"lon":5.36276,"is_reserved":false,"is_disabled":false,"rental_uris":{"android":"levelo://app?vid=47482a76-601c-4d8d-9a9c-6565b981ebaf","ios":"levelo://app?vid=47482a76-601c-4d8d-9a9c-6565b981ebaf"},"vehicle_type_id":"4","last_reported":1736086022,"current_range_meters":22800,"station_id":"ce4bgpp2rcd13ifvqc3g","pricing_plan_id":"cebpf4jnsgd1na2vs0mg"},{"bike_id":"8a474426-cd46-4cf8-9edc-ef843a0ca02e","system_id":"levelo_inurba_marseille","lat":43.26531,"lon":5.39065,"is_reserved":false,"is_disabled":true,"rental_uris":{"android":"levelo://app?vid=8a474426-cd46-4cf8-9edc-ef843a0ca02e","ios":"levelo://app?vid=8a474426-cd46-4cf8-9edc-ef843a0ca02e"},"vehicle_type_id":"4","last_reported":1736086022,"current_range_meters":36800,"station_id":"","pricing_plan_id":"cebpf4jnsgd1na2vs0mg"},{"bike_id":"d0234cf8-3190-48a6-bab2-6c84efe1b44c","system_id":"levelo_inurba_marseille","lat":43.24812,"lon":5.37451,"is_reserved":false,"is_disabled":false,"rental_uris":{"android":"levelo://app?vid=d0234cf8-3190-48a6-bab2-6c84efe1b44c","ios":"levelo://app?vid=d0234cf8-3190-48a6-bab2-6c84efe1b44c"},"vehicle_type_id":"4","last_reported":1736086022,"current_range_meters":39200,"station_id":"ce4bhgh2rcd13ifvqfb0","pricing_plan_id":"cebpf4jnsgd1na2vs0mg"},{"bike_id":"bbf998ea-d252-4590-8711-16d78ff4b07c","system_id":"levelo_inurba_marseille","lat":43.2464,"lon":5.38897,"is_reserved":false,"is_disabled":false,"rental_uris":{"android":"levelo://app?vid=bbf998ea-d252-4590-8711-16d78ff4b07c","ios":"levelo://app?vid=bbf998ea-d252-4590-8711-16d78ff4b07c"},"vehicle_type_id":"4","last_reported":1736086022,"current_range_meters":34800,"station_id":"ce4bhg12rcd13ifvqf60","pricing_plan_id":"cebpf4jnsgd1na2vs0mg"},{"bike_id":"af68d2e6-d7e3-4eb8-9cf5-37ac1985b5a3","system_id":"levelo_inurba_marseille","lat":43.23062,"lon":5.35508,"is_reserved":false,"is_disabled":false,"rental_uris":{"android":"levelo://app?vid=af68d2e6-d7e3-4eb8-9cf5-37ac1985b5a3","ios":"levelo://app?vid=af68d2e6-d7e3-4eb8-9cf5-37ac1985b5a3"},"vehicle_type_id":"4","last_reported":1736086022,"current_range_meters":17200,"station_id":"cpo3342slgdg3j2ifvpg","pricing_plan_id":"cebpf4jnsgd1na2vs0mg"},{"bike_id":"f5a4a49b-f269-4ec2-b80a-e579bf67a966","system_id":"levelo_inurba_marseille","lat":43.30903,"lon":5.36879,"is_reserved":false,"is_disabled":true,"rental_uris":{"android":"levelo://app?vid=f5a4a49b-f269-4ec2-b80a-e579bf67a966","ios":"levelo://app?vid=f5a4a49b-f269-4ec2-b80a-e579bf67a966"},"vehicle_type_id":"4","last_reported":1736086022,"current_range_meters":38800,"station_id":"ce4bgn92rcd13ifvqbvg","pricing_plan_id":"cebpf4jnsgd1na2vs0mg"},{"bike_id":"6f21fba1-6f8e-47c4-a476-286cca5f9cc6","system_id":"levelo_inurba_marseille","lat":43.28271,"lon":5.35048,"is_reserved":false,"is_disabled":true,"rental_uris":{"android":"levelo://app?vid=6f21fba1-6f8e-47c4-a476-286cca5f9cc6","ios":"levelo://app?vid=6f21fba1-6f8e-47c4-a476-286cca5f9cc6"},"vehicle_type_id":"4","last_reported":1736086022,"current_range_meters":0,"station_id":"ce4bhbp2rcd13ifvqerg","pricing_plan_id":"cebpf4jnsgd1na2vs0mg"},{"bike_id":"21f0e3c2-495a-43ca-b213-21dd4a411241","system_id":"levelo_inurba_marseille","lat":43.28433,"lon":5.3916,"is_reserved":false,"is_disabled":false,"rental_uris":{"android":"levelo://app?vid=21f0e3c2-495a-43ca-b213-21dd4a411241","ios":"levelo://app?vid=21f0e3c2-495a-43ca-b213-21dd4a411241"},"vehicle_type_id":"4","last_reported":1736086022,"current_range_meters":38000,"station_id":"ce4bhoh2rcd13ifvqh5g","pricing_plan_id":"cebpf4jnsgd1na2vs0mg"},{"bike_id":"e7eaf25f-df45-47d4-93df-369884d28080","system_id":"levelo_inurba_marseille","lat":43.27367,"lon":5.36254,"is_reserved":false,"is_disabled":false,"rental_uris":{"android":"levelo://app?vid=e7eaf25f-df45-47d4-93df-369884d28080","ios":"levelo://app?vid=e7eaf25f-df45-47d4-93df-369884d28080"},"vehicle_type_id":"4","last_reported":1736086022,"current_range_meters":36800,"station_id":"ce4bhbh2rcd13ifvqeo0","pricing_plan_id":"cebpf4jnsgd1na2vs0mg"},{"bike_id":"38809ded-326f-4e88-931a-d1e9ec76f027","system_id":"levelo_inurba_marseille","lat":43.28105,"lon":5.37838,"is_reserved":false,"is_disabled":false,"rental_uris":{"android":"levelo://app?vid=38809ded-326f-4e88-931a-d1e9ec76f027","ios":"levelo://app?vid=38809ded-326f-4e88-931a-d1e9ec76f027"},"vehicle_type_id":"4","last_reported":1736086022,"current_range_meters":38800,"station_id":"ce4bha12rcd13ifvqee0","pricing_plan_id":"cebpf4jnsgd1na2vs0mg"},{"bike_id":"68756992-624b-4bb3-93b4-523c5d4484b9","system_id":"levelo_inurba_marseille","lat":43.29142,"lon":5.38592,"is_reserved":false,"is_disabled":false,"rental_uris":{"android":"levelo://app?vid=68756992-624b-4bb3-93b4-523c5d4484b9","ios":"levelo://app?vid=68756992-624b-4bb3-93b4-523c5d4484b9"},"vehicle_type_id":"4","last_reported":1736086022,"current_range_meters":25600,"station_id":"","pricing_plan_id":"cebpf4jnsgd1na2vs0mg"},{"bike_id":"ef443292-d458-4b19-a906-ec8eebf1fa29","system_id":"levelo_inurba_marseille","lat":43.30591,"lon":5.37198,"is_reserved":false,"is_disabled":false,"rental_uris":{"android":"levelo://app?vid=ef443292-d458-4b19-a906-ec8eebf1fa29","ios":"levelo://app?vid=ef443292-d458-4b19-a906-ec8eebf1fa29"},"vehicle_type_id":"4","last_reported":1736086022,"current_range_meters":18000,"station_id":"ce4bgqh2rcd13ifvqc4g","pricing_plan_id":"cebpf4jnsgd1na2vs0mg"},{"bike_id":"0bcfea18-61ca-412d-bded-b63f59943884","system_id":"levelo_inurba_marseille","lat":43.28622,"lon":5.351,"is_reserved":false,"is_disabled":true,"rental_uris":{"android":"levelo://app?vid=0bcfea18-61ca-412d-bded-b63f59943884","ios":"levelo://app?vid=0bcfea18-61ca-412d-bded-b63f59943884"},"vehicle_type_id":"4","last_reported":1736086022,"current_range_meters":38000,"station_id":"","pricing_plan_id":"cebpf4jnsgd1na2vs0mg"},{"bike_id":"c6d56091-aa30-465e-8a47-472a938d97a5","system_id":"levelo_inurba_marseille","lat":43.28418,"lon":5.37519,"is_reserved":false,"is_disabled":false,"rental_uris":{"android":"levelo://app?vid=c6d56091-aa30-465e-8a47-472a938d97a5","ios":"levelo://app?vid=c6d56091-aa30-465e-8a47-472a938d97a5"},"vehicle_type_id":"4","last_reported":1736086022,"current_range_meters":8000,"station_id":"ce4bh412rcd13ifvqds0","pricing_plan_id":"cebpf4jnsgd1na2vs0mg"},{"bike_id":"016d7e04-474f-4ce4-801c-0d0d26ea686a","system_id":"levelo_inurba_marseille","lat":43.29171,"lon":5.36035,"is_reserved":false,"is_disabled":false,"rental_uris":{"android":"levelo://app?vid=016d7e04-474f-4ce4-801c-0d0d26ea686a","ios":"levelo://app?vid=016d7e04-474f-4ce4-801c-0d0d26ea686a"},"vehicle_type_id":"4","last_reported":1736086022,"current_range_meters":3600,"station_id":"ce4bhbh2rcd13ifvqeqg","pricing_plan_id":"cebpf4jnsgd1na2vs0mg"},{"bike_id":"4c0caf09-a478-45a1-ba08-505b91e10b0c","system_id":"levelo_inurba_marseille","lat":43.29228,"lon":5.36071,"is_reserved":false,"is_disabled":false,"rental_uris":{"android":"levelo://app?vid=4c0caf09-a478-45a1-ba08-505b91e10b0c","ios":"levelo://app?vid=4c0caf09-a478-45a1-ba08-505b91e10b0c"},"vehicle_type_id":"4","last_reported":1736086022,"current_range_meters":19200,"station_id":"ce4bhbh2rcd13ifvqeqg","pricing_plan_id":"cebpf4jnsgd1na2vs0mg"},{"bike_id":"4d29d8ee-0808-4f38-84d5-f152acc8459a","system_id":"levelo_inurba_marseille","lat":43.295757,"lon":5.375026,"is_reserved":false,"is_disabled":true,"rental_uris":{"android":"levelo://app?vid=4d29d8ee-0808-4f38-84d5-f152acc8459a","ios":"levelo://app?vid=4d29d8ee-0808-4f38-84d5-f152acc8459a"},"vehicle_type_id":"4","last_reported":1736086022,"current_range_meters":37600,"station_id":"ce4bgh92rcd13ifvqb50","pricing_plan_id":"cebpf4jnsgd1na2vs0mg"},{"bike_id":"85cba0a3-d6ec-4723-83bf-95316674cece","system_id":"levelo_inurba_marseille","lat":43.27563,"lon":5.38413,"is_reserved":false,"is_disabled":true,"rental_uris":{"android":"levelo://app?vid=85cba0a3-d6ec-4723-83bf-95316674cece","ios":"levelo://app?vid=85cba0a3-d6ec-4723-83bf-95316674cece"},"vehicle_type_id":"4","last_reported":1736086022,"current_range_meters":800,"station_id":"ce4bhh92rcd13ifvqfi0","pricing_plan_id":"cebpf4jnsgd1na2vs0mg"},{"bike_id":"54ebb33f-05a4-4009-80c1-bc3f6de8f701","system_id":"levelo_inurba_marseille","lat":43.28397,"lon":5.37503,"is_reserved":false,"is_disabled":true,"rental_uris":{"android":"levelo://app?vid=54ebb33f-05a4-4009-80c1-bc3f6de8f701","ios":"levelo://app?vid=54ebb33f-05a4-4009-80c1-bc3f6de8f701"},"vehicle_type_id":"4","last_reported":1736086022,"current_range_meters":2000,"station_id":"ce4bh412rcd13ifvqds0","pricing_plan_id":"cebpf4jnsgd1na2vs0mg"},{"bike_id":"eb322fa0-38c7-4498-8e9e-ec9b12e70d23","system_id":"levelo_inurba_marseille","lat":43.29937,"lon":5.3655,"is_reserved":false,"is_disabled":false,"rental_uris":{"android":"levelo://app?vid=eb322fa0-38c7-4498-8e9e-ec9b12e70d23","ios":"levelo://app?vid=eb322fa0-38c7-4498-8e9e-ec9b12e70d23"},"vehicle_type_id":"4","last_reported":1736086022,"current_range_meters":32000,"station_id":"ce4bgm92rcd13ifvqbr0","pricing_plan_id":"cebpf4jnsgd1na2vs0mg"},{"bike_id":"266d97a0-8b6a-4815-8e1e-a29e516886ab","system_id":"levelo_inurba_marseille","lat":43.3237,"lon":5.36766,"is_reserved":false,"is_disabled":false,"rental_uris":{"android":"levelo://app?vid=266d97a0-8b6a-4815-8e1e-a29e516886ab","ios":"levelo://app?vid=266d97a0-8b6a-4815-8e1e-a29e516886ab"},"vehicle_type_id":"4","last_reported":1736086022,"current_range_meters":32400,"station_id":"ce4bhsh2rcd13ifvqi2g","pricing_plan_id":"cebpf4jnsgd1na2vs0mg"},{"bike_id":"a7224998-3cd1-44ad-8892-e18e0ad97675","system_id":"levelo_inurba_marseille","lat":43.2467,"lon":5.38165,"is_reserved":false,"is_disabled":false,"rental_uris":{"android":"levelo://app?vid=a7224998-3cd1-44ad-8892-e18e0ad97675","ios":"levelo://app?vid=a7224998-3cd1-44ad-8892-e18e0ad97675"},"vehicle_type_id":"4","last_reported":1736086022,"current_range_meters":38800,"station_id":"ce4bhih2rcd13ifvqfr0","pricing_plan_id":"cebpf4jnsgd1na2vs0mg"},{"bike_id":"44d006be-70be-45b8-b039-62d0905c3f17","system_id":"levelo_inurba_marseille","lat":43.28346,"lon":5.38111,"is_reserved":false,"is_disabled":false,"rental_uris":{"android":"levelo://app?vid=44d006be-70be-45b8-b039-62d0905c3f17","ios":"levelo://app?vid=44d006be-70be-45b8-b039-62d0905c3f17"},"vehicle_type_id":"4","last_reported":1736086022,"current_range_meters":32400,"station_id":"ce4bh412rcd13ifvqdr0","pricing_plan_id":"cebpf4jnsgd1na2vs0mg"},{"bike_id":"2937c8f0-6f06-4c7f-8240-41ad44bc55fa","system_id":"levelo_inurba_marseille","lat":43.23182,"lon":5.4,"is_reserved":false,"is_disabled":false,"rental_uris":{"android":"levelo://app?vid=2937c8f0-6f06-4c7f-8240-41ad44bc55fa","ios":"levelo://app?vid=2937c8f0-6f06-4c7f-8240-41ad44bc55fa"},"vehicle_type_id":"4","last_reported":1736086022,"current_range_meters":21600,"station_id":"ce4bhn12rcd13ifvqgqg","pricing_plan_id":"cebpf4jnsgd1na2vs0mg"},{"bike_id":"c64b2e17-ecfc-463c-a656-f757a30f1981","system_id":"levelo_inurba_marseille","lat":43.27369,"lon":5.36246,"is_reserved":false,"is_disabled":false,"rental_uris":{"android":"levelo://app?vid=c64b2e17-ecfc-463c-a656-f757a30f1981","ios":"levelo://app?vid=c64b2e17-ecfc-463c-a656-f757a30f1981"},"vehicle_type_id":"4","last_reported":1736086022,"current_range_meters":28000,"station_id":"ce4bhbh2rcd13ifvqeo0","pricing_plan_id":"cebpf4jnsgd1na2vs0mg"},{"bike_id":"e0ee4d47-9ec0-42b1-97e1-6730629e9b12","system_id":"levelo_inurba_marseille","lat":43.28153,"lon":5.42637,"is_reserved":false,"is_disabled":false,"rental_uris":{"android":"levelo://app?vid=e0ee4d47-9ec0-42b1-97e1-6730629e9b12","ios":"levelo://app?vid=e0ee4d47-9ec0-42b1-97e1-6730629e9b12"},"vehicle_type_id":"4","last_reported":1736086022,"current_range_meters":27200,"station_id":"ce4bhnh2rcd13ifvqgug","pricing_plan_id":"cebpf4jnsgd1na2vs0mg"},{"bike_id":"aeb11a18-5c0d-4c29-aa0a-428d2c6fd8b0","system_id":"levelo_inurba_marseille","lat":43.32658,"lon":5.40995,"is_reserved":false,"is_disabled":false,"rental_uris":{"android":"levelo://app?vid=aeb11a18-5c0d-4c29-aa0a-428d2c6fd8b0","ios":"levelo://app?vid=aeb11a18-5c0d-4c29-aa0a-428d2c6fd8b0"},"vehicle_type_id":"4","last_reported":1736086022,"current_range_meters":3600,"station_id":"ce4bhpp2rcd13ifvqhgg","pricing_plan_id":"cebpf4jnsgd1na2vs0mg"},{"bike_id":"256cca08-8899-4983-9936-2040f721b804","system_id":"levelo_inurba_marseille","lat":43.28834,"lon":5.39338,"is_reserved":false,"is_disabled":false,"rental_uris":{"android":"levelo://app?vid=256cca08-8899-4983-9936-2040f721b804","ios":"levelo://app?vid=256cca08-8899-4983-9936-2040f721b804"},"vehicle_type_id":"4","last_reported":1736086022,"current_range_meters":30000,"station_id":"ce4bh2p2rcd13ifvqdi0","pricing_plan_id":"cebpf4jnsgd1na2vs0mg"},{"bike_id":"f49298c6-b208-404d-bb0c-160ccbda2eed","system_id":"levelo_inurba_marseille","lat":43.27981,"lon":5.40022,"is_reserved":false,"is_disabled":true,"rental_uris":{"android":"levelo://app?vid=f49298c6-b208-404d-bb0c-160ccbda2eed","ios":"levelo://app?vid=f49298c6-b208-404d-bb0c-160ccbda2eed"},"vehicle_type_id":"4","last_reported":1736086022,"current_range_meters":38800,"station_id":"ce4bho92rcd13ifvqh4g","pricing_plan_id":"cebpf4jnsgd1na2vs0mg"},{"bike_id":"2c354e5f-37ab-453c-814e-0e1e1d3051e2","system_id":"levelo_inurba_marseille","lat":43.31357,"lon":5.38494,"is_reserved":false,"is_disabled":true,"rental_uris":{"android":"levelo://app?vid=2c354e5f-37ab-453c-814e-0e1e1d3051e2","ios":"levelo://app?vid=2c354e5f-37ab-453c-814e-0e1e1d3051e2"},"vehicle_type_id":"4","last_reported":1736086022,"current_range_meters":20800,"station_id":"ce4bgt92rcd13ifvqcf0","pricing_plan_id":"cebpf4jnsgd1na2vs0mg"},{"bike_id":"d014f699-d84d-436b-b3bf-8c059d18ea89","system_id":"levelo_inurba_marseille","lat":43.22926,"lon":5.35378,"is_reserved":false,"is_disabled":false,"rental_uris":{"android":"levelo://app?vid=d014f699-d84d-436b-b3bf-8c059d18ea89","ios":"levelo://app?vid=d014f699-d84d-436b-b3bf-8c059d18ea89"},"vehicle_type_id":"4","last_reported":1736086022,"current_range_meters":17200,"station_id":"cpo3532slgdg3j2ikp40","pricing_plan_id":"cebpf4jnsgd1na2vs0mg"},{"bike_id":"063ff9d7-98a5-4202-8b41-443712d43cfa","system_id":"levelo_inurba_marseille","lat":43.28158,"lon":5.42668,"is_reserved":false,"is_disabled":false,"rental_uris":{"android":"levelo://app?vid=063ff9d7-98a5-4202-8b41-443712d43cfa","ios":"levelo://app?vid=063ff9d7-98a5-4202-8b41-443712d43cfa"},"vehicle_type_id":"4","last_reported":1736086022,"current_range_meters":31200,"station_id":"ce4bhnh2rcd13ifvqgug","pricing_plan_id":"cebpf4jnsgd1na2vs0mg"},{"bike_id":"67b8490e-34bd-456a-8501-d75de224ca9f","system_id":"levelo_inurba_marseille","lat":43.29005,"lon":5.35611,"is_reserved":false,"is_disabled":false,"rental_uris":{"android":"levelo://app?vid=67b8490e-34bd-456a-8501-d75de224ca9f","ios":"levelo://app?vid=67b8490e-34bd-456a-8501-d75de224ca9f"},"vehicle_type_id":"4","last_reported":1736086022,"current_range_meters":33600,"station_id":"ce4bhb92rcd13ifvqen0","pricing_plan_id":"cebpf4jnsgd1na2vs0mg"},{"bike_id":"c420422e-e5ff-46aa-9ade-56c25e82f06d","system_id":"levelo_inurba_marseille","lat":43.23201,"lon":5.35556,"is_reserved":false,"is_disabled":false,"rental_uris":{"android":"levelo://app?vid=c420422e-e5ff-46aa-9ade-56c25e82f06d","ios":"levelo://app?vid=c420422e-e5ff-46aa-9ade-56c25e82f06d"},"vehicle_type_id":"4","last_reported":1736086022,"current_range_meters":38800,"station_id":"ce4bhu92rcd13ifvqi70","pricing_plan_id":"cebpf4jnsgd1na2vs0mg"},{"bike_id":"ef72cdb4-465d-4178-b952-49906f159c48","system_id":"levelo_inurba_marseille","lat":43.28154,"lon":5.42642,"is_reserved":false,"is_disabled":false,"rental_uris":{"android":"levelo://app?vid=ef72cdb4-465d-4178-b952-49906f159c48","ios":"levelo://app?vid=ef72cdb4-465d-4178-b952-49906f159c48"},"vehicle_type_id":"4","last_reported":1736086022,"current_range_meters":10000,"station_id":"ce4bhnh2rcd13ifvqgug","pricing_plan_id":"cebpf4jnsgd1na2vs0mg"},{"bike_id":"40d9daef-6594-4c3d-84c3-f16a86a6f77c","system_id":"levelo_inurba_marseille","lat":43.25505,"lon":5.3765,"is_reserved":false,"is_disabled":false,"rental_uris":{"android":"levelo://app?vid=40d9daef-6594-4c3d-84c3-f16a86a6f77c","ios":"levelo://app?vid=40d9daef-6594-4c3d-84c3-f16a86a6f77c"},"vehicle_type_id":"4","last_reported":1736086022,"current_range_meters":28800,"station_id":"ce4bhh12rcd13ifvqff0","pricing_plan_id":"cebpf4jnsgd1na2vs0mg"},{"bike_id":"6dc1918f-bf1e-43bd-8c71-f50a30a73462","system_id":"levelo_inurba_marseille","lat":43.28616,"lon":5.35099,"is_reserved":false,"is_disabled":false,"rental_uris":{"android":"levelo://app?vid=6dc1918f-bf1e-43bd-8c71-f50a30a73462","ios":"levelo://app?vid=6dc1918f-bf1e-43bd-8c71-f50a30a73462"},"vehicle_type_id":"4","last_reported":1736086022,"current_range_meters":30400,"station_id":"ce4bhch2rcd13ifvqeug","pricing_plan_id":"cebpf4jnsgd1na2vs0mg"},{"bike_id":"a2fd8310-05b2-4353-a822-b449cc0178c4","system_id":"levelo_inurba_marseille","lat":43.25493,"lon":5.37645,"is_reserved":false,"is_disabled":false,"rental_uris":{"android":"levelo://app?vid=a2fd8310-05b2-4353-a822-b449cc0178c4","ios":"levelo://app?vid=a2fd8310-05b2-4353-a822-b449cc0178c4"},"vehicle_type_id":"4","last_reported":1736086022,"current_range_meters":2800,"station_id":"ce4bhh12rcd13ifvqff0","pricing_plan_id":"cebpf4jnsgd1na2vs0mg"},{"bike_id":"3a8437c3-0621-43b9-919d-157d9041ad0f","system_id":"levelo_inurba_marseille","lat":43.29908,"lon":5.37469,"is_reserved":false,"is_disabled":false,"rental_uris":{"android":"levelo://app?vid=3a8437c3-0621-43b9-919d-157d9041ad0f","ios":"levelo://app?vid=3a8437c3-0621-43b9-919d-157d9041ad0f"},"vehicle_type_id":"4","last_reported":1736086022,"current_range_meters":38800,"station_id":"ce4bgjh2rcd13ifvqbg0","pricing_plan_id":"cebpf4jnsgd1na2vs0mg"},{"bike_id":"83d1fcce-5530-4c3f-989c-31b7f42a2672","system_id":"levelo_inurba_marseille","lat":43.28417,"lon":5.37511,"is_reserved":false,"is_disabled":false,"rental_uris":{"android":"levelo://app?vid=83d1fcce-5530-4c3f-989c-31b7f42a2672","ios":"levelo://app?vid=83d1fcce-5530-4c3f-989c-31b7f42a2672"},"vehicle_type_id":"4","last_reported":1736086022,"current_range_meters":38000,"station_id":"ce4bh412rcd13ifvqds0","pricing_plan_id":"cebpf4jnsgd1na2vs0mg"},{"bike_id":"84d6c7b0-4918-4cce-b3d1-903ef4b4e2a5","system_id":"levelo_inurba_marseille","lat":43.30593,"lon":5.37225,"is_reserved":false,"is_disabled":false,"rental_uris":{"android":"levelo://app?vid=84d6c7b0-4918-4cce-b3d1-903ef4b4e2a5","ios":"levelo://app?vid=84d6c7b0-4918-4cce-b3d1-903ef4b4e2a5"},"vehicle_type_id":"4","last_reported":1736086022,"current_range_meters":25200,"station_id":"ce4bgqh2rcd13ifvqc4g","pricing_plan_id":"cebpf4jnsgd1na2vs0mg"},{"bike_id":"034634e8-df7e-4e4b-8c70-2d241bb20714","system_id":"levelo_inurba_marseille","lat":43.24996,"lon":5.38925,"is_reserved":false,"is_disabled":false,"rental_uris":{"android":"levelo://app?vid=034634e8-df7e-4e4b-8c70-2d241bb20714","ios":"levelo://app?vid=034634e8-df7e-4e4b-8c70-2d241bb20714"},"vehicle_type_id":"4","last_reported":1736086022,"current_range_meters":18000,"station_id":"ce4bhgp2rcd13ifvqfd0","pricing_plan_id":"cebpf4jnsgd1na2vs0mg"},{"bike_id":"38001abe-69ed-445f-bade-9ec7480e0e07","system_id":"levelo_inurba_marseille","lat":43.31701,"lon":5.37757,"is_reserved":false,"is_disabled":false,"rental_uris":{"android":"levelo://app?vid=38001abe-69ed-445f-bade-9ec7480e0e07","ios":"levelo://app?vid=38001abe-69ed-445f-bade-9ec7480e0e07"},"vehicle_type_id":"4","last_reported":1736086022,"current_range_meters":38800,"station_id":"ce4bgth2rcd13ifvqch0","pricing_plan_id":"cebpf4jnsgd1na2vs0mg"},{"bike_id":"e9c200db-965f-4b2c-bd5a-0dc123dcc0e0","system_id":"levelo_inurba_marseille","lat":43.24717,"lon":5.38154,"is_reserved":false,"is_disabled":false,"rental_uris":{"android":"levelo://app?vid=e9c200db-965f-4b2c-bd5a-0dc123dcc0e0","ios":"levelo://app?vid=e9c200db-965f-4b2c-bd5a-0dc123dcc0e0"},"vehicle_type_id":"4","last_reported":1736086022,"current_range_meters":18000,"station_id":"ce4bhih2rcd13ifvqfr0","pricing_plan_id":"cebpf4jnsgd1na2vs0mg"},{"bike_id":"84a31c3e-c0c4-436e-80c0-28fc54572369","system_id":"levelo_inurba_marseille","lat":43.25715,"lon":5.4112,"is_reserved":false,"is_disabled":false,"rental_uris":{"android":"levelo://app?vid=84a31c3e-c0c4-436e-80c0-28fc54572369","ios":"levelo://app?vid=84a31c3e-c0c4-436e-80c0-28fc54572369"},"vehicle_type_id":"4","last_reported":1736086022,"current_range_meters":34800,"station_id":"ce4bhkp2rcd13ifvqgd0","pricing_plan_id":"cebpf4jnsgd1na2vs0mg"},{"bike_id":"f3d77e72-0e00-4323-aa2f-62becd0e36f6","system_id":"levelo_inurba_marseille","lat":43.22928,"lon":5.35384,"is_reserved":false,"is_disabled":false,"rental_uris":{"android":"levelo://app?vid=f3d77e72-0e00-4323-aa2f-62becd0e36f6","ios":"levelo://app?vid=f3d77e72-0e00-4323-aa2f-62becd0e36f6"},"vehicle_type_id":"4","last_reported":1736086022,"current_range_meters":38800,"station_id":"cpo3532slgdg3j2ikp40","pricing_plan_id":"cebpf4jnsgd1na2vs0mg"},{"bike_id":"e4fb0db6-c070-4f7c-b34e-a54f29d45562","system_id":"levelo_inurba_marseille","lat":43.27989,"lon":5.41659,"is_reserved":false,"is_disabled":false,"rental_uris":{"android":"levelo://app?vid=e4fb0db6-c070-4f7c-b34e-a54f29d45562","ios":"levelo://app?vid=e4fb0db6-c070-4f7c-b34e-a54f29d45562"},"vehicle_type_id":"4","last_reported":1736086022,"current_range_meters":15200,"station_id":"ce4bho12rcd13ifvqh1g","pricing_plan_id":"cebpf4jnsgd1na2vs0mg"},{"bike_id":"08e6eb5d-4c6d-4f4c-96d7-e19ff980146d","system_id":"levelo_inurba_marseille","lat":43.32083,"lon":5.36777,"is_reserved":false,"is_disabled":false,"rental_uris":{"android":"levelo://app?vid=08e6eb5d-4c6d-4f4c-96d7-e19ff980146d","ios":"levelo://app?vid=08e6eb5d-4c6d-4f4c-96d7-e19ff980146d"},"vehicle_type_id":"4","last_reported":1736086022,"current_range_meters":10800,"station_id":"ce4bhrh2rcd13ifvqhug","pricing_plan_id":"cebpf4jnsgd1na2vs0mg"},{"bike_id":"0c2252dc-9fb3-466a-86d2-5c1056f9f743","system_id":"levelo_inurba_marseille","lat":43.25012,"lon":5.38918,"is_reserved":false,"is_disabled":false,"rental_uris":{"android":"levelo://app?vid=0c2252dc-9fb3-466a-86d2-5c1056f9f743","ios":"levelo://app?vid=0c2252dc-9fb3-466a-86d2-5c1056f9f743"},"vehicle_type_id":"4","last_reported":1736086022,"current_range_meters":38800,"station_id":"ce4bhgp2rcd13ifvqfd0","pricing_plan_id":"cebpf4jnsgd1na2vs0mg"},{"bike_id":"70d1fae7-1346-4be5-88c1-c1dd75c31512","system_id":"levelo_inurba_marseille","lat":43.26052,"lon":5.39422,"is_reserved":false,"is_disabled":false,"rental_uris":{"android":"levelo://app?vid=70d1fae7-1346-4be5-88c1-c1dd75c31512","ios":"levelo://app?vid=70d1fae7-1346-4be5-88c1-c1dd75c31512"},"vehicle_type_id":"4","last_reported":1736086022,"current_range_meters":28400,"station_id":"ce4bhh92rcd13ifvqfj0","pricing_plan_id":"cebpf4jnsgd1na2vs0mg"},{"bike_id":"3ad4b63d-3050-40c2-8de7-90d7069746cd","system_id":"levelo_inurba_marseille","lat":43.28646,"lon":5.35089,"is_reserved":false,"is_disabled":false,"rental_uris":{"android":"levelo://app?vid=3ad4b63d-3050-40c2-8de7-90d7069746cd","ios":"levelo://app?vid=3ad4b63d-3050-40c2-8de7-90d7069746cd"},"vehicle_type_id":"4","last_reported":1736086022,"current_range_meters":28800,"station_id":"ce4bhch2rcd13ifvqeug","pricing_plan_id":"cebpf4jnsgd1na2vs0mg"},{"bike_id":"c4a48190-8d9a-463d-a570-4e46b701a6a8","system_id":"levelo_inurba_marseille","lat":43.29821,"lon":5.36258,"is_reserved":false,"is_disabled":false,"rental_uris":{"android":"levelo://app?vid=c4a48190-8d9a-463d-a570-4e46b701a6a8","ios":"levelo://app?vid=c4a48190-8d9a-463d-a570-4e46b701a6a8"},"vehicle_type_id":"4","last_reported":1736086022,"current_range_meters":34800,"station_id":"ce4bgpp2rcd13ifvqc3g","pricing_plan_id":"cebpf4jnsgd1na2vs0mg"},{"bike_id":"36e4597c-975d-4f90-a579-29a3fcd58809","system_id":"levelo_inurba_marseille","lat":43.26201,"lon":5.37923,"is_reserved":false,"is_disabled":false,"rental_uris":{"android":"levelo://app?vid=36e4597c-975d-4f90-a579-29a3fcd58809","ios":"levelo://app?vid=36e4597c-975d-4f90-a579-29a3fcd58809"},"vehicle_type_id":"4","last_reported":1736086022,"current_range_meters":27600,"station_id":"ce4bhjp2rcd13ifvqg90","pricing_plan_id":"cebpf4jnsgd1na2vs0mg"},{"bike_id":"defa2d01-331b-4e90-9646-0cd5cd8b698b","system_id":"levelo_inurba_marseille","lat":43.29568,"lon":5.37522,"is_reserved":false,"is_disabled":false,"rental_uris":{"android":"levelo://app?vid=defa2d01-331b-4e90-9646-0cd5cd8b698b","ios":"levelo://app?vid=defa2d01-331b-4e90-9646-0cd5cd8b698b"},"vehicle_type_id":"4","last_reported":1736086022,"current_range_meters":17200,"station_id":"ce4bgh92rcd13ifvqb50","pricing_plan_id":"cebpf4jnsgd1na2vs0mg"},{"bike_id":"39b29e4c-6331-4a78-a264-a958fc64e914","system_id":"levelo_inurba_marseille","lat":43.2919,"lon":5.35802,"is_reserved":false,"is_disabled":false,"rental_uris":{"android":"levelo://app?vid=39b29e4c-6331-4a78-a264-a958fc64e914","ios":"levelo://app?vid=39b29e4c-6331-4a78-a264-a958fc64e914"},"vehicle_type_id":"4","last_reported":1736086022,"current_range_meters":25200,"station_id":"ce4bhb12rcd13ifvqel0","pricing_plan_id":"cebpf4jnsgd1na2vs0mg"},