{"last_updated":1700626134,"ttl":30,"version":"2.2","data":{"bikes":[{"bike_id":"f09bd1ef-8a14-48f9-ba98-e157ded62741","system_id":"levelo_inurba_marseille","lat":43.312239,"lon":5.368562,"is_reserved":false,"is_disabled":false,"rental_uris":{"android":"levelo://app?vid=f09bd1ef-8a14-48f9-ba98-e157ded62741","ios":"levelo://app?vid=f09bd1ef-8a14-48f9-ba98-e157ded62741"},"vehicle_type_id":"4","last_reported":1700626134,"current_range_meters":20400,"station_id":"ce4bgl92rcd13ifvqbq0","pricing_plan_id":"free"},{"bike_id":"452d0500-0114-4433-86a9-63d9b0ac3b65","system_id":"levelo_inurba_marseille","lat":43.313391,"lon":5.36706,"is_reserved":false,"is_disabled":false,"rental_uris":{"android":"levelo://app?vid=452d0500-0114-4433-86a9-63d9b0ac3b65","ios":"levelo://app?vid=452d0500-0114-4433-86a9-63d9b0ac3b65"},"vehicle_type_id":"4","last_reported":1700626134,"current_range_meters":30000,"station_id":"ce4bgr92rcd13ifvqc6g","pricing_plan_id":"free"},{"bike_id":"38b1a484-aea1-44b9-b79f-1b7fec3ef1c0","system_id":"levelo_inurba_marseille","lat":43.313391,"lon":5.36706,"is_reserved":false,"is_disabled":false,"rental_uris":{"android":"levelo://app?vid=38b1a484-aea1-44b9-b79f-1b7fec3ef1c0","ios":"levelo://app?vid=38b1a484-aea1-44b9-b79f-1b7fec3ef1c0"},"vehicle_type_id":"4","last_reported":1700626134,"current_range_meters":13200,"station_id":"ce4bgr92rcd13ifvqc6g","pricing_plan_id":"free"},{"bike_id":"3884a088-af18-46fe-8e18-558686e70f22","system_id":"levelo_inurba_marseille","lat":43.313391,"lon":5.36706,"is_reserved":false,"is_disabled":false,"rental_uris":{"android":"levelo://app?vid=3884a088-af18-46fe-8e18-558686e70f22","ios":"levelo://app?vid=3884a088-af18-46fe-8e18-558686e70f22"},"vehicle_type_id":"4","last_reported":1700626134,"current_range_meters":24000,"station_id":"ce4bgr92rcd13ifvqc6g","pricing_plan_id":"free"},{"bike_id":"8edbf2d4-c498-48e5-9656-b32fb4d46fed","system_id":"levelo_inurba_marseille","lat":43.312239,"lon":5.368562,"is_reserved":false,"is_disabled":false,"rental_uris":{"android":"levelo://app?vid=8edbf2d4-c498-48e5-9656-b32fb4d46fed","ios":"levelo://app?vid=8edbf2d4-c498-48e5-9656-b32fb4d46fed"},"vehicle_type_id":"4","last_reported":1700626134,"current_range_meters":31200,"station_id":"ce4bgl92rcd13ifvqbq0","pricing_plan_id":"free"},{"bike_id":"9287ebcd-15be-4598-af60-a950959562a0","system_id":"levelo_inurba_marseille","lat":43.312239,"lon":5.368562,"is_reserved":false,"is_disabled":false,"rental_uris":{"android":"levelo://app?vid=9287ebcd-15be-4598-af60-a950959562a0","ios":"levelo://app?vid=9287ebcd-15be-4598-af60-a950959562a0"},"vehicle_type_id":"4","last_reported":1700626134,"current_range_meters":6800,"station_id":"ce4bgl92rcd13ifvqbq0","pricing_plan_id":"free"},{"bike_id":"b32d8c7a-e17e-4e1c-a8b4-11b257a32eab","system_id":"levelo_inurba_marseille","lat":43.312239,"lon":5.368562,"is_reserved":false,"is_disabled":false,"rental_uris":{"android":"levelo://app?vid=b32d8c7a-e17e-4e1c-a8b4-11b257a32eab","ios":"levelo://app?vid=b32d8c7a-e17e-4e1c-a8b4-11b257a32eab"},"vehicle_type_id":"4","last_reported":1700626134,"current_range_meters":26000,"station_id":"ce4bgl92rcd13ifvqbq0","pricing_plan_id":"free"},{"bike_id":"2fdc401a-d27a-4758-9c91-920dd7748296","system_id":"levelo_inurba_marseille","lat":43.312239,"lon":5.368562,"is_reserved":false,"is_disabled":false,"rental_uris":{"android":"levelo://app?vid=2fdc401a-d27a-4758-9c91-920dd7748296","ios":"levelo://app?vid=2fdc401a-d27a-4758-9c91-920dd7748296"},"vehicle_type_id":"4","last_reported":1700626134,"current_range_meters":30800,"station_id":"ce4bgl92rcd13ifvqbq0","pricing_plan_id":"free"},{"bike_id":"eeef4dbc-7602-4f26-b2c1-c3771c9b5dae","system_id":"levelo_inurba_marseille","lat":43.3115,"lon":5.36889,"is_reserved":false,"is_disabled":false,"rental_uris":{"android":"levelo://app?vid=eeef4dbc-7602-4f26-b2c1-c3771c9b5dae","ios":"levelo://app?vid=eeef4dbc-7602-4f26-b2c1-c3771c9b5dae"},"vehicle_type_id":"4","last_reported":1700626134,"current_range_meters":0,"station_id":"","pricing_plan_id":"free"},{"bike_id":"2ce4ffb5-a1de-445e-a44e-ddddc5548ab9","system_id":"levelo_inurba_marseille","lat":43.314811,"lon":5.373103,"is_reserved":false,"is_disabled":false,"rental_uris":{"android":"levelo://app?vid=2ce4ffb5-a1de-445e-a44e-ddddc5548ab9","ios":"levelo://app?vid=2ce4ffb5-a1de-445e-a44e-ddddc5548ab9"},"vehicle_type_id":"4","last_reported":1700626134,"current_range_meters":22800,"station_id":"ce4bgt12rcd13ifvqcd0","pricing_plan_id":"free"},{"bike_id":"c1778491-e63e-400f-9d76-1a6d4f2f4e90","system_id":"levelo_inurba_marseille","lat":43.314811,"lon":5.373103,"is_reserved":false,"is_disabled":false,"rental_uris":{"android":"levelo://app?vid=c1778491-e63e-400f-9d76-1a6d4f2f4e90","ios":"levelo://app?vid=c1778491-e63e-400f-9d76-1a6d4f2f4e90"},"vehicle_type_id":"4","last_reported":1700626134,"current_range_meters":27600,"station_id":"ce4bgt12rcd13ifvqcd0","pricing_plan_id":"free"},{"bike_id":"e8bbfcb1-bbae-4ac2-96a6-1c5eebe175f6","system_id":"levelo_inurba_marseille","lat":43.314811,"lon":5.373103,"is_reserved":false,"is_disabled":false,"rental_uris":{"android":"levelo://app?vid=e8bbfcb1-bbae-4ac2-96a6-1c5eebe175f6","ios":"levelo://app?vid=e8bbfcb1-bbae-4ac2-96a6-1c5eebe175f6"},"vehicle_type_id":"4","last_reported":1700626134,"current_range_meters":22000,"station_id":"ce4bgt12rcd13ifvqcd0","pricing_plan_id":"free"},{"bike_id":"e9737a6a-c768-4b39-b286-9f0ea50268ea","system_id":"levelo_inurba_marseille","lat":43.314811,"lon":5.373104,"is_reserved":false,"is_disabled":false,"rental_uris":{"android":"levelo://app?vid=e9737a6a-c768-4b39-b286-9f0ea50268ea","ios":"levelo://app?vid=e9737a6a-c768-4b39-b286-9f0ea50268ea"},"vehicle_type_id":"4","last_reported":1700626134,"current_range_meters":29600,"station_id":"ce4bgt12rcd13ifvqcd0","pricing_plan_id":"free"},{"bike_id":"bb4db2ae-5128-49ba-9109-0e27e8a8c6e6","system_id":"levelo_inurba_marseille","lat":43.309039,"lon":5.371797,"is_reserved":false,"is_disabled":false,"rental_uris":{"android":"levelo://app?vid=bb4db2ae-5128-49ba-9109-0e27e8a8c6e6","ios":"levelo://app?vid=bb4db2ae-5128-49ba-9109-0e27e8a8c6e6"},"vehicle_type_id":"4","last_reported":1700626134,"current_range_meters":28000,"station_id":"ce4bguh2rcd13ifvqckg","pricing_plan_id":"free"},{"bike_id":"2bc311dc-da0b-403e-8cae-84f8764bc67c","system_id":"levelo_inurba_marseille","lat":43.30679,"lon":5.3679,"is_reserved":false,"is_disabled":false,"rental_uris":{"android":"levelo://app?vid=2bc311dc-da0b-403e-8cae-84f8764bc67c","ios":"levelo://app?vid=2bc311dc-da0b-403e-8cae-84f8764bc67c"},"vehicle_type_id":"4","last_reported":1700626134,"current_range_meters":800,"station_id":"","pricing_plan_id":"free"},{"bike_id":"95583d67-b9fc-4ff1-93fd-5e2fbf3996b7","system_id":"levelo_inurba_marseille","lat":43.31961,"lon":5.3706,"is_reserved":false,"is_disabled":false,"rental_uris":{"android":"levelo://app?vid=95583d67-b9fc-4ff1-93fd-5e2fbf3996b7","ios":"levelo://app?vid=95583d67-b9fc-4ff1-93fd-5e2fbf3996b7"},"vehicle_type_id":"4","last_reported":1700626134,"current_range_meters":0,"station_id":"","pricing_plan_id":"free"},{"bike_id":"89db5ab1-631a-4788-bcf8-d5e1560619c3","system_id":"levelo_inurba_marseille","lat":43.305989,"lon":5.37225,"is_reserved":false,"is_disabled":false,"rental_uris":{"android":"levelo://app?vid=89db5ab1-631a-4788-bcf8-d5e1560619c3","ios":"levelo://app?vid=89db5ab1-631a-4788-bcf8-d5e1560619c3"},"vehicle_type_id":"4","last_reported":1700626134,"current_range_meters":20000,"station_id":"ce4bgqh2rcd13ifvqc4g","pricing_plan_id":"free"},{"bike_id":"bb2bfbcb-eaed-460c-8340-65b8c0a995f2","system_id":"levelo_inurba_marseille","lat":43.305989,"lon":5.37225,"is_reserved":false,"is_disabled":false,"rental_uris":{"android":"levelo://app?vid=bb2bfbcb-eaed-460c-8340-65b8c0a995f2","ios":"levelo://app?vid=bb2bfbcb-eaed-460c-8340-65b8c0a995f2"},"vehicle_type_id":"4","last_reported":1700626134,"current_range_meters":31200,"station_id":"ce4bgqh2rcd13ifvqc4g","pricing_plan_id":"free"},{"bike_id":"becd60c2-af99-4693-9537-74284e313a72","system_id":"levelo_inurba_marseille","lat":43.311125,"lon":5.377624,"is_reserved":false,"is_disabled":false,"rental_uris":{"android":"levelo://app?vid=becd60c2-af99-4693-9537-74284e313a72","ios":"levelo://app?vid=becd60c2-af99-4693-9537-74284e313a72"},"vehicle_type_id":"4","last_reported":1700626134,"current_range_meters":26400,"station_id":"ce4bgt92rcd13ifvqcg0","pricing_plan_id":"free"},{"bike_id":"eaa43a0b-5056-42f3-886f-f3ae58f961aa","system_id":"levelo_inurba_marseille","lat":43.311125,"lon":5.377624,"is_reserved":false,"is_disabled":false,"rental_uris":{"android":"levelo://app?vid=eaa43a0b-5056-42f3-886f-f3ae58f961aa","ios":"levelo://app?vid=eaa43a0b-5056-42f3-886f-f3ae58f961aa"},"vehicle_type_id":"4","last_reported":1700626134,"current_range_meters":31600,"station_id":"ce4bgt92rcd13ifvqcg0","pricing_plan_id":"free"},{"bike_id":"ed4e371a-c7ef-436d-83c7-a44f181d7bd7","system_id":"levelo_inurba_marseille","lat":43.311125,"lon":5.377624,"is_reserved":false,"is_disabled":false,"rental_uris":{"android":"levelo://app?vid=ed4e371a-c7ef-436d-83c7-a44f181d7bd7","ios":"levelo://app?vid=ed4e371a-c7ef-436d-83c7-a44f181d7bd7"},"vehicle_type_id":"4","last_reported":1700626134,"current_range_meters":19600,"station_id":"ce4bgt92rcd13ifvqcg0","pricing_plan_id":"free"},{"bike_id":"3873874f-080e-4404-9935-306196f53ea3","system_id":"levelo_inurba_marseille","lat":43.311125,"lon":5.377624,"is_reserved":false,"is_disabled":false,"rental_uris":{"android":"levelo://app?vid=3873874f-080e-4404-9935-306196f53ea3","ios":"levelo://app?vid=3873874f-080e-4404-9935-306196f53ea3"},"vehicle_type_id":"4","last_reported":1700626134,"current_range_meters":31200,"station_id":"ce4bgt92rcd13ifvqcg0","pricing_plan_id":"free"},{"bike_id":"cf206130-73d5-49c7-bb79-d9d5864fb487","system_id":"levelo_inurba_marseille","lat":43.311179,"lon":5.377773,"is_reserved":false,"is_disabled":false,"rental_uris":{"android":"levelo://app?vid=cf206130-73d5-49c7-bb79-d9d5864fb487","ios":"levelo://app?vid=cf206130-73d5-49c7-bb79-d9d5864fb487"},"vehicle_type_id":"4","last_reported":1700626134,"current_range_meters":22000,"station_id":"ce4bgt92rcd13ifvqcg0","pricing_plan_id":"free"},{"bike_id":"06284047-1e80-4933-bc3c-a8606f20a4a9","system_id":"levelo_inurba_marseille","lat":43.30815,"lon":5.37661,"is_reserved":false,"is_disabled":false,"rental_uris":{"android":"levelo://app?vid=06284047-1e80-4933-bc3c-a8606f20a4a9","ios":"levelo://app?vid=06284047-1e80-4933-bc3c-a8606f20a4a9"},"vehicle_type_id":"4","last_reported":1700626134,"current_range_meters":17200,"station_id":"ce4bgv92rcd13ifvqcq0","pricing_plan_id":"free"},{"bike_id":"f6d7d984-18c9-4ec8-8ad7-dbf7fa4fea9a","system_id":"levelo_inurba_marseille","lat":43.307945,"lon":5.376487,"is_reserved":false,"is_disabled":false,"rental_uris":{"android":"levelo://app?vid=f6d7d984-18c9-4ec8-8ad7-dbf7fa4fea9a","ios":"levelo://app?vid=f6d7d984-18c9-4ec8-8ad7-dbf7fa4fea9a"},"vehicle_type_id":"4","last_reported":1700626134,"current_range_meters":26000,"station_id":"ce4bgv92rcd13ifvqcq0","pricing_plan_id":"free"},{"bike_id":"07b3c161-e357-43af-bcf7-eee5965b408d","system_id":"levelo_inurba_marseille","lat":43.307945,"lon":5.376487,"is_reserved":false,"is_disabled":false,"rental_uris":{"android":"levelo://app?vid=07b3c161-e357-43af-bcf7-eee5965b408d","ios":"levelo://app?vid=07b3c161-e357-43af-bcf7-eee5965b408d"},"vehicle_type_id":"4","last_reported":1700626134,"current_range_meters":14400,"station_id":"ce4bgv92rcd13ifvqcq0","pricing_plan_id":"free"},{"bike_id":"062b335d-abb8-4a60-8451-39007cb58897","system_id":"levelo_inurba_marseille","lat":43.307945,"lon":5.376487,"is_reserved":false,"is_disabled":false,"rental_uris":{"android":"levelo://app?vid=062b335d-abb8-4a60-8451-39007cb58897","ios":"levelo://app?vid=062b335d-abb8-4a60-8451-39007cb58897"},"vehicle_type_id":"4","last_reported":1700626134,"current_range_meters":30000,"station_id":"ce4bgv92rcd13ifvqcq0","pricing_plan_id":"free"},{"bike_id":"a01947ce-d3f1-4178-a24b-0cddef23cdbe","system_id":"levelo_inurba_marseille","lat":43.303275,"lon":5.366241,"is_reserved":false,"is_disabled":false,"rental_uris":{"android":"levelo://app?vid=a01947ce-d3f1-4178-a24b-0cddef23cdbe","ios":"levelo://app?vid=a01947ce-d3f1-4178-a24b-0cddef23cdbe"},"vehicle_type_id":"4","last_reported":1700626134,"current_range_meters":0,"station_id":"","pricing_plan_id":"free"},{"bike_id":"0327687b-f51e-4077-bf49-2ec73a6de092","system_id":"levelo_inurba_marseille","lat":43.32237,"lon":5.37567,"is_reserved":false,"is_disabled":false,"rental_uris":{"android":"levelo://app?vid=0327687b-f51e-4077-bf49-2ec73a6de092","ios":"levelo://app?vid=0327687b-f51e-4077-bf49-2ec73a6de092"},"vehicle_type_id":"4","last_reported":1700626134,"current_range_meters":18000,"station_id":"","pricing_plan_id":"free"},{"bike_id":"3b8c06f7-c389-4cd1-91ab-043ba837e953","system_id":"levelo_inurba_marseille","lat":43.30811,"lon":5.38163,"is_reserved":false,"is_disabled":false,"rental_uris":{"android":"levelo://app?vid=3b8c06f7-c389-4cd1-91ab-043ba837e953","ios":"levelo://app?vid=3b8c06f7-c389-4cd1-91ab-043ba837e953"},"vehicle_type_id":"4","last_reported":1700626134,"current_range_meters":22000,"station_id":"ce4bgt12rcd13ifvqce0","pricing_plan_id":"free"},{"bike_id":"afa921fc-ca50-4532-aeb1-1de14ee2fe50","system_id":"levelo_inurba_marseille","lat":43.324771,"lon":5.36557,"is_reserved":false,"is_disabled":false,"rental_uris":{"android":"levelo://app?vid=afa921fc-ca50-4532-aeb1-1de14ee2fe50","ios":"levelo://app?vid=afa921fc-ca50-4532-aeb1-1de14ee2fe50"},"vehicle_type_id":"4","last_reported":1700626134,"current_range_meters":23200,"station_id":"ce4bhs12rcd13ifvqhvg","pricing_plan_id":"free"},{"bike_id":"199ec526-4731-4398-9b9a-18c040bfb356","system_id":"levelo_inurba_marseille","lat":43.304606,"lon":5.379026,"is_reserved":false,"is_disabled":false,"rental_uris":{"android":"levelo://app?vid=199ec526-4731-4398-9b9a-18c040bfb356","ios":"levelo://app?vid=199ec526-4731-4398-9b9a-18c040bfb356"},"vehicle_type_id":"4","last_reported":1700626134,"current_range_meters":23200,"station_id":"ce4bgup2rcd13ifvqcn0","pricing_plan_id":"free"},{"bike_id":"bc34910f-e814-4ae9-b8a7-8b8a77440ba7","system_id":"levelo_inurba_marseille","lat":43.304606,"lon":5.379026,"is_reserved":false,"is_disabled":false,"rental_uris":{"android":"levelo://app?vid=bc34910f-e814-4ae9-b8a7-8b8a77440ba7","ios":"levelo://app?vid=bc34910f-e814-4ae9-b8a7-8b8a77440ba7"},"vehicle_type_id":"4","last_reported":1700626134,"current_range_meters":26400,"station_id":"ce4bgup2rcd13ifvqcn0","pricing_plan_id":"free"},{"bike_id":"fbc7bcfa-2e1d-44a0-b806-d60eba3fc59d","system_id":"levelo_inurba_marseille","lat":43.304606,"lon":5.379026,"is_reserved":false,"is_disabled":false,"rental_uris":{"android":"levelo://app?vid=fbc7bcfa-2e1d-44a0-b806-d60eba3fc59d","ios":"levelo://app?vid=fbc7bcfa-2e1d-44a0-b806-d60eba3fc59d"},"vehicle_type_id":"4","last_reported":1700626134,"current_range_meters":14400,"station_id":"ce4bgup2rcd13ifvqcn0","pricing_plan_id":"free"},{"bike_id":"a037806c-504f-410e-8380-5102d23eea79","system_id":"levelo_inurba_marseille","lat":43.324771,"lon":5.36557,"is_reserved":false,"is_disabled":false,"rental_uris":{"android":"levelo://app?vid=a037806c-504f-410e-8380-5102d23eea79","ios":"levelo://app?vid=a037806c-504f-410e-8380-5102d23eea79"},"vehicle_type_id":"4","last_reported":1700626134,"current_range_meters":28000,"station_id":"ce4bhs12rcd13ifvqhvg","pricing_plan_id":"free"},{"bike_id":"07416aa9-3943-40b3-a82e-71b6bf2f00d4","system_id":"levelo_inurba_marseille","lat":43.304606,"lon":5.379026,"is_reserved":false,"is_disabled":false,"rental_uris":{"android":"levelo://app?vid=07416aa9-3943-40b3-a82e-71b6bf2f00d4","ios":"levelo://app?vid=07416aa9-3943-40b3-a82e-71b6bf2f00d4"},"vehicle_type_id":"4","last_reported":1700626134,"current_range_meters":29600,"station_id":"ce4bgup2rcd13ifvqcn0","pricing_plan_id":"free"},{"bike_id":"efabff1c-3100-47ab-b0c1-c4c402701731","system_id":"levelo_inurba_marseille","lat":43.301429,"lon":5.37413,"is_reserved":false,"is_disabled":false,"rental_uris":{"android":"levelo://app?vid=efabff1c-3100-47ab-b0c1-c4c402701731","ios":"levelo://app?vid=efabff1c-3100-47ab-b0c1-c4c402701731"},"vehicle_type_id":"4","last_reported":1700626134,"current_range_meters":31200,"station_id":"ce4bgs92rcd13ifvqcc0","pricing_plan_id":"free"},{"bike_id":"2e7db9a6-637f-405e-875b-4d0348551396","system_id":"levelo_inurba_marseille","lat":43.302784,"lon":5.377158,"is_reserved":false,"is_disabled":false,"rental_uris":{"android":"levelo://app?vid=2e7db9a6-637f-405e-875b-4d0348551396","ios":"levelo://app?vid=2e7db9a6-637f-405e-875b-4d0348551396"},"vehicle_type_id":"4","last_reported":1700626134,"current_range_meters":24000,"station_id":"ce4bguh2rcd13ifvqcj0","pricing_plan_id":"free"},{"bike_id":"b6bef19b-9ba8-4d51-8b70-c38bf53a3315","system_id":"levelo_inurba_marseille","lat":43.319945,"lon":5.381468,"is_reserved":false,"is_disabled":false,"rental_uris":{"android":"levelo://app?vid=b6bef19b-9ba8-4d51-8b70-c38bf53a3315","ios":"levelo://app?vid=b6bef19b-9ba8-4d51-8b70-c38bf53a3315"},"vehicle_type_id":"4","last_reported":1700626134,"current_range_meters":7200,"station_id":"ce4bhr12rcd13ifvqhpg","pricing_plan_id":"free"},{"bike_id":"4b4fe3d7-722a-45a1-81fc-9a019167f268","system_id":"levelo_inurba_marseille","lat":43.31993,"lon":5.38151,"is_reserved":false,"is_disabled":false,"rental_uris":{"android":"levelo://app?vid=4b4fe3d7-722a-45a1-81fc-9a019167f268","ios":"levelo://app?vid=4b4fe3d7-722a-45a1-81fc-9a019167f268"},"vehicle_type_id":"4","last_reported":1700626134,"current_range_meters":23600,"station_id":"ce4bhr12rcd13ifvqhpg","pricing_plan_id":"free"},{"bike_id":"510d0105-b866-48bb-8bdb-59b0079c0d7a","system_id":"levelo_inurba_marseille","lat":43.31997,"lon":5.381532,"is_reserved":false,"is_disabled":false,"rental_uris":{"android":"levelo://app?vid=510d0105-b866-48bb-8bdb-59b0079c0d7a","ios":"levelo://app?vid=510d0105-b866-48bb-8bdb-59b0079c0d7a"},"vehicle_type_id":"4","last_reported":1700626134,"current_range_meters":24000,"station_id":"ce4bhr12rcd13ifvqhpg","pricing_plan_id":"free"},{"bike_id":"60b2ded0-d1a7-45db-9839-4414089d9055","system_id":"levelo_inurba_marseille","lat":43.313571,"lon":5.384829,"is_reserved":false,"is_disabled":false,"rental_uris":{"android":"levelo://app?vid=60b2ded0-d1a7-45db-9839-4414089d9055","ios":"levelo://app?vid=60b2ded0-d1a7-45db-9839-4414089d9055"},"vehicle_type_id":"4","last_reported":1700626134,"current_range_meters":31200,"station_id":"ce4bgt92rcd13ifvqcf0","pricing_plan_id":"free"},{"bike_id":"d6bc12df-754f-4209-b8a5-736f119d8cbe","system_id":"levelo_inurba_marseille","lat":43.313571,"lon":5.384829,"is_reserved":false,"is_disabled":false,"rental_uris":{"android":"levelo://app?vid=d6bc12df-754f-4209-b8a5-736f119d8cbe","ios":"levelo://app?vid=d6bc12df-754f-4209-b8a5-736f119d8cbe"},"vehicle_type_id":"4","last_reported":1700626134,"current_range_meters":18800,"station_id":"ce4bgt92rcd13ifvqcf0","pricing_plan_id":"free"},{"bike_id":"b4e7e8a5-429b-4fa9-b969-621639380068","system_id":"levelo_inurba_marseille","lat":43.313571,"lon":5.384829,"is_reserved":false,"is_disabled":false,"rental_uris":{"android":"levelo://app?vid=b4e7e8a5-429b-4fa9-b969-621639380068","ios":"levelo://app?vid=b4e7e8a5-429b-4fa9-b969-621639380068"},"vehicle_type_id":"4","last_reported":1700626134,"current_range_meters":31200,"station_id":"ce4bgt92rcd13ifvqcf0","pricing_plan_id":"free"},{"bike_id":"913ad4a3-ecbc-405a-91b6-bce3ccac93ac","system_id":"levelo_inurba_marseille","lat":43.313571,"lon":5.384829,"is_reserved":false,"is_disabled":false,"rental_uris":{"android":"levelo://app?vid=913ad4a3-ecbc-405a-91b6-bce3ccac93ac","ios":"levelo://app?vid=913ad4a3-ecbc-405a-91b6-bce3ccac93ac"},"vehicle_type_id":"4","last_reported":1700626134,"current_range_meters":12800,"station_id":"ce4bgt92rcd13ifvqcf0","pricing_plan_id":"free"},{"bike_id":"9f82265e-4ebb-4f61-b86b-e3bc6133e1d0","system_id":"levelo_inurba_marseille","lat":43.313571,"lon":5.384829,"is_reserved":false,"is_disabled":false,"rental_uris":{"android":"levelo://app?vid=9f82265e-4ebb-4f61-b86b-e3bc6133e1d0","ios":"levelo://app?vid=9f82265e-4ebb-4f61-b86b-e3bc6133e1d0"},"vehicle_type_id":"4","last_reported":1700626134,"current_range_meters":20800,"station_id":"ce4bgt92rcd13ifvqcf0","pricing_plan_id":"free"},{"bike_id":"d44db64d-89f3-4e22-bc23-cdbd9c34a2b1","system_id":"levelo_inurba_marseille","lat":43.313571,"lon":5.384829,"is_reserved":false,"is_disabled":false,"rental_uris":{"android":"levelo://app?vid=d44db64d-89f3-4e22-bc23-cdbd9c34a2b1","ios":"levelo://app?vid=d44db64d-89f3-4e22-bc23-cdbd9c34a2b1"},"vehicle_type_id":"4","last_reported":1700626134,"current_range_meters":30800,"station_id":"ce4bgt92rcd13ifvqcf0","pricing_plan_id":"free"},{"bike_id":"0611b60d-cd98-4476-b935-f3b28300ca31","system_id":"levelo_inurba_marseille","lat":43.29977,"lon":5.371717,"is_reserved":false,"is_disabled":false,"rental_uris":{"android":"levelo://app?vid=0611b60d-cd98-4476-b935-f3b28300ca31","ios":"levelo://app?vid=0611b60d-cd98-4476-b935-f3b28300ca31"},"vehicle_type_id":"4","last_reported":1700626134,"current_range_meters":7200,"station_id":"ce4bgr92rcd13ifvqc7g","pricing_plan_id":"free"},{"bike_id":"fa9d0a30-5ff5-4db8-88cb-95e64695ccc9","system_id":"levelo_inurba_marseille","lat":43.311722,"lon":5.387247,"is_reserved":false,"is_disabled":false,"rental_uris":{"android":"levelo://app?vid=fa9d0a30-5ff5-4db8-88cb-95e64695ccc9","ios":"levelo://app?vid=fa9d0a30-5ff5-4db8-88cb-95e64695ccc9"},"vehicle_type_id":"4","last_reported":1700626134,"current_range_meters":8800,"station_id":"ce4bgv12rcd13ifvqcp0","pricing_plan_id":"free"},{"bike_id":"572a0db2-7ee4-49e3-bc13-bd5516e5135f","system_id":"levelo_inurba_marseille","lat":43.31173,"lon":5.38712,"is_reserved":false,"is_disabled":false,"rental_uris":{"android":"levelo://app?vid=572a0db2-7ee4-49e3-bc13-bd5516e5135f","ios":"levelo://app?vid=572a0db2-7ee4-49e3-bc13-bd5516e5135f"},"vehicle_type_id":"4","last_reported":1700626134,"current_range_meters":24000,"station_id":"ce4bgv12rcd13ifvqcp0","pricing_plan_id":"free"},{"bike_id":"134b0f9f-7d93-4cd9-89be-a38c5e0f8770","system_id":"levelo_inurba_marseille","lat":43.311801,"lon":5.387186,"is_reserved":false,"is_disabled":false,"rental_uris":{"android":"levelo://app?vid=134b0f9f-7d93-4cd9-89be-a38c5e0f8770","ios":"levelo://app?vid=134b0f9f-7d93-4cd9-89be-a38c5e0f8770"},"vehicle_type_id":"4","last_reported":1700626134,"current_range_meters":22400,"station_id":"ce4bgv12rcd13ifvqcp0","pricing_plan_id":"free"},{"bike_id":"98dbf9aa-d871-41a6-b1ac-81d1cc1e3f87","system_id":"levelo_inurba_marseille","lat":43.311722,"lon":5.387247,"is_reserved":false,"is_disabled":false,"rental_uris":{"android":"levelo://app?vid=98dbf9aa-d871-41a6-b1ac-81d1cc1e3f87","ios":"levelo://app?vid=98dbf9aa-d871-41a6-b1ac-81d1cc1e3f87"},"vehicle_type_id":"4","last_reported":1700626134,"current_range_meters":0,"station_id":"ce4bgv12rcd13ifvqcp0","pricing_plan_id":"free"},{"bike_id":"fba27455-dee1-4b26-877d-b9bd46efd025","system_id":"levelo_inurba_marseille","lat":43.311722,"lon":5.387247,"is_reserved":false,"is_disabled":false,"rental_uris":{"android":"levelo://app?vid=fba27455-dee1-4b26-877d-b9bd46efd025","ios":"levelo://app?vid=fba27455-dee1-4b26-877d-b9bd46efd025"},"vehicle_type_id":"4","last_reported":1700626134,"current_range_meters":28800,"station_id":"ce4bgv12rcd13ifvqcp0","pricing_plan_id":"free"},{"bike_id":"b4d19ff5-b46b-4e12-b086-e4d4ac4c72fc","system_id":"levelo_inurba_marseille","lat":43.311722,"lon":5.387247,"is_reserved":false,"is_disabled":false,"rental_uris":{"android":"levelo://app?vid=b4d19ff5-b46b-4e12-b086-e4d4ac4c72fc","ios":"levelo://app?vid=b4d19ff5-b46b-4e12-b086-e4d4ac4c72fc"},"vehicle_type_id":"4","last_reported":1700626134,"current_range_meters":23200,"station_id":"ce4bgv12rcd13ifvqcp0","pricing_plan_id":"free"},{"bike_id":"02e5d19a-9e76-457a-89b5-da160f5a5ac3","system_id":"levelo_inurba_marseille","lat":43.322872,"lon":5.382756,"is_reserved":false,"is_disabled":false,"rental_uris":{"android":"levelo://app?vid=02e5d19a-9e76-457a-89b5-da160f5a5ac3","ios":"levelo://app?vid=02e5d19a-9e76-457a-89b5-da160f5a5ac3"},"vehicle_type_id":"4","last_reported":1700626134,"current_range_meters":29200,"station_id":"ce4bhr12rcd13ifvqhqg","pricing_plan_id":"free"},{"bike_id":"6fb77720-138a-455f-ab7e-dd8f7a635f7a","system_id":"levelo_inurba_marseille","lat":43.328371,"lon":5.366909,"is_reserved":false,"is_disabled":false,"rental_uris":{"android":"levelo://app?vid=6fb77720-138a-455f-ab7e-dd8f7a635f7a","ios":"levelo://app?vid=6fb77720-138a-455f-ab7e-dd8f7a635f7a"},"vehicle_type_id":"4","last_reported":1700626134,"current_range_meters":7600,"station_id":"ce4bhs92rcd13ifvqi0g","pricing_plan_id":"free"},{"bike_id":"7ac9266d-53aa-46fd-84fc-136ca89e8d57","system_id":"levelo_inurba_marseille","lat":43.328371,"lon":5.366909,"is_reserved":false,"is_disabled":false,"rental_uris":{"android":"levelo://app?vid=7ac9266d-53aa-46fd-84fc-136ca89e8d57","ios":"levelo://app?vid=7ac9266d-53aa-46fd-84fc-136ca89e8d57"},"vehicle_type_id":"4","last_reported":1700626134,"current_range_meters":16800,"station_id":"ce4bhs92rcd13ifvqi0g","pricing_plan_id":"free"},{"bike_id":"6152776f-9b5a-4ba2-8519-780d74b2e6da","system_id":"levelo_inurba_marseille","lat":43.297063,"lon":5.365806,"is_reserved":false,"is_disabled":false,"rental_uris":{"android":"levelo://app?vid=6152776f-9b5a-4ba2-8519-780d74b2e6da","ios":"levelo://app?vid=6152776f-9b5a-4ba2-8519-780d74b2e6da"},"vehicle_type_id":"4","last_reported":1700626134,"current_range_meters":0,"station_id":"ce4bgn12rcd13ifvqbt0","pricing_plan_id":"free"},{"bike_id":"129394d9-db6a-4f3d-bcee-5369443cbc86","system_id":"levelo_inurba_marseille","lat":43.2968,"lon":5.37291,"is_reserved":false,"is_disabled":false,"rental_uris":{"android":"levelo://app?vid=129394d9-db6a-4f3d-bcee-5369443cbc86","ios":"levelo://app?vid=129394d9-db6a-4f3d-bcee-5369443cbc86"},"vehicle_type_id":"4","last_reported":1700626134,"current_range_meters":28400,"station_id":"ce4bgk12rcd13ifvqbj0","pricing_plan_id":"free"},{"bike_id":"fb594123-193c-4ab2-aed3-df8f690c0992","system_id":"levelo_inurba_marseille","lat":43.2968,"lon":5.37291,"is_reserved":false,"is_disabled":false,"rental_uris":{"android":"levelo://app?vid=fb594123-193c-4ab2-aed3-df8f690c0992","ios":"levelo://app?vid=fb594123-193c-4ab2-aed3-df8f690c0992"},"vehicle_type_id":"4","last_reported":1700626134,"current_range_meters":30000,"station_id":"ce4bgk12rcd13ifvqbj0","pricing_plan_id":"free"},{"bike_id":"d1794773-9626-4613-b585-6da1031c796d","system_id":"levelo_inurba_marseille","lat":43.309589,"lon":5.390258,"is_reserved":false,"is_disabled":false,"rental_uris":{"android":"levelo://app?vid=d1794773-9626-4613-b585-6da1031c796d","ios":"levelo://app?vid=d1794773-9626-4613-b585-6da1031c796d"},"vehicle_type_id":"4","last_reported":1700626134,"current_range_meters":28000,"station_id":"ce4bgup2rcd13ifvqco0","pricing_plan_id":"free"},{"bike_id":"641d6774-2383-457e-811e-201c5f66e8e6","system_id":"levelo_inurba_marseille","lat":43.309589,"lon":5.390258,"is_reserved":false,"is_disabled":false,"rental_uris":{"android":"levelo://app?vid=641d6774-2383-457e-811e-201c5f66e8e6","ios":"levelo://app?vid=641d6774-2383-457e-811e-201c5f66e8e6"},"vehicle_type_id":"4","last_reported":1700626134,"current_range_meters":21600,"station_id":"ce4bgup2rcd13ifvqco0","pricing_plan_id":"free"},{"bike_id":"9fb402a7-7a41-4473-81d2-1fec663a6035","system_id":"levelo_inurba_marseille","lat":43.305589,"lon":5.388674,"is_reserved":false,"is_disabled":false,"rental_uris":{"android":"levelo://app?vid=9fb402a7-7a41-4473-81d2-1fec663a6035","ios":"levelo://app?vid=9fb402a7-7a41-4473-81d2-1fec663a6035"},"vehicle_type_id":"4","last_reported":1700626134,"current_range_meters":26400,"station_id":"","pricing_plan_id":"free"},{"bike_id":"79dacdf6-a1f2-4eb4-8209-f5e43bda8af7","system_id":"levelo_inurba_marseille","lat":43.317557,"lon":5.390173,"is_reserved":false,"is_disabled":false,"rental_uris":{"android":"levelo://app?vid=79dacdf6-a1f2-4eb4-8209-f5e43bda8af7","ios":"levelo://app?vid=79dacdf6-a1f2-4eb4-8209-f5e43bda8af7"},"vehicle_type_id":"4","last_reported":1700626134,"current_range_meters":31200,"station_id":"ce4bhqp2rcd13ifvqhng","pricing_plan_id":"free"},{"bike_id":"f5687d22-4f10-4dd8-8227-485b35abf619","system_id":"levelo_inurba_marseille","lat":43.317557,"lon":5.390173,"is_reserved":false,"is_disabled":false,"rental_uris":{"android":"levelo://app?vid=f5687d22-4f10-4dd8-8227-485b35abf619","ios":"levelo://app?vid=f5687d22-4f10-4dd8-8227-485b35abf619"},"vehicle_type_id":"4","last_reported":1700626134,"current_range_meters":22400,"station_id":"ce4bhqp2rcd13ifvqhng","pricing_plan_id":"free"},{"bike_id":"2fee6dd3-e47f-460e-83e4-5d05fbb0cdd8","system_id":"levelo_inurba_marseille","lat":43.30438,"lon":5.38893,"is_reserved":false,"is_disabled":false,"rental_uris":{"android":"levelo://app?vid=2fee6dd3-e47f-460e-83e4-5d05fbb0cdd8","ios":"levelo://app?vid=2fee6dd3-e47f-460e-83e4-5d05fbb0cdd8"},"vehicle_type_id":"4","last_reported":1700626134,"current_range_meters":0,"station_id":"ce4bgk12rcd13ifvqbi0","pricing_plan_id":"free"},{"bike_id":"7c38a92f-9043-46e9-985b-b579031af7b3","system_id":"levelo_inurba_marseille","lat":43.295748,"lon":5.37522,"is_reserved":false,"is_disabled":false,"rental_uris":{"android":"levelo://app?vid=7c38a92f-9043-46e9-985b-b579031af7b3","ios":"levelo://app?vid=7c38a92f-9043-46e9-985b-b579031af7b3"},"vehicle_type_id":"4","last_reported":1700626134,"current_range_meters":15200,"station_id":"ce4bgh92rcd13ifvqb50","pricing_plan_id":"free"},{"bike_id":"3059d4c1-3d42-4321-a339-0fea9a03ef82","system_id":"levelo_inurba_marseille","lat":43.328154,"lon":5.380034,"is_reserved":false,"is_disabled":false,"rental_uris":{"android":"levelo://app?vid=3059d4c1-3d42-4321-a339-0fea9a03ef82","ios":"levelo://app?vid=3059d4c1-3d42-4321-a339-0fea9a03ef82"},"vehicle_type_id":"4","last_reported":1700626134,"current_range_meters":0,"station_id":"","pricing_plan_id":"free"},{"bike_id":"4e4bbc79-a8b2-454d-b620-98f090229d2b","system_id":"levelo_inurba_marseille","lat":43.304278,"lon":5.388868,"is_reserved":false,"is_disabled":false,"rental_uris":{"android":"levelo://app?vid=4e4bbc79-a8b2-454d-b620-98f090229d2b","ios":"levelo://app?vid=4e4bbc79-a8b2-454d-b620-98f090229d2b"},"vehicle_type_id":"4","last_reported":1700626134,"current_range_meters":30000,"station_id":"ce4bgk12rcd13ifvqbi0","pricing_plan_id":"free"},{"bike_id":"4c3e7008-5bd5-4ef6-b7d5-3cf81e26b2ec","system_id":"levelo_inurba_marseille","lat":43.295222,"lon":5.375008,"is_reserved":false,"is_disabled":false,"rental_uris":{"android":"levelo://app?vid=4c3e7008-5bd5-4ef6-b7d5-3cf81e26b2ec","ios":"levelo://app?vid=4c3e7008-5bd5-4ef6-b7d5-3cf81e26b2ec"},"vehicle_type_id":"4","last_reported":1700626134,"current_range_meters":2000,"station_id":"ce4bgkp2rcd13ifvqbmg","pricing_plan_id":"free"},{"bike_id":"6b621983-5e9e-42f7-990d-ad5a093820d2","system_id":"levelo_inurba_marseille","lat":43.293801,"lon":5.363066,"is_reserved":false,"is_disabled":false,"rental_uris":{"android":"levelo://app?vid=6b621983-5e9e-42f7-990d-ad5a093820d2","ios":"levelo://app?vid=6b621983-5e9e-42f7-990d-ad5a093820d2"},"vehicle_type_id":"4","last_reported":1700626134,"current_range_meters":13600,"station_id":"","pricing_plan_id":"free"},{"bike_id":"89b29b5a-d802-43db-962f-ffe92f87d98e","system_id":"levelo_inurba_marseille","lat":43.296771,"lon":5.381535,"is_reserved":false,"is_disabled":false,"rental_uris":{"android":"levelo://app?vid=89b29b5a-d802-43db-962f-ffe92f87d98e","ios":"levelo://app?vid=89b29b5a-d802-43db-962f-ffe92f87d98e"},"vehicle_type_id":"4","last_reported":1700626134,"current_range_meters":20400,"station_id":"","pricing_plan_id":"free"},{"bike_id":"7d95fc07-5490-4155-81f0-4ed34361d11a","system_id":"levelo_inurba_marseille","lat":43.32366,"lon":5.38878,"is_reserved":false,"is_disabled":false,"rental_uris":{"android":"levelo://app?vid=7d95fc07-5490-4155-81f0-4ed34361d11a","ios":"levelo://app?vid=7d95fc07-5490-4155-81f0-4ed34361d11a"},"vehicle_type_id":"4","last_reported":1700626134,"current_range_meters":7600,"station_id":"ce4bhqp2rcd13ifvqhog","pricing_plan_id":"free"},{"bike_id":"a8278f43-2fa1-44bf-950c-bb3486f33882","system_id":"levelo_inurba_marseille","lat":43.32361,"lon":5.38885,"is_reserved":false,"is_disabled":false,"rental_uris":{"android":"levelo://app?vid=a8278f43-2fa1-44bf-950c-bb3486f33882","ios":"levelo://app?vid=a8278f43-2fa1-44bf-950c-bb3486f33882"},"vehicle_type_id":"4","last_reported":1700626134,"current_range_meters":0,"station_id":"ce4bhqp2rcd13ifvqhog","pricing_plan_id":"free"},{"bike_id":"5902f4d9-88c4-471c-b191-ae5764f0e612","system_id":"levelo_inurba_marseille","lat":43.32365,"lon":5.38882,"is_reserved":false,"is_disabled":false,"rental_uris":{"android":"levelo://app?vid=5902f4d9-88c4-471c-b191-ae5764f0e612","ios":"levelo://app?vid=5902f4d9-88c4-471c-b191-ae5764f0e612"},"vehicle_type_id":"4","last_reported":1700626134,"current_range_meters":21200,"station_id":"ce4bhqp2rcd13ifvqhog","pricing_plan_id":"free"},{"bike_id":"bdad12b2-847e-44a0-9d88-9375eceacddf","system_id":"levelo_inurba_marseille","lat":43.32366,"lon":5.38891,"is_reserved":false,"is_disabled":false,"rental_uris":{"android":"levelo://app?vid=bdad12b2-847e-44a0-9d88-9375eceacddf","ios":"levelo://app?vid=bdad12b2-847e-44a0-9d88-9375eceacddf"},"vehicle_type_id":"4","last_reported":1700626134,"current_range_meters":0,"station_id":"ce4bhqp2rcd13ifvqhog","pricing_plan_id":"free"},{"bike_id":"d08f04bf-d1cb-49fb-9aa7-04e7f7676b3c","system_id":"levelo_inurba_marseille","lat":43.32337,"lon":5.38974,"is_reserved":false,"is_disabled":false,"rental_uris":{"android":"levelo://app?vid=d08f04bf-d1cb-49fb-9aa7-04e7f7676b3c","ios":"levelo://app?vid=d08f04bf-d1cb-49fb-9aa7-04e7f7676b3c"},"vehicle_type_id":"4","last_reported":1700626134,"current_range_meters":0,"station_id":"","pricing_plan_id":"free"},{"bike_id":"17152c98-3f31-4d80-925e-32aa920f3a5a","system_id":"levelo_inurba_marseille","lat":43.302992,"lon":5.392136,"is_reserved":false,"is_disabled":false,"rental_uris":{"android":"levelo://app?vid=17152c98-3f31-4d80-925e-32aa920f3a5a","ios":"levelo://app?vid=17152c98-3f31-4d80-925e-32aa920f3a5a"},"vehicle_type_id":"4","last_reported":1700626134,"current_range_meters":31200,"station_id":"ce4bgkh2rcd13ifvqbk0","pricing_plan_id":"free"},{"bike_id":"710efe12-72aa-44b1-9260-e6bb54f63532","system_id":"levelo_inurba_marseille","lat":43.2936,"lon":5.37835,"is_reserved":false,"is_disabled":false,"rental_uris":{"android":"levelo://app?vid=710efe12-72aa-44b1-9260-e6bb54f63532","ios":"levelo://app?vid=710efe12-72aa-44b1-9260-e6bb54f63532"},"vehicle_type_id":"4","last_reported":1700626134,"current_range_meters":29600,"station_id":"ce4bgjh2rcd13ifvqbf0","pricing_plan_id":"free"},{"bike_id":"f23270e1-aaff-44e6-9eb8-22f0af87371c","system_id":"levelo_inurba_marseille","lat":43.291671,"lon":5.371575,"is_reserved":false,"is_disabled":false,"rental_uris":{"android":"levelo://app?vid=f23270e1-aaff-44e6-9eb8-22f0af87371c","ios":"levelo://app?vid=f23270e1-aaff-44e6-9eb8-22f0af87371c"},"vehicle_type_id":"4","last_reported":1700626134,"current_range_meters":30000,"station_id":"ce4bha92rcd13ifvqeh0","pricing_plan_id":"free"},{"bike_id":"ea685827-6ebe-4773-a9ee-6804ded41268","system_id":"levelo_inurba_marseille","lat":43.29873,"lon":5.389072,"is_reserved":false,"is_disabled":false,"rental_uris":{"android":"levelo://app?vid=ea685827-6ebe-4773-a9ee-6804ded41268","ios":"levelo://app?vid=ea685827-6ebe-4773-a9ee-6804ded41268"},"vehicle_type_id":"4","last_reported":1700626134,"current_range_meters":22800,"station_id":"ce4bh392rcd13ifvqdl0","pricing_plan_id":"free"},{"bike_id":"cb33dfcd-9a60-46f4-871d-6659c3334182","system_id":"levelo_inurba_marseille","lat":43.30984,"lon":5.39626,"is_reserved":false,"is_disabled":false,"rental_uris":{"android":"levelo://app?vid=cb33dfcd-9a60-46f4-871d-6659c3334182","ios":"levelo://app?vid=cb33dfcd-9a60-46f4-871d-6659c3334182"},"vehicle_type_id":"4","last_reported":1700626134,"current_range_meters":8800,"station_id":"","pricing_plan_id":"free"},{"bike_id":"f92a19e5-0f90-44dc-a5c5-efc441e3ba16","system_id":"levelo_inurba_marseille","lat":43.309038,"lon":5.396546,"is_reserved":false,"is_disabled":false,"rental_uris":{"android":"levelo://app?vid=f92a19e5-0f90-44dc-a5c5-efc441e3ba16","ios":"levelo://app?vid=f92a19e5-0f90-44dc-a5c5-efc441e3ba16"},"vehicle_type_id":"4","last_reported":1700626134,"current_range_meters":20800,"station_id":"ce4bh012rcd13ifvqcv0","pricing_plan_id":"free"},{"bike_id":"46834e71-1c87-4a6b-a475-611d29179ca2","system_id":"levelo_inurba_marseille","lat":43.308866,"lon":5.39636,"is_reserved":false,"is_disabled":false,"rental_uris":{"android":"levelo://app?vid=46834e71-1c87-4a6b-a475-611d29179ca2","ios":"levelo://app?vid=46834e71-1c87-4a6b-a475-611d29179ca2"},"vehicle_type_id":"4","last_reported":1700626134,"current_range_meters":22800,"station_id":"ce4bh012rcd13ifvqcv0","pricing_plan_id":"free"},{"bike_id":"bd09ec68-9566-426e-b3ad-131dcfe02d3c","system_id":"levelo_inurba_marseille","lat":43.308846,"lon":5.396378,"is_reserved":false,"is_disabled":false,"rental_uris":{"android":"levelo://app?vid=bd09ec68-9566-426e-b3ad-131dcfe02d3c","ios":"levelo://app?vid=bd09ec68-9566-426e-b3ad-131dcfe02d3c"},"vehicle_type_id":"4","last_reported":1700626134,"current_range_meters":21600,"station_id":"ce4bh012rcd13ifvqcv0","pricing_plan_id":"free"},{"bike_id":"fbfed483-aabb-48b3-a2ba-6b821d7fe5c9","system_id":"levelo_inurba_marseille","lat":43.309038,"lon":5.396546,"is_reserved":false,"is_disabled":false,"rental_uris":{"android":"levelo://app?vid=fbfed483-aabb-48b3-a2ba-6b821d7fe5c9","ios":"levelo://app?vid=fbfed483-aabb-48b3-a2ba-6b821d7fe5c9"},"vehicle_type_id":"4","last_reported":1700626134,"current_range_meters":31200,"station_id":"ce4bh012rcd13ifvqcv0","pricing_plan_id":"free"},{"bike_id":"96bad10b-4446-46c8-825f-dc225d0f8e25","system_id":"levelo_inurba_marseille","lat":43.309038,"lon":5.396546,"is_reserved":false,"is_disabled":false,"rental_uris":{"android":"levelo://app?vid=96bad10b-4446-46c8-825f-dc225d0f8e25","ios":"levelo://app?vid=96bad10b-4446-46c8-825f-dc225d0f8e25"},"vehicle_type_id":"4","last_reported":1700626134,"current_range_meters":30000,"station_id":"ce4bh012rcd13ifvqcv0","pricing_plan_id":"free"},{"bike_id":"39afb53c-6587-42d7-a92c-37a798f86640","system_id":"levelo_inurba_marseille","lat":43.309038,"lon":5.396546,"is_reserved":false,"is_disabled":false,"rental_uris":{"android":"levelo://app?vid=39afb53c-6587-42d7-a92c-37a798f86640","ios":"levelo://app?vid=39afb53c-6587-42d7-a92c-37a798f86640"},"vehicle_type_id":"4","last_reported":1700626134,"current_range_meters":16400,"station_id":"ce4bh012rcd13ifvqcv0","pricing_plan_id":"free"},{"bike_id":"6d84f195-20fd-4657-b77a-d13c1b7a9220","system_id":"levelo_inurba_marseille","lat":43.309047,"lon":5.396551,"is_reserved":false,"is_disabled":false,"rental_uris":{"android":"levelo://app?vid=6d84f195-20fd-4657-b77a-d13c1b7a9220","ios":"levelo://app?vid=6d84f195-20fd-4657-b77a-d13c1b7a9220"},"vehicle_type_id":"4","last_reported":1700626134,"current_range_meters":31200,"station_id":"ce4bh012rcd13ifvqcv0","pricing_plan_id":"free"},{"bike_id":"df254aa5-eb03-461b-878f-46672409619b","system_id":"levelo_inurba_marseille","lat":43.309038,"lon":5.396546,"is_reserved":false,"is_disabled":false,"rental_uris":{"android":"levelo://app?vid=df254aa5-eb03-461b-878f-46672409619b","ios":"levelo://app?vid=df254aa5-eb03-461b-878f-46672409619b"},"vehicle_type_id":"4","last_reported":1700626134,"current_range_meters":8000,"station_id":"ce4bh012rcd13ifvqcv0","pricing_plan_id":"free"},{"bike_id":"e784c998-6431-44ab-aa28-0ec688a8db99","system_id":"levelo_inurba_marseille","lat":43.30889,"lon":5.39647,"is_reserved":false,"is_disabled":false,"rental_uris":{"android":"levelo://app?vid=e784c998-6431-44ab-aa28-0ec688a8db99","ios":"levelo://app?vid=e784c998-6431-44ab-aa28-0ec688a8db99"},"vehicle_type_id":"4","last_reported":1700626134,"current_range_meters":26400,"station_id":"ce4bh012rcd13ifvqcv0","pricing_plan_id":"free"},{"bike_id":"6033fabe-deb9-4d9c-b84a-7b55cb07c336","system_id":"levelo_inurba_marseille","lat":43.309038,"lon":5.396546,"is_reserved":false,"is_disabled":false,"rental_uris":{"android":"levelo://app?vid=6033fabe-deb9-4d9c-b84a-7b55cb07c336","ios":"levelo://app?vid=6033fabe-deb9-4d9c-b84a-7b55cb07c336"},"vehicle_type_id":"4","last_reported":1700626134,"current_range_meters":30400,"station_id":"ce4bh012rcd13ifvqcv0","pricing_plan_id":"free"},{"bike_id":"db0adf43-bf36-4b36-9fae-b882b22583a6","system_id":"levelo_inurba_marseille","lat":43.309038,"lon":5.396546,"is_reserved":false,"is_disabled":false,"rental_uris":{"android":"levelo://app?vid=db0adf43-bf36-4b36-9fae-b882b22583a6","ios":"levelo://app?vid=db0adf43-bf36-4b36-9fae-b882b22583a6"},"vehicle_type_id":"4","last_reported":1700626134,"current_range_meters":31200,"station_id":"ce4bh012rcd13ifvqcv0","pricing_plan_id":"free"},{"bike_id":"eca9d464-6432-40fc-a29a-36bcf5ef2c45","system_id":"levelo_inurba_marseille","lat":43.309038,"lon":5.396546,"is_reserved":false,"is_disabled":false,"rental_uris":{"android":"levelo://app?vid=eca9d464-6432-40fc-a29a-36bcf5ef2c45","ios":"levelo://app?vid=eca9d464-6432-40fc-a29a-36bcf5ef2c45"},"vehicle_type_id":"4","last_reported":1700626134,"current_range_meters":29600,"station_id":"ce4bh012rcd13ifvqcv0","pricing_plan_id":"free"},{"bike_id":"19c2ffb9-80b3-4b40-8e77-9d660899a6ba","system_id":"levelo_inurba_marseille","lat":43.313291,"lon":5.396838,"is_reserved":false,"is_disabled":false,"rental_uris":{"android":"levelo://app?vid=19c2ffb9-80b3-4b40-8e77-9d660899a6ba","ios":"levelo://app?vid=19c2ffb9-80b3-4b40-8e77-9d660899a6ba"},"vehicle_type_id":"4","last_reported":1700626134,"current_range_meters":15200,"station_id":"ce4bgvp2rcd13ifvqcu0","pricing_plan_id":"free"},{"bike_id":"64079b85-e32e-48ae-b2f6-72959a3b122f","system_id":"levelo_inurba_marseille","lat":43.308869,"lon":5.396516,"is_reserved":false,"is_disabled":false,"rental_uris":{"android":"levelo://app?vid=64079b85-e32e-48ae-b2f6-72959a3b122f","ios":"levelo://app?vid=64079b85-e32e-48ae-b2f6-72959a3b122f"},"vehicle_type_id":"4","last_reported":1700626134,"current_range_meters":7200,"station_id":"ce4bh012rcd13ifvqcv0","pricing_plan_id":"free"},{"bike_id":"97b986b7-284c-4f11-8542-7c7b3ba1d798","system_id":"levelo_inurba_marseille","lat":43.309038,"lon":5.396546,"is_reserved":false,"is_disabled":false,"rental_uris":{"android":"levelo://app?vid=97b986b7-284c-4f11-8542-7c7b3ba1d798","ios":"levelo://app?vid=97b986b7-284c-4f11-8542-7c7b3ba1d798"},"vehicle_type_id":"4","last_reported":1700626134,"current_range_meters":3200,"station_id":"ce4bh012rcd13ifvqcv0","pricing_plan_id":"free"},{"bike_id":"1d10a1b1-d55f-4279-928a-9c6858f32ca9","system_id":"levelo_inurba_marseille","lat":43.33211,"lon":5.38112,"is_reserved":false,"is_disabled":false,"rental_uris":{"android":"levelo://app?vid=1d10a1b1-d55f-4279-928a-9c6858f32ca9","ios":"levelo://app?vid=1d10a1b1-d55f-4279-928a-9c6858f32ca9"},"vehicle_type_id":"4","last_reported":1700626134,"current_range_meters":5200,"station_id":"","pricing_plan_id":"free"},{"bike_id":"66058901-7a57-481e-8d94-1cf150f1c151","system_id":"levelo_inurba_marseille","lat":43.29758,"lon":5.38973,"is_reserved":false,"is_disabled":false,"rental_uris":{"android":"levelo://app?vid=66058901-7a57-481e-8d94-1cf150f1c151","ios":"levelo://app?vid=66058901-7a57-481e-8d94-1cf150f1c151"},"vehicle_type_id":"4","last_reported":1700626134,"current_range_meters":12800,"station_id":"","pricing_plan_id":"free"},{"bike_id":"1a62410f-7a1b-4810-8577-e135dabbeb16","system_id":"levelo_inurba_marseille","lat":43.290631,"lon":5.359244,"is_reserved":false,"is_disabled":false,"rental_uris":{"android":"levelo://app?vid=1a62410f-7a1b-4810-8577-e135dabbeb16","ios":"levelo://app?vid=1a62410f-7a1b-4810-8577-e135dabbeb16"},"vehicle_type_id":"4","last_reported":1700626134,"current_range_meters":27600,"station_id":"ce4bha92rcd13ifvqeg0","pricing_plan_id":"free"},{"bike_id":"06560207-756a-4fa9-bf0e-a109dc79a503","system_id":"levelo_inurba_marseille","lat":43.294153,"lon":5.386305,"is_reserved":false,"is_disabled":false,"rental_uris":{"android":"levelo://app?vid=06560207-756a-4fa9-bf0e-a109dc79a503","ios":"levelo://app?vid=06560207-756a-4fa9-bf0e-a109dc79a503"},"vehicle_type_id":"4","last_reported":1700626134,"current_range_meters":30000,"station_id":"ce4bh2h2rcd13ifvqdh0","pricing_plan_id":"free"},{"bike_id":"9cf0aa2c-b555-4788-8f5d-129a418516a7","system_id":"levelo_inurba_marseille","lat":43.304296,"lon":5.397513,"is_reserved":false,"is_disabled":false,"rental_uris":{"android":"levelo://app?vid=9cf0aa2c-b555-4788-8f5d-129a418516a7","ios":"levelo://app?vid=9cf0aa2c-b555-4788-8f5d-129a418516a7"},"vehicle_type_id":"4","last_reported":1700626134,"current_range_meters":1200,"station_id":"ce4bh092rcd13ifvqd20","pricing_plan_id":"free"},{"bike_id":"34187fa4-dfcf-496b-a9e2-5c1fd2dcf55a","system_id":"levelo_inurba_marseille","lat":43.304296,"lon":5.397513,"is_reserved":false,"is_disabled":false,"rental_uris":{"android":"levelo://app?vid=34187fa4-dfcf-496b-a9e2-5c1fd2dcf55a","ios":"levelo://app?vid=34187fa4-dfcf-496b-a9e2-5c1fd2dcf55a"},"vehicle_type_id":"4","last_reported":1700626134,"current_range_meters":0,"station_id":"ce4bh092rcd13ifvqd20","pricing_plan_id":"free"},{"bike_id":"d8be73c0-672b-4461-be5b-c63a50657c95","system_id":"levelo_inurba_marseille","lat":43.304296,"lon":5.397513,"is_reserved":false,"is_disabled":false,"rental_uris":{"android":"levelo://app?vid=d8be73c0-672b-4461-be5b-c63a50657c95","ios":"levelo://app?vid=d8be73c0-672b-4461-be5b-c63a50657c95"},"vehicle_type_id":"4","last_reported":1700626134,"current_range_meters":30800,"station_id":"ce4bh092rcd13ifvqd20","pricing_plan_id":"free"},{"bike_id":"41203ff0-7a53-4866-953c-0e19d8a0677f","system_id":"levelo_inurba_marseille","lat":43.304274,"lon":5.397513,"is_reserved":false,"is_disabled":false,"rental_uris":{"android":"levelo://app?vid=41203ff0-7a53-4866-953c-0e19d8a0677f","ios":"levelo://app?vid=41203ff0-7a53-4866-953c-0e19d8a0677f"},"vehicle_type_id":"4","last_reported":1700626134,"current_range_meters":28400,"station_id":"ce4bh092rcd13ifvqd20","pricing_plan_id":"free"},{"bike_id":"b49fad7b-c09a-4722-ad8d-4e822efa6590","system_id":"levelo_inurba_marseille","lat":43.330442,"lon":5.389148,"is_reserved":false,"is_disabled":false,"rental_uris":{"android":"levelo://app?vid=b49fad7b-c09a-4722-ad8d-4e822efa6590","ios":"levelo://app?vid=b49fad7b-c09a-4722-ad8d-4e822efa6590"},"vehicle_type_id":"4","last_reported":1700626134,"current_range_meters":0,"station_id":"ce4bhr92rcd13ifvqhrg","pricing_plan_id":"free"},{"bike_id":"7232f1db-06df-4ef3-8c9f-2cfab7de05b8","system_id":"levelo_inurba_marseille","lat":43.290877,"lon":5.381577,"is_reserved":false,"is_disabled":false,"rental_uris":{"android":"levelo://app?vid=7232f1db-06df-4ef3-8c9f-2cfab7de05b8","ios":"levelo://app?vid=7232f1db-06df-4ef3-8c9f-2cfab7de05b8"},"vehicle_type_id":"4","last_reported":1700626134,"current_range_meters":0,"station_id":"ce4bh512rcd13ifvqe2g","pricing_plan_id":"free"},{"bike_id":"0b34bd32-1b46-41a4-b62d-ab4aa7b63a26","system_id":"levelo_inurba_marseille","lat":43.295169,"lon":5.390426,"is_reserved":false,"is_disabled":false,"rental_uris":{"android":"levelo://app?vid=0b34bd32-1b46-41a4-b62d-ab4aa7b63a26","ios":"levelo://app?vid=0b34bd32-1b46-41a4-b62d-ab4aa7b63a26"},"vehicle_type_id":"4","last_reported":1700626134,"current_range_meters":30400,"station_id":"ce4bh3p2rcd13ifvqdp0","pricing_plan_id":"free"},{"bike_id":"d55b5b41-2a09-4952-b73b-8010edac946b","system_id":"levelo_inurba_marseille","lat":43.31287,"lon":5.40156,"is_reserved":false,"is_disabled":false,"rental_uris":{"android":"levelo://app?vid=d55b5b41-2a09-4952-b73b-8010edac946b","ios":"levelo://app?vid=d55b5b41-2a09-4952-b73b-8010edac946b"},"vehicle_type_id":"4","last_reported":1700626134,"current_range_meters":11600,"station_id":"ce4bh092rcd13ifvqd30","pricing_plan_id":"free"},{"bike_id":"aad9a792-6976-4183-919a-aef819ff2e25","system_id":"levelo_inurba_marseille","lat":43.31251,"lon":5.40162,"is_reserved":false,"is_disabled":false,"rental_uris":{"android":"levelo://app?vid=aad9a792-6976-4183-919a-aef819ff2e25","ios":"levelo://app?vid=aad9a792-6976-4183-919a-aef819ff2e25"},"vehicle_type_id":"4","last_reported":1700626134,"current_range_meters":800,"station_id":"","pricing_plan_id":"free"},{"bike_id":"92d64120-be95-4931-8086-a7b60f0b3e4c","system_id":"levelo_inurba_marseille","lat":43.312609,"lon":5.401662,"is_reserved":false,"is_disabled":false,"rental_uris":{"android":"levelo://app?vid=92d64120-be95-4931-8086-a7b60f0b3e4c","ios":"levelo://app?vid=92d64120-be95-4931-8086-a7b60f0b3e4c"},"vehicle_type_id":"4","last_reported":1700626134,"current_range_meters":0,"station_id":"ce4bh092rcd13ifvqd30","pricing_plan_id":"free"},{"bike_id":"f0e45f3a-3a31-4b84-b7f2-770281ff8b6b","system_id":"levelo_inurba_marseille","lat":43.3093,"lon":5.40142,"is_reserved":false,"is_disabled":false,"rental_uris":{"android":"levelo://app?vid=f0e45f3a-3a31-4b84-b7f2-770281ff8b6b","ios":"levelo://app?vid=f0e45f3a-3a31-4b84-b7f2-770281ff8b6b"},"vehicle_type_id":"4","last_reported":1700626134,"current_range_meters":0,"station_id":"ce4bgvp2rcd13ifvqct0","pricing_plan_id":"free"},{"bike_id":"345b42fd-1851-433c-89b7-a66455945f21","system_id":"levelo_inurba_marseille","lat":43.30926,"lon":5.40142,"is_reserved":false,"is_disabled":false,"rental_uris":{"android":"levelo://app?vid=345b42fd-1851-433c-89b7-a66455945f21","ios":"levelo://app?vid=345b42fd-1851-433c-89b7-a66455945f21"},"vehicle_type_id":"4","last_reported":1700626134,"current_range_meters":29600,"station_id":"ce4bgvp2rcd13ifvqct0","pricing_plan_id":"free"},{"bike_id":"a5f30c18-250c-4a83-a23e-a923967d5bb2","system_id":"levelo_inurba_marseille","lat":43.3093,"lon":5.4015,"is_reserved":false,"is_disabled":false,"rental_uris":{"android":"levelo://app?vid=a5f30c18-250c-4a83-a23e-a923967d5bb2","ios":"levelo://app?vid=a5f30c18-250c-4a83-a23e-a923967d5bb2"},"vehicle_type_id":"4","last_reported":1700626134,"current_range_meters":27200,"station_id":"ce4bgvp2rcd13ifvqct0","pricing_plan_id":"free"},{"bike_id":"4c0cd722-0125-473a-9a4c-d36bf5346891","system_id":"levelo_inurba_marseille","lat":43.306433,"lon":5.40074,"is_reserved":false,"is_disabled":false,"rental_uris":{"android":"levelo://app?vid=4c0cd722-0125-473a-9a4c-d36bf5346891","ios":"levelo://app?vid=4c0cd722-0125-473a-9a4c-d36bf5346891"},"vehicle_type_id":"4","last_reported":1700626134,"current_range_meters":23200,"station_id":"ce4bh112rcd13ifvqda0","pricing_plan_id":"free"},{"bike_id":"4166f851-581a-4a7f-944e-d13829034fa9","system_id":"levelo_inurba_marseille","lat":43.30936,"lon":5.40154,"is_reserved":false,"is_disabled":false,"rental_uris":{"android":"levelo://app?vid=4166f851-581a-4a7f-944e-d13829034fa9","ios":"levelo://app?vid=4166f851-581a-4a7f-944e-d13829034fa9"},"vehicle_type_id":"4","last_reported":1700626134,"current_range_meters":31200,"station_id":"ce4bgvp2rcd13ifvqct0","pricing_plan_id":"free"},{"bike_id":"794e65da-cfad-45b6-b3fc-4a90fb21fd3f","system_id":"levelo_inurba_marseille","lat":43.30637,"lon":5.40075,"is_reserved":false,"is_disabled":false,"rental_uris":{"android":"levelo://app?vid=794e65da-cfad-45b6-b3fc-4a90fb21fd3f","ios":"levelo://app?vid=794e65da-cfad-45b6-b3fc-4a90fb21fd3f"},"vehicle_type_id":"4","last_reported":1700626134,"current_range_meters":14800,"station_id":"ce4bh112rcd13ifvqda0","pricing_plan_id":"free"},{"bike_id":"83de3c75-a46c-431d-b09b-e0c1e6d4bfa1","system_id":"levelo_inurba_marseille","lat":43.306468,"lon":5.400826,"is_reserved":false,"is_disabled":false,"rental_uris":{"android":"levelo://app?vid=83de3c75-a46c-431d-b09b-e0c1e6d4bfa1","ios":"levelo://app?vid=83de3c75-a46c-431d-b09b-e0c1e6d4bfa1"},"vehicle_type_id":"4","last_reported":1700626134,"current_range_meters":12800,"station_id":"ce4bh112rcd13ifvqda0","pricing_plan_id":"free"},{"bike_id":"3e8cb82c-83a5-413f-8d1d-f5d344d41e78","system_id":"levelo_inurba_marseille","lat":43.306412,"lon":5.401035,"is_reserved":false,"is_disabled":false,"rental_uris":{"android":"levelo://app?vid=3e8cb82c-83a5-413f-8d1d-f5d344d41e78","ios":"levelo://app?vid=3e8cb82c-83a5-413f-8d1d-f5d344d41e78"},"vehicle_type_id":"4","last_reported":1700626134,"current_range_meters":23200,"station_id":"ce4bh112rcd13ifvqda0","pricing_plan_id":"free"},{"bike_id":"34d79e5a-dca6-41fd-92e0-56a8fdd76781","system_id":"levelo_inurba_marseille","lat":43.306412,"lon":5.401035,"is_reserved":false,"is_disabled":false,"rental_uris":{"android":"levelo://app?vid=34d79e5a-dca6-41fd-92e0-56a8fdd76781","ios":"levelo://app?vid=34d79e5a-dca6-41fd-92e0-56a8fdd76781"},"vehicle_type_id":"4","last_reported":1700626134,"current_range_meters":30400,"station_id":"ce4bh112rcd13ifvqda0","pricing_plan_id":"free"},{"bike_id":"b4b62222-1470-409f-9911-0b9f31add303","system_id":"levelo_inurba_marseille","lat":43.306412,"lon":5.401035,"is_reserved":false,"is_disabled":false,"rental_uris":{"android":"levelo://app?vid=b4b62222-1470-409f-9911-0b9f31add303","ios":"levelo://app?vid=b4b62222-1470-409f-9911-0b9f31add303"},"vehicle_type_id":"4","last_reported":1700626134,"current_range_meters":23600,"station_id":"ce4bh112rcd13ifvqda0","pricing_plan_id":"free"},{"bike_id":"29b4743a-25f5-4cbe-9722-f60c772008ce","system_id":"levelo_inurba_marseille","lat":43.30641,"lon":5.40093,"is_reserved":false,"is_disabled":false,"rental_uris":{"android":"levelo://app?vid=29b4743a-25f5-4cbe-9722-f60c772008ce","ios":"levelo://app?vid=29b4743a-25f5-4cbe-9722-f60c772008ce"},"vehicle_type_id":"4","last_reported":1700626134,"current_range_meters":0,"station_id":"ce4bh112rcd13ifvqda0","pricing_plan_id":"free"},{"bike_id":"31f9040f-81c2-47ba-843f-6115adc6270f","system_id":"levelo_inurba_marseille","lat":43.301117,"lon":5.398795,"is_reserved":false,"is_disabled":false,"rental_uris":{"android":"levelo://app?vid=31f9040f-81c2-47ba-843f-6115adc6270f","ios":"levelo://app?vid=31f9040f-81c2-47ba-843f-6115adc6270f"},"vehicle_type_id":"4","last_reported":1700626134,"current_range_meters":28400,"station_id":"ce4bh0h2rcd13ifvqd40","pricing_plan_id":"free"},{"bike_id":"06838c61-dff1-492f-9e47-b56de5108922","system_id":"levelo_inurba_marseille","lat":43.287334,"lon":5.360844,"is_reserved":false,"is_disabled":false,"rental_uris":{"android":"levelo://app?vid=06838c61-dff1-492f-9e47-b56de5108922","ios":"levelo://app?vid=06838c61-dff1-492f-9e47-b56de5108922"},"vehicle_type_id":"4","last_reported":1700626134,"current_range_meters":5600,"station_id":"cki0cbj6b192h4jlfktg","pricing_plan_id":"free"},{"bike_id":"54bafbc3-ecf7-48c0-a614-f8ace818ec52","system_id":"levelo_inurba_marseille","lat":43.287276,"lon":5.360785,"is_reserved":false,"is_disabled":false,"rental_uris":{"android":"levelo://app?vid=54bafbc3-ecf7-48c0-a614-f8ace818ec52","ios":"levelo://app?vid=54bafbc3-ecf7-48c0-a614-f8ace818ec52"},"vehicle_type_id":"4","last_reported":1700626134,"current_range_meters":2800,"station_id":"cki0cbj6b192h4jlfktg","pricing_plan_id":"free"},{"bike_id":"5aa8ff98-98bc-4b95-a8fc-ba24aab95f38","system_id":"levelo_inurba_marseille","lat":43.287271,"lon":5.360809,"is_reserved":false,"is_disabled":false,"rental_uris":{"android":"levelo://app?vid=5aa8ff98-98bc-4b95-a8fc-ba24aab95f38","ios":"levelo://app?vid=5aa8ff98-98bc-4b95-a8fc-ba24aab95f38"},"vehicle_type_id":"4","last_reported":1700626134,"current_range_meters":7200,"station_id":"cki0cbj6b192h4jlfktg","pricing_plan_id":"free"},{"bike_id":"39708262-1435-437e-ad5e-1d060b4fbaa0","system_id":"levelo_inurba_marseille","lat":43.287268,"lon":5.360811,"is_reserved":false,"is_disabled":false,"rental_uris":{"android":"levelo://app?vid=39708262-1435-437e-ad5e-1d060b4fbaa0","ios":"levelo://app?vid=39708262-1435-437e-ad5e-1d060b4fbaa0"},"vehicle_type_id":"4","last_reported":1700626134,"current_range_meters":3600,"station_id":"cki0cbj6b192h4jlfktg","pricing_plan_id":"free"},{"bike_id":"1e5f9b7c-ce69-4d52-80d0-edbd66d45f4f","system_id":"levelo_inurba_marseille","lat":43.28727,"lon":5.36078,"is_reserved":false,"is_disabled":false,"rental_uris":{"android":"levelo://app?vid=1e5f9b7c-ce69-4d52-80d0-edbd66d45f4f","ios":"levelo://app?vid=1e5f9b7c-ce69-4d52-80d0-edbd66d45f4f"},"vehicle_type_id":"4","last_reported":1700626134,"current_range_meters":30000,"station_id":"cki0cbj6b192h4jlfktg","pricing_plan_id":"free"},{"bike_id":"70bf1fd8-c051-4161-a10e-c760b71856cd","system_id":"levelo_inurba_marseille","lat":43.28716,"lon":5.36085,"is_reserved":false,"is_disabled":false,"rental_uris":{"android":"levelo://app?vid=70bf1fd8-c051-4161-a10e-c760b71856cd","ios":"levelo://app?vid=70bf1fd8-c051-4161-a10e-c760b71856cd"},"vehicle_type_id":"4","last_reported":1700626134,"current_range_meters":21200,"station_id":"cki0cbj6b192h4jlfktg","pricing_plan_id":"free"},{"bike_id":"b2ef0c25-dc61-425b-a668-aa6495a7ac11","system_id":"levelo_inurba_marseille","lat":43.287092,"lon":5.373751,"is_reserved":false,"is_disabled":false,"rental_uris":{"android":"levelo://app?vid=b2ef0c25-dc61-425b-a668-aa6495a7ac11","ios":"levelo://app?vid=b2ef0c25-dc61-425b-a668-aa6495a7ac11"},"vehicle_type_id":"4","last_reported":1700626134,"current_range_meters":22400,"station_id":"ce4bh3p2rcd13ifvqdq0","pricing_plan_id":"free"},{"bike_id":"af911b3b-e063-44b1-b42e-59cc6a5ca4ac","system_id":"levelo_inurba_marseille","lat":43.298681,"lon":5.397225,"is_reserved":false,"is_disabled":false,"rental_uris":{"android":"levelo://app?vid=af911b3b-e063-44b1-b42e-59cc6a5ca4ac","ios":"levelo://app?vid=af911b3b-e063-44b1-b42e-59cc6a5ca4ac"},"vehicle_type_id":"4","last_reported":1700626134,"current_range_meters":23600,"station_id":"ce4bh0h2rcd13ifvqd50","pricing_plan_id":"free"},{"bike_id":"7f11fb24-d87d-4a84-9709-63923157a781","system_id":"levelo_inurba_marseille","lat":43.298681,"lon":5.397225,"is_reserved":false,"is_disabled":false,"rental_uris":{"android":"levelo://app?vid=7f11fb24-d87d-4a84-9709-63923157a781","ios":"levelo://app?vid=7f11fb24-d87d-4a84-9709-63923157a781"},"vehicle_type_id":"4","last_reported":1700626134,"current_range_meters":17600,"station_id":"ce4bh0h2rcd13ifvqd50","pricing_plan_id":"free"},{"bike_id":"768feafc-f143-41fb-af29-de32a72b0505","system_id":"levelo_inurba_marseille","lat":43.298681,"lon":5.397225,"is_reserved":false,"is_disabled":false,"rental_uris":{"android":"levelo://app?vid=768feafc-f143-41fb-af29-de32a72b0505","ios":"levelo://app?vid=768feafc-f143-41fb-af29-de32a72b0505"},"vehicle_type_id":"4","last_reported":1700626134,"current_range_meters":28400,"station_id":"ce4bh0h2rcd13ifvqd50","pricing_plan_id":"free"},{"bike_id":"e83324f8-e9c7-4b22-aa7f-026221ad8a14","system_id":"levelo_inurba_marseille","lat":43.298681,"lon":5.397225,"is_reserved":false,"is_disabled":false,"rental_uris":{"android":"levelo://app?vid=e83324f8-e9c7-4b22-aa7f-026221ad8a14","ios":"levelo://app?vid=e83324f8-e9c7-4b22-aa7f-026221ad8a14"},"vehicle_type_id":"4","last_reported":1700626134,"current_range_meters":23600,"station_id":"ce4bh0h2rcd13ifvqd50","pricing_plan_id":"free"},{"bike_id":"34b59785-c597-4fb5-94fe-0a149b62522d","system_id":"levelo_inurba_marseille","lat":43.286591,"lon":5.363346,"is_reserved":false,"is_disabled":false,"rental_uris":{"android":"levelo://app?vid=34b59785-c597-4fb5-94fe-0a149b62522d","ios":"levelo://app?vid=34b59785-c597-4fb5-94fe-0a149b62522d"},"vehicle_type_id":"4","last_reported":1700626134,"current_range_meters":16400,"station_id":"ce4bhah2rcd13ifvqej0","pricing_plan_id":"free"},{"bike_id":"6977911e-4586-4dfe-9827-04286aab24fd","system_id":"levelo_inurba_marseille","lat":43.298833,"lon":5.397401,"is_reserved":false,"is_disabled":false,"rental_uris":{"android":"levelo://app?vid=6977911e-4586-4dfe-9827-04286aab24fd","ios":"levelo://app?vid=6977911e-4586-4dfe-9827-04286aab24fd"},"vehicle_type_id":"4","last_reported":1700626134,"current_range_meters":30400,"station_id":"ce4bh0h2rcd13ifvqd50","pricing_plan_id":"free"},{"bike_id":"98ac16a6-1833-4a84-8304-e7ec3ba51ad1","system_id":"levelo_inurba_marseille","lat":43.286591,"lon":5.363346,"is_reserved":false,"is_disabled":false,"rental_uris":{"android":"levelo://app?vid=98ac16a6-1833-4a84-8304-e7ec3ba51ad1","ios":"levelo://app?vid=98ac16a6-1833-4a84-8304-e7ec3ba51ad1"},"vehicle_type_id":"4","last_reported":1700626134,"current_range_meters":19600,"station_id":"ce4bhah2rcd13ifvqej0","pricing_plan_id":"free"},{"bike_id":"cb9495c2-5520-4068-a36b-748139656237","system_id":"levelo_inurba_marseille","lat":43.286593,"lon":5.363346,"is_reserved":false,"is_disabled":false,"rental_uris":{"android":"levelo://app?vid=cb9495c2-5520-4068-a36b-748139656237","ios":"levelo://app?vid=cb9495c2-5520-4068-a36b-748139656237"},"vehicle_type_id":"4","last_reported":1700626134,"current_range_meters":28000,"station_id":"ce4bhah2rcd13ifvqej0","pricing_plan_id":"free"},{"bike_id":"d7785c20-5e3b-48aa-a0ff-7081a0d46569","system_id":"levelo_inurba_marseille","lat":43.286591,"lon":5.363346,"is_reserved":false,"is_disabled":false,"rental_uris":{"android":"levelo://app?vid=d7785c20-5e3b-48aa-a0ff-7081a0d46569","ios":"levelo://app?vid=d7785c20-5e3b-48aa-a0ff-7081a0d46569"},"vehicle_type_id":"4","last_reported":1700626134,"current_range_meters":10000,"station_id":"ce4bhah2rcd13ifvqej0","pricing_plan_id":"free"},{"bike_id":"c79fde83-7695-4ee3-83d0-007873d630fd","system_id":"levelo_inurba_marseille","lat":43.287013,"lon":5.373801,"is_reserved":false,"is_disabled":false,"rental_uris":{"android":"levelo://app?vid=c79fde83-7695-4ee3-83d0-007873d630fd","ios":"levelo://app?vid=c79fde83-7695-4ee3-83d0-007873d630fd"},"vehicle_type_id":"4","last_reported":1700626134,"current_range_meters":31200,"station_id":"ce4bh3p2rcd13ifvqdq0","pricing_plan_id":"free"},{"bike_id":"22ea8213-4d84-400c-aece-3f6fd6226cb1","system_id":"levelo_inurba_marseille","lat":43.286591,"lon":5.363346,"is_reserved":false,"is_disabled":false,"rental_uris":{"android":"levelo://app?vid=22ea8213-4d84-400c-aece-3f6fd6226cb1","ios":"levelo://app?vid=22ea8213-4d84-400c-aece-3f6fd6226cb1"},"vehicle_type_id":"4","last_reported":1700626134,"current_range_meters":30800,"station_id":"ce4bhah2rcd13ifvqej0","pricing_plan_id":"free"},{"bike_id":"6e99e74a-16cb-4fad-93ab-fa5989e1898a","system_id":"levelo_inurba_marseille","lat":43.286593,"lon":5.363346,"is_reserved":false,"is_disabled":false,"rental_uris":{"android":"levelo://app?vid=6e99e74a-16cb-4fad-93ab-fa5989e1898a","ios":"levelo://app?vid=6e99e74a-16cb-4fad-93ab-fa5989e1898a"},"vehicle_type_id":"4","last_reported":1700626134,"current_range_meters":28800,"station_id":"ce4bhah2rcd13ifvqej0","pricing_plan_id":"free"},{"bike_id":"7570e3da-651d-475a-8350-99e7c14bdbd0","system_id":"levelo_inurba_marseille","lat":43.298681,"lon":5.397225,"is_reserved":false,"is_disabled":false,"rental_uris":{"android":"levelo://app?vid=7570e3da-651d-475a-8350-99e7c14bdbd0","ios":"levelo://app?vid=7570e3da-651d-475a-8350-99e7c14bdbd0"},"vehicle_type_id":"4","last_reported":1700626134,"current_range_meters":12000,"station_id":"ce4bh0h2rcd13ifvqd50","pricing_plan_id":"free"},{"bike_id":"303cb095-da71-491b-aae6-642106a1b801","system_id":"levelo_inurba_marseille","lat":43.29034,"lon":5.386465,"is_reserved":false,"is_disabled":false,"rental_uris":{"android":"levelo://app?vid=303cb095-da71-491b-aae6-642106a1b801","ios":"levelo://app?vid=303cb095-da71-491b-aae6-642106a1b801"},"vehicle_type_id":"4","last_reported":1700626134,"current_range_meters":8000,"station_id":"ce4bh4p2rcd13ifvqe0g","pricing_plan_id":"free"},{"bike_id":"7f747f99-2551-4a7d-91bc-bd240437708e","system_id":"levelo_inurba_marseille","lat":43.29028,"lon":5.386443,"is_reserved":false,"is_disabled":false,"rental_uris":{"android":"levelo://app?vid=7f747f99-2551-4a7d-91bc-bd240437708e","ios":"levelo://app?vid=7f747f99-2551-4a7d-91bc-bd240437708e"},"vehicle_type_id":"4","last_reported":1700626134,"current_range_meters":31200,"station_id":"ce4bh4p2rcd13ifvqe0g","pricing_plan_id":"free"},{"bike_id":"5a3914f8-6d02-4163-91fb-3288bc9a951d","system_id":"levelo_inurba_marseille","lat":43.290258,"lon":5.386503,"is_reserved":false,"is_disabled":false,"rental_uris":{"android":"levelo://app?vid=5a3914f8-6d02-4163-91fb-3288bc9a951d","ios":"levelo://app?vid=5a3914f8-6d02-4163-91fb-3288bc9a951d"},"vehicle_type_id":"4","last_reported":1700626134,"current_range_meters":27600,"station_id":"ce4bh4p2rcd13ifvqe0g","pricing_plan_id":"free"},{"bike_id":"e290ead7-9b3b-4253-a5d1-af468af82a66","system_id":"levelo_inurba_marseille","lat":43.302506,"lon":5.400823,"is_reserved":false,"is_disabled":false,"rental_uris":{"android":"levelo://app?vid=e290ead7-9b3b-4253-a5d1-af468af82a66","ios":"levelo://app?vid=e290ead7-9b3b-4253-a5d1-af468af82a66"},"vehicle_type_id":"4","last_reported":1700626134,"current_range_meters":3200,"station_id":"ce4bgvh2rcd13ifvqcs0","pricing_plan_id":"free"},{"bike_id":"561e2fa9-ddd1-42af-87ab-95e1283ec754","system_id":"levelo_inurba_marseille","lat":43.291994,"lon":5.392907,"is_reserved":false,"is_disabled":false,"rental_uris":{"android":"levelo://app?vid=561e2fa9-ddd1-42af-87ab-95e1283ec754","ios":"levelo://app?vid=561e2fa9-ddd1-42af-87ab-95e1283ec754"},"vehicle_type_id":"4","last_reported":1700626134,"current_range_meters":29200,"station_id":"ce4bh192rcd13ifvqdd0","pricing_plan_id":"free"},{"bike_id":"1230b657-e005-4dad-b234-311363cb0927","system_id":"levelo_inurba_marseille","lat":43.284534,"lon":5.358662,"is_reserved":false,"is_disabled":false,"rental_uris":{"android":"levelo://app?vid=1230b657-e005-4dad-b234-311363cb0927","ios":"levelo://app?vid=1230b657-e005-4dad-b234-311363cb0927"},"vehicle_type_id":"4","last_reported":1700626134,"current_range_meters":30400,"station_id":"ce4bhah2rcd13ifvqei0","pricing_plan_id":"free"},{"bike_id":"453fab20-5e89-48c3-b143-9d8335682de2","system_id":"levelo_inurba_marseille","lat":43.284601,"lon":5.358901,"is_reserved":false,"is_disabled":false,"rental_uris":{"android":"levelo://app?vid=453fab20-5e89-48c3-b143-9d8335682de2","ios":"levelo://app?vid=453fab20-5e89-48c3-b143-9d8335682de2"},"vehicle_type_id":"4","last_reported":1700626134,"current_range_meters":30800,"station_id":"ce4bhah2rcd13ifvqei0","pricing_plan_id":"free"},{"bike_id":"c657ac86-030e-435d-9dcb-b0f1c15fc09d","system_id":"levelo_inurba_marseille","lat":43.2846,"lon":5.358888,"is_reserved":false,"is_disabled":false,"rental_uris":{"android":"levelo://app?vid=c657ac86-030e-435d-9dcb-b0f1c15fc09d","ios":"levelo://app?vid=c657ac86-030e-435d-9dcb-b0f1c15fc09d"},"vehicle_type_id":"4","last_reported":1700626134,"current_range_meters":22400,"station_id":"ce4bhah2rcd13ifvqei0","pricing_plan_id":"free"},{"bike_id":"d21dce6e-3361-44c3-8f60-8f3ad7dc7a3d","system_id":"levelo_inurba_marseille","lat":43.284534,"lon":5.358662,"is_reserved":false,"is_disabled":false,"rental_uris":{"android":"levelo://app?vid=d21dce6e-3361-44c3-8f60-8f3ad7dc7a3d","ios":"levelo://app?vid=d21dce6e-3361-44c3-8f60-8f3ad7dc7a3d"},"vehicle_type_id":"4","last_reported":1700626134,"current_range_meters":4400,"station_id":"ce4bhah2rcd13ifvqei0","pricing_plan_id":"free"},{"bike_id":"c4899c4c-8199-4647-bf2c-fc8c8282ade6","system_id":"levelo_inurba_marseille","lat":43.28459,"lon":5.35891,"is_reserved":false,"is_disabled":false,"rental_uris":{"android":"levelo://app?vid=c4899c4c-8199-4647-bf2c-fc8c8282ade6","ios":"levelo://app?vid=c4899c4c-8199-4647-bf2c-fc8c8282ade6"},"vehicle_type_id":"4","last_reported":1700626134,"current_range_meters":28800,"station_id":"ce4bhah2rcd13ifvqei0","pricing_plan_id":"free"},{"bike_id":"e726453c-f0df-48ae-913a-222f08f0c172","system_id":"levelo_inurba_marseille","lat":43.284581,"lon":5.358888,"is_reserved":false,"is_disabled":false,"rental_uris":{"android":"levelo://app?vid=e726453c-f0df-48ae-913a-222f08f0c172","ios":"levelo://app?vid=e726453c-f0df-48ae-913a-222f08f0c172"},"vehicle_type_id":"4","last_reported":1700626134,"current_range_meters":29600,"station_id":"ce4bhah2rcd13ifvqei0","pricing_plan_id":"free"},{"bike_id":"712e721b-a4f4-4beb-b810-500a2a4d0091","system_id":"levelo_inurba_marseille","lat":43.28455,"lon":5.35899,"is_reserved":false,"is_disabled":false,"rental_uris":{"android":"levelo://app?vid=712e721b-a4f4-4beb-b810-500a2a4d0091","ios":"levelo://app?vid=712e721b-a4f4-4beb-b810-500a2a4d0091"},"vehicle_type_id":"4","last_reported":1700626134,"current_range_meters":0,"station_id":"ce4bhah2rcd13ifvqei0","pricing_plan_id":"free"},{"bike_id":"32d0c4b3-4975-4c54-b911-a5834e4d69b1","system_id":"levelo_inurba_marseille","lat":43.28456,"lon":5.35892,"is_reserved":false,"is_disabled":false,"rental_uris":{"android":"levelo://app?vid=32d0c4b3-4975-4c54-b911-a5834e4d69b1","ios":"levelo://app?vid=32d0c4b3-4975-4c54-b911-a5834e4d69b1"},"vehicle_type_id":"4","last_reported":1700626134,"current_range_meters":30800,"station_id":"ce4bhah2rcd13ifvqei0","pricing_plan_id":"free"},{"bike_id":"8f32b0ce-57ff-44cb-9774-721f197214c2","system_id":"levelo_inurba_marseille","lat":43.28456,"lon":5.3589,"is_reserved":false,"is_disabled":false,"rental_uris":{"android":"levelo://app?vid=8f32b0ce-57ff-44cb-9774-721f197214c2","ios":"levelo://app?vid=8f32b0ce-57ff-44cb-9774-721f197214c2"},"vehicle_type_id":"4","last_reported":1700626134,"current_range_meters":21600,"station_id":"ce4bhah2rcd13ifvqei0","pricing_plan_id":"free"},{"bike_id":"1e3253fe-acc7-479d-b14a-1fe8a141183c","system_id":"levelo_inurba_marseille","lat":43.284534,"lon":5.358662,"is_reserved":false,"is_disabled":false,"rental_uris":{"android":"levelo://app?vid=1e3253fe-acc7-479d-b14a-1fe8a141183c","ios":"levelo://app?vid=1e3253fe-acc7-479d-b14a-1fe8a141183c"},"vehicle_type_id":"4","last_reported":1700626134,"current_range_meters":31600,"station_id":"ce4bhah2rcd13ifvqei0","pricing_plan_id":"free"},{"bike_id":"15ddadbb-0047-44fb-8c71-ff7ebd3ae4d3","system_id":"levelo_inurba_marseille","lat":43.284534,"lon":5.358662,"is_reserved":false,"is_disabled":false,"rental_uris":{"android":"levelo://app?vid=15ddadbb-0047-44fb-8c71-ff7ebd3ae4d3","ios":"levelo://app?vid=15ddadbb-0047-44fb-8c71-ff7ebd3ae4d3"},"vehicle_type_id":"4","last_reported":1700626134,"current_range_meters":31200,"station_id":"ce4bhah2rcd13ifvqei0","pricing_plan_id":"free"},{"bike_id":"f07b624c-3125-42af-9ff3-7da16be40258","system_id":"levelo_inurba_marseille","lat":43.284534,"lon":5.358662,"is_reserved":false,"is_disabled":false,"rental_uris":{"android":"levelo://app?vid=f07b624c-3125-42af-9ff3-7da16be40258","ios":"levelo://app?vid=f07b624c-3125-42af-9ff3-7da16be40258"},"vehicle_type_id":"4","last_reported":1700626134,"current_range_meters":8000,"station_id":"ce4bhah2rcd13ifvqei0","pricing_plan_id":"free"},{"bike_id":"3c7792f7-7e92-4b8f-bd4a-9b98fdfc5346","system_id":"levelo_inurba_marseille","lat":43.28454,"lon":5.35895,"is_reserved":false,"is_disabled":false,"rental_uris":{"android":"levelo://app?vid=3c7792f7-7e92-4b8f-bd4a-9b98fdfc5346","ios":"levelo://app?vid=3c7792f7-7e92-4b8f-bd4a-9b98fdfc5346"},"vehicle_type_id":"4","last_reported":1700626134,"current_range_meters":28400,"station_id":"ce4bhah2rcd13ifvqei0","pricing_plan_id":"free"},{"bike_id":"abb0ea22-75eb-4892-ab8a-b6710ca00125","system_id":"levelo_inurba_marseille","lat":43.28455,"lon":5.35887,"is_reserved":false,"is_disabled":false,"rental_uris":{"android":"levelo://app?vid=abb0ea22-75eb-4892-ab8a-b6710ca00125","ios":"levelo://app?vid=abb0ea22-75eb-4892-ab8a-b6710ca00125"},"vehicle_type_id":"4","last_reported":1700626134,"current_range_meters":30800,"station_id":"ce4bhah2rcd13ifvqei0","pricing_plan_id":"free"},{"bike_id":"36043778-724e-41cd-9ad0-4790e36fb65d","system_id":"levelo_inurba_marseille","lat":43.285848,"lon":5.350787,"is_reserved":false,"is_disabled":false,"rental_uris":{"android":"levelo://app?vid=36043778-724e-41cd-9ad0-4790e36fb65d","ios":"levelo://app?vid=36043778-724e-41cd-9ad0-4790e36fb65d"},"vehicle_type_id":"4","last_reported":1700626134,"current_range_meters":28800,"station_id":"ce4bhch2rcd13ifvqeug","pricing_plan_id":"free"},{"bike_id":"47d82943-55b7-4d5f-81f3-ba919299497b","system_id":"levelo_inurba_marseille","lat":43.28612,"lon":5.35103,"is_reserved":false,"is_disabled":false,"rental_uris":{"android":"levelo://app?vid=47d82943-55b7-4d5f-81f3-ba919299497b","ios":"levelo://app?vid=47d82943-55b7-4d5f-81f3-ba919299497b"},"vehicle_type_id":"4","last_reported":1700626134,"current_range_meters":28800,"station_id":"ce4bhch2rcd13ifvqeug","pricing_plan_id":"free"},{"bike_id":"93591452-78a8-4deb-aa6d-58319e661151","system_id":"levelo_inurba_marseille","lat":43.286086,"lon":5.351127,"is_reserved":false,"is_disabled":false,"rental_uris":{"android":"levelo://app?vid=93591452-78a8-4deb-aa6d-58319e661151","ios":"levelo://app?vid=93591452-78a8-4deb-aa6d-58319e661151"},"vehicle_type_id":"4","last_reported":1700626134,"current_range_meters":24400,"station_id":"ce4bhch2rcd13ifvqeug","pricing_plan_id":"free"},{"bike_id":"7e46840b-3014-4786-a526-5e26845c64b6","system_id":"levelo_inurba_marseille","lat":43.283998,"lon":5.375062,"is_reserved":false,"is_disabled":false,"rental_uris":{"android":"levelo://app?vid=7e46840b-3014-4786-a526-5e26845c64b6","ios":"levelo://app?vid=7e46840b-3014-4786-a526-5e26845c64b6"},"vehicle_type_id":"4","last_reported":1700626134,"current_range_meters":0,"station_id":"ce4bh412rcd13ifvqds0","pricing_plan_id":"free"},{"bike_id":"b70d3059-dc3c-4bb0-b2fd-5b05d5009904","system_id":"levelo_inurba_marseille","lat":43.283998,"lon":5.375062,"is_reserved":false,"is_disabled":false,"rental_uris":{"android":"levelo://app?vid=b70d3059-dc3c-4bb0-b2fd-5b05d5009904","ios":"levelo://app?vid=b70d3059-dc3c-4bb0-b2fd-5b05d5009904"},"vehicle_type_id":"4","last_reported":1700626134,"current_range_meters":26400,"station_id":"ce4bh412rcd13ifvqds0","pricing_plan_id":"free"},{"bike_id":"acbb3f08-be93-413a-ad05-d6bf3384633c","system_id":"levelo_inurba_marseille","lat":43.283998,"lon":5.375062,"is_reserved":false,"is_disabled":false,"rental_uris":{"android":"levelo://app?vid=acbb3f08-be93-413a-ad05-d6bf3384633c","ios":"levelo://app?vid=acbb3f08-be93-413a-ad05-d6bf3384633c"},"vehicle_type_id":"4","last_reported":1700626134,"current_range_meters":5600,"station_id":"ce4bh412rcd13ifvqds0","pricing_plan_id":"free"},{"bike_id":"c2372dd8-e325-4762-8f0c-45f15db5ec94","system_id":"levelo_inurba_marseille","lat":43.295713,"lon":5.399639,"is_reserved":false,"is_disabled":false,"rental_uris":{"android":"levelo://app?vid=c2372dd8-e325-4762-8f0c-45f15db5ec94","ios":"levelo://app?vid=c2372dd8-e325-4762-8f0c-45f15db5ec94"},"vehicle_type_id":"4","last_reported":1700626134,"current_range_meters":31200,"station_id":"ce4bh312rcd13ifvqdj0","pricing_plan_id":"free"},{"bike_id":"5aa87bae-5799-4cb9-9962-17bda26e06f3","system_id":"levelo_inurba_marseille","lat":43.295713,"lon":5.399639,"is_reserved":false,"is_disabled":false,"rental_uris":{"android":"levelo://app?vid=5aa87bae-5799-4cb9-9962-17bda26e06f3","ios":"levelo://app?vid=5aa87bae-5799-4cb9-9962-17bda26e06f3"},"vehicle_type_id":"4","last_reported":1700626134,"current_range_meters":31200,"station_id":"ce4bh312rcd13ifvqdj0","pricing_plan_id":"free"},{"bike_id":"b4319b18-5548-4691-90e2-2eac47989fae","system_id":"levelo_inurba_marseille","lat":43.323464,"lon":5.406297,"is_reserved":false,"is_disabled":false,"rental_uris":{"android":"levelo://app?vid=b4319b18-5548-4691-90e2-2eac47989fae","ios":"levelo://app?vid=b4319b18-5548-4691-90e2-2eac47989fae"},"vehicle_type_id":"4","last_reported":1700626134,"current_range_meters":31200,"station_id":"ce4bhq92rcd13ifvqhjg","pricing_plan_id":"free"},{"bike_id":"cfeebfe5-ea8d-4ddb-9c81-b0a8cde4b3da","system_id":"levelo_inurba_marseille","lat":43.323464,"lon":5.406297,"is_reserved":false,"is_disabled":false,"rental_uris":{"android":"levelo://app?vid=cfeebfe5-ea8d-4ddb-9c81-b0a8cde4b3da","ios":"levelo://app?vid=cfeebfe5-ea8d-4ddb-9c81-b0a8cde4b3da"},"vehicle_type_id":"4","last_reported":1700626134,"current_range_meters":28000,"station_id":"ce4bhq92rcd13ifvqhjg","pricing_plan_id":"free"},{"bike_id":"01c77a63-5bbe-45a0-a9d5-00bfc6bed22c","system_id":"levelo_inurba_marseille","lat":43.284793,"lon":5.384113,"is_reserved":false,"is_disabled":false,"rental_uris":{"android":"levelo://app?vid=01c77a63-5bbe-45a0-a9d5-00bfc6bed22c","ios":"levelo://app?vid=01c77a63-5bbe-45a0-a9d5-00bfc6bed22c"},"vehicle_type_id":"4","last_reported":1700626134,"current_range_meters":23600,"station_id":"ce4bh512rcd13ifvqe3g","pricing_plan_id":"free"},{"bike_id":"46dbde4e-825b-403f-b6b6-91f886c4539f","system_id":"levelo_inurba_marseille","lat":43.297946,"lon":5.404063,"is_reserved":false,"is_disabled":false,"rental_uris":{"android":"levelo://app?vid=46dbde4e-825b-403f-b6b6-91f886c4539f","ios":"levelo://app?vid=46dbde4e-825b-403f-b6b6-91f886c4539f"},"vehicle_type_id":"4","last_reported":1700626134,"current_range_meters":27600,"station_id":"ce4bh112rcd13ifvqd90","pricing_plan_id":"free"},{"bike_id":"8a2ecdc8-9f34-49c7-9027-a80e60b94aea","system_id":"levelo_inurba_marseille","lat":43.283498,"lon":5.380948,"is_reserved":false,"is_disabled":false,"rental_uris":{"android":"levelo://app?vid=8a2ecdc8-9f34-49c7-9027-a80e60b94aea","ios":"levelo://app?vid=8a2ecdc8-9f34-49c7-9027-a80e60b94aea"},"vehicle_type_id":"4","last_reported":1700626134,"current_range_meters":29600,"station_id":"ce4bh412rcd13ifvqdr0","pricing_plan_id":"free"},{"bike_id":"dc2b8756-096a-4b80-aaa4-6ea80ba46475","system_id":"levelo_inurba_marseille","lat":43.283494,"lon":5.380945,"is_reserved":false,"is_disabled":false,"rental_uris":{"android":"levelo://app?vid=dc2b8756-096a-4b80-aaa4-6ea80ba46475","ios":"levelo://app?vid=dc2b8756-096a-4b80-aaa4-6ea80ba46475"},"vehicle_type_id":"4","last_reported":1700626134,"current_range_meters":0,"station_id":"ce4bh412rcd13ifvqdr0","pricing_plan_id":"free"},{"bike_id":"9d46c555-a24c-4ab2-b004-a425f60c0ce4","system_id":"levelo_inurba_marseille","lat":43.28426,"lon":5.34993,"is_reserved":false,"is_disabled":false,"rental_uris":{"android":"levelo://app?vid=9d46c555-a24c-4ab2-b004-a425f60c0ce4","ios":"levelo://app?vid=9d46c555-a24c-4ab2-b004-a425f60c0ce4"},"vehicle_type_id":"4","last_reported":1700626134,"current_range_meters":8000,"station_id":"ce4bhbh2rcd13ifvqepg","pricing_plan_id":"free"},{"bike_id":"e57c9540-512f-4490-8f63-010ef0e8c825","system_id":"levelo_inurba_marseille","lat":43.284219,"lon":5.3497,"is_reserved":false,"is_disabled":false,"rental_uris":{"android":"levelo://app?vid=e57c9540-512f-4490-8f63-010ef0e8c825","ios":"levelo://app?vid=e57c9540-512f-4490-8f63-010ef0e8c825"},"vehicle_type_id":"4","last_reported":1700626134,"current_range_meters":28400,"station_id":"ce4bhbh2rcd13ifvqepg","pricing_plan_id":"free"},{"bike_id":"2a41fac7-1f30-4d55-a6c5-5380cde75405","system_id":"levelo_inurba_marseille","lat":43.284217,"lon":5.349697,"is_reserved":false,"is_disabled":false,"rental_uris":{"android":"levelo://app?vid=2a41fac7-1f30-4d55-a6c5-5380cde75405","ios":"levelo://app?vid=2a41fac7-1f30-4d55-a6c5-5380cde75405"},"vehicle_type_id":"4","last_reported":1700626134,"current_range_meters":23600,"station_id":"ce4bhbh2rcd13ifvqepg","pricing_plan_id":"free"},{"bike_id":"4a2de906-22ae-4536-8388-16e1bd93a100","system_id":"levelo_inurba_marseille","lat":43.284204,"lon":5.349893,"is_reserved":false,"is_disabled":false,"rental_uris":{"android":"levelo://app?vid=4a2de906-22ae-4536-8388-16e1bd93a100","ios":"levelo://app?vid=4a2de906-22ae-4536-8388-16e1bd93a100"},"vehicle_type_id":"4","last_reported":1700626134,"current_range_meters":8000,"station_id":"ce4bhbh2rcd13ifvqepg","pricing_plan_id":"free"},{"bike_id":"a915fd1c-9128-4c2f-bc4f-b0c446622785","system_id":"levelo_inurba_marseille","lat":43.284217,"lon":5.349697,"is_reserved":false,"is_disabled":false,"rental_uris":{"android":"levelo://app?vid=a915fd1c-9128-4c2f-bc4f-b0c446622785","ios":"levelo://app?vid=a915fd1c-9128-4c2f-bc4f-b0c446622785"},"vehicle_type_id":"4","last_reported":1700626134,"current_range_meters":28000,"station_id":"ce4bhbh2rcd13ifvqepg","pricing_plan_id":"free"},{"bike_id":"c8cfd9ab-d3bf-4c62-a1f3-f8793f300892","system_id":"levelo_inurba_marseille","lat":43.284142,"lon":5.349908,"is_reserved":false,"is_disabled":false,"rental_uris":{"android":"levelo://app?vid=c8cfd9ab-d3bf-4c62-a1f3-f8793f300892","ios":"levelo://app?vid=c8cfd9ab-d3bf-4c62-a1f3-f8793f300892"},"vehicle_type_id":"4","last_reported":1700626134,"current_range_meters":30000,"station_id":"ce4bhbh2rcd13ifvqepg","pricing_plan_id":"free"},{"bike_id":"fefd2ea7-5fd7-4c62-b5ae-2417ceab43c6","system_id":"levelo_inurba_marseille","lat":43.292724,"lon":5.401131,"is_reserved":false,"is_disabled":false,"rental_uris":{"android":"levelo://app?vid=fefd2ea7-5fd7-4c62-b5ae-2417ceab43c6","ios":"levelo://app?vid=fefd2ea7-5fd7-4c62-b5ae-2417ceab43c6"},"vehicle_type_id":"4","last_reported":1700626134,"current_range_meters":30400,"station_id":"ce4bh312rcd13ifvqdk0","pricing_plan_id":"free"},{"bike_id":"c1a02b41-19de-46c6-abb0-13642ac81b0f","system_id":"levelo_inurba_marseille","lat":43.292724,"lon":5.401131,"is_reserved":false,"is_disabled":false,"rental_uris":{"android":"levelo://app?vid=c1a02b41-19de-46c6-abb0-13642ac81b0f","ios":"levelo://app?vid=c1a02b41-19de-46c6-abb0-13642ac81b0f"},"vehicle_type_id":"4","last_reported":1700626134,"current_range_meters":27600,"station_id":"ce4bh312rcd13ifvqdk0","pricing_plan_id":"free"},{"bike_id":"74e481aa-25b5-4f5b-b8cd-79b4a634f242","system_id":"levelo_inurba_marseille","lat":43.28272,"lon":5.35066,"is_reserved":false,"is_disabled":false,"rental_uris":{"android":"levelo://app?vid=74e481aa-25b5-4f5b-b8cd-79b4a634f242","ios":"levelo://app?vid=74e481aa-25b5-4f5b-b8cd-79b4a634f242"},"vehicle_type_id":"4","last_reported":1700626134,"current_range_meters":30000,"station_id":"ce4bhbp2rcd13ifvqerg","pricing_plan_id":"free"},{"bike_id":"49b4c011-618e-45f7-b321-5a2afe0f4e49","system_id":"levelo_inurba_marseille","lat":43.282754,"lon":5.350519,"is_reserved":false,"is_disabled":false,"rental_uris":{"android":"levelo://app?vid=49b4c011-618e-45f7-b321-5a2afe0f4e49","ios":"levelo://app?vid=49b4c011-618e-45f7-b321-5a2afe0f4e49"},"vehicle_type_id":"4","last_reported":1700626134,"current_range_meters":31200,"station_id":"ce4bhbp2rcd13ifvqerg","pricing_plan_id":"free"},{"bike_id":"0571e252-5acc-4741-aa6f-ba8321e320f8","system_id":"levelo_inurba_marseille","lat":43.282744,"lon":5.350533,"is_reserved":false,"is_disabled":false,"rental_uris":{"android":"levelo://app?vid=0571e252-5acc-4741-aa6f-ba8321e320f8","ios":"levelo://app?vid=0571e252-5acc-4741-aa6f-ba8321e320f8"},"vehicle_type_id":"4","last_reported":1700626134,"current_range_meters":31200,"station_id":"ce4bhbp2rcd13ifvqerg","pricing_plan_id":"free"},{"bike_id":"6d068ae4-8aba-4958-a002-11c2ac3f318a","system_id":"levelo_inurba_marseille","lat":43.282754,"lon":5.350519,"is_reserved":false,"is_disabled":false,"rental_uris":{"android":"levelo://app?vid=6d068ae4-8aba-4958-a002-11c2ac3f318a","ios":"levelo://app?vid=6d068ae4-8aba-4958-a002-11c2ac3f318a"},"vehicle_type_id":"4","last_reported":1700626134,"current_range_meters":31200,"station_id":"ce4bhbp2rcd13ifvqerg","pricing_plan_id":"free"},{"bike_id":"3e5e3059-083a-49d0-9b09-b52e942c9fc3","system_id":"levelo_inurba_marseille","lat":43.282754,"lon":5.350519,"is_reserved":false,"is_disabled":false,"rental_uris":{"android":"levelo://app?vid=3e5e3059-083a-49d0-9b09-b52e942c9fc3","ios":"levelo://app?vid=3e5e3059-083a-49d0-9b09-b52e942c9fc3"},"vehicle_type_id":"4","last_reported":1700626134,"current_range_meters":19200,"station_id":"ce4bhbp2rcd13ifvqerg","pricing_plan_id":"free"},{"bike_id":"eace2be8-2781-4338-ba7d-44b9df37bcb4","system_id":"levelo_inurba_marseille","lat":43.28042,"lon":5.36953,"is_reserved":false,"is_disabled":false,"rental_uris":{"android":"levelo://app?vid=eace2be8-2781-4338-ba7d-44b9df37bcb4","ios":"levelo://app?vid=eace2be8-2781-4338-ba7d-44b9df37bcb4"},"vehicle_type_id":"4","last_reported":1700626134,"current_range_meters":30400,"station_id":"ce4bha12rcd13ifvqef0","pricing_plan_id":"free"},{"bike_id":"7fa99490-1cc1-4f63-899f-8f070996c057","system_id":"levelo_inurba_marseille","lat":43.28039,"lon":5.369297,"is_reserved":false,"is_disabled":false,"rental_uris":{"android":"levelo://app?vid=7fa99490-1cc1-4f63-899f-8f070996c057","ios":"levelo://app?vid=7fa99490-1cc1-4f63-899f-8f070996c057"},"vehicle_type_id":"4","last_reported":1700626134,"current_range_meters":16400,"station_id":"ce4bha12rcd13ifvqef0","pricing_plan_id":"free"},{"bike_id":"65370498-ebdb-487f-8a9a-25d7282128d7","system_id":"levelo_inurba_marseille","lat":43.281044,"lon":5.378308,"is_reserved":false,"is_disabled":false,"rental_uris":{"android":"levelo://app?vid=65370498-ebdb-487f-8a9a-25d7282128d7","ios":"levelo://app?vid=65370498-ebdb-487f-8a9a-25d7282128d7"},"vehicle_type_id":"4","last_reported":1700626134,"current_range_meters":28000,"station_id":"ce4bha12rcd13ifvqee0","pricing_plan_id":"free"},{"bike_id":"b9b95390-d201-4459-a702-3f85ef0e4197","system_id":"levelo_inurba_marseille","lat":43.281044,"lon":5.378308,"is_reserved":false,"is_disabled":false,"rental_uris":{"android":"levelo://app?vid=b9b95390-d201-4459-a702-3f85ef0e4197","ios":"levelo://app?vid=b9b95390-d201-4459-a702-3f85ef0e4197"},"vehicle_type_id":"4","last_reported":1700626134,"current_range_meters":28800,"station_id":"ce4bha12rcd13ifvqee0","pricing_plan_id":"free"},{"bike_id":"34390cca-f633-419f-99f3-0c9d7a498494","system_id":"levelo_inurba_marseille","lat":43.296263,"lon":5.40601,"is_reserved":false,"is_disabled":false,"rental_uris":{"android":"levelo://app?vid=34390cca-f633-419f-99f3-0c9d7a498494","ios":"levelo://app?vid=34390cca-f633-419f-99f3-0c9d7a498494"},"vehicle_type_id":"4","last_reported":1700626134,"current_range_meters":22400,"station_id":"ce4bh0h2rcd13ifvqd60","pricing_plan_id":"free"},{"bike_id":"4b664c04-dab5-4084-a5c4-df3decd18aa6","system_id":"levelo_inurba_marseille","lat":43.326605,"lon":5.409903,"is_reserved":false,"is_disabled":false,"rental_uris":{"android":"levelo://app?vid=4b664c04-dab5-4084-a5c4-df3decd18aa6","ios":"levelo://app?vid=4b664c04-dab5-4084-a5c4-df3decd18aa6"},"vehicle_type_id":"4","last_reported":1700626134,"current_range_meters":26000,"station_id":"ce4bhpp2rcd13ifvqhgg","pricing_plan_id":"free"},{"bike_id":"f48f63ff-d6de-4989-b8cc-c27b4cd08b3c","system_id":"levelo_inurba_marseille","lat":43.279087,"lon":5.380114,"is_reserved":false,"is_disabled":false,"rental_uris":{"android":"levelo://app?vid=f48f63ff-d6de-4989-b8cc-c27b4cd08b3c","ios":"levelo://app?vid=f48f63ff-d6de-4989-b8cc-c27b4cd08b3c"},"vehicle_type_id":"4","last_reported":1700626134,"current_range_meters":23200,"station_id":"ce4bhf92rcd13ifvqf50","pricing_plan_id":"free"},{"bike_id":"e5077efc-1590-4aed-8b33-57b27dba9701","system_id":"levelo_inurba_marseille","lat":43.28707,"lon":5.39974,"is_reserved":false,"is_disabled":false,"rental_uris":{"android":"levelo://app?vid=e5077efc-1590-4aed-8b33-57b27dba9701","ios":"levelo://app?vid=e5077efc-1590-4aed-8b33-57b27dba9701"},"vehicle_type_id":"4","last_reported":1700626134,"current_range_meters":27600,"station_id":"ce4bho92rcd13ifvqh3g","pricing_plan_id":"free"},{"bike_id":"041db313-cab5-473a-b4e4-bec772538039","system_id":"levelo_inurba_marseille","lat":43.287154,"lon":5.399979,"is_reserved":false,"is_disabled":false,"rental_uris":{"android":"levelo://app?vid=041db313-cab5-473a-b4e4-bec772538039","ios":"levelo://app?vid=041db313-cab5-473a-b4e4-bec772538039"},"vehicle_type_id":"4","last_reported":1700626134,"current_range_meters":31600,"station_id":"ce4bho92rcd13ifvqh3g","pricing_plan_id":"free"},{"bike_id":"19c66b24-d22b-4fe7-ab6d-fcb66823a5e7","system_id":"levelo_inurba_marseille","lat":43.287154,"lon":5.399979,"is_reserved":false,"is_disabled":false,"rental_uris":{"android":"levelo://app?vid=19c66b24-d22b-4fe7-ab6d-fcb66823a5e7","ios":"levelo://app?vid=19c66b24-d22b-4fe7-ab6d-fcb66823a5e7"},"vehicle_type_id":"4","last_reported":1700626134,"current_range_meters":31200,"station_id":"ce4bho92rcd13ifvqh3g","pricing_plan_id":"free"},{"bike_id":"8559b857-346f-49fb-850f-ec2f7d61e5a7","system_id":"levelo_inurba_marseille","lat":43.28702,"lon":5.39988,"is_reserved":false,"is_disabled":false,"rental_uris":{"android":"levelo://app?vid=8559b857-346f-49fb-850f-ec2f7d61e5a7","ios":"levelo://app?vid=8559b857-346f-49fb-850f-ec2f7d61e5a7"},"vehicle_type_id":"4","last_reported":1700626134,"current_range_meters":4800,"station_id":"ce4bho92rcd13ifvqh3g","pricing_plan_id":"free"},{"bike_id":"1cf6f3a9-693a-415c-9eb8-0d611a17f941","system_id":"levelo_inurba_marseille","lat":43.287154,"lon":5.399979,"is_reserved":false,"is_disabled":false,"rental_uris":{"android":"levelo://app?vid=1cf6f3a9-693a-415c-9eb8-0d611a17f941","ios":"levelo://app?vid=1cf6f3a9-693a-415c-9eb8-0d611a17f941"},"vehicle_type_id":"4","last_reported":1700626134,"current_range_meters":22000,"station_id":"ce4bho92rcd13ifvqh3g","pricing_plan_id":"free"},{"bike_id":"627824b5-28d6-47b8-9b09-d7f7bf591a29","system_id":"levelo_inurba_marseille","lat":43.299579,"lon":5.413255,"is_reserved":false,"is_disabled":false,"rental_uris":{"android":"levelo://app?vid=627824b5-28d6-47b8-9b09-d7f7bf591a29","ios":"levelo://app?vid=627824b5-28d6-47b8-9b09-d7f7bf591a29"},"vehicle_type_id":"4","last_reported":1700626134,"current_range_meters":23600,"station_id":"ce4bhp12rcd13ifvqh9g","pricing_plan_id":"free"},{"bike_id":"cf7c6503-d761-4e4a-b826-f55f74848caf","system_id":"levelo_inurba_marseille","lat":43.34884,"lon":5.3751,"is_reserved":false,"is_disabled":false,"rental_uris":{"android":"levelo://app?vid=cf7c6503-d761-4e4a-b826-f55f74848caf","ios":"levelo://app?vid=cf7c6503-d761-4e4a-b826-f55f74848caf"},"vehicle_type_id":"4","last_reported":1700626134,"current_range_meters":6400,"station_id":"","pricing_plan_id":"free"},{"bike_id":"045c70f2-7606-42e8-8050-b126bde728dd","system_id":"levelo_inurba_marseille","lat":43.292569,"lon":5.409107,"is_reserved":false,"is_disabled":false,"rental_uris":{"android":"levelo://app?vid=045c70f2-7606-42e8-8050-b126bde728dd","ios":"levelo://app?vid=045c70f2-7606-42e8-8050-b126bde728dd"},"vehicle_type_id":"4","last_reported":1700626134,"current_range_meters":6400,"station_id":"ce4bh192rcd13ifvqdc0","pricing_plan_id":"free"},{"bike_id":"0cd96ede-41dc-4587-a581-a4e3f2a19eb8","system_id":"levelo_inurba_marseille","lat":43.292571,"lon":5.409107,"is_reserved":false,"is_disabled":false,"rental_uris":{"android":"levelo://app?vid=0cd96ede-41dc-4587-a581-a4e3f2a19eb8","ios":"levelo://app?vid=0cd96ede-41dc-4587-a581-a4e3f2a19eb8"},"vehicle_type_id":"4","last_reported":1700626134,"current_range_meters":28400,"station_id":"ce4bh192rcd13ifvqdc0","pricing_plan_id":"free"},{"bike_id":"445c4024-e799-4f48-ae0b-ca4bfac6857f","system_id":"levelo_inurba_marseille","lat":43.292569,"lon":5.409107,"is_reserved":false,"is_disabled":false,"rental_uris":{"android":"levelo://app?vid=445c4024-e799-4f48-ae0b-ca4bfac6857f","ios":"levelo://app?vid=445c4024-e799-4f48-ae0b-ca4bfac6857f"},"vehicle_type_id":"4","last_reported":1700626134,"current_range_meters":23600,"station_id":"ce4bh192rcd13ifvqdc0","pricing_plan_id":"free"},{"bike_id":"e709c08e-6284-4689-a9d6-07caf9663a54","system_id":"levelo_inurba_marseille","lat":43.292518,"lon":5.409088,"is_reserved":false,"is_disabled":false,"rental_uris":{"android":"levelo://app?vid=e709c08e-6284-4689-a9d6-07caf9663a54","ios":"levelo://app?vid=e709c08e-6284-4689-a9d6-07caf9663a54"},"vehicle_type_id":"4","last_reported":1700626134,"current_range_meters":0,"station_id":"ce4bh192rcd13ifvqdc0","pricing_plan_id":"free"},{"bike_id":"8fba0ca2-3f94-4591-8094-3fb8f24b54d7","system_id":"levelo_inurba_marseille","lat":43.292569,"lon":5.409107,"is_reserved":false,"is_disabled":false,"rental_uris":{"android":"levelo://app?vid=8fba0ca2-3f94-4591-8094-3fb8f24b54d7","ios":"levelo://app?vid=8fba0ca2-3f94-4591-8094-3fb8f24b54d7"},"vehicle_type_id":"4","last_reported":1700626134,"current_range_meters":27200,"station_id":"ce4bh192rcd13ifvqdc0","pricing_plan_id":"free"},{"bike_id":"99b7b3e2-fb47-4e03-b5b8-5bf5b8fd0d6c","system_id":"levelo_inurba_marseille","lat":43.293654,"lon":5.412599,"is_reserved":false,"is_disabled":false,"rental_uris":{"android":"levelo://app?vid=99b7b3e2-fb47-4e03-b5b8-5bf5b8fd0d6c","ios":"levelo://app?vid=99b7b3e2-fb47-4e03-b5b8-5bf5b8fd0d6c"},"vehicle_type_id":"4","last_reported":1700626134,"current_range_meters":2000,"station_id":"","pricing_plan_id":"free"},{"bike_id":"c8f96e88-7935-4759-924d-d86aa6fcd9e0","system_id":"levelo_inurba_marseille","lat":43.303837,"lon":5.418724,"is_reserved":false,"is_disabled":false,"rental_uris":{"android":"levelo://app?vid=c8f96e88-7935-4759-924d-d86aa6fcd9e0","ios":"levelo://app?vid=c8f96e88-7935-4759-924d-d86aa6fcd9e0"},"vehicle_type_id":"4","last_reported":1700626134,"current_range_meters":23200,"station_id":"ce4bhop2rcd13ifvqh7g","pricing_plan_id":"free"},{"bike_id":"e60a910c-cb1c-4604-992d-27f17a54ad87","system_id":"levelo_inurba_marseille","lat":43.278399,"lon":5.392139,"is_reserved":false,"is_disabled":false,"rental_uris":{"android":"levelo://app?vid=e60a910c-cb1c-4604-992d-27f17a54ad87","ios":"levelo://app?vid=e60a910c-cb1c-4604-992d-27f17a54ad87"},"vehicle_type_id":"4","last_reported":1700626134,"current_range_meters":28400,"station_id":"ce4bhjp2rcd13ifvqga0","pricing_plan_id":"free"},{"bike_id":"88fdd8f0-3689-4857-af04-f7263958a8f2","system_id":"levelo_inurba_marseille","lat":43.273609,"lon":5.362708,"is_reserved":false,"is_disabled":false,"rental_uris":{"android":"levelo://app?vid=88fdd8f0-3689-4857-af04-f7263958a8f2","ios":"levelo://app?vid=88fdd8f0-3689-4857-af04-f7263958a8f2"},"vehicle_type_id":"4","last_reported":1700626134,"current_range_meters":30000,"station_id":"ce4bhbh2rcd13ifvqeo0","pricing_plan_id":"free"},{"bike_id":"b65b13fd-935e-4127-a40c-20b40fa60eae","system_id":"levelo_inurba_marseille","lat":43.33612,"lon":5.410321,"is_reserved":false,"is_disabled":false,"rental_uris":{"android":"levelo://app?vid=b65b13fd-935e-4127-a40c-20b40fa60eae","ios":"levelo://app?vid=b65b13fd-935e-4127-a40c-20b40fa60eae"},"vehicle_type_id":"4","last_reported":1700626134,"current_range_meters":31200,"station_id":"ce4bhqh2rcd13ifvqhmg","pricing_plan_id":"free"},{"bike_id":"de78f607-a59c-4cbe-8b35-d5df823b73ff","system_id":"levelo_inurba_marseille","lat":43.336148,"lon":5.410349,"is_reserved":false,"is_disabled":false,"rental_uris":{"android":"levelo://app?vid=de78f607-a59c-4cbe-8b35-d5df823b73ff","ios":"levelo://app?vid=de78f607-a59c-4cbe-8b35-d5df823b73ff"},"vehicle_type_id":"4","last_reported":1700626134,"current_range_meters":26000,"station_id":"ce4bhqh2rcd13ifvqhmg","pricing_plan_id":"free"},{"bike_id":"e1b55124-3678-4f35-bcd5-df0abc78cbb3","system_id":"levelo_inurba_marseille","lat":43.33612,"lon":5.410321,"is_reserved":false,"is_disabled":false,"rental_uris":{"android":"levelo://app?vid=e1b55124-3678-4f35-bcd5-df0abc78cbb3","ios":"levelo://app?vid=e1b55124-3678-4f35-bcd5-df0abc78cbb3"},"vehicle_type_id":"4","last_reported":1700626134,"current_range_meters":31200,"station_id":"ce4bhqh2rcd13ifvqhmg","pricing_plan_id":"free"},{"bike_id":"9897f433-99ec-43bb-acdf-6a5b2025c308","system_id":"levelo_inurba_marseille","lat":43.310785,"lon":5.424305,"is_reserved":false,"is_disabled":false,"rental_uris":{"android":"levelo://app?vid=9897f433-99ec-43bb-acdf-6a5b2025c308","ios":"levelo://app?vid=9897f433-99ec-43bb-acdf-6a5b2025c308"},"vehicle_type_id":"4","last_reported":1700626134,"current_range_meters":27200,"station_id":"ce4bhp92rcd13ifvqhag","pricing_plan_id":"free"},{"bike_id":"114187af-32af-4dba-9a5b-7cf8db15d20c","system_id":"levelo_inurba_marseille","lat":43.310785,"lon":5.424305,"is_reserved":false,"is_disabled":false,"rental_uris":{"android":"levelo://app?vid=114187af-32af-4dba-9a5b-7cf8db15d20c","ios":"levelo://app?vid=114187af-32af-4dba-9a5b-7cf8db15d20c"},"vehicle_type_id":"4","last_reported":1700626134,"current_range_meters":31200,"station_id":"ce4bhp92rcd13ifvqhag","pricing_plan_id":"free"},{"bike_id":"f592bd96-cc29-4f0f-b6af-90518383de8e","system_id":"levelo_inurba_marseille","lat":43.340804,"lon":5.410219,"is_reserved":false,"is_disabled":false,"rental_uris":{"android":"levelo://app?vid=f592bd96-cc29-4f0f-b6af-90518383de8e","ios":"levelo://app?vid=f592bd96-cc29-4f0f-b6af-90518383de8e"},"vehicle_type_id":"4","last_reported":1700626134,"current_range_meters":30800,"station_id":"ce4bhqh2rcd13ifvqhlg","pricing_plan_id":"free"},{"bike_id":"b8f8de69-b0ef-4a0a-8c6b-cd4d5e98bed4","system_id":"levelo_inurba_marseille","lat":43.340804,"lon":5.410219,"is_reserved":false,"is_disabled":false,"rental_uris":{"android":"levelo://app?vid=b8f8de69-b0ef-4a0a-8c6b-cd4d5e98bed4","ios":"levelo://app?vid=b8f8de69-b0ef-4a0a-8c6b-cd4d5e98bed4"},"vehicle_type_id":"4","last_reported":1700626134,"current_range_meters":0,"station_id":"ce4bhqh2rcd13ifvqhlg","pricing_plan_id":"free"},{"bike_id":"046a1592-e371-4373-8640-74aebd7f5e72","system_id":"levelo_inurba_marseille","lat":43.340804,"lon":5.410219,"is_reserved":false,"is_disabled":false,"rental_uris":{"android":"levelo://app?vid=046a1592-e371-4373-8640-74aebd7f5e72","ios":"levelo://app?vid=046a1592-e371-4373-8640-74aebd7f5e72"},"vehicle_type_id":"4","last_reported":1700626134,"current_range_meters":8800,"station_id":"ce4bhqh2rcd13ifvqhlg","pricing_plan_id":"free"},{"bike_id":"047064be-c3a7-4470-8d35-33830f8d085d","system_id":"levelo_inurba_marseille","lat":43.295511,"lon":5.422926,"is_reserved":false,"is_disabled":false,"rental_uris":{"android":"levelo://app?vid=047064be-c3a7-4470-8d35-33830f8d085d","ios":"levelo://app?vid=047064be-c3a7-4470-8d35-33830f8d085d"},"vehicle_type_id":"4","last_reported":1700626134,"current_range_meters":30000,"station_id":"ce4bhph2rcd13ifvqhdg","pricing_plan_id":"free"},{"bike_id":"54c01033-6121-43cd-99f3-7b0407a11e9f","system_id":"levelo_inurba_marseille","lat":43.295511,"lon":5.422926,"is_reserved":false,"is_disabled":false,"rental_uris":{"android":"levelo://app?vid=54c01033-6121-43cd-99f3-7b0407a11e9f","ios":"levelo://app?vid=54c01033-6121-43cd-99f3-7b0407a11e9f"},"vehicle_type_id":"4","last_reported":1700626134,"current_range_meters":31200,"station_id":"ce4bhph2rcd13ifvqhdg","pricing_plan_id":"free"},{"bike_id":"d63f0213-db4d-4ade-9fb5-b0161bcbc51a","system_id":"levelo_inurba_marseille","lat":43.27216,"lon":5.39263,"is_reserved":false,"is_disabled":false,"rental_uris":{"android":"levelo://app?vid=d63f0213-db4d-4ade-9fb5-b0161bcbc51a","ios":"levelo://app?vid=d63f0213-db4d-4ade-9fb5-b0161bcbc51a"},"vehicle_type_id":"4","last_reported":1700626134,"current_range_meters":0,"station_id":"","pricing_plan_id":"free"},{"bike_id":"d0bb53f7-f1b8-4609-a668-27efdac67f66","system_id":"levelo_inurba_marseille","lat":43.27195,"lon":5.39248,"is_reserved":false,"is_disabled":false,"rental_uris":{"android":"levelo://app?vid=d0bb53f7-f1b8-4609-a668-27efdac67f66","ios":"levelo://app?vid=d0bb53f7-f1b8-4609-a668-27efdac67f66"},"vehicle_type_id":"4","last_reported":1700626134,"current_range_meters":0,"station_id":"","pricing_plan_id":"free"},{"bike_id":"cbc2fb9f-e1d7-438a-87af-611b36f7eeb3","system_id":"levelo_inurba_marseille","lat":43.271891,"lon":5.392412,"is_reserved":false,"is_disabled":false,"rental_uris":{"android":"levelo://app?vid=cbc2fb9f-e1d7-438a-87af-611b36f7eeb3","ios":"levelo://app?vid=cbc2fb9f-e1d7-438a-87af-611b36f7eeb3"},"vehicle_type_id":"4","last_reported":1700626134,"current_range_meters":0,"station_id":"","pricing_plan_id":"free"},{"bike_id":"ae46bd27-5b66-4df7-90d4-1f5c1646b7c1","system_id":"levelo_inurba_marseille","lat":43.278128,"lon":5.407195,"is_reserved":false,"is_disabled":false,"rental_uris":{"android":"levelo://app?vid=ae46bd27-5b66-4df7-90d4-1f5c1646b7c1","ios":"levelo://app?vid=ae46bd27-5b66-4df7-90d4-1f5c1646b7c1"},"vehicle_type_id":"4","last_reported":1700626134,"current_range_meters":28800,"station_id":"ce4bhnh2rcd13ifvqgtg","pricing_plan_id":"free"},{"bike_id":"a92bfb05-4bf9-42c4-a7dd-ec6b922d52ae","system_id":"levelo_inurba_marseille","lat":43.278128,"lon":5.407195,"is_reserved":false,"is_disabled":false,"rental_uris":{"android":"levelo://app?vid=a92bfb05-4bf9-42c4-a7dd-ec6b922d52ae","ios":"levelo://app?vid=a92bfb05-4bf9-42c4-a7dd-ec6b922d52ae"},"vehicle_type_id":"4","last_reported":1700626134,"current_range_meters":30400,"station_id":"ce4bhnh2rcd13ifvqgtg","pricing_plan_id":"free"},