{"last_updated":1743495251,"ttl":60,"version":"2.2","data":{"bikes":[{"bike_id":"7a16227c-8b85-46e8-a87c-8349c4711248","system_id":"levelo_inurba_marseille","lat":43.28123,"lon":5.44591,"is_reserved":false,"is_disabled":true,"rental_uris":{"android":"levelo://app?vid=7a16227c-8b85-46e8-a87c-8349c4711248","ios":"levelo://app?vid=7a16227c-8b85-46e8-a87c-8349c4711248"},"vehicle_type_id":"4","last_reported":1743495251,"current_range_meters":0,"station_id":"","pricing_plan_id":"cebpf4jnsgd1na2vs0mg"},{"bike_id":"f28a2132-9d11-411c-a599-c4352a550e43","system_id":"levelo_inurba_marseille","lat":43.249,"lon":5.3938,"is_reserved":false,"is_disabled":true,"rental_uris":{"android":"levelo://app?vid=f28a2132-9d11-411c-a599-c4352a550e43","ios":"levelo://app?vid=f28a2132-9d11-411c-a599-c4352a550e43"},"vehicle_type_id":"4","last_reported":1743495251,"current_range_meters":0,"station_id":"","pricing_plan_id":"cebpf4jnsgd1na2vs0mg"},{"bike_id":"524c0a99-e50a-4944-b98a-364c85fd198c","system_id":"levelo_inurba_marseille","lat":43.28628,"lon":5.44356,"is_reserved":false,"is_disabled":true,"rental_uris":{"android":"levelo://app?vid=524c0a99-e50a-4944-b98a-364c85fd198c","ios":"levelo://app?vid=524c0a99-e50a-4944-b98a-364c85fd198c"},"vehicle_type_id":"4","last_reported":1743495251,"current_range_meters":0,"station_id":"","pricing_plan_id":"cebpf4jnsgd1na2vs0mg"},{"bike_id":"579b8b66-6a37-4f4c-ad3b-0acee14f6d2d","system_id":"levelo_inurba_marseille","lat":43.29515,"lon":5.44257,"is_reserved":false,"is_disabled":true,"rental_uris":{"android":"levelo://app?vid=579b8b66-6a37-4f4c-ad3b-0acee14f6d2d","ios":"levelo://app?vid=579b8b66-6a37-4f4c-ad3b-0acee14f6d2d"},"vehicle_type_id":"4","last_reported":1743495251,"current_range_meters":0,"station_id":"","pricing_plan_id":"cebpf4jnsgd1na2vs0mg"},{"bike_id":"e4023b76-3b3e-4e0a-83d8-f1f2c86a9a1a","system_id":"levelo_inurba_marseille","lat":43.2606,"lon":5.38653,"is_reserved":false,"is_disabled":true,"rental_uris":{"android":"levelo://app?vid=e4023b76-3b3e-4e0a-83d8-f1f2c86a9a1a","ios":"levelo://app?vid=e4023b76-3b3e-4e0a-83d8-f1f2c86a9a1a"},"vehicle_type_id":"4","last_reported":1743495251,"current_range_meters":0,"station_id":"","pricing_plan_id":"cebpf4jnsgd1na2vs0mg"},{"bike_id":"92afdbcf-6ec7-4b66-bca9-8d842f5bbee7","system_id":"levelo_inurba_marseille","lat":43.28184,"lon":5.42946,"is_reserved":false,"is_disabled":true,"rental_uris":{"android":"levelo://app?vid=92afdbcf-6ec7-4b66-bca9-8d842f5bbee7","ios":"levelo://app?vid=92afdbcf-6ec7-4b66-bca9-8d842f5bbee7"},"vehicle_type_id":"4","last_reported":1743495251,"current_range_meters":0,"station_id":"","pricing_plan_id":"cebpf4jnsgd1na2vs0mg"},{"bike_id":"04d84667-80d2-430a-a2ab-b0adb0b8c9ad","system_id":"levelo_inurba_marseille","lat":43.337444,"lon":5.374475,"is_reserved":false,"is_disabled":true,"rental_uris":{"android":"levelo://app?vid=04d84667-80d2-430a-a2ab-b0adb0b8c9ad","ios":"levelo://app?vid=04d84667-80d2-430a-a2ab-b0adb0b8c9ad"},"vehicle_type_id":"4","last_reported":1743495251,"current_range_meters":0,"station_id":"","pricing_plan_id":"cebpf4jnsgd1na2vs0mg"},{"bike_id":"288bb5a4-8592-4715-9f1c-af47147cb3c6","system_id":"levelo_inurba_marseille","lat":43.26151,"lon":5.41629,"is_reserved":false,"is_disabled":true,"rental_uris":{"android":"levelo://app?vid=288bb5a4-8592-4715-9f1c-af47147cb3c6","ios":"levelo://app?vid=288bb5a4-8592-4715-9f1c-af47147cb3c6"},"vehicle_type_id":"4","last_reported":1743495251,"current_range_meters":0,"station_id":"","pricing_plan_id":"cebpf4jnsgd1na2vs0mg"},{"bike_id":"d66efd4d-2488-42b1-8531-85fc7a0e8be3","system_id":"levelo_inurba_marseille","lat":43.29256,"lon":5.4092,"is_reserved":false,"is_disabled":true,"rental_uris":{"android":"levelo://app?vid=d66efd4d-2488-42b1-8531-85fc7a0e8be3","ios":"levelo://app?vid=d66efd4d-2488-42b1-8531-85fc7a0e8be3"},"vehicle_type_id":"4","last_reported":1743495251,"current_range_meters":0,"station_id":"ce4bh192rcd13ifvqdc0","pricing_plan_id":"cebpf4jnsgd1na2vs0mg"},{"bike_id":"a302fd5d-6ac2-4c48-b681-a04a1ae95507","system_id":"levelo_inurba_marseille","lat":43.2926,"lon":5.38435,"is_reserved":false,"is_disabled":true,"rental_uris":{"android":"levelo://app?vid=a302fd5d-6ac2-4c48-b681-a04a1ae95507","ios":"levelo://app?vid=a302fd5d-6ac2-4c48-b681-a04a1ae95507"},"vehicle_type_id":"4","last_reported":1743495251,"current_range_meters":0,"station_id":"ce4bh692rcd13ifvqea0","pricing_plan_id":"cebpf4jnsgd1na2vs0mg"},{"bike_id":"4d91ced1-bedd-49f8-a0ba-3fe80f1af8dd","system_id":"levelo_inurba_marseille","lat":43.28614,"lon":5.351,"is_reserved":false,"is_disabled":true,"rental_uris":{"android":"levelo://app?vid=4d91ced1-bedd-49f8-a0ba-3fe80f1af8dd","ios":"levelo://app?vid=4d91ced1-bedd-49f8-a0ba-3fe80f1af8dd"},"vehicle_type_id":"4","last_reported":1743495251,"current_range_meters":0,"station_id":"ce4bhch2rcd13ifvqeug","pricing_plan_id":"cebpf4jnsgd1na2vs0mg"},{"bike_id":"96613aa3-10a0-4439-b0f2-2c437bcf535a","system_id":"levelo_inurba_marseille","lat":43.26579,"lon":5.39052,"is_reserved":false,"is_disabled":true,"rental_uris":{"android":"levelo://app?vid=96613aa3-10a0-4439-b0f2-2c437bcf535a","ios":"levelo://app?vid=96613aa3-10a0-4439-b0f2-2c437bcf535a"},"vehicle_type_id":"4","last_reported":1743495251,"current_range_meters":0,"station_id":"ce4bhe12rcd13ifvqf30","pricing_plan_id":"cebpf4jnsgd1na2vs0mg"},{"bike_id":"421a04d3-fba2-404a-bff6-06d24ebdfc9c","system_id":"levelo_inurba_marseille","lat":43.24811,"lon":5.37461,"is_reserved":false,"is_disabled":true,"rental_uris":{"android":"levelo://app?vid=421a04d3-fba2-404a-bff6-06d24ebdfc9c","ios":"levelo://app?vid=421a04d3-fba2-404a-bff6-06d24ebdfc9c"},"vehicle_type_id":"4","last_reported":1743495251,"current_range_meters":0,"station_id":"ce4bhgh2rcd13ifvqfb0","pricing_plan_id":"cebpf4jnsgd1na2vs0mg"},{"bike_id":"008b18fd-057f-41a0-a64b-88e5ec72d6dd","system_id":"levelo_inurba_marseille","lat":43.24812,"lon":5.37473,"is_reserved":false,"is_disabled":true,"rental_uris":{"android":"levelo://app?vid=008b18fd-057f-41a0-a64b-88e5ec72d6dd","ios":"levelo://app?vid=008b18fd-057f-41a0-a64b-88e5ec72d6dd"},"vehicle_type_id":"4","last_reported":1743495251,"current_range_meters":0,"station_id":"ce4bhgh2rcd13ifvqfb0","pricing_plan_id":"cebpf4jnsgd1na2vs0mg"},{"bike_id":"2f11266e-421f-4291-86a1-dc7010c4ae42","system_id":"levelo_inurba_marseille","lat":43.24408,"lon":5.37052,"is_reserved":false,"is_disabled":true,"rental_uris":{"android":"levelo://app?vid=2f11266e-421f-4291-86a1-dc7010c4ae42","ios":"levelo://app?vid=2f11266e-421f-4291-86a1-dc7010c4ae42"},"vehicle_type_id":"4","last_reported":1743495251,"current_range_meters":0,"station_id":"ce4bhhh2rcd13ifvqfk0","pricing_plan_id":"cebpf4jnsgd1na2vs0mg"},{"bike_id":"ba0f8447-4ee8-4f0e-8c53-e6c21cfc5c4d","system_id":"levelo_inurba_marseille","lat":43.23341,"lon":5.435953,"is_reserved":false,"is_disabled":true,"rental_uris":{"android":"levelo://app?vid=ba0f8447-4ee8-4f0e-8c53-e6c21cfc5c4d","ios":"levelo://app?vid=ba0f8447-4ee8-4f0e-8c53-e6c21cfc5c4d"},"vehicle_type_id":"4","last_reported":1743495251,"current_range_meters":0,"station_id":"ce4bhmp2rcd13ifvqgog","pricing_plan_id":"cebpf4jnsgd1na2vs0mg"},{"bike_id":"ea26cff1-876d-4050-af3f-349fed32531f","system_id":"levelo_inurba_marseille","lat":43.231506,"lon":5.437189,"is_reserved":false,"is_disabled":true,"rental_uris":{"android":"levelo://app?vid=ea26cff1-876d-4050-af3f-349fed32531f","ios":"levelo://app?vid=ea26cff1-876d-4050-af3f-349fed32531f"},"vehicle_type_id":"4","last_reported":1743495251,"current_range_meters":0,"station_id":"ce4bhmp2rcd13ifvqgog","pricing_plan_id":"cebpf4jnsgd1na2vs0mg"},{"bike_id":"384b53be-0dd1-4ff6-96b3-76e22c52ec3c","system_id":"levelo_inurba_marseille","lat":43.27657,"lon":5.41877,"is_reserved":false,"is_disabled":true,"rental_uris":{"android":"levelo://app?vid=384b53be-0dd1-4ff6-96b3-76e22c52ec3c","ios":"levelo://app?vid=384b53be-0dd1-4ff6-96b3-76e22c52ec3c"},"vehicle_type_id":"4","last_reported":1743495251,"current_range_meters":400,"station_id":"","pricing_plan_id":"cebpf4jnsgd1na2vs0mg"},{"bike_id":"8e1952ef-708d-4544-bf7a-3efe55773eb4","system_id":"levelo_inurba_marseille","lat":43.25497,"lon":5.37649,"is_reserved":false,"is_disabled":true,"rental_uris":{"android":"levelo://app?vid=8e1952ef-708d-4544-bf7a-3efe55773eb4","ios":"levelo://app?vid=8e1952ef-708d-4544-bf7a-3efe55773eb4"},"vehicle_type_id":"4","last_reported":1743495251,"current_range_meters":400,"station_id":"ce4bhh12rcd13ifvqff0","pricing_plan_id":"cebpf4jnsgd1na2vs0mg"},{"bike_id":"2c32f01a-ee94-4e6e-ba90-0f41c5a42305","system_id":"levelo_inurba_marseille","lat":43.27505,"lon":5.42459,"is_reserved":false,"is_disabled":true,"rental_uris":{"android":"levelo://app?vid=2c32f01a-ee94-4e6e-ba90-0f41c5a42305","ios":"levelo://app?vid=2c32f01a-ee94-4e6e-ba90-0f41c5a42305"},"vehicle_type_id":"4","last_reported":1743495251,"current_range_meters":400,"station_id":"ce4bhn92rcd13ifvqgrg","pricing_plan_id":"cebpf4jnsgd1na2vs0mg"},{"bike_id":"c6201554-e4d1-4da1-a021-30355f6fe9fb","system_id":"levelo_inurba_marseille","lat":43.26958,"lon":5.38632,"is_reserved":false,"is_disabled":true,"rental_uris":{"android":"levelo://app?vid=c6201554-e4d1-4da1-a021-30355f6fe9fb","ios":"levelo://app?vid=c6201554-e4d1-4da1-a021-30355f6fe9fb"},"vehicle_type_id":"4","last_reported":1743495251,"current_range_meters":800,"station_id":"ce4bhh92rcd13ifvqfh0","pricing_plan_id":"cebpf4jnsgd1na2vs0mg"},{"bike_id":"0a81bfab-9a56-47b0-a8c2-108d5a62dd6a","system_id":"levelo_inurba_marseille","lat":43.25951,"lon":5.40865,"is_reserved":false,"is_disabled":true,"rental_uris":{"android":"levelo://app?vid=0a81bfab-9a56-47b0-a8c2-108d5a62dd6a","ios":"levelo://app?vid=0a81bfab-9a56-47b0-a8c2-108d5a62dd6a"},"vehicle_type_id":"4","last_reported":1743495251,"current_range_meters":800,"station_id":"ce4bhm92rcd13ifvqglg","pricing_plan_id":"cebpf4jnsgd1na2vs0mg"},{"bike_id":"a41cce1f-4998-4aa8-9a69-b971d8852a5b","system_id":"levelo_inurba_marseille","lat":43.3014,"lon":5.37419,"is_reserved":false,"is_disabled":true,"rental_uris":{"android":"levelo://app?vid=a41cce1f-4998-4aa8-9a69-b971d8852a5b","ios":"levelo://app?vid=a41cce1f-4998-4aa8-9a69-b971d8852a5b"},"vehicle_type_id":"4","last_reported":1743495251,"current_range_meters":1200,"station_id":"ce4bgs92rcd13ifvqcc0","pricing_plan_id":"cebpf4jnsgd1na2vs0mg"},{"bike_id":"3b8b5fcf-ba11-4a94-a416-2c8fbad336ed","system_id":"levelo_inurba_marseille","lat":43.29891,"lon":5.38915,"is_reserved":false,"is_disabled":true,"rental_uris":{"android":"levelo://app?vid=3b8b5fcf-ba11-4a94-a416-2c8fbad336ed","ios":"levelo://app?vid=3b8b5fcf-ba11-4a94-a416-2c8fbad336ed"},"vehicle_type_id":"4","last_reported":1743495251,"current_range_meters":1200,"station_id":"ce4bh392rcd13ifvqdl0","pricing_plan_id":"cebpf4jnsgd1na2vs0mg"},{"bike_id":"60f2c1d0-6f74-4669-9e8b-65b7793536c4","system_id":"levelo_inurba_marseille","lat":43.26555,"lon":5.37297,"is_reserved":false,"is_disabled":true,"rental_uris":{"android":"levelo://app?vid=60f2c1d0-6f74-4669-9e8b-65b7793536c4","ios":"levelo://app?vid=60f2c1d0-6f74-4669-9e8b-65b7793536c4"},"vehicle_type_id":"4","last_reported":1743495251,"current_range_meters":1200,"station_id":"ce4bhg12rcd13ifvqf70","pricing_plan_id":"cebpf4jnsgd1na2vs0mg"},{"bike_id":"e41cff70-c737-4bd6-bc96-2d3be618a7d8","system_id":"levelo_inurba_marseille","lat":43.25935,"lon":5.409,"is_reserved":false,"is_disabled":true,"rental_uris":{"android":"levelo://app?vid=e41cff70-c737-4bd6-bc96-2d3be618a7d8","ios":"levelo://app?vid=e41cff70-c737-4bd6-bc96-2d3be618a7d8"},"vehicle_type_id":"4","last_reported":1743495251,"current_range_meters":1200,"station_id":"ce4bhm92rcd13ifvqglg","pricing_plan_id":"cebpf4jnsgd1na2vs0mg"},{"bike_id":"cc887f71-f6a5-47e6-b197-188e9270f7fa","system_id":"levelo_inurba_marseille","lat":43.24082,"lon":5.37752,"is_reserved":false,"is_disabled":true,"rental_uris":{"android":"levelo://app?vid=cc887f71-f6a5-47e6-b197-188e9270f7fa","ios":"levelo://app?vid=cc887f71-f6a5-47e6-b197-188e9270f7fa"},"vehicle_type_id":"4","last_reported":1743495251,"current_range_meters":1200,"station_id":"ce4bhnp2rcd13ifvqgvg","pricing_plan_id":"cebpf4jnsgd1na2vs0mg"},{"bike_id":"49e00177-d685-4f2e-95b0-c1382e995408","system_id":"levelo_inurba_marseille","lat":43.32482,"lon":5.36563,"is_reserved":false,"is_disabled":true,"rental_uris":{"android":"levelo://app?vid=49e00177-d685-4f2e-95b0-c1382e995408","ios":"levelo://app?vid=49e00177-d685-4f2e-95b0-c1382e995408"},"vehicle_type_id":"4","last_reported":1743495251,"current_range_meters":1200,"station_id":"ce4bhs12rcd13ifvqhvg","pricing_plan_id":"cebpf4jnsgd1na2vs0mg"},{"bike_id":"b59d34a6-f9ee-42bf-b24e-a53eafb499a5","system_id":"levelo_inurba_marseille","lat":43.26789,"lon":5.40266,"is_reserved":false,"is_disabled":true,"rental_uris":{"android":"levelo://app?vid=b59d34a6-f9ee-42bf-b24e-a53eafb499a5","ios":"levelo://app?vid=b59d34a6-f9ee-42bf-b24e-a53eafb499a5"},"vehicle_type_id":"4","last_reported":1743495251,"current_range_meters":1200,"station_id":"ce501612rcd8frsf0b60","pricing_plan_id":"cebpf4jnsgd1na2vs0mg"},{"bike_id":"5be26c7d-7826-403a-a585-4e9cd4efe610","system_id":"levelo_inurba_marseille","lat":43.28355,"lon":5.38097,"is_reserved":false,"is_disabled":true,"rental_uris":{"android":"levelo://app?vid=5be26c7d-7826-403a-a585-4e9cd4efe610","ios":"levelo://app?vid=5be26c7d-7826-403a-a585-4e9cd4efe610"},"vehicle_type_id":"4","last_reported":1743495251,"current_range_meters":1600,"station_id":"ce4bh412rcd13ifvqdr0","pricing_plan_id":"cebpf4jnsgd1na2vs0mg"},{"bike_id":"5c82a2fb-d9b4-41c2-a19e-38edb89fa4b9","system_id":"levelo_inurba_marseille","lat":43.28938,"lon":5.3664,"is_reserved":false,"is_disabled":true,"rental_uris":{"android":"levelo://app?vid=5c82a2fb-d9b4-41c2-a19e-38edb89fa4b9","ios":"levelo://app?vid=5c82a2fb-d9b4-41c2-a19e-38edb89fa4b9"},"vehicle_type_id":"4","last_reported":1743495251,"current_range_meters":1600,"station_id":"ce4bhap2rcd13ifvqek0","pricing_plan_id":"cebpf4jnsgd1na2vs0mg"},{"bike_id":"883f48d7-9075-416f-85dd-00699f4cdc39","system_id":"levelo_inurba_marseille","lat":43.26699,"lon":5.3826,"is_reserved":false,"is_disabled":true,"rental_uris":{"android":"levelo://app?vid=883f48d7-9075-416f-85dd-00699f4cdc39","ios":"levelo://app?vid=883f48d7-9075-416f-85dd-00699f4cdc39"},"vehicle_type_id":"4","last_reported":1743495251,"current_range_meters":1600,"station_id":"ce4bhg92rcd13ifvqf90","pricing_plan_id":"cebpf4jnsgd1na2vs0mg"},{"bike_id":"48333b6d-e809-414d-9a53-5b3d018b5f3d","system_id":"levelo_inurba_marseille","lat":43.30951,"lon":5.39058,"is_reserved":false,"is_disabled":true,"rental_uris":{"android":"levelo://app?vid=48333b6d-e809-414d-9a53-5b3d018b5f3d","ios":"levelo://app?vid=48333b6d-e809-414d-9a53-5b3d018b5f3d"},"vehicle_type_id":"4","last_reported":1743495251,"current_range_meters":2000,"station_id":"ce4bgup2rcd13ifvqco0","pricing_plan_id":"cebpf4jnsgd1na2vs0mg"},{"bike_id":"1bdac2b0-4de0-490d-9929-a30ed334e5ac","system_id":"levelo_inurba_marseille","lat":43.28617,"lon":5.35106,"is_reserved":false,"is_disabled":true,"rental_uris":{"android":"levelo://app?vid=1bdac2b0-4de0-490d-9929-a30ed334e5ac","ios":"levelo://app?vid=1bdac2b0-4de0-490d-9929-a30ed334e5ac"},"vehicle_type_id":"4","last_reported":1743495251,"current_range_meters":2000,"station_id":"ce4bhch2rcd13ifvqeug","pricing_plan_id":"cebpf4jnsgd1na2vs0mg"},{"bike_id":"61800617-b95c-4c3f-bd70-503c4fd1b3d8","system_id":"levelo_inurba_marseille","lat":43.24069,"lon":5.37751,"is_reserved":false,"is_disabled":true,"rental_uris":{"android":"levelo://app?vid=61800617-b95c-4c3f-bd70-503c4fd1b3d8","ios":"levelo://app?vid=61800617-b95c-4c3f-bd70-503c4fd1b3d8"},"vehicle_type_id":"4","last_reported":1743495251,"current_range_meters":2000,"station_id":"ce4bhnp2rcd13ifvqgvg","pricing_plan_id":"cebpf4jnsgd1na2vs0mg"},{"bike_id":"ac96d8aa-a87a-4cbe-ac2a-4cf10cbcc69b","system_id":"levelo_inurba_marseille","lat":43.2407,"lon":5.37765,"is_reserved":false,"is_disabled":true,"rental_uris":{"android":"levelo://app?vid=ac96d8aa-a87a-4cbe-ac2a-4cf10cbcc69b","ios":"levelo://app?vid=ac96d8aa-a87a-4cbe-ac2a-4cf10cbcc69b"},"vehicle_type_id":"4","last_reported":1743495251,"current_range_meters":2000,"station_id":"ce4bhnp2rcd13ifvqgvg","pricing_plan_id":"cebpf4jnsgd1na2vs0mg"},{"bike_id":"77cef3c9-59a3-48f3-ad59-a47e43b511da","system_id":"levelo_inurba_marseille","lat":43.29597,"lon":5.38104,"is_reserved":false,"is_disabled":false,"rental_uris":{"android":"levelo://app?vid=77cef3c9-59a3-48f3-ad59-a47e43b511da","ios":"levelo://app?vid=77cef3c9-59a3-48f3-ad59-a47e43b511da"},"vehicle_type_id":"4","last_reported":1743495251,"current_range_meters":2800,"station_id":"ce4bgl12rcd13ifvqbo0","pricing_plan_id":"cebpf4jnsgd1na2vs0mg"},{"bike_id":"85e0e519-3232-4056-97f5-88bc3588848e","system_id":"levelo_inurba_marseille","lat":43.27907,"lon":5.39597,"is_reserved":false,"is_disabled":false,"rental_uris":{"android":"levelo://app?vid=85e0e519-3232-4056-97f5-88bc3588848e","ios":"levelo://app?vid=85e0e519-3232-4056-97f5-88bc3588848e"},"vehicle_type_id":"4","last_reported":1743495251,"current_range_meters":2800,"station_id":"ce4bhf92rcd13ifvqf40","pricing_plan_id":"cebpf4jnsgd1na2vs0mg"},{"bike_id":"1ec08633-84a0-4ef8-b954-3a48e83753f8","system_id":"levelo_inurba_marseille","lat":43.30828,"lon":5.36895,"is_reserved":false,"is_disabled":false,"rental_uris":{"android":"levelo://app?vid=1ec08633-84a0-4ef8-b954-3a48e83753f8","ios":"levelo://app?vid=1ec08633-84a0-4ef8-b954-3a48e83753f8"},"vehicle_type_id":"4","last_reported":1743495251,"current_range_meters":3200,"station_id":"","pricing_plan_id":"cebpf4jnsgd1na2vs0mg"},{"bike_id":"1b8f9f45-6e93-4a56-af52-953d66694570","system_id":"levelo_inurba_marseille","lat":43.29559,"lon":5.37506,"is_reserved":false,"is_disabled":false,"rental_uris":{"android":"levelo://app?vid=1b8f9f45-6e93-4a56-af52-953d66694570","ios":"levelo://app?vid=1b8f9f45-6e93-4a56-af52-953d66694570"},"vehicle_type_id":"4","last_reported":1743495251,"current_range_meters":3200,"station_id":"ce4bgh92rcd13ifvqb50","pricing_plan_id":"cebpf4jnsgd1na2vs0mg"},{"bike_id":"a25e50f5-4ee9-468c-b542-0833324479ff","system_id":"levelo_inurba_marseille","lat":43.27489,"lon":5.42466,"is_reserved":false,"is_disabled":false,"rental_uris":{"android":"levelo://app?vid=a25e50f5-4ee9-468c-b542-0833324479ff","ios":"levelo://app?vid=a25e50f5-4ee9-468c-b542-0833324479ff"},"vehicle_type_id":"4","last_reported":1743495251,"current_range_meters":3200,"station_id":"ce4bhn92rcd13ifvqgrg","pricing_plan_id":"cebpf4jnsgd1na2vs0mg"},{"bike_id":"6242c737-14f1-4fda-937f-f0923104f803","system_id":"levelo_inurba_marseille","lat":43.27996,"lon":5.41662,"is_reserved":false,"is_disabled":false,"rental_uris":{"android":"levelo://app?vid=6242c737-14f1-4fda-937f-f0923104f803","ios":"levelo://app?vid=6242c737-14f1-4fda-937f-f0923104f803"},"vehicle_type_id":"4","last_reported":1743495251,"current_range_meters":3200,"station_id":"ce4bho12rcd13ifvqh1g","pricing_plan_id":"cebpf4jnsgd1na2vs0mg"},{"bike_id":"e582113f-afd5-4c61-85c5-499c813117b3","system_id":"levelo_inurba_marseille","lat":43.324728,"lon":5.365598,"is_reserved":false,"is_disabled":false,"rental_uris":{"android":"levelo://app?vid=e582113f-afd5-4c61-85c5-499c813117b3","ios":"levelo://app?vid=e582113f-afd5-4c61-85c5-499c813117b3"},"vehicle_type_id":"4","last_reported":1743495251,"current_range_meters":3200,"station_id":"ce4bhs12rcd13ifvqhvg","pricing_plan_id":"cebpf4jnsgd1na2vs0mg"},{"bike_id":"33c55660-0541-469b-a476-383fff04337f","system_id":"levelo_inurba_marseille","lat":43.22942,"lon":5.35392,"is_reserved":false,"is_disabled":false,"rental_uris":{"android":"levelo://app?vid=33c55660-0541-469b-a476-383fff04337f","ios":"levelo://app?vid=33c55660-0541-469b-a476-383fff04337f"},"vehicle_type_id":"4","last_reported":1743495251,"current_range_meters":3200,"station_id":"cpo3532slgdg3j2ikp40","pricing_plan_id":"cebpf4jnsgd1na2vs0mg"},{"bike_id":"bb55a4d6-1b57-47c4-a403-e587b2ffed5f","system_id":"levelo_inurba_marseille","lat":43.2558,"lon":5.38225,"is_reserved":false,"is_disabled":false,"rental_uris":{"android":"levelo://app?vid=bb55a4d6-1b57-47c4-a403-e587b2ffed5f","ios":"levelo://app?vid=bb55a4d6-1b57-47c4-a403-e587b2ffed5f"},"vehicle_type_id":"4","last_reported":1743495251,"current_range_meters":3600,"station_id":"ce4bhih2rcd13ifvqfs0","pricing_plan_id":"cebpf4jnsgd1na2vs0mg"},{"bike_id":"7af5fdc4-d2af-4123-b036-a63e153d03c5","system_id":"levelo_inurba_marseille","lat":43.27503,"lon":5.4245,"is_reserved":false,"is_disabled":false,"rental_uris":{"android":"levelo://app?vid=7af5fdc4-d2af-4123-b036-a63e153d03c5","ios":"levelo://app?vid=7af5fdc4-d2af-4123-b036-a63e153d03c5"},"vehicle_type_id":"4","last_reported":1743495251,"current_range_meters":3600,"station_id":"ce4bhn92rcd13ifvqgrg","pricing_plan_id":"cebpf4jnsgd1na2vs0mg"},{"bike_id":"b321c824-0a64-46ec-922d-6b4a0b2d06df","system_id":"levelo_inurba_marseille","lat":43.30805,"lon":5.38163,"is_reserved":false,"is_disabled":false,"rental_uris":{"android":"levelo://app?vid=b321c824-0a64-46ec-922d-6b4a0b2d06df","ios":"levelo://app?vid=b321c824-0a64-46ec-922d-6b4a0b2d06df"},"vehicle_type_id":"4","last_reported":1743495251,"current_range_meters":4000,"station_id":"ce4bgt12rcd13ifvqce0","pricing_plan_id":"cebpf4jnsgd1na2vs0mg"},{"bike_id":"b3593ea0-f10f-4d2d-8fd4-ca8847ced39c","system_id":"levelo_inurba_marseille","lat":43.33602,"lon":5.41028,"is_reserved":false,"is_disabled":false,"rental_uris":{"android":"levelo://app?vid=b3593ea0-f10f-4d2d-8fd4-ca8847ced39c","ios":"levelo://app?vid=b3593ea0-f10f-4d2d-8fd4-ca8847ced39c"},"vehicle_type_id":"4","last_reported":1743495251,"current_range_meters":4000,"station_id":"ce4bhqh2rcd13ifvqhmg","pricing_plan_id":"cebpf4jnsgd1na2vs0mg"},{"bike_id":"5765a144-5e13-48ce-b91f-8ed514ce4b88","system_id":"levelo_inurba_marseille","lat":43.26944,"lon":5.4026,"is_reserved":false,"is_disabled":false,"rental_uris":{"android":"levelo://app?vid=5765a144-5e13-48ce-b91f-8ed514ce4b88","ios":"levelo://app?vid=5765a144-5e13-48ce-b91f-8ed514ce4b88"},"vehicle_type_id":"4","last_reported":1743495251,"current_range_meters":4000,"station_id":"cjm6bp8fraef2m0cb0m0","pricing_plan_id":"cebpf4jnsgd1na2vs0mg"},{"bike_id":"d269b65d-d389-4668-9db1-ebf62af935b4","system_id":"levelo_inurba_marseille","lat":43.2834,"lon":5.38113,"is_reserved":false,"is_disabled":false,"rental_uris":{"android":"levelo://app?vid=d269b65d-d389-4668-9db1-ebf62af935b4","ios":"levelo://app?vid=d269b65d-d389-4668-9db1-ebf62af935b4"},"vehicle_type_id":"4","last_reported":1743495251,"current_range_meters":4400,"station_id":"ce4bh412rcd13ifvqdr0","pricing_plan_id":"cebpf4jnsgd1na2vs0mg"},{"bike_id":"8dc0b004-47b3-49ed-b4ab-0f96abdb6651","system_id":"levelo_inurba_marseille","lat":43.24082,"lon":5.37749,"is_reserved":false,"is_disabled":false,"rental_uris":{"android":"levelo://app?vid=8dc0b004-47b3-49ed-b4ab-0f96abdb6651","ios":"levelo://app?vid=8dc0b004-47b3-49ed-b4ab-0f96abdb6651"},"vehicle_type_id":"4","last_reported":1743495251,"current_range_meters":4400,"station_id":"ce4bhnp2rcd13ifvqgvg","pricing_plan_id":"cebpf4jnsgd1na2vs0mg"},{"bike_id":"6165c5e1-15f4-4779-ba2f-91df8ba3f8c0","system_id":"levelo_inurba_marseille","lat":43.28911,"lon":5.42966,"is_reserved":false,"is_disabled":false,"rental_uris":{"android":"levelo://app?vid=6165c5e1-15f4-4779-ba2f-91df8ba3f8c0","ios":"levelo://app?vid=6165c5e1-15f4-4779-ba2f-91df8ba3f8c0"},"vehicle_type_id":"4","last_reported":1743495251,"current_range_meters":4800,"station_id":"","pricing_plan_id":"cebpf4jnsgd1na2vs0mg"},{"bike_id":"91170880-4cf1-4863-a6e6-c1c0a3783800","system_id":"levelo_inurba_marseille","lat":43.29043,"lon":5.37572,"is_reserved":false,"is_disabled":false,"rental_uris":{"android":"levelo://app?vid=91170880-4cf1-4863-a6e6-c1c0a3783800","ios":"levelo://app?vid=91170880-4cf1-4863-a6e6-c1c0a3783800"},"vehicle_type_id":"4","last_reported":1743495251,"current_range_meters":4800,"station_id":"ce4bh692rcd13ifvqe90","pricing_plan_id":"cebpf4jnsgd1na2vs0mg"},{"bike_id":"c093a4b3-578b-4606-ad4a-a7391033dadc","system_id":"levelo_inurba_marseille","lat":43.29919,"lon":5.37475,"is_reserved":false,"is_disabled":false,"rental_uris":{"android":"levelo://app?vid=c093a4b3-578b-4606-ad4a-a7391033dadc","ios":"levelo://app?vid=c093a4b3-578b-4606-ad4a-a7391033dadc"},"vehicle_type_id":"4","last_reported":1743495251,"current_range_meters":5600,"station_id":"ce4bgjh2rcd13ifvqbg0","pricing_plan_id":"cebpf4jnsgd1na2vs0mg"},{"bike_id":"af3cfe8c-ba88-488e-950b-915dc1379ac0","system_id":"levelo_inurba_marseille","lat":43.27357,"lon":5.36266,"is_reserved":false,"is_disabled":false,"rental_uris":{"android":"levelo://app?vid=af3cfe8c-ba88-488e-950b-915dc1379ac0","ios":"levelo://app?vid=af3cfe8c-ba88-488e-950b-915dc1379ac0"},"vehicle_type_id":"4","last_reported":1743495251,"current_range_meters":5600,"station_id":"ce4bhbh2rcd13ifvqeo0","pricing_plan_id":"cebpf4jnsgd1na2vs0mg"},{"bike_id":"f526792d-ebd7-407b-a5d5-4c05f31521c8","system_id":"levelo_inurba_marseille","lat":43.27811,"lon":5.40706,"is_reserved":false,"is_disabled":false,"rental_uris":{"android":"levelo://app?vid=f526792d-ebd7-407b-a5d5-4c05f31521c8","ios":"levelo://app?vid=f526792d-ebd7-407b-a5d5-4c05f31521c8"},"vehicle_type_id":"4","last_reported":1743495251,"current_range_meters":5600,"station_id":"ce4bhnh2rcd13ifvqgtg","pricing_plan_id":"cebpf4jnsgd1na2vs0mg"},{"bike_id":"163ef298-eef7-4a36-9a0b-af7b43be3065","system_id":"levelo_inurba_marseille","lat":43.240799,"lon":5.377517,"is_reserved":false,"is_disabled":false,"rental_uris":{"android":"levelo://app?vid=163ef298-eef7-4a36-9a0b-af7b43be3065","ios":"levelo://app?vid=163ef298-eef7-4a36-9a0b-af7b43be3065"},"vehicle_type_id":"4","last_reported":1743495251,"current_range_meters":5600,"station_id":"ce4bhnp2rcd13ifvqgvg","pricing_plan_id":"cebpf4jnsgd1na2vs0mg"},{"bike_id":"0cf024b5-6c4a-427e-a952-f937d6446d8b","system_id":"levelo_inurba_marseille","lat":43.29535,"lon":5.37509,"is_reserved":false,"is_disabled":false,"rental_uris":{"android":"levelo://app?vid=0cf024b5-6c4a-427e-a952-f937d6446d8b","ios":"levelo://app?vid=0cf024b5-6c4a-427e-a952-f937d6446d8b"},"vehicle_type_id":"4","last_reported":1743495251,"current_range_meters":6000,"station_id":"ce4bgkp2rcd13ifvqbmg","pricing_plan_id":"cebpf4jnsgd1na2vs0mg"},{"bike_id":"9bdc3a3e-d146-4094-82f1-62397b795e3a","system_id":"levelo_inurba_marseille","lat":43.29245,"lon":5.40916,"is_reserved":false,"is_disabled":false,"rental_uris":{"android":"levelo://app?vid=9bdc3a3e-d146-4094-82f1-62397b795e3a","ios":"levelo://app?vid=9bdc3a3e-d146-4094-82f1-62397b795e3a"},"vehicle_type_id":"4","last_reported":1743495251,"current_range_meters":6000,"station_id":"ce4bh192rcd13ifvqdc0","pricing_plan_id":"cebpf4jnsgd1na2vs0mg"},{"bike_id":"7513bdf2-dedc-4280-95d2-6e74af37740d","system_id":"levelo_inurba_marseille","lat":43.28661,"lon":5.38681,"is_reserved":false,"is_disabled":false,"rental_uris":{"android":"levelo://app?vid=7513bdf2-dedc-4280-95d2-6e74af37740d","ios":"levelo://app?vid=7513bdf2-dedc-4280-95d2-6e74af37740d"},"vehicle_type_id":"4","last_reported":1743495251,"current_range_meters":6000,"station_id":"ce4bh492rcd13ifvqdug","pricing_plan_id":"cebpf4jnsgd1na2vs0mg"},{"bike_id":"2bf31f9f-c5c0-434c-ab3b-b017d7dc966d","system_id":"levelo_inurba_marseille","lat":43.23051,"lon":5.35502,"is_reserved":false,"is_disabled":false,"rental_uris":{"android":"levelo://app?vid=2bf31f9f-c5c0-434c-ab3b-b017d7dc966d","ios":"levelo://app?vid=2bf31f9f-c5c0-434c-ab3b-b017d7dc966d"},"vehicle_type_id":"4","last_reported":1743495251,"current_range_meters":6000,"station_id":"cpo3342slgdg3j2ifvpg","pricing_plan_id":"cebpf4jnsgd1na2vs0mg"},{"bike_id":"4b8645c0-77ec-47ed-a3b9-18aee7e80fd0","system_id":"levelo_inurba_marseille","lat":43.31199,"lon":5.36845,"is_reserved":false,"is_disabled":false,"rental_uris":{"android":"levelo://app?vid=4b8645c0-77ec-47ed-a3b9-18aee7e80fd0","ios":"levelo://app?vid=4b8645c0-77ec-47ed-a3b9-18aee7e80fd0"},"vehicle_type_id":"4","last_reported":1743495251,"current_range_meters":6400,"station_id":"ce4bgl92rcd13ifvqbq0","pricing_plan_id":"cebpf4jnsgd1na2vs0mg"},{"bike_id":"c7285f97-0ec5-4793-a137-0a2ace6b7f9a","system_id":"levelo_inurba_marseille","lat":43.284798,"lon":5.384206,"is_reserved":false,"is_disabled":false,"rental_uris":{"android":"levelo://app?vid=c7285f97-0ec5-4793-a137-0a2ace6b7f9a","ios":"levelo://app?vid=c7285f97-0ec5-4793-a137-0a2ace6b7f9a"},"vehicle_type_id":"4","last_reported":1743495251,"current_range_meters":6400,"station_id":"ce4bh512rcd13ifvqe3g","pricing_plan_id":"cebpf4jnsgd1na2vs0mg"},{"bike_id":"d1a4d67b-c4f6-4c82-b90e-ac279dc5003d","system_id":"levelo_inurba_marseille","lat":43.26701,"lon":5.38273,"is_reserved":false,"is_disabled":false,"rental_uris":{"android":"levelo://app?vid=d1a4d67b-c4f6-4c82-b90e-ac279dc5003d","ios":"levelo://app?vid=d1a4d67b-c4f6-4c82-b90e-ac279dc5003d"},"vehicle_type_id":"4","last_reported":1743495251,"current_range_meters":6400,"station_id":"ce4bhg92rcd13ifvqf90","pricing_plan_id":"cebpf4jnsgd1na2vs0mg"},{"bike_id":"0bcf36df-b7be-401a-9719-3176fda771ee","system_id":"levelo_inurba_marseille","lat":43.298017,"lon":5.381933,"is_reserved":false,"is_disabled":false,"rental_uris":{"android":"levelo://app?vid=0bcf36df-b7be-401a-9719-3176fda771ee","ios":"levelo://app?vid=0bcf36df-b7be-401a-9719-3176fda771ee"},"vehicle_type_id":"4","last_reported":1743495251,"current_range_meters":6800,"station_id":"","pricing_plan_id":"cebpf4jnsgd1na2vs0mg"},{"bike_id":"40c2e3f3-3910-48a4-b7c4-c65a06534d9a","system_id":"levelo_inurba_marseille","lat":43.3018,"lon":5.36623,"is_reserved":false,"is_disabled":false,"rental_uris":{"android":"levelo://app?vid=40c2e3f3-3910-48a4-b7c4-c65a06534d9a","ios":"levelo://app?vid=40c2e3f3-3910-48a4-b7c4-c65a06534d9a"},"vehicle_type_id":"4","last_reported":1743495251,"current_range_meters":6800,"station_id":"ce4bgrh2rcd13ifvqc8g","pricing_plan_id":"cebpf4jnsgd1na2vs0mg"},{"bike_id":"065f7a43-d610-4dd9-9dfe-5c4882ed24f1","system_id":"levelo_inurba_marseille","lat":43.29032,"lon":5.38654,"is_reserved":false,"is_disabled":false,"rental_uris":{"android":"levelo://app?vid=065f7a43-d610-4dd9-9dfe-5c4882ed24f1","ios":"levelo://app?vid=065f7a43-d610-4dd9-9dfe-5c4882ed24f1"},"vehicle_type_id":"4","last_reported":1743495251,"current_range_meters":6800,"station_id":"ce4bh4p2rcd13ifvqe0g","pricing_plan_id":"cebpf4jnsgd1na2vs0mg"},{"bike_id":"85a25ab7-cd0b-4f44-adf9-e5bd20038e15","system_id":"levelo_inurba_marseille","lat":43.2558,"lon":5.38233,"is_reserved":false,"is_disabled":false,"rental_uris":{"android":"levelo://app?vid=85a25ab7-cd0b-4f44-adf9-e5bd20038e15","ios":"levelo://app?vid=85a25ab7-cd0b-4f44-adf9-e5bd20038e15"},"vehicle_type_id":"4","last_reported":1743495251,"current_range_meters":6800,"station_id":"ce4bhih2rcd13ifvqfs0","pricing_plan_id":"cebpf4jnsgd1na2vs0mg"},{"bike_id":"1842b946-b20f-4197-b890-ec6a2faa3002","system_id":"levelo_inurba_marseille","lat":43.25927,"lon":5.40912,"is_reserved":false,"is_disabled":false,"rental_uris":{"android":"levelo://app?vid=1842b946-b20f-4197-b890-ec6a2faa3002","ios":"levelo://app?vid=1842b946-b20f-4197-b890-ec6a2faa3002"},"vehicle_type_id":"4","last_reported":1743495251,"current_range_meters":6800,"station_id":"ce4bhm92rcd13ifvqglg","pricing_plan_id":"cebpf4jnsgd1na2vs0mg"},{"bike_id":"323c49b1-0c8f-495c-899a-003c84f7cf30","system_id":"levelo_inurba_marseille","lat":43.25953,"lon":5.40898,"is_reserved":false,"is_disabled":false,"rental_uris":{"android":"levelo://app?vid=323c49b1-0c8f-495c-899a-003c84f7cf30","ios":"levelo://app?vid=323c49b1-0c8f-495c-899a-003c84f7cf30"},"vehicle_type_id":"4","last_reported":1743495251,"current_range_meters":6800,"station_id":"ce4bhm92rcd13ifvqglg","pricing_plan_id":"cebpf4jnsgd1na2vs0mg"},{"bike_id":"f50dd1be-9ee4-480d-920f-0721f0997798","system_id":"levelo_inurba_marseille","lat":43.23169,"lon":5.39985,"is_reserved":false,"is_disabled":false,"rental_uris":{"android":"levelo://app?vid=f50dd1be-9ee4-480d-920f-0721f0997798","ios":"levelo://app?vid=f50dd1be-9ee4-480d-920f-0721f0997798"},"vehicle_type_id":"4","last_reported":1743495251,"current_range_meters":6800,"station_id":"ce4bhn12rcd13ifvqgqg","pricing_plan_id":"cebpf4jnsgd1na2vs0mg"},{"bike_id":"ad143c57-46b9-4ed1-adee-0be403a502ee","system_id":"levelo_inurba_marseille","lat":43.30892,"lon":5.37188,"is_reserved":false,"is_disabled":false,"rental_uris":{"android":"levelo://app?vid=ad143c57-46b9-4ed1-adee-0be403a502ee","ios":"levelo://app?vid=ad143c57-46b9-4ed1-adee-0be403a502ee"},"vehicle_type_id":"4","last_reported":1743495251,"current_range_meters":7200,"station_id":"ce4bguh2rcd13ifvqckg","pricing_plan_id":"cebpf4jnsgd1na2vs0mg"},{"bike_id":"ebc4e5f4-854c-4b59-b19a-f17508e0d0be","system_id":"levelo_inurba_marseille","lat":43.2903,"lon":5.38128,"is_reserved":false,"is_disabled":false,"rental_uris":{"android":"levelo://app?vid=ebc4e5f4-854c-4b59-b19a-f17508e0d0be","ios":"levelo://app?vid=ebc4e5f4-854c-4b59-b19a-f17508e0d0be"},"vehicle_type_id":"4","last_reported":1743495251,"current_range_meters":7200,"station_id":"ce4bh4p2rcd13ifvqe1g","pricing_plan_id":"cebpf4jnsgd1na2vs0mg"},{"bike_id":"1fafd429-4688-47f8-889c-5c3ed03c7ee4","system_id":"levelo_inurba_marseille","lat":43.27904,"lon":5.39593,"is_reserved":false,"is_disabled":false,"rental_uris":{"android":"levelo://app?vid=1fafd429-4688-47f8-889c-5c3ed03c7ee4","ios":"levelo://app?vid=1fafd429-4688-47f8-889c-5c3ed03c7ee4"},"vehicle_type_id":"4","last_reported":1743495251,"current_range_meters":7200,"station_id":"ce4bhf92rcd13ifvqf40","pricing_plan_id":"cebpf4jnsgd1na2vs0mg"},{"bike_id":"121010d1-d0ea-475b-97a6-f9054736109c","system_id":"levelo_inurba_marseille","lat":43.23189,"lon":5.39976,"is_reserved":false,"is_disabled":false,"rental_uris":{"android":"levelo://app?vid=121010d1-d0ea-475b-97a6-f9054736109c","ios":"levelo://app?vid=121010d1-d0ea-475b-97a6-f9054736109c"},"vehicle_type_id":"4","last_reported":1743495251,"current_range_meters":7200,"station_id":"ce4bhn12rcd13ifvqgqg","pricing_plan_id":"cebpf4jnsgd1na2vs0mg"},{"bike_id":"5203ccbe-ce3c-4351-a8e9-f9ee5ad38a9c","system_id":"levelo_inurba_marseille","lat":43.23196,"lon":5.39969,"is_reserved":false,"is_disabled":false,"rental_uris":{"android":"levelo://app?vid=5203ccbe-ce3c-4351-a8e9-f9ee5ad38a9c","ios":"levelo://app?vid=5203ccbe-ce3c-4351-a8e9-f9ee5ad38a9c"},"vehicle_type_id":"4","last_reported":1743495251,"current_range_meters":7200,"station_id":"ce4bhn12rcd13ifvqgqg","pricing_plan_id":"cebpf4jnsgd1na2vs0mg"},{"bike_id":"4d9b5982-1cfd-451e-8cbb-7a7d2c840d10","system_id":"levelo_inurba_marseille","lat":43.24077,"lon":5.3776,"is_reserved":false,"is_disabled":false,"rental_uris":{"android":"levelo://app?vid=4d9b5982-1cfd-451e-8cbb-7a7d2c840d10","ios":"levelo://app?vid=4d9b5982-1cfd-451e-8cbb-7a7d2c840d10"},"vehicle_type_id":"4","last_reported":1743495251,"current_range_meters":7200,"station_id":"ce4bhnp2rcd13ifvqgvg","pricing_plan_id":"cebpf4jnsgd1na2vs0mg"},{"bike_id":"c9968b65-f81d-41ec-8c2f-403679233fff","system_id":"levelo_inurba_marseille","lat":43.3028,"lon":5.37707,"is_reserved":false,"is_disabled":false,"rental_uris":{"android":"levelo://app?vid=c9968b65-f81d-41ec-8c2f-403679233fff","ios":"levelo://app?vid=c9968b65-f81d-41ec-8c2f-403679233fff"},"vehicle_type_id":"4","last_reported":1743495251,"current_range_meters":8000,"station_id":"ce4bguh2rcd13ifvqcj0","pricing_plan_id":"cebpf4jnsgd1na2vs0mg"},{"bike_id":"a903119c-a8bc-476d-a731-01a2c52d19cc","system_id":"levelo_inurba_marseille","lat":43.30879,"lon":5.37188,"is_reserved":false,"is_disabled":false,"rental_uris":{"android":"levelo://app?vid=a903119c-a8bc-476d-a731-01a2c52d19cc","ios":"levelo://app?vid=a903119c-a8bc-476d-a731-01a2c52d19cc"},"vehicle_type_id":"4","last_reported":1743495251,"current_range_meters":8000,"station_id":"ce4bguh2rcd13ifvqckg","pricing_plan_id":"cebpf4jnsgd1na2vs0mg"},{"bike_id":"47e8be51-97ef-4865-a7d3-8794dda5ac8f","system_id":"levelo_inurba_marseille","lat":43.27913,"lon":5.39587,"is_reserved":false,"is_disabled":false,"rental_uris":{"android":"levelo://app?vid=47e8be51-97ef-4865-a7d3-8794dda5ac8f","ios":"levelo://app?vid=47e8be51-97ef-4865-a7d3-8794dda5ac8f"},"vehicle_type_id":"4","last_reported":1743495251,"current_range_meters":8000,"station_id":"ce4bhf92rcd13ifvqf40","pricing_plan_id":"cebpf4jnsgd1na2vs0mg"},{"bike_id":"1423627b-d213-4c17-8ef8-a6db7dc5e793","system_id":"levelo_inurba_marseille","lat":43.32538,"lon":5.41427,"is_reserved":false,"is_disabled":false,"rental_uris":{"android":"levelo://app?vid=1423627b-d213-4c17-8ef8-a6db7dc5e793","ios":"levelo://app?vid=1423627b-d213-4c17-8ef8-a6db7dc5e793"},"vehicle_type_id":"4","last_reported":1743495251,"current_range_meters":8000,"station_id":"ce4bhq12rcd13ifvqhhg","pricing_plan_id":"cebpf4jnsgd1na2vs0mg"},{"bike_id":"5ccae3de-58e9-4c46-ab98-3dfbadba33ff","system_id":"levelo_inurba_marseille","lat":43.29921,"lon":5.37475,"is_reserved":false,"is_disabled":false,"rental_uris":{"android":"levelo://app?vid=5ccae3de-58e9-4c46-ab98-3dfbadba33ff","ios":"levelo://app?vid=5ccae3de-58e9-4c46-ab98-3dfbadba33ff"},"vehicle_type_id":"4","last_reported":1743495251,"current_range_meters":8400,"station_id":"ce4bgjh2rcd13ifvqbg0","pricing_plan_id":"cebpf4jnsgd1na2vs0mg"},{"bike_id":"98116208-f0d9-448e-914d-e1f5219f8c07","system_id":"levelo_inurba_marseille","lat":43.30954,"lon":5.39059,"is_reserved":false,"is_disabled":false,"rental_uris":{"android":"levelo://app?vid=98116208-f0d9-448e-914d-e1f5219f8c07","ios":"levelo://app?vid=98116208-f0d9-448e-914d-e1f5219f8c07"},"vehicle_type_id":"4","last_reported":1743495251,"current_range_meters":8400,"station_id":"ce4bgup2rcd13ifvqco0","pricing_plan_id":"cebpf4jnsgd1na2vs0mg"},{"bike_id":"3ca424a7-e0ca-4df5-8439-9f714ad26ba4","system_id":"levelo_inurba_marseille","lat":43.27904,"lon":5.39587,"is_reserved":false,"is_disabled":false,"rental_uris":{"android":"levelo://app?vid=3ca424a7-e0ca-4df5-8439-9f714ad26ba4","ios":"levelo://app?vid=3ca424a7-e0ca-4df5-8439-9f714ad26ba4"},"vehicle_type_id":"4","last_reported":1743495251,"current_range_meters":8400,"station_id":"ce4bhf92rcd13ifvqf40","pricing_plan_id":"cebpf4jnsgd1na2vs0mg"},{"bike_id":"32c689bc-72a5-4d13-9a31-3f2e1f4fb44e","system_id":"levelo_inurba_marseille","lat":43.26676,"lon":5.38261,"is_reserved":false,"is_disabled":false,"rental_uris":{"android":"levelo://app?vid=32c689bc-72a5-4d13-9a31-3f2e1f4fb44e","ios":"levelo://app?vid=32c689bc-72a5-4d13-9a31-3f2e1f4fb44e"},"vehicle_type_id":"4","last_reported":1743495251,"current_range_meters":8400,"station_id":"ce4bhg92rcd13ifvqf90","pricing_plan_id":"cebpf4jnsgd1na2vs0mg"},{"bike_id":"89fae0c4-0e0f-4ec7-a7f0-9bea2f95332a","system_id":"levelo_inurba_marseille","lat":43.248,"lon":5.37456,"is_reserved":false,"is_disabled":false,"rental_uris":{"android":"levelo://app?vid=89fae0c4-0e0f-4ec7-a7f0-9bea2f95332a","ios":"levelo://app?vid=89fae0c4-0e0f-4ec7-a7f0-9bea2f95332a"},"vehicle_type_id":"4","last_reported":1743495251,"current_range_meters":8400,"station_id":"ce4bhgh2rcd13ifvqfb0","pricing_plan_id":"cebpf4jnsgd1na2vs0mg"},{"bike_id":"3adc3ad1-1dd6-4a4c-af81-9e6df341c6ce","system_id":"levelo_inurba_marseille","lat":43.2593,"lon":5.40907,"is_reserved":false,"is_disabled":false,"rental_uris":{"android":"levelo://app?vid=3adc3ad1-1dd6-4a4c-af81-9e6df341c6ce","ios":"levelo://app?vid=3adc3ad1-1dd6-4a4c-af81-9e6df341c6ce"},"vehicle_type_id":"4","last_reported":1743495251,"current_range_meters":8400,"station_id":"ce4bhm92rcd13ifvqglg","pricing_plan_id":"cebpf4jnsgd1na2vs0mg"},{"bike_id":"7e5b4f8b-5831-4add-ac41-6a17bdee50ce","system_id":"levelo_inurba_marseille","lat":43.25933,"lon":5.40912,"is_reserved":false,"is_disabled":false,"rental_uris":{"android":"levelo://app?vid=7e5b4f8b-5831-4add-ac41-6a17bdee50ce","ios":"levelo://app?vid=7e5b4f8b-5831-4add-ac41-6a17bdee50ce"},"vehicle_type_id":"4","last_reported":1743495251,"current_range_meters":8400,"station_id":"ce4bhm92rcd13ifvqglg","pricing_plan_id":"cebpf4jnsgd1na2vs0mg"},{"bike_id":"992c06ea-b181-4333-9b56-ce69e27d2521","system_id":"levelo_inurba_marseille","lat":43.300812,"lon":5.390517,"is_reserved":false,"is_disabled":false,"rental_uris":{"android":"levelo://app?vid=992c06ea-b181-4333-9b56-ce69e27d2521","ios":"levelo://app?vid=992c06ea-b181-4333-9b56-ce69e27d2521"},"vehicle_type_id":"4","last_reported":1743495251,"current_range_meters":8400,"station_id":"ce4bhqh2rcd13ifvqhmg","pricing_plan_id":"cebpf4jnsgd1na2vs0mg"},{"bike_id":"fdad0d4a-6871-46bb-9383-a94ccabf3e34","system_id":"levelo_inurba_marseille","lat":43.29876,"lon":5.37444,"is_reserved":false,"is_disabled":false,"rental_uris":{"android":"levelo://app?vid=fdad0d4a-6871-46bb-9383-a94ccabf3e34","ios":"levelo://app?vid=fdad0d4a-6871-46bb-9383-a94ccabf3e34"},"vehicle_type_id":"4","last_reported":1743495251,"current_range_meters":8800,"station_id":"","pricing_plan_id":"cebpf4jnsgd1na2vs0mg"},{"bike_id":"6cde548e-0007-4da0-9ab6-86ee65b6fc55","system_id":"levelo_inurba_marseille","lat":43.296301,"lon":5.377134,"is_reserved":false,"is_disabled":false,"rental_uris":{"android":"levelo://app?vid=6cde548e-0007-4da0-9ab6-86ee65b6fc55","ios":"levelo://app?vid=6cde548e-0007-4da0-9ab6-86ee65b6fc55"},"vehicle_type_id":"4","last_reported":1743495251,"current_range_meters":8800,"station_id":"ce4bgn12rcd13ifvqbt0","pricing_plan_id":"cebpf4jnsgd1na2vs0mg"},{"bike_id":"bca387f4-85a3-4e2e-90de-cd9f2ee29451","system_id":"levelo_inurba_marseille","lat":43.30287,"lon":5.37701,"is_reserved":false,"is_disabled":false,"rental_uris":{"android":"levelo://app?vid=bca387f4-85a3-4e2e-90de-cd9f2ee29451","ios":"levelo://app?vid=bca387f4-85a3-4e2e-90de-cd9f2ee29451"},"vehicle_type_id":"4","last_reported":1743495251,"current_range_meters":8800,"station_id":"ce4bguh2rcd13ifvqcj0","pricing_plan_id":"cebpf4jnsgd1na2vs0mg"},{"bike_id":"e29b025d-0cea-4829-858f-8b07e4e11151","system_id":"levelo_inurba_marseille","lat":43.31695,"lon":5.40473,"is_reserved":false,"is_disabled":false,"rental_uris":{"android":"levelo://app?vid=e29b025d-0cea-4829-858f-8b07e4e11151","ios":"levelo://app?vid=e29b025d-0cea-4829-858f-8b07e4e11151"},"vehicle_type_id":"4","last_reported":1743495251,"current_range_meters":8800,"station_id":"ce4bh012rcd13ifvqd00","pricing_plan_id":"cebpf4jnsgd1na2vs0mg"},{"bike_id":"29f66e0a-1661-46b4-a3ba-1fc8e46ef133","system_id":"levelo_inurba_marseille","lat":43.284096,"lon":5.374996,"is_reserved":false,"is_disabled":false,"rental_uris":{"android":"levelo://app?vid=29f66e0a-1661-46b4-a3ba-1fc8e46ef133","ios":"levelo://app?vid=29f66e0a-1661-46b4-a3ba-1fc8e46ef133"},"vehicle_type_id":"4","last_reported":1743495251,"current_range_meters":9200,"station_id":"","pricing_plan_id":"cebpf4jnsgd1na2vs0mg"},{"bike_id":"af08ed73-ce09-4c15-af8b-4ac506f7a8bf","system_id":"levelo_inurba_marseille","lat":43.30265,"lon":5.37737,"is_reserved":false,"is_disabled":false,"rental_uris":{"android":"levelo://app?vid=af08ed73-ce09-4c15-af8b-4ac506f7a8bf","ios":"levelo://app?vid=af08ed73-ce09-4c15-af8b-4ac506f7a8bf"},"vehicle_type_id":"4","last_reported":1743495251,"current_range_meters":9200,"station_id":"ce4bguh2rcd13ifvqcj0","pricing_plan_id":"cebpf4jnsgd1na2vs0mg"},{"bike_id":"68dbaf4e-4b4a-43f6-a58c-921a9b9402c0","system_id":"levelo_inurba_marseille","lat":43.30946,"lon":5.39043,"is_reserved":false,"is_disabled":false,"rental_uris":{"android":"levelo://app?vid=68dbaf4e-4b4a-43f6-a58c-921a9b9402c0","ios":"levelo://app?vid=68dbaf4e-4b4a-43f6-a58c-921a9b9402c0"},"vehicle_type_id":"4","last_reported":1743495251,"current_range_meters":9200,"station_id":"ce4bgup2rcd13ifvqco0","pricing_plan_id":"cebpf4jnsgd1na2vs0mg"},{"bike_id":"c89c3622-a163-47e2-af38-8a2916d858b1","system_id":"levelo_inurba_marseille","lat":43.2593,"lon":5.40916,"is_reserved":false,"is_disabled":false,"rental_uris":{"android":"levelo://app?vid=c89c3622-a163-47e2-af38-8a2916d858b1","ios":"levelo://app?vid=c89c3622-a163-47e2-af38-8a2916d858b1"},"vehicle_type_id":"4","last_reported":1743495251,"current_range_meters":9200,"station_id":"ce4bhm92rcd13ifvqglg","pricing_plan_id":"cebpf4jnsgd1na2vs0mg"},{"bike_id":"2165df71-d107-4015-b07d-8ad70fb5a68a","system_id":"levelo_inurba_marseille","lat":43.27494,"lon":5.4245,"is_reserved":false,"is_disabled":false,"rental_uris":{"android":"levelo://app?vid=2165df71-d107-4015-b07d-8ad70fb5a68a","ios":"levelo://app?vid=2165df71-d107-4015-b07d-8ad70fb5a68a"},"vehicle_type_id":"4","last_reported":1743495251,"current_range_meters":9200,"station_id":"ce4bhn92rcd13ifvqgrg","pricing_plan_id":"cebpf4jnsgd1na2vs0mg"},{"bike_id":"47f5b21d-a327-4601-b659-015a64e5754a","system_id":"levelo_inurba_marseille","lat":43.3027,"lon":5.37713,"is_reserved":false,"is_disabled":false,"rental_uris":{"android":"levelo://app?vid=47f5b21d-a327-4601-b659-015a64e5754a","ios":"levelo://app?vid=47f5b21d-a327-4601-b659-015a64e5754a"},"vehicle_type_id":"4","last_reported":1743495251,"current_range_meters":9600,"station_id":"ce4bguh2rcd13ifvqcj0","pricing_plan_id":"cebpf4jnsgd1na2vs0mg"},{"bike_id":"2005ecc7-15bd-40c7-abeb-09bd81917a4a","system_id":"levelo_inurba_marseille","lat":43.25933,"lon":5.40905,"is_reserved":false,"is_disabled":false,"rental_uris":{"android":"levelo://app?vid=2005ecc7-15bd-40c7-abeb-09bd81917a4a","ios":"levelo://app?vid=2005ecc7-15bd-40c7-abeb-09bd81917a4a"},"vehicle_type_id":"4","last_reported":1743495251,"current_range_meters":9600,"station_id":"ce4bhm92rcd13ifvqglg","pricing_plan_id":"cebpf4jnsgd1na2vs0mg"},{"bike_id":"fcefd603-4cea-4a5a-b73e-076ae58dd139","system_id":"levelo_inurba_marseille","lat":43.23147,"lon":5.43693,"is_reserved":false,"is_disabled":false,"rental_uris":{"android":"levelo://app?vid=fcefd603-4cea-4a5a-b73e-076ae58dd139","ios":"levelo://app?vid=fcefd603-4cea-4a5a-b73e-076ae58dd139"},"vehicle_type_id":"4","last_reported":1743495251,"current_range_meters":9600,"station_id":"ce4bhmp2rcd13ifvqgog","pricing_plan_id":"cebpf4jnsgd1na2vs0mg"},{"bike_id":"2286499e-afb3-42f0-be29-239621d5e7b7","system_id":"levelo_inurba_marseille","lat":43.24172,"lon":5.397281,"is_reserved":false,"is_disabled":false,"rental_uris":{"android":"levelo://app?vid=2286499e-afb3-42f0-be29-239621d5e7b7","ios":"levelo://app?vid=2286499e-afb3-42f0-be29-239621d5e7b7"},"vehicle_type_id":"4","last_reported":1743495251,"current_range_meters":9600,"station_id":"ce4bhn12rcd13ifvqgpg","pricing_plan_id":"cebpf4jnsgd1na2vs0mg"},{"bike_id":"0d4c3968-a379-45dd-9383-1032b7d949e9","system_id":"levelo_inurba_marseille","lat":43.296127,"lon":5.37731,"is_reserved":false,"is_disabled":false,"rental_uris":{"android":"levelo://app?vid=0d4c3968-a379-45dd-9383-1032b7d949e9","ios":"levelo://app?vid=0d4c3968-a379-45dd-9383-1032b7d949e9"},"vehicle_type_id":"4","last_reported":1743495251,"current_range_meters":9600,"station_id":"ce4bhnp2rcd13ifvqgvg","pricing_plan_id":"cebpf4jnsgd1na2vs0mg"},{"bike_id":"ca1ef741-c411-418f-b272-bb49948f9c3f","system_id":"levelo_inurba_marseille","lat":43.24086,"lon":5.37741,"is_reserved":false,"is_disabled":false,"rental_uris":{"android":"levelo://app?vid=ca1ef741-c411-418f-b272-bb49948f9c3f","ios":"levelo://app?vid=ca1ef741-c411-418f-b272-bb49948f9c3f"},"vehicle_type_id":"4","last_reported":1743495251,"current_range_meters":9600,"station_id":"ce4bhnp2rcd13ifvqgvg","pricing_plan_id":"cebpf4jnsgd1na2vs0mg"},{"bike_id":"c5f908d3-4610-4cae-8aeb-e89ca0e64cc1","system_id":"levelo_inurba_marseille","lat":43.33611,"lon":5.41049,"is_reserved":false,"is_disabled":false,"rental_uris":{"android":"levelo://app?vid=c5f908d3-4610-4cae-8aeb-e89ca0e64cc1","ios":"levelo://app?vid=c5f908d3-4610-4cae-8aeb-e89ca0e64cc1"},"vehicle_type_id":"4","last_reported":1743495251,"current_range_meters":9600,"station_id":"ce4bhqh2rcd13ifvqhmg","pricing_plan_id":"cebpf4jnsgd1na2vs0mg"},{"bike_id":"604d04be-c028-4ab1-8834-f33df09c2f76","system_id":"levelo_inurba_marseille","lat":43.30898,"lon":5.36881,"is_reserved":false,"is_disabled":false,"rental_uris":{"android":"levelo://app?vid=604d04be-c028-4ab1-8834-f33df09c2f76","ios":"levelo://app?vid=604d04be-c028-4ab1-8834-f33df09c2f76"},"vehicle_type_id":"4","last_reported":1743495251,"current_range_meters":10000,"station_id":"ce4bgn92rcd13ifvqbvg","pricing_plan_id":"cebpf4jnsgd1na2vs0mg"},{"bike_id":"4facba6b-3408-412d-95cd-d43295b75c28","system_id":"levelo_inurba_marseille","lat":43.30466,"lon":5.37913,"is_reserved":false,"is_disabled":false,"rental_uris":{"android":"levelo://app?vid=4facba6b-3408-412d-95cd-d43295b75c28","ios":"levelo://app?vid=4facba6b-3408-412d-95cd-d43295b75c28"},"vehicle_type_id":"4","last_reported":1743495251,"current_range_meters":10000,"station_id":"ce4bgup2rcd13ifvqcn0","pricing_plan_id":"cebpf4jnsgd1na2vs0mg"},{"bike_id":"2af29f82-be94-4650-9a56-1e07e90f98dc","system_id":"levelo_inurba_marseille","lat":43.300875,"lon":5.390738,"is_reserved":false,"is_disabled":false,"rental_uris":{"android":"levelo://app?vid=2af29f82-be94-4650-9a56-1e07e90f98dc","ios":"levelo://app?vid=2af29f82-be94-4650-9a56-1e07e90f98dc"},"vehicle_type_id":"4","last_reported":1743495251,"current_range_meters":10000,"station_id":"ce4bh192rcd13ifvqdb0","pricing_plan_id":"cebpf4jnsgd1na2vs0mg"},{"bike_id":"a1a57c84-8deb-42b4-a54d-154987635bc8","system_id":"levelo_inurba_marseille","lat":43.29021,"lon":5.38646,"is_reserved":false,"is_disabled":false,"rental_uris":{"android":"levelo://app?vid=a1a57c84-8deb-42b4-a54d-154987635bc8","ios":"levelo://app?vid=a1a57c84-8deb-42b4-a54d-154987635bc8"},"vehicle_type_id":"4","last_reported":1743495251,"current_range_meters":10000,"station_id":"ce4bh4p2rcd13ifvqe0g","pricing_plan_id":"cebpf4jnsgd1na2vs0mg"},{"bike_id":"c86f3dd7-4af6-4e32-832d-8c711682ef46","system_id":"levelo_inurba_marseille","lat":43.25939,"lon":5.409,"is_reserved":false,"is_disabled":false,"rental_uris":{"android":"levelo://app?vid=c86f3dd7-4af6-4e32-832d-8c711682ef46","ios":"levelo://app?vid=c86f3dd7-4af6-4e32-832d-8c711682ef46"},"vehicle_type_id":"4","last_reported":1743495251,"current_range_meters":10000,"station_id":"ce4bhm92rcd13ifvqglg","pricing_plan_id":"cebpf4jnsgd1na2vs0mg"},{"bike_id":"a65c60d0-9838-4fce-ab82-173f64a7b595","system_id":"levelo_inurba_marseille","lat":43.2417,"lon":5.39739,"is_reserved":false,"is_disabled":false,"rental_uris":{"android":"levelo://app?vid=a65c60d0-9838-4fce-ab82-173f64a7b595","ios":"levelo://app?vid=a65c60d0-9838-4fce-ab82-173f64a7b595"},"vehicle_type_id":"4","last_reported":1743495251,"current_range_meters":10000,"station_id":"ce4bhn12rcd13ifvqgpg","pricing_plan_id":"cebpf4jnsgd1na2vs0mg"},{"bike_id":"649b5ad5-62ac-4bfd-a6cd-60fc43d8fef1","system_id":"levelo_inurba_marseille","lat":43.29241,"lon":5.39827,"is_reserved":false,"is_disabled":false,"rental_uris":{"android":"levelo://app?vid=649b5ad5-62ac-4bfd-a6cd-60fc43d8fef1","ios":"levelo://app?vid=649b5ad5-62ac-4bfd-a6cd-60fc43d8fef1"},"vehicle_type_id":"4","last_reported":1743495251,"current_range_meters":10800,"station_id":"","pricing_plan_id":"cebpf4jnsgd1na2vs0mg"},{"bike_id":"530a1fbd-0cc2-4f85-8c7a-02833ccbff4f","system_id":"levelo_inurba_marseille","lat":43.29525,"lon":5.37508,"is_reserved":false,"is_disabled":false,"rental_uris":{"android":"levelo://app?vid=530a1fbd-0cc2-4f85-8c7a-02833ccbff4f","ios":"levelo://app?vid=530a1fbd-0cc2-4f85-8c7a-02833ccbff4f"},"vehicle_type_id":"4","last_reported":1743495251,"current_range_meters":10800,"station_id":"ce4bgkp2rcd13ifvqbmg","pricing_plan_id":"cebpf4jnsgd1na2vs0mg"},{"bike_id":"83608dc2-070c-4fea-a28b-41e99ad9e9d0","system_id":"levelo_inurba_marseille","lat":43.30529,"lon":5.36716,"is_reserved":false,"is_disabled":false,"rental_uris":{"android":"levelo://app?vid=83608dc2-070c-4fea-a28b-41e99ad9e9d0","ios":"levelo://app?vid=83608dc2-070c-4fea-a28b-41e99ad9e9d0"},"vehicle_type_id":"4","last_reported":1743495251,"current_range_meters":10800,"station_id":"ce4bgrp2rcd13ifvqc9g","pricing_plan_id":"cebpf4jnsgd1na2vs0mg"},{"bike_id":"bcb4aadb-39e9-4d73-9fde-478055361bb7","system_id":"levelo_inurba_marseille","lat":43.31714,"lon":5.40461,"is_reserved":false,"is_disabled":false,"rental_uris":{"android":"levelo://app?vid=bcb4aadb-39e9-4d73-9fde-478055361bb7","ios":"levelo://app?vid=bcb4aadb-39e9-4d73-9fde-478055361bb7"},"vehicle_type_id":"4","last_reported":1743495251,"current_range_meters":10800,"station_id":"ce4bh012rcd13ifvqd00","pricing_plan_id":"cebpf4jnsgd1na2vs0mg"},{"bike_id":"cdb2e7a3-c999-497e-a9de-b43472b97dae","system_id":"levelo_inurba_marseille","lat":43.28716,"lon":5.37946,"is_reserved":false,"is_disabled":false,"rental_uris":{"android":"levelo://app?vid=cdb2e7a3-c999-497e-a9de-b43472b97dae","ios":"levelo://app?vid=cdb2e7a3-c999-497e-a9de-b43472b97dae"},"vehicle_type_id":"4","last_reported":1743495251,"current_range_meters":10800,"station_id":"ce4bh9p2rcd13ifvqec0","pricing_plan_id":"cebpf4jnsgd1na2vs0mg"},{"bike_id":"e9216065-d539-4cfe-a5fe-6e09c69e5432","system_id":"levelo_inurba_marseille","lat":43.25579,"lon":5.3823,"is_reserved":false,"is_disabled":false,"rental_uris":{"android":"levelo://app?vid=e9216065-d539-4cfe-a5fe-6e09c69e5432","ios":"levelo://app?vid=e9216065-d539-4cfe-a5fe-6e09c69e5432"},"vehicle_type_id":"4","last_reported":1743495251,"current_range_meters":10800,"station_id":"ce4bhih2rcd13ifvqfs0","pricing_plan_id":"cebpf4jnsgd1na2vs0mg"},{"bike_id":"a61d69b6-c682-4e51-b65c-90e9332cb9b6","system_id":"levelo_inurba_marseille","lat":43.29261,"lon":5.37612,"is_reserved":false,"is_disabled":false,"rental_uris":{"android":"levelo://app?vid=a61d69b6-c682-4e51-b65c-90e9332cb9b6","ios":"levelo://app?vid=a61d69b6-c682-4e51-b65c-90e9332cb9b6"},"vehicle_type_id":"4","last_reported":1743495251,"current_range_meters":11200,"station_id":"ce4bgi12rcd13ifvqb80","pricing_plan_id":"cebpf4jnsgd1na2vs0mg"},{"bike_id":"5ca05169-0bf5-46e9-916f-480b564eac72","system_id":"levelo_inurba_marseille","lat":43.29525,"lon":5.38551,"is_reserved":false,"is_disabled":false,"rental_uris":{"android":"levelo://app?vid=5ca05169-0bf5-46e9-916f-480b564eac72","ios":"levelo://app?vid=5ca05169-0bf5-46e9-916f-480b564eac72"},"vehicle_type_id":"4","last_reported":1743495251,"current_range_meters":11200,"station_id":"ce4bgih2rcd13ifvqba0","pricing_plan_id":"cebpf4jnsgd1na2vs0mg"},{"bike_id":"0a3c50b2-306a-46cd-9b1e-a336c2e836dc","system_id":"levelo_inurba_marseille","lat":43.261841,"lon":5.374481,"is_reserved":false,"is_disabled":false,"rental_uris":{"android":"levelo://app?vid=0a3c50b2-306a-46cd-9b1e-a336c2e836dc","ios":"levelo://app?vid=0a3c50b2-306a-46cd-9b1e-a336c2e836dc"},"vehicle_type_id":"4","last_reported":1743495251,"current_range_meters":11200,"station_id":"ce4bhgp2rcd13ifvqfc0","pricing_plan_id":"cebpf4jnsgd1na2vs0mg"},{"bike_id":"88ae20aa-2824-43dd-8889-4129631cf73b","system_id":"levelo_inurba_marseille","lat":43.2693,"lon":5.3892,"is_reserved":false,"is_disabled":false,"rental_uris":{"android":"levelo://app?vid=88ae20aa-2824-43dd-8889-4129631cf73b","ios":"levelo://app?vid=88ae20aa-2824-43dd-8889-4129631cf73b"},"vehicle_type_id":"4","last_reported":1743495251,"current_range_meters":11200,"station_id":"ce4bhhh2rcd13ifvqfl0","pricing_plan_id":"cebpf4jnsgd1na2vs0mg"},{"bike_id":"9f8eaba5-1df1-4433-96c4-9cadf1375719","system_id":"levelo_inurba_marseille","lat":43.23173,"lon":5.39992,"is_reserved":false,"is_disabled":false,"rental_uris":{"android":"levelo://app?vid=9f8eaba5-1df1-4433-96c4-9cadf1375719","ios":"levelo://app?vid=9f8eaba5-1df1-4433-96c4-9cadf1375719"},"vehicle_type_id":"4","last_reported":1743495251,"current_range_meters":11200,"station_id":"ce4bhn12rcd13ifvqgqg","pricing_plan_id":"cebpf4jnsgd1na2vs0mg"},{"bike_id":"af8c818b-f7fe-47e2-828d-b358fed904c1","system_id":"levelo_inurba_marseille","lat":43.33607,"lon":5.41018,"is_reserved":false,"is_disabled":false,"rental_uris":{"android":"levelo://app?vid=af8c818b-f7fe-47e2-828d-b358fed904c1","ios":"levelo://app?vid=af8c818b-f7fe-47e2-828d-b358fed904c1"},"vehicle_type_id":"4","last_reported":1743495251,"current_range_meters":11200,"station_id":"ce4bhqh2rcd13ifvqhmg","pricing_plan_id":"cebpf4jnsgd1na2vs0mg"},{"bike_id":"e47bc61d-df2d-41b3-b26b-dd94e6e5e301","system_id":"levelo_inurba_marseille","lat":43.26239,"lon":5.42124,"is_reserved":false,"is_disabled":false,"rental_uris":{"android":"levelo://app?vid=e47bc61d-df2d-41b3-b26b-dd94e6e5e301","ios":"levelo://app?vid=e47bc61d-df2d-41b3-b26b-dd94e6e5e301"},"vehicle_type_id":"4","last_reported":1743495251,"current_range_meters":11600,"station_id":"","pricing_plan_id":"cebpf4jnsgd1na2vs0mg"},{"bike_id":"6821443d-8835-4f1b-b131-8bd3f5c087eb","system_id":"levelo_inurba_marseille","lat":43.309507,"lon":5.390287,"is_reserved":false,"is_disabled":false,"rental_uris":{"android":"levelo://app?vid=6821443d-8835-4f1b-b131-8bd3f5c087eb","ios":"levelo://app?vid=6821443d-8835-4f1b-b131-8bd3f5c087eb"},"vehicle_type_id":"4","last_reported":1743495251,"current_range_meters":11600,"station_id":"ce4bgup2rcd13ifvqco0","pricing_plan_id":"cebpf4jnsgd1na2vs0mg"},{"bike_id":"8ab9e0b1-3865-4ca1-8dc9-5cd315726df0","system_id":"levelo_inurba_marseille","lat":43.29001,"lon":5.38131,"is_reserved":false,"is_disabled":false,"rental_uris":{"android":"levelo://app?vid=8ab9e0b1-3865-4ca1-8dc9-5cd315726df0","ios":"levelo://app?vid=8ab9e0b1-3865-4ca1-8dc9-5cd315726df0"},"vehicle_type_id":"4","last_reported":1743495251,"current_range_meters":11600,"station_id":"ce4bh4p2rcd13ifvqe1g","pricing_plan_id":"cebpf4jnsgd1na2vs0mg"},{"bike_id":"1b63ccb2-1298-4d96-b7f3-6ad6cace00e9","system_id":"levelo_inurba_marseille","lat":43.26117,"lon":5.4011,"is_reserved":false,"is_disabled":false,"rental_uris":{"android":"levelo://app?vid=1b63ccb2-1298-4d96-b7f3-6ad6cace00e9","ios":"levelo://app?vid=1b63ccb2-1298-4d96-b7f3-6ad6cace00e9"},"vehicle_type_id":"4","last_reported":1743495251,"current_range_meters":12000,"station_id":"","pricing_plan_id":"cebpf4jnsgd1na2vs0mg"},{"bike_id":"27773214-4312-4127-aa54-e74cba3d6d07","system_id":"levelo_inurba_marseille","lat":43.27763,"lon":5.40728,"is_reserved":false,"is_disabled":false,"rental_uris":{"android":"levelo://app?vid=27773214-4312-4127-aa54-e74cba3d6d07","ios":"levelo://app?vid=27773214-4312-4127-aa54-e74cba3d6d07"},"vehicle_type_id":"4","last_reported":1743495251,"current_range_meters":12000,"station_id":"","pricing_plan_id":"cebpf4jnsgd1na2vs0mg"},{"bike_id":"6efc3e73-10da-4567-b688-5e2f57fdb961","system_id":"levelo_inurba_marseille","lat":43.30138,"lon":5.38058,"is_reserved":false,"is_disabled":false,"rental_uris":{"android":"levelo://app?vid=6efc3e73-10da-4567-b688-5e2f57fdb961","ios":"levelo://app?vid=6efc3e73-10da-4567-b688-5e2f57fdb961"},"vehicle_type_id":"4","last_reported":1743495251,"current_range_meters":12000,"station_id":"ce4bgjp2rcd13ifvqbh0","pricing_plan_id":"cebpf4jnsgd1na2vs0mg"},{"bike_id":"91f90d56-c94a-4c27-b8de-fd7109f934f0","system_id":"levelo_inurba_marseille","lat":43.30465,"lon":5.37911,"is_reserved":false,"is_disabled":false,"rental_uris":{"android":"levelo://app?vid=91f90d56-c94a-4c27-b8de-fd7109f934f0","ios":"levelo://app?vid=91f90d56-c94a-4c27-b8de-fd7109f934f0"},"vehicle_type_id":"4","last_reported":1743495251,"current_range_meters":12000,"station_id":"ce4bgup2rcd13ifvqcn0","pricing_plan_id":"cebpf4jnsgd1na2vs0mg"},{"bike_id":"1d327217-c665-4972-add4-4ff06ad1ff65","system_id":"levelo_inurba_marseille","lat":43.286893,"lon":5.399927,"is_reserved":false,"is_disabled":false,"rental_uris":{"android":"levelo://app?vid=1d327217-c665-4972-add4-4ff06ad1ff65","ios":"levelo://app?vid=1d327217-c665-4972-add4-4ff06ad1ff65"},"vehicle_type_id":"4","last_reported":1743495251,"current_range_meters":12000,"station_id":"ce4bh9p2rcd13ifvqec0","pricing_plan_id":"cebpf4jnsgd1na2vs0mg"},{"bike_id":"c5582ea9-e4db-4033-969d-b17cba54189e","system_id":"levelo_inurba_marseille","lat":43.31211,"lon":5.36873,"is_reserved":false,"is_disabled":false,"rental_uris":{"android":"levelo://app?vid=c5582ea9-e4db-4033-969d-b17cba54189e","ios":"levelo://app?vid=c5582ea9-e4db-4033-969d-b17cba54189e"},"vehicle_type_id":"4","last_reported":1743495251,"current_range_meters":12400,"station_id":"ce4bgl92rcd13ifvqbq0","pricing_plan_id":"cebpf4jnsgd1na2vs0mg"},{"bike_id":"5407c893-0953-4cb3-9e62-cf5a5379fa8f","system_id":"levelo_inurba_marseille","lat":43.26943,"lon":5.38639,"is_reserved":false,"is_disabled":false,"rental_uris":{"android":"levelo://app?vid=5407c893-0953-4cb3-9e62-cf5a5379fa8f","ios":"levelo://app?vid=5407c893-0953-4cb3-9e62-cf5a5379fa8f"},"vehicle_type_id":"4","last_reported":1743495251,"current_range_meters":12400,"station_id":"ce4bhh92rcd13ifvqfh0","pricing_plan_id":"cebpf4jnsgd1na2vs0mg"},{"bike_id":"8e6a2b61-1106-4543-b98b-425f0f5e26a8","system_id":"levelo_inurba_marseille","lat":43.27809,"lon":5.40712,"is_reserved":false,"is_disabled":false,"rental_uris":{"android":"levelo://app?vid=8e6a2b61-1106-4543-b98b-425f0f5e26a8","ios":"levelo://app?vid=8e6a2b61-1106-4543-b98b-425f0f5e26a8"},"vehicle_type_id":"4","last_reported":1743495251,"current_range_meters":12400,"station_id":"ce4bhnh2rcd13ifvqgtg","pricing_plan_id":"cebpf4jnsgd1na2vs0mg"},{"bike_id":"536ba4f2-6326-4b02-b6f0-b28fefa5dd7b","system_id":"levelo_inurba_marseille","lat":43.34142,"lon":5.4091,"is_reserved":false,"is_disabled":false,"rental_uris":{"android":"levelo://app?vid=536ba4f2-6326-4b02-b6f0-b28fefa5dd7b","ios":"levelo://app?vid=536ba4f2-6326-4b02-b6f0-b28fefa5dd7b"},"vehicle_type_id":"4","last_reported":1743495251,"current_range_meters":12400,"station_id":"ce4bhqh2rcd13ifvqhlg","pricing_plan_id":"cebpf4jnsgd1na2vs0mg"},{"bike_id":"0849fcf9-f26f-4a4b-b756-b0a2951a91fe","system_id":"levelo_inurba_marseille","lat":43.2997,"lon":5.37176,"is_reserved":false,"is_disabled":false,"rental_uris":{"android":"levelo://app?vid=0849fcf9-f26f-4a4b-b756-b0a2951a91fe","ios":"levelo://app?vid=0849fcf9-f26f-4a4b-b756-b0a2951a91fe"},"vehicle_type_id":"4","last_reported":1743495251,"current_range_meters":12800,"station_id":"ce4bgr92rcd13ifvqc7g","pricing_plan_id":"cebpf4jnsgd1na2vs0mg"},{"bike_id":"5471e7f4-e576-46b9-82eb-667434d7af4a","system_id":"levelo_inurba_marseille","lat":43.30549,"lon":5.36508,"is_reserved":false,"is_disabled":false,"rental_uris":{"android":"levelo://app?vid=5471e7f4-e576-46b9-82eb-667434d7af4a","ios":"levelo://app?vid=5471e7f4-e576-46b9-82eb-667434d7af4a"},"vehicle_type_id":"4","last_reported":1743495251,"current_range_meters":12800,"station_id":"ce4bgs12rcd13ifvqcag","pricing_plan_id":"cebpf4jnsgd1na2vs0mg"},{"bike_id":"f9556671-f8e9-4ef6-b997-21a30e85c7b2","system_id":"levelo_inurba_marseille","lat":43.23144,"lon":5.43718,"is_reserved":false,"is_disabled":false,"rental_uris":{"android":"levelo://app?vid=f9556671-f8e9-4ef6-b997-21a30e85c7b2","ios":"levelo://app?vid=f9556671-f8e9-4ef6-b997-21a30e85c7b2"},"vehicle_type_id":"4","last_reported":1743495251,"current_range_meters":12800,"station_id":"ce4bhmp2rcd13ifvqgog","pricing_plan_id":"cebpf4jnsgd1na2vs0mg"},{"bike_id":"0ea3c931-5a17-44b4-b2ef-c8b9e672acd3","system_id":"levelo_inurba_marseille","lat":43.2315,"lon":5.43717,"is_reserved":false,"is_disabled":false,"rental_uris":{"android":"levelo://app?vid=0ea3c931-5a17-44b4-b2ef-c8b9e672acd3","ios":"levelo://app?vid=0ea3c931-5a17-44b4-b2ef-c8b9e672acd3"},"vehicle_type_id":"4","last_reported":1743495251,"current_range_meters":12800,"station_id":"ce4bhmp2rcd13ifvqgog","pricing_plan_id":"cebpf4jnsgd1na2vs0mg"},{"bike_id":"398ca055-084d-42d0-8ca9-ed591e77e956","system_id":"levelo_inurba_marseille","lat":43.23143,"lon":5.43713,"is_reserved":false,"is_disabled":false,"rental_uris":{"android":"levelo://app?vid=398ca055-084d-42d0-8ca9-ed591e77e956","ios":"levelo://app?vid=398ca055-084d-42d0-8ca9-ed591e77e956"},"vehicle_type_id":"4","last_reported":1743495251,"current_range_meters":12800,"station_id":"ce4bhmp2rcd13ifvqgog","pricing_plan_id":"cebpf4jnsgd1na2vs0mg"},{"bike_id":"4220d26d-272d-4b23-9cec-a79c1d919b49","system_id":"levelo_inurba_marseille","lat":43.30624,"lon":5.37107,"is_reserved":false,"is_disabled":false,"rental_uris":{"android":"levelo://app?vid=4220d26d-272d-4b23-9cec-a79c1d919b49","ios":"levelo://app?vid=4220d26d-272d-4b23-9cec-a79c1d919b49"},"vehicle_type_id":"4","last_reported":1743495251,"current_range_meters":13600,"station_id":"","pricing_plan_id":"cebpf4jnsgd1na2vs0mg"},{"bike_id":"7fc95d0b-1baf-4ba6-9f37-f7a5016f2b0b","system_id":"levelo_inurba_marseille","lat":43.28969,"lon":5.37844,"is_reserved":false,"is_disabled":false,"rental_uris":{"android":"levelo://app?vid=7fc95d0b-1baf-4ba6-9f37-f7a5016f2b0b","ios":"levelo://app?vid=7fc95d0b-1baf-4ba6-9f37-f7a5016f2b0b"},"vehicle_type_id":"4","last_reported":1743495251,"current_range_meters":13600,"station_id":"ce4bh9p2rcd13ifvqed0","pricing_plan_id":"cebpf4jnsgd1na2vs0mg"},{"bike_id":"65f9fdad-31a8-4fb3-87a1-c4fa64c86ebe","system_id":"levelo_inurba_marseille","lat":43.3249,"lon":5.3655,"is_reserved":false,"is_disabled":false,"rental_uris":{"android":"levelo://app?vid=65f9fdad-31a8-4fb3-87a1-c4fa64c86ebe","ios":"levelo://app?vid=65f9fdad-31a8-4fb3-87a1-c4fa64c86ebe"},"vehicle_type_id":"4","last_reported":1743495251,"current_range_meters":13600,"station_id":"ce4bhs12rcd13ifvqhvg","pricing_plan_id":"cebpf4jnsgd1na2vs0mg"},{"bike_id":"82e93eab-ee20-48b2-9c73-8b7c104a33dd","system_id":"levelo_inurba_marseille","lat":43.29964,"lon":5.37173,"is_reserved":false,"is_disabled":false,"rental_uris":{"android":"levelo://app?vid=82e93eab-ee20-48b2-9c73-8b7c104a33dd","ios":"levelo://app?vid=82e93eab-ee20-48b2-9c73-8b7c104a33dd"},"vehicle_type_id":"4","last_reported":1743495251,"current_range_meters":14000,"station_id":"ce4bgr92rcd13ifvqc7g","pricing_plan_id":"cebpf4jnsgd1na2vs0mg"},{"bike_id":"61a4fd99-60e4-4dac-a1f8-40b75079bd68","system_id":"levelo_inurba_marseille","lat":43.25934,"lon":5.40904,"is_reserved":false,"is_disabled":false,"rental_uris":{"android":"levelo://app?vid=61a4fd99-60e4-4dac-a1f8-40b75079bd68","ios":"levelo://app?vid=61a4fd99-60e4-4dac-a1f8-40b75079bd68"},"vehicle_type_id":"4","last_reported":1743495251,"current_range_meters":14000,"station_id":"ce4bhm92rcd13ifvqglg","pricing_plan_id":"cebpf4jnsgd1na2vs0mg"},{"bike_id":"01ecd9b0-693f-4a01-9f41-dde53fd482f2","system_id":"levelo_inurba_marseille","lat":43.24172,"lon":5.39727,"is_reserved":false,"is_disabled":false,"rental_uris":{"android":"levelo://app?vid=01ecd9b0-693f-4a01-9f41-dde53fd482f2","ios":"levelo://app?vid=01ecd9b0-693f-4a01-9f41-dde53fd482f2"},"vehicle_type_id":"4","last_reported":1743495251,"current_range_meters":14000,"station_id":"ce4bhn12rcd13ifvqgpg","pricing_plan_id":"cebpf4jnsgd1na2vs0mg"},{"bike_id":"6e6a66e5-58ca-4db1-9695-b46ed5c28827","system_id":"levelo_inurba_marseille","lat":43.31615,"lon":5.36368,"is_reserved":false,"is_disabled":false,"rental_uris":{"android":"levelo://app?vid=6e6a66e5-58ca-4db1-9695-b46ed5c28827","ios":"levelo://app?vid=6e6a66e5-58ca-4db1-9695-b46ed5c28827"},"vehicle_type_id":"4","last_reported":1743495251,"current_range_meters":14400,"station_id":"","pricing_plan_id":"cebpf4jnsgd1na2vs0mg"},{"bike_id":"4474f66b-3eb6-4aea-af7b-d43fdaacf384","system_id":"levelo_inurba_marseille","lat":43.27549,"lon":5.40936,"is_reserved":false,"is_disabled":false,"rental_uris":{"android":"levelo://app?vid=4474f66b-3eb6-4aea-af7b-d43fdaacf384","ios":"levelo://app?vid=4474f66b-3eb6-4aea-af7b-d43fdaacf384"},"vehicle_type_id":"4","last_reported":1743495251,"current_range_meters":14400,"station_id":"","pricing_plan_id":"cebpf4jnsgd1na2vs0mg"},{"bike_id":"956a1088-6f75-4f1e-b566-eca641ad7541","system_id":"levelo_inurba_marseille","lat":43.30524,"lon":5.3672,"is_reserved":false,"is_disabled":false,"rental_uris":{"android":"levelo://app?vid=956a1088-6f75-4f1e-b566-eca641ad7541","ios":"levelo://app?vid=956a1088-6f75-4f1e-b566-eca641ad7541"},"vehicle_type_id":"4","last_reported":1743495251,"current_range_meters":14400,"station_id":"ce4bgrp2rcd13ifvqc9g","pricing_plan_id":"cebpf4jnsgd1na2vs0mg"},{"bike_id":"86354ae6-2ad3-4c03-a340-c661e15634b2","system_id":"levelo_inurba_marseille","lat":43.30144,"lon":5.37406,"is_reserved":false,"is_disabled":false,"rental_uris":{"android":"levelo://app?vid=86354ae6-2ad3-4c03-a340-c661e15634b2","ios":"levelo://app?vid=86354ae6-2ad3-4c03-a340-c661e15634b2"},"vehicle_type_id":"4","last_reported":1743495251,"current_range_meters":14400,"station_id":"ce4bgs92rcd13ifvqcc0","pricing_plan_id":"cebpf4jnsgd1na2vs0mg"},{"bike_id":"717d162c-3ca4-45dd-b0c2-b24f37daa8ba","system_id":"levelo_inurba_marseille","lat":43.25923,"lon":5.40895,"is_reserved":false,"is_disabled":false,"rental_uris":{"android":"levelo://app?vid=717d162c-3ca4-45dd-b0c2-b24f37daa8ba","ios":"levelo://app?vid=717d162c-3ca4-45dd-b0c2-b24f37daa8ba"},"vehicle_type_id":"4","last_reported":1743495251,"current_range_meters":14400,"station_id":"ce4bhm92rcd13ifvqglg","pricing_plan_id":"cebpf4jnsgd1na2vs0mg"},{"bike_id":"ab121fa3-a6b0-46c8-a750-1ae2f27365e6","system_id":"levelo_inurba_marseille","lat":43.24075,"lon":5.37759,"is_reserved":false,"is_disabled":false,"rental_uris":{"android":"levelo://app?vid=ab121fa3-a6b0-46c8-a750-1ae2f27365e6","ios":"levelo://app?vid=ab121fa3-a6b0-46c8-a750-1ae2f27365e6"},"vehicle_type_id":"4","last_reported":1743495251,"current_range_meters":14400,"station_id":"ce4bhnp2rcd13ifvqgvg","pricing_plan_id":"cebpf4jnsgd1na2vs0mg"},{"bike_id":"a0f0c14e-d0a6-47b7-baf8-7523b26f576b","system_id":"levelo_inurba_marseille","lat":43.29969,"lon":5.37182,"is_reserved":false,"is_disabled":false,"rental_uris":{"android":"levelo://app?vid=a0f0c14e-d0a6-47b7-baf8-7523b26f576b","ios":"levelo://app?vid=a0f0c14e-d0a6-47b7-baf8-7523b26f576b"},"vehicle_type_id":"4","last_reported":1743495251,"current_range_meters":14800,"station_id":"ce4bgr92rcd13ifvqc7g","pricing_plan_id":"cebpf4jnsgd1na2vs0mg"},{"bike_id":"e27fa5f8-8cd4-46c6-a5d7-90ca7c900ec5","system_id":"levelo_inurba_marseille","lat":43.30933,"lon":5.39043,"is_reserved":false,"is_disabled":false,"rental_uris":{"android":"levelo://app?vid=e27fa5f8-8cd4-46c6-a5d7-90ca7c900ec5","ios":"levelo://app?vid=e27fa5f8-8cd4-46c6-a5d7-90ca7c900ec5"},"vehicle_type_id":"4","last_reported":1743495251,"current_range_meters":14800,"station_id":"ce4bgup2rcd13ifvqco0","pricing_plan_id":"cebpf4jnsgd1na2vs0mg"},{"bike_id":"cf917976-ce2b-4cf2-b429-125b2e82816f","system_id":"levelo_inurba_marseille","lat":43.30954,"lon":5.3904,"is_reserved":false,"is_disabled":false,"rental_uris":{"android":"levelo://app?vid=cf917976-ce2b-4cf2-b429-125b2e82816f","ios":"levelo://app?vid=cf917976-ce2b-4cf2-b429-125b2e82816f"},"vehicle_type_id":"4","last_reported":1743495251,"current_range_meters":14800,"station_id":"ce4bgup2rcd13ifvqco0","pricing_plan_id":"cebpf4jnsgd1na2vs0mg"},{"bike_id":"52746e81-4da9-42fe-b8a9-c800ab555312","system_id":"levelo_inurba_marseille","lat":43.27205,"lon":5.39174,"is_reserved":false,"is_disabled":false,"rental_uris":{"android":"levelo://app?vid=52746e81-4da9-42fe-b8a9-c800ab555312","ios":"levelo://app?vid=52746e81-4da9-42fe-b8a9-c800ab555312"},"vehicle_type_id":"4","last_reported":1743495251,"current_range_meters":14800,"station_id":"ce4bhhp2rcd13ifvqfm0","pricing_plan_id":"cebpf4jnsgd1na2vs0mg"},{"bike_id":"7c900f8d-ab84-4400-a7b6-72af82fcab07","system_id":"levelo_inurba_marseille","lat":43.3119,"lon":5.36857,"is_reserved":false,"is_disabled":false,"rental_uris":{"android":"levelo://app?vid=7c900f8d-ab84-4400-a7b6-72af82fcab07","ios":"levelo://app?vid=7c900f8d-ab84-4400-a7b6-72af82fcab07"},"vehicle_type_id":"4","last_reported":1743495251,"current_range_meters":15200,"station_id":"ce4bgl92rcd13ifvqbq0","pricing_plan_id":"cebpf4jnsgd1na2vs0mg"},{"bike_id":"d76cadf3-75ac-4f64-a036-9c09aef4ca73","system_id":"levelo_inurba_marseille","lat":43.27319,"lon":5.39079,"is_reserved":false,"is_disabled":false,"rental_uris":{"android":"levelo://app?vid=d76cadf3-75ac-4f64-a036-9c09aef4ca73","ios":"levelo://app?vid=d76cadf3-75ac-4f64-a036-9c09aef4ca73"},"vehicle_type_id":"4","last_reported":1743495251,"current_range_meters":15200,"station_id":"ce4bhgp2rcd13ifvqfe0","pricing_plan_id":"cebpf4jnsgd1na2vs0mg"},{"bike_id":"4c564b34-6817-415a-8489-26db1ea03ff9","system_id":"levelo_inurba_marseille","lat":43.23138,"lon":5.43709,"is_reserved":false,"is_disabled":false,"rental_uris":{"android":"levelo://app?vid=4c564b34-6817-415a-8489-26db1ea03ff9","ios":"levelo://app?vid=4c564b34-6817-415a-8489-26db1ea03ff9"},"vehicle_type_id":"4","last_reported":1743495251,"current_range_meters":15200,"station_id":"ce4bhmp2rcd13ifvqgog","pricing_plan_id":"cebpf4jnsgd1na2vs0mg"},{"bike_id":"8dc01da3-5fa2-4009-813a-58b44a415568","system_id":"levelo_inurba_marseille","lat":43.24174,"lon":5.39731,"is_reserved":false,"is_disabled":false,"rental_uris":{"android":"levelo://app?vid=8dc01da3-5fa2-4009-813a-58b44a415568","ios":"levelo://app?vid=8dc01da3-5fa2-4009-813a-58b44a415568"},"vehicle_type_id":"4","last_reported":1743495251,"current_range_meters":15200,"station_id":"ce4bhn12rcd13ifvqgpg","pricing_plan_id":"cebpf4jnsgd1na2vs0mg"},{"bike_id":"7990dee0-3845-4924-a10e-d8eed309bb76","system_id":"levelo_inurba_marseille","lat":43.309,"lon":5.36818,"is_reserved":false,"is_disabled":false,"rental_uris":{"android":"levelo://app?vid=7990dee0-3845-4924-a10e-d8eed309bb76","ios":"levelo://app?vid=7990dee0-3845-4924-a10e-d8eed309bb76"},"vehicle_type_id":"4","last_reported":1743495251,"current_range_meters":16000,"station_id":"ce4bgn92rcd13ifvqbvg","pricing_plan_id":"cebpf4jnsgd1na2vs0mg"},{"bike_id":"5f6ce697-4e60-4410-9fdb-c4eaa3187c73","system_id":"levelo_inurba_marseille","lat":43.30949,"lon":5.3904,"is_reserved":false,"is_disabled":false,"rental_uris":{"android":"levelo://app?vid=5f6ce697-4e60-4410-9fdb-c4eaa3187c73","ios":"levelo://app?vid=5f6ce697-4e60-4410-9fdb-c4eaa3187c73"},"vehicle_type_id":"4","last_reported":1743495251,"current_range_meters":16000,"station_id":"ce4bgup2rcd13ifvqco0","pricing_plan_id":"cebpf4jnsgd1na2vs0mg"},{"bike_id":"09ce80f6-0dec-45c1-8cc8-bcde7c239aa9","system_id":"levelo_inurba_marseille","lat":43.25938,"lon":5.40909,"is_reserved":false,"is_disabled":false,"rental_uris":{"android":"levelo://app?vid=09ce80f6-0dec-45c1-8cc8-bcde7c239aa9","ios":"levelo://app?vid=09ce80f6-0dec-45c1-8cc8-bcde7c239aa9"},"vehicle_type_id":"4","last_reported":1743495251,"current_range_meters":16000,"station_id":"ce4bhm92rcd13ifvqglg","pricing_plan_id":"cebpf4jnsgd1na2vs0mg"},{"bike_id":"63f15d78-52b9-4fdb-b91d-1a12d0e39c0c","system_id":"levelo_inurba_marseille","lat":43.23151,"lon":5.43712,"is_reserved":false,"is_disabled":false,"rental_uris":{"android":"levelo://app?vid=63f15d78-52b9-4fdb-b91d-1a12d0e39c0c","ios":"levelo://app?vid=63f15d78-52b9-4fdb-b91d-1a12d0e39c0c"},"vehicle_type_id":"4","last_reported":1743495251,"current_range_meters":16000,"station_id":"ce4bhmp2rcd13ifvqgog","pricing_plan_id":"cebpf4jnsgd1na2vs0mg"},{"bike_id":"bad8b686-d4b1-4fd1-a906-eeff21f737a2","system_id":"levelo_inurba_marseille","lat":43.24183,"lon":5.39749,"is_reserved":false,"is_disabled":false,"rental_uris":{"android":"levelo://app?vid=bad8b686-d4b1-4fd1-a906-eeff21f737a2","ios":"levelo://app?vid=bad8b686-d4b1-4fd1-a906-eeff21f737a2"},"vehicle_type_id":"4","last_reported":1743495251,"current_range_meters":16000,"station_id":"ce4bhn12rcd13ifvqgpg","pricing_plan_id":"cebpf4jnsgd1na2vs0mg"},{"bike_id":"dd3db03f-0f43-4986-9ec8-2a76818fb28c","system_id":"levelo_inurba_marseille","lat":43.2319,"lon":5.35558,"is_reserved":false,"is_disabled":false,"rental_uris":{"android":"levelo://app?vid=dd3db03f-0f43-4986-9ec8-2a76818fb28c","ios":"levelo://app?vid=dd3db03f-0f43-4986-9ec8-2a76818fb28c"},"vehicle_type_id":"4","last_reported":1743495251,"current_range_meters":16000,"station_id":"ce4bhu92rcd13ifvqi70","pricing_plan_id":"cebpf4jnsgd1na2vs0mg"},{"bike_id":"80e28d79-26fb-48ce-b60a-07d4b4173c00","system_id":"levelo_inurba_marseille","lat":43.30909,"lon":5.36848,"is_reserved":false,"is_disabled":false,"rental_uris":{"android":"levelo://app?vid=80e28d79-26fb-48ce-b60a-07d4b4173c00","ios":"levelo://app?vid=80e28d79-26fb-48ce-b60a-07d4b4173c00"},"vehicle_type_id":"4","last_reported":1743495251,"current_range_meters":16400,"station_id":"ce4bgn92rcd13ifvqbvg","pricing_plan_id":"cebpf4jnsgd1na2vs0mg"},{"bike_id":"dd8eb8ef-4e76-4e50-a068-19aab2791b35","system_id":"levelo_inurba_marseille","lat":43.30522,"lon":5.36543,"is_reserved":false,"is_disabled":false,"rental_uris":{"android":"levelo://app?vid=dd8eb8ef-4e76-4e50-a068-19aab2791b35","ios":"levelo://app?vid=dd8eb8ef-4e76-4e50-a068-19aab2791b35"},"vehicle_type_id":"4","last_reported":1743495251,"current_range_meters":16400,"station_id":"ce4bgs12rcd13ifvqcag","pricing_plan_id":"cebpf4jnsgd1na2vs0mg"},{"bike_id":"ff22fa16-c474-442d-811e-5b282ab6026f","system_id":"levelo_inurba_marseille","lat":43.30956,"lon":5.39042,"is_reserved":false,"is_disabled":false,"rental_uris":{"android":"levelo://app?vid=ff22fa16-c474-442d-811e-5b282ab6026f","ios":"levelo://app?vid=ff22fa16-c474-442d-811e-5b282ab6026f"},"vehicle_type_id":"4","last_reported":1743495251,"current_range_meters":16400,"station_id":"ce4bgup2rcd13ifvqco0","pricing_plan_id":"cebpf4jnsgd1na2vs0mg"},{"bike_id":"bbea8a6b-43a0-4fc4-ab4b-60c22f9e927c","system_id":"levelo_inurba_marseille","lat":43.286261,"lon":5.386298,"is_reserved":false,"is_disabled":false,"rental_uris":{"android":"levelo://app?vid=bbea8a6b-43a0-4fc4-ab4b-60c22f9e927c","ios":"levelo://app?vid=bbea8a6b-43a0-4fc4-ab4b-60c22f9e927c"},"vehicle_type_id":"4","last_reported":1743495251,"current_range_meters":16400,"station_id":"ce4bh492rcd13ifvqdug","pricing_plan_id":"cebpf4jnsgd1na2vs0mg"},{"bike_id":"4d1ced39-90a5-4da4-a460-7d25936c5531","system_id":"levelo_inurba_marseille","lat":43.26943,"lon":5.3891,"is_reserved":false,"is_disabled":false,"rental_uris":{"android":"levelo://app?vid=4d1ced39-90a5-4da4-a460-7d25936c5531","ios":"levelo://app?vid=4d1ced39-90a5-4da4-a460-7d25936c5531"},"vehicle_type_id":"4","last_reported":1743495251,"current_range_meters":16400,"station_id":"ce4bhhh2rcd13ifvqfl0","pricing_plan_id":"cebpf4jnsgd1na2vs0mg"},{"bike_id":"159b1a57-d33a-4c4e-9de5-425002d00e96","system_id":"levelo_inurba_marseille","lat":43.25922,"lon":5.4091,"is_reserved":false,"is_disabled":false,"rental_uris":{"android":"levelo://app?vid=159b1a57-d33a-4c4e-9de5-425002d00e96","ios":"levelo://app?vid=159b1a57-d33a-4c4e-9de5-425002d00e96"},"vehicle_type_id":"4","last_reported":1743495251,"current_range_meters":16400,"station_id":"ce4bhm92rcd13ifvqglg","pricing_plan_id":"cebpf4jnsgd1na2vs0mg"},{"bike_id":"1c375b4e-02ef-4769-865c-a09ae41762b3","system_id":"levelo_inurba_marseille","lat":43.25935,"lon":5.40895,"is_reserved":false,"is_disabled":false,"rental_uris":{"android":"levelo://app?vid=1c375b4e-02ef-4769-865c-a09ae41762b3","ios":"levelo://app?vid=1c375b4e-02ef-4769-865c-a09ae41762b3"},"vehicle_type_id":"4","last_reported":1743495251,"current_range_meters":16400,"station_id":"ce4bhm92rcd13ifvqglg","pricing_plan_id":"cebpf4jnsgd1na2vs0mg"},{"bike_id":"6fce09fe-1feb-4e0a-9631-756a8acc6413","system_id":"levelo_inurba_marseille","lat":43.336,"lon":5.41044,"is_reserved":false,"is_disabled":false,"rental_uris":{"android":"levelo://app?vid=6fce09fe-1feb-4e0a-9631-756a8acc6413","ios":"levelo://app?vid=6fce09fe-1feb-4e0a-9631-756a8acc6413"},"vehicle_type_id":"4","last_reported":1743495251,"current_range_meters":16400,"station_id":"ce4bhqh2rcd13ifvqhmg","pricing_plan_id":"cebpf4jnsgd1na2vs0mg"},{"bike_id":"33a9f304-b418-4689-be59-ee7063c099e5","system_id":"levelo_inurba_marseille","lat":43.31993,"lon":5.38165,"is_reserved":false,"is_disabled":false,"rental_uris":{"android":"levelo://app?vid=33a9f304-b418-4689-be59-ee7063c099e5","ios":"levelo://app?vid=33a9f304-b418-4689-be59-ee7063c099e5"},"vehicle_type_id":"4","last_reported":1743495251,"current_range_meters":16400,"station_id":"ce4bhr12rcd13ifvqhpg","pricing_plan_id":"cebpf4jnsgd1na2vs0mg"},{"bike_id":"b80ee275-2592-4659-b2e9-175feb839700","system_id":"levelo_inurba_marseille","lat":43.23203,"lon":5.3553,"is_reserved":false,"is_disabled":false,"rental_uris":{"android":"levelo://app?vid=b80ee275-2592-4659-b2e9-175feb839700","ios":"levelo://app?vid=b80ee275-2592-4659-b2e9-175feb839700"},"vehicle_type_id":"4","last_reported":1743495251,"current_range_meters":16400,"station_id":"ce4bhu92rcd13ifvqi70","pricing_plan_id":"cebpf4jnsgd1na2vs0mg"},{"bike_id":"75dae32f-059a-4b5b-a5e8-963c6eda2f66","system_id":"levelo_inurba_marseille","lat":43.27519,"lon":5.41064,"is_reserved":false,"is_disabled":false,"rental_uris":{"android":"levelo://app?vid=75dae32f-059a-4b5b-a5e8-963c6eda2f66","ios":"levelo://app?vid=75dae32f-059a-4b5b-a5e8-963c6eda2f66"},"vehicle_type_id":"4","last_reported":1743495251,"current_range_meters":16800,"station_id":"","pricing_plan_id":"cebpf4jnsgd1na2vs0mg"},{"bike_id":"27242c4e-c0d7-4d86-b765-a543e2bb9b87","system_id":"levelo_inurba_marseille","lat":43.29967,"lon":5.37166,"is_reserved":false,"is_disabled":false,"rental_uris":{"android":"levelo://app?vid=27242c4e-c0d7-4d86-b765-a543e2bb9b87","ios":"levelo://app?vid=27242c4e-c0d7-4d86-b765-a543e2bb9b87"},"vehicle_type_id":"4","last_reported":1743495251,"current_range_meters":16800,"station_id":"ce4bgr92rcd13ifvqc7g","pricing_plan_id":"cebpf4jnsgd1na2vs0mg"},{"bike_id":"d73ab696-8adb-4cb2-ae94-12e67330723f","system_id":"levelo_inurba_marseille","lat":43.29026,"lon":5.38648,"is_reserved":false,"is_disabled":false,"rental_uris":{"android":"levelo://app?vid=d73ab696-8adb-4cb2-ae94-12e67330723f","ios":"levelo://app?vid=d73ab696-8adb-4cb2-ae94-12e67330723f"},"vehicle_type_id":"4","last_reported":1743495251,"current_range_meters":16800,"station_id":"ce4bh4p2rcd13ifvqe0g","pricing_plan_id":"cebpf4jnsgd1na2vs0mg"},{"bike_id":"16df081a-dd02-4282-89ea-c525fb061da1","system_id":"levelo_inurba_marseille","lat":43.2768,"lon":5.38905,"is_reserved":false,"is_disabled":false,"rental_uris":{"android":"levelo://app?vid=16df081a-dd02-4282-89ea-c525fb061da1","ios":"levelo://app?vid=16df081a-dd02-4282-89ea-c525fb061da1"},"vehicle_type_id":"4","last_reported":1743495251,"current_range_meters":16800,"station_id":"ce4bhi12rcd13ifvqfo0","pricing_plan_id":"cebpf4jnsgd1na2vs0mg"},{"bike_id":"c381df8d-0127-4110-a31b-b36667969e14","system_id":"levelo_inurba_marseille","lat":43.25822,"lon":5.39426,"is_reserved":false,"is_disabled":false,"rental_uris":{"android":"levelo://app?vid=c381df8d-0127-4110-a31b-b36667969e14","ios":"levelo://app?vid=c381df8d-0127-4110-a31b-b36667969e14"},"vehicle_type_id":"4","last_reported":1743495251,"current_range_meters":16800,"station_id":"ce4bhip2rcd13ifvqft0","pricing_plan_id":"cebpf4jnsgd1na2vs0mg"},{"bike_id":"cdd751d6-f2e0-41b6-ae7f-f6402eaaba99","system_id":"levelo_inurba_marseille","lat":43.231916,"lon":5.399721,"is_reserved":false,"is_disabled":false,"rental_uris":{"android":"levelo://app?vid=cdd751d6-f2e0-41b6-ae7f-f6402eaaba99","ios":"levelo://app?vid=cdd751d6-f2e0-41b6-ae7f-f6402eaaba99"},"vehicle_type_id":"4","last_reported":1743495251,"current_range_meters":16800,"station_id":"ce4bhn12rcd13ifvqgqg","pricing_plan_id":"cebpf4jnsgd1na2vs0mg"},{"bike_id":"476e30d7-334d-49d2-b23b-4150fb1ce367","system_id":"levelo_inurba_marseille","lat":43.30529,"lon":5.36706,"is_reserved":false,"is_disabled":false,"rental_uris":{"android":"levelo://app?vid=476e30d7-334d-49d2-b23b-4150fb1ce367","ios":"levelo://app?vid=476e30d7-334d-49d2-b23b-4150fb1ce367"},"vehicle_type_id":"4","last_reported":1743495251,"current_range_meters":17200,"station_id":"ce4bgrp2rcd13ifvqc9g","pricing_plan_id":"cebpf4jnsgd1na2vs0mg"},{"bike_id":"ab44fd71-6b68-4a4b-bb33-68f119af0bfa","system_id":"levelo_inurba_marseille","lat":43.3088,"lon":5.39662,"is_reserved":false,"is_disabled":false,"rental_uris":{"android":"levelo://app?vid=ab44fd71-6b68-4a4b-bb33-68f119af0bfa","ios":"levelo://app?vid=ab44fd71-6b68-4a4b-bb33-68f119af0bfa"},"vehicle_type_id":"4","last_reported":1743495251,"current_range_meters":17200,"station_id":"ce4bh012rcd13ifvqcv0","pricing_plan_id":"cebpf4jnsgd1na2vs0mg"},{"bike_id":"94488e02-1c29-4ee2-afab-32fb200cf02b","system_id":"levelo_inurba_marseille","lat":43.26057,"lon":5.39398,"is_reserved":false,"is_disabled":false,"rental_uris":{"android":"levelo://app?vid=94488e02-1c29-4ee2-afab-32fb200cf02b","ios":"levelo://app?vid=94488e02-1c29-4ee2-afab-32fb200cf02b"},"vehicle_type_id":"4","last_reported":1743495251,"current_range_meters":17200,"station_id":"ce4bhh92rcd13ifvqfj0","pricing_plan_id":"cebpf4jnsgd1na2vs0mg"},{"bike_id":"ff546b52-3d1d-4eba-b4ca-4426f132528a","system_id":"levelo_inurba_marseille","lat":43.33603,"lon":5.41034,"is_reserved":false,"is_disabled":false,"rental_uris":{"android":"levelo://app?vid=ff546b52-3d1d-4eba-b4ca-4426f132528a","ios":"levelo://app?vid=ff546b52-3d1d-4eba-b4ca-4426f132528a"},"vehicle_type_id":"4","last_reported":1743495251,"current_range_meters":17200,"station_id":"ce4bhqh2rcd13ifvqhmg","pricing_plan_id":"cebpf4jnsgd1na2vs0mg"},{"bike_id":"09db899d-041c-49e4-8dd3-2b2c7ab99631","system_id":"levelo_inurba_marseille","lat":43.3375,"lon":5.37493,"is_reserved":false,"is_disabled":false,"rental_uris":{"android":"levelo://app?vid=09db899d-041c-49e4-8dd3-2b2c7ab99631","ios":"levelo://app?vid=09db899d-041c-49e4-8dd3-2b2c7ab99631"},"vehicle_type_id":"4","last_reported":1743495251,"current_range_meters":17600,"station_id":"","pricing_plan_id":"cebpf4jnsgd1na2vs0mg"},{"bike_id":"7bc03694-e65f-4cca-8576-b7d5276a8af3","system_id":"levelo_inurba_marseille","lat":43.3377,"lon":5.37471,"is_reserved":false,"is_disabled":false,"rental_uris":{"android":"levelo://app?vid=7bc03694-e65f-4cca-8576-b7d5276a8af3","ios":"levelo://app?vid=7bc03694-e65f-4cca-8576-b7d5276a8af3"},"vehicle_type_id":"4","last_reported":1743495251,"current_range_meters":17600,"station_id":"","pricing_plan_id":"cebpf4jnsgd1na2vs0mg"},{"bike_id":"d8fca211-60fb-4285-9cb7-34b2ec70b471","system_id":"levelo_inurba_marseille","lat":43.30548,"lon":5.36533,"is_reserved":false,"is_disabled":false,"rental_uris":{"android":"levelo://app?vid=d8fca211-60fb-4285-9cb7-34b2ec70b471","ios":"levelo://app?vid=d8fca211-60fb-4285-9cb7-34b2ec70b471"},"vehicle_type_id":"4","last_reported":1743495251,"current_range_meters":17600,"station_id":"ce4bgs12rcd13ifvqcag","pricing_plan_id":"cebpf4jnsgd1na2vs0mg"},{"bike_id":"c81fef9c-73c7-462a-ae20-0444527e23bb","system_id":"levelo_inurba_marseille","lat":43.24383,"lon":5.3706,"is_reserved":false,"is_disabled":false,"rental_uris":{"android":"levelo://app?vid=c81fef9c-73c7-462a-ae20-0444527e23bb","ios":"levelo://app?vid=c81fef9c-73c7-462a-ae20-0444527e23bb"},"vehicle_type_id":"4","last_reported":1743495251,"current_range_meters":17600,"station_id":"ce4bhhh2rcd13ifvqfk0","pricing_plan_id":"cebpf4jnsgd1na2vs0mg"},{"bike_id":"d3b4d8ef-9f53-4fd8-a230-053371f63755","system_id":"levelo_inurba_marseille","lat":43.23146,"lon":5.43698,"is_reserved":false,"is_disabled":false,"rental_uris":{"android":"levelo://app?vid=d3b4d8ef-9f53-4fd8-a230-053371f63755","ios":"levelo://app?vid=d3b4d8ef-9f53-4fd8-a230-053371f63755"},"vehicle_type_id":"4","last_reported":1743495251,"current_range_meters":17600,"station_id":"ce4bhmp2rcd13ifvqgog","pricing_plan_id":"cebpf4jnsgd1na2vs0mg"},{"bike_id":"46301ffa-1033-48be-9ab5-8877266a05ff","system_id":"levelo_inurba_marseille","lat":43.27493,"lon":5.42451,"is_reserved":false,"is_disabled":false,"rental_uris":{"android":"levelo://app?vid=46301ffa-1033-48be-9ab5-8877266a05ff","ios":"levelo://app?vid=46301ffa-1033-48be-9ab5-8877266a05ff"},"vehicle_type_id":"4","last_reported":1743495251,"current_range_meters":17600,"station_id":"ce4bhn92rcd13ifvqgrg","pricing_plan_id":"cebpf4jnsgd1na2vs0mg"},{"bike_id":"d157a8ac-f1ea-480a-a1ee-9ac00962bb01","system_id":"levelo_inurba_marseille","lat":43.29556,"lon":5.42301,"is_reserved":false,"is_disabled":false,"rental_uris":{"android":"levelo://app?vid=d157a8ac-f1ea-480a-a1ee-9ac00962bb01","ios":"levelo://app?vid=d157a8ac-f1ea-480a-a1ee-9ac00962bb01"},"vehicle_type_id":"4","last_reported":1743495251,"current_range_meters":17600,"station_id":"ce4bhph2rcd13ifvqhdg","pricing_plan_id":"cebpf4jnsgd1na2vs0mg"},{"bike_id":"7b869cea-1d61-42d2-b04b-29df5bd7497f","system_id":"levelo_inurba_marseille","lat":43.32088,"lon":5.36797,"is_reserved":false,"is_disabled":false,"rental_uris":{"android":"levelo://app?vid=7b869cea-1d61-42d2-b04b-29df5bd7497f","ios":"levelo://app?vid=7b869cea-1d61-42d2-b04b-29df5bd7497f"},"vehicle_type_id":"4","last_reported":1743495251,"current_range_meters":17600,"station_id":"ce4bhrh2rcd13ifvqhug","pricing_plan_id":"cebpf4jnsgd1na2vs0mg"},{"bike_id":"e0fcd70e-988f-497a-b38b-b4ff15210285","system_id":"levelo_inurba_marseille","lat":43.2407,"lon":5.37764,"is_reserved":false,"is_disabled":false,"rental_uris":{"android":"levelo://app?vid=e0fcd70e-988f-497a-b38b-b4ff15210285","ios":"levelo://app?vid=e0fcd70e-988f-497a-b38b-b4ff15210285"},"vehicle_type_id":"4","last_reported":1743495251,"current_range_meters":18000,"station_id":"ce4bhnp2rcd13ifvqgvg","pricing_plan_id":"cebpf4jnsgd1na2vs0mg"},{"bike_id":"8a64e989-23af-488b-acfc-979bb5790d61","system_id":"levelo_inurba_marseille","lat":43.29296,"lon":5.37465,"is_reserved":false,"is_disabled":false,"rental_uris":{"android":"levelo://app?vid=8a64e989-23af-488b-acfc-979bb5790d61","ios":"levelo://app?vid=8a64e989-23af-488b-acfc-979bb5790d61"},"vehicle_type_id":"4","last_reported":1743495251,"current_range_meters":18800,"station_id":"ce4bgi12rcd13ifvqb70","pricing_plan_id":"cebpf4jnsgd1na2vs0mg"},{"bike_id":"7988dc37-d331-4a13-97ae-2c8fb7b47899","system_id":"levelo_inurba_marseille","lat":43.3091,"lon":5.36845,"is_reserved":false,"is_disabled":false,"rental_uris":{"android":"levelo://app?vid=7988dc37-d331-4a13-97ae-2c8fb7b47899","ios":"levelo://app?vid=7988dc37-d331-4a13-97ae-2c8fb7b47899"},"vehicle_type_id":"4","last_reported":1743495251,"current_range_meters":18800,"station_id":"ce4bgn92rcd13ifvqbvg","pricing_plan_id":"cebpf4jnsgd1na2vs0mg"},{"bike_id":"202b6520-a72b-491d-8c09-df57e87e916e","system_id":"levelo_inurba_marseille","lat":43.23151,"lon":5.43709,"is_reserved":false,"is_disabled":false,"rental_uris":{"android":"levelo://app?vid=202b6520-a72b-491d-8c09-df57e87e916e","ios":"levelo://app?vid=202b6520-a72b-491d-8c09-df57e87e916e"},"vehicle_type_id":"4","last_reported":1743495251,"current_range_meters":18800,"station_id":"ce4bhmp2rcd13ifvqgog","pricing_plan_id":"cebpf4jnsgd1na2vs0mg"},{"bike_id":"03bda7d6-774e-4f5a-a56c-0b00e6aa53f1","system_id":"levelo_inurba_marseille","lat":43.23148,"lon":5.43716,"is_reserved":false,"is_disabled":false,"rental_uris":{"android":"levelo://app?vid=03bda7d6-774e-4f5a-a56c-0b00e6aa53f1","ios":"levelo://app?vid=03bda7d6-774e-4f5a-a56c-0b00e6aa53f1"},"vehicle_type_id":"4","last_reported":1743495251,"current_range_meters":18800,"station_id":"ce4bhmp2rcd13ifvqgog","pricing_plan_id":"cebpf4jnsgd1na2vs0mg"},{"bike_id":"e3903415-859a-4d9b-b141-5943455167f0","system_id":"levelo_inurba_marseille","lat":43.23191,"lon":5.3999,"is_reserved":false,"is_disabled":false,"rental_uris":{"android":"levelo://app?vid=e3903415-859a-4d9b-b141-5943455167f0","ios":"levelo://app?vid=e3903415-859a-4d9b-b141-5943455167f0"},"vehicle_type_id":"4","last_reported":1743495251,"current_range_meters":18800,"station_id":"ce4bhn12rcd13ifvqgqg","pricing_plan_id":"cebpf4jnsgd1na2vs0mg"},{"bike_id":"7535e578-fedb-4902-bdd7-dfee7b51d90f","system_id":"levelo_inurba_marseille","lat":43.27491,"lon":5.42459,"is_reserved":false,"is_disabled":false,"rental_uris":{"android":"levelo://app?vid=7535e578-fedb-4902-bdd7-dfee7b51d90f","ios":"levelo://app?vid=7535e578-fedb-4902-bdd7-dfee7b51d90f"},"vehicle_type_id":"4","last_reported":1743495251,"current_range_meters":18800,"station_id":"ce4bhn92rcd13ifvqgrg","pricing_plan_id":"cebpf4jnsgd1na2vs0mg"},{"bike_id":"4a12488c-675f-4a79-a88f-71f05e306f37","system_id":"levelo_inurba_marseille","lat":43.29989,"lon":5.38506,"is_reserved":false,"is_disabled":false,"rental_uris":{"android":"levelo://app?vid=4a12488c-675f-4a79-a88f-71f05e306f37","ios":"levelo://app?vid=4a12488c-675f-4a79-a88f-71f05e306f37"},"vehicle_type_id":"4","last_reported":1743495251,"current_range_meters":19200,"station_id":"ce4bgj92rcd13ifvqbd0","pricing_plan_id":"cebpf4jnsgd1na2vs0mg"},{"bike_id":"49b6946c-d5d9-4f7b-9e2a-1a24703cbfb9","system_id":"levelo_inurba_marseille","lat":43.30528,"lon":5.36709,"is_reserved":false,"is_disabled":false,"rental_uris":{"android":"levelo://app?vid=49b6946c-d5d9-4f7b-9e2a-1a24703cbfb9","ios":"levelo://app?vid=49b6946c-d5d9-4f7b-9e2a-1a24703cbfb9"},"vehicle_type_id":"4","last_reported":1743495251,"current_range_meters":19200,"station_id":"ce4bgrp2rcd13ifvqc9g","pricing_plan_id":"cebpf4jnsgd1na2vs0mg"},{"bike_id":"b58fc692-1a7e-4a38-ae09-22b808ef760f","system_id":"levelo_inurba_marseille","lat":43.30948,"lon":5.39046,"is_reserved":false,"is_disabled":false,"rental_uris":{"android":"levelo://app?vid=b58fc692-1a7e-4a38-ae09-22b808ef760f","ios":"levelo://app?vid=b58fc692-1a7e-4a38-ae09-22b808ef760f"},"vehicle_type_id":"4","last_reported":1743495251,"current_range_meters":19200,"station_id":"ce4bgup2rcd13ifvqco0","pricing_plan_id":"cebpf4jnsgd1na2vs0mg"},{"bike_id":"0f7a05c5-9988-4f0e-a923-d693d313b005","system_id":"levelo_inurba_marseille","lat":43.25527,"lon":5.38209,"is_reserved":false,"is_disabled":false,"rental_uris":{"android":"levelo://app?vid=0f7a05c5-9988-4f0e-a923-d693d313b005","ios":"levelo://app?vid=0f7a05c5-9988-4f0e-a923-d693d313b005"},"vehicle_type_id":"4","last_reported":1743495251,"current_range_meters":19200,"station_id":"ce4bhih2rcd13ifvqfs0","pricing_plan_id":"cebpf4jnsgd1na2vs0mg"},{"bike_id":"d8ef3617-eb64-479b-aa4f-347d68ee30d1","system_id":"levelo_inurba_marseille","lat":43.29552,"lon":5.42295,"is_reserved":false,"is_disabled":false,"rental_uris":{"android":"levelo://app?vid=d8ef3617-eb64-479b-aa4f-347d68ee30d1","ios":"levelo://app?vid=d8ef3617-eb64-479b-aa4f-347d68ee30d1"},"vehicle_type_id":"4","last_reported":1743495251,"current_range_meters":19200,"station_id":"ce4bhph2rcd13ifvqhdg","pricing_plan_id":"cebpf4jnsgd1na2vs0mg"},{"bike_id":"cd83c8ac-ed09-4369-9279-b6f36f2bbd3c","system_id":"levelo_inurba_marseille","lat":43.30804,"lon":5.38305,"is_reserved":false,"is_disabled":false,"rental_uris":{"android":"levelo://app?vid=cd83c8ac-ed09-4369-9279-b6f36f2bbd3c","ios":"levelo://app?vid=cd83c8ac-ed09-4369-9279-b6f36f2bbd3c"},"vehicle_type_id":"4","last_reported":1743495251,"current_range_meters":19600,"station_id":"","pricing_plan_id":"cebpf4jnsgd1na2vs0mg"},{"bike_id":"d65bbd24-e31b-4f87-a427-7cedbb8cf975","system_id":"levelo_inurba_marseille","lat":43.31367,"lon":5.3669,"is_reserved":false,"is_disabled":false,"rental_uris":{"android":"levelo://app?vid=d65bbd24-e31b-4f87-a427-7cedbb8cf975","ios":"levelo://app?vid=d65bbd24-e31b-4f87-a427-7cedbb8cf975"},"vehicle_type_id":"4","last_reported":1743495251,"current_range_meters":19600,"station_id":"","pricing_plan_id":"cebpf4jnsgd1na2vs0mg"},{"bike_id":"0d131628-fea5-4af9-b764-7651e3d3c686","system_id":"levelo_inurba_marseille","lat":43.3091,"lon":5.36841,"is_reserved":false,"is_disabled":false,"rental_uris":{"android":"levelo://app?vid=0d131628-fea5-4af9-b764-7651e3d3c686","ios":"levelo://app?vid=0d131628-fea5-4af9-b764-7651e3d3c686"},"vehicle_type_id":"4","last_reported":1743495251,"current_range_meters":19600,"station_id":"ce4bgn92rcd13ifvqbvg","pricing_plan_id":"cebpf4jnsgd1na2vs0mg"},{"bike_id":"07c33504-2284-44d4-a7b0-3ac565e0b359","system_id":"levelo_inurba_marseille","lat":43.31708,"lon":5.37779,"is_reserved":false,"is_disabled":false,"rental_uris":{"android":"levelo://app?vid=07c33504-2284-44d4-a7b0-3ac565e0b359","ios":"levelo://app?vid=07c33504-2284-44d4-a7b0-3ac565e0b359"},"vehicle_type_id":"4","last_reported":1743495251,"current_range_meters":19600,"station_id":"ce4bgth2rcd13ifvqch0","pricing_plan_id":"cebpf4jnsgd1na2vs0mg"},{"bike_id":"c0eb2aff-b472-4e86-8e45-9559437d43ea","system_id":"levelo_inurba_marseille","lat":43.30887,"lon":5.37185,"is_reserved":false,"is_disabled":false,"rental_uris":{"android":"levelo://app?vid=c0eb2aff-b472-4e86-8e45-9559437d43ea","ios":"levelo://app?vid=c0eb2aff-b472-4e86-8e45-9559437d43ea"},"vehicle_type_id":"4","last_reported":1743495251,"current_range_meters":19600,"station_id":"ce4bguh2rcd13ifvqckg","pricing_plan_id":"cebpf4jnsgd1na2vs0mg"},{"bike_id":"62233190-8d66-4a04-b7c1-37d72129a5a4","system_id":"levelo_inurba_marseille","lat":43.29516,"lon":5.39406,"is_reserved":false,"is_disabled":false,"rental_uris":{"android":"levelo://app?vid=62233190-8d66-4a04-b7c1-37d72129a5a4","ios":"levelo://app?vid=62233190-8d66-4a04-b7c1-37d72129a5a4"},"vehicle_type_id":"4","last_reported":1743495251,"current_range_meters":19600,"station_id":"ce4bh292rcd13ifvqdf0","pricing_plan_id":"cebpf4jnsgd1na2vs0mg"},{"bike_id":"69edb4ae-8d85-407c-abf3-3a8c5e507c14","system_id":"levelo_inurba_marseille","lat":43.2902,"lon":5.38645,"is_reserved":false,"is_disabled":false,"rental_uris":{"android":"levelo://app?vid=69edb4ae-8d85-407c-abf3-3a8c5e507c14","ios":"levelo://app?vid=69edb4ae-8d85-407c-abf3-3a8c5e507c14"},"vehicle_type_id":"4","last_reported":1743495251,"current_range_meters":19600,"station_id":"ce4bh4p2rcd13ifvqe0g","pricing_plan_id":"cebpf4jnsgd1na2vs0mg"},{"bike_id":"ee58a8cc-a166-46a5-a2f1-94f1578f207b","system_id":"levelo_inurba_marseille","lat":43.25941,"lon":5.40906,"is_reserved":false,"is_disabled":false,"rental_uris":{"android":"levelo://app?vid=ee58a8cc-a166-46a5-a2f1-94f1578f207b","ios":"levelo://app?vid=ee58a8cc-a166-46a5-a2f1-94f1578f207b"},"vehicle_type_id":"4","last_reported":1743495251,"current_range_meters":19600,"station_id":"ce4bhm92rcd13ifvqglg","pricing_plan_id":"cebpf4jnsgd1na2vs0mg"},{"bike_id":"962fd783-90c8-4086-89fb-970de35df336","system_id":"levelo_inurba_marseille","lat":43.24181,"lon":5.39734,"is_reserved":false,"is_disabled":false,"rental_uris":{"android":"levelo://app?vid=962fd783-90c8-4086-89fb-970de35df336","ios":"levelo://app?vid=962fd783-90c8-4086-89fb-970de35df336"},"vehicle_type_id":"4","last_reported":1743495251,"current_range_meters":19600,"station_id":"ce4bhn12rcd13ifvqgpg","pricing_plan_id":"cebpf4jnsgd1na2vs0mg"},{"bike_id":"c11994a2-1f9f-40cd-abf9-cf0377e8a3df","system_id":"levelo_inurba_marseille","lat":43.27494,"lon":5.42456,"is_reserved":false,"is_disabled":false,"rental_uris":{"android":"levelo://app?vid=c11994a2-1f9f-40cd-abf9-cf0377e8a3df","ios":"levelo://app?vid=c11994a2-1f9f-40cd-abf9-cf0377e8a3df"},"vehicle_type_id":"4","last_reported":1743495251,"current_range_meters":19600,"station_id":"ce4bhn92rcd13ifvqgrg","pricing_plan_id":"cebpf4jnsgd1na2vs0mg"},{"bike_id":"ccb14cda-6c4e-496c-8fc5-e1bfb96cf863","system_id":"levelo_inurba_marseille","lat":43.27502,"lon":5.42468,"is_reserved":false,"is_disabled":false,"rental_uris":{"android":"levelo://app?vid=ccb14cda-6c4e-496c-8fc5-e1bfb96cf863","ios":"levelo://app?vid=ccb14cda-6c4e-496c-8fc5-e1bfb96cf863"},"vehicle_type_id":"4","last_reported":1743495251,"current_range_meters":19600,"station_id":"ce4bhn92rcd13ifvqgrg","pricing_plan_id":"cebpf4jnsgd1na2vs0mg"},{"bike_id":"96ae54f5-274d-4b8b-9afe-915db6f99793","system_id":"levelo_inurba_marseille","lat":43.30292,"lon":5.37691,"is_reserved":false,"is_disabled":false,"rental_uris":{"android":"levelo://app?vid=96ae54f5-274d-4b8b-9afe-915db6f99793","ios":"levelo://app?vid=96ae54f5-274d-4b8b-9afe-915db6f99793"},"vehicle_type_id":"4","last_reported":1743495251,"current_range_meters":20000,"station_id":"ce4bguh2rcd13ifvqcj0","pricing_plan_id":"cebpf4jnsgd1na2vs0mg"},{"bike_id":"afca25a4-6504-43b2-ad24-93020efecf25","system_id":"levelo_inurba_marseille","lat":43.30488,"lon":5.3791,"is_reserved":false,"is_disabled":false,"rental_uris":{"android":"levelo://app?vid=afca25a4-6504-43b2-ad24-93020efecf25","ios":"levelo://app?vid=afca25a4-6504-43b2-ad24-93020efecf25"},"vehicle_type_id":"4","last_reported":1743495251,"current_range_meters":20000,"station_id":"ce4bgup2rcd13ifvqcn0","pricing_plan_id":"cebpf4jnsgd1na2vs0mg"},{"bike_id":"5ea7e18c-f3bf-4e98-a4bd-4501e97efaaf","system_id":"levelo_inurba_marseille","lat":43.29063,"lon":5.37171,"is_reserved":false,"is_disabled":false,"rental_uris":{"android":"levelo://app?vid=5ea7e18c-f3bf-4e98-a4bd-4501e97efaaf","ios":"levelo://app?vid=5ea7e18c-f3bf-4e98-a4bd-4501e97efaaf"},"vehicle_type_id":"4","last_reported":1743495251,"current_range_meters":20000,"station_id":"ce4bh5p2rcd13ifvqe4g","pricing_plan_id":"cebpf4jnsgd1na2vs0mg"},