{"last_updated":1741774229,"ttl":60,"version":"2.2","data":{"bikes":[{"bike_id":"e3565dcf-4d34-49d7-919b-1234920ea466","system_id":"levelo_inurba_marseille","lat":43.33746,"lon":5.3745,"is_reserved":false,"is_disabled":false,"rental_uris":{"android":"levelo://app?vid=e3565dcf-4d34-49d7-919b-1234920ea466","ios":"levelo://app?vid=e3565dcf-4d34-49d7-919b-1234920ea466"},"vehicle_type_id":"4","last_reported":1741774229,"current_range_meters":18800,"station_id":"","pricing_plan_id":"cebpf4jnsgd1na2vs0mg"},{"bike_id":"2fbb2f0e-b64e-445e-a2b3-ee5227dc63e4","system_id":"levelo_inurba_marseille","lat":43.26936,"lon":5.36715,"is_reserved":false,"is_disabled":true,"rental_uris":{"android":"levelo://app?vid=2fbb2f0e-b64e-445e-a2b3-ee5227dc63e4","ios":"levelo://app?vid=2fbb2f0e-b64e-445e-a2b3-ee5227dc63e4"},"vehicle_type_id":"4","last_reported":1741774229,"current_range_meters":0,"station_id":"","pricing_plan_id":"cebpf4jnsgd1na2vs0mg"},{"bike_id":"62b3a7b8-8202-4684-8ab1-a7c1ed31d3f6","system_id":"levelo_inurba_marseille","lat":43.31115,"lon":5.37515,"is_reserved":false,"is_disabled":true,"rental_uris":{"android":"levelo://app?vid=62b3a7b8-8202-4684-8ab1-a7c1ed31d3f6","ios":"levelo://app?vid=62b3a7b8-8202-4684-8ab1-a7c1ed31d3f6"},"vehicle_type_id":"4","last_reported":1741774229,"current_range_meters":0,"station_id":"","pricing_plan_id":"cebpf4jnsgd1na2vs0mg"},{"bike_id":"9ee8d9b2-106d-4490-9546-f216244e7995","system_id":"levelo_inurba_marseille","lat":43.27682,"lon":5.37866,"is_reserved":false,"is_disabled":true,"rental_uris":{"android":"levelo://app?vid=9ee8d9b2-106d-4490-9546-f216244e7995","ios":"levelo://app?vid=9ee8d9b2-106d-4490-9546-f216244e7995"},"vehicle_type_id":"4","last_reported":1741774229,"current_range_meters":0,"station_id":"","pricing_plan_id":"cebpf4jnsgd1na2vs0mg"},{"bike_id":"b25ca74c-93bb-44ce-8e3a-41f061697d12","system_id":"levelo_inurba_marseille","lat":43.305425,"lon":5.384224,"is_reserved":false,"is_disabled":true,"rental_uris":{"android":"levelo://app?vid=b25ca74c-93bb-44ce-8e3a-41f061697d12","ios":"levelo://app?vid=b25ca74c-93bb-44ce-8e3a-41f061697d12"},"vehicle_type_id":"4","last_reported":1741774229,"current_range_meters":0,"station_id":"","pricing_plan_id":"cebpf4jnsgd1na2vs0mg"},{"bike_id":"b104001a-10f7-4c93-b613-2b76cb885027","system_id":"levelo_inurba_marseille","lat":43.31149,"lon":5.37133,"is_reserved":false,"is_disabled":true,"rental_uris":{"android":"levelo://app?vid=b104001a-10f7-4c93-b613-2b76cb885027","ios":"levelo://app?vid=b104001a-10f7-4c93-b613-2b76cb885027"},"vehicle_type_id":"4","last_reported":1741774229,"current_range_meters":0,"station_id":"","pricing_plan_id":"cebpf4jnsgd1na2vs0mg"},{"bike_id":"de46287d-7978-434e-a858-4e90b6b652a2","system_id":"levelo_inurba_marseille","lat":43.253366,"lon":5.402242,"is_reserved":false,"is_disabled":true,"rental_uris":{"android":"levelo://app?vid=de46287d-7978-434e-a858-4e90b6b652a2","ios":"levelo://app?vid=de46287d-7978-434e-a858-4e90b6b652a2"},"vehicle_type_id":"4","last_reported":1741774229,"current_range_meters":0,"station_id":"ce4bgnh2rcd13ifvqc0g","pricing_plan_id":"cebpf4jnsgd1na2vs0mg"},{"bike_id":"baf29370-f033-4b0b-b829-eeefca4a7548","system_id":"levelo_inurba_marseille","lat":43.28413,"lon":5.34985,"is_reserved":false,"is_disabled":true,"rental_uris":{"android":"levelo://app?vid=baf29370-f033-4b0b-b829-eeefca4a7548","ios":"levelo://app?vid=baf29370-f033-4b0b-b829-eeefca4a7548"},"vehicle_type_id":"4","last_reported":1741774229,"current_range_meters":0,"station_id":"ce4bhbh2rcd13ifvqepg","pricing_plan_id":"cebpf4jnsgd1na2vs0mg"},{"bike_id":"26b6f0f5-ac22-458d-b9d3-e6cbd38a8798","system_id":"levelo_inurba_marseille","lat":43.25004,"lon":5.38937,"is_reserved":false,"is_disabled":true,"rental_uris":{"android":"levelo://app?vid=26b6f0f5-ac22-458d-b9d3-e6cbd38a8798","ios":"levelo://app?vid=26b6f0f5-ac22-458d-b9d3-e6cbd38a8798"},"vehicle_type_id":"4","last_reported":1741774229,"current_range_meters":0,"station_id":"ce4bhgp2rcd13ifvqfd0","pricing_plan_id":"cebpf4jnsgd1na2vs0mg"},{"bike_id":"89e26b02-015a-410e-94a9-526be3e95c44","system_id":"levelo_inurba_marseille","lat":43.23147,"lon":5.43719,"is_reserved":false,"is_disabled":true,"rental_uris":{"android":"levelo://app?vid=89e26b02-015a-410e-94a9-526be3e95c44","ios":"levelo://app?vid=89e26b02-015a-410e-94a9-526be3e95c44"},"vehicle_type_id":"4","last_reported":1741774229,"current_range_meters":0,"station_id":"ce4bhmp2rcd13ifvqgog","pricing_plan_id":"cebpf4jnsgd1na2vs0mg"},{"bike_id":"a886c57a-6972-459c-bdb0-88b313abc0cf","system_id":"levelo_inurba_marseille","lat":43.265696,"lon":5.390137,"is_reserved":false,"is_disabled":true,"rental_uris":{"android":"levelo://app?vid=a886c57a-6972-459c-bdb0-88b313abc0cf","ios":"levelo://app?vid=a886c57a-6972-459c-bdb0-88b313abc0cf"},"vehicle_type_id":"4","last_reported":1741774229,"current_range_meters":400,"station_id":"ce4bhe12rcd13ifvqf30","pricing_plan_id":"cebpf4jnsgd1na2vs0mg"},{"bike_id":"4db736b9-68d3-4f2a-9431-002ce7a44183","system_id":"levelo_inurba_marseille","lat":43.23145,"lon":5.4372,"is_reserved":false,"is_disabled":true,"rental_uris":{"android":"levelo://app?vid=4db736b9-68d3-4f2a-9431-002ce7a44183","ios":"levelo://app?vid=4db736b9-68d3-4f2a-9431-002ce7a44183"},"vehicle_type_id":"4","last_reported":1741774229,"current_range_meters":400,"station_id":"ce4bhmp2rcd13ifvqgog","pricing_plan_id":"cebpf4jnsgd1na2vs0mg"},{"bike_id":"d3d738de-cbd6-474f-9007-e1b2c13a60d4","system_id":"levelo_inurba_marseille","lat":43.2408,"lon":5.37746,"is_reserved":false,"is_disabled":true,"rental_uris":{"android":"levelo://app?vid=d3d738de-cbd6-474f-9007-e1b2c13a60d4","ios":"levelo://app?vid=d3d738de-cbd6-474f-9007-e1b2c13a60d4"},"vehicle_type_id":"4","last_reported":1741774229,"current_range_meters":400,"station_id":"ce4bhnp2rcd13ifvqgvg","pricing_plan_id":"cebpf4jnsgd1na2vs0mg"},{"bike_id":"d3f91f22-7ed5-4876-8ee7-65c967f221fb","system_id":"levelo_inurba_marseille","lat":43.31338,"lon":5.37013,"is_reserved":false,"is_disabled":true,"rental_uris":{"android":"levelo://app?vid=d3f91f22-7ed5-4876-8ee7-65c967f221fb","ios":"levelo://app?vid=d3f91f22-7ed5-4876-8ee7-65c967f221fb"},"vehicle_type_id":"4","last_reported":1741774229,"current_range_meters":800,"station_id":"","pricing_plan_id":"cebpf4jnsgd1na2vs0mg"},{"bike_id":"53d0a152-6141-404d-9b16-5adcab463bec","system_id":"levelo_inurba_marseille","lat":43.24174,"lon":5.39729,"is_reserved":false,"is_disabled":true,"rental_uris":{"android":"levelo://app?vid=53d0a152-6141-404d-9b16-5adcab463bec","ios":"levelo://app?vid=53d0a152-6141-404d-9b16-5adcab463bec"},"vehicle_type_id":"4","last_reported":1741774229,"current_range_meters":800,"station_id":"ce4bhn12rcd13ifvqgpg","pricing_plan_id":"cebpf4jnsgd1na2vs0mg"},{"bike_id":"36a83dc7-2da9-4fd8-9caf-ab5acfefbac5","system_id":"levelo_inurba_marseille","lat":43.25701,"lon":5.41113,"is_reserved":false,"is_disabled":true,"rental_uris":{"android":"levelo://app?vid=36a83dc7-2da9-4fd8-9caf-ab5acfefbac5","ios":"levelo://app?vid=36a83dc7-2da9-4fd8-9caf-ab5acfefbac5"},"vehicle_type_id":"4","last_reported":1741774229,"current_range_meters":1200,"station_id":"ce4bhkp2rcd13ifvqgd0","pricing_plan_id":"cebpf4jnsgd1na2vs0mg"},{"bike_id":"5aff5b8d-d25a-4dc2-8025-a4052ee2f427","system_id":"levelo_inurba_marseille","lat":43.23179,"lon":5.39993,"is_reserved":false,"is_disabled":true,"rental_uris":{"android":"levelo://app?vid=5aff5b8d-d25a-4dc2-8025-a4052ee2f427","ios":"levelo://app?vid=5aff5b8d-d25a-4dc2-8025-a4052ee2f427"},"vehicle_type_id":"4","last_reported":1741774229,"current_range_meters":1200,"station_id":"ce4bhn12rcd13ifvqgqg","pricing_plan_id":"cebpf4jnsgd1na2vs0mg"},{"bike_id":"000e6ff6-c350-4ef7-a9f7-ea212475cdbd","system_id":"levelo_inurba_marseille","lat":43.24068,"lon":5.37763,"is_reserved":false,"is_disabled":true,"rental_uris":{"android":"levelo://app?vid=000e6ff6-c350-4ef7-a9f7-ea212475cdbd","ios":"levelo://app?vid=000e6ff6-c350-4ef7-a9f7-ea212475cdbd"},"vehicle_type_id":"4","last_reported":1741774229,"current_range_meters":1600,"station_id":"ce4bhnp2rcd13ifvqgvg","pricing_plan_id":"cebpf4jnsgd1na2vs0mg"},{"bike_id":"40d26d58-cfff-4e9d-8f43-6e6477981f85","system_id":"levelo_inurba_marseille","lat":43.26197,"lon":5.37928,"is_reserved":false,"is_disabled":true,"rental_uris":{"android":"levelo://app?vid=40d26d58-cfff-4e9d-8f43-6e6477981f85","ios":"levelo://app?vid=40d26d58-cfff-4e9d-8f43-6e6477981f85"},"vehicle_type_id":"4","last_reported":1741774229,"current_range_meters":2000,"station_id":"ce4bhjp2rcd13ifvqg90","pricing_plan_id":"cebpf4jnsgd1na2vs0mg"},{"bike_id":"aca9859b-2ce7-4155-a254-93b8c5bf64dc","system_id":"levelo_inurba_marseille","lat":43.270613,"lon":5.402582,"is_reserved":false,"is_disabled":true,"rental_uris":{"android":"levelo://app?vid=aca9859b-2ce7-4155-a254-93b8c5bf64dc","ios":"levelo://app?vid=aca9859b-2ce7-4155-a254-93b8c5bf64dc"},"vehicle_type_id":"4","last_reported":1741774229,"current_range_meters":2000,"station_id":"ce4bhk92rcd13ifvqgc0","pricing_plan_id":"cebpf4jnsgd1na2vs0mg"},{"bike_id":"9b4447de-b6c6-4967-bd1e-701e8b3c7110","system_id":"levelo_inurba_marseille","lat":43.2315,"lon":5.43719,"is_reserved":false,"is_disabled":true,"rental_uris":{"android":"levelo://app?vid=9b4447de-b6c6-4967-bd1e-701e8b3c7110","ios":"levelo://app?vid=9b4447de-b6c6-4967-bd1e-701e8b3c7110"},"vehicle_type_id":"4","last_reported":1741774229,"current_range_meters":2000,"station_id":"ce4bhmp2rcd13ifvqgog","pricing_plan_id":"cebpf4jnsgd1na2vs0mg"},{"bike_id":"e7c7aec0-1a43-473c-9ff4-8331e68fab97","system_id":"levelo_inurba_marseille","lat":43.250015,"lon":5.389115,"is_reserved":false,"is_disabled":false,"rental_uris":{"android":"levelo://app?vid=e7c7aec0-1a43-473c-9ff4-8331e68fab97","ios":"levelo://app?vid=e7c7aec0-1a43-473c-9ff4-8331e68fab97"},"vehicle_type_id":"4","last_reported":1741774229,"current_range_meters":2800,"station_id":"ce4bhgp2rcd13ifvqfd0","pricing_plan_id":"cebpf4jnsgd1na2vs0mg"},{"bike_id":"619eaf8d-a470-48f4-9860-b00c8a219dc6","system_id":"levelo_inurba_marseille","lat":43.29902,"lon":5.37467,"is_reserved":false,"is_disabled":false,"rental_uris":{"android":"levelo://app?vid=619eaf8d-a470-48f4-9860-b00c8a219dc6","ios":"levelo://app?vid=619eaf8d-a470-48f4-9860-b00c8a219dc6"},"vehicle_type_id":"4","last_reported":1741774229,"current_range_meters":3200,"station_id":"ce4bgjh2rcd13ifvqbg0","pricing_plan_id":"cebpf4jnsgd1na2vs0mg"},{"bike_id":"69240521-5c86-4da8-9d31-b38720cfb532","system_id":"levelo_inurba_marseille","lat":43.26222,"lon":5.40468,"is_reserved":false,"is_disabled":false,"rental_uris":{"android":"levelo://app?vid=69240521-5c86-4da8-9d31-b38720cfb532","ios":"levelo://app?vid=69240521-5c86-4da8-9d31-b38720cfb532"},"vehicle_type_id":"4","last_reported":1741774229,"current_range_meters":3200,"station_id":"ce4bhmh2rcd13ifvqgmg","pricing_plan_id":"cebpf4jnsgd1na2vs0mg"},{"bike_id":"dc42e161-3661-4fd6-b581-259d0f327bf6","system_id":"levelo_inurba_marseille","lat":43.2319,"lon":5.39976,"is_reserved":false,"is_disabled":false,"rental_uris":{"android":"levelo://app?vid=dc42e161-3661-4fd6-b581-259d0f327bf6","ios":"levelo://app?vid=dc42e161-3661-4fd6-b581-259d0f327bf6"},"vehicle_type_id":"4","last_reported":1741774229,"current_range_meters":3200,"station_id":"ce4bhn12rcd13ifvqgqg","pricing_plan_id":"cebpf4jnsgd1na2vs0mg"},{"bike_id":"6b42988a-de91-4a30-b407-bb1347588844","system_id":"levelo_inurba_marseille","lat":43.27829,"lon":5.40714,"is_reserved":false,"is_disabled":false,"rental_uris":{"android":"levelo://app?vid=6b42988a-de91-4a30-b407-bb1347588844","ios":"levelo://app?vid=6b42988a-de91-4a30-b407-bb1347588844"},"vehicle_type_id":"4","last_reported":1741774229,"current_range_meters":3600,"station_id":"ce4bhnh2rcd13ifvqgtg","pricing_plan_id":"cebpf4jnsgd1na2vs0mg"},{"bike_id":"c86d68f5-55ee-4a68-ba82-758fa1373f1d","system_id":"levelo_inurba_marseille","lat":43.31732,"lon":5.43696,"is_reserved":false,"is_disabled":false,"rental_uris":{"android":"levelo://app?vid=c86d68f5-55ee-4a68-ba82-758fa1373f1d","ios":"levelo://app?vid=c86d68f5-55ee-4a68-ba82-758fa1373f1d"},"vehicle_type_id":"4","last_reported":1741774229,"current_range_meters":3600,"station_id":"ce4bhp92rcd13ifvqhcg","pricing_plan_id":"cebpf4jnsgd1na2vs0mg"},{"bike_id":"848095da-7240-4b07-a607-3c081d58ff31","system_id":"levelo_inurba_marseille","lat":43.31371,"lon":5.38494,"is_reserved":false,"is_disabled":false,"rental_uris":{"android":"levelo://app?vid=848095da-7240-4b07-a607-3c081d58ff31","ios":"levelo://app?vid=848095da-7240-4b07-a607-3c081d58ff31"},"vehicle_type_id":"4","last_reported":1741774229,"current_range_meters":4000,"station_id":"ce4bgt92rcd13ifvqcf0","pricing_plan_id":"cebpf4jnsgd1na2vs0mg"},{"bike_id":"c5cbe863-e694-4ced-949c-0bb95a5deb66","system_id":"levelo_inurba_marseille","lat":43.23152,"lon":5.4371,"is_reserved":false,"is_disabled":false,"rental_uris":{"android":"levelo://app?vid=c5cbe863-e694-4ced-949c-0bb95a5deb66","ios":"levelo://app?vid=c5cbe863-e694-4ced-949c-0bb95a5deb66"},"vehicle_type_id":"4","last_reported":1741774229,"current_range_meters":4000,"station_id":"ce4bhmp2rcd13ifvqgog","pricing_plan_id":"cebpf4jnsgd1na2vs0mg"},{"bike_id":"014e2ee1-e2ad-4183-8990-f6d0afc15fd8","system_id":"levelo_inurba_marseille","lat":43.33027,"lon":5.39037,"is_reserved":false,"is_disabled":false,"rental_uris":{"android":"levelo://app?vid=014e2ee1-e2ad-4183-8990-f6d0afc15fd8","ios":"levelo://app?vid=014e2ee1-e2ad-4183-8990-f6d0afc15fd8"},"vehicle_type_id":"4","last_reported":1741774229,"current_range_meters":4000,"station_id":"ce4bhr92rcd13ifvqhrg","pricing_plan_id":"cebpf4jnsgd1na2vs0mg"},{"bike_id":"3ac71b9e-3b30-457c-8471-e3fc9cbb7fb6","system_id":"levelo_inurba_marseille","lat":43.27289,"lon":5.39115,"is_reserved":false,"is_disabled":false,"rental_uris":{"android":"levelo://app?vid=3ac71b9e-3b30-457c-8471-e3fc9cbb7fb6","ios":"levelo://app?vid=3ac71b9e-3b30-457c-8471-e3fc9cbb7fb6"},"vehicle_type_id":"4","last_reported":1741774229,"current_range_meters":4400,"station_id":"ce4bhgp2rcd13ifvqfe0","pricing_plan_id":"cebpf4jnsgd1na2vs0mg"},{"bike_id":"1cccf9ee-139c-4dc2-8dd0-ced14ebbe202","system_id":"levelo_inurba_marseille","lat":43.23956,"lon":5.36636,"is_reserved":false,"is_disabled":false,"rental_uris":{"android":"levelo://app?vid=1cccf9ee-139c-4dc2-8dd0-ced14ebbe202","ios":"levelo://app?vid=1cccf9ee-139c-4dc2-8dd0-ced14ebbe202"},"vehicle_type_id":"4","last_reported":1741774229,"current_range_meters":4400,"station_id":"ce4bhi12rcd13ifvqfp0","pricing_plan_id":"cebpf4jnsgd1na2vs0mg"},{"bike_id":"c834a232-20fe-4875-8d3e-915ad8df0460","system_id":"levelo_inurba_marseille","lat":43.28154,"lon":5.426412,"is_reserved":false,"is_disabled":false,"rental_uris":{"android":"levelo://app?vid=c834a232-20fe-4875-8d3e-915ad8df0460","ios":"levelo://app?vid=c834a232-20fe-4875-8d3e-915ad8df0460"},"vehicle_type_id":"4","last_reported":1741774229,"current_range_meters":4400,"station_id":"ce4bhnh2rcd13ifvqgug","pricing_plan_id":"cebpf4jnsgd1na2vs0mg"},{"bike_id":"09bbb690-af86-458c-bbad-70d10e2033ee","system_id":"levelo_inurba_marseille","lat":43.23053,"lon":5.35495,"is_reserved":false,"is_disabled":false,"rental_uris":{"android":"levelo://app?vid=09bbb690-af86-458c-bbad-70d10e2033ee","ios":"levelo://app?vid=09bbb690-af86-458c-bbad-70d10e2033ee"},"vehicle_type_id":"4","last_reported":1741774229,"current_range_meters":4800,"station_id":"cpo3342slgdg3j2ifvpg","pricing_plan_id":"cebpf4jnsgd1na2vs0mg"},{"bike_id":"cbd6f8ee-d91a-4c06-a50f-8aefa40d8ceb","system_id":"levelo_inurba_marseille","lat":43.29915,"lon":5.43679,"is_reserved":false,"is_disabled":false,"rental_uris":{"android":"levelo://app?vid=cbd6f8ee-d91a-4c06-a50f-8aefa40d8ceb","ios":"levelo://app?vid=cbd6f8ee-d91a-4c06-a50f-8aefa40d8ceb"},"vehicle_type_id":"4","last_reported":1741774229,"current_range_meters":5600,"station_id":"","pricing_plan_id":"cebpf4jnsgd1na2vs0mg"},{"bike_id":"bf2feb02-4272-4476-92f9-9420844c4078","system_id":"levelo_inurba_marseille","lat":43.31197,"lon":5.37672,"is_reserved":false,"is_disabled":false,"rental_uris":{"android":"levelo://app?vid=bf2feb02-4272-4476-92f9-9420844c4078","ios":"levelo://app?vid=bf2feb02-4272-4476-92f9-9420844c4078"},"vehicle_type_id":"4","last_reported":1741774229,"current_range_meters":5600,"station_id":"","pricing_plan_id":"cebpf4jnsgd1na2vs0mg"},{"bike_id":"80ac6dbc-8d5f-44e3-885f-bce839496e6b","system_id":"levelo_inurba_marseille","lat":43.29254,"lon":5.40908,"is_reserved":false,"is_disabled":false,"rental_uris":{"android":"levelo://app?vid=80ac6dbc-8d5f-44e3-885f-bce839496e6b","ios":"levelo://app?vid=80ac6dbc-8d5f-44e3-885f-bce839496e6b"},"vehicle_type_id":"4","last_reported":1741774229,"current_range_meters":5600,"station_id":"ce4bh192rcd13ifvqdc0","pricing_plan_id":"cebpf4jnsgd1na2vs0mg"},{"bike_id":"e4e7b0f4-be16-4e67-8045-462e24fe9df7","system_id":"levelo_inurba_marseille","lat":43.23151,"lon":5.43707,"is_reserved":false,"is_disabled":false,"rental_uris":{"android":"levelo://app?vid=e4e7b0f4-be16-4e67-8045-462e24fe9df7","ios":"levelo://app?vid=e4e7b0f4-be16-4e67-8045-462e24fe9df7"},"vehicle_type_id":"4","last_reported":1741774229,"current_range_meters":6000,"station_id":"ce4bhmp2rcd13ifvqgog","pricing_plan_id":"cebpf4jnsgd1na2vs0mg"},{"bike_id":"d3acab28-3125-4afa-b5eb-02e807f46858","system_id":"levelo_inurba_marseille","lat":43.24178,"lon":5.3973,"is_reserved":false,"is_disabled":false,"rental_uris":{"android":"levelo://app?vid=d3acab28-3125-4afa-b5eb-02e807f46858","ios":"levelo://app?vid=d3acab28-3125-4afa-b5eb-02e807f46858"},"vehicle_type_id":"4","last_reported":1741774229,"current_range_meters":6000,"station_id":"ce4bhn12rcd13ifvqgpg","pricing_plan_id":"cebpf4jnsgd1na2vs0mg"},{"bike_id":"80771939-f406-42f7-81c5-33180fd8a338","system_id":"levelo_inurba_marseille","lat":43.231949,"lon":5.355543,"is_reserved":false,"is_disabled":false,"rental_uris":{"android":"levelo://app?vid=80771939-f406-42f7-81c5-33180fd8a338","ios":"levelo://app?vid=80771939-f406-42f7-81c5-33180fd8a338"},"vehicle_type_id":"4","last_reported":1741774229,"current_range_meters":6000,"station_id":"ce4bhu92rcd13ifvqi70","pricing_plan_id":"cebpf4jnsgd1na2vs0mg"},{"bike_id":"472fc3c9-ff81-4115-97ad-d3af3a7c64d6","system_id":"levelo_inurba_marseille","lat":43.27215,"lon":5.41002,"is_reserved":false,"is_disabled":false,"rental_uris":{"android":"levelo://app?vid=472fc3c9-ff81-4115-97ad-d3af3a7c64d6","ios":"levelo://app?vid=472fc3c9-ff81-4115-97ad-d3af3a7c64d6"},"vehicle_type_id":"4","last_reported":1741774229,"current_range_meters":6400,"station_id":"ce4bhl12rcd13ifvqgf0","pricing_plan_id":"cebpf4jnsgd1na2vs0mg"},{"bike_id":"9b8580bc-ae0f-4f8a-90a3-feb852a37ce9","system_id":"levelo_inurba_marseille","lat":43.3108,"lon":5.42431,"is_reserved":false,"is_disabled":false,"rental_uris":{"android":"levelo://app?vid=9b8580bc-ae0f-4f8a-90a3-feb852a37ce9","ios":"levelo://app?vid=9b8580bc-ae0f-4f8a-90a3-feb852a37ce9"},"vehicle_type_id":"4","last_reported":1741774229,"current_range_meters":6400,"station_id":"ce4bhp92rcd13ifvqhag","pricing_plan_id":"cebpf4jnsgd1na2vs0mg"},{"bike_id":"62d9fb39-b2d8-4c58-88bd-f5d77d8cfe03","system_id":"levelo_inurba_marseille","lat":43.27943,"lon":5.41048,"is_reserved":false,"is_disabled":false,"rental_uris":{"android":"levelo://app?vid=62d9fb39-b2d8-4c58-88bd-f5d77d8cfe03","ios":"levelo://app?vid=62d9fb39-b2d8-4c58-88bd-f5d77d8cfe03"},"vehicle_type_id":"4","last_reported":1741774229,"current_range_meters":6800,"station_id":"ce4bhnp2rcd13ifvqh0g","pricing_plan_id":"cebpf4jnsgd1na2vs0mg"},{"bike_id":"cec6458d-2bf5-4cc3-b72a-8930c855e1a8","system_id":"levelo_inurba_marseille","lat":43.31101,"lon":5.42424,"is_reserved":false,"is_disabled":false,"rental_uris":{"android":"levelo://app?vid=cec6458d-2bf5-4cc3-b72a-8930c855e1a8","ios":"levelo://app?vid=cec6458d-2bf5-4cc3-b72a-8930c855e1a8"},"vehicle_type_id":"4","last_reported":1741774229,"current_range_meters":6800,"station_id":"ce4bhp92rcd13ifvqhag","pricing_plan_id":"cebpf4jnsgd1na2vs0mg"},{"bike_id":"c19d0ab6-a138-4b94-a125-c068cc0eb3fc","system_id":"levelo_inurba_marseille","lat":43.32655,"lon":5.40997,"is_reserved":false,"is_disabled":false,"rental_uris":{"android":"levelo://app?vid=c19d0ab6-a138-4b94-a125-c068cc0eb3fc","ios":"levelo://app?vid=c19d0ab6-a138-4b94-a125-c068cc0eb3fc"},"vehicle_type_id":"4","last_reported":1741774229,"current_range_meters":6800,"station_id":"ce4bhpp2rcd13ifvqhgg","pricing_plan_id":"cebpf4jnsgd1na2vs0mg"},{"bike_id":"c835eee2-01bf-4ff1-a164-4c90e0a065d9","system_id":"levelo_inurba_marseille","lat":43.25004,"lon":5.38931,"is_reserved":false,"is_disabled":false,"rental_uris":{"android":"levelo://app?vid=c835eee2-01bf-4ff1-a164-4c90e0a065d9","ios":"levelo://app?vid=c835eee2-01bf-4ff1-a164-4c90e0a065d9"},"vehicle_type_id":"4","last_reported":1741774229,"current_range_meters":7200,"station_id":"ce4bhgp2rcd13ifvqfd0","pricing_plan_id":"cebpf4jnsgd1na2vs0mg"},{"bike_id":"4004cd83-7832-479a-b42c-67f973543029","system_id":"levelo_inurba_marseille","lat":43.25729,"lon":5.41104,"is_reserved":false,"is_disabled":false,"rental_uris":{"android":"levelo://app?vid=4004cd83-7832-479a-b42c-67f973543029","ios":"levelo://app?vid=4004cd83-7832-479a-b42c-67f973543029"},"vehicle_type_id":"4","last_reported":1741774229,"current_range_meters":7200,"station_id":"ce4bhkp2rcd13ifvqgd0","pricing_plan_id":"cebpf4jnsgd1na2vs0mg"},{"bike_id":"a93065ac-3cfc-483a-8856-6ac97fb9a0cf","system_id":"levelo_inurba_marseille","lat":43.25728,"lon":5.41108,"is_reserved":false,"is_disabled":false,"rental_uris":{"android":"levelo://app?vid=a93065ac-3cfc-483a-8856-6ac97fb9a0cf","ios":"levelo://app?vid=a93065ac-3cfc-483a-8856-6ac97fb9a0cf"},"vehicle_type_id":"4","last_reported":1741774229,"current_range_meters":7200,"station_id":"ce4bhkp2rcd13ifvqgd0","pricing_plan_id":"cebpf4jnsgd1na2vs0mg"},{"bike_id":"7270e3a1-ea48-45d4-aa0e-e1bb1295c598","system_id":"levelo_inurba_marseille","lat":43.2456,"lon":5.395397,"is_reserved":false,"is_disabled":false,"rental_uris":{"android":"levelo://app?vid=7270e3a1-ea48-45d4-aa0e-e1bb1295c598","ios":"levelo://app?vid=7270e3a1-ea48-45d4-aa0e-e1bb1295c598"},"vehicle_type_id":"4","last_reported":1741774229,"current_range_meters":7200,"station_id":"ce4bhlp2rcd13ifvqgjg","pricing_plan_id":"cebpf4jnsgd1na2vs0mg"},{"bike_id":"05388ace-665a-4114-a828-939b708a2589","system_id":"levelo_inurba_marseille","lat":43.23208,"lon":5.39979,"is_reserved":false,"is_disabled":false,"rental_uris":{"android":"levelo://app?vid=05388ace-665a-4114-a828-939b708a2589","ios":"levelo://app?vid=05388ace-665a-4114-a828-939b708a2589"},"vehicle_type_id":"4","last_reported":1741774229,"current_range_meters":7200,"station_id":"ce4bhn12rcd13ifvqgqg","pricing_plan_id":"cebpf4jnsgd1na2vs0mg"},{"bike_id":"9b75f73b-4e4f-4d50-8655-4ca7749a5646","system_id":"levelo_inurba_marseille","lat":43.27836,"lon":5.40713,"is_reserved":false,"is_disabled":false,"rental_uris":{"android":"levelo://app?vid=9b75f73b-4e4f-4d50-8655-4ca7749a5646","ios":"levelo://app?vid=9b75f73b-4e4f-4d50-8655-4ca7749a5646"},"vehicle_type_id":"4","last_reported":1741774229,"current_range_meters":7200,"station_id":"ce4bhnh2rcd13ifvqgtg","pricing_plan_id":"cebpf4jnsgd1na2vs0mg"},{"bike_id":"58d1b5b3-d322-4418-97d0-3066ec3d9afc","system_id":"levelo_inurba_marseille","lat":43.23192,"lon":5.35542,"is_reserved":false,"is_disabled":false,"rental_uris":{"android":"levelo://app?vid=58d1b5b3-d322-4418-97d0-3066ec3d9afc","ios":"levelo://app?vid=58d1b5b3-d322-4418-97d0-3066ec3d9afc"},"vehicle_type_id":"4","last_reported":1741774229,"current_range_meters":7200,"station_id":"ce4bhu92rcd13ifvqi70","pricing_plan_id":"cebpf4jnsgd1na2vs0mg"},{"bike_id":"241d79a7-8164-4ee5-8d3f-2565e2e0b3e8","system_id":"levelo_inurba_marseille","lat":43.31381,"lon":5.3798,"is_reserved":false,"is_disabled":false,"rental_uris":{"android":"levelo://app?vid=241d79a7-8164-4ee5-8d3f-2565e2e0b3e8","ios":"levelo://app?vid=241d79a7-8164-4ee5-8d3f-2565e2e0b3e8"},"vehicle_type_id":"4","last_reported":1741774229,"current_range_meters":8000,"station_id":"","pricing_plan_id":"cebpf4jnsgd1na2vs0mg"},{"bike_id":"512c4bea-01ec-4a77-9442-bae8cc15ba12","system_id":"levelo_inurba_marseille","lat":43.26063,"lon":5.39398,"is_reserved":false,"is_disabled":false,"rental_uris":{"android":"levelo://app?vid=512c4bea-01ec-4a77-9442-bae8cc15ba12","ios":"levelo://app?vid=512c4bea-01ec-4a77-9442-bae8cc15ba12"},"vehicle_type_id":"4","last_reported":1741774229,"current_range_meters":8000,"station_id":"ce4bhh92rcd13ifvqfj0","pricing_plan_id":"cebpf4jnsgd1na2vs0mg"},{"bike_id":"6041dd02-f8d6-466f-8b31-ac472776911f","system_id":"levelo_inurba_marseille","lat":43.25576,"lon":5.38238,"is_reserved":false,"is_disabled":false,"rental_uris":{"android":"levelo://app?vid=6041dd02-f8d6-466f-8b31-ac472776911f","ios":"levelo://app?vid=6041dd02-f8d6-466f-8b31-ac472776911f"},"vehicle_type_id":"4","last_reported":1741774229,"current_range_meters":8000,"station_id":"ce4bhih2rcd13ifvqfs0","pricing_plan_id":"cebpf4jnsgd1na2vs0mg"},{"bike_id":"95223a53-3307-4504-b446-fb5b353d6ac7","system_id":"levelo_inurba_marseille","lat":43.25935,"lon":5.4092,"is_reserved":false,"is_disabled":false,"rental_uris":{"android":"levelo://app?vid=95223a53-3307-4504-b446-fb5b353d6ac7","ios":"levelo://app?vid=95223a53-3307-4504-b446-fb5b353d6ac7"},"vehicle_type_id":"4","last_reported":1741774229,"current_range_meters":8000,"station_id":"ce4bhm92rcd13ifvqglg","pricing_plan_id":"cebpf4jnsgd1na2vs0mg"},{"bike_id":"f640465e-8c9e-425a-8e36-08d8d5201bf6","system_id":"levelo_inurba_marseille","lat":43.23201,"lon":5.35552,"is_reserved":false,"is_disabled":false,"rental_uris":{"android":"levelo://app?vid=f640465e-8c9e-425a-8e36-08d8d5201bf6","ios":"levelo://app?vid=f640465e-8c9e-425a-8e36-08d8d5201bf6"},"vehicle_type_id":"4","last_reported":1741774229,"current_range_meters":8000,"station_id":"ce4bhu92rcd13ifvqi70","pricing_plan_id":"cebpf4jnsgd1na2vs0mg"},{"bike_id":"cdf9beef-4845-4152-bde7-51865a27faa4","system_id":"levelo_inurba_marseille","lat":43.27421,"lon":5.39418,"is_reserved":false,"is_disabled":false,"rental_uris":{"android":"levelo://app?vid=cdf9beef-4845-4152-bde7-51865a27faa4","ios":"levelo://app?vid=cdf9beef-4845-4152-bde7-51865a27faa4"},"vehicle_type_id":"4","last_reported":1741774229,"current_range_meters":8400,"station_id":"ce4bhdp2rcd13ifvqf20","pricing_plan_id":"cebpf4jnsgd1na2vs0mg"},{"bike_id":"9586252d-cc3c-44ce-ad1f-1491be69b7a0","system_id":"levelo_inurba_marseille","lat":43.26938,"lon":5.38645,"is_reserved":false,"is_disabled":false,"rental_uris":{"android":"levelo://app?vid=9586252d-cc3c-44ce-ad1f-1491be69b7a0","ios":"levelo://app?vid=9586252d-cc3c-44ce-ad1f-1491be69b7a0"},"vehicle_type_id":"4","last_reported":1741774229,"current_range_meters":8400,"station_id":"ce4bhh92rcd13ifvqfh0","pricing_plan_id":"cebpf4jnsgd1na2vs0mg"},{"bike_id":"9acab34d-76c9-4fd5-bed6-0265a89df8bb","system_id":"levelo_inurba_marseille","lat":43.25745,"lon":5.41073,"is_reserved":false,"is_disabled":false,"rental_uris":{"android":"levelo://app?vid=9acab34d-76c9-4fd5-bed6-0265a89df8bb","ios":"levelo://app?vid=9acab34d-76c9-4fd5-bed6-0265a89df8bb"},"vehicle_type_id":"4","last_reported":1741774229,"current_range_meters":8400,"station_id":"ce4bhkp2rcd13ifvqgd0","pricing_plan_id":"cebpf4jnsgd1na2vs0mg"},{"bike_id":"b9240381-73fa-4e41-88b7-ade9a83b5ed8","system_id":"levelo_inurba_marseille","lat":43.26211,"lon":5.40567,"is_reserved":false,"is_disabled":false,"rental_uris":{"android":"levelo://app?vid=b9240381-73fa-4e41-88b7-ade9a83b5ed8","ios":"levelo://app?vid=b9240381-73fa-4e41-88b7-ade9a83b5ed8"},"vehicle_type_id":"4","last_reported":1741774229,"current_range_meters":8400,"station_id":"ce4bhmh2rcd13ifvqgmg","pricing_plan_id":"cebpf4jnsgd1na2vs0mg"},{"bike_id":"29dcf4e5-3fc4-4240-b459-5be7b3d8998f","system_id":"levelo_inurba_marseille","lat":43.33596,"lon":5.41008,"is_reserved":false,"is_disabled":false,"rental_uris":{"android":"levelo://app?vid=29dcf4e5-3fc4-4240-b459-5be7b3d8998f","ios":"levelo://app?vid=29dcf4e5-3fc4-4240-b459-5be7b3d8998f"},"vehicle_type_id":"4","last_reported":1741774229,"current_range_meters":8400,"station_id":"ce4bhqh2rcd13ifvqhmg","pricing_plan_id":"cebpf4jnsgd1na2vs0mg"},{"bike_id":"415e7a31-245d-4ead-9f33-dad092a04302","system_id":"levelo_inurba_marseille","lat":43.23069,"lon":5.35505,"is_reserved":false,"is_disabled":false,"rental_uris":{"android":"levelo://app?vid=415e7a31-245d-4ead-9f33-dad092a04302","ios":"levelo://app?vid=415e7a31-245d-4ead-9f33-dad092a04302"},"vehicle_type_id":"4","last_reported":1741774229,"current_range_meters":8400,"station_id":"cpo3342slgdg3j2ifvpg","pricing_plan_id":"cebpf4jnsgd1na2vs0mg"},{"bike_id":"11c24442-d3d4-44e2-83f2-a582833bc597","system_id":"levelo_inurba_marseille","lat":43.29611,"lon":5.3773,"is_reserved":false,"is_disabled":false,"rental_uris":{"android":"levelo://app?vid=11c24442-d3d4-44e2-83f2-a582833bc597","ios":"levelo://app?vid=11c24442-d3d4-44e2-83f2-a582833bc597"},"vehicle_type_id":"4","last_reported":1741774229,"current_range_meters":8800,"station_id":"ce4bgi92rcd13ifvqb90","pricing_plan_id":"cebpf4jnsgd1na2vs0mg"},{"bike_id":"e0882758-540a-4ac9-8b1c-c6cbff85ff33","system_id":"levelo_inurba_marseille","lat":43.29888,"lon":5.3975,"is_reserved":false,"is_disabled":false,"rental_uris":{"android":"levelo://app?vid=e0882758-540a-4ac9-8b1c-c6cbff85ff33","ios":"levelo://app?vid=e0882758-540a-4ac9-8b1c-c6cbff85ff33"},"vehicle_type_id":"4","last_reported":1741774229,"current_range_meters":8800,"station_id":"ce4bh0h2rcd13ifvqd50","pricing_plan_id":"cebpf4jnsgd1na2vs0mg"},{"bike_id":"36c0f2a9-e368-4df6-8b15-c402245e658c","system_id":"levelo_inurba_marseille","lat":43.28397,"lon":5.3842,"is_reserved":false,"is_disabled":false,"rental_uris":{"android":"levelo://app?vid=36c0f2a9-e368-4df6-8b15-c402245e658c","ios":"levelo://app?vid=36c0f2a9-e368-4df6-8b15-c402245e658c"},"vehicle_type_id":"4","last_reported":1741774229,"current_range_meters":8800,"station_id":"ce4bhi12rcd13ifvqfo0","pricing_plan_id":"cebpf4jnsgd1na2vs0mg"},{"bike_id":"1b149b4e-6cd5-4296-b92f-c5d69438443b","system_id":"levelo_inurba_marseille","lat":43.2314,"lon":5.43719,"is_reserved":false,"is_disabled":false,"rental_uris":{"android":"levelo://app?vid=1b149b4e-6cd5-4296-b92f-c5d69438443b","ios":"levelo://app?vid=1b149b4e-6cd5-4296-b92f-c5d69438443b"},"vehicle_type_id":"4","last_reported":1741774229,"current_range_meters":8800,"station_id":"ce4bhmp2rcd13ifvqgog","pricing_plan_id":"cebpf4jnsgd1na2vs0mg"},{"bike_id":"597b7045-4a14-4779-9805-a2b714a218a4","system_id":"levelo_inurba_marseille","lat":43.24549,"lon":5.37321,"is_reserved":false,"is_disabled":false,"rental_uris":{"android":"levelo://app?vid=597b7045-4a14-4779-9805-a2b714a218a4","ios":"levelo://app?vid=597b7045-4a14-4779-9805-a2b714a218a4"},"vehicle_type_id":"4","last_reported":1741774229,"current_range_meters":8800,"station_id":"cpo3532slgdg3j2ikp40","pricing_plan_id":"cebpf4jnsgd1na2vs0mg"},{"bike_id":"47fa1a31-5bb3-4522-abd9-b87b4a821178","system_id":"levelo_inurba_marseille","lat":43.278209,"lon":5.407135,"is_reserved":false,"is_disabled":false,"rental_uris":{"android":"levelo://app?vid=47fa1a31-5bb3-4522-abd9-b87b4a821178","ios":"levelo://app?vid=47fa1a31-5bb3-4522-abd9-b87b4a821178"},"vehicle_type_id":"4","last_reported":1741774229,"current_range_meters":9200,"station_id":"","pricing_plan_id":"cebpf4jnsgd1na2vs0mg"},{"bike_id":"453f5d19-0c6d-4feb-923e-26ac1adaeb34","system_id":"levelo_inurba_marseille","lat":43.30563,"lon":5.36703,"is_reserved":false,"is_disabled":false,"rental_uris":{"android":"levelo://app?vid=453f5d19-0c6d-4feb-923e-26ac1adaeb34","ios":"levelo://app?vid=453f5d19-0c6d-4feb-923e-26ac1adaeb34"},"vehicle_type_id":"4","last_reported":1741774229,"current_range_meters":9200,"station_id":"ce4bgrp2rcd13ifvqc9g","pricing_plan_id":"cebpf4jnsgd1na2vs0mg"},{"bike_id":"e684ff0d-ffbb-4303-9c2e-1cebf7f952f3","system_id":"levelo_inurba_marseille","lat":43.26545,"lon":5.39041,"is_reserved":false,"is_disabled":false,"rental_uris":{"android":"levelo://app?vid=e684ff0d-ffbb-4303-9c2e-1cebf7f952f3","ios":"levelo://app?vid=e684ff0d-ffbb-4303-9c2e-1cebf7f952f3"},"vehicle_type_id":"4","last_reported":1741774229,"current_range_meters":9200,"station_id":"ce4bhe12rcd13ifvqf30","pricing_plan_id":"cebpf4jnsgd1na2vs0mg"},{"bike_id":"0117055b-abaa-4782-a83e-c23d24cb8a2e","system_id":"levelo_inurba_marseille","lat":43.24641,"lon":5.38903,"is_reserved":false,"is_disabled":false,"rental_uris":{"android":"levelo://app?vid=0117055b-abaa-4782-a83e-c23d24cb8a2e","ios":"levelo://app?vid=0117055b-abaa-4782-a83e-c23d24cb8a2e"},"vehicle_type_id":"4","last_reported":1741774229,"current_range_meters":9200,"station_id":"ce4bhg12rcd13ifvqf60","pricing_plan_id":"cebpf4jnsgd1na2vs0mg"},{"bike_id":"ec8d0a32-a001-4cb1-a65c-a1e344565ea8","system_id":"levelo_inurba_marseille","lat":43.2721,"lon":5.39179,"is_reserved":false,"is_disabled":false,"rental_uris":{"android":"levelo://app?vid=ec8d0a32-a001-4cb1-a65c-a1e344565ea8","ios":"levelo://app?vid=ec8d0a32-a001-4cb1-a65c-a1e344565ea8"},"vehicle_type_id":"4","last_reported":1741774229,"current_range_meters":9200,"station_id":"ce4bhhp2rcd13ifvqfm0","pricing_plan_id":"cebpf4jnsgd1na2vs0mg"},{"bike_id":"8dabc24d-4dcb-4954-9ea5-584f283fee4d","system_id":"levelo_inurba_marseille","lat":43.25934,"lon":5.40904,"is_reserved":false,"is_disabled":false,"rental_uris":{"android":"levelo://app?vid=8dabc24d-4dcb-4954-9ea5-584f283fee4d","ios":"levelo://app?vid=8dabc24d-4dcb-4954-9ea5-584f283fee4d"},"vehicle_type_id":"4","last_reported":1741774229,"current_range_meters":9200,"station_id":"ce4bhm92rcd13ifvqglg","pricing_plan_id":"cebpf4jnsgd1na2vs0mg"},{"bike_id":"c1fdf776-5ff6-4f38-96ad-d3bee4a7cebb","system_id":"levelo_inurba_marseille","lat":43.23135,"lon":5.43724,"is_reserved":false,"is_disabled":false,"rental_uris":{"android":"levelo://app?vid=c1fdf776-5ff6-4f38-96ad-d3bee4a7cebb","ios":"levelo://app?vid=c1fdf776-5ff6-4f38-96ad-d3bee4a7cebb"},"vehicle_type_id":"4","last_reported":1741774229,"current_range_meters":9200,"station_id":"ce4bhmp2rcd13ifvqgog","pricing_plan_id":"cebpf4jnsgd1na2vs0mg"},{"bike_id":"1e383331-4cf9-4f27-840c-e013f13c25d8","system_id":"levelo_inurba_marseille","lat":43.23183,"lon":5.39979,"is_reserved":false,"is_disabled":false,"rental_uris":{"android":"levelo://app?vid=1e383331-4cf9-4f27-840c-e013f13c25d8","ios":"levelo://app?vid=1e383331-4cf9-4f27-840c-e013f13c25d8"},"vehicle_type_id":"4","last_reported":1741774229,"current_range_meters":9200,"station_id":"ce4bhn12rcd13ifvqgqg","pricing_plan_id":"cebpf4jnsgd1na2vs0mg"},{"bike_id":"bfb303be-f685-4369-b8d4-088ff71ab5c6","system_id":"levelo_inurba_marseille","lat":43.2749,"lon":5.4245,"is_reserved":false,"is_disabled":false,"rental_uris":{"android":"levelo://app?vid=bfb303be-f685-4369-b8d4-088ff71ab5c6","ios":"levelo://app?vid=bfb303be-f685-4369-b8d4-088ff71ab5c6"},"vehicle_type_id":"4","last_reported":1741774229,"current_range_meters":9200,"station_id":"ce4bhn92rcd13ifvqgrg","pricing_plan_id":"cebpf4jnsgd1na2vs0mg"},{"bike_id":"2931d81f-abb3-45b8-9224-dc3fce2fae31","system_id":"levelo_inurba_marseille","lat":43.32368,"lon":5.36726,"is_reserved":false,"is_disabled":false,"rental_uris":{"android":"levelo://app?vid=2931d81f-abb3-45b8-9224-dc3fce2fae31","ios":"levelo://app?vid=2931d81f-abb3-45b8-9224-dc3fce2fae31"},"vehicle_type_id":"4","last_reported":1741774229,"current_range_meters":9200,"station_id":"ce4bhsh2rcd13ifvqi2g","pricing_plan_id":"cebpf4jnsgd1na2vs0mg"},{"bike_id":"9294a26b-c088-4208-917f-c73e3c4f5f46","system_id":"levelo_inurba_marseille","lat":43.3038,"lon":5.40766,"is_reserved":false,"is_disabled":false,"rental_uris":{"android":"levelo://app?vid=9294a26b-c088-4208-917f-c73e3c4f5f46","ios":"levelo://app?vid=9294a26b-c088-4208-917f-c73e3c4f5f46"},"vehicle_type_id":"4","last_reported":1741774229,"current_range_meters":9600,"station_id":"","pricing_plan_id":"cebpf4jnsgd1na2vs0mg"},{"bike_id":"6216841f-c9be-4e6e-bcf4-810c7dd12453","system_id":"levelo_inurba_marseille","lat":43.31206,"lon":5.36852,"is_reserved":false,"is_disabled":false,"rental_uris":{"android":"levelo://app?vid=6216841f-c9be-4e6e-bcf4-810c7dd12453","ios":"levelo://app?vid=6216841f-c9be-4e6e-bcf4-810c7dd12453"},"vehicle_type_id":"4","last_reported":1741774229,"current_range_meters":9600,"station_id":"","pricing_plan_id":"cebpf4jnsgd1na2vs0mg"},{"bike_id":"22413359-ea0d-4b90-a2ab-0f1862c88b47","system_id":"levelo_inurba_marseille","lat":43.29377,"lon":5.37853,"is_reserved":false,"is_disabled":false,"rental_uris":{"android":"levelo://app?vid=22413359-ea0d-4b90-a2ab-0f1862c88b47","ios":"levelo://app?vid=22413359-ea0d-4b90-a2ab-0f1862c88b47"},"vehicle_type_id":"4","last_reported":1741774229,"current_range_meters":9600,"station_id":"ce4bgjh2rcd13ifvqbf0","pricing_plan_id":"cebpf4jnsgd1na2vs0mg"},{"bike_id":"1ceb0c7c-13b7-49ba-8490-ff3ce9a665a4","system_id":"levelo_inurba_marseille","lat":43.29041,"lon":5.35906,"is_reserved":false,"is_disabled":false,"rental_uris":{"android":"levelo://app?vid=1ceb0c7c-13b7-49ba-8490-ff3ce9a665a4","ios":"levelo://app?vid=1ceb0c7c-13b7-49ba-8490-ff3ce9a665a4"},"vehicle_type_id":"4","last_reported":1741774229,"current_range_meters":9600,"station_id":"ce4bha92rcd13ifvqeg0","pricing_plan_id":"cebpf4jnsgd1na2vs0mg"},{"bike_id":"511a478b-16c6-4549-a89d-177a4b1ec633","system_id":"levelo_inurba_marseille","lat":43.26567,"lon":5.37283,"is_reserved":false,"is_disabled":false,"rental_uris":{"android":"levelo://app?vid=511a478b-16c6-4549-a89d-177a4b1ec633","ios":"levelo://app?vid=511a478b-16c6-4549-a89d-177a4b1ec633"},"vehicle_type_id":"4","last_reported":1741774229,"current_range_meters":9600,"station_id":"ce4bhg12rcd13ifvqf70","pricing_plan_id":"cebpf4jnsgd1na2vs0mg"},{"bike_id":"82512acd-d4a4-4e69-ad68-d5bb4078ae7a","system_id":"levelo_inurba_marseille","lat":43.23965,"lon":5.366346,"is_reserved":false,"is_disabled":false,"rental_uris":{"android":"levelo://app?vid=82512acd-d4a4-4e69-ad68-d5bb4078ae7a","ios":"levelo://app?vid=82512acd-d4a4-4e69-ad68-d5bb4078ae7a"},"vehicle_type_id":"4","last_reported":1741774229,"current_range_meters":9600,"station_id":"ce4bhi12rcd13ifvqfp0","pricing_plan_id":"cebpf4jnsgd1na2vs0mg"},{"bike_id":"0159053d-2507-4fc3-b43b-5586ac27b74e","system_id":"levelo_inurba_marseille","lat":43.24661,"lon":5.38162,"is_reserved":false,"is_disabled":false,"rental_uris":{"android":"levelo://app?vid=0159053d-2507-4fc3-b43b-5586ac27b74e","ios":"levelo://app?vid=0159053d-2507-4fc3-b43b-5586ac27b74e"},"vehicle_type_id":"4","last_reported":1741774229,"current_range_meters":9600,"station_id":"ce4bhih2rcd13ifvqfr0","pricing_plan_id":"cebpf4jnsgd1na2vs0mg"},{"bike_id":"9776d519-3376-4f51-aaa3-2da63911d7cc","system_id":"levelo_inurba_marseille","lat":43.25091,"lon":5.39518,"is_reserved":false,"is_disabled":false,"rental_uris":{"android":"levelo://app?vid=9776d519-3376-4f51-aaa3-2da63911d7cc","ios":"levelo://app?vid=9776d519-3376-4f51-aaa3-2da63911d7cc"},"vehicle_type_id":"4","last_reported":1741774229,"current_range_meters":9600,"station_id":"ce4bhm12rcd13ifvqgkg","pricing_plan_id":"cebpf4jnsgd1na2vs0mg"},{"bike_id":"8dee66dd-a753-4e90-9df0-a75f60b0d66f","system_id":"levelo_inurba_marseille","lat":43.28574,"lon":5.42488,"is_reserved":false,"is_disabled":false,"rental_uris":{"android":"levelo://app?vid=8dee66dd-a753-4e90-9df0-a75f60b0d66f","ios":"levelo://app?vid=8dee66dd-a753-4e90-9df0-a75f60b0d66f"},"vehicle_type_id":"4","last_reported":1741774229,"current_range_meters":10000,"station_id":"","pricing_plan_id":"cebpf4jnsgd1na2vs0mg"},{"bike_id":"93c0a374-f3dc-4a32-bce7-697e8f38766c","system_id":"levelo_inurba_marseille","lat":43.30313,"lon":5.36903,"is_reserved":false,"is_disabled":false,"rental_uris":{"android":"levelo://app?vid=93c0a374-f3dc-4a32-bce7-697e8f38766c","ios":"levelo://app?vid=93c0a374-f3dc-4a32-bce7-697e8f38766c"},"vehicle_type_id":"4","last_reported":1741774229,"current_range_meters":10000,"station_id":"ce4bgqh2rcd13ifvqc5g","pricing_plan_id":"cebpf4jnsgd1na2vs0mg"},{"bike_id":"447166a1-bb31-4c42-8f9a-7cb2052fe7e5","system_id":"levelo_inurba_marseille","lat":43.30317,"lon":5.36903,"is_reserved":false,"is_disabled":false,"rental_uris":{"android":"levelo://app?vid=447166a1-bb31-4c42-8f9a-7cb2052fe7e5","ios":"levelo://app?vid=447166a1-bb31-4c42-8f9a-7cb2052fe7e5"},"vehicle_type_id":"4","last_reported":1741774229,"current_range_meters":10000,"station_id":"ce4bgqh2rcd13ifvqc5g","pricing_plan_id":"cebpf4jnsgd1na2vs0mg"},{"bike_id":"35e1c8de-568f-4d43-8c4f-5ad221c99a90","system_id":"levelo_inurba_marseille","lat":43.3021,"lon":5.36613,"is_reserved":false,"is_disabled":false,"rental_uris":{"android":"levelo://app?vid=35e1c8de-568f-4d43-8c4f-5ad221c99a90","ios":"levelo://app?vid=35e1c8de-568f-4d43-8c4f-5ad221c99a90"},"vehicle_type_id":"4","last_reported":1741774229,"current_range_meters":10000,"station_id":"ce4bgrh2rcd13ifvqc8g","pricing_plan_id":"cebpf4jnsgd1na2vs0mg"},{"bike_id":"badb022f-f212-4f69-9649-8667236a71cb","system_id":"levelo_inurba_marseille","lat":43.29265,"lon":5.38434,"is_reserved":false,"is_disabled":false,"rental_uris":{"android":"levelo://app?vid=badb022f-f212-4f69-9649-8667236a71cb","ios":"levelo://app?vid=badb022f-f212-4f69-9649-8667236a71cb"},"vehicle_type_id":"4","last_reported":1741774229,"current_range_meters":10000,"station_id":"ce4bh692rcd13ifvqea0","pricing_plan_id":"cebpf4jnsgd1na2vs0mg"},{"bike_id":"5da7ff58-d991-4e12-8ed4-64d2281f7e5d","system_id":"levelo_inurba_marseille","lat":43.29174,"lon":5.35806,"is_reserved":false,"is_disabled":false,"rental_uris":{"android":"levelo://app?vid=5da7ff58-d991-4e12-8ed4-64d2281f7e5d","ios":"levelo://app?vid=5da7ff58-d991-4e12-8ed4-64d2281f7e5d"},"vehicle_type_id":"4","last_reported":1741774229,"current_range_meters":10000,"station_id":"ce4bhb12rcd13ifvqel0","pricing_plan_id":"cebpf4jnsgd1na2vs0mg"},{"bike_id":"13038f8e-ae85-4d9c-ac24-31f2124a973b","system_id":"levelo_inurba_marseille","lat":43.24647,"lon":5.38914,"is_reserved":false,"is_disabled":false,"rental_uris":{"android":"levelo://app?vid=13038f8e-ae85-4d9c-ac24-31f2124a973b","ios":"levelo://app?vid=13038f8e-ae85-4d9c-ac24-31f2124a973b"},"vehicle_type_id":"4","last_reported":1741774229,"current_range_meters":10000,"station_id":"ce4bhg12rcd13ifvqf60","pricing_plan_id":"cebpf4jnsgd1na2vs0mg"},{"bike_id":"ba18639b-98cc-4ab3-ad63-4ac259cc4916","system_id":"levelo_inurba_marseille","lat":43.23966,"lon":5.36631,"is_reserved":false,"is_disabled":false,"rental_uris":{"android":"levelo://app?vid=ba18639b-98cc-4ab3-ad63-4ac259cc4916","ios":"levelo://app?vid=ba18639b-98cc-4ab3-ad63-4ac259cc4916"},"vehicle_type_id":"4","last_reported":1741774229,"current_range_meters":10000,"station_id":"ce4bhi12rcd13ifvqfp0","pricing_plan_id":"cebpf4jnsgd1na2vs0mg"},{"bike_id":"f829a819-671e-4b71-9c22-56c5f8047725","system_id":"levelo_inurba_marseille","lat":43.323581,"lon":5.367669,"is_reserved":false,"is_disabled":false,"rental_uris":{"android":"levelo://app?vid=f829a819-671e-4b71-9c22-56c5f8047725","ios":"levelo://app?vid=f829a819-671e-4b71-9c22-56c5f8047725"},"vehicle_type_id":"4","last_reported":1741774229,"current_range_meters":10000,"station_id":"ce4bhsh2rcd13ifvqi2g","pricing_plan_id":"cebpf4jnsgd1na2vs0mg"},{"bike_id":"03fcef79-f017-4d15-a10d-891c5cd96db2","system_id":"levelo_inurba_marseille","lat":43.23061,"lon":5.35491,"is_reserved":false,"is_disabled":false,"rental_uris":{"android":"levelo://app?vid=03fcef79-f017-4d15-a10d-891c5cd96db2","ios":"levelo://app?vid=03fcef79-f017-4d15-a10d-891c5cd96db2"},"vehicle_type_id":"4","last_reported":1741774229,"current_range_meters":10000,"station_id":"cpo3342slgdg3j2ifvpg","pricing_plan_id":"cebpf4jnsgd1na2vs0mg"},{"bike_id":"f089405c-d65a-4a6b-a39c-5cde3f352c4b","system_id":"levelo_inurba_marseille","lat":43.30555,"lon":5.36694,"is_reserved":false,"is_disabled":false,"rental_uris":{"android":"levelo://app?vid=f089405c-d65a-4a6b-a39c-5cde3f352c4b","ios":"levelo://app?vid=f089405c-d65a-4a6b-a39c-5cde3f352c4b"},"vehicle_type_id":"4","last_reported":1741774229,"current_range_meters":10800,"station_id":"ce4bgrp2rcd13ifvqc9g","pricing_plan_id":"cebpf4jnsgd1na2vs0mg"},{"bike_id":"dddce3eb-85ac-445f-a3fe-ae8e5a348301","system_id":"levelo_inurba_marseille","lat":43.31484,"lon":5.37308,"is_reserved":false,"is_disabled":false,"rental_uris":{"android":"levelo://app?vid=dddce3eb-85ac-445f-a3fe-ae8e5a348301","ios":"levelo://app?vid=dddce3eb-85ac-445f-a3fe-ae8e5a348301"},"vehicle_type_id":"4","last_reported":1741774229,"current_range_meters":10800,"station_id":"ce4bgt12rcd13ifvqcd0","pricing_plan_id":"cebpf4jnsgd1na2vs0mg"},{"bike_id":"73e322c8-7ded-47ba-9855-1e50f41f6948","system_id":"levelo_inurba_marseille","lat":43.30457,"lon":5.37899,"is_reserved":false,"is_disabled":false,"rental_uris":{"android":"levelo://app?vid=73e322c8-7ded-47ba-9855-1e50f41f6948","ios":"levelo://app?vid=73e322c8-7ded-47ba-9855-1e50f41f6948"},"vehicle_type_id":"4","last_reported":1741774229,"current_range_meters":10800,"station_id":"ce4bgup2rcd13ifvqcn0","pricing_plan_id":"cebpf4jnsgd1na2vs0mg"},{"bike_id":"6190eac7-4d69-4aee-8885-569caf678aef","system_id":"levelo_inurba_marseille","lat":43.25713,"lon":5.41074,"is_reserved":false,"is_disabled":false,"rental_uris":{"android":"levelo://app?vid=6190eac7-4d69-4aee-8885-569caf678aef","ios":"levelo://app?vid=6190eac7-4d69-4aee-8885-569caf678aef"},"vehicle_type_id":"4","last_reported":1741774229,"current_range_meters":10800,"station_id":"ce4bhkp2rcd13ifvqgd0","pricing_plan_id":"cebpf4jnsgd1na2vs0mg"},{"bike_id":"27e3b5c7-8b26-484b-b1cb-f6f23606ee7d","system_id":"levelo_inurba_marseille","lat":43.23145,"lon":5.43709,"is_reserved":false,"is_disabled":false,"rental_uris":{"android":"levelo://app?vid=27e3b5c7-8b26-484b-b1cb-f6f23606ee7d","ios":"levelo://app?vid=27e3b5c7-8b26-484b-b1cb-f6f23606ee7d"},"vehicle_type_id":"4","last_reported":1741774229,"current_range_meters":10800,"station_id":"ce4bhmp2rcd13ifvqgog","pricing_plan_id":"cebpf4jnsgd1na2vs0mg"},{"bike_id":"28ddcdf4-024a-4f42-80ff-fb3bac3f5f61","system_id":"levelo_inurba_marseille","lat":43.24169,"lon":5.3639,"is_reserved":false,"is_disabled":false,"rental_uris":{"android":"levelo://app?vid=28ddcdf4-024a-4f42-80ff-fb3bac3f5f61","ios":"levelo://app?vid=28ddcdf4-024a-4f42-80ff-fb3bac3f5f61"},"vehicle_type_id":"4","last_reported":1741774229,"current_range_meters":10800,"station_id":"cpo36qri1sfpv3e86is0","pricing_plan_id":"cebpf4jnsgd1na2vs0mg"},{"bike_id":"ec5d08ce-934d-49b5-9a73-c20b44942d11","system_id":"levelo_inurba_marseille","lat":43.31475,"lon":5.37534,"is_reserved":false,"is_disabled":false,"rental_uris":{"android":"levelo://app?vid=ec5d08ce-934d-49b5-9a73-c20b44942d11","ios":"levelo://app?vid=ec5d08ce-934d-49b5-9a73-c20b44942d11"},"vehicle_type_id":"4","last_reported":1741774229,"current_range_meters":11200,"station_id":"","pricing_plan_id":"cebpf4jnsgd1na2vs0mg"},{"bike_id":"5513c195-ca66-4cb6-ac62-82329b095ea7","system_id":"levelo_inurba_marseille","lat":43.31327,"lon":5.36721,"is_reserved":false,"is_disabled":false,"rental_uris":{"android":"levelo://app?vid=5513c195-ca66-4cb6-ac62-82329b095ea7","ios":"levelo://app?vid=5513c195-ca66-4cb6-ac62-82329b095ea7"},"vehicle_type_id":"4","last_reported":1741774229,"current_range_meters":11200,"station_id":"ce4bgr92rcd13ifvqc6g","pricing_plan_id":"cebpf4jnsgd1na2vs0mg"},{"bike_id":"eb1ba1b6-2e87-45ed-8cf3-925b9709627f","system_id":"levelo_inurba_marseille","lat":43.29477,"lon":5.39147,"is_reserved":false,"is_disabled":false,"rental_uris":{"android":"levelo://app?vid=eb1ba1b6-2e87-45ed-8cf3-925b9709627f","ios":"levelo://app?vid=eb1ba1b6-2e87-45ed-8cf3-925b9709627f"},"vehicle_type_id":"4","last_reported":1741774229,"current_range_meters":11200,"station_id":"ce4bh3p2rcd13ifvqdp0","pricing_plan_id":"cebpf4jnsgd1na2vs0mg"},{"bike_id":"25937fb7-9dcc-40e4-8919-d293a5121ca0","system_id":"levelo_inurba_marseille","lat":43.28696,"lon":5.37938,"is_reserved":false,"is_disabled":false,"rental_uris":{"android":"levelo://app?vid=25937fb7-9dcc-40e4-8919-d293a5121ca0","ios":"levelo://app?vid=25937fb7-9dcc-40e4-8919-d293a5121ca0"},"vehicle_type_id":"4","last_reported":1741774229,"current_range_meters":11200,"station_id":"ce4bh9p2rcd13ifvqec0","pricing_plan_id":"cebpf4jnsgd1na2vs0mg"},{"bike_id":"def84d26-b13d-4e4f-90cd-257f700cfc2b","system_id":"levelo_inurba_marseille","lat":43.26673,"lon":5.38275,"is_reserved":false,"is_disabled":false,"rental_uris":{"android":"levelo://app?vid=def84d26-b13d-4e4f-90cd-257f700cfc2b","ios":"levelo://app?vid=def84d26-b13d-4e4f-90cd-257f700cfc2b"},"vehicle_type_id":"4","last_reported":1741774229,"current_range_meters":11200,"station_id":"ce4bhg92rcd13ifvqf90","pricing_plan_id":"cebpf4jnsgd1na2vs0mg"},{"bike_id":"fcb04a08-f6ed-4f5a-9cc1-eb836ef3cba6","system_id":"levelo_inurba_marseille","lat":43.259,"lon":5.4091,"is_reserved":false,"is_disabled":false,"rental_uris":{"android":"levelo://app?vid=fcb04a08-f6ed-4f5a-9cc1-eb836ef3cba6","ios":"levelo://app?vid=fcb04a08-f6ed-4f5a-9cc1-eb836ef3cba6"},"vehicle_type_id":"4","last_reported":1741774229,"current_range_meters":11200,"station_id":"ce4bhm92rcd13ifvqglg","pricing_plan_id":"cebpf4jnsgd1na2vs0mg"},{"bike_id":"29a79942-87b6-4add-bc4a-da907bdbb506","system_id":"levelo_inurba_marseille","lat":43.23162,"lon":5.43708,"is_reserved":false,"is_disabled":false,"rental_uris":{"android":"levelo://app?vid=29a79942-87b6-4add-bc4a-da907bdbb506","ios":"levelo://app?vid=29a79942-87b6-4add-bc4a-da907bdbb506"},"vehicle_type_id":"4","last_reported":1741774229,"current_range_meters":11200,"station_id":"ce4bhmp2rcd13ifvqgog","pricing_plan_id":"cebpf4jnsgd1na2vs0mg"},{"bike_id":"44a32330-91a6-4a4c-9b53-9b95243da599","system_id":"levelo_inurba_marseille","lat":43.2319,"lon":5.39981,"is_reserved":false,"is_disabled":false,"rental_uris":{"android":"levelo://app?vid=44a32330-91a6-4a4c-9b53-9b95243da599","ios":"levelo://app?vid=44a32330-91a6-4a4c-9b53-9b95243da599"},"vehicle_type_id":"4","last_reported":1741774229,"current_range_meters":11200,"station_id":"ce4bhn12rcd13ifvqgqg","pricing_plan_id":"cebpf4jnsgd1na2vs0mg"},{"bike_id":"f580e5c3-37d1-46f2-8d64-19e1db5d79b5","system_id":"levelo_inurba_marseille","lat":43.27524,"lon":5.42455,"is_reserved":false,"is_disabled":false,"rental_uris":{"android":"levelo://app?vid=f580e5c3-37d1-46f2-8d64-19e1db5d79b5","ios":"levelo://app?vid=f580e5c3-37d1-46f2-8d64-19e1db5d79b5"},"vehicle_type_id":"4","last_reported":1741774229,"current_range_meters":11200,"station_id":"ce4bhn92rcd13ifvqgrg","pricing_plan_id":"cebpf4jnsgd1na2vs0mg"},{"bike_id":"01759420-a6ea-49e8-88be-a734b3015f7d","system_id":"levelo_inurba_marseille","lat":43.29973,"lon":5.38485,"is_reserved":false,"is_disabled":false,"rental_uris":{"android":"levelo://app?vid=01759420-a6ea-49e8-88be-a734b3015f7d","ios":"levelo://app?vid=01759420-a6ea-49e8-88be-a734b3015f7d"},"vehicle_type_id":"4","last_reported":1741774229,"current_range_meters":11600,"station_id":"ce4bgj92rcd13ifvqbd0","pricing_plan_id":"cebpf4jnsgd1na2vs0mg"},{"bike_id":"15945df9-cece-4165-b8da-5cff592695e2","system_id":"levelo_inurba_marseille","lat":43.30554,"lon":5.36529,"is_reserved":false,"is_disabled":false,"rental_uris":{"android":"levelo://app?vid=15945df9-cece-4165-b8da-5cff592695e2","ios":"levelo://app?vid=15945df9-cece-4165-b8da-5cff592695e2"},"vehicle_type_id":"4","last_reported":1741774229,"current_range_meters":11600,"station_id":"ce4bgs12rcd13ifvqcag","pricing_plan_id":"cebpf4jnsgd1na2vs0mg"},{"bike_id":"d34c486a-1f4c-4633-aedb-8d2096ade05a","system_id":"levelo_inurba_marseille","lat":43.30803,"lon":5.43537,"is_reserved":false,"is_disabled":false,"rental_uris":{"android":"levelo://app?vid=d34c486a-1f4c-4633-aedb-8d2096ade05a","ios":"levelo://app?vid=d34c486a-1f4c-4633-aedb-8d2096ade05a"},"vehicle_type_id":"4","last_reported":1741774229,"current_range_meters":11600,"station_id":"ce4bhph2rcd13ifvqheg","pricing_plan_id":"cebpf4jnsgd1na2vs0mg"},{"bike_id":"45345445-a78a-493f-a730-c619602e3241","system_id":"levelo_inurba_marseille","lat":43.25611,"lon":5.38547,"is_reserved":false,"is_disabled":false,"rental_uris":{"android":"levelo://app?vid=45345445-a78a-493f-a730-c619602e3241","ios":"levelo://app?vid=45345445-a78a-493f-a730-c619602e3241"},"vehicle_type_id":"4","last_reported":1741774229,"current_range_meters":12000,"station_id":"","pricing_plan_id":"cebpf4jnsgd1na2vs0mg"},{"bike_id":"1c01930b-65ad-457e-945b-28c1041e2a4c","system_id":"levelo_inurba_marseille","lat":43.31363,"lon":5.36697,"is_reserved":false,"is_disabled":false,"rental_uris":{"android":"levelo://app?vid=1c01930b-65ad-457e-945b-28c1041e2a4c","ios":"levelo://app?vid=1c01930b-65ad-457e-945b-28c1041e2a4c"},"vehicle_type_id":"4","last_reported":1741774229,"current_range_meters":12000,"station_id":"ce4bgr92rcd13ifvqc6g","pricing_plan_id":"cebpf4jnsgd1na2vs0mg"},{"bike_id":"0a995a9a-6122-4f4b-b298-a8b06cbca7e2","system_id":"levelo_inurba_marseille","lat":43.25014,"lon":5.38935,"is_reserved":false,"is_disabled":false,"rental_uris":{"android":"levelo://app?vid=0a995a9a-6122-4f4b-b298-a8b06cbca7e2","ios":"levelo://app?vid=0a995a9a-6122-4f4b-b298-a8b06cbca7e2"},"vehicle_type_id":"4","last_reported":1741774229,"current_range_meters":12000,"station_id":"ce4bhgp2rcd13ifvqfd0","pricing_plan_id":"cebpf4jnsgd1na2vs0mg"},{"bike_id":"601c8bbf-10e2-4e43-ae99-9fe0a98265c5","system_id":"levelo_inurba_marseille","lat":43.25943,"lon":5.40885,"is_reserved":false,"is_disabled":false,"rental_uris":{"android":"levelo://app?vid=601c8bbf-10e2-4e43-ae99-9fe0a98265c5","ios":"levelo://app?vid=601c8bbf-10e2-4e43-ae99-9fe0a98265c5"},"vehicle_type_id":"4","last_reported":1741774229,"current_range_meters":12000,"station_id":"ce4bhm92rcd13ifvqglg","pricing_plan_id":"cebpf4jnsgd1na2vs0mg"},{"bike_id":"ec1222a2-2427-4434-8beb-67ee03715ced","system_id":"levelo_inurba_marseille","lat":43.24178,"lon":5.39733,"is_reserved":false,"is_disabled":false,"rental_uris":{"android":"levelo://app?vid=ec1222a2-2427-4434-8beb-67ee03715ced","ios":"levelo://app?vid=ec1222a2-2427-4434-8beb-67ee03715ced"},"vehicle_type_id":"4","last_reported":1741774229,"current_range_meters":12000,"station_id":"ce4bhn12rcd13ifvqgpg","pricing_plan_id":"cebpf4jnsgd1na2vs0mg"},{"bike_id":"8afc345b-56b8-46e6-a0b1-6f81dadf6638","system_id":"levelo_inurba_marseille","lat":43.24169,"lon":5.39734,"is_reserved":false,"is_disabled":false,"rental_uris":{"android":"levelo://app?vid=8afc345b-56b8-46e6-a0b1-6f81dadf6638","ios":"levelo://app?vid=8afc345b-56b8-46e6-a0b1-6f81dadf6638"},"vehicle_type_id":"4","last_reported":1741774229,"current_range_meters":12000,"station_id":"ce4bhn12rcd13ifvqgpg","pricing_plan_id":"cebpf4jnsgd1na2vs0mg"},{"bike_id":"0078e0be-2a77-4814-a13a-164b8bb60913","system_id":"levelo_inurba_marseille","lat":43.26941,"lon":5.40241,"is_reserved":false,"is_disabled":false,"rental_uris":{"android":"levelo://app?vid=0078e0be-2a77-4814-a13a-164b8bb60913","ios":"levelo://app?vid=0078e0be-2a77-4814-a13a-164b8bb60913"},"vehicle_type_id":"4","last_reported":1741774229,"current_range_meters":12000,"station_id":"cjm6bp8fraef2m0cb0m0","pricing_plan_id":"cebpf4jnsgd1na2vs0mg"},{"bike_id":"843c81a9-3053-4a25-8ea4-9fed425794d0","system_id":"levelo_inurba_marseille","lat":43.304678,"lon":5.379048,"is_reserved":false,"is_disabled":false,"rental_uris":{"android":"levelo://app?vid=843c81a9-3053-4a25-8ea4-9fed425794d0","ios":"levelo://app?vid=843c81a9-3053-4a25-8ea4-9fed425794d0"},"vehicle_type_id":"4","last_reported":1741774229,"current_range_meters":12400,"station_id":"ce4bgup2rcd13ifvqcn0","pricing_plan_id":"cebpf4jnsgd1na2vs0mg"},{"bike_id":"5aff5c50-9e93-4e94-9ca4-09dbedddffbb","system_id":"levelo_inurba_marseille","lat":43.28482,"lon":5.3854,"is_reserved":false,"is_disabled":false,"rental_uris":{"android":"levelo://app?vid=5aff5c50-9e93-4e94-9ca4-09dbedddffbb","ios":"levelo://app?vid=5aff5c50-9e93-4e94-9ca4-09dbedddffbb"},"vehicle_type_id":"4","last_reported":1741774229,"current_range_meters":12400,"station_id":"ce4bh8p2rcd13ifvqeb0","pricing_plan_id":"cebpf4jnsgd1na2vs0mg"},{"bike_id":"9cd9549f-d9ce-4915-97f4-0282e09d4c24","system_id":"levelo_inurba_marseille","lat":43.28964,"lon":5.37844,"is_reserved":false,"is_disabled":false,"rental_uris":{"android":"levelo://app?vid=9cd9549f-d9ce-4915-97f4-0282e09d4c24","ios":"levelo://app?vid=9cd9549f-d9ce-4915-97f4-0282e09d4c24"},"vehicle_type_id":"4","last_reported":1741774229,"current_range_meters":12400,"station_id":"ce4bh9p2rcd13ifvqed0","pricing_plan_id":"cebpf4jnsgd1na2vs0mg"},{"bike_id":"9bbb5869-7ce8-4b3e-87bc-c3e9be9fca18","system_id":"levelo_inurba_marseille","lat":43.29228,"lon":5.36079,"is_reserved":false,"is_disabled":false,"rental_uris":{"android":"levelo://app?vid=9bbb5869-7ce8-4b3e-87bc-c3e9be9fca18","ios":"levelo://app?vid=9bbb5869-7ce8-4b3e-87bc-c3e9be9fca18"},"vehicle_type_id":"4","last_reported":1741774229,"current_range_meters":12400,"station_id":"ce4bhbh2rcd13ifvqeqg","pricing_plan_id":"cebpf4jnsgd1na2vs0mg"},{"bike_id":"b44022d5-a3c8-45f9-9984-eaba76929c7b","system_id":"levelo_inurba_marseille","lat":43.27834,"lon":5.40674,"is_reserved":false,"is_disabled":false,"rental_uris":{"android":"levelo://app?vid=b44022d5-a3c8-45f9-9984-eaba76929c7b","ios":"levelo://app?vid=b44022d5-a3c8-45f9-9984-eaba76929c7b"},"vehicle_type_id":"4","last_reported":1741774229,"current_range_meters":12400,"station_id":"ce4bhnh2rcd13ifvqgtg","pricing_plan_id":"cebpf4jnsgd1na2vs0mg"},{"bike_id":"fb55f9d1-18dc-4569-919c-3c5a2e705317","system_id":"levelo_inurba_marseille","lat":43.324794,"lon":5.365975,"is_reserved":false,"is_disabled":false,"rental_uris":{"android":"levelo://app?vid=fb55f9d1-18dc-4569-919c-3c5a2e705317","ios":"levelo://app?vid=fb55f9d1-18dc-4569-919c-3c5a2e705317"},"vehicle_type_id":"4","last_reported":1741774229,"current_range_meters":12800,"station_id":"ce4bhs12rcd13ifvqhvg","pricing_plan_id":"cebpf4jnsgd1na2vs0mg"},{"bike_id":"f67fbd85-d6d8-4171-9d9d-fd1d8148d306","system_id":"levelo_inurba_marseille","lat":43.294197,"lon":5.386178,"is_reserved":false,"is_disabled":false,"rental_uris":{"android":"levelo://app?vid=f67fbd85-d6d8-4171-9d9d-fd1d8148d306","ios":"levelo://app?vid=f67fbd85-d6d8-4171-9d9d-fd1d8148d306"},"vehicle_type_id":"4","last_reported":1741774229,"current_range_meters":12800,"station_id":"cki0cbj6b192h4jlfktg","pricing_plan_id":"cebpf4jnsgd1na2vs0mg"},{"bike_id":"a7c2e7e0-7201-4785-9233-c26ab8f60f63","system_id":"levelo_inurba_marseille","lat":43.299,"lon":5.37472,"is_reserved":false,"is_disabled":false,"rental_uris":{"android":"levelo://app?vid=a7c2e7e0-7201-4785-9233-c26ab8f60f63","ios":"levelo://app?vid=a7c2e7e0-7201-4785-9233-c26ab8f60f63"},"vehicle_type_id":"4","last_reported":1741774229,"current_range_meters":13600,"station_id":"ce4bgjh2rcd13ifvqbg0","pricing_plan_id":"cebpf4jnsgd1na2vs0mg"},{"bike_id":"d4df08b0-e4dd-4c4b-ac7e-66a43d848ae1","system_id":"levelo_inurba_marseille","lat":43.31223,"lon":5.3683,"is_reserved":false,"is_disabled":false,"rental_uris":{"android":"levelo://app?vid=d4df08b0-e4dd-4c4b-ac7e-66a43d848ae1","ios":"levelo://app?vid=d4df08b0-e4dd-4c4b-ac7e-66a43d848ae1"},"vehicle_type_id":"4","last_reported":1741774229,"current_range_meters":13600,"station_id":"ce4bgl92rcd13ifvqbq0","pricing_plan_id":"cebpf4jnsgd1na2vs0mg"},{"bike_id":"762be9fd-c334-4ab7-ace8-10d019c7ceaf","system_id":"levelo_inurba_marseille","lat":43.29873,"lon":5.39724,"is_reserved":false,"is_disabled":false,"rental_uris":{"android":"levelo://app?vid=762be9fd-c334-4ab7-ace8-10d019c7ceaf","ios":"levelo://app?vid=762be9fd-c334-4ab7-ace8-10d019c7ceaf"},"vehicle_type_id":"4","last_reported":1741774229,"current_range_meters":13600,"station_id":"ce4bh0h2rcd13ifvqd50","pricing_plan_id":"cebpf4jnsgd1na2vs0mg"},{"bike_id":"fa8f8249-fd86-4153-9f9d-d37fdddd786e","system_id":"levelo_inurba_marseille","lat":43.28603,"lon":5.35105,"is_reserved":false,"is_disabled":false,"rental_uris":{"android":"levelo://app?vid=fa8f8249-fd86-4153-9f9d-d37fdddd786e","ios":"levelo://app?vid=fa8f8249-fd86-4153-9f9d-d37fdddd786e"},"vehicle_type_id":"4","last_reported":1741774229,"current_range_meters":13600,"station_id":"ce4bhch2rcd13ifvqeug","pricing_plan_id":"cebpf4jnsgd1na2vs0mg"},{"bike_id":"30441505-cc04-4481-b2ab-1f8386edbae1","system_id":"levelo_inurba_marseille","lat":43.26552,"lon":5.37285,"is_reserved":false,"is_disabled":false,"rental_uris":{"android":"levelo://app?vid=30441505-cc04-4481-b2ab-1f8386edbae1","ios":"levelo://app?vid=30441505-cc04-4481-b2ab-1f8386edbae1"},"vehicle_type_id":"4","last_reported":1741774229,"current_range_meters":13600,"station_id":"ce4bhg12rcd13ifvqf70","pricing_plan_id":"cebpf4jnsgd1na2vs0mg"},{"bike_id":"c2fdc035-3896-46f1-aee2-5294a5907071","system_id":"levelo_inurba_marseille","lat":43.25001,"lon":5.38941,"is_reserved":false,"is_disabled":false,"rental_uris":{"android":"levelo://app?vid=c2fdc035-3896-46f1-aee2-5294a5907071","ios":"levelo://app?vid=c2fdc035-3896-46f1-aee2-5294a5907071"},"vehicle_type_id":"4","last_reported":1741774229,"current_range_meters":13600,"station_id":"ce4bhgp2rcd13ifvqfd0","pricing_plan_id":"cebpf4jnsgd1na2vs0mg"},{"bike_id":"9647b175-18e6-419c-ad3c-ec96eacb2be0","system_id":"levelo_inurba_marseille","lat":43.25724,"lon":5.41106,"is_reserved":false,"is_disabled":false,"rental_uris":{"android":"levelo://app?vid=9647b175-18e6-419c-ad3c-ec96eacb2be0","ios":"levelo://app?vid=9647b175-18e6-419c-ad3c-ec96eacb2be0"},"vehicle_type_id":"4","last_reported":1741774229,"current_range_meters":13600,"station_id":"ce4bhkp2rcd13ifvqgd0","pricing_plan_id":"cebpf4jnsgd1na2vs0mg"},{"bike_id":"8cc302c5-52e9-4074-aaa8-2ec59b799832","system_id":"levelo_inurba_marseille","lat":43.27942,"lon":5.41048,"is_reserved":false,"is_disabled":false,"rental_uris":{"android":"levelo://app?vid=8cc302c5-52e9-4074-aaa8-2ec59b799832","ios":"levelo://app?vid=8cc302c5-52e9-4074-aaa8-2ec59b799832"},"vehicle_type_id":"4","last_reported":1741774229,"current_range_meters":13600,"station_id":"ce4bhnp2rcd13ifvqh0g","pricing_plan_id":"cebpf4jnsgd1na2vs0mg"},{"bike_id":"848ef08f-a2d2-435a-86f9-5992b262339c","system_id":"levelo_inurba_marseille","lat":43.2997,"lon":5.38491,"is_reserved":false,"is_disabled":false,"rental_uris":{"android":"levelo://app?vid=848ef08f-a2d2-435a-86f9-5992b262339c","ios":"levelo://app?vid=848ef08f-a2d2-435a-86f9-5992b262339c"},"vehicle_type_id":"4","last_reported":1741774229,"current_range_meters":14000,"station_id":"ce4bgj92rcd13ifvqbd0","pricing_plan_id":"cebpf4jnsgd1na2vs0mg"},{"bike_id":"c48df662-5b71-424d-adcd-5061f3fda701","system_id":"levelo_inurba_marseille","lat":43.30905,"lon":5.368474,"is_reserved":false,"is_disabled":false,"rental_uris":{"android":"levelo://app?vid=c48df662-5b71-424d-adcd-5061f3fda701","ios":"levelo://app?vid=c48df662-5b71-424d-adcd-5061f3fda701"},"vehicle_type_id":"4","last_reported":1741774229,"current_range_meters":14000,"station_id":"ce4bgn92rcd13ifvqbvg","pricing_plan_id":"cebpf4jnsgd1na2vs0mg"},{"bike_id":"07ae81dc-aa2e-4f6c-bbd1-2309993788ef","system_id":"levelo_inurba_marseille","lat":43.2985,"lon":5.36272,"is_reserved":false,"is_disabled":false,"rental_uris":{"android":"levelo://app?vid=07ae81dc-aa2e-4f6c-bbd1-2309993788ef","ios":"levelo://app?vid=07ae81dc-aa2e-4f6c-bbd1-2309993788ef"},"vehicle_type_id":"4","last_reported":1741774229,"current_range_meters":14000,"station_id":"ce4bgpp2rcd13ifvqc3g","pricing_plan_id":"cebpf4jnsgd1na2vs0mg"},{"bike_id":"4c607265-c996-4d9b-81fd-daa80dd99e32","system_id":"levelo_inurba_marseille","lat":43.28759,"lon":5.38419,"is_reserved":false,"is_disabled":false,"rental_uris":{"android":"levelo://app?vid=4c607265-c996-4d9b-81fd-daa80dd99e32","ios":"levelo://app?vid=4c607265-c996-4d9b-81fd-daa80dd99e32"},"vehicle_type_id":"4","last_reported":1741774229,"current_range_meters":14400,"station_id":"","pricing_plan_id":"cebpf4jnsgd1na2vs0mg"},{"bike_id":"02a87ccc-b1d8-42ce-b74c-6905e0cccaca","system_id":"levelo_inurba_marseille","lat":43.3014,"lon":5.37414,"is_reserved":false,"is_disabled":false,"rental_uris":{"android":"levelo://app?vid=02a87ccc-b1d8-42ce-b74c-6905e0cccaca","ios":"levelo://app?vid=02a87ccc-b1d8-42ce-b74c-6905e0cccaca"},"vehicle_type_id":"4","last_reported":1741774229,"current_range_meters":14400,"station_id":"ce4bgs92rcd13ifvqcc0","pricing_plan_id":"cebpf4jnsgd1na2vs0mg"},{"bike_id":"7e0a8a39-e289-4f36-b5ae-3df7ffe15883","system_id":"levelo_inurba_marseille","lat":43.31125,"lon":5.3776,"is_reserved":false,"is_disabled":false,"rental_uris":{"android":"levelo://app?vid=7e0a8a39-e289-4f36-b5ae-3df7ffe15883","ios":"levelo://app?vid=7e0a8a39-e289-4f36-b5ae-3df7ffe15883"},"vehicle_type_id":"4","last_reported":1741774229,"current_range_meters":14400,"station_id":"ce4bgt92rcd13ifvqcg0","pricing_plan_id":"cebpf4jnsgd1na2vs0mg"},{"bike_id":"13f25f1c-e9b5-4f78-bf4f-12d45715847f","system_id":"levelo_inurba_marseille","lat":43.26681,"lon":5.38267,"is_reserved":false,"is_disabled":false,"rental_uris":{"android":"levelo://app?vid=13f25f1c-e9b5-4f78-bf4f-12d45715847f","ios":"levelo://app?vid=13f25f1c-e9b5-4f78-bf4f-12d45715847f"},"vehicle_type_id":"4","last_reported":1741774229,"current_range_meters":14400,"station_id":"ce4bhg92rcd13ifvqf90","pricing_plan_id":"cebpf4jnsgd1na2vs0mg"},{"bike_id":"55460cd7-9b41-4f6b-8ca9-a135ac7ebf19","system_id":"levelo_inurba_marseille","lat":43.25092,"lon":5.39528,"is_reserved":false,"is_disabled":false,"rental_uris":{"android":"levelo://app?vid=55460cd7-9b41-4f6b-8ca9-a135ac7ebf19","ios":"levelo://app?vid=55460cd7-9b41-4f6b-8ca9-a135ac7ebf19"},"vehicle_type_id":"4","last_reported":1741774229,"current_range_meters":14400,"station_id":"ce4bhm12rcd13ifvqgkg","pricing_plan_id":"cebpf4jnsgd1na2vs0mg"},{"bike_id":"ba12daba-d8c9-4d0d-a041-99082b815d6f","system_id":"levelo_inurba_marseille","lat":43.30546,"lon":5.36703,"is_reserved":false,"is_disabled":false,"rental_uris":{"android":"levelo://app?vid=ba12daba-d8c9-4d0d-a041-99082b815d6f","ios":"levelo://app?vid=ba12daba-d8c9-4d0d-a041-99082b815d6f"},"vehicle_type_id":"4","last_reported":1741774229,"current_range_meters":14800,"station_id":"ce4bgrp2rcd13ifvqc9g","pricing_plan_id":"cebpf4jnsgd1na2vs0mg"},{"bike_id":"6f4c9526-e882-40d0-bbc5-c3775986ec76","system_id":"levelo_inurba_marseille","lat":43.24074,"lon":5.37764,"is_reserved":false,"is_disabled":false,"rental_uris":{"android":"levelo://app?vid=6f4c9526-e882-40d0-bbc5-c3775986ec76","ios":"levelo://app?vid=6f4c9526-e882-40d0-bbc5-c3775986ec76"},"vehicle_type_id":"4","last_reported":1741774229,"current_range_meters":14800,"station_id":"ce4bhnp2rcd13ifvqgvg","pricing_plan_id":"cebpf4jnsgd1na2vs0mg"},{"bike_id":"766adbd8-a527-4af4-b2a6-af964efd9fd5","system_id":"levelo_inurba_marseille","lat":43.33592,"lon":5.4104,"is_reserved":false,"is_disabled":false,"rental_uris":{"android":"levelo://app?vid=766adbd8-a527-4af4-b2a6-af964efd9fd5","ios":"levelo://app?vid=766adbd8-a527-4af4-b2a6-af964efd9fd5"},"vehicle_type_id":"4","last_reported":1741774229,"current_range_meters":14800,"station_id":"ce4bhqh2rcd13ifvqhmg","pricing_plan_id":"cebpf4jnsgd1na2vs0mg"},{"bike_id":"583e9a08-8a7b-47cc-aaab-563ec5211ebd","system_id":"levelo_inurba_marseille","lat":43.30527,"lon":5.36517,"is_reserved":false,"is_disabled":false,"rental_uris":{"android":"levelo://app?vid=583e9a08-8a7b-47cc-aaab-563ec5211ebd","ios":"levelo://app?vid=583e9a08-8a7b-47cc-aaab-563ec5211ebd"},"vehicle_type_id":"4","last_reported":1741774229,"current_range_meters":15200,"station_id":"ce4bgs12rcd13ifvqcag","pricing_plan_id":"cebpf4jnsgd1na2vs0mg"},{"bike_id":"2872f208-7a92-4283-a98c-8da021fd4c46","system_id":"levelo_inurba_marseille","lat":43.30278,"lon":5.37699,"is_reserved":false,"is_disabled":false,"rental_uris":{"android":"levelo://app?vid=2872f208-7a92-4283-a98c-8da021fd4c46","ios":"levelo://app?vid=2872f208-7a92-4283-a98c-8da021fd4c46"},"vehicle_type_id":"4","last_reported":1741774229,"current_range_meters":15200,"station_id":"ce4bguh2rcd13ifvqcj0","pricing_plan_id":"cebpf4jnsgd1na2vs0mg"},{"bike_id":"520e5777-8ffd-4e86-b742-bf08e55e782e","system_id":"levelo_inurba_marseille","lat":43.30088,"lon":5.39081,"is_reserved":false,"is_disabled":false,"rental_uris":{"android":"levelo://app?vid=520e5777-8ffd-4e86-b742-bf08e55e782e","ios":"levelo://app?vid=520e5777-8ffd-4e86-b742-bf08e55e782e"},"vehicle_type_id":"4","last_reported":1741774229,"current_range_meters":15200,"station_id":"ce4bh192rcd13ifvqdb0","pricing_plan_id":"cebpf4jnsgd1na2vs0mg"},{"bike_id":"6679f20e-81fe-497e-9382-9c7dc6cbc0d6","system_id":"levelo_inurba_marseille","lat":43.28489,"lon":5.38432,"is_reserved":false,"is_disabled":false,"rental_uris":{"android":"levelo://app?vid=6679f20e-81fe-497e-9382-9c7dc6cbc0d6","ios":"levelo://app?vid=6679f20e-81fe-497e-9382-9c7dc6cbc0d6"},"vehicle_type_id":"4","last_reported":1741774229,"current_range_meters":15200,"station_id":"ce4bh512rcd13ifvqe3g","pricing_plan_id":"cebpf4jnsgd1na2vs0mg"},{"bike_id":"5d921864-461d-43e0-8068-dbf8d25be452","system_id":"levelo_inurba_marseille","lat":43.28974,"lon":5.37817,"is_reserved":false,"is_disabled":false,"rental_uris":{"android":"levelo://app?vid=5d921864-461d-43e0-8068-dbf8d25be452","ios":"levelo://app?vid=5d921864-461d-43e0-8068-dbf8d25be452"},"vehicle_type_id":"4","last_reported":1741774229,"current_range_meters":15200,"station_id":"ce4bh9p2rcd13ifvqed0","pricing_plan_id":"cebpf4jnsgd1na2vs0mg"},{"bike_id":"d3ac1ba6-6349-4d47-99e4-9f85d3ef1aa5","system_id":"levelo_inurba_marseille","lat":43.284998,"lon":5.368731,"is_reserved":false,"is_disabled":false,"rental_uris":{"android":"levelo://app?vid=d3ac1ba6-6349-4d47-99e4-9f85d3ef1aa5","ios":"levelo://app?vid=d3ac1ba6-6349-4d47-99e4-9f85d3ef1aa5"},"vehicle_type_id":"4","last_reported":1741774229,"current_range_meters":16000,"station_id":"","pricing_plan_id":"cebpf4jnsgd1na2vs0mg"},{"bike_id":"f56fd108-4f2b-4a8c-8de6-76f811587164","system_id":"levelo_inurba_marseille","lat":43.26739,"lon":5.3945,"is_reserved":false,"is_disabled":false,"rental_uris":{"android":"levelo://app?vid=f56fd108-4f2b-4a8c-8de6-76f811587164","ios":"levelo://app?vid=f56fd108-4f2b-4a8c-8de6-76f811587164"},"vehicle_type_id":"4","last_reported":1741774229,"current_range_meters":16000,"station_id":"","pricing_plan_id":"cebpf4jnsgd1na2vs0mg"},{"bike_id":"223e3379-9e12-491c-a6e0-15c33ad5def1","system_id":"levelo_inurba_marseille","lat":43.29897,"lon":5.38143,"is_reserved":false,"is_disabled":false,"rental_uris":{"android":"levelo://app?vid=223e3379-9e12-491c-a6e0-15c33ad5def1","ios":"levelo://app?vid=223e3379-9e12-491c-a6e0-15c33ad5def1"},"vehicle_type_id":"4","last_reported":1741774229,"current_range_meters":16000,"station_id":"ce4bgj12rcd13ifvqbc0","pricing_plan_id":"cebpf4jnsgd1na2vs0mg"},{"bike_id":"f10b20ca-bfc7-4474-866f-d217929d7761","system_id":"levelo_inurba_marseille","lat":43.30544,"lon":5.36689,"is_reserved":false,"is_disabled":false,"rental_uris":{"android":"levelo://app?vid=f10b20ca-bfc7-4474-866f-d217929d7761","ios":"levelo://app?vid=f10b20ca-bfc7-4474-866f-d217929d7761"},"vehicle_type_id":"4","last_reported":1741774229,"current_range_meters":16000,"station_id":"ce4bgrp2rcd13ifvqc9g","pricing_plan_id":"cebpf4jnsgd1na2vs0mg"},{"bike_id":"99a3f406-b0b8-4066-adb6-b7e55216ac38","system_id":"levelo_inurba_marseille","lat":43.30286,"lon":5.37696,"is_reserved":false,"is_disabled":false,"rental_uris":{"android":"levelo://app?vid=99a3f406-b0b8-4066-adb6-b7e55216ac38","ios":"levelo://app?vid=99a3f406-b0b8-4066-adb6-b7e55216ac38"},"vehicle_type_id":"4","last_reported":1741774229,"current_range_meters":16000,"station_id":"ce4bguh2rcd13ifvqcj0","pricing_plan_id":"cebpf4jnsgd1na2vs0mg"},{"bike_id":"8bb05163-69cb-4a93-99bd-8fc03ce23cda","system_id":"levelo_inurba_marseille","lat":43.31686,"lon":5.40477,"is_reserved":false,"is_disabled":false,"rental_uris":{"android":"levelo://app?vid=8bb05163-69cb-4a93-99bd-8fc03ce23cda","ios":"levelo://app?vid=8bb05163-69cb-4a93-99bd-8fc03ce23cda"},"vehicle_type_id":"4","last_reported":1741774229,"current_range_meters":16000,"station_id":"ce4bh012rcd13ifvqd00","pricing_plan_id":"cebpf4jnsgd1na2vs0mg"},{"bike_id":"7315a875-fa76-4210-b51f-8653ba99a23c","system_id":"levelo_inurba_marseille","lat":43.27321,"lon":5.39106,"is_reserved":false,"is_disabled":false,"rental_uris":{"android":"levelo://app?vid=7315a875-fa76-4210-b51f-8653ba99a23c","ios":"levelo://app?vid=7315a875-fa76-4210-b51f-8653ba99a23c"},"vehicle_type_id":"4","last_reported":1741774229,"current_range_meters":16000,"station_id":"ce4bhgp2rcd13ifvqfe0","pricing_plan_id":"cebpf4jnsgd1na2vs0mg"},{"bike_id":"68a8c996-a385-4992-bec8-4252c780f1fb","system_id":"levelo_inurba_marseille","lat":43.29557,"lon":5.42289,"is_reserved":false,"is_disabled":false,"rental_uris":{"android":"levelo://app?vid=68a8c996-a385-4992-bec8-4252c780f1fb","ios":"levelo://app?vid=68a8c996-a385-4992-bec8-4252c780f1fb"},"vehicle_type_id":"4","last_reported":1741774229,"current_range_meters":16000,"station_id":"ce4bhph2rcd13ifvqhdg","pricing_plan_id":"cebpf4jnsgd1na2vs0mg"},{"bike_id":"e65eeaba-6ddc-4e1d-b451-59b5b5fdeeec","system_id":"levelo_inurba_marseille","lat":43.29049,"lon":5.37779,"is_reserved":false,"is_disabled":false,"rental_uris":{"android":"levelo://app?vid=e65eeaba-6ddc-4e1d-b451-59b5b5fdeeec","ios":"levelo://app?vid=e65eeaba-6ddc-4e1d-b451-59b5b5fdeeec"},"vehicle_type_id":"4","last_reported":1741774229,"current_range_meters":16400,"station_id":"","pricing_plan_id":"cebpf4jnsgd1na2vs0mg"},{"bike_id":"4f845a34-b0f1-4aed-b9a2-399a79dba468","system_id":"levelo_inurba_marseille","lat":43.29715,"lon":5.3653,"is_reserved":false,"is_disabled":false,"rental_uris":{"android":"levelo://app?vid=4f845a34-b0f1-4aed-b9a2-399a79dba468","ios":"levelo://app?vid=4f845a34-b0f1-4aed-b9a2-399a79dba468"},"vehicle_type_id":"4","last_reported":1741774229,"current_range_meters":16400,"station_id":"","pricing_plan_id":"cebpf4jnsgd1na2vs0mg"},{"bike_id":"06c2343e-22ea-46c4-bebc-d383c0ea6807","system_id":"levelo_inurba_marseille","lat":43.29554,"lon":5.37532,"is_reserved":false,"is_disabled":false,"rental_uris":{"android":"levelo://app?vid=06c2343e-22ea-46c4-bebc-d383c0ea6807","ios":"levelo://app?vid=06c2343e-22ea-46c4-bebc-d383c0ea6807"},"vehicle_type_id":"4","last_reported":1741774229,"current_range_meters":16400,"station_id":"ce4bgh92rcd13ifvqb50","pricing_plan_id":"cebpf4jnsgd1na2vs0mg"},{"bike_id":"5a2fac9e-7560-4954-8011-a7bd59004a4d","system_id":"levelo_inurba_marseille","lat":43.29841,"lon":5.3622,"is_reserved":false,"is_disabled":false,"rental_uris":{"android":"levelo://app?vid=5a2fac9e-7560-4954-8011-a7bd59004a4d","ios":"levelo://app?vid=5a2fac9e-7560-4954-8011-a7bd59004a4d"},"vehicle_type_id":"4","last_reported":1741774229,"current_range_meters":16400,"station_id":"ce4bgpp2rcd13ifvqc3g","pricing_plan_id":"cebpf4jnsgd1na2vs0mg"},{"bike_id":"f4703ec0-2e9c-49e1-90f1-d1bdf69a84d4","system_id":"levelo_inurba_marseille","lat":43.26682,"lon":5.38263,"is_reserved":false,"is_disabled":false,"rental_uris":{"android":"levelo://app?vid=f4703ec0-2e9c-49e1-90f1-d1bdf69a84d4","ios":"levelo://app?vid=f4703ec0-2e9c-49e1-90f1-d1bdf69a84d4"},"vehicle_type_id":"4","last_reported":1741774229,"current_range_meters":16400,"station_id":"ce4bhg92rcd13ifvqf90","pricing_plan_id":"cebpf4jnsgd1na2vs0mg"},{"bike_id":"cefa473e-a97a-4a96-a483-db5a16038982","system_id":"levelo_inurba_marseille","lat":43.26056,"lon":5.39393,"is_reserved":false,"is_disabled":false,"rental_uris":{"android":"levelo://app?vid=cefa473e-a97a-4a96-a483-db5a16038982","ios":"levelo://app?vid=cefa473e-a97a-4a96-a483-db5a16038982"},"vehicle_type_id":"4","last_reported":1741774229,"current_range_meters":16400,"station_id":"ce4bhh92rcd13ifvqfj0","pricing_plan_id":"cebpf4jnsgd1na2vs0mg"},{"bike_id":"9ee3b534-911c-448d-bb36-2434c5536575","system_id":"levelo_inurba_marseille","lat":43.24542,"lon":5.39536,"is_reserved":false,"is_disabled":false,"rental_uris":{"android":"levelo://app?vid=9ee3b534-911c-448d-bb36-2434c5536575","ios":"levelo://app?vid=9ee3b534-911c-448d-bb36-2434c5536575"},"vehicle_type_id":"4","last_reported":1741774229,"current_range_meters":16400,"station_id":"ce4bhlp2rcd13ifvqgjg","pricing_plan_id":"cebpf4jnsgd1na2vs0mg"},{"bike_id":"0118782e-a9be-4c57-a3c6-f989e8d3b9bf","system_id":"levelo_inurba_marseille","lat":43.24177,"lon":5.39718,"is_reserved":false,"is_disabled":false,"rental_uris":{"android":"levelo://app?vid=0118782e-a9be-4c57-a3c6-f989e8d3b9bf","ios":"levelo://app?vid=0118782e-a9be-4c57-a3c6-f989e8d3b9bf"},"vehicle_type_id":"4","last_reported":1741774229,"current_range_meters":16400,"station_id":"ce4bhn12rcd13ifvqgpg","pricing_plan_id":"cebpf4jnsgd1na2vs0mg"},{"bike_id":"b479f388-c785-4947-8169-e12f78c8d169","system_id":"levelo_inurba_marseille","lat":43.23176,"lon":5.39987,"is_reserved":false,"is_disabled":false,"rental_uris":{"android":"levelo://app?vid=b479f388-c785-4947-8169-e12f78c8d169","ios":"levelo://app?vid=b479f388-c785-4947-8169-e12f78c8d169"},"vehicle_type_id":"4","last_reported":1741774229,"current_range_meters":16400,"station_id":"ce4bhn12rcd13ifvqgqg","pricing_plan_id":"cebpf4jnsgd1na2vs0mg"},{"bike_id":"ca762409-3e9b-49eb-b311-18b138aaa95f","system_id":"levelo_inurba_marseille","lat":43.33736,"lon":5.39198,"is_reserved":false,"is_disabled":false,"rental_uris":{"android":"levelo://app?vid=ca762409-3e9b-49eb-b311-18b138aaa95f","ios":"levelo://app?vid=ca762409-3e9b-49eb-b311-18b138aaa95f"},"vehicle_type_id":"4","last_reported":1741774229,"current_range_meters":16400,"station_id":"ce4bhr92rcd13ifvqhsg","pricing_plan_id":"cebpf4jnsgd1na2vs0mg"},{"bike_id":"d1235ce3-1007-4d2d-9e28-ea39398a63a8","system_id":"levelo_inurba_marseille","lat":43.23211,"lon":5.3556,"is_reserved":false,"is_disabled":false,"rental_uris":{"android":"levelo://app?vid=d1235ce3-1007-4d2d-9e28-ea39398a63a8","ios":"levelo://app?vid=d1235ce3-1007-4d2d-9e28-ea39398a63a8"},"vehicle_type_id":"4","last_reported":1741774229,"current_range_meters":16400,"station_id":"ce4bhu92rcd13ifvqi70","pricing_plan_id":"cebpf4jnsgd1na2vs0mg"},{"bike_id":"e85e7281-8ded-4f9f-9074-cd43c73f5f32","system_id":"levelo_inurba_marseille","lat":43.31328,"lon":5.37374,"is_reserved":false,"is_disabled":false,"rental_uris":{"android":"levelo://app?vid=e85e7281-8ded-4f9f-9074-cd43c73f5f32","ios":"levelo://app?vid=e85e7281-8ded-4f9f-9074-cd43c73f5f32"},"vehicle_type_id":"4","last_reported":1741774229,"current_range_meters":16800,"station_id":"","pricing_plan_id":"cebpf4jnsgd1na2vs0mg"},{"bike_id":"c2706a7e-a77b-44ef-bc8f-95c2f6e1b539","system_id":"levelo_inurba_marseille","lat":43.29297,"lon":5.37443,"is_reserved":false,"is_disabled":false,"rental_uris":{"android":"levelo://app?vid=c2706a7e-a77b-44ef-bc8f-95c2f6e1b539","ios":"levelo://app?vid=c2706a7e-a77b-44ef-bc8f-95c2f6e1b539"},"vehicle_type_id":"4","last_reported":1741774229,"current_range_meters":16800,"station_id":"ce4bgi12rcd13ifvqb70","pricing_plan_id":"cebpf4jnsgd1na2vs0mg"},{"bike_id":"96114f57-f074-443d-9ee4-282b0360c01e","system_id":"levelo_inurba_marseille","lat":43.28727,"lon":5.37927,"is_reserved":false,"is_disabled":false,"rental_uris":{"android":"levelo://app?vid=96114f57-f074-443d-9ee4-282b0360c01e","ios":"levelo://app?vid=96114f57-f074-443d-9ee4-282b0360c01e"},"vehicle_type_id":"4","last_reported":1741774229,"current_range_meters":16800,"station_id":"ce4bh9p2rcd13ifvqec0","pricing_plan_id":"cebpf4jnsgd1na2vs0mg"},{"bike_id":"64131d47-ed22-438b-a2f9-804d73ae742c","system_id":"levelo_inurba_marseille","lat":43.27194,"lon":5.39154,"is_reserved":false,"is_disabled":false,"rental_uris":{"android":"levelo://app?vid=64131d47-ed22-438b-a2f9-804d73ae742c","ios":"levelo://app?vid=64131d47-ed22-438b-a2f9-804d73ae742c"},"vehicle_type_id":"4","last_reported":1741774229,"current_range_meters":16800,"station_id":"ce4bhhp2rcd13ifvqfm0","pricing_plan_id":"cebpf4jnsgd1na2vs0mg"},{"bike_id":"894adb72-eba3-4c31-be33-a34cdb918fbd","system_id":"levelo_inurba_marseille","lat":43.25716,"lon":5.41113,"is_reserved":false,"is_disabled":false,"rental_uris":{"android":"levelo://app?vid=894adb72-eba3-4c31-be33-a34cdb918fbd","ios":"levelo://app?vid=894adb72-eba3-4c31-be33-a34cdb918fbd"},"vehicle_type_id":"4","last_reported":1741774229,"current_range_meters":16800,"station_id":"ce4bhkp2rcd13ifvqgd0","pricing_plan_id":"cebpf4jnsgd1na2vs0mg"},{"bike_id":"234ba335-c960-4969-8306-a9c003e0ba95","system_id":"levelo_inurba_marseille","lat":43.29806,"lon":5.38091,"is_reserved":false,"is_disabled":false,"rental_uris":{"android":"levelo://app?vid=234ba335-c960-4969-8306-a9c003e0ba95","ios":"levelo://app?vid=234ba335-c960-4969-8306-a9c003e0ba95"},"vehicle_type_id":"4","last_reported":1741774229,"current_range_meters":17200,"station_id":"ce4bgip2rcd13ifvqbb0","pricing_plan_id":"cebpf4jnsgd1na2vs0mg"},{"bike_id":"d635fc4e-d0d5-48cd-9305-906594fe2b69","system_id":"levelo_inurba_marseille","lat":43.29935,"lon":5.36545,"is_reserved":false,"is_disabled":false,"rental_uris":{"android":"levelo://app?vid=d635fc4e-d0d5-48cd-9305-906594fe2b69","ios":"levelo://app?vid=d635fc4e-d0d5-48cd-9305-906594fe2b69"},"vehicle_type_id":"4","last_reported":1741774229,"current_range_meters":17200,"station_id":"ce4bgm92rcd13ifvqbr0","pricing_plan_id":"cebpf4jnsgd1na2vs0mg"},{"bike_id":"965c6e2e-00d9-4046-b73d-f62e57eb5592","system_id":"levelo_inurba_marseille","lat":43.30976,"lon":5.39047,"is_reserved":false,"is_disabled":false,"rental_uris":{"android":"levelo://app?vid=965c6e2e-00d9-4046-b73d-f62e57eb5592","ios":"levelo://app?vid=965c6e2e-00d9-4046-b73d-f62e57eb5592"},"vehicle_type_id":"4","last_reported":1741774229,"current_range_meters":17200,"station_id":"ce4bgup2rcd13ifvqco0","pricing_plan_id":"cebpf4jnsgd1na2vs0mg"},{"bike_id":"a9a8f061-112f-49ae-bde7-04345c0f9571","system_id":"levelo_inurba_marseille","lat":43.311605,"lon":5.38722,"is_reserved":false,"is_disabled":false,"rental_uris":{"android":"levelo://app?vid=a9a8f061-112f-49ae-bde7-04345c0f9571","ios":"levelo://app?vid=a9a8f061-112f-49ae-bde7-04345c0f9571"},"vehicle_type_id":"4","last_reported":1741774229,"current_range_meters":17200,"station_id":"ce4bgv12rcd13ifvqcp0","pricing_plan_id":"cebpf4jnsgd1na2vs0mg"},{"bike_id":"94b30f95-19e8-4b24-809a-d279976d82ea","system_id":"levelo_inurba_marseille","lat":43.31356,"lon":5.396359,"is_reserved":false,"is_disabled":false,"rental_uris":{"android":"levelo://app?vid=94b30f95-19e8-4b24-809a-d279976d82ea","ios":"levelo://app?vid=94b30f95-19e8-4b24-809a-d279976d82ea"},"vehicle_type_id":"4","last_reported":1741774229,"current_range_meters":17200,"station_id":"ce4bgvp2rcd13ifvqcu0","pricing_plan_id":"cebpf4jnsgd1na2vs0mg"},{"bike_id":"2890b67d-79ce-49a4-a794-71e9792687a8","system_id":"levelo_inurba_marseille","lat":43.25116,"lon":5.40338,"is_reserved":false,"is_disabled":false,"rental_uris":{"android":"levelo://app?vid=2890b67d-79ce-49a4-a794-71e9792687a8","ios":"levelo://app?vid=2890b67d-79ce-49a4-a794-71e9792687a8"},"vehicle_type_id":"4","last_reported":1741774229,"current_range_meters":17200,"station_id":"ce4bhlh2rcd13ifvqgig","pricing_plan_id":"cebpf4jnsgd1na2vs0mg"},{"bike_id":"885ff003-ec85-480a-9687-77cb94ebb1b4","system_id":"levelo_inurba_marseille","lat":43.33609,"lon":5.41026,"is_reserved":false,"is_disabled":false,"rental_uris":{"android":"levelo://app?vid=885ff003-ec85-480a-9687-77cb94ebb1b4","ios":"levelo://app?vid=885ff003-ec85-480a-9687-77cb94ebb1b4"},"vehicle_type_id":"4","last_reported":1741774229,"current_range_meters":17200,"station_id":"ce4bhqh2rcd13ifvqhmg","pricing_plan_id":"cebpf4jnsgd1na2vs0mg"},{"bike_id":"a742c346-5270-4892-9c19-a4694828d3d8","system_id":"levelo_inurba_marseille","lat":43.30292,"lon":5.3771,"is_reserved":false,"is_disabled":false,"rental_uris":{"android":"levelo://app?vid=a742c346-5270-4892-9c19-a4694828d3d8","ios":"levelo://app?vid=a742c346-5270-4892-9c19-a4694828d3d8"},"vehicle_type_id":"4","last_reported":1741774229,"current_range_meters":17600,"station_id":"ce4bguh2rcd13ifvqcj0","pricing_plan_id":"cebpf4jnsgd1na2vs0mg"},{"bike_id":"b5572f99-4cb4-4704-ac92-22d4f2128344","system_id":"levelo_inurba_marseille","lat":43.27896,"lon":5.38011,"is_reserved":false,"is_disabled":false,"rental_uris":{"android":"levelo://app?vid=b5572f99-4cb4-4704-ac92-22d4f2128344","ios":"levelo://app?vid=b5572f99-4cb4-4704-ac92-22d4f2128344"},"vehicle_type_id":"4","last_reported":1741774229,"current_range_meters":17600,"station_id":"ce4bhf92rcd13ifvqf50","pricing_plan_id":"cebpf4jnsgd1na2vs0mg"},{"bike_id":"f550acae-a478-493d-8418-eb4ab17dc323","system_id":"levelo_inurba_marseille","lat":43.25026,"lon":5.3891,"is_reserved":false,"is_disabled":false,"rental_uris":{"android":"levelo://app?vid=f550acae-a478-493d-8418-eb4ab17dc323","ios":"levelo://app?vid=f550acae-a478-493d-8418-eb4ab17dc323"},"vehicle_type_id":"4","last_reported":1741774229,"current_range_meters":17600,"station_id":"ce4bhgp2rcd13ifvqfd0","pricing_plan_id":"cebpf4jnsgd1na2vs0mg"},{"bike_id":"ad906abc-b7a3-4881-a391-f3ba60929c52","system_id":"levelo_inurba_marseille","lat":43.29565,"lon":5.37498,"is_reserved":false,"is_disabled":false,"rental_uris":{"android":"levelo://app?vid=ad906abc-b7a3-4881-a391-f3ba60929c52","ios":"levelo://app?vid=ad906abc-b7a3-4881-a391-f3ba60929c52"},"vehicle_type_id":"4","last_reported":1741774229,"current_range_meters":18000,"station_id":"ce4bgh92rcd13ifvqb50","pricing_plan_id":"cebpf4jnsgd1na2vs0mg"},{"bike_id":"16f3eb24-4ec3-48f6-a46c-871ca20a13c8","system_id":"levelo_inurba_marseille","lat":43.29253,"lon":5.37623,"is_reserved":false,"is_disabled":false,"rental_uris":{"android":"levelo://app?vid=16f3eb24-4ec3-48f6-a46c-871ca20a13c8","ios":"levelo://app?vid=16f3eb24-4ec3-48f6-a46c-871ca20a13c8"},"vehicle_type_id":"4","last_reported":1741774229,"current_range_meters":18000,"station_id":"ce4bgi12rcd13ifvqb80","pricing_plan_id":"cebpf4jnsgd1na2vs0mg"},{"bike_id":"6edb5fce-7856-4724-99a8-e22b71732b62","system_id":"levelo_inurba_marseille","lat":43.30555,"lon":5.36545,"is_reserved":false,"is_disabled":false,"rental_uris":{"android":"levelo://app?vid=6edb5fce-7856-4724-99a8-e22b71732b62","ios":"levelo://app?vid=6edb5fce-7856-4724-99a8-e22b71732b62"},"vehicle_type_id":"4","last_reported":1741774229,"current_range_meters":18000,"station_id":"ce4bgs12rcd13ifvqcag","pricing_plan_id":"cebpf4jnsgd1na2vs0mg"},{"bike_id":"d3a582bb-e844-424a-be06-03d4001ccee4","system_id":"levelo_inurba_marseille","lat":43.31182,"lon":5.3871,"is_reserved":false,"is_disabled":false,"rental_uris":{"android":"levelo://app?vid=d3a582bb-e844-424a-be06-03d4001ccee4","ios":"levelo://app?vid=d3a582bb-e844-424a-be06-03d4001ccee4"},"vehicle_type_id":"4","last_reported":1741774229,"current_range_meters":18000,"station_id":"ce4bgv12rcd13ifvqcp0","pricing_plan_id":"cebpf4jnsgd1na2vs0mg"},{"bike_id":"a823fe98-0845-44f0-af70-a3e75e70ed04","system_id":"levelo_inurba_marseille","lat":43.25019,"lon":5.38925,"is_reserved":false,"is_disabled":false,"rental_uris":{"android":"levelo://app?vid=a823fe98-0845-44f0-af70-a3e75e70ed04","ios":"levelo://app?vid=a823fe98-0845-44f0-af70-a3e75e70ed04"},"vehicle_type_id":"4","last_reported":1741774229,"current_range_meters":18000,"station_id":"ce4bhgp2rcd13ifvqfd0","pricing_plan_id":"cebpf4jnsgd1na2vs0mg"},{"bike_id":"5af46931-f3ee-4f37-a67e-5d0a29a0f4e8","system_id":"levelo_inurba_marseille","lat":43.26777,"lon":5.39423,"is_reserved":false,"is_disabled":false,"rental_uris":{"android":"levelo://app?vid=5af46931-f3ee-4f37-a67e-5d0a29a0f4e8","ios":"levelo://app?vid=5af46931-f3ee-4f37-a67e-5d0a29a0f4e8"},"vehicle_type_id":"4","last_reported":1741774229,"current_range_meters":18000,"station_id":"ce4bhh12rcd13ifvqfg0","pricing_plan_id":"cebpf4jnsgd1na2vs0mg"},{"bike_id":"2c542a09-e66b-400a-a635-ed3442b0a9f5","system_id":"levelo_inurba_marseille","lat":43.23958,"lon":5.36646,"is_reserved":false,"is_disabled":false,"rental_uris":{"android":"levelo://app?vid=2c542a09-e66b-400a-a635-ed3442b0a9f5","ios":"levelo://app?vid=2c542a09-e66b-400a-a635-ed3442b0a9f5"},"vehicle_type_id":"4","last_reported":1741774229,"current_range_meters":18000,"station_id":"ce4bhi12rcd13ifvqfp0","pricing_plan_id":"cebpf4jnsgd1na2vs0mg"},{"bike_id":"5167d198-5092-4014-ae89-548e22f776e7","system_id":"levelo_inurba_marseille","lat":43.25829,"lon":5.39443,"is_reserved":false,"is_disabled":false,"rental_uris":{"android":"levelo://app?vid=5167d198-5092-4014-ae89-548e22f776e7","ios":"levelo://app?vid=5167d198-5092-4014-ae89-548e22f776e7"},"vehicle_type_id":"4","last_reported":1741774229,"current_range_meters":18000,"station_id":"ce4bhip2rcd13ifvqft0","pricing_plan_id":"cebpf4jnsgd1na2vs0mg"},{"bike_id":"3f5fb6ab-70c9-4053-9048-00f87210aeb7","system_id":"levelo_inurba_marseille","lat":43.24536,"lon":5.39518,"is_reserved":false,"is_disabled":false,"rental_uris":{"android":"levelo://app?vid=3f5fb6ab-70c9-4053-9048-00f87210aeb7","ios":"levelo://app?vid=3f5fb6ab-70c9-4053-9048-00f87210aeb7"},"vehicle_type_id":"4","last_reported":1741774229,"current_range_meters":18000,"station_id":"ce4bhlp2rcd13ifvqgjg","pricing_plan_id":"cebpf4jnsgd1na2vs0mg"},{"bike_id":"dd728069-2be6-4b0a-931b-c137e799ada3","system_id":"levelo_inurba_marseille","lat":43.259402,"lon":5.409016,"is_reserved":false,"is_disabled":false,"rental_uris":{"android":"levelo://app?vid=dd728069-2be6-4b0a-931b-c137e799ada3","ios":"levelo://app?vid=dd728069-2be6-4b0a-931b-c137e799ada3"},"vehicle_type_id":"4","last_reported":1741774229,"current_range_meters":18000,"station_id":"ce4bhm92rcd13ifvqglg","pricing_plan_id":"cebpf4jnsgd1na2vs0mg"},{"bike_id":"a71207bf-987b-453f-ad45-f7da76d9b586","system_id":"levelo_inurba_marseille","lat":43.2315,"lon":5.4371,"is_reserved":false,"is_disabled":false,"rental_uris":{"android":"levelo://app?vid=a71207bf-987b-453f-ad45-f7da76d9b586","ios":"levelo://app?vid=a71207bf-987b-453f-ad45-f7da76d9b586"},"vehicle_type_id":"4","last_reported":1741774229,"current_range_meters":18000,"station_id":"ce4bhmp2rcd13ifvqgog","pricing_plan_id":"cebpf4jnsgd1na2vs0mg"},{"bike_id":"138950fe-6475-45f2-9756-9aeb93c609d4","system_id":"levelo_inurba_marseille","lat":43.2417,"lon":5.39727,"is_reserved":false,"is_disabled":false,"rental_uris":{"android":"levelo://app?vid=138950fe-6475-45f2-9756-9aeb93c609d4","ios":"levelo://app?vid=138950fe-6475-45f2-9756-9aeb93c609d4"},"vehicle_type_id":"4","last_reported":1741774229,"current_range_meters":18000,"station_id":"ce4bhn12rcd13ifvqgpg","pricing_plan_id":"cebpf4jnsgd1na2vs0mg"},{"bike_id":"cd06313c-d9cb-4a80-8ba9-4f9e1f0cba80","system_id":"levelo_inurba_marseille","lat":43.336,"lon":5.41028,"is_reserved":false,"is_disabled":false,"rental_uris":{"android":"levelo://app?vid=cd06313c-d9cb-4a80-8ba9-4f9e1f0cba80","ios":"levelo://app?vid=cd06313c-d9cb-4a80-8ba9-4f9e1f0cba80"},"vehicle_type_id":"4","last_reported":1741774229,"current_range_meters":18000,"station_id":"ce4bhqh2rcd13ifvqhmg","pricing_plan_id":"cebpf4jnsgd1na2vs0mg"},{"bike_id":"d499aa7d-37fe-4efe-8d86-7fc011ad17ad","system_id":"levelo_inurba_marseille","lat":43.23049,"lon":5.35499,"is_reserved":false,"is_disabled":false,"rental_uris":{"android":"levelo://app?vid=d499aa7d-37fe-4efe-8d86-7fc011ad17ad","ios":"levelo://app?vid=d499aa7d-37fe-4efe-8d86-7fc011ad17ad"},"vehicle_type_id":"4","last_reported":1741774229,"current_range_meters":18000,"station_id":"cpo3342slgdg3j2ifvpg","pricing_plan_id":"cebpf4jnsgd1na2vs0mg"},{"bike_id":"074d2f38-da7a-4f22-b64a-2f3f58e57090","system_id":"levelo_inurba_marseille","lat":43.30809,"lon":5.38157,"is_reserved":false,"is_disabled":false,"rental_uris":{"android":"levelo://app?vid=074d2f38-da7a-4f22-b64a-2f3f58e57090","ios":"levelo://app?vid=074d2f38-da7a-4f22-b64a-2f3f58e57090"},"vehicle_type_id":"4","last_reported":1741774229,"current_range_meters":18800,"station_id":"ce4bgj92rcd13ifvqbd0","pricing_plan_id":"cebpf4jnsgd1na2vs0mg"},{"bike_id":"e17fdaa0-5c3e-4a96-8743-379bf9fc815d","system_id":"levelo_inurba_marseille","lat":43.29835,"lon":5.36267,"is_reserved":false,"is_disabled":false,"rental_uris":{"android":"levelo://app?vid=e17fdaa0-5c3e-4a96-8743-379bf9fc815d","ios":"levelo://app?vid=e17fdaa0-5c3e-4a96-8743-379bf9fc815d"},"vehicle_type_id":"4","last_reported":1741774229,"current_range_meters":18800,"station_id":"ce4bgpp2rcd13ifvqc3g","pricing_plan_id":"cebpf4jnsgd1na2vs0mg"},{"bike_id":"7d5351c9-c272-40e5-b16b-60da7ac07b77","system_id":"levelo_inurba_marseille","lat":43.24993,"lon":5.38932,"is_reserved":false,"is_disabled":false,"rental_uris":{"android":"levelo://app?vid=7d5351c9-c272-40e5-b16b-60da7ac07b77","ios":"levelo://app?vid=7d5351c9-c272-40e5-b16b-60da7ac07b77"},"vehicle_type_id":"4","last_reported":1741774229,"current_range_meters":18800,"station_id":"ce4bhgp2rcd13ifvqfd0","pricing_plan_id":"cebpf4jnsgd1na2vs0mg"},{"bike_id":"301d459d-7abc-4914-b044-2024c77c38b3","system_id":"levelo_inurba_marseille","lat":43.26212,"lon":5.37929,"is_reserved":false,"is_disabled":false,"rental_uris":{"android":"levelo://app?vid=301d459d-7abc-4914-b044-2024c77c38b3","ios":"levelo://app?vid=301d459d-7abc-4914-b044-2024c77c38b3"},"vehicle_type_id":"4","last_reported":1741774229,"current_range_meters":18800,"station_id":"ce4bhjp2rcd13ifvqg90","pricing_plan_id":"cebpf4jnsgd1na2vs0mg"},{"bike_id":"c5d8973d-fd64-4d11-9ce5-bfbcccc8d546","system_id":"levelo_inurba_marseille","lat":43.30089,"lon":5.39072,"is_reserved":false,"is_disabled":false,"rental_uris":{"android":"levelo://app?vid=c5d8973d-fd64-4d11-9ce5-bfbcccc8d546","ios":"levelo://app?vid=c5d8973d-fd64-4d11-9ce5-bfbcccc8d546"},"vehicle_type_id":"4","last_reported":1741774229,"current_range_meters":19200,"station_id":"ce4bh192rcd13ifvqdb0","pricing_plan_id":"cebpf4jnsgd1na2vs0mg"},{"bike_id":"cd6f362f-25b2-4037-a5e5-fdc63e984209","system_id":"levelo_inurba_marseille","lat":43.2315,"lon":5.43708,"is_reserved":false,"is_disabled":false,"rental_uris":{"android":"levelo://app?vid=cd6f362f-25b2-4037-a5e5-fdc63e984209","ios":"levelo://app?vid=cd6f362f-25b2-4037-a5e5-fdc63e984209"},"vehicle_type_id":"4","last_reported":1741774229,"current_range_meters":19200,"station_id":"ce4bhmp2rcd13ifvqgog","pricing_plan_id":"cebpf4jnsgd1na2vs0mg"},{"bike_id":"bb29cae9-3f04-4ae6-98f5-8815afa59921","system_id":"levelo_inurba_marseille","lat":43.30149,"lon":5.38087,"is_reserved":false,"is_disabled":false,"rental_uris":{"android":"levelo://app?vid=bb29cae9-3f04-4ae6-98f5-8815afa59921","ios":"levelo://app?vid=bb29cae9-3f04-4ae6-98f5-8815afa59921"},"vehicle_type_id":"4","last_reported":1741774229,"current_range_meters":19600,"station_id":"ce4bgjp2rcd13ifvqbh0","pricing_plan_id":"cebpf4jnsgd1na2vs0mg"},{"bike_id":"054b60c6-5971-460b-bb10-54c67838f7a0","system_id":"levelo_inurba_marseille","lat":43.31342,"lon":5.36687,"is_reserved":false,"is_disabled":false,"rental_uris":{"android":"levelo://app?vid=054b60c6-5971-460b-bb10-54c67838f7a0","ios":"levelo://app?vid=054b60c6-5971-460b-bb10-54c67838f7a0"},"vehicle_type_id":"4","last_reported":1741774229,"current_range_meters":19600,"station_id":"ce4bgr92rcd13ifvqc6g","pricing_plan_id":"cebpf4jnsgd1na2vs0mg"},{"bike_id":"0756db4f-7ce5-40f5-8588-5172b4f8eeaf","system_id":"levelo_inurba_marseille","lat":43.30144,"lon":5.37412,"is_reserved":false,"is_disabled":false,"rental_uris":{"android":"levelo://app?vid=0756db4f-7ce5-40f5-8588-5172b4f8eeaf","ios":"levelo://app?vid=0756db4f-7ce5-40f5-8588-5172b4f8eeaf"},"vehicle_type_id":"4","last_reported":1741774229,"current_range_meters":19600,"station_id":"ce4bgs92rcd13ifvqcc0","pricing_plan_id":"cebpf4jnsgd1na2vs0mg"},{"bike_id":"a1a4bddc-5e60-4c70-9431-b863c285a7a1","system_id":"levelo_inurba_marseille","lat":43.31704,"lon":5.37726,"is_reserved":false,"is_disabled":false,"rental_uris":{"android":"levelo://app?vid=a1a4bddc-5e60-4c70-9431-b863c285a7a1","ios":"levelo://app?vid=a1a4bddc-5e60-4c70-9431-b863c285a7a1"},"vehicle_type_id":"4","last_reported":1741774229,"current_range_meters":19600,"station_id":"ce4bgth2rcd13ifvqch0","pricing_plan_id":"cebpf4jnsgd1na2vs0mg"},{"bike_id":"ad3abe1b-5d5b-460d-8e8f-c282b2959aa2","system_id":"levelo_inurba_marseille","lat":43.3126,"lon":5.39635,"is_reserved":false,"is_disabled":false,"rental_uris":{"android":"levelo://app?vid=ad3abe1b-5d5b-460d-8e8f-c282b2959aa2","ios":"levelo://app?vid=ad3abe1b-5d5b-460d-8e8f-c282b2959aa2"},"vehicle_type_id":"4","last_reported":1741774229,"current_range_meters":19600,"station_id":"ce4bgvp2rcd13ifvqcu0","pricing_plan_id":"cebpf4jnsgd1na2vs0mg"},{"bike_id":"9d5c6f66-5ffc-4f1c-98ec-076956a105d4","system_id":"levelo_inurba_marseille","lat":43.287166,"lon":5.379343,"is_reserved":false,"is_disabled":false,"rental_uris":{"android":"levelo://app?vid=9d5c6f66-5ffc-4f1c-98ec-076956a105d4","ios":"levelo://app?vid=9d5c6f66-5ffc-4f1c-98ec-076956a105d4"},"vehicle_type_id":"4","last_reported":1741774229,"current_range_meters":19600,"station_id":"ce4bh9p2rcd13ifvqec0","pricing_plan_id":"cebpf4jnsgd1na2vs0mg"},{"bike_id":"5c68ac46-3edb-4873-87d3-9b8dbad7cc54","system_id":"levelo_inurba_marseille","lat":43.26686,"lon":5.38253,"is_reserved":false,"is_disabled":false,"rental_uris":{"android":"levelo://app?vid=5c68ac46-3edb-4873-87d3-9b8dbad7cc54","ios":"levelo://app?vid=5c68ac46-3edb-4873-87d3-9b8dbad7cc54"},"vehicle_type_id":"4","last_reported":1741774229,"current_range_meters":19600,"station_id":"ce4bhg92rcd13ifvqf90","pricing_plan_id":"cebpf4jnsgd1na2vs0mg"},{"bike_id":"e882589a-5165-4ed5-b14e-776fe9fd5ca5","system_id":"levelo_inurba_marseille","lat":43.26929,"lon":5.3892,"is_reserved":false,"is_disabled":false,"rental_uris":{"android":"levelo://app?vid=e882589a-5165-4ed5-b14e-776fe9fd5ca5","ios":"levelo://app?vid=e882589a-5165-4ed5-b14e-776fe9fd5ca5"},"vehicle_type_id":"4","last_reported":1741774229,"current_range_meters":19600,"station_id":"ce4bhhh2rcd13ifvqfl0","pricing_plan_id":"cebpf4jnsgd1na2vs0mg"},{"bike_id":"9b665522-2639-45b0-bd52-d9f8cfad2bac","system_id":"levelo_inurba_marseille","lat":43.25737,"lon":5.41094,"is_reserved":false,"is_disabled":false,"rental_uris":{"android":"levelo://app?vid=9b665522-2639-45b0-bd52-d9f8cfad2bac","ios":"levelo://app?vid=9b665522-2639-45b0-bd52-d9f8cfad2bac"},"vehicle_type_id":"4","last_reported":1741774229,"current_range_meters":19600,"station_id":"ce4bhkp2rcd13ifvqgd0","pricing_plan_id":"cebpf4jnsgd1na2vs0mg"},{"bike_id":"fc2a4baf-d2e8-4da2-9d9d-1ac23ba27ff4","system_id":"levelo_inurba_marseille","lat":43.25936,"lon":5.4091,"is_reserved":false,"is_disabled":false,"rental_uris":{"android":"levelo://app?vid=fc2a4baf-d2e8-4da2-9d9d-1ac23ba27ff4","ios":"levelo://app?vid=fc2a4baf-d2e8-4da2-9d9d-1ac23ba27ff4"},"vehicle_type_id":"4","last_reported":1741774229,"current_range_meters":19600,"station_id":"ce4bhm92rcd13ifvqglg","pricing_plan_id":"cebpf4jnsgd1na2vs0mg"},{"bike_id":"a8e6facd-0ed9-4fb1-a796-3934f52346fc","system_id":"levelo_inurba_marseille","lat":43.32109,"lon":5.36774,"is_reserved":false,"is_disabled":false,"rental_uris":{"android":"levelo://app?vid=a8e6facd-0ed9-4fb1-a796-3934f52346fc","ios":"levelo://app?vid=a8e6facd-0ed9-4fb1-a796-3934f52346fc"},"vehicle_type_id":"4","last_reported":1741774229,"current_range_meters":19600,"station_id":"ce4bhrh2rcd13ifvqhug","pricing_plan_id":"cebpf4jnsgd1na2vs0mg"},{"bike_id":"a80563ae-6e8b-469b-a990-a5f4874c66a6","system_id":"levelo_inurba_marseille","lat":43.30542,"lon":5.365488,"is_reserved":false,"is_disabled":false,"rental_uris":{"android":"levelo://app?vid=a80563ae-6e8b-469b-a990-a5f4874c66a6","ios":"levelo://app?vid=a80563ae-6e8b-469b-a990-a5f4874c66a6"},"vehicle_type_id":"4","last_reported":1741774229,"current_range_meters":20000,"station_id":"ce4bgs12rcd13ifvqcag","pricing_plan_id":"cebpf4jnsgd1na2vs0mg"},{"bike_id":"2692ecec-5758-4add-8b2c-3833eb14a18b","system_id":"levelo_inurba_marseille","lat":43.31131,"lon":5.37779,"is_reserved":false,"is_disabled":false,"rental_uris":{"android":"levelo://app?vid=2692ecec-5758-4add-8b2c-3833eb14a18b","ios":"levelo://app?vid=2692ecec-5758-4add-8b2c-3833eb14a18b"},"vehicle_type_id":"4","last_reported":1741774229,"current_range_meters":20000,"station_id":"ce4bgt92rcd13ifvqcg0","pricing_plan_id":"cebpf4jnsgd1na2vs0mg"},{"bike_id":"a5114c03-ba94-4867-b4ce-fa7b110e88e4","system_id":"levelo_inurba_marseille","lat":43.30466,"lon":5.3791,"is_reserved":false,"is_disabled":false,"rental_uris":{"android":"levelo://app?vid=a5114c03-ba94-4867-b4ce-fa7b110e88e4","ios":"levelo://app?vid=a5114c03-ba94-4867-b4ce-fa7b110e88e4"},