{"last_updated":1687705607,"ttl":30,"version":"2.2","data":{"bikes":[{"bike_id":"574b0a1c-fec8-48b0-8d9f-4fee07673be3","system_id":"levelo_inurba_marseille","lat":43.31237,"lon":5.36922,"is_reserved":false,"is_disabled":false,"rental_uris":{"android":"levelo://app?vid=574b0a1c-fec8-48b0-8d9f-4fee07673be3","ios":"levelo://app?vid=574b0a1c-fec8-48b0-8d9f-4fee07673be3"},"vehicle_type_id":"4","last_reported":1687705608,"current_range_meters":19600,"station_id":"","pricing_plan_id":"free"},{"bike_id":"2362d78b-e06a-4866-a0a1-7346cde59c6d","system_id":"levelo_inurba_marseille","lat":43.31629,"lon":5.36639,"is_reserved":false,"is_disabled":false,"rental_uris":{"android":"levelo://app?vid=2362d78b-e06a-4866-a0a1-7346cde59c6d","ios":"levelo://app?vid=2362d78b-e06a-4866-a0a1-7346cde59c6d"},"vehicle_type_id":"4","last_reported":1687705608,"current_range_meters":16000,"station_id":"","pricing_plan_id":"free"},{"bike_id":"7d012cd9-992b-42d1-bf5d-06d37eabb549","system_id":"levelo_inurba_marseille","lat":43.314811,"lon":5.373104,"is_reserved":false,"is_disabled":false,"rental_uris":{"android":"levelo://app?vid=7d012cd9-992b-42d1-bf5d-06d37eabb549","ios":"levelo://app?vid=7d012cd9-992b-42d1-bf5d-06d37eabb549"},"vehicle_type_id":"4","last_reported":1687705608,"current_range_meters":18400,"station_id":"ce4bgt12rcd13ifvqcd0","pricing_plan_id":"free"},{"bike_id":"d46b25f1-c5e0-4412-a5a3-d568e24bb6ff","system_id":"levelo_inurba_marseille","lat":43.314811,"lon":5.373103,"is_reserved":false,"is_disabled":false,"rental_uris":{"android":"levelo://app?vid=d46b25f1-c5e0-4412-a5a3-d568e24bb6ff","ios":"levelo://app?vid=d46b25f1-c5e0-4412-a5a3-d568e24bb6ff"},"vehicle_type_id":"4","last_reported":1687705608,"current_range_meters":8400,"station_id":"ce4bgt12rcd13ifvqcd0","pricing_plan_id":"free"},{"bike_id":"cb8b1387-d8af-42e0-b4a9-acc526dd9ff5","system_id":"levelo_inurba_marseille","lat":43.31775,"lon":5.37781,"is_reserved":false,"is_disabled":false,"rental_uris":{"android":"levelo://app?vid=cb8b1387-d8af-42e0-b4a9-acc526dd9ff5","ios":"levelo://app?vid=cb8b1387-d8af-42e0-b4a9-acc526dd9ff5"},"vehicle_type_id":"4","last_reported":1687705608,"current_range_meters":23600,"station_id":"","pricing_plan_id":"free"},{"bike_id":"6923d93a-8778-47a0-8c72-25449f608c18","system_id":"levelo_inurba_marseille","lat":43.31537,"lon":5.38039,"is_reserved":false,"is_disabled":false,"rental_uris":{"android":"levelo://app?vid=6923d93a-8778-47a0-8c72-25449f608c18","ios":"levelo://app?vid=6923d93a-8778-47a0-8c72-25449f608c18"},"vehicle_type_id":"4","last_reported":1687705608,"current_range_meters":21200,"station_id":"ce4bhsp2rcd13ifvqi50","pricing_plan_id":"free"},{"bike_id":"f1b68414-b8ac-4183-a999-0bfa20e50c47","system_id":"levelo_inurba_marseille","lat":43.31533,"lon":5.38042,"is_reserved":false,"is_disabled":false,"rental_uris":{"android":"levelo://app?vid=f1b68414-b8ac-4183-a999-0bfa20e50c47","ios":"levelo://app?vid=f1b68414-b8ac-4183-a999-0bfa20e50c47"},"vehicle_type_id":"4","last_reported":1687705608,"current_range_meters":16400,"station_id":"ce4bhsp2rcd13ifvqi50","pricing_plan_id":"free"},{"bike_id":"923d8300-f1a4-4e55-9860-17fac09e1efc","system_id":"levelo_inurba_marseille","lat":43.31529,"lon":5.3805,"is_reserved":false,"is_disabled":false,"rental_uris":{"android":"levelo://app?vid=923d8300-f1a4-4e55-9860-17fac09e1efc","ios":"levelo://app?vid=923d8300-f1a4-4e55-9860-17fac09e1efc"},"vehicle_type_id":"4","last_reported":1687705608,"current_range_meters":27600,"station_id":"ce4bhsp2rcd13ifvqi50","pricing_plan_id":"free"},{"bike_id":"7961c058-6bbf-43fe-9e62-f3ba9264f471","system_id":"levelo_inurba_marseille","lat":43.30242,"lon":5.37375,"is_reserved":false,"is_disabled":false,"rental_uris":{"android":"levelo://app?vid=7961c058-6bbf-43fe-9e62-f3ba9264f471","ios":"levelo://app?vid=7961c058-6bbf-43fe-9e62-f3ba9264f471"},"vehicle_type_id":"4","last_reported":1687705608,"current_range_meters":4800,"station_id":"","pricing_plan_id":"free"},{"bike_id":"e3822cb4-b74d-4047-a99b-41b424ccc07c","system_id":"levelo_inurba_marseille","lat":43.30469,"lon":5.37898,"is_reserved":false,"is_disabled":false,"rental_uris":{"android":"levelo://app?vid=e3822cb4-b74d-4047-a99b-41b424ccc07c","ios":"levelo://app?vid=e3822cb4-b74d-4047-a99b-41b424ccc07c"},"vehicle_type_id":"4","last_reported":1687705608,"current_range_meters":14800,"station_id":"ce4bgup2rcd13ifvqcn0","pricing_plan_id":"free"},{"bike_id":"e65b7058-0d99-4794-8ede-3562361675a9","system_id":"levelo_inurba_marseille","lat":43.304606,"lon":5.379026,"is_reserved":false,"is_disabled":false,"rental_uris":{"android":"levelo://app?vid=e65b7058-0d99-4794-8ede-3562361675a9","ios":"levelo://app?vid=e65b7058-0d99-4794-8ede-3562361675a9"},"vehicle_type_id":"4","last_reported":1687705608,"current_range_meters":0,"station_id":"ce4bgup2rcd13ifvqcn0","pricing_plan_id":"free"},{"bike_id":"c4db9c16-fca8-48a7-b95f-e521df0bcdac","system_id":"levelo_inurba_marseille","lat":43.302784,"lon":5.377158,"is_reserved":false,"is_disabled":false,"rental_uris":{"android":"levelo://app?vid=c4db9c16-fca8-48a7-b95f-e521df0bcdac","ios":"levelo://app?vid=c4db9c16-fca8-48a7-b95f-e521df0bcdac"},"vehicle_type_id":"4","last_reported":1687705608,"current_range_meters":16400,"station_id":"ce4bguh2rcd13ifvqcj0","pricing_plan_id":"free"},{"bike_id":"e5564a1b-7eaa-42d7-9eac-0b69cc97b61e","system_id":"levelo_inurba_marseille","lat":43.319935,"lon":5.381699,"is_reserved":false,"is_disabled":false,"rental_uris":{"android":"levelo://app?vid=e5564a1b-7eaa-42d7-9eac-0b69cc97b61e","ios":"levelo://app?vid=e5564a1b-7eaa-42d7-9eac-0b69cc97b61e"},"vehicle_type_id":"4","last_reported":1687705608,"current_range_meters":15200,"station_id":"ce4bhr12rcd13ifvqhpg","pricing_plan_id":"free"},{"bike_id":"25bcc21c-84b0-43f8-8ed1-2713382bd734","system_id":"levelo_inurba_marseille","lat":43.319935,"lon":5.381699,"is_reserved":false,"is_disabled":false,"rental_uris":{"android":"levelo://app?vid=25bcc21c-84b0-43f8-8ed1-2713382bd734","ios":"levelo://app?vid=25bcc21c-84b0-43f8-8ed1-2713382bd734"},"vehicle_type_id":"4","last_reported":1687705608,"current_range_meters":22400,"station_id":"ce4bhr12rcd13ifvqhpg","pricing_plan_id":"free"},{"bike_id":"7e9a47a8-5d6c-4e19-9cd5-24ee65ebc02d","system_id":"levelo_inurba_marseille","lat":43.319935,"lon":5.381699,"is_reserved":false,"is_disabled":false,"rental_uris":{"android":"levelo://app?vid=7e9a47a8-5d6c-4e19-9cd5-24ee65ebc02d","ios":"levelo://app?vid=7e9a47a8-5d6c-4e19-9cd5-24ee65ebc02d"},"vehicle_type_id":"4","last_reported":1687705608,"current_range_meters":28000,"station_id":"ce4bhr12rcd13ifvqhpg","pricing_plan_id":"free"},{"bike_id":"9fb2af00-a3bb-4d59-9a9c-bf6fb58d47f0","system_id":"levelo_inurba_marseille","lat":43.319935,"lon":5.381699,"is_reserved":false,"is_disabled":false,"rental_uris":{"android":"levelo://app?vid=9fb2af00-a3bb-4d59-9a9c-bf6fb58d47f0","ios":"levelo://app?vid=9fb2af00-a3bb-4d59-9a9c-bf6fb58d47f0"},"vehicle_type_id":"4","last_reported":1687705608,"current_range_meters":30000,"station_id":"ce4bhr12rcd13ifvqhpg","pricing_plan_id":"free"},{"bike_id":"8d8e0424-a554-44d1-aac7-2925f426b147","system_id":"levelo_inurba_marseille","lat":43.319935,"lon":5.381699,"is_reserved":false,"is_disabled":false,"rental_uris":{"android":"levelo://app?vid=8d8e0424-a554-44d1-aac7-2925f426b147","ios":"levelo://app?vid=8d8e0424-a554-44d1-aac7-2925f426b147"},"vehicle_type_id":"4","last_reported":1687705608,"current_range_meters":6800,"station_id":"ce4bhr12rcd13ifvqhpg","pricing_plan_id":"free"},{"bike_id":"c3a514fe-e9af-4e21-bb52-4bdde2a1cd48","system_id":"levelo_inurba_marseille","lat":43.313571,"lon":5.384829,"is_reserved":false,"is_disabled":false,"rental_uris":{"android":"levelo://app?vid=c3a514fe-e9af-4e21-bb52-4bdde2a1cd48","ios":"levelo://app?vid=c3a514fe-e9af-4e21-bb52-4bdde2a1cd48"},"vehicle_type_id":"4","last_reported":1687705608,"current_range_meters":19600,"station_id":"ce4bgt92rcd13ifvqcf0","pricing_plan_id":"free"},{"bike_id":"885fb6ec-a6a0-4881-8d5b-a8e74141b88d","system_id":"levelo_inurba_marseille","lat":43.31353,"lon":5.38508,"is_reserved":false,"is_disabled":false,"rental_uris":{"android":"levelo://app?vid=885fb6ec-a6a0-4881-8d5b-a8e74141b88d","ios":"levelo://app?vid=885fb6ec-a6a0-4881-8d5b-a8e74141b88d"},"vehicle_type_id":"4","last_reported":1687705608,"current_range_meters":30000,"station_id":"ce4bgt92rcd13ifvqcf0","pricing_plan_id":"free"},{"bike_id":"3b89e0ac-f670-423a-bc3a-b20518717e68","system_id":"levelo_inurba_marseille","lat":43.299222,"lon":5.365554,"is_reserved":false,"is_disabled":false,"rental_uris":{"android":"levelo://app?vid=3b89e0ac-f670-423a-bc3a-b20518717e68","ios":"levelo://app?vid=3b89e0ac-f670-423a-bc3a-b20518717e68"},"vehicle_type_id":"4","last_reported":1687705608,"current_range_meters":4000,"station_id":"ce4bgm92rcd13ifvqbr0","pricing_plan_id":"free"},{"bike_id":"1580a472-182f-4d91-8a6c-4c3a23a9c034","system_id":"levelo_inurba_marseille","lat":43.302,"lon":5.3821,"is_reserved":false,"is_disabled":false,"rental_uris":{"android":"levelo://app?vid=1580a472-182f-4d91-8a6c-4c3a23a9c034","ios":"levelo://app?vid=1580a472-182f-4d91-8a6c-4c3a23a9c034"},"vehicle_type_id":"4","last_reported":1687705608,"current_range_meters":13200,"station_id":"","pricing_plan_id":"free"},{"bike_id":"cbdd73a9-8831-4dab-9e8d-2ce4e630f6d2","system_id":"levelo_inurba_marseille","lat":43.328371,"lon":5.366909,"is_reserved":false,"is_disabled":false,"rental_uris":{"android":"levelo://app?vid=cbdd73a9-8831-4dab-9e8d-2ce4e630f6d2","ios":"levelo://app?vid=cbdd73a9-8831-4dab-9e8d-2ce4e630f6d2"},"vehicle_type_id":"4","last_reported":1687705608,"current_range_meters":26000,"station_id":"ce4bhs92rcd13ifvqi0g","pricing_plan_id":"free"},{"bike_id":"84310711-9ffd-45bf-a8e1-79683581878e","system_id":"levelo_inurba_marseille","lat":43.328371,"lon":5.366909,"is_reserved":false,"is_disabled":false,"rental_uris":{"android":"levelo://app?vid=84310711-9ffd-45bf-a8e1-79683581878e","ios":"levelo://app?vid=84310711-9ffd-45bf-a8e1-79683581878e"},"vehicle_type_id":"4","last_reported":1687705608,"current_range_meters":21600,"station_id":"ce4bhs92rcd13ifvqi0g","pricing_plan_id":"free"},{"bike_id":"5ff46439-b446-4022-b673-e754ffaf071b","system_id":"levelo_inurba_marseille","lat":43.32832,"lon":5.36681,"is_reserved":false,"is_disabled":false,"rental_uris":{"android":"levelo://app?vid=5ff46439-b446-4022-b673-e754ffaf071b","ios":"levelo://app?vid=5ff46439-b446-4022-b673-e754ffaf071b"},"vehicle_type_id":"4","last_reported":1687705608,"current_range_meters":5200,"station_id":"ce4bhs92rcd13ifvqi0g","pricing_plan_id":"free"},{"bike_id":"6c6205e5-5698-4933-afb2-7335e6b4ae8b","system_id":"levelo_inurba_marseille","lat":43.32833,"lon":5.36684,"is_reserved":false,"is_disabled":false,"rental_uris":{"android":"levelo://app?vid=6c6205e5-5698-4933-afb2-7335e6b4ae8b","ios":"levelo://app?vid=6c6205e5-5698-4933-afb2-7335e6b4ae8b"},"vehicle_type_id":"4","last_reported":1687705608,"current_range_meters":4800,"station_id":"ce4bhs92rcd13ifvqi0g","pricing_plan_id":"free"},{"bike_id":"8b17aad1-d072-4063-bcd5-d1dd5ac05981","system_id":"levelo_inurba_marseille","lat":43.32834,"lon":5.36689,"is_reserved":false,"is_disabled":false,"rental_uris":{"android":"levelo://app?vid=8b17aad1-d072-4063-bcd5-d1dd5ac05981","ios":"levelo://app?vid=8b17aad1-d072-4063-bcd5-d1dd5ac05981"},"vehicle_type_id":"4","last_reported":1687705608,"current_range_meters":30400,"station_id":"ce4bhs92rcd13ifvqi0g","pricing_plan_id":"free"},{"bike_id":"9823f69b-7618-447c-88b9-9a8290da0996","system_id":"levelo_inurba_marseille","lat":43.32834,"lon":5.36683,"is_reserved":false,"is_disabled":false,"rental_uris":{"android":"levelo://app?vid=9823f69b-7618-447c-88b9-9a8290da0996","ios":"levelo://app?vid=9823f69b-7618-447c-88b9-9a8290da0996"},"vehicle_type_id":"4","last_reported":1687705608,"current_range_meters":9600,"station_id":"ce4bhs92rcd13ifvqi0g","pricing_plan_id":"free"},{"bike_id":"8cd194c3-4946-47d4-8472-6a93aa928d08","system_id":"levelo_inurba_marseille","lat":43.32834,"lon":5.36681,"is_reserved":false,"is_disabled":false,"rental_uris":{"android":"levelo://app?vid=8cd194c3-4946-47d4-8472-6a93aa928d08","ios":"levelo://app?vid=8cd194c3-4946-47d4-8472-6a93aa928d08"},"vehicle_type_id":"4","last_reported":1687705608,"current_range_meters":25600,"station_id":"ce4bhs92rcd13ifvqi0g","pricing_plan_id":"free"},{"bike_id":"dd0a6546-b8f4-4620-ae02-5768d70d2dbe","system_id":"levelo_inurba_marseille","lat":43.32834,"lon":5.36674,"is_reserved":false,"is_disabled":false,"rental_uris":{"android":"levelo://app?vid=dd0a6546-b8f4-4620-ae02-5768d70d2dbe","ios":"levelo://app?vid=dd0a6546-b8f4-4620-ae02-5768d70d2dbe"},"vehicle_type_id":"4","last_reported":1687705608,"current_range_meters":21600,"station_id":"ce4bhs92rcd13ifvqi0g","pricing_plan_id":"free"},{"bike_id":"79ee5ec9-a0d0-4b0b-90f7-465073c65cd9","system_id":"levelo_inurba_marseille","lat":43.297163,"lon":5.365866,"is_reserved":false,"is_disabled":false,"rental_uris":{"android":"levelo://app?vid=79ee5ec9-a0d0-4b0b-90f7-465073c65cd9","ios":"levelo://app?vid=79ee5ec9-a0d0-4b0b-90f7-465073c65cd9"},"vehicle_type_id":"4","last_reported":1687705608,"current_range_meters":5200,"station_id":"ce4bgn12rcd13ifvqbt0","pricing_plan_id":"free"},{"bike_id":"63114871-b383-4764-908c-0e52d89a9288","system_id":"levelo_inurba_marseille","lat":43.297163,"lon":5.365866,"is_reserved":false,"is_disabled":false,"rental_uris":{"android":"levelo://app?vid=63114871-b383-4764-908c-0e52d89a9288","ios":"levelo://app?vid=63114871-b383-4764-908c-0e52d89a9288"},"vehicle_type_id":"4","last_reported":1687705608,"current_range_meters":11600,"station_id":"ce4bgn12rcd13ifvqbt0","pricing_plan_id":"free"},{"bike_id":"8d98417a-cbe4-4269-8bc9-598373a7d5de","system_id":"levelo_inurba_marseille","lat":43.32855,"lon":5.3628,"is_reserved":false,"is_disabled":false,"rental_uris":{"android":"levelo://app?vid=8d98417a-cbe4-4269-8bc9-598373a7d5de","ios":"levelo://app?vid=8d98417a-cbe4-4269-8bc9-598373a7d5de"},"vehicle_type_id":"4","last_reported":1687705608,"current_range_meters":17200,"station_id":"","pricing_plan_id":"free"},{"bike_id":"05582dbb-c12c-44dc-9abf-c4a679a1d9c8","system_id":"levelo_inurba_marseille","lat":43.29617,"lon":5.37156,"is_reserved":false,"is_disabled":false,"rental_uris":{"android":"levelo://app?vid=05582dbb-c12c-44dc-9abf-c4a679a1d9c8","ios":"levelo://app?vid=05582dbb-c12c-44dc-9abf-c4a679a1d9c8"},"vehicle_type_id":"4","last_reported":1687705608,"current_range_meters":13200,"station_id":"","pricing_plan_id":"free"},{"bike_id":"041bc147-ef2f-419b-bb81-deca3bdf89e2","system_id":"levelo_inurba_marseille","lat":43.29611,"lon":5.36046,"is_reserved":false,"is_disabled":false,"rental_uris":{"android":"levelo://app?vid=041bc147-ef2f-419b-bb81-deca3bdf89e2","ios":"levelo://app?vid=041bc147-ef2f-419b-bb81-deca3bdf89e2"},"vehicle_type_id":"4","last_reported":1687705608,"current_range_meters":2800,"station_id":"","pricing_plan_id":"free"},{"bike_id":"2ec1e0ad-437f-444f-9141-f2e9375cc2f1","system_id":"levelo_inurba_marseille","lat":43.309589,"lon":5.390258,"is_reserved":false,"is_disabled":false,"rental_uris":{"android":"levelo://app?vid=2ec1e0ad-437f-444f-9141-f2e9375cc2f1","ios":"levelo://app?vid=2ec1e0ad-437f-444f-9141-f2e9375cc2f1"},"vehicle_type_id":"4","last_reported":1687705608,"current_range_meters":22000,"station_id":"ce4bgup2rcd13ifvqco0","pricing_plan_id":"free"},{"bike_id":"ac95b105-7f02-4b47-9abf-0230e64e9d09","system_id":"levelo_inurba_marseille","lat":43.317557,"lon":5.390173,"is_reserved":false,"is_disabled":false,"rental_uris":{"android":"levelo://app?vid=ac95b105-7f02-4b47-9abf-0230e64e9d09","ios":"levelo://app?vid=ac95b105-7f02-4b47-9abf-0230e64e9d09"},"vehicle_type_id":"4","last_reported":1687705608,"current_range_meters":3600,"station_id":"ce4bhqp2rcd13ifvqhng","pricing_plan_id":"free"},{"bike_id":"3ecb1419-ec96-4c17-8e0a-de207f3a5e04","system_id":"levelo_inurba_marseille","lat":43.31753,"lon":5.39005,"is_reserved":false,"is_disabled":false,"rental_uris":{"android":"levelo://app?vid=3ecb1419-ec96-4c17-8e0a-de207f3a5e04","ios":"levelo://app?vid=3ecb1419-ec96-4c17-8e0a-de207f3a5e04"},"vehicle_type_id":"4","last_reported":1687705608,"current_range_meters":28000,"station_id":"ce4bhqp2rcd13ifvqhng","pricing_plan_id":"free"},{"bike_id":"66deba41-70fb-47db-9278-294a1273ae2b","system_id":"levelo_inurba_marseille","lat":43.304278,"lon":5.388868,"is_reserved":false,"is_disabled":false,"rental_uris":{"android":"levelo://app?vid=66deba41-70fb-47db-9278-294a1273ae2b","ios":"levelo://app?vid=66deba41-70fb-47db-9278-294a1273ae2b"},"vehicle_type_id":"4","last_reported":1687705608,"current_range_meters":24400,"station_id":"ce4bgk12rcd13ifvqbi0","pricing_plan_id":"free"},{"bike_id":"4bf18ca7-6e76-4de1-8f9c-60b629bdf947","system_id":"levelo_inurba_marseille","lat":43.29571,"lon":5.37521,"is_reserved":false,"is_disabled":false,"rental_uris":{"android":"levelo://app?vid=4bf18ca7-6e76-4de1-8f9c-60b629bdf947","ios":"levelo://app?vid=4bf18ca7-6e76-4de1-8f9c-60b629bdf947"},"vehicle_type_id":"4","last_reported":1687705608,"current_range_meters":4000,"station_id":"","pricing_plan_id":"free"},{"bike_id":"b74eabc4-65a4-45e7-81ac-f0512494c9dc","system_id":"levelo_inurba_marseille","lat":43.304278,"lon":5.388868,"is_reserved":false,"is_disabled":false,"rental_uris":{"android":"levelo://app?vid=b74eabc4-65a4-45e7-81ac-f0512494c9dc","ios":"levelo://app?vid=b74eabc4-65a4-45e7-81ac-f0512494c9dc"},"vehicle_type_id":"4","last_reported":1687705608,"current_range_meters":0,"station_id":"ce4bgk12rcd13ifvqbi0","pricing_plan_id":"free"},{"bike_id":"874a7e43-bfe1-4a16-9476-4ae33cf4a1c9","system_id":"levelo_inurba_marseille","lat":43.295279,"lon":5.375048,"is_reserved":false,"is_disabled":false,"rental_uris":{"android":"levelo://app?vid=874a7e43-bfe1-4a16-9476-4ae33cf4a1c9","ios":"levelo://app?vid=874a7e43-bfe1-4a16-9476-4ae33cf4a1c9"},"vehicle_type_id":"4","last_reported":1687705608,"current_range_meters":0,"station_id":"ce4bgkp2rcd13ifvqbmg","pricing_plan_id":"free"},{"bike_id":"c5a8c23e-cd3a-4bb4-8a01-0bedc75765ba","system_id":"levelo_inurba_marseille","lat":43.295279,"lon":5.375048,"is_reserved":false,"is_disabled":false,"rental_uris":{"android":"levelo://app?vid=c5a8c23e-cd3a-4bb4-8a01-0bedc75765ba","ios":"levelo://app?vid=c5a8c23e-cd3a-4bb4-8a01-0bedc75765ba"},"vehicle_type_id":"4","last_reported":1687705608,"current_range_meters":0,"station_id":"ce4bgkp2rcd13ifvqbmg","pricing_plan_id":"free"},{"bike_id":"60f188e7-d5c1-477b-9152-3ae7edfd3dd2","system_id":"levelo_inurba_marseille","lat":43.295279,"lon":5.375048,"is_reserved":false,"is_disabled":false,"rental_uris":{"android":"levelo://app?vid=60f188e7-d5c1-477b-9152-3ae7edfd3dd2","ios":"levelo://app?vid=60f188e7-d5c1-477b-9152-3ae7edfd3dd2"},"vehicle_type_id":"4","last_reported":1687705608,"current_range_meters":18400,"station_id":"ce4bgkp2rcd13ifvqbmg","pricing_plan_id":"free"},{"bike_id":"e3085179-ee64-434f-a764-8e3e86754a37","system_id":"levelo_inurba_marseille","lat":43.32367,"lon":5.388836,"is_reserved":false,"is_disabled":false,"rental_uris":{"android":"levelo://app?vid=e3085179-ee64-434f-a764-8e3e86754a37","ios":"levelo://app?vid=e3085179-ee64-434f-a764-8e3e86754a37"},"vehicle_type_id":"4","last_reported":1687705608,"current_range_meters":19200,"station_id":"ce4bhqp2rcd13ifvqhog","pricing_plan_id":"free"},{"bike_id":"dcea00dd-79ea-4358-82a6-00f5076fad6d","system_id":"levelo_inurba_marseille","lat":43.32367,"lon":5.388836,"is_reserved":false,"is_disabled":false,"rental_uris":{"android":"levelo://app?vid=dcea00dd-79ea-4358-82a6-00f5076fad6d","ios":"levelo://app?vid=dcea00dd-79ea-4358-82a6-00f5076fad6d"},"vehicle_type_id":"4","last_reported":1687705608,"current_range_meters":20000,"station_id":"ce4bhqp2rcd13ifvqhog","pricing_plan_id":"free"},{"bike_id":"54acd828-923d-453a-9e16-47c32665c320","system_id":"levelo_inurba_marseille","lat":43.32367,"lon":5.388836,"is_reserved":false,"is_disabled":false,"rental_uris":{"android":"levelo://app?vid=54acd828-923d-453a-9e16-47c32665c320","ios":"levelo://app?vid=54acd828-923d-453a-9e16-47c32665c320"},"vehicle_type_id":"4","last_reported":1687705608,"current_range_meters":2800,"station_id":"ce4bhqp2rcd13ifvqhog","pricing_plan_id":"free"},{"bike_id":"cc63e03e-82e9-4c6b-9d3a-55bdb3cbcaff","system_id":"levelo_inurba_marseille","lat":43.32368,"lon":5.38885,"is_reserved":false,"is_disabled":false,"rental_uris":{"android":"levelo://app?vid=cc63e03e-82e9-4c6b-9d3a-55bdb3cbcaff","ios":"levelo://app?vid=cc63e03e-82e9-4c6b-9d3a-55bdb3cbcaff"},"vehicle_type_id":"4","last_reported":1687705608,"current_range_meters":0,"station_id":"ce4bhqp2rcd13ifvqhog","pricing_plan_id":"free"},{"bike_id":"01d8a3fe-f044-4375-a24b-ffb33a3bd8a2","system_id":"levelo_inurba_marseille","lat":43.32367,"lon":5.388836,"is_reserved":false,"is_disabled":false,"rental_uris":{"android":"levelo://app?vid=01d8a3fe-f044-4375-a24b-ffb33a3bd8a2","ios":"levelo://app?vid=01d8a3fe-f044-4375-a24b-ffb33a3bd8a2"},"vehicle_type_id":"4","last_reported":1687705608,"current_range_meters":14400,"station_id":"ce4bhqp2rcd13ifvqhog","pricing_plan_id":"free"},{"bike_id":"a6b543df-b29f-4057-a17b-ece9e8918f86","system_id":"levelo_inurba_marseille","lat":43.32367,"lon":5.388836,"is_reserved":false,"is_disabled":false,"rental_uris":{"android":"levelo://app?vid=a6b543df-b29f-4057-a17b-ece9e8918f86","ios":"levelo://app?vid=a6b543df-b29f-4057-a17b-ece9e8918f86"},"vehicle_type_id":"4","last_reported":1687705608,"current_range_meters":15200,"station_id":"ce4bhqp2rcd13ifvqhog","pricing_plan_id":"free"},{"bike_id":"8d20ae28-ced1-4c37-96de-ca9a2a802825","system_id":"levelo_inurba_marseille","lat":43.32367,"lon":5.388836,"is_reserved":false,"is_disabled":false,"rental_uris":{"android":"levelo://app?vid=8d20ae28-ced1-4c37-96de-ca9a2a802825","ios":"levelo://app?vid=8d20ae28-ced1-4c37-96de-ca9a2a802825"},"vehicle_type_id":"4","last_reported":1687705608,"current_range_meters":12000,"station_id":"ce4bhqp2rcd13ifvqhog","pricing_plan_id":"free"},{"bike_id":"228378a3-e0ba-427a-9a36-5789a7b6bb76","system_id":"levelo_inurba_marseille","lat":43.32367,"lon":5.38891,"is_reserved":false,"is_disabled":false,"rental_uris":{"android":"levelo://app?vid=228378a3-e0ba-427a-9a36-5789a7b6bb76","ios":"levelo://app?vid=228378a3-e0ba-427a-9a36-5789a7b6bb76"},"vehicle_type_id":"4","last_reported":1687705608,"current_range_meters":10800,"station_id":"ce4bhqp2rcd13ifvqhog","pricing_plan_id":"free"},{"bike_id":"b5250887-09c2-4800-b9c8-3b02388ddb34","system_id":"levelo_inurba_marseille","lat":43.292749,"lon":5.368402,"is_reserved":false,"is_disabled":false,"rental_uris":{"android":"levelo://app?vid=b5250887-09c2-4800-b9c8-3b02388ddb34","ios":"levelo://app?vid=b5250887-09c2-4800-b9c8-3b02388ddb34"},"vehicle_type_id":"4","last_reported":1687705608,"current_range_meters":0,"station_id":"ce4bhbp2rcd13ifvqesg","pricing_plan_id":"free"},{"bike_id":"195a6aae-3c29-421d-b092-df7c5bd906cc","system_id":"levelo_inurba_marseille","lat":43.293,"lon":5.37173,"is_reserved":false,"is_disabled":false,"rental_uris":{"android":"levelo://app?vid=195a6aae-3c29-421d-b092-df7c5bd906cc","ios":"levelo://app?vid=195a6aae-3c29-421d-b092-df7c5bd906cc"},"vehicle_type_id":"4","last_reported":1687705608,"current_range_meters":6000,"station_id":"ce4bgh92rcd13ifvqb40","pricing_plan_id":"free"},{"bike_id":"8c5b2bfe-8abf-4de8-8b72-6c23a0aa6e7d","system_id":"levelo_inurba_marseille","lat":43.29301,"lon":5.37445,"is_reserved":false,"is_disabled":false,"rental_uris":{"android":"levelo://app?vid=8c5b2bfe-8abf-4de8-8b72-6c23a0aa6e7d","ios":"levelo://app?vid=8c5b2bfe-8abf-4de8-8b72-6c23a0aa6e7d"},"vehicle_type_id":"4","last_reported":1687705608,"current_range_meters":12800,"station_id":"ce4bgi12rcd13ifvqb70","pricing_plan_id":"free"},{"bike_id":"7959fbed-85ce-4f19-ab62-efaf5b69f3cd","system_id":"levelo_inurba_marseille","lat":43.293,"lon":5.37461,"is_reserved":false,"is_disabled":false,"rental_uris":{"android":"levelo://app?vid=7959fbed-85ce-4f19-ab62-efaf5b69f3cd","ios":"levelo://app?vid=7959fbed-85ce-4f19-ab62-efaf5b69f3cd"},"vehicle_type_id":"4","last_reported":1687705608,"current_range_meters":0,"station_id":"ce4bgi12rcd13ifvqb70","pricing_plan_id":"free"},{"bike_id":"c506a433-7813-48ae-9235-f43fc68a8f88","system_id":"levelo_inurba_marseille","lat":43.29229,"lon":5.364,"is_reserved":false,"is_disabled":false,"rental_uris":{"android":"levelo://app?vid=c506a433-7813-48ae-9235-f43fc68a8f88","ios":"levelo://app?vid=c506a433-7813-48ae-9235-f43fc68a8f88"},"vehicle_type_id":"4","last_reported":1687705608,"current_range_meters":8400,"station_id":"","pricing_plan_id":"free"},{"bike_id":"9b31ba1e-28f1-4e55-a18e-672a018958cb","system_id":"levelo_inurba_marseille","lat":43.29274,"lon":5.35971,"is_reserved":false,"is_disabled":false,"rental_uris":{"android":"levelo://app?vid=9b31ba1e-28f1-4e55-a18e-672a018958cb","ios":"levelo://app?vid=9b31ba1e-28f1-4e55-a18e-672a018958cb"},"vehicle_type_id":"4","last_reported":1687705608,"current_range_meters":15200,"station_id":"","pricing_plan_id":"free"},{"bike_id":"2b085bd0-170c-46fd-9db9-1c9dae4b6def","system_id":"levelo_inurba_marseille","lat":43.292311,"lon":5.360731,"is_reserved":false,"is_disabled":false,"rental_uris":{"android":"levelo://app?vid=2b085bd0-170c-46fd-9db9-1c9dae4b6def","ios":"levelo://app?vid=2b085bd0-170c-46fd-9db9-1c9dae4b6def"},"vehicle_type_id":"4","last_reported":1687705608,"current_range_meters":0,"station_id":"ce4bhbh2rcd13ifvqeqg","pricing_plan_id":"free"},{"bike_id":"20b2702a-2cf1-439f-b7da-41f192fa1a0a","system_id":"levelo_inurba_marseille","lat":43.29411,"lon":5.38614,"is_reserved":false,"is_disabled":false,"rental_uris":{"android":"levelo://app?vid=20b2702a-2cf1-439f-b7da-41f192fa1a0a","ios":"levelo://app?vid=20b2702a-2cf1-439f-b7da-41f192fa1a0a"},"vehicle_type_id":"4","last_reported":1687705608,"current_range_meters":15200,"station_id":"","pricing_plan_id":"free"},{"bike_id":"2c2898ab-804e-4a2b-a6f2-2d5267c17647","system_id":"levelo_inurba_marseille","lat":43.289468,"lon":5.363719,"is_reserved":false,"is_disabled":false,"rental_uris":{"android":"levelo://app?vid=2c2898ab-804e-4a2b-a6f2-2d5267c17647","ios":"levelo://app?vid=2c2898ab-804e-4a2b-a6f2-2d5267c17647"},"vehicle_type_id":"4","last_reported":1687705608,"current_range_meters":4800,"station_id":"ce4bhc92rcd13ifvqetg","pricing_plan_id":"free"},{"bike_id":"c40e676a-f241-4fd8-b31d-81fb9d61363e","system_id":"levelo_inurba_marseille","lat":43.289184,"lon":5.366408,"is_reserved":false,"is_disabled":false,"rental_uris":{"android":"levelo://app?vid=c40e676a-f241-4fd8-b31d-81fb9d61363e","ios":"levelo://app?vid=c40e676a-f241-4fd8-b31d-81fb9d61363e"},"vehicle_type_id":"4","last_reported":1687705608,"current_range_meters":0,"station_id":"ce4bhap2rcd13ifvqek0","pricing_plan_id":"free"},{"bike_id":"8fa4b804-eeea-441f-9b15-4664acb44e13","system_id":"levelo_inurba_marseille","lat":43.33018,"lon":5.38953,"is_reserved":false,"is_disabled":false,"rental_uris":{"android":"levelo://app?vid=8fa4b804-eeea-441f-9b15-4664acb44e13","ios":"levelo://app?vid=8fa4b804-eeea-441f-9b15-4664acb44e13"},"vehicle_type_id":"4","last_reported":1687705608,"current_range_meters":0,"station_id":"","pricing_plan_id":"free"},{"bike_id":"8c162e37-6858-43fc-9b2d-d4bbfff5be58","system_id":"levelo_inurba_marseille","lat":43.33043,"lon":5.38923,"is_reserved":false,"is_disabled":false,"rental_uris":{"android":"levelo://app?vid=8c162e37-6858-43fc-9b2d-d4bbfff5be58","ios":"levelo://app?vid=8c162e37-6858-43fc-9b2d-d4bbfff5be58"},"vehicle_type_id":"4","last_reported":1687705608,"current_range_meters":5600,"station_id":"ce4bhr92rcd13ifvqhrg","pricing_plan_id":"free"},{"bike_id":"cdc50fae-a8ff-4d41-ba7a-ad5713fbe39e","system_id":"levelo_inurba_marseille","lat":43.290104,"lon":5.356111,"is_reserved":false,"is_disabled":false,"rental_uris":{"android":"levelo://app?vid=cdc50fae-a8ff-4d41-ba7a-ad5713fbe39e","ios":"levelo://app?vid=cdc50fae-a8ff-4d41-ba7a-ad5713fbe39e"},"vehicle_type_id":"4","last_reported":1687705608,"current_range_meters":22000,"station_id":"ce4bhb92rcd13ifvqen0","pricing_plan_id":"free"},{"bike_id":"510e9a1a-a92c-4514-b762-d8c131b6e23c","system_id":"levelo_inurba_marseille","lat":43.29002,"lon":5.35603,"is_reserved":false,"is_disabled":false,"rental_uris":{"android":"levelo://app?vid=510e9a1a-a92c-4514-b762-d8c131b6e23c","ios":"levelo://app?vid=510e9a1a-a92c-4514-b762-d8c131b6e23c"},"vehicle_type_id":"4","last_reported":1687705608,"current_range_meters":20800,"station_id":"ce4bhb92rcd13ifvqen0","pricing_plan_id":"free"},{"bike_id":"51b9dade-7927-4503-9982-40bdef647d19","system_id":"levelo_inurba_marseille","lat":43.2901,"lon":5.381269,"is_reserved":false,"is_disabled":false,"rental_uris":{"android":"levelo://app?vid=51b9dade-7927-4503-9982-40bdef647d19","ios":"levelo://app?vid=51b9dade-7927-4503-9982-40bdef647d19"},"vehicle_type_id":"4","last_reported":1687705608,"current_range_meters":8400,"station_id":"ce4bh4p2rcd13ifvqe1g","pricing_plan_id":"free"},{"bike_id":"3a195488-1c88-426a-b66a-5dccdadbd611","system_id":"levelo_inurba_marseille","lat":43.2901,"lon":5.381269,"is_reserved":false,"is_disabled":false,"rental_uris":{"android":"levelo://app?vid=3a195488-1c88-426a-b66a-5dccdadbd611","ios":"levelo://app?vid=3a195488-1c88-426a-b66a-5dccdadbd611"},"vehicle_type_id":"4","last_reported":1687705608,"current_range_meters":18000,"station_id":"ce4bh4p2rcd13ifvqe1g","pricing_plan_id":"free"},{"bike_id":"4d5ce7ba-60e5-4dda-bfd6-246bce2d06e1","system_id":"levelo_inurba_marseille","lat":43.28856,"lon":5.358371,"is_reserved":false,"is_disabled":false,"rental_uris":{"android":"levelo://app?vid=4d5ce7ba-60e5-4dda-bfd6-246bce2d06e1","ios":"levelo://app?vid=4d5ce7ba-60e5-4dda-bfd6-246bce2d06e1"},"vehicle_type_id":"4","last_reported":1687705608,"current_range_meters":4800,"station_id":"ce4bhb12rcd13ifvqem0","pricing_plan_id":"free"},{"bike_id":"af2e6c1b-1c68-4cb4-95cd-047a60a26580","system_id":"levelo_inurba_marseille","lat":43.28856,"lon":5.358371,"is_reserved":false,"is_disabled":false,"rental_uris":{"android":"levelo://app?vid=af2e6c1b-1c68-4cb4-95cd-047a60a26580","ios":"levelo://app?vid=af2e6c1b-1c68-4cb4-95cd-047a60a26580"},"vehicle_type_id":"4","last_reported":1687705608,"current_range_meters":5200,"station_id":"ce4bhb12rcd13ifvqem0","pricing_plan_id":"free"},{"bike_id":"3f8a925a-6a54-4259-a38f-9cf091aab246","system_id":"levelo_inurba_marseille","lat":43.29247,"lon":5.38749,"is_reserved":false,"is_disabled":false,"rental_uris":{"android":"levelo://app?vid=3f8a925a-6a54-4259-a38f-9cf091aab246","ios":"levelo://app?vid=3f8a925a-6a54-4259-a38f-9cf091aab246"},"vehicle_type_id":"4","last_reported":1687705608,"current_range_meters":16000,"station_id":"","pricing_plan_id":"free"},{"bike_id":"c180ae38-f769-441f-8a55-5a6e4930e6ad","system_id":"levelo_inurba_marseille","lat":43.3375,"lon":5.37439,"is_reserved":false,"is_disabled":false,"rental_uris":{"android":"levelo://app?vid=c180ae38-f769-441f-8a55-5a6e4930e6ad","ios":"levelo://app?vid=c180ae38-f769-441f-8a55-5a6e4930e6ad"},"vehicle_type_id":"4","last_reported":1687705608,"current_range_meters":20400,"station_id":"","pricing_plan_id":"free"},{"bike_id":"42467928-9718-4905-a83f-4a0a594fb894","system_id":"levelo_inurba_marseille","lat":43.33754,"lon":5.37478,"is_reserved":false,"is_disabled":false,"rental_uris":{"android":"levelo://app?vid=42467928-9718-4905-a83f-4a0a594fb894","ios":"levelo://app?vid=42467928-9718-4905-a83f-4a0a594fb894"},"vehicle_type_id":"4","last_reported":1687705608,"current_range_meters":28400,"station_id":"","pricing_plan_id":"free"},{"bike_id":"8c9cd6fb-288d-485c-978b-51a17469a46f","system_id":"levelo_inurba_marseille","lat":43.286039,"lon":5.370679,"is_reserved":false,"is_disabled":false,"rental_uris":{"android":"levelo://app?vid=8c9cd6fb-288d-485c-978b-51a17469a46f","ios":"levelo://app?vid=8c9cd6fb-288d-485c-978b-51a17469a46f"},"vehicle_type_id":"4","last_reported":1687705608,"current_range_meters":22400,"station_id":"ce4bht12rcd13ifvqi60","pricing_plan_id":"free"},{"bike_id":"136c6376-2f39-467d-930b-99be4a190dbe","system_id":"levelo_inurba_marseille","lat":43.286039,"lon":5.370679,"is_reserved":false,"is_disabled":false,"rental_uris":{"android":"levelo://app?vid=136c6376-2f39-467d-930b-99be4a190dbe","ios":"levelo://app?vid=136c6376-2f39-467d-930b-99be4a190dbe"},"vehicle_type_id":"4","last_reported":1687705608,"current_range_meters":2400,"station_id":"ce4bht12rcd13ifvqi60","pricing_plan_id":"free"},{"bike_id":"14ca1e5c-4760-44eb-9fed-445fe86e4f58","system_id":"levelo_inurba_marseille","lat":43.287184,"lon":5.37937,"is_reserved":false,"is_disabled":false,"rental_uris":{"android":"levelo://app?vid=14ca1e5c-4760-44eb-9fed-445fe86e4f58","ios":"levelo://app?vid=14ca1e5c-4760-44eb-9fed-445fe86e4f58"},"vehicle_type_id":"4","last_reported":1687705608,"current_range_meters":7200,"station_id":"ce4bh9p2rcd13ifvqec0","pricing_plan_id":"free"},{"bike_id":"1595ad8a-7c9c-4ad7-9392-45f7f188f448","system_id":"levelo_inurba_marseille","lat":43.28859,"lon":5.38286,"is_reserved":false,"is_disabled":false,"rental_uris":{"android":"levelo://app?vid=1595ad8a-7c9c-4ad7-9392-45f7f188f448","ios":"levelo://app?vid=1595ad8a-7c9c-4ad7-9392-45f7f188f448"},"vehicle_type_id":"4","last_reported":1687705608,"current_range_meters":10800,"station_id":"","pricing_plan_id":"free"},{"bike_id":"8ef63342-e1dd-4d9c-8ba7-7afbe328837a","system_id":"levelo_inurba_marseille","lat":43.2878,"lon":5.38128,"is_reserved":false,"is_disabled":false,"rental_uris":{"android":"levelo://app?vid=8ef63342-e1dd-4d9c-8ba7-7afbe328837a","ios":"levelo://app?vid=8ef63342-e1dd-4d9c-8ba7-7afbe328837a"},"vehicle_type_id":"4","last_reported":1687705608,"current_range_meters":27600,"station_id":"","pricing_plan_id":"free"},{"bike_id":"d69fed3a-efe9-46fb-b1dc-1240b8978d3e","system_id":"levelo_inurba_marseille","lat":43.316517,"lon":5.404375,"is_reserved":false,"is_disabled":false,"rental_uris":{"android":"levelo://app?vid=d69fed3a-efe9-46fb-b1dc-1240b8978d3e","ios":"levelo://app?vid=d69fed3a-efe9-46fb-b1dc-1240b8978d3e"},"vehicle_type_id":"4","last_reported":1687705608,"current_range_meters":14400,"station_id":"ce4bh012rcd13ifvqd00","pricing_plan_id":"free"},{"bike_id":"a85259ea-2515-4645-8e60-139e7faadefc","system_id":"levelo_inurba_marseille","lat":43.291994,"lon":5.392907,"is_reserved":false,"is_disabled":false,"rental_uris":{"android":"levelo://app?vid=a85259ea-2515-4645-8e60-139e7faadefc","ios":"levelo://app?vid=a85259ea-2515-4645-8e60-139e7faadefc"},"vehicle_type_id":"4","last_reported":1687705608,"current_range_meters":6800,"station_id":"ce4bh192rcd13ifvqdd0","pricing_plan_id":"free"},{"bike_id":"f00ee713-c3ef-4783-8209-ed69e55cd2db","system_id":"levelo_inurba_marseille","lat":43.292011,"lon":5.393279,"is_reserved":false,"is_disabled":false,"rental_uris":{"android":"levelo://app?vid=f00ee713-c3ef-4783-8209-ed69e55cd2db","ios":"levelo://app?vid=f00ee713-c3ef-4783-8209-ed69e55cd2db"},"vehicle_type_id":"4","last_reported":1687705608,"current_range_meters":14800,"station_id":"","pricing_plan_id":"free"},{"bike_id":"3c95f522-51e8-4683-85c9-bdd5e0e4d0c2","system_id":"levelo_inurba_marseille","lat":43.2919,"lon":5.39334,"is_reserved":false,"is_disabled":false,"rental_uris":{"android":"levelo://app?vid=3c95f522-51e8-4683-85c9-bdd5e0e4d0c2","ios":"levelo://app?vid=3c95f522-51e8-4683-85c9-bdd5e0e4d0c2"},"vehicle_type_id":"4","last_reported":1687705608,"current_range_meters":11600,"station_id":"","pricing_plan_id":"free"},{"bike_id":"9894d924-83c7-4f73-8c9a-3e9cfeaec50b","system_id":"levelo_inurba_marseille","lat":43.284534,"lon":5.358662,"is_reserved":false,"is_disabled":false,"rental_uris":{"android":"levelo://app?vid=9894d924-83c7-4f73-8c9a-3e9cfeaec50b","ios":"levelo://app?vid=9894d924-83c7-4f73-8c9a-3e9cfeaec50b"},"vehicle_type_id":"4","last_reported":1687705608,"current_range_meters":26800,"station_id":"ce4bhah2rcd13ifvqei0","pricing_plan_id":"free"},{"bike_id":"dfc03917-f580-4c9a-bac3-c2ca62f502a1","system_id":"levelo_inurba_marseille","lat":43.284534,"lon":5.358662,"is_reserved":false,"is_disabled":false,"rental_uris":{"android":"levelo://app?vid=dfc03917-f580-4c9a-bac3-c2ca62f502a1","ios":"levelo://app?vid=dfc03917-f580-4c9a-bac3-c2ca62f502a1"},"vehicle_type_id":"4","last_reported":1687705608,"current_range_meters":12400,"station_id":"ce4bhah2rcd13ifvqei0","pricing_plan_id":"free"},{"bike_id":"5490a794-d722-4fad-9b8f-93277badade3","system_id":"levelo_inurba_marseille","lat":43.284534,"lon":5.358662,"is_reserved":false,"is_disabled":false,"rental_uris":{"android":"levelo://app?vid=5490a794-d722-4fad-9b8f-93277badade3","ios":"levelo://app?vid=5490a794-d722-4fad-9b8f-93277badade3"},"vehicle_type_id":"4","last_reported":1687705608,"current_range_meters":16800,"station_id":"ce4bhah2rcd13ifvqei0","pricing_plan_id":"free"},{"bike_id":"7ba59524-689a-4e9f-9f85-f9d9e087e21d","system_id":"levelo_inurba_marseille","lat":43.285856,"lon":5.350771,"is_reserved":false,"is_disabled":false,"rental_uris":{"android":"levelo://app?vid=7ba59524-689a-4e9f-9f85-f9d9e087e21d","ios":"levelo://app?vid=7ba59524-689a-4e9f-9f85-f9d9e087e21d"},"vehicle_type_id":"4","last_reported":1687705608,"current_range_meters":0,"station_id":"ce4bhch2rcd13ifvqeug","pricing_plan_id":"free"},{"bike_id":"c80d5993-9392-4b51-b41c-85b4952e536e","system_id":"levelo_inurba_marseille","lat":43.285856,"lon":5.350771,"is_reserved":false,"is_disabled":false,"rental_uris":{"android":"levelo://app?vid=c80d5993-9392-4b51-b41c-85b4952e536e","ios":"levelo://app?vid=c80d5993-9392-4b51-b41c-85b4952e536e"},"vehicle_type_id":"4","last_reported":1687705608,"current_range_meters":16800,"station_id":"ce4bhch2rcd13ifvqeug","pricing_plan_id":"free"},{"bike_id":"c84c1ae5-eba5-426b-a55c-e99c49f9392e","system_id":"levelo_inurba_marseille","lat":43.285856,"lon":5.350771,"is_reserved":false,"is_disabled":false,"rental_uris":{"android":"levelo://app?vid=c84c1ae5-eba5-426b-a55c-e99c49f9392e","ios":"levelo://app?vid=c84c1ae5-eba5-426b-a55c-e99c49f9392e"},"vehicle_type_id":"4","last_reported":1687705608,"current_range_meters":1600,"station_id":"ce4bhch2rcd13ifvqeug","pricing_plan_id":"free"},{"bike_id":"5b4c3923-1117-4f9d-94f9-de687becf0e8","system_id":"levelo_inurba_marseille","lat":43.285856,"lon":5.350771,"is_reserved":false,"is_disabled":false,"rental_uris":{"android":"levelo://app?vid=5b4c3923-1117-4f9d-94f9-de687becf0e8","ios":"levelo://app?vid=5b4c3923-1117-4f9d-94f9-de687becf0e8"},"vehicle_type_id":"4","last_reported":1687705608,"current_range_meters":23600,"station_id":"ce4bhch2rcd13ifvqeug","pricing_plan_id":"free"},{"bike_id":"7c0bbcf9-4499-4a1e-be6b-effe1f6db7d4","system_id":"levelo_inurba_marseille","lat":43.323464,"lon":5.406297,"is_reserved":false,"is_disabled":false,"rental_uris":{"android":"levelo://app?vid=7c0bbcf9-4499-4a1e-be6b-effe1f6db7d4","ios":"levelo://app?vid=7c0bbcf9-4499-4a1e-be6b-effe1f6db7d4"},"vehicle_type_id":"4","last_reported":1687705608,"current_range_meters":31200,"station_id":"ce4bhq92rcd13ifvqhjg","pricing_plan_id":"free"},{"bike_id":"44684ce6-ed70-4132-8feb-c18e231a1ce8","system_id":"levelo_inurba_marseille","lat":43.323464,"lon":5.406297,"is_reserved":false,"is_disabled":false,"rental_uris":{"android":"levelo://app?vid=44684ce6-ed70-4132-8feb-c18e231a1ce8","ios":"levelo://app?vid=44684ce6-ed70-4132-8feb-c18e231a1ce8"},"vehicle_type_id":"4","last_reported":1687705608,"current_range_meters":31200,"station_id":"ce4bhq92rcd13ifvqhjg","pricing_plan_id":"free"},{"bike_id":"165784fd-8cb0-48fe-8681-d7abe54a6cf4","system_id":"levelo_inurba_marseille","lat":43.32285,"lon":5.40646,"is_reserved":false,"is_disabled":false,"rental_uris":{"android":"levelo://app?vid=165784fd-8cb0-48fe-8681-d7abe54a6cf4","ios":"levelo://app?vid=165784fd-8cb0-48fe-8681-d7abe54a6cf4"},"vehicle_type_id":"4","last_reported":1687705608,"current_range_meters":26000,"station_id":"","pricing_plan_id":"free"},{"bike_id":"b4c950db-352f-4a1a-8e3c-c05101a6dad0","system_id":"levelo_inurba_marseille","lat":43.288501,"lon":5.393087,"is_reserved":false,"is_disabled":false,"rental_uris":{"android":"levelo://app?vid=b4c950db-352f-4a1a-8e3c-c05101a6dad0","ios":"levelo://app?vid=b4c950db-352f-4a1a-8e3c-c05101a6dad0"},"vehicle_type_id":"4","last_reported":1687705608,"current_range_meters":31600,"station_id":"ce4bh2p2rcd13ifvqdi0","pricing_plan_id":"free"},{"bike_id":"b2deb644-a066-4e6b-a466-9449294c4091","system_id":"levelo_inurba_marseille","lat":43.28431,"lon":5.3499,"is_reserved":false,"is_disabled":false,"rental_uris":{"android":"levelo://app?vid=b2deb644-a066-4e6b-a466-9449294c4091","ios":"levelo://app?vid=b2deb644-a066-4e6b-a466-9449294c4091"},"vehicle_type_id":"4","last_reported":1687705608,"current_range_meters":14400,"station_id":"","pricing_plan_id":"free"},{"bike_id":"499c3fd7-9c13-4bc0-805f-3728f8ee0801","system_id":"levelo_inurba_marseille","lat":43.28429,"lon":5.34991,"is_reserved":false,"is_disabled":false,"rental_uris":{"android":"levelo://app?vid=499c3fd7-9c13-4bc0-805f-3728f8ee0801","ios":"levelo://app?vid=499c3fd7-9c13-4bc0-805f-3728f8ee0801"},"vehicle_type_id":"4","last_reported":1687705608,"current_range_meters":7200,"station_id":"ce4bhbh2rcd13ifvqepg","pricing_plan_id":"free"},{"bike_id":"19dbebfb-94a6-47e6-ab13-6c7f8a302390","system_id":"levelo_inurba_marseille","lat":43.28425,"lon":5.34996,"is_reserved":false,"is_disabled":false,"rental_uris":{"android":"levelo://app?vid=19dbebfb-94a6-47e6-ab13-6c7f8a302390","ios":"levelo://app?vid=19dbebfb-94a6-47e6-ab13-6c7f8a302390"},"vehicle_type_id":"4","last_reported":1687705608,"current_range_meters":15200,"station_id":"ce4bhbh2rcd13ifvqepg","pricing_plan_id":"free"},{"bike_id":"0bb50b1b-374b-4210-a404-0a4399107f6b","system_id":"levelo_inurba_marseille","lat":43.28423,"lon":5.35,"is_reserved":false,"is_disabled":false,"rental_uris":{"android":"levelo://app?vid=0bb50b1b-374b-4210-a404-0a4399107f6b","ios":"levelo://app?vid=0bb50b1b-374b-4210-a404-0a4399107f6b"},"vehicle_type_id":"4","last_reported":1687705608,"current_range_meters":17200,"station_id":"ce4bhbh2rcd13ifvqepg","pricing_plan_id":"free"},{"bike_id":"8f98ed62-5b1b-4102-ad1d-1e7ad59187e7","system_id":"levelo_inurba_marseille","lat":43.284219,"lon":5.3497,"is_reserved":false,"is_disabled":false,"rental_uris":{"android":"levelo://app?vid=8f98ed62-5b1b-4102-ad1d-1e7ad59187e7","ios":"levelo://app?vid=8f98ed62-5b1b-4102-ad1d-1e7ad59187e7"},"vehicle_type_id":"4","last_reported":1687705608,"current_range_meters":31600,"station_id":"ce4bhbh2rcd13ifvqepg","pricing_plan_id":"free"},{"bike_id":"9e6de6fd-e9f1-45b5-b905-4b03a6373eca","system_id":"levelo_inurba_marseille","lat":43.28423,"lon":5.34986,"is_reserved":false,"is_disabled":false,"rental_uris":{"android":"levelo://app?vid=9e6de6fd-e9f1-45b5-b905-4b03a6373eca","ios":"levelo://app?vid=9e6de6fd-e9f1-45b5-b905-4b03a6373eca"},"vehicle_type_id":"4","last_reported":1687705608,"current_range_meters":31200,"station_id":"ce4bhbh2rcd13ifvqepg","pricing_plan_id":"free"},{"bike_id":"5e83e955-c572-4d0f-9419-7a992c781476","system_id":"levelo_inurba_marseille","lat":43.28419,"lon":5.3499,"is_reserved":false,"is_disabled":false,"rental_uris":{"android":"levelo://app?vid=5e83e955-c572-4d0f-9419-7a992c781476","ios":"levelo://app?vid=5e83e955-c572-4d0f-9419-7a992c781476"},"vehicle_type_id":"4","last_reported":1687705608,"current_range_meters":26000,"station_id":"ce4bhbh2rcd13ifvqepg","pricing_plan_id":"free"},{"bike_id":"c8783db0-3e85-4181-ba8d-88878cea4b56","system_id":"levelo_inurba_marseille","lat":43.284202,"lon":5.349685,"is_reserved":false,"is_disabled":false,"rental_uris":{"android":"levelo://app?vid=c8783db0-3e85-4181-ba8d-88878cea4b56","ios":"levelo://app?vid=c8783db0-3e85-4181-ba8d-88878cea4b56"},"vehicle_type_id":"4","last_reported":1687705608,"current_range_meters":18800,"station_id":"ce4bhbh2rcd13ifvqepg","pricing_plan_id":"free"},{"bike_id":"719fb48d-7198-49c3-b616-b13290995246","system_id":"levelo_inurba_marseille","lat":43.284217,"lon":5.349697,"is_reserved":false,"is_disabled":false,"rental_uris":{"android":"levelo://app?vid=719fb48d-7198-49c3-b616-b13290995246","ios":"levelo://app?vid=719fb48d-7198-49c3-b616-b13290995246"},"vehicle_type_id":"4","last_reported":1687705608,"current_range_meters":2400,"station_id":"ce4bhbh2rcd13ifvqepg","pricing_plan_id":"free"},{"bike_id":"16a7b82b-ae28-49db-bf23-5c4b6e7f1c9c","system_id":"levelo_inurba_marseille","lat":43.28413,"lon":5.34978,"is_reserved":false,"is_disabled":false,"rental_uris":{"android":"levelo://app?vid=16a7b82b-ae28-49db-bf23-5c4b6e7f1c9c","ios":"levelo://app?vid=16a7b82b-ae28-49db-bf23-5c4b6e7f1c9c"},"vehicle_type_id":"4","last_reported":1687705608,"current_range_meters":20400,"station_id":"ce4bhbh2rcd13ifvqepg","pricing_plan_id":"free"},{"bike_id":"e25df65b-ef0c-4a0b-b658-27947023b735","system_id":"levelo_inurba_marseille","lat":43.284217,"lon":5.349697,"is_reserved":false,"is_disabled":false,"rental_uris":{"android":"levelo://app?vid=e25df65b-ef0c-4a0b-b658-27947023b735","ios":"levelo://app?vid=e25df65b-ef0c-4a0b-b658-27947023b735"},"vehicle_type_id":"4","last_reported":1687705608,"current_range_meters":0,"station_id":"ce4bhbh2rcd13ifvqepg","pricing_plan_id":"free"},{"bike_id":"ee3e52d7-d9c0-4b02-93c7-344b7f056053","system_id":"levelo_inurba_marseille","lat":43.284217,"lon":5.349697,"is_reserved":false,"is_disabled":false,"rental_uris":{"android":"levelo://app?vid=ee3e52d7-d9c0-4b02-93c7-344b7f056053","ios":"levelo://app?vid=ee3e52d7-d9c0-4b02-93c7-344b7f056053"},"vehicle_type_id":"4","last_reported":1687705608,"current_range_meters":14400,"station_id":"ce4bhbh2rcd13ifvqepg","pricing_plan_id":"free"},{"bike_id":"4c0c46ae-67ba-4120-8212-b02e013204ab","system_id":"levelo_inurba_marseille","lat":43.28413,"lon":5.34975,"is_reserved":false,"is_disabled":false,"rental_uris":{"android":"levelo://app?vid=4c0c46ae-67ba-4120-8212-b02e013204ab","ios":"levelo://app?vid=4c0c46ae-67ba-4120-8212-b02e013204ab"},"vehicle_type_id":"4","last_reported":1687705608,"current_range_meters":0,"station_id":"ce4bhbh2rcd13ifvqepg","pricing_plan_id":"free"},{"bike_id":"7d26472f-126e-434d-8e90-62e984a828db","system_id":"levelo_inurba_marseille","lat":43.284217,"lon":5.349697,"is_reserved":false,"is_disabled":false,"rental_uris":{"android":"levelo://app?vid=7d26472f-126e-434d-8e90-62e984a828db","ios":"levelo://app?vid=7d26472f-126e-434d-8e90-62e984a828db"},"vehicle_type_id":"4","last_reported":1687705608,"current_range_meters":13600,"station_id":"ce4bhbh2rcd13ifvqepg","pricing_plan_id":"free"},{"bike_id":"93f278da-39a0-490e-a861-f8dacca26125","system_id":"levelo_inurba_marseille","lat":43.290336,"lon":5.386425,"is_reserved":false,"is_disabled":false,"rental_uris":{"android":"levelo://app?vid=93f278da-39a0-490e-a861-f8dacca26125","ios":"levelo://app?vid=93f278da-39a0-490e-a861-f8dacca26125"},"vehicle_type_id":"4","last_reported":1687705608,"current_range_meters":12000,"station_id":"ce4bh4p2rcd13ifvqe0g","pricing_plan_id":"free"},{"bike_id":"01704708-20b1-4869-96b6-bfcab09e2e42","system_id":"levelo_inurba_marseille","lat":43.289363,"lon":5.396322,"is_reserved":false,"is_disabled":false,"rental_uris":{"android":"levelo://app?vid=01704708-20b1-4869-96b6-bfcab09e2e42","ios":"levelo://app?vid=01704708-20b1-4869-96b6-bfcab09e2e42"},"vehicle_type_id":"4","last_reported":1687705608,"current_range_meters":8400,"station_id":"ce4bh3h2rcd13ifvqdn0","pricing_plan_id":"free"},{"bike_id":"8c5eea33-79a4-4d8b-b542-dfa7f4ec5013","system_id":"levelo_inurba_marseille","lat":43.28937,"lon":5.39639,"is_reserved":false,"is_disabled":false,"rental_uris":{"android":"levelo://app?vid=8c5eea33-79a4-4d8b-b542-dfa7f4ec5013","ios":"levelo://app?vid=8c5eea33-79a4-4d8b-b542-dfa7f4ec5013"},"vehicle_type_id":"4","last_reported":1687705608,"current_range_meters":8000,"station_id":"ce4bh3h2rcd13ifvqdn0","pricing_plan_id":"free"},{"bike_id":"e6dbfabb-288c-475f-87fa-d20d0d4f680f","system_id":"levelo_inurba_marseille","lat":43.28279,"lon":5.35091,"is_reserved":false,"is_disabled":false,"rental_uris":{"android":"levelo://app?vid=e6dbfabb-288c-475f-87fa-d20d0d4f680f","ios":"levelo://app?vid=e6dbfabb-288c-475f-87fa-d20d0d4f680f"},"vehicle_type_id":"4","last_reported":1687705608,"current_range_meters":24400,"station_id":"ce4bhbp2rcd13ifvqerg","pricing_plan_id":"free"},{"bike_id":"158bc783-09ed-41e9-be6c-e798598a7eb6","system_id":"levelo_inurba_marseille","lat":43.28277,"lon":5.35087,"is_reserved":false,"is_disabled":false,"rental_uris":{"android":"levelo://app?vid=158bc783-09ed-41e9-be6c-e798598a7eb6","ios":"levelo://app?vid=158bc783-09ed-41e9-be6c-e798598a7eb6"},"vehicle_type_id":"4","last_reported":1687705608,"current_range_meters":29600,"station_id":"ce4bhbp2rcd13ifvqerg","pricing_plan_id":"free"},{"bike_id":"e56bb733-23b8-4d24-be4e-f41e18dce229","system_id":"levelo_inurba_marseille","lat":43.28276,"lon":5.35087,"is_reserved":false,"is_disabled":false,"rental_uris":{"android":"levelo://app?vid=e56bb733-23b8-4d24-be4e-f41e18dce229","ios":"levelo://app?vid=e56bb733-23b8-4d24-be4e-f41e18dce229"},"vehicle_type_id":"4","last_reported":1687705608,"current_range_meters":1200,"station_id":"ce4bhbp2rcd13ifvqerg","pricing_plan_id":"free"},{"bike_id":"a29a73a4-fa31-45f3-9b21-a7fa3a29ab15","system_id":"levelo_inurba_marseille","lat":43.282754,"lon":5.350519,"is_reserved":false,"is_disabled":false,"rental_uris":{"android":"levelo://app?vid=a29a73a4-fa31-45f3-9b21-a7fa3a29ab15","ios":"levelo://app?vid=a29a73a4-fa31-45f3-9b21-a7fa3a29ab15"},"vehicle_type_id":"4","last_reported":1687705608,"current_range_meters":25200,"station_id":"ce4bhbp2rcd13ifvqerg","pricing_plan_id":"free"},{"bike_id":"283dd0ad-cf66-4e5c-884b-d2f37174d1b4","system_id":"levelo_inurba_marseille","lat":43.28271,"lon":5.3509,"is_reserved":false,"is_disabled":false,"rental_uris":{"android":"levelo://app?vid=283dd0ad-cf66-4e5c-884b-d2f37174d1b4","ios":"levelo://app?vid=283dd0ad-cf66-4e5c-884b-d2f37174d1b4"},"vehicle_type_id":"4","last_reported":1687705608,"current_range_meters":15200,"station_id":"ce4bhbp2rcd13ifvqerg","pricing_plan_id":"free"},{"bike_id":"d1de9c01-2f78-4661-beec-a22f8bea07cf","system_id":"levelo_inurba_marseille","lat":43.28272,"lon":5.35074,"is_reserved":false,"is_disabled":false,"rental_uris":{"android":"levelo://app?vid=d1de9c01-2f78-4661-beec-a22f8bea07cf","ios":"levelo://app?vid=d1de9c01-2f78-4661-beec-a22f8bea07cf"},"vehicle_type_id":"4","last_reported":1687705608,"current_range_meters":0,"station_id":"ce4bhbp2rcd13ifvqerg","pricing_plan_id":"free"},{"bike_id":"38df56ae-70f1-4e18-aef1-abb508cd485b","system_id":"levelo_inurba_marseille","lat":43.28272,"lon":5.35073,"is_reserved":false,"is_disabled":false,"rental_uris":{"android":"levelo://app?vid=38df56ae-70f1-4e18-aef1-abb508cd485b","ios":"levelo://app?vid=38df56ae-70f1-4e18-aef1-abb508cd485b"},"vehicle_type_id":"4","last_reported":1687705608,"current_range_meters":24800,"station_id":"ce4bhbp2rcd13ifvqerg","pricing_plan_id":"free"},{"bike_id":"3eba05fb-7a20-47d8-80c8-af68329f27c9","system_id":"levelo_inurba_marseille","lat":43.28273,"lon":5.35069,"is_reserved":false,"is_disabled":false,"rental_uris":{"android":"levelo://app?vid=3eba05fb-7a20-47d8-80c8-af68329f27c9","ios":"levelo://app?vid=3eba05fb-7a20-47d8-80c8-af68329f27c9"},"vehicle_type_id":"4","last_reported":1687705608,"current_range_meters":12400,"station_id":"ce4bhbp2rcd13ifvqerg","pricing_plan_id":"free"},{"bike_id":"7f693e7d-2d3b-4dfa-a45c-c56b56565ccf","system_id":"levelo_inurba_marseille","lat":43.2827,"lon":5.35072,"is_reserved":false,"is_disabled":false,"rental_uris":{"android":"levelo://app?vid=7f693e7d-2d3b-4dfa-a45c-c56b56565ccf","ios":"levelo://app?vid=7f693e7d-2d3b-4dfa-a45c-c56b56565ccf"},"vehicle_type_id":"4","last_reported":1687705608,"current_range_meters":18400,"station_id":"ce4bhbp2rcd13ifvqerg","pricing_plan_id":"free"},{"bike_id":"a27e8f8f-585c-4854-bac7-c77a0d144c64","system_id":"levelo_inurba_marseille","lat":43.28269,"lon":5.3507,"is_reserved":false,"is_disabled":false,"rental_uris":{"android":"levelo://app?vid=a27e8f8f-585c-4854-bac7-c77a0d144c64","ios":"levelo://app?vid=a27e8f8f-585c-4854-bac7-c77a0d144c64"},"vehicle_type_id":"4","last_reported":1687705608,"current_range_meters":16000,"station_id":"ce4bhbp2rcd13ifvqerg","pricing_plan_id":"free"},{"bike_id":"250eef90-4816-4a00-a17a-935d77f81739","system_id":"levelo_inurba_marseille","lat":43.28264,"lon":5.35084,"is_reserved":false,"is_disabled":false,"rental_uris":{"android":"levelo://app?vid=250eef90-4816-4a00-a17a-935d77f81739","ios":"levelo://app?vid=250eef90-4816-4a00-a17a-935d77f81739"},"vehicle_type_id":"4","last_reported":1687705608,"current_range_meters":24800,"station_id":"","pricing_plan_id":"free"},{"bike_id":"4d455f1a-e16b-4d69-b668-6a454187b9be","system_id":"levelo_inurba_marseille","lat":43.28259,"lon":5.35101,"is_reserved":false,"is_disabled":false,"rental_uris":{"android":"levelo://app?vid=4d455f1a-e16b-4d69-b668-6a454187b9be","ios":"levelo://app?vid=4d455f1a-e16b-4d69-b668-6a454187b9be"},"vehicle_type_id":"4","last_reported":1687705608,"current_range_meters":3200,"station_id":"","pricing_plan_id":"free"},{"bike_id":"7989f8f2-2553-425b-856b-145bdb843137","system_id":"levelo_inurba_marseille","lat":43.283502,"lon":5.386471,"is_reserved":false,"is_disabled":false,"rental_uris":{"android":"levelo://app?vid=7989f8f2-2553-425b-856b-145bdb843137","ios":"levelo://app?vid=7989f8f2-2553-425b-856b-145bdb843137"},"vehicle_type_id":"4","last_reported":1687705608,"current_range_meters":3200,"station_id":"ce4bh492rcd13ifvqdvg","pricing_plan_id":"free"},{"bike_id":"095025d4-e91b-4790-8a73-69709f84e80c","system_id":"levelo_inurba_marseille","lat":43.282754,"lon":5.350519,"is_reserved":false,"is_disabled":false,"rental_uris":{"android":"levelo://app?vid=095025d4-e91b-4790-8a73-69709f84e80c","ios":"levelo://app?vid=095025d4-e91b-4790-8a73-69709f84e80c"},"vehicle_type_id":"4","last_reported":1687705608,"current_range_meters":3200,"station_id":"ce4bhbp2rcd13ifvqerg","pricing_plan_id":"free"},{"bike_id":"fac9ae23-f05b-4e4d-b2f5-093ca74e2636","system_id":"levelo_inurba_marseille","lat":43.28266,"lon":5.35056,"is_reserved":false,"is_disabled":false,"rental_uris":{"android":"levelo://app?vid=fac9ae23-f05b-4e4d-b2f5-093ca74e2636","ios":"levelo://app?vid=fac9ae23-f05b-4e4d-b2f5-093ca74e2636"},"vehicle_type_id":"4","last_reported":1687705608,"current_range_meters":8000,"station_id":"ce4bhbp2rcd13ifvqerg","pricing_plan_id":"free"},{"bike_id":"233b982e-24b2-40b9-9acc-1b61a6c878aa","system_id":"levelo_inurba_marseille","lat":43.282744,"lon":5.350533,"is_reserved":false,"is_disabled":false,"rental_uris":{"android":"levelo://app?vid=233b982e-24b2-40b9-9acc-1b61a6c878aa","ios":"levelo://app?vid=233b982e-24b2-40b9-9acc-1b61a6c878aa"},"vehicle_type_id":"4","last_reported":1687705608,"current_range_meters":3200,"station_id":"ce4bhbp2rcd13ifvqerg","pricing_plan_id":"free"},{"bike_id":"48722381-c774-42c8-bdfc-3a3910ef91fd","system_id":"levelo_inurba_marseille","lat":43.28262,"lon":5.3506,"is_reserved":false,"is_disabled":false,"rental_uris":{"android":"levelo://app?vid=48722381-c774-42c8-bdfc-3a3910ef91fd","ios":"levelo://app?vid=48722381-c774-42c8-bdfc-3a3910ef91fd"},"vehicle_type_id":"4","last_reported":1687705608,"current_range_meters":0,"station_id":"ce4bhbp2rcd13ifvqerg","pricing_plan_id":"free"},{"bike_id":"b51f1522-4166-4d9c-8a78-38a469463e52","system_id":"levelo_inurba_marseille","lat":43.28261,"lon":5.35063,"is_reserved":false,"is_disabled":false,"rental_uris":{"android":"levelo://app?vid=b51f1522-4166-4d9c-8a78-38a469463e52","ios":"levelo://app?vid=b51f1522-4166-4d9c-8a78-38a469463e52"},"vehicle_type_id":"4","last_reported":1687705608,"current_range_meters":5200,"station_id":"ce4bhbp2rcd13ifvqerg","pricing_plan_id":"free"},{"bike_id":"7df45200-2951-4989-95f3-33a39e9fed4d","system_id":"levelo_inurba_marseille","lat":43.282744,"lon":5.350533,"is_reserved":false,"is_disabled":false,"rental_uris":{"android":"levelo://app?vid=7df45200-2951-4989-95f3-33a39e9fed4d","ios":"levelo://app?vid=7df45200-2951-4989-95f3-33a39e9fed4d"},"vehicle_type_id":"4","last_reported":1687705608,"current_range_meters":0,"station_id":"ce4bhbp2rcd13ifvqerg","pricing_plan_id":"free"},{"bike_id":"d8c95f20-7621-4ecf-922d-202867b734b9","system_id":"levelo_inurba_marseille","lat":43.282744,"lon":5.350533,"is_reserved":false,"is_disabled":false,"rental_uris":{"android":"levelo://app?vid=d8c95f20-7621-4ecf-922d-202867b734b9","ios":"levelo://app?vid=d8c95f20-7621-4ecf-922d-202867b734b9"},"vehicle_type_id":"4","last_reported":1687705608,"current_range_meters":7200,"station_id":"ce4bhbp2rcd13ifvqerg","pricing_plan_id":"free"},{"bike_id":"b1548af6-5925-437e-9eeb-2f07979b1e82","system_id":"levelo_inurba_marseille","lat":43.282744,"lon":5.350533,"is_reserved":false,"is_disabled":false,"rental_uris":{"android":"levelo://app?vid=b1548af6-5925-437e-9eeb-2f07979b1e82","ios":"levelo://app?vid=b1548af6-5925-437e-9eeb-2f07979b1e82"},"vehicle_type_id":"4","last_reported":1687705608,"current_range_meters":1200,"station_id":"ce4bhbp2rcd13ifvqerg","pricing_plan_id":"free"},{"bike_id":"af084cab-7228-4cb1-b329-e6a3459ff7df","system_id":"levelo_inurba_marseille","lat":43.28253,"lon":5.35066,"is_reserved":false,"is_disabled":false,"rental_uris":{"android":"levelo://app?vid=af084cab-7228-4cb1-b329-e6a3459ff7df","ios":"levelo://app?vid=af084cab-7228-4cb1-b329-e6a3459ff7df"},"vehicle_type_id":"4","last_reported":1687705608,"current_range_meters":26000,"station_id":"","pricing_plan_id":"free"},{"bike_id":"13aa694c-177f-4e0e-9030-610965bd7535","system_id":"levelo_inurba_marseille","lat":43.28034,"lon":5.36944,"is_reserved":false,"is_disabled":false,"rental_uris":{"android":"levelo://app?vid=13aa694c-177f-4e0e-9030-610965bd7535","ios":"levelo://app?vid=13aa694c-177f-4e0e-9030-610965bd7535"},"vehicle_type_id":"4","last_reported":1687705608,"current_range_meters":4400,"station_id":"ce4bha12rcd13ifvqef0","pricing_plan_id":"free"},{"bike_id":"4446e97a-32fe-4c75-9c10-fdda06a1d380","system_id":"levelo_inurba_marseille","lat":43.28039,"lon":5.369297,"is_reserved":false,"is_disabled":false,"rental_uris":{"android":"levelo://app?vid=4446e97a-32fe-4c75-9c10-fdda06a1d380","ios":"levelo://app?vid=4446e97a-32fe-4c75-9c10-fdda06a1d380"},"vehicle_type_id":"4","last_reported":1687705608,"current_range_meters":9200,"station_id":"ce4bha12rcd13ifvqef0","pricing_plan_id":"free"},{"bike_id":"fbbb222a-ad7c-40aa-8702-9aa1ddce487a","system_id":"levelo_inurba_marseille","lat":43.281044,"lon":5.378308,"is_reserved":false,"is_disabled":false,"rental_uris":{"android":"levelo://app?vid=fbbb222a-ad7c-40aa-8702-9aa1ddce487a","ios":"levelo://app?vid=fbbb222a-ad7c-40aa-8702-9aa1ddce487a"},"vehicle_type_id":"4","last_reported":1687705608,"current_range_meters":20800,"station_id":"ce4bha12rcd13ifvqee0","pricing_plan_id":"free"},{"bike_id":"1ccede22-75f5-4ee1-bd0f-ce98cc825014","system_id":"levelo_inurba_marseille","lat":43.281044,"lon":5.378308,"is_reserved":false,"is_disabled":false,"rental_uris":{"android":"levelo://app?vid=1ccede22-75f5-4ee1-bd0f-ce98cc825014","ios":"levelo://app?vid=1ccede22-75f5-4ee1-bd0f-ce98cc825014"},"vehicle_type_id":"4","last_reported":1687705608,"current_range_meters":18400,"station_id":"ce4bha12rcd13ifvqee0","pricing_plan_id":"free"},{"bike_id":"d9ef27c9-29de-4e67-b267-69ee69b10809","system_id":"levelo_inurba_marseille","lat":43.284462,"lon":5.392121,"is_reserved":false,"is_disabled":false,"rental_uris":{"android":"levelo://app?vid=d9ef27c9-29de-4e67-b267-69ee69b10809","ios":"levelo://app?vid=d9ef27c9-29de-4e67-b267-69ee69b10809"},"vehicle_type_id":"4","last_reported":1687705608,"current_range_meters":31600,"station_id":"ce4bhoh2rcd13ifvqh5g","pricing_plan_id":"free"},{"bike_id":"48658be6-78a7-4125-81ae-de7f3551463b","system_id":"levelo_inurba_marseille","lat":43.284462,"lon":5.392121,"is_reserved":false,"is_disabled":false,"rental_uris":{"android":"levelo://app?vid=48658be6-78a7-4125-81ae-de7f3551463b","ios":"levelo://app?vid=48658be6-78a7-4125-81ae-de7f3551463b"},"vehicle_type_id":"4","last_reported":1687705608,"current_range_meters":13600,"station_id":"ce4bhoh2rcd13ifvqh5g","pricing_plan_id":"free"},{"bike_id":"899ca437-e6f9-49b3-b575-f6ae27171954","system_id":"levelo_inurba_marseille","lat":43.326605,"lon":5.409903,"is_reserved":false,"is_disabled":false,"rental_uris":{"android":"levelo://app?vid=899ca437-e6f9-49b3-b575-f6ae27171954","ios":"levelo://app?vid=899ca437-e6f9-49b3-b575-f6ae27171954"},"vehicle_type_id":"4","last_reported":1687705608,"current_range_meters":31600,"station_id":"ce4bhpp2rcd13ifvqhgg","pricing_plan_id":"free"},{"bike_id":"ebeb8ff5-e51c-4b18-b07a-c62304e88b17","system_id":"levelo_inurba_marseille","lat":43.326605,"lon":5.409903,"is_reserved":false,"is_disabled":false,"rental_uris":{"android":"levelo://app?vid=ebeb8ff5-e51c-4b18-b07a-c62304e88b17","ios":"levelo://app?vid=ebeb8ff5-e51c-4b18-b07a-c62304e88b17"},"vehicle_type_id":"4","last_reported":1687705608,"current_range_meters":31600,"station_id":"ce4bhpp2rcd13ifvqhgg","pricing_plan_id":"free"},{"bike_id":"ff60adae-f71a-4e2f-9c03-c28e9ecc3c45","system_id":"levelo_inurba_marseille","lat":43.326605,"lon":5.409903,"is_reserved":false,"is_disabled":false,"rental_uris":{"android":"levelo://app?vid=ff60adae-f71a-4e2f-9c03-c28e9ecc3c45","ios":"levelo://app?vid=ff60adae-f71a-4e2f-9c03-c28e9ecc3c45"},"vehicle_type_id":"4","last_reported":1687705608,"current_range_meters":31600,"station_id":"ce4bhpp2rcd13ifvqhgg","pricing_plan_id":"free"},{"bike_id":"7f4e5f33-3d6b-4470-b773-9bb881f7fc86","system_id":"levelo_inurba_marseille","lat":43.326576,"lon":5.409933,"is_reserved":false,"is_disabled":false,"rental_uris":{"android":"levelo://app?vid=7f4e5f33-3d6b-4470-b773-9bb881f7fc86","ios":"levelo://app?vid=7f4e5f33-3d6b-4470-b773-9bb881f7fc86"},"vehicle_type_id":"4","last_reported":1687705608,"current_range_meters":0,"station_id":"ce4bhpp2rcd13ifvqhgg","pricing_plan_id":"free"},{"bike_id":"e5f19913-67c1-4c42-889b-a58207584fb0","system_id":"levelo_inurba_marseille","lat":43.326605,"lon":5.409903,"is_reserved":false,"is_disabled":false,"rental_uris":{"android":"levelo://app?vid=e5f19913-67c1-4c42-889b-a58207584fb0","ios":"levelo://app?vid=e5f19913-67c1-4c42-889b-a58207584fb0"},"vehicle_type_id":"4","last_reported":1687705608,"current_range_meters":23600,"station_id":"ce4bhpp2rcd13ifvqhgg","pricing_plan_id":"free"},{"bike_id":"50fd953c-9754-45f4-aec7-ae52bb9eb6fe","system_id":"levelo_inurba_marseille","lat":43.287154,"lon":5.399979,"is_reserved":false,"is_disabled":false,"rental_uris":{"android":"levelo://app?vid=50fd953c-9754-45f4-aec7-ae52bb9eb6fe","ios":"levelo://app?vid=50fd953c-9754-45f4-aec7-ae52bb9eb6fe"},"vehicle_type_id":"4","last_reported":1687705608,"current_range_meters":31600,"station_id":"ce4bho92rcd13ifvqh3g","pricing_plan_id":"free"},{"bike_id":"36487eff-2b94-4b7d-9c03-b751a308a39d","system_id":"levelo_inurba_marseille","lat":43.287154,"lon":5.399979,"is_reserved":false,"is_disabled":false,"rental_uris":{"android":"levelo://app?vid=36487eff-2b94-4b7d-9c03-b751a308a39d","ios":"levelo://app?vid=36487eff-2b94-4b7d-9c03-b751a308a39d"},"vehicle_type_id":"4","last_reported":1687705608,"current_range_meters":2800,"station_id":"ce4bho92rcd13ifvqh3g","pricing_plan_id":"free"},{"bike_id":"b53c8549-56e4-4970-8294-9584e693bef7","system_id":"levelo_inurba_marseille","lat":43.33207,"lon":5.40759,"is_reserved":false,"is_disabled":false,"rental_uris":{"android":"levelo://app?vid=b53c8549-56e4-4970-8294-9584e693bef7","ios":"levelo://app?vid=b53c8549-56e4-4970-8294-9584e693bef7"},"vehicle_type_id":"4","last_reported":1687705608,"current_range_meters":0,"station_id":"","pricing_plan_id":"free"},{"bike_id":"7d9fe9e8-83b8-4b3d-9256-e7bf7b5bc8bc","system_id":"levelo_inurba_marseille","lat":43.299579,"lon":5.413255,"is_reserved":false,"is_disabled":false,"rental_uris":{"android":"levelo://app?vid=7d9fe9e8-83b8-4b3d-9256-e7bf7b5bc8bc","ios":"levelo://app?vid=7d9fe9e8-83b8-4b3d-9256-e7bf7b5bc8bc"},"vehicle_type_id":"4","last_reported":1687705608,"current_range_meters":11600,"station_id":"ce4bhp12rcd13ifvqh9g","pricing_plan_id":"free"},{"bike_id":"10795bcb-d641-4e53-aa97-657d2487e7c6","system_id":"levelo_inurba_marseille","lat":43.279742,"lon":5.38744,"is_reserved":false,"is_disabled":false,"rental_uris":{"android":"levelo://app?vid=10795bcb-d641-4e53-aa97-657d2487e7c6","ios":"levelo://app?vid=10795bcb-d641-4e53-aa97-657d2487e7c6"},"vehicle_type_id":"4","last_reported":1687705608,"current_range_meters":25200,"station_id":"ce4bhg12rcd13ifvqf80","pricing_plan_id":"free"},{"bike_id":"639f352d-a06c-4b5a-b9ff-2ffade87b527","system_id":"levelo_inurba_marseille","lat":43.27974,"lon":5.38739,"is_reserved":false,"is_disabled":false,"rental_uris":{"android":"levelo://app?vid=639f352d-a06c-4b5a-b9ff-2ffade87b527","ios":"levelo://app?vid=639f352d-a06c-4b5a-b9ff-2ffade87b527"},"vehicle_type_id":"4","last_reported":1687705608,"current_range_meters":3200,"station_id":"ce4bhg12rcd13ifvqf80","pricing_plan_id":"free"},{"bike_id":"7c302b34-8530-4daa-ae65-0dae3aa05914","system_id":"levelo_inurba_marseille","lat":43.279742,"lon":5.38744,"is_reserved":false,"is_disabled":false,"rental_uris":{"android":"levelo://app?vid=7c302b34-8530-4daa-ae65-0dae3aa05914","ios":"levelo://app?vid=7c302b34-8530-4daa-ae65-0dae3aa05914"},"vehicle_type_id":"4","last_reported":1687705608,"current_range_meters":31200,"station_id":"ce4bhg12rcd13ifvqf80","pricing_plan_id":"free"},{"bike_id":"6b081579-5bc6-4147-a52b-60a25fbaf4d1","system_id":"levelo_inurba_marseille","lat":43.325233,"lon":5.414318,"is_reserved":false,"is_disabled":false,"rental_uris":{"android":"levelo://app?vid=6b081579-5bc6-4147-a52b-60a25fbaf4d1","ios":"levelo://app?vid=6b081579-5bc6-4147-a52b-60a25fbaf4d1"},"vehicle_type_id":"4","last_reported":1687705608,"current_range_meters":29600,"station_id":"ce4bhq12rcd13ifvqhhg","pricing_plan_id":"free"},{"bike_id":"f0db96f6-c849-49d8-b377-de5b8fb13607","system_id":"levelo_inurba_marseille","lat":43.276179,"lon":5.361009,"is_reserved":false,"is_disabled":false,"rental_uris":{"android":"levelo://app?vid=f0db96f6-c849-49d8-b377-de5b8fb13607","ios":"levelo://app?vid=f0db96f6-c849-49d8-b377-de5b8fb13607"},"vehicle_type_id":"4","last_reported":1687705608,"current_range_meters":30400,"station_id":"ce4bgj92rcd13ifvqbe0","pricing_plan_id":"free"},{"bike_id":"adf0ea61-0d73-49a9-81f8-7ebe6388818f","system_id":"levelo_inurba_marseille","lat":43.325243,"lon":5.414326,"is_reserved":false,"is_disabled":false,"rental_uris":{"android":"levelo://app?vid=adf0ea61-0d73-49a9-81f8-7ebe6388818f","ios":"levelo://app?vid=adf0ea61-0d73-49a9-81f8-7ebe6388818f"},"vehicle_type_id":"4","last_reported":1687705608,"current_range_meters":21200,"station_id":"ce4bhq12rcd13ifvqhhg","pricing_plan_id":"free"},{"bike_id":"e73900ad-bdf3-48b5-892e-cbd3af007b28","system_id":"levelo_inurba_marseille","lat":43.325233,"lon":5.414318,"is_reserved":false,"is_disabled":false,"rental_uris":{"android":"levelo://app?vid=e73900ad-bdf3-48b5-892e-cbd3af007b28","ios":"levelo://app?vid=e73900ad-bdf3-48b5-892e-cbd3af007b28"},"vehicle_type_id":"4","last_reported":1687705608,"current_range_meters":28800,"station_id":"ce4bhq12rcd13ifvqhhg","pricing_plan_id":"free"},{"bike_id":"5b8ed45a-8d6b-4f5a-9063-f50226e4be5e","system_id":"levelo_inurba_marseille","lat":43.280784,"lon":5.396622,"is_reserved":false,"is_disabled":false,"rental_uris":{"android":"levelo://app?vid=5b8ed45a-8d6b-4f5a-9063-f50226e4be5e","ios":"levelo://app?vid=5b8ed45a-8d6b-4f5a-9063-f50226e4be5e"},"vehicle_type_id":"4","last_reported":1687705608,"current_range_meters":30400,"station_id":"ce4bho12rcd13ifvqh2g","pricing_plan_id":"free"},{"bike_id":"1659edf5-f4a7-4387-b454-cdb85ac2ee8f","system_id":"levelo_inurba_marseille","lat":43.278399,"lon":5.392139,"is_reserved":false,"is_disabled":false,"rental_uris":{"android":"levelo://app?vid=1659edf5-f4a7-4387-b454-cdb85ac2ee8f","ios":"levelo://app?vid=1659edf5-f4a7-4387-b454-cdb85ac2ee8f"},"vehicle_type_id":"4","last_reported":1687705608,"current_range_meters":12800,"station_id":"ce4bhjp2rcd13ifvqga0","pricing_plan_id":"free"},{"bike_id":"1bac3160-f7db-4715-bb52-42333d84c069","system_id":"levelo_inurba_marseille","lat":43.27382,"lon":5.36251,"is_reserved":false,"is_disabled":false,"rental_uris":{"android":"levelo://app?vid=1bac3160-f7db-4715-bb52-42333d84c069","ios":"levelo://app?vid=1bac3160-f7db-4715-bb52-42333d84c069"},"vehicle_type_id":"4","last_reported":1687705608,"current_range_meters":0,"station_id":"","pricing_plan_id":"free"},{"bike_id":"66db4b71-1d20-454e-a7fa-cde48014f371","system_id":"levelo_inurba_marseille","lat":43.27377,"lon":5.36265,"is_reserved":false,"is_disabled":false,"rental_uris":{"android":"levelo://app?vid=66db4b71-1d20-454e-a7fa-cde48014f371","ios":"levelo://app?vid=66db4b71-1d20-454e-a7fa-cde48014f371"},"vehicle_type_id":"4","last_reported":1687705608,"current_range_meters":0,"station_id":"ce4bhbh2rcd13ifvqeo0","pricing_plan_id":"free"},{"bike_id":"333ff5cf-bc22-4a89-a415-a54baff31708","system_id":"levelo_inurba_marseille","lat":43.273613,"lon":5.362705,"is_reserved":false,"is_disabled":false,"rental_uris":{"android":"levelo://app?vid=333ff5cf-bc22-4a89-a415-a54baff31708","ios":"levelo://app?vid=333ff5cf-bc22-4a89-a415-a54baff31708"},"vehicle_type_id":"4","last_reported":1687705608,"current_range_meters":14800,"station_id":"ce4bhbh2rcd13ifvqeo0","pricing_plan_id":"free"},{"bike_id":"e44b2b00-09f9-4e36-8fa8-d0bcfb68eec8","system_id":"levelo_inurba_marseille","lat":43.27374,"lon":5.36267,"is_reserved":false,"is_disabled":false,"rental_uris":{"android":"levelo://app?vid=e44b2b00-09f9-4e36-8fa8-d0bcfb68eec8","ios":"levelo://app?vid=e44b2b00-09f9-4e36-8fa8-d0bcfb68eec8"},"vehicle_type_id":"4","last_reported":1687705608,"current_range_meters":2800,"station_id":"ce4bhbh2rcd13ifvqeo0","pricing_plan_id":"free"},{"bike_id":"e5a7cd8a-0c77-4bb8-8134-fa6aeed4e0c2","system_id":"levelo_inurba_marseille","lat":43.27372,"lon":5.36263,"is_reserved":false,"is_disabled":false,"rental_uris":{"android":"levelo://app?vid=e5a7cd8a-0c77-4bb8-8134-fa6aeed4e0c2","ios":"levelo://app?vid=e5a7cd8a-0c77-4bb8-8134-fa6aeed4e0c2"},"vehicle_type_id":"4","last_reported":1687705608,"current_range_meters":28000,"station_id":"ce4bhbh2rcd13ifvqeo0","pricing_plan_id":"free"},{"bike_id":"e378bc46-f977-4346-ac66-7b00d748ca07","system_id":"levelo_inurba_marseille","lat":43.276769,"lon":5.388787,"is_reserved":false,"is_disabled":false,"rental_uris":{"android":"levelo://app?vid=e378bc46-f977-4346-ac66-7b00d748ca07","ios":"levelo://app?vid=e378bc46-f977-4346-ac66-7b00d748ca07"},"vehicle_type_id":"4","last_reported":1687705608,"current_range_meters":31600,"station_id":"ce4bhi12rcd13ifvqfo0","pricing_plan_id":"free"},{"bike_id":"1835a980-fa64-4ebd-b5fe-b7c8d136eff6","system_id":"levelo_inurba_marseille","lat":43.276769,"lon":5.388787,"is_reserved":false,"is_disabled":false,"rental_uris":{"android":"levelo://app?vid=1835a980-fa64-4ebd-b5fe-b7c8d136eff6","ios":"levelo://app?vid=1835a980-fa64-4ebd-b5fe-b7c8d136eff6"},"vehicle_type_id":"4","last_reported":1687705608,"current_range_meters":2400,"station_id":"ce4bhi12rcd13ifvqfo0","pricing_plan_id":"free"},{"bike_id":"67ecb2f2-b743-42b9-a145-51ac2d7b25cb","system_id":"levelo_inurba_marseille","lat":43.276771,"lon":5.388799,"is_reserved":false,"is_disabled":false,"rental_uris":{"android":"levelo://app?vid=67ecb2f2-b743-42b9-a145-51ac2d7b25cb","ios":"levelo://app?vid=67ecb2f2-b743-42b9-a145-51ac2d7b25cb"},"vehicle_type_id":"4","last_reported":1687705608,"current_range_meters":31600,"station_id":"ce4bhi12rcd13ifvqfo0","pricing_plan_id":"free"},{"bike_id":"558b88ea-dce2-4c5d-b943-88e77e682d02","system_id":"levelo_inurba_marseille","lat":43.31713,"lon":5.42404,"is_reserved":false,"is_disabled":false,"rental_uris":{"android":"levelo://app?vid=558b88ea-dce2-4c5d-b943-88e77e682d02","ios":"levelo://app?vid=558b88ea-dce2-4c5d-b943-88e77e682d02"},"vehicle_type_id":"4","last_reported":1687705608,"current_range_meters":28800,"station_id":"ce4bhp92rcd13ifvqhbg","pricing_plan_id":"free"},{"bike_id":"01208fbe-9431-4ed6-ac1f-e90329c35bdb","system_id":"levelo_inurba_marseille","lat":43.26955,"lon":5.36633,"is_reserved":false,"is_disabled":false,"rental_uris":{"android":"levelo://app?vid=01208fbe-9431-4ed6-ac1f-e90329c35bdb","ios":"levelo://app?vid=01208fbe-9431-4ed6-ac1f-e90329c35bdb"},"vehicle_type_id":"4","last_reported":1687705608,"current_range_meters":0,"station_id":"","pricing_plan_id":"free"},{"bike_id":"487b254e-8a6e-438f-bed4-bfb94cbac8ff","system_id":"levelo_inurba_marseille","lat":43.27428,"lon":5.39413,"is_reserved":false,"is_disabled":false,"rental_uris":{"android":"levelo://app?vid=487b254e-8a6e-438f-bed4-bfb94cbac8ff","ios":"levelo://app?vid=487b254e-8a6e-438f-bed4-bfb94cbac8ff"},"vehicle_type_id":"4","last_reported":1687705608,"current_range_meters":30800,"station_id":"","pricing_plan_id":"free"},{"bike_id":"3abd8ed9-dc5f-45a9-b057-924ec729f9b0","system_id":"levelo_inurba_marseille","lat":43.304096,"lon":5.425385,"is_reserved":false,"is_disabled":false,"rental_uris":{"android":"levelo://app?vid=3abd8ed9-dc5f-45a9-b057-924ec729f9b0","ios":"levelo://app?vid=3abd8ed9-dc5f-45a9-b057-924ec729f9b0"},"vehicle_type_id":"4","last_reported":1687705608,"current_range_meters":20400,"station_id":"ce4bhoh2rcd13ifvqh6g","pricing_plan_id":"free"},{"bike_id":"28cf8a12-f787-4419-8cba-956be39ba6c8","system_id":"levelo_inurba_marseille","lat":43.304096,"lon":5.425385,"is_reserved":false,"is_disabled":false,"rental_uris":{"android":"levelo://app?vid=28cf8a12-f787-4419-8cba-956be39ba6c8","ios":"levelo://app?vid=28cf8a12-f787-4419-8cba-956be39ba6c8"},"vehicle_type_id":"4","last_reported":1687705608,"current_range_meters":21200,"station_id":"ce4bhoh2rcd13ifvqh6g","pricing_plan_id":"free"},{"bike_id":"e958e9f7-963a-45ac-9462-a90c3b9c146c","system_id":"levelo_inurba_marseille","lat":43.295511,"lon":5.422926,"is_reserved":false,"is_disabled":false,"rental_uris":{"android":"levelo://app?vid=e958e9f7-963a-45ac-9462-a90c3b9c146c","ios":"levelo://app?vid=e958e9f7-963a-45ac-9462-a90c3b9c146c"},"vehicle_type_id":"4","last_reported":1687705608,"current_range_meters":31200,"station_id":"ce4bhph2rcd13ifvqhdg","pricing_plan_id":"free"},{"bike_id":"c234f141-7bce-4bcb-a233-93583e08dd83","system_id":"levelo_inurba_marseille","lat":43.272116,"lon":5.391747,"is_reserved":false,"is_disabled":false,"rental_uris":{"android":"levelo://app?vid=c234f141-7bce-4bcb-a233-93583e08dd83","ios":"levelo://app?vid=c234f141-7bce-4bcb-a233-93583e08dd83"},"vehicle_type_id":"4","last_reported":1687705608,"current_range_meters":30800,"station_id":"ce4bhhp2rcd13ifvqfm0","pricing_plan_id":"free"},{"bike_id":"4fa21102-9c5c-4785-8da0-3d7f957b0c31","system_id":"levelo_inurba_marseille","lat":43.272118,"lon":5.391758,"is_reserved":false,"is_disabled":false,"rental_uris":{"android":"levelo://app?vid=4fa21102-9c5c-4785-8da0-3d7f957b0c31","ios":"levelo://app?vid=4fa21102-9c5c-4785-8da0-3d7f957b0c31"},"vehicle_type_id":"4","last_reported":1687705608,"current_range_meters":28400,"station_id":"ce4bhhp2rcd13ifvqfm0","pricing_plan_id":"free"},{"bike_id":"2ced362b-b784-4b01-a3fe-e2e4a0adb6b6","system_id":"levelo_inurba_marseille","lat":43.2799,"lon":5.41659,"is_reserved":false,"is_disabled":false,"rental_uris":{"android":"levelo://app?vid=2ced362b-b784-4b01-a3fe-e2e4a0adb6b6","ios":"levelo://app?vid=2ced362b-b784-4b01-a3fe-e2e4a0adb6b6"},"vehicle_type_id":"4","last_reported":1687705608,"current_range_meters":19200,"station_id":"ce4bho12rcd13ifvqh1g","pricing_plan_id":"free"},{"bike_id":"33cad336-ca87-49e4-9aa8-30c745d85156","system_id":"levelo_inurba_marseille","lat":43.27996,"lon":5.416624,"is_reserved":false,"is_disabled":false,"rental_uris":{"android":"levelo://app?vid=33cad336-ca87-49e4-9aa8-30c745d85156","ios":"levelo://app?vid=33cad336-ca87-49e4-9aa8-30c745d85156"},"vehicle_type_id":"4","last_reported":1687705608,"current_range_meters":15600,"station_id":"ce4bho12rcd13ifvqh1g","pricing_plan_id":"free"},{"bike_id":"3344b3fb-bb37-4d4b-8736-6bb9a1b600a4","system_id":"levelo_inurba_marseille","lat":43.27988,"lon":5.41658,"is_reserved":false,"is_disabled":false,"rental_uris":{"android":"levelo://app?vid=3344b3fb-bb37-4d4b-8736-6bb9a1b600a4","ios":"levelo://app?vid=3344b3fb-bb37-4d4b-8736-6bb9a1b600a4"},"vehicle_type_id":"4","last_reported":1687705608,"current_range_meters":26400,"station_id":"ce4bho12rcd13ifvqh1g","pricing_plan_id":"free"},{"bike_id":"2df6d04a-b02d-4a6d-a6ac-d5fda73f0e99","system_id":"levelo_inurba_marseille","lat":43.261782,"lon":5.374515,"is_reserved":false,"is_disabled":false,"rental_uris":{"android":"levelo://app?vid=2df6d04a-b02d-4a6d-a6ac-d5fda73f0e99","ios":"levelo://app?vid=2df6d04a-b02d-4a6d-a6ac-d5fda73f0e99"},"vehicle_type_id":"4","last_reported":1687705608,"current_range_meters":22000,"station_id":"ce4bhgp2rcd13ifvqfc0","pricing_plan_id":"free"},{"bike_id":"d4f264e3-ecf8-4f1c-bc2e-778acd680520","system_id":"levelo_inurba_marseille","lat":43.30799,"lon":5.43521,"is_reserved":false,"is_disabled":false,"rental_uris":{"android":"levelo://app?vid=d4f264e3-ecf8-4f1c-bc2e-778acd680520","ios":"levelo://app?vid=d4f264e3-ecf8-4f1c-bc2e-778acd680520"},"vehicle_type_id":"4","last_reported":1687705608,"current_range_meters":12000,"station_id":"ce4bhph2rcd13ifvqheg","pricing_plan_id":"free"},{"bike_id":"46e67c8b-b6c3-4c76-8fb1-57c130e6fc17","system_id":"levelo_inurba_marseille","lat":43.308051,"lon":5.43527,"is_reserved":false,"is_disabled":false,"rental_uris":{"android":"levelo://app?vid=46e67c8b-b6c3-4c76-8fb1-57c130e6fc17","ios":"levelo://app?vid=46e67c8b-b6c3-4c76-8fb1-57c130e6fc17"},"vehicle_type_id":"4","last_reported":1687705608,"current_range_meters":18400,"station_id":"ce4bhph2rcd13ifvqheg","pricing_plan_id":"free"},{"bike_id":"d2e70966-95eb-489f-8366-135354866108","system_id":"levelo_inurba_marseille","lat":43.30806,"lon":5.43524,"is_reserved":false,"is_disabled":false,"rental_uris":{"android":"levelo://app?vid=d2e70966-95eb-489f-8366-135354866108","ios":"levelo://app?vid=d2e70966-95eb-489f-8366-135354866108"},"vehicle_type_id":"4","last_reported":1687705608,"current_range_meters":17600,"station_id":"ce4bhph2rcd13ifvqheg","pricing_plan_id":"free"},{"bike_id":"edc3ebe4-9a7c-43b9-bd79-3b964ef5926b","system_id":"levelo_inurba_marseille","lat":43.30795,"lon":5.43524,"is_reserved":false,"is_disabled":false,"rental_uris":{"android":"levelo://app?vid=edc3ebe4-9a7c-43b9-bd79-3b964ef5926b","ios":"levelo://app?vid=edc3ebe4-9a7c-43b9-bd79-3b964ef5926b"},"vehicle_type_id":"4","last_reported":1687705608,"current_range_meters":27600,"station_id":"ce4bhph2rcd13ifvqheg","pricing_plan_id":"free"},{"bike_id":"59cbe1eb-44df-451e-bdc0-ab214cabfe39","system_id":"levelo_inurba_marseille","lat":43.26321,"lon":5.37576,"is_reserved":false,"is_disabled":false,"rental_uris":{"android":"levelo://app?vid=59cbe1eb-44df-451e-bdc0-ab214cabfe39","ios":"levelo://app?vid=59cbe1eb-44df-451e-bdc0-ab214cabfe39"},"vehicle_type_id":"4","last_reported":1687705608,"current_range_meters":8400,"station_id":"","pricing_plan_id":"free"},{"bike_id":"4d209566-1427-47ac-9d19-9043b349909c","system_id":"levelo_inurba_marseille","lat":43.30801,"lon":5.43528,"is_reserved":false,"is_disabled":false,"rental_uris":{"android":"levelo://app?vid=4d209566-1427-47ac-9d19-9043b349909c","ios":"levelo://app?vid=4d209566-1427-47ac-9d19-9043b349909c"},"vehicle_type_id":"4","last_reported":1687705608,"current_range_meters":20800,"station_id":"ce4bhph2rcd13ifvqheg","pricing_plan_id":"free"},{"bike_id":"76c3ec34-c233-4354-a944-e589808e10ac","system_id":"levelo_inurba_marseille","lat":43.265569,"lon":5.390047,"is_reserved":false,"is_disabled":false,"rental_uris":{"android":"levelo://app?vid=76c3ec34-c233-4354-a944-e589808e10ac","ios":"levelo://app?vid=76c3ec34-c233-4354-a944-e589808e10ac"},"vehicle_type_id":"4","last_reported":1687705608,"current_range_meters":10400,"station_id":"ce4bhe12rcd13ifvqf30","pricing_plan_id":"free"},{"bike_id":"612f8d8d-3540-49ab-9888-ea2418915575","system_id":"levelo_inurba_marseille","lat":43.261782,"lon":5.374515,"is_reserved":false,"is_disabled":false,"rental_uris":{"android":"levelo://app?vid=612f8d8d-3540-49ab-9888-ea2418915575","ios":"levelo://app?vid=612f8d8d-3540-49ab-9888-ea2418915575"},"vehicle_type_id":"4","last_reported":1687705608,"current_range_meters":3600,"station_id":"ce4bhgp2rcd13ifvqfc0","pricing_plan_id":"free"},{"bike_id":"76d3e857-dfc9-4b09-a3c3-cdea65b61bb6","system_id":"levelo_inurba_marseille","lat":43.26187,"lon":5.37446,"is_reserved":false,"is_disabled":false,"rental_uris":{"android":"levelo://app?vid=76d3e857-dfc9-4b09-a3c3-cdea65b61bb6","ios":"levelo://app?vid=76d3e857-dfc9-4b09-a3c3-cdea65b61bb6"},"vehicle_type_id":"4","last_reported":1687705608,"current_range_meters":8000,"station_id":"ce4bhgp2rcd13ifvqfc0","pricing_plan_id":"free"},{"bike_id":"fce6da5a-8222-416a-9d54-3b15a5155a1a","system_id":"levelo_inurba_marseille","lat":43.26186,"lon":5.37444,"is_reserved":false,"is_disabled":false,"rental_uris":{"android":"levelo://app?vid=fce6da5a-8222-416a-9d54-3b15a5155a1a","ios":"levelo://app?vid=fce6da5a-8222-416a-9d54-3b15a5155a1a"},"vehicle_type_id":"4","last_reported":1687705608,"current_range_meters":20000,"station_id":"ce4bhgp2rcd13ifvqfc0","pricing_plan_id":"free"},{"bike_id":"3e7fe226-f0d7-49e5-aacc-3e72288fcc67","system_id":"levelo_inurba_marseille","lat":43.26184,"lon":5.37447,"is_reserved":false,"is_disabled":false,"rental_uris":{"android":"levelo://app?vid=3e7fe226-f0d7-49e5-aacc-3e72288fcc67","ios":"levelo://app?vid=3e7fe226-f0d7-49e5-aacc-3e72288fcc67"},"vehicle_type_id":"4","last_reported":1687705608,"current_range_meters":15200,"station_id":"ce4bhgp2rcd13ifvqfc0","pricing_plan_id":"free"},{"bike_id":"2c5d52cb-6624-4592-a5b7-451310bbbe41","system_id":"levelo_inurba_marseille","lat":43.26179,"lon":5.3745,"is_reserved":false,"is_disabled":false,"rental_uris":{"android":"levelo://app?vid=2c5d52cb-6624-4592-a5b7-451310bbbe41","ios":"levelo://app?vid=2c5d52cb-6624-4592-a5b7-451310bbbe41"},"vehicle_type_id":"4","last_reported":1687705608,"current_range_meters":10000,"station_id":"ce4bhgp2rcd13ifvqfc0","pricing_plan_id":"free"},{"bike_id":"23ec3c8d-5d21-469e-bdc7-93f213635e71","system_id":"levelo_inurba_marseille","lat":43.271368,"lon":5.40928,"is_reserved":false,"is_disabled":false,"rental_uris":{"android":"levelo://app?vid=23ec3c8d-5d21-469e-bdc7-93f213635e71","ios":"levelo://app?vid=23ec3c8d-5d21-469e-bdc7-93f213635e71"},"vehicle_type_id":"4","last_reported":1687705608,"current_range_meters":30400,"station_id":"ce4bhl12rcd13ifvqgf0","pricing_plan_id":"free"},{"bike_id":"566ab506-acbe-45ca-88fb-18abf4f2cf53","system_id":"levelo_inurba_marseille","lat":43.27171,"lon":5.4099,"is_reserved":false,"is_disabled":false,"rental_uris":{"android":"levelo://app?vid=566ab506-acbe-45ca-88fb-18abf4f2cf53","ios":"levelo://app?vid=566ab506-acbe-45ca-88fb-18abf4f2cf53"},"vehicle_type_id":"4","last_reported":1687705608,"current_range_meters":30400,"station_id":"","pricing_plan_id":"free"},{"bike_id":"d85a3194-a79a-4171-8c36-f45b72953307","system_id":"levelo_inurba_marseille","lat":43.27171,"lon":5.40997,"is_reserved":false,"is_disabled":false,"rental_uris":{"android":"levelo://app?vid=d85a3194-a79a-4171-8c36-f45b72953307","ios":"levelo://app?vid=d85a3194-a79a-4171-8c36-f45b72953307"},"vehicle_type_id":"4","last_reported":1687705608,"current_range_meters":0,"station_id":"","pricing_plan_id":"free"},{"bike_id":"9c3ee618-4b5b-487c-8dca-0db78ecc7aa3","system_id":"levelo_inurba_marseille","lat":43.267959,"lon":5.402687,"is_reserved":false,"is_disabled":false,"rental_uris":{"android":"levelo://app?vid=9c3ee618-4b5b-487c-8dca-0db78ecc7aa3","ios":"levelo://app?vid=9c3ee618-4b5b-487c-8dca-0db78ecc7aa3"},"vehicle_type_id":"4","last_reported":1687705608,"current_range_meters":29600,"station_id":"ce501612rcd8frsf0b60","pricing_plan_id":"free"},{"bike_id":"a4f35b7f-bba3-4a76-9ed5-0a6d86604035","system_id":"levelo_inurba_marseille","lat":43.298768,"lon":5.43643,"is_reserved":false,"is_disabled":false,"rental_uris":{"android":"levelo://app?vid=a4f35b7f-bba3-4a76-9ed5-0a6d86604035","ios":"levelo://app?vid=a4f35b7f-bba3-4a76-9ed5-0a6d86604035"},"vehicle_type_id":"4","last_reported":1687705608,"current_range_meters":31600,"station_id":"ce4bhpp2rcd13ifvqhfg","pricing_plan_id":"free"},{"bike_id":"7cd82a91-5a32-4ffe-85aa-0c38fd58ec33","system_id":"levelo_inurba_marseille","lat":43.29897,"lon":5.43669,"is_reserved":false,"is_disabled":false,"rental_uris":{"android":"levelo://app?vid=7cd82a91-5a32-4ffe-85aa-0c38fd58ec33","ios":"levelo://app?vid=7cd82a91-5a32-4ffe-85aa-0c38fd58ec33"},"vehicle_type_id":"4","last_reported":1687705608,"current_range_meters":20400,"station_id":"","pricing_plan_id":"free"},{"bike_id":"055a308f-85c6-45cf-b61e-a1cb9037d321","system_id":"levelo_inurba_marseille","lat":43.26039,"lon":5.37416,"is_reserved":false,"is_disabled":false,"rental_uris":{"android":"levelo://app?vid=055a308f-85c6-45cf-b61e-a1cb9037d321","ios":"levelo://app?vid=055a308f-85c6-45cf-b61e-a1cb9037d321"},"vehicle_type_id":"4","last_reported":1687705608,"current_range_meters":1200,"station_id":"","pricing_plan_id":"free"},{"bike_id":"6763ee33-3c74-48fa-bd1a-0963a452fb7e","system_id":"levelo_inurba_marseille","lat":43.260225,"lon":5.375455,"is_reserved":false,"is_disabled":false,"rental_uris":{"android":"levelo://app?vid=6763ee33-3c74-48fa-bd1a-0963a452fb7e","ios":"levelo://app?vid=6763ee33-3c74-48fa-bd1a-0963a452fb7e"},"vehicle_type_id":"4","last_reported":1687705608,"current_range_meters":25200,"station_id":"ce4bhgh2rcd13ifvqfa0","pricing_plan_id":"free"},{"bike_id":"3880dfa6-5d4e-4bab-8d6a-a341160027dd","system_id":"levelo_inurba_marseille","lat":43.260225,"lon":5.375455,"is_reserved":false,"is_disabled":false,"rental_uris":{"android":"levelo://app?vid=3880dfa6-5d4e-4bab-8d6a-a341160027dd","ios":"levelo://app?vid=3880dfa6-5d4e-4bab-8d6a-a341160027dd"},"vehicle_type_id":"4","last_reported":1687705608,"current_range_meters":31600,"station_id":"ce4bhgh2rcd13ifvqfa0","pricing_plan_id":"free"},{"bike_id":"5bfecae9-3658-484f-9898-eeae38fa268f","system_id":"levelo_inurba_marseille","lat":43.260219,"lon":5.37546,"is_reserved":false,"is_disabled":false,"rental_uris":{"android":"levelo://app?vid=5bfecae9-3658-484f-9898-eeae38fa268f","ios":"levelo://app?vid=5bfecae9-3658-484f-9898-eeae38fa268f"},"vehicle_type_id":"4","last_reported":1687705608,"current_range_meters":22400,"station_id":"ce4bhgh2rcd13ifvqfa0","pricing_plan_id":"free"},{"bike_id":"811e566f-05c2-4c94-8195-df841d458e07","system_id":"levelo_inurba_marseille","lat":43.260219,"lon":5.37546,"is_reserved":false,"is_disabled":false,"rental_uris":{"android":"levelo://app?vid=811e566f-05c2-4c94-8195-df841d458e07","ios":"levelo://app?vid=811e566f-05c2-4c94-8195-df841d458e07"},"vehicle_type_id":"4","last_reported":1687705608,"current_range_meters":24800,"station_id":"ce4bhgh2rcd13ifvqfa0","pricing_plan_id":"free"},{"bike_id":"46a9b242-5f43-4853-a6a1-1fa662a77315","system_id":"levelo_inurba_marseille","lat":43.260219,"lon":5.37546,"is_reserved":false,"is_disabled":false,"rental_uris":{"android":"levelo://app?vid=46a9b242-5f43-4853-a6a1-1fa662a77315","ios":"levelo://app?vid=46a9b242-5f43-4853-a6a1-1fa662a77315"},"vehicle_type_id":"4","last_reported":1687705608,"current_range_meters":8400,"station_id":"ce4bhgh2rcd13ifvqfa0","pricing_plan_id":"free"},{"bike_id":"f3c43448-4abc-4c1c-bfac-8a1912b840be","system_id":"levelo_inurba_marseille","lat":43.2607,"lon":5.393983,"is_reserved":false,"is_disabled":false,"rental_uris":{"android":"levelo://app?vid=f3c43448-4abc-4c1c-bfac-8a1912b840be","ios":"levelo://app?vid=f3c43448-4abc-4c1c-bfac-8a1912b840be"},"vehicle_type_id":"4","last_reported":1687705608,"current_range_meters":24400,"station_id":"ce4bhh92rcd13ifvqfj0","pricing_plan_id":"free"},{"bike_id":"44afc88a-051b-4fdd-8abc-3702bae9141a","system_id":"levelo_inurba_marseille","lat":43.2607,"lon":5.393983,"is_reserved":false,"is_disabled":false,"rental_uris":{"android":"levelo://app?vid=44afc88a-051b-4fdd-8abc-3702bae9141a","ios":"levelo://app?vid=44afc88a-051b-4fdd-8abc-3702bae9141a"},"vehicle_type_id":"4","last_reported":1687705608,"current_range_meters":21600,"station_id":"ce4bhh92rcd13ifvqfj0","pricing_plan_id":"free"},{"bike_id":"abe207a3-4e0e-434c-afba-c5a243bfe3d5","system_id":"levelo_inurba_marseille","lat":43.27498,"lon":5.42452,"is_reserved":false,"is_disabled":false,"rental_uris":{"android":"levelo://app?vid=abe207a3-4e0e-434c-afba-c5a243bfe3d5","ios":"levelo://app?vid=abe207a3-4e0e-434c-afba-c5a243bfe3d5"},"vehicle_type_id":"4","last_reported":1687705608,"current_range_meters":31200,"station_id":"ce4bhn92rcd13ifvqgrg","pricing_plan_id":"free"},{"bike_id":"bff03d5d-ed33-491b-bcd6-53aabff4767d","system_id":"levelo_inurba_marseille","lat":43.27496,"lon":5.42455,"is_reserved":false,"is_disabled":false,"rental_uris":{"android":"levelo://app?vid=bff03d5d-ed33-491b-bcd6-53aabff4767d","ios":"levelo://app?vid=bff03d5d-ed33-491b-bcd6-53aabff4767d"},"vehicle_type_id":"4","last_reported":1687705608,"current_range_meters":29200,"station_id":"ce4bhn92rcd13ifvqgrg","pricing_plan_id":"free"},{"bike_id":"e0daa8dd-e6f1-44dc-b8b6-24a3d1a1fc5b","system_id":"levelo_inurba_marseille","lat":43.27494,"lon":5.42453,"is_reserved":false,"is_disabled":false,"rental_uris":{"android":"levelo://app?vid=e0daa8dd-e6f1-44dc-b8b6-24a3d1a1fc5b","ios":"levelo://app?vid=e0daa8dd-e6f1-44dc-b8b6-24a3d1a1fc5b"},"vehicle_type_id":"4","last_reported":1687705608,"current_range_meters":20000,"station_id":"ce4bhn92rcd13ifvqgrg","pricing_plan_id":"free"},{"bike_id":"5ed48503-2b52-46de-a729-48b3f094656b","system_id":"levelo_inurba_marseille","lat":43.27493,"lon":5.42452,"is_reserved":false,"is_disabled":false,"rental_uris":{"android":"levelo://app?vid=5ed48503-2b52-46de-a729-48b3f094656b","ios":"levelo://app?vid=5ed48503-2b52-46de-a729-48b3f094656b"},"vehicle_type_id":"4","last_reported":1687705608,"current_range_meters":27200,"station_id":"ce4bhn92rcd13ifvqgrg","pricing_plan_id":"free"},{"bike_id":"90c910d3-59b0-47a4-af54-68c084e3189d","system_id":"levelo_inurba_marseille","lat":43.27495,"lon":5.42455,"is_reserved":false,"is_disabled":false,"rental_uris":{"android":"levelo://app?vid=90c910d3-59b0-47a4-af54-68c084e3189d","ios":"levelo://app?vid=90c910d3-59b0-47a4-af54-68c084e3189d"},"vehicle_type_id":"4","last_reported":1687705608,"current_range_meters":31200,"station_id":"ce4bhn92rcd13ifvqgrg","pricing_plan_id":"free"},{"bike_id":"999188d4-a084-4dd7-9850-db304fb7a2a3","system_id":"levelo_inurba_marseille","lat":43.27491,"lon":5.42451,"is_reserved":false,"is_disabled":false,"rental_uris":{"android":"levelo://app?vid=999188d4-a084-4dd7-9850-db304fb7a2a3","ios":"levelo://app?vid=999188d4-a084-4dd7-9850-db304fb7a2a3"},"vehicle_type_id":"4","last_reported":1687705608,"current_range_meters":23200,"station_id":"ce4bhn92rcd13ifvqgrg","pricing_plan_id":"free"},{"bike_id":"1f0605bb-09e4-4cd0-bc5d-aef39b79467d","system_id":"levelo_inurba_marseille","lat":43.27493,"lon":5.42457,"is_reserved":false,"is_disabled":false,"rental_uris":{"android":"levelo://app?vid=1f0605bb-09e4-4cd0-bc5d-aef39b79467d","ios":"levelo://app?vid=1f0605bb-09e4-4cd0-bc5d-aef39b79467d"},"vehicle_type_id":"4","last_reported":1687705608,"current_range_meters":10800,"station_id":"ce4bhn92rcd13ifvqgrg","pricing_plan_id":"free"},{"bike_id":"635d6dea-9597-4fad-b488-27889a8b0ed8","system_id":"levelo_inurba_marseille","lat":43.27491,"lon":5.42456,"is_reserved":false,"is_disabled":false,"rental_uris":{"android":"levelo://app?vid=635d6dea-9597-4fad-b488-27889a8b0ed8","ios":"levelo://app?vid=635d6dea-9597-4fad-b488-27889a8b0ed8"},"vehicle_type_id":"4","last_reported":1687705608,"current_range_meters":21600,"station_id":"ce4bhn92rcd13ifvqgrg","pricing_plan_id":"free"},{"bike_id":"f0e36f38-b379-47bb-b642-6fcc01682ff1","system_id":"levelo_inurba_marseille","lat":43.27491,"lon":5.42457,"is_reserved":false,"is_disabled":false,"rental_uris":{"android":"levelo://app?vid=f0e36f38-b379-47bb-b642-6fcc01682ff1","ios":"levelo://app?vid=f0e36f38-b379-47bb-b642-6fcc01682ff1"},"vehicle_type_id":"4","last_reported":1687705608,"current_range_meters":10800,"station_id":"ce4bhn92rcd13ifvqgrg","pricing_plan_id":"free"},{"bike_id":"506216f7-e4d7-4d4e-81ab-65b2d25f11b9","system_id":"levelo_inurba_marseille","lat":43.27489,"lon":5.42457,"is_reserved":false,"is_disabled":false,"rental_uris":{"android":"levelo://app?vid=506216f7-e4d7-4d4e-81ab-65b2d25f11b9","ios":"levelo://app?vid=506216f7-e4d7-4d4e-81ab-65b2d25f11b9"},"vehicle_type_id":"4","last_reported":1687705608,"current_range_meters":28800,"station_id":"ce4bhn92rcd13ifvqgrg","pricing_plan_id":"free"},{"bike_id":"0d03610b-e8f5-40a4-bb6f-9e1c224d9bde","system_id":"levelo_inurba_marseille","lat":43.2749,"lon":5.42459,"is_reserved":false,"is_disabled":false,"rental_uris":{"android":"levelo://app?vid=0d03610b-e8f5-40a4-bb6f-9e1c224d9bde","ios":"levelo://app?vid=0d03610b-e8f5-40a4-bb6f-9e1c224d9bde"},"vehicle_type_id":"4","last_reported":1687705608,"current_range_meters":20800,"station_id":"ce4bhn92rcd13ifvqgrg","pricing_plan_id":"free"},{"bike_id":"6c6f3fae-ed29-4a11-82f8-8e632d7f1afc","system_id":"levelo_inurba_marseille","lat":43.26078,"lon":5.39765,"is_reserved":false,"is_disabled":false,"rental_uris":{"android":"levelo://app?vid=6c6f3fae-ed29-4a11-82f8-8e632d7f1afc","ios":"levelo://app?vid=6c6f3fae-ed29-4a11-82f8-8e632d7f1afc"},"vehicle_type_id":"4","last_reported":1687705608,"current_range_meters":31200,"station_id":"ce4bhi12rcd13ifvqfq0","pricing_plan_id":"free"},{"bike_id":"06a205da-4c9c-42bf-91fa-97e21d5da864","system_id":"levelo_inurba_marseille","lat":43.255756,"lon":5.382303,"is_reserved":false,"is_disabled":false,"rental_uris":{"android":"levelo://app?vid=06a205da-4c9c-42bf-91fa-97e21d5da864","ios":"levelo://app?vid=06a205da-4c9c-42bf-91fa-97e21d5da864"},"vehicle_type_id":"4","last_reported":1687705608,"current_range_meters":13600,"station_id":"ce4bhih2rcd13ifvqfs0","pricing_plan_id":"free"},{"bike_id":"ac6e3f08-a207-4882-8c07-165defd825be","system_id":"levelo_inurba_marseille","lat":43.255756,"lon":5.382303,"is_reserved":false,"is_disabled":false,"rental_uris":{"android":"levelo://app?vid=ac6e3f08-a207-4882-8c07-165defd825be","ios":"levelo://app?vid=ac6e3f08-a207-4882-8c07-165defd825be"},"vehicle_type_id":"4","last_reported":1687705608,"current_range_meters":17200,"station_id":"ce4bhih2rcd13ifvqfs0","pricing_plan_id":"free"},{"bike_id":"6faa8c4d-0286-4671-b306-dc099fb55344","system_id":"levelo_inurba_marseille","lat":43.25503,"lon":5.37647,"is_reserved":false,"is_disabled":false,"rental_uris":{"android":"levelo://app?vid=6faa8c4d-0286-4671-b306-dc099fb55344","ios":"levelo://app?vid=6faa8c4d-0286-4671-b306-dc099fb55344"},"vehicle_type_id":"4","last_reported":1687705608,"current_range_meters":2400,"station_id":"ce4bhh12rcd13ifvqff0","pricing_plan_id":"free"},{"bike_id":"c62e3c4f-7845-427f-afca-d2a0039aa6b5","system_id":"levelo_inurba_marseille","lat":43.255,"lon":5.3765,"is_reserved":false,"is_disabled":false,"rental_uris":{"android":"levelo://app?vid=c62e3c4f-7845-427f-afca-d2a0039aa6b5","ios":"levelo://app?vid=c62e3c4f-7845-427f-afca-d2a0039aa6b5"},"vehicle_type_id":"4","last_reported":1687705608,"current_range_meters":31200,"station_id":"ce4bhh12rcd13ifvqff0","pricing_plan_id":"free"},{"bike_id":"a48a555b-78c8-4769-98a3-204247bb0f32","system_id":"levelo_inurba_marseille","lat":43.255,"lon":5.37651,"is_reserved":false,"is_disabled":false,"rental_uris":{"android":"levelo://app?vid=a48a555b-78c8-4769-98a3-204247bb0f32","ios":"levelo://app?vid=a48a555b-78c8-4769-98a3-204247bb0f32"},"vehicle_type_id":"4","last_reported":1687705608,"current_range_meters":14400,"station_id":"ce4bhh12rcd13ifvqff0","pricing_plan_id":"free"},{"bike_id":"ad1c1bf1-e90e-437a-a8ad-cadc941bd664","system_id":"levelo_inurba_marseille","lat":43.25497,"lon":5.37647,"is_reserved":false,"is_disabled":false,"rental_uris":{"android":"levelo://app?vid=ad1c1bf1-e90e-437a-a8ad-cadc941bd664","ios":"levelo://app?vid=ad1c1bf1-e90e-437a-a8ad-cadc941bd664"},"vehicle_type_id":"4","last_reported":1687705608,"current_range_meters":25200,"station_id":"ce4bhh12rcd13ifvqff0","pricing_plan_id":"free"},{"bike_id":"905881af-0c34-42e8-8b26-220b4e4fcfc1","system_id":"levelo_inurba_marseille","lat":43.25497,"lon":5.37649,"is_reserved":false,"is_disabled":false,"rental_uris":{"android":"levelo://app?vid=905881af-0c34-42e8-8b26-220b4e4fcfc1","ios":"levelo://app?vid=905881af-0c34-42e8-8b26-220b4e4fcfc1"},"vehicle_type_id":"4","last_reported":1687705608,"current_range_meters":22800,"station_id":"ce4bhh12rcd13ifvqff0","pricing_plan_id":"free"},{"bike_id":"0fc60c5e-f789-4aff-ac34-96b394bb67b9","system_id":"levelo_inurba_marseille","lat":43.254945,"lon":5.376454,"is_reserved":false,"is_disabled":false,"rental_uris":{"android":"levelo://app?vid=0fc60c5e-f789-4aff-ac34-96b394bb67b9","ios":"levelo://app?vid=0fc60c5e-f789-4aff-ac34-96b394bb67b9"},"vehicle_type_id":"4","last_reported":1687705608,"current_range_meters":29600,"station_id":"ce4bhh12rcd13ifvqff0","pricing_plan_id":"free"},{"bike_id":"f9b62938-26e8-410d-a381-1077b7460179","system_id":"levelo_inurba_marseille","lat":43.25496,"lon":5.37647,"is_reserved":false,"is_disabled":false,"rental_uris":{"android":"levelo://app?vid=f9b62938-26e8-410d-a381-1077b7460179","ios":"levelo://app?vid=f9b62938-26e8-410d-a381-1077b7460179"},"vehicle_type_id":"4","last_reported":1687705608,"current_range_meters":16800,"station_id":"ce4bhh12rcd13ifvqff0","pricing_plan_id":"free"},{"bike_id":"afc7b222-3cad-439e-b61a-55cce3f4b9c0","system_id":"levelo_inurba_marseille","lat":43.254945,"lon":5.376454,"is_reserved":false,"is_disabled":false,"rental_uris":{"android":"levelo://app?vid=afc7b222-3cad-439e-b61a-55cce3f4b9c0","ios":"levelo://app?vid=afc7b222-3cad-439e-b61a-55cce3f4b9c0"},"vehicle_type_id":"4","last_reported":1687705608,"current_range_meters":30400,"station_id":"ce4bhh12rcd13ifvqff0","pricing_plan_id":"free"},{"bike_id":"5c470f0b-d322-460d-b3d9-b848f4856f9f","system_id":"levelo_inurba_marseille","lat":43.25494,"lon":5.37644,"is_reserved":false,"is_disabled":false,"rental_uris":{"android":"levelo://app?vid=5c470f0b-d322-460d-b3d9-b848f4856f9f","ios":"levelo://app?vid=5c470f0b-d322-460d-b3d9-b848f4856f9f"},"vehicle_type_id":"4","last_reported":1687705608,"current_range_meters":20800,"station_id":"ce4bhh12rcd13ifvqff0","pricing_plan_id":"free"},{"bike_id":"0af64176-bfca-4360-b466-ebc6f7dbb29a","system_id":"levelo_inurba_marseille","lat":43.25494,"lon":5.37646,"is_reserved":false,"is_disabled":false,"rental_uris":{"android":"levelo://app?vid=0af64176-bfca-4360-b466-ebc6f7dbb29a","ios":"levelo://app?vid=0af64176-bfca-4360-b466-ebc6f7dbb29a"},"vehicle_type_id":"4","last_reported":1687705608,"current_range_meters":18000,"station_id":"ce4bhh12rcd13ifvqff0","pricing_plan_id":"free"},{"bike_id":"8c931a53-e83f-4031-a8e4-20da80bbce97","system_id":"levelo_inurba_marseille","lat":43.25494,"lon":5.37646,"is_reserved":false,"is_disabled":false,"rental_uris":{"android":"levelo://app?vid=8c931a53-e83f-4031-a8e4-20da80bbce97","ios":"levelo://app?vid=8c931a53-e83f-4031-a8e4-20da80bbce97"},"vehicle_type_id":"4","last_reported":1687705608,"current_range_meters":26000,"station_id":"ce4bhh12rcd13ifvqff0","pricing_plan_id":"free"},{"bike_id":"4e9c8059-24ee-40c5-b6fe-40c2a7555c8a","system_id":"levelo_inurba_marseille","lat":43.25494,"lon":5.37649,"is_reserved":false,"is_disabled":false,"rental_uris":{"android":"levelo://app?vid=4e9c8059-24ee-40c5-b6fe-40c2a7555c8a","ios":"levelo://app?vid=4e9c8059-24ee-40c5-b6fe-40c2a7555c8a"},"vehicle_type_id":"4","last_reported":1687705608,"current_range_meters":3600,"station_id":"ce4bhh12rcd13ifvqff0","pricing_plan_id":"free"},{"bike_id":"a5827375-2342-438c-a458-b7f178f60a89","system_id":"levelo_inurba_marseille","lat":43.25493,"lon":5.3765,"is_reserved":false,"is_disabled":false,"rental_uris":{"android":"levelo://app?vid=a5827375-2342-438c-a458-b7f178f60a89","ios":"levelo://app?vid=a5827375-2342-438c-a458-b7f178f60a89"},"vehicle_type_id":"4","last_reported":1687705608,"current_range_meters":18400,"station_id":"ce4bhh12rcd13ifvqff0","pricing_plan_id":"free"},