{"last_updated":1740766371,"ttl":60,"version":"2.2","data":{"bikes":[{"bike_id":"1652d60d-e9a5-4984-ae30-a1647d6a4799","system_id":"levelo_inurba_marseille","lat":43.28708,"lon":5.37388,"is_reserved":false,"is_disabled":false,"rental_uris":{"android":"levelo://app?vid=1652d60d-e9a5-4984-ae30-a1647d6a4799","ios":"levelo://app?vid=1652d60d-e9a5-4984-ae30-a1647d6a4799"},"vehicle_type_id":"4","last_reported":1740766371,"current_range_meters":2800,"station_id":"ce4bh3p2rcd13ifvqdq0","pricing_plan_id":"cebpf4jnsgd1na2vs0mg"},{"bike_id":"b51f12fb-98d8-44a8-a691-d31cfa099738","system_id":"levelo_inurba_marseille","lat":43.26683,"lon":5.38272,"is_reserved":false,"is_disabled":false,"rental_uris":{"android":"levelo://app?vid=b51f12fb-98d8-44a8-a691-d31cfa099738","ios":"levelo://app?vid=b51f12fb-98d8-44a8-a691-d31cfa099738"},"vehicle_type_id":"4","last_reported":1740766371,"current_range_meters":2800,"station_id":"ce4bhg92rcd13ifvqf90","pricing_plan_id":"cebpf4jnsgd1na2vs0mg"},{"bike_id":"d61b0c26-fcfe-408b-be8f-ed0fe76807a1","system_id":"levelo_inurba_marseille","lat":43.29197,"lon":5.35799,"is_reserved":false,"is_disabled":false,"rental_uris":{"android":"levelo://app?vid=d61b0c26-fcfe-408b-be8f-ed0fe76807a1","ios":"levelo://app?vid=d61b0c26-fcfe-408b-be8f-ed0fe76807a1"},"vehicle_type_id":"4","last_reported":1740766371,"current_range_meters":2800,"station_id":"ce4bhb12rcd13ifvqel0","pricing_plan_id":"cebpf4jnsgd1na2vs0mg"},{"bike_id":"417be1b5-a785-49f1-a8d4-bfa429ce2eca","system_id":"levelo_inurba_marseille","lat":43.31359,"lon":5.38491,"is_reserved":false,"is_disabled":false,"rental_uris":{"android":"levelo://app?vid=417be1b5-a785-49f1-a8d4-bfa429ce2eca","ios":"levelo://app?vid=417be1b5-a785-49f1-a8d4-bfa429ce2eca"},"vehicle_type_id":"4","last_reported":1740766371,"current_range_meters":2000,"station_id":"ce4bgt92rcd13ifvqcf0","pricing_plan_id":"cebpf4jnsgd1na2vs0mg"},{"bike_id":"3695dd59-f714-41de-a8d6-0b1775b6e0e9","system_id":"levelo_inurba_marseille","lat":43.27964,"lon":5.38733,"is_reserved":false,"is_disabled":false,"rental_uris":{"android":"levelo://app?vid=3695dd59-f714-41de-a8d6-0b1775b6e0e9","ios":"levelo://app?vid=3695dd59-f714-41de-a8d6-0b1775b6e0e9"},"vehicle_type_id":"4","last_reported":1740766371,"current_range_meters":2800,"station_id":"ce4bhg12rcd13ifvqf80","pricing_plan_id":"cebpf4jnsgd1na2vs0mg"},{"bike_id":"e74263c4-969e-4db0-89e9-a131da33dc4a","system_id":"levelo_inurba_marseille","lat":43.29218,"lon":5.36054,"is_reserved":false,"is_disabled":false,"rental_uris":{"android":"levelo://app?vid=e74263c4-969e-4db0-89e9-a131da33dc4a","ios":"levelo://app?vid=e74263c4-969e-4db0-89e9-a131da33dc4a"},"vehicle_type_id":"4","last_reported":1740766371,"current_range_meters":3200,"station_id":"ce4bhbh2rcd13ifvqeqg","pricing_plan_id":"cebpf4jnsgd1na2vs0mg"},{"bike_id":"e4a86fdb-d484-46be-a4e6-d816177becc5","system_id":"levelo_inurba_marseille","lat":43.2797,"lon":5.38698,"is_reserved":false,"is_disabled":false,"rental_uris":{"android":"levelo://app?vid=e4a86fdb-d484-46be-a4e6-d816177becc5","ios":"levelo://app?vid=e4a86fdb-d484-46be-a4e6-d816177becc5"},"vehicle_type_id":"4","last_reported":1740766371,"current_range_meters":3200,"station_id":"ce4bhg12rcd13ifvqf80","pricing_plan_id":"cebpf4jnsgd1na2vs0mg"},{"bike_id":"05bbd966-40e0-4fdc-811e-123c3c2e84de","system_id":"levelo_inurba_marseille","lat":43.29269,"lon":5.38427,"is_reserved":false,"is_disabled":false,"rental_uris":{"android":"levelo://app?vid=05bbd966-40e0-4fdc-811e-123c3c2e84de","ios":"levelo://app?vid=05bbd966-40e0-4fdc-811e-123c3c2e84de"},"vehicle_type_id":"4","last_reported":1740766371,"current_range_meters":3200,"station_id":"ce4bh692rcd13ifvqea0","pricing_plan_id":"cebpf4jnsgd1na2vs0mg"},{"bike_id":"8b6f5bfa-e58c-4139-8277-3a252ffc0668","system_id":"levelo_inurba_marseille","lat":43.28612,"lon":5.351,"is_reserved":false,"is_disabled":false,"rental_uris":{"android":"levelo://app?vid=8b6f5bfa-e58c-4139-8277-3a252ffc0668","ios":"levelo://app?vid=8b6f5bfa-e58c-4139-8277-3a252ffc0668"},"vehicle_type_id":"4","last_reported":1740766371,"current_range_meters":3200,"station_id":"ce4bhch2rcd13ifvqeug","pricing_plan_id":"cebpf4jnsgd1na2vs0mg"},{"bike_id":"3624ed2c-842b-4914-aced-1f29ab1c3ade","system_id":"levelo_inurba_marseille","lat":43.29307,"lon":5.37169,"is_reserved":false,"is_disabled":false,"rental_uris":{"android":"levelo://app?vid=3624ed2c-842b-4914-aced-1f29ab1c3ade","ios":"levelo://app?vid=3624ed2c-842b-4914-aced-1f29ab1c3ade"},"vehicle_type_id":"4","last_reported":1740766371,"current_range_meters":3200,"station_id":"ce4bgh92rcd13ifvqb40","pricing_plan_id":"cebpf4jnsgd1na2vs0mg"},{"bike_id":"52b859c7-907d-48c6-ab8d-82ff360131e2","system_id":"levelo_inurba_marseille","lat":43.29269,"lon":5.38428,"is_reserved":false,"is_disabled":false,"rental_uris":{"android":"levelo://app?vid=52b859c7-907d-48c6-ab8d-82ff360131e2","ios":"levelo://app?vid=52b859c7-907d-48c6-ab8d-82ff360131e2"},"vehicle_type_id":"4","last_reported":1740766371,"current_range_meters":3200,"station_id":"ce4bh692rcd13ifvqea0","pricing_plan_id":"cebpf4jnsgd1na2vs0mg"},{"bike_id":"356dabde-cae7-4fc6-bff8-1be535979a45","system_id":"levelo_inurba_marseille","lat":43.2339,"lon":5.35863,"is_reserved":false,"is_disabled":false,"rental_uris":{"android":"levelo://app?vid=356dabde-cae7-4fc6-bff8-1be535979a45","ios":"levelo://app?vid=356dabde-cae7-4fc6-bff8-1be535979a45"},"vehicle_type_id":"4","last_reported":1740766371,"current_range_meters":3600,"station_id":"ce4bhgh2rcd13ifvqfb0","pricing_plan_id":"cebpf4jnsgd1na2vs0mg"},{"bike_id":"ac6ae336-5d06-4686-8ec8-309e709c476b","system_id":"levelo_inurba_marseille","lat":43.269409,"lon":5.402552,"is_reserved":false,"is_disabled":false,"rental_uris":{"android":"levelo://app?vid=ac6ae336-5d06-4686-8ec8-309e709c476b","ios":"levelo://app?vid=ac6ae336-5d06-4686-8ec8-309e709c476b"},"vehicle_type_id":"4","last_reported":1740766371,"current_range_meters":3600,"station_id":"cjm6bp8fraef2m0cb0m0","pricing_plan_id":"cebpf4jnsgd1na2vs0mg"},{"bike_id":"b7a60db1-7f88-4453-8d5c-5601fe7a2cb1","system_id":"levelo_inurba_marseille","lat":43.3009,"lon":5.39049,"is_reserved":false,"is_disabled":false,"rental_uris":{"android":"levelo://app?vid=b7a60db1-7f88-4453-8d5c-5601fe7a2cb1","ios":"levelo://app?vid=b7a60db1-7f88-4453-8d5c-5601fe7a2cb1"},"vehicle_type_id":"4","last_reported":1740766371,"current_range_meters":3600,"station_id":"ce4bh192rcd13ifvqdb0","pricing_plan_id":"cebpf4jnsgd1na2vs0mg"},{"bike_id":"10a1855a-e6d3-425e-89a3-3543f6ef4997","system_id":"levelo_inurba_marseille","lat":43.29704,"lon":5.37688,"is_reserved":false,"is_disabled":false,"rental_uris":{"android":"levelo://app?vid=10a1855a-e6d3-425e-89a3-3543f6ef4997","ios":"levelo://app?vid=10a1855a-e6d3-425e-89a3-3543f6ef4997"},"vehicle_type_id":"4","last_reported":1740766371,"current_range_meters":3600,"station_id":"ce4bgkh2rcd13ifvqbl0","pricing_plan_id":"cebpf4jnsgd1na2vs0mg"},{"bike_id":"a258b1c0-0fa8-4e1e-a0f8-832689e081a7","system_id":"levelo_inurba_marseille","lat":43.25123,"lon":5.40314,"is_reserved":false,"is_disabled":false,"rental_uris":{"android":"levelo://app?vid=a258b1c0-0fa8-4e1e-a0f8-832689e081a7","ios":"levelo://app?vid=a258b1c0-0fa8-4e1e-a0f8-832689e081a7"},"vehicle_type_id":"4","last_reported":1740766371,"current_range_meters":3200,"station_id":"ce4bhlh2rcd13ifvqgig","pricing_plan_id":"cebpf4jnsgd1na2vs0mg"},{"bike_id":"07cd175f-004a-4ecc-9079-b903b3e1091b","system_id":"levelo_inurba_marseille","lat":43.25006,"lon":5.38928,"is_reserved":false,"is_disabled":false,"rental_uris":{"android":"levelo://app?vid=07cd175f-004a-4ecc-9079-b903b3e1091b","ios":"levelo://app?vid=07cd175f-004a-4ecc-9079-b903b3e1091b"},"vehicle_type_id":"4","last_reported":1740766371,"current_range_meters":4000,"station_id":"","pricing_plan_id":"cebpf4jnsgd1na2vs0mg"},{"bike_id":"07d3af12-5bbc-4d83-bfa6-811f818469a5","system_id":"levelo_inurba_marseille","lat":43.27071,"lon":5.42279,"is_reserved":false,"is_disabled":false,"rental_uris":{"android":"levelo://app?vid=07d3af12-5bbc-4d83-bfa6-811f818469a5","ios":"levelo://app?vid=07d3af12-5bbc-4d83-bfa6-811f818469a5"},"vehicle_type_id":"4","last_reported":1740766371,"current_range_meters":3600,"station_id":"ce4bhk92rcd13ifvqgb0","pricing_plan_id":"cebpf4jnsgd1na2vs0mg"},{"bike_id":"3aac85ff-6a78-472f-ad1a-8de5cbd1d5ed","system_id":"levelo_inurba_marseille","lat":43.29958,"lon":5.41316,"is_reserved":false,"is_disabled":false,"rental_uris":{"android":"levelo://app?vid=3aac85ff-6a78-472f-ad1a-8de5cbd1d5ed","ios":"levelo://app?vid=3aac85ff-6a78-472f-ad1a-8de5cbd1d5ed"},"vehicle_type_id":"4","last_reported":1740766371,"current_range_meters":12800,"station_id":"ce4bhp12rcd13ifvqh9g","pricing_plan_id":"cebpf4jnsgd1na2vs0mg"},{"bike_id":"eaf148be-9b61-4491-a5fa-a84d69ac3d6d","system_id":"levelo_inurba_marseille","lat":43.25003,"lon":5.38926,"is_reserved":false,"is_disabled":false,"rental_uris":{"android":"levelo://app?vid=eaf148be-9b61-4491-a5fa-a84d69ac3d6d","ios":"levelo://app?vid=eaf148be-9b61-4491-a5fa-a84d69ac3d6d"},"vehicle_type_id":"4","last_reported":1740766371,"current_range_meters":4400,"station_id":"ce4bhgp2rcd13ifvqfd0","pricing_plan_id":"cebpf4jnsgd1na2vs0mg"},{"bike_id":"c5fadeb8-aca4-4d7f-998b-d71466e79d1f","system_id":"levelo_inurba_marseille","lat":43.29844,"lon":5.36268,"is_reserved":false,"is_disabled":false,"rental_uris":{"android":"levelo://app?vid=c5fadeb8-aca4-4d7f-998b-d71466e79d1f","ios":"levelo://app?vid=c5fadeb8-aca4-4d7f-998b-d71466e79d1f"},"vehicle_type_id":"4","last_reported":1740766371,"current_range_meters":4400,"station_id":"ce4bgpp2rcd13ifvqc3g","pricing_plan_id":"cebpf4jnsgd1na2vs0mg"},{"bike_id":"83e9d9cc-0233-4c8f-a4e0-bfc2d0f5b3ff","system_id":"levelo_inurba_marseille","lat":43.28723,"lon":5.36092,"is_reserved":false,"is_disabled":false,"rental_uris":{"android":"levelo://app?vid=83e9d9cc-0233-4c8f-a4e0-bfc2d0f5b3ff","ios":"levelo://app?vid=83e9d9cc-0233-4c8f-a4e0-bfc2d0f5b3ff"},"vehicle_type_id":"4","last_reported":1740766371,"current_range_meters":4400,"station_id":"cki0cbj6b192h4jlfktg","pricing_plan_id":"cebpf4jnsgd1na2vs0mg"},{"bike_id":"5b7dff33-3897-453e-8549-1a6e9c2dc1be","system_id":"levelo_inurba_marseille","lat":43.25579,"lon":5.38233,"is_reserved":false,"is_disabled":false,"rental_uris":{"android":"levelo://app?vid=5b7dff33-3897-453e-8549-1a6e9c2dc1be","ios":"levelo://app?vid=5b7dff33-3897-453e-8549-1a6e9c2dc1be"},"vehicle_type_id":"4","last_reported":1740766371,"current_range_meters":4400,"station_id":"ce4bhih2rcd13ifvqfs0","pricing_plan_id":"cebpf4jnsgd1na2vs0mg"},{"bike_id":"f4ee46ec-de62-4621-bef7-a7925dbae4ce","system_id":"levelo_inurba_marseille","lat":43.29311,"lon":5.37167,"is_reserved":false,"is_disabled":false,"rental_uris":{"android":"levelo://app?vid=f4ee46ec-de62-4621-bef7-a7925dbae4ce","ios":"levelo://app?vid=f4ee46ec-de62-4621-bef7-a7925dbae4ce"},"vehicle_type_id":"4","last_reported":1740766371,"current_range_meters":4400,"station_id":"ce4bgh92rcd13ifvqb40","pricing_plan_id":"cebpf4jnsgd1na2vs0mg"},{"bike_id":"011bf3f0-e9f5-44a7-93a3-88be420ec348","system_id":"levelo_inurba_marseille","lat":43.293,"lon":5.37155,"is_reserved":false,"is_disabled":false,"rental_uris":{"android":"levelo://app?vid=011bf3f0-e9f5-44a7-93a3-88be420ec348","ios":"levelo://app?vid=011bf3f0-e9f5-44a7-93a3-88be420ec348"},"vehicle_type_id":"4","last_reported":1740766371,"current_range_meters":3200,"station_id":"ce4bgh92rcd13ifvqb40","pricing_plan_id":"cebpf4jnsgd1na2vs0mg"},{"bike_id":"046b14f4-043a-4b98-b979-a3d9cef8548b","system_id":"levelo_inurba_marseille","lat":43.27949,"lon":5.41049,"is_reserved":false,"is_disabled":false,"rental_uris":{"android":"levelo://app?vid=046b14f4-043a-4b98-b979-a3d9cef8548b","ios":"levelo://app?vid=046b14f4-043a-4b98-b979-a3d9cef8548b"},"vehicle_type_id":"4","last_reported":1740766371,"current_range_meters":4800,"station_id":"ce4bhnp2rcd13ifvqh0g","pricing_plan_id":"cebpf4jnsgd1na2vs0mg"},{"bike_id":"56361df7-1476-4868-843a-8b0c19a614e3","system_id":"levelo_inurba_marseille","lat":43.31118,"lon":5.3776,"is_reserved":false,"is_disabled":false,"rental_uris":{"android":"levelo://app?vid=56361df7-1476-4868-843a-8b0c19a614e3","ios":"levelo://app?vid=56361df7-1476-4868-843a-8b0c19a614e3"},"vehicle_type_id":"4","last_reported":1740766371,"current_range_meters":2000,"station_id":"ce4bgt92rcd13ifvqcg0","pricing_plan_id":"cebpf4jnsgd1na2vs0mg"},{"bike_id":"a8328c72-27ce-4150-a953-d0b7993a21b2","system_id":"levelo_inurba_marseille","lat":43.29251,"lon":5.37619,"is_reserved":false,"is_disabled":false,"rental_uris":{"android":"levelo://app?vid=a8328c72-27ce-4150-a953-d0b7993a21b2","ios":"levelo://app?vid=a8328c72-27ce-4150-a953-d0b7993a21b2"},"vehicle_type_id":"4","last_reported":1740766371,"current_range_meters":4800,"station_id":"ce4bgi12rcd13ifvqb80","pricing_plan_id":"cebpf4jnsgd1na2vs0mg"},{"bike_id":"a31b9563-4e24-4241-945c-c420eba6d456","system_id":"levelo_inurba_marseille","lat":43.28472,"lon":5.35896,"is_reserved":false,"is_disabled":false,"rental_uris":{"android":"levelo://app?vid=a31b9563-4e24-4241-945c-c420eba6d456","ios":"levelo://app?vid=a31b9563-4e24-4241-945c-c420eba6d456"},"vehicle_type_id":"4","last_reported":1740766371,"current_range_meters":4800,"station_id":"ce4bhah2rcd13ifvqei0","pricing_plan_id":"cebpf4jnsgd1na2vs0mg"},{"bike_id":"049dbaef-bf7d-467f-8e77-0ad41e5cb2fe","system_id":"levelo_inurba_marseille","lat":43.29043,"lon":5.35893,"is_reserved":false,"is_disabled":false,"rental_uris":{"android":"levelo://app?vid=049dbaef-bf7d-467f-8e77-0ad41e5cb2fe","ios":"levelo://app?vid=049dbaef-bf7d-467f-8e77-0ad41e5cb2fe"},"vehicle_type_id":"4","last_reported":1740766371,"current_range_meters":5600,"station_id":"ce4bha92rcd13ifvqeg0","pricing_plan_id":"cebpf4jnsgd1na2vs0mg"},{"bike_id":"1dfcdce4-c9b9-490a-ab41-46f6d9b61e62","system_id":"levelo_inurba_marseille","lat":43.28673,"lon":5.36348,"is_reserved":false,"is_disabled":false,"rental_uris":{"android":"levelo://app?vid=1dfcdce4-c9b9-490a-ab41-46f6d9b61e62","ios":"levelo://app?vid=1dfcdce4-c9b9-490a-ab41-46f6d9b61e62"},"vehicle_type_id":"4","last_reported":1740766371,"current_range_meters":5600,"station_id":"ce4bhah2rcd13ifvqej0","pricing_plan_id":"cebpf4jnsgd1na2vs0mg"},{"bike_id":"a402dcb0-63b6-4569-b9e8-ad825500c3f8","system_id":"levelo_inurba_marseille","lat":43.29002,"lon":5.35927,"is_reserved":false,"is_disabled":false,"rental_uris":{"android":"levelo://app?vid=a402dcb0-63b6-4569-b9e8-ad825500c3f8","ios":"levelo://app?vid=a402dcb0-63b6-4569-b9e8-ad825500c3f8"},"vehicle_type_id":"4","last_reported":1740766371,"current_range_meters":6000,"station_id":"","pricing_plan_id":"cebpf4jnsgd1na2vs0mg"},{"bike_id":"9f1e7cb6-a9f1-49c6-aacd-b491beca87c9","system_id":"levelo_inurba_marseille","lat":43.29791,"lon":5.38099,"is_reserved":false,"is_disabled":false,"rental_uris":{"android":"levelo://app?vid=9f1e7cb6-a9f1-49c6-aacd-b491beca87c9","ios":"levelo://app?vid=9f1e7cb6-a9f1-49c6-aacd-b491beca87c9"},"vehicle_type_id":"4","last_reported":1740766371,"current_range_meters":5600,"station_id":"ce4bgip2rcd13ifvqbb0","pricing_plan_id":"cebpf4jnsgd1na2vs0mg"},{"bike_id":"c70eca51-02f5-4e4b-aae2-e68d5a01a04c","system_id":"levelo_inurba_marseille","lat":43.3054,"lon":5.38422,"is_reserved":false,"is_disabled":false,"rental_uris":{"android":"levelo://app?vid=c70eca51-02f5-4e4b-aae2-e68d5a01a04c","ios":"levelo://app?vid=c70eca51-02f5-4e4b-aae2-e68d5a01a04c"},"vehicle_type_id":"4","last_reported":1740766371,"current_range_meters":5600,"station_id":"ce4bgg92rcd13ifvqb30","pricing_plan_id":"cebpf4jnsgd1na2vs0mg"},{"bike_id":"fd747008-1a4a-45eb-99b9-32aa9bf8d6e1","system_id":"levelo_inurba_marseille","lat":43.24649,"lon":5.38892,"is_reserved":false,"is_disabled":false,"rental_uris":{"android":"levelo://app?vid=fd747008-1a4a-45eb-99b9-32aa9bf8d6e1","ios":"levelo://app?vid=fd747008-1a4a-45eb-99b9-32aa9bf8d6e1"},"vehicle_type_id":"4","last_reported":1740766371,"current_range_meters":6000,"station_id":"ce4bhg12rcd13ifvqf60","pricing_plan_id":"cebpf4jnsgd1na2vs0mg"},{"bike_id":"0f3d50b7-a070-4eef-948e-6727fc4bd990","system_id":"levelo_inurba_marseille","lat":43.31274,"lon":5.40165,"is_reserved":false,"is_disabled":false,"rental_uris":{"android":"levelo://app?vid=0f3d50b7-a070-4eef-948e-6727fc4bd990","ios":"levelo://app?vid=0f3d50b7-a070-4eef-948e-6727fc4bd990"},"vehicle_type_id":"4","last_reported":1740766371,"current_range_meters":6000,"station_id":"ce4bh092rcd13ifvqd30","pricing_plan_id":"cebpf4jnsgd1na2vs0mg"},{"bike_id":"54a667ee-6d08-4b96-a85f-315a744d7be3","system_id":"levelo_inurba_marseille","lat":43.30797,"lon":5.43528,"is_reserved":false,"is_disabled":false,"rental_uris":{"android":"levelo://app?vid=54a667ee-6d08-4b96-a85f-315a744d7be3","ios":"levelo://app?vid=54a667ee-6d08-4b96-a85f-315a744d7be3"},"vehicle_type_id":"4","last_reported":1740766371,"current_range_meters":10000,"station_id":"ce4bhph2rcd13ifvqheg","pricing_plan_id":"cebpf4jnsgd1na2vs0mg"},{"bike_id":"620a9395-cb1e-4dca-bf90-9a81cfd0bd4a","system_id":"levelo_inurba_marseille","lat":43.29636,"lon":5.40597,"is_reserved":false,"is_disabled":false,"rental_uris":{"android":"levelo://app?vid=620a9395-cb1e-4dca-bf90-9a81cfd0bd4a","ios":"levelo://app?vid=620a9395-cb1e-4dca-bf90-9a81cfd0bd4a"},"vehicle_type_id":"4","last_reported":1740766371,"current_range_meters":6000,"station_id":"ce4bh0h2rcd13ifvqd60","pricing_plan_id":"cebpf4jnsgd1na2vs0mg"},{"bike_id":"c646f3ec-fd87-4dda-9b7a-bf2acc895de0","system_id":"levelo_inurba_marseille","lat":43.28715,"lon":5.37934,"is_reserved":false,"is_disabled":false,"rental_uris":{"android":"levelo://app?vid=c646f3ec-fd87-4dda-9b7a-bf2acc895de0","ios":"levelo://app?vid=c646f3ec-fd87-4dda-9b7a-bf2acc895de0"},"vehicle_type_id":"4","last_reported":1740766371,"current_range_meters":5600,"station_id":"ce4bh9p2rcd13ifvqec0","pricing_plan_id":"cebpf4jnsgd1na2vs0mg"},{"bike_id":"338efb8a-2227-497d-b110-897e71185043","system_id":"levelo_inurba_marseille","lat":43.32046,"lon":5.38166,"is_reserved":false,"is_disabled":false,"rental_uris":{"android":"levelo://app?vid=338efb8a-2227-497d-b110-897e71185043","ios":"levelo://app?vid=338efb8a-2227-497d-b110-897e71185043"},"vehicle_type_id":"4","last_reported":1740766371,"current_range_meters":6400,"station_id":"","pricing_plan_id":"cebpf4jnsgd1na2vs0mg"},{"bike_id":"8bdf76db-9f2b-4cc0-8f7a-9d3b05368523","system_id":"levelo_inurba_marseille","lat":43.25726,"lon":5.41108,"is_reserved":false,"is_disabled":false,"rental_uris":{"android":"levelo://app?vid=8bdf76db-9f2b-4cc0-8f7a-9d3b05368523","ios":"levelo://app?vid=8bdf76db-9f2b-4cc0-8f7a-9d3b05368523"},"vehicle_type_id":"4","last_reported":1740766371,"current_range_meters":6400,"station_id":"ce4bhkp2rcd13ifvqgd0","pricing_plan_id":"cebpf4jnsgd1na2vs0mg"},{"bike_id":"8dea0861-aa39-4e67-8048-48c592f4b141","system_id":"levelo_inurba_marseille","lat":43.28,"lon":5.40024,"is_reserved":false,"is_disabled":false,"rental_uris":{"android":"levelo://app?vid=8dea0861-aa39-4e67-8048-48c592f4b141","ios":"levelo://app?vid=8dea0861-aa39-4e67-8048-48c592f4b141"},"vehicle_type_id":"4","last_reported":1740766371,"current_range_meters":6400,"station_id":"ce4bho92rcd13ifvqh4g","pricing_plan_id":"cebpf4jnsgd1na2vs0mg"},{"bike_id":"47fb3e53-8955-499e-bbe2-61d49e0388e1","system_id":"levelo_inurba_marseille","lat":43.29564,"lon":5.39959,"is_reserved":false,"is_disabled":false,"rental_uris":{"android":"levelo://app?vid=47fb3e53-8955-499e-bbe2-61d49e0388e1","ios":"levelo://app?vid=47fb3e53-8955-499e-bbe2-61d49e0388e1"},"vehicle_type_id":"4","last_reported":1740766371,"current_range_meters":13600,"station_id":"ce4bh312rcd13ifvqdj0","pricing_plan_id":"cebpf4jnsgd1na2vs0mg"},{"bike_id":"c2d869a3-0be6-486c-ba91-871474c16b60","system_id":"levelo_inurba_marseille","lat":43.31367,"lon":5.38486,"is_reserved":false,"is_disabled":false,"rental_uris":{"android":"levelo://app?vid=c2d869a3-0be6-486c-ba91-871474c16b60","ios":"levelo://app?vid=c2d869a3-0be6-486c-ba91-871474c16b60"},"vehicle_type_id":"4","last_reported":1740766371,"current_range_meters":6400,"station_id":"ce4bgt92rcd13ifvqcf0","pricing_plan_id":"cebpf4jnsgd1na2vs0mg"},{"bike_id":"72272c5d-e6b9-484a-bda4-707c4a8a9a04","system_id":"levelo_inurba_marseille","lat":43.302048,"lon":5.369533,"is_reserved":false,"is_disabled":false,"rental_uris":{"android":"levelo://app?vid=72272c5d-e6b9-484a-bda4-707c4a8a9a04","ios":"levelo://app?vid=72272c5d-e6b9-484a-bda4-707c4a8a9a04"},"vehicle_type_id":"4","last_reported":1740766371,"current_range_meters":6000,"station_id":"ce4bgn92rcd13ifvqbvg","pricing_plan_id":"cebpf4jnsgd1na2vs0mg"},{"bike_id":"ee90beb5-e705-4edc-9081-1a7e8ea69ef0","system_id":"levelo_inurba_marseille","lat":43.27625,"lon":5.36088,"is_reserved":false,"is_disabled":false,"rental_uris":{"android":"levelo://app?vid=ee90beb5-e705-4edc-9081-1a7e8ea69ef0","ios":"levelo://app?vid=ee90beb5-e705-4edc-9081-1a7e8ea69ef0"},"vehicle_type_id":"4","last_reported":1740766371,"current_range_meters":6800,"station_id":"ce4bgj92rcd13ifvqbe0","pricing_plan_id":"cebpf4jnsgd1na2vs0mg"},{"bike_id":"00d81c4b-50d0-421e-b4d9-f47a3f02f265","system_id":"levelo_inurba_marseille","lat":43.27918,"lon":5.39578,"is_reserved":false,"is_disabled":false,"rental_uris":{"android":"levelo://app?vid=00d81c4b-50d0-421e-b4d9-f47a3f02f265","ios":"levelo://app?vid=00d81c4b-50d0-421e-b4d9-f47a3f02f265"},"vehicle_type_id":"4","last_reported":1740766371,"current_range_meters":6400,"station_id":"ce4bhf92rcd13ifvqf40","pricing_plan_id":"cebpf4jnsgd1na2vs0mg"},{"bike_id":"7069b475-5c24-494a-bc51-35268e495fd3","system_id":"levelo_inurba_marseille","lat":43.28355,"lon":5.38097,"is_reserved":false,"is_disabled":false,"rental_uris":{"android":"levelo://app?vid=7069b475-5c24-494a-bc51-35268e495fd3","ios":"levelo://app?vid=7069b475-5c24-494a-bc51-35268e495fd3"},"vehicle_type_id":"4","last_reported":1740766371,"current_range_meters":6400,"station_id":"ce4bh412rcd13ifvqdr0","pricing_plan_id":"cebpf4jnsgd1na2vs0mg"},{"bike_id":"89a7517e-6658-46c5-a615-9e427ec79029","system_id":"levelo_inurba_marseille","lat":43.25696,"lon":5.418,"is_reserved":false,"is_disabled":false,"rental_uris":{"android":"levelo://app?vid=89a7517e-6658-46c5-a615-9e427ec79029","ios":"levelo://app?vid=89a7517e-6658-46c5-a615-9e427ec79029"},"vehicle_type_id":"4","last_reported":1740766371,"current_range_meters":6400,"station_id":"","pricing_plan_id":"cebpf4jnsgd1na2vs0mg"},{"bike_id":"37692c83-bd42-497b-a13b-37c4582e17bd","system_id":"levelo_inurba_marseille","lat":43.27497,"lon":5.42448,"is_reserved":false,"is_disabled":false,"rental_uris":{"android":"levelo://app?vid=37692c83-bd42-497b-a13b-37c4582e17bd","ios":"levelo://app?vid=37692c83-bd42-497b-a13b-37c4582e17bd"},"vehicle_type_id":"4","last_reported":1740766371,"current_range_meters":6400,"station_id":"ce4bhn92rcd13ifvqgrg","pricing_plan_id":"cebpf4jnsgd1na2vs0mg"},{"bike_id":"a9a19c6c-0bed-4d1f-a200-55a2f4d3052e","system_id":"levelo_inurba_marseille","lat":43.29004,"lon":5.42579,"is_reserved":false,"is_disabled":false,"rental_uris":{"android":"levelo://app?vid=a9a19c6c-0bed-4d1f-a200-55a2f4d3052e","ios":"levelo://app?vid=a9a19c6c-0bed-4d1f-a200-55a2f4d3052e"},"vehicle_type_id":"4","last_reported":1740766371,"current_range_meters":6400,"station_id":"","pricing_plan_id":"cebpf4jnsgd1na2vs0mg"},{"bike_id":"05bcb122-922f-43c1-a192-82d8ed7cccc5","system_id":"levelo_inurba_marseille","lat":43.31371,"lon":5.38494,"is_reserved":false,"is_disabled":false,"rental_uris":{"android":"levelo://app?vid=05bcb122-922f-43c1-a192-82d8ed7cccc5","ios":"levelo://app?vid=05bcb122-922f-43c1-a192-82d8ed7cccc5"},"vehicle_type_id":"4","last_reported":1740766371,"current_range_meters":7200,"station_id":"ce4bgt92rcd13ifvqcf0","pricing_plan_id":"cebpf4jnsgd1na2vs0mg"},{"bike_id":"e7586cea-74d2-40fc-bd3c-cb14c7ba7506","system_id":"levelo_inurba_marseille","lat":43.29577,"lon":5.37495,"is_reserved":false,"is_disabled":false,"rental_uris":{"android":"levelo://app?vid=e7586cea-74d2-40fc-bd3c-cb14c7ba7506","ios":"levelo://app?vid=e7586cea-74d2-40fc-bd3c-cb14c7ba7506"},"vehicle_type_id":"4","last_reported":1740766371,"current_range_meters":6800,"station_id":"ce4bgh92rcd13ifvqb50","pricing_plan_id":"cebpf4jnsgd1na2vs0mg"},{"bike_id":"90865821-882d-458d-b246-88aa65d640b2","system_id":"levelo_inurba_marseille","lat":43.28946,"lon":5.36649,"is_reserved":false,"is_disabled":false,"rental_uris":{"android":"levelo://app?vid=90865821-882d-458d-b246-88aa65d640b2","ios":"levelo://app?vid=90865821-882d-458d-b246-88aa65d640b2"},"vehicle_type_id":"4","last_reported":1740766371,"current_range_meters":6800,"station_id":"ce4bhap2rcd13ifvqek0","pricing_plan_id":"cebpf4jnsgd1na2vs0mg"},{"bike_id":"4e21c123-fed3-4db6-ad81-45cccdae0542","system_id":"levelo_inurba_marseille","lat":43.241632,"lon":5.364123,"is_reserved":false,"is_disabled":true,"rental_uris":{"android":"levelo://app?vid=4e21c123-fed3-4db6-ad81-45cccdae0542","ios":"levelo://app?vid=4e21c123-fed3-4db6-ad81-45cccdae0542"},"vehicle_type_id":"4","last_reported":1740766371,"current_range_meters":6800,"station_id":"cpo36qri1sfpv3e86is0","pricing_plan_id":"cebpf4jnsgd1na2vs0mg"},{"bike_id":"6307e284-bd51-4cbd-8c15-de2bbfb0291d","system_id":"levelo_inurba_marseille","lat":43.29427,"lon":5.38628,"is_reserved":false,"is_disabled":false,"rental_uris":{"android":"levelo://app?vid=6307e284-bd51-4cbd-8c15-de2bbfb0291d","ios":"levelo://app?vid=6307e284-bd51-4cbd-8c15-de2bbfb0291d"},"vehicle_type_id":"4","last_reported":1740766371,"current_range_meters":6800,"station_id":"ce4bh2h2rcd13ifvqdh0","pricing_plan_id":"cebpf4jnsgd1na2vs0mg"},{"bike_id":"4c3cbff4-8fcd-449f-9462-8524115108b2","system_id":"levelo_inurba_marseille","lat":43.26197,"lon":5.37919,"is_reserved":false,"is_disabled":false,"rental_uris":{"android":"levelo://app?vid=4c3cbff4-8fcd-449f-9462-8524115108b2","ios":"levelo://app?vid=4c3cbff4-8fcd-449f-9462-8524115108b2"},"vehicle_type_id":"4","last_reported":1740766371,"current_range_meters":7200,"station_id":"ce4bhjp2rcd13ifvqg90","pricing_plan_id":"cebpf4jnsgd1na2vs0mg"},{"bike_id":"d368b982-852a-4388-93f0-879d8b39c397","system_id":"levelo_inurba_marseille","lat":43.28941,"lon":5.36381,"is_reserved":false,"is_disabled":false,"rental_uris":{"android":"levelo://app?vid=d368b982-852a-4388-93f0-879d8b39c397","ios":"levelo://app?vid=d368b982-852a-4388-93f0-879d8b39c397"},"vehicle_type_id":"4","last_reported":1740766371,"current_range_meters":7200,"station_id":"ce4bhc92rcd13ifvqetg","pricing_plan_id":"cebpf4jnsgd1na2vs0mg"},{"bike_id":"43c32004-94fe-4598-87ba-734917dbcf43","system_id":"levelo_inurba_marseille","lat":43.29263,"lon":5.37617,"is_reserved":false,"is_disabled":false,"rental_uris":{"android":"levelo://app?vid=43c32004-94fe-4598-87ba-734917dbcf43","ios":"levelo://app?vid=43c32004-94fe-4598-87ba-734917dbcf43"},"vehicle_type_id":"4","last_reported":1740766371,"current_range_meters":7200,"station_id":"ce4bgi12rcd13ifvqb80","pricing_plan_id":"cebpf4jnsgd1na2vs0mg"},{"bike_id":"7cebbaad-c8b9-4907-879a-36adc54e8c92","system_id":"levelo_inurba_marseille","lat":43.29422,"lon":5.38618,"is_reserved":false,"is_disabled":false,"rental_uris":{"android":"levelo://app?vid=7cebbaad-c8b9-4907-879a-36adc54e8c92","ios":"levelo://app?vid=7cebbaad-c8b9-4907-879a-36adc54e8c92"},"vehicle_type_id":"4","last_reported":1740766371,"current_range_meters":7200,"station_id":"ce4bh2h2rcd13ifvqdh0","pricing_plan_id":"cebpf4jnsgd1na2vs0mg"},{"bike_id":"5dc3137c-a662-40f1-bf02-c266cac42543","system_id":"levelo_inurba_marseille","lat":43.28616,"lon":5.37059,"is_reserved":false,"is_disabled":false,"rental_uris":{"android":"levelo://app?vid=5dc3137c-a662-40f1-bf02-c266cac42543","ios":"levelo://app?vid=5dc3137c-a662-40f1-bf02-c266cac42543"},"vehicle_type_id":"4","last_reported":1740766371,"current_range_meters":7200,"station_id":"ce4bht12rcd13ifvqi60","pricing_plan_id":"cebpf4jnsgd1na2vs0mg"},{"bike_id":"048889bf-861b-45fc-8e8b-55d474c3801a","system_id":"levelo_inurba_marseille","lat":43.28618,"lon":5.35098,"is_reserved":false,"is_disabled":false,"rental_uris":{"android":"levelo://app?vid=048889bf-861b-45fc-8e8b-55d474c3801a","ios":"levelo://app?vid=048889bf-861b-45fc-8e8b-55d474c3801a"},"vehicle_type_id":"4","last_reported":1740766371,"current_range_meters":7200,"station_id":"ce4bhch2rcd13ifvqeug","pricing_plan_id":"cebpf4jnsgd1na2vs0mg"},{"bike_id":"3a013849-0c23-41c4-8555-2dd832a8c6f1","system_id":"levelo_inurba_marseille","lat":43.27901,"lon":5.38019,"is_reserved":false,"is_disabled":false,"rental_uris":{"android":"levelo://app?vid=3a013849-0c23-41c4-8555-2dd832a8c6f1","ios":"levelo://app?vid=3a013849-0c23-41c4-8555-2dd832a8c6f1"},"vehicle_type_id":"4","last_reported":1740766371,"current_range_meters":6800,"station_id":"ce4bhf92rcd13ifvqf50","pricing_plan_id":"cebpf4jnsgd1na2vs0mg"},{"bike_id":"17ddbbb5-11e9-4dea-8d48-8df35a23e77a","system_id":"levelo_inurba_marseille","lat":43.31748,"lon":5.39018,"is_reserved":false,"is_disabled":false,"rental_uris":{"android":"levelo://app?vid=17ddbbb5-11e9-4dea-8d48-8df35a23e77a","ios":"levelo://app?vid=17ddbbb5-11e9-4dea-8d48-8df35a23e77a"},"vehicle_type_id":"4","last_reported":1740766371,"current_range_meters":8000,"station_id":"ce4bhqp2rcd13ifvqhng","pricing_plan_id":"cebpf4jnsgd1na2vs0mg"},{"bike_id":"dcff507d-3819-435b-8033-cab0f880c6a6","system_id":"levelo_inurba_marseille","lat":43.26498,"lon":5.39545,"is_reserved":false,"is_disabled":true,"rental_uris":{"android":"levelo://app?vid=dcff507d-3819-435b-8033-cab0f880c6a6","ios":"levelo://app?vid=dcff507d-3819-435b-8033-cab0f880c6a6"},"vehicle_type_id":"4","last_reported":1740766371,"current_range_meters":6000,"station_id":"ce4bhi12rcd13ifvqfq0","pricing_plan_id":"cebpf4jnsgd1na2vs0mg"},{"bike_id":"2e04ee11-a1c1-4bc8-8158-51232d4924c5","system_id":"levelo_inurba_marseille","lat":43.29246,"lon":5.38429,"is_reserved":false,"is_disabled":false,"rental_uris":{"android":"levelo://app?vid=2e04ee11-a1c1-4bc8-8158-51232d4924c5","ios":"levelo://app?vid=2e04ee11-a1c1-4bc8-8158-51232d4924c5"},"vehicle_type_id":"4","last_reported":1740766371,"current_range_meters":7200,"station_id":"ce4bh692rcd13ifvqea0","pricing_plan_id":"cebpf4jnsgd1na2vs0mg"},{"bike_id":"ea9cf9d7-7341-4809-8dba-dc2ffdbb0198","system_id":"levelo_inurba_marseille","lat":43.2791,"lon":5.38014,"is_reserved":false,"is_disabled":false,"rental_uris":{"android":"levelo://app?vid=ea9cf9d7-7341-4809-8dba-dc2ffdbb0198","ios":"levelo://app?vid=ea9cf9d7-7341-4809-8dba-dc2ffdbb0198"},"vehicle_type_id":"4","last_reported":1740766371,"current_range_meters":8000,"station_id":"ce4bhf92rcd13ifvqf50","pricing_plan_id":"cebpf4jnsgd1na2vs0mg"},{"bike_id":"cdca0976-9734-442b-a2c0-d541a74466e5","system_id":"levelo_inurba_marseille","lat":43.29219,"lon":5.360523,"is_reserved":false,"is_disabled":false,"rental_uris":{"android":"levelo://app?vid=cdca0976-9734-442b-a2c0-d541a74466e5","ios":"levelo://app?vid=cdca0976-9734-442b-a2c0-d541a74466e5"},"vehicle_type_id":"4","last_reported":1740766371,"current_range_meters":6800,"station_id":"ce4bhbh2rcd13ifvqeqg","pricing_plan_id":"cebpf4jnsgd1na2vs0mg"},{"bike_id":"e8bc271b-1d72-413e-a76f-45433ce20815","system_id":"levelo_inurba_marseille","lat":43.29206,"lon":5.35788,"is_reserved":false,"is_disabled":false,"rental_uris":{"android":"levelo://app?vid=e8bc271b-1d72-413e-a76f-45433ce20815","ios":"levelo://app?vid=e8bc271b-1d72-413e-a76f-45433ce20815"},"vehicle_type_id":"4","last_reported":1740766371,"current_range_meters":9600,"station_id":"ce4bhb12rcd13ifvqel0","pricing_plan_id":"cebpf4jnsgd1na2vs0mg"},{"bike_id":"1a7e59fe-d85c-47d5-a0c3-3de4c8486fd9","system_id":"levelo_inurba_marseille","lat":43.32292,"lon":5.38268,"is_reserved":false,"is_disabled":false,"rental_uris":{"android":"levelo://app?vid=1a7e59fe-d85c-47d5-a0c3-3de4c8486fd9","ios":"levelo://app?vid=1a7e59fe-d85c-47d5-a0c3-3de4c8486fd9"},"vehicle_type_id":"4","last_reported":1740766371,"current_range_meters":8000,"station_id":"ce4bhr12rcd13ifvqhqg","pricing_plan_id":"cebpf4jnsgd1na2vs0mg"},{"bike_id":"121f184f-90a0-4e66-9d33-06a22d0922f3","system_id":"levelo_inurba_marseille","lat":43.24173,"lon":5.36409,"is_reserved":false,"is_disabled":false,"rental_uris":{"android":"levelo://app?vid=121f184f-90a0-4e66-9d33-06a22d0922f3","ios":"levelo://app?vid=121f184f-90a0-4e66-9d33-06a22d0922f3"},"vehicle_type_id":"4","last_reported":1740766371,"current_range_meters":8400,"station_id":"cpo36qri1sfpv3e86is0","pricing_plan_id":"cebpf4jnsgd1na2vs0mg"},{"bike_id":"67ce8cfb-6f6b-425f-bc83-c1ca88627e6b","system_id":"levelo_inurba_marseille","lat":43.29276,"lon":5.37614,"is_reserved":false,"is_disabled":false,"rental_uris":{"android":"levelo://app?vid=67ce8cfb-6f6b-425f-bc83-c1ca88627e6b","ios":"levelo://app?vid=67ce8cfb-6f6b-425f-bc83-c1ca88627e6b"},"vehicle_type_id":"4","last_reported":1740766371,"current_range_meters":8000,"station_id":"ce4bgi12rcd13ifvqb80","pricing_plan_id":"cebpf4jnsgd1na2vs0mg"},{"bike_id":"1a2c0b36-3a6b-4edc-b897-8f42c07003e8","system_id":"levelo_inurba_marseille","lat":43.31532,"lon":5.38039,"is_reserved":false,"is_disabled":false,"rental_uris":{"android":"levelo://app?vid=1a2c0b36-3a6b-4edc-b897-8f42c07003e8","ios":"levelo://app?vid=1a2c0b36-3a6b-4edc-b897-8f42c07003e8"},"vehicle_type_id":"4","last_reported":1740766371,"current_range_meters":8000,"station_id":"ce4bhsp2rcd13ifvqi50","pricing_plan_id":"cebpf4jnsgd1na2vs0mg"},{"bike_id":"74ac8b7f-f3ed-41d1-9814-269602a8adc4","system_id":"levelo_inurba_marseille","lat":43.3228,"lon":5.38297,"is_reserved":false,"is_disabled":false,"rental_uris":{"android":"levelo://app?vid=74ac8b7f-f3ed-41d1-9814-269602a8adc4","ios":"levelo://app?vid=74ac8b7f-f3ed-41d1-9814-269602a8adc4"},"vehicle_type_id":"4","last_reported":1740766371,"current_range_meters":8000,"station_id":"ce4bhr12rcd13ifvqhqg","pricing_plan_id":"cebpf4jnsgd1na2vs0mg"},{"bike_id":"1d423b7c-95b0-4f07-a5c0-fe88800182f7","system_id":"levelo_inurba_marseille","lat":43.33137,"lon":5.38469,"is_reserved":false,"is_disabled":false,"rental_uris":{"android":"levelo://app?vid=1d423b7c-95b0-4f07-a5c0-fe88800182f7","ios":"levelo://app?vid=1d423b7c-95b0-4f07-a5c0-fe88800182f7"},"vehicle_type_id":"4","last_reported":1740766371,"current_range_meters":8000,"station_id":"","pricing_plan_id":"cebpf4jnsgd1na2vs0mg"},{"bike_id":"0e07936b-b5f4-4ce0-90ff-73c063994f1c","system_id":"levelo_inurba_marseille","lat":43.30493,"lon":5.37239,"is_reserved":false,"is_disabled":false,"rental_uris":{"android":"levelo://app?vid=0e07936b-b5f4-4ce0-90ff-73c063994f1c","ios":"levelo://app?vid=0e07936b-b5f4-4ce0-90ff-73c063994f1c"},"vehicle_type_id":"4","last_reported":1740766371,"current_range_meters":8000,"station_id":"","pricing_plan_id":"cebpf4jnsgd1na2vs0mg"},{"bike_id":"dafbd5d8-1e49-4b40-be2e-93f0cf1661a2","system_id":"levelo_inurba_marseille","lat":43.28435,"lon":5.39191,"is_reserved":false,"is_disabled":false,"rental_uris":{"android":"levelo://app?vid=dafbd5d8-1e49-4b40-be2e-93f0cf1661a2","ios":"levelo://app?vid=dafbd5d8-1e49-4b40-be2e-93f0cf1661a2"},"vehicle_type_id":"4","last_reported":1740766371,"current_range_meters":8400,"station_id":"ce4bhoh2rcd13ifvqh5g","pricing_plan_id":"cebpf4jnsgd1na2vs0mg"},{"bike_id":"89bb895d-b072-432d-b8b8-488d98d9bf16","system_id":"levelo_inurba_marseille","lat":43.23181,"lon":5.39984,"is_reserved":false,"is_disabled":false,"rental_uris":{"android":"levelo://app?vid=89bb895d-b072-432d-b8b8-488d98d9bf16","ios":"levelo://app?vid=89bb895d-b072-432d-b8b8-488d98d9bf16"},"vehicle_type_id":"4","last_reported":1740766371,"current_range_meters":8000,"station_id":"ce4bhn12rcd13ifvqgqg","pricing_plan_id":"cebpf4jnsgd1na2vs0mg"},{"bike_id":"c3ec23bf-5b12-4944-9d5b-06e9f16af084","system_id":"levelo_inurba_marseille","lat":43.29525,"lon":5.39049,"is_reserved":false,"is_disabled":false,"rental_uris":{"android":"levelo://app?vid=c3ec23bf-5b12-4944-9d5b-06e9f16af084","ios":"levelo://app?vid=c3ec23bf-5b12-4944-9d5b-06e9f16af084"},"vehicle_type_id":"4","last_reported":1740766371,"current_range_meters":4800,"station_id":"ce4bh3p2rcd13ifvqdp0","pricing_plan_id":"cebpf4jnsgd1na2vs0mg"},{"bike_id":"088f69f1-48d4-4d71-bb3b-2b481b60aae0","system_id":"levelo_inurba_marseille","lat":43.30152,"lon":5.38096,"is_reserved":false,"is_disabled":false,"rental_uris":{"android":"levelo://app?vid=088f69f1-48d4-4d71-bb3b-2b481b60aae0","ios":"levelo://app?vid=088f69f1-48d4-4d71-bb3b-2b481b60aae0"},"vehicle_type_id":"4","last_reported":1740766371,"current_range_meters":8000,"station_id":"ce4bgjp2rcd13ifvqbh0","pricing_plan_id":"cebpf4jnsgd1na2vs0mg"},{"bike_id":"bb59350a-c58d-4f7a-96c5-b5c0cb39fe1a","system_id":"levelo_inurba_marseille","lat":43.29976,"lon":5.38491,"is_reserved":false,"is_disabled":false,"rental_uris":{"android":"levelo://app?vid=bb59350a-c58d-4f7a-96c5-b5c0cb39fe1a","ios":"levelo://app?vid=bb59350a-c58d-4f7a-96c5-b5c0cb39fe1a"},"vehicle_type_id":"4","last_reported":1740766371,"current_range_meters":8000,"station_id":"ce4bgj92rcd13ifvqbd0","pricing_plan_id":"cebpf4jnsgd1na2vs0mg"},{"bike_id":"9753fb54-7bac-4c39-b532-b7089220649f","system_id":"levelo_inurba_marseille","lat":43.30422,"lon":5.41862,"is_reserved":false,"is_disabled":false,"rental_uris":{"android":"levelo://app?vid=9753fb54-7bac-4c39-b532-b7089220649f","ios":"levelo://app?vid=9753fb54-7bac-4c39-b532-b7089220649f"},"vehicle_type_id":"4","last_reported":1740766371,"current_range_meters":6400,"station_id":"ce4bhop2rcd13ifvqh7g","pricing_plan_id":"cebpf4jnsgd1na2vs0mg"},{"bike_id":"f26c35c1-6d74-4839-8620-0ecaba4ac374","system_id":"levelo_inurba_marseille","lat":43.25014,"lon":5.38902,"is_reserved":false,"is_disabled":false,"rental_uris":{"android":"levelo://app?vid=f26c35c1-6d74-4839-8620-0ecaba4ac374","ios":"levelo://app?vid=f26c35c1-6d74-4839-8620-0ecaba4ac374"},"vehicle_type_id":"4","last_reported":1740766371,"current_range_meters":8800,"station_id":"ce4bhgp2rcd13ifvqfd0","pricing_plan_id":"cebpf4jnsgd1na2vs0mg"},{"bike_id":"917de688-7b4c-4119-a195-d52a1eca20ed","system_id":"levelo_inurba_marseille","lat":43.25114,"lon":5.40325,"is_reserved":false,"is_disabled":false,"rental_uris":{"android":"levelo://app?vid=917de688-7b4c-4119-a195-d52a1eca20ed","ios":"levelo://app?vid=917de688-7b4c-4119-a195-d52a1eca20ed"},"vehicle_type_id":"4","last_reported":1740766371,"current_range_meters":8400,"station_id":"ce4bhlh2rcd13ifvqgig","pricing_plan_id":"cebpf4jnsgd1na2vs0mg"},{"bike_id":"2c3bf2fe-f081-4685-9d04-5171a9f43f10","system_id":"levelo_inurba_marseille","lat":43.28615,"lon":5.351,"is_reserved":false,"is_disabled":false,"rental_uris":{"android":"levelo://app?vid=2c3bf2fe-f081-4685-9d04-5171a9f43f10","ios":"levelo://app?vid=2c3bf2fe-f081-4685-9d04-5171a9f43f10"},"vehicle_type_id":"4","last_reported":1740766371,"current_range_meters":8400,"station_id":"ce4bhch2rcd13ifvqeug","pricing_plan_id":"cebpf4jnsgd1na2vs0mg"},{"bike_id":"fadd3e26-6605-45b6-87d1-543673adaa29","system_id":"levelo_inurba_marseille","lat":43.330157,"lon":5.390366,"is_reserved":false,"is_disabled":false,"rental_uris":{"android":"levelo://app?vid=fadd3e26-6605-45b6-87d1-543673adaa29","ios":"levelo://app?vid=fadd3e26-6605-45b6-87d1-543673adaa29"},"vehicle_type_id":"4","last_reported":1740766371,"current_range_meters":8400,"station_id":"ce4bhr92rcd13ifvqhrg","pricing_plan_id":"cebpf4jnsgd1na2vs0mg"},{"bike_id":"7714ebf7-a785-40d7-8f01-4d8999005ff5","system_id":"levelo_inurba_marseille","lat":43.31076,"lon":5.3834,"is_reserved":false,"is_disabled":false,"rental_uris":{"android":"levelo://app?vid=7714ebf7-a785-40d7-8f01-4d8999005ff5","ios":"levelo://app?vid=7714ebf7-a785-40d7-8f01-4d8999005ff5"},"vehicle_type_id":"4","last_reported":1740766371,"current_range_meters":8400,"station_id":"ce4bgv92rcd13ifvqcr0","pricing_plan_id":"cebpf4jnsgd1na2vs0mg"},{"bike_id":"a56382e5-76c7-4c06-be10-51490c8f3ddf","system_id":"levelo_inurba_marseille","lat":43.27616,"lon":5.36108,"is_reserved":false,"is_disabled":false,"rental_uris":{"android":"levelo://app?vid=a56382e5-76c7-4c06-be10-51490c8f3ddf","ios":"levelo://app?vid=a56382e5-76c7-4c06-be10-51490c8f3ddf"},"vehicle_type_id":"4","last_reported":1740766371,"current_range_meters":8400,"station_id":"ce4bgj92rcd13ifvqbe0","pricing_plan_id":"cebpf4jnsgd1na2vs0mg"},{"bike_id":"9f2f8e1d-2d92-4596-aa9a-1cd7055ae6ae","system_id":"levelo_inurba_marseille","lat":43.231944,"lon":5.355534,"is_reserved":false,"is_disabled":false,"rental_uris":{"android":"levelo://app?vid=9f2f8e1d-2d92-4596-aa9a-1cd7055ae6ae","ios":"levelo://app?vid=9f2f8e1d-2d92-4596-aa9a-1cd7055ae6ae"},"vehicle_type_id":"4","last_reported":1740766371,"current_range_meters":8400,"station_id":"ce4bhih2rcd13ifvqfs0","pricing_plan_id":"cebpf4jnsgd1na2vs0mg"},{"bike_id":"a95fdf60-6ade-488f-a85a-97d2d1d583bd","system_id":"levelo_inurba_marseille","lat":43.27069,"lon":5.40255,"is_reserved":false,"is_disabled":false,"rental_uris":{"android":"levelo://app?vid=a95fdf60-6ade-488f-a85a-97d2d1d583bd","ios":"levelo://app?vid=a95fdf60-6ade-488f-a85a-97d2d1d583bd"},"vehicle_type_id":"4","last_reported":1740766371,"current_range_meters":8400,"station_id":"ce4bhk92rcd13ifvqgc0","pricing_plan_id":"cebpf4jnsgd1na2vs0mg"},{"bike_id":"3de9aeda-1f9a-4bbc-8b90-e02a49e56ca9","system_id":"levelo_inurba_marseille","lat":43.23187,"lon":5.35559,"is_reserved":false,"is_disabled":false,"rental_uris":{"android":"levelo://app?vid=3de9aeda-1f9a-4bbc-8b90-e02a49e56ca9","ios":"levelo://app?vid=3de9aeda-1f9a-4bbc-8b90-e02a49e56ca9"},"vehicle_type_id":"4","last_reported":1740766371,"current_range_meters":8800,"station_id":"ce4bhu92rcd13ifvqi70","pricing_plan_id":"cebpf4jnsgd1na2vs0mg"},{"bike_id":"249a4e2f-9905-457b-9944-9fce212c592f","system_id":"levelo_inurba_marseille","lat":43.25824,"lon":5.39422,"is_reserved":false,"is_disabled":false,"rental_uris":{"android":"levelo://app?vid=249a4e2f-9905-457b-9944-9fce212c592f","ios":"levelo://app?vid=249a4e2f-9905-457b-9944-9fce212c592f"},"vehicle_type_id":"4","last_reported":1740766371,"current_range_meters":9200,"station_id":"ce4bhip2rcd13ifvqft0","pricing_plan_id":"cebpf4jnsgd1na2vs0mg"},{"bike_id":"d4918d6a-5525-4be8-b0c4-7af64b54343d","system_id":"levelo_inurba_marseille","lat":43.24156,"lon":5.36416,"is_reserved":false,"is_disabled":false,"rental_uris":{"android":"levelo://app?vid=d4918d6a-5525-4be8-b0c4-7af64b54343d","ios":"levelo://app?vid=d4918d6a-5525-4be8-b0c4-7af64b54343d"},"vehicle_type_id":"4","last_reported":1740766371,"current_range_meters":9200,"station_id":"cpo36qri1sfpv3e86is0","pricing_plan_id":"cebpf4jnsgd1na2vs0mg"},{"bike_id":"8c836072-915f-4439-a119-794f52217e20","system_id":"levelo_inurba_marseille","lat":43.27815,"lon":5.40715,"is_reserved":false,"is_disabled":false,"rental_uris":{"android":"levelo://app?vid=8c836072-915f-4439-a119-794f52217e20","ios":"levelo://app?vid=8c836072-915f-4439-a119-794f52217e20"},"vehicle_type_id":"4","last_reported":1740766371,"current_range_meters":9600,"station_id":"ce4bhnh2rcd13ifvqgtg","pricing_plan_id":"cebpf4jnsgd1na2vs0mg"},{"bike_id":"fb469847-d0bc-4e87-9009-3266224b9f69","system_id":"levelo_inurba_marseille","lat":43.29185,"lon":5.39306,"is_reserved":false,"is_disabled":false,"rental_uris":{"android":"levelo://app?vid=fb469847-d0bc-4e87-9009-3266224b9f69","ios":"levelo://app?vid=fb469847-d0bc-4e87-9009-3266224b9f69"},"vehicle_type_id":"4","last_reported":1740766371,"current_range_meters":9200,"station_id":"ce4bh192rcd13ifvqdd0","pricing_plan_id":"cebpf4jnsgd1na2vs0mg"},{"bike_id":"e2002dc7-8529-4007-bfdf-b903f22cf884","system_id":"levelo_inurba_marseille","lat":43.30805,"lon":5.43531,"is_reserved":false,"is_disabled":false,"rental_uris":{"android":"levelo://app?vid=e2002dc7-8529-4007-bfdf-b903f22cf884","ios":"levelo://app?vid=e2002dc7-8529-4007-bfdf-b903f22cf884"},"vehicle_type_id":"4","last_reported":1740766371,"current_range_meters":9600,"station_id":"ce4bhph2rcd13ifvqheg","pricing_plan_id":"cebpf4jnsgd1na2vs0mg"},{"bike_id":"ed2a3fde-3f2b-42f6-86aa-8a16442fe7da","system_id":"levelo_inurba_marseille","lat":43.29794,"lon":5.38088,"is_reserved":false,"is_disabled":false,"rental_uris":{"android":"levelo://app?vid=ed2a3fde-3f2b-42f6-86aa-8a16442fe7da","ios":"levelo://app?vid=ed2a3fde-3f2b-42f6-86aa-8a16442fe7da"},"vehicle_type_id":"4","last_reported":1740766371,"current_range_meters":9200,"station_id":"ce4bgip2rcd13ifvqbb0","pricing_plan_id":"cebpf4jnsgd1na2vs0mg"},{"bike_id":"6e756921-f802-43c0-83ce-f106516c2956","system_id":"levelo_inurba_marseille","lat":43.29982,"lon":5.38503,"is_reserved":false,"is_disabled":false,"rental_uris":{"android":"levelo://app?vid=6e756921-f802-43c0-83ce-f106516c2956","ios":"levelo://app?vid=6e756921-f802-43c0-83ce-f106516c2956"},"vehicle_type_id":"4","last_reported":1740766371,"current_range_meters":9200,"station_id":"ce4bgj92rcd13ifvqbd0","pricing_plan_id":"cebpf4jnsgd1na2vs0mg"},{"bike_id":"87e93e74-8cd3-44d1-b4df-fd004e9d2d43","system_id":"levelo_inurba_marseille","lat":43.28115,"lon":5.37855,"is_reserved":false,"is_disabled":false,"rental_uris":{"android":"levelo://app?vid=87e93e74-8cd3-44d1-b4df-fd004e9d2d43","ios":"levelo://app?vid=87e93e74-8cd3-44d1-b4df-fd004e9d2d43"},"vehicle_type_id":"4","last_reported":1740766371,"current_range_meters":9200,"station_id":"ce4bha12rcd13ifvqee0","pricing_plan_id":"cebpf4jnsgd1na2vs0mg"},{"bike_id":"a7fba2e6-a6ad-4996-be03-c77c5cc6270e","system_id":"levelo_inurba_marseille","lat":43.26223,"lon":5.37444,"is_reserved":false,"is_disabled":false,"rental_uris":{"android":"levelo://app?vid=a7fba2e6-a6ad-4996-be03-c77c5cc6270e","ios":"levelo://app?vid=a7fba2e6-a6ad-4996-be03-c77c5cc6270e"},"vehicle_type_id":"4","last_reported":1740766371,"current_range_meters":9600,"station_id":"ce4bhgp2rcd13ifvqfc0","pricing_plan_id":"cebpf4jnsgd1na2vs0mg"},{"bike_id":"3fa183a1-f161-4af6-8376-e4be016725db","system_id":"levelo_inurba_marseille","lat":43.28461,"lon":5.359,"is_reserved":false,"is_disabled":false,"rental_uris":{"android":"levelo://app?vid=3fa183a1-f161-4af6-8376-e4be016725db","ios":"levelo://app?vid=3fa183a1-f161-4af6-8376-e4be016725db"},"vehicle_type_id":"4","last_reported":1740766371,"current_range_meters":9600,"station_id":"ce4bhah2rcd13ifvqei0","pricing_plan_id":"cebpf4jnsgd1na2vs0mg"},{"bike_id":"2d80637e-0f64-4cdb-a544-a68693258e78","system_id":"levelo_inurba_marseille","lat":43.29827,"lon":5.38087,"is_reserved":false,"is_disabled":false,"rental_uris":{"android":"levelo://app?vid=2d80637e-0f64-4cdb-a544-a68693258e78","ios":"levelo://app?vid=2d80637e-0f64-4cdb-a544-a68693258e78"},"vehicle_type_id":"4","last_reported":1740766371,"current_range_meters":9600,"station_id":"ce4bgip2rcd13ifvqbb0","pricing_plan_id":"cebpf4jnsgd1na2vs0mg"},{"bike_id":"749fee80-dfaa-43de-aa58-d21bbf5e0792","system_id":"levelo_inurba_marseille","lat":43.23179,"lon":5.39988,"is_reserved":false,"is_disabled":false,"rental_uris":{"android":"levelo://app?vid=749fee80-dfaa-43de-aa58-d21bbf5e0792","ios":"levelo://app?vid=749fee80-dfaa-43de-aa58-d21bbf5e0792"},"vehicle_type_id":"4","last_reported":1740766371,"current_range_meters":9600,"station_id":"ce4bhn12rcd13ifvqgqg","pricing_plan_id":"cebpf4jnsgd1na2vs0mg"},{"bike_id":"13a25ae7-e821-439b-afbc-3c32c17de936","system_id":"levelo_inurba_marseille","lat":43.27989,"lon":5.40026,"is_reserved":false,"is_disabled":false,"rental_uris":{"android":"levelo://app?vid=13a25ae7-e821-439b-afbc-3c32c17de936","ios":"levelo://app?vid=13a25ae7-e821-439b-afbc-3c32c17de936"},"vehicle_type_id":"4","last_reported":1740766371,"current_range_meters":9600,"station_id":"ce4bho92rcd13ifvqh4g","pricing_plan_id":"cebpf4jnsgd1na2vs0mg"},{"bike_id":"04637487-bba0-4fc3-b487-91b0966835a6","system_id":"levelo_inurba_marseille","lat":43.25004,"lon":5.38928,"is_reserved":false,"is_disabled":false,"rental_uris":{"android":"levelo://app?vid=04637487-bba0-4fc3-b487-91b0966835a6","ios":"levelo://app?vid=04637487-bba0-4fc3-b487-91b0966835a6"},"vehicle_type_id":"4","last_reported":1740766371,"current_range_meters":9600,"station_id":"ce4bhgp2rcd13ifvqfd0","pricing_plan_id":"cebpf4jnsgd1na2vs0mg"},{"bike_id":"c730fc49-e483-44bd-8237-cfd8a42cae37","system_id":"levelo_inurba_marseille","lat":43.30468,"lon":5.379142,"is_reserved":false,"is_disabled":false,"rental_uris":{"android":"levelo://app?vid=c730fc49-e483-44bd-8237-cfd8a42cae37","ios":"levelo://app?vid=c730fc49-e483-44bd-8237-cfd8a42cae37"},"vehicle_type_id":"4","last_reported":1740766371,"current_range_meters":8800,"station_id":"ce4bhr92rcd13ifvqhrg","pricing_plan_id":"cebpf4jnsgd1na2vs0mg"},{"bike_id":"c9fd74d4-639d-451d-a66e-77b1d4230928","system_id":"levelo_inurba_marseille","lat":43.281,"lon":5.37833,"is_reserved":false,"is_disabled":false,"rental_uris":{"android":"levelo://app?vid=c9fd74d4-639d-451d-a66e-77b1d4230928","ios":"levelo://app?vid=c9fd74d4-639d-451d-a66e-77b1d4230928"},"vehicle_type_id":"4","last_reported":1740766371,"current_range_meters":9600,"station_id":"ce4bha12rcd13ifvqee0","pricing_plan_id":"cebpf4jnsgd1na2vs0mg"},{"bike_id":"fcc92071-e920-45ed-b0c3-5320e688e0c3","system_id":"levelo_inurba_marseille","lat":43.2732,"lon":5.39078,"is_reserved":false,"is_disabled":false,"rental_uris":{"android":"levelo://app?vid=fcc92071-e920-45ed-b0c3-5320e688e0c3","ios":"levelo://app?vid=fcc92071-e920-45ed-b0c3-5320e688e0c3"},"vehicle_type_id":"4","last_reported":1740766371,"current_range_meters":10000,"station_id":"ce4bhgp2rcd13ifvqfe0","pricing_plan_id":"cebpf4jnsgd1na2vs0mg"},{"bike_id":"ee3eeee7-009d-476b-af8c-87edbcb901b9","system_id":"levelo_inurba_marseille","lat":43.32361,"lon":5.38914,"is_reserved":false,"is_disabled":false,"rental_uris":{"android":"levelo://app?vid=ee3eeee7-009d-476b-af8c-87edbcb901b9","ios":"levelo://app?vid=ee3eeee7-009d-476b-af8c-87edbcb901b9"},"vehicle_type_id":"4","last_reported":1740766371,"current_range_meters":10000,"station_id":"ce4bhqp2rcd13ifvqhog","pricing_plan_id":"cebpf4jnsgd1na2vs0mg"},{"bike_id":"d67e8645-51ed-48a6-a77f-87cdeb668a17","system_id":"levelo_inurba_marseille","lat":43.26804,"lon":5.40262,"is_reserved":false,"is_disabled":false,"rental_uris":{"android":"levelo://app?vid=d67e8645-51ed-48a6-a77f-87cdeb668a17","ios":"levelo://app?vid=d67e8645-51ed-48a6-a77f-87cdeb668a17"},"vehicle_type_id":"4","last_reported":1740766371,"current_range_meters":10000,"station_id":"ce501612rcd8frsf0b60","pricing_plan_id":"cebpf4jnsgd1na2vs0mg"},{"bike_id":"b834fe85-b051-479b-80e3-ba51694086ff","system_id":"levelo_inurba_marseille","lat":43.28613,"lon":5.35107,"is_reserved":false,"is_disabled":false,"rental_uris":{"android":"levelo://app?vid=b834fe85-b051-479b-80e3-ba51694086ff","ios":"levelo://app?vid=b834fe85-b051-479b-80e3-ba51694086ff"},"vehicle_type_id":"4","last_reported":1740766371,"current_range_meters":10000,"station_id":"ce4bhch2rcd13ifvqeug","pricing_plan_id":"cebpf4jnsgd1na2vs0mg"},{"bike_id":"4b7d95b1-35d3-47cc-a9b5-4ba973f3cafd","system_id":"levelo_inurba_marseille","lat":43.24803,"lon":5.37451,"is_reserved":false,"is_disabled":false,"rental_uris":{"android":"levelo://app?vid=4b7d95b1-35d3-47cc-a9b5-4ba973f3cafd","ios":"levelo://app?vid=4b7d95b1-35d3-47cc-a9b5-4ba973f3cafd"},"vehicle_type_id":"4","last_reported":1740766371,"current_range_meters":10000,"station_id":"ce4bhgh2rcd13ifvqfb0","pricing_plan_id":"cebpf4jnsgd1na2vs0mg"},{"bike_id":"a012c9a5-8758-46e3-b5db-da9eb218cc7f","system_id":"levelo_inurba_marseille","lat":43.29539,"lon":5.38547,"is_reserved":false,"is_disabled":false,"rental_uris":{"android":"levelo://app?vid=a012c9a5-8758-46e3-b5db-da9eb218cc7f","ios":"levelo://app?vid=a012c9a5-8758-46e3-b5db-da9eb218cc7f"},"vehicle_type_id":"4","last_reported":1740766371,"current_range_meters":12800,"station_id":"ce4bgih2rcd13ifvqba0","pricing_plan_id":"cebpf4jnsgd1na2vs0mg"},{"bike_id":"a80f2bad-2eaf-4b9e-ac0c-ce56069128a5","system_id":"levelo_inurba_marseille","lat":43.289422,"lon":5.363902,"is_reserved":false,"is_disabled":false,"rental_uris":{"android":"levelo://app?vid=a80f2bad-2eaf-4b9e-ac0c-ce56069128a5","ios":"levelo://app?vid=a80f2bad-2eaf-4b9e-ac0c-ce56069128a5"},"vehicle_type_id":"4","last_reported":1740766371,"current_range_meters":12400,"station_id":"ce4bh5p2rcd13ifvqe4g","pricing_plan_id":"cebpf4jnsgd1na2vs0mg"},{"bike_id":"3d040c09-43d9-41e1-8bf3-6c4e3f3df0f4","system_id":"levelo_inurba_marseille","lat":43.30554,"lon":5.36531,"is_reserved":false,"is_disabled":false,"rental_uris":{"android":"levelo://app?vid=3d040c09-43d9-41e1-8bf3-6c4e3f3df0f4","ios":"levelo://app?vid=3d040c09-43d9-41e1-8bf3-6c4e3f3df0f4"},"vehicle_type_id":"4","last_reported":1740766371,"current_range_meters":9600,"station_id":"ce4bgs12rcd13ifvqcag","pricing_plan_id":"cebpf4jnsgd1na2vs0mg"},{"bike_id":"07218d0c-edee-4927-8301-a0b5a1c7809f","system_id":"levelo_inurba_marseille","lat":43.25585,"lon":5.38235,"is_reserved":false,"is_disabled":false,"rental_uris":{"android":"levelo://app?vid=07218d0c-edee-4927-8301-a0b5a1c7809f","ios":"levelo://app?vid=07218d0c-edee-4927-8301-a0b5a1c7809f"},"vehicle_type_id":"4","last_reported":1740766371,"current_range_meters":10000,"station_id":"ce4bhih2rcd13ifvqfs0","pricing_plan_id":"cebpf4jnsgd1na2vs0mg"},{"bike_id":"cd34bbab-973b-4d9e-8827-e87b18604949","system_id":"levelo_inurba_marseille","lat":43.29703,"lon":5.36581,"is_reserved":false,"is_disabled":false,"rental_uris":{"android":"levelo://app?vid=cd34bbab-973b-4d9e-8827-e87b18604949","ios":"levelo://app?vid=cd34bbab-973b-4d9e-8827-e87b18604949"},"vehicle_type_id":"4","last_reported":1740766371,"current_range_meters":9600,"station_id":"ce4bgn12rcd13ifvqbt0","pricing_plan_id":"cebpf4jnsgd1na2vs0mg"},{"bike_id":"1f04a4a9-4c07-400a-94c2-257bcc194cdd","system_id":"levelo_inurba_marseille","lat":43.29167,"lon":5.37157,"is_reserved":false,"is_disabled":false,"rental_uris":{"android":"levelo://app?vid=1f04a4a9-4c07-400a-94c2-257bcc194cdd","ios":"levelo://app?vid=1f04a4a9-4c07-400a-94c2-257bcc194cdd"},"vehicle_type_id":"4","last_reported":1740766371,"current_range_meters":10000,"station_id":"ce4bha92rcd13ifvqeh0","pricing_plan_id":"cebpf4jnsgd1na2vs0mg"},{"bike_id":"f0e0326f-f01d-4cbb-983c-a16748496e88","system_id":"levelo_inurba_marseille","lat":43.26033,"lon":5.37547,"is_reserved":false,"is_disabled":false,"rental_uris":{"android":"levelo://app?vid=f0e0326f-f01d-4cbb-983c-a16748496e88","ios":"levelo://app?vid=f0e0326f-f01d-4cbb-983c-a16748496e88"},"vehicle_type_id":"4","last_reported":1740766371,"current_range_meters":9600,"station_id":"ce4bhgh2rcd13ifvqfa0","pricing_plan_id":"cebpf4jnsgd1na2vs0mg"},{"bike_id":"f91383d0-bbc3-4dad-bbac-c09150d5663f","system_id":"levelo_inurba_marseille","lat":43.30544,"lon":5.36558,"is_reserved":false,"is_disabled":false,"rental_uris":{"android":"levelo://app?vid=f91383d0-bbc3-4dad-bbac-c09150d5663f","ios":"levelo://app?vid=f91383d0-bbc3-4dad-bbac-c09150d5663f"},"vehicle_type_id":"4","last_reported":1740766371,"current_range_meters":9600,"station_id":"ce4bgs12rcd13ifvqcag","pricing_plan_id":"cebpf4jnsgd1na2vs0mg"},{"bike_id":"3cde6d53-fbdb-4593-bf43-d200467be7fc","system_id":"levelo_inurba_marseille","lat":43.29261,"lon":5.38432,"is_reserved":false,"is_disabled":false,"rental_uris":{"android":"levelo://app?vid=3cde6d53-fbdb-4593-bf43-d200467be7fc","ios":"levelo://app?vid=3cde6d53-fbdb-4593-bf43-d200467be7fc"},"vehicle_type_id":"4","last_reported":1740766371,"current_range_meters":10000,"station_id":"ce4bh692rcd13ifvqea0","pricing_plan_id":"cebpf4jnsgd1na2vs0mg"},{"bike_id":"c776e964-75a1-4343-b453-0b5fc1f76818","system_id":"levelo_inurba_marseille","lat":43.33469,"lon":5.38179,"is_reserved":false,"is_disabled":false,"rental_uris":{"android":"levelo://app?vid=c776e964-75a1-4343-b453-0b5fc1f76818","ios":"levelo://app?vid=c776e964-75a1-4343-b453-0b5fc1f76818"},"vehicle_type_id":"4","last_reported":1740766371,"current_range_meters":10800,"station_id":"","pricing_plan_id":"cebpf4jnsgd1na2vs0mg"},{"bike_id":"90fa531f-40e5-4dbd-8945-3f992142b8c6","system_id":"levelo_inurba_marseille","lat":43.29845,"lon":5.36262,"is_reserved":false,"is_disabled":false,"rental_uris":{"android":"levelo://app?vid=90fa531f-40e5-4dbd-8945-3f992142b8c6","ios":"levelo://app?vid=90fa531f-40e5-4dbd-8945-3f992142b8c6"},"vehicle_type_id":"4","last_reported":1740766371,"current_range_meters":10800,"station_id":"ce4bgpp2rcd13ifvqc3g","pricing_plan_id":"cebpf4jnsgd1na2vs0mg"},{"bike_id":"43d6aa6f-20c7-4a1b-bcb8-31b660876567","system_id":"levelo_inurba_marseille","lat":43.26551,"lon":5.37289,"is_reserved":false,"is_disabled":false,"rental_uris":{"android":"levelo://app?vid=43d6aa6f-20c7-4a1b-bcb8-31b660876567","ios":"levelo://app?vid=43d6aa6f-20c7-4a1b-bcb8-31b660876567"},"vehicle_type_id":"4","last_reported":1740766371,"current_range_meters":10800,"station_id":"ce4bhg12rcd13ifvqf70","pricing_plan_id":"cebpf4jnsgd1na2vs0mg"},{"bike_id":"f695a7bb-361c-4630-909d-3bcd352230a5","system_id":"levelo_inurba_marseille","lat":43.31076,"lon":5.38347,"is_reserved":false,"is_disabled":false,"rental_uris":{"android":"levelo://app?vid=f695a7bb-361c-4630-909d-3bcd352230a5","ios":"levelo://app?vid=f695a7bb-361c-4630-909d-3bcd352230a5"},"vehicle_type_id":"4","last_reported":1740766371,"current_range_meters":10800,"station_id":"ce4bgv92rcd13ifvqcr0","pricing_plan_id":"cebpf4jnsgd1na2vs0mg"},{"bike_id":"aeec7464-e2a2-402d-80e3-933029ef63e9","system_id":"levelo_inurba_marseille","lat":43.32365,"lon":5.38881,"is_reserved":false,"is_disabled":false,"rental_uris":{"android":"levelo://app?vid=aeec7464-e2a2-402d-80e3-933029ef63e9","ios":"levelo://app?vid=aeec7464-e2a2-402d-80e3-933029ef63e9"},"vehicle_type_id":"4","last_reported":1740766371,"current_range_meters":10800,"station_id":"ce4bhqp2rcd13ifvqhog","pricing_plan_id":"cebpf4jnsgd1na2vs0mg"},{"bike_id":"3f5e4c77-943b-4a46-b257-614bf13afec4","system_id":"levelo_inurba_marseille","lat":43.241683,"lon":5.363913,"is_reserved":false,"is_disabled":false,"rental_uris":{"android":"levelo://app?vid=3f5e4c77-943b-4a46-b257-614bf13afec4","ios":"levelo://app?vid=3f5e4c77-943b-4a46-b257-614bf13afec4"},"vehicle_type_id":"4","last_reported":1740766371,"current_range_meters":11200,"station_id":"cpo36qri1sfpv3e86is0","pricing_plan_id":"cebpf4jnsgd1na2vs0mg"},{"bike_id":"e539e494-fa17-4683-9bd7-83b731a11d93","system_id":"levelo_inurba_marseille","lat":43.24162,"lon":5.36406,"is_reserved":false,"is_disabled":false,"rental_uris":{"android":"levelo://app?vid=e539e494-fa17-4683-9bd7-83b731a11d93","ios":"levelo://app?vid=e539e494-fa17-4683-9bd7-83b731a11d93"},"vehicle_type_id":"4","last_reported":1740766371,"current_range_meters":10800,"station_id":"cpo36qri1sfpv3e86is0","pricing_plan_id":"cebpf4jnsgd1na2vs0mg"},{"bike_id":"477034a8-e14e-4e5f-be4e-e0f4d92993ac","system_id":"levelo_inurba_marseille","lat":43.23179,"lon":5.39988,"is_reserved":false,"is_disabled":false,"rental_uris":{"android":"levelo://app?vid=477034a8-e14e-4e5f-be4e-e0f4d92993ac","ios":"levelo://app?vid=477034a8-e14e-4e5f-be4e-e0f4d92993ac"},"vehicle_type_id":"4","last_reported":1740766371,"current_range_meters":12800,"station_id":"ce4bhn12rcd13ifvqgqg","pricing_plan_id":"cebpf4jnsgd1na2vs0mg"},{"bike_id":"0d340471-27ba-4176-87c8-691dc55cd3a2","system_id":"levelo_inurba_marseille","lat":43.30534,"lon":5.36699,"is_reserved":false,"is_disabled":false,"rental_uris":{"android":"levelo://app?vid=0d340471-27ba-4176-87c8-691dc55cd3a2","ios":"levelo://app?vid=0d340471-27ba-4176-87c8-691dc55cd3a2"},"vehicle_type_id":"4","last_reported":1740766371,"current_range_meters":11200,"station_id":"ce4bgrp2rcd13ifvqc9g","pricing_plan_id":"cebpf4jnsgd1na2vs0mg"},{"bike_id":"02d367cd-4198-453c-bd37-84e583b93fc5","system_id":"levelo_inurba_marseille","lat":43.27672,"lon":5.3889,"is_reserved":false,"is_disabled":false,"rental_uris":{"android":"levelo://app?vid=02d367cd-4198-453c-bd37-84e583b93fc5","ios":"levelo://app?vid=02d367cd-4198-453c-bd37-84e583b93fc5"},"vehicle_type_id":"4","last_reported":1740766371,"current_range_meters":10800,"station_id":"ce4bhi12rcd13ifvqfo0","pricing_plan_id":"cebpf4jnsgd1na2vs0mg"},{"bike_id":"412fb57c-6ad1-4217-b80a-38cb7548912d","system_id":"levelo_inurba_marseille","lat":43.2863,"lon":5.35102,"is_reserved":false,"is_disabled":false,"rental_uris":{"android":"levelo://app?vid=412fb57c-6ad1-4217-b80a-38cb7548912d","ios":"levelo://app?vid=412fb57c-6ad1-4217-b80a-38cb7548912d"},"vehicle_type_id":"4","last_reported":1740766371,"current_range_meters":11200,"station_id":"ce4bhch2rcd13ifvqeug","pricing_plan_id":"cebpf4jnsgd1na2vs0mg"},{"bike_id":"a8491c1d-2364-406e-946f-98d58f145a67","system_id":"levelo_inurba_marseille","lat":43.32293,"lon":5.38277,"is_reserved":false,"is_disabled":false,"rental_uris":{"android":"levelo://app?vid=a8491c1d-2364-406e-946f-98d58f145a67","ios":"levelo://app?vid=a8491c1d-2364-406e-946f-98d58f145a67"},"vehicle_type_id":"4","last_reported":1740766371,"current_range_meters":11200,"station_id":"ce4bhr12rcd13ifvqhqg","pricing_plan_id":"cebpf4jnsgd1na2vs0mg"},{"bike_id":"5133fc72-65ce-4545-887a-28c61a41db2c","system_id":"levelo_inurba_marseille","lat":43.27999,"lon":5.40019,"is_reserved":false,"is_disabled":false,"rental_uris":{"android":"levelo://app?vid=5133fc72-65ce-4545-887a-28c61a41db2c","ios":"levelo://app?vid=5133fc72-65ce-4545-887a-28c61a41db2c"},"vehicle_type_id":"4","last_reported":1740766371,"current_range_meters":11600,"station_id":"ce4bho92rcd13ifvqh4g","pricing_plan_id":"cebpf4jnsgd1na2vs0mg"},{"bike_id":"be42606a-2aba-414f-96b3-5743090e9515","system_id":"levelo_inurba_marseille","lat":43.27941,"lon":5.41045,"is_reserved":false,"is_disabled":false,"rental_uris":{"android":"levelo://app?vid=be42606a-2aba-414f-96b3-5743090e9515","ios":"levelo://app?vid=be42606a-2aba-414f-96b3-5743090e9515"},"vehicle_type_id":"4","last_reported":1740766371,"current_range_meters":13600,"station_id":"ce4bhnp2rcd13ifvqh0g","pricing_plan_id":"cebpf4jnsgd1na2vs0mg"},{"bike_id":"85405dd3-94f9-4cc7-bc80-a756898b1b35","system_id":"levelo_inurba_marseille","lat":43.2905,"lon":5.35908,"is_reserved":false,"is_disabled":false,"rental_uris":{"android":"levelo://app?vid=85405dd3-94f9-4cc7-bc80-a756898b1b35","ios":"levelo://app?vid=85405dd3-94f9-4cc7-bc80-a756898b1b35"},"vehicle_type_id":"4","last_reported":1740766371,"current_range_meters":12000,"station_id":"ce4bha92rcd13ifvqeg0","pricing_plan_id":"cebpf4jnsgd1na2vs0mg"},{"bike_id":"024fcd60-811e-45e2-a711-eb300791f24e","system_id":"levelo_inurba_marseille","lat":43.30546,"lon":5.36538,"is_reserved":false,"is_disabled":false,"rental_uris":{"android":"levelo://app?vid=024fcd60-811e-45e2-a711-eb300791f24e","ios":"levelo://app?vid=024fcd60-811e-45e2-a711-eb300791f24e"},"vehicle_type_id":"4","last_reported":1740766371,"current_range_meters":12000,"station_id":"ce4bgs12rcd13ifvqcag","pricing_plan_id":"cebpf4jnsgd1na2vs0mg"},{"bike_id":"bcf10ec7-0dc7-4b31-90db-9fddabad3e7a","system_id":"levelo_inurba_marseille","lat":43.305523,"lon":5.367103,"is_reserved":false,"is_disabled":true,"rental_uris":{"android":"levelo://app?vid=bcf10ec7-0dc7-4b31-90db-9fddabad3e7a","ios":"levelo://app?vid=bcf10ec7-0dc7-4b31-90db-9fddabad3e7a"},"vehicle_type_id":"4","last_reported":1740766371,"current_range_meters":12400,"station_id":"ce4bgrp2rcd13ifvqc9g","pricing_plan_id":"cebpf4jnsgd1na2vs0mg"},{"bike_id":"f903fd24-6696-43fd-9b6e-a49dd31530b7","system_id":"levelo_inurba_marseille","lat":43.30799,"lon":5.43541,"is_reserved":false,"is_disabled":false,"rental_uris":{"android":"levelo://app?vid=f903fd24-6696-43fd-9b6e-a49dd31530b7","ios":"levelo://app?vid=f903fd24-6696-43fd-9b6e-a49dd31530b7"},"vehicle_type_id":"4","last_reported":1740766371,"current_range_meters":12000,"station_id":"ce4bhph2rcd13ifvqheg","pricing_plan_id":"cebpf4jnsgd1na2vs0mg"},{"bike_id":"7b53909a-408f-4271-8c5c-7db6e9aa524e","system_id":"levelo_inurba_marseille","lat":43.26524,"lon":5.39568,"is_reserved":false,"is_disabled":false,"rental_uris":{"android":"levelo://app?vid=7b53909a-408f-4271-8c5c-7db6e9aa524e","ios":"levelo://app?vid=7b53909a-408f-4271-8c5c-7db6e9aa524e"},"vehicle_type_id":"4","last_reported":1740766371,"current_range_meters":11600,"station_id":"ce4bhi12rcd13ifvqfq0","pricing_plan_id":"cebpf4jnsgd1na2vs0mg"},{"bike_id":"1a44e2f3-b712-436a-9a7d-ebb760b6c14b","system_id":"levelo_inurba_marseille","lat":43.29417,"lon":5.3862,"is_reserved":false,"is_disabled":false,"rental_uris":{"android":"levelo://app?vid=1a44e2f3-b712-436a-9a7d-ebb760b6c14b","ios":"levelo://app?vid=1a44e2f3-b712-436a-9a7d-ebb760b6c14b"},"vehicle_type_id":"4","last_reported":1740766371,"current_range_meters":12400,"station_id":"ce4bh2h2rcd13ifvqdh0","pricing_plan_id":"cebpf4jnsgd1na2vs0mg"},{"bike_id":"7564c6be-193a-4690-9cff-cac6f16be92d","system_id":"levelo_inurba_marseille","lat":43.29585,"lon":5.36742,"is_reserved":false,"is_disabled":false,"rental_uris":{"android":"levelo://app?vid=7564c6be-193a-4690-9cff-cac6f16be92d","ios":"levelo://app?vid=7564c6be-193a-4690-9cff-cac6f16be92d"},"vehicle_type_id":"4","last_reported":1740766371,"current_range_meters":12000,"station_id":"ce4bgph2rcd13ifvqc2g","pricing_plan_id":"cebpf4jnsgd1na2vs0mg"},{"bike_id":"3daccefd-71d8-46e4-90d4-077f6d5b1686","system_id":"levelo_inurba_marseille","lat":43.30915,"lon":5.36844,"is_reserved":false,"is_disabled":false,"rental_uris":{"android":"levelo://app?vid=3daccefd-71d8-46e4-90d4-077f6d5b1686","ios":"levelo://app?vid=3daccefd-71d8-46e4-90d4-077f6d5b1686"},"vehicle_type_id":"4","last_reported":1740766371,"current_range_meters":11600,"station_id":"ce4bgn92rcd13ifvqbvg","pricing_plan_id":"cebpf4jnsgd1na2vs0mg"},{"bike_id":"f63b7400-7efe-4dbb-821b-d2276ce9752b","system_id":"levelo_inurba_marseille","lat":43.28623,"lon":5.35094,"is_reserved":false,"is_disabled":false,"rental_uris":{"android":"levelo://app?vid=f63b7400-7efe-4dbb-821b-d2276ce9752b","ios":"levelo://app?vid=f63b7400-7efe-4dbb-821b-d2276ce9752b"},"vehicle_type_id":"4","last_reported":1740766371,"current_range_meters":12400,"station_id":"ce4bhch2rcd13ifvqeug","pricing_plan_id":"cebpf4jnsgd1na2vs0mg"},{"bike_id":"d5b5bff2-7966-4880-a2ad-b98094bd9935","system_id":"levelo_inurba_marseille","lat":43.29886,"lon":5.38888,"is_reserved":false,"is_disabled":false,"rental_uris":{"android":"levelo://app?vid=d5b5bff2-7966-4880-a2ad-b98094bd9935","ios":"levelo://app?vid=d5b5bff2-7966-4880-a2ad-b98094bd9935"},"vehicle_type_id":"4","last_reported":1740766371,"current_range_meters":12000,"station_id":"ce4bh392rcd13ifvqdl0","pricing_plan_id":"cebpf4jnsgd1na2vs0mg"},{"bike_id":"e11372c9-346c-4ce3-a5c1-9610f1b866e0","system_id":"levelo_inurba_marseille","lat":43.28716,"lon":5.37918,"is_reserved":false,"is_disabled":false,"rental_uris":{"android":"levelo://app?vid=e11372c9-346c-4ce3-a5c1-9610f1b866e0","ios":"levelo://app?vid=e11372c9-346c-4ce3-a5c1-9610f1b866e0"},"vehicle_type_id":"4","last_reported":1740766371,"current_range_meters":12400,"station_id":"ce4bh9p2rcd13ifvqec0","pricing_plan_id":"cebpf4jnsgd1na2vs0mg"},{"bike_id":"593edb3c-7add-4a3d-9dbe-95cef549de0d","system_id":"levelo_inurba_marseille","lat":43.23058,"lon":5.3549,"is_reserved":false,"is_disabled":false,"rental_uris":{"android":"levelo://app?vid=593edb3c-7add-4a3d-9dbe-95cef549de0d","ios":"levelo://app?vid=593edb3c-7add-4a3d-9dbe-95cef549de0d"},"vehicle_type_id":"4","last_reported":1740766371,"current_range_meters":12400,"station_id":"cpo3342slgdg3j2ifvpg","pricing_plan_id":"cebpf4jnsgd1na2vs0mg"},{"bike_id":"addbbc95-c291-418a-bec1-a81198147c9f","system_id":"levelo_inurba_marseille","lat":43.29049,"lon":5.35903,"is_reserved":false,"is_disabled":false,"rental_uris":{"android":"levelo://app?vid=addbbc95-c291-418a-bec1-a81198147c9f","ios":"levelo://app?vid=addbbc95-c291-418a-bec1-a81198147c9f"},"vehicle_type_id":"4","last_reported":1740766371,"current_range_meters":12800,"station_id":"ce4bha92rcd13ifvqeg0","pricing_plan_id":"cebpf4jnsgd1na2vs0mg"},{"bike_id":"364b209e-752e-45ea-b26c-06b2552c1833","system_id":"levelo_inurba_marseille","lat":43.231937,"lon":5.355543,"is_reserved":false,"is_disabled":false,"rental_uris":{"android":"levelo://app?vid=364b209e-752e-45ea-b26c-06b2552c1833","ios":"levelo://app?vid=364b209e-752e-45ea-b26c-06b2552c1833"},"vehicle_type_id":"4","last_reported":1740766371,"current_range_meters":12800,"station_id":"ce4bhu92rcd13ifvqi70","pricing_plan_id":"cebpf4jnsgd1na2vs0mg"},{"bike_id":"75e0a87e-0833-48e9-bc75-7a3857cd87df","system_id":"levelo_inurba_marseille","lat":43.27058,"lon":5.40263,"is_reserved":false,"is_disabled":false,"rental_uris":{"android":"levelo://app?vid=75e0a87e-0833-48e9-bc75-7a3857cd87df","ios":"levelo://app?vid=75e0a87e-0833-48e9-bc75-7a3857cd87df"},"vehicle_type_id":"4","last_reported":1740766371,"current_range_meters":14000,"station_id":"ce4bhk92rcd13ifvqgc0","pricing_plan_id":"cebpf4jnsgd1na2vs0mg"},{"bike_id":"49e9cdc7-76a5-4b66-ae2d-61c73beb73a8","system_id":"levelo_inurba_marseille","lat":43.24184,"lon":5.36416,"is_reserved":false,"is_disabled":false,"rental_uris":{"android":"levelo://app?vid=49e9cdc7-76a5-4b66-ae2d-61c73beb73a8","ios":"levelo://app?vid=49e9cdc7-76a5-4b66-ae2d-61c73beb73a8"},"vehicle_type_id":"4","last_reported":1740766371,"current_range_meters":13600,"station_id":"cpo36qri1sfpv3e86is0","pricing_plan_id":"cebpf4jnsgd1na2vs0mg"},{"bike_id":"9b3c2c8c-74e2-4378-b67f-cfcd4f054ac4","system_id":"levelo_inurba_marseille","lat":43.28103,"lon":5.37836,"is_reserved":false,"is_disabled":false,"rental_uris":{"android":"levelo://app?vid=9b3c2c8c-74e2-4378-b67f-cfcd4f054ac4","ios":"levelo://app?vid=9b3c2c8c-74e2-4378-b67f-cfcd4f054ac4"},"vehicle_type_id":"4","last_reported":1740766371,"current_range_meters":13600,"station_id":"ce4bha12rcd13ifvqee0","pricing_plan_id":"cebpf4jnsgd1na2vs0mg"},{"bike_id":"6dcf36f9-e43d-4282-84e6-9386bd3d6464","system_id":"levelo_inurba_marseille","lat":43.27572,"lon":5.38418,"is_reserved":false,"is_disabled":false,"rental_uris":{"android":"levelo://app?vid=6dcf36f9-e43d-4282-84e6-9386bd3d6464","ios":"levelo://app?vid=6dcf36f9-e43d-4282-84e6-9386bd3d6464"},"vehicle_type_id":"4","last_reported":1740766371,"current_range_meters":12800,"station_id":"ce4bhh92rcd13ifvqfi0","pricing_plan_id":"cebpf4jnsgd1na2vs0mg"},{"bike_id":"8cc86578-3f9b-41bc-b80a-42b5b44a4863","system_id":"levelo_inurba_marseille","lat":43.27618,"lon":5.36105,"is_reserved":false,"is_disabled":false,"rental_uris":{"android":"levelo://app?vid=8cc86578-3f9b-41bc-b80a-42b5b44a4863","ios":"levelo://app?vid=8cc86578-3f9b-41bc-b80a-42b5b44a4863"},"vehicle_type_id":"4","last_reported":1740766371,"current_range_meters":14000,"station_id":"ce4bgj92rcd13ifvqbe0","pricing_plan_id":"cebpf4jnsgd1na2vs0mg"},{"bike_id":"f5fe4361-1d3d-4314-a7e8-95ca49fcf6f9","system_id":"levelo_inurba_marseille","lat":43.32211,"lon":5.38764,"is_reserved":false,"is_disabled":false,"rental_uris":{"android":"levelo://app?vid=f5fe4361-1d3d-4314-a7e8-95ca49fcf6f9","ios":"levelo://app?vid=f5fe4361-1d3d-4314-a7e8-95ca49fcf6f9"},"vehicle_type_id":"4","last_reported":1740766371,"current_range_meters":13600,"station_id":"","pricing_plan_id":"cebpf4jnsgd1na2vs0mg"},{"bike_id":"bc3baee1-1ee7-4ada-b366-f39a6c3717c1","system_id":"levelo_inurba_marseille","lat":43.29034,"lon":5.38645,"is_reserved":false,"is_disabled":false,"rental_uris":{"android":"levelo://app?vid=bc3baee1-1ee7-4ada-b366-f39a6c3717c1","ios":"levelo://app?vid=bc3baee1-1ee7-4ada-b366-f39a6c3717c1"},"vehicle_type_id":"4","last_reported":1740766371,"current_range_meters":13600,"station_id":"ce4bh4p2rcd13ifvqe0g","pricing_plan_id":"cebpf4jnsgd1na2vs0mg"},{"bike_id":"1fd8649d-5205-49e9-b6df-ca009eea895a","system_id":"levelo_inurba_marseille","lat":43.30153,"lon":5.381,"is_reserved":false,"is_disabled":false,"rental_uris":{"android":"levelo://app?vid=1fd8649d-5205-49e9-b6df-ca009eea895a","ios":"levelo://app?vid=1fd8649d-5205-49e9-b6df-ca009eea895a"},"vehicle_type_id":"4","last_reported":1740766371,"current_range_meters":14400,"station_id":"ce4bgjp2rcd13ifvqbh0","pricing_plan_id":"cebpf4jnsgd1na2vs0mg"},{"bike_id":"a381a5b9-a403-4200-9ffe-4dd1764c25e1","system_id":"levelo_inurba_marseille","lat":43.29535,"lon":5.38541,"is_reserved":false,"is_disabled":false,"rental_uris":{"android":"levelo://app?vid=a381a5b9-a403-4200-9ffe-4dd1764c25e1","ios":"levelo://app?vid=a381a5b9-a403-4200-9ffe-4dd1764c25e1"},"vehicle_type_id":"4","last_reported":1740766371,"current_range_meters":14000,"station_id":"ce4bgih2rcd13ifvqba0","pricing_plan_id":"cebpf4jnsgd1na2vs0mg"},{"bike_id":"6bbab6b1-f56f-40c0-9ead-763c1175d216","system_id":"levelo_inurba_marseille","lat":43.28609,"lon":5.35109,"is_reserved":false,"is_disabled":false,"rental_uris":{"android":"levelo://app?vid=6bbab6b1-f56f-40c0-9ead-763c1175d216","ios":"levelo://app?vid=6bbab6b1-f56f-40c0-9ead-763c1175d216"},"vehicle_type_id":"4","last_reported":1740766371,"current_range_meters":14000,"station_id":"ce4bhch2rcd13ifvqeug","pricing_plan_id":"cebpf4jnsgd1na2vs0mg"},{"bike_id":"f490cfa6-1e6f-42b3-b051-893a664bf691","system_id":"levelo_inurba_marseille","lat":43.29849,"lon":5.36283,"is_reserved":false,"is_disabled":false,"rental_uris":{"android":"levelo://app?vid=f490cfa6-1e6f-42b3-b051-893a664bf691","ios":"levelo://app?vid=f490cfa6-1e6f-42b3-b051-893a664bf691"},"vehicle_type_id":"4","last_reported":1740766371,"current_range_meters":13600,"station_id":"ce4bgpp2rcd13ifvqc3g","pricing_plan_id":"cebpf4jnsgd1na2vs0mg"},{"bike_id":"597c78d8-1097-48db-b3be-fafc8754eab9","system_id":"levelo_inurba_marseille","lat":43.24163,"lon":5.36411,"is_reserved":false,"is_disabled":false,"rental_uris":{"android":"levelo://app?vid=597c78d8-1097-48db-b3be-fafc8754eab9","ios":"levelo://app?vid=597c78d8-1097-48db-b3be-fafc8754eab9"},"vehicle_type_id":"4","last_reported":1740766371,"current_range_meters":14000,"station_id":"cpo36qri1sfpv3e86is0","pricing_plan_id":"cebpf4jnsgd1na2vs0mg"},{"bike_id":"a5983c17-f55a-4c0f-8ea4-dcecd3bcda9d","system_id":"levelo_inurba_marseille","lat":43.27501,"lon":5.424444,"is_reserved":false,"is_disabled":false,"rental_uris":{"android":"levelo://app?vid=a5983c17-f55a-4c0f-8ea4-dcecd3bcda9d","ios":"levelo://app?vid=a5983c17-f55a-4c0f-8ea4-dcecd3bcda9d"},"vehicle_type_id":"4","last_reported":1740766371,"current_range_meters":14000,"station_id":"ce4bhn92rcd13ifvqgrg","pricing_plan_id":"cebpf4jnsgd1na2vs0mg"},{"bike_id":"1fd35375-e7ec-40f5-b667-cc40d7efa46c","system_id":"levelo_inurba_marseille","lat":43.28582,"lon":5.39501,"is_reserved":false,"is_disabled":false,"rental_uris":{"android":"levelo://app?vid=1fd35375-e7ec-40f5-b667-cc40d7efa46c","ios":"levelo://app?vid=1fd35375-e7ec-40f5-b667-cc40d7efa46c"},"vehicle_type_id":"4","last_reported":1740766371,"current_range_meters":13600,"station_id":"ce4bh292rcd13ifvqdg0","pricing_plan_id":"cebpf4jnsgd1na2vs0mg"},{"bike_id":"c3c6789e-edeb-4c36-a537-6f83902d6e8b","system_id":"levelo_inurba_marseille","lat":43.31117,"lon":5.37762,"is_reserved":false,"is_disabled":false,"rental_uris":{"android":"levelo://app?vid=c3c6789e-edeb-4c36-a537-6f83902d6e8b","ios":"levelo://app?vid=c3c6789e-edeb-4c36-a537-6f83902d6e8b"},"vehicle_type_id":"4","last_reported":1740766371,"current_range_meters":14400,"station_id":"ce4bgt92rcd13ifvqcg0","pricing_plan_id":"cebpf4jnsgd1na2vs0mg"},{"bike_id":"cb853248-557f-48ac-928f-efa1fb628a01","system_id":"levelo_inurba_marseille","lat":43.29269,"lon":5.38446,"is_reserved":false,"is_disabled":false,"rental_uris":{"android":"levelo://app?vid=cb853248-557f-48ac-928f-efa1fb628a01","ios":"levelo://app?vid=cb853248-557f-48ac-928f-efa1fb628a01"},"vehicle_type_id":"4","last_reported":1740766371,"current_range_meters":14400,"station_id":"ce4bh692rcd13ifvqea0","pricing_plan_id":"cebpf4jnsgd1na2vs0mg"},{"bike_id":"afc9544a-f996-457d-b1ce-e224cfe004ec","system_id":"levelo_inurba_marseille","lat":43.299865,"lon":5.372567,"is_reserved":false,"is_disabled":false,"rental_uris":{"android":"levelo://app?vid=afc9544a-f996-457d-b1ce-e224cfe004ec","ios":"levelo://app?vid=afc9544a-f996-457d-b1ce-e224cfe004ec"},"vehicle_type_id":"4","last_reported":1740766371,"current_range_meters":14400,"station_id":"ce4bgop2rcd13ifvqc1g","pricing_plan_id":"cebpf4jnsgd1na2vs0mg"},{"bike_id":"192adea5-a213-4231-85f9-987063f5c28a","system_id":"levelo_inurba_marseille","lat":43.23195,"lon":5.35547,"is_reserved":false,"is_disabled":false,"rental_uris":{"android":"levelo://app?vid=192adea5-a213-4231-85f9-987063f5c28a","ios":"levelo://app?vid=192adea5-a213-4231-85f9-987063f5c28a"},"vehicle_type_id":"4","last_reported":1740766371,"current_range_meters":14800,"station_id":"ce4bhu92rcd13ifvqi70","pricing_plan_id":"cebpf4jnsgd1na2vs0mg"},{"bike_id":"f53bb6aa-dd7f-41bb-a206-828511f42ec6","system_id":"levelo_inurba_marseille","lat":43.27543,"lon":5.38426,"is_reserved":false,"is_disabled":false,"rental_uris":{"android":"levelo://app?vid=f53bb6aa-dd7f-41bb-a206-828511f42ec6","ios":"levelo://app?vid=f53bb6aa-dd7f-41bb-a206-828511f42ec6"},"vehicle_type_id":"4","last_reported":1740766371,"current_range_meters":14400,"station_id":"ce4bhh92rcd13ifvqfi0","pricing_plan_id":"cebpf4jnsgd1na2vs0mg"},{"bike_id":"96e41af9-9d9d-446b-9ca8-85d995844227","system_id":"levelo_inurba_marseille","lat":43.28609,"lon":5.35107,"is_reserved":false,"is_disabled":false,"rental_uris":{"android":"levelo://app?vid=96e41af9-9d9d-446b-9ca8-85d995844227","ios":"levelo://app?vid=96e41af9-9d9d-446b-9ca8-85d995844227"},"vehicle_type_id":"4","last_reported":1740766371,"current_range_meters":16000,"station_id":"ce4bhch2rcd13ifvqeug","pricing_plan_id":"cebpf4jnsgd1na2vs0mg"},{"bike_id":"17623751-4ec3-4eca-974c-1eb21a6ac27a","system_id":"levelo_inurba_marseille","lat":43.29195,"lon":5.39322,"is_reserved":false,"is_disabled":false,"rental_uris":{"android":"levelo://app?vid=17623751-4ec3-4eca-974c-1eb21a6ac27a","ios":"levelo://app?vid=17623751-4ec3-4eca-974c-1eb21a6ac27a"},"vehicle_type_id":"4","last_reported":1740766371,"current_range_meters":14800,"station_id":"ce4bh192rcd13ifvqdd0","pricing_plan_id":"cebpf4jnsgd1na2vs0mg"},{"bike_id":"96ac23de-ad40-4d0e-a470-95b4f1c3c3d5","system_id":"levelo_inurba_marseille","lat":43.29196,"lon":5.39322,"is_reserved":false,"is_disabled":false,"rental_uris":{"android":"levelo://app?vid=96ac23de-ad40-4d0e-a470-95b4f1c3c3d5","ios":"levelo://app?vid=96ac23de-ad40-4d0e-a470-95b4f1c3c3d5"},"vehicle_type_id":"4","last_reported":1740766371,"current_range_meters":14800,"station_id":"ce4bh192rcd13ifvqdd0","pricing_plan_id":"cebpf4jnsgd1na2vs0mg"},{"bike_id":"74bdaba9-ddf5-4116-ac2f-aa7e97c64476","system_id":"levelo_inurba_marseille","lat":43.25002,"lon":5.38926,"is_reserved":false,"is_disabled":false,"rental_uris":{"android":"levelo://app?vid=74bdaba9-ddf5-4116-ac2f-aa7e97c64476","ios":"levelo://app?vid=74bdaba9-ddf5-4116-ac2f-aa7e97c64476"},"vehicle_type_id":"4","last_reported":1740766371,"current_range_meters":15200,"station_id":"ce4bhgp2rcd13ifvqfd0","pricing_plan_id":"cebpf4jnsgd1na2vs0mg"},{"bike_id":"7d7c3645-a1b8-4cba-8ed4-36c4931e6932","system_id":"levelo_inurba_marseille","lat":43.25578,"lon":5.38238,"is_reserved":false,"is_disabled":false,"rental_uris":{"android":"levelo://app?vid=7d7c3645-a1b8-4cba-8ed4-36c4931e6932","ios":"levelo://app?vid=7d7c3645-a1b8-4cba-8ed4-36c4931e6932"},"vehicle_type_id":"4","last_reported":1740766371,"current_range_meters":15200,"station_id":"ce4bhih2rcd13ifvqfs0","pricing_plan_id":"cebpf4jnsgd1na2vs0mg"},{"bike_id":"27f8d61f-de01-4772-8b8c-ceceaf4de61e","system_id":"levelo_inurba_marseille","lat":43.29048,"lon":5.3717,"is_reserved":false,"is_disabled":true,"rental_uris":{"android":"levelo://app?vid=27f8d61f-de01-4772-8b8c-ceceaf4de61e","ios":"levelo://app?vid=27f8d61f-de01-4772-8b8c-ceceaf4de61e"},"vehicle_type_id":"4","last_reported":1740766371,"current_range_meters":16000,"station_id":"ce4bh5p2rcd13ifvqe4g","pricing_plan_id":"cebpf4jnsgd1na2vs0mg"},{"bike_id":"d04164bc-f237-4db8-bdc7-f3937cea0cf4","system_id":"levelo_inurba_marseille","lat":43.24653,"lon":5.38894,"is_reserved":false,"is_disabled":false,"rental_uris":{"android":"levelo://app?vid=d04164bc-f237-4db8-bdc7-f3937cea0cf4","ios":"levelo://app?vid=d04164bc-f237-4db8-bdc7-f3937cea0cf4"},"vehicle_type_id":"4","last_reported":1740766371,"current_range_meters":15200,"station_id":"ce4bhg12rcd13ifvqf60","pricing_plan_id":"cebpf4jnsgd1na2vs0mg"},{"bike_id":"8c86cb21-5e53-44c8-a766-70640a93721c","system_id":"levelo_inurba_marseille","lat":43.29194,"lon":5.37539,"is_reserved":false,"is_disabled":false,"rental_uris":{"android":"levelo://app?vid=8c86cb21-5e53-44c8-a766-70640a93721c","ios":"levelo://app?vid=8c86cb21-5e53-44c8-a766-70640a93721c"},"vehicle_type_id":"4","last_reported":1740766371,"current_range_meters":16000,"station_id":"","pricing_plan_id":"cebpf4jnsgd1na2vs0mg"},{"bike_id":"9c7b8a1f-a057-4b1e-b2e5-f536eda0ac26","system_id":"levelo_inurba_marseille","lat":43.27808,"lon":5.4071,"is_reserved":false,"is_disabled":false,"rental_uris":{"android":"levelo://app?vid=9c7b8a1f-a057-4b1e-b2e5-f536eda0ac26","ios":"levelo://app?vid=9c7b8a1f-a057-4b1e-b2e5-f536eda0ac26"},"vehicle_type_id":"4","last_reported":1740766371,"current_range_meters":17200,"station_id":"ce4bhnh2rcd13ifvqgtg","pricing_plan_id":"cebpf4jnsgd1na2vs0mg"},{"bike_id":"a43d23d2-0d6e-4cf7-8691-8ab079a8ff69","system_id":"levelo_inurba_marseille","lat":43.299001,"lon":5.436649,"is_reserved":false,"is_disabled":false,"rental_uris":{"android":"levelo://app?vid=a43d23d2-0d6e-4cf7-8691-8ab079a8ff69","ios":"levelo://app?vid=a43d23d2-0d6e-4cf7-8691-8ab079a8ff69"},"vehicle_type_id":"4","last_reported":1740766371,"current_range_meters":16000,"station_id":"ce4bhpp2rcd13ifvqhfg","pricing_plan_id":"cebpf4jnsgd1na2vs0mg"},{"bike_id":"4015c440-7267-44b4-8be2-f4b87cb51aa9","system_id":"levelo_inurba_marseille","lat":43.255821,"lon":5.382289,"is_reserved":false,"is_disabled":false,"rental_uris":{"android":"levelo://app?vid=4015c440-7267-44b4-8be2-f4b87cb51aa9","ios":"levelo://app?vid=4015c440-7267-44b4-8be2-f4b87cb51aa9"},"vehicle_type_id":"4","last_reported":1740766371,"current_range_meters":16000,"station_id":"ce4bhih2rcd13ifvqfs0","pricing_plan_id":"cebpf4jnsgd1na2vs0mg"},{"bike_id":"22c4d113-14dc-4761-a5af-169f89763cb0","system_id":"levelo_inurba_marseille","lat":43.29964,"lon":5.38498,"is_reserved":false,"is_disabled":false,"rental_uris":{"android":"levelo://app?vid=22c4d113-14dc-4761-a5af-169f89763cb0","ios":"levelo://app?vid=22c4d113-14dc-4761-a5af-169f89763cb0"},"vehicle_type_id":"4","last_reported":1740766371,"current_range_meters":15200,"station_id":"ce4bgj92rcd13ifvqbd0","pricing_plan_id":"cebpf4jnsgd1na2vs0mg"},{"bike_id":"5d770cbc-5813-4f00-8293-df5bf8d16518","system_id":"levelo_inurba_marseille","lat":43.30424,"lon":5.41288,"is_reserved":false,"is_disabled":false,"rental_uris":{"android":"levelo://app?vid=5d770cbc-5813-4f00-8293-df5bf8d16518","ios":"levelo://app?vid=5d770cbc-5813-4f00-8293-df5bf8d16518"},"vehicle_type_id":"4","last_reported":1740766371,"current_range_meters":16000,"station_id":"ce4bhop2rcd13ifvqh8g","pricing_plan_id":"cebpf4jnsgd1na2vs0mg"},{"bike_id":"8c99da53-9e5a-40c2-ac52-c47751d3dd23","system_id":"levelo_inurba_marseille","lat":43.23183,"lon":5.39986,"is_reserved":false,"is_disabled":false,"rental_uris":{"android":"levelo://app?vid=8c99da53-9e5a-40c2-ac52-c47751d3dd23","ios":"levelo://app?vid=8c99da53-9e5a-40c2-ac52-c47751d3dd23"},"vehicle_type_id":"4","last_reported":1740766371,"current_range_meters":16000,"station_id":"ce4bhn12rcd13ifvqgqg","pricing_plan_id":"cebpf4jnsgd1na2vs0mg"},{"bike_id":"6a628a3a-57b8-4826-835d-f177c7c6ac2e","system_id":"levelo_inurba_marseille","lat":43.31368,"lon":5.38491,"is_reserved":false,"is_disabled":false,"rental_uris":{"android":"levelo://app?vid=6a628a3a-57b8-4826-835d-f177c7c6ac2e","ios":"levelo://app?vid=6a628a3a-57b8-4826-835d-f177c7c6ac2e"},"vehicle_type_id":"4","last_reported":1740766371,"current_range_meters":16000,"station_id":"ce4bgt92rcd13ifvqcf0","pricing_plan_id":"cebpf4jnsgd1na2vs0mg"},{"bike_id":"0693b9d6-4a9d-4e38-bfa2-80f934bcc2e3","system_id":"levelo_inurba_marseille","lat":43.24168,"lon":5.36418,"is_reserved":false,"is_disabled":false,"rental_uris":{"android":"levelo://app?vid=0693b9d6-4a9d-4e38-bfa2-80f934bcc2e3","ios":"levelo://app?vid=0693b9d6-4a9d-4e38-bfa2-80f934bcc2e3"},"vehicle_type_id":"4","last_reported":1740766371,"current_range_meters":16400,"station_id":"cpo36qri1sfpv3e86is0","pricing_plan_id":"cebpf4jnsgd1na2vs0mg"},{"bike_id":"06e0c999-59e7-44dd-a42a-9a60ce798aea","system_id":"levelo_inurba_marseille","lat":43.292011,"lon":5.358072,"is_reserved":false,"is_disabled":false,"rental_uris":{"android":"levelo://app?vid=06e0c999-59e7-44dd-a42a-9a60ce798aea","ios":"levelo://app?vid=06e0c999-59e7-44dd-a42a-9a60ce798aea"},"vehicle_type_id":"4","last_reported":1740766371,"current_range_meters":16400,"station_id":"ce4bhb12rcd13ifvqel0","pricing_plan_id":"cebpf4jnsgd1na2vs0mg"},{"bike_id":"b06225ba-2ecf-461f-96f0-c1583d479c2f","system_id":"levelo_inurba_marseille","lat":43.29192,"lon":5.35796,"is_reserved":false,"is_disabled":false,"rental_uris":{"android":"levelo://app?vid=b06225ba-2ecf-461f-96f0-c1583d479c2f","ios":"levelo://app?vid=b06225ba-2ecf-461f-96f0-c1583d479c2f"},"vehicle_type_id":"4","last_reported":1740766371,"current_range_meters":16400,"station_id":"ce4bhb12rcd13ifvqel0","pricing_plan_id":"cebpf4jnsgd1na2vs0mg"},{"bike_id":"f9f4593d-ec14-43c6-ac64-d227a2c444e7","system_id":"levelo_inurba_marseille","lat":43.29939,"lon":5.38537,"is_reserved":false,"is_disabled":true,"rental_uris":{"android":"levelo://app?vid=f9f4593d-ec14-43c6-ac64-d227a2c444e7","ios":"levelo://app?vid=f9f4593d-ec14-43c6-ac64-d227a2c444e7"},"vehicle_type_id":"4","last_reported":1740766371,"current_range_meters":16800,"station_id":"","pricing_plan_id":"cebpf4jnsgd1na2vs0mg"},{"bike_id":"cdd1903a-bb45-4307-a73c-fe79844ca002","system_id":"levelo_inurba_marseille","lat":43.27996,"lon":5.40014,"is_reserved":false,"is_disabled":false,"rental_uris":{"android":"levelo://app?vid=cdd1903a-bb45-4307-a73c-fe79844ca002","ios":"levelo://app?vid=cdd1903a-bb45-4307-a73c-fe79844ca002"},"vehicle_type_id":"4","last_reported":1740766371,"current_range_meters":16800,"station_id":"ce4bho92rcd13ifvqh4g","pricing_plan_id":"cebpf4jnsgd1na2vs0mg"},{"bike_id":"1e2f07e0-5c9a-4025-94bd-f6a6e356e4d3","system_id":"levelo_inurba_marseille","lat":43.29388,"lon":5.38652,"is_reserved":false,"is_disabled":false,"rental_uris":{"android":"levelo://app?vid=1e2f07e0-5c9a-4025-94bd-f6a6e356e4d3","ios":"levelo://app?vid=1e2f07e0-5c9a-4025-94bd-f6a6e356e4d3"},"vehicle_type_id":"4","last_reported":1740766371,"current_range_meters":16400,"station_id":"ce4bh2h2rcd13ifvqdh0","pricing_plan_id":"cebpf4jnsgd1na2vs0mg"},{"bike_id":"6cee08f1-4897-45b7-a47b-ceb5cf0d6882","system_id":"levelo_inurba_marseille","lat":43.27986,"lon":5.38736,"is_reserved":false,"is_disabled":false,"rental_uris":{"android":"levelo://app?vid=6cee08f1-4897-45b7-a47b-ceb5cf0d6882","ios":"levelo://app?vid=6cee08f1-4897-45b7-a47b-ceb5cf0d6882"},"vehicle_type_id":"4","last_reported":1740766371,"current_range_meters":16400,"station_id":"ce4bhg12rcd13ifvqf80","pricing_plan_id":"cebpf4jnsgd1na2vs0mg"},{"bike_id":"43b4ba4f-c857-4e5e-a746-5fa5e749b88e","system_id":"levelo_inurba_marseille","lat":43.24173,"lon":5.39755,"is_reserved":false,"is_disabled":false,"rental_uris":{"android":"levelo://app?vid=43b4ba4f-c857-4e5e-a746-5fa5e749b88e","ios":"levelo://app?vid=43b4ba4f-c857-4e5e-a746-5fa5e749b88e"},"vehicle_type_id":"4","last_reported":1740766371,"current_range_meters":16400,"station_id":"ce4bhn12rcd13ifvqgpg","pricing_plan_id":"cebpf4jnsgd1na2vs0mg"},{"bike_id":"5afe3ca4-4293-472f-af4b-7206f75b5a44","system_id":"levelo_inurba_marseille","lat":43.29849,"lon":5.3626,"is_reserved":false,"is_disabled":false,"rental_uris":{"android":"levelo://app?vid=5afe3ca4-4293-472f-af4b-7206f75b5a44","ios":"levelo://app?vid=5afe3ca4-4293-472f-af4b-7206f75b5a44"},"vehicle_type_id":"4","last_reported":1740766371,"current_range_meters":16400,"station_id":"ce4bgpp2rcd13ifvqc3g","pricing_plan_id":"cebpf4jnsgd1na2vs0mg"},{"bike_id":"a4af6322-93d2-43e8-b6d7-bc5300f05553","system_id":"levelo_inurba_marseille","lat":43.29288,"lon":5.37439,"is_reserved":false,"is_disabled":false,"rental_uris":{"android":"levelo://app?vid=a4af6322-93d2-43e8-b6d7-bc5300f05553","ios":"levelo://app?vid=a4af6322-93d2-43e8-b6d7-bc5300f05553"},"vehicle_type_id":"4","last_reported":1740766371,"current_range_meters":17600,"station_id":"ce4bgi12rcd13ifvqb70","pricing_plan_id":"cebpf4jnsgd1na2vs0mg"},{"bike_id":"9dbad41f-5b6e-4733-990b-e95cba213dca","system_id":"levelo_inurba_marseille","lat":43.31764,"lon":5.39006,"is_reserved":false,"is_disabled":false,"rental_uris":{"android":"levelo://app?vid=9dbad41f-5b6e-4733-990b-e95cba213dca","ios":"levelo://app?vid=9dbad41f-5b6e-4733-990b-e95cba213dca"},"vehicle_type_id":"4","last_reported":1740766371,"current_range_meters":16800,"station_id":"ce4bhqp2rcd13ifvqhng","pricing_plan_id":"cebpf4jnsgd1na2vs0mg"},{"bike_id":"01772ca3-6eff-4432-89e3-1a21a568b5a8","system_id":"levelo_inurba_marseille","lat":43.29521,"lon":5.3904,"is_reserved":false,"is_disabled":false,"rental_uris":{"android":"levelo://app?vid=01772ca3-6eff-4432-89e3-1a21a568b5a8","ios":"levelo://app?vid=01772ca3-6eff-4432-89e3-1a21a568b5a8"},"vehicle_type_id":"4","last_reported":1740766371,"current_range_meters":16800,"station_id":"ce4bh3p2rcd13ifvqdp0","pricing_plan_id":"cebpf4jnsgd1na2vs0mg"},{"bike_id":"b292c50a-6030-4fe1-99ee-4761afdc189d","system_id":"levelo_inurba_marseille","lat":43.28443,"lon":5.39207,"is_reserved":false,"is_disabled":false,"rental_uris":{"android":"levelo://app?vid=b292c50a-6030-4fe1-99ee-4761afdc189d","ios":"levelo://app?vid=b292c50a-6030-4fe1-99ee-4761afdc189d"},"vehicle_type_id":"4","last_reported":1740766371,"current_range_meters":16800,"station_id":"ce4bhoh2rcd13ifvqh5g","pricing_plan_id":"cebpf4jnsgd1na2vs0mg"},{"bike_id":"161d70e9-e213-4bf5-bde1-9c3d7296d89c","system_id":"levelo_inurba_marseille","lat":43.27838,"lon":5.39196,"is_reserved":false,"is_disabled":true,"rental_uris":{"android":"levelo://app?vid=161d70e9-e213-4bf5-bde1-9c3d7296d89c","ios":"levelo://app?vid=161d70e9-e213-4bf5-bde1-9c3d7296d89c"},"vehicle_type_id":"4","last_reported":1740766371,"current_range_meters":16800,"station_id":"ce4bhjp2rcd13ifvqga0","pricing_plan_id":"cebpf4jnsgd1na2vs0mg"},{"bike_id":"d4fb6d0a-4cec-446f-8fee-36388f152974","system_id":"levelo_inurba_marseille","lat":43.296335,"lon":5.40601,"is_reserved":false,"is_disabled":false,"rental_uris":{"android":"levelo://app?vid=d4fb6d0a-4cec-446f-8fee-36388f152974","ios":"levelo://app?vid=d4fb6d0a-4cec-446f-8fee-36388f152974"},"vehicle_type_id":"4","last_reported":1740766371,"current_range_meters":16800,"station_id":"ce4bh0h2rcd13ifvqd60","pricing_plan_id":"cebpf4jnsgd1na2vs0mg"},{"bike_id":"5bbea7f0-02bd-47c3-a172-27638645cf80","system_id":"levelo_inurba_marseille","lat":43.2923,"lon":5.3607,"is_reserved":false,"is_disabled":false,"rental_uris":{"android":"levelo://app?vid=5bbea7f0-02bd-47c3-a172-27638645cf80","ios":"levelo://app?vid=5bbea7f0-02bd-47c3-a172-27638645cf80"},"vehicle_type_id":"4","last_reported":1740766371,"current_range_meters":16400,"station_id":"ce4bhbh2rcd13ifvqeqg","pricing_plan_id":"cebpf4jnsgd1na2vs0mg"},{"bike_id":"c34c794a-8582-4a39-9928-ce84dd0b580a","system_id":"levelo_inurba_marseille","lat":43.29893,"lon":5.40187,"is_reserved":false,"is_disabled":false,"rental_uris":{"android":"levelo://app?vid=c34c794a-8582-4a39-9928-ce84dd0b580a","ios":"levelo://app?vid=c34c794a-8582-4a39-9928-ce84dd0b580a"},"vehicle_type_id":"4","last_reported":1740766371,"current_range_meters":16400,"station_id":"ce4bh012rcd13ifvqd10","pricing_plan_id":"cebpf4jnsgd1na2vs0mg"},{"bike_id":"949f6594-d933-40c3-b15b-8c59b1f2c2d2","system_id":"levelo_inurba_marseille","lat":43.29537,"lon":5.375,"is_reserved":false,"is_disabled":false,"rental_uris":{"android":"levelo://app?vid=949f6594-d933-40c3-b15b-8c59b1f2c2d2","ios":"levelo://app?vid=949f6594-d933-40c3-b15b-8c59b1f2c2d2"},"vehicle_type_id":"4","last_reported":1740766371,"current_range_meters":16800,"station_id":"ce4bgkp2rcd13ifvqbmg","pricing_plan_id":"cebpf4jnsgd1na2vs0mg"},{"bike_id":"6275c4f5-16db-4f5e-a066-df6bc5a943d3","system_id":"levelo_inurba_marseille","lat":43.2847,"lon":5.35895,"is_reserved":false,"is_disabled":false,"rental_uris":{"android":"levelo://app?vid=6275c4f5-16db-4f5e-a066-df6bc5a943d3","ios":"levelo://app?vid=6275c4f5-16db-4f5e-a066-df6bc5a943d3"},"vehicle_type_id":"4","last_reported":1740766371,"current_range_meters":16400,"station_id":"ce4bhah2rcd13ifvqei0","pricing_plan_id":"cebpf4jnsgd1na2vs0mg"},{"bike_id":"74f7d111-5aca-48ad-a212-41779988af67","system_id":"levelo_inurba_marseille","lat":43.2797,"lon":5.38727,"is_reserved":false,"is_disabled":false,"rental_uris":{"android":"levelo://app?vid=74f7d111-5aca-48ad-a212-41779988af67","ios":"levelo://app?vid=74f7d111-5aca-48ad-a212-41779988af67"},"vehicle_type_id":"4","last_reported":1740766371,"current_range_meters":16800,"station_id":"ce4bhg12rcd13ifvqf80","pricing_plan_id":"cebpf4jnsgd1na2vs0mg"},{"bike_id":"d0ef728d-79c0-4d09-a2be-4980eb0de716","system_id":"levelo_inurba_marseille","lat":43.26948,"lon":5.40243,"is_reserved":false,"is_disabled":false,"rental_uris":{"android":"levelo://app?vid=d0ef728d-79c0-4d09-a2be-4980eb0de716","ios":"levelo://app?vid=d0ef728d-79c0-4d09-a2be-4980eb0de716"},"vehicle_type_id":"4","last_reported":1740766371,"current_range_meters":16400,"station_id":"cjm6bp8fraef2m0cb0m0","pricing_plan_id":"cebpf4jnsgd1na2vs0mg"},{"bike_id":"88bf7f2f-4cee-4a38-9bdc-ce12352a944a","system_id":"levelo_inurba_marseille","lat":43.27811,"lon":5.40709,"is_reserved":false,"is_disabled":false,"rental_uris":{"android":"levelo://app?vid=88bf7f2f-4cee-4a38-9bdc-ce12352a944a","ios":"levelo://app?vid=88bf7f2f-4cee-4a38-9bdc-ce12352a944a"},"vehicle_type_id":"4","last_reported":1740766371,"current_range_meters":16400,"station_id":"ce4bhnh2rcd13ifvqgtg","pricing_plan_id":"cebpf4jnsgd1na2vs0mg"},{"bike_id":"1b323f50-0d05-437e-a359-05e341f5af08","system_id":"levelo_inurba_marseille","lat":43.23965,"lon":5.36626,"is_reserved":false,"is_disabled":false,"rental_uris":{"android":"levelo://app?vid=1b323f50-0d05-437e-a359-05e341f5af08","ios":"levelo://app?vid=1b323f50-0d05-437e-a359-05e341f5af08"},"vehicle_type_id":"4","last_reported":1740766371,"current_range_meters":16800,"station_id":"ce4bhi12rcd13ifvqfp0","pricing_plan_id":"cebpf4jnsgd1na2vs0mg"},{"bike_id":"f9af4ee9-c2f3-4f65-8742-346b41213515","system_id":"levelo_inurba_marseille","lat":43.29444,"lon":5.39748,"is_reserved":false,"is_disabled":false,"rental_uris":{"android":"levelo://app?vid=f9af4ee9-c2f3-4f65-8742-346b41213515","ios":"levelo://app?vid=f9af4ee9-c2f3-4f65-8742-346b41213515"},"vehicle_type_id":"4","last_reported":1740766371,"current_range_meters":17200,"station_id":"ce4bh3h2rcd13ifvqdo0","pricing_plan_id":"cebpf4jnsgd1na2vs0mg"},{"bike_id":"6db68caa-75d2-454b-84ea-a6c6c6f6060e","system_id":"levelo_inurba_marseille","lat":43.2907,"lon":5.3716,"is_reserved":false,"is_disabled":false,"rental_uris":{"android":"levelo://app?vid=6db68caa-75d2-454b-84ea-a6c6c6f6060e","ios":"levelo://app?vid=6db68caa-75d2-454b-84ea-a6c6c6f6060e"},"vehicle_type_id":"4","last_reported":1740766371,"current_range_meters":16800,"station_id":"ce4bh5p2rcd13ifvqe4g","pricing_plan_id":"cebpf4jnsgd1na2vs0mg"},{"bike_id":"8dc606df-24f3-4caf-8660-1ad292f92e9c","system_id":"levelo_inurba_marseille","lat":43.26943,"lon":5.40249,"is_reserved":false,"is_disabled":false,"rental_uris":{"android":"levelo://app?vid=8dc606df-24f3-4caf-8660-1ad292f92e9c","ios":"levelo://app?vid=8dc606df-24f3-4caf-8660-1ad292f92e9c"},"vehicle_type_id":"4","last_reported":1740766371,"current_range_meters":16800,"station_id":"cjm6bp8fraef2m0cb0m0","pricing_plan_id":"cebpf4jnsgd1na2vs0mg"},{"bike_id":"4ac357ae-3731-4b6c-8955-63077535b035","system_id":"levelo_inurba_marseille","lat":43.26783,"lon":5.39412,"is_reserved":false,"is_disabled":false,"rental_uris":{"android":"levelo://app?vid=4ac357ae-3731-4b6c-8955-63077535b035","ios":"levelo://app?vid=4ac357ae-3731-4b6c-8955-63077535b035"},"vehicle_type_id":"4","last_reported":1740766371,"current_range_meters":17200,"station_id":"ce4bhh12rcd13ifvqfg0","pricing_plan_id":"cebpf4jnsgd1na2vs0mg"},{"bike_id":"6a5c2de1-216d-4435-aba3-27c699c9cbf1","system_id":"levelo_inurba_marseille","lat":43.31358,"lon":5.3849,"is_reserved":false,"is_disabled":false,"rental_uris":{"android":"levelo://app?vid=6a5c2de1-216d-4435-aba3-27c699c9cbf1","ios":"levelo://app?vid=6a5c2de1-216d-4435-aba3-27c699c9cbf1"},"vehicle_type_id":"4","last_reported":1740766371,"current_range_meters":17200,"station_id":"ce4bgt92rcd13ifvqcf0","pricing_plan_id":"cebpf4jnsgd1na2vs0mg"},{"bike_id":"3e6eb5ab-3b41-4e51-838d-95c67fde06e4","system_id":"levelo_inurba_marseille","lat":43.29274,"lon":5.37636,"is_reserved":false,"is_disabled":false,"rental_uris":{"android":"levelo://app?vid=3e6eb5ab-3b41-4e51-838d-95c67fde06e4","ios":"levelo://app?vid=3e6eb5ab-3b41-4e51-838d-95c67fde06e4"},"vehicle_type_id":"4","last_reported":1740766371,"current_range_meters":17200,"station_id":"ce4bgi12rcd13ifvqb80","pricing_plan_id":"cebpf4jnsgd1na2vs0mg"},{"bike_id":"6a3cb415-267d-4785-a93c-087d604b260d","system_id":"levelo_inurba_marseille","lat":43.28853,"lon":5.35835,"is_reserved":false,"is_disabled":false,"rental_uris":{"android":"levelo://app?vid=6a3cb415-267d-4785-a93c-087d604b260d","ios":"levelo://app?vid=6a3cb415-267d-4785-a93c-087d604b260d"},"vehicle_type_id":"4","last_reported":1740766371,"current_range_meters":17200,"station_id":"ce4bhb12rcd13ifvqem0","pricing_plan_id":"cebpf4jnsgd1na2vs0mg"},{"bike_id":"f94a0c04-69d3-4f50-87e7-d1516da22390","system_id":"levelo_inurba_marseille","lat":43.32339,"lon":5.40605,"is_reserved":false,"is_disabled":false,"rental_uris":{"android":"levelo://app?vid=f94a0c04-69d3-4f50-87e7-d1516da22390","ios":"levelo://app?vid=f94a0c04-69d3-4f50-87e7-d1516da22390"},"vehicle_type_id":"4","last_reported":1740766371,"current_range_meters":16800,"station_id":"ce4bhq92rcd13ifvqhjg","pricing_plan_id":"cebpf4jnsgd1na2vs0mg"},{"bike_id":"0724fa69-c176-4920-bdd2-c212518a6b6f","system_id":"levelo_inurba_marseille","lat":43.29533,"lon":5.38539,"is_reserved":false,"is_disabled":false,"rental_uris":{"android":"levelo://app?vid=0724fa69-c176-4920-bdd2-c212518a6b6f","ios":"levelo://app?vid=0724fa69-c176-4920-bdd2-c212518a6b6f"},"vehicle_type_id":"4","last_reported":1740766371,"current_range_meters":23200,"station_id":"ce4bgih2rcd13ifvqba0","pricing_plan_id":"cebpf4jnsgd1na2vs0mg"},{"bike_id":"4f83549c-160f-4adb-81f0-96a19c9201b1","system_id":"levelo_inurba_marseille","lat":43.29377,"lon":5.37847,"is_reserved":false,"is_disabled":false,"rental_uris":{"android":"levelo://app?vid=4f83549c-160f-4adb-81f0-96a19c9201b1","ios":"levelo://app?vid=4f83549c-160f-4adb-81f0-96a19c9201b1"},"vehicle_type_id":"4","last_reported":1740766371,"current_range_meters":17200,"station_id":"ce4bgjh2rcd13ifvqbf0","pricing_plan_id":"cebpf4jnsgd1na2vs0mg"},{"bike_id":"40ebb961-4854-411f-8f22-95e3ed3b1f9d","system_id":"levelo_inurba_marseille","lat":43.2922,"lon":5.36054,"is_reserved":false,"is_disabled":false,"rental_uris":{"android":"levelo://app?vid=40ebb961-4854-411f-8f22-95e3ed3b1f9d","ios":"levelo://app?vid=40ebb961-4854-411f-8f22-95e3ed3b1f9d"},"vehicle_type_id":"4","last_reported":1740766371,"current_range_meters":17600,"station_id":"ce4bhbh2rcd13ifvqeqg","pricing_plan_id":"cebpf4jnsgd1na2vs0mg"},{"bike_id":"968d8c43-4262-4a1e-ab95-d312bbb0ca7a","system_id":"levelo_inurba_marseille","lat":43.29517,"lon":5.39033,"is_reserved":false,"is_disabled":false,"rental_uris":{"android":"levelo://app?vid=968d8c43-4262-4a1e-ab95-d312bbb0ca7a","ios":"levelo://app?vid=968d8c43-4262-4a1e-ab95-d312bbb0ca7a"},"vehicle_type_id":"4","last_reported":1740766371,"current_range_meters":17600,"station_id":"ce4bh3p2rcd13ifvqdp0","pricing_plan_id":"cebpf4jnsgd1na2vs0mg"},{"bike_id":"e4d8aea3-ca93-43b3-b49c-2c9bc9cbc59f","system_id":"levelo_inurba_marseille","lat":43.27813,"lon":5.40714,"is_reserved":false,"is_disabled":false,"rental_uris":{"android":"levelo://app?vid=e4d8aea3-ca93-43b3-b49c-2c9bc9cbc59f","ios":"levelo://app?vid=e4d8aea3-ca93-43b3-b49c-2c9bc9cbc59f"},"vehicle_type_id":"4","last_reported":1740766371,"current_range_meters":17600,"station_id":"ce4bhnh2rcd13ifvqgtg","pricing_plan_id":"cebpf4jnsgd1na2vs0mg"},