{"last_updated":1690909570,"ttl":30,"version":"2.2","data":{"bikes":[{"bike_id":"e526d4e2-849c-44ae-a0d7-5572a62df909","system_id":"levelo_inurba_marseille","lat":43.312239,"lon":5.368562,"is_reserved":false,"is_disabled":false,"rental_uris":{"android":"levelo://app?vid=e526d4e2-849c-44ae-a0d7-5572a62df909","ios":"levelo://app?vid=e526d4e2-849c-44ae-a0d7-5572a62df909"},"vehicle_type_id":"4","last_reported":1690909571,"current_range_meters":12000,"station_id":"ce4bgl92rcd13ifvqbq0","pricing_plan_id":"free"},{"bike_id":"67692d6a-2be6-4938-824b-8a1f5c0f0ed6","system_id":"levelo_inurba_marseille","lat":43.31151,"lon":5.368275,"is_reserved":false,"is_disabled":false,"rental_uris":{"android":"levelo://app?vid=67692d6a-2be6-4938-824b-8a1f5c0f0ed6","ios":"levelo://app?vid=67692d6a-2be6-4938-824b-8a1f5c0f0ed6"},"vehicle_type_id":"4","last_reported":1690909571,"current_range_meters":20400,"station_id":"ce4bgl92rcd13ifvqbq0","pricing_plan_id":"free"},{"bike_id":"3fc81160-f6fb-4932-87a0-3a335c660a34","system_id":"levelo_inurba_marseille","lat":43.314811,"lon":5.373103,"is_reserved":false,"is_disabled":false,"rental_uris":{"android":"levelo://app?vid=3fc81160-f6fb-4932-87a0-3a335c660a34","ios":"levelo://app?vid=3fc81160-f6fb-4932-87a0-3a335c660a34"},"vehicle_type_id":"4","last_reported":1690909571,"current_range_meters":30400,"station_id":"ce4bgt12rcd13ifvqcd0","pricing_plan_id":"free"},{"bike_id":"3b083a1b-e2ba-4fdb-b141-1d9ffc04db66","system_id":"levelo_inurba_marseille","lat":43.3143,"lon":5.37341,"is_reserved":false,"is_disabled":false,"rental_uris":{"android":"levelo://app?vid=3b083a1b-e2ba-4fdb-b141-1d9ffc04db66","ios":"levelo://app?vid=3b083a1b-e2ba-4fdb-b141-1d9ffc04db66"},"vehicle_type_id":"4","last_reported":1690909571,"current_range_meters":22400,"station_id":"","pricing_plan_id":"free"},{"bike_id":"b26760b6-41b1-4756-883a-2337f0673e4d","system_id":"levelo_inurba_marseille","lat":43.314811,"lon":5.373104,"is_reserved":false,"is_disabled":false,"rental_uris":{"android":"levelo://app?vid=b26760b6-41b1-4756-883a-2337f0673e4d","ios":"levelo://app?vid=b26760b6-41b1-4756-883a-2337f0673e4d"},"vehicle_type_id":"4","last_reported":1690909571,"current_range_meters":31200,"station_id":"ce4bgt12rcd13ifvqcd0","pricing_plan_id":"free"},{"bike_id":"f77114ad-b8af-4ee1-a7a6-758e38f9f52b","system_id":"levelo_inurba_marseille","lat":43.309039,"lon":5.371797,"is_reserved":false,"is_disabled":false,"rental_uris":{"android":"levelo://app?vid=f77114ad-b8af-4ee1-a7a6-758e38f9f52b","ios":"levelo://app?vid=f77114ad-b8af-4ee1-a7a6-758e38f9f52b"},"vehicle_type_id":"4","last_reported":1690909571,"current_range_meters":7200,"station_id":"ce4bguh2rcd13ifvqckg","pricing_plan_id":"free"},{"bike_id":"f20ea888-8740-440b-bfeb-8eb2a7c1f652","system_id":"levelo_inurba_marseille","lat":43.305989,"lon":5.37225,"is_reserved":false,"is_disabled":false,"rental_uris":{"android":"levelo://app?vid=f20ea888-8740-440b-bfeb-8eb2a7c1f652","ios":"levelo://app?vid=f20ea888-8740-440b-bfeb-8eb2a7c1f652"},"vehicle_type_id":"4","last_reported":1690909571,"current_range_meters":31200,"station_id":"ce4bgqh2rcd13ifvqc4g","pricing_plan_id":"free"},{"bike_id":"7b11ca85-6fae-4889-8258-7878730f135e","system_id":"levelo_inurba_marseille","lat":43.31118,"lon":5.3776,"is_reserved":false,"is_disabled":false,"rental_uris":{"android":"levelo://app?vid=7b11ca85-6fae-4889-8258-7878730f135e","ios":"levelo://app?vid=7b11ca85-6fae-4889-8258-7878730f135e"},"vehicle_type_id":"4","last_reported":1690909571,"current_range_meters":30800,"station_id":"ce4bgt92rcd13ifvqcg0","pricing_plan_id":"free"},{"bike_id":"b19d51a6-7d51-42e1-86f0-822dd04bb518","system_id":"levelo_inurba_marseille","lat":43.3112,"lon":5.37765,"is_reserved":false,"is_disabled":false,"rental_uris":{"android":"levelo://app?vid=b19d51a6-7d51-42e1-86f0-822dd04bb518","ios":"levelo://app?vid=b19d51a6-7d51-42e1-86f0-822dd04bb518"},"vehicle_type_id":"4","last_reported":1690909571,"current_range_meters":31200,"station_id":"ce4bgt92rcd13ifvqcg0","pricing_plan_id":"free"},{"bike_id":"ca866c28-0b4b-46cb-ad81-354b7c24973d","system_id":"levelo_inurba_marseille","lat":43.311131,"lon":5.377651,"is_reserved":false,"is_disabled":false,"rental_uris":{"android":"levelo://app?vid=ca866c28-0b4b-46cb-ad81-354b7c24973d","ios":"levelo://app?vid=ca866c28-0b4b-46cb-ad81-354b7c24973d"},"vehicle_type_id":"4","last_reported":1690909571,"current_range_meters":10400,"station_id":"ce4bgt92rcd13ifvqcg0","pricing_plan_id":"free"},{"bike_id":"74d14feb-a892-478d-b86f-291c876731cb","system_id":"levelo_inurba_marseille","lat":43.31707,"lon":5.37719,"is_reserved":false,"is_disabled":false,"rental_uris":{"android":"levelo://app?vid=74d14feb-a892-478d-b86f-291c876731cb","ios":"levelo://app?vid=74d14feb-a892-478d-b86f-291c876731cb"},"vehicle_type_id":"4","last_reported":1690909571,"current_range_meters":14400,"station_id":"ce4bgth2rcd13ifvqch0","pricing_plan_id":"free"},{"bike_id":"ae3cefdf-e770-4116-a3f2-32ffe7cca31f","system_id":"levelo_inurba_marseille","lat":43.31707,"lon":5.37721,"is_reserved":false,"is_disabled":false,"rental_uris":{"android":"levelo://app?vid=ae3cefdf-e770-4116-a3f2-32ffe7cca31f","ios":"levelo://app?vid=ae3cefdf-e770-4116-a3f2-32ffe7cca31f"},"vehicle_type_id":"4","last_reported":1690909571,"current_range_meters":15600,"station_id":"ce4bgth2rcd13ifvqch0","pricing_plan_id":"free"},{"bike_id":"9ab13842-71f7-4df8-af88-054e1f2ac646","system_id":"levelo_inurba_marseille","lat":43.317075,"lon":5.377367,"is_reserved":false,"is_disabled":false,"rental_uris":{"android":"levelo://app?vid=9ab13842-71f7-4df8-af88-054e1f2ac646","ios":"levelo://app?vid=9ab13842-71f7-4df8-af88-054e1f2ac646"},"vehicle_type_id":"4","last_reported":1690909571,"current_range_meters":16800,"station_id":"ce4bgth2rcd13ifvqch0","pricing_plan_id":"free"},{"bike_id":"03f77a9f-fc95-4502-9e56-5fec50f711ca","system_id":"levelo_inurba_marseille","lat":43.317075,"lon":5.377367,"is_reserved":false,"is_disabled":false,"rental_uris":{"android":"levelo://app?vid=03f77a9f-fc95-4502-9e56-5fec50f711ca","ios":"levelo://app?vid=03f77a9f-fc95-4502-9e56-5fec50f711ca"},"vehicle_type_id":"4","last_reported":1690909571,"current_range_meters":23200,"station_id":"ce4bgth2rcd13ifvqch0","pricing_plan_id":"free"},{"bike_id":"9776cdcd-09f7-4ea5-97a4-4f19d3f424d8","system_id":"levelo_inurba_marseille","lat":43.315293,"lon":5.380349,"is_reserved":false,"is_disabled":false,"rental_uris":{"android":"levelo://app?vid=9776cdcd-09f7-4ea5-97a4-4f19d3f424d8","ios":"levelo://app?vid=9776cdcd-09f7-4ea5-97a4-4f19d3f424d8"},"vehicle_type_id":"4","last_reported":1690909571,"current_range_meters":7200,"station_id":"ce4bhsp2rcd13ifvqi50","pricing_plan_id":"free"},{"bike_id":"6fd85cef-cdff-4e28-9f6c-9a36b00b01df","system_id":"levelo_inurba_marseille","lat":43.315289,"lon":5.380349,"is_reserved":false,"is_disabled":false,"rental_uris":{"android":"levelo://app?vid=6fd85cef-cdff-4e28-9f6c-9a36b00b01df","ios":"levelo://app?vid=6fd85cef-cdff-4e28-9f6c-9a36b00b01df"},"vehicle_type_id":"4","last_reported":1690909571,"current_range_meters":18000,"station_id":"ce4bhsp2rcd13ifvqi50","pricing_plan_id":"free"},{"bike_id":"6bc3892a-c385-48d5-99b4-4590a726c706","system_id":"levelo_inurba_marseille","lat":43.31995,"lon":5.38156,"is_reserved":false,"is_disabled":false,"rental_uris":{"android":"levelo://app?vid=6bc3892a-c385-48d5-99b4-4590a726c706","ios":"levelo://app?vid=6bc3892a-c385-48d5-99b4-4590a726c706"},"vehicle_type_id":"4","last_reported":1690909571,"current_range_meters":14400,"station_id":"ce4bhr12rcd13ifvqhpg","pricing_plan_id":"free"},{"bike_id":"5219d72c-f0fe-4cb6-a4a0-21fea358834d","system_id":"levelo_inurba_marseille","lat":43.31998,"lon":5.38156,"is_reserved":false,"is_disabled":false,"rental_uris":{"android":"levelo://app?vid=5219d72c-f0fe-4cb6-a4a0-21fea358834d","ios":"levelo://app?vid=5219d72c-f0fe-4cb6-a4a0-21fea358834d"},"vehicle_type_id":"4","last_reported":1690909571,"current_range_meters":24000,"station_id":"ce4bhr12rcd13ifvqhpg","pricing_plan_id":"free"},{"bike_id":"dd7f339f-bac7-4fc1-93cd-78c661cadcf2","system_id":"levelo_inurba_marseille","lat":43.31992,"lon":5.38162,"is_reserved":false,"is_disabled":false,"rental_uris":{"android":"levelo://app?vid=dd7f339f-bac7-4fc1-93cd-78c661cadcf2","ios":"levelo://app?vid=dd7f339f-bac7-4fc1-93cd-78c661cadcf2"},"vehicle_type_id":"4","last_reported":1690909571,"current_range_meters":3200,"station_id":"ce4bhr12rcd13ifvqhpg","pricing_plan_id":"free"},{"bike_id":"38df3d61-a59e-4499-95e6-94b2a9d33314","system_id":"levelo_inurba_marseille","lat":43.32001,"lon":5.38155,"is_reserved":false,"is_disabled":false,"rental_uris":{"android":"levelo://app?vid=38df3d61-a59e-4499-95e6-94b2a9d33314","ios":"levelo://app?vid=38df3d61-a59e-4499-95e6-94b2a9d33314"},"vehicle_type_id":"4","last_reported":1690909571,"current_range_meters":26400,"station_id":"ce4bhr12rcd13ifvqhpg","pricing_plan_id":"free"},{"bike_id":"200f98e5-cb71-4f1f-90a9-d80b1fb9897b","system_id":"levelo_inurba_marseille","lat":43.31988,"lon":5.38171,"is_reserved":false,"is_disabled":false,"rental_uris":{"android":"levelo://app?vid=200f98e5-cb71-4f1f-90a9-d80b1fb9897b","ios":"levelo://app?vid=200f98e5-cb71-4f1f-90a9-d80b1fb9897b"},"vehicle_type_id":"4","last_reported":1690909571,"current_range_meters":28000,"station_id":"ce4bhr12rcd13ifvqhpg","pricing_plan_id":"free"},{"bike_id":"60d6d4b9-21a4-42bf-84e4-acc053f3f449","system_id":"levelo_inurba_marseille","lat":43.299222,"lon":5.365554,"is_reserved":false,"is_disabled":false,"rental_uris":{"android":"levelo://app?vid=60d6d4b9-21a4-42bf-84e4-acc053f3f449","ios":"levelo://app?vid=60d6d4b9-21a4-42bf-84e4-acc053f3f449"},"vehicle_type_id":"4","last_reported":1690909571,"current_range_meters":11200,"station_id":"ce4bgm92rcd13ifvqbr0","pricing_plan_id":"free"},{"bike_id":"30537d43-af02-4a10-b928-7b9b8cf633d2","system_id":"levelo_inurba_marseille","lat":43.30538,"lon":5.38431,"is_reserved":false,"is_disabled":false,"rental_uris":{"android":"levelo://app?vid=30537d43-af02-4a10-b928-7b9b8cf633d2","ios":"levelo://app?vid=30537d43-af02-4a10-b928-7b9b8cf633d2"},"vehicle_type_id":"4","last_reported":1690909571,"current_range_meters":28800,"station_id":"ce4bgg92rcd13ifvqb30","pricing_plan_id":"free"},{"bike_id":"048e8f64-c91c-443d-b89e-777d44e60670","system_id":"levelo_inurba_marseille","lat":43.299243,"lon":5.37481,"is_reserved":false,"is_disabled":false,"rental_uris":{"android":"levelo://app?vid=048e8f64-c91c-443d-b89e-777d44e60670","ios":"levelo://app?vid=048e8f64-c91c-443d-b89e-777d44e60670"},"vehicle_type_id":"4","last_reported":1690909571,"current_range_meters":16000,"station_id":"ce4bgjh2rcd13ifvqbg0","pricing_plan_id":"free"},{"bike_id":"80a7a89f-d603-4223-9a0d-3f27f406b8c4","system_id":"levelo_inurba_marseille","lat":43.311722,"lon":5.387247,"is_reserved":false,"is_disabled":false,"rental_uris":{"android":"levelo://app?vid=80a7a89f-d603-4223-9a0d-3f27f406b8c4","ios":"levelo://app?vid=80a7a89f-d603-4223-9a0d-3f27f406b8c4"},"vehicle_type_id":"4","last_reported":1690909571,"current_range_meters":29200,"station_id":"ce4bgv12rcd13ifvqcp0","pricing_plan_id":"free"},{"bike_id":"900a9c1e-81b9-4c7c-a573-596cd17a2d2d","system_id":"levelo_inurba_marseille","lat":43.31164,"lon":5.38723,"is_reserved":false,"is_disabled":false,"rental_uris":{"android":"levelo://app?vid=900a9c1e-81b9-4c7c-a573-596cd17a2d2d","ios":"levelo://app?vid=900a9c1e-81b9-4c7c-a573-596cd17a2d2d"},"vehicle_type_id":"4","last_reported":1690909571,"current_range_meters":27200,"station_id":"","pricing_plan_id":"free"},{"bike_id":"a29f1cfd-6f8d-4944-bb29-b1915fcac7b2","system_id":"levelo_inurba_marseille","lat":43.299243,"lon":5.374807,"is_reserved":false,"is_disabled":false,"rental_uris":{"android":"levelo://app?vid=a29f1cfd-6f8d-4944-bb29-b1915fcac7b2","ios":"levelo://app?vid=a29f1cfd-6f8d-4944-bb29-b1915fcac7b2"},"vehicle_type_id":"4","last_reported":1690909571,"current_range_meters":6400,"station_id":"ce4bgjh2rcd13ifvqbg0","pricing_plan_id":"free"},{"bike_id":"ac282216-dc91-471c-9293-f5ed88ffdaea","system_id":"levelo_inurba_marseille","lat":43.297774,"lon":5.370875,"is_reserved":false,"is_disabled":false,"rental_uris":{"android":"levelo://app?vid=ac282216-dc91-471c-9293-f5ed88ffdaea","ios":"levelo://app?vid=ac282216-dc91-471c-9293-f5ed88ffdaea"},"vehicle_type_id":"4","last_reported":1690909571,"current_range_meters":4800,"station_id":"ce4bgop2rcd13ifvqc1g","pricing_plan_id":"free"},{"bike_id":"5fe8ef05-4db2-4f5d-8a1e-ad8026b19768","system_id":"levelo_inurba_marseille","lat":43.32294,"lon":5.3826,"is_reserved":false,"is_disabled":false,"rental_uris":{"android":"levelo://app?vid=5fe8ef05-4db2-4f5d-8a1e-ad8026b19768","ios":"levelo://app?vid=5fe8ef05-4db2-4f5d-8a1e-ad8026b19768"},"vehicle_type_id":"4","last_reported":1690909571,"current_range_meters":8800,"station_id":"ce4bhr12rcd13ifvqhqg","pricing_plan_id":"free"},{"bike_id":"f0b53249-11da-4f52-b78b-16804c4560ce","system_id":"levelo_inurba_marseille","lat":43.32288,"lon":5.38269,"is_reserved":false,"is_disabled":false,"rental_uris":{"android":"levelo://app?vid=f0b53249-11da-4f52-b78b-16804c4560ce","ios":"levelo://app?vid=f0b53249-11da-4f52-b78b-16804c4560ce"},"vehicle_type_id":"4","last_reported":1690909571,"current_range_meters":23200,"station_id":"ce4bhr12rcd13ifvqhqg","pricing_plan_id":"free"},{"bike_id":"9415d978-2564-41e1-bf0c-bf78154b02ce","system_id":"levelo_inurba_marseille","lat":43.32287,"lon":5.38272,"is_reserved":false,"is_disabled":false,"rental_uris":{"android":"levelo://app?vid=9415d978-2564-41e1-bf0c-bf78154b02ce","ios":"levelo://app?vid=9415d978-2564-41e1-bf0c-bf78154b02ce"},"vehicle_type_id":"4","last_reported":1690909571,"current_range_meters":13200,"station_id":"ce4bhr12rcd13ifvqhqg","pricing_plan_id":"free"},{"bike_id":"fed7c930-a5dc-41e7-b146-30815d6c2775","system_id":"levelo_inurba_marseille","lat":43.32288,"lon":5.38271,"is_reserved":false,"is_disabled":false,"rental_uris":{"android":"levelo://app?vid=fed7c930-a5dc-41e7-b146-30815d6c2775","ios":"levelo://app?vid=fed7c930-a5dc-41e7-b146-30815d6c2775"},"vehicle_type_id":"4","last_reported":1690909571,"current_range_meters":26800,"station_id":"ce4bhr12rcd13ifvqhqg","pricing_plan_id":"free"},{"bike_id":"1f24ca09-a0b6-4b06-9efb-c500dff16ef9","system_id":"levelo_inurba_marseille","lat":43.32296,"lon":5.38262,"is_reserved":false,"is_disabled":false,"rental_uris":{"android":"levelo://app?vid=1f24ca09-a0b6-4b06-9efb-c500dff16ef9","ios":"levelo://app?vid=1f24ca09-a0b6-4b06-9efb-c500dff16ef9"},"vehicle_type_id":"4","last_reported":1690909571,"current_range_meters":5200,"station_id":"ce4bhr12rcd13ifvqhqg","pricing_plan_id":"free"},{"bike_id":"79bf6da4-5f08-488b-96b1-6e23f74ec5ec","system_id":"levelo_inurba_marseille","lat":43.322872,"lon":5.382756,"is_reserved":false,"is_disabled":false,"rental_uris":{"android":"levelo://app?vid=79bf6da4-5f08-488b-96b1-6e23f74ec5ec","ios":"levelo://app?vid=79bf6da4-5f08-488b-96b1-6e23f74ec5ec"},"vehicle_type_id":"4","last_reported":1690909571,"current_range_meters":24000,"station_id":"ce4bhr12rcd13ifvqhqg","pricing_plan_id":"free"},{"bike_id":"82f1e03d-e4c3-4aac-b6f0-c9fc3950fe62","system_id":"levelo_inurba_marseille","lat":43.322906,"lon":5.382839,"is_reserved":false,"is_disabled":false,"rental_uris":{"android":"levelo://app?vid=82f1e03d-e4c3-4aac-b6f0-c9fc3950fe62","ios":"levelo://app?vid=82f1e03d-e4c3-4aac-b6f0-c9fc3950fe62"},"vehicle_type_id":"4","last_reported":1690909571,"current_range_meters":11600,"station_id":"","pricing_plan_id":"free"},{"bike_id":"dd789220-e7b5-42c1-b9dc-dc4243148021","system_id":"levelo_inurba_marseille","lat":43.297163,"lon":5.365866,"is_reserved":false,"is_disabled":false,"rental_uris":{"android":"levelo://app?vid=dd789220-e7b5-42c1-b9dc-dc4243148021","ios":"levelo://app?vid=dd789220-e7b5-42c1-b9dc-dc4243148021"},"vehicle_type_id":"4","last_reported":1690909571,"current_range_meters":31200,"station_id":"ce4bgn12rcd13ifvqbt0","pricing_plan_id":"free"},{"bike_id":"8d7d451e-7aad-4e77-a675-a4b65cbcc855","system_id":"levelo_inurba_marseille","lat":43.2968,"lon":5.37291,"is_reserved":false,"is_disabled":false,"rental_uris":{"android":"levelo://app?vid=8d7d451e-7aad-4e77-a675-a4b65cbcc855","ios":"levelo://app?vid=8d7d451e-7aad-4e77-a675-a4b65cbcc855"},"vehicle_type_id":"4","last_reported":1690909571,"current_range_meters":30000,"station_id":"ce4bgk12rcd13ifvqbj0","pricing_plan_id":"free"},{"bike_id":"82e1c783-5c52-476f-9cb8-d75c9f17030d","system_id":"levelo_inurba_marseille","lat":43.2968,"lon":5.37291,"is_reserved":false,"is_disabled":false,"rental_uris":{"android":"levelo://app?vid=82e1c783-5c52-476f-9cb8-d75c9f17030d","ios":"levelo://app?vid=82e1c783-5c52-476f-9cb8-d75c9f17030d"},"vehicle_type_id":"4","last_reported":1690909571,"current_range_meters":25200,"station_id":"ce4bgk12rcd13ifvqbj0","pricing_plan_id":"free"},{"bike_id":"347aad6a-e7d8-4dd7-84b1-4e90374361d1","system_id":"levelo_inurba_marseille","lat":43.2968,"lon":5.37291,"is_reserved":false,"is_disabled":false,"rental_uris":{"android":"levelo://app?vid=347aad6a-e7d8-4dd7-84b1-4e90374361d1","ios":"levelo://app?vid=347aad6a-e7d8-4dd7-84b1-4e90374361d1"},"vehicle_type_id":"4","last_reported":1690909571,"current_range_meters":15200,"station_id":"ce4bgk12rcd13ifvqbj0","pricing_plan_id":"free"},{"bike_id":"8ba12ef3-a1f2-41f8-bd31-9685ade5291c","system_id":"levelo_inurba_marseille","lat":43.2968,"lon":5.37291,"is_reserved":false,"is_disabled":false,"rental_uris":{"android":"levelo://app?vid=8ba12ef3-a1f2-41f8-bd31-9685ade5291c","ios":"levelo://app?vid=8ba12ef3-a1f2-41f8-bd31-9685ade5291c"},"vehicle_type_id":"4","last_reported":1690909571,"current_range_meters":26000,"station_id":"ce4bgk12rcd13ifvqbj0","pricing_plan_id":"free"},{"bike_id":"3ca8b7ab-3119-4607-8967-b50e52fee40b","system_id":"levelo_inurba_marseille","lat":43.2968,"lon":5.37291,"is_reserved":false,"is_disabled":false,"rental_uris":{"android":"levelo://app?vid=3ca8b7ab-3119-4607-8967-b50e52fee40b","ios":"levelo://app?vid=3ca8b7ab-3119-4607-8967-b50e52fee40b"},"vehicle_type_id":"4","last_reported":1690909571,"current_range_meters":27600,"station_id":"ce4bgk12rcd13ifvqbj0","pricing_plan_id":"free"},{"bike_id":"980a56be-6db3-43d6-9022-35db408c0be4","system_id":"levelo_inurba_marseille","lat":43.296131,"lon":5.370791,"is_reserved":false,"is_disabled":false,"rental_uris":{"android":"levelo://app?vid=980a56be-6db3-43d6-9022-35db408c0be4","ios":"levelo://app?vid=980a56be-6db3-43d6-9022-35db408c0be4"},"vehicle_type_id":"4","last_reported":1690909571,"current_range_meters":6000,"station_id":"ce4bgnh2rcd13ifvqc0g","pricing_plan_id":"free"},{"bike_id":"f6d3ddde-b627-447b-b037-cda8d8d3a9c3","system_id":"levelo_inurba_marseille","lat":43.299028,"lon":5.381509,"is_reserved":false,"is_disabled":false,"rental_uris":{"android":"levelo://app?vid=f6d3ddde-b627-447b-b037-cda8d8d3a9c3","ios":"levelo://app?vid=f6d3ddde-b627-447b-b037-cda8d8d3a9c3"},"vehicle_type_id":"4","last_reported":1690909571,"current_range_meters":30400,"station_id":"ce4bgj12rcd13ifvqbc0","pricing_plan_id":"free"},{"bike_id":"1601cd73-b43b-4049-a4b9-6acb034254ea","system_id":"levelo_inurba_marseille","lat":43.299028,"lon":5.381509,"is_reserved":false,"is_disabled":false,"rental_uris":{"android":"levelo://app?vid=1601cd73-b43b-4049-a4b9-6acb034254ea","ios":"levelo://app?vid=1601cd73-b43b-4049-a4b9-6acb034254ea"},"vehicle_type_id":"4","last_reported":1690909571,"current_range_meters":29200,"station_id":"ce4bgj12rcd13ifvqbc0","pricing_plan_id":"free"},{"bike_id":"20976191-fe2f-4fbc-a8ab-320c6737c9e2","system_id":"levelo_inurba_marseille","lat":43.299028,"lon":5.381509,"is_reserved":false,"is_disabled":false,"rental_uris":{"android":"levelo://app?vid=20976191-fe2f-4fbc-a8ab-320c6737c9e2","ios":"levelo://app?vid=20976191-fe2f-4fbc-a8ab-320c6737c9e2"},"vehicle_type_id":"4","last_reported":1690909571,"current_range_meters":31200,"station_id":"ce4bgj12rcd13ifvqbc0","pricing_plan_id":"free"},{"bike_id":"7c3b68f0-c660-497e-b237-dcd8d42f6d88","system_id":"levelo_inurba_marseille","lat":43.299028,"lon":5.381509,"is_reserved":false,"is_disabled":false,"rental_uris":{"android":"levelo://app?vid=7c3b68f0-c660-497e-b237-dcd8d42f6d88","ios":"levelo://app?vid=7c3b68f0-c660-497e-b237-dcd8d42f6d88"},"vehicle_type_id":"4","last_reported":1690909571,"current_range_meters":30800,"station_id":"ce4bgj12rcd13ifvqbc0","pricing_plan_id":"free"},{"bike_id":"69fa7ead-7811-4664-b0ae-89417dbc586f","system_id":"levelo_inurba_marseille","lat":43.299028,"lon":5.381509,"is_reserved":false,"is_disabled":false,"rental_uris":{"android":"levelo://app?vid=69fa7ead-7811-4664-b0ae-89417dbc586f","ios":"levelo://app?vid=69fa7ead-7811-4664-b0ae-89417dbc586f"},"vehicle_type_id":"4","last_reported":1690909571,"current_range_meters":30400,"station_id":"ce4bgj12rcd13ifvqbc0","pricing_plan_id":"free"},{"bike_id":"cce4db34-f8ed-49be-9bb8-4455ed060448","system_id":"levelo_inurba_marseille","lat":43.299028,"lon":5.381509,"is_reserved":false,"is_disabled":false,"rental_uris":{"android":"levelo://app?vid=cce4db34-f8ed-49be-9bb8-4455ed060448","ios":"levelo://app?vid=cce4db34-f8ed-49be-9bb8-4455ed060448"},"vehicle_type_id":"4","last_reported":1690909571,"current_range_meters":31200,"station_id":"ce4bgj12rcd13ifvqbc0","pricing_plan_id":"free"},{"bike_id":"3124038a-f829-48fc-bb55-18d42fd54151","system_id":"levelo_inurba_marseille","lat":43.299028,"lon":5.381509,"is_reserved":false,"is_disabled":false,"rental_uris":{"android":"levelo://app?vid=3124038a-f829-48fc-bb55-18d42fd54151","ios":"levelo://app?vid=3124038a-f829-48fc-bb55-18d42fd54151"},"vehicle_type_id":"4","last_reported":1690909571,"current_range_meters":28800,"station_id":"ce4bgj12rcd13ifvqbc0","pricing_plan_id":"free"},{"bike_id":"8e3ce39b-9299-41f0-9c78-ce4f28a7f6e1","system_id":"levelo_inurba_marseille","lat":43.299028,"lon":5.381509,"is_reserved":false,"is_disabled":false,"rental_uris":{"android":"levelo://app?vid=8e3ce39b-9299-41f0-9c78-ce4f28a7f6e1","ios":"levelo://app?vid=8e3ce39b-9299-41f0-9c78-ce4f28a7f6e1"},"vehicle_type_id":"4","last_reported":1690909571,"current_range_meters":28400,"station_id":"ce4bgj12rcd13ifvqbc0","pricing_plan_id":"free"},{"bike_id":"1323d28b-0f53-40e2-86d5-13f74179c874","system_id":"levelo_inurba_marseille","lat":43.299028,"lon":5.381509,"is_reserved":false,"is_disabled":false,"rental_uris":{"android":"levelo://app?vid=1323d28b-0f53-40e2-86d5-13f74179c874","ios":"levelo://app?vid=1323d28b-0f53-40e2-86d5-13f74179c874"},"vehicle_type_id":"4","last_reported":1690909571,"current_range_meters":31200,"station_id":"ce4bgj12rcd13ifvqbc0","pricing_plan_id":"free"},{"bike_id":"2b6003c4-3ae4-4983-a92d-96f0e9a6fc7e","system_id":"levelo_inurba_marseille","lat":43.299028,"lon":5.381509,"is_reserved":false,"is_disabled":false,"rental_uris":{"android":"levelo://app?vid=2b6003c4-3ae4-4983-a92d-96f0e9a6fc7e","ios":"levelo://app?vid=2b6003c4-3ae4-4983-a92d-96f0e9a6fc7e"},"vehicle_type_id":"4","last_reported":1690909571,"current_range_meters":30400,"station_id":"ce4bgj12rcd13ifvqbc0","pricing_plan_id":"free"},{"bike_id":"f0b1921d-8fc5-42f6-8214-26455e772ce5","system_id":"levelo_inurba_marseille","lat":43.30959,"lon":5.39041,"is_reserved":false,"is_disabled":false,"rental_uris":{"android":"levelo://app?vid=f0b1921d-8fc5-42f6-8214-26455e772ce5","ios":"levelo://app?vid=f0b1921d-8fc5-42f6-8214-26455e772ce5"},"vehicle_type_id":"4","last_reported":1690909571,"current_range_meters":20000,"station_id":"ce4bgup2rcd13ifvqco0","pricing_plan_id":"free"},{"bike_id":"6908db96-d47c-4367-b975-e7b4f88c5e10","system_id":"levelo_inurba_marseille","lat":43.317557,"lon":5.390173,"is_reserved":false,"is_disabled":false,"rental_uris":{"android":"levelo://app?vid=6908db96-d47c-4367-b975-e7b4f88c5e10","ios":"levelo://app?vid=6908db96-d47c-4367-b975-e7b4f88c5e10"},"vehicle_type_id":"4","last_reported":1690909571,"current_range_meters":28800,"station_id":"ce4bhqp2rcd13ifvqhng","pricing_plan_id":"free"},{"bike_id":"c74da644-c018-4a75-92cf-c25da37d4bfe","system_id":"levelo_inurba_marseille","lat":43.298037,"lon":5.381066,"is_reserved":false,"is_disabled":false,"rental_uris":{"android":"levelo://app?vid=c74da644-c018-4a75-92cf-c25da37d4bfe","ios":"levelo://app?vid=c74da644-c018-4a75-92cf-c25da37d4bfe"},"vehicle_type_id":"4","last_reported":1690909571,"current_range_meters":400,"station_id":"ce4bgip2rcd13ifvqbb0","pricing_plan_id":"free"},{"bike_id":"29128d09-8ba4-4bbe-a50f-38eccc6ae5ab","system_id":"levelo_inurba_marseille","lat":43.304278,"lon":5.388868,"is_reserved":false,"is_disabled":false,"rental_uris":{"android":"levelo://app?vid=29128d09-8ba4-4bbe-a50f-38eccc6ae5ab","ios":"levelo://app?vid=29128d09-8ba4-4bbe-a50f-38eccc6ae5ab"},"vehicle_type_id":"4","last_reported":1690909571,"current_range_meters":4800,"station_id":"ce4bgk12rcd13ifvqbi0","pricing_plan_id":"free"},{"bike_id":"4e68d4e7-1089-45b1-87ca-c8369afe7875","system_id":"levelo_inurba_marseille","lat":43.304278,"lon":5.388868,"is_reserved":false,"is_disabled":false,"rental_uris":{"android":"levelo://app?vid=4e68d4e7-1089-45b1-87ca-c8369afe7875","ios":"levelo://app?vid=4e68d4e7-1089-45b1-87ca-c8369afe7875"},"vehicle_type_id":"4","last_reported":1690909571,"current_range_meters":16800,"station_id":"ce4bgk12rcd13ifvqbi0","pricing_plan_id":"free"},{"bike_id":"37903f28-7eb2-4615-868f-adfe01f129f5","system_id":"levelo_inurba_marseille","lat":43.295748,"lon":5.37522,"is_reserved":false,"is_disabled":false,"rental_uris":{"android":"levelo://app?vid=37903f28-7eb2-4615-868f-adfe01f129f5","ios":"levelo://app?vid=37903f28-7eb2-4615-868f-adfe01f129f5"},"vehicle_type_id":"4","last_reported":1690909571,"current_range_meters":6000,"station_id":"ce4bgh92rcd13ifvqb50","pricing_plan_id":"free"},{"bike_id":"bca76f88-ea7c-4b02-a7fe-1dfbf61149ee","system_id":"levelo_inurba_marseille","lat":43.30428,"lon":5.38891,"is_reserved":false,"is_disabled":false,"rental_uris":{"android":"levelo://app?vid=bca76f88-ea7c-4b02-a7fe-1dfbf61149ee","ios":"levelo://app?vid=bca76f88-ea7c-4b02-a7fe-1dfbf61149ee"},"vehicle_type_id":"4","last_reported":1690909571,"current_range_meters":0,"station_id":"ce4bgk12rcd13ifvqbi0","pricing_plan_id":"free"},{"bike_id":"1255e571-e129-4d99-b668-0da02af69e07","system_id":"levelo_inurba_marseille","lat":43.304319,"lon":5.38895,"is_reserved":false,"is_disabled":false,"rental_uris":{"android":"levelo://app?vid=1255e571-e129-4d99-b668-0da02af69e07","ios":"levelo://app?vid=1255e571-e129-4d99-b668-0da02af69e07"},"vehicle_type_id":"4","last_reported":1690909571,"current_range_meters":5200,"station_id":"ce4bgk12rcd13ifvqbi0","pricing_plan_id":"free"},{"bike_id":"0cb46eef-e0d3-41bf-bbb8-614142ccf9fc","system_id":"levelo_inurba_marseille","lat":43.304324,"lon":5.388985,"is_reserved":false,"is_disabled":false,"rental_uris":{"android":"levelo://app?vid=0cb46eef-e0d3-41bf-bbb8-614142ccf9fc","ios":"levelo://app?vid=0cb46eef-e0d3-41bf-bbb8-614142ccf9fc"},"vehicle_type_id":"4","last_reported":1690909571,"current_range_meters":16000,"station_id":"ce4bgk12rcd13ifvqbi0","pricing_plan_id":"free"},{"bike_id":"039955aa-72cd-453d-aa9b-d50b74ee0e87","system_id":"levelo_inurba_marseille","lat":43.295748,"lon":5.37522,"is_reserved":false,"is_disabled":false,"rental_uris":{"android":"levelo://app?vid=039955aa-72cd-453d-aa9b-d50b74ee0e87","ios":"levelo://app?vid=039955aa-72cd-453d-aa9b-d50b74ee0e87"},"vehicle_type_id":"4","last_reported":1690909571,"current_range_meters":29200,"station_id":"ce4bgh92rcd13ifvqb50","pricing_plan_id":"free"},{"bike_id":"30db7480-815a-4c9f-bab9-45f8193482dc","system_id":"levelo_inurba_marseille","lat":43.32367,"lon":5.388836,"is_reserved":false,"is_disabled":false,"rental_uris":{"android":"levelo://app?vid=30db7480-815a-4c9f-bab9-45f8193482dc","ios":"levelo://app?vid=30db7480-815a-4c9f-bab9-45f8193482dc"},"vehicle_type_id":"4","last_reported":1690909571,"current_range_meters":28800,"station_id":"ce4bhqp2rcd13ifvqhog","pricing_plan_id":"free"},{"bike_id":"419713fa-7cc1-4cfe-93fa-32add7c4fc42","system_id":"levelo_inurba_marseille","lat":43.3236,"lon":5.38885,"is_reserved":false,"is_disabled":false,"rental_uris":{"android":"levelo://app?vid=419713fa-7cc1-4cfe-93fa-32add7c4fc42","ios":"levelo://app?vid=419713fa-7cc1-4cfe-93fa-32add7c4fc42"},"vehicle_type_id":"4","last_reported":1690909571,"current_range_meters":20000,"station_id":"ce4bhqp2rcd13ifvqhog","pricing_plan_id":"free"},{"bike_id":"e863b566-22b4-4757-a391-5f1c12ef6558","system_id":"levelo_inurba_marseille","lat":43.32367,"lon":5.388836,"is_reserved":false,"is_disabled":false,"rental_uris":{"android":"levelo://app?vid=e863b566-22b4-4757-a391-5f1c12ef6558","ios":"levelo://app?vid=e863b566-22b4-4757-a391-5f1c12ef6558"},"vehicle_type_id":"4","last_reported":1690909571,"current_range_meters":16000,"station_id":"ce4bhqp2rcd13ifvqhog","pricing_plan_id":"free"},{"bike_id":"48043a1d-4fe7-466d-96fd-b0352977ef75","system_id":"levelo_inurba_marseille","lat":43.32366,"lon":5.38885,"is_reserved":false,"is_disabled":false,"rental_uris":{"android":"levelo://app?vid=48043a1d-4fe7-466d-96fd-b0352977ef75","ios":"levelo://app?vid=48043a1d-4fe7-466d-96fd-b0352977ef75"},"vehicle_type_id":"4","last_reported":1690909571,"current_range_meters":8000,"station_id":"ce4bhqp2rcd13ifvqhog","pricing_plan_id":"free"},{"bike_id":"ef5d1edc-be2e-4323-93de-ada6a8e2aac3","system_id":"levelo_inurba_marseille","lat":43.32361,"lon":5.38891,"is_reserved":false,"is_disabled":false,"rental_uris":{"android":"levelo://app?vid=ef5d1edc-be2e-4323-93de-ada6a8e2aac3","ios":"levelo://app?vid=ef5d1edc-be2e-4323-93de-ada6a8e2aac3"},"vehicle_type_id":"4","last_reported":1690909571,"current_range_meters":30400,"station_id":"ce4bhqp2rcd13ifvqhog","pricing_plan_id":"free"},{"bike_id":"5759cff4-3ff2-4260-bc36-bc9b93e57519","system_id":"levelo_inurba_marseille","lat":43.32367,"lon":5.388836,"is_reserved":false,"is_disabled":false,"rental_uris":{"android":"levelo://app?vid=5759cff4-3ff2-4260-bc36-bc9b93e57519","ios":"levelo://app?vid=5759cff4-3ff2-4260-bc36-bc9b93e57519"},"vehicle_type_id":"4","last_reported":1690909571,"current_range_meters":25200,"station_id":"ce4bhqp2rcd13ifvqhog","pricing_plan_id":"free"},{"bike_id":"bee3e00b-a039-46db-9372-79c3b91f12fe","system_id":"levelo_inurba_marseille","lat":43.29312,"lon":5.37183,"is_reserved":false,"is_disabled":false,"rental_uris":{"android":"levelo://app?vid=bee3e00b-a039-46db-9372-79c3b91f12fe","ios":"levelo://app?vid=bee3e00b-a039-46db-9372-79c3b91f12fe"},"vehicle_type_id":"4","last_reported":1690909571,"current_range_meters":4400,"station_id":"ce4bgh92rcd13ifvqb40","pricing_plan_id":"free"},{"bike_id":"ba82c81d-72c0-456a-a942-9922bdeb7678","system_id":"levelo_inurba_marseille","lat":43.305994,"lon":5.393687,"is_reserved":false,"is_disabled":false,"rental_uris":{"android":"levelo://app?vid=ba82c81d-72c0-456a-a942-9922bdeb7678","ios":"levelo://app?vid=ba82c81d-72c0-456a-a942-9922bdeb7678"},"vehicle_type_id":"4","last_reported":1690909571,"current_range_meters":9200,"station_id":"ce4bh0p2rcd13ifvqd80","pricing_plan_id":"free"},{"bike_id":"84f1c7eb-7e8a-4a2e-85f6-db1aaf2a665f","system_id":"levelo_inurba_marseille","lat":43.293009,"lon":5.374584,"is_reserved":false,"is_disabled":false,"rental_uris":{"android":"levelo://app?vid=84f1c7eb-7e8a-4a2e-85f6-db1aaf2a665f","ios":"levelo://app?vid=84f1c7eb-7e8a-4a2e-85f6-db1aaf2a665f"},"vehicle_type_id":"4","last_reported":1690909571,"current_range_meters":21600,"station_id":"ce4bgi12rcd13ifvqb70","pricing_plan_id":"free"},{"bike_id":"421e1931-cfb6-45fd-8254-70a7609c351e","system_id":"levelo_inurba_marseille","lat":43.302992,"lon":5.392136,"is_reserved":false,"is_disabled":false,"rental_uris":{"android":"levelo://app?vid=421e1931-cfb6-45fd-8254-70a7609c351e","ios":"levelo://app?vid=421e1931-cfb6-45fd-8254-70a7609c351e"},"vehicle_type_id":"4","last_reported":1690909571,"current_range_meters":14400,"station_id":"ce4bgkh2rcd13ifvqbk0","pricing_plan_id":"free"},{"bike_id":"0556d984-9c1e-4ff4-95dd-7cae5bb912da","system_id":"levelo_inurba_marseille","lat":43.2936,"lon":5.37835,"is_reserved":false,"is_disabled":false,"rental_uris":{"android":"levelo://app?vid=0556d984-9c1e-4ff4-95dd-7cae5bb912da","ios":"levelo://app?vid=0556d984-9c1e-4ff4-95dd-7cae5bb912da"},"vehicle_type_id":"4","last_reported":1690909571,"current_range_meters":13600,"station_id":"ce4bgjh2rcd13ifvqbf0","pricing_plan_id":"free"},{"bike_id":"82f794d7-30e5-48b3-bc5f-f740f1af9043","system_id":"levelo_inurba_marseille","lat":43.29358,"lon":5.37836,"is_reserved":false,"is_disabled":false,"rental_uris":{"android":"levelo://app?vid=82f794d7-30e5-48b3-bc5f-f740f1af9043","ios":"levelo://app?vid=82f794d7-30e5-48b3-bc5f-f740f1af9043"},"vehicle_type_id":"4","last_reported":1690909571,"current_range_meters":4400,"station_id":"ce4bgjh2rcd13ifvqbf0","pricing_plan_id":"free"},{"bike_id":"9aa302b2-4779-4245-8e3c-681b4a24a90c","system_id":"levelo_inurba_marseille","lat":43.3029,"lon":5.39232,"is_reserved":false,"is_disabled":false,"rental_uris":{"android":"levelo://app?vid=9aa302b2-4779-4245-8e3c-681b4a24a90c","ios":"levelo://app?vid=9aa302b2-4779-4245-8e3c-681b4a24a90c"},"vehicle_type_id":"4","last_reported":1690909571,"current_range_meters":30400,"station_id":"ce4bgkh2rcd13ifvqbk0","pricing_plan_id":"free"},{"bike_id":"38ba2b78-d119-4fab-8812-6cb12ce2809c","system_id":"levelo_inurba_marseille","lat":43.300852,"lon":5.390859,"is_reserved":false,"is_disabled":false,"rental_uris":{"android":"levelo://app?vid=38ba2b78-d119-4fab-8812-6cb12ce2809c","ios":"levelo://app?vid=38ba2b78-d119-4fab-8812-6cb12ce2809c"},"vehicle_type_id":"4","last_reported":1690909571,"current_range_meters":8000,"station_id":"ce4bh192rcd13ifvqdb0","pricing_plan_id":"free"},{"bike_id":"9c726041-d1db-4ec3-b969-afd1b755d1c9","system_id":"levelo_inurba_marseille","lat":43.292628,"lon":5.376205,"is_reserved":false,"is_disabled":false,"rental_uris":{"android":"levelo://app?vid=9c726041-d1db-4ec3-b969-afd1b755d1c9","ios":"levelo://app?vid=9c726041-d1db-4ec3-b969-afd1b755d1c9"},"vehicle_type_id":"4","last_reported":1690909571,"current_range_meters":18800,"station_id":"","pricing_plan_id":"free"},{"bike_id":"6bda5459-ddee-40ba-8ef2-da6684386a3f","system_id":"levelo_inurba_marseille","lat":43.298764,"lon":5.388973,"is_reserved":false,"is_disabled":false,"rental_uris":{"android":"levelo://app?vid=6bda5459-ddee-40ba-8ef2-da6684386a3f","ios":"levelo://app?vid=6bda5459-ddee-40ba-8ef2-da6684386a3f"},"vehicle_type_id":"4","last_reported":1690909571,"current_range_meters":20400,"station_id":"ce4bh392rcd13ifvqdl0","pricing_plan_id":"free"},{"bike_id":"25a9ea83-6149-4799-bf0b-a398f9b5f5b1","system_id":"levelo_inurba_marseille","lat":43.29878,"lon":5.38907,"is_reserved":false,"is_disabled":false,"rental_uris":{"android":"levelo://app?vid=25a9ea83-6149-4799-bf0b-a398f9b5f5b1","ios":"levelo://app?vid=25a9ea83-6149-4799-bf0b-a398f9b5f5b1"},"vehicle_type_id":"4","last_reported":1690909571,"current_range_meters":22800,"station_id":"ce4bh392rcd13ifvqdl0","pricing_plan_id":"free"},{"bike_id":"a1fa3f05-6ba0-49b7-8c2e-066c9274bb4d","system_id":"levelo_inurba_marseille","lat":43.29877,"lon":5.3891,"is_reserved":false,"is_disabled":false,"rental_uris":{"android":"levelo://app?vid=a1fa3f05-6ba0-49b7-8c2e-066c9274bb4d","ios":"levelo://app?vid=a1fa3f05-6ba0-49b7-8c2e-066c9274bb4d"},"vehicle_type_id":"4","last_reported":1690909571,"current_range_meters":16800,"station_id":"ce4bh392rcd13ifvqdl0","pricing_plan_id":"free"},{"bike_id":"b474de70-d451-4d3f-8d3e-9280b63552dc","system_id":"levelo_inurba_marseille","lat":43.291671,"lon":5.371575,"is_reserved":false,"is_disabled":false,"rental_uris":{"android":"levelo://app?vid=b474de70-d451-4d3f-8d3e-9280b63552dc","ios":"levelo://app?vid=b474de70-d451-4d3f-8d3e-9280b63552dc"},"vehicle_type_id":"4","last_reported":1690909571,"current_range_meters":15600,"station_id":"ce4bha92rcd13ifvqeh0","pricing_plan_id":"free"},{"bike_id":"c0a406be-e54c-45a6-baf8-a351f682fbb8","system_id":"levelo_inurba_marseille","lat":43.313291,"lon":5.396838,"is_reserved":false,"is_disabled":false,"rental_uris":{"android":"levelo://app?vid=c0a406be-e54c-45a6-baf8-a351f682fbb8","ios":"levelo://app?vid=c0a406be-e54c-45a6-baf8-a351f682fbb8"},"vehicle_type_id":"4","last_reported":1690909571,"current_range_meters":21200,"station_id":"ce4bgvp2rcd13ifvqcu0","pricing_plan_id":"free"},{"bike_id":"6669d566-0a3e-4a15-86ed-1e99ac0d6152","system_id":"levelo_inurba_marseille","lat":43.309038,"lon":5.396546,"is_reserved":false,"is_disabled":false,"rental_uris":{"android":"levelo://app?vid=6669d566-0a3e-4a15-86ed-1e99ac0d6152","ios":"levelo://app?vid=6669d566-0a3e-4a15-86ed-1e99ac0d6152"},"vehicle_type_id":"4","last_reported":1690909571,"current_range_meters":23600,"station_id":"ce4bh012rcd13ifvqcv0","pricing_plan_id":"free"},{"bike_id":"2a38a41e-9660-4b94-8b40-0e80ac7bdca9","system_id":"levelo_inurba_marseille","lat":43.30887,"lon":5.39649,"is_reserved":false,"is_disabled":false,"rental_uris":{"android":"levelo://app?vid=2a38a41e-9660-4b94-8b40-0e80ac7bdca9","ios":"levelo://app?vid=2a38a41e-9660-4b94-8b40-0e80ac7bdca9"},"vehicle_type_id":"4","last_reported":1690909571,"current_range_meters":21200,"station_id":"ce4bh012rcd13ifvqcv0","pricing_plan_id":"free"},{"bike_id":"b67695da-6e8a-4567-972d-700ac190cc4d","system_id":"levelo_inurba_marseille","lat":43.309038,"lon":5.396546,"is_reserved":false,"is_disabled":false,"rental_uris":{"android":"levelo://app?vid=b67695da-6e8a-4567-972d-700ac190cc4d","ios":"levelo://app?vid=b67695da-6e8a-4567-972d-700ac190cc4d"},"vehicle_type_id":"4","last_reported":1690909571,"current_range_meters":13600,"station_id":"ce4bh012rcd13ifvqcv0","pricing_plan_id":"free"},{"bike_id":"eef930a1-1e82-46a9-ae11-460080245e03","system_id":"levelo_inurba_marseille","lat":43.309038,"lon":5.396546,"is_reserved":false,"is_disabled":false,"rental_uris":{"android":"levelo://app?vid=eef930a1-1e82-46a9-ae11-460080245e03","ios":"levelo://app?vid=eef930a1-1e82-46a9-ae11-460080245e03"},"vehicle_type_id":"4","last_reported":1690909571,"current_range_meters":16000,"station_id":"ce4bh012rcd13ifvqcv0","pricing_plan_id":"free"},{"bike_id":"5297b869-52f2-4949-9dd9-fcf635d34a7f","system_id":"levelo_inurba_marseille","lat":43.30888,"lon":5.39659,"is_reserved":false,"is_disabled":false,"rental_uris":{"android":"levelo://app?vid=5297b869-52f2-4949-9dd9-fcf635d34a7f","ios":"levelo://app?vid=5297b869-52f2-4949-9dd9-fcf635d34a7f"},"vehicle_type_id":"4","last_reported":1690909571,"current_range_meters":15600,"station_id":"ce4bh012rcd13ifvqcv0","pricing_plan_id":"free"},{"bike_id":"abc5278c-bd67-43a3-b229-ad80b136c1c1","system_id":"levelo_inurba_marseille","lat":43.309038,"lon":5.396546,"is_reserved":false,"is_disabled":false,"rental_uris":{"android":"levelo://app?vid=abc5278c-bd67-43a3-b229-ad80b136c1c1","ios":"levelo://app?vid=abc5278c-bd67-43a3-b229-ad80b136c1c1"},"vehicle_type_id":"4","last_reported":1690909571,"current_range_meters":8800,"station_id":"ce4bh012rcd13ifvqcv0","pricing_plan_id":"free"},{"bike_id":"4af7ba83-0ff5-47be-a927-84157214ae26","system_id":"levelo_inurba_marseille","lat":43.3089,"lon":5.39664,"is_reserved":false,"is_disabled":false,"rental_uris":{"android":"levelo://app?vid=4af7ba83-0ff5-47be-a927-84157214ae26","ios":"levelo://app?vid=4af7ba83-0ff5-47be-a927-84157214ae26"},"vehicle_type_id":"4","last_reported":1690909571,"current_range_meters":18800,"station_id":"ce4bh012rcd13ifvqcv0","pricing_plan_id":"free"},{"bike_id":"b0a3c887-26d9-46b9-8f5d-de5acef75e47","system_id":"levelo_inurba_marseille","lat":43.29529,"lon":5.385581,"is_reserved":false,"is_disabled":false,"rental_uris":{"android":"levelo://app?vid=b0a3c887-26d9-46b9-8f5d-de5acef75e47","ios":"levelo://app?vid=b0a3c887-26d9-46b9-8f5d-de5acef75e47"},"vehicle_type_id":"4","last_reported":1690909571,"current_range_meters":0,"station_id":"ce4bgih2rcd13ifvqba0","pricing_plan_id":"free"},{"bike_id":"9d1e43a0-1d95-4663-851c-2d3a1f1c7c77","system_id":"levelo_inurba_marseille","lat":43.309038,"lon":5.396546,"is_reserved":false,"is_disabled":false,"rental_uris":{"android":"levelo://app?vid=9d1e43a0-1d95-4663-851c-2d3a1f1c7c77","ios":"levelo://app?vid=9d1e43a0-1d95-4663-851c-2d3a1f1c7c77"},"vehicle_type_id":"4","last_reported":1690909571,"current_range_meters":6400,"station_id":"ce4bh012rcd13ifvqcv0","pricing_plan_id":"free"},{"bike_id":"80c2fd90-d417-44f2-8cbf-f59b27b285a3","system_id":"levelo_inurba_marseille","lat":43.290784,"lon":5.372014,"is_reserved":false,"is_disabled":false,"rental_uris":{"android":"levelo://app?vid=80c2fd90-d417-44f2-8cbf-f59b27b285a3","ios":"levelo://app?vid=80c2fd90-d417-44f2-8cbf-f59b27b285a3"},"vehicle_type_id":"4","last_reported":1690909571,"current_range_meters":0,"station_id":"ce4bha92rcd13ifvqeh0","pricing_plan_id":"free"},{"bike_id":"dda45832-49e4-4523-b4c4-fdcee89e4afd","system_id":"levelo_inurba_marseille","lat":43.29067,"lon":5.37168,"is_reserved":false,"is_disabled":false,"rental_uris":{"android":"levelo://app?vid=dda45832-49e4-4523-b4c4-fdcee89e4afd","ios":"levelo://app?vid=dda45832-49e4-4523-b4c4-fdcee89e4afd"},"vehicle_type_id":"4","last_reported":1690909571,"current_range_meters":29600,"station_id":"","pricing_plan_id":"free"},{"bike_id":"14dc8184-9f69-47ef-ad59-fc90e63ba08c","system_id":"levelo_inurba_marseille","lat":43.302008,"lon":5.394694,"is_reserved":false,"is_disabled":false,"rental_uris":{"android":"levelo://app?vid=14dc8184-9f69-47ef-ad59-fc90e63ba08c","ios":"levelo://app?vid=14dc8184-9f69-47ef-ad59-fc90e63ba08c"},"vehicle_type_id":"4","last_reported":1690909571,"current_range_meters":31600,"station_id":"ce4bh0p2rcd13ifvqd70","pricing_plan_id":"free"},{"bike_id":"09a7dc54-cdd3-49d9-9ac9-5942409032aa","system_id":"levelo_inurba_marseille","lat":43.29047,"lon":5.35917,"is_reserved":false,"is_disabled":false,"rental_uris":{"android":"levelo://app?vid=09a7dc54-cdd3-49d9-9ac9-5942409032aa","ios":"levelo://app?vid=09a7dc54-cdd3-49d9-9ac9-5942409032aa"},"vehicle_type_id":"4","last_reported":1690909571,"current_range_meters":26400,"station_id":"","pricing_plan_id":"free"},{"bike_id":"8803f8c3-902c-4055-8e2a-a9b71050f174","system_id":"levelo_inurba_marseille","lat":43.301117,"lon":5.398795,"is_reserved":false,"is_disabled":false,"rental_uris":{"android":"levelo://app?vid=8803f8c3-902c-4055-8e2a-a9b71050f174","ios":"levelo://app?vid=8803f8c3-902c-4055-8e2a-a9b71050f174"},"vehicle_type_id":"4","last_reported":1690909571,"current_range_meters":22000,"station_id":"ce4bh0h2rcd13ifvqd40","pricing_plan_id":"free"},{"bike_id":"fafe55d6-48c4-4eca-8d6d-6c8fe7f0ca00","system_id":"levelo_inurba_marseille","lat":43.290631,"lon":5.359244,"is_reserved":false,"is_disabled":false,"rental_uris":{"android":"levelo://app?vid=fafe55d6-48c4-4eca-8d6d-6c8fe7f0ca00","ios":"levelo://app?vid=fafe55d6-48c4-4eca-8d6d-6c8fe7f0ca00"},"vehicle_type_id":"4","last_reported":1690909571,"current_range_meters":19200,"station_id":"ce4bha92rcd13ifvqeg0","pricing_plan_id":"free"},{"bike_id":"bf2a0376-dbcb-4260-bb07-016d870f50b9","system_id":"levelo_inurba_marseille","lat":43.290327,"lon":5.375711,"is_reserved":false,"is_disabled":false,"rental_uris":{"android":"levelo://app?vid=bf2a0376-dbcb-4260-bb07-016d870f50b9","ios":"levelo://app?vid=bf2a0376-dbcb-4260-bb07-016d870f50b9"},"vehicle_type_id":"4","last_reported":1690909571,"current_range_meters":4800,"station_id":"ce4bh692rcd13ifvqe90","pricing_plan_id":"free"},{"bike_id":"573e0afe-5a98-46ad-b48e-a4cc15813603","system_id":"levelo_inurba_marseille","lat":43.289184,"lon":5.366408,"is_reserved":false,"is_disabled":false,"rental_uris":{"android":"levelo://app?vid=573e0afe-5a98-46ad-b48e-a4cc15813603","ios":"levelo://app?vid=573e0afe-5a98-46ad-b48e-a4cc15813603"},"vehicle_type_id":"4","last_reported":1690909571,"current_range_meters":0,"station_id":"ce4bhap2rcd13ifvqek0","pricing_plan_id":"free"},{"bike_id":"3a7dfd69-c9a9-4b89-8c0d-eca564f29405","system_id":"levelo_inurba_marseille","lat":43.289184,"lon":5.366408,"is_reserved":false,"is_disabled":false,"rental_uris":{"android":"levelo://app?vid=3a7dfd69-c9a9-4b89-8c0d-eca564f29405","ios":"levelo://app?vid=3a7dfd69-c9a9-4b89-8c0d-eca564f29405"},"vehicle_type_id":"4","last_reported":1690909571,"current_range_meters":8400,"station_id":"ce4bhap2rcd13ifvqek0","pricing_plan_id":"free"},{"bike_id":"b699269b-d086-49ea-8ee5-eba186baead6","system_id":"levelo_inurba_marseille","lat":43.289468,"lon":5.363719,"is_reserved":false,"is_disabled":false,"rental_uris":{"android":"levelo://app?vid=b699269b-d086-49ea-8ee5-eba186baead6","ios":"levelo://app?vid=b699269b-d086-49ea-8ee5-eba186baead6"},"vehicle_type_id":"4","last_reported":1690909571,"current_range_meters":6800,"station_id":"ce4bhc92rcd13ifvqetg","pricing_plan_id":"free"},{"bike_id":"4e68526a-497d-45bb-8746-ea6036d0012f","system_id":"levelo_inurba_marseille","lat":43.289468,"lon":5.363719,"is_reserved":false,"is_disabled":false,"rental_uris":{"android":"levelo://app?vid=4e68526a-497d-45bb-8746-ea6036d0012f","ios":"levelo://app?vid=4e68526a-497d-45bb-8746-ea6036d0012f"},"vehicle_type_id":"4","last_reported":1690909571,"current_range_meters":16400,"station_id":"ce4bhc92rcd13ifvqetg","pricing_plan_id":"free"},{"bike_id":"7a24ff42-3bf3-4f29-94e9-923fa11a441b","system_id":"levelo_inurba_marseille","lat":43.289184,"lon":5.366408,"is_reserved":false,"is_disabled":false,"rental_uris":{"android":"levelo://app?vid=7a24ff42-3bf3-4f29-94e9-923fa11a441b","ios":"levelo://app?vid=7a24ff42-3bf3-4f29-94e9-923fa11a441b"},"vehicle_type_id":"4","last_reported":1690909571,"current_range_meters":8000,"station_id":"ce4bhap2rcd13ifvqek0","pricing_plan_id":"free"},{"bike_id":"54d5945e-4a85-4e2d-b82e-64ccb9dd8710","system_id":"levelo_inurba_marseille","lat":43.289468,"lon":5.363719,"is_reserved":false,"is_disabled":false,"rental_uris":{"android":"levelo://app?vid=54d5945e-4a85-4e2d-b82e-64ccb9dd8710","ios":"levelo://app?vid=54d5945e-4a85-4e2d-b82e-64ccb9dd8710"},"vehicle_type_id":"4","last_reported":1690909571,"current_range_meters":13600,"station_id":"ce4bhc92rcd13ifvqetg","pricing_plan_id":"free"},{"bike_id":"d74238ee-fde4-4684-901a-adad00e313ed","system_id":"levelo_inurba_marseille","lat":43.304274,"lon":5.397513,"is_reserved":false,"is_disabled":false,"rental_uris":{"android":"levelo://app?vid=d74238ee-fde4-4684-901a-adad00e313ed","ios":"levelo://app?vid=d74238ee-fde4-4684-901a-adad00e313ed"},"vehicle_type_id":"4","last_reported":1690909571,"current_range_meters":24400,"station_id":"ce4bh092rcd13ifvqd20","pricing_plan_id":"free"},{"bike_id":"60f1c589-9c4d-4958-a545-3b5634137e71","system_id":"levelo_inurba_marseille","lat":43.292644,"lon":5.384257,"is_reserved":false,"is_disabled":false,"rental_uris":{"android":"levelo://app?vid=60f1c589-9c4d-4958-a545-3b5634137e71","ios":"levelo://app?vid=60f1c589-9c4d-4958-a545-3b5634137e71"},"vehicle_type_id":"4","last_reported":1690909571,"current_range_meters":4800,"station_id":"ce4bh692rcd13ifvqea0","pricing_plan_id":"free"},{"bike_id":"cd3ffb07-0257-4dad-b4c0-1fca3bfa685c","system_id":"levelo_inurba_marseille","lat":43.292644,"lon":5.384257,"is_reserved":false,"is_disabled":false,"rental_uris":{"android":"levelo://app?vid=cd3ffb07-0257-4dad-b4c0-1fca3bfa685c","ios":"levelo://app?vid=cd3ffb07-0257-4dad-b4c0-1fca3bfa685c"},"vehicle_type_id":"4","last_reported":1690909571,"current_range_meters":18800,"station_id":"ce4bh692rcd13ifvqea0","pricing_plan_id":"free"},{"bike_id":"1f6d3bd8-0bdd-4b90-8874-53ac06f48f2a","system_id":"levelo_inurba_marseille","lat":43.29353,"lon":5.38639,"is_reserved":false,"is_disabled":false,"rental_uris":{"android":"levelo://app?vid=1f6d3bd8-0bdd-4b90-8874-53ac06f48f2a","ios":"levelo://app?vid=1f6d3bd8-0bdd-4b90-8874-53ac06f48f2a"},"vehicle_type_id":"4","last_reported":1690909571,"current_range_meters":26800,"station_id":"ce4bh2h2rcd13ifvqdh0","pricing_plan_id":"free"},{"bike_id":"5c20a511-c1f5-40dc-852d-dd844f7f1b6f","system_id":"levelo_inurba_marseille","lat":43.304296,"lon":5.397513,"is_reserved":false,"is_disabled":false,"rental_uris":{"android":"levelo://app?vid=5c20a511-c1f5-40dc-852d-dd844f7f1b6f","ios":"levelo://app?vid=5c20a511-c1f5-40dc-852d-dd844f7f1b6f"},"vehicle_type_id":"4","last_reported":1690909571,"current_range_meters":22800,"station_id":"ce4bh092rcd13ifvqd20","pricing_plan_id":"free"},{"bike_id":"c83a98ad-d0bd-4cab-bb59-95712777ead4","system_id":"levelo_inurba_marseille","lat":43.292644,"lon":5.384257,"is_reserved":false,"is_disabled":false,"rental_uris":{"android":"levelo://app?vid=c83a98ad-d0bd-4cab-bb59-95712777ead4","ios":"levelo://app?vid=c83a98ad-d0bd-4cab-bb59-95712777ead4"},"vehicle_type_id":"4","last_reported":1690909571,"current_range_meters":2000,"station_id":"ce4bh692rcd13ifvqea0","pricing_plan_id":"free"},{"bike_id":"7e9e30f3-8cf4-4f96-8b3e-187462e2da83","system_id":"levelo_inurba_marseille","lat":43.33044,"lon":5.38915,"is_reserved":false,"is_disabled":false,"rental_uris":{"android":"levelo://app?vid=7e9e30f3-8cf4-4f96-8b3e-187462e2da83","ios":"levelo://app?vid=7e9e30f3-8cf4-4f96-8b3e-187462e2da83"},"vehicle_type_id":"4","last_reported":1690909571,"current_range_meters":20800,"station_id":"ce4bhr92rcd13ifvqhrg","pricing_plan_id":"free"},{"bike_id":"ae5f1060-29e6-4da9-83c1-6dc91bfed667","system_id":"levelo_inurba_marseille","lat":43.290104,"lon":5.356111,"is_reserved":false,"is_disabled":false,"rental_uris":{"android":"levelo://app?vid=ae5f1060-29e6-4da9-83c1-6dc91bfed667","ios":"levelo://app?vid=ae5f1060-29e6-4da9-83c1-6dc91bfed667"},"vehicle_type_id":"4","last_reported":1690909571,"current_range_meters":26800,"station_id":"ce4bhb92rcd13ifvqen0","pricing_plan_id":"free"},{"bike_id":"84b636cc-7917-49c4-a57d-f732ffbd2adb","system_id":"levelo_inurba_marseille","lat":43.290104,"lon":5.356111,"is_reserved":false,"is_disabled":false,"rental_uris":{"android":"levelo://app?vid=84b636cc-7917-49c4-a57d-f732ffbd2adb","ios":"levelo://app?vid=84b636cc-7917-49c4-a57d-f732ffbd2adb"},"vehicle_type_id":"4","last_reported":1690909571,"current_range_meters":5200,"station_id":"ce4bhb92rcd13ifvqen0","pricing_plan_id":"free"},{"bike_id":"3476d34c-a56d-4dbe-85af-f9393d49eea7","system_id":"levelo_inurba_marseille","lat":43.290104,"lon":5.356111,"is_reserved":false,"is_disabled":false,"rental_uris":{"android":"levelo://app?vid=3476d34c-a56d-4dbe-85af-f9393d49eea7","ios":"levelo://app?vid=3476d34c-a56d-4dbe-85af-f9393d49eea7"},"vehicle_type_id":"4","last_reported":1690909571,"current_range_meters":13200,"station_id":"ce4bhb92rcd13ifvqen0","pricing_plan_id":"free"},{"bike_id":"87dd6e7e-f270-459f-83fe-61a4dfa4ffb1","system_id":"levelo_inurba_marseille","lat":43.33046,"lon":5.3892,"is_reserved":false,"is_disabled":false,"rental_uris":{"android":"levelo://app?vid=87dd6e7e-f270-459f-83fe-61a4dfa4ffb1","ios":"levelo://app?vid=87dd6e7e-f270-459f-83fe-61a4dfa4ffb1"},"vehicle_type_id":"4","last_reported":1690909571,"current_range_meters":2000,"station_id":"ce4bhr92rcd13ifvqhrg","pricing_plan_id":"free"},{"bike_id":"8e136a37-0bc7-43f3-8807-1cabd7090fd0","system_id":"levelo_inurba_marseille","lat":43.290103,"lon":5.356114,"is_reserved":false,"is_disabled":false,"rental_uris":{"android":"levelo://app?vid=8e136a37-0bc7-43f3-8807-1cabd7090fd0","ios":"levelo://app?vid=8e136a37-0bc7-43f3-8807-1cabd7090fd0"},"vehicle_type_id":"4","last_reported":1690909571,"current_range_meters":12800,"station_id":"ce4bhb92rcd13ifvqen0","pricing_plan_id":"free"},{"bike_id":"19518c9f-1397-4a8b-98ec-989be956cb67","system_id":"levelo_inurba_marseille","lat":43.29007,"lon":5.35604,"is_reserved":false,"is_disabled":false,"rental_uris":{"android":"levelo://app?vid=19518c9f-1397-4a8b-98ec-989be956cb67","ios":"levelo://app?vid=19518c9f-1397-4a8b-98ec-989be956cb67"},"vehicle_type_id":"4","last_reported":1690909571,"current_range_meters":1600,"station_id":"ce4bhb92rcd13ifvqen0","pricing_plan_id":"free"},{"bike_id":"b03e29dc-6827-4565-9f1b-6b73d8c4d3ca","system_id":"levelo_inurba_marseille","lat":43.330475,"lon":5.389186,"is_reserved":false,"is_disabled":false,"rental_uris":{"android":"levelo://app?vid=b03e29dc-6827-4565-9f1b-6b73d8c4d3ca","ios":"levelo://app?vid=b03e29dc-6827-4565-9f1b-6b73d8c4d3ca"},"vehicle_type_id":"4","last_reported":1690909571,"current_range_meters":24800,"station_id":"ce4bhr92rcd13ifvqhrg","pricing_plan_id":"free"},{"bike_id":"134ef223-0af9-48f2-bbd1-4d84dd8cb35c","system_id":"levelo_inurba_marseille","lat":43.29002,"lon":5.35608,"is_reserved":false,"is_disabled":false,"rental_uris":{"android":"levelo://app?vid=134ef223-0af9-48f2-bbd1-4d84dd8cb35c","ios":"levelo://app?vid=134ef223-0af9-48f2-bbd1-4d84dd8cb35c"},"vehicle_type_id":"4","last_reported":1690909571,"current_range_meters":31200,"station_id":"ce4bhb92rcd13ifvqen0","pricing_plan_id":"free"},{"bike_id":"05bf2cc0-c80b-4d3b-9303-5cea93148e89","system_id":"levelo_inurba_marseille","lat":43.290995,"lon":5.381361,"is_reserved":false,"is_disabled":false,"rental_uris":{"android":"levelo://app?vid=05bf2cc0-c80b-4d3b-9303-5cea93148e89","ios":"levelo://app?vid=05bf2cc0-c80b-4d3b-9303-5cea93148e89"},"vehicle_type_id":"4","last_reported":1690909571,"current_range_meters":31200,"station_id":"ce4bh512rcd13ifvqe2g","pricing_plan_id":"free"},{"bike_id":"95e4444b-8df9-4f41-9b6c-24be44a7f6dc","system_id":"levelo_inurba_marseille","lat":43.297815,"lon":5.393548,"is_reserved":false,"is_disabled":false,"rental_uris":{"android":"levelo://app?vid=95e4444b-8df9-4f41-9b6c-24be44a7f6dc","ios":"levelo://app?vid=95e4444b-8df9-4f41-9b6c-24be44a7f6dc"},"vehicle_type_id":"4","last_reported":1690909571,"current_range_meters":18400,"station_id":"chh1huq6cuj3fo74tm60","pricing_plan_id":"free"},{"bike_id":"21cd2994-cbed-4096-a54b-f6013c11cc8f","system_id":"levelo_inurba_marseille","lat":43.295169,"lon":5.390426,"is_reserved":false,"is_disabled":false,"rental_uris":{"android":"levelo://app?vid=21cd2994-cbed-4096-a54b-f6013c11cc8f","ios":"levelo://app?vid=21cd2994-cbed-4096-a54b-f6013c11cc8f"},"vehicle_type_id":"4","last_reported":1690909571,"current_range_meters":400,"station_id":"ce4bh3p2rcd13ifvqdp0","pricing_plan_id":"free"},{"bike_id":"290493f1-c263-4a20-ae78-bcb0f78c46f1","system_id":"levelo_inurba_marseille","lat":43.28909,"lon":5.35809,"is_reserved":false,"is_disabled":false,"rental_uris":{"android":"levelo://app?vid=290493f1-c263-4a20-ae78-bcb0f78c46f1","ios":"levelo://app?vid=290493f1-c263-4a20-ae78-bcb0f78c46f1"},"vehicle_type_id":"4","last_reported":1690909571,"current_range_meters":10000,"station_id":"","pricing_plan_id":"free"},{"bike_id":"d25b6d3b-0cf9-4e07-aa97-9886ee7966c8","system_id":"levelo_inurba_marseille","lat":43.295169,"lon":5.390426,"is_reserved":false,"is_disabled":false,"rental_uris":{"android":"levelo://app?vid=d25b6d3b-0cf9-4e07-aa97-9886ee7966c8","ios":"levelo://app?vid=d25b6d3b-0cf9-4e07-aa97-9886ee7966c8"},"vehicle_type_id":"4","last_reported":1690909571,"current_range_meters":19200,"station_id":"ce4bh3p2rcd13ifvqdp0","pricing_plan_id":"free"},{"bike_id":"204b5530-ae9a-4930-9197-bc4d8da66940","system_id":"levelo_inurba_marseille","lat":43.317075,"lon":5.377367,"is_reserved":false,"is_disabled":false,"rental_uris":{"android":"levelo://app?vid=204b5530-ae9a-4930-9197-bc4d8da66940","ios":"levelo://app?vid=204b5530-ae9a-4930-9197-bc4d8da66940"},"vehicle_type_id":"4","last_reported":1690909571,"current_range_meters":22000,"station_id":"ce4bgth2rcd13ifvqch0","pricing_plan_id":"free"},{"bike_id":"1d4c83ce-be46-422f-b89e-8de5f9c3bb26","system_id":"levelo_inurba_marseille","lat":43.28856,"lon":5.358371,"is_reserved":false,"is_disabled":false,"rental_uris":{"android":"levelo://app?vid=1d4c83ce-be46-422f-b89e-8de5f9c3bb26","ios":"levelo://app?vid=1d4c83ce-be46-422f-b89e-8de5f9c3bb26"},"vehicle_type_id":"4","last_reported":1690909571,"current_range_meters":31200,"station_id":"ce4bhb12rcd13ifvqem0","pricing_plan_id":"free"},{"bike_id":"59c6967b-44f0-44e4-afa2-e3214e981cd5","system_id":"levelo_inurba_marseille","lat":43.28856,"lon":5.358371,"is_reserved":false,"is_disabled":false,"rental_uris":{"android":"levelo://app?vid=59c6967b-44f0-44e4-afa2-e3214e981cd5","ios":"levelo://app?vid=59c6967b-44f0-44e4-afa2-e3214e981cd5"},"vehicle_type_id":"4","last_reported":1690909571,"current_range_meters":31200,"station_id":"ce4bhb12rcd13ifvqem0","pricing_plan_id":"free"},{"bike_id":"a9aa8a9d-2231-4be8-9853-7d3ebf137c74","system_id":"levelo_inurba_marseille","lat":43.28856,"lon":5.358371,"is_reserved":false,"is_disabled":false,"rental_uris":{"android":"levelo://app?vid=a9aa8a9d-2231-4be8-9853-7d3ebf137c74","ios":"levelo://app?vid=a9aa8a9d-2231-4be8-9853-7d3ebf137c74"},"vehicle_type_id":"4","last_reported":1690909571,"current_range_meters":30800,"station_id":"ce4bhb12rcd13ifvqem0","pricing_plan_id":"free"},{"bike_id":"d3ee1ecc-69f8-4991-a10e-d90233cc36c4","system_id":"levelo_inurba_marseille","lat":43.28856,"lon":5.358371,"is_reserved":false,"is_disabled":false,"rental_uris":{"android":"levelo://app?vid=d3ee1ecc-69f8-4991-a10e-d90233cc36c4","ios":"levelo://app?vid=d3ee1ecc-69f8-4991-a10e-d90233cc36c4"},"vehicle_type_id":"4","last_reported":1690909571,"current_range_meters":4400,"station_id":"ce4bhb12rcd13ifvqem0","pricing_plan_id":"free"},{"bike_id":"291bbebc-29da-4262-b6ec-78cbe3f4eb7e","system_id":"levelo_inurba_marseille","lat":43.31261,"lon":5.40157,"is_reserved":false,"is_disabled":false,"rental_uris":{"android":"levelo://app?vid=291bbebc-29da-4262-b6ec-78cbe3f4eb7e","ios":"levelo://app?vid=291bbebc-29da-4262-b6ec-78cbe3f4eb7e"},"vehicle_type_id":"4","last_reported":1690909571,"current_range_meters":26800,"station_id":"ce4bh092rcd13ifvqd30","pricing_plan_id":"free"},{"bike_id":"bf3aeb8d-13a0-46ce-b636-c9cc42c4d9a1","system_id":"levelo_inurba_marseille","lat":43.31268,"lon":5.40173,"is_reserved":false,"is_disabled":false,"rental_uris":{"android":"levelo://app?vid=bf3aeb8d-13a0-46ce-b636-c9cc42c4d9a1","ios":"levelo://app?vid=bf3aeb8d-13a0-46ce-b636-c9cc42c4d9a1"},"vehicle_type_id":"4","last_reported":1690909571,"current_range_meters":12000,"station_id":"ce4bh092rcd13ifvqd30","pricing_plan_id":"free"},{"bike_id":"17cfb3e2-8093-40cd-8ae2-3bb0412fd281","system_id":"levelo_inurba_marseille","lat":43.309371,"lon":5.401449,"is_reserved":false,"is_disabled":false,"rental_uris":{"android":"levelo://app?vid=17cfb3e2-8093-40cd-8ae2-3bb0412fd281","ios":"levelo://app?vid=17cfb3e2-8093-40cd-8ae2-3bb0412fd281"},"vehicle_type_id":"4","last_reported":1690909571,"current_range_meters":19600,"station_id":"ce4bgvp2rcd13ifvqct0","pricing_plan_id":"free"},{"bike_id":"b3bc7ecc-1aba-4c90-a9ff-9963f10a726f","system_id":"levelo_inurba_marseille","lat":43.312609,"lon":5.401662,"is_reserved":false,"is_disabled":false,"rental_uris":{"android":"levelo://app?vid=b3bc7ecc-1aba-4c90-a9ff-9963f10a726f","ios":"levelo://app?vid=b3bc7ecc-1aba-4c90-a9ff-9963f10a726f"},"vehicle_type_id":"4","last_reported":1690909571,"current_range_meters":25600,"station_id":"ce4bh092rcd13ifvqd30","pricing_plan_id":"free"},{"bike_id":"b32c6926-97c8-46aa-8bc1-8f13244e8bf6","system_id":"levelo_inurba_marseille","lat":43.30934,"lon":5.40145,"is_reserved":false,"is_disabled":false,"rental_uris":{"android":"levelo://app?vid=b32c6926-97c8-46aa-8bc1-8f13244e8bf6","ios":"levelo://app?vid=b32c6926-97c8-46aa-8bc1-8f13244e8bf6"},"vehicle_type_id":"4","last_reported":1690909571,"current_range_meters":20800,"station_id":"ce4bgvp2rcd13ifvqct0","pricing_plan_id":"free"},{"bike_id":"ed337619-295f-4af7-bfe9-16d374a3c34e","system_id":"levelo_inurba_marseille","lat":43.309371,"lon":5.401449,"is_reserved":false,"is_disabled":false,"rental_uris":{"android":"levelo://app?vid=ed337619-295f-4af7-bfe9-16d374a3c34e","ios":"levelo://app?vid=ed337619-295f-4af7-bfe9-16d374a3c34e"},"vehicle_type_id":"4","last_reported":1690909571,"current_range_meters":16800,"station_id":"ce4bgvp2rcd13ifvqct0","pricing_plan_id":"free"},{"bike_id":"331b24d4-c37d-440a-870f-d3db7f1ae9b3","system_id":"levelo_inurba_marseille","lat":43.308828,"lon":5.401391,"is_reserved":false,"is_disabled":false,"rental_uris":{"android":"levelo://app?vid=331b24d4-c37d-440a-870f-d3db7f1ae9b3","ios":"levelo://app?vid=331b24d4-c37d-440a-870f-d3db7f1ae9b3"},"vehicle_type_id":"4","last_reported":1690909571,"current_range_meters":21200,"station_id":"ce4bgvp2rcd13ifvqct0","pricing_plan_id":"free"},{"bike_id":"eee8411b-317d-41a1-a552-ac650c20b0cd","system_id":"levelo_inurba_marseille","lat":43.30929,"lon":5.40149,"is_reserved":false,"is_disabled":false,"rental_uris":{"android":"levelo://app?vid=eee8411b-317d-41a1-a552-ac650c20b0cd","ios":"levelo://app?vid=eee8411b-317d-41a1-a552-ac650c20b0cd"},"vehicle_type_id":"4","last_reported":1690909571,"current_range_meters":18800,"station_id":"ce4bgvp2rcd13ifvqct0","pricing_plan_id":"free"},{"bike_id":"85a865c9-44fd-491d-b3c8-4d377bdecdff","system_id":"levelo_inurba_marseille","lat":43.301117,"lon":5.398795,"is_reserved":false,"is_disabled":false,"rental_uris":{"android":"levelo://app?vid=85a865c9-44fd-491d-b3c8-4d377bdecdff","ios":"levelo://app?vid=85a865c9-44fd-491d-b3c8-4d377bdecdff"},"vehicle_type_id":"4","last_reported":1690909571,"current_range_meters":12000,"station_id":"ce4bh0h2rcd13ifvqd40","pricing_plan_id":"free"},{"bike_id":"c7fc5acf-96fc-4cd5-a5f7-e6309bbc37eb","system_id":"levelo_inurba_marseille","lat":43.301117,"lon":5.398795,"is_reserved":false,"is_disabled":false,"rental_uris":{"android":"levelo://app?vid=c7fc5acf-96fc-4cd5-a5f7-e6309bbc37eb","ios":"levelo://app?vid=c7fc5acf-96fc-4cd5-a5f7-e6309bbc37eb"},"vehicle_type_id":"4","last_reported":1690909571,"current_range_meters":19600,"station_id":"ce4bh0h2rcd13ifvqd40","pricing_plan_id":"free"},{"bike_id":"8fe2f7d1-4e4a-4f90-8872-c161c5d06247","system_id":"levelo_inurba_marseille","lat":43.30127,"lon":5.39858,"is_reserved":false,"is_disabled":false,"rental_uris":{"android":"levelo://app?vid=8fe2f7d1-4e4a-4f90-8872-c161c5d06247","ios":"levelo://app?vid=8fe2f7d1-4e4a-4f90-8872-c161c5d06247"},"vehicle_type_id":"4","last_reported":1690909571,"current_range_meters":12400,"station_id":"","pricing_plan_id":"free"},{"bike_id":"92278350-6189-4203-84eb-d12d41f3383d","system_id":"levelo_inurba_marseille","lat":43.298681,"lon":5.397225,"is_reserved":false,"is_disabled":false,"rental_uris":{"android":"levelo://app?vid=92278350-6189-4203-84eb-d12d41f3383d","ios":"levelo://app?vid=92278350-6189-4203-84eb-d12d41f3383d"},"vehicle_type_id":"4","last_reported":1690909571,"current_range_meters":14400,"station_id":"ce4bh0h2rcd13ifvqd50","pricing_plan_id":"free"},{"bike_id":"91d5c5cf-bf1b-4b50-ab2e-9ba6abeda511","system_id":"levelo_inurba_marseille","lat":43.298681,"lon":5.397225,"is_reserved":false,"is_disabled":false,"rental_uris":{"android":"levelo://app?vid=91d5c5cf-bf1b-4b50-ab2e-9ba6abeda511","ios":"levelo://app?vid=91d5c5cf-bf1b-4b50-ab2e-9ba6abeda511"},"vehicle_type_id":"4","last_reported":1690909571,"current_range_meters":15200,"station_id":"ce4bh0h2rcd13ifvqd50","pricing_plan_id":"free"},{"bike_id":"c3908571-6e6b-4722-a28f-8ba8426562bc","system_id":"levelo_inurba_marseille","lat":43.298681,"lon":5.397225,"is_reserved":false,"is_disabled":false,"rental_uris":{"android":"levelo://app?vid=c3908571-6e6b-4722-a28f-8ba8426562bc","ios":"levelo://app?vid=c3908571-6e6b-4722-a28f-8ba8426562bc"},"vehicle_type_id":"4","last_reported":1690909571,"current_range_meters":20800,"station_id":"ce4bh0h2rcd13ifvqd50","pricing_plan_id":"free"},{"bike_id":"2d41a518-8968-45e0-85fb-ea6309c5f40a","system_id":"levelo_inurba_marseille","lat":43.298681,"lon":5.397225,"is_reserved":false,"is_disabled":false,"rental_uris":{"android":"levelo://app?vid=2d41a518-8968-45e0-85fb-ea6309c5f40a","ios":"levelo://app?vid=2d41a518-8968-45e0-85fb-ea6309c5f40a"},"vehicle_type_id":"4","last_reported":1690909571,"current_range_meters":14800,"station_id":"ce4bh0h2rcd13ifvqd50","pricing_plan_id":"free"},{"bike_id":"ead94ad0-b992-45a5-9f81-4df06047fe4a","system_id":"levelo_inurba_marseille","lat":43.295196,"lon":5.39397,"is_reserved":false,"is_disabled":false,"rental_uris":{"android":"levelo://app?vid=ead94ad0-b992-45a5-9f81-4df06047fe4a","ios":"levelo://app?vid=ead94ad0-b992-45a5-9f81-4df06047fe4a"},"vehicle_type_id":"4","last_reported":1690909571,"current_range_meters":24400,"station_id":"ce4bh292rcd13ifvqdf0","pricing_plan_id":"free"},{"bike_id":"f94764e5-81a1-4d58-825c-f8fac11f9f35","system_id":"levelo_inurba_marseille","lat":43.298681,"lon":5.397225,"is_reserved":false,"is_disabled":false,"rental_uris":{"android":"levelo://app?vid=f94764e5-81a1-4d58-825c-f8fac11f9f35","ios":"levelo://app?vid=f94764e5-81a1-4d58-825c-f8fac11f9f35"},"vehicle_type_id":"4","last_reported":1690909571,"current_range_meters":10400,"station_id":"ce4bh0h2rcd13ifvqd50","pricing_plan_id":"free"},{"bike_id":"75199276-b705-4ad7-b6a9-49aeaa84628a","system_id":"levelo_inurba_marseille","lat":43.286593,"lon":5.363346,"is_reserved":false,"is_disabled":false,"rental_uris":{"android":"levelo://app?vid=75199276-b705-4ad7-b6a9-49aeaa84628a","ios":"levelo://app?vid=75199276-b705-4ad7-b6a9-49aeaa84628a"},"vehicle_type_id":"4","last_reported":1690909571,"current_range_meters":31200,"station_id":"ce4bhah2rcd13ifvqej0","pricing_plan_id":"free"},{"bike_id":"ed90f117-8f38-4c78-ac4f-aa5cb384f4f3","system_id":"levelo_inurba_marseille","lat":43.29529,"lon":5.39397,"is_reserved":false,"is_disabled":false,"rental_uris":{"android":"levelo://app?vid=ed90f117-8f38-4c78-ac4f-aa5cb384f4f3","ios":"levelo://app?vid=ed90f117-8f38-4c78-ac4f-aa5cb384f4f3"},"vehicle_type_id":"4","last_reported":1690909571,"current_range_meters":18800,"station_id":"ce4bh292rcd13ifvqdf0","pricing_plan_id":"free"},{"bike_id":"4dd60052-0b8b-44ef-ac59-8260a4e1634e","system_id":"levelo_inurba_marseille","lat":43.295196,"lon":5.39397,"is_reserved":false,"is_disabled":false,"rental_uris":{"android":"levelo://app?vid=4dd60052-0b8b-44ef-ac59-8260a4e1634e","ios":"levelo://app?vid=4dd60052-0b8b-44ef-ac59-8260a4e1634e"},"vehicle_type_id":"4","last_reported":1690909571,"current_range_meters":22000,"station_id":"ce4bh292rcd13ifvqdf0","pricing_plan_id":"free"},{"bike_id":"2b07c821-08fa-484e-b690-23ca31bd6b61","system_id":"levelo_inurba_marseille","lat":43.295196,"lon":5.39397,"is_reserved":false,"is_disabled":false,"rental_uris":{"android":"levelo://app?vid=2b07c821-08fa-484e-b690-23ca31bd6b61","ios":"levelo://app?vid=2b07c821-08fa-484e-b690-23ca31bd6b61"},"vehicle_type_id":"4","last_reported":1690909571,"current_range_meters":800,"station_id":"ce4bh292rcd13ifvqdf0","pricing_plan_id":"free"},{"bike_id":"a14bc6e5-5374-47c6-9cbd-ed21c00ed08d","system_id":"levelo_inurba_marseille","lat":43.295196,"lon":5.39397,"is_reserved":false,"is_disabled":false,"rental_uris":{"android":"levelo://app?vid=a14bc6e5-5374-47c6-9cbd-ed21c00ed08d","ios":"levelo://app?vid=a14bc6e5-5374-47c6-9cbd-ed21c00ed08d"},"vehicle_type_id":"4","last_reported":1690909571,"current_range_meters":31200,"station_id":"ce4bh292rcd13ifvqdf0","pricing_plan_id":"free"},{"bike_id":"cffbb441-16da-4dc6-8df1-357156fcc51b","system_id":"levelo_inurba_marseille","lat":43.295196,"lon":5.39397,"is_reserved":false,"is_disabled":false,"rental_uris":{"android":"levelo://app?vid=cffbb441-16da-4dc6-8df1-357156fcc51b","ios":"levelo://app?vid=cffbb441-16da-4dc6-8df1-357156fcc51b"},"vehicle_type_id":"4","last_reported":1690909571,"current_range_meters":10400,"station_id":"ce4bh292rcd13ifvqdf0","pricing_plan_id":"free"},{"bike_id":"14737212-8d99-484e-9f14-59f22a3be48a","system_id":"levelo_inurba_marseille","lat":43.295196,"lon":5.39397,"is_reserved":false,"is_disabled":false,"rental_uris":{"android":"levelo://app?vid=14737212-8d99-484e-9f14-59f22a3be48a","ios":"levelo://app?vid=14737212-8d99-484e-9f14-59f22a3be48a"},"vehicle_type_id":"4","last_reported":1690909571,"current_range_meters":30400,"station_id":"ce4bh292rcd13ifvqdf0","pricing_plan_id":"free"},{"bike_id":"abb92c88-8928-4c09-98a7-b7c64223c3bc","system_id":"levelo_inurba_marseille","lat":43.295196,"lon":5.39397,"is_reserved":false,"is_disabled":false,"rental_uris":{"android":"levelo://app?vid=abb92c88-8928-4c09-98a7-b7c64223c3bc","ios":"levelo://app?vid=abb92c88-8928-4c09-98a7-b7c64223c3bc"},"vehicle_type_id":"4","last_reported":1690909571,"current_range_meters":21200,"station_id":"ce4bh292rcd13ifvqdf0","pricing_plan_id":"free"},{"bike_id":"f5f1a0f3-d38e-4eea-9502-afe3c7085c22","system_id":"levelo_inurba_marseille","lat":43.295196,"lon":5.39397,"is_reserved":false,"is_disabled":false,"rental_uris":{"android":"levelo://app?vid=f5f1a0f3-d38e-4eea-9502-afe3c7085c22","ios":"levelo://app?vid=f5f1a0f3-d38e-4eea-9502-afe3c7085c22"},"vehicle_type_id":"4","last_reported":1690909571,"current_range_meters":26000,"station_id":"ce4bh292rcd13ifvqdf0","pricing_plan_id":"free"},{"bike_id":"15223101-3c9c-4a94-8f4d-ffa476b00db2","system_id":"levelo_inurba_marseille","lat":43.29516,"lon":5.39405,"is_reserved":false,"is_disabled":false,"rental_uris":{"android":"levelo://app?vid=15223101-3c9c-4a94-8f4d-ffa476b00db2","ios":"levelo://app?vid=15223101-3c9c-4a94-8f4d-ffa476b00db2"},"vehicle_type_id":"4","last_reported":1690909571,"current_range_meters":4800,"station_id":"ce4bh292rcd13ifvqdf0","pricing_plan_id":"free"},{"bike_id":"7902483b-eb0b-41f7-b8cd-47adcf9e5bb4","system_id":"levelo_inurba_marseille","lat":43.29513,"lon":5.39402,"is_reserved":false,"is_disabled":false,"rental_uris":{"android":"levelo://app?vid=7902483b-eb0b-41f7-b8cd-47adcf9e5bb4","ios":"levelo://app?vid=7902483b-eb0b-41f7-b8cd-47adcf9e5bb4"},"vehicle_type_id":"4","last_reported":1690909571,"current_range_meters":0,"station_id":"ce4bh292rcd13ifvqdf0","pricing_plan_id":"free"},{"bike_id":"66fc299d-efd6-4e54-a19c-1488d5ecf2cd","system_id":"levelo_inurba_marseille","lat":43.290345,"lon":5.38646,"is_reserved":false,"is_disabled":false,"rental_uris":{"android":"levelo://app?vid=66fc299d-efd6-4e54-a19c-1488d5ecf2cd","ios":"levelo://app?vid=66fc299d-efd6-4e54-a19c-1488d5ecf2cd"},"vehicle_type_id":"4","last_reported":1690909571,"current_range_meters":24000,"station_id":"ce4bh4p2rcd13ifvqe0g","pricing_plan_id":"free"},{"bike_id":"4f7d40ba-dbfb-4614-851a-f2ab49fd7529","system_id":"levelo_inurba_marseille","lat":43.290345,"lon":5.38646,"is_reserved":false,"is_disabled":false,"rental_uris":{"android":"levelo://app?vid=4f7d40ba-dbfb-4614-851a-f2ab49fd7529","ios":"levelo://app?vid=4f7d40ba-dbfb-4614-851a-f2ab49fd7529"},"vehicle_type_id":"4","last_reported":1690909571,"current_range_meters":6000,"station_id":"ce4bh4p2rcd13ifvqe0g","pricing_plan_id":"free"},{"bike_id":"6069f1b0-fbb0-4cbb-bdc9-b1b82c709b5d","system_id":"levelo_inurba_marseille","lat":43.290336,"lon":5.386425,"is_reserved":false,"is_disabled":false,"rental_uris":{"android":"levelo://app?vid=6069f1b0-fbb0-4cbb-bdc9-b1b82c709b5d","ios":"levelo://app?vid=6069f1b0-fbb0-4cbb-bdc9-b1b82c709b5d"},"vehicle_type_id":"4","last_reported":1690909571,"current_range_meters":20800,"station_id":"ce4bh4p2rcd13ifvqe0g","pricing_plan_id":"free"},{"bike_id":"d182de45-cca4-46d9-885e-fb86b11c63f3","system_id":"levelo_inurba_marseille","lat":43.302759,"lon":5.400793,"is_reserved":false,"is_disabled":false,"rental_uris":{"android":"levelo://app?vid=d182de45-cca4-46d9-885e-fb86b11c63f3","ios":"levelo://app?vid=d182de45-cca4-46d9-885e-fb86b11c63f3"},"vehicle_type_id":"4","last_reported":1690909571,"current_range_meters":0,"station_id":"ce4bgvh2rcd13ifvqcs0","pricing_plan_id":"free"},{"bike_id":"c1309bf7-5313-4903-8471-e0b227b97281","system_id":"levelo_inurba_marseille","lat":43.290336,"lon":5.386425,"is_reserved":false,"is_disabled":false,"rental_uris":{"android":"levelo://app?vid=c1309bf7-5313-4903-8471-e0b227b97281","ios":"levelo://app?vid=c1309bf7-5313-4903-8471-e0b227b97281"},"vehicle_type_id":"4","last_reported":1690909571,"current_range_meters":7200,"station_id":"ce4bh4p2rcd13ifvqe0g","pricing_plan_id":"free"},{"bike_id":"44b6c006-7332-4fc8-bacd-82aad03867fa","system_id":"levelo_inurba_marseille","lat":43.302759,"lon":5.400793,"is_reserved":false,"is_disabled":false,"rental_uris":{"android":"levelo://app?vid=44b6c006-7332-4fc8-bacd-82aad03867fa","ios":"levelo://app?vid=44b6c006-7332-4fc8-bacd-82aad03867fa"},"vehicle_type_id":"4","last_reported":1690909571,"current_range_meters":28000,"station_id":"ce4bgvh2rcd13ifvqcs0","pricing_plan_id":"free"},{"bike_id":"e516e861-9828-4f23-b31b-891686940b3f","system_id":"levelo_inurba_marseille","lat":43.302759,"lon":5.400793,"is_reserved":false,"is_disabled":false,"rental_uris":{"android":"levelo://app?vid=e516e861-9828-4f23-b31b-891686940b3f","ios":"levelo://app?vid=e516e861-9828-4f23-b31b-891686940b3f"},"vehicle_type_id":"4","last_reported":1690909571,"current_range_meters":4000,"station_id":"ce4bgvh2rcd13ifvqcs0","pricing_plan_id":"free"},{"bike_id":"f64e701a-c474-4f95-a172-d05ff0d3d441","system_id":"levelo_inurba_marseille","lat":43.302759,"lon":5.400793,"is_reserved":false,"is_disabled":false,"rental_uris":{"android":"levelo://app?vid=f64e701a-c474-4f95-a172-d05ff0d3d441","ios":"levelo://app?vid=f64e701a-c474-4f95-a172-d05ff0d3d441"},"vehicle_type_id":"4","last_reported":1690909571,"current_range_meters":0,"station_id":"ce4bgvh2rcd13ifvqcs0","pricing_plan_id":"free"},{"bike_id":"8a7ab968-8b22-4ea4-b015-55d812fecafd","system_id":"levelo_inurba_marseille","lat":43.286039,"lon":5.370679,"is_reserved":false,"is_disabled":false,"rental_uris":{"android":"levelo://app?vid=8a7ab968-8b22-4ea4-b015-55d812fecafd","ios":"levelo://app?vid=8a7ab968-8b22-4ea4-b015-55d812fecafd"},"vehicle_type_id":"4","last_reported":1690909571,"current_range_meters":29600,"station_id":"ce4bht12rcd13ifvqi60","pricing_plan_id":"free"},{"bike_id":"4d14a4f2-4558-44b6-a5c2-ef73e23be5ae","system_id":"levelo_inurba_marseille","lat":43.286039,"lon":5.370679,"is_reserved":false,"is_disabled":false,"rental_uris":{"android":"levelo://app?vid=4d14a4f2-4558-44b6-a5c2-ef73e23be5ae","ios":"levelo://app?vid=4d14a4f2-4558-44b6-a5c2-ef73e23be5ae"},"vehicle_type_id":"4","last_reported":1690909571,"current_range_meters":10000,"station_id":"ce4bht12rcd13ifvqi60","pricing_plan_id":"free"},{"bike_id":"9eba1810-b602-4209-a4c0-9082a1a4175d","system_id":"levelo_inurba_marseille","lat":43.287185,"lon":5.379373,"is_reserved":false,"is_disabled":false,"rental_uris":{"android":"levelo://app?vid=9eba1810-b602-4209-a4c0-9082a1a4175d","ios":"levelo://app?vid=9eba1810-b602-4209-a4c0-9082a1a4175d"},"vehicle_type_id":"4","last_reported":1690909571,"current_range_meters":25600,"station_id":"ce4bh9p2rcd13ifvqec0","pricing_plan_id":"free"},{"bike_id":"899031ed-57f0-4421-b0b8-db324543e6df","system_id":"levelo_inurba_marseille","lat":43.31651,"lon":5.40439,"is_reserved":false,"is_disabled":false,"rental_uris":{"android":"levelo://app?vid=899031ed-57f0-4421-b0b8-db324543e6df","ios":"levelo://app?vid=899031ed-57f0-4421-b0b8-db324543e6df"},"vehicle_type_id":"4","last_reported":1690909571,"current_range_meters":30800,"station_id":"ce4bh012rcd13ifvqd00","pricing_plan_id":"free"},{"bike_id":"dcb5791b-b0e0-4edb-89f1-76afdfca76e8","system_id":"levelo_inurba_marseille","lat":43.316517,"lon":5.404375,"is_reserved":false,"is_disabled":false,"rental_uris":{"android":"levelo://app?vid=dcb5791b-b0e0-4edb-89f1-76afdfca76e8","ios":"levelo://app?vid=dcb5791b-b0e0-4edb-89f1-76afdfca76e8"},"vehicle_type_id":"4","last_reported":1690909571,"current_range_meters":21200,"station_id":"ce4bh012rcd13ifvqd00","pricing_plan_id":"free"},{"bike_id":"4489ae39-698a-413a-bd5b-7e6ccae41d10","system_id":"levelo_inurba_marseille","lat":43.284538,"lon":5.358657,"is_reserved":false,"is_disabled":false,"rental_uris":{"android":"levelo://app?vid=4489ae39-698a-413a-bd5b-7e6ccae41d10","ios":"levelo://app?vid=4489ae39-698a-413a-bd5b-7e6ccae41d10"},"vehicle_type_id":"4","last_reported":1690909571,"current_range_meters":13200,"station_id":"ce4bhah2rcd13ifvqei0","pricing_plan_id":"free"},{"bike_id":"1b6f22b1-d86a-4487-ba34-461d47db96f4","system_id":"levelo_inurba_marseille","lat":43.284538,"lon":5.358657,"is_reserved":false,"is_disabled":false,"rental_uris":{"android":"levelo://app?vid=1b6f22b1-d86a-4487-ba34-461d47db96f4","ios":"levelo://app?vid=1b6f22b1-d86a-4487-ba34-461d47db96f4"},"vehicle_type_id":"4","last_reported":1690909571,"current_range_meters":31600,"station_id":"ce4bhah2rcd13ifvqei0","pricing_plan_id":"free"},{"bike_id":"f0c21bf9-d2c8-4867-bdf9-7e8795fd8670","system_id":"levelo_inurba_marseille","lat":43.284538,"lon":5.358657,"is_reserved":false,"is_disabled":false,"rental_uris":{"android":"levelo://app?vid=f0c21bf9-d2c8-4867-bdf9-7e8795fd8670","ios":"levelo://app?vid=f0c21bf9-d2c8-4867-bdf9-7e8795fd8670"},"vehicle_type_id":"4","last_reported":1690909571,"current_range_meters":16800,"station_id":"ce4bhah2rcd13ifvqei0","pricing_plan_id":"free"},{"bike_id":"ce180c26-687f-4a84-afdb-f0b49c85689d","system_id":"levelo_inurba_marseille","lat":43.2846,"lon":5.35889,"is_reserved":false,"is_disabled":false,"rental_uris":{"android":"levelo://app?vid=ce180c26-687f-4a84-afdb-f0b49c85689d","ios":"levelo://app?vid=ce180c26-687f-4a84-afdb-f0b49c85689d"},"vehicle_type_id":"4","last_reported":1690909571,"current_range_meters":2800,"station_id":"ce4bhah2rcd13ifvqei0","pricing_plan_id":"free"},{"bike_id":"5747c733-7508-421d-a360-57f9a701caaa","system_id":"levelo_inurba_marseille","lat":43.284538,"lon":5.358657,"is_reserved":false,"is_disabled":false,"rental_uris":{"android":"levelo://app?vid=5747c733-7508-421d-a360-57f9a701caaa","ios":"levelo://app?vid=5747c733-7508-421d-a360-57f9a701caaa"},"vehicle_type_id":"4","last_reported":1690909571,"current_range_meters":2400,"station_id":"ce4bhah2rcd13ifvqei0","pricing_plan_id":"free"},{"bike_id":"21b4e202-7acd-481b-89c2-15683ac1b573","system_id":"levelo_inurba_marseille","lat":43.284538,"lon":5.358657,"is_reserved":false,"is_disabled":false,"rental_uris":{"android":"levelo://app?vid=21b4e202-7acd-481b-89c2-15683ac1b573","ios":"levelo://app?vid=21b4e202-7acd-481b-89c2-15683ac1b573"},"vehicle_type_id":"4","last_reported":1690909571,"current_range_meters":14800,"station_id":"ce4bhah2rcd13ifvqei0","pricing_plan_id":"free"},{"bike_id":"f419391b-ee34-4322-8fcc-85dfdd826952","system_id":"levelo_inurba_marseille","lat":43.294314,"lon":5.397498,"is_reserved":false,"is_disabled":false,"rental_uris":{"android":"levelo://app?vid=f419391b-ee34-4322-8fcc-85dfdd826952","ios":"levelo://app?vid=f419391b-ee34-4322-8fcc-85dfdd826952"},"vehicle_type_id":"4","last_reported":1690909571,"current_range_meters":27200,"station_id":"ce4bh3h2rcd13ifvqdo0","pricing_plan_id":"free"},{"bike_id":"229154d3-0bb7-4fa4-b0b4-8d0fc49eece6","system_id":"levelo_inurba_marseille","lat":43.284538,"lon":5.358657,"is_reserved":false,"is_disabled":false,"rental_uris":{"android":"levelo://app?vid=229154d3-0bb7-4fa4-b0b4-8d0fc49eece6","ios":"levelo://app?vid=229154d3-0bb7-4fa4-b0b4-8d0fc49eece6"},"vehicle_type_id":"4","last_reported":1690909571,"current_range_meters":12400,"station_id":"ce4bhah2rcd13ifvqei0","pricing_plan_id":"free"},{"bike_id":"137bedea-7523-424e-9647-0f7506fde1f6","system_id":"levelo_inurba_marseille","lat":43.284538,"lon":5.358657,"is_reserved":false,"is_disabled":false,"rental_uris":{"android":"levelo://app?vid=137bedea-7523-424e-9647-0f7506fde1f6","ios":"levelo://app?vid=137bedea-7523-424e-9647-0f7506fde1f6"},"vehicle_type_id":"4","last_reported":1690909571,"current_range_meters":400,"station_id":"ce4bhah2rcd13ifvqei0","pricing_plan_id":"free"},{"bike_id":"4f9fb65d-51c0-44bb-a77e-ceaac5521390","system_id":"levelo_inurba_marseille","lat":43.284538,"lon":5.358657,"is_reserved":false,"is_disabled":false,"rental_uris":{"android":"levelo://app?vid=4f9fb65d-51c0-44bb-a77e-ceaac5521390","ios":"levelo://app?vid=4f9fb65d-51c0-44bb-a77e-ceaac5521390"},"vehicle_type_id":"4","last_reported":1690909571,"current_range_meters":24800,"station_id":"ce4bhah2rcd13ifvqei0","pricing_plan_id":"free"},{"bike_id":"aa67a1b4-7eb9-4748-a950-3bbcd2b682b3","system_id":"levelo_inurba_marseille","lat":43.284538,"lon":5.358657,"is_reserved":false,"is_disabled":false,"rental_uris":{"android":"levelo://app?vid=aa67a1b4-7eb9-4748-a950-3bbcd2b682b3","ios":"levelo://app?vid=aa67a1b4-7eb9-4748-a950-3bbcd2b682b3"},"vehicle_type_id":"4","last_reported":1690909571,"current_range_meters":2000,"station_id":"ce4bhah2rcd13ifvqei0","pricing_plan_id":"free"},{"bike_id":"dafc9cf6-a0d2-40f8-ac17-0415f4f90883","system_id":"levelo_inurba_marseille","lat":43.29442,"lon":5.39744,"is_reserved":false,"is_disabled":false,"rental_uris":{"android":"levelo://app?vid=dafc9cf6-a0d2-40f8-ac17-0415f4f90883","ios":"levelo://app?vid=dafc9cf6-a0d2-40f8-ac17-0415f4f90883"},"vehicle_type_id":"4","last_reported":1690909571,"current_range_meters":4400,"station_id":"ce4bh3h2rcd13ifvqdo0","pricing_plan_id":"free"},{"bike_id":"4a5ed554-6580-4fe7-b101-9f27588cfbaf","system_id":"levelo_inurba_marseille","lat":43.294314,"lon":5.397498,"is_reserved":false,"is_disabled":false,"rental_uris":{"android":"levelo://app?vid=4a5ed554-6580-4fe7-b101-9f27588cfbaf","ios":"levelo://app?vid=4a5ed554-6580-4fe7-b101-9f27588cfbaf"},"vehicle_type_id":"4","last_reported":1690909571,"current_range_meters":22000,"station_id":"ce4bh3h2rcd13ifvqdo0","pricing_plan_id":"free"},{"bike_id":"645c87b7-7b2a-4f71-a932-a20393c4a1cd","system_id":"levelo_inurba_marseille","lat":43.28455,"lon":5.35887,"is_reserved":false,"is_disabled":false,"rental_uris":{"android":"levelo://app?vid=645c87b7-7b2a-4f71-a932-a20393c4a1cd","ios":"levelo://app?vid=645c87b7-7b2a-4f71-a932-a20393c4a1cd"},"vehicle_type_id":"4","last_reported":1690909571,"current_range_meters":6000,"station_id":"ce4bhah2rcd13ifvqei0","pricing_plan_id":"free"},{"bike_id":"8f832461-93d3-4b95-88b7-19c7e247b654","system_id":"levelo_inurba_marseille","lat":43.284538,"lon":5.358657,"is_reserved":false,"is_disabled":false,"rental_uris":{"android":"levelo://app?vid=8f832461-93d3-4b95-88b7-19c7e247b654","ios":"levelo://app?vid=8f832461-93d3-4b95-88b7-19c7e247b654"},"vehicle_type_id":"4","last_reported":1690909571,"current_range_meters":27600,"station_id":"ce4bhah2rcd13ifvqei0","pricing_plan_id":"free"},{"bike_id":"5881e3fb-c0b8-4783-af25-7ce805f8c21a","system_id":"levelo_inurba_marseille","lat":43.294314,"lon":5.397498,"is_reserved":false,"is_disabled":false,"rental_uris":{"android":"levelo://app?vid=5881e3fb-c0b8-4783-af25-7ce805f8c21a","ios":"levelo://app?vid=5881e3fb-c0b8-4783-af25-7ce805f8c21a"},"vehicle_type_id":"4","last_reported":1690909571,"current_range_meters":21200,"station_id":"ce4bh3h2rcd13ifvqdo0","pricing_plan_id":"free"},{"bike_id":"baea497c-40b6-4a8f-b55f-abbfd07fc9b7","system_id":"levelo_inurba_marseille","lat":43.294314,"lon":5.397498,"is_reserved":false,"is_disabled":false,"rental_uris":{"android":"levelo://app?vid=baea497c-40b6-4a8f-b55f-abbfd07fc9b7","ios":"levelo://app?vid=baea497c-40b6-4a8f-b55f-abbfd07fc9b7"},"vehicle_type_id":"4","last_reported":1690909571,"current_range_meters":20400,"station_id":"ce4bh3h2rcd13ifvqdo0","pricing_plan_id":"free"},{"bike_id":"e9dd92b2-3e9c-4dd8-8d7c-1234f7e001ae","system_id":"levelo_inurba_marseille","lat":43.294314,"lon":5.397498,"is_reserved":false,"is_disabled":false,"rental_uris":{"android":"levelo://app?vid=e9dd92b2-3e9c-4dd8-8d7c-1234f7e001ae","ios":"levelo://app?vid=e9dd92b2-3e9c-4dd8-8d7c-1234f7e001ae"},"vehicle_type_id":"4","last_reported":1690909571,"current_range_meters":17600,"station_id":"ce4bh3h2rcd13ifvqdo0","pricing_plan_id":"free"},{"bike_id":"ab0a1ce5-01dd-4424-911c-654a152fcf97","system_id":"levelo_inurba_marseille","lat":43.28619,"lon":5.35107,"is_reserved":false,"is_disabled":false,"rental_uris":{"android":"levelo://app?vid=ab0a1ce5-01dd-4424-911c-654a152fcf97","ios":"levelo://app?vid=ab0a1ce5-01dd-4424-911c-654a152fcf97"},"vehicle_type_id":"4","last_reported":1690909571,"current_range_meters":29600,"station_id":"ce4bhch2rcd13ifvqeug","pricing_plan_id":"free"},{"bike_id":"a1c4febb-787a-4ba2-9658-147879b549e1","system_id":"levelo_inurba_marseille","lat":43.28617,"lon":5.35107,"is_reserved":false,"is_disabled":false,"rental_uris":{"android":"levelo://app?vid=a1c4febb-787a-4ba2-9658-147879b549e1","ios":"levelo://app?vid=a1c4febb-787a-4ba2-9658-147879b549e1"},"vehicle_type_id":"4","last_reported":1690909571,"current_range_meters":31200,"station_id":"ce4bhch2rcd13ifvqeug","pricing_plan_id":"free"},{"bike_id":"2e7a1b2c-5894-4ba8-bc7f-d39004160e65","system_id":"levelo_inurba_marseille","lat":43.285856,"lon":5.350771,"is_reserved":false,"is_disabled":false,"rental_uris":{"android":"levelo://app?vid=2e7a1b2c-5894-4ba8-bc7f-d39004160e65","ios":"levelo://app?vid=2e7a1b2c-5894-4ba8-bc7f-d39004160e65"},"vehicle_type_id":"4","last_reported":1690909571,"current_range_meters":29600,"station_id":"ce4bhch2rcd13ifvqeug","pricing_plan_id":"free"},{"bike_id":"7e82044e-fd7f-4294-8248-d9b881cedde5","system_id":"levelo_inurba_marseille","lat":43.28614,"lon":5.3511,"is_reserved":false,"is_disabled":false,"rental_uris":{"android":"levelo://app?vid=7e82044e-fd7f-4294-8248-d9b881cedde5","ios":"levelo://app?vid=7e82044e-fd7f-4294-8248-d9b881cedde5"},"vehicle_type_id":"4","last_reported":1690909571,"current_range_meters":29200,"station_id":"ce4bhch2rcd13ifvqeug","pricing_plan_id":"free"},{"bike_id":"fa43a8b1-62d7-4094-b586-d11c3c572837","system_id":"levelo_inurba_marseille","lat":43.285856,"lon":5.350771,"is_reserved":false,"is_disabled":false,"rental_uris":{"android":"levelo://app?vid=fa43a8b1-62d7-4094-b586-d11c3c572837","ios":"levelo://app?vid=fa43a8b1-62d7-4094-b586-d11c3c572837"},"vehicle_type_id":"4","last_reported":1690909571,"current_range_meters":29600,"station_id":"ce4bhch2rcd13ifvqeug","pricing_plan_id":"free"},{"bike_id":"23b503f8-7c14-491a-8579-c8cc78c359fb","system_id":"levelo_inurba_marseille","lat":43.28614,"lon":5.35108,"is_reserved":false,"is_disabled":false,"rental_uris":{"android":"levelo://app?vid=23b503f8-7c14-491a-8579-c8cc78c359fb","ios":"levelo://app?vid=23b503f8-7c14-491a-8579-c8cc78c359fb"},"vehicle_type_id":"4","last_reported":1690909571,"current_range_meters":19200,"station_id":"ce4bhch2rcd13ifvqeug","pricing_plan_id":"free"},{"bike_id":"2418b6cd-02f7-437e-8cd9-197539988ef3","system_id":"levelo_inurba_marseille","lat":43.285856,"lon":5.350771,"is_reserved":false,"is_disabled":false,"rental_uris":{"android":"levelo://app?vid=2418b6cd-02f7-437e-8cd9-197539988ef3","ios":"levelo://app?vid=2418b6cd-02f7-437e-8cd9-197539988ef3"},"vehicle_type_id":"4","last_reported":1690909571,"current_range_meters":18800,"station_id":"ce4bhch2rcd13ifvqeug","pricing_plan_id":"free"},{"bike_id":"48f9b513-4491-4979-b4f7-4a56ee3bc609","system_id":"levelo_inurba_marseille","lat":43.285856,"lon":5.350771,"is_reserved":false,"is_disabled":false,"rental_uris":{"android":"levelo://app?vid=48f9b513-4491-4979-b4f7-4a56ee3bc609","ios":"levelo://app?vid=48f9b513-4491-4979-b4f7-4a56ee3bc609"},"vehicle_type_id":"4","last_reported":1690909571,"current_range_meters":31200,"station_id":"ce4bhch2rcd13ifvqeug","pricing_plan_id":"free"},{"bike_id":"c7424956-35fe-48d8-a82c-aa2ff1550e7c","system_id":"levelo_inurba_marseille","lat":43.28615,"lon":5.35101,"is_reserved":false,"is_disabled":false,"rental_uris":{"android":"levelo://app?vid=c7424956-35fe-48d8-a82c-aa2ff1550e7c","ios":"levelo://app?vid=c7424956-35fe-48d8-a82c-aa2ff1550e7c"},"vehicle_type_id":"4","last_reported":1690909571,"current_range_meters":31200,"station_id":"ce4bhch2rcd13ifvqeug","pricing_plan_id":"free"},{"bike_id":"33c88ebe-4abe-44ec-8024-06279a155a11","system_id":"levelo_inurba_marseille","lat":43.28613,"lon":5.35106,"is_reserved":false,"is_disabled":false,"rental_uris":{"android":"levelo://app?vid=33c88ebe-4abe-44ec-8024-06279a155a11","ios":"levelo://app?vid=33c88ebe-4abe-44ec-8024-06279a155a11"},"vehicle_type_id":"4","last_reported":1690909571,"current_range_meters":6000,"station_id":"ce4bhch2rcd13ifvqeug","pricing_plan_id":"free"},{"bike_id":"36eef701-265d-4f54-a706-39e7c1fef6db","system_id":"levelo_inurba_marseille","lat":43.295713,"lon":5.399639,"is_reserved":false,"is_disabled":false,"rental_uris":{"android":"levelo://app?vid=36eef701-265d-4f54-a706-39e7c1fef6db","ios":"levelo://app?vid=36eef701-265d-4f54-a706-39e7c1fef6db"},"vehicle_type_id":"4","last_reported":1690909571,"current_range_meters":25200,"station_id":"ce4bh312rcd13ifvqdj0","pricing_plan_id":"free"},{"bike_id":"c2d4ec6a-c239-4557-9ec2-b67793c4e42e","system_id":"levelo_inurba_marseille","lat":43.295713,"lon":5.399639,"is_reserved":false,"is_disabled":false,"rental_uris":{"android":"levelo://app?vid=c2d4ec6a-c239-4557-9ec2-b67793c4e42e","ios":"levelo://app?vid=c2d4ec6a-c239-4557-9ec2-b67793c4e42e"},"vehicle_type_id":"4","last_reported":1690909571,"current_range_meters":1600,"station_id":"ce4bh312rcd13ifvqdj0","pricing_plan_id":"free"},{"bike_id":"b6fb06c7-2684-4793-81f3-0f7aad5e45a2","system_id":"levelo_inurba_marseille","lat":43.28663,"lon":5.3862,"is_reserved":false,"is_disabled":false,"rental_uris":{"android":"levelo://app?vid=b6fb06c7-2684-4793-81f3-0f7aad5e45a2","ios":"levelo://app?vid=b6fb06c7-2684-4793-81f3-0f7aad5e45a2"},"vehicle_type_id":"4","last_reported":1690909571,"current_range_meters":1200,"station_id":"","pricing_plan_id":"free"},{"bike_id":"1454b717-5e2a-4241-99ae-f2b575a4e60a","system_id":"levelo_inurba_marseille","lat":43.31879,"lon":5.40732,"is_reserved":false,"is_disabled":false,"rental_uris":{"android":"levelo://app?vid=1454b717-5e2a-4241-99ae-f2b575a4e60a","ios":"levelo://app?vid=1454b717-5e2a-4241-99ae-f2b575a4e60a"},"vehicle_type_id":"4","last_reported":1690909571,"current_range_meters":28000,"station_id":"ce4bhq12rcd13ifvqhig","pricing_plan_id":"free"},{"bike_id":"6949d59f-a1b0-4fa9-8bfa-ead902fe88ee","system_id":"levelo_inurba_marseille","lat":43.31884,"lon":5.40731,"is_reserved":false,"is_disabled":false,"rental_uris":{"android":"levelo://app?vid=6949d59f-a1b0-4fa9-8bfa-ead902fe88ee","ios":"levelo://app?vid=6949d59f-a1b0-4fa9-8bfa-ead902fe88ee"},"vehicle_type_id":"4","last_reported":1690909571,"current_range_meters":30000,"station_id":"","pricing_plan_id":"free"},{"bike_id":"b7186ab2-2fb5-4bc3-b8a2-d776ae5ec231","system_id":"levelo_inurba_marseille","lat":43.31892,"lon":5.40732,"is_reserved":false,"is_disabled":false,"rental_uris":{"android":"levelo://app?vid=b7186ab2-2fb5-4bc3-b8a2-d776ae5ec231","ios":"levelo://app?vid=b7186ab2-2fb5-4bc3-b8a2-d776ae5ec231"},"vehicle_type_id":"4","last_reported":1690909571,"current_range_meters":24000,"station_id":"ce4bhq12rcd13ifvqhig","pricing_plan_id":"free"},{"bike_id":"dc0f904f-3448-401e-92c1-c585c4a82a12","system_id":"levelo_inurba_marseille","lat":43.31878,"lon":5.40738,"is_reserved":false,"is_disabled":false,"rental_uris":{"android":"levelo://app?vid=dc0f904f-3448-401e-92c1-c585c4a82a12","ios":"levelo://app?vid=dc0f904f-3448-401e-92c1-c585c4a82a12"},"vehicle_type_id":"4","last_reported":1690909571,"current_range_meters":28000,"station_id":"","pricing_plan_id":"free"},{"bike_id":"71e8f336-54a9-4564-8c0a-0f197db19f5b","system_id":"levelo_inurba_marseille","lat":43.31889,"lon":5.40735,"is_reserved":false,"is_disabled":false,"rental_uris":{"android":"levelo://app?vid=71e8f336-54a9-4564-8c0a-0f197db19f5b","ios":"levelo://app?vid=71e8f336-54a9-4564-8c0a-0f197db19f5b"},"vehicle_type_id":"4","last_reported":1690909571,"current_range_meters":10800,"station_id":"ce4bhq12rcd13ifvqhig","pricing_plan_id":"free"},{"bike_id":"3233cd62-b590-4dba-b0d5-d1e6cea65d6f","system_id":"levelo_inurba_marseille","lat":43.31888,"lon":5.40737,"is_reserved":false,"is_disabled":false,"rental_uris":{"android":"levelo://app?vid=3233cd62-b590-4dba-b0d5-d1e6cea65d6f","ios":"levelo://app?vid=3233cd62-b590-4dba-b0d5-d1e6cea65d6f"},"vehicle_type_id":"4","last_reported":1690909571,"current_range_meters":1200,"station_id":"ce4bhq12rcd13ifvqhig","pricing_plan_id":"free"},{"bike_id":"e30a9694-8fbc-4521-b58a-2de50b215062","system_id":"levelo_inurba_marseille","lat":43.319179,"lon":5.407725,"is_reserved":false,"is_disabled":false,"rental_uris":{"android":"levelo://app?vid=e30a9694-8fbc-4521-b58a-2de50b215062","ios":"levelo://app?vid=e30a9694-8fbc-4521-b58a-2de50b215062"},"vehicle_type_id":"4","last_reported":1690909571,"current_range_meters":10400,"station_id":"ce4bhq12rcd13ifvqhig","pricing_plan_id":"free"},{"bike_id":"40de583e-accb-4721-a8a6-7d230889501e","system_id":"levelo_inurba_marseille","lat":43.33718,"lon":5.39175,"is_reserved":false,"is_disabled":false,"rental_uris":{"android":"levelo://app?vid=40de583e-accb-4721-a8a6-7d230889501e","ios":"levelo://app?vid=40de583e-accb-4721-a8a6-7d230889501e"},"vehicle_type_id":"4","last_reported":1690909571,"current_range_meters":20400,"station_id":"ce4bhr92rcd13ifvqhsg","pricing_plan_id":"free"},{"bike_id":"98db51aa-ea4b-4608-9d13-b33ac5b52a63","system_id":"levelo_inurba_marseille","lat":43.33718,"lon":5.39177,"is_reserved":false,"is_disabled":false,"rental_uris":{"android":"levelo://app?vid=98db51aa-ea4b-4608-9d13-b33ac5b52a63","ios":"levelo://app?vid=98db51aa-ea4b-4608-9d13-b33ac5b52a63"},"vehicle_type_id":"4","last_reported":1690909571,"current_range_meters":29200,"station_id":"ce4bhr92rcd13ifvqhsg","pricing_plan_id":"free"},{"bike_id":"3e563380-a985-451c-801d-2783d7714294","system_id":"levelo_inurba_marseille","lat":43.3372,"lon":5.3918,"is_reserved":false,"is_disabled":false,"rental_uris":{"android":"levelo://app?vid=3e563380-a985-451c-801d-2783d7714294","ios":"levelo://app?vid=3e563380-a985-451c-801d-2783d7714294"},"vehicle_type_id":"4","last_reported":1690909571,"current_range_meters":30400,"station_id":"ce4bhr92rcd13ifvqhsg","pricing_plan_id":"free"},{"bike_id":"9d8dc018-8295-487e-aae9-79ce0f469cdf","system_id":"levelo_inurba_marseille","lat":43.33721,"lon":5.39186,"is_reserved":false,"is_disabled":false,"rental_uris":{"android":"levelo://app?vid=9d8dc018-8295-487e-aae9-79ce0f469cdf","ios":"levelo://app?vid=9d8dc018-8295-487e-aae9-79ce0f469cdf"},"vehicle_type_id":"4","last_reported":1690909571,"current_range_meters":7600,"station_id":"ce4bhr92rcd13ifvqhsg","pricing_plan_id":"free"},{"bike_id":"cf8c9f8b-e344-478b-897a-6d9b0c20fa37","system_id":"levelo_inurba_marseille","lat":43.33723,"lon":5.39183,"is_reserved":false,"is_disabled":false,"rental_uris":{"android":"levelo://app?vid=cf8c9f8b-e344-478b-897a-6d9b0c20fa37","ios":"levelo://app?vid=cf8c9f8b-e344-478b-897a-6d9b0c20fa37"},"vehicle_type_id":"4","last_reported":1690909571,"current_range_meters":12000,"station_id":"ce4bhr92rcd13ifvqhsg","pricing_plan_id":"free"},{"bike_id":"a904f371-2d12-41b2-aa09-f95903c2c7ef","system_id":"levelo_inurba_marseille","lat":43.33726,"lon":5.39181,"is_reserved":false,"is_disabled":false,"rental_uris":{"android":"levelo://app?vid=a904f371-2d12-41b2-aa09-f95903c2c7ef","ios":"levelo://app?vid=a904f371-2d12-41b2-aa09-f95903c2c7ef"},"vehicle_type_id":"4","last_reported":1690909571,"current_range_meters":29600,"station_id":"ce4bhr92rcd13ifvqhsg","pricing_plan_id":"free"},{"bike_id":"23754b05-6cd5-4c5d-bd4c-76b75b07ecde","system_id":"levelo_inurba_marseille","lat":43.33717,"lon":5.391857,"is_reserved":false,"is_disabled":false,"rental_uris":{"android":"levelo://app?vid=23754b05-6cd5-4c5d-bd4c-76b75b07ecde","ios":"levelo://app?vid=23754b05-6cd5-4c5d-bd4c-76b75b07ecde"},"vehicle_type_id":"4","last_reported":1690909571,"current_range_meters":21200,"station_id":"ce4bhr92rcd13ifvqhsg","pricing_plan_id":"free"},{"bike_id":"09fb24e3-aa14-43eb-bda4-067f4be7acaf","system_id":"levelo_inurba_marseille","lat":43.323464,"lon":5.406297,"is_reserved":false,"is_disabled":false,"rental_uris":{"android":"levelo://app?vid=09fb24e3-aa14-43eb-bda4-067f4be7acaf","ios":"levelo://app?vid=09fb24e3-aa14-43eb-bda4-067f4be7acaf"},"vehicle_type_id":"4","last_reported":1690909571,"current_range_meters":18000,"station_id":"ce4bhq92rcd13ifvqhjg","pricing_plan_id":"free"},{"bike_id":"b5240968-d861-485a-9cd6-e1d2f00ba051","system_id":"levelo_inurba_marseille","lat":43.33724,"lon":5.39188,"is_reserved":false,"is_disabled":false,"rental_uris":{"android":"levelo://app?vid=b5240968-d861-485a-9cd6-e1d2f00ba051","ios":"levelo://app?vid=b5240968-d861-485a-9cd6-e1d2f00ba051"},"vehicle_type_id":"4","last_reported":1690909571,"current_range_meters":30400,"station_id":"ce4bhr92rcd13ifvqhsg","pricing_plan_id":"free"},{"bike_id":"daeefd53-5538-4b56-ad3f-a7bea168502c","system_id":"levelo_inurba_marseille","lat":43.33729,"lon":5.3918,"is_reserved":false,"is_disabled":false,"rental_uris":{"android":"levelo://app?vid=daeefd53-5538-4b56-ad3f-a7bea168502c","ios":"levelo://app?vid=daeefd53-5538-4b56-ad3f-a7bea168502c"},"vehicle_type_id":"4","last_reported":1690909571,"current_range_meters":28400,"station_id":"ce4bhr92rcd13ifvqhsg","pricing_plan_id":"free"},{"bike_id":"0f58b052-a56a-489b-a07a-2f17d45316ef","system_id":"levelo_inurba_marseille","lat":43.33729,"lon":5.39181,"is_reserved":false,"is_disabled":false,"rental_uris":{"android":"levelo://app?vid=0f58b052-a56a-489b-a07a-2f17d45316ef","ios":"levelo://app?vid=0f58b052-a56a-489b-a07a-2f17d45316ef"},"vehicle_type_id":"4","last_reported":1690909571,"current_range_meters":26000,"station_id":"ce4bhr92rcd13ifvqhsg","pricing_plan_id":"free"},{"bike_id":"91e09460-cfc0-485e-9f84-92d2c8fee084","system_id":"levelo_inurba_marseille","lat":43.323464,"lon":5.406297,"is_reserved":false,"is_disabled":false,"rental_uris":{"android":"levelo://app?vid=91e09460-cfc0-485e-9f84-92d2c8fee084","ios":"levelo://app?vid=91e09460-cfc0-485e-9f84-92d2c8fee084"},"vehicle_type_id":"4","last_reported":1690909571,"current_range_meters":31600,"station_id":"ce4bhq92rcd13ifvqhjg","pricing_plan_id":"free"},{"bike_id":"538883bc-8939-44e7-a4d9-00f4431276f7","system_id":"levelo_inurba_marseille","lat":43.33717,"lon":5.391857,"is_reserved":false,"is_disabled":false,"rental_uris":{"android":"levelo://app?vid=538883bc-8939-44e7-a4d9-00f4431276f7","ios":"levelo://app?vid=538883bc-8939-44e7-a4d9-00f4431276f7"},"vehicle_type_id":"4","last_reported":1690909571,"current_range_meters":30000,"station_id":"ce4bhr92rcd13ifvqhsg","pricing_plan_id":"free"},{"bike_id":"99d6cf98-d0ee-49ee-ad65-19acca3c5b9a","system_id":"levelo_inurba_marseille","lat":43.323464,"lon":5.406297,"is_reserved":false,"is_disabled":false,"rental_uris":{"android":"levelo://app?vid=99d6cf98-d0ee-49ee-ad65-19acca3c5b9a","ios":"levelo://app?vid=99d6cf98-d0ee-49ee-ad65-19acca3c5b9a"},"vehicle_type_id":"4","last_reported":1690909571,"current_range_meters":31600,"station_id":"ce4bhq92rcd13ifvqhjg","pricing_plan_id":"free"},{"bike_id":"19de96ef-474d-4b5f-9cc9-d244f415c020","system_id":"levelo_inurba_marseille","lat":43.33732,"lon":5.39188,"is_reserved":false,"is_disabled":false,"rental_uris":{"android":"levelo://app?vid=19de96ef-474d-4b5f-9cc9-d244f415c020","ios":"levelo://app?vid=19de96ef-474d-4b5f-9cc9-d244f415c020"},"vehicle_type_id":"4","last_reported":1690909571,"current_range_meters":29600,"station_id":"ce4bhr92rcd13ifvqhsg","pricing_plan_id":"free"},{"bike_id":"21448e96-f1e4-4a33-85ea-551704c215c9","system_id":"levelo_inurba_marseille","lat":43.284793,"lon":5.384113,"is_reserved":false,"is_disabled":false,"rental_uris":{"android":"levelo://app?vid=21448e96-f1e4-4a33-85ea-551704c215c9","ios":"levelo://app?vid=21448e96-f1e4-4a33-85ea-551704c215c9"},"vehicle_type_id":"4","last_reported":1690909571,"current_range_meters":20400,"station_id":"ce4bh512rcd13ifvqe3g","pricing_plan_id":"free"},{"bike_id":"dbada9f9-e33c-4a7d-ab43-1cac4e571e70","system_id":"levelo_inurba_marseille","lat":43.284793,"lon":5.384119,"is_reserved":false,"is_disabled":false,"rental_uris":{"android":"levelo://app?vid=dbada9f9-e33c-4a7d-ab43-1cac4e571e70","ios":"levelo://app?vid=dbada9f9-e33c-4a7d-ab43-1cac4e571e70"},"vehicle_type_id":"4","last_reported":1690909571,"current_range_meters":30400,"station_id":"ce4bh512rcd13ifvqe3g","pricing_plan_id":"free"},{"bike_id":"eb58cef4-467a-4204-907e-bf9c824089b2","system_id":"levelo_inurba_marseille","lat":43.29797,"lon":5.40397,"is_reserved":false,"is_disabled":false,"rental_uris":{"android":"levelo://app?vid=eb58cef4-467a-4204-907e-bf9c824089b2","ios":"levelo://app?vid=eb58cef4-467a-4204-907e-bf9c824089b2"},"vehicle_type_id":"4","last_reported":1690909571,"current_range_meters":20000,"station_id":"","pricing_plan_id":"free"},{"bike_id":"8110e8b7-4e33-4c5c-9708-56b42e25ead5","system_id":"levelo_inurba_marseille","lat":43.288497,"lon":5.393089,"is_reserved":false,"is_disabled":false,"rental_uris":{"android":"levelo://app?vid=8110e8b7-4e33-4c5c-9708-56b42e25ead5","ios":"levelo://app?vid=8110e8b7-4e33-4c5c-9708-56b42e25ead5"},