{"last_updated":1725635325,"ttl":30,"version":"2.2","data":{"bikes":[{"bike_id":"09e3dfde-8d46-4e9e-8900-f544d0a85a3c","system_id":"levelo_inurba_marseille","lat":43.312239,"lon":5.368562,"is_reserved":false,"is_disabled":false,"rental_uris":{"android":"levelo://app?vid=09e3dfde-8d46-4e9e-8900-f544d0a85a3c","ios":"levelo://app?vid=09e3dfde-8d46-4e9e-8900-f544d0a85a3c"},"vehicle_type_id":"4","last_reported":1725635325,"current_range_meters":0,"station_id":"ce4bgl92rcd13ifvqbq0","pricing_plan_id":"cebpf4jnsgd1na2vs0mg"},{"bike_id":"6dc921d6-f62e-4f3e-bde7-17e3921ed728","system_id":"levelo_inurba_marseille","lat":43.312239,"lon":5.368562,"is_reserved":false,"is_disabled":false,"rental_uris":{"android":"levelo://app?vid=6dc921d6-f62e-4f3e-bde7-17e3921ed728","ios":"levelo://app?vid=6dc921d6-f62e-4f3e-bde7-17e3921ed728"},"vehicle_type_id":"4","last_reported":1725635325,"current_range_meters":25200,"station_id":"ce4bgl92rcd13ifvqbq0","pricing_plan_id":"cebpf4jnsgd1na2vs0mg"},{"bike_id":"bfd3d7a5-67df-4f4f-a552-6998f16a6dd2","system_id":"levelo_inurba_marseille","lat":43.3111,"lon":5.369433,"is_reserved":false,"is_disabled":false,"rental_uris":{"android":"levelo://app?vid=bfd3d7a5-67df-4f4f-a552-6998f16a6dd2","ios":"levelo://app?vid=bfd3d7a5-67df-4f4f-a552-6998f16a6dd2"},"vehicle_type_id":"4","last_reported":1725635325,"current_range_meters":0,"station_id":"","pricing_plan_id":"cebpf4jnsgd1na2vs0mg"},{"bike_id":"ccb0e5bc-4ebc-4367-ac07-2ca2cb9077d2","system_id":"levelo_inurba_marseille","lat":43.309076,"lon":5.368465,"is_reserved":false,"is_disabled":false,"rental_uris":{"android":"levelo://app?vid=ccb0e5bc-4ebc-4367-ac07-2ca2cb9077d2","ios":"levelo://app?vid=ccb0e5bc-4ebc-4367-ac07-2ca2cb9077d2"},"vehicle_type_id":"4","last_reported":1725635325,"current_range_meters":0,"station_id":"ce4bgn92rcd13ifvqbvg","pricing_plan_id":"cebpf4jnsgd1na2vs0mg"},{"bike_id":"da8c731a-36e7-43e1-b5ec-6bc364fbd7bf","system_id":"levelo_inurba_marseille","lat":43.309034,"lon":5.371783,"is_reserved":false,"is_disabled":false,"rental_uris":{"android":"levelo://app?vid=da8c731a-36e7-43e1-b5ec-6bc364fbd7bf","ios":"levelo://app?vid=da8c731a-36e7-43e1-b5ec-6bc364fbd7bf"},"vehicle_type_id":"4","last_reported":1725635325,"current_range_meters":7200,"station_id":"ce4bguh2rcd13ifvqckg","pricing_plan_id":"cebpf4jnsgd1na2vs0mg"},{"bike_id":"3de115e1-fd4d-4857-81fd-8257817ff884","system_id":"levelo_inurba_marseille","lat":43.3146,"lon":5.37392,"is_reserved":false,"is_disabled":false,"rental_uris":{"android":"levelo://app?vid=3de115e1-fd4d-4857-81fd-8257817ff884","ios":"levelo://app?vid=3de115e1-fd4d-4857-81fd-8257817ff884"},"vehicle_type_id":"4","last_reported":1725635325,"current_range_meters":28800,"station_id":"","pricing_plan_id":"cebpf4jnsgd1na2vs0mg"},{"bike_id":"0638cb71-ed8f-4fc1-bed7-aa65b44eae34","system_id":"levelo_inurba_marseille","lat":43.31682,"lon":5.37357,"is_reserved":false,"is_disabled":false,"rental_uris":{"android":"levelo://app?vid=0638cb71-ed8f-4fc1-bed7-aa65b44eae34","ios":"levelo://app?vid=0638cb71-ed8f-4fc1-bed7-aa65b44eae34"},"vehicle_type_id":"4","last_reported":1725635325,"current_range_meters":0,"station_id":"","pricing_plan_id":"cebpf4jnsgd1na2vs0mg"},{"bike_id":"45b70d25-f75f-4c9b-a5f3-aec5cc970336","system_id":"levelo_inurba_marseille","lat":43.30585,"lon":5.36744,"is_reserved":false,"is_disabled":false,"rental_uris":{"android":"levelo://app?vid=45b70d25-f75f-4c9b-a5f3-aec5cc970336","ios":"levelo://app?vid=45b70d25-f75f-4c9b-a5f3-aec5cc970336"},"vehicle_type_id":"4","last_reported":1725635325,"current_range_meters":11200,"station_id":"ce4bgrp2rcd13ifvqc9g","pricing_plan_id":"cebpf4jnsgd1na2vs0mg"},{"bike_id":"3bd7830a-879a-4489-b19e-e394868f1406","system_id":"levelo_inurba_marseille","lat":43.305712,"lon":5.365641,"is_reserved":false,"is_disabled":false,"rental_uris":{"android":"levelo://app?vid=3bd7830a-879a-4489-b19e-e394868f1406","ios":"levelo://app?vid=3bd7830a-879a-4489-b19e-e394868f1406"},"vehicle_type_id":"4","last_reported":1725635325,"current_range_meters":12400,"station_id":"ce4bgs12rcd13ifvqcag","pricing_plan_id":"cebpf4jnsgd1na2vs0mg"},{"bike_id":"8af2db91-58c2-4f36-8109-6d48f7c3a566","system_id":"levelo_inurba_marseille","lat":43.30553,"lon":5.36689,"is_reserved":false,"is_disabled":false,"rental_uris":{"android":"levelo://app?vid=8af2db91-58c2-4f36-8109-6d48f7c3a566","ios":"levelo://app?vid=8af2db91-58c2-4f36-8109-6d48f7c3a566"},"vehicle_type_id":"4","last_reported":1725635325,"current_range_meters":5200,"station_id":"ce4bgrp2rcd13ifvqc9g","pricing_plan_id":"cebpf4jnsgd1na2vs0mg"},{"bike_id":"c672f263-e744-4c5d-b1ca-93a30fc67ba6","system_id":"levelo_inurba_marseille","lat":43.305504,"lon":5.367084,"is_reserved":false,"is_disabled":false,"rental_uris":{"android":"levelo://app?vid=c672f263-e744-4c5d-b1ca-93a30fc67ba6","ios":"levelo://app?vid=c672f263-e744-4c5d-b1ca-93a30fc67ba6"},"vehicle_type_id":"4","last_reported":1725635325,"current_range_meters":14000,"station_id":"ce4bgrp2rcd13ifvqc9g","pricing_plan_id":"cebpf4jnsgd1na2vs0mg"},{"bike_id":"8c9539dc-5b1e-4946-99af-eb622d0786dc","system_id":"levelo_inurba_marseille","lat":43.305714,"lon":5.365633,"is_reserved":false,"is_disabled":false,"rental_uris":{"android":"levelo://app?vid=8c9539dc-5b1e-4946-99af-eb622d0786dc","ios":"levelo://app?vid=8c9539dc-5b1e-4946-99af-eb622d0786dc"},"vehicle_type_id":"4","last_reported":1725635325,"current_range_meters":9600,"station_id":"ce4bgs12rcd13ifvqcag","pricing_plan_id":"cebpf4jnsgd1na2vs0mg"},{"bike_id":"dc5e97bb-234f-4aa8-9aaf-f19b22de98f1","system_id":"levelo_inurba_marseille","lat":43.305714,"lon":5.365633,"is_reserved":false,"is_disabled":false,"rental_uris":{"android":"levelo://app?vid=dc5e97bb-234f-4aa8-9aaf-f19b22de98f1","ios":"levelo://app?vid=dc5e97bb-234f-4aa8-9aaf-f19b22de98f1"},"vehicle_type_id":"4","last_reported":1725635325,"current_range_meters":31200,"station_id":"ce4bgs12rcd13ifvqcag","pricing_plan_id":"cebpf4jnsgd1na2vs0mg"},{"bike_id":"8bdff15f-2ae3-4e72-84b6-13f87df66a3d","system_id":"levelo_inurba_marseille","lat":43.305714,"lon":5.365633,"is_reserved":false,"is_disabled":false,"rental_uris":{"android":"levelo://app?vid=8bdff15f-2ae3-4e72-84b6-13f87df66a3d","ios":"levelo://app?vid=8bdff15f-2ae3-4e72-84b6-13f87df66a3d"},"vehicle_type_id":"4","last_reported":1725635325,"current_range_meters":18800,"station_id":"ce4bgs12rcd13ifvqcag","pricing_plan_id":"cebpf4jnsgd1na2vs0mg"},{"bike_id":"3d0c3980-c352-4ab1-9e52-626e5972c925","system_id":"levelo_inurba_marseille","lat":43.305714,"lon":5.365633,"is_reserved":false,"is_disabled":false,"rental_uris":{"android":"levelo://app?vid=3d0c3980-c352-4ab1-9e52-626e5972c925","ios":"levelo://app?vid=3d0c3980-c352-4ab1-9e52-626e5972c925"},"vehicle_type_id":"4","last_reported":1725635325,"current_range_meters":31200,"station_id":"ce4bgs12rcd13ifvqcag","pricing_plan_id":"cebpf4jnsgd1na2vs0mg"},{"bike_id":"236cde86-88f2-47c0-8a42-58560ca75d9e","system_id":"levelo_inurba_marseille","lat":43.305989,"lon":5.37225,"is_reserved":false,"is_disabled":false,"rental_uris":{"android":"levelo://app?vid=236cde86-88f2-47c0-8a42-58560ca75d9e","ios":"levelo://app?vid=236cde86-88f2-47c0-8a42-58560ca75d9e"},"vehicle_type_id":"4","last_reported":1725635325,"current_range_meters":17600,"station_id":"ce4bgqh2rcd13ifvqc4g","pricing_plan_id":"cebpf4jnsgd1na2vs0mg"},{"bike_id":"157b2dd6-597c-473c-8c3b-7083a2ea1449","system_id":"levelo_inurba_marseille","lat":43.30509,"lon":5.36931,"is_reserved":false,"is_disabled":false,"rental_uris":{"android":"levelo://app?vid=157b2dd6-597c-473c-8c3b-7083a2ea1449","ios":"levelo://app?vid=157b2dd6-597c-473c-8c3b-7083a2ea1449"},"vehicle_type_id":"4","last_reported":1725635325,"current_range_meters":19200,"station_id":"","pricing_plan_id":"cebpf4jnsgd1na2vs0mg"},{"bike_id":"e4b06c52-f0ef-4c36-aaa7-9b52a9b99f26","system_id":"levelo_inurba_marseille","lat":43.31124,"lon":5.37753,"is_reserved":false,"is_disabled":false,"rental_uris":{"android":"levelo://app?vid=e4b06c52-f0ef-4c36-aaa7-9b52a9b99f26","ios":"levelo://app?vid=e4b06c52-f0ef-4c36-aaa7-9b52a9b99f26"},"vehicle_type_id":"4","last_reported":1725635325,"current_range_meters":0,"station_id":"ce4bgt92rcd13ifvqcg0","pricing_plan_id":"cebpf4jnsgd1na2vs0mg"},{"bike_id":"06e48a19-0f88-48eb-8fd4-852fcac751e1","system_id":"levelo_inurba_marseille","lat":43.311125,"lon":5.377624,"is_reserved":false,"is_disabled":false,"rental_uris":{"android":"levelo://app?vid=06e48a19-0f88-48eb-8fd4-852fcac751e1","ios":"levelo://app?vid=06e48a19-0f88-48eb-8fd4-852fcac751e1"},"vehicle_type_id":"4","last_reported":1725635325,"current_range_meters":2800,"station_id":"ce4bgt92rcd13ifvqcg0","pricing_plan_id":"cebpf4jnsgd1na2vs0mg"},{"bike_id":"e53b5272-eb4f-42bb-afb6-44d73987a389","system_id":"levelo_inurba_marseille","lat":43.3114,"lon":5.38004,"is_reserved":false,"is_disabled":false,"rental_uris":{"android":"levelo://app?vid=e53b5272-eb4f-42bb-afb6-44d73987a389","ios":"levelo://app?vid=e53b5272-eb4f-42bb-afb6-44d73987a389"},"vehicle_type_id":"4","last_reported":1725635325,"current_range_meters":23200,"station_id":"","pricing_plan_id":"cebpf4jnsgd1na2vs0mg"},{"bike_id":"53f3efaa-86f1-4215-9cbe-049912c497ff","system_id":"levelo_inurba_marseille","lat":43.30317,"lon":5.36893,"is_reserved":false,"is_disabled":false,"rental_uris":{"android":"levelo://app?vid=53f3efaa-86f1-4215-9cbe-049912c497ff","ios":"levelo://app?vid=53f3efaa-86f1-4215-9cbe-049912c497ff"},"vehicle_type_id":"4","last_reported":1725635325,"current_range_meters":15200,"station_id":"ce4bgqh2rcd13ifvqc5g","pricing_plan_id":"cebpf4jnsgd1na2vs0mg"},{"bike_id":"d80d3ca1-b0b9-4842-b946-2d6e46146ea2","system_id":"levelo_inurba_marseille","lat":43.315289,"lon":5.380349,"is_reserved":false,"is_disabled":false,"rental_uris":{"android":"levelo://app?vid=d80d3ca1-b0b9-4842-b946-2d6e46146ea2","ios":"levelo://app?vid=d80d3ca1-b0b9-4842-b946-2d6e46146ea2"},"vehicle_type_id":"4","last_reported":1725635325,"current_range_meters":26800,"station_id":"ce4bhsp2rcd13ifvqi50","pricing_plan_id":"cebpf4jnsgd1na2vs0mg"},{"bike_id":"5c7e602c-f961-461f-96ab-799dea8e8115","system_id":"levelo_inurba_marseille","lat":43.3229,"lon":5.36689,"is_reserved":false,"is_disabled":false,"rental_uris":{"android":"levelo://app?vid=5c7e602c-f961-461f-96ab-799dea8e8115","ios":"levelo://app?vid=5c7e602c-f961-461f-96ab-799dea8e8115"},"vehicle_type_id":"4","last_reported":1725635325,"current_range_meters":18800,"station_id":"","pricing_plan_id":"cebpf4jnsgd1na2vs0mg"},{"bike_id":"85a194b2-d5ad-4a1f-aba8-2a2f2cd4256a","system_id":"levelo_inurba_marseille","lat":43.301939,"lon":5.366286,"is_reserved":false,"is_disabled":false,"rental_uris":{"android":"levelo://app?vid=85a194b2-d5ad-4a1f-aba8-2a2f2cd4256a","ios":"levelo://app?vid=85a194b2-d5ad-4a1f-aba8-2a2f2cd4256a"},"vehicle_type_id":"4","last_reported":1725635325,"current_range_meters":28800,"station_id":"ce4bgrh2rcd13ifvqc8g","pricing_plan_id":"cebpf4jnsgd1na2vs0mg"},{"bike_id":"e2e3f40e-1b99-48d2-8538-d6f6e4a43106","system_id":"levelo_inurba_marseille","lat":43.308012,"lon":5.381511,"is_reserved":false,"is_disabled":false,"rental_uris":{"android":"levelo://app?vid=e2e3f40e-1b99-48d2-8538-d6f6e4a43106","ios":"levelo://app?vid=e2e3f40e-1b99-48d2-8538-d6f6e4a43106"},"vehicle_type_id":"4","last_reported":1725635325,"current_range_meters":27200,"station_id":"ce4bgt12rcd13ifvqce0","pricing_plan_id":"cebpf4jnsgd1na2vs0mg"},{"bike_id":"3525e8dc-dedb-4259-b8fa-d30d61011cef","system_id":"levelo_inurba_marseille","lat":43.308012,"lon":5.381511,"is_reserved":false,"is_disabled":false,"rental_uris":{"android":"levelo://app?vid=3525e8dc-dedb-4259-b8fa-d30d61011cef","ios":"levelo://app?vid=3525e8dc-dedb-4259-b8fa-d30d61011cef"},"vehicle_type_id":"4","last_reported":1725635325,"current_range_meters":18400,"station_id":"ce4bgt12rcd13ifvqce0","pricing_plan_id":"cebpf4jnsgd1na2vs0mg"},{"bike_id":"c0462a54-9573-41ef-b737-24fe04da7ee7","system_id":"levelo_inurba_marseille","lat":43.308012,"lon":5.381511,"is_reserved":false,"is_disabled":false,"rental_uris":{"android":"levelo://app?vid=c0462a54-9573-41ef-b737-24fe04da7ee7","ios":"levelo://app?vid=c0462a54-9573-41ef-b737-24fe04da7ee7"},"vehicle_type_id":"4","last_reported":1725635325,"current_range_meters":15200,"station_id":"ce4bgt12rcd13ifvqce0","pricing_plan_id":"cebpf4jnsgd1na2vs0mg"},{"bike_id":"1237f251-298b-42fa-9f7c-5f280e181e8d","system_id":"levelo_inurba_marseille","lat":43.308012,"lon":5.381511,"is_reserved":false,"is_disabled":false,"rental_uris":{"android":"levelo://app?vid=1237f251-298b-42fa-9f7c-5f280e181e8d","ios":"levelo://app?vid=1237f251-298b-42fa-9f7c-5f280e181e8d"},"vehicle_type_id":"4","last_reported":1725635325,"current_range_meters":0,"station_id":"ce4bgt12rcd13ifvqce0","pricing_plan_id":"cebpf4jnsgd1na2vs0mg"},{"bike_id":"8b2bbe1d-35aa-4990-a3f7-20441ead0d3b","system_id":"levelo_inurba_marseille","lat":43.310804,"lon":5.38359,"is_reserved":false,"is_disabled":false,"rental_uris":{"android":"levelo://app?vid=8b2bbe1d-35aa-4990-a3f7-20441ead0d3b","ios":"levelo://app?vid=8b2bbe1d-35aa-4990-a3f7-20441ead0d3b"},"vehicle_type_id":"4","last_reported":1725635325,"current_range_meters":6800,"station_id":"ce4bgv92rcd13ifvqcr0","pricing_plan_id":"cebpf4jnsgd1na2vs0mg"},{"bike_id":"1384399d-b68f-4c52-aa8e-d30255d6fdd8","system_id":"levelo_inurba_marseille","lat":43.30752,"lon":5.38188,"is_reserved":false,"is_disabled":false,"rental_uris":{"android":"levelo://app?vid=1384399d-b68f-4c52-aa8e-d30255d6fdd8","ios":"levelo://app?vid=1384399d-b68f-4c52-aa8e-d30255d6fdd8"},"vehicle_type_id":"4","last_reported":1725635325,"current_range_meters":2400,"station_id":"","pricing_plan_id":"cebpf4jnsgd1na2vs0mg"},{"bike_id":"33a5524d-9e06-48a0-b030-c181cf3ce0c9","system_id":"levelo_inurba_marseille","lat":43.324835,"lon":5.3657,"is_reserved":false,"is_disabled":false,"rental_uris":{"android":"levelo://app?vid=33a5524d-9e06-48a0-b030-c181cf3ce0c9","ios":"levelo://app?vid=33a5524d-9e06-48a0-b030-c181cf3ce0c9"},"vehicle_type_id":"4","last_reported":1725635325,"current_range_meters":16800,"station_id":"ce4bhs12rcd13ifvqhvg","pricing_plan_id":"cebpf4jnsgd1na2vs0mg"},{"bike_id":"e0321531-d452-4c4d-a177-a59acda8c868","system_id":"levelo_inurba_marseille","lat":43.310804,"lon":5.38359,"is_reserved":false,"is_disabled":false,"rental_uris":{"android":"levelo://app?vid=e0321531-d452-4c4d-a177-a59acda8c868","ios":"levelo://app?vid=e0321531-d452-4c4d-a177-a59acda8c868"},"vehicle_type_id":"4","last_reported":1725635325,"current_range_meters":13200,"station_id":"ce4bgv92rcd13ifvqcr0","pricing_plan_id":"cebpf4jnsgd1na2vs0mg"},{"bike_id":"8c558cb6-911e-4231-95de-066e470f30d4","system_id":"levelo_inurba_marseille","lat":43.310804,"lon":5.38359,"is_reserved":false,"is_disabled":false,"rental_uris":{"android":"levelo://app?vid=8c558cb6-911e-4231-95de-066e470f30d4","ios":"levelo://app?vid=8c558cb6-911e-4231-95de-066e470f30d4"},"vehicle_type_id":"4","last_reported":1725635325,"current_range_meters":15600,"station_id":"ce4bgv92rcd13ifvqcr0","pricing_plan_id":"cebpf4jnsgd1na2vs0mg"},{"bike_id":"4d690c98-3f3c-47b2-8005-9cf69d44ac60","system_id":"levelo_inurba_marseille","lat":43.310804,"lon":5.38359,"is_reserved":false,"is_disabled":false,"rental_uris":{"android":"levelo://app?vid=4d690c98-3f3c-47b2-8005-9cf69d44ac60","ios":"levelo://app?vid=4d690c98-3f3c-47b2-8005-9cf69d44ac60"},"vehicle_type_id":"4","last_reported":1725635325,"current_range_meters":30400,"station_id":"ce4bgv92rcd13ifvqcr0","pricing_plan_id":"cebpf4jnsgd1na2vs0mg"},{"bike_id":"ccd1a374-a4c8-4517-b1fb-33a76ef07ff6","system_id":"levelo_inurba_marseille","lat":43.310804,"lon":5.38359,"is_reserved":false,"is_disabled":false,"rental_uris":{"android":"levelo://app?vid=ccd1a374-a4c8-4517-b1fb-33a76ef07ff6","ios":"levelo://app?vid=ccd1a374-a4c8-4517-b1fb-33a76ef07ff6"},"vehicle_type_id":"4","last_reported":1725635325,"current_range_meters":13200,"station_id":"ce4bgv92rcd13ifvqcr0","pricing_plan_id":"cebpf4jnsgd1na2vs0mg"},{"bike_id":"81215b55-4945-4bcf-94a6-20d869ef4a80","system_id":"levelo_inurba_marseille","lat":43.30143,"lon":5.37416,"is_reserved":false,"is_disabled":false,"rental_uris":{"android":"levelo://app?vid=81215b55-4945-4bcf-94a6-20d869ef4a80","ios":"levelo://app?vid=81215b55-4945-4bcf-94a6-20d869ef4a80"},"vehicle_type_id":"4","last_reported":1725635325,"current_range_meters":0,"station_id":"ce4bgs92rcd13ifvqcc0","pricing_plan_id":"cebpf4jnsgd1na2vs0mg"},{"bike_id":"b35479d5-2b38-420a-8d62-268ab9360bda","system_id":"levelo_inurba_marseille","lat":43.319935,"lon":5.381699,"is_reserved":false,"is_disabled":false,"rental_uris":{"android":"levelo://app?vid=b35479d5-2b38-420a-8d62-268ab9360bda","ios":"levelo://app?vid=b35479d5-2b38-420a-8d62-268ab9360bda"},"vehicle_type_id":"4","last_reported":1725635325,"current_range_meters":12800,"station_id":"ce4bhr12rcd13ifvqhpg","pricing_plan_id":"cebpf4jnsgd1na2vs0mg"},{"bike_id":"6489e571-5a31-48bb-9e29-77a8081e5033","system_id":"levelo_inurba_marseille","lat":43.313571,"lon":5.384829,"is_reserved":false,"is_disabled":false,"rental_uris":{"android":"levelo://app?vid=6489e571-5a31-48bb-9e29-77a8081e5033","ios":"levelo://app?vid=6489e571-5a31-48bb-9e29-77a8081e5033"},"vehicle_type_id":"4","last_reported":1725635325,"current_range_meters":12000,"station_id":"ce4bgt92rcd13ifvqcf0","pricing_plan_id":"cebpf4jnsgd1na2vs0mg"},{"bike_id":"f108def3-ecb1-4d14-b802-6734fb792026","system_id":"levelo_inurba_marseille","lat":43.311722,"lon":5.387247,"is_reserved":false,"is_disabled":false,"rental_uris":{"android":"levelo://app?vid=f108def3-ecb1-4d14-b802-6734fb792026","ios":"levelo://app?vid=f108def3-ecb1-4d14-b802-6734fb792026"},"vehicle_type_id":"4","last_reported":1725635325,"current_range_meters":20000,"station_id":"ce4bgv12rcd13ifvqcp0","pricing_plan_id":"cebpf4jnsgd1na2vs0mg"},{"bike_id":"2f1220f2-c09f-4747-afa9-4d1e32c4167c","system_id":"levelo_inurba_marseille","lat":43.311722,"lon":5.387247,"is_reserved":false,"is_disabled":false,"rental_uris":{"android":"levelo://app?vid=2f1220f2-c09f-4747-afa9-4d1e32c4167c","ios":"levelo://app?vid=2f1220f2-c09f-4747-afa9-4d1e32c4167c"},"vehicle_type_id":"4","last_reported":1725635325,"current_range_meters":5600,"station_id":"ce4bgv12rcd13ifvqcp0","pricing_plan_id":"cebpf4jnsgd1na2vs0mg"},{"bike_id":"b3d301b0-5206-4874-8884-9094585f116d","system_id":"levelo_inurba_marseille","lat":43.297163,"lon":5.365866,"is_reserved":false,"is_disabled":false,"rental_uris":{"android":"levelo://app?vid=b3d301b0-5206-4874-8884-9094585f116d","ios":"levelo://app?vid=b3d301b0-5206-4874-8884-9094585f116d"},"vehicle_type_id":"4","last_reported":1725635325,"current_range_meters":18000,"station_id":"ce4bgn12rcd13ifvqbt0","pricing_plan_id":"cebpf4jnsgd1na2vs0mg"},{"bike_id":"368833a2-a686-4a78-9e8a-da153a771048","system_id":"levelo_inurba_marseille","lat":43.301417,"lon":5.3809,"is_reserved":false,"is_disabled":false,"rental_uris":{"android":"levelo://app?vid=368833a2-a686-4a78-9e8a-da153a771048","ios":"levelo://app?vid=368833a2-a686-4a78-9e8a-da153a771048"},"vehicle_type_id":"4","last_reported":1725635325,"current_range_meters":30400,"station_id":"ce4bgjp2rcd13ifvqbh0","pricing_plan_id":"cebpf4jnsgd1na2vs0mg"},{"bike_id":"592896ef-ca52-4d17-9bc3-169bb83bab5f","system_id":"levelo_inurba_marseille","lat":43.301417,"lon":5.3809,"is_reserved":false,"is_disabled":false,"rental_uris":{"android":"levelo://app?vid=592896ef-ca52-4d17-9bc3-169bb83bab5f","ios":"levelo://app?vid=592896ef-ca52-4d17-9bc3-169bb83bab5f"},"vehicle_type_id":"4","last_reported":1725635325,"current_range_meters":0,"station_id":"ce4bgjp2rcd13ifvqbh0","pricing_plan_id":"cebpf4jnsgd1na2vs0mg"},{"bike_id":"82a847c5-6bb0-471d-b996-184cff77d6cf","system_id":"levelo_inurba_marseille","lat":43.301417,"lon":5.3809,"is_reserved":false,"is_disabled":false,"rental_uris":{"android":"levelo://app?vid=82a847c5-6bb0-471d-b996-184cff77d6cf","ios":"levelo://app?vid=82a847c5-6bb0-471d-b996-184cff77d6cf"},"vehicle_type_id":"4","last_reported":1725635325,"current_range_meters":10800,"station_id":"ce4bgjp2rcd13ifvqbh0","pricing_plan_id":"cebpf4jnsgd1na2vs0mg"},{"bike_id":"9d4d4ad3-9fa4-4394-8995-8a5887e80cc8","system_id":"levelo_inurba_marseille","lat":43.32295,"lon":5.382587,"is_reserved":false,"is_disabled":false,"rental_uris":{"android":"levelo://app?vid=9d4d4ad3-9fa4-4394-8995-8a5887e80cc8","ios":"levelo://app?vid=9d4d4ad3-9fa4-4394-8995-8a5887e80cc8"},"vehicle_type_id":"4","last_reported":1725635325,"current_range_meters":19200,"station_id":"ce4bhr12rcd13ifvqhqg","pricing_plan_id":"cebpf4jnsgd1na2vs0mg"},{"bike_id":"d28e36b9-6d10-4aaf-b4de-1bd92b48383d","system_id":"levelo_inurba_marseille","lat":43.32289,"lon":5.38277,"is_reserved":false,"is_disabled":false,"rental_uris":{"android":"levelo://app?vid=d28e36b9-6d10-4aaf-b4de-1bd92b48383d","ios":"levelo://app?vid=d28e36b9-6d10-4aaf-b4de-1bd92b48383d"},"vehicle_type_id":"4","last_reported":1725635325,"current_range_meters":26400,"station_id":"ce4bhr12rcd13ifvqhqg","pricing_plan_id":"cebpf4jnsgd1na2vs0mg"},{"bike_id":"44aee99f-144d-47be-9a09-6a64cdb41cee","system_id":"levelo_inurba_marseille","lat":43.322872,"lon":5.382756,"is_reserved":false,"is_disabled":false,"rental_uris":{"android":"levelo://app?vid=44aee99f-144d-47be-9a09-6a64cdb41cee","ios":"levelo://app?vid=44aee99f-144d-47be-9a09-6a64cdb41cee"},"vehicle_type_id":"4","last_reported":1725635325,"current_range_meters":28400,"station_id":"ce4bhr12rcd13ifvqhqg","pricing_plan_id":"cebpf4jnsgd1na2vs0mg"},{"bike_id":"6f733920-37bd-40aa-9a3a-868758970459","system_id":"levelo_inurba_marseille","lat":43.297163,"lon":5.365866,"is_reserved":false,"is_disabled":false,"rental_uris":{"android":"levelo://app?vid=6f733920-37bd-40aa-9a3a-868758970459","ios":"levelo://app?vid=6f733920-37bd-40aa-9a3a-868758970459"},"vehicle_type_id":"4","last_reported":1725635325,"current_range_meters":17600,"station_id":"ce4bgn12rcd13ifvqbt0","pricing_plan_id":"cebpf4jnsgd1na2vs0mg"},{"bike_id":"2286b2b9-89cc-495a-a1b0-10db31697c42","system_id":"levelo_inurba_marseille","lat":43.297163,"lon":5.365866,"is_reserved":false,"is_disabled":false,"rental_uris":{"android":"levelo://app?vid=2286b2b9-89cc-495a-a1b0-10db31697c42","ios":"levelo://app?vid=2286b2b9-89cc-495a-a1b0-10db31697c42"},"vehicle_type_id":"4","last_reported":1725635325,"current_range_meters":18800,"station_id":"ce4bgn12rcd13ifvqbt0","pricing_plan_id":"cebpf4jnsgd1na2vs0mg"},{"bike_id":"3a69a9e1-6997-4674-b84b-974244fb11a6","system_id":"levelo_inurba_marseille","lat":43.297163,"lon":5.365866,"is_reserved":false,"is_disabled":false,"rental_uris":{"android":"levelo://app?vid=3a69a9e1-6997-4674-b84b-974244fb11a6","ios":"levelo://app?vid=3a69a9e1-6997-4674-b84b-974244fb11a6"},"vehicle_type_id":"4","last_reported":1725635325,"current_range_meters":8000,"station_id":"ce4bgn12rcd13ifvqbt0","pricing_plan_id":"cebpf4jnsgd1na2vs0mg"},{"bike_id":"8a8887de-5c7d-4b1c-91b2-78e9c920b48d","system_id":"levelo_inurba_marseille","lat":43.2968,"lon":5.37291,"is_reserved":false,"is_disabled":false,"rental_uris":{"android":"levelo://app?vid=8a8887de-5c7d-4b1c-91b2-78e9c920b48d","ios":"levelo://app?vid=8a8887de-5c7d-4b1c-91b2-78e9c920b48d"},"vehicle_type_id":"4","last_reported":1725635325,"current_range_meters":30400,"station_id":"ce4bgk12rcd13ifvqbj0","pricing_plan_id":"cebpf4jnsgd1na2vs0mg"},{"bike_id":"94a8e9a6-6cf2-49e2-99a9-26341a5f481f","system_id":"levelo_inurba_marseille","lat":43.29573,"lon":5.367355,"is_reserved":false,"is_disabled":false,"rental_uris":{"android":"levelo://app?vid=94a8e9a6-6cf2-49e2-99a9-26341a5f481f","ios":"levelo://app?vid=94a8e9a6-6cf2-49e2-99a9-26341a5f481f"},"vehicle_type_id":"4","last_reported":1725635325,"current_range_meters":27600,"station_id":"ce4bgph2rcd13ifvqc2g","pricing_plan_id":"cebpf4jnsgd1na2vs0mg"},{"bike_id":"0ae2a624-fcdb-42eb-9770-81affa10d139","system_id":"levelo_inurba_marseille","lat":43.29573,"lon":5.367355,"is_reserved":false,"is_disabled":false,"rental_uris":{"android":"levelo://app?vid=0ae2a624-fcdb-42eb-9770-81affa10d139","ios":"levelo://app?vid=0ae2a624-fcdb-42eb-9770-81affa10d139"},"vehicle_type_id":"4","last_reported":1725635325,"current_range_meters":20400,"station_id":"ce4bgph2rcd13ifvqc2g","pricing_plan_id":"cebpf4jnsgd1na2vs0mg"},{"bike_id":"ed2ea671-5fbf-421f-8bad-e95e7d4c8adc","system_id":"levelo_inurba_marseille","lat":43.30985,"lon":5.38985,"is_reserved":false,"is_disabled":false,"rental_uris":{"android":"levelo://app?vid=ed2ea671-5fbf-421f-8bad-e95e7d4c8adc","ios":"levelo://app?vid=ed2ea671-5fbf-421f-8bad-e95e7d4c8adc"},"vehicle_type_id":"4","last_reported":1725635325,"current_range_meters":15600,"station_id":"ce4bgup2rcd13ifvqco0","pricing_plan_id":"cebpf4jnsgd1na2vs0mg"},{"bike_id":"afac7f4a-b59e-4c70-84e3-ed0508c8967d","system_id":"levelo_inurba_marseille","lat":43.29915,"lon":5.38083,"is_reserved":false,"is_disabled":false,"rental_uris":{"android":"levelo://app?vid=afac7f4a-b59e-4c70-84e3-ed0508c8967d","ios":"levelo://app?vid=afac7f4a-b59e-4c70-84e3-ed0508c8967d"},"vehicle_type_id":"4","last_reported":1725635325,"current_range_meters":0,"station_id":"","pricing_plan_id":"cebpf4jnsgd1na2vs0mg"},{"bike_id":"92fa1635-138a-4e55-a366-de1e827c43e3","system_id":"levelo_inurba_marseille","lat":43.296935,"lon":5.376544,"is_reserved":false,"is_disabled":false,"rental_uris":{"android":"levelo://app?vid=92fa1635-138a-4e55-a366-de1e827c43e3","ios":"levelo://app?vid=92fa1635-138a-4e55-a366-de1e827c43e3"},"vehicle_type_id":"4","last_reported":1725635325,"current_range_meters":25600,"station_id":"ce4bgkh2rcd13ifvqbl0","pricing_plan_id":"cebpf4jnsgd1na2vs0mg"},{"bike_id":"1daa1568-3b98-403b-995f-81f794fad930","system_id":"levelo_inurba_marseille","lat":43.296921,"lon":5.376579,"is_reserved":false,"is_disabled":false,"rental_uris":{"android":"levelo://app?vid=1daa1568-3b98-403b-995f-81f794fad930","ios":"levelo://app?vid=1daa1568-3b98-403b-995f-81f794fad930"},"vehicle_type_id":"4","last_reported":1725635325,"current_range_meters":20400,"station_id":"ce4bgkh2rcd13ifvqbl0","pricing_plan_id":"cebpf4jnsgd1na2vs0mg"},{"bike_id":"6f9337aa-d2bb-436d-b73f-6bc85503a1f8","system_id":"levelo_inurba_marseille","lat":43.31754,"lon":5.3901,"is_reserved":false,"is_disabled":false,"rental_uris":{"android":"levelo://app?vid=6f9337aa-d2bb-436d-b73f-6bc85503a1f8","ios":"levelo://app?vid=6f9337aa-d2bb-436d-b73f-6bc85503a1f8"},"vehicle_type_id":"4","last_reported":1725635325,"current_range_meters":20400,"station_id":"ce4bhqp2rcd13ifvqhng","pricing_plan_id":"cebpf4jnsgd1na2vs0mg"},{"bike_id":"ee98d696-fc8f-4bd7-9acc-ba17f9c78589","system_id":"levelo_inurba_marseille","lat":43.317557,"lon":5.390173,"is_reserved":false,"is_disabled":false,"rental_uris":{"android":"levelo://app?vid=ee98d696-fc8f-4bd7-9acc-ba17f9c78589","ios":"levelo://app?vid=ee98d696-fc8f-4bd7-9acc-ba17f9c78589"},"vehicle_type_id":"4","last_reported":1725635325,"current_range_meters":2000,"station_id":"ce4bhqp2rcd13ifvqhng","pricing_plan_id":"cebpf4jnsgd1na2vs0mg"},{"bike_id":"1c80b433-d963-415a-84a7-d61cc7d4d9d0","system_id":"levelo_inurba_marseille","lat":43.317557,"lon":5.390173,"is_reserved":false,"is_disabled":false,"rental_uris":{"android":"levelo://app?vid=1c80b433-d963-415a-84a7-d61cc7d4d9d0","ios":"levelo://app?vid=1c80b433-d963-415a-84a7-d61cc7d4d9d0"},"vehicle_type_id":"4","last_reported":1725635325,"current_range_meters":10800,"station_id":"ce4bhqp2rcd13ifvqhng","pricing_plan_id":"cebpf4jnsgd1na2vs0mg"},{"bike_id":"237f53b9-14d9-4089-b5ba-c023f9f8a6a2","system_id":"levelo_inurba_marseille","lat":43.317557,"lon":5.390173,"is_reserved":false,"is_disabled":false,"rental_uris":{"android":"levelo://app?vid=237f53b9-14d9-4089-b5ba-c023f9f8a6a2","ios":"levelo://app?vid=237f53b9-14d9-4089-b5ba-c023f9f8a6a2"},"vehicle_type_id":"4","last_reported":1725635325,"current_range_meters":21600,"station_id":"ce4bhqp2rcd13ifvqhng","pricing_plan_id":"cebpf4jnsgd1na2vs0mg"},{"bike_id":"1af3945a-9b3b-4155-b7c6-ea58590d596b","system_id":"levelo_inurba_marseille","lat":43.31756,"lon":5.39012,"is_reserved":false,"is_disabled":false,"rental_uris":{"android":"levelo://app?vid=1af3945a-9b3b-4155-b7c6-ea58590d596b","ios":"levelo://app?vid=1af3945a-9b3b-4155-b7c6-ea58590d596b"},"vehicle_type_id":"4","last_reported":1725635325,"current_range_meters":29600,"station_id":"","pricing_plan_id":"cebpf4jnsgd1na2vs0mg"},{"bike_id":"ece02c0b-5f08-462a-9099-faea2935dbe4","system_id":"levelo_inurba_marseille","lat":43.317557,"lon":5.390173,"is_reserved":false,"is_disabled":false,"rental_uris":{"android":"levelo://app?vid=ece02c0b-5f08-462a-9099-faea2935dbe4","ios":"levelo://app?vid=ece02c0b-5f08-462a-9099-faea2935dbe4"},"vehicle_type_id":"4","last_reported":1725635325,"current_range_meters":12800,"station_id":"ce4bhqp2rcd13ifvqhng","pricing_plan_id":"cebpf4jnsgd1na2vs0mg"},{"bike_id":"3b423fcc-cbb5-427a-8aa3-375f064c9f41","system_id":"levelo_inurba_marseille","lat":43.317557,"lon":5.390173,"is_reserved":false,"is_disabled":false,"rental_uris":{"android":"levelo://app?vid=3b423fcc-cbb5-427a-8aa3-375f064c9f41","ios":"levelo://app?vid=3b423fcc-cbb5-427a-8aa3-375f064c9f41"},"vehicle_type_id":"4","last_reported":1725635325,"current_range_meters":20800,"station_id":"ce4bhqp2rcd13ifvqhng","pricing_plan_id":"cebpf4jnsgd1na2vs0mg"},{"bike_id":"e5b857fa-ec5e-4582-b1f8-746908723627","system_id":"levelo_inurba_marseille","lat":43.31762,"lon":5.39015,"is_reserved":false,"is_disabled":false,"rental_uris":{"android":"levelo://app?vid=e5b857fa-ec5e-4582-b1f8-746908723627","ios":"levelo://app?vid=e5b857fa-ec5e-4582-b1f8-746908723627"},"vehicle_type_id":"4","last_reported":1725635325,"current_range_meters":23200,"station_id":"ce4bhqp2rcd13ifvqhng","pricing_plan_id":"cebpf4jnsgd1na2vs0mg"},{"bike_id":"ff97a997-1295-45cc-bb21-3226e2d19136","system_id":"levelo_inurba_marseille","lat":43.31763,"lon":5.39016,"is_reserved":false,"is_disabled":false,"rental_uris":{"android":"levelo://app?vid=ff97a997-1295-45cc-bb21-3226e2d19136","ios":"levelo://app?vid=ff97a997-1295-45cc-bb21-3226e2d19136"},"vehicle_type_id":"4","last_reported":1725635325,"current_range_meters":25600,"station_id":"ce4bhqp2rcd13ifvqhng","pricing_plan_id":"cebpf4jnsgd1na2vs0mg"},{"bike_id":"e8c555f2-4f4e-4a1a-8561-2725dd2bf830","system_id":"levelo_inurba_marseille","lat":43.317557,"lon":5.390173,"is_reserved":false,"is_disabled":false,"rental_uris":{"android":"levelo://app?vid=e8c555f2-4f4e-4a1a-8561-2725dd2bf830","ios":"levelo://app?vid=e8c555f2-4f4e-4a1a-8561-2725dd2bf830"},"vehicle_type_id":"4","last_reported":1725635325,"current_range_meters":25600,"station_id":"ce4bhqp2rcd13ifvqhng","pricing_plan_id":"cebpf4jnsgd1na2vs0mg"},{"bike_id":"10f69fe8-7773-460f-8cbc-84d5043d302b","system_id":"levelo_inurba_marseille","lat":43.32253,"lon":5.387034,"is_reserved":false,"is_disabled":false,"rental_uris":{"android":"levelo://app?vid=10f69fe8-7773-460f-8cbc-84d5043d302b","ios":"levelo://app?vid=10f69fe8-7773-460f-8cbc-84d5043d302b"},"vehicle_type_id":"4","last_reported":1725635325,"current_range_meters":26800,"station_id":"","pricing_plan_id":"cebpf4jnsgd1na2vs0mg"},{"bike_id":"458e5f39-8b15-4a71-a4e3-ff20c9096604","system_id":"levelo_inurba_marseille","lat":43.31757,"lon":5.3902,"is_reserved":false,"is_disabled":false,"rental_uris":{"android":"levelo://app?vid=458e5f39-8b15-4a71-a4e3-ff20c9096604","ios":"levelo://app?vid=458e5f39-8b15-4a71-a4e3-ff20c9096604"},"vehicle_type_id":"4","last_reported":1725635325,"current_range_meters":15200,"station_id":"ce4bhqp2rcd13ifvqhng","pricing_plan_id":"cebpf4jnsgd1na2vs0mg"},{"bike_id":"13875ce6-d0be-47da-af6f-63d02e4ebeee","system_id":"levelo_inurba_marseille","lat":43.2964,"lon":5.37597,"is_reserved":false,"is_disabled":false,"rental_uris":{"android":"levelo://app?vid=13875ce6-d0be-47da-af6f-63d02e4ebeee","ios":"levelo://app?vid=13875ce6-d0be-47da-af6f-63d02e4ebeee"},"vehicle_type_id":"4","last_reported":1725635325,"current_range_meters":1200,"station_id":"","pricing_plan_id":"cebpf4jnsgd1na2vs0mg"},{"bike_id":"f11518bd-8d16-4f2f-b65f-9a2613c51cf5","system_id":"levelo_inurba_marseille","lat":43.298037,"lon":5.381066,"is_reserved":false,"is_disabled":false,"rental_uris":{"android":"levelo://app?vid=f11518bd-8d16-4f2f-b65f-9a2613c51cf5","ios":"levelo://app?vid=f11518bd-8d16-4f2f-b65f-9a2613c51cf5"},"vehicle_type_id":"4","last_reported":1725635325,"current_range_meters":0,"station_id":"ce4bgip2rcd13ifvqbb0","pricing_plan_id":"cebpf4jnsgd1na2vs0mg"},{"bike_id":"6e039f29-2e9f-40a2-b230-6dd268355f92","system_id":"levelo_inurba_marseille","lat":43.298037,"lon":5.381066,"is_reserved":false,"is_disabled":false,"rental_uris":{"android":"levelo://app?vid=6e039f29-2e9f-40a2-b230-6dd268355f92","ios":"levelo://app?vid=6e039f29-2e9f-40a2-b230-6dd268355f92"},"vehicle_type_id":"4","last_reported":1725635325,"current_range_meters":29600,"station_id":"ce4bgip2rcd13ifvqbb0","pricing_plan_id":"cebpf4jnsgd1na2vs0mg"},{"bike_id":"d8983eab-c420-43b7-a3ee-2107238c98a9","system_id":"levelo_inurba_marseille","lat":43.29782,"lon":5.38097,"is_reserved":false,"is_disabled":false,"rental_uris":{"android":"levelo://app?vid=d8983eab-c420-43b7-a3ee-2107238c98a9","ios":"levelo://app?vid=d8983eab-c420-43b7-a3ee-2107238c98a9"},"vehicle_type_id":"4","last_reported":1725635325,"current_range_meters":0,"station_id":"ce4bgip2rcd13ifvqbb0","pricing_plan_id":"cebpf4jnsgd1na2vs0mg"},{"bike_id":"3c9adac3-04e6-4746-bb5c-4ba0077287c6","system_id":"levelo_inurba_marseille","lat":43.29598,"lon":5.37711,"is_reserved":false,"is_disabled":false,"rental_uris":{"android":"levelo://app?vid=3c9adac3-04e6-4746-bb5c-4ba0077287c6","ios":"levelo://app?vid=3c9adac3-04e6-4746-bb5c-4ba0077287c6"},"vehicle_type_id":"4","last_reported":1725635325,"current_range_meters":30400,"station_id":"ce4bgi92rcd13ifvqb90","pricing_plan_id":"cebpf4jnsgd1na2vs0mg"},{"bike_id":"cf09cb01-c3a3-4f41-8dcd-125f538446db","system_id":"levelo_inurba_marseille","lat":43.295279,"lon":5.375048,"is_reserved":false,"is_disabled":false,"rental_uris":{"android":"levelo://app?vid=cf09cb01-c3a3-4f41-8dcd-125f538446db","ios":"levelo://app?vid=cf09cb01-c3a3-4f41-8dcd-125f538446db"},"vehicle_type_id":"4","last_reported":1725635325,"current_range_meters":2000,"station_id":"ce4bgkp2rcd13ifvqbmg","pricing_plan_id":"cebpf4jnsgd1na2vs0mg"},{"bike_id":"80bbf19f-5384-4b7e-9e5b-e834df7b7f41","system_id":"levelo_inurba_marseille","lat":43.301396,"lon":5.387812,"is_reserved":false,"is_disabled":false,"rental_uris":{"android":"levelo://app?vid=80bbf19f-5384-4b7e-9e5b-e834df7b7f41","ios":"levelo://app?vid=80bbf19f-5384-4b7e-9e5b-e834df7b7f41"},"vehicle_type_id":"4","last_reported":1725635325,"current_range_meters":0,"station_id":"ce4bghh2rcd13ifvqb60","pricing_plan_id":"cebpf4jnsgd1na2vs0mg"},{"bike_id":"044063cc-981c-4135-91b1-fc532872a450","system_id":"levelo_inurba_marseille","lat":43.301396,"lon":5.387812,"is_reserved":false,"is_disabled":false,"rental_uris":{"android":"levelo://app?vid=044063cc-981c-4135-91b1-fc532872a450","ios":"levelo://app?vid=044063cc-981c-4135-91b1-fc532872a450"},"vehicle_type_id":"4","last_reported":1725635325,"current_range_meters":22400,"station_id":"ce4bghh2rcd13ifvqb60","pricing_plan_id":"cebpf4jnsgd1na2vs0mg"},{"bike_id":"974dd4ac-df50-4dce-8630-117e0e6e002a","system_id":"levelo_inurba_marseille","lat":43.32372,"lon":5.38875,"is_reserved":false,"is_disabled":false,"rental_uris":{"android":"levelo://app?vid=974dd4ac-df50-4dce-8630-117e0e6e002a","ios":"levelo://app?vid=974dd4ac-df50-4dce-8630-117e0e6e002a"},"vehicle_type_id":"4","last_reported":1725635325,"current_range_meters":27200,"station_id":"ce4bhqp2rcd13ifvqhog","pricing_plan_id":"cebpf4jnsgd1na2vs0mg"},{"bike_id":"81a98824-2008-44d6-9c81-2be30d9e0932","system_id":"levelo_inurba_marseille","lat":43.32372,"lon":5.38875,"is_reserved":false,"is_disabled":false,"rental_uris":{"android":"levelo://app?vid=81a98824-2008-44d6-9c81-2be30d9e0932","ios":"levelo://app?vid=81a98824-2008-44d6-9c81-2be30d9e0932"},"vehicle_type_id":"4","last_reported":1725635325,"current_range_meters":0,"station_id":"ce4bhqp2rcd13ifvqhog","pricing_plan_id":"cebpf4jnsgd1na2vs0mg"},{"bike_id":"d3a193ab-bd08-4ce8-a1e3-d0fa68808f93","system_id":"levelo_inurba_marseille","lat":43.32367,"lon":5.388836,"is_reserved":false,"is_disabled":false,"rental_uris":{"android":"levelo://app?vid=d3a193ab-bd08-4ce8-a1e3-d0fa68808f93","ios":"levelo://app?vid=d3a193ab-bd08-4ce8-a1e3-d0fa68808f93"},"vehicle_type_id":"4","last_reported":1725635325,"current_range_meters":27200,"station_id":"ce4bhqp2rcd13ifvqhog","pricing_plan_id":"cebpf4jnsgd1na2vs0mg"},{"bike_id":"20b08aed-b054-4e79-9860-059cd9547828","system_id":"levelo_inurba_marseille","lat":43.32367,"lon":5.388836,"is_reserved":false,"is_disabled":false,"rental_uris":{"android":"levelo://app?vid=20b08aed-b054-4e79-9860-059cd9547828","ios":"levelo://app?vid=20b08aed-b054-4e79-9860-059cd9547828"},"vehicle_type_id":"4","last_reported":1725635325,"current_range_meters":12000,"station_id":"ce4bhqp2rcd13ifvqhog","pricing_plan_id":"cebpf4jnsgd1na2vs0mg"},{"bike_id":"0f5d64c0-8bb6-4722-85be-90a675e955a8","system_id":"levelo_inurba_marseille","lat":43.32367,"lon":5.388836,"is_reserved":false,"is_disabled":false,"rental_uris":{"android":"levelo://app?vid=0f5d64c0-8bb6-4722-85be-90a675e955a8","ios":"levelo://app?vid=0f5d64c0-8bb6-4722-85be-90a675e955a8"},"vehicle_type_id":"4","last_reported":1725635325,"current_range_meters":6000,"station_id":"ce4bhqp2rcd13ifvqhog","pricing_plan_id":"cebpf4jnsgd1na2vs0mg"},{"bike_id":"41704600-e9e6-4869-aefd-a4a12996605b","system_id":"levelo_inurba_marseille","lat":43.32367,"lon":5.388836,"is_reserved":false,"is_disabled":false,"rental_uris":{"android":"levelo://app?vid=41704600-e9e6-4869-aefd-a4a12996605b","ios":"levelo://app?vid=41704600-e9e6-4869-aefd-a4a12996605b"},"vehicle_type_id":"4","last_reported":1725635325,"current_range_meters":16400,"station_id":"ce4bhqp2rcd13ifvqhog","pricing_plan_id":"cebpf4jnsgd1na2vs0mg"},{"bike_id":"e1559469-2eef-4589-ab65-d2895a61af8d","system_id":"levelo_inurba_marseille","lat":43.32367,"lon":5.388836,"is_reserved":false,"is_disabled":false,"rental_uris":{"android":"levelo://app?vid=e1559469-2eef-4589-ab65-d2895a61af8d","ios":"levelo://app?vid=e1559469-2eef-4589-ab65-d2895a61af8d"},"vehicle_type_id":"4","last_reported":1725635325,"current_range_meters":19200,"station_id":"ce4bhqp2rcd13ifvqhog","pricing_plan_id":"cebpf4jnsgd1na2vs0mg"},{"bike_id":"03d065e7-41eb-4ea5-af7f-7f103fd0ae9c","system_id":"levelo_inurba_marseille","lat":43.32367,"lon":5.388836,"is_reserved":false,"is_disabled":false,"rental_uris":{"android":"levelo://app?vid=03d065e7-41eb-4ea5-af7f-7f103fd0ae9c","ios":"levelo://app?vid=03d065e7-41eb-4ea5-af7f-7f103fd0ae9c"},"vehicle_type_id":"4","last_reported":1725635325,"current_range_meters":22400,"station_id":"ce4bhqp2rcd13ifvqhog","pricing_plan_id":"cebpf4jnsgd1na2vs0mg"},{"bike_id":"1d6da562-f77b-4441-b690-e887af2628b5","system_id":"levelo_inurba_marseille","lat":43.32367,"lon":5.388836,"is_reserved":false,"is_disabled":false,"rental_uris":{"android":"levelo://app?vid=1d6da562-f77b-4441-b690-e887af2628b5","ios":"levelo://app?vid=1d6da562-f77b-4441-b690-e887af2628b5"},"vehicle_type_id":"4","last_reported":1725635325,"current_range_meters":4400,"station_id":"ce4bhqp2rcd13ifvqhog","pricing_plan_id":"cebpf4jnsgd1na2vs0mg"},{"bike_id":"de8970e6-5bf5-4cf7-9bfd-b05d6b019392","system_id":"levelo_inurba_marseille","lat":43.32367,"lon":5.388836,"is_reserved":false,"is_disabled":false,"rental_uris":{"android":"levelo://app?vid=de8970e6-5bf5-4cf7-9bfd-b05d6b019392","ios":"levelo://app?vid=de8970e6-5bf5-4cf7-9bfd-b05d6b019392"},"vehicle_type_id":"4","last_reported":1725635325,"current_range_meters":0,"station_id":"ce4bhqp2rcd13ifvqhog","pricing_plan_id":"cebpf4jnsgd1na2vs0mg"},{"bike_id":"1389f4a0-fe8c-45a8-89e1-761602337135","system_id":"levelo_inurba_marseille","lat":43.32367,"lon":5.388836,"is_reserved":false,"is_disabled":false,"rental_uris":{"android":"levelo://app?vid=1389f4a0-fe8c-45a8-89e1-761602337135","ios":"levelo://app?vid=1389f4a0-fe8c-45a8-89e1-761602337135"},"vehicle_type_id":"4","last_reported":1725635325,"current_range_meters":23600,"station_id":"ce4bhqp2rcd13ifvqhog","pricing_plan_id":"cebpf4jnsgd1na2vs0mg"},{"bike_id":"3f44f0b2-ea3d-4a8f-bbee-2823da8dcfcc","system_id":"levelo_inurba_marseille","lat":43.29602,"lon":5.381084,"is_reserved":false,"is_disabled":false,"rental_uris":{"android":"levelo://app?vid=3f44f0b2-ea3d-4a8f-bbee-2823da8dcfcc","ios":"levelo://app?vid=3f44f0b2-ea3d-4a8f-bbee-2823da8dcfcc"},"vehicle_type_id":"4","last_reported":1725635325,"current_range_meters":21600,"station_id":"ce4bgl12rcd13ifvqbo0","pricing_plan_id":"cebpf4jnsgd1na2vs0mg"},{"bike_id":"b45f8e57-2451-4aaa-b577-b80a059ff2db","system_id":"levelo_inurba_marseille","lat":43.292749,"lon":5.368402,"is_reserved":false,"is_disabled":false,"rental_uris":{"android":"levelo://app?vid=b45f8e57-2451-4aaa-b577-b80a059ff2db","ios":"levelo://app?vid=b45f8e57-2451-4aaa-b577-b80a059ff2db"},"vehicle_type_id":"4","last_reported":1725635325,"current_range_meters":0,"station_id":"ce4bhbp2rcd13ifvqesg","pricing_plan_id":"cebpf4jnsgd1na2vs0mg"},{"bike_id":"d30aec8a-37a1-4d78-8764-b42e878c5aeb","system_id":"levelo_inurba_marseille","lat":43.292749,"lon":5.368402,"is_reserved":false,"is_disabled":false,"rental_uris":{"android":"levelo://app?vid=d30aec8a-37a1-4d78-8764-b42e878c5aeb","ios":"levelo://app?vid=d30aec8a-37a1-4d78-8764-b42e878c5aeb"},"vehicle_type_id":"4","last_reported":1725635325,"current_range_meters":9600,"station_id":"ce4bhbp2rcd13ifvqesg","pricing_plan_id":"cebpf4jnsgd1na2vs0mg"},{"bike_id":"31f747a5-8c50-4211-94e2-4d813780c53a","system_id":"levelo_inurba_marseille","lat":43.29266,"lon":5.36757,"is_reserved":false,"is_disabled":false,"rental_uris":{"android":"levelo://app?vid=31f747a5-8c50-4211-94e2-4d813780c53a","ios":"levelo://app?vid=31f747a5-8c50-4211-94e2-4d813780c53a"},"vehicle_type_id":"4","last_reported":1725635325,"current_range_meters":0,"station_id":"","pricing_plan_id":"cebpf4jnsgd1na2vs0mg"},{"bike_id":"de216316-1575-40f5-a616-814ee44aaa56","system_id":"levelo_inurba_marseille","lat":43.29256,"lon":5.36642,"is_reserved":false,"is_disabled":false,"rental_uris":{"android":"levelo://app?vid=de216316-1575-40f5-a616-814ee44aaa56","ios":"levelo://app?vid=de216316-1575-40f5-a616-814ee44aaa56"},"vehicle_type_id":"4","last_reported":1725635325,"current_range_meters":27200,"station_id":"","pricing_plan_id":"cebpf4jnsgd1na2vs0mg"},{"bike_id":"eaf98f30-3388-41cc-84bb-7ded988e5c8b","system_id":"levelo_inurba_marseille","lat":43.29264,"lon":5.37256,"is_reserved":false,"is_disabled":false,"rental_uris":{"android":"levelo://app?vid=eaf98f30-3388-41cc-84bb-7ded988e5c8b","ios":"levelo://app?vid=eaf98f30-3388-41cc-84bb-7ded988e5c8b"},"vehicle_type_id":"4","last_reported":1725635325,"current_range_meters":4800,"station_id":"","pricing_plan_id":"cebpf4jnsgd1na2vs0mg"},{"bike_id":"06ceb2f6-20b0-41c6-a8c3-3c773a29e91d","system_id":"levelo_inurba_marseille","lat":43.293009,"lon":5.374584,"is_reserved":false,"is_disabled":false,"rental_uris":{"android":"levelo://app?vid=06ceb2f6-20b0-41c6-a8c3-3c773a29e91d","ios":"levelo://app?vid=06ceb2f6-20b0-41c6-a8c3-3c773a29e91d"},"vehicle_type_id":"4","last_reported":1725635325,"current_range_meters":1600,"station_id":"ce4bgi12rcd13ifvqb70","pricing_plan_id":"cebpf4jnsgd1na2vs0mg"},{"bike_id":"6686a570-3e1c-4436-847e-8533d31f76ff","system_id":"levelo_inurba_marseille","lat":43.293009,"lon":5.374584,"is_reserved":false,"is_disabled":false,"rental_uris":{"android":"levelo://app?vid=6686a570-3e1c-4436-847e-8533d31f76ff","ios":"levelo://app?vid=6686a570-3e1c-4436-847e-8533d31f76ff"},"vehicle_type_id":"4","last_reported":1725635325,"current_range_meters":0,"station_id":"ce4bgi12rcd13ifvqb70","pricing_plan_id":"cebpf4jnsgd1na2vs0mg"},{"bike_id":"6a5ec8ed-ce7d-4753-bcad-4149d341d025","system_id":"levelo_inurba_marseille","lat":43.2936,"lon":5.37835,"is_reserved":false,"is_disabled":false,"rental_uris":{"android":"levelo://app?vid=6a5ec8ed-ce7d-4753-bcad-4149d341d025","ios":"levelo://app?vid=6a5ec8ed-ce7d-4753-bcad-4149d341d025"},"vehicle_type_id":"4","last_reported":1725635325,"current_range_meters":11600,"station_id":"ce4bgjh2rcd13ifvqbf0","pricing_plan_id":"cebpf4jnsgd1na2vs0mg"},{"bike_id":"95e59ffb-80d1-486c-a08f-da58d12e25c1","system_id":"levelo_inurba_marseille","lat":43.29377,"lon":5.37853,"is_reserved":false,"is_disabled":false,"rental_uris":{"android":"levelo://app?vid=95e59ffb-80d1-486c-a08f-da58d12e25c1","ios":"levelo://app?vid=95e59ffb-80d1-486c-a08f-da58d12e25c1"},"vehicle_type_id":"4","last_reported":1725635325,"current_range_meters":2000,"station_id":"ce4bgjh2rcd13ifvqbf0","pricing_plan_id":"cebpf4jnsgd1na2vs0mg"},{"bike_id":"2af77704-46d3-4128-87fb-edce935ccbc4","system_id":"levelo_inurba_marseille","lat":43.2923,"lon":5.3606,"is_reserved":false,"is_disabled":false,"rental_uris":{"android":"levelo://app?vid=2af77704-46d3-4128-87fb-edce935ccbc4","ios":"levelo://app?vid=2af77704-46d3-4128-87fb-edce935ccbc4"},"vehicle_type_id":"4","last_reported":1725635325,"current_range_meters":0,"station_id":"ce4bhbh2rcd13ifvqeqg","pricing_plan_id":"cebpf4jnsgd1na2vs0mg"},{"bike_id":"afa5c5f8-2b96-454e-a6d1-cb2388aac4c4","system_id":"levelo_inurba_marseille","lat":43.284214,"lon":5.349706,"is_reserved":false,"is_disabled":false,"rental_uris":{"android":"levelo://app?vid=afa5c5f8-2b96-454e-a6d1-cb2388aac4c4","ios":"levelo://app?vid=afa5c5f8-2b96-454e-a6d1-cb2388aac4c4"},"vehicle_type_id":"4","last_reported":1725635325,"current_range_meters":29600,"station_id":"ce4bhbh2rcd13ifvqepg","pricing_plan_id":"cebpf4jnsgd1na2vs0mg"},{"bike_id":"b51a1890-229c-4102-a7ed-83b45478d32c","system_id":"levelo_inurba_marseille","lat":43.292311,"lon":5.360731,"is_reserved":false,"is_disabled":false,"rental_uris":{"android":"levelo://app?vid=b51a1890-229c-4102-a7ed-83b45478d32c","ios":"levelo://app?vid=b51a1890-229c-4102-a7ed-83b45478d32c"},"vehicle_type_id":"4","last_reported":1725635325,"current_range_meters":24400,"station_id":"ce4bhbh2rcd13ifvqeqg","pricing_plan_id":"cebpf4jnsgd1na2vs0mg"},{"bike_id":"76d98c2f-20a1-463a-bfe8-317725386110","system_id":"levelo_inurba_marseille","lat":43.29222,"lon":5.36047,"is_reserved":false,"is_disabled":false,"rental_uris":{"android":"levelo://app?vid=76d98c2f-20a1-463a-bfe8-317725386110","ios":"levelo://app?vid=76d98c2f-20a1-463a-bfe8-317725386110"},"vehicle_type_id":"4","last_reported":1725635325,"current_range_meters":0,"station_id":"ce4bhbh2rcd13ifvqeqg","pricing_plan_id":"cebpf4jnsgd1na2vs0mg"},{"bike_id":"a45f474b-3454-4f2b-be62-ac09af4cb13d","system_id":"levelo_inurba_marseille","lat":43.291675,"lon":5.371583,"is_reserved":false,"is_disabled":false,"rental_uris":{"android":"levelo://app?vid=a45f474b-3454-4f2b-be62-ac09af4cb13d","ios":"levelo://app?vid=a45f474b-3454-4f2b-be62-ac09af4cb13d"},"vehicle_type_id":"4","last_reported":1725635325,"current_range_meters":13200,"station_id":"ce4bha92rcd13ifvqeh0","pricing_plan_id":"cebpf4jnsgd1na2vs0mg"},{"bike_id":"18d4821b-7670-48ab-b86d-fc7f8d1c2c11","system_id":"levelo_inurba_marseille","lat":43.292005,"lon":5.357875,"is_reserved":false,"is_disabled":false,"rental_uris":{"android":"levelo://app?vid=18d4821b-7670-48ab-b86d-fc7f8d1c2c11","ios":"levelo://app?vid=18d4821b-7670-48ab-b86d-fc7f8d1c2c11"},"vehicle_type_id":"4","last_reported":1725635325,"current_range_meters":0,"station_id":"ce4bhb12rcd13ifvqel0","pricing_plan_id":"cebpf4jnsgd1na2vs0mg"},{"bike_id":"09e7d69a-a08e-45b7-8c4d-3de500f566aa","system_id":"levelo_inurba_marseille","lat":43.292005,"lon":5.357875,"is_reserved":false,"is_disabled":false,"rental_uris":{"android":"levelo://app?vid=09e7d69a-a08e-45b7-8c4d-3de500f566aa","ios":"levelo://app?vid=09e7d69a-a08e-45b7-8c4d-3de500f566aa"},"vehicle_type_id":"4","last_reported":1725635325,"current_range_meters":3600,"station_id":"ce4bhb12rcd13ifvqel0","pricing_plan_id":"cebpf4jnsgd1na2vs0mg"},{"bike_id":"48b69e66-a211-4565-ac30-f16d5f11bb1d","system_id":"levelo_inurba_marseille","lat":43.292005,"lon":5.357875,"is_reserved":false,"is_disabled":false,"rental_uris":{"android":"levelo://app?vid=48b69e66-a211-4565-ac30-f16d5f11bb1d","ios":"levelo://app?vid=48b69e66-a211-4565-ac30-f16d5f11bb1d"},"vehicle_type_id":"4","last_reported":1725635325,"current_range_meters":28000,"station_id":"ce4bhb12rcd13ifvqel0","pricing_plan_id":"cebpf4jnsgd1na2vs0mg"},{"bike_id":"2faa4f09-df8b-4beb-8b39-6e70c063fb6b","system_id":"levelo_inurba_marseille","lat":43.292005,"lon":5.357875,"is_reserved":false,"is_disabled":false,"rental_uris":{"android":"levelo://app?vid=2faa4f09-df8b-4beb-8b39-6e70c063fb6b","ios":"levelo://app?vid=2faa4f09-df8b-4beb-8b39-6e70c063fb6b"},"vehicle_type_id":"4","last_reported":1725635325,"current_range_meters":2000,"station_id":"ce4bhb12rcd13ifvqel0","pricing_plan_id":"cebpf4jnsgd1na2vs0mg"},{"bike_id":"71bed7af-51b5-4e20-a69f-24078a92138c","system_id":"levelo_inurba_marseille","lat":43.29197,"lon":5.35791,"is_reserved":false,"is_disabled":false,"rental_uris":{"android":"levelo://app?vid=71bed7af-51b5-4e20-a69f-24078a92138c","ios":"levelo://app?vid=71bed7af-51b5-4e20-a69f-24078a92138c"},"vehicle_type_id":"4","last_reported":1725635325,"current_range_meters":30000,"station_id":"ce4bhb12rcd13ifvqel0","pricing_plan_id":"cebpf4jnsgd1na2vs0mg"},{"bike_id":"ab148e3a-21a9-49a1-be59-249757fbebc6","system_id":"levelo_inurba_marseille","lat":43.3133,"lon":5.39693,"is_reserved":false,"is_disabled":false,"rental_uris":{"android":"levelo://app?vid=ab148e3a-21a9-49a1-be59-249757fbebc6","ios":"levelo://app?vid=ab148e3a-21a9-49a1-be59-249757fbebc6"},"vehicle_type_id":"4","last_reported":1725635325,"current_range_meters":2800,"station_id":"ce4bgvp2rcd13ifvqcu0","pricing_plan_id":"cebpf4jnsgd1na2vs0mg"},{"bike_id":"fff13296-ba8d-42c6-91e9-c2b90802180d","system_id":"levelo_inurba_marseille","lat":43.313291,"lon":5.396838,"is_reserved":false,"is_disabled":false,"rental_uris":{"android":"levelo://app?vid=fff13296-ba8d-42c6-91e9-c2b90802180d","ios":"levelo://app?vid=fff13296-ba8d-42c6-91e9-c2b90802180d"},"vehicle_type_id":"4","last_reported":1725635325,"current_range_meters":30000,"station_id":"ce4bgvp2rcd13ifvqcu0","pricing_plan_id":"cebpf4jnsgd1na2vs0mg"},{"bike_id":"14ddb18d-c42e-4e25-9430-cae26f7db956","system_id":"levelo_inurba_marseille","lat":43.29529,"lon":5.385581,"is_reserved":false,"is_disabled":false,"rental_uris":{"android":"levelo://app?vid=14ddb18d-c42e-4e25-9430-cae26f7db956","ios":"levelo://app?vid=14ddb18d-c42e-4e25-9430-cae26f7db956"},"vehicle_type_id":"4","last_reported":1725635325,"current_range_meters":15200,"station_id":"ce4bgih2rcd13ifvqba0","pricing_plan_id":"cebpf4jnsgd1na2vs0mg"},{"bike_id":"fad07d86-7bd6-4bfd-b9ba-44f474bf3198","system_id":"levelo_inurba_marseille","lat":43.309047,"lon":5.396551,"is_reserved":false,"is_disabled":false,"rental_uris":{"android":"levelo://app?vid=fad07d86-7bd6-4bfd-b9ba-44f474bf3198","ios":"levelo://app?vid=fad07d86-7bd6-4bfd-b9ba-44f474bf3198"},"vehicle_type_id":"4","last_reported":1725635325,"current_range_meters":4000,"station_id":"ce4bh012rcd13ifvqcv0","pricing_plan_id":"cebpf4jnsgd1na2vs0mg"},{"bike_id":"2c153dbd-16a8-4592-8b69-e5419eedc343","system_id":"levelo_inurba_marseille","lat":43.29529,"lon":5.385581,"is_reserved":false,"is_disabled":false,"rental_uris":{"android":"levelo://app?vid=2c153dbd-16a8-4592-8b69-e5419eedc343","ios":"levelo://app?vid=2c153dbd-16a8-4592-8b69-e5419eedc343"},"vehicle_type_id":"4","last_reported":1725635325,"current_range_meters":22400,"station_id":"ce4bgih2rcd13ifvqba0","pricing_plan_id":"cebpf4jnsgd1na2vs0mg"},{"bike_id":"07790385-1f72-4b7a-98cf-b0c8d6ae3bab","system_id":"levelo_inurba_marseille","lat":43.29533,"lon":5.38542,"is_reserved":false,"is_disabled":false,"rental_uris":{"android":"levelo://app?vid=07790385-1f72-4b7a-98cf-b0c8d6ae3bab","ios":"levelo://app?vid=07790385-1f72-4b7a-98cf-b0c8d6ae3bab"},"vehicle_type_id":"4","last_reported":1725635325,"current_range_meters":19600,"station_id":"ce4bgih2rcd13ifvqba0","pricing_plan_id":"cebpf4jnsgd1na2vs0mg"},{"bike_id":"18ceff8a-6ee2-46c1-a714-b4431519115c","system_id":"levelo_inurba_marseille","lat":43.29529,"lon":5.385581,"is_reserved":false,"is_disabled":false,"rental_uris":{"android":"levelo://app?vid=18ceff8a-6ee2-46c1-a714-b4431519115c","ios":"levelo://app?vid=18ceff8a-6ee2-46c1-a714-b4431519115c"},"vehicle_type_id":"4","last_reported":1725635325,"current_range_meters":12000,"station_id":"ce4bgih2rcd13ifvqba0","pricing_plan_id":"cebpf4jnsgd1na2vs0mg"},{"bike_id":"4b4cd050-5763-40a4-94d1-4ab7e77b4d04","system_id":"levelo_inurba_marseille","lat":43.290779,"lon":5.371482,"is_reserved":false,"is_disabled":false,"rental_uris":{"android":"levelo://app?vid=4b4cd050-5763-40a4-94d1-4ab7e77b4d04","ios":"levelo://app?vid=4b4cd050-5763-40a4-94d1-4ab7e77b4d04"},"vehicle_type_id":"4","last_reported":1725635325,"current_range_meters":0,"station_id":"ce4bh5p2rcd13ifvqe4g","pricing_plan_id":"cebpf4jnsgd1na2vs0mg"},{"bike_id":"ae641ca0-ccb1-4b2d-9443-745eccef4d1d","system_id":"levelo_inurba_marseille","lat":43.290779,"lon":5.371482,"is_reserved":false,"is_disabled":false,"rental_uris":{"android":"levelo://app?vid=ae641ca0-ccb1-4b2d-9443-745eccef4d1d","ios":"levelo://app?vid=ae641ca0-ccb1-4b2d-9443-745eccef4d1d"},"vehicle_type_id":"4","last_reported":1725635325,"current_range_meters":0,"station_id":"ce4bh5p2rcd13ifvqe4g","pricing_plan_id":"cebpf4jnsgd1na2vs0mg"},{"bike_id":"b849c572-1ffe-4dba-9912-a54fd59c33fa","system_id":"levelo_inurba_marseille","lat":43.302008,"lon":5.394694,"is_reserved":false,"is_disabled":false,"rental_uris":{"android":"levelo://app?vid=b849c572-1ffe-4dba-9912-a54fd59c33fa","ios":"levelo://app?vid=b849c572-1ffe-4dba-9912-a54fd59c33fa"},"vehicle_type_id":"4","last_reported":1725635325,"current_range_meters":2000,"station_id":"ce4bh0p2rcd13ifvqd70","pricing_plan_id":"cebpf4jnsgd1na2vs0mg"},{"bike_id":"56c64c1a-38c4-49c4-92ef-0c8222efde50","system_id":"levelo_inurba_marseille","lat":43.290624,"lon":5.359245,"is_reserved":false,"is_disabled":false,"rental_uris":{"android":"levelo://app?vid=56c64c1a-38c4-49c4-92ef-0c8222efde50","ios":"levelo://app?vid=56c64c1a-38c4-49c4-92ef-0c8222efde50"},"vehicle_type_id":"4","last_reported":1725635325,"current_range_meters":18000,"station_id":"ce4bha92rcd13ifvqeg0","pricing_plan_id":"cebpf4jnsgd1na2vs0mg"},{"bike_id":"e0c988ec-21b7-432d-853d-e29e3e561931","system_id":"levelo_inurba_marseille","lat":43.290104,"lon":5.356111,"is_reserved":false,"is_disabled":false,"rental_uris":{"android":"levelo://app?vid=e0c988ec-21b7-432d-853d-e29e3e561931","ios":"levelo://app?vid=e0c988ec-21b7-432d-853d-e29e3e561931"},"vehicle_type_id":"4","last_reported":1725635325,"current_range_meters":0,"station_id":"ce4bhb92rcd13ifvqen0","pricing_plan_id":"cebpf4jnsgd1na2vs0mg"},{"bike_id":"ae401133-7adc-46d1-99c3-ccb9e7397d3b","system_id":"levelo_inurba_marseille","lat":43.29421,"lon":5.38621,"is_reserved":false,"is_disabled":false,"rental_uris":{"android":"levelo://app?vid=ae401133-7adc-46d1-99c3-ccb9e7397d3b","ios":"levelo://app?vid=ae401133-7adc-46d1-99c3-ccb9e7397d3b"},"vehicle_type_id":"4","last_reported":1725635325,"current_range_meters":8800,"station_id":"ce4bh2h2rcd13ifvqdh0","pricing_plan_id":"cebpf4jnsgd1na2vs0mg"},{"bike_id":"63c4589a-c5af-40c0-b838-5d4e3cf5fe17","system_id":"levelo_inurba_marseille","lat":43.290319,"lon":5.375732,"is_reserved":false,"is_disabled":false,"rental_uris":{"android":"levelo://app?vid=63c4589a-c5af-40c0-b838-5d4e3cf5fe17","ios":"levelo://app?vid=63c4589a-c5af-40c0-b838-5d4e3cf5fe17"},"vehicle_type_id":"4","last_reported":1725635325,"current_range_meters":22000,"station_id":"ce4bh692rcd13ifvqe90","pricing_plan_id":"cebpf4jnsgd1na2vs0mg"},{"bike_id":"26df080c-99cd-4ecb-bfe1-ef3b898dd434","system_id":"levelo_inurba_marseille","lat":43.294162,"lon":5.386292,"is_reserved":false,"is_disabled":false,"rental_uris":{"android":"levelo://app?vid=26df080c-99cd-4ecb-bfe1-ef3b898dd434","ios":"levelo://app?vid=26df080c-99cd-4ecb-bfe1-ef3b898dd434"},"vehicle_type_id":"4","last_reported":1725635325,"current_range_meters":2800,"station_id":"ce4bh2h2rcd13ifvqdh0","pricing_plan_id":"cebpf4jnsgd1na2vs0mg"},{"bike_id":"6af0dd7f-2eca-41cb-ae2d-e66c3ea7e6b8","system_id":"levelo_inurba_marseille","lat":43.290319,"lon":5.375732,"is_reserved":false,"is_disabled":false,"rental_uris":{"android":"levelo://app?vid=6af0dd7f-2eca-41cb-ae2d-e66c3ea7e6b8","ios":"levelo://app?vid=6af0dd7f-2eca-41cb-ae2d-e66c3ea7e6b8"},"vehicle_type_id":"4","last_reported":1725635325,"current_range_meters":400,"station_id":"ce4bh692rcd13ifvqe90","pricing_plan_id":"cebpf4jnsgd1na2vs0mg"},{"bike_id":"085df170-df29-474a-a609-fcb26450812d","system_id":"levelo_inurba_marseille","lat":43.294162,"lon":5.386292,"is_reserved":false,"is_disabled":false,"rental_uris":{"android":"levelo://app?vid=085df170-df29-474a-a609-fcb26450812d","ios":"levelo://app?vid=085df170-df29-474a-a609-fcb26450812d"},"vehicle_type_id":"4","last_reported":1725635325,"current_range_meters":0,"station_id":"ce4bh2h2rcd13ifvqdh0","pricing_plan_id":"cebpf4jnsgd1na2vs0mg"},{"bike_id":"3ba5769e-7511-4537-9caa-83928682ac22","system_id":"levelo_inurba_marseille","lat":43.289184,"lon":5.366408,"is_reserved":false,"is_disabled":false,"rental_uris":{"android":"levelo://app?vid=3ba5769e-7511-4537-9caa-83928682ac22","ios":"levelo://app?vid=3ba5769e-7511-4537-9caa-83928682ac22"},"vehicle_type_id":"4","last_reported":1725635325,"current_range_meters":0,"station_id":"ce4bhap2rcd13ifvqek0","pricing_plan_id":"cebpf4jnsgd1na2vs0mg"},{"bike_id":"0ce61fce-2154-4c6f-b018-909b56c058b0","system_id":"levelo_inurba_marseille","lat":43.29416,"lon":5.38632,"is_reserved":false,"is_disabled":false,"rental_uris":{"android":"levelo://app?vid=0ce61fce-2154-4c6f-b018-909b56c058b0","ios":"levelo://app?vid=0ce61fce-2154-4c6f-b018-909b56c058b0"},"vehicle_type_id":"4","last_reported":1725635325,"current_range_meters":0,"station_id":"ce4bh2h2rcd13ifvqdh0","pricing_plan_id":"cebpf4jnsgd1na2vs0mg"},{"bike_id":"0be16dcc-b3f0-42de-a52a-8b92ee8926e1","system_id":"levelo_inurba_marseille","lat":43.28937,"lon":5.36644,"is_reserved":false,"is_disabled":false,"rental_uris":{"android":"levelo://app?vid=0be16dcc-b3f0-42de-a52a-8b92ee8926e1","ios":"levelo://app?vid=0be16dcc-b3f0-42de-a52a-8b92ee8926e1"},"vehicle_type_id":"4","last_reported":1725635325,"current_range_meters":0,"station_id":"ce4bhap2rcd13ifvqek0","pricing_plan_id":"cebpf4jnsgd1na2vs0mg"},{"bike_id":"00f10de3-653b-4655-a2fc-22a956d1af97","system_id":"levelo_inurba_marseille","lat":43.289468,"lon":5.363719,"is_reserved":false,"is_disabled":false,"rental_uris":{"android":"levelo://app?vid=00f10de3-653b-4655-a2fc-22a956d1af97","ios":"levelo://app?vid=00f10de3-653b-4655-a2fc-22a956d1af97"},"vehicle_type_id":"4","last_reported":1725635325,"current_range_meters":400,"station_id":"ce4bhc92rcd13ifvqetg","pricing_plan_id":"cebpf4jnsgd1na2vs0mg"},{"bike_id":"fce66434-2e23-4822-a5b2-ad7e7bc80883","system_id":"levelo_inurba_marseille","lat":43.289315,"lon":5.366346,"is_reserved":false,"is_disabled":false,"rental_uris":{"android":"levelo://app?vid=fce66434-2e23-4822-a5b2-ad7e7bc80883","ios":"levelo://app?vid=fce66434-2e23-4822-a5b2-ad7e7bc80883"},"vehicle_type_id":"4","last_reported":1725635325,"current_range_meters":14000,"station_id":"ce4bhap2rcd13ifvqek0","pricing_plan_id":"cebpf4jnsgd1na2vs0mg"},{"bike_id":"86c75710-17e7-41e6-8958-7d829ae42ef1","system_id":"levelo_inurba_marseille","lat":43.289184,"lon":5.366408,"is_reserved":false,"is_disabled":false,"rental_uris":{"android":"levelo://app?vid=86c75710-17e7-41e6-8958-7d829ae42ef1","ios":"levelo://app?vid=86c75710-17e7-41e6-8958-7d829ae42ef1"},"vehicle_type_id":"4","last_reported":1725635325,"current_range_meters":0,"station_id":"ce4bhap2rcd13ifvqek0","pricing_plan_id":"cebpf4jnsgd1na2vs0mg"},{"bike_id":"c1b8e179-cbf8-4d59-934d-46a36ac41494","system_id":"levelo_inurba_marseille","lat":43.292642,"lon":5.384254,"is_reserved":false,"is_disabled":false,"rental_uris":{"android":"levelo://app?vid=c1b8e179-cbf8-4d59-934d-46a36ac41494","ios":"levelo://app?vid=c1b8e179-cbf8-4d59-934d-46a36ac41494"},"vehicle_type_id":"4","last_reported":1725635325,"current_range_meters":0,"station_id":"ce4bh692rcd13ifvqea0","pricing_plan_id":"cebpf4jnsgd1na2vs0mg"},{"bike_id":"5f4188a5-1688-4d55-847b-c239eec33b08","system_id":"levelo_inurba_marseille","lat":43.292642,"lon":5.384254,"is_reserved":false,"is_disabled":false,"rental_uris":{"android":"levelo://app?vid=5f4188a5-1688-4d55-847b-c239eec33b08","ios":"levelo://app?vid=5f4188a5-1688-4d55-847b-c239eec33b08"},"vehicle_type_id":"4","last_reported":1725635325,"current_range_meters":0,"station_id":"ce4bh692rcd13ifvqea0","pricing_plan_id":"cebpf4jnsgd1na2vs0mg"},{"bike_id":"81fea11a-8648-4c7c-9a32-70f59d62886b","system_id":"levelo_inurba_marseille","lat":43.292642,"lon":5.384254,"is_reserved":false,"is_disabled":false,"rental_uris":{"android":"levelo://app?vid=81fea11a-8648-4c7c-9a32-70f59d62886b","ios":"levelo://app?vid=81fea11a-8648-4c7c-9a32-70f59d62886b"},"vehicle_type_id":"4","last_reported":1725635325,"current_range_meters":14400,"station_id":"ce4bh692rcd13ifvqea0","pricing_plan_id":"cebpf4jnsgd1na2vs0mg"},{"bike_id":"3f766c17-2cf0-4dde-8aeb-57fc83c9d833","system_id":"levelo_inurba_marseille","lat":43.273613,"lon":5.362705,"is_reserved":false,"is_disabled":false,"rental_uris":{"android":"levelo://app?vid=3f766c17-2cf0-4dde-8aeb-57fc83c9d833","ios":"levelo://app?vid=3f766c17-2cf0-4dde-8aeb-57fc83c9d833"},"vehicle_type_id":"4","last_reported":1725635325,"current_range_meters":15200,"station_id":"ce4bhbh2rcd13ifvqeo0","pricing_plan_id":"cebpf4jnsgd1na2vs0mg"},{"bike_id":"f75e5d16-9445-41e3-8093-dbd4abf8c107","system_id":"levelo_inurba_marseille","lat":43.290103,"lon":5.356114,"is_reserved":false,"is_disabled":false,"rental_uris":{"android":"levelo://app?vid=f75e5d16-9445-41e3-8093-dbd4abf8c107","ios":"levelo://app?vid=f75e5d16-9445-41e3-8093-dbd4abf8c107"},"vehicle_type_id":"4","last_reported":1725635325,"current_range_meters":0,"station_id":"ce4bhb92rcd13ifvqen0","pricing_plan_id":"cebpf4jnsgd1na2vs0mg"},{"bike_id":"d302faaa-df10-4c5e-be91-30d91353bdb1","system_id":"levelo_inurba_marseille","lat":43.290104,"lon":5.356111,"is_reserved":false,"is_disabled":false,"rental_uris":{"android":"levelo://app?vid=d302faaa-df10-4c5e-be91-30d91353bdb1","ios":"levelo://app?vid=d302faaa-df10-4c5e-be91-30d91353bdb1"},"vehicle_type_id":"4","last_reported":1725635325,"current_range_meters":19200,"station_id":"ce4bhb92rcd13ifvqen0","pricing_plan_id":"cebpf4jnsgd1na2vs0mg"},{"bike_id":"5ffe847d-e703-4acb-8c27-06e065c1685c","system_id":"levelo_inurba_marseille","lat":43.290104,"lon":5.356111,"is_reserved":false,"is_disabled":false,"rental_uris":{"android":"levelo://app?vid=5ffe847d-e703-4acb-8c27-06e065c1685c","ios":"levelo://app?vid=5ffe847d-e703-4acb-8c27-06e065c1685c"},"vehicle_type_id":"4","last_reported":1725635325,"current_range_meters":21200,"station_id":"ce4bhb92rcd13ifvqen0","pricing_plan_id":"cebpf4jnsgd1na2vs0mg"},{"bike_id":"cf6078b1-7742-4b8f-a35c-fc42efb20c06","system_id":"levelo_inurba_marseille","lat":43.290104,"lon":5.356111,"is_reserved":false,"is_disabled":false,"rental_uris":{"android":"levelo://app?vid=cf6078b1-7742-4b8f-a35c-fc42efb20c06","ios":"levelo://app?vid=cf6078b1-7742-4b8f-a35c-fc42efb20c06"},"vehicle_type_id":"4","last_reported":1725635325,"current_range_meters":14000,"station_id":"ce4bhb92rcd13ifvqen0","pricing_plan_id":"cebpf4jnsgd1na2vs0mg"},{"bike_id":"c7210191-1e8a-413e-a555-323deacf9053","system_id":"levelo_inurba_marseille","lat":43.290103,"lon":5.356114,"is_reserved":false,"is_disabled":false,"rental_uris":{"android":"levelo://app?vid=c7210191-1e8a-413e-a555-323deacf9053","ios":"levelo://app?vid=c7210191-1e8a-413e-a555-323deacf9053"},"vehicle_type_id":"4","last_reported":1725635325,"current_range_meters":23200,"station_id":"ce4bhb92rcd13ifvqen0","pricing_plan_id":"cebpf4jnsgd1na2vs0mg"},{"bike_id":"2a946499-65f9-4606-9a6a-159911edc308","system_id":"levelo_inurba_marseille","lat":43.290104,"lon":5.356111,"is_reserved":false,"is_disabled":false,"rental_uris":{"android":"levelo://app?vid=2a946499-65f9-4606-9a6a-159911edc308","ios":"levelo://app?vid=2a946499-65f9-4606-9a6a-159911edc308"},"vehicle_type_id":"4","last_reported":1725635325,"current_range_meters":0,"station_id":"ce4bhb92rcd13ifvqen0","pricing_plan_id":"cebpf4jnsgd1na2vs0mg"},{"bike_id":"c5a0b5a0-5f13-45ef-bfcf-34e8db610adb","system_id":"levelo_inurba_marseille","lat":43.290103,"lon":5.356114,"is_reserved":false,"is_disabled":false,"rental_uris":{"android":"levelo://app?vid=c5a0b5a0-5f13-45ef-bfcf-34e8db610adb","ios":"levelo://app?vid=c5a0b5a0-5f13-45ef-bfcf-34e8db610adb"},"vehicle_type_id":"4","last_reported":1725635325,"current_range_meters":8800,"station_id":"ce4bhb92rcd13ifvqen0","pricing_plan_id":"cebpf4jnsgd1na2vs0mg"},{"bike_id":"9b7be185-fee6-4e92-945d-fadd8d03c9d7","system_id":"levelo_inurba_marseille","lat":43.290995,"lon":5.381361,"is_reserved":false,"is_disabled":false,"rental_uris":{"android":"levelo://app?vid=9b7be185-fee6-4e92-945d-fadd8d03c9d7","ios":"levelo://app?vid=9b7be185-fee6-4e92-945d-fadd8d03c9d7"},"vehicle_type_id":"4","last_reported":1725635325,"current_range_meters":18400,"station_id":"ce4bh512rcd13ifvqe2g","pricing_plan_id":"cebpf4jnsgd1na2vs0mg"},{"bike_id":"adb8ebee-370b-4a53-a1a7-2c7c1ad852f1","system_id":"levelo_inurba_marseille","lat":43.33018,"lon":5.3903,"is_reserved":false,"is_disabled":false,"rental_uris":{"android":"levelo://app?vid=adb8ebee-370b-4a53-a1a7-2c7c1ad852f1","ios":"levelo://app?vid=adb8ebee-370b-4a53-a1a7-2c7c1ad852f1"},"vehicle_type_id":"4","last_reported":1725635325,"current_range_meters":11200,"station_id":"ce4bhr92rcd13ifvqhrg","pricing_plan_id":"cebpf4jnsgd1na2vs0mg"},{"bike_id":"03d21d2a-3707-4b28-8b82-5f643dae12a8","system_id":"levelo_inurba_marseille","lat":43.297807,"lon":5.393533,"is_reserved":false,"is_disabled":false,"rental_uris":{"android":"levelo://app?vid=03d21d2a-3707-4b28-8b82-5f643dae12a8","ios":"levelo://app?vid=03d21d2a-3707-4b28-8b82-5f643dae12a8"},"vehicle_type_id":"4","last_reported":1725635325,"current_range_meters":3600,"station_id":"chh1huq6cuj3fo74tm60","pricing_plan_id":"cebpf4jnsgd1na2vs0mg"},{"bike_id":"0d267cfd-b7e1-4abf-a424-f618bcd13c39","system_id":"levelo_inurba_marseille","lat":43.295169,"lon":5.390426,"is_reserved":false,"is_disabled":false,"rental_uris":{"android":"levelo://app?vid=0d267cfd-b7e1-4abf-a424-f618bcd13c39","ios":"levelo://app?vid=0d267cfd-b7e1-4abf-a424-f618bcd13c39"},"vehicle_type_id":"4","last_reported":1725635325,"current_range_meters":0,"station_id":"ce4bh3p2rcd13ifvqdp0","pricing_plan_id":"cebpf4jnsgd1na2vs0mg"},{"bike_id":"414c1f37-7753-43bb-9c6f-085730a10037","system_id":"levelo_inurba_marseille","lat":43.3302,"lon":5.39038,"is_reserved":false,"is_disabled":false,"rental_uris":{"android":"levelo://app?vid=414c1f37-7753-43bb-9c6f-085730a10037","ios":"levelo://app?vid=414c1f37-7753-43bb-9c6f-085730a10037"},"vehicle_type_id":"4","last_reported":1725635325,"current_range_meters":12800,"station_id":"ce4bhr92rcd13ifvqhrg","pricing_plan_id":"cebpf4jnsgd1na2vs0mg"},{"bike_id":"d3b78211-c5d6-4fe5-b94f-ea993c2458e5","system_id":"levelo_inurba_marseille","lat":43.33025,"lon":5.39035,"is_reserved":false,"is_disabled":false,"rental_uris":{"android":"levelo://app?vid=d3b78211-c5d6-4fe5-b94f-ea993c2458e5","ios":"levelo://app?vid=d3b78211-c5d6-4fe5-b94f-ea993c2458e5"},"vehicle_type_id":"4","last_reported":1725635325,"current_range_meters":10000,"station_id":"ce4bhr92rcd13ifvqhrg","pricing_plan_id":"cebpf4jnsgd1na2vs0mg"},{"bike_id":"78fee40d-6f8d-473c-9e35-e54375103031","system_id":"levelo_inurba_marseille","lat":43.289741,"lon":5.378306,"is_reserved":false,"is_disabled":false,"rental_uris":{"android":"levelo://app?vid=78fee40d-6f8d-473c-9e35-e54375103031","ios":"levelo://app?vid=78fee40d-6f8d-473c-9e35-e54375103031"},"vehicle_type_id":"4","last_reported":1725635325,"current_range_meters":0,"station_id":"ce4bh9p2rcd13ifvqed0","pricing_plan_id":"cebpf4jnsgd1na2vs0mg"},{"bike_id":"dd95b247-1d75-4323-8b3b-2e615dd10515","system_id":"levelo_inurba_marseille","lat":43.330442,"lon":5.389148,"is_reserved":false,"is_disabled":false,"rental_uris":{"android":"levelo://app?vid=dd95b247-1d75-4323-8b3b-2e615dd10515","ios":"levelo://app?vid=dd95b247-1d75-4323-8b3b-2e615dd10515"},"vehicle_type_id":"4","last_reported":1725635325,"current_range_meters":10800,"station_id":"ce4bhr92rcd13ifvqhrg","pricing_plan_id":"cebpf4jnsgd1na2vs0mg"},{"bike_id":"18dd51c4-4c4d-40b4-85d7-24af2784d357","system_id":"levelo_inurba_marseille","lat":43.33027,"lon":5.39042,"is_reserved":false,"is_disabled":false,"rental_uris":{"android":"levelo://app?vid=18dd51c4-4c4d-40b4-85d7-24af2784d357","ios":"levelo://app?vid=18dd51c4-4c4d-40b4-85d7-24af2784d357"},"vehicle_type_id":"4","last_reported":1725635325,"current_range_meters":14000,"station_id":"ce4bhr92rcd13ifvqhrg","pricing_plan_id":"cebpf4jnsgd1na2vs0mg"},{"bike_id":"2355dcd9-27b3-4335-b271-83440fc3170c","system_id":"levelo_inurba_marseille","lat":43.33032,"lon":5.39035,"is_reserved":false,"is_disabled":false,"rental_uris":{"android":"levelo://app?vid=2355dcd9-27b3-4335-b271-83440fc3170c","ios":"levelo://app?vid=2355dcd9-27b3-4335-b271-83440fc3170c"},"vehicle_type_id":"4","last_reported":1725635325,"current_range_meters":31200,"station_id":"ce4bhr92rcd13ifvqhrg","pricing_plan_id":"cebpf4jnsgd1na2vs0mg"},{"bike_id":"2b362ec8-0c89-4aa2-b399-da3d36d1b779","system_id":"levelo_inurba_marseille","lat":43.330442,"lon":5.389148,"is_reserved":false,"is_disabled":false,"rental_uris":{"android":"levelo://app?vid=2b362ec8-0c89-4aa2-b399-da3d36d1b779","ios":"levelo://app?vid=2b362ec8-0c89-4aa2-b399-da3d36d1b779"},"vehicle_type_id":"4","last_reported":1725635325,"current_range_meters":18000,"station_id":"ce4bhr92rcd13ifvqhrg","pricing_plan_id":"cebpf4jnsgd1na2vs0mg"},{"bike_id":"24d37a57-10b7-4782-b387-f449df1baf21","system_id":"levelo_inurba_marseille","lat":43.33026,"lon":5.39044,"is_reserved":false,"is_disabled":false,"rental_uris":{"android":"levelo://app?vid=24d37a57-10b7-4782-b387-f449df1baf21","ios":"levelo://app?vid=24d37a57-10b7-4782-b387-f449df1baf21"},"vehicle_type_id":"4","last_reported":1725635325,"current_range_meters":2800,"station_id":"ce4bhr92rcd13ifvqhrg","pricing_plan_id":"cebpf4jnsgd1na2vs0mg"},{"bike_id":"c690425e-1ce7-4679-a0d9-73706089c8e8","system_id":"levelo_inurba_marseille","lat":43.33027,"lon":5.39044,"is_reserved":false,"is_disabled":false,"rental_uris":{"android":"levelo://app?vid=c690425e-1ce7-4679-a0d9-73706089c8e8","ios":"levelo://app?vid=c690425e-1ce7-4679-a0d9-73706089c8e8"},"vehicle_type_id":"4","last_reported":1725635325,"current_range_meters":8800,"station_id":"ce4bhr92rcd13ifvqhrg","pricing_plan_id":"cebpf4jnsgd1na2vs0mg"},{"bike_id":"71ce0aa9-2a33-4f70-8bf4-3e6097820571","system_id":"levelo_inurba_marseille","lat":43.33026,"lon":5.39046,"is_reserved":false,"is_disabled":false,"rental_uris":{"android":"levelo://app?vid=71ce0aa9-2a33-4f70-8bf4-3e6097820571","ios":"levelo://app?vid=71ce0aa9-2a33-4f70-8bf4-3e6097820571"},"vehicle_type_id":"4","last_reported":1725635325,"current_range_meters":8800,"station_id":"ce4bhr92rcd13ifvqhrg","pricing_plan_id":"cebpf4jnsgd1na2vs0mg"},{"bike_id":"1ae6d1a4-dd90-47a7-b66a-c12481ea828b","system_id":"levelo_inurba_marseille","lat":43.33026,"lon":5.39046,"is_reserved":false,"is_disabled":false,"rental_uris":{"android":"levelo://app?vid=1ae6d1a4-dd90-47a7-b66a-c12481ea828b","ios":"levelo://app?vid=1ae6d1a4-dd90-47a7-b66a-c12481ea828b"},"vehicle_type_id":"4","last_reported":1725635325,"current_range_meters":12000,"station_id":"ce4bhr92rcd13ifvqhrg","pricing_plan_id":"cebpf4jnsgd1na2vs0mg"},{"bike_id":"cff56aae-3b9b-4789-9282-00b193ae8fa1","system_id":"levelo_inurba_marseille","lat":43.33027,"lon":5.3905,"is_reserved":false,"is_disabled":false,"rental_uris":{"android":"levelo://app?vid=cff56aae-3b9b-4789-9282-00b193ae8fa1","ios":"levelo://app?vid=cff56aae-3b9b-4789-9282-00b193ae8fa1"},"vehicle_type_id":"4","last_reported":1725635325,"current_range_meters":10000,"station_id":"ce4bhr92rcd13ifvqhrg","pricing_plan_id":"cebpf4jnsgd1na2vs0mg"},{"bike_id":"cffb2de2-b4e0-421c-805c-7cb0c177beda","system_id":"levelo_inurba_marseille","lat":43.33028,"lon":5.39049,"is_reserved":false,"is_disabled":false,"rental_uris":{"android":"levelo://app?vid=cffb2de2-b4e0-421c-805c-7cb0c177beda","ios":"levelo://app?vid=cffb2de2-b4e0-421c-805c-7cb0c177beda"},"vehicle_type_id":"4","last_reported":1725635325,"current_range_meters":6400,"station_id":"ce4bhr92rcd13ifvqhrg","pricing_plan_id":"cebpf4jnsgd1na2vs0mg"},{"bike_id":"1c5f8b94-13ba-44e5-a343-45f59f0b1333","system_id":"levelo_inurba_marseille","lat":43.28865,"lon":5.35844,"is_reserved":false,"is_disabled":false,"rental_uris":{"android":"levelo://app?vid=1c5f8b94-13ba-44e5-a343-45f59f0b1333","ios":"levelo://app?vid=1c5f8b94-13ba-44e5-a343-45f59f0b1333"},"vehicle_type_id":"4","last_reported":1725635325,"current_range_meters":0,"station_id":"ce4bhb12rcd13ifvqem0","pricing_plan_id":"cebpf4jnsgd1na2vs0mg"},{"bike_id":"2acb8244-e2e2-436a-8afc-e6b009e09a1a","system_id":"levelo_inurba_marseille","lat":43.28856,"lon":5.358371,"is_reserved":false,"is_disabled":false,"rental_uris":{"android":"levelo://app?vid=2acb8244-e2e2-436a-8afc-e6b009e09a1a","ios":"levelo://app?vid=2acb8244-e2e2-436a-8afc-e6b009e09a1a"},"vehicle_type_id":"4","last_reported":1725635325,"current_range_meters":21200,"station_id":"ce4bhb12rcd13ifvqem0","pricing_plan_id":"cebpf4jnsgd1na2vs0mg"},{"bike_id":"07b027df-399a-4a74-9d40-7b77bc4d150f","system_id":"levelo_inurba_marseille","lat":43.28856,"lon":5.358371,"is_reserved":false,"is_disabled":false,"rental_uris":{"android":"levelo://app?vid=07b027df-399a-4a74-9d40-7b77bc4d150f","ios":"levelo://app?vid=07b027df-399a-4a74-9d40-7b77bc4d150f"},"vehicle_type_id":"4","last_reported":1725635325,"current_range_meters":4000,"station_id":"ce4bhb12rcd13ifvqem0","pricing_plan_id":"cebpf4jnsgd1na2vs0mg"},{"bike_id":"f4b585ad-5789-489d-9718-bb04a5be32da","system_id":"levelo_inurba_marseille","lat":43.28856,"lon":5.358371,"is_reserved":false,"is_disabled":false,"rental_uris":{"android":"levelo://app?vid=f4b585ad-5789-489d-9718-bb04a5be32da","ios":"levelo://app?vid=f4b585ad-5789-489d-9718-bb04a5be32da"},"vehicle_type_id":"4","last_reported":1725635325,"current_range_meters":0,"station_id":"ce4bhb12rcd13ifvqem0","pricing_plan_id":"cebpf4jnsgd1na2vs0mg"},{"bike_id":"e460854d-7ce6-4b1c-8adb-008166890f1e","system_id":"levelo_inurba_marseille","lat":43.309371,"lon":5.401449,"is_reserved":false,"is_disabled":false,"rental_uris":{"android":"levelo://app?vid=e460854d-7ce6-4b1c-8adb-008166890f1e","ios":"levelo://app?vid=e460854d-7ce6-4b1c-8adb-008166890f1e"},"vehicle_type_id":"4","last_reported":1725635325,"current_range_meters":22000,"station_id":"ce4bgvp2rcd13ifvqct0","pricing_plan_id":"cebpf4jnsgd1na2vs0mg"},{"bike_id":"42eaf076-bc23-49b4-a41b-b6cb187255db","system_id":"levelo_inurba_marseille","lat":43.337492,"lon":5.37477,"is_reserved":false,"is_disabled":false,"rental_uris":{"android":"levelo://app?vid=42eaf076-bc23-49b4-a41b-b6cb187255db","ios":"levelo://app?vid=42eaf076-bc23-49b4-a41b-b6cb187255db"},"vehicle_type_id":"4","last_reported":1725635325,"current_range_meters":18800,"station_id":"","pricing_plan_id":"cebpf4jnsgd1na2vs0mg"},{"bike_id":"3f3244df-bee4-4437-b2a1-ab9135c8e39a","system_id":"levelo_inurba_marseille","lat":43.33759,"lon":5.37451,"is_reserved":false,"is_disabled":false,"rental_uris":{"android":"levelo://app?vid=3f3244df-bee4-4437-b2a1-ab9135c8e39a","ios":"levelo://app?vid=3f3244df-bee4-4437-b2a1-ab9135c8e39a"},"vehicle_type_id":"4","last_reported":1725635325,"current_range_meters":26400,"station_id":"","pricing_plan_id":"cebpf4jnsgd1na2vs0mg"},{"bike_id":"027ef4b8-a45c-42f2-8656-36250348da25","system_id":"levelo_inurba_marseille","lat":43.33754,"lon":5.37482,"is_reserved":false,"is_disabled":false,"rental_uris":{"android":"levelo://app?vid=027ef4b8-a45c-42f2-8656-36250348da25","ios":"levelo://app?vid=027ef4b8-a45c-42f2-8656-36250348da25"},"vehicle_type_id":"4","last_reported":1725635325,"current_range_meters":25200,"station_id":"","pricing_plan_id":"cebpf4jnsgd1na2vs0mg"},{"bike_id":"a8dc4d3a-2e33-47d6-9a70-702b31f160c8","system_id":"levelo_inurba_marseille","lat":43.30637,"lon":5.40091,"is_reserved":false,"is_disabled":false,"rental_uris":{"android":"levelo://app?vid=a8dc4d3a-2e33-47d6-9a70-702b31f160c8","ios":"levelo://app?vid=a8dc4d3a-2e33-47d6-9a70-702b31f160c8"},"vehicle_type_id":"4","last_reported":1725635325,"current_range_meters":0,"station_id":"ce4bh112rcd13ifvqda0","pricing_plan_id":"cebpf4jnsgd1na2vs0mg"},{"bike_id":"c7ad6df2-4e5d-47f5-8128-6c8c93fa0b4c","system_id":"levelo_inurba_marseille","lat":43.306412,"lon":5.401035,"is_reserved":false,"is_disabled":false,"rental_uris":{"android":"levelo://app?vid=c7ad6df2-4e5d-47f5-8128-6c8c93fa0b4c","ios":"levelo://app?vid=c7ad6df2-4e5d-47f5-8128-6c8c93fa0b4c"},"vehicle_type_id":"4","last_reported":1725635325,"current_range_meters":26000,"station_id":"ce4bh112rcd13ifvqda0","pricing_plan_id":"cebpf4jnsgd1na2vs0mg"},{"bike_id":"e224c521-f4ab-4060-a42a-d6f4d16128d7","system_id":"levelo_inurba_marseille","lat":43.301117,"lon":5.398795,"is_reserved":false,"is_disabled":false,"rental_uris":{"android":"levelo://app?vid=e224c521-f4ab-4060-a42a-d6f4d16128d7","ios":"levelo://app?vid=e224c521-f4ab-4060-a42a-d6f4d16128d7"},"vehicle_type_id":"4","last_reported":1725635325,"current_range_meters":4800,"station_id":"ce4bh0h2rcd13ifvqd40","pricing_plan_id":"cebpf4jnsgd1na2vs0mg"},{"bike_id":"dbbda1e6-f11a-4061-b75a-3de46ae3ae76","system_id":"levelo_inurba_marseille","lat":43.33777,"lon":5.37435,"is_reserved":false,"is_disabled":false,"rental_uris":{"android":"levelo://app?vid=dbbda1e6-f11a-4061-b75a-3de46ae3ae76","ios":"levelo://app?vid=dbbda1e6-f11a-4061-b75a-3de46ae3ae76"},"vehicle_type_id":"4","last_reported":1725635325,"current_range_meters":23600,"station_id":"","pricing_plan_id":"cebpf4jnsgd1na2vs0mg"},{"bike_id":"f295628a-ce04-49b6-8b35-bdc2fa3a8d49","system_id":"levelo_inurba_marseille","lat":43.301117,"lon":5.398795,"is_reserved":false,"is_disabled":false,"rental_uris":{"android":"levelo://app?vid=f295628a-ce04-49b6-8b35-bdc2fa3a8d49","ios":"levelo://app?vid=f295628a-ce04-49b6-8b35-bdc2fa3a8d49"},"vehicle_type_id":"4","last_reported":1725635325,"current_range_meters":11200,"station_id":"ce4bh0h2rcd13ifvqd40","pricing_plan_id":"cebpf4jnsgd1na2vs0mg"},{"bike_id":"ea8b86fb-06a8-4736-9b06-d23b946857a1","system_id":"levelo_inurba_marseille","lat":43.301117,"lon":5.398795,"is_reserved":false,"is_disabled":false,"rental_uris":{"android":"levelo://app?vid=ea8b86fb-06a8-4736-9b06-d23b946857a1","ios":"levelo://app?vid=ea8b86fb-06a8-4736-9b06-d23b946857a1"},"vehicle_type_id":"4","last_reported":1725635325,"current_range_meters":0,"station_id":"ce4bh0h2rcd13ifvqd40","pricing_plan_id":"cebpf4jnsgd1na2vs0mg"},{"bike_id":"ccf2ab0a-77ec-433d-8fe6-f0e29bd43e21","system_id":"levelo_inurba_marseille","lat":43.28924,"lon":5.38276,"is_reserved":false,"is_disabled":false,"rental_uris":{"android":"levelo://app?vid=ccf2ab0a-77ec-433d-8fe6-f0e29bd43e21","ios":"levelo://app?vid=ccf2ab0a-77ec-433d-8fe6-f0e29bd43e21"},"vehicle_type_id":"4","last_reported":1725635325,"current_range_meters":1600,"station_id":"","pricing_plan_id":"cebpf4jnsgd1na2vs0mg"},{"bike_id":"f14c94b5-dc93-4a54-90e7-2bcb62ff9218","system_id":"levelo_inurba_marseille","lat":43.2866,"lon":5.36357,"is_reserved":false,"is_disabled":false,"rental_uris":{"android":"levelo://app?vid=f14c94b5-dc93-4a54-90e7-2bcb62ff9218","ios":"levelo://app?vid=f14c94b5-dc93-4a54-90e7-2bcb62ff9218"},"vehicle_type_id":"4","last_reported":1725635325,"current_range_meters":1200,"station_id":"ce4bhah2rcd13ifvqej0","pricing_plan_id":"cebpf4jnsgd1na2vs0mg"},{"bike_id":"61c5b48b-7e28-4f77-a84d-a7a2e34cc889","system_id":"levelo_inurba_marseille","lat":43.2953,"lon":5.39399,"is_reserved":false,"is_disabled":false,"rental_uris":{"android":"levelo://app?vid=61c5b48b-7e28-4f77-a84d-a7a2e34cc889","ios":"levelo://app?vid=61c5b48b-7e28-4f77-a84d-a7a2e34cc889"},"vehicle_type_id":"4","last_reported":1725635325,"current_range_meters":9200,"station_id":"ce4bh292rcd13ifvqdf0","pricing_plan_id":"cebpf4jnsgd1na2vs0mg"},{"bike_id":"380e5941-f797-4744-ae96-2e7c4584a070","system_id":"levelo_inurba_marseille","lat":43.302759,"lon":5.400793,"is_reserved":false,"is_disabled":false,"rental_uris":{"android":"levelo://app?vid=380e5941-f797-4744-ae96-2e7c4584a070","ios":"levelo://app?vid=380e5941-f797-4744-ae96-2e7c4584a070"},"vehicle_type_id":"4","last_reported":1725635325,"current_range_meters":1200,"station_id":"ce4bgvh2rcd13ifvqcs0","pricing_plan_id":"cebpf4jnsgd1na2vs0mg"},{"bike_id":"aa1268da-1b59-4d54-be34-a1248c0f0e97","system_id":"levelo_inurba_marseille","lat":43.289307,"lon":5.38406,"is_reserved":false,"is_disabled":false,"rental_uris":{"android":"levelo://app?vid=aa1268da-1b59-4d54-be34-a1248c0f0e97","ios":"levelo://app?vid=aa1268da-1b59-4d54-be34-a1248c0f0e97"},"vehicle_type_id":"4","last_reported":1725635325,"current_range_meters":0,"station_id":"ce4bh612rcd13ifvqe6g","pricing_plan_id":"cebpf4jnsgd1na2vs0mg"},{"bike_id":"510346de-5ba3-4576-bef8-dbaf85457a50","system_id":"levelo_inurba_marseille","lat":43.289307,"lon":5.38406,"is_reserved":false,"is_disabled":false,"rental_uris":{"android":"levelo://app?vid=510346de-5ba3-4576-bef8-dbaf85457a50","ios":"levelo://app?vid=510346de-5ba3-4576-bef8-dbaf85457a50"},"vehicle_type_id":"4","last_reported":1725635325,"current_range_meters":0,"station_id":"ce4bh612rcd13ifvqe6g","pricing_plan_id":"cebpf4jnsgd1na2vs0mg"},{"bike_id":"9a3b223a-4a0e-4611-8cb7-c63dfaa0f029","system_id":"levelo_inurba_marseille","lat":43.302759,"lon":5.400793,"is_reserved":false,"is_disabled":false,"rental_uris":{"android":"levelo://app?vid=9a3b223a-4a0e-4611-8cb7-c63dfaa0f029","ios":"levelo://app?vid=9a3b223a-4a0e-4611-8cb7-c63dfaa0f029"},"vehicle_type_id":"4","last_reported":1725635325,"current_range_meters":8400,"station_id":"ce4bgvh2rcd13ifvqcs0","pricing_plan_id":"cebpf4jnsgd1na2vs0mg"},{"bike_id":"adef0cd8-89ca-4179-8b58-d1bdee23d7cc","system_id":"levelo_inurba_marseille","lat":43.29026,"lon":5.38641,"is_reserved":false,"is_disabled":false,"rental_uris":{"android":"levelo://app?vid=adef0cd8-89ca-4179-8b58-d1bdee23d7cc","ios":"levelo://app?vid=adef0cd8-89ca-4179-8b58-d1bdee23d7cc"},"vehicle_type_id":"4","last_reported":1725635325,"current_range_meters":0,"station_id":"ce4bh4p2rcd13ifvqe0g","pricing_plan_id":"cebpf4jnsgd1na2vs0mg"},{"bike_id":"dccd39f0-9dbd-4adc-ad40-c35db27e489c","system_id":"levelo_inurba_marseille","lat":43.29024,"lon":5.38649,"is_reserved":false,"is_disabled":false,"rental_uris":{"android":"levelo://app?vid=dccd39f0-9dbd-4adc-ad40-c35db27e489c","ios":"levelo://app?vid=dccd39f0-9dbd-4adc-ad40-c35db27e489c"},"vehicle_type_id":"4","last_reported":1725635325,"current_range_meters":21200,"station_id":"ce4bh4p2rcd13ifvqe0g","pricing_plan_id":"cebpf4jnsgd1na2vs0mg"},{"bike_id":"d5696075-9562-4c23-9231-fa40cb416b90","system_id":"levelo_inurba_marseille","lat":43.302759,"lon":5.400793,"is_reserved":false,"is_disabled":false,"rental_uris":{"android":"levelo://app?vid=d5696075-9562-4c23-9231-fa40cb416b90","ios":"levelo://app?vid=d5696075-9562-4c23-9231-fa40cb416b90"},"vehicle_type_id":"4","last_reported":1725635325,"current_range_meters":12800,"station_id":"ce4bgvh2rcd13ifvqcs0","pricing_plan_id":"cebpf4jnsgd1na2vs0mg"},{"bike_id":"82941dd0-81f1-4019-8a7c-8fe60616e61a","system_id":"levelo_inurba_marseille","lat":43.284534,"lon":5.358662,"is_reserved":false,"is_disabled":false,"rental_uris":{"android":"levelo://app?vid=82941dd0-81f1-4019-8a7c-8fe60616e61a","ios":"levelo://app?vid=82941dd0-81f1-4019-8a7c-8fe60616e61a"},"vehicle_type_id":"4","last_reported":1725635325,"current_range_meters":14000,"station_id":"ce4bhah2rcd13ifvqei0","pricing_plan_id":"cebpf4jnsgd1na2vs0mg"},{"bike_id":"8a66f99d-b903-49fa-998a-91176edca8af","system_id":"levelo_inurba_marseille","lat":43.284534,"lon":5.358662,"is_reserved":false,"is_disabled":false,"rental_uris":{"android":"levelo://app?vid=8a66f99d-b903-49fa-998a-91176edca8af","ios":"levelo://app?vid=8a66f99d-b903-49fa-998a-91176edca8af"},"vehicle_type_id":"4","last_reported":1725635325,"current_range_meters":7600,"station_id":"ce4bhah2rcd13ifvqei0","pricing_plan_id":"cebpf4jnsgd1na2vs0mg"},{"bike_id":"f07636b6-dd39-49df-925d-73fa94b4e604","system_id":"levelo_inurba_marseille","lat":43.284538,"lon":5.358657,"is_reserved":false,"is_disabled":false,"rental_uris":{"android":"levelo://app?vid=f07636b6-dd39-49df-925d-73fa94b4e604","ios":"levelo://app?vid=f07636b6-dd39-49df-925d-73fa94b4e604"},"vehicle_type_id":"4","last_reported":1725635325,"current_range_meters":25200,"station_id":"ce4bhah2rcd13ifvqei0","pricing_plan_id":"cebpf4jnsgd1na2vs0mg"},{"bike_id":"00e7a99e-e1ca-4e83-85d2-ed78bd63e196","system_id":"levelo_inurba_marseille","lat":43.284538,"lon":5.358657,"is_reserved":false,"is_disabled":false,"rental_uris":{"android":"levelo://app?vid=00e7a99e-e1ca-4e83-85d2-ed78bd63e196","ios":"levelo://app?vid=00e7a99e-e1ca-4e83-85d2-ed78bd63e196"},"vehicle_type_id":"4","last_reported":1725635325,"current_range_meters":400,"station_id":"ce4bhah2rcd13ifvqei0","pricing_plan_id":"cebpf4jnsgd1na2vs0mg"},{"bike_id":"0710b701-14ab-4a2c-915c-925f7127e06d","system_id":"levelo_inurba_marseille","lat":43.28466,"lon":5.35889,"is_reserved":false,"is_disabled":false,"rental_uris":{"android":"levelo://app?vid=0710b701-14ab-4a2c-915c-925f7127e06d","ios":"levelo://app?vid=0710b701-14ab-4a2c-915c-925f7127e06d"},"vehicle_type_id":"4","last_reported":1725635325,"current_range_meters":800,"station_id":"ce4bhah2rcd13ifvqei0","pricing_plan_id":"cebpf4jnsgd1na2vs0mg"},{"bike_id":"0267a5b7-5988-4e2d-ad57-054b07973bf6","system_id":"levelo_inurba_marseille","lat":43.284594,"lon":5.358859,"is_reserved":false,"is_disabled":false,"rental_uris":{"android":"levelo://app?vid=0267a5b7-5988-4e2d-ad57-054b07973bf6","ios":"levelo://app?vid=0267a5b7-5988-4e2d-ad57-054b07973bf6"},"vehicle_type_id":"4","last_reported":1725635325,"current_range_meters":0,"station_id":"ce4bhah2rcd13ifvqei0","pricing_plan_id":"cebpf4jnsgd1na2vs0mg"},{"bike_id":"df79789f-3909-4000-8600-0ea120013ff7","system_id":"levelo_inurba_marseille","lat":43.28413,"lon":5.37165,"is_reserved":false,"is_disabled":false,"rental_uris":{"android":"levelo://app?vid=df79789f-3909-4000-8600-0ea120013ff7","ios":"levelo://app?vid=df79789f-3909-4000-8600-0ea120013ff7"},"vehicle_type_id":"4","last_reported":1725635325,"current_range_meters":1600,"station_id":"","pricing_plan_id":"cebpf4jnsgd1na2vs0mg"},{"bike_id":"b3b6861d-8732-4674-961d-ae43ff15b0f9","system_id":"levelo_inurba_marseille","lat":43.30334,"lon":5.4044,"is_reserved":false,"is_disabled":false,"rental_uris":{"android":"levelo://app?vid=b3b6861d-8732-4674-961d-ae43ff15b0f9","ios":"levelo://app?vid=b3b6861d-8732-4674-961d-ae43ff15b0f9"},"vehicle_type_id":"4","last_reported":1725635325,"current_range_meters":31200,"station_id":"ce4bh012rcd13ifvqd10","pricing_plan_id":"cebpf4jnsgd1na2vs0mg"},{"bike_id":"eb442253-7c2f-4336-b305-646c4c047696","system_id":"levelo_inurba_marseille","lat":43.303256,"lon":5.404389,"is_reserved":false,"is_disabled":false,"rental_uris":{"android":"levelo://app?vid=eb442253-7c2f-4336-b305-646c4c047696","ios":"levelo://app?vid=eb442253-7c2f-4336-b305-646c4c047696"},"vehicle_type_id":"4","last_reported":1725635325,"current_range_meters":31200,"station_id":"ce4bh012rcd13ifvqd10","pricing_plan_id":"cebpf4jnsgd1na2vs0mg"},{"bike_id":"51a58033-e63f-443e-8ea5-f7574752dec8","system_id":"levelo_inurba_marseille","lat":43.28622,"lon":5.35106,"is_reserved":false,"is_disabled":false,"rental_uris":{"android":"levelo://app?vid=51a58033-e63f-443e-8ea5-f7574752dec8","ios":"levelo://app?vid=51a58033-e63f-443e-8ea5-f7574752dec8"},"vehicle_type_id":"4","last_reported":1725635325,"current_range_meters":25200,"station_id":"ce4bhch2rcd13ifvqeug","pricing_plan_id":"cebpf4jnsgd1na2vs0mg"},{"bike_id":"4d6175a7-8d2f-4ce2-9790-f89d0ed14215","system_id":"levelo_inurba_marseille","lat":43.2862,"lon":5.35106,"is_reserved":false,"is_disabled":false,"rental_uris":{"android":"levelo://app?vid=4d6175a7-8d2f-4ce2-9790-f89d0ed14215","ios":"levelo://app?vid=4d6175a7-8d2f-4ce2-9790-f89d0ed14215"},"vehicle_type_id":"4","last_reported":1725635325,"current_range_meters":27600,"station_id":"ce4bhch2rcd13ifvqeug","pricing_plan_id":"cebpf4jnsgd1na2vs0mg"},{"bike_id":"682aceeb-804a-4400-a7d7-6bba60d03608","system_id":"levelo_inurba_marseille","lat":43.28617,"lon":5.35111,"is_reserved":false,"is_disabled":false,"rental_uris":{"android":"levelo://app?vid=682aceeb-804a-4400-a7d7-6bba60d03608","ios":"levelo://app?vid=682aceeb-804a-4400-a7d7-6bba60d03608"},"vehicle_type_id":"4","last_reported":1725635325,"current_range_meters":25600,"station_id":"ce4bhch2rcd13ifvqeug","pricing_plan_id":"cebpf4jnsgd1na2vs0mg"},{"bike_id":"ae9324ab-692a-4cd5-852c-052da6160fe1","system_id":"levelo_inurba_marseille","lat":43.28617,"lon":5.35108,"is_reserved":false,"is_disabled":false,"rental_uris":{"android":"levelo://app?vid=ae9324ab-692a-4cd5-852c-052da6160fe1","ios":"levelo://app?vid=ae9324ab-692a-4cd5-852c-052da6160fe1"},"vehicle_type_id":"4","last_reported":1725635325,"current_range_meters":18000,"station_id":"ce4bhch2rcd13ifvqeug","pricing_plan_id":"cebpf4jnsgd1na2vs0mg"},{"bike_id":"47efb00b-11b4-4f4a-a87e-c58e6d27b440","system_id":"levelo_inurba_marseille","lat":43.28617,"lon":5.35106,"is_reserved":false,"is_disabled":false,"rental_uris":{"android":"levelo://app?vid=47efb00b-11b4-4f4a-a87e-c58e6d27b440","ios":"levelo://app?vid=47efb00b-11b4-4f4a-a87e-c58e6d27b440"},"vehicle_type_id":"4","last_reported":1725635325,"current_range_meters":18000,"station_id":"ce4bhch2rcd13ifvqeug","pricing_plan_id":"cebpf4jnsgd1na2vs0mg"},{"bike_id":"29a78b19-6c7f-417a-8220-0c76a6276a21","system_id":"levelo_inurba_marseille","lat":43.28616,"lon":5.35104,"is_reserved":false,"is_disabled":false,"rental_uris":{"android":"levelo://app?vid=29a78b19-6c7f-417a-8220-0c76a6276a21","ios":"levelo://app?vid=29a78b19-6c7f-417a-8220-0c76a6276a21"},"vehicle_type_id":"4","last_reported":1725635325,"current_range_meters":21600,"station_id":"ce4bhch2rcd13ifvqeug","pricing_plan_id":"cebpf4jnsgd1na2vs0mg"},{"bike_id":"9556ccef-370c-4164-8f57-2dda8f49757e","system_id":"levelo_inurba_marseille","lat":43.28614,"lon":5.35107,"is_reserved":false,"is_disabled":false,"rental_uris":{"android":"levelo://app?vid=9556ccef-370c-4164-8f57-2dda8f49757e","ios":"levelo://app?vid=9556ccef-370c-4164-8f57-2dda8f49757e"},"vehicle_type_id":"4","last_reported":1725635325,"current_range_meters":0,"station_id":"ce4bhch2rcd13ifvqeug","pricing_plan_id":"cebpf4jnsgd1na2vs0mg"},{"bike_id":"bd6685c0-aa67-4955-9f56-4977129d4cb0","system_id":"levelo_inurba_marseille","lat":43.28614,"lon":5.35101,"is_reserved":false,"is_disabled":false,"rental_uris":{"android":"levelo://app?vid=bd6685c0-aa67-4955-9f56-4977129d4cb0","ios":"levelo://app?vid=bd6685c0-aa67-4955-9f56-4977129d4cb0"},"vehicle_type_id":"4","last_reported":1725635325,"current_range_meters":31200,"station_id":"ce4bhch2rcd13ifvqeug","pricing_plan_id":"cebpf4jnsgd1na2vs0mg"},{"bike_id":"10d0da4d-13fd-4236-ad86-7907396b31c6","system_id":"levelo_inurba_marseille","lat":43.28613,"lon":5.35104,"is_reserved":false,"is_disabled":false,"rental_uris":{"android":"levelo://app?vid=10d0da4d-13fd-4236-ad86-7907396b31c6","ios":"levelo://app?vid=10d0da4d-13fd-4236-ad86-7907396b31c6"},"vehicle_type_id":"4","last_reported":1725635325,"current_range_meters":31200,"station_id":"ce4bhch2rcd13ifvqeug","pricing_plan_id":"cebpf4jnsgd1na2vs0mg"},{"bike_id":"11b57de7-305d-439a-a58d-b2ef9101113c","system_id":"levelo_inurba_marseille","lat":43.28611,"lon":5.35106,"is_reserved":false,"is_disabled":false,"rental_uris":{"android":"levelo://app?vid=11b57de7-305d-439a-a58d-b2ef9101113c","ios":"levelo://app?vid=11b57de7-305d-439a-a58d-b2ef9101113c"},"vehicle_type_id":"4","last_reported":1725635325,"current_range_meters":31200,"station_id":"ce4bhch2rcd13ifvqeug","pricing_plan_id":"cebpf4jnsgd1na2vs0mg"},{"bike_id":"b992a326-6cb4-48f5-afc2-f6d924c403d6","system_id":"levelo_inurba_marseille","lat":43.295713,"lon":5.399639,"is_reserved":false,"is_disabled":false,"rental_uris":{"android":"levelo://app?vid=b992a326-6cb4-48f5-afc2-f6d924c403d6","ios":"levelo://app?vid=b992a326-6cb4-48f5-afc2-f6d924c403d6"},"vehicle_type_id":"4","last_reported":1725635325,"current_range_meters":10000,"station_id":"ce4bh312rcd13ifvqdj0","pricing_plan_id":"cebpf4jnsgd1na2vs0mg"},{"bike_id":"c56863ab-6ed7-4b3c-a008-cfa45f36c200","system_id":"levelo_inurba_marseille","lat":43.283998,"lon":5.375062,"is_reserved":false,"is_disabled":false,"rental_uris":{"android":"levelo://app?vid=c56863ab-6ed7-4b3c-a008-cfa45f36c200","ios":"levelo://app?vid=c56863ab-6ed7-4b3c-a008-cfa45f36c200"},"vehicle_type_id":"4","last_reported":1725635325,"current_range_meters":22800,"station_id":"ce4bh412rcd13ifvqds0","pricing_plan_id":"cebpf4jnsgd1na2vs0mg"},{"bike_id":"1024228c-f106-401f-9b1c-3af1708b89ee","system_id":"levelo_inurba_marseille","lat":43.283998,"lon":5.375062,"is_reserved":false,"is_disabled":false,"rental_uris":{"android":"levelo://app?vid=1024228c-f106-401f-9b1c-3af1708b89ee","ios":"levelo://app?vid=1024228c-f106-401f-9b1c-3af1708b89ee"},"vehicle_type_id":"4","last_reported":1725635325,"current_range_meters":7600,"station_id":"ce4bh412rcd13ifvqds0","pricing_plan_id":"cebpf4jnsgd1na2vs0mg"},{"bike_id":"9418ad94-a10b-4f26-a458-5dc4cc378167","system_id":"levelo_inurba_marseille","lat":43.29578,"lon":5.39975,"is_reserved":false,"is_disabled":false,"rental_uris":{"android":"levelo://app?vid=9418ad94-a10b-4f26-a458-5dc4cc378167","ios":"levelo://app?vid=9418ad94-a10b-4f26-a458-5dc4cc378167"},"vehicle_type_id":"4","last_reported":1725635325,"current_range_meters":0,"station_id":"ce4bh312rcd13ifvqdj0","pricing_plan_id":"cebpf4jnsgd1na2vs0mg"},{"bike_id":"d24e4cc8-c9a3-4f0b-a5a2-ce3989175d54","system_id":"levelo_inurba_marseille","lat":43.28679,"lon":5.38667,"is_reserved":false,"is_disabled":false,"rental_uris":{"android":"levelo://app?vid=d24e4cc8-c9a3-4f0b-a5a2-ce3989175d54","ios":"levelo://app?vid=d24e4cc8-c9a3-4f0b-a5a2-ce3989175d54"},"vehicle_type_id":"4","last_reported":1725635325,"current_range_meters":0,"station_id":"ce4bh492rcd13ifvqdug","pricing_plan_id":"cebpf4jnsgd1na2vs0mg"},{"bike_id":"ab778856-ff70-4b2c-a6be-0c89b22ba69b","system_id":"levelo_inurba_marseille","lat":43.33717,"lon":5.391857,"is_reserved":false,"is_disabled":false,"rental_uris":{"android":"levelo://app?vid=ab778856-ff70-4b2c-a6be-0c89b22ba69b","ios":"levelo://app?vid=ab778856-ff70-4b2c-a6be-0c89b22ba69b"},"vehicle_type_id":"4","last_reported":1725635325,"current_range_meters":12400,"station_id":"ce4bhr92rcd13ifvqhsg","pricing_plan_id":"cebpf4jnsgd1na2vs0mg"},{"bike_id":"2912173c-8a9f-49c2-be7e-cb560cb3c298","system_id":"levelo_inurba_marseille","lat":43.28855,"lon":5.39324,"is_reserved":false,"is_disabled":false,"rental_uris":{"android":"levelo://app?vid=2912173c-8a9f-49c2-be7e-cb560cb3c298","ios":"levelo://app?vid=2912173c-8a9f-49c2-be7e-cb560cb3c298"},"vehicle_type_id":"4","last_reported":1725635325,"current_range_meters":18800,"station_id":"ce4bh2p2rcd13ifvqdi0","pricing_plan_id":"cebpf4jnsgd1na2vs0mg"},{"bike_id":"def6e793-850e-4b9e-9ce3-c38b8926af5a","system_id":"levelo_inurba_marseille","lat":43.284219,"lon":5.3497,"is_reserved":false,"is_disabled":false,"rental_uris":{"android":"levelo://app?vid=def6e793-850e-4b9e-9ce3-c38b8926af5a","ios":"levelo://app?vid=def6e793-850e-4b9e-9ce3-c38b8926af5a"},"vehicle_type_id":"4","last_reported":1725635325,"current_range_meters":18000,"station_id":"ce4bhbh2rcd13ifvqepg","pricing_plan_id":"cebpf4jnsgd1na2vs0mg"},{"bike_id":"a175d427-059b-4059-955b-4dd8a3b69d5e","system_id":"levelo_inurba_marseille","lat":43.28346,"lon":5.38103,"is_reserved":false,"is_disabled":false,"rental_uris":{"android":"levelo://app?vid=a175d427-059b-4059-955b-4dd8a3b69d5e","ios":"levelo://app?vid=a175d427-059b-4059-955b-4dd8a3b69d5e"},"vehicle_type_id":"4","last_reported":1725635325,"current_range_meters":14000,"station_id":"ce4bh412rcd13ifvqdr0","pricing_plan_id":"cebpf4jnsgd1na2vs0mg"},{"bike_id":"811fcd2e-903d-49db-a20b-62093f39e9d5","system_id":"levelo_inurba_marseille","lat":43.284219,"lon":5.3497,"is_reserved":false,"is_disabled":false,"rental_uris":{"android":"levelo://app?vid=811fcd2e-903d-49db-a20b-62093f39e9d5","ios":"levelo://app?vid=811fcd2e-903d-49db-a20b-62093f39e9d5"},"vehicle_type_id":"4","last_reported":1725635325,"current_range_meters":25200,"station_id":"ce4bhbh2rcd13ifvqepg","pricing_plan_id":"cebpf4jnsgd1na2vs0mg"},{"bike_id":"674b75b4-8dd1-4fc8-bb99-42a51c8f4527","system_id":"levelo_inurba_marseille","lat":43.28429,"lon":5.3499,"is_reserved":false,"is_disabled":false,"rental_uris":{"android":"levelo://app?vid=674b75b4-8dd1-4fc8-bb99-42a51c8f4527","ios":"levelo://app?vid=674b75b4-8dd1-4fc8-bb99-42a51c8f4527"},"vehicle_type_id":"4","last_reported":1725635325,"current_range_meters":20800,"station_id":"ce4bhbh2rcd13ifvqepg","pricing_plan_id":"cebpf4jnsgd1na2vs0mg"},{"bike_id":"4245dc98-caac-4c16-8e08-fca75f6c7460","system_id":"levelo_inurba_marseille","lat":43.284219,"lon":5.3497,"is_reserved":false,"is_disabled":false,"rental_uris":{"android":"levelo://app?vid=4245dc98-caac-4c16-8e08-fca75f6c7460","ios":"levelo://app?vid=4245dc98-caac-4c16-8e08-fca75f6c7460"},"vehicle_type_id":"4","last_reported":1725635325,"current_range_meters":18800,"station_id":"ce4bhbh2rcd13ifvqepg","pricing_plan_id":"cebpf4jnsgd1na2vs0mg"},{"bike_id":"9ac30fa6-1345-4259-9ffb-3643c148ee4b","system_id":"levelo_inurba_marseille","lat":43.284268,"lon":5.34994,"is_reserved":false,"is_disabled":false,"rental_uris":{"android":"levelo://app?vid=9ac30fa6-1345-4259-9ffb-3643c148ee4b","ios":"levelo://app?vid=9ac30fa6-1345-4259-9ffb-3643c148ee4b"},"vehicle_type_id":"4","last_reported":1725635325,"current_range_meters":29600,"station_id":"ce4bhbh2rcd13ifvqepg","pricing_plan_id":"cebpf4jnsgd1na2vs0mg"},{"bike_id":"dd50916b-9b8a-4077-9bbd-85b0f5b5340e","system_id":"levelo_inurba_marseille","lat":43.284271,"lon":5.349924,"is_reserved":false,"is_disabled":false,"rental_uris":{"android":"levelo://app?vid=dd50916b-9b8a-4077-9bbd-85b0f5b5340e","ios":"levelo://app?vid=dd50916b-9b8a-4077-9bbd-85b0f5b5340e"},"vehicle_type_id":"4","last_reported":1725635325,"current_range_meters":12400,"station_id":"ce4bhbh2rcd13ifvqepg","pricing_plan_id":"cebpf4jnsgd1na2vs0mg"},{"bike_id":"e91f9d8e-5b6c-4af7-9463-90d180960e56","system_id":"levelo_inurba_marseille","lat":43.28427,"lon":5.34992,"is_reserved":false,"is_disabled":false,"rental_uris":{"android":"levelo://app?vid=e91f9d8e-5b6c-4af7-9463-90d180960e56","ios":"levelo://app?vid=e91f9d8e-5b6c-4af7-9463-90d180960e56"},"vehicle_type_id":"4","last_reported":1725635325,"current_range_meters":31200,"station_id":"ce4bhbh2rcd13ifvqepg","pricing_plan_id":"cebpf4jnsgd1na2vs0mg"},{"bike_id":"8df9ccd6-5348-4004-b4f2-04953f2fe935","system_id":"levelo_inurba_marseille","lat":43.284219,"lon":5.3497,"is_reserved":false,"is_disabled":false,"rental_uris":{"android":"levelo://app?vid=8df9ccd6-5348-4004-b4f2-04953f2fe935","ios":"levelo://app?vid=8df9ccd6-5348-4004-b4f2-04953f2fe935"},"vehicle_type_id":"4","last_reported":1725635325,"current_range_meters":15200,"station_id":"ce4bhbh2rcd13ifvqepg","pricing_plan_id":"cebpf4jnsgd1na2vs0mg"},{"bike_id":"90f5ef30-2aff-4896-824a-ca964a7ccbbd","system_id":"levelo_inurba_marseille","lat":43.28426,"lon":5.34988,"is_reserved":false,"is_disabled":false,"rental_uris":{"android":"levelo://app?vid=90f5ef30-2aff-4896-824a-ca964a7ccbbd","ios":"levelo://app?vid=90f5ef30-2aff-4896-824a-ca964a7ccbbd"},"vehicle_type_id":"4","last_reported":1725635325,"current_range_meters":31200,"station_id":"ce4bhbh2rcd13ifvqepg","pricing_plan_id":"cebpf4jnsgd1na2vs0mg"},