{"last_updated":1752833533,"ttl":60,"version":"2.2","data":{"bikes":[{"bike_id":"53b742a7-31ae-4272-9bba-7740339e2a2f","system_id":"levelo_inurba_marseille","lat":43.33747,"lon":5.37463,"is_reserved":false,"is_disabled":false,"rental_uris":{"android":"levelo://app?vid=53b742a7-31ae-4272-9bba-7740339e2a2f","ios":"levelo://app?vid=53b742a7-31ae-4272-9bba-7740339e2a2f"},"vehicle_type_id":"1","last_reported":1752833533,"current_range_meters":20400,"station_id":"","pricing_plan_id":"cebpf4jnsgd1na2vs0mg"},{"bike_id":"db6e8e38-4ec1-4fcf-90cf-54e0439e3e7d","system_id":"levelo_inurba_marseille","lat":43.2795,"lon":5.41056,"is_reserved":false,"is_disabled":false,"rental_uris":{"android":"levelo://app?vid=db6e8e38-4ec1-4fcf-90cf-54e0439e3e7d","ios":"levelo://app?vid=db6e8e38-4ec1-4fcf-90cf-54e0439e3e7d"},"vehicle_type_id":"4","last_reported":1752833533,"current_range_meters":3600,"station_id":"ce4bhnp2rcd13ifvqh0g","pricing_plan_id":"cebpf4jnsgd1na2vs0mg"},{"bike_id":"b9c95c8b-ac96-43b6-8653-98e1faff51d9","system_id":"levelo_inurba_marseille","lat":43.28265,"lon":5.35062,"is_reserved":false,"is_disabled":false,"rental_uris":{"android":"levelo://app?vid=b9c95c8b-ac96-43b6-8653-98e1faff51d9","ios":"levelo://app?vid=b9c95c8b-ac96-43b6-8653-98e1faff51d9"},"vehicle_type_id":"4","last_reported":1752833533,"current_range_meters":3600,"station_id":"ce4bhbp2rcd13ifvqerg","pricing_plan_id":"cebpf4jnsgd1na2vs0mg"},{"bike_id":"86ab0949-18f1-49ec-9077-a6158007accd","system_id":"levelo_inurba_marseille","lat":43.2903,"lon":5.38656,"is_reserved":false,"is_disabled":false,"rental_uris":{"android":"levelo://app?vid=86ab0949-18f1-49ec-9077-a6158007accd","ios":"levelo://app?vid=86ab0949-18f1-49ec-9077-a6158007accd"},"vehicle_type_id":"4","last_reported":1752833533,"current_range_meters":3600,"station_id":"ce4bh4p2rcd13ifvqe0g","pricing_plan_id":"cebpf4jnsgd1na2vs0mg"},{"bike_id":"da581d50-8a7a-4fd1-b852-3e78907ad563","system_id":"levelo_inurba_marseille","lat":43.32471,"lon":5.40942,"is_reserved":false,"is_disabled":false,"rental_uris":{"android":"levelo://app?vid=da581d50-8a7a-4fd1-b852-3e78907ad563","ios":"levelo://app?vid=da581d50-8a7a-4fd1-b852-3e78907ad563"},"vehicle_type_id":"4","last_reported":1752833533,"current_range_meters":4000,"station_id":"","pricing_plan_id":"cebpf4jnsgd1na2vs0mg"},{"bike_id":"51de7427-7c78-40b8-b137-52d7c01a1b54","system_id":"levelo_inurba_marseille","lat":43.29895,"lon":5.43668,"is_reserved":false,"is_disabled":false,"rental_uris":{"android":"levelo://app?vid=51de7427-7c78-40b8-b137-52d7c01a1b54","ios":"levelo://app?vid=51de7427-7c78-40b8-b137-52d7c01a1b54"},"vehicle_type_id":"4","last_reported":1752833533,"current_range_meters":4000,"station_id":"ce4bhpp2rcd13ifvqhfg","pricing_plan_id":"cebpf4jnsgd1na2vs0mg"},{"bike_id":"686dd3fb-0065-4f19-9482-fd79109b89c8","system_id":"levelo_inurba_marseille","lat":43.23153,"lon":5.43717,"is_reserved":false,"is_disabled":false,"rental_uris":{"android":"levelo://app?vid=686dd3fb-0065-4f19-9482-fd79109b89c8","ios":"levelo://app?vid=686dd3fb-0065-4f19-9482-fd79109b89c8"},"vehicle_type_id":"4","last_reported":1752833533,"current_range_meters":4000,"station_id":"ce4bhmp2rcd13ifvqgog","pricing_plan_id":"cebpf4jnsgd1na2vs0mg"},{"bike_id":"69f1bc4d-81cd-4b4e-bf00-5c224a233f49","system_id":"levelo_inurba_marseille","lat":43.32522,"lon":5.41494,"is_reserved":false,"is_disabled":false,"rental_uris":{"android":"levelo://app?vid=69f1bc4d-81cd-4b4e-bf00-5c224a233f49","ios":"levelo://app?vid=69f1bc4d-81cd-4b4e-bf00-5c224a233f49"},"vehicle_type_id":"4","last_reported":1752833533,"current_range_meters":4800,"station_id":"ce4bhq12rcd13ifvqhhg","pricing_plan_id":"cebpf4jnsgd1na2vs0mg"},{"bike_id":"d97287a2-f608-49e0-803c-30b6615a9834","system_id":"levelo_inurba_marseille","lat":43.30139,"lon":5.37411,"is_reserved":false,"is_disabled":false,"rental_uris":{"android":"levelo://app?vid=d97287a2-f608-49e0-803c-30b6615a9834","ios":"levelo://app?vid=d97287a2-f608-49e0-803c-30b6615a9834"},"vehicle_type_id":"4","last_reported":1752833533,"current_range_meters":5600,"station_id":"ce4bgs92rcd13ifvqcc0","pricing_plan_id":"cebpf4jnsgd1na2vs0mg"},{"bike_id":"9ce02ca4-8c15-4a46-91c4-1e2a642e3688","system_id":"levelo_inurba_marseille","lat":43.30149,"lon":5.38091,"is_reserved":false,"is_disabled":false,"rental_uris":{"android":"levelo://app?vid=9ce02ca4-8c15-4a46-91c4-1e2a642e3688","ios":"levelo://app?vid=9ce02ca4-8c15-4a46-91c4-1e2a642e3688"},"vehicle_type_id":"4","last_reported":1752833533,"current_range_meters":6400,"station_id":"ce4bgjp2rcd13ifvqbh0","pricing_plan_id":"cebpf4jnsgd1na2vs0mg"},{"bike_id":"a4fd652b-34f8-4c68-a6e6-032a5cc5e418","system_id":"levelo_inurba_marseille","lat":43.31281,"lon":5.36847,"is_reserved":false,"is_disabled":false,"rental_uris":{"android":"levelo://app?vid=a4fd652b-34f8-4c68-a6e6-032a5cc5e418","ios":"levelo://app?vid=a4fd652b-34f8-4c68-a6e6-032a5cc5e418"},"vehicle_type_id":"4","last_reported":1752833533,"current_range_meters":6400,"station_id":"","pricing_plan_id":"cebpf4jnsgd1na2vs0mg"},{"bike_id":"9a9178aa-cdf1-4551-b878-49fc2ca06c89","system_id":"levelo_inurba_marseille","lat":43.3054,"lon":5.36558,"is_reserved":false,"is_disabled":false,"rental_uris":{"android":"levelo://app?vid=9a9178aa-cdf1-4551-b878-49fc2ca06c89","ios":"levelo://app?vid=9a9178aa-cdf1-4551-b878-49fc2ca06c89"},"vehicle_type_id":"4","last_reported":1752833533,"current_range_meters":6400,"station_id":"ce4bgs12rcd13ifvqcag","pricing_plan_id":"cebpf4jnsgd1na2vs0mg"},{"bike_id":"8c6d0306-b7db-4dba-8c15-3daa6eae85a8","system_id":"levelo_inurba_marseille","lat":43.28979,"lon":5.37832,"is_reserved":false,"is_disabled":false,"rental_uris":{"android":"levelo://app?vid=8c6d0306-b7db-4dba-8c15-3daa6eae85a8","ios":"levelo://app?vid=8c6d0306-b7db-4dba-8c15-3daa6eae85a8"},"vehicle_type_id":"4","last_reported":1752833533,"current_range_meters":6400,"station_id":"ce4bh9p2rcd13ifvqed0","pricing_plan_id":"cebpf4jnsgd1na2vs0mg"},{"bike_id":"c27df360-8040-4143-9b41-6857a4463465","system_id":"levelo_inurba_marseille","lat":43.29712,"lon":5.36611,"is_reserved":false,"is_disabled":false,"rental_uris":{"android":"levelo://app?vid=c27df360-8040-4143-9b41-6857a4463465","ios":"levelo://app?vid=c27df360-8040-4143-9b41-6857a4463465"},"vehicle_type_id":"4","last_reported":1752833533,"current_range_meters":6800,"station_id":"ce4bgn12rcd13ifvqbt0","pricing_plan_id":"cebpf4jnsgd1na2vs0mg"},{"bike_id":"16ee4b42-3509-4942-b46c-1853b17aa215","system_id":"levelo_inurba_marseille","lat":43.29929,"lon":5.36547,"is_reserved":false,"is_disabled":false,"rental_uris":{"android":"levelo://app?vid=16ee4b42-3509-4942-b46c-1853b17aa215","ios":"levelo://app?vid=16ee4b42-3509-4942-b46c-1853b17aa215"},"vehicle_type_id":"4","last_reported":1752833533,"current_range_meters":6800,"station_id":"ce4bgm92rcd13ifvqbr0","pricing_plan_id":"cebpf4jnsgd1na2vs0mg"},{"bike_id":"7ba42b63-1fea-4835-9a5f-8803fad76e64","system_id":"levelo_inurba_marseille","lat":43.32655,"lon":5.40999,"is_reserved":false,"is_disabled":false,"rental_uris":{"android":"levelo://app?vid=7ba42b63-1fea-4835-9a5f-8803fad76e64","ios":"levelo://app?vid=7ba42b63-1fea-4835-9a5f-8803fad76e64"},"vehicle_type_id":"4","last_reported":1752833533,"current_range_meters":6800,"station_id":"ce4bhpp2rcd13ifvqhgg","pricing_plan_id":"cebpf4jnsgd1na2vs0mg"},{"bike_id":"cbedbde1-36e1-47a4-9a76-deaffc26ae7e","system_id":"levelo_inurba_marseille","lat":43.2175,"lon":5.346016,"is_reserved":false,"is_disabled":false,"rental_uris":{"android":"levelo://app?vid=cbedbde1-36e1-47a4-9a76-deaffc26ae7e","ios":"levelo://app?vid=cbedbde1-36e1-47a4-9a76-deaffc26ae7e"},"vehicle_type_id":"4","last_reported":1752833533,"current_range_meters":6800,"station_id":"st_cvj6r9ubvosntc0bgbag","pricing_plan_id":"cebpf4jnsgd1na2vs0mg"},{"bike_id":"a77a34e8-722f-4621-98aa-ca9b89df0ae5","system_id":"levelo_inurba_marseille","lat":43.30138,"lon":5.38759,"is_reserved":false,"is_disabled":false,"rental_uris":{"android":"levelo://app?vid=a77a34e8-722f-4621-98aa-ca9b89df0ae5","ios":"levelo://app?vid=a77a34e8-722f-4621-98aa-ca9b89df0ae5"},"vehicle_type_id":"4","last_reported":1752833533,"current_range_meters":7200,"station_id":"ce4bghh2rcd13ifvqb60","pricing_plan_id":"cebpf4jnsgd1na2vs0mg"},{"bike_id":"81f88721-00d0-431c-83bf-446e11578408","system_id":"levelo_inurba_marseille","lat":43.225038,"lon":5.347854,"is_reserved":false,"is_disabled":false,"rental_uris":{"android":"levelo://app?vid=81f88721-00d0-431c-83bf-446e11578408","ios":"levelo://app?vid=81f88721-00d0-431c-83bf-446e11578408"},"vehicle_type_id":"4","last_reported":1752833533,"current_range_meters":7200,"station_id":"st_cvj5dfep6f1abm77gieg","pricing_plan_id":"cebpf4jnsgd1na2vs0mg"},{"bike_id":"fc4d4e4e-5717-4120-ad6f-4671cc5bdb55","system_id":"levelo_inurba_marseille","lat":43.2294,"lon":5.35377,"is_reserved":false,"is_disabled":false,"rental_uris":{"android":"levelo://app?vid=fc4d4e4e-5717-4120-ad6f-4671cc5bdb55","ios":"levelo://app?vid=fc4d4e4e-5717-4120-ad6f-4671cc5bdb55"},"vehicle_type_id":"4","last_reported":1752833533,"current_range_meters":8000,"station_id":"cpo3532slgdg3j2ikp40","pricing_plan_id":"cebpf4jnsgd1na2vs0mg"},{"bike_id":"4d45f1e9-194f-47b9-b021-5eab9e1c0b12","system_id":"levelo_inurba_marseille","lat":43.31242,"lon":5.3685,"is_reserved":false,"is_disabled":false,"rental_uris":{"android":"levelo://app?vid=4d45f1e9-194f-47b9-b021-5eab9e1c0b12","ios":"levelo://app?vid=4d45f1e9-194f-47b9-b021-5eab9e1c0b12"},"vehicle_type_id":"4","last_reported":1752833533,"current_range_meters":8400,"station_id":"ce4bgl92rcd13ifvqbq0","pricing_plan_id":"cebpf4jnsgd1na2vs0mg"},{"bike_id":"0b4aeec2-26f8-4cc4-b7a9-87e25034d77d","system_id":"levelo_inurba_marseille","lat":43.30381,"lon":5.42493,"is_reserved":false,"is_disabled":false,"rental_uris":{"android":"levelo://app?vid=0b4aeec2-26f8-4cc4-b7a9-87e25034d77d","ios":"levelo://app?vid=0b4aeec2-26f8-4cc4-b7a9-87e25034d77d"},"vehicle_type_id":"4","last_reported":1752833533,"current_range_meters":8400,"station_id":"ce4bhoh2rcd13ifvqh6g","pricing_plan_id":"cebpf4jnsgd1na2vs0mg"},{"bike_id":"04d15a50-cb94-495c-969c-c09473f1fcda","system_id":"levelo_inurba_marseille","lat":43.296223,"lon":5.377025,"is_reserved":false,"is_disabled":false,"rental_uris":{"android":"levelo://app?vid=04d15a50-cb94-495c-969c-c09473f1fcda","ios":"levelo://app?vid=04d15a50-cb94-495c-969c-c09473f1fcda"},"vehicle_type_id":"4","last_reported":1752833533,"current_range_meters":8800,"station_id":"","pricing_plan_id":"cebpf4jnsgd1na2vs0mg"},{"bike_id":"8e6e1ca6-9684-4865-bcc2-4f4c40c74eff","system_id":"levelo_inurba_marseille","lat":43.29659,"lon":5.38795,"is_reserved":false,"is_disabled":false,"rental_uris":{"android":"levelo://app?vid=8e6e1ca6-9684-4865-bcc2-4f4c40c74eff","ios":"levelo://app?vid=8e6e1ca6-9684-4865-bcc2-4f4c40c74eff"},"vehicle_type_id":"4","last_reported":1752833533,"current_range_meters":8800,"station_id":"","pricing_plan_id":"cebpf4jnsgd1na2vs0mg"},{"bike_id":"209707a8-e322-43c9-b20a-5be63b0dd05d","system_id":"levelo_inurba_marseille","lat":43.29276,"lon":5.36839,"is_reserved":false,"is_disabled":false,"rental_uris":{"android":"levelo://app?vid=209707a8-e322-43c9-b20a-5be63b0dd05d","ios":"levelo://app?vid=209707a8-e322-43c9-b20a-5be63b0dd05d"},"vehicle_type_id":"4","last_reported":1752833533,"current_range_meters":8800,"station_id":"ce4bhbp2rcd13ifvqesg","pricing_plan_id":"cebpf4jnsgd1na2vs0mg"},{"bike_id":"555bc53e-5286-4fb6-9154-af42b3fd9792","system_id":"levelo_inurba_marseille","lat":43.300698,"lon":5.372864,"is_reserved":false,"is_disabled":false,"rental_uris":{"android":"levelo://app?vid=555bc53e-5286-4fb6-9154-af42b3fd9792","ios":"levelo://app?vid=555bc53e-5286-4fb6-9154-af42b3fd9792"},"vehicle_type_id":"4","last_reported":1752833533,"current_range_meters":8800,"station_id":"","pricing_plan_id":"cebpf4jnsgd1na2vs0mg"},{"bike_id":"fd776c39-9ca3-48c2-8fc5-ed7a4e7cd1e5","system_id":"levelo_inurba_marseille","lat":43.27999,"lon":5.40015,"is_reserved":false,"is_disabled":false,"rental_uris":{"android":"levelo://app?vid=fd776c39-9ca3-48c2-8fc5-ed7a4e7cd1e5","ios":"levelo://app?vid=fd776c39-9ca3-48c2-8fc5-ed7a4e7cd1e5"},"vehicle_type_id":"4","last_reported":1752833533,"current_range_meters":8800,"station_id":"ce4bho92rcd13ifvqh4g","pricing_plan_id":"cebpf4jnsgd1na2vs0mg"},{"bike_id":"3444bdc6-514a-4ba6-9650-f9073305e33d","system_id":"levelo_inurba_marseille","lat":43.29682,"lon":5.3698,"is_reserved":false,"is_disabled":false,"rental_uris":{"android":"levelo://app?vid=3444bdc6-514a-4ba6-9650-f9073305e33d","ios":"levelo://app?vid=3444bdc6-514a-4ba6-9650-f9073305e33d"},"vehicle_type_id":"4","last_reported":1752833533,"current_range_meters":9200,"station_id":"","pricing_plan_id":"cebpf4jnsgd1na2vs0mg"},{"bike_id":"28d27c17-e6ca-4cec-aec9-f1f6696b8a12","system_id":"levelo_inurba_marseille","lat":43.29914,"lon":5.43758,"is_reserved":false,"is_disabled":true,"rental_uris":{"android":"levelo://app?vid=28d27c17-e6ca-4cec-aec9-f1f6696b8a12","ios":"levelo://app?vid=28d27c17-e6ca-4cec-aec9-f1f6696b8a12"},"vehicle_type_id":"4","last_reported":1752833533,"current_range_meters":9200,"station_id":"","pricing_plan_id":"cebpf4jnsgd1na2vs0mg"},{"bike_id":"fd82ca6c-71b1-4cdd-804d-14091e652fe0","system_id":"levelo_inurba_marseille","lat":43.31321,"lon":5.36744,"is_reserved":false,"is_disabled":false,"rental_uris":{"android":"levelo://app?vid=fd82ca6c-71b1-4cdd-804d-14091e652fe0","ios":"levelo://app?vid=fd82ca6c-71b1-4cdd-804d-14091e652fe0"},"vehicle_type_id":"4","last_reported":1752833533,"current_range_meters":9600,"station_id":"ce4bgr92rcd13ifvqc6g","pricing_plan_id":"cebpf4jnsgd1na2vs0mg"},{"bike_id":"c900348c-81f0-48bd-94e0-fc4377e23dbe","system_id":"levelo_inurba_marseille","lat":43.22935,"lon":5.35374,"is_reserved":false,"is_disabled":false,"rental_uris":{"android":"levelo://app?vid=c900348c-81f0-48bd-94e0-fc4377e23dbe","ios":"levelo://app?vid=c900348c-81f0-48bd-94e0-fc4377e23dbe"},"vehicle_type_id":"4","last_reported":1752833533,"current_range_meters":9600,"station_id":"cpo3532slgdg3j2ikp40","pricing_plan_id":"cebpf4jnsgd1na2vs0mg"},{"bike_id":"07f5ae19-0925-43ef-aab4-48ec58bc62b9","system_id":"levelo_inurba_marseille","lat":43.31454,"lon":5.37466,"is_reserved":false,"is_disabled":false,"rental_uris":{"android":"levelo://app?vid=07f5ae19-0925-43ef-aab4-48ec58bc62b9","ios":"levelo://app?vid=07f5ae19-0925-43ef-aab4-48ec58bc62b9"},"vehicle_type_id":"4","last_reported":1752833533,"current_range_meters":9600,"station_id":"","pricing_plan_id":"cebpf4jnsgd1na2vs0mg"},{"bike_id":"d1e94785-07c9-4567-977b-a1d086ccac8d","system_id":"levelo_inurba_marseille","lat":43.29913,"lon":5.43735,"is_reserved":false,"is_disabled":false,"rental_uris":{"android":"levelo://app?vid=d1e94785-07c9-4567-977b-a1d086ccac8d","ios":"levelo://app?vid=d1e94785-07c9-4567-977b-a1d086ccac8d"},"vehicle_type_id":"4","last_reported":1752833533,"current_range_meters":10000,"station_id":"","pricing_plan_id":"cebpf4jnsgd1na2vs0mg"},{"bike_id":"ec82f2d6-ad75-4d73-9089-df2fbd7cdc68","system_id":"levelo_inurba_marseille","lat":43.28154,"lon":5.42642,"is_reserved":false,"is_disabled":false,"rental_uris":{"android":"levelo://app?vid=ec82f2d6-ad75-4d73-9089-df2fbd7cdc68","ios":"levelo://app?vid=ec82f2d6-ad75-4d73-9089-df2fbd7cdc68"},"vehicle_type_id":"4","last_reported":1752833533,"current_range_meters":10000,"station_id":"ce4bhnh2rcd13ifvqgug","pricing_plan_id":"cebpf4jnsgd1na2vs0mg"},{"bike_id":"87aa9c98-1700-4e78-995d-1c4f97bbd76c","system_id":"levelo_inurba_marseille","lat":43.27567,"lon":5.38417,"is_reserved":false,"is_disabled":false,"rental_uris":{"android":"levelo://app?vid=87aa9c98-1700-4e78-995d-1c4f97bbd76c","ios":"levelo://app?vid=87aa9c98-1700-4e78-995d-1c4f97bbd76c"},"vehicle_type_id":"4","last_reported":1752833533,"current_range_meters":10000,"station_id":"ce4bhh92rcd13ifvqfi0","pricing_plan_id":"cebpf4jnsgd1na2vs0mg"},{"bike_id":"16c202ca-bd26-4fef-be45-9962fabbff07","system_id":"levelo_inurba_marseille","lat":43.28407,"lon":5.35,"is_reserved":false,"is_disabled":false,"rental_uris":{"android":"levelo://app?vid=16c202ca-bd26-4fef-be45-9962fabbff07","ios":"levelo://app?vid=16c202ca-bd26-4fef-be45-9962fabbff07"},"vehicle_type_id":"4","last_reported":1752833533,"current_range_meters":10000,"station_id":"ce4bhbh2rcd13ifvqepg","pricing_plan_id":"cebpf4jnsgd1na2vs0mg"},{"bike_id":"c90c6980-a107-4fec-b6d2-b728dd144bb2","system_id":"levelo_inurba_marseille","lat":43.26812,"lon":5.40275,"is_reserved":false,"is_disabled":false,"rental_uris":{"android":"levelo://app?vid=c90c6980-a107-4fec-b6d2-b728dd144bb2","ios":"levelo://app?vid=c90c6980-a107-4fec-b6d2-b728dd144bb2"},"vehicle_type_id":"4","last_reported":1752833533,"current_range_meters":10000,"station_id":"ce501612rcd8frsf0b60","pricing_plan_id":"cebpf4jnsgd1na2vs0mg"},{"bike_id":"b861e845-045e-4bb7-9260-06d3fafca4ef","system_id":"levelo_inurba_marseille","lat":43.298994,"lon":5.436748,"is_reserved":false,"is_disabled":false,"rental_uris":{"android":"levelo://app?vid=b861e845-045e-4bb7-9260-06d3fafca4ef","ios":"levelo://app?vid=b861e845-045e-4bb7-9260-06d3fafca4ef"},"vehicle_type_id":"4","last_reported":1752833533,"current_range_meters":10800,"station_id":"ce4bhpp2rcd13ifvqhfg","pricing_plan_id":"cebpf4jnsgd1na2vs0mg"},{"bike_id":"a092d05c-8017-44f5-ba8a-35792463d6a3","system_id":"levelo_inurba_marseille","lat":43.22932,"lon":5.35377,"is_reserved":false,"is_disabled":false,"rental_uris":{"android":"levelo://app?vid=a092d05c-8017-44f5-ba8a-35792463d6a3","ios":"levelo://app?vid=a092d05c-8017-44f5-ba8a-35792463d6a3"},"vehicle_type_id":"4","last_reported":1752833533,"current_range_meters":10800,"station_id":"cpo3532slgdg3j2ikp40","pricing_plan_id":"cebpf4jnsgd1na2vs0mg"},{"bike_id":"c0dc5a84-7092-4e59-b959-dd9405720a34","system_id":"levelo_inurba_marseille","lat":43.28033,"lon":5.36948,"is_reserved":false,"is_disabled":false,"rental_uris":{"android":"levelo://app?vid=c0dc5a84-7092-4e59-b959-dd9405720a34","ios":"levelo://app?vid=c0dc5a84-7092-4e59-b959-dd9405720a34"},"vehicle_type_id":"4","last_reported":1752833533,"current_range_meters":10800,"station_id":"ce4bha12rcd13ifvqef0","pricing_plan_id":"cebpf4jnsgd1na2vs0mg"},{"bike_id":"ba3823fb-c6a3-4066-b41a-411ec979f129","system_id":"levelo_inurba_marseille","lat":43.32376,"lon":5.40757,"is_reserved":false,"is_disabled":false,"rental_uris":{"android":"levelo://app?vid=ba3823fb-c6a3-4066-b41a-411ec979f129","ios":"levelo://app?vid=ba3823fb-c6a3-4066-b41a-411ec979f129"},"vehicle_type_id":"4","last_reported":1752833533,"current_range_meters":10800,"station_id":"ce4bhq92rcd13ifvqhjg","pricing_plan_id":"cebpf4jnsgd1na2vs0mg"},{"bike_id":"a03b1af7-12ff-4563-a529-66e87147ac5c","system_id":"levelo_inurba_marseille","lat":43.217495,"lon":5.346026,"is_reserved":false,"is_disabled":false,"rental_uris":{"android":"levelo://app?vid=a03b1af7-12ff-4563-a529-66e87147ac5c","ios":"levelo://app?vid=a03b1af7-12ff-4563-a529-66e87147ac5c"},"vehicle_type_id":"4","last_reported":1752833533,"current_range_meters":10800,"station_id":"st_cvj6r9ubvosntc0bgbag","pricing_plan_id":"cebpf4jnsgd1na2vs0mg"},{"bike_id":"84e497a7-f52a-43d8-b1db-cff2fa69ffa5","system_id":"levelo_inurba_marseille","lat":43.28411,"lon":5.34968,"is_reserved":false,"is_disabled":false,"rental_uris":{"android":"levelo://app?vid=84e497a7-f52a-43d8-b1db-cff2fa69ffa5","ios":"levelo://app?vid=84e497a7-f52a-43d8-b1db-cff2fa69ffa5"},"vehicle_type_id":"4","last_reported":1752833533,"current_range_meters":11200,"station_id":"ce4bhbh2rcd13ifvqepg","pricing_plan_id":"cebpf4jnsgd1na2vs0mg"},{"bike_id":"2ac93549-5c94-4228-8eea-782a21384d10","system_id":"levelo_inurba_marseille","lat":43.29634,"lon":5.37793,"is_reserved":false,"is_disabled":false,"rental_uris":{"android":"levelo://app?vid=2ac93549-5c94-4228-8eea-782a21384d10","ios":"levelo://app?vid=2ac93549-5c94-4228-8eea-782a21384d10"},"vehicle_type_id":"4","last_reported":1752833533,"current_range_meters":11200,"station_id":"","pricing_plan_id":"cebpf4jnsgd1na2vs0mg"},{"bike_id":"05a49a86-21b9-49c1-b3d7-44eb8c904301","system_id":"levelo_inurba_marseille","lat":43.29895,"lon":5.43673,"is_reserved":false,"is_disabled":false,"rental_uris":{"android":"levelo://app?vid=05a49a86-21b9-49c1-b3d7-44eb8c904301","ios":"levelo://app?vid=05a49a86-21b9-49c1-b3d7-44eb8c904301"},"vehicle_type_id":"4","last_reported":1752833533,"current_range_meters":11600,"station_id":"ce4bhpp2rcd13ifvqhfg","pricing_plan_id":"cebpf4jnsgd1na2vs0mg"},{"bike_id":"9980ee6c-1e79-4af5-9f93-7034618b081a","system_id":"levelo_inurba_marseille","lat":43.30536,"lon":5.3672,"is_reserved":false,"is_disabled":true,"rental_uris":{"android":"levelo://app?vid=9980ee6c-1e79-4af5-9f93-7034618b081a","ios":"levelo://app?vid=9980ee6c-1e79-4af5-9f93-7034618b081a"},"vehicle_type_id":"4","last_reported":1752833533,"current_range_meters":11600,"station_id":"ce4bgrp2rcd13ifvqc9g","pricing_plan_id":"cebpf4jnsgd1na2vs0mg"},{"bike_id":"da891840-0cec-4ccc-961c-48903736c6fa","system_id":"levelo_inurba_marseille","lat":43.31139,"lon":5.37692,"is_reserved":false,"is_disabled":false,"rental_uris":{"android":"levelo://app?vid=da891840-0cec-4ccc-961c-48903736c6fa","ios":"levelo://app?vid=da891840-0cec-4ccc-961c-48903736c6fa"},"vehicle_type_id":"4","last_reported":1752833533,"current_range_meters":11600,"station_id":"","pricing_plan_id":"cebpf4jnsgd1na2vs0mg"},{"bike_id":"c674aab0-0a86-4343-b6ed-b8d8892c6874","system_id":"levelo_inurba_marseille","lat":43.24171,"lon":5.39721,"is_reserved":false,"is_disabled":false,"rental_uris":{"android":"levelo://app?vid=c674aab0-0a86-4343-b6ed-b8d8892c6874","ios":"levelo://app?vid=c674aab0-0a86-4343-b6ed-b8d8892c6874"},"vehicle_type_id":"4","last_reported":1752833533,"current_range_meters":11600,"station_id":"ce4bhn12rcd13ifvqgpg","pricing_plan_id":"cebpf4jnsgd1na2vs0mg"},{"bike_id":"e555b545-304c-4dce-8496-1643c0f2600e","system_id":"levelo_inurba_marseille","lat":43.337444,"lon":5.374475,"is_reserved":false,"is_disabled":false,"rental_uris":{"android":"levelo://app?vid=e555b545-304c-4dce-8496-1643c0f2600e","ios":"levelo://app?vid=e555b545-304c-4dce-8496-1643c0f2600e"},"vehicle_type_id":"4","last_reported":1752833533,"current_range_meters":11600,"station_id":"","pricing_plan_id":"cebpf4jnsgd1na2vs0mg"},{"bike_id":"9c837b99-081f-4caa-a8a3-7d6dc61e9d18","system_id":"levelo_inurba_marseille","lat":43.230631,"lon":5.354938,"is_reserved":false,"is_disabled":false,"rental_uris":{"android":"levelo://app?vid=9c837b99-081f-4caa-a8a3-7d6dc61e9d18","ios":"levelo://app?vid=9c837b99-081f-4caa-a8a3-7d6dc61e9d18"},"vehicle_type_id":"4","last_reported":1752833533,"current_range_meters":12000,"station_id":"cpo3342slgdg3j2ifvpg","pricing_plan_id":"cebpf4jnsgd1na2vs0mg"},{"bike_id":"b9c220fa-ce21-46e5-9c5b-52d91725030b","system_id":"levelo_inurba_marseille","lat":43.22933,"lon":5.35384,"is_reserved":false,"is_disabled":false,"rental_uris":{"android":"levelo://app?vid=b9c220fa-ce21-46e5-9c5b-52d91725030b","ios":"levelo://app?vid=b9c220fa-ce21-46e5-9c5b-52d91725030b"},"vehicle_type_id":"4","last_reported":1752833533,"current_range_meters":12000,"station_id":"cpo3532slgdg3j2ikp40","pricing_plan_id":"cebpf4jnsgd1na2vs0mg"},{"bike_id":"31695fe3-ba1a-451d-a7a2-e6e81aefdddc","system_id":"levelo_inurba_marseille","lat":43.28632,"lon":5.3511,"is_reserved":false,"is_disabled":false,"rental_uris":{"android":"levelo://app?vid=31695fe3-ba1a-451d-a7a2-e6e81aefdddc","ios":"levelo://app?vid=31695fe3-ba1a-451d-a7a2-e6e81aefdddc"},"vehicle_type_id":"4","last_reported":1752833533,"current_range_meters":12000,"station_id":"ce4bhch2rcd13ifvqeug","pricing_plan_id":"cebpf4jnsgd1na2vs0mg"},{"bike_id":"6be86623-c65c-4a0d-b3a4-c58891bfa931","system_id":"levelo_inurba_marseille","lat":43.2176,"lon":5.34625,"is_reserved":false,"is_disabled":false,"rental_uris":{"android":"levelo://app?vid=6be86623-c65c-4a0d-b3a4-c58891bfa931","ios":"levelo://app?vid=6be86623-c65c-4a0d-b3a4-c58891bfa931"},"vehicle_type_id":"4","last_reported":1752833533,"current_range_meters":12400,"station_id":"st_cvj6r9ubvosntc0bgbag","pricing_plan_id":"cebpf4jnsgd1na2vs0mg"},{"bike_id":"0d87ca24-976c-4967-995f-815e40a697aa","system_id":"levelo_inurba_marseille","lat":43.32104,"lon":5.36805,"is_reserved":false,"is_disabled":false,"rental_uris":{"android":"levelo://app?vid=0d87ca24-976c-4967-995f-815e40a697aa","ios":"levelo://app?vid=0d87ca24-976c-4967-995f-815e40a697aa"},"vehicle_type_id":"4","last_reported":1752833533,"current_range_meters":12400,"station_id":"ce4bhrh2rcd13ifvqhug","pricing_plan_id":"cebpf4jnsgd1na2vs0mg"},{"bike_id":"a28c1e50-a5d2-43f2-8212-37ef9060fc48","system_id":"levelo_inurba_marseille","lat":43.2718,"lon":5.40993,"is_reserved":false,"is_disabled":false,"rental_uris":{"android":"levelo://app?vid=a28c1e50-a5d2-43f2-8212-37ef9060fc48","ios":"levelo://app?vid=a28c1e50-a5d2-43f2-8212-37ef9060fc48"},"vehicle_type_id":"4","last_reported":1752833533,"current_range_meters":12400,"station_id":"ce4bhl12rcd13ifvqgf0","pricing_plan_id":"cebpf4jnsgd1na2vs0mg"},{"bike_id":"a71ed37f-e24d-4850-86d4-0b37b44df9ce","system_id":"levelo_inurba_marseille","lat":43.28268,"lon":5.35081,"is_reserved":false,"is_disabled":false,"rental_uris":{"android":"levelo://app?vid=a71ed37f-e24d-4850-86d4-0b37b44df9ce","ios":"levelo://app?vid=a71ed37f-e24d-4850-86d4-0b37b44df9ce"},"vehicle_type_id":"4","last_reported":1752833533,"current_range_meters":12400,"station_id":"ce4bhbp2rcd13ifvqerg","pricing_plan_id":"cebpf4jnsgd1na2vs0mg"},{"bike_id":"eba3e80e-36ae-41c3-88dd-d26c8896d95f","system_id":"levelo_inurba_marseille","lat":43.29045,"lon":5.37576,"is_reserved":false,"is_disabled":false,"rental_uris":{"android":"levelo://app?vid=eba3e80e-36ae-41c3-88dd-d26c8896d95f","ios":"levelo://app?vid=eba3e80e-36ae-41c3-88dd-d26c8896d95f"},"vehicle_type_id":"4","last_reported":1752833533,"current_range_meters":12400,"station_id":"ce4bh692rcd13ifvqe90","pricing_plan_id":"cebpf4jnsgd1na2vs0mg"},{"bike_id":"e54582ed-ba92-4640-a97f-9e97144ce87f","system_id":"levelo_inurba_marseille","lat":43.32264,"lon":5.40686,"is_reserved":false,"is_disabled":false,"rental_uris":{"android":"levelo://app?vid=e54582ed-ba92-4640-a97f-9e97144ce87f","ios":"levelo://app?vid=e54582ed-ba92-4640-a97f-9e97144ce87f"},"vehicle_type_id":"4","last_reported":1752833533,"current_range_meters":12400,"station_id":"","pricing_plan_id":"cebpf4jnsgd1na2vs0mg"},{"bike_id":"2272a1cb-30d4-47dd-bed5-39b01483f853","system_id":"levelo_inurba_marseille","lat":43.2294,"lon":5.35441,"is_reserved":false,"is_disabled":false,"rental_uris":{"android":"levelo://app?vid=2272a1cb-30d4-47dd-bed5-39b01483f853","ios":"levelo://app?vid=2272a1cb-30d4-47dd-bed5-39b01483f853"},"vehicle_type_id":"4","last_reported":1752833533,"current_range_meters":12400,"station_id":"cpo3532slgdg3j2ikp40","pricing_plan_id":"cebpf4jnsgd1na2vs0mg"},{"bike_id":"531dca68-8617-41b0-a6cd-abffc94e1d45","system_id":"levelo_inurba_marseille","lat":43.312073,"lon":5.373202,"is_reserved":false,"is_disabled":false,"rental_uris":{"android":"levelo://app?vid=531dca68-8617-41b0-a6cd-abffc94e1d45","ios":"levelo://app?vid=531dca68-8617-41b0-a6cd-abffc94e1d45"},"vehicle_type_id":"4","last_reported":1752833533,"current_range_meters":12400,"station_id":"","pricing_plan_id":"cebpf4jnsgd1na2vs0mg"},{"bike_id":"084eace8-045f-4012-9455-c501cad7ce10","system_id":"levelo_inurba_marseille","lat":43.22932,"lon":5.35386,"is_reserved":false,"is_disabled":false,"rental_uris":{"android":"levelo://app?vid=084eace8-045f-4012-9455-c501cad7ce10","ios":"levelo://app?vid=084eace8-045f-4012-9455-c501cad7ce10"},"vehicle_type_id":"4","last_reported":1752833533,"current_range_meters":12800,"station_id":"cpo3532slgdg3j2ikp40","pricing_plan_id":"cebpf4jnsgd1na2vs0mg"},{"bike_id":"255f63b3-d391-461e-9168-7b692342f2c5","system_id":"levelo_inurba_marseille","lat":43.211927,"lon":5.350692,"is_reserved":false,"is_disabled":false,"rental_uris":{"android":"levelo://app?vid=255f63b3-d391-461e-9168-7b692342f2c5","ios":"levelo://app?vid=255f63b3-d391-461e-9168-7b692342f2c5"},"vehicle_type_id":"4","last_reported":1752833533,"current_range_meters":12800,"station_id":"st_cvj6sg6p6f1abm77japg","pricing_plan_id":"cebpf4jnsgd1na2vs0mg"},{"bike_id":"30aaa527-b5d8-48c8-ba50-453cf21ddd86","system_id":"levelo_inurba_marseille","lat":43.292969,"lon":5.374297,"is_reserved":false,"is_disabled":false,"rental_uris":{"android":"levelo://app?vid=30aaa527-b5d8-48c8-ba50-453cf21ddd86","ios":"levelo://app?vid=30aaa527-b5d8-48c8-ba50-453cf21ddd86"},"vehicle_type_id":"4","last_reported":1752833533,"current_range_meters":12800,"station_id":"","pricing_plan_id":"cebpf4jnsgd1na2vs0mg"},{"bike_id":"b58ac21a-4009-4e8c-9def-a9c88a6b7cd7","system_id":"levelo_inurba_marseille","lat":43.29865,"lon":5.3975,"is_reserved":false,"is_disabled":false,"rental_uris":{"android":"levelo://app?vid=b58ac21a-4009-4e8c-9def-a9c88a6b7cd7","ios":"levelo://app?vid=b58ac21a-4009-4e8c-9def-a9c88a6b7cd7"},"vehicle_type_id":"4","last_reported":1752833533,"current_range_meters":12800,"station_id":"ce4bh0h2rcd13ifvqd50","pricing_plan_id":"cebpf4jnsgd1na2vs0mg"},{"bike_id":"d01966a7-5e23-40f7-8323-4d6534e79969","system_id":"levelo_inurba_marseille","lat":43.22935,"lon":5.35383,"is_reserved":false,"is_disabled":false,"rental_uris":{"android":"levelo://app?vid=d01966a7-5e23-40f7-8323-4d6534e79969","ios":"levelo://app?vid=d01966a7-5e23-40f7-8323-4d6534e79969"},"vehicle_type_id":"4","last_reported":1752833533,"current_range_meters":13600,"station_id":"cpo3532slgdg3j2ikp40","pricing_plan_id":"cebpf4jnsgd1na2vs0mg"},{"bike_id":"9b7a5c76-646b-47e4-9aaf-9e0ac1e776a5","system_id":"levelo_inurba_marseille","lat":43.26944,"lon":5.402513,"is_reserved":false,"is_disabled":false,"rental_uris":{"android":"levelo://app?vid=9b7a5c76-646b-47e4-9aaf-9e0ac1e776a5","ios":"levelo://app?vid=9b7a5c76-646b-47e4-9aaf-9e0ac1e776a5"},"vehicle_type_id":"4","last_reported":1752833533,"current_range_meters":13600,"station_id":"cjm6bp8fraef2m0cb0m0","pricing_plan_id":"cebpf4jnsgd1na2vs0mg"},{"bike_id":"6044e738-af33-45ba-ab50-15778ea70c46","system_id":"levelo_inurba_marseille","lat":43.29018,"lon":5.38143,"is_reserved":false,"is_disabled":true,"rental_uris":{"android":"levelo://app?vid=6044e738-af33-45ba-ab50-15778ea70c46","ios":"levelo://app?vid=6044e738-af33-45ba-ab50-15778ea70c46"},"vehicle_type_id":"4","last_reported":1752833533,"current_range_meters":13600,"station_id":"ce4bh4p2rcd13ifvqe1g","pricing_plan_id":"cebpf4jnsgd1na2vs0mg"},{"bike_id":"28682a9d-1f72-4001-81b3-ec10d0784999","system_id":"levelo_inurba_marseille","lat":43.23141,"lon":5.43712,"is_reserved":false,"is_disabled":false,"rental_uris":{"android":"levelo://app?vid=28682a9d-1f72-4001-81b3-ec10d0784999","ios":"levelo://app?vid=28682a9d-1f72-4001-81b3-ec10d0784999"},"vehicle_type_id":"4","last_reported":1752833533,"current_range_meters":13600,"station_id":"ce4bhmp2rcd13ifvqgog","pricing_plan_id":"cebpf4jnsgd1na2vs0mg"},{"bike_id":"1d94feba-c90e-4d75-9f8d-9ea4bb03490e","system_id":"levelo_inurba_marseille","lat":43.29096,"lon":5.38153,"is_reserved":false,"is_disabled":true,"rental_uris":{"android":"levelo://app?vid=1d94feba-c90e-4d75-9f8d-9ea4bb03490e","ios":"levelo://app?vid=1d94feba-c90e-4d75-9f8d-9ea4bb03490e"},"vehicle_type_id":"4","last_reported":1752833533,"current_range_meters":14000,"station_id":"ce4bh512rcd13ifvqe2g","pricing_plan_id":"cebpf4jnsgd1na2vs0mg"},{"bike_id":"3e3ea796-dba7-4b02-b380-ab58b77a4b41","system_id":"levelo_inurba_marseille","lat":43.32355,"lon":5.36752,"is_reserved":false,"is_disabled":false,"rental_uris":{"android":"levelo://app?vid=3e3ea796-dba7-4b02-b380-ab58b77a4b41","ios":"levelo://app?vid=3e3ea796-dba7-4b02-b380-ab58b77a4b41"},"vehicle_type_id":"4","last_reported":1752833533,"current_range_meters":14000,"station_id":"ce4bhsh2rcd13ifvqi2g","pricing_plan_id":"cebpf4jnsgd1na2vs0mg"},{"bike_id":"00cb9e03-8028-497f-8c29-77cd4bf2e8d6","system_id":"levelo_inurba_marseille","lat":43.2862,"lon":5.351046,"is_reserved":false,"is_disabled":false,"rental_uris":{"android":"levelo://app?vid=00cb9e03-8028-497f-8c29-77cd4bf2e8d6","ios":"levelo://app?vid=00cb9e03-8028-497f-8c29-77cd4bf2e8d6"},"vehicle_type_id":"4","last_reported":1752833533,"current_range_meters":14000,"station_id":"ce4bhch2rcd13ifvqeug","pricing_plan_id":"cebpf4jnsgd1na2vs0mg"},{"bike_id":"017e0812-8e14-4d60-bc48-ccc546ca9568","system_id":"levelo_inurba_marseille","lat":43.32335,"lon":5.40625,"is_reserved":false,"is_disabled":false,"rental_uris":{"android":"levelo://app?vid=017e0812-8e14-4d60-bc48-ccc546ca9568","ios":"levelo://app?vid=017e0812-8e14-4d60-bc48-ccc546ca9568"},"vehicle_type_id":"4","last_reported":1752833533,"current_range_meters":14000,"station_id":"ce4bhq92rcd13ifvqhjg","pricing_plan_id":"cebpf4jnsgd1na2vs0mg"},{"bike_id":"c6db0f6a-96fe-4e1d-8ded-c2ef38c9bab4","system_id":"levelo_inurba_marseille","lat":43.304183,"lon":5.412838,"is_reserved":false,"is_disabled":true,"rental_uris":{"android":"levelo://app?vid=c6db0f6a-96fe-4e1d-8ded-c2ef38c9bab4","ios":"levelo://app?vid=c6db0f6a-96fe-4e1d-8ded-c2ef38c9bab4"},"vehicle_type_id":"4","last_reported":1752833533,"current_range_meters":14400,"station_id":"ce4bhop2rcd13ifvqh8g","pricing_plan_id":"cebpf4jnsgd1na2vs0mg"},{"bike_id":"ed5d6375-23ca-4e47-922f-45205a99478a","system_id":"levelo_inurba_marseille","lat":43.271854,"lon":5.362776,"is_reserved":false,"is_disabled":false,"rental_uris":{"android":"levelo://app?vid=ed5d6375-23ca-4e47-922f-45205a99478a","ios":"levelo://app?vid=ed5d6375-23ca-4e47-922f-45205a99478a"},"vehicle_type_id":"4","last_reported":1752833533,"current_range_meters":14400,"station_id":"","pricing_plan_id":"cebpf4jnsgd1na2vs0mg"},{"bike_id":"297914b4-f29d-4efa-a16f-6b7800ec2454","system_id":"levelo_inurba_marseille","lat":43.29075,"lon":5.37197,"is_reserved":false,"is_disabled":false,"rental_uris":{"android":"levelo://app?vid=297914b4-f29d-4efa-a16f-6b7800ec2454","ios":"levelo://app?vid=297914b4-f29d-4efa-a16f-6b7800ec2454"},"vehicle_type_id":"4","last_reported":1752833533,"current_range_meters":14400,"station_id":"ce4bh5p2rcd13ifvqe4g","pricing_plan_id":"cebpf4jnsgd1na2vs0mg"},{"bike_id":"ce7bd25b-5213-4881-a28b-f582e6a1d712","system_id":"levelo_inurba_marseille","lat":43.31419,"lon":5.36708,"is_reserved":false,"is_disabled":true,"rental_uris":{"android":"levelo://app?vid=ce7bd25b-5213-4881-a28b-f582e6a1d712","ios":"levelo://app?vid=ce7bd25b-5213-4881-a28b-f582e6a1d712"},"vehicle_type_id":"4","last_reported":1752833533,"current_range_meters":14400,"station_id":"ce4bgr92rcd13ifvqc6g","pricing_plan_id":"cebpf4jnsgd1na2vs0mg"},{"bike_id":"00ecada3-8577-4c51-98e2-f760bc2bb718","system_id":"levelo_inurba_marseille","lat":43.294306,"lon":5.432307,"is_reserved":false,"is_disabled":false,"rental_uris":{"android":"levelo://app?vid=00ecada3-8577-4c51-98e2-f760bc2bb718","ios":"levelo://app?vid=00ecada3-8577-4c51-98e2-f760bc2bb718"},"vehicle_type_id":"4","last_reported":1752833533,"current_range_meters":14400,"station_id":"","pricing_plan_id":"cebpf4jnsgd1na2vs0mg"},{"bike_id":"5dda7472-9949-46fe-b9fa-ab272459a5d6","system_id":"levelo_inurba_marseille","lat":43.3236,"lon":5.36777,"is_reserved":false,"is_disabled":false,"rental_uris":{"android":"levelo://app?vid=5dda7472-9949-46fe-b9fa-ab272459a5d6","ios":"levelo://app?vid=5dda7472-9949-46fe-b9fa-ab272459a5d6"},"vehicle_type_id":"4","last_reported":1752833533,"current_range_meters":14400,"station_id":"ce4bhsh2rcd13ifvqi2g","pricing_plan_id":"cebpf4jnsgd1na2vs0mg"},{"bike_id":"57bb565d-2136-465a-803d-648474c4a3a7","system_id":"levelo_inurba_marseille","lat":43.31798,"lon":5.36812,"is_reserved":false,"is_disabled":false,"rental_uris":{"android":"levelo://app?vid=57bb565d-2136-465a-803d-648474c4a3a7","ios":"levelo://app?vid=57bb565d-2136-465a-803d-648474c4a3a7"},"vehicle_type_id":"4","last_reported":1752833533,"current_range_meters":14800,"station_id":"","pricing_plan_id":"cebpf4jnsgd1na2vs0mg"},{"bike_id":"ce40837d-3edf-4cc2-a747-2f8d4ee2c7fb","system_id":"levelo_inurba_marseille","lat":43.22504,"lon":5.34784,"is_reserved":false,"is_disabled":false,"rental_uris":{"android":"levelo://app?vid=ce40837d-3edf-4cc2-a747-2f8d4ee2c7fb","ios":"levelo://app?vid=ce40837d-3edf-4cc2-a747-2f8d4ee2c7fb"},"vehicle_type_id":"4","last_reported":1752833533,"current_range_meters":14800,"station_id":"st_cvj5dfep6f1abm77gieg","pricing_plan_id":"cebpf4jnsgd1na2vs0mg"},{"bike_id":"be60c88c-1453-4626-be80-200258f79626","system_id":"levelo_inurba_marseille","lat":43.231912,"lon":5.355496,"is_reserved":false,"is_disabled":false,"rental_uris":{"android":"levelo://app?vid=be60c88c-1453-4626-be80-200258f79626","ios":"levelo://app?vid=be60c88c-1453-4626-be80-200258f79626"},"vehicle_type_id":"4","last_reported":1752833533,"current_range_meters":14800,"station_id":"ce4bhu92rcd13ifvqi70","pricing_plan_id":"cebpf4jnsgd1na2vs0mg"},{"bike_id":"5ac93e7c-286a-4c1e-b6c0-4e9963e5a9f8","system_id":"levelo_inurba_marseille","lat":43.21192,"lon":5.35074,"is_reserved":false,"is_disabled":false,"rental_uris":{"android":"levelo://app?vid=5ac93e7c-286a-4c1e-b6c0-4e9963e5a9f8","ios":"levelo://app?vid=5ac93e7c-286a-4c1e-b6c0-4e9963e5a9f8"},"vehicle_type_id":"4","last_reported":1752833533,"current_range_meters":14800,"station_id":"st_cvj6sg6p6f1abm77japg","pricing_plan_id":"cebpf4jnsgd1na2vs0mg"},{"bike_id":"4e668779-3eb5-42e4-80dd-b668d7525d42","system_id":"levelo_inurba_marseille","lat":43.28002,"lon":5.40011,"is_reserved":false,"is_disabled":false,"rental_uris":{"android":"levelo://app?vid=4e668779-3eb5-42e4-80dd-b668d7525d42","ios":"levelo://app?vid=4e668779-3eb5-42e4-80dd-b668d7525d42"},"vehicle_type_id":"4","last_reported":1752833533,"current_range_meters":15200,"station_id":"ce4bho92rcd13ifvqh4g","pricing_plan_id":"cebpf4jnsgd1na2vs0mg"},{"bike_id":"2ed1350f-0b6e-4182-a8b4-561741333858","system_id":"levelo_inurba_marseille","lat":43.279422,"lon":5.410379,"is_reserved":false,"is_disabled":false,"rental_uris":{"android":"levelo://app?vid=2ed1350f-0b6e-4182-a8b4-561741333858","ios":"levelo://app?vid=2ed1350f-0b6e-4182-a8b4-561741333858"},"vehicle_type_id":"4","last_reported":1752833533,"current_range_meters":15200,"station_id":"ce4bhnp2rcd13ifvqh0g","pricing_plan_id":"cebpf4jnsgd1na2vs0mg"},{"bike_id":"0666bfcb-027c-4d77-a147-9d07c92d2f62","system_id":"levelo_inurba_marseille","lat":43.27997,"lon":5.41656,"is_reserved":false,"is_disabled":false,"rental_uris":{"android":"levelo://app?vid=0666bfcb-027c-4d77-a147-9d07c92d2f62","ios":"levelo://app?vid=0666bfcb-027c-4d77-a147-9d07c92d2f62"},"vehicle_type_id":"4","last_reported":1752833533,"current_range_meters":15200,"station_id":"ce4bho12rcd13ifvqh1g","pricing_plan_id":"cebpf4jnsgd1na2vs0mg"},{"bike_id":"cda818c1-13a3-4a98-92e1-e121948e0bb3","system_id":"levelo_inurba_marseille","lat":43.29876,"lon":5.39734,"is_reserved":false,"is_disabled":false,"rental_uris":{"android":"levelo://app?vid=cda818c1-13a3-4a98-92e1-e121948e0bb3","ios":"levelo://app?vid=cda818c1-13a3-4a98-92e1-e121948e0bb3"},"vehicle_type_id":"4","last_reported":1752833533,"current_range_meters":15200,"station_id":"ce4bh0h2rcd13ifvqd50","pricing_plan_id":"cebpf4jnsgd1na2vs0mg"},{"bike_id":"9e46aa88-7b19-47c3-b789-71b8902b53cb","system_id":"levelo_inurba_marseille","lat":43.281553,"lon":5.426333,"is_reserved":false,"is_disabled":false,"rental_uris":{"android":"levelo://app?vid=9e46aa88-7b19-47c3-b789-71b8902b53cb","ios":"levelo://app?vid=9e46aa88-7b19-47c3-b789-71b8902b53cb"},"vehicle_type_id":"4","last_reported":1752833533,"current_range_meters":15200,"station_id":"ce4bhnh2rcd13ifvqgug","pricing_plan_id":"cebpf4jnsgd1na2vs0mg"},{"bike_id":"5253aa8e-35db-4ab8-9b41-914f58e1005f","system_id":"levelo_inurba_marseille","lat":43.30133,"lon":5.38786,"is_reserved":false,"is_disabled":false,"rental_uris":{"android":"levelo://app?vid=5253aa8e-35db-4ab8-9b41-914f58e1005f","ios":"levelo://app?vid=5253aa8e-35db-4ab8-9b41-914f58e1005f"},"vehicle_type_id":"4","last_reported":1752833533,"current_range_meters":16000,"station_id":"ce4bghh2rcd13ifvqb60","pricing_plan_id":"cebpf4jnsgd1na2vs0mg"},{"bike_id":"9a26dafa-4117-425c-8e32-1cf0f6fb0ac8","system_id":"levelo_inurba_marseille","lat":43.29294,"lon":5.37436,"is_reserved":false,"is_disabled":false,"rental_uris":{"android":"levelo://app?vid=9a26dafa-4117-425c-8e32-1cf0f6fb0ac8","ios":"levelo://app?vid=9a26dafa-4117-425c-8e32-1cf0f6fb0ac8"},"vehicle_type_id":"4","last_reported":1752833533,"current_range_meters":16000,"station_id":"ce4bgi12rcd13ifvqb70","pricing_plan_id":"cebpf4jnsgd1na2vs0mg"},{"bike_id":"b05bc36e-caa6-40ba-9315-9f202e680332","system_id":"levelo_inurba_marseille","lat":43.2937,"lon":5.378388,"is_reserved":false,"is_disabled":false,"rental_uris":{"android":"levelo://app?vid=b05bc36e-caa6-40ba-9315-9f202e680332","ios":"levelo://app?vid=b05bc36e-caa6-40ba-9315-9f202e680332"},"vehicle_type_id":"4","last_reported":1752833533,"current_range_meters":16000,"station_id":"ce4bgjh2rcd13ifvqbf0","pricing_plan_id":"cebpf4jnsgd1na2vs0mg"},{"bike_id":"60c2cbf8-a75e-403a-83c2-0a902a94a525","system_id":"levelo_inurba_marseille","lat":43.304295,"lon":5.397589,"is_reserved":false,"is_disabled":false,"rental_uris":{"android":"levelo://app?vid=60c2cbf8-a75e-403a-83c2-0a902a94a525","ios":"levelo://app?vid=60c2cbf8-a75e-403a-83c2-0a902a94a525"},"vehicle_type_id":"4","last_reported":1752833533,"current_range_meters":16000,"station_id":"ce4bh092rcd13ifvqd20","pricing_plan_id":"cebpf4jnsgd1na2vs0mg"},{"bike_id":"2d95b47d-d06f-40a4-bb6e-c13e954e3c8f","system_id":"levelo_inurba_marseille","lat":43.27719,"lon":5.41418,"is_reserved":false,"is_disabled":false,"rental_uris":{"android":"levelo://app?vid=2d95b47d-d06f-40a4-bb6e-c13e954e3c8f","ios":"levelo://app?vid=2d95b47d-d06f-40a4-bb6e-c13e954e3c8f"},"vehicle_type_id":"4","last_reported":1752833533,"current_range_meters":16000,"station_id":"","pricing_plan_id":"cebpf4jnsgd1na2vs0mg"},{"bike_id":"9c581ff5-4d16-47b7-be24-99b611d8da2e","system_id":"levelo_inurba_marseille","lat":43.29854,"lon":5.36285,"is_reserved":false,"is_disabled":false,"rental_uris":{"android":"levelo://app?vid=9c581ff5-4d16-47b7-be24-99b611d8da2e","ios":"levelo://app?vid=9c581ff5-4d16-47b7-be24-99b611d8da2e"},"vehicle_type_id":"4","last_reported":1752833533,"current_range_meters":16000,"station_id":"ce4bgpp2rcd13ifvqc3g","pricing_plan_id":"cebpf4jnsgd1na2vs0mg"},{"bike_id":"6cd13d7f-1155-433a-bba2-9bb2be544c72","system_id":"levelo_inurba_marseille","lat":43.27113,"lon":5.42237,"is_reserved":false,"is_disabled":false,"rental_uris":{"android":"levelo://app?vid=6cd13d7f-1155-433a-bba2-9bb2be544c72","ios":"levelo://app?vid=6cd13d7f-1155-433a-bba2-9bb2be544c72"},"vehicle_type_id":"4","last_reported":1752833533,"current_range_meters":16000,"station_id":"","pricing_plan_id":"cebpf4jnsgd1na2vs0mg"},{"bike_id":"eef93a3e-050a-4594-bd86-e7830dc7a0d1","system_id":"levelo_inurba_marseille","lat":43.29577,"lon":5.37497,"is_reserved":false,"is_disabled":false,"rental_uris":{"android":"levelo://app?vid=eef93a3e-050a-4594-bd86-e7830dc7a0d1","ios":"levelo://app?vid=eef93a3e-050a-4594-bd86-e7830dc7a0d1"},"vehicle_type_id":"4","last_reported":1752833533,"current_range_meters":16000,"station_id":"ce4bgh92rcd13ifvqb50","pricing_plan_id":"cebpf4jnsgd1na2vs0mg"},{"bike_id":"ab40eab5-f236-4422-a5a5-b90da08304bc","system_id":"levelo_inurba_marseille","lat":43.306913,"lon":5.371699,"is_reserved":false,"is_disabled":false,"rental_uris":{"android":"levelo://app?vid=ab40eab5-f236-4422-a5a5-b90da08304bc","ios":"levelo://app?vid=ab40eab5-f236-4422-a5a5-b90da08304bc"},"vehicle_type_id":"4","last_reported":1752833533,"current_range_meters":16000,"station_id":"","pricing_plan_id":"cebpf4jnsgd1na2vs0mg"},{"bike_id":"cfb52d04-9134-4c86-8269-771716b20f27","system_id":"levelo_inurba_marseille","lat":43.21194,"lon":5.35076,"is_reserved":false,"is_disabled":false,"rental_uris":{"android":"levelo://app?vid=cfb52d04-9134-4c86-8269-771716b20f27","ios":"levelo://app?vid=cfb52d04-9134-4c86-8269-771716b20f27"},"vehicle_type_id":"4","last_reported":1752833533,"current_range_meters":16000,"station_id":"st_cvj6sg6p6f1abm77japg","pricing_plan_id":"cebpf4jnsgd1na2vs0mg"},{"bike_id":"6c15730c-15f9-40a6-bacc-2ae75afb36f4","system_id":"levelo_inurba_marseille","lat":43.29009,"lon":5.35613,"is_reserved":false,"is_disabled":false,"rental_uris":{"android":"levelo://app?vid=6c15730c-15f9-40a6-bacc-2ae75afb36f4","ios":"levelo://app?vid=6c15730c-15f9-40a6-bacc-2ae75afb36f4"},"vehicle_type_id":"4","last_reported":1752833533,"current_range_meters":16000,"station_id":"ce4bhb92rcd13ifvqen0","pricing_plan_id":"cebpf4jnsgd1na2vs0mg"},{"bike_id":"73e8d711-f620-4210-8119-0210d3afb641","system_id":"levelo_inurba_marseille","lat":43.28404,"lon":5.3498,"is_reserved":false,"is_disabled":false,"rental_uris":{"android":"levelo://app?vid=73e8d711-f620-4210-8119-0210d3afb641","ios":"levelo://app?vid=73e8d711-f620-4210-8119-0210d3afb641"},"vehicle_type_id":"4","last_reported":1752833533,"current_range_meters":16000,"station_id":"ce4bhbh2rcd13ifvqepg","pricing_plan_id":"cebpf4jnsgd1na2vs0mg"},{"bike_id":"9a2c7ee8-dab1-4e1a-9f3e-f497b3d0b4ec","system_id":"levelo_inurba_marseille","lat":43.28415,"lon":5.349684,"is_reserved":false,"is_disabled":false,"rental_uris":{"android":"levelo://app?vid=9a2c7ee8-dab1-4e1a-9f3e-f497b3d0b4ec","ios":"levelo://app?vid=9a2c7ee8-dab1-4e1a-9f3e-f497b3d0b4ec"},"vehicle_type_id":"4","last_reported":1752833533,"current_range_meters":16400,"station_id":"ce4bhbh2rcd13ifvqepg","pricing_plan_id":"cebpf4jnsgd1na2vs0mg"},{"bike_id":"ac0ed4be-466c-4caa-b855-3c6bbe5a11b5","system_id":"levelo_inurba_marseille","lat":43.267587,"lon":5.371826,"is_reserved":false,"is_disabled":false,"rental_uris":{"android":"levelo://app?vid=ac0ed4be-466c-4caa-b855-3c6bbe5a11b5","ios":"levelo://app?vid=ac0ed4be-466c-4caa-b855-3c6bbe5a11b5"},"vehicle_type_id":"4","last_reported":1752833533,"current_range_meters":16400,"station_id":"","pricing_plan_id":"cebpf4jnsgd1na2vs0mg"},{"bike_id":"f310b61a-0922-4b58-99ec-3c007edcb4df","system_id":"levelo_inurba_marseille","lat":43.27933,"lon":5.3957,"is_reserved":false,"is_disabled":false,"rental_uris":{"android":"levelo://app?vid=f310b61a-0922-4b58-99ec-3c007edcb4df","ios":"levelo://app?vid=f310b61a-0922-4b58-99ec-3c007edcb4df"},"vehicle_type_id":"4","last_reported":1752833533,"current_range_meters":16400,"station_id":"ce4bhf92rcd13ifvqf40","pricing_plan_id":"cebpf4jnsgd1na2vs0mg"},{"bike_id":"6b15e0b3-958d-470b-975c-de110a2ed4d1","system_id":"levelo_inurba_marseille","lat":43.32049,"lon":5.415445,"is_reserved":false,"is_disabled":false,"rental_uris":{"android":"levelo://app?vid=6b15e0b3-958d-470b-975c-de110a2ed4d1","ios":"levelo://app?vid=6b15e0b3-958d-470b-975c-de110a2ed4d1"},"vehicle_type_id":"4","last_reported":1752833533,"current_range_meters":16400,"station_id":"ce4bhq92rcd13ifvqhkg","pricing_plan_id":"cebpf4jnsgd1na2vs0mg"},{"bike_id":"ae94770d-2105-4a9e-9e7c-26f9a37abc3e","system_id":"levelo_inurba_marseille","lat":43.30541,"lon":5.36714,"is_reserved":false,"is_disabled":false,"rental_uris":{"android":"levelo://app?vid=ae94770d-2105-4a9e-9e7c-26f9a37abc3e","ios":"levelo://app?vid=ae94770d-2105-4a9e-9e7c-26f9a37abc3e"},"vehicle_type_id":"4","last_reported":1752833533,"current_range_meters":16400,"station_id":"","pricing_plan_id":"cebpf4jnsgd1na2vs0mg"},{"bike_id":"9ef538ff-7ee7-43f6-9300-b3c9db284dd7","system_id":"levelo_inurba_marseille","lat":43.28476,"lon":5.38431,"is_reserved":false,"is_disabled":false,"rental_uris":{"android":"levelo://app?vid=9ef538ff-7ee7-43f6-9300-b3c9db284dd7","ios":"levelo://app?vid=9ef538ff-7ee7-43f6-9300-b3c9db284dd7"},"vehicle_type_id":"4","last_reported":1752833533,"current_range_meters":16400,"station_id":"ce4bh512rcd13ifvqe3g","pricing_plan_id":"cebpf4jnsgd1na2vs0mg"},{"bike_id":"a67156ae-789e-45f5-ab3f-ed7d95b24540","system_id":"levelo_inurba_marseille","lat":43.211931,"lon":5.35079,"is_reserved":false,"is_disabled":false,"rental_uris":{"android":"levelo://app?vid=a67156ae-789e-45f5-ab3f-ed7d95b24540","ios":"levelo://app?vid=a67156ae-789e-45f5-ab3f-ed7d95b24540"},"vehicle_type_id":"4","last_reported":1752833533,"current_range_meters":16400,"station_id":"st_cvj6sg6p6f1abm77japg","pricing_plan_id":"cebpf4jnsgd1na2vs0mg"},{"bike_id":"5044d11d-09e9-4d2a-97d5-460d7798a60a","system_id":"levelo_inurba_marseille","lat":43.29008,"lon":5.35607,"is_reserved":false,"is_disabled":false,"rental_uris":{"android":"levelo://app?vid=5044d11d-09e9-4d2a-97d5-460d7798a60a","ios":"levelo://app?vid=5044d11d-09e9-4d2a-97d5-460d7798a60a"},"vehicle_type_id":"4","last_reported":1752833533,"current_range_meters":16000,"station_id":"ce4bhb92rcd13ifvqen0","pricing_plan_id":"cebpf4jnsgd1na2vs0mg"},{"bike_id":"50ae63f0-5a86-4b7e-9b53-d7a01e0bf25a","system_id":"levelo_inurba_marseille","lat":43.337444,"lon":5.374475,"is_reserved":false,"is_disabled":false,"rental_uris":{"android":"levelo://app?vid=50ae63f0-5a86-4b7e-9b53-d7a01e0bf25a","ios":"levelo://app?vid=50ae63f0-5a86-4b7e-9b53-d7a01e0bf25a"},"vehicle_type_id":"4","last_reported":1752833533,"current_range_meters":16400,"station_id":"ce4bh092rcd13ifvqd20","pricing_plan_id":"cebpf4jnsgd1na2vs0mg"},{"bike_id":"edd0079d-996b-4ae3-9a31-d781f3a059ec","system_id":"levelo_inurba_marseille","lat":43.33786,"lon":5.37426,"is_reserved":false,"is_disabled":false,"rental_uris":{"android":"levelo://app?vid=edd0079d-996b-4ae3-9a31-d781f3a059ec","ios":"levelo://app?vid=edd0079d-996b-4ae3-9a31-d781f3a059ec"},"vehicle_type_id":"4","last_reported":1752833533,"current_range_meters":16400,"station_id":"","pricing_plan_id":"cebpf4jnsgd1na2vs0mg"},{"bike_id":"b7fe52dd-f025-4212-9e78-19e7f6f09593","system_id":"levelo_inurba_marseille","lat":43.21194,"lon":5.35071,"is_reserved":false,"is_disabled":false,"rental_uris":{"android":"levelo://app?vid=b7fe52dd-f025-4212-9e78-19e7f6f09593","ios":"levelo://app?vid=b7fe52dd-f025-4212-9e78-19e7f6f09593"},"vehicle_type_id":"4","last_reported":1752833533,"current_range_meters":16400,"station_id":"st_cvj6sg6p6f1abm77japg","pricing_plan_id":"cebpf4jnsgd1na2vs0mg"},{"bike_id":"0af664f4-b43b-4940-89ad-b9a34bdf3270","system_id":"levelo_inurba_marseille","lat":43.30284,"lon":5.37724,"is_reserved":false,"is_disabled":false,"rental_uris":{"android":"levelo://app?vid=0af664f4-b43b-4940-89ad-b9a34bdf3270","ios":"levelo://app?vid=0af664f4-b43b-4940-89ad-b9a34bdf3270"},"vehicle_type_id":"4","last_reported":1752833533,"current_range_meters":16800,"station_id":"ce4bguh2rcd13ifvqcj0","pricing_plan_id":"cebpf4jnsgd1na2vs0mg"},{"bike_id":"92409ae6-2f82-4eac-ab73-93e600233f58","system_id":"levelo_inurba_marseille","lat":43.29296,"lon":5.37453,"is_reserved":false,"is_disabled":false,"rental_uris":{"android":"levelo://app?vid=92409ae6-2f82-4eac-ab73-93e600233f58","ios":"levelo://app?vid=92409ae6-2f82-4eac-ab73-93e600233f58"},"vehicle_type_id":"4","last_reported":1752833533,"current_range_meters":16800,"station_id":"ce4bgi12rcd13ifvqb70","pricing_plan_id":"cebpf4jnsgd1na2vs0mg"},{"bike_id":"8ce9b80c-19c6-4985-81c6-50f285c26740","system_id":"levelo_inurba_marseille","lat":43.239573,"lon":5.366294,"is_reserved":false,"is_disabled":false,"rental_uris":{"android":"levelo://app?vid=8ce9b80c-19c6-4985-81c6-50f285c26740","ios":"levelo://app?vid=8ce9b80c-19c6-4985-81c6-50f285c26740"},"vehicle_type_id":"4","last_reported":1752833533,"current_range_meters":16800,"station_id":"ce4bhi12rcd13ifvqfp0","pricing_plan_id":"cebpf4jnsgd1na2vs0mg"},{"bike_id":"069e2087-a51d-416a-b9f7-0ef6a30f8082","system_id":"levelo_inurba_marseille","lat":43.21188,"lon":5.35075,"is_reserved":false,"is_disabled":false,"rental_uris":{"android":"levelo://app?vid=069e2087-a51d-416a-b9f7-0ef6a30f8082","ios":"levelo://app?vid=069e2087-a51d-416a-b9f7-0ef6a30f8082"},"vehicle_type_id":"4","last_reported":1752833533,"current_range_meters":16800,"station_id":"st_cvj6sg6p6f1abm77japg","pricing_plan_id":"cebpf4jnsgd1na2vs0mg"},{"bike_id":"73371026-46a3-49ca-b5b5-2d6b90c8827c","system_id":"levelo_inurba_marseille","lat":43.29933,"lon":5.36549,"is_reserved":false,"is_disabled":false,"rental_uris":{"android":"levelo://app?vid=73371026-46a3-49ca-b5b5-2d6b90c8827c","ios":"levelo://app?vid=73371026-46a3-49ca-b5b5-2d6b90c8827c"},"vehicle_type_id":"4","last_reported":1752833533,"current_range_meters":16800,"station_id":"ce4bgm92rcd13ifvqbr0","pricing_plan_id":"cebpf4jnsgd1na2vs0mg"},{"bike_id":"947bdcf7-b643-4d82-afe5-c8a99091049a","system_id":"levelo_inurba_marseille","lat":43.29628,"lon":5.37735,"is_reserved":false,"is_disabled":false,"rental_uris":{"android":"levelo://app?vid=947bdcf7-b643-4d82-afe5-c8a99091049a","ios":"levelo://app?vid=947bdcf7-b643-4d82-afe5-c8a99091049a"},"vehicle_type_id":"4","last_reported":1752833533,"current_range_meters":16800,"station_id":"ce4bgi92rcd13ifvqb90","pricing_plan_id":"cebpf4jnsgd1na2vs0mg"},{"bike_id":"ba9f3e38-527b-4abb-aed1-dabb2d5ce59f","system_id":"levelo_inurba_marseille","lat":43.26934,"lon":5.4026,"is_reserved":false,"is_disabled":false,"rental_uris":{"android":"levelo://app?vid=ba9f3e38-527b-4abb-aed1-dabb2d5ce59f","ios":"levelo://app?vid=ba9f3e38-527b-4abb-aed1-dabb2d5ce59f"},"vehicle_type_id":"4","last_reported":1752833533,"current_range_meters":16800,"station_id":"cjm6bp8fraef2m0cb0m0","pricing_plan_id":"cebpf4jnsgd1na2vs0mg"},{"bike_id":"6fd66afa-6637-4712-aa56-c95b48a08353","system_id":"levelo_inurba_marseille","lat":43.23147,"lon":5.43717,"is_reserved":false,"is_disabled":false,"rental_uris":{"android":"levelo://app?vid=6fd66afa-6637-4712-aa56-c95b48a08353","ios":"levelo://app?vid=6fd66afa-6637-4712-aa56-c95b48a08353"},"vehicle_type_id":"4","last_reported":1752833533,"current_range_meters":17200,"station_id":"ce4bhmp2rcd13ifvqgog","pricing_plan_id":"cebpf4jnsgd1na2vs0mg"},{"bike_id":"6f2b188d-268c-4dbe-b8a1-874e327f8d67","system_id":"levelo_inurba_marseille","lat":43.29944,"lon":5.36552,"is_reserved":false,"is_disabled":false,"rental_uris":{"android":"levelo://app?vid=6f2b188d-268c-4dbe-b8a1-874e327f8d67","ios":"levelo://app?vid=6f2b188d-268c-4dbe-b8a1-874e327f8d67"},"vehicle_type_id":"4","last_reported":1752833533,"current_range_meters":17200,"station_id":"ce4bgm92rcd13ifvqbr0","pricing_plan_id":"cebpf4jnsgd1na2vs0mg"},{"bike_id":"500542d6-86a5-41ea-ad3b-7ed3dfd2aada","system_id":"levelo_inurba_marseille","lat":43.30376,"lon":5.42497,"is_reserved":false,"is_disabled":false,"rental_uris":{"android":"levelo://app?vid=500542d6-86a5-41ea-ad3b-7ed3dfd2aada","ios":"levelo://app?vid=500542d6-86a5-41ea-ad3b-7ed3dfd2aada"},"vehicle_type_id":"4","last_reported":1752833533,"current_range_meters":17600,"station_id":"ce4bhoh2rcd13ifvqh6g","pricing_plan_id":"cebpf4jnsgd1na2vs0mg"},{"bike_id":"16e82f4b-e430-4e49-8fc0-f50f9e0b34af","system_id":"levelo_inurba_marseille","lat":43.2978,"lon":5.39334,"is_reserved":false,"is_disabled":false,"rental_uris":{"android":"levelo://app?vid=16e82f4b-e430-4e49-8fc0-f50f9e0b34af","ios":"levelo://app?vid=16e82f4b-e430-4e49-8fc0-f50f9e0b34af"},"vehicle_type_id":"4","last_reported":1752833533,"current_range_meters":17600,"station_id":"chh1huq6cuj3fo74tm60","pricing_plan_id":"cebpf4jnsgd1na2vs0mg"},{"bike_id":"978ef16f-2db4-4544-b66f-199c1f3b9d02","system_id":"levelo_inurba_marseille","lat":43.23152,"lon":5.43739,"is_reserved":false,"is_disabled":false,"rental_uris":{"android":"levelo://app?vid=978ef16f-2db4-4544-b66f-199c1f3b9d02","ios":"levelo://app?vid=978ef16f-2db4-4544-b66f-199c1f3b9d02"},"vehicle_type_id":"4","last_reported":1752833533,"current_range_meters":17600,"station_id":"ce4bhmp2rcd13ifvqgog","pricing_plan_id":"cebpf4jnsgd1na2vs0mg"},{"bike_id":"4f3a0988-0550-491c-bf91-afee47b9458f","system_id":"levelo_inurba_marseille","lat":43.29319,"lon":5.37194,"is_reserved":false,"is_disabled":false,"rental_uris":{"android":"levelo://app?vid=4f3a0988-0550-491c-bf91-afee47b9458f","ios":"levelo://app?vid=4f3a0988-0550-491c-bf91-afee47b9458f"},"vehicle_type_id":"4","last_reported":1752833533,"current_range_meters":17600,"station_id":"ce4bgh92rcd13ifvqb40","pricing_plan_id":"cebpf4jnsgd1na2vs0mg"},{"bike_id":"35ec15d2-c499-4c45-a42f-4b46cf6c66c6","system_id":"levelo_inurba_marseille","lat":43.31326,"lon":5.39695,"is_reserved":false,"is_disabled":false,"rental_uris":{"android":"levelo://app?vid=35ec15d2-c499-4c45-a42f-4b46cf6c66c6","ios":"levelo://app?vid=35ec15d2-c499-4c45-a42f-4b46cf6c66c6"},"vehicle_type_id":"4","last_reported":1752833533,"current_range_meters":18800,"station_id":"ce4bgvp2rcd13ifvqcu0","pricing_plan_id":"cebpf4jnsgd1na2vs0mg"},{"bike_id":"1505fa88-8851-4b89-b862-a7855dcdc50b","system_id":"levelo_inurba_marseille","lat":43.28855,"lon":5.35869,"is_reserved":false,"is_disabled":false,"rental_uris":{"android":"levelo://app?vid=1505fa88-8851-4b89-b862-a7855dcdc50b","ios":"levelo://app?vid=1505fa88-8851-4b89-b862-a7855dcdc50b"},"vehicle_type_id":"4","last_reported":1752833533,"current_range_meters":17600,"station_id":"ce4bhb12rcd13ifvqem0","pricing_plan_id":"cebpf4jnsgd1na2vs0mg"},{"bike_id":"605ed834-819b-43a6-99ff-85dfd5dbb3cb","system_id":"levelo_inurba_marseille","lat":43.30565,"lon":5.36692,"is_reserved":false,"is_disabled":true,"rental_uris":{"android":"levelo://app?vid=605ed834-819b-43a6-99ff-85dfd5dbb3cb","ios":"levelo://app?vid=605ed834-819b-43a6-99ff-85dfd5dbb3cb"},"vehicle_type_id":"4","last_reported":1752833533,"current_range_meters":18000,"station_id":"ce4bgrp2rcd13ifvqc9g","pricing_plan_id":"cebpf4jnsgd1na2vs0mg"},{"bike_id":"5ed7e33c-75eb-4f80-9ced-f5eee5190af4","system_id":"levelo_inurba_marseille","lat":43.2962,"lon":5.42207,"is_reserved":false,"is_disabled":false,"rental_uris":{"android":"levelo://app?vid=5ed7e33c-75eb-4f80-9ced-f5eee5190af4","ios":"levelo://app?vid=5ed7e33c-75eb-4f80-9ced-f5eee5190af4"},"vehicle_type_id":"4","last_reported":1752833533,"current_range_meters":18000,"station_id":"","pricing_plan_id":"cebpf4jnsgd1na2vs0mg"},{"bike_id":"afc91c81-7042-4270-a28e-07e325ae83c9","system_id":"levelo_inurba_marseille","lat":43.21278,"lon":5.34996,"is_reserved":false,"is_disabled":false,"rental_uris":{"android":"levelo://app?vid=afc91c81-7042-4270-a28e-07e325ae83c9","ios":"levelo://app?vid=afc91c81-7042-4270-a28e-07e325ae83c9"},"vehicle_type_id":"4","last_reported":1752833533,"current_range_meters":18000,"station_id":"","pricing_plan_id":"cebpf4jnsgd1na2vs0mg"},{"bike_id":"d15a6b9a-68d5-45b5-b094-b1dbdfda1025","system_id":"levelo_inurba_marseille","lat":43.28412,"lon":5.34986,"is_reserved":false,"is_disabled":false,"rental_uris":{"android":"levelo://app?vid=d15a6b9a-68d5-45b5-b094-b1dbdfda1025","ios":"levelo://app?vid=d15a6b9a-68d5-45b5-b094-b1dbdfda1025"},"vehicle_type_id":"4","last_reported":1752833533,"current_range_meters":18000,"station_id":"ce4bhbh2rcd13ifvqepg","pricing_plan_id":"cebpf4jnsgd1na2vs0mg"},{"bike_id":"2819abb2-c895-4686-a4c8-192e5cb6704b","system_id":"levelo_inurba_marseille","lat":43.3266,"lon":5.40979,"is_reserved":false,"is_disabled":false,"rental_uris":{"android":"levelo://app?vid=2819abb2-c895-4686-a4c8-192e5cb6704b","ios":"levelo://app?vid=2819abb2-c895-4686-a4c8-192e5cb6704b"},"vehicle_type_id":"4","last_reported":1752833533,"current_range_meters":17600,"station_id":"ce4bhpp2rcd13ifvqhgg","pricing_plan_id":"cebpf4jnsgd1na2vs0mg"},{"bike_id":"158422b9-1628-470c-9ef7-ebee5ce90c1e","system_id":"levelo_inurba_marseille","lat":43.21195,"lon":5.35074,"is_reserved":false,"is_disabled":false,"rental_uris":{"android":"levelo://app?vid=158422b9-1628-470c-9ef7-ebee5ce90c1e","ios":"levelo://app?vid=158422b9-1628-470c-9ef7-ebee5ce90c1e"},"vehicle_type_id":"4","last_reported":1752833533,"current_range_meters":18000,"station_id":"st_cvj6sg6p6f1abm77japg","pricing_plan_id":"cebpf4jnsgd1na2vs0mg"},{"bike_id":"5016f77e-53a9-4155-a2d9-8f4505a7613a","system_id":"levelo_inurba_marseille","lat":43.257298,"lon":5.410955,"is_reserved":false,"is_disabled":false,"rental_uris":{"android":"levelo://app?vid=5016f77e-53a9-4155-a2d9-8f4505a7613a","ios":"levelo://app?vid=5016f77e-53a9-4155-a2d9-8f4505a7613a"},"vehicle_type_id":"4","last_reported":1752833533,"current_range_meters":18000,"station_id":"ce4bhkp2rcd13ifvqgd0","pricing_plan_id":"cebpf4jnsgd1na2vs0mg"},{"bike_id":"7d6d830f-bc29-4051-8f0c-752bfe00d61b","system_id":"levelo_inurba_marseille","lat":43.29039,"lon":5.37585,"is_reserved":false,"is_disabled":false,"rental_uris":{"android":"levelo://app?vid=7d6d830f-bc29-4051-8f0c-752bfe00d61b","ios":"levelo://app?vid=7d6d830f-bc29-4051-8f0c-752bfe00d61b"},"vehicle_type_id":"4","last_reported":1752833533,"current_range_meters":18800,"station_id":"ce4bh692rcd13ifvqe90","pricing_plan_id":"cebpf4jnsgd1na2vs0mg"},{"bike_id":"fb4debf2-1f8f-411c-bd26-e8013aa9592a","system_id":"levelo_inurba_marseille","lat":43.273139,"lon":5.390726,"is_reserved":false,"is_disabled":false,"rental_uris":{"android":"levelo://app?vid=fb4debf2-1f8f-411c-bd26-e8013aa9592a","ios":"levelo://app?vid=fb4debf2-1f8f-411c-bd26-e8013aa9592a"},"vehicle_type_id":"4","last_reported":1752833533,"current_range_meters":18800,"station_id":"","pricing_plan_id":"cebpf4jnsgd1na2vs0mg"},{"bike_id":"f6615826-0148-4509-8ae4-7a80f787f81b","system_id":"levelo_inurba_marseille","lat":43.30302,"lon":5.3921,"is_reserved":false,"is_disabled":false,"rental_uris":{"android":"levelo://app?vid=f6615826-0148-4509-8ae4-7a80f787f81b","ios":"levelo://app?vid=f6615826-0148-4509-8ae4-7a80f787f81b"},"vehicle_type_id":"4","last_reported":1752833533,"current_range_meters":18800,"station_id":"ce4bgkh2rcd13ifvqbk0","pricing_plan_id":"cebpf4jnsgd1na2vs0mg"},{"bike_id":"eecf1072-0695-4668-a94e-d992908f044b","system_id":"levelo_inurba_marseille","lat":43.29372,"lon":5.37857,"is_reserved":false,"is_disabled":false,"rental_uris":{"android":"levelo://app?vid=eecf1072-0695-4668-a94e-d992908f044b","ios":"levelo://app?vid=eecf1072-0695-4668-a94e-d992908f044b"},"vehicle_type_id":"4","last_reported":1752833533,"current_range_meters":18800,"station_id":"ce4bgjh2rcd13ifvqbf0","pricing_plan_id":"cebpf4jnsgd1na2vs0mg"},{"bike_id":"ea8dfbca-6630-4570-a086-9cb915cd261e","system_id":"levelo_inurba_marseille","lat":43.29914,"lon":5.37473,"is_reserved":false,"is_disabled":false,"rental_uris":{"android":"levelo://app?vid=ea8dfbca-6630-4570-a086-9cb915cd261e","ios":"levelo://app?vid=ea8dfbca-6630-4570-a086-9cb915cd261e"},"vehicle_type_id":"4","last_reported":1752833533,"current_range_meters":18800,"station_id":"ce4bgjh2rcd13ifvqbg0","pricing_plan_id":"cebpf4jnsgd1na2vs0mg"},{"bike_id":"92c19c7b-c416-42e7-821b-70b754b4e92e","system_id":"levelo_inurba_marseille","lat":43.29261,"lon":5.37624,"is_reserved":false,"is_disabled":false,"rental_uris":{"android":"levelo://app?vid=92c19c7b-c416-42e7-821b-70b754b4e92e","ios":"levelo://app?vid=92c19c7b-c416-42e7-821b-70b754b4e92e"},"vehicle_type_id":"4","last_reported":1752833533,"current_range_meters":18800,"station_id":"ce4bgi12rcd13ifvqb80","pricing_plan_id":"cebpf4jnsgd1na2vs0mg"},{"bike_id":"94c07cb2-0943-4d24-99f2-97bdab47aa3f","system_id":"levelo_inurba_marseille","lat":43.337444,"lon":5.374475,"is_reserved":false,"is_disabled":false,"rental_uris":{"android":"levelo://app?vid=94c07cb2-0943-4d24-99f2-97bdab47aa3f","ios":"levelo://app?vid=94c07cb2-0943-4d24-99f2-97bdab47aa3f"},"vehicle_type_id":"4","last_reported":1752833533,"current_range_meters":18800,"station_id":"","pricing_plan_id":"cebpf4jnsgd1na2vs0mg"},{"bike_id":"f90f1efc-2add-4576-a300-db6e14a5c471","system_id":"levelo_inurba_marseille","lat":43.32107,"lon":5.36843,"is_reserved":false,"is_disabled":false,"rental_uris":{"android":"levelo://app?vid=f90f1efc-2add-4576-a300-db6e14a5c471","ios":"levelo://app?vid=f90f1efc-2add-4576-a300-db6e14a5c471"},"vehicle_type_id":"4","last_reported":1752833533,"current_range_meters":19200,"station_id":"ce4bhrh2rcd13ifvqhug","pricing_plan_id":"cebpf4jnsgd1na2vs0mg"},{"bike_id":"59f0d01e-61e7-40a8-9026-1a4da594050e","system_id":"levelo_inurba_marseille","lat":43.29055,"lon":5.37162,"is_reserved":false,"is_disabled":false,"rental_uris":{"android":"levelo://app?vid=59f0d01e-61e7-40a8-9026-1a4da594050e","ios":"levelo://app?vid=59f0d01e-61e7-40a8-9026-1a4da594050e"},"vehicle_type_id":"4","last_reported":1752833533,"current_range_meters":19200,"station_id":"ce4bh5p2rcd13ifvqe4g","pricing_plan_id":"cebpf4jnsgd1na2vs0mg"},{"bike_id":"10c4876a-1bf9-43c5-bb3e-3f6afde81f73","system_id":"levelo_inurba_marseille","lat":43.28264,"lon":5.35065,"is_reserved":false,"is_disabled":false,"rental_uris":{"android":"levelo://app?vid=10c4876a-1bf9-43c5-bb3e-3f6afde81f73","ios":"levelo://app?vid=10c4876a-1bf9-43c5-bb3e-3f6afde81f73"},"vehicle_type_id":"4","last_reported":1752833533,"current_range_meters":19200,"station_id":"ce4bhbp2rcd13ifvqerg","pricing_plan_id":"cebpf4jnsgd1na2vs0mg"},{"bike_id":"bd7f0af5-ae40-44b6-bc39-9b4e2b89534b","system_id":"levelo_inurba_marseille","lat":43.29868,"lon":5.39734,"is_reserved":false,"is_disabled":false,"rental_uris":{"android":"levelo://app?vid=bd7f0af5-ae40-44b6-bc39-9b4e2b89534b","ios":"levelo://app?vid=bd7f0af5-ae40-44b6-bc39-9b4e2b89534b"},"vehicle_type_id":"4","last_reported":1752833533,"current_range_meters":19200,"station_id":"","pricing_plan_id":"cebpf4jnsgd1na2vs0mg"},{"bike_id":"1bea52eb-b99a-43e3-8fce-07ed497a87d3","system_id":"levelo_inurba_marseille","lat":43.32341,"lon":5.40619,"is_reserved":false,"is_disabled":false,"rental_uris":{"android":"levelo://app?vid=1bea52eb-b99a-43e3-8fce-07ed497a87d3","ios":"levelo://app?vid=1bea52eb-b99a-43e3-8fce-07ed497a87d3"},"vehicle_type_id":"4","last_reported":1752833533,"current_range_meters":19200,"station_id":"ce4bhq92rcd13ifvqhjg","pricing_plan_id":"cebpf4jnsgd1na2vs0mg"},{"bike_id":"35d7c238-1986-45e0-98e6-150f7b00844a","system_id":"levelo_inurba_marseille","lat":43.31726,"lon":5.42426,"is_reserved":false,"is_disabled":false,"rental_uris":{"android":"levelo://app?vid=35d7c238-1986-45e0-98e6-150f7b00844a","ios":"levelo://app?vid=35d7c238-1986-45e0-98e6-150f7b00844a"},"vehicle_type_id":"4","last_reported":1752833533,"current_range_meters":19200,"station_id":"ce4bhp92rcd13ifvqhbg","pricing_plan_id":"cebpf4jnsgd1na2vs0mg"},{"bike_id":"38ff264e-ad64-40fe-9f87-538b7b90fcbe","system_id":"levelo_inurba_marseille","lat":43.24167,"lon":5.36392,"is_reserved":false,"is_disabled":false,"rental_uris":{"android":"levelo://app?vid=38ff264e-ad64-40fe-9f87-538b7b90fcbe","ios":"levelo://app?vid=38ff264e-ad64-40fe-9f87-538b7b90fcbe"},"vehicle_type_id":"4","last_reported":1752833533,"current_range_meters":19200,"station_id":"cpo36qri1sfpv3e86is0","pricing_plan_id":"cebpf4jnsgd1na2vs0mg"},{"bike_id":"ffbf048d-ac83-4072-83b3-80052b86d6b0","system_id":"levelo_inurba_marseille","lat":43.21758,"lon":5.34609,"is_reserved":false,"is_disabled":false,"rental_uris":{"android":"levelo://app?vid=ffbf048d-ac83-4072-83b3-80052b86d6b0","ios":"levelo://app?vid=ffbf048d-ac83-4072-83b3-80052b86d6b0"},"vehicle_type_id":"4","last_reported":1752833533,"current_range_meters":19200,"station_id":"st_cvj6r9ubvosntc0bgbag","pricing_plan_id":"cebpf4jnsgd1na2vs0mg"},{"bike_id":"6d1a5811-4117-41c5-a767-6b28cc4c80e0","system_id":"levelo_inurba_marseille","lat":43.279464,"lon":5.410426,"is_reserved":false,"is_disabled":false,"rental_uris":{"android":"levelo://app?vid=6d1a5811-4117-41c5-a767-6b28cc4c80e0","ios":"levelo://app?vid=6d1a5811-4117-41c5-a767-6b28cc4c80e0"},"vehicle_type_id":"4","last_reported":1752833533,"current_range_meters":19200,"station_id":"ce4bhnp2rcd13ifvqh0g","pricing_plan_id":"cebpf4jnsgd1na2vs0mg"},{"bike_id":"82fa2dd1-a60b-4609-896b-9efe58a19369","system_id":"levelo_inurba_marseille","lat":43.3055,"lon":5.36564,"is_reserved":false,"is_disabled":false,"rental_uris":{"android":"levelo://app?vid=82fa2dd1-a60b-4609-896b-9efe58a19369","ios":"levelo://app?vid=82fa2dd1-a60b-4609-896b-9efe58a19369"},"vehicle_type_id":"4","last_reported":1752833533,"current_range_meters":19200,"station_id":"ce4bgs12rcd13ifvqcag","pricing_plan_id":"cebpf4jnsgd1na2vs0mg"},{"bike_id":"97e1947a-deb6-4785-a85f-a0ae1a0718e1","system_id":"levelo_inurba_marseille","lat":43.337444,"lon":5.374475,"is_reserved":false,"is_disabled":false,"rental_uris":{"android":"levelo://app?vid=97e1947a-deb6-4785-a85f-a0ae1a0718e1","ios":"levelo://app?vid=97e1947a-deb6-4785-a85f-a0ae1a0718e1"},"vehicle_type_id":"4","last_reported":1752833533,"current_range_meters":19200,"station_id":"ce4bhq92rcd13ifvqhkg","pricing_plan_id":"cebpf4jnsgd1na2vs0mg"},{"bike_id":"96579d04-b9e9-484c-9b9a-af500e5e8552","system_id":"levelo_inurba_marseille","lat":43.32672,"lon":5.36393,"is_reserved":false,"is_disabled":false,"rental_uris":{"android":"levelo://app?vid=96579d04-b9e9-484c-9b9a-af500e5e8552","ios":"levelo://app?vid=96579d04-b9e9-484c-9b9a-af500e5e8552"},"vehicle_type_id":"4","last_reported":1752833533,"current_range_meters":19200,"station_id":"","pricing_plan_id":"cebpf4jnsgd1na2vs0mg"},{"bike_id":"cb7b541b-4aa0-476b-ac1b-c83b6acaa65d","system_id":"levelo_inurba_marseille","lat":43.24175,"lon":5.36379,"is_reserved":false,"is_disabled":false,"rental_uris":{"android":"levelo://app?vid=cb7b541b-4aa0-476b-ac1b-c83b6acaa65d","ios":"levelo://app?vid=cb7b541b-4aa0-476b-ac1b-c83b6acaa65d"},"vehicle_type_id":"4","last_reported":1752833533,"current_range_meters":19600,"station_id":"cpo36qri1sfpv3e86is0","pricing_plan_id":"cebpf4jnsgd1na2vs0mg"},{"bike_id":"d5682ac4-d3d7-4293-a625-5f43c905db0c","system_id":"levelo_inurba_marseille","lat":43.28412,"lon":5.35019,"is_reserved":false,"is_disabled":false,"rental_uris":{"android":"levelo://app?vid=d5682ac4-d3d7-4293-a625-5f43c905db0c","ios":"levelo://app?vid=d5682ac4-d3d7-4293-a625-5f43c905db0c"},"vehicle_type_id":"4","last_reported":1752833533,"current_range_meters":19600,"station_id":"ce4bhbh2rcd13ifvqepg","pricing_plan_id":"cebpf4jnsgd1na2vs0mg"},{"bike_id":"1086cdd5-ad25-44f0-8889-94cb7d7f28e0","system_id":"levelo_inurba_marseille","lat":43.23063,"lon":5.35487,"is_reserved":false,"is_disabled":false,"rental_uris":{"android":"levelo://app?vid=1086cdd5-ad25-44f0-8889-94cb7d7f28e0","ios":"levelo://app?vid=1086cdd5-ad25-44f0-8889-94cb7d7f28e0"},"vehicle_type_id":"4","last_reported":1752833533,"current_range_meters":19600,"station_id":"cpo3342slgdg3j2ifvpg","pricing_plan_id":"cebpf4jnsgd1na2vs0mg"},{"bike_id":"86800b78-609a-4002-be47-586f72a82026","system_id":"levelo_inurba_marseille","lat":43.27558,"lon":5.38462,"is_reserved":false,"is_disabled":false,"rental_uris":{"android":"levelo://app?vid=86800b78-609a-4002-be47-586f72a82026","ios":"levelo://app?vid=86800b78-609a-4002-be47-586f72a82026"},"vehicle_type_id":"4","last_reported":1752833533,"current_range_meters":20000,"station_id":"ce4bhh92rcd13ifvqfi0","pricing_plan_id":"cebpf4jnsgd1na2vs0mg"},{"bike_id":"b788a2dd-efd6-48c2-ab22-c5bf878f04b3","system_id":"levelo_inurba_marseille","lat":43.2595,"lon":5.40964,"is_reserved":false,"is_disabled":false,"rental_uris":{"android":"levelo://app?vid=b788a2dd-efd6-48c2-ab22-c5bf878f04b3","ios":"levelo://app?vid=b788a2dd-efd6-48c2-ab22-c5bf878f04b3"},"vehicle_type_id":"4","last_reported":1752833533,"current_range_meters":20000,"station_id":"","pricing_plan_id":"cebpf4jnsgd1na2vs0mg"},{"bike_id":"f33915a7-7910-4db0-bd10-17ebfc02fdb8","system_id":"levelo_inurba_marseille","lat":43.2804,"lon":5.36952,"is_reserved":false,"is_disabled":false,"rental_uris":{"android":"levelo://app?vid=f33915a7-7910-4db0-bd10-17ebfc02fdb8","ios":"levelo://app?vid=f33915a7-7910-4db0-bd10-17ebfc02fdb8"},"vehicle_type_id":"4","last_reported":1752833533,"current_range_meters":20000,"station_id":"ce4bha12rcd13ifvqef0","pricing_plan_id":"cebpf4jnsgd1na2vs0mg"},{"bike_id":"fc35f831-f92c-48db-92a6-386bd66952a1","system_id":"levelo_inurba_marseille","lat":43.29529,"lon":5.38558,"is_reserved":false,"is_disabled":false,"rental_uris":{"android":"levelo://app?vid=fc35f831-f92c-48db-92a6-386bd66952a1","ios":"levelo://app?vid=fc35f831-f92c-48db-92a6-386bd66952a1"},"vehicle_type_id":"4","last_reported":1752833533,"current_range_meters":20000,"station_id":"ce4bgih2rcd13ifvqba0","pricing_plan_id":"cebpf4jnsgd1na2vs0mg"},{"bike_id":"aacce92b-4365-4bf0-ae27-3a02b5869286","system_id":"levelo_inurba_marseille","lat":43.337247,"lon":5.391921,"is_reserved":false,"is_disabled":false,"rental_uris":{"android":"levelo://app?vid=aacce92b-4365-4bf0-ae27-3a02b5869286","ios":"levelo://app?vid=aacce92b-4365-4bf0-ae27-3a02b5869286"},"vehicle_type_id":"4","last_reported":1752833533,"current_range_meters":20000,"station_id":"ce4bhr92rcd13ifvqhsg","pricing_plan_id":"cebpf4jnsgd1na2vs0mg"},{"bike_id":"ed87cdc4-4493-4338-85b5-30cdeed9a537","system_id":"levelo_inurba_marseille","lat":43.27202,"lon":5.39159,"is_reserved":false,"is_disabled":false,"rental_uris":{"android":"levelo://app?vid=ed87cdc4-4493-4338-85b5-30cdeed9a537","ios":"levelo://app?vid=ed87cdc4-4493-4338-85b5-30cdeed9a537"},"vehicle_type_id":"4","last_reported":1752833533,"current_range_meters":20000,"station_id":"ce4bhhp2rcd13ifvqfm0","pricing_plan_id":"cebpf4jnsgd1na2vs0mg"},{"bike_id":"3d48074b-5e6a-4b5a-8114-279952f8b109","system_id":"levelo_inurba_marseille","lat":43.27374,"lon":5.36264,"is_reserved":false,"is_disabled":false,"rental_uris":{"android":"levelo://app?vid=3d48074b-5e6a-4b5a-8114-279952f8b109","ios":"levelo://app?vid=3d48074b-5e6a-4b5a-8114-279952f8b109"},"vehicle_type_id":"4","last_reported":1752833533,"current_range_meters":20000,"station_id":"ce4bhbh2rcd13ifvqeo0","pricing_plan_id":"cebpf4jnsgd1na2vs0mg"},{"bike_id":"765c321c-ca8c-4b50-9541-9e3bfde5ff08","system_id":"levelo_inurba_marseille","lat":43.29905,"lon":5.39786,"is_reserved":false,"is_disabled":false,"rental_uris":{"android":"levelo://app?vid=765c321c-ca8c-4b50-9541-9e3bfde5ff08","ios":"levelo://app?vid=765c321c-ca8c-4b50-9541-9e3bfde5ff08"},"vehicle_type_id":"4","last_reported":1752833533,"current_range_meters":20000,"station_id":"ce4bh0h2rcd13ifvqd50","pricing_plan_id":"cebpf4jnsgd1na2vs0mg"},{"bike_id":"75c386ec-2b11-4ceb-a42e-98a6dc1d6c01","system_id":"levelo_inurba_marseille","lat":43.21193,"lon":5.35072,"is_reserved":false,"is_disabled":false,"rental_uris":{"android":"levelo://app?vid=75c386ec-2b11-4ceb-a42e-98a6dc1d6c01","ios":"levelo://app?vid=75c386ec-2b11-4ceb-a42e-98a6dc1d6c01"},"vehicle_type_id":"4","last_reported":1752833533,"current_range_meters":20000,"station_id":"st_cvj6sg6p6f1abm77japg","pricing_plan_id":"cebpf4jnsgd1na2vs0mg"},{"bike_id":"46661889-22f3-4d8f-b11a-c953e76d405e","system_id":"levelo_inurba_marseille","lat":43.30912,"lon":5.36852,"is_reserved":false,"is_disabled":false,"rental_uris":{"android":"levelo://app?vid=46661889-22f3-4d8f-b11a-c953e76d405e","ios":"levelo://app?vid=46661889-22f3-4d8f-b11a-c953e76d405e"},"vehicle_type_id":"4","last_reported":1752833533,"current_range_meters":20000,"station_id":"ce4bgn92rcd13ifvqbvg","pricing_plan_id":"cebpf4jnsgd1na2vs0mg"},{"bike_id":"0c393df8-f6bf-4b6f-beee-9aea8a81c9fa","system_id":"levelo_inurba_marseille","lat":43.28267,"lon":5.35077,"is_reserved":false,"is_disabled":false,"rental_uris":{"android":"levelo://app?vid=0c393df8-f6bf-4b6f-beee-9aea8a81c9fa","ios":"levelo://app?vid=0c393df8-f6bf-4b6f-beee-9aea8a81c9fa"},"vehicle_type_id":"4","last_reported":1752833533,"current_range_meters":20000,"station_id":"ce4bhbp2rcd13ifvqerg","pricing_plan_id":"cebpf4jnsgd1na2vs0mg"},{"bike_id":"a7b92e07-0d22-4b45-8ef1-b763127c437f","system_id":"levelo_inurba_marseille","lat":43.325247,"lon":5.375603,"is_reserved":false,"is_disabled":false,"rental_uris":{"android":"levelo://app?vid=a7b92e07-0d22-4b45-8ef1-b763127c437f","ios":"levelo://app?vid=a7b92e07-0d22-4b45-8ef1-b763127c437f"},"vehicle_type_id":"4","last_reported":1752833533,"current_range_meters":20000,"station_id":"","pricing_plan_id":"cebpf4jnsgd1na2vs0mg"},{"bike_id":"10d391b5-c179-4f9b-944d-e8c56b01a775","system_id":"levelo_inurba_marseille","lat":43.21762,"lon":5.34613,"is_reserved":false,"is_disabled":false,"rental_uris":{"android":"levelo://app?vid=10d391b5-c179-4f9b-944d-e8c56b01a775","ios":"levelo://app?vid=10d391b5-c179-4f9b-944d-e8c56b01a775"},"vehicle_type_id":"4","last_reported":1752833533,"current_range_meters":20000,"station_id":"st_cvj6r9ubvosntc0bgbag","pricing_plan_id":"cebpf4jnsgd1na2vs0mg"},{"bike_id":"fc0af055-a22a-4856-9a48-c12cf987d3b3","system_id":"levelo_inurba_marseille","lat":43.30892,"lon":5.3719,"is_reserved":false,"is_disabled":false,"rental_uris":{"android":"levelo://app?vid=fc0af055-a22a-4856-9a48-c12cf987d3b3","ios":"levelo://app?vid=fc0af055-a22a-4856-9a48-c12cf987d3b3"},"vehicle_type_id":"4","last_reported":1752833533,"current_range_meters":20000,"station_id":"ce4bguh2rcd13ifvqckg","pricing_plan_id":"cebpf4jnsgd1na2vs0mg"},{"bike_id":"f511f080-993a-4e24-bed3-f0704c3b4125","system_id":"levelo_inurba_marseille","lat":43.290181,"lon":5.381412,"is_reserved":false,"is_disabled":false,"rental_uris":{"android":"levelo://app?vid=f511f080-993a-4e24-bed3-f0704c3b4125","ios":"levelo://app?vid=f511f080-993a-4e24-bed3-f0704c3b4125"},"vehicle_type_id":"4","last_reported":1752833533,"current_range_meters":20400,"station_id":"","pricing_plan_id":"cebpf4jnsgd1na2vs0mg"},{"bike_id":"45dea0eb-918d-49f1-8341-001e35c226f0","system_id":"levelo_inurba_marseille","lat":43.21196,"lon":5.35074,"is_reserved":false,"is_disabled":false,"rental_uris":{"android":"levelo://app?vid=45dea0eb-918d-49f1-8341-001e35c226f0","ios":"levelo://app?vid=45dea0eb-918d-49f1-8341-001e35c226f0"},"vehicle_type_id":"4","last_reported":1752833533,"current_range_meters":20400,"station_id":"st_cvj6sg6p6f1abm77japg","pricing_plan_id":"cebpf4jnsgd1na2vs0mg"},{"bike_id":"255c16ba-9911-4256-ba44-ab4896a6c775","system_id":"levelo_inurba_marseille","lat":43.28419,"lon":5.34988,"is_reserved":false,"is_disabled":false,"rental_uris":{"android":"levelo://app?vid=255c16ba-9911-4256-ba44-ab4896a6c775","ios":"levelo://app?vid=255c16ba-9911-4256-ba44-ab4896a6c775"},"vehicle_type_id":"4","last_reported":1752833533,"current_range_meters":20400,"station_id":"ce4bhbh2rcd13ifvqepg","pricing_plan_id":"cebpf4jnsgd1na2vs0mg"},{"bike_id":"c563397a-8e95-43de-9482-c447bf9c775e","system_id":"levelo_inurba_marseille","lat":43.29321,"lon":5.4116,"is_reserved":false,"is_disabled":false,"rental_uris":{"android":"levelo://app?vid=c563397a-8e95-43de-9482-c447bf9c775e","ios":"levelo://app?vid=c563397a-8e95-43de-9482-c447bf9c775e"},"vehicle_type_id":"4","last_reported":1752833533,"current_range_meters":20400,"station_id":"","pricing_plan_id":"cebpf4jnsgd1na2vs0mg"},{"bike_id":"60a80a00-8385-4216-8610-e3c76babf55a","system_id":"levelo_inurba_marseille","lat":43.29438,"lon":5.3975,"is_reserved":false,"is_disabled":false,"rental_uris":{"android":"levelo://app?vid=60a80a00-8385-4216-8610-e3c76babf55a","ios":"levelo://app?vid=60a80a00-8385-4216-8610-e3c76babf55a"},"vehicle_type_id":"4","last_reported":1752833533,"current_range_meters":20000,"station_id":"ce4bh3h2rcd13ifvqdo0","pricing_plan_id":"cebpf4jnsgd1na2vs0mg"},{"bike_id":"1790c2e8-4aaf-42ef-9a8f-6f7e3518bdda","system_id":"levelo_inurba_marseille","lat":43.29897,"lon":5.39745,"is_reserved":false,"is_disabled":false,"rental_uris":{"android":"levelo://app?vid=1790c2e8-4aaf-42ef-9a8f-6f7e3518bdda","ios":"levelo://app?vid=1790c2e8-4aaf-42ef-9a8f-6f7e3518bdda"},"vehicle_type_id":"4","last_reported":1752833533,"current_range_meters":20400,"station_id":"ce4bh0h2rcd13ifvqd50","pricing_plan_id":"cebpf4jnsgd1na2vs0mg"},{"bike_id":"5e9e4009-5290-4c7f-84df-ce9ca105e089","system_id":"levelo_inurba_marseille","lat":43.2721,"lon":5.39183,"is_reserved":false,"is_disabled":false,"rental_uris":{"android":"levelo://app?vid=5e9e4009-5290-4c7f-84df-ce9ca105e089","ios":"levelo://app?vid=5e9e4009-5290-4c7f-84df-ce9ca105e089"},"vehicle_type_id":"4","last_reported":1752833533,"current_range_meters":20800,"station_id":"ce4bhhp2rcd13ifvqfm0","pricing_plan_id":"cebpf4jnsgd1na2vs0mg"},{"bike_id":"bce28990-c259-4e2d-bdfe-a36a64f61f0b","system_id":"levelo_inurba_marseille","lat":43.31695,"lon":5.40467,"is_reserved":false,"is_disabled":false,"rental_uris":{"android":"levelo://app?vid=bce28990-c259-4e2d-bdfe-a36a64f61f0b","ios":"levelo://app?vid=bce28990-c259-4e2d-bdfe-a36a64f61f0b"},"vehicle_type_id":"4","last_reported":1752833533,"current_range_meters":20800,"station_id":"ce4bh012rcd13ifvqd00","pricing_plan_id":"cebpf4jnsgd1na2vs0mg"},{"bike_id":"4a2af6fb-f040-4dff-9ff5-d70c4f952e83","system_id":"levelo_inurba_marseille","lat":43.31521,"lon":5.37321,"is_reserved":false,"is_disabled":true,"rental_uris":{"android":"levelo://app?vid=4a2af6fb-f040-4dff-9ff5-d70c4f952e83","ios":"levelo://app?vid=4a2af6fb-f040-4dff-9ff5-d70c4f952e83"},"vehicle_type_id":"4","last_reported":1752833533,"current_range_meters":20800,"station_id":"ce4bgt12rcd13ifvqcd0","pricing_plan_id":"cebpf4jnsgd1na2vs0mg"},{"bike_id":"a21ae79a-9851-4800-b3f8-087c6f34d0c2","system_id":"levelo_inurba_marseille","lat":43.28036,"lon":5.36943,"is_reserved":false,"is_disabled":false,"rental_uris":{"android":"levelo://app?vid=a21ae79a-9851-4800-b3f8-087c6f34d0c2","ios":"levelo://app?vid=a21ae79a-9851-4800-b3f8-087c6f34d0c2"},"vehicle_type_id":"4","last_reported":1752833533,"current_range_meters":20800,"station_id":"ce4bha12rcd13ifvqef0","pricing_plan_id":"cebpf4jnsgd1na2vs0mg"},{"bike_id":"d2fa22aa-c34d-4a77-b023-d06add13aae8","system_id":"levelo_inurba_marseille","lat":43.24579,"lon":5.39544,"is_reserved":false,"is_disabled":false,"rental_uris":{"android":"levelo://app?vid=d2fa22aa-c34d-4a77-b023-d06add13aae8","ios":"levelo://app?vid=d2fa22aa-c34d-4a77-b023-d06add13aae8"},"vehicle_type_id":"4","last_reported":1752833533,"current_range_meters":20800,"station_id":"ce4bhlp2rcd13ifvqgjg","pricing_plan_id":"cebpf4jnsgd1na2vs0mg"},{"bike_id":"5af812dd-1e8c-4e29-87a9-127d1e0360e2","system_id":"levelo_inurba_marseille","lat":43.27557,"lon":5.38459,"is_reserved":false,"is_disabled":false,"rental_uris":{"android":"levelo://app?vid=5af812dd-1e8c-4e29-87a9-127d1e0360e2","ios":"levelo://app?vid=5af812dd-1e8c-4e29-87a9-127d1e0360e2"},"vehicle_type_id":"4","last_reported":1752833533,"current_range_meters":20400,"station_id":"ce4bhh92rcd13ifvqfi0","pricing_plan_id":"cebpf4jnsgd1na2vs0mg"},{"bike_id":"90d4f77e-262c-4d22-9803-80c7c88599a7","system_id":"levelo_inurba_marseille","lat":43.337444,"lon":5.374475,"is_reserved":false,"is_disabled":false,"rental_uris":{"android":"levelo://app?vid=90d4f77e-262c-4d22-9803-80c7c88599a7","ios":"levelo://app?vid=90d4f77e-262c-4d22-9803-80c7c88599a7"},"vehicle_type_id":"4","last_reported":1752833533,"current_range_meters":20800,"station_id":"","pricing_plan_id":"cebpf4jnsgd1na2vs0mg"},{"bike_id":"b10d9f88-d42b-48b0-b048-1c19cdacabcf","system_id":"levelo_inurba_marseille","lat":43.30148,"lon":5.38079,"is_reserved":false,"is_disabled":false,"rental_uris":{"android":"levelo://app?vid=b10d9f88-d42b-48b0-b048-1c19cdacabcf","ios":"levelo://app?vid=b10d9f88-d42b-48b0-b048-1c19cdacabcf"},"vehicle_type_id":"4","last_reported":1752833533,"current_range_meters":20800,"station_id":"ce4bgjp2rcd13ifvqbh0","pricing_plan_id":"cebpf4jnsgd1na2vs0mg"},{"bike_id":"ae514fe1-85ea-4b12-b065-9e5a24663928","system_id":"levelo_inurba_marseille","lat":43.211919,"lon":5.350736,"is_reserved":false,"is_disabled":false,"rental_uris":{"android":"levelo://app?vid=ae514fe1-85ea-4b12-b065-9e5a24663928","ios":"levelo://app?vid=ae514fe1-85ea-4b12-b065-9e5a24663928"},"vehicle_type_id":"4","last_reported":1752833533,"current_range_meters":20800,"station_id":"st_cvj6sg6p6f1abm77japg","pricing_plan_id":"cebpf4jnsgd1na2vs0mg"},{"bike_id":"44e89ad7-16a2-4910-805f-061f2aee5ab7","system_id":"levelo_inurba_marseille","lat":43.231914,"lon":5.355496,"is_reserved":false,"is_disabled":false,"rental_uris":{"android":"levelo://app?vid=44e89ad7-16a2-4910-805f-061f2aee5ab7","ios":"levelo://app?vid=44e89ad7-16a2-4910-805f-061f2aee5ab7"},"vehicle_type_id":"4","last_reported":1752833533,"current_range_meters":20800,"station_id":"ce4bhu92rcd13ifvqi70","pricing_plan_id":"cebpf4jnsgd1na2vs0mg"},{"bike_id":"91243f73-e066-4646-a12b-37ceb2df5e2a","system_id":"levelo_inurba_marseille","lat":43.29708,"lon":5.36618,"is_reserved":false,"is_disabled":false,"rental_uris":{"android":"levelo://app?vid=91243f73-e066-4646-a12b-37ceb2df5e2a","ios":"levelo://app?vid=91243f73-e066-4646-a12b-37ceb2df5e2a"},"vehicle_type_id":"4","last_reported":1752833533,"current_range_meters":20800,"station_id":"ce4bgn12rcd13ifvqbt0","pricing_plan_id":"cebpf4jnsgd1na2vs0mg"},{"bike_id":"22ab0a30-ae16-4f7e-880b-fb0e1a4ab54f","system_id":"levelo_inurba_marseille","lat":43.217504,"lon":5.346032,"is_reserved":false,"is_disabled":false,"rental_uris":{"android":"levelo://app?vid=22ab0a30-ae16-4f7e-880b-fb0e1a4ab54f","ios":"levelo://app?vid=22ab0a30-ae16-4f7e-880b-fb0e1a4ab54f"},"vehicle_type_id":"4","last_reported":1752833533,"current_range_meters":20800,"station_id":"st_cvj6r9ubvosntc0bgbag","pricing_plan_id":"cebpf4jnsgd1na2vs0mg"},{"bike_id":"a2c797ac-91ff-4987-81ca-78f615ca3bf1","system_id":"levelo_inurba_marseille","lat":43.275653,"lon":5.384193,"is_reserved":false,"is_disabled":false,"rental_uris":{"android":"levelo://app?vid=a2c797ac-91ff-4987-81ca-78f615ca3bf1","ios":"levelo://app?vid=a2c797ac-91ff-4987-81ca-78f615ca3bf1"},"vehicle_type_id":"4","last_reported":1752833533,"current_range_meters":20800,"station_id":"ce4bhh92rcd13ifvqfi0","pricing_plan_id":"cebpf4jnsgd1na2vs0mg"},{"bike_id":"7397e1f0-2add-4768-aace-e97bb21d3120","system_id":"levelo_inurba_marseille","lat":43.30598,"lon":5.37233,"is_reserved":false,"is_disabled":false,"rental_uris":{"android":"levelo://app?vid=7397e1f0-2add-4768-aace-e97bb21d3120","ios":"levelo://app?vid=7397e1f0-2add-4768-aace-e97bb21d3120"},"vehicle_type_id":"4","last_reported":1752833533,"current_range_meters":20800,"station_id":"ce4bgqh2rcd13ifvqc4g","pricing_plan_id":"cebpf4jnsgd1na2vs0mg"},{"bike_id":"bd4f2166-3fd0-4dcc-b0eb-f1e53c57f556","system_id":"levelo_inurba_marseille","lat":43.211925,"lon":5.350729,"is_reserved":false,"is_disabled":false,"rental_uris":{"android":"levelo://app?vid=bd4f2166-3fd0-4dcc-b0eb-f1e53c57f556","ios":"levelo://app?vid=bd4f2166-3fd0-4dcc-b0eb-f1e53c57f556"},"vehicle_type_id":"4","last_reported":1752833533,"current_range_meters":21600,"station_id":"st_cvj6sg6p6f1abm77japg","pricing_plan_id":"cebpf4jnsgd1na2vs0mg"},{"bike_id":"6c5d4a5e-d9a1-4c22-8051-7212ef366b9b","system_id":"levelo_inurba_marseille","lat":43.29009,"lon":5.35614,"is_reserved":false,"is_disabled":false,"rental_uris":{"android":"levelo://app?vid=6c5d4a5e-d9a1-4c22-8051-7212ef366b9b","ios":"levelo://app?vid=6c5d4a5e-d9a1-4c22-8051-7212ef366b9b"},"vehicle_type_id":"4","last_reported":1752833533,"current_range_meters":21600,"station_id":"ce4bhb92rcd13ifvqen0","pricing_plan_id":"cebpf4jnsgd1na2vs0mg"},{"bike_id":"f3e40ae1-f243-44cb-bdcd-1137d5f78668","system_id":"levelo_inurba_marseille","lat":43.30382,"lon":5.42493,"is_reserved":false,"is_disabled":false,"rental_uris":{"android":"levelo://app?vid=f3e40ae1-f243-44cb-bdcd-1137d5f78668","ios":"levelo://app?vid=f3e40ae1-f243-44cb-bdcd-1137d5f78668"},"vehicle_type_id":"4","last_reported":1752833533,"current_range_meters":21600,"station_id":"ce4bhoh2rcd13ifvqh6g","pricing_plan_id":"cebpf4jnsgd1na2vs0mg"},{"bike_id":"c7830a27-ed15-4a4a-b35b-7ec06a343ff4","system_id":"levelo_inurba_marseille","lat":43.24802,"lon":5.37453,"is_reserved":false,"is_disabled":false,"rental_uris":{"android":"levelo://app?vid=c7830a27-ed15-4a4a-b35b-7ec06a343ff4","ios":"levelo://app?vid=c7830a27-ed15-4a4a-b35b-7ec06a343ff4"},"vehicle_type_id":"4","last_reported":1752833533,"current_range_meters":21600,"station_id":"ce4bhgh2rcd13ifvqfb0","pricing_plan_id":"cebpf4jnsgd1na2vs0mg"},{"bike_id":"a168d389-ea1d-4756-ad9b-cf73a31ab442","system_id":"levelo_inurba_marseille","lat":43.288747,"lon":5.400098,"is_reserved":false,"is_disabled":false,"rental_uris":{"android":"levelo://app?vid=a168d389-ea1d-4756-ad9b-cf73a31ab442","ios":"levelo://app?vid=a168d389-ea1d-4756-ad9b-cf73a31ab442"},"vehicle_type_id":"4","last_reported":1752833533,"current_range_meters":21600,"station_id":"","pricing_plan_id":"cebpf4jnsgd1na2vs0mg"},{"bike_id":"ae84ef8c-029b-4e1b-afdc-7b4acc90c37f","system_id":"levelo_inurba_marseille","lat":43.273227,"lon":5.390813,"is_reserved":false,"is_disabled":false,"rental_uris":{"android":"levelo://app?vid=ae84ef8c-029b-4e1b-afdc-7b4acc90c37f","ios":"levelo://app?vid=ae84ef8c-029b-4e1b-afdc-7b4acc90c37f"},"vehicle_type_id":"4","last_reported":1752833533,"current_range_meters":21600,"station_id":"ce4bhgp2rcd13ifvqfe0","pricing_plan_id":"cebpf4jnsgd1na2vs0mg"},{"bike_id":"388e3fd7-98c0-4cba-a1b1-0b754fde4139","system_id":"levelo_inurba_marseille","lat":43.3054,"lon":5.38432,"is_reserved":false,"is_disabled":false,"rental_uris":{"android":"levelo://app?vid=388e3fd7-98c0-4cba-a1b1-0b754fde4139","ios":"levelo://app?vid=388e3fd7-98c0-4cba-a1b1-0b754fde4139"},"vehicle_type_id":"4","last_reported":1752833533,"current_range_meters":22000,"station_id":"ce4bgg92rcd13ifvqb30","pricing_plan_id":"cebpf4jnsgd1na2vs0mg"},{"bike_id":"276d5ecc-70d3-4d30-a67a-d45e6ac8d108","system_id":"levelo_inurba_marseille","lat":43.30536,"lon":5.36744,"is_reserved":false,"is_disabled":false,"rental_uris":{"android":"levelo://app?vid=276d5ecc-70d3-4d30-a67a-d45e6ac8d108","ios":"levelo://app?vid=276d5ecc-70d3-4d30-a67a-d45e6ac8d108"},"vehicle_type_id":"4","last_reported":1752833533,"current_range_meters":22000,"station_id":"ce4bgrp2rcd13ifvqc9g","pricing_plan_id":"cebpf4jnsgd1na2vs0mg"},{"bike_id":"44eaa307-620f-4071-af41-faf7e6a25e58","system_id":"levelo_inurba_marseille","lat":43.29012,"lon":5.3814,"is_reserved":false,"is_disabled":false,"rental_uris":{"android":"levelo://app?vid=44eaa307-620f-4071-af41-faf7e6a25e58","ios":"levelo://app?vid=44eaa307-620f-4071-af41-faf7e6a25e58"},"vehicle_type_id":"4","last_reported":1752833533,"current_range_meters":22000,"station_id":"ce4bh4p2rcd13ifvqe1g","pricing_plan_id":"cebpf4jnsgd1na2vs0mg"},{"bike_id":"423f1338-219c-4f01-8e6d-d117d7e4897e","system_id":"levelo_inurba_marseille","lat":43.29799,"lon":5.39339,"is_reserved":false,"is_disabled":false,"rental_uris":{"android":"levelo://app?vid=423f1338-219c-4f01-8e6d-d117d7e4897e","ios":"levelo://app?vid=423f1338-219c-4f01-8e6d-d117d7e4897e"},"vehicle_type_id":"4","last_reported":1752833533,"current_range_meters":22000,"station_id":"chh1huq6cuj3fo74tm60","pricing_plan_id":"cebpf4jnsgd1na2vs0mg"},{"bike_id":"b485ab37-376c-4713-ac28-32d2bb4978e2","system_id":"levelo_inurba_marseille","lat":43.29221,"lon":5.360508,"is_reserved":false,"is_disabled":false,"rental_uris":{"android":"levelo://app?vid=b485ab37-376c-4713-ac28-32d2bb4978e2","ios":"levelo://app?vid=b485ab37-376c-4713-ac28-32d2bb4978e2"},"vehicle_type_id":"4","last_reported":1752833533,"current_range_meters":22000,"station_id":"ce4bhbh2rcd13ifvqeqg","pricing_plan_id":"cebpf4jnsgd1na2vs0mg"},{"bike_id":"2b7302bc-13a1-421a-b212-2b92f54a074c","system_id":"levelo_inurba_marseille","lat":43.29937,"lon":5.36534,"is_reserved":false,"is_disabled":false,"rental_uris":{"android":"levelo://app?vid=2b7302bc-13a1-421a-b212-2b92f54a074c","ios":"levelo://app?vid=2b7302bc-13a1-421a-b212-2b92f54a074c"},"vehicle_type_id":"4","last_reported":1752833533,"current_range_meters":22000,"station_id":"ce4bgm92rcd13ifvqbr0","pricing_plan_id":"cebpf4jnsgd1na2vs0mg"},{"bike_id":"35b60186-6bf8-4437-9a3e-f6bc01767978","system_id":"levelo_inurba_marseille","lat":43.29607,"lon":5.381063,"is_reserved":false,"is_disabled":false,"rental_uris":{"android":"levelo://app?vid=35b60186-6bf8-4437-9a3e-f6bc01767978","ios":"levelo://app?vid=35b60186-6bf8-4437-9a3e-f6bc01767978"},"vehicle_type_id":"4","last_reported":1752833533,"current_range_meters":22400,"station_id":"ce4bgl12rcd13ifvqbo0","pricing_plan_id":"cebpf4jnsgd1na2vs0mg"},{"bike_id":"3e8a5b3c-3b22-4e8c-8575-78eeef048ef3","system_id":"levelo_inurba_marseille","lat":43.29262,"lon":5.37636,"is_reserved":false,"is_disabled":false,"rental_uris":{"android":"levelo://app?vid=3e8a5b3c-3b22-4e8c-8575-78eeef048ef3","ios":"levelo://app?vid=3e8a5b3c-3b22-4e8c-8575-78eeef048ef3"},"vehicle_type_id":"4","last_reported":1752833533,"current_range_meters":22400,"station_id":"ce4bgi12rcd13ifvqb80","pricing_plan_id":"cebpf4jnsgd1na2vs0mg"},{"bike_id":"b2d8de19-5228-47c5-a04d-d8664c46de68","system_id":"levelo_inurba_marseille","lat":43.22925,"lon":5.35426,"is_reserved":false,"is_disabled":false,"rental_uris":{"android":"levelo://app?vid=b2d8de19-5228-47c5-a04d-d8664c46de68","ios":"levelo://app?vid=b2d8de19-5228-47c5-a04d-d8664c46de68"},"vehicle_type_id":"4","last_reported":1752833533,"current_range_meters":22400,"station_id":"cpo3532slgdg3j2ikp40","pricing_plan_id":"cebpf4jnsgd1na2vs0mg"},{"bike_id":"47801c21-5363-4806-a03b-cf88fdaefbcb","system_id":"levelo_inurba_marseille","lat":43.31225,"lon":5.36853,"is_reserved":false,"is_disabled":false,"rental_uris":{"android":"levelo://app?vid=47801c21-5363-4806-a03b-cf88fdaefbcb","ios":"levelo://app?vid=47801c21-5363-4806-a03b-cf88fdaefbcb"},"vehicle_type_id":"4","last_reported":1752833533,"current_range_meters":22000,"station_id":"ce4bgl92rcd13ifvqbq0","pricing_plan_id":"cebpf4jnsgd1na2vs0mg"},{"bike_id":"e119a308-ad6d-4ac5-8965-22b96b757f74","system_id":"levelo_inurba_marseille","lat":43.22499,"lon":5.34774,"is_reserved":false,"is_disabled":false,"rental_uris":{"android":"levelo://app?vid=e119a308-ad6d-4ac5-8965-22b96b757f74","ios":"levelo://app?vid=e119a308-ad6d-4ac5-8965-22b96b757f74"},"vehicle_type_id":"4","last_reported":1752833533,"current_range_meters":22400,"station_id":"st_cvj5dfep6f1abm77gieg","pricing_plan_id":"cebpf4jnsgd1na2vs0mg"},{"bike_id":"a123b2c9-57ea-4984-a7e0-c4b564f3eb66","system_id":"levelo_inurba_marseille","lat":43.25005,"lon":5.389204,"is_reserved":false,"is_disabled":false,"rental_uris":{"android":"levelo://app?vid=a123b2c9-57ea-4984-a7e0-c4b564f3eb66","ios":"levelo://app?vid=a123b2c9-57ea-4984-a7e0-c4b564f3eb66"},"vehicle_type_id":"4","last_reported":1752833533,"current_range_meters":22400,"station_id":"ce4bhgp2rcd13ifvqfd0","pricing_plan_id":"cebpf4jnsgd1na2vs0mg"},{"bike_id":"c27ef6bb-0318-48e2-a8b6-618129db3d98","system_id":"levelo_inurba_marseille","lat":43.30531,"lon":5.367036,"is_reserved":false,"is_disabled":false,"rental_uris":{"android":"levelo://app?vid=c27ef6bb-0318-48e2-a8b6-618129db3d98","ios":"levelo://app?vid=c27ef6bb-0318-48e2-a8b6-618129db3d98"},"vehicle_type_id":"4","last_reported":1752833533,"current_range_meters":22800,"station_id":"ce4bgrp2rcd13ifvqc9g","pricing_plan_id":"cebpf4jnsgd1na2vs0mg"},{"bike_id":"db6082c9-fd3d-440f-b102-ba0374c47f35","system_id":"levelo_inurba_marseille","lat":43.3038,"lon":5.42495,"is_reserved":false,"is_disabled":false,"rental_uris":{"android":"levelo://app?vid=db6082c9-fd3d-440f-b102-ba0374c47f35","ios":"levelo://app?vid=db6082c9-fd3d-440f-b102-ba0374c47f35"},"vehicle_type_id":"4","last_reported":1752833533,"current_range_meters":22800,"station_id":"ce4bhoh2rcd13ifvqh6g","pricing_plan_id":"cebpf4jnsgd1na2vs0mg"},{"bike_id":"5ca558f5-c7d9-45c0-84fd-9e3f3f524e25","system_id":"levelo_inurba_marseille","lat":43.28262,"lon":5.35065,"is_reserved":false,"is_disabled":false,"rental_uris":{"android":"levelo://app?vid=5ca558f5-c7d9-45c0-84fd-9e3f3f524e25","ios":"levelo://app?vid=5ca558f5-c7d9-45c0-84fd-9e3f3f524e25"},"vehicle_type_id":"4","last_reported":1752833533,"current_range_meters":22800,"station_id":"ce4bhbp2rcd13ifvqerg","pricing_plan_id":"cebpf4jnsgd1na2vs0mg"},{"bike_id":"49d0aa55-c464-4444-a092-dfc309cd3c72","system_id":"levelo_inurba_marseille","lat":43.2886,"lon":5.39321,"is_reserved":false,"is_disabled":false,"rental_uris":{"android":"levelo://app?vid=49d0aa55-c464-4444-a092-dfc309cd3c72","ios":"levelo://app?vid=49d0aa55-c464-4444-a092-dfc309cd3c72"},"vehicle_type_id":"4","last_reported":1752833533,"current_range_meters":22800,"station_id":"ce4bh2p2rcd13ifvqdi0","pricing_plan_id":"cebpf4jnsgd1na2vs0mg"},{"bike_id":"87b9740f-846a-4749-8622-383c805b30a1","system_id":"levelo_inurba_marseille","lat":43.305746,"lon":5.383922,"is_reserved":false,"is_disabled":false,"rental_uris":{"android":"levelo://app?vid=87b9740f-846a-4749-8622-383c805b30a1","ios":"levelo://app?vid=87b9740f-846a-4749-8622-383c805b30a1"},"vehicle_type_id":"4","last_reported":1752833533,"current_range_meters":22800,"station_id":"ce4bgg92rcd13ifvqb30","pricing_plan_id":"cebpf4jnsgd1na2vs0mg"},{"bike_id":"95b5bcfa-54af-48c0-bd18-8f73f959ce2b","system_id":"levelo_inurba_marseille","lat":43.31935,"lon":5.37313,"is_reserved":false,"is_disabled":false,"rental_uris":{"android":"levelo://app?vid=95b5bcfa-54af-48c0-bd18-8f73f959ce2b","ios":"levelo://app?vid=95b5bcfa-54af-48c0-bd18-8f73f959ce2b"},"vehicle_type_id":"4","last_reported":1752833533,"current_range_meters":22800,"station_id":"","pricing_plan_id":"cebpf4jnsgd1na2vs0mg"},{"bike_id":"ea37c249-bc61-4eea-862b-e2e11472cda2","system_id":"levelo_inurba_marseille","lat":43.2927,"lon":5.36836,"is_reserved":false,"is_disabled":true,"rental_uris":{"android":"levelo://app?vid=ea37c249-bc61-4eea-862b-e2e11472cda2","ios":"levelo://app?vid=ea37c249-bc61-4eea-862b-e2e11472cda2"},"vehicle_type_id":"4","last_reported":1752833533,"current_range_meters":22800,"station_id":"ce4bhbp2rcd13ifvqesg","pricing_plan_id":"cebpf4jnsgd1na2vs0mg"},{"bike_id":"ea2568c1-284a-4dd6-8756-90e8d939f747","system_id":"levelo_inurba_marseille","lat":43.341393,"lon":5.409007,"is_reserved":false,"is_disabled":false,"rental_uris":{"android":"levelo://app?vid=ea2568c1-284a-4dd6-8756-90e8d939f747","ios":"levelo://app?vid=ea2568c1-284a-4dd6-8756-90e8d939f747"},"vehicle_type_id":"4","last_reported":1752833533,"current_range_meters":22800,"station_id":"ce4bhqh2rcd13ifvqhlg","pricing_plan_id":"cebpf4jnsgd1na2vs0mg"},{"bike_id":"a2414d3f-a904-4223-b985-92165b493ace","system_id":"levelo_inurba_marseille","lat":43.30542,"lon":5.3671,"is_reserved":false,"is_disabled":true,"rental_uris":{"android":"levelo://app?vid=a2414d3f-a904-4223-b985-92165b493ace","ios":"levelo://app?vid=a2414d3f-a904-4223-b985-92165b493ace"},"vehicle_type_id":"4","last_reported":1752833533,"current_range_meters":22800,"station_id":"ce4bgrp2rcd13ifvqc9g","pricing_plan_id":"cebpf4jnsgd1na2vs0mg"},{"bike_id":"6d8fdb8a-5ecd-4c4a-a296-183c4836506e","system_id":"levelo_inurba_marseille","lat":43.29046,"lon":5.37546,"is_reserved":false,"is_disabled":false,"rental_uris":{"android":"levelo://app?vid=6d8fdb8a-5ecd-4c4a-a296-183c4836506e","ios":"levelo://app?vid=6d8fdb8a-5ecd-4c4a-a296-183c4836506e"},"vehicle_type_id":"4","last_reported":1752833533,"current_range_meters":23200,"station_id":"ce4bh692rcd13ifvqe90","pricing_plan_id":"cebpf4jnsgd1na2vs0mg"},{"bike_id":"a7db0f25-9059-44ec-84b3-2e8f11f58416","system_id":"levelo_inurba_marseille","lat":43.29038,"lon":5.3756,"is_reserved":false,"is_disabled":false,"rental_uris":{"android":"levelo://app?vid=a7db0f25-9059-44ec-84b3-2e8f11f58416","ios":"levelo://app?vid=a7db0f25-9059-44ec-84b3-2e8f11f58416"},"vehicle_type_id":"4","last_reported":1752833533,"current_range_meters":23200,"station_id":"ce4bh692rcd13ifvqe90","pricing_plan_id":"cebpf4jnsgd1na2vs0mg"},{"bike_id":"25c61d91-92f9-47bc-ba2a-34ec5d0a2e05","system_id":"levelo_inurba_marseille","lat":43.21717,"lon":5.34609,"is_reserved":false,"is_disabled":false,"rental_uris":{"android":"levelo://app?vid=25c61d91-92f9-47bc-ba2a-34ec5d0a2e05","ios":"levelo://app?vid=25c61d91-92f9-47bc-ba2a-34ec5d0a2e05"},"vehicle_type_id":"4","last_reported":1752833533,"current_range_meters":23200,"station_id":"st_cvj6r9ubvosntc0bgbag","pricing_plan_id":"cebpf4jnsgd1na2vs0mg"},{"bike_id":"2060869b-d87e-4c30-8864-6b1d75522919","system_id":"levelo_inurba_marseille","lat":43.29906,"lon":5.43669,"is_reserved":false,"is_disabled":false,"rental_uris":{"android":"levelo://app?vid=2060869b-d87e-4c30-8864-6b1d75522919","ios":"levelo://app?vid=2060869b-d87e-4c30-8864-6b1d75522919"},"vehicle_type_id":"4","last_reported":1752833533,"current_range_meters":23200,"station_id":"ce4bhpp2rcd13ifvqhfg","pricing_plan_id":"cebpf4jnsgd1na2vs0mg"},{"bike_id":"def684fe-5ae6-4eaf-af4f-a8755d3dab4f","system_id":"levelo_inurba_marseille","lat":43.284718,"lon":5.384179,"is_reserved":false,"is_disabled":false,"rental_uris":{"android":"levelo://app?vid=def684fe-5ae6-4eaf-af4f-a8755d3dab4f","ios":"levelo://app?vid=def684fe-5ae6-4eaf-af4f-a8755d3dab4f"},"vehicle_type_id":"4","last_reported":1752833533,"current_range_meters":23200,"station_id":"","pricing_plan_id":"cebpf4jnsgd1na2vs0mg"},