{"last_updated":1741198400,"ttl":60,"version":"2.2","data":{"bikes":[{"bike_id":"3d19455e-70f6-462a-b5a6-9baf9888a003","system_id":"levelo_inurba_marseille","lat":43.31165,"lon":5.38715,"is_reserved":false,"is_disabled":false,"rental_uris":{"android":"levelo://app?vid=3d19455e-70f6-462a-b5a6-9baf9888a003","ios":"levelo://app?vid=3d19455e-70f6-462a-b5a6-9baf9888a003"},"vehicle_type_id":"4","last_reported":1741198400,"current_range_meters":2800,"station_id":"ce4bgv12rcd13ifvqcp0","pricing_plan_id":"cebpf4jnsgd1na2vs0mg"},{"bike_id":"1f32c139-a7cc-4b18-82f8-eb86d8a7532b","system_id":"levelo_inurba_marseille","lat":43.27885,"lon":5.37975,"is_reserved":false,"is_disabled":false,"rental_uris":{"android":"levelo://app?vid=1f32c139-a7cc-4b18-82f8-eb86d8a7532b","ios":"levelo://app?vid=1f32c139-a7cc-4b18-82f8-eb86d8a7532b"},"vehicle_type_id":"4","last_reported":1741198400,"current_range_meters":2800,"station_id":"ce4bhf92rcd13ifvqf50","pricing_plan_id":"cebpf4jnsgd1na2vs0mg"},{"bike_id":"2016adab-8206-4995-adf5-5a69f2c2097b","system_id":"levelo_inurba_marseille","lat":43.28065,"lon":5.3995,"is_reserved":false,"is_disabled":false,"rental_uris":{"android":"levelo://app?vid=2016adab-8206-4995-adf5-5a69f2c2097b","ios":"levelo://app?vid=2016adab-8206-4995-adf5-5a69f2c2097b"},"vehicle_type_id":"4","last_reported":1741198400,"current_range_meters":2800,"station_id":"","pricing_plan_id":"cebpf4jnsgd1na2vs0mg"},{"bike_id":"fb3bec1a-c3c7-4d44-a417-3a0ad9f86fd4","system_id":"levelo_inurba_marseille","lat":43.30244,"lon":5.40069,"is_reserved":false,"is_disabled":false,"rental_uris":{"android":"levelo://app?vid=fb3bec1a-c3c7-4d44-a417-3a0ad9f86fd4","ios":"levelo://app?vid=fb3bec1a-c3c7-4d44-a417-3a0ad9f86fd4"},"vehicle_type_id":"4","last_reported":1741198400,"current_range_meters":2800,"station_id":"ce4bgvh2rcd13ifvqcs0","pricing_plan_id":"cebpf4jnsgd1na2vs0mg"},{"bike_id":"4cb4707f-1a0e-4fec-87aa-65cf03fd9a84","system_id":"levelo_inurba_marseille","lat":43.28836,"lon":5.3933,"is_reserved":false,"is_disabled":false,"rental_uris":{"android":"levelo://app?vid=4cb4707f-1a0e-4fec-87aa-65cf03fd9a84","ios":"levelo://app?vid=4cb4707f-1a0e-4fec-87aa-65cf03fd9a84"},"vehicle_type_id":"4","last_reported":1741198400,"current_range_meters":2800,"station_id":"ce4bh2p2rcd13ifvqdi0","pricing_plan_id":"cebpf4jnsgd1na2vs0mg"},{"bike_id":"1fe37c88-8efb-457b-a558-c34a288b19d5","system_id":"levelo_inurba_marseille","lat":43.27971,"lon":5.41664,"is_reserved":false,"is_disabled":false,"rental_uris":{"android":"levelo://app?vid=1fe37c88-8efb-457b-a558-c34a288b19d5","ios":"levelo://app?vid=1fe37c88-8efb-457b-a558-c34a288b19d5"},"vehicle_type_id":"4","last_reported":1741198400,"current_range_meters":2800,"station_id":"ce4bho12rcd13ifvqh1g","pricing_plan_id":"cebpf4jnsgd1na2vs0mg"},{"bike_id":"2293393c-de06-4f05-9c70-7c67d896459a","system_id":"levelo_inurba_marseille","lat":43.31312,"lon":5.39712,"is_reserved":false,"is_disabled":false,"rental_uris":{"android":"levelo://app?vid=2293393c-de06-4f05-9c70-7c67d896459a","ios":"levelo://app?vid=2293393c-de06-4f05-9c70-7c67d896459a"},"vehicle_type_id":"4","last_reported":1741198400,"current_range_meters":2800,"station_id":"ce4bgvp2rcd13ifvqcu0","pricing_plan_id":"cebpf4jnsgd1na2vs0mg"},{"bike_id":"1c77e231-8430-4132-ba2b-5be7b5220225","system_id":"levelo_inurba_marseille","lat":43.29577,"lon":5.3752,"is_reserved":false,"is_disabled":false,"rental_uris":{"android":"levelo://app?vid=1c77e231-8430-4132-ba2b-5be7b5220225","ios":"levelo://app?vid=1c77e231-8430-4132-ba2b-5be7b5220225"},"vehicle_type_id":"4","last_reported":1741198400,"current_range_meters":2000,"station_id":"ce4bgh92rcd13ifvqb50","pricing_plan_id":"cebpf4jnsgd1na2vs0mg"},{"bike_id":"d634b3ca-a9f1-4008-b8b3-3173c80ce590","system_id":"levelo_inurba_marseille","lat":43.31133,"lon":5.37792,"is_reserved":false,"is_disabled":false,"rental_uris":{"android":"levelo://app?vid=d634b3ca-a9f1-4008-b8b3-3173c80ce590","ios":"levelo://app?vid=d634b3ca-a9f1-4008-b8b3-3173c80ce590"},"vehicle_type_id":"4","last_reported":1741198400,"current_range_meters":3200,"station_id":"ce4bgt92rcd13ifvqcg0","pricing_plan_id":"cebpf4jnsgd1na2vs0mg"},{"bike_id":"f1ff555a-83b1-4bf4-b627-21e41e264768","system_id":"levelo_inurba_marseille","lat":43.24074,"lon":5.37756,"is_reserved":false,"is_disabled":false,"rental_uris":{"android":"levelo://app?vid=f1ff555a-83b1-4bf4-b627-21e41e264768","ios":"levelo://app?vid=f1ff555a-83b1-4bf4-b627-21e41e264768"},"vehicle_type_id":"4","last_reported":1741198400,"current_range_meters":3200,"station_id":"ce4bhnp2rcd13ifvqgvg","pricing_plan_id":"cebpf4jnsgd1na2vs0mg"},{"bike_id":"b7acd625-f9ff-43d7-96ae-cc7ef2ff209e","system_id":"levelo_inurba_marseille","lat":43.23184,"lon":5.35525,"is_reserved":false,"is_disabled":false,"rental_uris":{"android":"levelo://app?vid=b7acd625-f9ff-43d7-96ae-cc7ef2ff209e","ios":"levelo://app?vid=b7acd625-f9ff-43d7-96ae-cc7ef2ff209e"},"vehicle_type_id":"4","last_reported":1741198400,"current_range_meters":3200,"station_id":"ce4bhu92rcd13ifvqi70","pricing_plan_id":"cebpf4jnsgd1na2vs0mg"},{"bike_id":"ce8a047a-35ef-4521-b4c3-1fee576eea5c","system_id":"levelo_inurba_marseille","lat":43.28574,"lon":5.39496,"is_reserved":false,"is_disabled":false,"rental_uris":{"android":"levelo://app?vid=ce8a047a-35ef-4521-b4c3-1fee576eea5c","ios":"levelo://app?vid=ce8a047a-35ef-4521-b4c3-1fee576eea5c"},"vehicle_type_id":"4","last_reported":1741198400,"current_range_meters":3200,"station_id":"ce4bh292rcd13ifvqdg0","pricing_plan_id":"cebpf4jnsgd1na2vs0mg"},{"bike_id":"9929ab83-0de4-49eb-952b-a0edf6945bf2","system_id":"levelo_inurba_marseille","lat":43.27996,"lon":5.40008,"is_reserved":false,"is_disabled":false,"rental_uris":{"android":"levelo://app?vid=9929ab83-0de4-49eb-952b-a0edf6945bf2","ios":"levelo://app?vid=9929ab83-0de4-49eb-952b-a0edf6945bf2"},"vehicle_type_id":"4","last_reported":1741198400,"current_range_meters":3200,"station_id":"ce4bho92rcd13ifvqh4g","pricing_plan_id":"cebpf4jnsgd1na2vs0mg"},{"bike_id":"91e4e33f-dfba-480d-82e2-096419454712","system_id":"levelo_inurba_marseille","lat":43.28144,"lon":5.42671,"is_reserved":false,"is_disabled":false,"rental_uris":{"android":"levelo://app?vid=91e4e33f-dfba-480d-82e2-096419454712","ios":"levelo://app?vid=91e4e33f-dfba-480d-82e2-096419454712"},"vehicle_type_id":"4","last_reported":1741198400,"current_range_meters":3600,"station_id":"ce4bhnh2rcd13ifvqgug","pricing_plan_id":"cebpf4jnsgd1na2vs0mg"},{"bike_id":"3f9fae04-f1f3-4869-8154-8b5321664179","system_id":"levelo_inurba_marseille","lat":43.23056,"lon":5.35505,"is_reserved":false,"is_disabled":false,"rental_uris":{"android":"levelo://app?vid=3f9fae04-f1f3-4869-8154-8b5321664179","ios":"levelo://app?vid=3f9fae04-f1f3-4869-8154-8b5321664179"},"vehicle_type_id":"4","last_reported":1741198400,"current_range_meters":3600,"station_id":"cpo3342slgdg3j2ifvpg","pricing_plan_id":"cebpf4jnsgd1na2vs0mg"},{"bike_id":"424b4dfa-8aa9-4649-9117-f24c38f721b6","system_id":"levelo_inurba_marseille","lat":43.26221,"lon":5.40418,"is_reserved":false,"is_disabled":false,"rental_uris":{"android":"levelo://app?vid=424b4dfa-8aa9-4649-9117-f24c38f721b6","ios":"levelo://app?vid=424b4dfa-8aa9-4649-9117-f24c38f721b6"},"vehicle_type_id":"4","last_reported":1741198400,"current_range_meters":3600,"station_id":"ce4bhmh2rcd13ifvqgmg","pricing_plan_id":"cebpf4jnsgd1na2vs0mg"},{"bike_id":"392c72c8-d331-48d4-9d27-7488cbe33bb1","system_id":"levelo_inurba_marseille","lat":43.31331,"lon":5.39693,"is_reserved":false,"is_disabled":false,"rental_uris":{"android":"levelo://app?vid=392c72c8-d331-48d4-9d27-7488cbe33bb1","ios":"levelo://app?vid=392c72c8-d331-48d4-9d27-7488cbe33bb1"},"vehicle_type_id":"4","last_reported":1741198400,"current_range_meters":3600,"station_id":"ce4bgvp2rcd13ifvqcu0","pricing_plan_id":"cebpf4jnsgd1na2vs0mg"},{"bike_id":"69fdfd94-5e37-4ef9-a528-3a4a83b977fb","system_id":"levelo_inurba_marseille","lat":43.30469,"lon":5.37907,"is_reserved":false,"is_disabled":false,"rental_uris":{"android":"levelo://app?vid=69fdfd94-5e37-4ef9-a528-3a4a83b977fb","ios":"levelo://app?vid=69fdfd94-5e37-4ef9-a528-3a4a83b977fb"},"vehicle_type_id":"4","last_reported":1741198400,"current_range_meters":3600,"station_id":"ce4bgup2rcd13ifvqcn0","pricing_plan_id":"cebpf4jnsgd1na2vs0mg"},{"bike_id":"6da0b535-1570-4ba5-89b6-5f1806c9ab81","system_id":"levelo_inurba_marseille","lat":43.2928,"lon":5.40118,"is_reserved":false,"is_disabled":false,"rental_uris":{"android":"levelo://app?vid=6da0b535-1570-4ba5-89b6-5f1806c9ab81","ios":"levelo://app?vid=6da0b535-1570-4ba5-89b6-5f1806c9ab81"},"vehicle_type_id":"4","last_reported":1741198400,"current_range_meters":3600,"station_id":"ce4bh312rcd13ifvqdk0","pricing_plan_id":"cebpf4jnsgd1na2vs0mg"},{"bike_id":"1f1ccb4d-5fdb-4b73-93f7-a779e0dceae2","system_id":"levelo_inurba_marseille","lat":43.30134,"lon":5.38771,"is_reserved":false,"is_disabled":false,"rental_uris":{"android":"levelo://app?vid=1f1ccb4d-5fdb-4b73-93f7-a779e0dceae2","ios":"levelo://app?vid=1f1ccb4d-5fdb-4b73-93f7-a779e0dceae2"},"vehicle_type_id":"4","last_reported":1741198400,"current_range_meters":4000,"station_id":"ce4bghh2rcd13ifvqb60","pricing_plan_id":"cebpf4jnsgd1na2vs0mg"},{"bike_id":"c4230f47-c94f-466c-937f-73b89bcd14bd","system_id":"levelo_inurba_marseille","lat":43.30435,"lon":5.38883,"is_reserved":false,"is_disabled":false,"rental_uris":{"android":"levelo://app?vid=c4230f47-c94f-466c-937f-73b89bcd14bd","ios":"levelo://app?vid=c4230f47-c94f-466c-937f-73b89bcd14bd"},"vehicle_type_id":"4","last_reported":1741198400,"current_range_meters":4000,"station_id":"ce4bgk12rcd13ifvqbi0","pricing_plan_id":"cebpf4jnsgd1na2vs0mg"},{"bike_id":"72ee38c9-7078-4652-b97d-f2d86799ae87","system_id":"levelo_inurba_marseille","lat":43.2942,"lon":5.38622,"is_reserved":false,"is_disabled":false,"rental_uris":{"android":"levelo://app?vid=72ee38c9-7078-4652-b97d-f2d86799ae87","ios":"levelo://app?vid=72ee38c9-7078-4652-b97d-f2d86799ae87"},"vehicle_type_id":"4","last_reported":1741198400,"current_range_meters":4000,"station_id":"ce4bh2h2rcd13ifvqdh0","pricing_plan_id":"cebpf4jnsgd1na2vs0mg"},{"bike_id":"789cc7b0-c82e-47f1-b485-b8f8e088ef5d","system_id":"levelo_inurba_marseille","lat":43.33022,"lon":5.3904,"is_reserved":false,"is_disabled":false,"rental_uris":{"android":"levelo://app?vid=789cc7b0-c82e-47f1-b485-b8f8e088ef5d","ios":"levelo://app?vid=789cc7b0-c82e-47f1-b485-b8f8e088ef5d"},"vehicle_type_id":"4","last_reported":1741198400,"current_range_meters":4000,"station_id":"ce4bhr92rcd13ifvqhrg","pricing_plan_id":"cebpf4jnsgd1na2vs0mg"},{"bike_id":"0b75c024-0f54-44c2-93f1-70a2049ec93e","system_id":"levelo_inurba_marseille","lat":43.28953,"lon":5.36416,"is_reserved":false,"is_disabled":false,"rental_uris":{"android":"levelo://app?vid=0b75c024-0f54-44c2-93f1-70a2049ec93e","ios":"levelo://app?vid=0b75c024-0f54-44c2-93f1-70a2049ec93e"},"vehicle_type_id":"4","last_reported":1741198400,"current_range_meters":4000,"station_id":"ce4bhc92rcd13ifvqetg","pricing_plan_id":"cebpf4jnsgd1na2vs0mg"},{"bike_id":"38c6ae8a-36dc-45fc-8992-53ea9d635e60","system_id":"levelo_inurba_marseille","lat":43.2418,"lon":5.39728,"is_reserved":false,"is_disabled":false,"rental_uris":{"android":"levelo://app?vid=38c6ae8a-36dc-45fc-8992-53ea9d635e60","ios":"levelo://app?vid=38c6ae8a-36dc-45fc-8992-53ea9d635e60"},"vehicle_type_id":"4","last_reported":1741198400,"current_range_meters":4000,"station_id":"ce4bhn12rcd13ifvqgpg","pricing_plan_id":"cebpf4jnsgd1na2vs0mg"},{"bike_id":"73249f1f-ee2c-4f55-aa82-865c702b689a","system_id":"levelo_inurba_marseille","lat":43.27616,"lon":5.36104,"is_reserved":false,"is_disabled":false,"rental_uris":{"android":"levelo://app?vid=73249f1f-ee2c-4f55-aa82-865c702b689a","ios":"levelo://app?vid=73249f1f-ee2c-4f55-aa82-865c702b689a"},"vehicle_type_id":"4","last_reported":1741198400,"current_range_meters":4400,"station_id":"ce4bgj92rcd13ifvqbe0","pricing_plan_id":"cebpf4jnsgd1na2vs0mg"},{"bike_id":"e9206e5c-fcb4-460e-88e5-4fcddbefac3e","system_id":"levelo_inurba_marseille","lat":43.29044,"lon":5.37685,"is_reserved":false,"is_disabled":false,"rental_uris":{"android":"levelo://app?vid=e9206e5c-fcb4-460e-88e5-4fcddbefac3e","ios":"levelo://app?vid=e9206e5c-fcb4-460e-88e5-4fcddbefac3e"},"vehicle_type_id":"4","last_reported":1741198400,"current_range_meters":4400,"station_id":"","pricing_plan_id":"cebpf4jnsgd1na2vs0mg"},{"bike_id":"a21b847b-007b-4c81-a26c-3906f4d967a7","system_id":"levelo_inurba_marseille","lat":43.28422,"lon":5.37509,"is_reserved":false,"is_disabled":false,"rental_uris":{"android":"levelo://app?vid=a21b847b-007b-4c81-a26c-3906f4d967a7","ios":"levelo://app?vid=a21b847b-007b-4c81-a26c-3906f4d967a7"},"vehicle_type_id":"4","last_reported":1741198400,"current_range_meters":4800,"station_id":"ce4bh412rcd13ifvqds0","pricing_plan_id":"cebpf4jnsgd1na2vs0mg"},{"bike_id":"cf5614ab-17c0-40a7-83e0-bbb6a382d52d","system_id":"levelo_inurba_marseille","lat":43.29252,"lon":5.37477,"is_reserved":false,"is_disabled":false,"rental_uris":{"android":"levelo://app?vid=cf5614ab-17c0-40a7-83e0-bbb6a382d52d","ios":"levelo://app?vid=cf5614ab-17c0-40a7-83e0-bbb6a382d52d"},"vehicle_type_id":"4","last_reported":1741198400,"current_range_meters":4800,"station_id":"","pricing_plan_id":"cebpf4jnsgd1na2vs0mg"},{"bike_id":"575d7ca7-f623-4af7-98c2-3a01638ef48f","system_id":"levelo_inurba_marseille","lat":43.29269,"lon":5.38442,"is_reserved":false,"is_disabled":false,"rental_uris":{"android":"levelo://app?vid=575d7ca7-f623-4af7-98c2-3a01638ef48f","ios":"levelo://app?vid=575d7ca7-f623-4af7-98c2-3a01638ef48f"},"vehicle_type_id":"4","last_reported":1741198400,"current_range_meters":4800,"station_id":"ce4bh692rcd13ifvqea0","pricing_plan_id":"cebpf4jnsgd1na2vs0mg"},{"bike_id":"81aab358-4a32-47c9-8a59-50af058fdc6b","system_id":"levelo_inurba_marseille","lat":43.30145,"lon":5.38077,"is_reserved":false,"is_disabled":false,"rental_uris":{"android":"levelo://app?vid=81aab358-4a32-47c9-8a59-50af058fdc6b","ios":"levelo://app?vid=81aab358-4a32-47c9-8a59-50af058fdc6b"},"vehicle_type_id":"4","last_reported":1741198400,"current_range_meters":4400,"station_id":"ce4bgjp2rcd13ifvqbh0","pricing_plan_id":"cebpf4jnsgd1na2vs0mg"},{"bike_id":"fff4c895-6f11-4175-a3b5-99afab44b4b9","system_id":"levelo_inurba_marseille","lat":43.2861,"lon":5.35101,"is_reserved":false,"is_disabled":false,"rental_uris":{"android":"levelo://app?vid=fff4c895-6f11-4175-a3b5-99afab44b4b9","ios":"levelo://app?vid=fff4c895-6f11-4175-a3b5-99afab44b4b9"},"vehicle_type_id":"4","last_reported":1741198400,"current_range_meters":5600,"station_id":"ce4bhch2rcd13ifvqeug","pricing_plan_id":"cebpf4jnsgd1na2vs0mg"},{"bike_id":"6d5df51d-2c05-4449-854f-edd853754957","system_id":"levelo_inurba_marseille","lat":43.23179,"lon":5.39993,"is_reserved":false,"is_disabled":false,"rental_uris":{"android":"levelo://app?vid=6d5df51d-2c05-4449-854f-edd853754957","ios":"levelo://app?vid=6d5df51d-2c05-4449-854f-edd853754957"},"vehicle_type_id":"4","last_reported":1741198400,"current_range_meters":5600,"station_id":"ce4bhn12rcd13ifvqgqg","pricing_plan_id":"cebpf4jnsgd1na2vs0mg"},{"bike_id":"b89bcf4b-8ba6-483b-a775-4527402ffc0b","system_id":"levelo_inurba_marseille","lat":43.29595,"lon":5.38048,"is_reserved":false,"is_disabled":false,"rental_uris":{"android":"levelo://app?vid=b89bcf4b-8ba6-483b-a775-4527402ffc0b","ios":"levelo://app?vid=b89bcf4b-8ba6-483b-a775-4527402ffc0b"},"vehicle_type_id":"4","last_reported":1741198400,"current_range_meters":5600,"station_id":"ce4bgl12rcd13ifvqbo0","pricing_plan_id":"cebpf4jnsgd1na2vs0mg"},{"bike_id":"68ffead6-679e-40fc-be24-d695d5760da8","system_id":"levelo_inurba_marseille","lat":43.30881,"lon":5.39619,"is_reserved":false,"is_disabled":false,"rental_uris":{"android":"levelo://app?vid=68ffead6-679e-40fc-be24-d695d5760da8","ios":"levelo://app?vid=68ffead6-679e-40fc-be24-d695d5760da8"},"vehicle_type_id":"4","last_reported":1741198400,"current_range_meters":6000,"station_id":"ce4bh012rcd13ifvqcv0","pricing_plan_id":"cebpf4jnsgd1na2vs0mg"},{"bike_id":"27cd5a1e-ab85-4af5-acae-0d6c33da5316","system_id":"levelo_inurba_marseille","lat":43.29428,"lon":5.3863,"is_reserved":false,"is_disabled":false,"rental_uris":{"android":"levelo://app?vid=27cd5a1e-ab85-4af5-acae-0d6c33da5316","ios":"levelo://app?vid=27cd5a1e-ab85-4af5-acae-0d6c33da5316"},"vehicle_type_id":"4","last_reported":1741198400,"current_range_meters":5600,"station_id":"ce4bh2h2rcd13ifvqdh0","pricing_plan_id":"cebpf4jnsgd1na2vs0mg"},{"bike_id":"3038c7d4-e402-4b83-8914-f7e5b641e2c8","system_id":"levelo_inurba_marseille","lat":43.23183,"lon":5.39975,"is_reserved":false,"is_disabled":false,"rental_uris":{"android":"levelo://app?vid=3038c7d4-e402-4b83-8914-f7e5b641e2c8","ios":"levelo://app?vid=3038c7d4-e402-4b83-8914-f7e5b641e2c8"},"vehicle_type_id":"4","last_reported":1741198400,"current_range_meters":5600,"station_id":"ce4bhn12rcd13ifvqgqg","pricing_plan_id":"cebpf4jnsgd1na2vs0mg"},{"bike_id":"6de8a303-c783-4028-88ca-7f77b99f69ae","system_id":"levelo_inurba_marseille","lat":43.22934,"lon":5.35375,"is_reserved":false,"is_disabled":false,"rental_uris":{"android":"levelo://app?vid=6de8a303-c783-4028-88ca-7f77b99f69ae","ios":"levelo://app?vid=6de8a303-c783-4028-88ca-7f77b99f69ae"},"vehicle_type_id":"4","last_reported":1741198400,"current_range_meters":6000,"station_id":"cpo3532slgdg3j2ikp40","pricing_plan_id":"cebpf4jnsgd1na2vs0mg"},{"bike_id":"c2faddd7-f7b2-4985-866d-b5016c612567","system_id":"levelo_inurba_marseille","lat":43.29286,"lon":5.38411,"is_reserved":false,"is_disabled":false,"rental_uris":{"android":"levelo://app?vid=c2faddd7-f7b2-4985-866d-b5016c612567","ios":"levelo://app?vid=c2faddd7-f7b2-4985-866d-b5016c612567"},"vehicle_type_id":"4","last_reported":1741198400,"current_range_meters":6000,"station_id":"ce4bh692rcd13ifvqea0","pricing_plan_id":"cebpf4jnsgd1na2vs0mg"},{"bike_id":"b70ca0f9-1c68-433d-8cbd-6a2bad97e5a6","system_id":"levelo_inurba_marseille","lat":43.28697,"lon":5.38667,"is_reserved":false,"is_disabled":false,"rental_uris":{"android":"levelo://app?vid=b70ca0f9-1c68-433d-8cbd-6a2bad97e5a6","ios":"levelo://app?vid=b70ca0f9-1c68-433d-8cbd-6a2bad97e5a6"},"vehicle_type_id":"4","last_reported":1741198400,"current_range_meters":6000,"station_id":"ce4bh492rcd13ifvqdug","pricing_plan_id":"cebpf4jnsgd1na2vs0mg"},{"bike_id":"95730dec-2cf8-4aa8-b406-24e41d0d0354","system_id":"levelo_inurba_marseille","lat":43.30248,"lon":5.40059,"is_reserved":false,"is_disabled":false,"rental_uris":{"android":"levelo://app?vid=95730dec-2cf8-4aa8-b406-24e41d0d0354","ios":"levelo://app?vid=95730dec-2cf8-4aa8-b406-24e41d0d0354"},"vehicle_type_id":"4","last_reported":1741198400,"current_range_meters":6000,"station_id":"ce4bgvh2rcd13ifvqcs0","pricing_plan_id":"cebpf4jnsgd1na2vs0mg"},{"bike_id":"363eabdc-490e-47c0-bf81-de0677917e5e","system_id":"levelo_inurba_marseille","lat":43.27907,"lon":5.38,"is_reserved":false,"is_disabled":false,"rental_uris":{"android":"levelo://app?vid=363eabdc-490e-47c0-bf81-de0677917e5e","ios":"levelo://app?vid=363eabdc-490e-47c0-bf81-de0677917e5e"},"vehicle_type_id":"4","last_reported":1741198400,"current_range_meters":6000,"station_id":"ce4bhf92rcd13ifvqf50","pricing_plan_id":"cebpf4jnsgd1na2vs0mg"},{"bike_id":"4d96a45d-8e1d-4f5c-846e-3a9ab83111fb","system_id":"levelo_inurba_marseille","lat":43.32357,"lon":5.36752,"is_reserved":false,"is_disabled":false,"rental_uris":{"android":"levelo://app?vid=4d96a45d-8e1d-4f5c-846e-3a9ab83111fb","ios":"levelo://app?vid=4d96a45d-8e1d-4f5c-846e-3a9ab83111fb"},"vehicle_type_id":"4","last_reported":1741198400,"current_range_meters":6000,"station_id":"ce4bhsh2rcd13ifvqi2g","pricing_plan_id":"cebpf4jnsgd1na2vs0mg"},{"bike_id":"21b19842-9ad9-4db0-bc46-3d2827c0069e","system_id":"levelo_inurba_marseille","lat":43.23198,"lon":5.35555,"is_reserved":false,"is_disabled":false,"rental_uris":{"android":"levelo://app?vid=21b19842-9ad9-4db0-bc46-3d2827c0069e","ios":"levelo://app?vid=21b19842-9ad9-4db0-bc46-3d2827c0069e"},"vehicle_type_id":"4","last_reported":1741198400,"current_range_meters":6000,"station_id":"ce4bhu92rcd13ifvqi70","pricing_plan_id":"cebpf4jnsgd1na2vs0mg"},{"bike_id":"ea598d55-b716-48f5-aca0-704a5a1270b2","system_id":"levelo_inurba_marseille","lat":43.306013,"lon":5.372402,"is_reserved":false,"is_disabled":false,"rental_uris":{"android":"levelo://app?vid=ea598d55-b716-48f5-aca0-704a5a1270b2","ios":"levelo://app?vid=ea598d55-b716-48f5-aca0-704a5a1270b2"},"vehicle_type_id":"4","last_reported":1741198400,"current_range_meters":6400,"station_id":"ce4bgqh2rcd13ifvqc4g","pricing_plan_id":"cebpf4jnsgd1na2vs0mg"},{"bike_id":"6e8e7297-5e09-460c-9a46-853ca6c1b339","system_id":"levelo_inurba_marseille","lat":43.26068,"lon":5.39391,"is_reserved":false,"is_disabled":false,"rental_uris":{"android":"levelo://app?vid=6e8e7297-5e09-460c-9a46-853ca6c1b339","ios":"levelo://app?vid=6e8e7297-5e09-460c-9a46-853ca6c1b339"},"vehicle_type_id":"4","last_reported":1741198400,"current_range_meters":6400,"station_id":"ce4bhh92rcd13ifvqfj0","pricing_plan_id":"cebpf4jnsgd1na2vs0mg"},{"bike_id":"7924171d-cade-493d-ba81-e3e65dc7b792","system_id":"levelo_inurba_marseille","lat":43.2926,"lon":5.38443,"is_reserved":false,"is_disabled":false,"rental_uris":{"android":"levelo://app?vid=7924171d-cade-493d-ba81-e3e65dc7b792","ios":"levelo://app?vid=7924171d-cade-493d-ba81-e3e65dc7b792"},"vehicle_type_id":"4","last_reported":1741198400,"current_range_meters":6400,"station_id":"ce4bh692rcd13ifvqea0","pricing_plan_id":"cebpf4jnsgd1na2vs0mg"},{"bike_id":"ee1d2ad1-36ca-49dd-a328-f2a9a9994ecb","system_id":"levelo_inurba_marseille","lat":43.3109,"lon":5.38129,"is_reserved":false,"is_disabled":false,"rental_uris":{"android":"levelo://app?vid=ee1d2ad1-36ca-49dd-a328-f2a9a9994ecb","ios":"levelo://app?vid=ee1d2ad1-36ca-49dd-a328-f2a9a9994ecb"},"vehicle_type_id":"4","last_reported":1741198400,"current_range_meters":6400,"station_id":"","pricing_plan_id":"cebpf4jnsgd1na2vs0mg"},{"bike_id":"6835789b-88ca-45c2-96d3-6b91a0feab92","system_id":"levelo_inurba_marseille","lat":43.28,"lon":5.4001,"is_reserved":false,"is_disabled":false,"rental_uris":{"android":"levelo://app?vid=6835789b-88ca-45c2-96d3-6b91a0feab92","ios":"levelo://app?vid=6835789b-88ca-45c2-96d3-6b91a0feab92"},"vehicle_type_id":"4","last_reported":1741198400,"current_range_meters":6400,"station_id":"ce4bho92rcd13ifvqh4g","pricing_plan_id":"cebpf4jnsgd1na2vs0mg"},{"bike_id":"cf14ba57-f153-4f5e-8d97-731942cee3c9","system_id":"levelo_inurba_marseille","lat":43.29259,"lon":5.38445,"is_reserved":false,"is_disabled":false,"rental_uris":{"android":"levelo://app?vid=cf14ba57-f153-4f5e-8d97-731942cee3c9","ios":"levelo://app?vid=cf14ba57-f153-4f5e-8d97-731942cee3c9"},"vehicle_type_id":"4","last_reported":1741198400,"current_range_meters":6400,"station_id":"ce4bh692rcd13ifvqea0","pricing_plan_id":"cebpf4jnsgd1na2vs0mg"},{"bike_id":"fd863c23-9466-449f-bbde-3640f37c26fc","system_id":"levelo_inurba_marseille","lat":43.31721,"lon":5.37782,"is_reserved":false,"is_disabled":false,"rental_uris":{"android":"levelo://app?vid=fd863c23-9466-449f-bbde-3640f37c26fc","ios":"levelo://app?vid=fd863c23-9466-449f-bbde-3640f37c26fc"},"vehicle_type_id":"4","last_reported":1741198400,"current_range_meters":6400,"station_id":"ce4bgth2rcd13ifvqch0","pricing_plan_id":"cebpf4jnsgd1na2vs0mg"},{"bike_id":"56a363cc-3b67-4b33-bbf5-8f7c440a90f6","system_id":"levelo_inurba_marseille","lat":43.283323,"lon":5.381198,"is_reserved":false,"is_disabled":false,"rental_uris":{"android":"levelo://app?vid=56a363cc-3b67-4b33-bbf5-8f7c440a90f6","ios":"levelo://app?vid=56a363cc-3b67-4b33-bbf5-8f7c440a90f6"},"vehicle_type_id":"4","last_reported":1741198400,"current_range_meters":6400,"station_id":"ce4bh412rcd13ifvqdr0","pricing_plan_id":"cebpf4jnsgd1na2vs0mg"},{"bike_id":"45f3046d-e3ed-4bfa-86d8-db1f8e675ba5","system_id":"levelo_inurba_marseille","lat":43.30416,"lon":5.39739,"is_reserved":false,"is_disabled":false,"rental_uris":{"android":"levelo://app?vid=45f3046d-e3ed-4bfa-86d8-db1f8e675ba5","ios":"levelo://app?vid=45f3046d-e3ed-4bfa-86d8-db1f8e675ba5"},"vehicle_type_id":"4","last_reported":1741198400,"current_range_meters":6000,"station_id":"ce4bh092rcd13ifvqd20","pricing_plan_id":"cebpf4jnsgd1na2vs0mg"},{"bike_id":"cd70a6e0-ca2b-4405-afec-55309ea9657f","system_id":"levelo_inurba_marseille","lat":43.270772,"lon":5.42286,"is_reserved":false,"is_disabled":false,"rental_uris":{"android":"levelo://app?vid=cd70a6e0-ca2b-4405-afec-55309ea9657f","ios":"levelo://app?vid=cd70a6e0-ca2b-4405-afec-55309ea9657f"},"vehicle_type_id":"4","last_reported":1741198400,"current_range_meters":6400,"station_id":"ce4bhk92rcd13ifvqgb0","pricing_plan_id":"cebpf4jnsgd1na2vs0mg"},{"bike_id":"8b2fd51c-e08c-48a7-814f-130d3733faf2","system_id":"levelo_inurba_marseille","lat":43.28612,"lon":5.35106,"is_reserved":false,"is_disabled":false,"rental_uris":{"android":"levelo://app?vid=8b2fd51c-e08c-48a7-814f-130d3733faf2","ios":"levelo://app?vid=8b2fd51c-e08c-48a7-814f-130d3733faf2"},"vehicle_type_id":"4","last_reported":1741198400,"current_range_meters":6800,"station_id":"ce4bhch2rcd13ifvqeug","pricing_plan_id":"cebpf4jnsgd1na2vs0mg"},{"bike_id":"fd89df69-3224-416a-bb24-64a27bcc8377","system_id":"levelo_inurba_marseille","lat":43.28725,"lon":5.36102,"is_reserved":false,"is_disabled":false,"rental_uris":{"android":"levelo://app?vid=fd89df69-3224-416a-bb24-64a27bcc8377","ios":"levelo://app?vid=fd89df69-3224-416a-bb24-64a27bcc8377"},"vehicle_type_id":"4","last_reported":1741198400,"current_range_meters":6800,"station_id":"cki0cbj6b192h4jlfktg","pricing_plan_id":"cebpf4jnsgd1na2vs0mg"},{"bike_id":"ebfb9929-7316-4d4e-a4e7-ccedc96fe7a3","system_id":"levelo_inurba_marseille","lat":43.323351,"lon":5.406211,"is_reserved":false,"is_disabled":false,"rental_uris":{"android":"levelo://app?vid=ebfb9929-7316-4d4e-a4e7-ccedc96fe7a3","ios":"levelo://app?vid=ebfb9929-7316-4d4e-a4e7-ccedc96fe7a3"},"vehicle_type_id":"4","last_reported":1741198400,"current_range_meters":6800,"station_id":"ce4bh012rcd13ifvqd00","pricing_plan_id":"cebpf4jnsgd1na2vs0mg"},{"bike_id":"79c6abd0-5703-4038-bb70-99151e91304f","system_id":"levelo_inurba_marseille","lat":43.294146,"lon":5.386183,"is_reserved":false,"is_disabled":false,"rental_uris":{"android":"levelo://app?vid=79c6abd0-5703-4038-bb70-99151e91304f","ios":"levelo://app?vid=79c6abd0-5703-4038-bb70-99151e91304f"},"vehicle_type_id":"4","last_reported":1741198400,"current_range_meters":6800,"station_id":"ce4bh092rcd13ifvqd20","pricing_plan_id":"cebpf4jnsgd1na2vs0mg"},{"bike_id":"8881b820-a424-42e5-b7bf-e7efb43364de","system_id":"levelo_inurba_marseille","lat":43.28467,"lon":5.35868,"is_reserved":false,"is_disabled":false,"rental_uris":{"android":"levelo://app?vid=8881b820-a424-42e5-b7bf-e7efb43364de","ios":"levelo://app?vid=8881b820-a424-42e5-b7bf-e7efb43364de"},"vehicle_type_id":"4","last_reported":1741198400,"current_range_meters":6800,"station_id":"ce4bhah2rcd13ifvqei0","pricing_plan_id":"cebpf4jnsgd1na2vs0mg"},{"bike_id":"8b5a8ed1-2f12-4942-bf31-183e0f5a0272","system_id":"levelo_inurba_marseille","lat":43.2926,"lon":5.40906,"is_reserved":false,"is_disabled":false,"rental_uris":{"android":"levelo://app?vid=8b5a8ed1-2f12-4942-bf31-183e0f5a0272","ios":"levelo://app?vid=8b5a8ed1-2f12-4942-bf31-183e0f5a0272"},"vehicle_type_id":"4","last_reported":1741198400,"current_range_meters":6800,"station_id":"ce4bh192rcd13ifvqdc0","pricing_plan_id":"cebpf4jnsgd1na2vs0mg"},{"bike_id":"f6662bde-1632-4b0f-a966-f86b33b7c3b9","system_id":"levelo_inurba_marseille","lat":43.33761,"lon":5.37493,"is_reserved":false,"is_disabled":false,"rental_uris":{"android":"levelo://app?vid=f6662bde-1632-4b0f-a966-f86b33b7c3b9","ios":"levelo://app?vid=f6662bde-1632-4b0f-a966-f86b33b7c3b9"},"vehicle_type_id":"4","last_reported":1741198400,"current_range_meters":7200,"station_id":"","pricing_plan_id":"cebpf4jnsgd1na2vs0mg"},{"bike_id":"9d8596c3-0692-4c9b-adcb-ef819ff61186","system_id":"levelo_inurba_marseille","lat":43.30314,"lon":5.36899,"is_reserved":false,"is_disabled":false,"rental_uris":{"android":"levelo://app?vid=9d8596c3-0692-4c9b-adcb-ef819ff61186","ios":"levelo://app?vid=9d8596c3-0692-4c9b-adcb-ef819ff61186"},"vehicle_type_id":"4","last_reported":1741198400,"current_range_meters":7200,"station_id":"ce4bgqh2rcd13ifvqc5g","pricing_plan_id":"cebpf4jnsgd1na2vs0mg"},{"bike_id":"ae9b91e9-c64f-47ce-945a-6c299f5c0956","system_id":"levelo_inurba_marseille","lat":43.28349,"lon":5.38639,"is_reserved":false,"is_disabled":false,"rental_uris":{"android":"levelo://app?vid=ae9b91e9-c64f-47ce-945a-6c299f5c0956","ios":"levelo://app?vid=ae9b91e9-c64f-47ce-945a-6c299f5c0956"},"vehicle_type_id":"4","last_reported":1741198400,"current_range_meters":7200,"station_id":"ce4bh492rcd13ifvqdvg","pricing_plan_id":"cebpf4jnsgd1na2vs0mg"},{"bike_id":"3dbfd03a-95db-4983-b2b6-38faf94b4f51","system_id":"levelo_inurba_marseille","lat":43.29545,"lon":5.38552,"is_reserved":false,"is_disabled":false,"rental_uris":{"android":"levelo://app?vid=3dbfd03a-95db-4983-b2b6-38faf94b4f51","ios":"levelo://app?vid=3dbfd03a-95db-4983-b2b6-38faf94b4f51"},"vehicle_type_id":"4","last_reported":1741198400,"current_range_meters":7200,"station_id":"ce4bgih2rcd13ifvqba0","pricing_plan_id":"cebpf4jnsgd1na2vs0mg"},{"bike_id":"7a28a628-4abf-40f7-b4ad-6262b665c024","system_id":"levelo_inurba_marseille","lat":43.27367,"lon":5.36253,"is_reserved":false,"is_disabled":false,"rental_uris":{"android":"levelo://app?vid=7a28a628-4abf-40f7-b4ad-6262b665c024","ios":"levelo://app?vid=7a28a628-4abf-40f7-b4ad-6262b665c024"},"vehicle_type_id":"4","last_reported":1741198400,"current_range_meters":6800,"station_id":"ce4bhbh2rcd13ifvqeo0","pricing_plan_id":"cebpf4jnsgd1na2vs0mg"},{"bike_id":"2482c6f9-d205-416e-93c0-ae0e11ebc046","system_id":"levelo_inurba_marseille","lat":43.29717,"lon":5.37694,"is_reserved":false,"is_disabled":false,"rental_uris":{"android":"levelo://app?vid=2482c6f9-d205-416e-93c0-ae0e11ebc046","ios":"levelo://app?vid=2482c6f9-d205-416e-93c0-ae0e11ebc046"},"vehicle_type_id":"4","last_reported":1741198400,"current_range_meters":7200,"station_id":"ce4bgkh2rcd13ifvqbl0","pricing_plan_id":"cebpf4jnsgd1na2vs0mg"},{"bike_id":"54adece9-3b00-4012-bd1f-59fc86157faa","system_id":"levelo_inurba_marseille","lat":43.294149,"lon":5.386277,"is_reserved":false,"is_disabled":false,"rental_uris":{"android":"levelo://app?vid=54adece9-3b00-4012-bd1f-59fc86157faa","ios":"levelo://app?vid=54adece9-3b00-4012-bd1f-59fc86157faa"},"vehicle_type_id":"4","last_reported":1741198400,"current_range_meters":6800,"station_id":"ce4bh2h2rcd13ifvqdh0","pricing_plan_id":"cebpf4jnsgd1na2vs0mg"},{"bike_id":"44a7153b-0fd7-4509-836b-676bbf84fb06","system_id":"levelo_inurba_marseille","lat":43.2319,"lon":5.3556,"is_reserved":false,"is_disabled":false,"rental_uris":{"android":"levelo://app?vid=44a7153b-0fd7-4509-836b-676bbf84fb06","ios":"levelo://app?vid=44a7153b-0fd7-4509-836b-676bbf84fb06"},"vehicle_type_id":"4","last_reported":1741198400,"current_range_meters":7200,"station_id":"ce4bhu92rcd13ifvqi70","pricing_plan_id":"cebpf4jnsgd1na2vs0mg"},{"bike_id":"33c0d147-dce2-4fbf-b7a0-4ec58575919b","system_id":"levelo_inurba_marseille","lat":43.29608,"lon":5.38103,"is_reserved":false,"is_disabled":false,"rental_uris":{"android":"levelo://app?vid=33c0d147-dce2-4fbf-b7a0-4ec58575919b","ios":"levelo://app?vid=33c0d147-dce2-4fbf-b7a0-4ec58575919b"},"vehicle_type_id":"4","last_reported":1741198400,"current_range_meters":8000,"station_id":"ce4bgl12rcd13ifvqbo0","pricing_plan_id":"cebpf4jnsgd1na2vs0mg"},{"bike_id":"f5eaca66-74af-4e58-9898-f4d961b8dfcb","system_id":"levelo_inurba_marseille","lat":43.273879,"lon":5.382863,"is_reserved":false,"is_disabled":false,"rental_uris":{"android":"levelo://app?vid=f5eaca66-74af-4e58-9898-f4d961b8dfcb","ios":"levelo://app?vid=f5eaca66-74af-4e58-9898-f4d961b8dfcb"},"vehicle_type_id":"4","last_reported":1741198400,"current_range_meters":8400,"station_id":"ce4bhh92rcd13ifvqfi0","pricing_plan_id":"cebpf4jnsgd1na2vs0mg"},{"bike_id":"541b7efd-860a-4d8b-831a-30746bc829c1","system_id":"levelo_inurba_marseille","lat":43.32368,"lon":5.38878,"is_reserved":false,"is_disabled":false,"rental_uris":{"android":"levelo://app?vid=541b7efd-860a-4d8b-831a-30746bc829c1","ios":"levelo://app?vid=541b7efd-860a-4d8b-831a-30746bc829c1"},"vehicle_type_id":"4","last_reported":1741198400,"current_range_meters":8000,"station_id":"ce4bhqp2rcd13ifvqhog","pricing_plan_id":"cebpf4jnsgd1na2vs0mg"},{"bike_id":"e01e383c-0b00-41e9-a023-341357d0703f","system_id":"levelo_inurba_marseille","lat":43.24064,"lon":5.37743,"is_reserved":false,"is_disabled":false,"rental_uris":{"android":"levelo://app?vid=e01e383c-0b00-41e9-a023-341357d0703f","ios":"levelo://app?vid=e01e383c-0b00-41e9-a023-341357d0703f"},"vehicle_type_id":"4","last_reported":1741198400,"current_range_meters":8000,"station_id":"ce4bhnp2rcd13ifvqgvg","pricing_plan_id":"cebpf4jnsgd1na2vs0mg"},{"bike_id":"ed663efe-074b-4aba-b0e9-f846e4bd3747","system_id":"levelo_inurba_marseille","lat":43.29284,"lon":5.40975,"is_reserved":false,"is_disabled":false,"rental_uris":{"android":"levelo://app?vid=ed663efe-074b-4aba-b0e9-f846e4bd3747","ios":"levelo://app?vid=ed663efe-074b-4aba-b0e9-f846e4bd3747"},"vehicle_type_id":"4","last_reported":1741198400,"current_range_meters":8000,"station_id":"","pricing_plan_id":"cebpf4jnsgd1na2vs0mg"},{"bike_id":"6ef62b7f-3a0e-44eb-8e46-36ced75f9949","system_id":"levelo_inurba_marseille","lat":43.296101,"lon":5.371938,"is_reserved":false,"is_disabled":false,"rental_uris":{"android":"levelo://app?vid=6ef62b7f-3a0e-44eb-8e46-36ced75f9949","ios":"levelo://app?vid=6ef62b7f-3a0e-44eb-8e46-36ced75f9949"},"vehicle_type_id":"4","last_reported":1741198400,"current_range_meters":8000,"station_id":"cpo3532slgdg3j2ikp40","pricing_plan_id":"cebpf4jnsgd1na2vs0mg"},{"bike_id":"de44d09a-d4db-4ce3-a2dd-62f4dc2e96ab","system_id":"levelo_inurba_marseille","lat":43.28182,"lon":5.42807,"is_reserved":false,"is_disabled":false,"rental_uris":{"android":"levelo://app?vid=de44d09a-d4db-4ce3-a2dd-62f4dc2e96ab","ios":"levelo://app?vid=de44d09a-d4db-4ce3-a2dd-62f4dc2e96ab"},"vehicle_type_id":"4","last_reported":1741198400,"current_range_meters":8000,"station_id":"","pricing_plan_id":"cebpf4jnsgd1na2vs0mg"},{"bike_id":"fc0e7728-b52a-448f-8d4e-af5e8f375bff","system_id":"levelo_inurba_marseille","lat":43.30437,"lon":5.39754,"is_reserved":false,"is_disabled":false,"rental_uris":{"android":"levelo://app?vid=fc0e7728-b52a-448f-8d4e-af5e8f375bff","ios":"levelo://app?vid=fc0e7728-b52a-448f-8d4e-af5e8f375bff"},"vehicle_type_id":"4","last_reported":1741198400,"current_range_meters":8000,"station_id":"ce4bh092rcd13ifvqd20","pricing_plan_id":"cebpf4jnsgd1na2vs0mg"},{"bike_id":"1d1a5219-3491-4dfc-8d1d-fecbc2b5114e","system_id":"levelo_inurba_marseille","lat":43.29026,"lon":5.38649,"is_reserved":false,"is_disabled":false,"rental_uris":{"android":"levelo://app?vid=1d1a5219-3491-4dfc-8d1d-fecbc2b5114e","ios":"levelo://app?vid=1d1a5219-3491-4dfc-8d1d-fecbc2b5114e"},"vehicle_type_id":"4","last_reported":1741198400,"current_range_meters":8000,"station_id":"ce4bh4p2rcd13ifvqe0g","pricing_plan_id":"cebpf4jnsgd1na2vs0mg"},{"bike_id":"b9b8dc0e-66ec-4e89-a8e6-9c4d1ef772b0","system_id":"levelo_inurba_marseille","lat":43.27912,"lon":5.39577,"is_reserved":false,"is_disabled":false,"rental_uris":{"android":"levelo://app?vid=b9b8dc0e-66ec-4e89-a8e6-9c4d1ef772b0","ios":"levelo://app?vid=b9b8dc0e-66ec-4e89-a8e6-9c4d1ef772b0"},"vehicle_type_id":"4","last_reported":1741198400,"current_range_meters":8000,"station_id":"ce4bhf92rcd13ifvqf40","pricing_plan_id":"cebpf4jnsgd1na2vs0mg"},{"bike_id":"e36ff4f1-5456-4951-a9cd-c98d97c85435","system_id":"levelo_inurba_marseille","lat":43.28038,"lon":5.36942,"is_reserved":false,"is_disabled":false,"rental_uris":{"android":"levelo://app?vid=e36ff4f1-5456-4951-a9cd-c98d97c85435","ios":"levelo://app?vid=e36ff4f1-5456-4951-a9cd-c98d97c85435"},"vehicle_type_id":"4","last_reported":1741198400,"current_range_meters":8000,"station_id":"ce4bha12rcd13ifvqef0","pricing_plan_id":"cebpf4jnsgd1na2vs0mg"},{"bike_id":"b6c52b4b-0ea8-4282-b66b-46811bda87bc","system_id":"levelo_inurba_marseille","lat":43.28692,"lon":5.37373,"is_reserved":false,"is_disabled":false,"rental_uris":{"android":"levelo://app?vid=b6c52b4b-0ea8-4282-b66b-46811bda87bc","ios":"levelo://app?vid=b6c52b4b-0ea8-4282-b66b-46811bda87bc"},"vehicle_type_id":"4","last_reported":1741198400,"current_range_meters":8000,"station_id":"ce4bh3p2rcd13ifvqdq0","pricing_plan_id":"cebpf4jnsgd1na2vs0mg"},{"bike_id":"421f8750-39e8-4bee-a531-e2d2257814a3","system_id":"levelo_inurba_marseille","lat":43.30653,"lon":5.40077,"is_reserved":false,"is_disabled":false,"rental_uris":{"android":"levelo://app?vid=421f8750-39e8-4bee-a531-e2d2257814a3","ios":"levelo://app?vid=421f8750-39e8-4bee-a531-e2d2257814a3"},"vehicle_type_id":"4","last_reported":1741198400,"current_range_meters":8000,"station_id":"ce4bh112rcd13ifvqda0","pricing_plan_id":"cebpf4jnsgd1na2vs0mg"},{"bike_id":"97399946-e3e6-4c82-9064-b3472fe1a6d0","system_id":"levelo_inurba_marseille","lat":43.26238,"lon":5.40403,"is_reserved":false,"is_disabled":true,"rental_uris":{"android":"levelo://app?vid=97399946-e3e6-4c82-9064-b3472fe1a6d0","ios":"levelo://app?vid=97399946-e3e6-4c82-9064-b3472fe1a6d0"},"vehicle_type_id":"4","last_reported":1741198400,"current_range_meters":8400,"station_id":"","pricing_plan_id":"cebpf4jnsgd1na2vs0mg"},{"bike_id":"51f6f578-8898-487a-9da7-ff3d6d379d1b","system_id":"levelo_inurba_marseille","lat":43.32101,"lon":5.36777,"is_reserved":false,"is_disabled":false,"rental_uris":{"android":"levelo://app?vid=51f6f578-8898-487a-9da7-ff3d6d379d1b","ios":"levelo://app?vid=51f6f578-8898-487a-9da7-ff3d6d379d1b"},"vehicle_type_id":"4","last_reported":1741198400,"current_range_meters":8400,"station_id":"ce4bhrh2rcd13ifvqhug","pricing_plan_id":"cebpf4jnsgd1na2vs0mg"},{"bike_id":"f38d7d6a-5e15-470a-bcfd-c2ebe1ff35ee","system_id":"levelo_inurba_marseille","lat":43.29524,"lon":5.39025,"is_reserved":false,"is_disabled":false,"rental_uris":{"android":"levelo://app?vid=f38d7d6a-5e15-470a-bcfd-c2ebe1ff35ee","ios":"levelo://app?vid=f38d7d6a-5e15-470a-bcfd-c2ebe1ff35ee"},"vehicle_type_id":"4","last_reported":1741198400,"current_range_meters":8400,"station_id":"ce4bh3p2rcd13ifvqdp0","pricing_plan_id":"cebpf4jnsgd1na2vs0mg"},{"bike_id":"20c30b42-afca-49fa-af59-f8bcc2451152","system_id":"levelo_inurba_marseille","lat":43.296136,"lon":5.377157,"is_reserved":false,"is_disabled":false,"rental_uris":{"android":"levelo://app?vid=20c30b42-afca-49fa-af59-f8bcc2451152","ios":"levelo://app?vid=20c30b42-afca-49fa-af59-f8bcc2451152"},"vehicle_type_id":"4","last_reported":1741198400,"current_range_meters":8400,"station_id":"ce4bgi92rcd13ifvqb90","pricing_plan_id":"cebpf4jnsgd1na2vs0mg"},{"bike_id":"3439a580-4b13-4596-bc3a-9d40342307f1","system_id":"levelo_inurba_marseille","lat":43.32118,"lon":5.36792,"is_reserved":false,"is_disabled":false,"rental_uris":{"android":"levelo://app?vid=3439a580-4b13-4596-bc3a-9d40342307f1","ios":"levelo://app?vid=3439a580-4b13-4596-bc3a-9d40342307f1"},"vehicle_type_id":"4","last_reported":1741198400,"current_range_meters":8400,"station_id":"ce4bhrh2rcd13ifvqhug","pricing_plan_id":"cebpf4jnsgd1na2vs0mg"},{"bike_id":"73c3ff8c-e61e-4c1b-b814-7508b626a4c6","system_id":"levelo_inurba_marseille","lat":43.29264,"lon":5.40898,"is_reserved":false,"is_disabled":false,"rental_uris":{"android":"levelo://app?vid=73c3ff8c-e61e-4c1b-b814-7508b626a4c6","ios":"levelo://app?vid=73c3ff8c-e61e-4c1b-b814-7508b626a4c6"},"vehicle_type_id":"4","last_reported":1741198400,"current_range_meters":8800,"station_id":"ce4bh192rcd13ifvqdc0","pricing_plan_id":"cebpf4jnsgd1na2vs0mg"},{"bike_id":"332214be-c26e-4bd8-b8cc-267e2eddc583","system_id":"levelo_inurba_marseille","lat":43.29965,"lon":5.38502,"is_reserved":false,"is_disabled":false,"rental_uris":{"android":"levelo://app?vid=332214be-c26e-4bd8-b8cc-267e2eddc583","ios":"levelo://app?vid=332214be-c26e-4bd8-b8cc-267e2eddc583"},"vehicle_type_id":"4","last_reported":1741198400,"current_range_meters":8800,"station_id":"ce4bgj92rcd13ifvqbd0","pricing_plan_id":"cebpf4jnsgd1na2vs0mg"},{"bike_id":"25005468-eb62-4fa9-aff5-1ef5ff92fc43","system_id":"levelo_inurba_marseille","lat":43.27206,"lon":5.39177,"is_reserved":false,"is_disabled":false,"rental_uris":{"android":"levelo://app?vid=25005468-eb62-4fa9-aff5-1ef5ff92fc43","ios":"levelo://app?vid=25005468-eb62-4fa9-aff5-1ef5ff92fc43"},"vehicle_type_id":"4","last_reported":1741198400,"current_range_meters":8400,"station_id":"ce4bhhp2rcd13ifvqfm0","pricing_plan_id":"cebpf4jnsgd1na2vs0mg"},{"bike_id":"6dcf973b-8d5a-4bc0-99fb-db5443c43bb1","system_id":"levelo_inurba_marseille","lat":43.29877,"lon":5.39721,"is_reserved":false,"is_disabled":false,"rental_uris":{"android":"levelo://app?vid=6dcf973b-8d5a-4bc0-99fb-db5443c43bb1","ios":"levelo://app?vid=6dcf973b-8d5a-4bc0-99fb-db5443c43bb1"},"vehicle_type_id":"4","last_reported":1741198400,"current_range_meters":8800,"station_id":"ce4bh0h2rcd13ifvqd50","pricing_plan_id":"cebpf4jnsgd1na2vs0mg"},{"bike_id":"8f3c9323-36b7-44db-be8f-e5da87bee204","system_id":"levelo_inurba_marseille","lat":43.32329,"lon":5.40622,"is_reserved":false,"is_disabled":false,"rental_uris":{"android":"levelo://app?vid=8f3c9323-36b7-44db-be8f-e5da87bee204","ios":"levelo://app?vid=8f3c9323-36b7-44db-be8f-e5da87bee204"},"vehicle_type_id":"4","last_reported":1741198400,"current_range_meters":8800,"station_id":"ce4bhq92rcd13ifvqhjg","pricing_plan_id":"cebpf4jnsgd1na2vs0mg"},{"bike_id":"2c57ca77-f587-4fb7-baf7-553c5df662dc","system_id":"levelo_inurba_marseille","lat":43.28402,"lon":5.37504,"is_reserved":false,"is_disabled":false,"rental_uris":{"android":"levelo://app?vid=2c57ca77-f587-4fb7-baf7-553c5df662dc","ios":"levelo://app?vid=2c57ca77-f587-4fb7-baf7-553c5df662dc"},"vehicle_type_id":"4","last_reported":1741198400,"current_range_meters":8800,"station_id":"ce4bh412rcd13ifvqds0","pricing_plan_id":"cebpf4jnsgd1na2vs0mg"},{"bike_id":"65a2506b-af18-47a9-8581-bf86999c0ca8","system_id":"levelo_inurba_marseille","lat":43.30266,"lon":5.40076,"is_reserved":false,"is_disabled":false,"rental_uris":{"android":"levelo://app?vid=65a2506b-af18-47a9-8581-bf86999c0ca8","ios":"levelo://app?vid=65a2506b-af18-47a9-8581-bf86999c0ca8"},"vehicle_type_id":"4","last_reported":1741198400,"current_range_meters":8800,"station_id":"ce4bgvh2rcd13ifvqcs0","pricing_plan_id":"cebpf4jnsgd1na2vs0mg"},{"bike_id":"ff22ac5f-4107-4c43-91dd-83932ff30650","system_id":"levelo_inurba_marseille","lat":43.26691,"lon":5.38272,"is_reserved":false,"is_disabled":true,"rental_uris":{"android":"levelo://app?vid=ff22ac5f-4107-4c43-91dd-83932ff30650","ios":"levelo://app?vid=ff22ac5f-4107-4c43-91dd-83932ff30650"},"vehicle_type_id":"4","last_reported":1741198400,"current_range_meters":8800,"station_id":"ce4bhg92rcd13ifvqf90","pricing_plan_id":"cebpf4jnsgd1na2vs0mg"},{"bike_id":"0ecab84d-c5eb-4e11-bfd4-35c43c720765","system_id":"levelo_inurba_marseille","lat":43.30552,"lon":5.38424,"is_reserved":false,"is_disabled":false,"rental_uris":{"android":"levelo://app?vid=0ecab84d-c5eb-4e11-bfd4-35c43c720765","ios":"levelo://app?vid=0ecab84d-c5eb-4e11-bfd4-35c43c720765"},"vehicle_type_id":"4","last_reported":1741198400,"current_range_meters":8800,"station_id":"ce4bgg92rcd13ifvqb30","pricing_plan_id":"cebpf4jnsgd1na2vs0mg"},{"bike_id":"5706bea0-8212-4e53-ad36-9ddd06124d21","system_id":"levelo_inurba_marseille","lat":43.30785,"lon":5.38165,"is_reserved":false,"is_disabled":false,"rental_uris":{"android":"levelo://app?vid=5706bea0-8212-4e53-ad36-9ddd06124d21","ios":"levelo://app?vid=5706bea0-8212-4e53-ad36-9ddd06124d21"},"vehicle_type_id":"4","last_reported":1741198400,"current_range_meters":8800,"station_id":"ce4bgt12rcd13ifvqce0","pricing_plan_id":"cebpf4jnsgd1na2vs0mg"},{"bike_id":"01a4f22e-c913-49cc-8e42-cc991ea176cd","system_id":"levelo_inurba_marseille","lat":43.29091,"lon":5.38128,"is_reserved":false,"is_disabled":false,"rental_uris":{"android":"levelo://app?vid=01a4f22e-c913-49cc-8e42-cc991ea176cd","ios":"levelo://app?vid=01a4f22e-c913-49cc-8e42-cc991ea176cd"},"vehicle_type_id":"4","last_reported":1741198400,"current_range_meters":8800,"station_id":"ce4bh512rcd13ifvqe2g","pricing_plan_id":"cebpf4jnsgd1na2vs0mg"},{"bike_id":"250ea798-b3bd-4d4d-92e9-30e309596e0d","system_id":"levelo_inurba_marseille","lat":43.29508,"lon":5.39405,"is_reserved":false,"is_disabled":false,"rental_uris":{"android":"levelo://app?vid=250ea798-b3bd-4d4d-92e9-30e309596e0d","ios":"levelo://app?vid=250ea798-b3bd-4d4d-92e9-30e309596e0d"},"vehicle_type_id":"4","last_reported":1741198400,"current_range_meters":9200,"station_id":"ce4bh292rcd13ifvqdf0","pricing_plan_id":"cebpf4jnsgd1na2vs0mg"},{"bike_id":"274f737b-e3d2-4f4a-9b70-ca9f7dc29b1c","system_id":"levelo_inurba_marseille","lat":43.28663,"lon":5.36341,"is_reserved":false,"is_disabled":false,"rental_uris":{"android":"levelo://app?vid=274f737b-e3d2-4f4a-9b70-ca9f7dc29b1c","ios":"levelo://app?vid=274f737b-e3d2-4f4a-9b70-ca9f7dc29b1c"},"vehicle_type_id":"4","last_reported":1741198400,"current_range_meters":9200,"station_id":"ce4bhah2rcd13ifvqej0","pricing_plan_id":"cebpf4jnsgd1na2vs0mg"},{"bike_id":"f523e284-5446-4ec1-b98b-9b4f272c5f15","system_id":"levelo_inurba_marseille","lat":43.24072,"lon":5.37766,"is_reserved":false,"is_disabled":false,"rental_uris":{"android":"levelo://app?vid=f523e284-5446-4ec1-b98b-9b4f272c5f15","ios":"levelo://app?vid=f523e284-5446-4ec1-b98b-9b4f272c5f15"},"vehicle_type_id":"4","last_reported":1741198400,"current_range_meters":9200,"station_id":"ce4bhnp2rcd13ifvqgvg","pricing_plan_id":"cebpf4jnsgd1na2vs0mg"},{"bike_id":"55f3137e-de59-4df3-bc43-34575a42bfd9","system_id":"levelo_inurba_marseille","lat":43.24127,"lon":5.37697,"is_reserved":false,"is_disabled":false,"rental_uris":{"android":"levelo://app?vid=55f3137e-de59-4df3-bc43-34575a42bfd9","ios":"levelo://app?vid=55f3137e-de59-4df3-bc43-34575a42bfd9"},"vehicle_type_id":"4","last_reported":1741198400,"current_range_meters":9200,"station_id":"","pricing_plan_id":"cebpf4jnsgd1na2vs0mg"},{"bike_id":"160e683c-607f-4f1e-87d3-d19dfacdd6d1","system_id":"levelo_inurba_marseille","lat":43.31331,"lon":5.39694,"is_reserved":false,"is_disabled":false,"rental_uris":{"android":"levelo://app?vid=160e683c-607f-4f1e-87d3-d19dfacdd6d1","ios":"levelo://app?vid=160e683c-607f-4f1e-87d3-d19dfacdd6d1"},"vehicle_type_id":"4","last_reported":1741198400,"current_range_meters":9200,"station_id":"ce4bgvp2rcd13ifvqcu0","pricing_plan_id":"cebpf4jnsgd1na2vs0mg"},{"bike_id":"32907a51-37c0-4e0b-8c86-2b4c497990fb","system_id":"levelo_inurba_marseille","lat":43.29256,"lon":5.38458,"is_reserved":false,"is_disabled":false,"rental_uris":{"android":"levelo://app?vid=32907a51-37c0-4e0b-8c86-2b4c497990fb","ios":"levelo://app?vid=32907a51-37c0-4e0b-8c86-2b4c497990fb"},"vehicle_type_id":"4","last_reported":1741198400,"current_range_meters":9200,"station_id":"ce4bh692rcd13ifvqea0","pricing_plan_id":"cebpf4jnsgd1na2vs0mg"},{"bike_id":"acf20595-7755-43d3-8c8f-296b234b0f1b","system_id":"levelo_inurba_marseille","lat":43.2509,"lon":5.41068,"is_reserved":false,"is_disabled":false,"rental_uris":{"android":"levelo://app?vid=acf20595-7755-43d3-8c8f-296b234b0f1b","ios":"levelo://app?vid=acf20595-7755-43d3-8c8f-296b234b0f1b"},"vehicle_type_id":"4","last_reported":1741198400,"current_range_meters":9200,"station_id":"","pricing_plan_id":"cebpf4jnsgd1na2vs0mg"},{"bike_id":"501d3cc6-cd13-46a8-9eaf-c11a6143162e","system_id":"levelo_inurba_marseille","lat":43.292687,"lon":5.38433,"is_reserved":false,"is_disabled":false,"rental_uris":{"android":"levelo://app?vid=501d3cc6-cd13-46a8-9eaf-c11a6143162e","ios":"levelo://app?vid=501d3cc6-cd13-46a8-9eaf-c11a6143162e"},"vehicle_type_id":"4","last_reported":1741198400,"current_range_meters":9200,"station_id":"ce4bh192rcd13ifvqdd0","pricing_plan_id":"cebpf4jnsgd1na2vs0mg"},{"bike_id":"695828ba-2cea-49da-8d0e-3782d691adc5","system_id":"levelo_inurba_marseille","lat":43.27197,"lon":5.40994,"is_reserved":false,"is_disabled":false,"rental_uris":{"android":"levelo://app?vid=695828ba-2cea-49da-8d0e-3782d691adc5","ios":"levelo://app?vid=695828ba-2cea-49da-8d0e-3782d691adc5"},"vehicle_type_id":"4","last_reported":1741198400,"current_range_meters":9200,"station_id":"ce4bhl12rcd13ifvqgf0","pricing_plan_id":"cebpf4jnsgd1na2vs0mg"},{"bike_id":"cfbd87b5-934c-47da-8c82-eff254514825","system_id":"levelo_inurba_marseille","lat":43.31276,"lon":5.40159,"is_reserved":false,"is_disabled":false,"rental_uris":{"android":"levelo://app?vid=cfbd87b5-934c-47da-8c82-eff254514825","ios":"levelo://app?vid=cfbd87b5-934c-47da-8c82-eff254514825"},"vehicle_type_id":"4","last_reported":1741198400,"current_range_meters":6000,"station_id":"ce4bh092rcd13ifvqd30","pricing_plan_id":"cebpf4jnsgd1na2vs0mg"},{"bike_id":"cc4b59ad-c7fa-481e-bca7-23e228402117","system_id":"levelo_inurba_marseille","lat":43.27824,"lon":5.40704,"is_reserved":false,"is_disabled":false,"rental_uris":{"android":"levelo://app?vid=cc4b59ad-c7fa-481e-bca7-23e228402117","ios":"levelo://app?vid=cc4b59ad-c7fa-481e-bca7-23e228402117"},"vehicle_type_id":"4","last_reported":1741198400,"current_range_meters":9200,"station_id":"ce4bhnh2rcd13ifvqgtg","pricing_plan_id":"cebpf4jnsgd1na2vs0mg"},{"bike_id":"c55557ad-1ed5-4997-aee7-ac92107f14b6","system_id":"levelo_inurba_marseille","lat":43.26498,"lon":5.37496,"is_reserved":false,"is_disabled":false,"rental_uris":{"android":"levelo://app?vid=c55557ad-1ed5-4997-aee7-ac92107f14b6","ios":"levelo://app?vid=c55557ad-1ed5-4997-aee7-ac92107f14b6"},"vehicle_type_id":"4","last_reported":1741198400,"current_range_meters":9600,"station_id":"","pricing_plan_id":"cebpf4jnsgd1na2vs0mg"},{"bike_id":"5fa14573-1eee-45cf-b59c-78eb418af935","system_id":"levelo_inurba_marseille","lat":43.25497,"lon":5.37649,"is_reserved":false,"is_disabled":false,"rental_uris":{"android":"levelo://app?vid=5fa14573-1eee-45cf-b59c-78eb418af935","ios":"levelo://app?vid=5fa14573-1eee-45cf-b59c-78eb418af935"},"vehicle_type_id":"4","last_reported":1741198400,"current_range_meters":9200,"station_id":"ce4bhh12rcd13ifvqff0","pricing_plan_id":"cebpf4jnsgd1na2vs0mg"},{"bike_id":"cf760afa-9779-4aff-a514-39080da20f39","system_id":"levelo_inurba_marseille","lat":43.28463,"lon":5.35875,"is_reserved":false,"is_disabled":false,"rental_uris":{"android":"levelo://app?vid=cf760afa-9779-4aff-a514-39080da20f39","ios":"levelo://app?vid=cf760afa-9779-4aff-a514-39080da20f39"},"vehicle_type_id":"4","last_reported":1741198400,"current_range_meters":9600,"station_id":"ce4bhah2rcd13ifvqei0","pricing_plan_id":"cebpf4jnsgd1na2vs0mg"},{"bike_id":"01ab7369-de99-47dc-b455-92d8ad8e8b7c","system_id":"levelo_inurba_marseille","lat":43.30215,"lon":5.39454,"is_reserved":false,"is_disabled":false,"rental_uris":{"android":"levelo://app?vid=01ab7369-de99-47dc-b455-92d8ad8e8b7c","ios":"levelo://app?vid=01ab7369-de99-47dc-b455-92d8ad8e8b7c"},"vehicle_type_id":"4","last_reported":1741198400,"current_range_meters":9600,"station_id":"ce4bh0p2rcd13ifvqd70","pricing_plan_id":"cebpf4jnsgd1na2vs0mg"},{"bike_id":"13bc0cc1-9a93-4b47-a078-a83e52f36317","system_id":"levelo_inurba_marseille","lat":43.25509,"lon":5.37673,"is_reserved":false,"is_disabled":false,"rental_uris":{"android":"levelo://app?vid=13bc0cc1-9a93-4b47-a078-a83e52f36317","ios":"levelo://app?vid=13bc0cc1-9a93-4b47-a078-a83e52f36317"},"vehicle_type_id":"4","last_reported":1741198400,"current_range_meters":9200,"station_id":"ce4bhh12rcd13ifvqff0","pricing_plan_id":"cebpf4jnsgd1na2vs0mg"},{"bike_id":"1bad045b-6ab3-484d-a893-50827840f29c","system_id":"levelo_inurba_marseille","lat":43.29259,"lon":5.38303,"is_reserved":false,"is_disabled":false,"rental_uris":{"android":"levelo://app?vid=1bad045b-6ab3-484d-a893-50827840f29c","ios":"levelo://app?vid=1bad045b-6ab3-484d-a893-50827840f29c"},"vehicle_type_id":"4","last_reported":1741198400,"current_range_meters":9600,"station_id":"","pricing_plan_id":"cebpf4jnsgd1na2vs0mg"},{"bike_id":"d571166c-77a4-4a91-b051-9cc34ad31336","system_id":"levelo_inurba_marseille","lat":43.30183,"lon":5.39327,"is_reserved":false,"is_disabled":false,"rental_uris":{"android":"levelo://app?vid=d571166c-77a4-4a91-b051-9cc34ad31336","ios":"levelo://app?vid=d571166c-77a4-4a91-b051-9cc34ad31336"},"vehicle_type_id":"4","last_reported":1741198400,"current_range_meters":9600,"station_id":"","pricing_plan_id":"cebpf4jnsgd1na2vs0mg"},{"bike_id":"82f9e87a-a168-4eee-aa95-39d9100a6e52","system_id":"levelo_inurba_marseille","lat":43.30791,"lon":5.3814,"is_reserved":false,"is_disabled":false,"rental_uris":{"android":"levelo://app?vid=82f9e87a-a168-4eee-aa95-39d9100a6e52","ios":"levelo://app?vid=82f9e87a-a168-4eee-aa95-39d9100a6e52"},"vehicle_type_id":"4","last_reported":1741198400,"current_range_meters":9600,"station_id":"ce4bhqh2rcd13ifvqhmg","pricing_plan_id":"cebpf4jnsgd1na2vs0mg"},{"bike_id":"2cb0f5e7-eb56-4d4a-9d79-993968c69b8b","system_id":"levelo_inurba_marseille","lat":43.27917,"lon":5.39579,"is_reserved":false,"is_disabled":false,"rental_uris":{"android":"levelo://app?vid=2cb0f5e7-eb56-4d4a-9d79-993968c69b8b","ios":"levelo://app?vid=2cb0f5e7-eb56-4d4a-9d79-993968c69b8b"},"vehicle_type_id":"4","last_reported":1741198400,"current_range_meters":9600,"station_id":"ce4bhf92rcd13ifvqf40","pricing_plan_id":"cebpf4jnsgd1na2vs0mg"},{"bike_id":"de409cc7-9dae-4f24-9c25-68d6091c2626","system_id":"levelo_inurba_marseille","lat":43.275128,"lon":5.424087,"is_reserved":false,"is_disabled":false,"rental_uris":{"android":"levelo://app?vid=de409cc7-9dae-4f24-9c25-68d6091c2626","ios":"levelo://app?vid=de409cc7-9dae-4f24-9c25-68d6091c2626"},"vehicle_type_id":"4","last_reported":1741198400,"current_range_meters":9600,"station_id":"ce4bhn92rcd13ifvqgrg","pricing_plan_id":"cebpf4jnsgd1na2vs0mg"},{"bike_id":"d9276dde-a280-42ed-bfc4-43e7e46a149e","system_id":"levelo_inurba_marseille","lat":43.32046,"lon":5.41544,"is_reserved":false,"is_disabled":false,"rental_uris":{"android":"levelo://app?vid=d9276dde-a280-42ed-bfc4-43e7e46a149e","ios":"levelo://app?vid=d9276dde-a280-42ed-bfc4-43e7e46a149e"},"vehicle_type_id":"4","last_reported":1741198400,"current_range_meters":9600,"station_id":"ce4bhq92rcd13ifvqhkg","pricing_plan_id":"cebpf4jnsgd1na2vs0mg"},{"bike_id":"358df980-c782-4b02-9af7-4fd00affd888","system_id":"levelo_inurba_marseille","lat":43.28074,"lon":5.39662,"is_reserved":false,"is_disabled":false,"rental_uris":{"android":"levelo://app?vid=358df980-c782-4b02-9af7-4fd00affd888","ios":"levelo://app?vid=358df980-c782-4b02-9af7-4fd00affd888"},"vehicle_type_id":"4","last_reported":1741198400,"current_range_meters":10000,"station_id":"ce4bho12rcd13ifvqh2g","pricing_plan_id":"cebpf4jnsgd1na2vs0mg"},{"bike_id":"02b78be3-b9bd-49a8-8618-27e7eb14d2d1","system_id":"levelo_inurba_marseille","lat":43.294122,"lon":5.386239,"is_reserved":false,"is_disabled":false,"rental_uris":{"android":"levelo://app?vid=02b78be3-b9bd-49a8-8618-27e7eb14d2d1","ios":"levelo://app?vid=02b78be3-b9bd-49a8-8618-27e7eb14d2d1"},"vehicle_type_id":"4","last_reported":1741198400,"current_range_meters":10000,"station_id":"ce4bh2h2rcd13ifvqdh0","pricing_plan_id":"cebpf4jnsgd1na2vs0mg"},{"bike_id":"46bcc1d0-1deb-4aba-8262-b3846bf63224","system_id":"levelo_inurba_marseille","lat":43.29687,"lon":5.36594,"is_reserved":false,"is_disabled":false,"rental_uris":{"android":"levelo://app?vid=46bcc1d0-1deb-4aba-8262-b3846bf63224","ios":"levelo://app?vid=46bcc1d0-1deb-4aba-8262-b3846bf63224"},"vehicle_type_id":"4","last_reported":1741198400,"current_range_meters":10000,"station_id":"ce4bgn12rcd13ifvqbt0","pricing_plan_id":"cebpf4jnsgd1na2vs0mg"},{"bike_id":"05b894b7-b076-4cba-b977-d007a028643c","system_id":"levelo_inurba_marseille","lat":43.24386,"lon":5.37057,"is_reserved":false,"is_disabled":false,"rental_uris":{"android":"levelo://app?vid=05b894b7-b076-4cba-b977-d007a028643c","ios":"levelo://app?vid=05b894b7-b076-4cba-b977-d007a028643c"},"vehicle_type_id":"4","last_reported":1741198400,"current_range_meters":10000,"station_id":"ce4bhhh2rcd13ifvqfk0","pricing_plan_id":"cebpf4jnsgd1na2vs0mg"},{"bike_id":"f79b4f80-e0f1-4900-98e0-637751045624","system_id":"levelo_inurba_marseille","lat":43.24177,"lon":5.39728,"is_reserved":false,"is_disabled":false,"rental_uris":{"android":"levelo://app?vid=f79b4f80-e0f1-4900-98e0-637751045624","ios":"levelo://app?vid=f79b4f80-e0f1-4900-98e0-637751045624"},"vehicle_type_id":"4","last_reported":1741198400,"current_range_meters":10800,"station_id":"ce4bhn12rcd13ifvqgpg","pricing_plan_id":"cebpf4jnsgd1na2vs0mg"},{"bike_id":"8e67c6c2-1f86-420e-855b-676e159ed831","system_id":"levelo_inurba_marseille","lat":43.23057,"lon":5.35497,"is_reserved":false,"is_disabled":false,"rental_uris":{"android":"levelo://app?vid=8e67c6c2-1f86-420e-855b-676e159ed831","ios":"levelo://app?vid=8e67c6c2-1f86-420e-855b-676e159ed831"},"vehicle_type_id":"4","last_reported":1741198400,"current_range_meters":11200,"station_id":"cpo3342slgdg3j2ifvpg","pricing_plan_id":"cebpf4jnsgd1na2vs0mg"},{"bike_id":"096f3379-de9c-4ed9-9eb1-687fd3153fa6","system_id":"levelo_inurba_marseille","lat":43.2816,"lon":5.42684,"is_reserved":false,"is_disabled":false,"rental_uris":{"android":"levelo://app?vid=096f3379-de9c-4ed9-9eb1-687fd3153fa6","ios":"levelo://app?vid=096f3379-de9c-4ed9-9eb1-687fd3153fa6"},"vehicle_type_id":"4","last_reported":1741198400,"current_range_meters":11200,"station_id":"ce4bhnh2rcd13ifvqgug","pricing_plan_id":"cebpf4jnsgd1na2vs0mg"},{"bike_id":"b55493c7-4d8e-4bb0-bafd-0a91f901619b","system_id":"levelo_inurba_marseille","lat":43.28705,"lon":5.37388,"is_reserved":false,"is_disabled":false,"rental_uris":{"android":"levelo://app?vid=b55493c7-4d8e-4bb0-bafd-0a91f901619b","ios":"levelo://app?vid=b55493c7-4d8e-4bb0-bafd-0a91f901619b"},"vehicle_type_id":"4","last_reported":1741198400,"current_range_meters":11200,"station_id":"ce4bh3p2rcd13ifvqdq0","pricing_plan_id":"cebpf4jnsgd1na2vs0mg"},{"bike_id":"a458fb4b-0058-4243-852d-ee2659fe09d5","system_id":"levelo_inurba_marseille","lat":43.29262,"lon":5.40902,"is_reserved":false,"is_disabled":false,"rental_uris":{"android":"levelo://app?vid=a458fb4b-0058-4243-852d-ee2659fe09d5","ios":"levelo://app?vid=a458fb4b-0058-4243-852d-ee2659fe09d5"},"vehicle_type_id":"4","last_reported":1741198400,"current_range_meters":11200,"station_id":"ce4bh192rcd13ifvqdc0","pricing_plan_id":"cebpf4jnsgd1na2vs0mg"},{"bike_id":"f3119dba-5bc0-41ff-9bfc-a1a47b4a2aad","system_id":"levelo_inurba_marseille","lat":43.25727,"lon":5.41105,"is_reserved":false,"is_disabled":false,"rental_uris":{"android":"levelo://app?vid=f3119dba-5bc0-41ff-9bfc-a1a47b4a2aad","ios":"levelo://app?vid=f3119dba-5bc0-41ff-9bfc-a1a47b4a2aad"},"vehicle_type_id":"4","last_reported":1741198400,"current_range_meters":11600,"station_id":"ce4bhkp2rcd13ifvqgd0","pricing_plan_id":"cebpf4jnsgd1na2vs0mg"},{"bike_id":"4fa2367f-2800-4095-846f-8dfaf5277c49","system_id":"levelo_inurba_marseille","lat":43.30436,"lon":5.41305,"is_reserved":false,"is_disabled":false,"rental_uris":{"android":"levelo://app?vid=4fa2367f-2800-4095-846f-8dfaf5277c49","ios":"levelo://app?vid=4fa2367f-2800-4095-846f-8dfaf5277c49"},"vehicle_type_id":"4","last_reported":1741198400,"current_range_meters":11200,"station_id":"ce4bhop2rcd13ifvqh8g","pricing_plan_id":"cebpf4jnsgd1na2vs0mg"},{"bike_id":"671bd4c4-727e-4907-9a66-4c645ff87319","system_id":"levelo_inurba_marseille","lat":43.30911,"lon":5.36848,"is_reserved":false,"is_disabled":false,"rental_uris":{"android":"levelo://app?vid=671bd4c4-727e-4907-9a66-4c645ff87319","ios":"levelo://app?vid=671bd4c4-727e-4907-9a66-4c645ff87319"},"vehicle_type_id":"4","last_reported":1741198400,"current_range_meters":11600,"station_id":"ce4bgn92rcd13ifvqbvg","pricing_plan_id":"cebpf4jnsgd1na2vs0mg"},{"bike_id":"e06c9e42-b5a9-4c0c-bdaf-82bd2f03054e","system_id":"levelo_inurba_marseille","lat":43.29539,"lon":5.39017,"is_reserved":false,"is_disabled":false,"rental_uris":{"android":"levelo://app?vid=e06c9e42-b5a9-4c0c-bdaf-82bd2f03054e","ios":"levelo://app?vid=e06c9e42-b5a9-4c0c-bdaf-82bd2f03054e"},"vehicle_type_id":"4","last_reported":1741198400,"current_range_meters":12000,"station_id":"ce4bh3p2rcd13ifvqdp0","pricing_plan_id":"cebpf4jnsgd1na2vs0mg"},{"bike_id":"edb3884d-abcd-4560-8dc9-302df86773ce","system_id":"levelo_inurba_marseille","lat":43.28932,"lon":5.3663,"is_reserved":false,"is_disabled":false,"rental_uris":{"android":"levelo://app?vid=edb3884d-abcd-4560-8dc9-302df86773ce","ios":"levelo://app?vid=edb3884d-abcd-4560-8dc9-302df86773ce"},"vehicle_type_id":"4","last_reported":1741198400,"current_range_meters":12000,"station_id":"ce4bhap2rcd13ifvqek0","pricing_plan_id":"cebpf4jnsgd1na2vs0mg"},{"bike_id":"4b37d7b2-e4f0-4881-ae4a-14e74b2ab8e7","system_id":"levelo_inurba_marseille","lat":43.29466,"lon":5.39752,"is_reserved":false,"is_disabled":true,"rental_uris":{"android":"levelo://app?vid=4b37d7b2-e4f0-4881-ae4a-14e74b2ab8e7","ios":"levelo://app?vid=4b37d7b2-e4f0-4881-ae4a-14e74b2ab8e7"},"vehicle_type_id":"4","last_reported":1741198400,"current_range_meters":12000,"station_id":"ce4bh3h2rcd13ifvqdo0","pricing_plan_id":"cebpf4jnsgd1na2vs0mg"},{"bike_id":"7be10eac-e616-4904-8cdc-c543b04d589f","system_id":"levelo_inurba_marseille","lat":43.24159,"lon":5.36407,"is_reserved":false,"is_disabled":false,"rental_uris":{"android":"levelo://app?vid=7be10eac-e616-4904-8cdc-c543b04d589f","ios":"levelo://app?vid=7be10eac-e616-4904-8cdc-c543b04d589f"},"vehicle_type_id":"4","last_reported":1741198400,"current_range_meters":12000,"station_id":"cpo36qri1sfpv3e86is0","pricing_plan_id":"cebpf4jnsgd1na2vs0mg"},{"bike_id":"57e6a185-2428-4ef5-91d1-85cc93dd0e5f","system_id":"levelo_inurba_marseille","lat":43.23193,"lon":5.39983,"is_reserved":false,"is_disabled":true,"rental_uris":{"android":"levelo://app?vid=57e6a185-2428-4ef5-91d1-85cc93dd0e5f","ios":"levelo://app?vid=57e6a185-2428-4ef5-91d1-85cc93dd0e5f"},"vehicle_type_id":"4","last_reported":1741198400,"current_range_meters":11600,"station_id":"ce4bhn12rcd13ifvqgqg","pricing_plan_id":"cebpf4jnsgd1na2vs0mg"},{"bike_id":"91c2771c-51f0-4c62-9006-a19d952b2e70","system_id":"levelo_inurba_marseille","lat":43.29036,"lon":5.38632,"is_reserved":false,"is_disabled":false,"rental_uris":{"android":"levelo://app?vid=91c2771c-51f0-4c62-9006-a19d952b2e70","ios":"levelo://app?vid=91c2771c-51f0-4c62-9006-a19d952b2e70"},"vehicle_type_id":"4","last_reported":1741198400,"current_range_meters":12000,"station_id":"ce4bh4p2rcd13ifvqe0g","pricing_plan_id":"cebpf4jnsgd1na2vs0mg"},{"bike_id":"5ac4f2f6-ecee-491a-adf1-9f82e84f2fca","system_id":"levelo_inurba_marseille","lat":43.30612,"lon":5.37225,"is_reserved":false,"is_disabled":false,"rental_uris":{"android":"levelo://app?vid=5ac4f2f6-ecee-491a-adf1-9f82e84f2fca","ios":"levelo://app?vid=5ac4f2f6-ecee-491a-adf1-9f82e84f2fca"},"vehicle_type_id":"4","last_reported":1741198400,"current_range_meters":12000,"station_id":"ce4bgqh2rcd13ifvqc4g","pricing_plan_id":"cebpf4jnsgd1na2vs0mg"},{"bike_id":"02f897d1-4db5-4615-b60f-9d398a36fe5d","system_id":"levelo_inurba_marseille","lat":43.26403,"lon":5.37367,"is_reserved":false,"is_disabled":false,"rental_uris":{"android":"levelo://app?vid=02f897d1-4db5-4615-b60f-9d398a36fe5d","ios":"levelo://app?vid=02f897d1-4db5-4615-b60f-9d398a36fe5d"},"vehicle_type_id":"4","last_reported":1741198400,"current_range_meters":11600,"station_id":"ce4bhnp2rcd13ifvqgvg","pricing_plan_id":"cebpf4jnsgd1na2vs0mg"},{"bike_id":"d7184b7d-81b1-4152-8eec-6faee4073379","system_id":"levelo_inurba_marseille","lat":43.28408,"lon":5.37518,"is_reserved":false,"is_disabled":false,"rental_uris":{"android":"levelo://app?vid=d7184b7d-81b1-4152-8eec-6faee4073379","ios":"levelo://app?vid=d7184b7d-81b1-4152-8eec-6faee4073379"},"vehicle_type_id":"4","last_reported":1741198400,"current_range_meters":12000,"station_id":"ce4bh412rcd13ifvqds0","pricing_plan_id":"cebpf4jnsgd1na2vs0mg"},{"bike_id":"b4665203-a73a-4b0d-a39c-1d438ff67eaa","system_id":"levelo_inurba_marseille","lat":43.2558,"lon":5.38245,"is_reserved":false,"is_disabled":false,"rental_uris":{"android":"levelo://app?vid=b4665203-a73a-4b0d-a39c-1d438ff67eaa","ios":"levelo://app?vid=b4665203-a73a-4b0d-a39c-1d438ff67eaa"},"vehicle_type_id":"4","last_reported":1741198400,"current_range_meters":12000,"station_id":"ce4bhih2rcd13ifvqfs0","pricing_plan_id":"cebpf4jnsgd1na2vs0mg"},{"bike_id":"9f701087-260c-491c-bf0b-74bb64a614c4","system_id":"levelo_inurba_marseille","lat":43.29701,"lon":5.36594,"is_reserved":false,"is_disabled":false,"rental_uris":{"android":"levelo://app?vid=9f701087-260c-491c-bf0b-74bb64a614c4","ios":"levelo://app?vid=9f701087-260c-491c-bf0b-74bb64a614c4"},"vehicle_type_id":"4","last_reported":1741198400,"current_range_meters":12400,"station_id":"ce4bgn12rcd13ifvqbt0","pricing_plan_id":"cebpf4jnsgd1na2vs0mg"},{"bike_id":"69d42236-f8a7-486e-b4d6-ea420b6ddd0c","system_id":"levelo_inurba_marseille","lat":43.290063,"lon":5.35609,"is_reserved":false,"is_disabled":false,"rental_uris":{"android":"levelo://app?vid=69d42236-f8a7-486e-b4d6-ea420b6ddd0c","ios":"levelo://app?vid=69d42236-f8a7-486e-b4d6-ea420b6ddd0c"},"vehicle_type_id":"4","last_reported":1741198400,"current_range_meters":12400,"station_id":"ce4bhap2rcd13ifvqek0","pricing_plan_id":"cebpf4jnsgd1na2vs0mg"},{"bike_id":"fa98af60-ad58-4ccc-a5a0-6ebd1ae22394","system_id":"levelo_inurba_marseille","lat":43.28106,"lon":5.37904,"is_reserved":false,"is_disabled":false,"rental_uris":{"android":"levelo://app?vid=fa98af60-ad58-4ccc-a5a0-6ebd1ae22394","ios":"levelo://app?vid=fa98af60-ad58-4ccc-a5a0-6ebd1ae22394"},"vehicle_type_id":"4","last_reported":1741198400,"current_range_meters":12400,"station_id":"","pricing_plan_id":"cebpf4jnsgd1na2vs0mg"},{"bike_id":"f7b9478b-d65a-41ab-9df1-61c31022d0c6","system_id":"levelo_inurba_marseille","lat":43.27211,"lon":5.39178,"is_reserved":false,"is_disabled":false,"rental_uris":{"android":"levelo://app?vid=f7b9478b-d65a-41ab-9df1-61c31022d0c6","ios":"levelo://app?vid=f7b9478b-d65a-41ab-9df1-61c31022d0c6"},"vehicle_type_id":"4","last_reported":1741198400,"current_range_meters":12400,"station_id":"ce4bhhp2rcd13ifvqfm0","pricing_plan_id":"cebpf4jnsgd1na2vs0mg"},{"bike_id":"8dd8b004-e704-496a-935d-9c1fcdff448c","system_id":"levelo_inurba_marseille","lat":43.28441,"lon":5.39202,"is_reserved":false,"is_disabled":false,"rental_uris":{"android":"levelo://app?vid=8dd8b004-e704-496a-935d-9c1fcdff448c","ios":"levelo://app?vid=8dd8b004-e704-496a-935d-9c1fcdff448c"},"vehicle_type_id":"4","last_reported":1741198400,"current_range_meters":12800,"station_id":"ce4bhoh2rcd13ifvqh5g","pricing_plan_id":"cebpf4jnsgd1na2vs0mg"},{"bike_id":"d7d627c7-6e42-4189-bed3-dca6d6391553","system_id":"levelo_inurba_marseille","lat":43.30605,"lon":5.37222,"is_reserved":false,"is_disabled":false,"rental_uris":{"android":"levelo://app?vid=d7d627c7-6e42-4189-bed3-dca6d6391553","ios":"levelo://app?vid=d7d627c7-6e42-4189-bed3-dca6d6391553"},"vehicle_type_id":"4","last_reported":1741198400,"current_range_meters":12800,"station_id":"ce4bgqh2rcd13ifvqc4g","pricing_plan_id":"cebpf4jnsgd1na2vs0mg"},{"bike_id":"42f3fd83-d5cd-45ba-afcf-0a822294d812","system_id":"levelo_inurba_marseille","lat":43.28546,"lon":5.43001,"is_reserved":false,"is_disabled":true,"rental_uris":{"android":"levelo://app?vid=42f3fd83-d5cd-45ba-afcf-0a822294d812","ios":"levelo://app?vid=42f3fd83-d5cd-45ba-afcf-0a822294d812"},"vehicle_type_id":"4","last_reported":1741198400,"current_range_meters":12800,"station_id":"","pricing_plan_id":"cebpf4jnsgd1na2vs0mg"},{"bike_id":"19707f4e-57a0-487d-a0fd-b6e158a12fa5","system_id":"levelo_inurba_marseille","lat":43.28105,"lon":5.37833,"is_reserved":false,"is_disabled":false,"rental_uris":{"android":"levelo://app?vid=19707f4e-57a0-487d-a0fd-b6e158a12fa5","ios":"levelo://app?vid=19707f4e-57a0-487d-a0fd-b6e158a12fa5"},"vehicle_type_id":"4","last_reported":1741198400,"current_range_meters":12800,"station_id":"ce4bha12rcd13ifvqee0","pricing_plan_id":"cebpf4jnsgd1na2vs0mg"},{"bike_id":"384c3585-6428-4fef-8005-8c81519fed74","system_id":"levelo_inurba_marseille","lat":43.29289,"lon":5.37623,"is_reserved":false,"is_disabled":false,"rental_uris":{"android":"levelo://app?vid=384c3585-6428-4fef-8005-8c81519fed74","ios":"levelo://app?vid=384c3585-6428-4fef-8005-8c81519fed74"},"vehicle_type_id":"4","last_reported":1741198400,"current_range_meters":12800,"station_id":"ce4bgi12rcd13ifvqb80","pricing_plan_id":"cebpf4jnsgd1na2vs0mg"},{"bike_id":"05553d27-9d66-4638-92ef-a6a9a9674f7b","system_id":"levelo_inurba_marseille","lat":43.29971,"lon":5.38487,"is_reserved":false,"is_disabled":false,"rental_uris":{"android":"levelo://app?vid=05553d27-9d66-4638-92ef-a6a9a9674f7b","ios":"levelo://app?vid=05553d27-9d66-4638-92ef-a6a9a9674f7b"},"vehicle_type_id":"4","last_reported":1741198400,"current_range_meters":13600,"station_id":"ce4bgj92rcd13ifvqbd0","pricing_plan_id":"cebpf4jnsgd1na2vs0mg"},{"bike_id":"1cfc9c5f-54af-40e6-8245-4f580f3f70f1","system_id":"levelo_inurba_marseille","lat":43.33025,"lon":5.39056,"is_reserved":false,"is_disabled":false,"rental_uris":{"android":"levelo://app?vid=1cfc9c5f-54af-40e6-8245-4f580f3f70f1","ios":"levelo://app?vid=1cfc9c5f-54af-40e6-8245-4f580f3f70f1"},"vehicle_type_id":"4","last_reported":1741198400,"current_range_meters":13600,"station_id":"ce4bhr92rcd13ifvqhrg","pricing_plan_id":"cebpf4jnsgd1na2vs0mg"},{"bike_id":"56f754e3-91ff-4b5a-9364-2e7c8166cfe6","system_id":"levelo_inurba_marseille","lat":43.30535,"lon":5.36708,"is_reserved":false,"is_disabled":false,"rental_uris":{"android":"levelo://app?vid=56f754e3-91ff-4b5a-9364-2e7c8166cfe6","ios":"levelo://app?vid=56f754e3-91ff-4b5a-9364-2e7c8166cfe6"},"vehicle_type_id":"4","last_reported":1741198400,"current_range_meters":12800,"station_id":"ce4bgrp2rcd13ifvqc9g","pricing_plan_id":"cebpf4jnsgd1na2vs0mg"},{"bike_id":"b74619c2-3074-40f5-9d3b-a97d1819bf2d","system_id":"levelo_inurba_marseille","lat":43.280452,"lon":5.387167,"is_reserved":false,"is_disabled":false,"rental_uris":{"android":"levelo://app?vid=b74619c2-3074-40f5-9d3b-a97d1819bf2d","ios":"levelo://app?vid=b74619c2-3074-40f5-9d3b-a97d1819bf2d"},"vehicle_type_id":"4","last_reported":1741198400,"current_range_meters":13600,"station_id":"ce4bh112rcd13ifvqda0","pricing_plan_id":"cebpf4jnsgd1na2vs0mg"},{"bike_id":"8533693c-0063-42c5-9513-7530ec39fbf9","system_id":"levelo_inurba_marseille","lat":43.30317,"lon":5.40426,"is_reserved":false,"is_disabled":false,"rental_uris":{"android":"levelo://app?vid=8533693c-0063-42c5-9513-7530ec39fbf9","ios":"levelo://app?vid=8533693c-0063-42c5-9513-7530ec39fbf9"},"vehicle_type_id":"4","last_reported":1741198400,"current_range_meters":14000,"station_id":"ce4bh012rcd13ifvqd10","pricing_plan_id":"cebpf4jnsgd1na2vs0mg"},{"bike_id":"cef97120-01b4-4b93-8ce3-259e2a89e4a6","system_id":"levelo_inurba_marseille","lat":43.27846,"lon":5.39202,"is_reserved":false,"is_disabled":false,"rental_uris":{"android":"levelo://app?vid=cef97120-01b4-4b93-8ce3-259e2a89e4a6","ios":"levelo://app?vid=cef97120-01b4-4b93-8ce3-259e2a89e4a6"},"vehicle_type_id":"4","last_reported":1741198400,"current_range_meters":14000,"station_id":"ce4bhjp2rcd13ifvqga0","pricing_plan_id":"cebpf4jnsgd1na2vs0mg"},{"bike_id":"35dbc12b-7c4a-4f4e-93ba-2426ff6650c8","system_id":"levelo_inurba_marseille","lat":43.29285,"lon":5.40122,"is_reserved":false,"is_disabled":false,"rental_uris":{"android":"levelo://app?vid=35dbc12b-7c4a-4f4e-93ba-2426ff6650c8","ios":"levelo://app?vid=35dbc12b-7c4a-4f4e-93ba-2426ff6650c8"},"vehicle_type_id":"4","last_reported":1741198400,"current_range_meters":14000,"station_id":"ce4bh312rcd13ifvqdk0","pricing_plan_id":"cebpf4jnsgd1na2vs0mg"},{"bike_id":"c1ce2d81-0042-49a8-9481-22ce85b2d57a","system_id":"levelo_inurba_marseille","lat":43.27812,"lon":5.40713,"is_reserved":false,"is_disabled":false,"rental_uris":{"android":"levelo://app?vid=c1ce2d81-0042-49a8-9481-22ce85b2d57a","ios":"levelo://app?vid=c1ce2d81-0042-49a8-9481-22ce85b2d57a"},"vehicle_type_id":"4","last_reported":1741198400,"current_range_meters":13600,"station_id":"ce4bhnh2rcd13ifvqgtg","pricing_plan_id":"cebpf4jnsgd1na2vs0mg"},{"bike_id":"deccb326-0579-4f88-8ded-8a796f163b88","system_id":"levelo_inurba_marseille","lat":43.31425,"lon":5.37603,"is_reserved":false,"is_disabled":false,"rental_uris":{"android":"levelo://app?vid=deccb326-0579-4f88-8ded-8a796f163b88","ios":"levelo://app?vid=deccb326-0579-4f88-8ded-8a796f163b88"},"vehicle_type_id":"4","last_reported":1741198400,"current_range_meters":14000,"station_id":"","pricing_plan_id":"cebpf4jnsgd1na2vs0mg"},{"bike_id":"cb8b5570-1381-45e4-b6cf-26831847f4ba","system_id":"levelo_inurba_marseille","lat":43.27993,"lon":5.40016,"is_reserved":false,"is_disabled":false,"rental_uris":{"android":"levelo://app?vid=cb8b5570-1381-45e4-b6cf-26831847f4ba","ios":"levelo://app?vid=cb8b5570-1381-45e4-b6cf-26831847f4ba"},"vehicle_type_id":"4","last_reported":1741198400,"current_range_meters":16000,"station_id":"ce4bho92rcd13ifvqh4g","pricing_plan_id":"cebpf4jnsgd1na2vs0mg"},{"bike_id":"f939dc29-ba41-4ceb-8211-876a124c9979","system_id":"levelo_inurba_marseille","lat":43.28618,"lon":5.35106,"is_reserved":false,"is_disabled":false,"rental_uris":{"android":"levelo://app?vid=f939dc29-ba41-4ceb-8211-876a124c9979","ios":"levelo://app?vid=f939dc29-ba41-4ceb-8211-876a124c9979"},"vehicle_type_id":"4","last_reported":1741198400,"current_range_meters":14000,"station_id":"ce4bhch2rcd13ifvqeug","pricing_plan_id":"cebpf4jnsgd1na2vs0mg"},{"bike_id":"4c913d6a-0896-4a92-b978-d4b9a5867316","system_id":"levelo_inurba_marseille","lat":43.307197,"lon":5.371704,"is_reserved":false,"is_disabled":false,"rental_uris":{"android":"levelo://app?vid=4c913d6a-0896-4a92-b978-d4b9a5867316","ios":"levelo://app?vid=4c913d6a-0896-4a92-b978-d4b9a5867316"},"vehicle_type_id":"4","last_reported":1741198400,"current_range_meters":14000,"station_id":"ce4bgqh2rcd13ifvqc4g","pricing_plan_id":"cebpf4jnsgd1na2vs0mg"},{"bike_id":"2903310c-1aeb-4b30-b82c-9133ddeec84f","system_id":"levelo_inurba_marseille","lat":43.30215,"lon":5.39457,"is_reserved":false,"is_disabled":false,"rental_uris":{"android":"levelo://app?vid=2903310c-1aeb-4b30-b82c-9133ddeec84f","ios":"levelo://app?vid=2903310c-1aeb-4b30-b82c-9133ddeec84f"},"vehicle_type_id":"4","last_reported":1741198400,"current_range_meters":14000,"station_id":"ce4bh0p2rcd13ifvqd70","pricing_plan_id":"cebpf4jnsgd1na2vs0mg"},{"bike_id":"f3095e91-f2ef-4b80-b347-82e91abe61dd","system_id":"levelo_inurba_marseille","lat":43.28036,"lon":5.3694,"is_reserved":false,"is_disabled":false,"rental_uris":{"android":"levelo://app?vid=f3095e91-f2ef-4b80-b347-82e91abe61dd","ios":"levelo://app?vid=f3095e91-f2ef-4b80-b347-82e91abe61dd"},"vehicle_type_id":"4","last_reported":1741198400,"current_range_meters":14400,"station_id":"ce4bha12rcd13ifvqef0","pricing_plan_id":"cebpf4jnsgd1na2vs0mg"},{"bike_id":"b6d8163d-e019-417d-be78-abe1df56f4c8","system_id":"levelo_inurba_marseille","lat":43.24659,"lon":5.38154,"is_reserved":false,"is_disabled":false,"rental_uris":{"android":"levelo://app?vid=b6d8163d-e019-417d-be78-abe1df56f4c8","ios":"levelo://app?vid=b6d8163d-e019-417d-be78-abe1df56f4c8"},"vehicle_type_id":"4","last_reported":1741198400,"current_range_meters":14400,"station_id":"ce4bhih2rcd13ifvqfr0","pricing_plan_id":"cebpf4jnsgd1na2vs0mg"},{"bike_id":"7f1905bf-da4d-4f13-af14-c5d46804e585","system_id":"levelo_inurba_marseille","lat":43.23186,"lon":5.35567,"is_reserved":false,"is_disabled":false,"rental_uris":{"android":"levelo://app?vid=7f1905bf-da4d-4f13-af14-c5d46804e585","ios":"levelo://app?vid=7f1905bf-da4d-4f13-af14-c5d46804e585"},"vehicle_type_id":"4","last_reported":1741198400,"current_range_meters":14400,"station_id":"ce4bhu92rcd13ifvqi70","pricing_plan_id":"cebpf4jnsgd1na2vs0mg"},{"bike_id":"0b3cb245-c1ab-4265-9e03-36f6b9bfa685","system_id":"levelo_inurba_marseille","lat":43.23063,"lon":5.35497,"is_reserved":false,"is_disabled":false,"rental_uris":{"android":"levelo://app?vid=0b3cb245-c1ab-4265-9e03-36f6b9bfa685","ios":"levelo://app?vid=0b3cb245-c1ab-4265-9e03-36f6b9bfa685"},"vehicle_type_id":"4","last_reported":1741198400,"current_range_meters":14400,"station_id":"cpo3342slgdg3j2ifvpg","pricing_plan_id":"cebpf4jnsgd1na2vs0mg"},{"bike_id":"a08ec54c-f88d-4532-90a1-62c92dc46cf6","system_id":"levelo_inurba_marseille","lat":43.30595,"lon":5.39363,"is_reserved":false,"is_disabled":false,"rental_uris":{"android":"levelo://app?vid=a08ec54c-f88d-4532-90a1-62c92dc46cf6","ios":"levelo://app?vid=a08ec54c-f88d-4532-90a1-62c92dc46cf6"},"vehicle_type_id":"4","last_reported":1741198400,"current_range_meters":14400,"station_id":"ce4bh0p2rcd13ifvqd80","pricing_plan_id":"cebpf4jnsgd1na2vs0mg"},{"bike_id":"3dd0cd9c-0be5-48c0-ab10-3c0616f113f3","system_id":"levelo_inurba_marseille","lat":43.30791,"lon":5.38153,"is_reserved":false,"is_disabled":false,"rental_uris":{"android":"levelo://app?vid=3dd0cd9c-0be5-48c0-ab10-3c0616f113f3","ios":"levelo://app?vid=3dd0cd9c-0be5-48c0-ab10-3c0616f113f3"},"vehicle_type_id":"4","last_reported":1741198400,"current_range_meters":14800,"station_id":"ce4bgt12rcd13ifvqce0","pricing_plan_id":"cebpf4jnsgd1na2vs0mg"},{"bike_id":"5edd20d6-209f-4d31-a75d-923ea6b700d4","system_id":"levelo_inurba_marseille","lat":43.29254,"lon":5.40895,"is_reserved":false,"is_disabled":false,"rental_uris":{"android":"levelo://app?vid=5edd20d6-209f-4d31-a75d-923ea6b700d4","ios":"levelo://app?vid=5edd20d6-209f-4d31-a75d-923ea6b700d4"},"vehicle_type_id":"4","last_reported":1741198400,"current_range_meters":14800,"station_id":"ce4bh192rcd13ifvqdc0","pricing_plan_id":"cebpf4jnsgd1na2vs0mg"},{"bike_id":"536f21cd-c0ff-4961-b103-c12bab658883","system_id":"levelo_inurba_marseille","lat":43.29355,"lon":5.37822,"is_reserved":false,"is_disabled":false,"rental_uris":{"android":"levelo://app?vid=536f21cd-c0ff-4961-b103-c12bab658883","ios":"levelo://app?vid=536f21cd-c0ff-4961-b103-c12bab658883"},"vehicle_type_id":"4","last_reported":1741198400,"current_range_meters":14400,"station_id":"ce4bgjh2rcd13ifvqbf0","pricing_plan_id":"cebpf4jnsgd1na2vs0mg"},{"bike_id":"5981e5fd-8ca3-4e17-921d-10437ee17d35","system_id":"levelo_inurba_marseille","lat":43.24156,"lon":5.36407,"is_reserved":false,"is_disabled":false,"rental_uris":{"android":"levelo://app?vid=5981e5fd-8ca3-4e17-921d-10437ee17d35","ios":"levelo://app?vid=5981e5fd-8ca3-4e17-921d-10437ee17d35"},"vehicle_type_id":"4","last_reported":1741198400,"current_range_meters":15200,"station_id":"cpo36qri1sfpv3e86is0","pricing_plan_id":"cebpf4jnsgd1na2vs0mg"},{"bike_id":"2680f4d0-b162-4434-8d32-5c30967f689a","system_id":"levelo_inurba_marseille","lat":43.27442,"lon":5.39421,"is_reserved":false,"is_disabled":false,"rental_uris":{"android":"levelo://app?vid=2680f4d0-b162-4434-8d32-5c30967f689a","ios":"levelo://app?vid=2680f4d0-b162-4434-8d32-5c30967f689a"},"vehicle_type_id":"4","last_reported":1741198400,"current_range_meters":14400,"station_id":"ce4bhdp2rcd13ifvqf20","pricing_plan_id":"cebpf4jnsgd1na2vs0mg"},{"bike_id":"070f0b28-933a-491f-9593-eed632e613d2","system_id":"levelo_inurba_marseille","lat":43.3376,"lon":5.39236,"is_reserved":false,"is_disabled":false,"rental_uris":{"android":"levelo://app?vid=070f0b28-933a-491f-9593-eed632e613d2","ios":"levelo://app?vid=070f0b28-933a-491f-9593-eed632e613d2"},"vehicle_type_id":"4","last_reported":1741198400,"current_range_meters":14800,"station_id":"ce4bhr92rcd13ifvqhsg","pricing_plan_id":"cebpf4jnsgd1na2vs0mg"},{"bike_id":"5861a610-0d67-432e-8a77-d54811bbebbd","system_id":"levelo_inurba_marseille","lat":43.29978,"lon":5.38495,"is_reserved":false,"is_disabled":false,"rental_uris":{"android":"levelo://app?vid=5861a610-0d67-432e-8a77-d54811bbebbd","ios":"levelo://app?vid=5861a610-0d67-432e-8a77-d54811bbebbd"},"vehicle_type_id":"4","last_reported":1741198400,"current_range_meters":14800,"station_id":"ce4bgj92rcd13ifvqbd0","pricing_plan_id":"cebpf4jnsgd1na2vs0mg"},{"bike_id":"a8eeb0c8-5017-44b7-ac16-a62596ac7b71","system_id":"levelo_inurba_marseille","lat":43.26502,"lon":5.39535,"is_reserved":false,"is_disabled":false,"rental_uris":{"android":"levelo://app?vid=a8eeb0c8-5017-44b7-ac16-a62596ac7b71","ios":"levelo://app?vid=a8eeb0c8-5017-44b7-ac16-a62596ac7b71"},"vehicle_type_id":"4","last_reported":1741198400,"current_range_meters":14800,"station_id":"ce4bhi12rcd13ifvqfq0","pricing_plan_id":"cebpf4jnsgd1na2vs0mg"},{"bike_id":"17dae886-1d0b-400a-9a1b-24fdcb3b74a7","system_id":"levelo_inurba_marseille","lat":43.27809,"lon":5.40713,"is_reserved":false,"is_disabled":false,"rental_uris":{"android":"levelo://app?vid=17dae886-1d0b-400a-9a1b-24fdcb3b74a7","ios":"levelo://app?vid=17dae886-1d0b-400a-9a1b-24fdcb3b74a7"},"vehicle_type_id":"4","last_reported":1741198400,"current_range_meters":14800,"station_id":"ce4bhnh2rcd13ifvqgtg","pricing_plan_id":"cebpf4jnsgd1na2vs0mg"},{"bike_id":"7d4fcc1f-49d1-45e8-bace-9c411a249511","system_id":"levelo_inurba_marseille","lat":43.25818,"lon":5.39432,"is_reserved":false,"is_disabled":false,"rental_uris":{"android":"levelo://app?vid=7d4fcc1f-49d1-45e8-bace-9c411a249511","ios":"levelo://app?vid=7d4fcc1f-49d1-45e8-bace-9c411a249511"},"vehicle_type_id":"4","last_reported":1741198400,"current_range_meters":14800,"station_id":"ce4bhip2rcd13ifvqft0","pricing_plan_id":"cebpf4jnsgd1na2vs0mg"},{"bike_id":"c1b1fb92-60e5-47fc-aa65-178c500cdcf3","system_id":"levelo_inurba_marseille","lat":43.30666,"lon":5.40089,"is_reserved":false,"is_disabled":false,"rental_uris":{"android":"levelo://app?vid=c1b1fb92-60e5-47fc-aa65-178c500cdcf3","ios":"levelo://app?vid=c1b1fb92-60e5-47fc-aa65-178c500cdcf3"},"vehicle_type_id":"4","last_reported":1741198400,"current_range_meters":15200,"station_id":"ce4bh112rcd13ifvqda0","pricing_plan_id":"cebpf4jnsgd1na2vs0mg"},{"bike_id":"f1dea81a-36bc-44f3-b961-41a1734068bf","system_id":"levelo_inurba_marseille","lat":43.27831,"lon":5.39201,"is_reserved":false,"is_disabled":false,"rental_uris":{"android":"levelo://app?vid=f1dea81a-36bc-44f3-b961-41a1734068bf","ios":"levelo://app?vid=f1dea81a-36bc-44f3-b961-41a1734068bf"},"vehicle_type_id":"4","last_reported":1741198400,"current_range_meters":15200,"station_id":"ce4bhjp2rcd13ifvqga0","pricing_plan_id":"cebpf4jnsgd1na2vs0mg"},{"bike_id":"758b3766-7724-480f-82de-d04e03b62e8a","system_id":"levelo_inurba_marseille","lat":43.30321,"lon":5.40441,"is_reserved":false,"is_disabled":false,"rental_uris":{"android":"levelo://app?vid=758b3766-7724-480f-82de-d04e03b62e8a","ios":"levelo://app?vid=758b3766-7724-480f-82de-d04e03b62e8a"},"vehicle_type_id":"4","last_reported":1741198400,"current_range_meters":15200,"station_id":"ce4bh012rcd13ifvqd10","pricing_plan_id":"cebpf4jnsgd1na2vs0mg"},{"bike_id":"fc46b6d5-249f-4e74-8da1-fc6b5af647ab","system_id":"levelo_inurba_marseille","lat":43.29027,"lon":5.38649,"is_reserved":false,"is_disabled":false,"rental_uris":{"android":"levelo://app?vid=fc46b6d5-249f-4e74-8da1-fc6b5af647ab","ios":"levelo://app?vid=fc46b6d5-249f-4e74-8da1-fc6b5af647ab"},"vehicle_type_id":"4","last_reported":1741198400,"current_range_meters":15200,"station_id":"ce4bh4p2rcd13ifvqe0g","pricing_plan_id":"cebpf4jnsgd1na2vs0mg"},{"bike_id":"e8cbaac3-952f-4800-b3a9-2adfe6ca004d","system_id":"levelo_inurba_marseille","lat":43.30298,"lon":5.36894,"is_reserved":false,"is_disabled":false,"rental_uris":{"android":"levelo://app?vid=e8cbaac3-952f-4800-b3a9-2adfe6ca004d","ios":"levelo://app?vid=e8cbaac3-952f-4800-b3a9-2adfe6ca004d"},"vehicle_type_id":"4","last_reported":1741198400,"current_range_meters":16000,"station_id":"ce4bgqh2rcd13ifvqc5g","pricing_plan_id":"cebpf4jnsgd1na2vs0mg"},{"bike_id":"2a3fe4f5-72a6-4a4d-bfb1-f7113aacc254","system_id":"levelo_inurba_marseille","lat":43.31364,"lon":5.38496,"is_reserved":false,"is_disabled":false,"rental_uris":{"android":"levelo://app?vid=2a3fe4f5-72a6-4a4d-bfb1-f7113aacc254","ios":"levelo://app?vid=2a3fe4f5-72a6-4a4d-bfb1-f7113aacc254"},"vehicle_type_id":"4","last_reported":1741198400,"current_range_meters":16000,"station_id":"ce4bgt92rcd13ifvqcf0","pricing_plan_id":"cebpf4jnsgd1na2vs0mg"},{"bike_id":"3b08d6db-8175-4d39-a8f0-4c02bd8e5733","system_id":"levelo_inurba_marseille","lat":43.23192,"lon":5.39966,"is_reserved":false,"is_disabled":false,"rental_uris":{"android":"levelo://app?vid=3b08d6db-8175-4d39-a8f0-4c02bd8e5733","ios":"levelo://app?vid=3b08d6db-8175-4d39-a8f0-4c02bd8e5733"},"vehicle_type_id":"4","last_reported":1741198400,"current_range_meters":16000,"station_id":"ce4bhn12rcd13ifvqgqg","pricing_plan_id":"cebpf4jnsgd1na2vs0mg"},{"bike_id":"25cb671c-36c0-4eb7-a4d4-50d322afc0ed","system_id":"levelo_inurba_marseille","lat":43.30257,"lon":5.40075,"is_reserved":false,"is_disabled":false,"rental_uris":{"android":"levelo://app?vid=25cb671c-36c0-4eb7-a4d4-50d322afc0ed","ios":"levelo://app?vid=25cb671c-36c0-4eb7-a4d4-50d322afc0ed"},"vehicle_type_id":"4","last_reported":1741198400,"current_range_meters":16000,"station_id":"ce4bgvh2rcd13ifvqcs0","pricing_plan_id":"cebpf4jnsgd1na2vs0mg"},{"bike_id":"ce473dce-350e-446f-ab87-47f1bb7bb4dd","system_id":"levelo_inurba_marseille","lat":43.28003,"lon":5.40033,"is_reserved":false,"is_disabled":false,"rental_uris":{"android":"levelo://app?vid=ce473dce-350e-446f-ab87-47f1bb7bb4dd","ios":"levelo://app?vid=ce473dce-350e-446f-ab87-47f1bb7bb4dd"},"vehicle_type_id":"4","last_reported":1741198400,"current_range_meters":16000,"station_id":"ce4bho92rcd13ifvqh4g","pricing_plan_id":"cebpf4jnsgd1na2vs0mg"},{"bike_id":"440bdf52-ad69-44c5-9310-d53b700dd600","system_id":"levelo_inurba_marseille","lat":43.29442,"lon":5.39754,"is_reserved":false,"is_disabled":false,"rental_uris":{"android":"levelo://app?vid=440bdf52-ad69-44c5-9310-d53b700dd600","ios":"levelo://app?vid=440bdf52-ad69-44c5-9310-d53b700dd600"},"vehicle_type_id":"4","last_reported":1741198400,"current_range_meters":16000,"station_id":"ce4bh3h2rcd13ifvqdo0","pricing_plan_id":"cebpf4jnsgd1na2vs0mg"},{"bike_id":"e8380695-7864-489d-9ecd-73c6ae40fe80","system_id":"levelo_inurba_marseille","lat":43.30323,"lon":5.40427,"is_reserved":false,"is_disabled":false,"rental_uris":{"android":"levelo://app?vid=e8380695-7864-489d-9ecd-73c6ae40fe80","ios":"levelo://app?vid=e8380695-7864-489d-9ecd-73c6ae40fe80"},"vehicle_type_id":"4","last_reported":1741198400,"current_range_meters":16000,"station_id":"ce4bh012rcd13ifvqd10","pricing_plan_id":"cebpf4jnsgd1na2vs0mg"},{"bike_id":"2c4adf38-e4d2-4cef-8037-45aae7da693f","system_id":"levelo_inurba_marseille","lat":43.29261,"lon":5.40206,"is_reserved":false,"is_disabled":false,"rental_uris":{"android":"levelo://app?vid=2c4adf38-e4d2-4cef-8037-45aae7da693f","ios":"levelo://app?vid=2c4adf38-e4d2-4cef-8037-45aae7da693f"},"vehicle_type_id":"4","last_reported":1741198400,"current_range_meters":16000,"station_id":"","pricing_plan_id":"cebpf4jnsgd1na2vs0mg"},{"bike_id":"7d719ca4-c8b0-4cfb-8733-4344605eaabc","system_id":"levelo_inurba_marseille","lat":43.27912,"lon":5.39575,"is_reserved":false,"is_disabled":false,"rental_uris":{"android":"levelo://app?vid=7d719ca4-c8b0-4cfb-8733-4344605eaabc","ios":"levelo://app?vid=7d719ca4-c8b0-4cfb-8733-4344605eaabc"},"vehicle_type_id":"4","last_reported":1741198400,"current_range_meters":16000,"station_id":"ce4bhf92rcd13ifvqf40","pricing_plan_id":"cebpf4jnsgd1na2vs0mg"},{"bike_id":"d9b77ce8-14ef-4e87-b6c1-bc32adf33478","system_id":"levelo_inurba_marseille","lat":43.31695,"lon":5.40464,"is_reserved":false,"is_disabled":false,"rental_uris":{"android":"levelo://app?vid=d9b77ce8-14ef-4e87-b6c1-bc32adf33478","ios":"levelo://app?vid=d9b77ce8-14ef-4e87-b6c1-bc32adf33478"},"vehicle_type_id":"4","last_reported":1741198400,"current_range_meters":16000,"station_id":"ce4bh012rcd13ifvqd00","pricing_plan_id":"cebpf4jnsgd1na2vs0mg"},{"bike_id":"cc8a00d1-b99c-42fa-aa8b-de31e34c6325","system_id":"levelo_inurba_marseille","lat":43.24115,"lon":5.37725,"is_reserved":false,"is_disabled":false,"rental_uris":{"android":"levelo://app?vid=cc8a00d1-b99c-42fa-aa8b-de31e34c6325","ios":"levelo://app?vid=cc8a00d1-b99c-42fa-aa8b-de31e34c6325"},"vehicle_type_id":"4","last_reported":1741198400,"current_range_meters":16400,"station_id":"ce4bhnp2rcd13ifvqgvg","pricing_plan_id":"cebpf4jnsgd1na2vs0mg"},{"bike_id":"6b597a10-e900-46f6-8c50-06d500b4a963","system_id":"levelo_inurba_marseille","lat":43.28683,"lon":5.38656,"is_reserved":false,"is_disabled":false,"rental_uris":{"android":"levelo://app?vid=6b597a10-e900-46f6-8c50-06d500b4a963","ios":"levelo://app?vid=6b597a10-e900-46f6-8c50-06d500b4a963"},"vehicle_type_id":"4","last_reported":1741198400,"current_range_meters":16400,"station_id":"ce4bh492rcd13ifvqdug","pricing_plan_id":"cebpf4jnsgd1na2vs0mg"},{"bike_id":"b6a42f2a-3f43-4db6-ae35-3f8d17777453","system_id":"levelo_inurba_marseille","lat":43.2841,"lon":5.34984,"is_reserved":false,"is_disabled":false,"rental_uris":{"android":"levelo://app?vid=b6a42f2a-3f43-4db6-ae35-3f8d17777453","ios":"levelo://app?vid=b6a42f2a-3f43-4db6-ae35-3f8d17777453"},"vehicle_type_id":"4","last_reported":1741198400,"current_range_meters":16400,"station_id":"ce4bhbh2rcd13ifvqepg","pricing_plan_id":"cebpf4jnsgd1na2vs0mg"},{"bike_id":"54527b10-ad81-4d36-90cd-a38f258bdfc4","system_id":"levelo_inurba_marseille","lat":43.31425,"lon":5.37324,"is_reserved":false,"is_disabled":false,"rental_uris":{"android":"levelo://app?vid=54527b10-ad81-4d36-90cd-a38f258bdfc4","ios":"levelo://app?vid=54527b10-ad81-4d36-90cd-a38f258bdfc4"},"vehicle_type_id":"4","last_reported":1741198400,"current_range_meters":16400,"station_id":"","pricing_plan_id":"cebpf4jnsgd1na2vs0mg"},{"bike_id":"3440d45a-a177-4636-830f-a7c2b447ec92","system_id":"levelo_inurba_marseille","lat":43.31756,"lon":5.39018,"is_reserved":false,"is_disabled":false,"rental_uris":{"android":"levelo://app?vid=3440d45a-a177-4636-830f-a7c2b447ec92","ios":"levelo://app?vid=3440d45a-a177-4636-830f-a7c2b447ec92"},"vehicle_type_id":"4","last_reported":1741198400,"current_range_meters":16000,"station_id":"ce4bhqp2rcd13ifvqhng","pricing_plan_id":"cebpf4jnsgd1na2vs0mg"},{"bike_id":"d0a5ce11-e574-4fb0-9d95-87b53d5d83c3","system_id":"levelo_inurba_marseille","lat":43.30433,"lon":5.39736,"is_reserved":false,"is_disabled":false,"rental_uris":{"android":"levelo://app?vid=d0a5ce11-e574-4fb0-9d95-87b53d5d83c3","ios":"levelo://app?vid=d0a5ce11-e574-4fb0-9d95-87b53d5d83c3"},"vehicle_type_id":"4","last_reported":1741198400,"current_range_meters":16400,"station_id":"ce4bh092rcd13ifvqd20","pricing_plan_id":"cebpf4jnsgd1na2vs0mg"},{"bike_id":"630e3698-76c0-4399-916b-1116ecd5ac71","system_id":"levelo_inurba_marseille","lat":43.29031,"lon":5.38641,"is_reserved":false,"is_disabled":false,"rental_uris":{"android":"levelo://app?vid=630e3698-76c0-4399-916b-1116ecd5ac71","ios":"levelo://app?vid=630e3698-76c0-4399-916b-1116ecd5ac71"},"vehicle_type_id":"4","last_reported":1741198400,"current_range_meters":16400,"station_id":"ce4bh4p2rcd13ifvqe0g","pricing_plan_id":"cebpf4jnsgd1na2vs0mg"},{"bike_id":"fe29eea0-d68f-4a80-9fd5-8be01fc1a3af","system_id":"levelo_inurba_marseille","lat":43.29815,"lon":5.36661,"is_reserved":false,"is_disabled":false,"rental_uris":{"android":"levelo://app?vid=fe29eea0-d68f-4a80-9fd5-8be01fc1a3af","ios":"levelo://app?vid=fe29eea0-d68f-4a80-9fd5-8be01fc1a3af"},"vehicle_type_id":"4","last_reported":1741198400,"current_range_meters":16400,"station_id":"","pricing_plan_id":"cebpf4jnsgd1na2vs0mg"},{"bike_id":"263646ce-86d0-4cb4-82c8-55e578b9943c","system_id":"levelo_inurba_marseille","lat":43.31165,"lon":5.38728,"is_reserved":false,"is_disabled":false,"rental_uris":{"android":"levelo://app?vid=263646ce-86d0-4cb4-82c8-55e578b9943c","ios":"levelo://app?vid=263646ce-86d0-4cb4-82c8-55e578b9943c"},"vehicle_type_id":"4","last_reported":1741198400,"current_range_meters":16800,"station_id":"ce4bgv12rcd13ifvqcp0","pricing_plan_id":"cebpf4jnsgd1na2vs0mg"},{"bike_id":"53124212-4b93-42d2-ab36-f8ba0de65f51","system_id":"levelo_inurba_marseille","lat":43.28683,"lon":5.3636,"is_reserved":false,"is_disabled":false,"rental_uris":{"android":"levelo://app?vid=53124212-4b93-42d2-ab36-f8ba0de65f51","ios":"levelo://app?vid=53124212-4b93-42d2-ab36-f8ba0de65f51"},"vehicle_type_id":"4","last_reported":1741198400,"current_range_meters":16400,"station_id":"ce4bhah2rcd13ifvqej0","pricing_plan_id":"cebpf4jnsgd1na2vs0mg"},{"bike_id":"2ee23c4d-b56f-437d-bc00-106fb7070ce7","system_id":"levelo_inurba_marseille","lat":43.27182,"lon":5.40984,"is_reserved":false,"is_disabled":false,"rental_uris":{"android":"levelo://app?vid=2ee23c4d-b56f-437d-bc00-106fb7070ce7","ios":"levelo://app?vid=2ee23c4d-b56f-437d-bc00-106fb7070ce7"},"vehicle_type_id":"4","last_reported":1741198400,"current_range_meters":16800,"station_id":"ce4bhl12rcd13ifvqgf0","pricing_plan_id":"cebpf4jnsgd1na2vs0mg"},{"bike_id":"60036ad5-37ab-4767-927d-5fc4c0505511","system_id":"levelo_inurba_marseille","lat":43.298586,"lon":5.397349,"is_reserved":false,"is_disabled":false,"rental_uris":{"android":"levelo://app?vid=60036ad5-37ab-4767-927d-5fc4c0505511","ios":"levelo://app?vid=60036ad5-37ab-4767-927d-5fc4c0505511"},"vehicle_type_id":"4","last_reported":1741198400,"current_range_meters":16800,"station_id":"ce4bhr92rcd13ifvqhrg","pricing_plan_id":"cebpf4jnsgd1na2vs0mg"},{"bike_id":"fe676f3e-f137-4639-8f0a-ef9e3f79763e","system_id":"levelo_inurba_marseille","lat":43.29271,"lon":5.3907,"is_reserved":false,"is_disabled":false,"rental_uris":{"android":"levelo://app?vid=fe676f3e-f137-4639-8f0a-ef9e3f79763e","ios":"levelo://app?vid=fe676f3e-f137-4639-8f0a-ef9e3f79763e"},"vehicle_type_id":"4","last_reported":1741198400,"current_range_meters":16800,"station_id":"","pricing_plan_id":"cebpf4jnsgd1na2vs0mg"},{"bike_id":"5c3ed66f-7620-412d-a698-d6bf1340a913","system_id":"levelo_inurba_marseille","lat":43.25002,"lon":5.38905,"is_reserved":false,"is_disabled":false,"rental_uris":{"android":"levelo://app?vid=5c3ed66f-7620-412d-a698-d6bf1340a913","ios":"levelo://app?vid=5c3ed66f-7620-412d-a698-d6bf1340a913"},"vehicle_type_id":"4","last_reported":1741198400,"current_range_meters":16800,"station_id":"ce4bhgp2rcd13ifvqfd0","pricing_plan_id":"cebpf4jnsgd1na2vs0mg"},{"bike_id":"cb589359-4ca7-4449-8141-360b0596ddd6","system_id":"levelo_inurba_marseille","lat":43.26208,"lon":5.3744,"is_reserved":false,"is_disabled":false,"rental_uris":{"android":"levelo://app?vid=cb589359-4ca7-4449-8141-360b0596ddd6","ios":"levelo://app?vid=cb589359-4ca7-4449-8141-360b0596ddd6"},"vehicle_type_id":"4","last_reported":1741198400,"current_range_meters":16800,"station_id":"ce4bhgp2rcd13ifvqfc0","pricing_plan_id":"cebpf4jnsgd1na2vs0mg"},{"bike_id":"67827cfc-cc8d-4396-988f-56cb1b82c294","system_id":"levelo_inurba_marseille","lat":43.29195,"lon":5.39334,"is_reserved":false,"is_disabled":false,"rental_uris":{"android":"levelo://app?vid=67827cfc-cc8d-4396-988f-56cb1b82c294","ios":"levelo://app?vid=67827cfc-cc8d-4396-988f-56cb1b82c294"},"vehicle_type_id":"4","last_reported":1741198400,"current_range_meters":16800,"station_id":"ce4bh192rcd13ifvqdd0","pricing_plan_id":"cebpf4jnsgd1na2vs0mg"},{"bike_id":"7cb5d2b6-f1df-489c-aae3-6fd46b81c378","system_id":"levelo_inurba_marseille","lat":43.30808,"lon":5.43536,"is_reserved":false,"is_disabled":false,"rental_uris":{"android":"levelo://app?vid=7cb5d2b6-f1df-489c-aae3-6fd46b81c378","ios":"levelo://app?vid=7cb5d2b6-f1df-489c-aae3-6fd46b81c378"},"vehicle_type_id":"4","last_reported":1741198400,"current_range_meters":16800,"station_id":"ce4bhph2rcd13ifvqheg","pricing_plan_id":"cebpf4jnsgd1na2vs0mg"},{"bike_id":"f050b104-2110-40b6-9d6b-2b302c8f3548","system_id":"levelo_inurba_marseille","lat":43.29187,"lon":5.39314,"is_reserved":false,"is_disabled":false,"rental_uris":{"android":"levelo://app?vid=f050b104-2110-40b6-9d6b-2b302c8f3548","ios":"levelo://app?vid=f050b104-2110-40b6-9d6b-2b302c8f3548"},"vehicle_type_id":"4","last_reported":1741198400,"current_range_meters":16800,"station_id":"ce4bh192rcd13ifvqdd0","pricing_plan_id":"cebpf4jnsgd1na2vs0mg"},{"bike_id":"98a1abc3-601b-4576-b2df-57cfbfeb024d","system_id":"levelo_inurba_marseille","lat":43.28089,"lon":5.37863,"is_reserved":false,"is_disabled":false,"rental_uris":{"android":"levelo://app?vid=98a1abc3-601b-4576-b2df-57cfbfeb024d","ios":"levelo://app?vid=98a1abc3-601b-4576-b2df-57cfbfeb024d"},"vehicle_type_id":"4","last_reported":1741198400,"current_range_meters":16800,"station_id":"ce4bha12rcd13ifvqee0","pricing_plan_id":"cebpf4jnsgd1na2vs0mg"},{"bike_id":"b1ab3816-ea6b-4a50-96b4-c6c7d7ea55bf","system_id":"levelo_inurba_marseille","lat":43.31126,"lon":5.37798,"is_reserved":false,"is_disabled":false,"rental_uris":{"android":"levelo://app?vid=b1ab3816-ea6b-4a50-96b4-c6c7d7ea55bf","ios":"levelo://app?vid=b1ab3816-ea6b-4a50-96b4-c6c7d7ea55bf"},"vehicle_type_id":"4","last_reported":1741198400,"current_range_meters":16800,"station_id":"ce4bgt92rcd13ifvqcg0","pricing_plan_id":"cebpf4jnsgd1na2vs0mg"},{"bike_id":"45122d05-26eb-48f0-9a61-895281fa4f5c","system_id":"levelo_inurba_marseille","lat":43.29264,"lon":5.38434,"is_reserved":false,"is_disabled":false,"rental_uris":{"android":"levelo://app?vid=45122d05-26eb-48f0-9a61-895281fa4f5c","ios":"levelo://app?vid=45122d05-26eb-48f0-9a61-895281fa4f5c"},"vehicle_type_id":"4","last_reported":1741198400,"current_range_meters":16800,"station_id":"ce4bh692rcd13ifvqea0","pricing_plan_id":"cebpf4jnsgd1na2vs0mg"},{"bike_id":"facc43c7-1f50-4fd5-9a7a-9accfe701764","system_id":"levelo_inurba_marseille","lat":43.29975,"lon":5.38484,"is_reserved":false,"is_disabled":false,"rental_uris":{"android":"levelo://app?vid=facc43c7-1f50-4fd5-9a7a-9accfe701764","ios":"levelo://app?vid=facc43c7-1f50-4fd5-9a7a-9accfe701764"},"vehicle_type_id":"4","last_reported":1741198400,"current_range_meters":16800,"station_id":"ce4bgj92rcd13ifvqbd0","pricing_plan_id":"cebpf4jnsgd1na2vs0mg"},{"bike_id":"a1a48d89-2078-4d0d-9e5d-19ed8df8959e","system_id":"levelo_inurba_marseille","lat":43.31365,"lon":5.38489,"is_reserved":false,"is_disabled":false,"rental_uris":{"android":"levelo://app?vid=a1a48d89-2078-4d0d-9e5d-19ed8df8959e","ios":"levelo://app?vid=a1a48d89-2078-4d0d-9e5d-19ed8df8959e"},"vehicle_type_id":"4","last_reported":1741198400,"current_range_meters":16800,"station_id":"ce4bgt92rcd13ifvqcf0","pricing_plan_id":"cebpf4jnsgd1na2vs0mg"},{"bike_id":"a481c59b-4997-4d6d-951c-7e0bec38c53f","system_id":"levelo_inurba_marseille","lat":43.297965,"lon":5.380861,"is_reserved":false,"is_disabled":false,"rental_uris":{"android":"levelo://app?vid=a481c59b-4997-4d6d-951c-7e0bec38c53f","ios":"levelo://app?vid=a481c59b-4997-4d6d-951c-7e0bec38c53f"},"vehicle_type_id":"4","last_reported":1741198400,"current_range_meters":17200,"station_id":"","pricing_plan_id":"cebpf4jnsgd1na2vs0mg"},{"bike_id":"3658a483-7a7a-414f-a6b3-969963871a07","system_id":"levelo_inurba_marseille","lat":43.30659,"lon":5.40073,"is_reserved":false,"is_disabled":false,"rental_uris":{"android":"levelo://app?vid=3658a483-7a7a-414f-a6b3-969963871a07","ios":"levelo://app?vid=3658a483-7a7a-414f-a6b3-969963871a07"},"vehicle_type_id":"4","last_reported":1741198400,"current_range_meters":17200,"station_id":"ce4bh112rcd13ifvqda0","pricing_plan_id":"cebpf4jnsgd1na2vs0mg"},{"bike_id":"692a38cd-c2cf-4ea1-a667-7e9588c48483","system_id":"levelo_inurba_marseille","lat":43.29876,"lon":5.38907,"is_reserved":false,"is_disabled":false,"rental_uris":{"android":"levelo://app?vid=692a38cd-c2cf-4ea1-a667-7e9588c48483","ios":"levelo://app?vid=692a38cd-c2cf-4ea1-a667-7e9588c48483"},"vehicle_type_id":"4","last_reported":1741198400,"current_range_meters":17200,"station_id":"ce4bh392rcd13ifvqdl0","pricing_plan_id":"cebpf4jnsgd1na2vs0mg"},{"bike_id":"52b19b0a-896e-4508-971e-9b8862ef11d0","system_id":"levelo_inurba_marseille","lat":43.23056,"lon":5.35496,"is_reserved":false,"is_disabled":false,"rental_uris":{"android":"levelo://app?vid=52b19b0a-896e-4508-971e-9b8862ef11d0","ios":"levelo://app?vid=52b19b0a-896e-4508-971e-9b8862ef11d0"},"vehicle_type_id":"4","last_reported":1741198400,"current_range_meters":17600,"station_id":"cpo3342slgdg3j2ifvpg","pricing_plan_id":"cebpf4jnsgd1na2vs0mg"},{"bike_id":"647f693b-605b-4363-bcde-d2eec8f91163","system_id":"levelo_inurba_marseille","lat":43.28614,"lon":5.35112,"is_reserved":false,"is_disabled":false,"rental_uris":{"android":"levelo://app?vid=647f693b-605b-4363-bcde-d2eec8f91163","ios":"levelo://app?vid=647f693b-605b-4363-bcde-d2eec8f91163"},