{"last_updated":1721423231,"ttl":30,"version":"2.2","data":{"bikes":[{"bike_id":"d1d81e54-fed9-443c-944a-6820c8a62e66","system_id":"levelo_inurba_marseille","lat":43.31251,"lon":5.36793,"is_reserved":false,"is_disabled":false,"rental_uris":{"android":"levelo://app?vid=d1d81e54-fed9-443c-944a-6820c8a62e66","ios":"levelo://app?vid=d1d81e54-fed9-443c-944a-6820c8a62e66"},"vehicle_type_id":"4","last_reported":1721423231,"current_range_meters":3200,"station_id":"","pricing_plan_id":"cebpf4jnsgd1na2vs0mg"},{"bike_id":"50fd74ee-ab4f-423a-a03d-70960449f00f","system_id":"levelo_inurba_marseille","lat":43.312239,"lon":5.368562,"is_reserved":false,"is_disabled":false,"rental_uris":{"android":"levelo://app?vid=50fd74ee-ab4f-423a-a03d-70960449f00f","ios":"levelo://app?vid=50fd74ee-ab4f-423a-a03d-70960449f00f"},"vehicle_type_id":"4","last_reported":1721423231,"current_range_meters":26400,"station_id":"ce4bgl92rcd13ifvqbq0","pricing_plan_id":"cebpf4jnsgd1na2vs0mg"},{"bike_id":"4ed1534f-9914-4bac-8dba-f32fb671b682","system_id":"levelo_inurba_marseille","lat":43.31225,"lon":5.36867,"is_reserved":false,"is_disabled":false,"rental_uris":{"android":"levelo://app?vid=4ed1534f-9914-4bac-8dba-f32fb671b682","ios":"levelo://app?vid=4ed1534f-9914-4bac-8dba-f32fb671b682"},"vehicle_type_id":"4","last_reported":1721423231,"current_range_meters":0,"station_id":"ce4bgl92rcd13ifvqbq0","pricing_plan_id":"cebpf4jnsgd1na2vs0mg"},{"bike_id":"c4d441aa-eec2-4824-9f06-fde1c220e0f8","system_id":"levelo_inurba_marseille","lat":43.311675,"lon":5.369173,"is_reserved":false,"is_disabled":false,"rental_uris":{"android":"levelo://app?vid=c4d441aa-eec2-4824-9f06-fde1c220e0f8","ios":"levelo://app?vid=c4d441aa-eec2-4824-9f06-fde1c220e0f8"},"vehicle_type_id":"4","last_reported":1721423231,"current_range_meters":0,"station_id":"","pricing_plan_id":"cebpf4jnsgd1na2vs0mg"},{"bike_id":"16f31d3f-7587-4aeb-b4cb-dc19c1607534","system_id":"levelo_inurba_marseille","lat":43.30913,"lon":5.36848,"is_reserved":false,"is_disabled":false,"rental_uris":{"android":"levelo://app?vid=16f31d3f-7587-4aeb-b4cb-dc19c1607534","ios":"levelo://app?vid=16f31d3f-7587-4aeb-b4cb-dc19c1607534"},"vehicle_type_id":"4","last_reported":1721423231,"current_range_meters":20000,"station_id":"ce4bgn92rcd13ifvqbvg","pricing_plan_id":"cebpf4jnsgd1na2vs0mg"},{"bike_id":"1d6e9226-93c2-4840-8e55-965bc114e6fa","system_id":"levelo_inurba_marseille","lat":43.309076,"lon":5.368465,"is_reserved":false,"is_disabled":false,"rental_uris":{"android":"levelo://app?vid=1d6e9226-93c2-4840-8e55-965bc114e6fa","ios":"levelo://app?vid=1d6e9226-93c2-4840-8e55-965bc114e6fa"},"vehicle_type_id":"4","last_reported":1721423231,"current_range_meters":12000,"station_id":"ce4bgn92rcd13ifvqbvg","pricing_plan_id":"cebpf4jnsgd1na2vs0mg"},{"bike_id":"6c2cd865-8a02-4789-b791-4355311422a6","system_id":"levelo_inurba_marseille","lat":43.314811,"lon":5.373103,"is_reserved":false,"is_disabled":false,"rental_uris":{"android":"levelo://app?vid=6c2cd865-8a02-4789-b791-4355311422a6","ios":"levelo://app?vid=6c2cd865-8a02-4789-b791-4355311422a6"},"vehicle_type_id":"4","last_reported":1721423231,"current_range_meters":18000,"station_id":"ce4bgt12rcd13ifvqcd0","pricing_plan_id":"cebpf4jnsgd1na2vs0mg"},{"bike_id":"06bcd577-551c-445a-9cc8-05f998cb490c","system_id":"levelo_inurba_marseille","lat":43.314811,"lon":5.373103,"is_reserved":false,"is_disabled":false,"rental_uris":{"android":"levelo://app?vid=06bcd577-551c-445a-9cc8-05f998cb490c","ios":"levelo://app?vid=06bcd577-551c-445a-9cc8-05f998cb490c"},"vehicle_type_id":"4","last_reported":1721423231,"current_range_meters":14000,"station_id":"ce4bgt12rcd13ifvqcd0","pricing_plan_id":"cebpf4jnsgd1na2vs0mg"},{"bike_id":"35d21f7e-466d-4de6-8ca4-c6d055b77a37","system_id":"levelo_inurba_marseille","lat":43.309034,"lon":5.371783,"is_reserved":false,"is_disabled":false,"rental_uris":{"android":"levelo://app?vid=35d21f7e-466d-4de6-8ca4-c6d055b77a37","ios":"levelo://app?vid=35d21f7e-466d-4de6-8ca4-c6d055b77a37"},"vehicle_type_id":"4","last_reported":1721423231,"current_range_meters":18400,"station_id":"ce4bguh2rcd13ifvqckg","pricing_plan_id":"cebpf4jnsgd1na2vs0mg"},{"bike_id":"6a0b6584-eb40-4fb5-bf4f-656b5a0a44d9","system_id":"levelo_inurba_marseille","lat":43.31411,"lon":5.37382,"is_reserved":false,"is_disabled":false,"rental_uris":{"android":"levelo://app?vid=6a0b6584-eb40-4fb5-bf4f-656b5a0a44d9","ios":"levelo://app?vid=6a0b6584-eb40-4fb5-bf4f-656b5a0a44d9"},"vehicle_type_id":"4","last_reported":1721423231,"current_range_meters":31200,"station_id":"","pricing_plan_id":"cebpf4jnsgd1na2vs0mg"},{"bike_id":"a51688e4-f058-4337-952a-12c571c6059e","system_id":"levelo_inurba_marseille","lat":43.309039,"lon":5.371797,"is_reserved":false,"is_disabled":false,"rental_uris":{"android":"levelo://app?vid=a51688e4-f058-4337-952a-12c571c6059e","ios":"levelo://app?vid=a51688e4-f058-4337-952a-12c571c6059e"},"vehicle_type_id":"4","last_reported":1721423231,"current_range_meters":4800,"station_id":"ce4bguh2rcd13ifvqckg","pricing_plan_id":"cebpf4jnsgd1na2vs0mg"},{"bike_id":"7df8dd4a-c865-4f29-b768-21740d0daaaa","system_id":"levelo_inurba_marseille","lat":43.314495,"lon":5.373782,"is_reserved":false,"is_disabled":false,"rental_uris":{"android":"levelo://app?vid=7df8dd4a-c865-4f29-b768-21740d0daaaa","ios":"levelo://app?vid=7df8dd4a-c865-4f29-b768-21740d0daaaa"},"vehicle_type_id":"4","last_reported":1721423231,"current_range_meters":27200,"station_id":"","pricing_plan_id":"cebpf4jnsgd1na2vs0mg"},{"bike_id":"17b7f4a6-9e33-421c-8d0e-99085ff2049e","system_id":"levelo_inurba_marseille","lat":43.309034,"lon":5.371783,"is_reserved":false,"is_disabled":false,"rental_uris":{"android":"levelo://app?vid=17b7f4a6-9e33-421c-8d0e-99085ff2049e","ios":"levelo://app?vid=17b7f4a6-9e33-421c-8d0e-99085ff2049e"},"vehicle_type_id":"4","last_reported":1721423231,"current_range_meters":29600,"station_id":"ce4bguh2rcd13ifvqckg","pricing_plan_id":"cebpf4jnsgd1na2vs0mg"},{"bike_id":"4f843a89-c095-43ad-810f-70f65d0849d5","system_id":"levelo_inurba_marseille","lat":43.31847,"lon":5.36264,"is_reserved":false,"is_disabled":false,"rental_uris":{"android":"levelo://app?vid=4f843a89-c095-43ad-810f-70f65d0849d5","ios":"levelo://app?vid=4f843a89-c095-43ad-810f-70f65d0849d5"},"vehicle_type_id":"4","last_reported":1721423231,"current_range_meters":7200,"station_id":"","pricing_plan_id":"cebpf4jnsgd1na2vs0mg"},{"bike_id":"70465c97-b6ce-4cce-97b8-8a7b5d6bd44e","system_id":"levelo_inurba_marseille","lat":43.3053,"lon":5.36652,"is_reserved":false,"is_disabled":false,"rental_uris":{"android":"levelo://app?vid=70465c97-b6ce-4cce-97b8-8a7b5d6bd44e","ios":"levelo://app?vid=70465c97-b6ce-4cce-97b8-8a7b5d6bd44e"},"vehicle_type_id":"4","last_reported":1721423231,"current_range_meters":400,"station_id":"","pricing_plan_id":"cebpf4jnsgd1na2vs0mg"},{"bike_id":"577d6d76-c246-4637-bbd8-e12b06a1742c","system_id":"levelo_inurba_marseille","lat":43.305989,"lon":5.37225,"is_reserved":false,"is_disabled":false,"rental_uris":{"android":"levelo://app?vid=577d6d76-c246-4637-bbd8-e12b06a1742c","ios":"levelo://app?vid=577d6d76-c246-4637-bbd8-e12b06a1742c"},"vehicle_type_id":"4","last_reported":1721423231,"current_range_meters":5600,"station_id":"ce4bgqh2rcd13ifvqc4g","pricing_plan_id":"cebpf4jnsgd1na2vs0mg"},{"bike_id":"b3991dfb-f0f3-4434-a002-fdbf038065b7","system_id":"levelo_inurba_marseille","lat":43.305989,"lon":5.37225,"is_reserved":false,"is_disabled":false,"rental_uris":{"android":"levelo://app?vid=b3991dfb-f0f3-4434-a002-fdbf038065b7","ios":"levelo://app?vid=b3991dfb-f0f3-4434-a002-fdbf038065b7"},"vehicle_type_id":"4","last_reported":1721423231,"current_range_meters":21600,"station_id":"ce4bgqh2rcd13ifvqc4g","pricing_plan_id":"cebpf4jnsgd1na2vs0mg"},{"bike_id":"5a38b649-c4a3-4a87-8b83-d5f8140a25f0","system_id":"levelo_inurba_marseille","lat":43.311125,"lon":5.377624,"is_reserved":false,"is_disabled":false,"rental_uris":{"android":"levelo://app?vid=5a38b649-c4a3-4a87-8b83-d5f8140a25f0","ios":"levelo://app?vid=5a38b649-c4a3-4a87-8b83-d5f8140a25f0"},"vehicle_type_id":"4","last_reported":1721423231,"current_range_meters":25200,"station_id":"ce4bgt92rcd13ifvqcg0","pricing_plan_id":"cebpf4jnsgd1na2vs0mg"},{"bike_id":"9bcb0cc3-c5f5-419d-afc7-f6a34ef1164b","system_id":"levelo_inurba_marseille","lat":43.311125,"lon":5.377624,"is_reserved":false,"is_disabled":false,"rental_uris":{"android":"levelo://app?vid=9bcb0cc3-c5f5-419d-afc7-f6a34ef1164b","ios":"levelo://app?vid=9bcb0cc3-c5f5-419d-afc7-f6a34ef1164b"},"vehicle_type_id":"4","last_reported":1721423231,"current_range_meters":6000,"station_id":"ce4bgt92rcd13ifvqcg0","pricing_plan_id":"cebpf4jnsgd1na2vs0mg"},{"bike_id":"e0ea86ac-8dbb-4e2c-b224-487af0cec72f","system_id":"levelo_inurba_marseille","lat":43.31119,"lon":5.37764,"is_reserved":false,"is_disabled":false,"rental_uris":{"android":"levelo://app?vid=e0ea86ac-8dbb-4e2c-b224-487af0cec72f","ios":"levelo://app?vid=e0ea86ac-8dbb-4e2c-b224-487af0cec72f"},"vehicle_type_id":"4","last_reported":1721423231,"current_range_meters":0,"station_id":"ce4bgt92rcd13ifvqcg0","pricing_plan_id":"cebpf4jnsgd1na2vs0mg"},{"bike_id":"1e4c971e-9fbc-4df7-ad21-7c3763306cc8","system_id":"levelo_inurba_marseille","lat":43.311125,"lon":5.377624,"is_reserved":false,"is_disabled":false,"rental_uris":{"android":"levelo://app?vid=1e4c971e-9fbc-4df7-ad21-7c3763306cc8","ios":"levelo://app?vid=1e4c971e-9fbc-4df7-ad21-7c3763306cc8"},"vehicle_type_id":"4","last_reported":1721423231,"current_range_meters":0,"station_id":"ce4bgt92rcd13ifvqcg0","pricing_plan_id":"cebpf4jnsgd1na2vs0mg"},{"bike_id":"b067d8fe-cccc-48b7-a4c5-e9ef299b656b","system_id":"levelo_inurba_marseille","lat":43.311125,"lon":5.377624,"is_reserved":false,"is_disabled":false,"rental_uris":{"android":"levelo://app?vid=b067d8fe-cccc-48b7-a4c5-e9ef299b656b","ios":"levelo://app?vid=b067d8fe-cccc-48b7-a4c5-e9ef299b656b"},"vehicle_type_id":"4","last_reported":1721423231,"current_range_meters":6000,"station_id":"ce4bgt92rcd13ifvqcg0","pricing_plan_id":"cebpf4jnsgd1na2vs0mg"},{"bike_id":"7113dc9a-23ac-4dc4-8223-4de8b965c866","system_id":"levelo_inurba_marseille","lat":43.311131,"lon":5.377651,"is_reserved":false,"is_disabled":false,"rental_uris":{"android":"levelo://app?vid=7113dc9a-23ac-4dc4-8223-4de8b965c866","ios":"levelo://app?vid=7113dc9a-23ac-4dc4-8223-4de8b965c866"},"vehicle_type_id":"4","last_reported":1721423231,"current_range_meters":0,"station_id":"ce4bgt92rcd13ifvqcg0","pricing_plan_id":"cebpf4jnsgd1na2vs0mg"},{"bike_id":"c3445e8e-573b-4cde-914d-8d6d4bece72b","system_id":"levelo_inurba_marseille","lat":43.311125,"lon":5.377624,"is_reserved":false,"is_disabled":false,"rental_uris":{"android":"levelo://app?vid=c3445e8e-573b-4cde-914d-8d6d4bece72b","ios":"levelo://app?vid=c3445e8e-573b-4cde-914d-8d6d4bece72b"},"vehicle_type_id":"4","last_reported":1721423231,"current_range_meters":24000,"station_id":"ce4bgt92rcd13ifvqcg0","pricing_plan_id":"cebpf4jnsgd1na2vs0mg"},{"bike_id":"d51d3ca4-77a1-4664-b706-cbfc27c5bce9","system_id":"levelo_inurba_marseille","lat":43.311131,"lon":5.377651,"is_reserved":false,"is_disabled":false,"rental_uris":{"android":"levelo://app?vid=d51d3ca4-77a1-4664-b706-cbfc27c5bce9","ios":"levelo://app?vid=d51d3ca4-77a1-4664-b706-cbfc27c5bce9"},"vehicle_type_id":"4","last_reported":1721423231,"current_range_meters":14800,"station_id":"ce4bgt92rcd13ifvqcg0","pricing_plan_id":"cebpf4jnsgd1na2vs0mg"},{"bike_id":"fc6701f1-bac0-467d-b51c-832ea961b7b7","system_id":"levelo_inurba_marseille","lat":43.317075,"lon":5.377367,"is_reserved":false,"is_disabled":false,"rental_uris":{"android":"levelo://app?vid=fc6701f1-bac0-467d-b51c-832ea961b7b7","ios":"levelo://app?vid=fc6701f1-bac0-467d-b51c-832ea961b7b7"},"vehicle_type_id":"4","last_reported":1721423231,"current_range_meters":9200,"station_id":"ce4bgth2rcd13ifvqch0","pricing_plan_id":"cebpf4jnsgd1na2vs0mg"},{"bike_id":"e2b1ab6d-de08-4b2c-8e36-a43396f774b7","system_id":"levelo_inurba_marseille","lat":43.317075,"lon":5.377367,"is_reserved":false,"is_disabled":false,"rental_uris":{"android":"levelo://app?vid=e2b1ab6d-de08-4b2c-8e36-a43396f774b7","ios":"levelo://app?vid=e2b1ab6d-de08-4b2c-8e36-a43396f774b7"},"vehicle_type_id":"4","last_reported":1721423231,"current_range_meters":29200,"station_id":"ce4bgth2rcd13ifvqch0","pricing_plan_id":"cebpf4jnsgd1na2vs0mg"},{"bike_id":"ec688d6b-b512-4e5a-8798-da96e5645617","system_id":"levelo_inurba_marseille","lat":43.303046,"lon":5.368981,"is_reserved":false,"is_disabled":false,"rental_uris":{"android":"levelo://app?vid=ec688d6b-b512-4e5a-8798-da96e5645617","ios":"levelo://app?vid=ec688d6b-b512-4e5a-8798-da96e5645617"},"vehicle_type_id":"4","last_reported":1721423231,"current_range_meters":30000,"station_id":"ce4bgqh2rcd13ifvqc5g","pricing_plan_id":"cebpf4jnsgd1na2vs0mg"},{"bike_id":"612a0799-94f4-461b-8ea8-092205ed76db","system_id":"levelo_inurba_marseille","lat":43.30304,"lon":5.368987,"is_reserved":false,"is_disabled":false,"rental_uris":{"android":"levelo://app?vid=612a0799-94f4-461b-8ea8-092205ed76db","ios":"levelo://app?vid=612a0799-94f4-461b-8ea8-092205ed76db"},"vehicle_type_id":"4","last_reported":1721423231,"current_range_meters":8000,"station_id":"ce4bgqh2rcd13ifvqc5g","pricing_plan_id":"cebpf4jnsgd1na2vs0mg"},{"bike_id":"7430935f-8872-46fc-9d00-8bebf7f38793","system_id":"levelo_inurba_marseille","lat":43.30304,"lon":5.368987,"is_reserved":false,"is_disabled":false,"rental_uris":{"android":"levelo://app?vid=7430935f-8872-46fc-9d00-8bebf7f38793","ios":"levelo://app?vid=7430935f-8872-46fc-9d00-8bebf7f38793"},"vehicle_type_id":"4","last_reported":1721423231,"current_range_meters":800,"station_id":"ce4bgqh2rcd13ifvqc5g","pricing_plan_id":"cebpf4jnsgd1na2vs0mg"},{"bike_id":"bb25a067-3be7-40a0-8793-b2813257233b","system_id":"levelo_inurba_marseille","lat":43.315289,"lon":5.380349,"is_reserved":false,"is_disabled":false,"rental_uris":{"android":"levelo://app?vid=bb25a067-3be7-40a0-8793-b2813257233b","ios":"levelo://app?vid=bb25a067-3be7-40a0-8793-b2813257233b"},"vehicle_type_id":"4","last_reported":1721423231,"current_range_meters":25200,"station_id":"ce4bhsp2rcd13ifvqi50","pricing_plan_id":"cebpf4jnsgd1na2vs0mg"},{"bike_id":"5e553a80-0882-4a71-89cf-bd55bb6fa87b","system_id":"levelo_inurba_marseille","lat":43.30179,"lon":5.36604,"is_reserved":false,"is_disabled":false,"rental_uris":{"android":"levelo://app?vid=5e553a80-0882-4a71-89cf-bd55bb6fa87b","ios":"levelo://app?vid=5e553a80-0882-4a71-89cf-bd55bb6fa87b"},"vehicle_type_id":"4","last_reported":1721423231,"current_range_meters":29600,"station_id":"ce4bgrh2rcd13ifvqc8g","pricing_plan_id":"cebpf4jnsgd1na2vs0mg"},{"bike_id":"97b1e6f7-4f92-4b9a-92f5-f61efcb39b7d","system_id":"levelo_inurba_marseille","lat":43.308012,"lon":5.381511,"is_reserved":false,"is_disabled":false,"rental_uris":{"android":"levelo://app?vid=97b1e6f7-4f92-4b9a-92f5-f61efcb39b7d","ios":"levelo://app?vid=97b1e6f7-4f92-4b9a-92f5-f61efcb39b7d"},"vehicle_type_id":"4","last_reported":1721423231,"current_range_meters":3600,"station_id":"ce4bgt12rcd13ifvqce0","pricing_plan_id":"cebpf4jnsgd1na2vs0mg"},{"bike_id":"ce7ae12f-ad30-4926-bd84-981d080089b1","system_id":"levelo_inurba_marseille","lat":43.308012,"lon":5.381511,"is_reserved":false,"is_disabled":false,"rental_uris":{"android":"levelo://app?vid=ce7ae12f-ad30-4926-bd84-981d080089b1","ios":"levelo://app?vid=ce7ae12f-ad30-4926-bd84-981d080089b1"},"vehicle_type_id":"4","last_reported":1721423231,"current_range_meters":27600,"station_id":"ce4bgt12rcd13ifvqce0","pricing_plan_id":"cebpf4jnsgd1na2vs0mg"},{"bike_id":"999a0715-b078-4814-850a-0b9df778919d","system_id":"levelo_inurba_marseille","lat":43.308012,"lon":5.381511,"is_reserved":false,"is_disabled":false,"rental_uris":{"android":"levelo://app?vid=999a0715-b078-4814-850a-0b9df778919d","ios":"levelo://app?vid=999a0715-b078-4814-850a-0b9df778919d"},"vehicle_type_id":"4","last_reported":1721423231,"current_range_meters":6400,"station_id":"ce4bgt12rcd13ifvqce0","pricing_plan_id":"cebpf4jnsgd1na2vs0mg"},{"bike_id":"3dd3b7f9-feb6-40d7-a259-3ec7387f67d6","system_id":"levelo_inurba_marseille","lat":43.304606,"lon":5.379026,"is_reserved":false,"is_disabled":false,"rental_uris":{"android":"levelo://app?vid=3dd3b7f9-feb6-40d7-a259-3ec7387f67d6","ios":"levelo://app?vid=3dd3b7f9-feb6-40d7-a259-3ec7387f67d6"},"vehicle_type_id":"4","last_reported":1721423231,"current_range_meters":24400,"station_id":"ce4bgup2rcd13ifvqcn0","pricing_plan_id":"cebpf4jnsgd1na2vs0mg"},{"bike_id":"5e09c5af-02b3-42fa-9cca-5c7ff3b330db","system_id":"levelo_inurba_marseille","lat":43.32472,"lon":5.36565,"is_reserved":false,"is_disabled":false,"rental_uris":{"android":"levelo://app?vid=5e09c5af-02b3-42fa-9cca-5c7ff3b330db","ios":"levelo://app?vid=5e09c5af-02b3-42fa-9cca-5c7ff3b330db"},"vehicle_type_id":"4","last_reported":1721423231,"current_range_meters":8000,"station_id":"ce4bhs12rcd13ifvqhvg","pricing_plan_id":"cebpf4jnsgd1na2vs0mg"},{"bike_id":"951bc901-c238-42d4-aac0-3c805623be77","system_id":"levelo_inurba_marseille","lat":43.32476,"lon":5.36566,"is_reserved":false,"is_disabled":false,"rental_uris":{"android":"levelo://app?vid=951bc901-c238-42d4-aac0-3c805623be77","ios":"levelo://app?vid=951bc901-c238-42d4-aac0-3c805623be77"},"vehicle_type_id":"4","last_reported":1721423231,"current_range_meters":0,"station_id":"ce4bhs12rcd13ifvqhvg","pricing_plan_id":"cebpf4jnsgd1na2vs0mg"},{"bike_id":"5aad4bf1-e755-4a25-b0ab-32b518d88aba","system_id":"levelo_inurba_marseille","lat":43.32476,"lon":5.36565,"is_reserved":false,"is_disabled":false,"rental_uris":{"android":"levelo://app?vid=5aad4bf1-e755-4a25-b0ab-32b518d88aba","ios":"levelo://app?vid=5aad4bf1-e755-4a25-b0ab-32b518d88aba"},"vehicle_type_id":"4","last_reported":1721423231,"current_range_meters":6400,"station_id":"ce4bhs12rcd13ifvqhvg","pricing_plan_id":"cebpf4jnsgd1na2vs0mg"},{"bike_id":"49c9174c-e04b-4e00-9848-b6d035396dd2","system_id":"levelo_inurba_marseille","lat":43.324771,"lon":5.36557,"is_reserved":false,"is_disabled":false,"rental_uris":{"android":"levelo://app?vid=49c9174c-e04b-4e00-9848-b6d035396dd2","ios":"levelo://app?vid=49c9174c-e04b-4e00-9848-b6d035396dd2"},"vehicle_type_id":"4","last_reported":1721423231,"current_range_meters":21200,"station_id":"ce4bhs12rcd13ifvqhvg","pricing_plan_id":"cebpf4jnsgd1na2vs0mg"},{"bike_id":"162842f5-3813-44ed-956d-cfc64b4a9302","system_id":"levelo_inurba_marseille","lat":43.324771,"lon":5.36557,"is_reserved":false,"is_disabled":false,"rental_uris":{"android":"levelo://app?vid=162842f5-3813-44ed-956d-cfc64b4a9302","ios":"levelo://app?vid=162842f5-3813-44ed-956d-cfc64b4a9302"},"vehicle_type_id":"4","last_reported":1721423231,"current_range_meters":4800,"station_id":"ce4bhs12rcd13ifvqhvg","pricing_plan_id":"cebpf4jnsgd1na2vs0mg"},{"bike_id":"2baca4ef-0d69-4564-91f0-6aa88a9ace5b","system_id":"levelo_inurba_marseille","lat":43.324771,"lon":5.36557,"is_reserved":false,"is_disabled":false,"rental_uris":{"android":"levelo://app?vid=2baca4ef-0d69-4564-91f0-6aa88a9ace5b","ios":"levelo://app?vid=2baca4ef-0d69-4564-91f0-6aa88a9ace5b"},"vehicle_type_id":"4","last_reported":1721423231,"current_range_meters":14400,"station_id":"ce4bhs12rcd13ifvqhvg","pricing_plan_id":"cebpf4jnsgd1na2vs0mg"},{"bike_id":"988fe304-f05c-40a3-a584-7b1a9863dad7","system_id":"levelo_inurba_marseille","lat":43.310804,"lon":5.38359,"is_reserved":false,"is_disabled":false,"rental_uris":{"android":"levelo://app?vid=988fe304-f05c-40a3-a584-7b1a9863dad7","ios":"levelo://app?vid=988fe304-f05c-40a3-a584-7b1a9863dad7"},"vehicle_type_id":"4","last_reported":1721423231,"current_range_meters":21600,"station_id":"ce4bgv92rcd13ifvqcr0","pricing_plan_id":"cebpf4jnsgd1na2vs0mg"},{"bike_id":"fb6027ab-8127-4a6d-b306-fd5cba723945","system_id":"levelo_inurba_marseille","lat":43.310804,"lon":5.38359,"is_reserved":false,"is_disabled":false,"rental_uris":{"android":"levelo://app?vid=fb6027ab-8127-4a6d-b306-fd5cba723945","ios":"levelo://app?vid=fb6027ab-8127-4a6d-b306-fd5cba723945"},"vehicle_type_id":"4","last_reported":1721423231,"current_range_meters":18000,"station_id":"ce4bgv92rcd13ifvqcr0","pricing_plan_id":"cebpf4jnsgd1na2vs0mg"},{"bike_id":"3ead2fcd-11e0-457a-a4c9-535f01c6f8f1","system_id":"levelo_inurba_marseille","lat":43.310804,"lon":5.38359,"is_reserved":false,"is_disabled":false,"rental_uris":{"android":"levelo://app?vid=3ead2fcd-11e0-457a-a4c9-535f01c6f8f1","ios":"levelo://app?vid=3ead2fcd-11e0-457a-a4c9-535f01c6f8f1"},"vehicle_type_id":"4","last_reported":1721423231,"current_range_meters":23200,"station_id":"ce4bgv92rcd13ifvqcr0","pricing_plan_id":"cebpf4jnsgd1na2vs0mg"},{"bike_id":"a8c3a905-22ca-4848-bb12-657fabb0748f","system_id":"levelo_inurba_marseille","lat":43.301429,"lon":5.37413,"is_reserved":false,"is_disabled":false,"rental_uris":{"android":"levelo://app?vid=a8c3a905-22ca-4848-bb12-657fabb0748f","ios":"levelo://app?vid=a8c3a905-22ca-4848-bb12-657fabb0748f"},"vehicle_type_id":"4","last_reported":1721423231,"current_range_meters":800,"station_id":"ce4bgs92rcd13ifvqcc0","pricing_plan_id":"cebpf4jnsgd1na2vs0mg"},{"bike_id":"3ce919f2-2df5-4f56-83b9-a2c0725df5a1","system_id":"levelo_inurba_marseille","lat":43.3057,"lon":5.38142,"is_reserved":false,"is_disabled":false,"rental_uris":{"android":"levelo://app?vid=3ce919f2-2df5-4f56-83b9-a2c0725df5a1","ios":"levelo://app?vid=3ce919f2-2df5-4f56-83b9-a2c0725df5a1"},"vehicle_type_id":"4","last_reported":1721423231,"current_range_meters":17200,"station_id":"","pricing_plan_id":"cebpf4jnsgd1na2vs0mg"},{"bike_id":"3623f93d-bd9b-4a41-86c9-409e8e4b7b21","system_id":"levelo_inurba_marseille","lat":43.319935,"lon":5.381699,"is_reserved":false,"is_disabled":false,"rental_uris":{"android":"levelo://app?vid=3623f93d-bd9b-4a41-86c9-409e8e4b7b21","ios":"levelo://app?vid=3623f93d-bd9b-4a41-86c9-409e8e4b7b21"},"vehicle_type_id":"4","last_reported":1721423231,"current_range_meters":26000,"station_id":"ce4bhr12rcd13ifvqhpg","pricing_plan_id":"cebpf4jnsgd1na2vs0mg"},{"bike_id":"11ec9cb9-632e-4a00-b9d9-74178410641c","system_id":"levelo_inurba_marseille","lat":43.319935,"lon":5.381699,"is_reserved":false,"is_disabled":false,"rental_uris":{"android":"levelo://app?vid=11ec9cb9-632e-4a00-b9d9-74178410641c","ios":"levelo://app?vid=11ec9cb9-632e-4a00-b9d9-74178410641c"},"vehicle_type_id":"4","last_reported":1721423231,"current_range_meters":29200,"station_id":"ce4bhr12rcd13ifvqhpg","pricing_plan_id":"cebpf4jnsgd1na2vs0mg"},{"bike_id":"572772b1-2a0e-4ecd-935f-8635db9ce79f","system_id":"levelo_inurba_marseille","lat":43.31997,"lon":5.38171,"is_reserved":false,"is_disabled":false,"rental_uris":{"android":"levelo://app?vid=572772b1-2a0e-4ecd-935f-8635db9ce79f","ios":"levelo://app?vid=572772b1-2a0e-4ecd-935f-8635db9ce79f"},"vehicle_type_id":"4","last_reported":1721423231,"current_range_meters":7200,"station_id":"ce4bhr12rcd13ifvqhpg","pricing_plan_id":"cebpf4jnsgd1na2vs0mg"},{"bike_id":"94897491-b84a-423a-b601-7f8eef1dd290","system_id":"levelo_inurba_marseille","lat":43.313571,"lon":5.384829,"is_reserved":false,"is_disabled":false,"rental_uris":{"android":"levelo://app?vid=94897491-b84a-423a-b601-7f8eef1dd290","ios":"levelo://app?vid=94897491-b84a-423a-b601-7f8eef1dd290"},"vehicle_type_id":"4","last_reported":1721423231,"current_range_meters":5600,"station_id":"ce4bgt92rcd13ifvqcf0","pricing_plan_id":"cebpf4jnsgd1na2vs0mg"},{"bike_id":"8fdc3572-f691-40c5-b402-1e81a976602e","system_id":"levelo_inurba_marseille","lat":43.313548,"lon":5.3849,"is_reserved":false,"is_disabled":false,"rental_uris":{"android":"levelo://app?vid=8fdc3572-f691-40c5-b402-1e81a976602e","ios":"levelo://app?vid=8fdc3572-f691-40c5-b402-1e81a976602e"},"vehicle_type_id":"4","last_reported":1721423231,"current_range_meters":800,"station_id":"ce4bgt92rcd13ifvqcf0","pricing_plan_id":"cebpf4jnsgd1na2vs0mg"},{"bike_id":"8825a9d5-db0d-4f03-9bb6-31a9f9d1a057","system_id":"levelo_inurba_marseille","lat":43.313571,"lon":5.384829,"is_reserved":false,"is_disabled":false,"rental_uris":{"android":"levelo://app?vid=8825a9d5-db0d-4f03-9bb6-31a9f9d1a057","ios":"levelo://app?vid=8825a9d5-db0d-4f03-9bb6-31a9f9d1a057"},"vehicle_type_id":"4","last_reported":1721423231,"current_range_meters":7200,"station_id":"ce4bgt92rcd13ifvqcf0","pricing_plan_id":"cebpf4jnsgd1na2vs0mg"},{"bike_id":"9962179c-47a2-4cfa-8fe7-b3185a103a8f","system_id":"levelo_inurba_marseille","lat":43.313571,"lon":5.384829,"is_reserved":false,"is_disabled":false,"rental_uris":{"android":"levelo://app?vid=9962179c-47a2-4cfa-8fe7-b3185a103a8f","ios":"levelo://app?vid=9962179c-47a2-4cfa-8fe7-b3185a103a8f"},"vehicle_type_id":"4","last_reported":1721423231,"current_range_meters":10000,"station_id":"ce4bgt92rcd13ifvqcf0","pricing_plan_id":"cebpf4jnsgd1na2vs0mg"},{"bike_id":"6b160a92-3bed-43ad-a379-a0e9754fc261","system_id":"levelo_inurba_marseille","lat":43.313571,"lon":5.384829,"is_reserved":false,"is_disabled":false,"rental_uris":{"android":"levelo://app?vid=6b160a92-3bed-43ad-a379-a0e9754fc261","ios":"levelo://app?vid=6b160a92-3bed-43ad-a379-a0e9754fc261"},"vehicle_type_id":"4","last_reported":1721423231,"current_range_meters":26800,"station_id":"ce4bgt92rcd13ifvqcf0","pricing_plan_id":"cebpf4jnsgd1na2vs0mg"},{"bike_id":"8d729a7b-830b-4315-980d-64624f4db803","system_id":"levelo_inurba_marseille","lat":43.313571,"lon":5.384829,"is_reserved":false,"is_disabled":false,"rental_uris":{"android":"levelo://app?vid=8d729a7b-830b-4315-980d-64624f4db803","ios":"levelo://app?vid=8d729a7b-830b-4315-980d-64624f4db803"},"vehicle_type_id":"4","last_reported":1721423231,"current_range_meters":22000,"station_id":"ce4bgt92rcd13ifvqcf0","pricing_plan_id":"cebpf4jnsgd1na2vs0mg"},{"bike_id":"2b503a9c-8b01-4fec-952c-9bef93edf006","system_id":"levelo_inurba_marseille","lat":43.299222,"lon":5.365554,"is_reserved":false,"is_disabled":false,"rental_uris":{"android":"levelo://app?vid=2b503a9c-8b01-4fec-952c-9bef93edf006","ios":"levelo://app?vid=2b503a9c-8b01-4fec-952c-9bef93edf006"},"vehicle_type_id":"4","last_reported":1721423231,"current_range_meters":12800,"station_id":"ce4bgm92rcd13ifvqbr0","pricing_plan_id":"cebpf4jnsgd1na2vs0mg"},{"bike_id":"b55c10aa-15a5-4cd4-bb1c-83d558a07d7a","system_id":"levelo_inurba_marseille","lat":43.299222,"lon":5.365554,"is_reserved":false,"is_disabled":false,"rental_uris":{"android":"levelo://app?vid=b55c10aa-15a5-4cd4-bb1c-83d558a07d7a","ios":"levelo://app?vid=b55c10aa-15a5-4cd4-bb1c-83d558a07d7a"},"vehicle_type_id":"4","last_reported":1721423231,"current_range_meters":27600,"station_id":"ce4bgm92rcd13ifvqbr0","pricing_plan_id":"cebpf4jnsgd1na2vs0mg"},{"bike_id":"707e9f19-52f0-4d86-8d98-9ccd9f9735a1","system_id":"levelo_inurba_marseille","lat":43.299222,"lon":5.365554,"is_reserved":false,"is_disabled":false,"rental_uris":{"android":"levelo://app?vid=707e9f19-52f0-4d86-8d98-9ccd9f9735a1","ios":"levelo://app?vid=707e9f19-52f0-4d86-8d98-9ccd9f9735a1"},"vehicle_type_id":"4","last_reported":1721423231,"current_range_meters":22400,"station_id":"ce4bgm92rcd13ifvqbr0","pricing_plan_id":"cebpf4jnsgd1na2vs0mg"},{"bike_id":"164a6ce0-1942-4ae7-a7b9-1818fca12ce4","system_id":"levelo_inurba_marseille","lat":43.299724,"lon":5.371829,"is_reserved":false,"is_disabled":false,"rental_uris":{"android":"levelo://app?vid=164a6ce0-1942-4ae7-a7b9-1818fca12ce4","ios":"levelo://app?vid=164a6ce0-1942-4ae7-a7b9-1818fca12ce4"},"vehicle_type_id":"4","last_reported":1721423231,"current_range_meters":400,"station_id":"ce4bgr92rcd13ifvqc7g","pricing_plan_id":"cebpf4jnsgd1na2vs0mg"},{"bike_id":"75b1096b-116b-435a-a901-5536075a6820","system_id":"levelo_inurba_marseille","lat":43.310383,"lon":5.385241,"is_reserved":false,"is_disabled":false,"rental_uris":{"android":"levelo://app?vid=75b1096b-116b-435a-a901-5536075a6820","ios":"levelo://app?vid=75b1096b-116b-435a-a901-5536075a6820"},"vehicle_type_id":"4","last_reported":1721423231,"current_range_meters":16400,"station_id":"","pricing_plan_id":"cebpf4jnsgd1na2vs0mg"},{"bike_id":"5b482c99-4f1a-417c-8bbc-8f0d363f8d22","system_id":"levelo_inurba_marseille","lat":43.299724,"lon":5.371829,"is_reserved":false,"is_disabled":false,"rental_uris":{"android":"levelo://app?vid=5b482c99-4f1a-417c-8bbc-8f0d363f8d22","ios":"levelo://app?vid=5b482c99-4f1a-417c-8bbc-8f0d363f8d22"},"vehicle_type_id":"4","last_reported":1721423231,"current_range_meters":6400,"station_id":"ce4bgr92rcd13ifvqc7g","pricing_plan_id":"cebpf4jnsgd1na2vs0mg"},{"bike_id":"ca87acaf-8381-4f80-9d26-daef73ee195c","system_id":"levelo_inurba_marseille","lat":43.305364,"lon":5.384119,"is_reserved":false,"is_disabled":false,"rental_uris":{"android":"levelo://app?vid=ca87acaf-8381-4f80-9d26-daef73ee195c","ios":"levelo://app?vid=ca87acaf-8381-4f80-9d26-daef73ee195c"},"vehicle_type_id":"4","last_reported":1721423231,"current_range_meters":28000,"station_id":"ce4bgg92rcd13ifvqb30","pricing_plan_id":"cebpf4jnsgd1na2vs0mg"},{"bike_id":"d233de3a-bc6f-4375-875a-828c1724c994","system_id":"levelo_inurba_marseille","lat":43.305364,"lon":5.384119,"is_reserved":false,"is_disabled":false,"rental_uris":{"android":"levelo://app?vid=d233de3a-bc6f-4375-875a-828c1724c994","ios":"levelo://app?vid=d233de3a-bc6f-4375-875a-828c1724c994"},"vehicle_type_id":"4","last_reported":1721423231,"current_range_meters":28000,"station_id":"ce4bgg92rcd13ifvqb30","pricing_plan_id":"cebpf4jnsgd1na2vs0mg"},{"bike_id":"c59c5dc1-4fad-4269-82c1-f86b9288f6a7","system_id":"levelo_inurba_marseille","lat":43.299243,"lon":5.374807,"is_reserved":false,"is_disabled":false,"rental_uris":{"android":"levelo://app?vid=c59c5dc1-4fad-4269-82c1-f86b9288f6a7","ios":"levelo://app?vid=c59c5dc1-4fad-4269-82c1-f86b9288f6a7"},"vehicle_type_id":"4","last_reported":1721423231,"current_range_meters":24000,"station_id":"ce4bgjh2rcd13ifvqbg0","pricing_plan_id":"cebpf4jnsgd1na2vs0mg"},{"bike_id":"e9cfb649-b634-4aef-ae13-fed08633690f","system_id":"levelo_inurba_marseille","lat":43.31164,"lon":5.38712,"is_reserved":false,"is_disabled":false,"rental_uris":{"android":"levelo://app?vid=e9cfb649-b634-4aef-ae13-fed08633690f","ios":"levelo://app?vid=e9cfb649-b634-4aef-ae13-fed08633690f"},"vehicle_type_id":"4","last_reported":1721423231,"current_range_meters":28000,"station_id":"ce4bgv12rcd13ifvqcp0","pricing_plan_id":"cebpf4jnsgd1na2vs0mg"},{"bike_id":"f45e669a-cc19-4a31-9a6f-90bcda7468bc","system_id":"levelo_inurba_marseille","lat":43.311649,"lon":5.387162,"is_reserved":false,"is_disabled":false,"rental_uris":{"android":"levelo://app?vid=f45e669a-cc19-4a31-9a6f-90bcda7468bc","ios":"levelo://app?vid=f45e669a-cc19-4a31-9a6f-90bcda7468bc"},"vehicle_type_id":"4","last_reported":1721423231,"current_range_meters":0,"station_id":"ce4bgv12rcd13ifvqcp0","pricing_plan_id":"cebpf4jnsgd1na2vs0mg"},{"bike_id":"12bfd316-5766-434a-bd8c-c21bca6a92a4","system_id":"levelo_inurba_marseille","lat":43.31169,"lon":5.38718,"is_reserved":false,"is_disabled":false,"rental_uris":{"android":"levelo://app?vid=12bfd316-5766-434a-bd8c-c21bca6a92a4","ios":"levelo://app?vid=12bfd316-5766-434a-bd8c-c21bca6a92a4"},"vehicle_type_id":"4","last_reported":1721423231,"current_range_meters":4000,"station_id":"ce4bgv12rcd13ifvqcp0","pricing_plan_id":"cebpf4jnsgd1na2vs0mg"},{"bike_id":"5800a36c-8c9d-4482-abf1-e5de85efc605","system_id":"levelo_inurba_marseille","lat":43.3117,"lon":5.38719,"is_reserved":false,"is_disabled":false,"rental_uris":{"android":"levelo://app?vid=5800a36c-8c9d-4482-abf1-e5de85efc605","ios":"levelo://app?vid=5800a36c-8c9d-4482-abf1-e5de85efc605"},"vehicle_type_id":"4","last_reported":1721423231,"current_range_meters":4400,"station_id":"ce4bgv12rcd13ifvqcp0","pricing_plan_id":"cebpf4jnsgd1na2vs0mg"},{"bike_id":"5d127372-ae5a-44b6-b9bd-34c2e9a8f720","system_id":"levelo_inurba_marseille","lat":43.31165,"lon":5.38719,"is_reserved":false,"is_disabled":false,"rental_uris":{"android":"levelo://app?vid=5d127372-ae5a-44b6-b9bd-34c2e9a8f720","ios":"levelo://app?vid=5d127372-ae5a-44b6-b9bd-34c2e9a8f720"},"vehicle_type_id":"4","last_reported":1721423231,"current_range_meters":5600,"station_id":"ce4bgv12rcd13ifvqcp0","pricing_plan_id":"cebpf4jnsgd1na2vs0mg"},{"bike_id":"14f1a817-28a2-4647-a1d9-650a27bad86c","system_id":"levelo_inurba_marseille","lat":43.31169,"lon":5.38722,"is_reserved":false,"is_disabled":false,"rental_uris":{"android":"levelo://app?vid=14f1a817-28a2-4647-a1d9-650a27bad86c","ios":"levelo://app?vid=14f1a817-28a2-4647-a1d9-650a27bad86c"},"vehicle_type_id":"4","last_reported":1721423231,"current_range_meters":0,"station_id":"ce4bgv12rcd13ifvqcp0","pricing_plan_id":"cebpf4jnsgd1na2vs0mg"},{"bike_id":"22815b7b-eba1-4e5b-a2cd-de32f4a9ad6a","system_id":"levelo_inurba_marseille","lat":43.311722,"lon":5.387247,"is_reserved":false,"is_disabled":false,"rental_uris":{"android":"levelo://app?vid=22815b7b-eba1-4e5b-a2cd-de32f4a9ad6a","ios":"levelo://app?vid=22815b7b-eba1-4e5b-a2cd-de32f4a9ad6a"},"vehicle_type_id":"4","last_reported":1721423231,"current_range_meters":16000,"station_id":"ce4bgv12rcd13ifvqcp0","pricing_plan_id":"cebpf4jnsgd1na2vs0mg"},{"bike_id":"c94ad5a9-817b-43a0-868e-0006ddb97fdd","system_id":"levelo_inurba_marseille","lat":43.297774,"lon":5.370875,"is_reserved":false,"is_disabled":false,"rental_uris":{"android":"levelo://app?vid=c94ad5a9-817b-43a0-868e-0006ddb97fdd","ios":"levelo://app?vid=c94ad5a9-817b-43a0-868e-0006ddb97fdd"},"vehicle_type_id":"4","last_reported":1721423231,"current_range_meters":3600,"station_id":"ce4bgop2rcd13ifvqc1g","pricing_plan_id":"cebpf4jnsgd1na2vs0mg"},{"bike_id":"e08167f8-c295-49a7-bd4e-df13ce4c26a3","system_id":"levelo_inurba_marseille","lat":43.308032,"lon":5.387964,"is_reserved":false,"is_disabled":false,"rental_uris":{"android":"levelo://app?vid=e08167f8-c295-49a7-bd4e-df13ce4c26a3","ios":"levelo://app?vid=e08167f8-c295-49a7-bd4e-df13ce4c26a3"},"vehicle_type_id":"4","last_reported":1721423231,"current_range_meters":9600,"station_id":"","pricing_plan_id":"cebpf4jnsgd1na2vs0mg"},{"bike_id":"90301e0b-a291-4d23-9adc-7b3ea7c1666f","system_id":"levelo_inurba_marseille","lat":43.296933,"lon":5.372925,"is_reserved":false,"is_disabled":false,"rental_uris":{"android":"levelo://app?vid=90301e0b-a291-4d23-9adc-7b3ea7c1666f","ios":"levelo://app?vid=90301e0b-a291-4d23-9adc-7b3ea7c1666f"},"vehicle_type_id":"4","last_reported":1721423231,"current_range_meters":20000,"station_id":"ce4bgk12rcd13ifvqbj0","pricing_plan_id":"cebpf4jnsgd1na2vs0mg"},{"bike_id":"79c9b7c3-9862-450a-848d-97cdfa4bf29a","system_id":"levelo_inurba_marseille","lat":43.2968,"lon":5.37291,"is_reserved":false,"is_disabled":false,"rental_uris":{"android":"levelo://app?vid=79c9b7c3-9862-450a-848d-97cdfa4bf29a","ios":"levelo://app?vid=79c9b7c3-9862-450a-848d-97cdfa4bf29a"},"vehicle_type_id":"4","last_reported":1721423231,"current_range_meters":7600,"station_id":"ce4bgk12rcd13ifvqbj0","pricing_plan_id":"cebpf4jnsgd1na2vs0mg"},{"bike_id":"517c483c-d8b0-41a9-86ca-75dbab14bddc","system_id":"levelo_inurba_marseille","lat":43.299028,"lon":5.381509,"is_reserved":false,"is_disabled":false,"rental_uris":{"android":"levelo://app?vid=517c483c-d8b0-41a9-86ca-75dbab14bddc","ios":"levelo://app?vid=517c483c-d8b0-41a9-86ca-75dbab14bddc"},"vehicle_type_id":"4","last_reported":1721423231,"current_range_meters":27600,"station_id":"ce4bgj12rcd13ifvqbc0","pricing_plan_id":"cebpf4jnsgd1na2vs0mg"},{"bike_id":"8569072f-468b-4dca-89ee-513a76231022","system_id":"levelo_inurba_marseille","lat":43.309589,"lon":5.390258,"is_reserved":false,"is_disabled":false,"rental_uris":{"android":"levelo://app?vid=8569072f-468b-4dca-89ee-513a76231022","ios":"levelo://app?vid=8569072f-468b-4dca-89ee-513a76231022"},"vehicle_type_id":"4","last_reported":1721423231,"current_range_meters":0,"station_id":"ce4bgup2rcd13ifvqco0","pricing_plan_id":"cebpf4jnsgd1na2vs0mg"},{"bike_id":"9726e420-1af4-46b9-b3db-56b88e7317a8","system_id":"levelo_inurba_marseille","lat":43.309608,"lon":5.390297,"is_reserved":false,"is_disabled":false,"rental_uris":{"android":"levelo://app?vid=9726e420-1af4-46b9-b3db-56b88e7317a8","ios":"levelo://app?vid=9726e420-1af4-46b9-b3db-56b88e7317a8"},"vehicle_type_id":"4","last_reported":1721423231,"current_range_meters":15600,"station_id":"ce4bgup2rcd13ifvqco0","pricing_plan_id":"cebpf4jnsgd1na2vs0mg"},{"bike_id":"fbc76cca-0cc9-4f42-bf4f-8effbe25d080","system_id":"levelo_inurba_marseille","lat":43.30959,"lon":5.390297,"is_reserved":false,"is_disabled":false,"rental_uris":{"android":"levelo://app?vid=fbc76cca-0cc9-4f42-bf4f-8effbe25d080","ios":"levelo://app?vid=fbc76cca-0cc9-4f42-bf4f-8effbe25d080"},"vehicle_type_id":"4","last_reported":1721423231,"current_range_meters":26800,"station_id":"ce4bgup2rcd13ifvqco0","pricing_plan_id":"cebpf4jnsgd1na2vs0mg"},{"bike_id":"31f70e5c-5ea2-4dfc-aa40-21b80c275d43","system_id":"levelo_inurba_marseille","lat":43.299028,"lon":5.381509,"is_reserved":false,"is_disabled":false,"rental_uris":{"android":"levelo://app?vid=31f70e5c-5ea2-4dfc-aa40-21b80c275d43","ios":"levelo://app?vid=31f70e5c-5ea2-4dfc-aa40-21b80c275d43"},"vehicle_type_id":"4","last_reported":1721423231,"current_range_meters":23200,"station_id":"ce4bgj12rcd13ifvqbc0","pricing_plan_id":"cebpf4jnsgd1na2vs0mg"},{"bike_id":"86d2720d-83b2-475d-99cc-2345c27f053d","system_id":"levelo_inurba_marseille","lat":43.309589,"lon":5.390258,"is_reserved":false,"is_disabled":false,"rental_uris":{"android":"levelo://app?vid=86d2720d-83b2-475d-99cc-2345c27f053d","ios":"levelo://app?vid=86d2720d-83b2-475d-99cc-2345c27f053d"},"vehicle_type_id":"4","last_reported":1721423231,"current_range_meters":6000,"station_id":"ce4bgup2rcd13ifvqco0","pricing_plan_id":"cebpf4jnsgd1na2vs0mg"},{"bike_id":"407cc5ef-2a42-44cc-b09e-a92f1d4267e6","system_id":"levelo_inurba_marseille","lat":43.309589,"lon":5.390258,"is_reserved":false,"is_disabled":false,"rental_uris":{"android":"levelo://app?vid=407cc5ef-2a42-44cc-b09e-a92f1d4267e6","ios":"levelo://app?vid=407cc5ef-2a42-44cc-b09e-a92f1d4267e6"},"vehicle_type_id":"4","last_reported":1721423231,"current_range_meters":0,"station_id":"ce4bgup2rcd13ifvqco0","pricing_plan_id":"cebpf4jnsgd1na2vs0mg"},{"bike_id":"37e396b7-d5cb-414c-b979-4e62c45140d4","system_id":"levelo_inurba_marseille","lat":43.309589,"lon":5.390258,"is_reserved":false,"is_disabled":false,"rental_uris":{"android":"levelo://app?vid=37e396b7-d5cb-414c-b979-4e62c45140d4","ios":"levelo://app?vid=37e396b7-d5cb-414c-b979-4e62c45140d4"},"vehicle_type_id":"4","last_reported":1721423231,"current_range_meters":30000,"station_id":"ce4bgup2rcd13ifvqco0","pricing_plan_id":"cebpf4jnsgd1na2vs0mg"},{"bike_id":"a04bd458-20ff-4341-b464-7cf4aed1f8f9","system_id":"levelo_inurba_marseille","lat":43.29702,"lon":5.37694,"is_reserved":false,"is_disabled":false,"rental_uris":{"android":"levelo://app?vid=a04bd458-20ff-4341-b464-7cf4aed1f8f9","ios":"levelo://app?vid=a04bd458-20ff-4341-b464-7cf4aed1f8f9"},"vehicle_type_id":"4","last_reported":1721423231,"current_range_meters":0,"station_id":"ce4bgkh2rcd13ifvqbl0","pricing_plan_id":"cebpf4jnsgd1na2vs0mg"},{"bike_id":"8601520c-c4e6-4495-b75a-442b61c67f14","system_id":"levelo_inurba_marseille","lat":43.30957,"lon":5.39034,"is_reserved":false,"is_disabled":false,"rental_uris":{"android":"levelo://app?vid=8601520c-c4e6-4495-b75a-442b61c67f14","ios":"levelo://app?vid=8601520c-c4e6-4495-b75a-442b61c67f14"},"vehicle_type_id":"4","last_reported":1721423231,"current_range_meters":0,"station_id":"ce4bgup2rcd13ifvqco0","pricing_plan_id":"cebpf4jnsgd1na2vs0mg"},{"bike_id":"04815800-2026-4947-b1bc-e23a8d5fc335","system_id":"levelo_inurba_marseille","lat":43.309589,"lon":5.390258,"is_reserved":false,"is_disabled":false,"rental_uris":{"android":"levelo://app?vid=04815800-2026-4947-b1bc-e23a8d5fc335","ios":"levelo://app?vid=04815800-2026-4947-b1bc-e23a8d5fc335"},"vehicle_type_id":"4","last_reported":1721423231,"current_range_meters":0,"station_id":"ce4bgup2rcd13ifvqco0","pricing_plan_id":"cebpf4jnsgd1na2vs0mg"},{"bike_id":"da2cdac4-d7d7-4474-8a49-5683eb65af50","system_id":"levelo_inurba_marseille","lat":43.309589,"lon":5.390258,"is_reserved":false,"is_disabled":false,"rental_uris":{"android":"levelo://app?vid=da2cdac4-d7d7-4474-8a49-5683eb65af50","ios":"levelo://app?vid=da2cdac4-d7d7-4474-8a49-5683eb65af50"},"vehicle_type_id":"4","last_reported":1721423231,"current_range_meters":0,"station_id":"ce4bgup2rcd13ifvqco0","pricing_plan_id":"cebpf4jnsgd1na2vs0mg"},{"bike_id":"1c282fac-6085-45b5-9c7e-1b237ffe46dc","system_id":"levelo_inurba_marseille","lat":43.30953,"lon":5.39039,"is_reserved":false,"is_disabled":false,"rental_uris":{"android":"levelo://app?vid=1c282fac-6085-45b5-9c7e-1b237ffe46dc","ios":"levelo://app?vid=1c282fac-6085-45b5-9c7e-1b237ffe46dc"},"vehicle_type_id":"4","last_reported":1721423231,"current_range_meters":0,"station_id":"ce4bgup2rcd13ifvqco0","pricing_plan_id":"cebpf4jnsgd1na2vs0mg"},{"bike_id":"c2c88ad1-00ea-4cc9-9430-3c35699d308e","system_id":"levelo_inurba_marseille","lat":43.30955,"lon":5.39041,"is_reserved":false,"is_disabled":false,"rental_uris":{"android":"levelo://app?vid=c2c88ad1-00ea-4cc9-9430-3c35699d308e","ios":"levelo://app?vid=c2c88ad1-00ea-4cc9-9430-3c35699d308e"},"vehicle_type_id":"4","last_reported":1721423231,"current_range_meters":0,"station_id":"ce4bgup2rcd13ifvqco0","pricing_plan_id":"cebpf4jnsgd1na2vs0mg"},{"bike_id":"3d574c34-a5d3-4e7f-99ce-916c8b9a3e14","system_id":"levelo_inurba_marseille","lat":43.31751,"lon":5.39008,"is_reserved":false,"is_disabled":false,"rental_uris":{"android":"levelo://app?vid=3d574c34-a5d3-4e7f-99ce-916c8b9a3e14","ios":"levelo://app?vid=3d574c34-a5d3-4e7f-99ce-916c8b9a3e14"},"vehicle_type_id":"4","last_reported":1721423231,"current_range_meters":4800,"station_id":"ce4bhqp2rcd13ifvqhng","pricing_plan_id":"cebpf4jnsgd1na2vs0mg"},{"bike_id":"5f154e1d-c496-4175-9805-325468cb7673","system_id":"levelo_inurba_marseille","lat":43.317557,"lon":5.390173,"is_reserved":false,"is_disabled":false,"rental_uris":{"android":"levelo://app?vid=5f154e1d-c496-4175-9805-325468cb7673","ios":"levelo://app?vid=5f154e1d-c496-4175-9805-325468cb7673"},"vehicle_type_id":"4","last_reported":1721423231,"current_range_meters":10800,"station_id":"ce4bhqp2rcd13ifvqhng","pricing_plan_id":"cebpf4jnsgd1na2vs0mg"},{"bike_id":"fceade41-7754-4a2e-a9f5-28d21d240216","system_id":"levelo_inurba_marseille","lat":43.317557,"lon":5.390173,"is_reserved":false,"is_disabled":false,"rental_uris":{"android":"levelo://app?vid=fceade41-7754-4a2e-a9f5-28d21d240216","ios":"levelo://app?vid=fceade41-7754-4a2e-a9f5-28d21d240216"},"vehicle_type_id":"4","last_reported":1721423231,"current_range_meters":26800,"station_id":"ce4bhqp2rcd13ifvqhng","pricing_plan_id":"cebpf4jnsgd1na2vs0mg"},{"bike_id":"b7be417b-a040-408c-9211-69884dfffc11","system_id":"levelo_inurba_marseille","lat":43.31755,"lon":5.39014,"is_reserved":false,"is_disabled":false,"rental_uris":{"android":"levelo://app?vid=b7be417b-a040-408c-9211-69884dfffc11","ios":"levelo://app?vid=b7be417b-a040-408c-9211-69884dfffc11"},"vehicle_type_id":"4","last_reported":1721423231,"current_range_meters":25600,"station_id":"ce4bhqp2rcd13ifvqhng","pricing_plan_id":"cebpf4jnsgd1na2vs0mg"},{"bike_id":"1d8d5629-43b8-453e-b30c-8a5968289c34","system_id":"levelo_inurba_marseille","lat":43.29573,"lon":5.367355,"is_reserved":false,"is_disabled":false,"rental_uris":{"android":"levelo://app?vid=1d8d5629-43b8-453e-b30c-8a5968289c34","ios":"levelo://app?vid=1d8d5629-43b8-453e-b30c-8a5968289c34"},"vehicle_type_id":"4","last_reported":1721423231,"current_range_meters":23600,"station_id":"ce4bgph2rcd13ifvqc2g","pricing_plan_id":"cebpf4jnsgd1na2vs0mg"},{"bike_id":"80c6fff3-5b70-4a5a-99eb-4dc99c960090","system_id":"levelo_inurba_marseille","lat":43.31759,"lon":5.39015,"is_reserved":false,"is_disabled":false,"rental_uris":{"android":"levelo://app?vid=80c6fff3-5b70-4a5a-99eb-4dc99c960090","ios":"levelo://app?vid=80c6fff3-5b70-4a5a-99eb-4dc99c960090"},"vehicle_type_id":"4","last_reported":1721423231,"current_range_meters":8400,"station_id":"ce4bhqp2rcd13ifvqhng","pricing_plan_id":"cebpf4jnsgd1na2vs0mg"},{"bike_id":"fff0ffb6-8a52-4821-8a28-4a92071acb18","system_id":"levelo_inurba_marseille","lat":43.317557,"lon":5.390173,"is_reserved":false,"is_disabled":false,"rental_uris":{"android":"levelo://app?vid=fff0ffb6-8a52-4821-8a28-4a92071acb18","ios":"levelo://app?vid=fff0ffb6-8a52-4821-8a28-4a92071acb18"},"vehicle_type_id":"4","last_reported":1721423231,"current_range_meters":30400,"station_id":"ce4bhqp2rcd13ifvqhng","pricing_plan_id":"cebpf4jnsgd1na2vs0mg"},{"bike_id":"28a10a36-da41-40bc-b703-c4970358e428","system_id":"levelo_inurba_marseille","lat":43.31753,"lon":5.39019,"is_reserved":false,"is_disabled":false,"rental_uris":{"android":"levelo://app?vid=28a10a36-da41-40bc-b703-c4970358e428","ios":"levelo://app?vid=28a10a36-da41-40bc-b703-c4970358e428"},"vehicle_type_id":"4","last_reported":1721423231,"current_range_meters":17200,"station_id":"ce4bhqp2rcd13ifvqhng","pricing_plan_id":"cebpf4jnsgd1na2vs0mg"},{"bike_id":"2ca9d7ee-345a-47b6-a468-20743cec9600","system_id":"levelo_inurba_marseille","lat":43.31758,"lon":5.39018,"is_reserved":false,"is_disabled":false,"rental_uris":{"android":"levelo://app?vid=2ca9d7ee-345a-47b6-a468-20743cec9600","ios":"levelo://app?vid=2ca9d7ee-345a-47b6-a468-20743cec9600"},"vehicle_type_id":"4","last_reported":1721423231,"current_range_meters":2000,"station_id":"ce4bhqp2rcd13ifvqhng","pricing_plan_id":"cebpf4jnsgd1na2vs0mg"},{"bike_id":"ed9978a7-ad64-42c5-b59f-cc5623c35520","system_id":"levelo_inurba_marseille","lat":43.317557,"lon":5.390173,"is_reserved":false,"is_disabled":false,"rental_uris":{"android":"levelo://app?vid=ed9978a7-ad64-42c5-b59f-cc5623c35520","ios":"levelo://app?vid=ed9978a7-ad64-42c5-b59f-cc5623c35520"},"vehicle_type_id":"4","last_reported":1721423231,"current_range_meters":18800,"station_id":"ce4bhqp2rcd13ifvqhng","pricing_plan_id":"cebpf4jnsgd1na2vs0mg"},{"bike_id":"774dbf70-cfc8-4e2f-bc6f-712f1cec9dd8","system_id":"levelo_inurba_marseille","lat":43.317515,"lon":5.390378,"is_reserved":false,"is_disabled":false,"rental_uris":{"android":"levelo://app?vid=774dbf70-cfc8-4e2f-bc6f-712f1cec9dd8","ios":"levelo://app?vid=774dbf70-cfc8-4e2f-bc6f-712f1cec9dd8"},"vehicle_type_id":"4","last_reported":1721423231,"current_range_meters":14000,"station_id":"ce4bhq92rcd13ifvqhjg","pricing_plan_id":"cebpf4jnsgd1na2vs0mg"},{"bike_id":"7d6d02c4-f578-43d0-9c7c-bfbf16ba722a","system_id":"levelo_inurba_marseille","lat":43.298037,"lon":5.381066,"is_reserved":false,"is_disabled":false,"rental_uris":{"android":"levelo://app?vid=7d6d02c4-f578-43d0-9c7c-bfbf16ba722a","ios":"levelo://app?vid=7d6d02c4-f578-43d0-9c7c-bfbf16ba722a"},"vehicle_type_id":"4","last_reported":1721423231,"current_range_meters":18800,"station_id":"ce4bgip2rcd13ifvqbb0","pricing_plan_id":"cebpf4jnsgd1na2vs0mg"},{"bike_id":"ae4e3888-66ee-4ea5-9825-03794d35cfa0","system_id":"levelo_inurba_marseille","lat":43.304274,"lon":5.388873,"is_reserved":false,"is_disabled":false,"rental_uris":{"android":"levelo://app?vid=ae4e3888-66ee-4ea5-9825-03794d35cfa0","ios":"levelo://app?vid=ae4e3888-66ee-4ea5-9825-03794d35cfa0"},"vehicle_type_id":"4","last_reported":1721423231,"current_range_meters":26400,"station_id":"ce4bgk12rcd13ifvqbi0","pricing_plan_id":"cebpf4jnsgd1na2vs0mg"},{"bike_id":"bebf3927-0773-4fd6-80ee-851ee92f7902","system_id":"levelo_inurba_marseille","lat":43.296277,"lon":5.377108,"is_reserved":false,"is_disabled":false,"rental_uris":{"android":"levelo://app?vid=bebf3927-0773-4fd6-80ee-851ee92f7902","ios":"levelo://app?vid=bebf3927-0773-4fd6-80ee-851ee92f7902"},"vehicle_type_id":"4","last_reported":1721423231,"current_range_meters":0,"station_id":"ce4bgi92rcd13ifvqb90","pricing_plan_id":"cebpf4jnsgd1na2vs0mg"},{"bike_id":"4afdc862-16bc-4670-ac8a-f28ad6b0af01","system_id":"levelo_inurba_marseille","lat":43.303974,"lon":5.389132,"is_reserved":false,"is_disabled":false,"rental_uris":{"android":"levelo://app?vid=4afdc862-16bc-4670-ac8a-f28ad6b0af01","ios":"levelo://app?vid=4afdc862-16bc-4670-ac8a-f28ad6b0af01"},"vehicle_type_id":"4","last_reported":1721423231,"current_range_meters":20800,"station_id":"ce4bgk12rcd13ifvqbi0","pricing_plan_id":"cebpf4jnsgd1na2vs0mg"},{"bike_id":"afc2cc17-8b71-49e1-883a-3b89a0ae1a9f","system_id":"levelo_inurba_marseille","lat":43.299707,"lon":5.384859,"is_reserved":false,"is_disabled":false,"rental_uris":{"android":"levelo://app?vid=afc2cc17-8b71-49e1-883a-3b89a0ae1a9f","ios":"levelo://app?vid=afc2cc17-8b71-49e1-883a-3b89a0ae1a9f"},"vehicle_type_id":"4","last_reported":1721423231,"current_range_meters":24400,"station_id":"ce4bgj92rcd13ifvqbd0","pricing_plan_id":"cebpf4jnsgd1na2vs0mg"},{"bike_id":"b75b8bf1-fc2a-4daf-9aa4-65adac31f85a","system_id":"levelo_inurba_marseille","lat":43.299707,"lon":5.384859,"is_reserved":false,"is_disabled":false,"rental_uris":{"android":"levelo://app?vid=b75b8bf1-fc2a-4daf-9aa4-65adac31f85a","ios":"levelo://app?vid=b75b8bf1-fc2a-4daf-9aa4-65adac31f85a"},"vehicle_type_id":"4","last_reported":1721423231,"current_range_meters":24000,"station_id":"ce4bgj92rcd13ifvqbd0","pricing_plan_id":"cebpf4jnsgd1na2vs0mg"},{"bike_id":"d1acaeea-7049-4794-9380-13b497f4ff16","system_id":"levelo_inurba_marseille","lat":43.29972,"lon":5.38499,"is_reserved":false,"is_disabled":false,"rental_uris":{"android":"levelo://app?vid=d1acaeea-7049-4794-9380-13b497f4ff16","ios":"levelo://app?vid=d1acaeea-7049-4794-9380-13b497f4ff16"},"vehicle_type_id":"4","last_reported":1721423231,"current_range_meters":31200,"station_id":"ce4bgj92rcd13ifvqbd0","pricing_plan_id":"cebpf4jnsgd1na2vs0mg"},{"bike_id":"7fa0591a-aa78-4853-ac8c-56b18b1cf266","system_id":"levelo_inurba_marseille","lat":43.29968,"lon":5.38494,"is_reserved":false,"is_disabled":false,"rental_uris":{"android":"levelo://app?vid=7fa0591a-aa78-4853-ac8c-56b18b1cf266","ios":"levelo://app?vid=7fa0591a-aa78-4853-ac8c-56b18b1cf266"},"vehicle_type_id":"4","last_reported":1721423231,"current_range_meters":3600,"station_id":"ce4bgj92rcd13ifvqbd0","pricing_plan_id":"cebpf4jnsgd1na2vs0mg"},{"bike_id":"b0499545-f8f4-4b72-8072-6b8f88c36a99","system_id":"levelo_inurba_marseille","lat":43.299707,"lon":5.384859,"is_reserved":false,"is_disabled":false,"rental_uris":{"android":"levelo://app?vid=b0499545-f8f4-4b72-8072-6b8f88c36a99","ios":"levelo://app?vid=b0499545-f8f4-4b72-8072-6b8f88c36a99"},"vehicle_type_id":"4","last_reported":1721423231,"current_range_meters":19600,"station_id":"ce4bgj92rcd13ifvqbd0","pricing_plan_id":"cebpf4jnsgd1na2vs0mg"},{"bike_id":"366ef61a-6ccd-496f-b08f-46075699463d","system_id":"levelo_inurba_marseille","lat":43.299724,"lon":5.384848,"is_reserved":false,"is_disabled":false,"rental_uris":{"android":"levelo://app?vid=366ef61a-6ccd-496f-b08f-46075699463d","ios":"levelo://app?vid=366ef61a-6ccd-496f-b08f-46075699463d"},"vehicle_type_id":"4","last_reported":1721423231,"current_range_meters":29200,"station_id":"ce4bgj92rcd13ifvqbd0","pricing_plan_id":"cebpf4jnsgd1na2vs0mg"},{"bike_id":"a2441f9c-79ab-40da-9349-c1f75debe1ef","system_id":"levelo_inurba_marseille","lat":43.29965,"lon":5.38499,"is_reserved":false,"is_disabled":false,"rental_uris":{"android":"levelo://app?vid=a2441f9c-79ab-40da-9349-c1f75debe1ef","ios":"levelo://app?vid=a2441f9c-79ab-40da-9349-c1f75debe1ef"},"vehicle_type_id":"4","last_reported":1721423231,"current_range_meters":11600,"station_id":"ce4bgj92rcd13ifvqbd0","pricing_plan_id":"cebpf4jnsgd1na2vs0mg"},{"bike_id":"18491e9b-089a-423d-92a6-2224fb4ac1cb","system_id":"levelo_inurba_marseille","lat":43.30473,"lon":5.39011,"is_reserved":false,"is_disabled":false,"rental_uris":{"android":"levelo://app?vid=18491e9b-089a-423d-92a6-2224fb4ac1cb","ios":"levelo://app?vid=18491e9b-089a-423d-92a6-2224fb4ac1cb"},"vehicle_type_id":"4","last_reported":1721423231,"current_range_meters":6400,"station_id":"","pricing_plan_id":"cebpf4jnsgd1na2vs0mg"},{"bike_id":"f2b8ae3d-29c8-4eae-9802-e04404ae3a98","system_id":"levelo_inurba_marseille","lat":43.304278,"lon":5.388868,"is_reserved":false,"is_disabled":false,"rental_uris":{"android":"levelo://app?vid=f2b8ae3d-29c8-4eae-9802-e04404ae3a98","ios":"levelo://app?vid=f2b8ae3d-29c8-4eae-9802-e04404ae3a98"},"vehicle_type_id":"4","last_reported":1721423231,"current_range_meters":26800,"station_id":"ce4bgk12rcd13ifvqbi0","pricing_plan_id":"cebpf4jnsgd1na2vs0mg"},{"bike_id":"52198e0e-c8af-4b52-9b23-a6b1eb7a72ca","system_id":"levelo_inurba_marseille","lat":43.301396,"lon":5.387812,"is_reserved":false,"is_disabled":false,"rental_uris":{"android":"levelo://app?vid=52198e0e-c8af-4b52-9b23-a6b1eb7a72ca","ios":"levelo://app?vid=52198e0e-c8af-4b52-9b23-a6b1eb7a72ca"},"vehicle_type_id":"4","last_reported":1721423231,"current_range_meters":1200,"station_id":"ce4bghh2rcd13ifvqb60","pricing_plan_id":"cebpf4jnsgd1na2vs0mg"},{"bike_id":"f56f7864-3af0-486f-a013-56635c8cbf24","system_id":"levelo_inurba_marseille","lat":43.32367,"lon":5.388836,"is_reserved":false,"is_disabled":false,"rental_uris":{"android":"levelo://app?vid=f56f7864-3af0-486f-a013-56635c8cbf24","ios":"levelo://app?vid=f56f7864-3af0-486f-a013-56635c8cbf24"},"vehicle_type_id":"4","last_reported":1721423231,"current_range_meters":4800,"station_id":"ce4bhqp2rcd13ifvqhog","pricing_plan_id":"cebpf4jnsgd1na2vs0mg"},{"bike_id":"d6d7c7e5-b554-4fef-964c-74d7f053297d","system_id":"levelo_inurba_marseille","lat":43.32367,"lon":5.388836,"is_reserved":false,"is_disabled":false,"rental_uris":{"android":"levelo://app?vid=d6d7c7e5-b554-4fef-964c-74d7f053297d","ios":"levelo://app?vid=d6d7c7e5-b554-4fef-964c-74d7f053297d"},"vehicle_type_id":"4","last_reported":1721423231,"current_range_meters":14000,"station_id":"ce4bhqp2rcd13ifvqhog","pricing_plan_id":"cebpf4jnsgd1na2vs0mg"},{"bike_id":"3bf50158-45ee-49de-b525-cf01c8680091","system_id":"levelo_inurba_marseille","lat":43.32367,"lon":5.388836,"is_reserved":false,"is_disabled":false,"rental_uris":{"android":"levelo://app?vid=3bf50158-45ee-49de-b525-cf01c8680091","ios":"levelo://app?vid=3bf50158-45ee-49de-b525-cf01c8680091"},"vehicle_type_id":"4","last_reported":1721423231,"current_range_meters":0,"station_id":"ce4bhqp2rcd13ifvqhog","pricing_plan_id":"cebpf4jnsgd1na2vs0mg"},{"bike_id":"dd6dc34b-dd65-404f-a0ed-361d261268b3","system_id":"levelo_inurba_marseille","lat":43.32367,"lon":5.388836,"is_reserved":false,"is_disabled":false,"rental_uris":{"android":"levelo://app?vid=dd6dc34b-dd65-404f-a0ed-361d261268b3","ios":"levelo://app?vid=dd6dc34b-dd65-404f-a0ed-361d261268b3"},"vehicle_type_id":"4","last_reported":1721423231,"current_range_meters":23600,"station_id":"ce4bhqp2rcd13ifvqhog","pricing_plan_id":"cebpf4jnsgd1na2vs0mg"},{"bike_id":"2d1321de-2e02-419e-b642-993934309def","system_id":"levelo_inurba_marseille","lat":43.29602,"lon":5.381084,"is_reserved":false,"is_disabled":false,"rental_uris":{"android":"levelo://app?vid=2d1321de-2e02-419e-b642-993934309def","ios":"levelo://app?vid=2d1321de-2e02-419e-b642-993934309def"},"vehicle_type_id":"4","last_reported":1721423231,"current_range_meters":2400,"station_id":"ce4bgl12rcd13ifvqbo0","pricing_plan_id":"cebpf4jnsgd1na2vs0mg"},{"bike_id":"26b40a78-e238-423f-825e-17c1d2727e21","system_id":"levelo_inurba_marseille","lat":43.29602,"lon":5.381084,"is_reserved":false,"is_disabled":false,"rental_uris":{"android":"levelo://app?vid=26b40a78-e238-423f-825e-17c1d2727e21","ios":"levelo://app?vid=26b40a78-e238-423f-825e-17c1d2727e21"},"vehicle_type_id":"4","last_reported":1721423231,"current_range_meters":2800,"station_id":"ce4bgl12rcd13ifvqbo0","pricing_plan_id":"cebpf4jnsgd1na2vs0mg"},{"bike_id":"d622e8c4-750a-481b-aaa9-f13f7553d928","system_id":"levelo_inurba_marseille","lat":43.29602,"lon":5.381084,"is_reserved":false,"is_disabled":false,"rental_uris":{"android":"levelo://app?vid=d622e8c4-750a-481b-aaa9-f13f7553d928","ios":"levelo://app?vid=d622e8c4-750a-481b-aaa9-f13f7553d928"},"vehicle_type_id":"4","last_reported":1721423231,"current_range_meters":6000,"station_id":"ce4bgl12rcd13ifvqbo0","pricing_plan_id":"cebpf4jnsgd1na2vs0mg"},{"bike_id":"85a8bbd3-4e0d-42de-8e12-292aec324b4b","system_id":"levelo_inurba_marseille","lat":43.29602,"lon":5.381084,"is_reserved":false,"is_disabled":false,"rental_uris":{"android":"levelo://app?vid=85a8bbd3-4e0d-42de-8e12-292aec324b4b","ios":"levelo://app?vid=85a8bbd3-4e0d-42de-8e12-292aec324b4b"},"vehicle_type_id":"4","last_reported":1721423231,"current_range_meters":28400,"station_id":"ce4bgl12rcd13ifvqbo0","pricing_plan_id":"cebpf4jnsgd1na2vs0mg"},{"bike_id":"e106d19c-f283-4e8e-adf9-bd9a4e8ac7f9","system_id":"levelo_inurba_marseille","lat":43.29602,"lon":5.381084,"is_reserved":false,"is_disabled":false,"rental_uris":{"android":"levelo://app?vid=e106d19c-f283-4e8e-adf9-bd9a4e8ac7f9","ios":"levelo://app?vid=e106d19c-f283-4e8e-adf9-bd9a4e8ac7f9"},"vehicle_type_id":"4","last_reported":1721423231,"current_range_meters":9200,"station_id":"ce4bgl12rcd13ifvqbo0","pricing_plan_id":"cebpf4jnsgd1na2vs0mg"},{"bike_id":"43489901-2880-4e4c-b180-585142b47972","system_id":"levelo_inurba_marseille","lat":43.293009,"lon":5.374584,"is_reserved":false,"is_disabled":false,"rental_uris":{"android":"levelo://app?vid=43489901-2880-4e4c-b180-585142b47972","ios":"levelo://app?vid=43489901-2880-4e4c-b180-585142b47972"},"vehicle_type_id":"4","last_reported":1721423231,"current_range_meters":0,"station_id":"ce4bgi12rcd13ifvqb70","pricing_plan_id":"cebpf4jnsgd1na2vs0mg"},{"bike_id":"0319e1e7-91a3-4005-ab57-53bdc379d50c","system_id":"levelo_inurba_marseille","lat":43.305994,"lon":5.393687,"is_reserved":false,"is_disabled":false,"rental_uris":{"android":"levelo://app?vid=0319e1e7-91a3-4005-ab57-53bdc379d50c","ios":"levelo://app?vid=0319e1e7-91a3-4005-ab57-53bdc379d50c"},"vehicle_type_id":"4","last_reported":1721423231,"current_range_meters":28000,"station_id":"ce4bh0p2rcd13ifvqd80","pricing_plan_id":"cebpf4jnsgd1na2vs0mg"},{"bike_id":"33f9bdcd-81ec-4c8e-b5d7-7703e457a599","system_id":"levelo_inurba_marseille","lat":43.305994,"lon":5.393687,"is_reserved":false,"is_disabled":false,"rental_uris":{"android":"levelo://app?vid=33f9bdcd-81ec-4c8e-b5d7-7703e457a599","ios":"levelo://app?vid=33f9bdcd-81ec-4c8e-b5d7-7703e457a599"},"vehicle_type_id":"4","last_reported":1721423231,"current_range_meters":3600,"station_id":"ce4bh0p2rcd13ifvqd80","pricing_plan_id":"cebpf4jnsgd1na2vs0mg"},{"bike_id":"e8728e08-115f-4295-9926-44debd636c7c","system_id":"levelo_inurba_marseille","lat":43.305994,"lon":5.393687,"is_reserved":false,"is_disabled":false,"rental_uris":{"android":"levelo://app?vid=e8728e08-115f-4295-9926-44debd636c7c","ios":"levelo://app?vid=e8728e08-115f-4295-9926-44debd636c7c"},"vehicle_type_id":"4","last_reported":1721423231,"current_range_meters":19200,"station_id":"ce4bh0p2rcd13ifvqd80","pricing_plan_id":"cebpf4jnsgd1na2vs0mg"},{"bike_id":"29cd2e47-7146-417c-a3a4-96e88bf36db8","system_id":"levelo_inurba_marseille","lat":43.30085,"lon":5.390856,"is_reserved":false,"is_disabled":false,"rental_uris":{"android":"levelo://app?vid=29cd2e47-7146-417c-a3a4-96e88bf36db8","ios":"levelo://app?vid=29cd2e47-7146-417c-a3a4-96e88bf36db8"},"vehicle_type_id":"4","last_reported":1721423231,"current_range_meters":30400,"station_id":"ce4bh192rcd13ifvqdb0","pricing_plan_id":"cebpf4jnsgd1na2vs0mg"},{"bike_id":"7152eb81-ced4-4f99-8e7c-7fa29bea092c","system_id":"levelo_inurba_marseille","lat":43.30309,"lon":5.3921,"is_reserved":false,"is_disabled":false,"rental_uris":{"android":"levelo://app?vid=7152eb81-ced4-4f99-8e7c-7fa29bea092c","ios":"levelo://app?vid=7152eb81-ced4-4f99-8e7c-7fa29bea092c"},"vehicle_type_id":"4","last_reported":1721423231,"current_range_meters":0,"station_id":"ce4bgkh2rcd13ifvqbk0","pricing_plan_id":"cebpf4jnsgd1na2vs0mg"},{"bike_id":"d2b0627a-a538-471c-9002-29943e101bc2","system_id":"levelo_inurba_marseille","lat":43.302992,"lon":5.392136,"is_reserved":false,"is_disabled":false,"rental_uris":{"android":"levelo://app?vid=d2b0627a-a538-471c-9002-29943e101bc2","ios":"levelo://app?vid=d2b0627a-a538-471c-9002-29943e101bc2"},"vehicle_type_id":"4","last_reported":1721423231,"current_range_meters":27600,"station_id":"ce4bgkh2rcd13ifvqbk0","pricing_plan_id":"cebpf4jnsgd1na2vs0mg"},{"bike_id":"ee52b0a3-4d80-4d1e-ac0e-fbd63c7d60c4","system_id":"levelo_inurba_marseille","lat":43.2936,"lon":5.37835,"is_reserved":false,"is_disabled":false,"rental_uris":{"android":"levelo://app?vid=ee52b0a3-4d80-4d1e-ac0e-fbd63c7d60c4","ios":"levelo://app?vid=ee52b0a3-4d80-4d1e-ac0e-fbd63c7d60c4"},"vehicle_type_id":"4","last_reported":1721423231,"current_range_meters":20400,"station_id":"ce4bgjh2rcd13ifvqbf0","pricing_plan_id":"cebpf4jnsgd1na2vs0mg"},{"bike_id":"01c38f6e-01ae-433c-82e1-f581779e2b35","system_id":"levelo_inurba_marseille","lat":43.302992,"lon":5.392136,"is_reserved":false,"is_disabled":false,"rental_uris":{"android":"levelo://app?vid=01c38f6e-01ae-433c-82e1-f581779e2b35","ios":"levelo://app?vid=01c38f6e-01ae-433c-82e1-f581779e2b35"},"vehicle_type_id":"4","last_reported":1721423231,"current_range_meters":27200,"station_id":"ce4bgkh2rcd13ifvqbk0","pricing_plan_id":"cebpf4jnsgd1na2vs0mg"},{"bike_id":"4a34a5e8-ec0a-402f-901b-59d84553153e","system_id":"levelo_inurba_marseille","lat":43.2936,"lon":5.37835,"is_reserved":false,"is_disabled":false,"rental_uris":{"android":"levelo://app?vid=4a34a5e8-ec0a-402f-901b-59d84553153e","ios":"levelo://app?vid=4a34a5e8-ec0a-402f-901b-59d84553153e"},"vehicle_type_id":"4","last_reported":1721423231,"current_range_meters":3200,"station_id":"ce4bgjh2rcd13ifvqbf0","pricing_plan_id":"cebpf4jnsgd1na2vs0mg"},{"bike_id":"b9c2d7b2-7ac3-4e09-bdcc-3e7e482ec464","system_id":"levelo_inurba_marseille","lat":43.286039,"lon":5.370679,"is_reserved":false,"is_disabled":false,"rental_uris":{"android":"levelo://app?vid=b9c2d7b2-7ac3-4e09-bdcc-3e7e482ec464","ios":"levelo://app?vid=b9c2d7b2-7ac3-4e09-bdcc-3e7e482ec464"},"vehicle_type_id":"4","last_reported":1721423231,"current_range_meters":14000,"station_id":"ce4bht12rcd13ifvqi60","pricing_plan_id":"cebpf4jnsgd1na2vs0mg"},{"bike_id":"3ddbbf1d-4d43-4ff3-b6ae-06481c3b842e","system_id":"levelo_inurba_marseille","lat":43.30085,"lon":5.390856,"is_reserved":false,"is_disabled":false,"rental_uris":{"android":"levelo://app?vid=3ddbbf1d-4d43-4ff3-b6ae-06481c3b842e","ios":"levelo://app?vid=3ddbbf1d-4d43-4ff3-b6ae-06481c3b842e"},"vehicle_type_id":"4","last_reported":1721423231,"current_range_meters":19200,"station_id":"ce4bh192rcd13ifvqdb0","pricing_plan_id":"cebpf4jnsgd1na2vs0mg"},{"bike_id":"48249435-b897-4028-844c-815a065b5794","system_id":"levelo_inurba_marseille","lat":43.298764,"lon":5.388973,"is_reserved":false,"is_disabled":false,"rental_uris":{"android":"levelo://app?vid=48249435-b897-4028-844c-815a065b5794","ios":"levelo://app?vid=48249435-b897-4028-844c-815a065b5794"},"vehicle_type_id":"4","last_reported":1721423231,"current_range_meters":18000,"station_id":"ce4bh392rcd13ifvqdl0","pricing_plan_id":"cebpf4jnsgd1na2vs0mg"},{"bike_id":"12362386-155b-4421-9d38-1be43ea13b89","system_id":"levelo_inurba_marseille","lat":43.298764,"lon":5.388973,"is_reserved":false,"is_disabled":false,"rental_uris":{"android":"levelo://app?vid=12362386-155b-4421-9d38-1be43ea13b89","ios":"levelo://app?vid=12362386-155b-4421-9d38-1be43ea13b89"},"vehicle_type_id":"4","last_reported":1721423231,"current_range_meters":26400,"station_id":"ce4bh392rcd13ifvqdl0","pricing_plan_id":"cebpf4jnsgd1na2vs0mg"},{"bike_id":"f26ab6f1-43fa-4484-b300-333e99484297","system_id":"levelo_inurba_marseille","lat":43.298764,"lon":5.388973,"is_reserved":false,"is_disabled":false,"rental_uris":{"android":"levelo://app?vid=f26ab6f1-43fa-4484-b300-333e99484297","ios":"levelo://app?vid=f26ab6f1-43fa-4484-b300-333e99484297"},"vehicle_type_id":"4","last_reported":1721423231,"current_range_meters":11200,"station_id":"ce4bh392rcd13ifvqdl0","pricing_plan_id":"cebpf4jnsgd1na2vs0mg"},{"bike_id":"dd4fa6f3-30ed-48fe-94ce-a2fba4e6ea9a","system_id":"levelo_inurba_marseille","lat":43.298764,"lon":5.388973,"is_reserved":false,"is_disabled":false,"rental_uris":{"android":"levelo://app?vid=dd4fa6f3-30ed-48fe-94ce-a2fba4e6ea9a","ios":"levelo://app?vid=dd4fa6f3-30ed-48fe-94ce-a2fba4e6ea9a"},"vehicle_type_id":"4","last_reported":1721423231,"current_range_meters":24800,"station_id":"ce4bh392rcd13ifvqdl0","pricing_plan_id":"cebpf4jnsgd1na2vs0mg"},{"bike_id":"6f0d6780-e4c3-4682-9ad2-38faf2b3dbfb","system_id":"levelo_inurba_marseille","lat":43.298764,"lon":5.388973,"is_reserved":false,"is_disabled":false,"rental_uris":{"android":"levelo://app?vid=6f0d6780-e4c3-4682-9ad2-38faf2b3dbfb","ios":"levelo://app?vid=6f0d6780-e4c3-4682-9ad2-38faf2b3dbfb"},"vehicle_type_id":"4","last_reported":1721423231,"current_range_meters":31200,"station_id":"ce4bh392rcd13ifvqdl0","pricing_plan_id":"cebpf4jnsgd1na2vs0mg"},{"bike_id":"69dae534-15b5-442f-a20b-9558ce7a2011","system_id":"levelo_inurba_marseille","lat":43.298764,"lon":5.388973,"is_reserved":false,"is_disabled":false,"rental_uris":{"android":"levelo://app?vid=69dae534-15b5-442f-a20b-9558ce7a2011","ios":"levelo://app?vid=69dae534-15b5-442f-a20b-9558ce7a2011"},"vehicle_type_id":"4","last_reported":1721423231,"current_range_meters":13600,"station_id":"ce4bh392rcd13ifvqdl0","pricing_plan_id":"cebpf4jnsgd1na2vs0mg"},{"bike_id":"61caf979-73d8-4ce9-9b52-640e4019f497","system_id":"levelo_inurba_marseille","lat":43.29885,"lon":5.38915,"is_reserved":false,"is_disabled":false,"rental_uris":{"android":"levelo://app?vid=61caf979-73d8-4ce9-9b52-640e4019f497","ios":"levelo://app?vid=61caf979-73d8-4ce9-9b52-640e4019f497"},"vehicle_type_id":"4","last_reported":1721423231,"current_range_meters":31200,"station_id":"ce4bh392rcd13ifvqdl0","pricing_plan_id":"cebpf4jnsgd1na2vs0mg"},{"bike_id":"9548013c-16d3-4787-83ae-02e604bce91f","system_id":"levelo_inurba_marseille","lat":43.292977,"lon":5.37858,"is_reserved":false,"is_disabled":false,"rental_uris":{"android":"levelo://app?vid=9548013c-16d3-4787-83ae-02e604bce91f","ios":"levelo://app?vid=9548013c-16d3-4787-83ae-02e604bce91f"},"vehicle_type_id":"4","last_reported":1721423231,"current_range_meters":6800,"station_id":"","pricing_plan_id":"cebpf4jnsgd1na2vs0mg"},{"bike_id":"ba7cbc88-4c3c-40e1-926b-17827d56281d","system_id":"levelo_inurba_marseille","lat":43.33417,"lon":5.37008,"is_reserved":false,"is_disabled":false,"rental_uris":{"android":"levelo://app?vid=ba7cbc88-4c3c-40e1-926b-17827d56281d","ios":"levelo://app?vid=ba7cbc88-4c3c-40e1-926b-17827d56281d"},"vehicle_type_id":"4","last_reported":1721423231,"current_range_meters":18000,"station_id":"","pricing_plan_id":"cebpf4jnsgd1na2vs0mg"},{"bike_id":"5a1fc433-663f-48d3-acfa-e670b51d8c1f","system_id":"levelo_inurba_marseille","lat":43.291994,"lon":5.357886,"is_reserved":false,"is_disabled":false,"rental_uris":{"android":"levelo://app?vid=5a1fc433-663f-48d3-acfa-e670b51d8c1f","ios":"levelo://app?vid=5a1fc433-663f-48d3-acfa-e670b51d8c1f"},"vehicle_type_id":"4","last_reported":1721423231,"current_range_meters":2000,"station_id":"ce4bhb12rcd13ifvqel0","pricing_plan_id":"cebpf4jnsgd1na2vs0mg"},{"bike_id":"4efd8db5-17cf-4084-910e-1e5157753993","system_id":"levelo_inurba_marseille","lat":43.313291,"lon":5.396838,"is_reserved":false,"is_disabled":false,"rental_uris":{"android":"levelo://app?vid=4efd8db5-17cf-4084-910e-1e5157753993","ios":"levelo://app?vid=4efd8db5-17cf-4084-910e-1e5157753993"},"vehicle_type_id":"4","last_reported":1721423231,"current_range_meters":15600,"station_id":"ce4bgvp2rcd13ifvqcu0","pricing_plan_id":"cebpf4jnsgd1na2vs0mg"},{"bike_id":"6ce2e498-351c-43d8-ae81-a9effee58efd","system_id":"levelo_inurba_marseille","lat":43.313291,"lon":5.396838,"is_reserved":false,"is_disabled":false,"rental_uris":{"android":"levelo://app?vid=6ce2e498-351c-43d8-ae81-a9effee58efd","ios":"levelo://app?vid=6ce2e498-351c-43d8-ae81-a9effee58efd"},"vehicle_type_id":"4","last_reported":1721423231,"current_range_meters":23200,"station_id":"ce4bgvp2rcd13ifvqcu0","pricing_plan_id":"cebpf4jnsgd1na2vs0mg"},{"bike_id":"67e65a76-76a1-4030-a36f-5a3d7a5ce26d","system_id":"levelo_inurba_marseille","lat":43.309038,"lon":5.396546,"is_reserved":false,"is_disabled":false,"rental_uris":{"android":"levelo://app?vid=67e65a76-76a1-4030-a36f-5a3d7a5ce26d","ios":"levelo://app?vid=67e65a76-76a1-4030-a36f-5a3d7a5ce26d"},"vehicle_type_id":"4","last_reported":1721423231,"current_range_meters":7200,"station_id":"ce4bh012rcd13ifvqcv0","pricing_plan_id":"cebpf4jnsgd1na2vs0mg"},{"bike_id":"81f193cc-2536-42e0-aff7-636d10f139d0","system_id":"levelo_inurba_marseille","lat":43.313291,"lon":5.396838,"is_reserved":false,"is_disabled":false,"rental_uris":{"android":"levelo://app?vid=81f193cc-2536-42e0-aff7-636d10f139d0","ios":"levelo://app?vid=81f193cc-2536-42e0-aff7-636d10f139d0"},"vehicle_type_id":"4","last_reported":1721423231,"current_range_meters":9200,"station_id":"ce4bgvp2rcd13ifvqcu0","pricing_plan_id":"cebpf4jnsgd1na2vs0mg"},{"bike_id":"66be904f-a2a6-45a4-81bb-47c0b5ea1556","system_id":"levelo_inurba_marseille","lat":43.313291,"lon":5.396838,"is_reserved":false,"is_disabled":false,"rental_uris":{"android":"levelo://app?vid=66be904f-a2a6-45a4-81bb-47c0b5ea1556","ios":"levelo://app?vid=66be904f-a2a6-45a4-81bb-47c0b5ea1556"},"vehicle_type_id":"4","last_reported":1721423231,"current_range_meters":21200,"station_id":"ce4bgvp2rcd13ifvqcu0","pricing_plan_id":"cebpf4jnsgd1na2vs0mg"},{"bike_id":"15dc5539-ed45-4a98-af9d-53a0f7fb119b","system_id":"levelo_inurba_marseille","lat":43.309047,"lon":5.396551,"is_reserved":false,"is_disabled":false,"rental_uris":{"android":"levelo://app?vid=15dc5539-ed45-4a98-af9d-53a0f7fb119b","ios":"levelo://app?vid=15dc5539-ed45-4a98-af9d-53a0f7fb119b"},"vehicle_type_id":"4","last_reported":1721423231,"current_range_meters":22400,"station_id":"ce4bh012rcd13ifvqcv0","pricing_plan_id":"cebpf4jnsgd1na2vs0mg"},{"bike_id":"3c8e2d63-8111-4247-b3ab-4657982802e8","system_id":"levelo_inurba_marseille","lat":43.309047,"lon":5.396551,"is_reserved":false,"is_disabled":false,"rental_uris":{"android":"levelo://app?vid=3c8e2d63-8111-4247-b3ab-4657982802e8","ios":"levelo://app?vid=3c8e2d63-8111-4247-b3ab-4657982802e8"},"vehicle_type_id":"4","last_reported":1721423231,"current_range_meters":0,"station_id":"ce4bh012rcd13ifvqcv0","pricing_plan_id":"cebpf4jnsgd1na2vs0mg"},{"bike_id":"a5d6fff6-3b45-4e9b-ba93-9a045cf3565c","system_id":"levelo_inurba_marseille","lat":43.309038,"lon":5.396546,"is_reserved":false,"is_disabled":false,"rental_uris":{"android":"levelo://app?vid=a5d6fff6-3b45-4e9b-ba93-9a045cf3565c","ios":"levelo://app?vid=a5d6fff6-3b45-4e9b-ba93-9a045cf3565c"},"vehicle_type_id":"4","last_reported":1721423231,"current_range_meters":18400,"station_id":"ce4bh012rcd13ifvqcv0","pricing_plan_id":"cebpf4jnsgd1na2vs0mg"},{"bike_id":"2018cde6-d98a-474a-b240-d0f44c1a4341","system_id":"levelo_inurba_marseille","lat":43.30894,"lon":5.39663,"is_reserved":false,"is_disabled":false,"rental_uris":{"android":"levelo://app?vid=2018cde6-d98a-474a-b240-d0f44c1a4341","ios":"levelo://app?vid=2018cde6-d98a-474a-b240-d0f44c1a4341"},"vehicle_type_id":"4","last_reported":1721423231,"current_range_meters":0,"station_id":"ce4bh012rcd13ifvqcv0","pricing_plan_id":"cebpf4jnsgd1na2vs0mg"},{"bike_id":"e1498c21-1021-4a4a-9b26-37702eed94f9","system_id":"levelo_inurba_marseille","lat":43.309047,"lon":5.396551,"is_reserved":false,"is_disabled":false,"rental_uris":{"android":"levelo://app?vid=e1498c21-1021-4a4a-9b26-37702eed94f9","ios":"levelo://app?vid=e1498c21-1021-4a4a-9b26-37702eed94f9"},"vehicle_type_id":"4","last_reported":1721423231,"current_range_meters":30400,"station_id":"ce4bh012rcd13ifvqcv0","pricing_plan_id":"cebpf4jnsgd1na2vs0mg"},{"bike_id":"cad519bf-200f-453e-89f7-5af0fd724ea7","system_id":"levelo_inurba_marseille","lat":43.309038,"lon":5.396546,"is_reserved":false,"is_disabled":false,"rental_uris":{"android":"levelo://app?vid=cad519bf-200f-453e-89f7-5af0fd724ea7","ios":"levelo://app?vid=cad519bf-200f-453e-89f7-5af0fd724ea7"},"vehicle_type_id":"4","last_reported":1721423231,"current_range_meters":6800,"station_id":"ce4bh012rcd13ifvqcv0","pricing_plan_id":"cebpf4jnsgd1na2vs0mg"},{"bike_id":"8369a9a9-91ec-4574-b3f3-a10485a96c04","system_id":"levelo_inurba_marseille","lat":43.30877,"lon":5.3966,"is_reserved":false,"is_disabled":false,"rental_uris":{"android":"levelo://app?vid=8369a9a9-91ec-4574-b3f3-a10485a96c04","ios":"levelo://app?vid=8369a9a9-91ec-4574-b3f3-a10485a96c04"},"vehicle_type_id":"4","last_reported":1721423231,"current_range_meters":2800,"station_id":"ce4bh012rcd13ifvqcv0","pricing_plan_id":"cebpf4jnsgd1na2vs0mg"},{"bike_id":"28f42f0b-2aa2-4783-b0b1-08d18c46fcfe","system_id":"levelo_inurba_marseille","lat":43.309047,"lon":5.396551,"is_reserved":false,"is_disabled":false,"rental_uris":{"android":"levelo://app?vid=28f42f0b-2aa2-4783-b0b1-08d18c46fcfe","ios":"levelo://app?vid=28f42f0b-2aa2-4783-b0b1-08d18c46fcfe"},"vehicle_type_id":"4","last_reported":1721423231,"current_range_meters":2800,"station_id":"ce4bh012rcd13ifvqcv0","pricing_plan_id":"cebpf4jnsgd1na2vs0mg"},{"bike_id":"82d82636-375f-45bd-ac0b-75824fcfbfe8","system_id":"levelo_inurba_marseille","lat":43.309047,"lon":5.396551,"is_reserved":false,"is_disabled":false,"rental_uris":{"android":"levelo://app?vid=82d82636-375f-45bd-ac0b-75824fcfbfe8","ios":"levelo://app?vid=82d82636-375f-45bd-ac0b-75824fcfbfe8"},"vehicle_type_id":"4","last_reported":1721423231,"current_range_meters":18000,"station_id":"ce4bh012rcd13ifvqcv0","pricing_plan_id":"cebpf4jnsgd1na2vs0mg"},{"bike_id":"13f427fa-2312-4e59-9394-e5eff6cb9bf0","system_id":"levelo_inurba_marseille","lat":43.29529,"lon":5.385581,"is_reserved":false,"is_disabled":false,"rental_uris":{"android":"levelo://app?vid=13f427fa-2312-4e59-9394-e5eff6cb9bf0","ios":"levelo://app?vid=13f427fa-2312-4e59-9394-e5eff6cb9bf0"},"vehicle_type_id":"4","last_reported":1721423231,"current_range_meters":16800,"station_id":"ce4bgih2rcd13ifvqba0","pricing_plan_id":"cebpf4jnsgd1na2vs0mg"},{"bike_id":"68f6f676-9a25-42e3-b2e9-7d5792c2b89c","system_id":"levelo_inurba_marseille","lat":43.29529,"lon":5.385581,"is_reserved":false,"is_disabled":false,"rental_uris":{"android":"levelo://app?vid=68f6f676-9a25-42e3-b2e9-7d5792c2b89c","ios":"levelo://app?vid=68f6f676-9a25-42e3-b2e9-7d5792c2b89c"},"vehicle_type_id":"4","last_reported":1721423231,"current_range_meters":19200,"station_id":"ce4bgih2rcd13ifvqba0","pricing_plan_id":"cebpf4jnsgd1na2vs0mg"},{"bike_id":"6ea79a6b-c285-4de8-bc71-85cbb9e1cd0c","system_id":"levelo_inurba_marseille","lat":43.29529,"lon":5.385581,"is_reserved":false,"is_disabled":false,"rental_uris":{"android":"levelo://app?vid=6ea79a6b-c285-4de8-bc71-85cbb9e1cd0c","ios":"levelo://app?vid=6ea79a6b-c285-4de8-bc71-85cbb9e1cd0c"},"vehicle_type_id":"4","last_reported":1721423231,"current_range_meters":20800,"station_id":"ce4bgih2rcd13ifvqba0","pricing_plan_id":"cebpf4jnsgd1na2vs0mg"},{"bike_id":"e83a9396-2174-4640-90a0-8173ea5c1545","system_id":"levelo_inurba_marseille","lat":43.29529,"lon":5.385581,"is_reserved":false,"is_disabled":false,"rental_uris":{"android":"levelo://app?vid=e83a9396-2174-4640-90a0-8173ea5c1545","ios":"levelo://app?vid=e83a9396-2174-4640-90a0-8173ea5c1545"},"vehicle_type_id":"4","last_reported":1721423231,"current_range_meters":16400,"station_id":"ce4bgih2rcd13ifvqba0","pricing_plan_id":"cebpf4jnsgd1na2vs0mg"},{"bike_id":"449bf3d8-caaa-4037-badd-049cb5cf0e3f","system_id":"levelo_inurba_marseille","lat":43.29529,"lon":5.385581,"is_reserved":false,"is_disabled":false,"rental_uris":{"android":"levelo://app?vid=449bf3d8-caaa-4037-badd-049cb5cf0e3f","ios":"levelo://app?vid=449bf3d8-caaa-4037-badd-049cb5cf0e3f"},"vehicle_type_id":"4","last_reported":1721423231,"current_range_meters":31200,"station_id":"ce4bgih2rcd13ifvqba0","pricing_plan_id":"cebpf4jnsgd1na2vs0mg"},{"bike_id":"bcb077bc-6a4b-4532-b1ac-369669a755c9","system_id":"levelo_inurba_marseille","lat":43.29529,"lon":5.385581,"is_reserved":false,"is_disabled":false,"rental_uris":{"android":"levelo://app?vid=bcb077bc-6a4b-4532-b1ac-369669a755c9","ios":"levelo://app?vid=bcb077bc-6a4b-4532-b1ac-369669a755c9"},"vehicle_type_id":"4","last_reported":1721423231,"current_range_meters":14800,"station_id":"ce4bgih2rcd13ifvqba0","pricing_plan_id":"cebpf4jnsgd1na2vs0mg"},{"bike_id":"0859220a-1cfb-41fe-980a-86a0ec2b0d90","system_id":"levelo_inurba_marseille","lat":43.29529,"lon":5.385581,"is_reserved":false,"is_disabled":false,"rental_uris":{"android":"levelo://app?vid=0859220a-1cfb-41fe-980a-86a0ec2b0d90","ios":"levelo://app?vid=0859220a-1cfb-41fe-980a-86a0ec2b0d90"},"vehicle_type_id":"4","last_reported":1721423231,"current_range_meters":5600,"station_id":"ce4bgih2rcd13ifvqba0","pricing_plan_id":"cebpf4jnsgd1na2vs0mg"},{"bike_id":"6ec112d9-fec5-4c54-8fe2-ad20fae2453a","system_id":"levelo_inurba_marseille","lat":43.29529,"lon":5.385581,"is_reserved":false,"is_disabled":false,"rental_uris":{"android":"levelo://app?vid=6ec112d9-fec5-4c54-8fe2-ad20fae2453a","ios":"levelo://app?vid=6ec112d9-fec5-4c54-8fe2-ad20fae2453a"},"vehicle_type_id":"4","last_reported":1721423231,"current_range_meters":31600,"station_id":"ce4bgih2rcd13ifvqba0","pricing_plan_id":"cebpf4jnsgd1na2vs0mg"},{"bike_id":"21f3f6c8-f6a1-45f7-bf9a-1c9a29ce422d","system_id":"levelo_inurba_marseille","lat":43.29529,"lon":5.385581,"is_reserved":false,"is_disabled":false,"rental_uris":{"android":"levelo://app?vid=21f3f6c8-f6a1-45f7-bf9a-1c9a29ce422d","ios":"levelo://app?vid=21f3f6c8-f6a1-45f7-bf9a-1c9a29ce422d"},"vehicle_type_id":"4","last_reported":1721423231,"current_range_meters":31600,"station_id":"ce4bgih2rcd13ifvqba0","pricing_plan_id":"cebpf4jnsgd1na2vs0mg"},{"bike_id":"cbfcfc1e-e0ae-4a90-8421-114b674be564","system_id":"levelo_inurba_marseille","lat":43.29529,"lon":5.385581,"is_reserved":false,"is_disabled":false,"rental_uris":{"android":"levelo://app?vid=cbfcfc1e-e0ae-4a90-8421-114b674be564","ios":"levelo://app?vid=cbfcfc1e-e0ae-4a90-8421-114b674be564"},"vehicle_type_id":"4","last_reported":1721423231,"current_range_meters":18000,"station_id":"ce4bgih2rcd13ifvqba0","pricing_plan_id":"cebpf4jnsgd1na2vs0mg"},{"bike_id":"698a15f3-a744-4283-b822-32d7fcbc8b0b","system_id":"levelo_inurba_marseille","lat":43.29529,"lon":5.385581,"is_reserved":false,"is_disabled":false,"rental_uris":{"android":"levelo://app?vid=698a15f3-a744-4283-b822-32d7fcbc8b0b","ios":"levelo://app?vid=698a15f3-a744-4283-b822-32d7fcbc8b0b"},"vehicle_type_id":"4","last_reported":1721423231,"current_range_meters":31200,"station_id":"ce4bgih2rcd13ifvqba0","pricing_plan_id":"cebpf4jnsgd1na2vs0mg"},{"bike_id":"b25c3d87-0070-4374-bdf5-7e15614284c1","system_id":"levelo_inurba_marseille","lat":43.29529,"lon":5.385581,"is_reserved":false,"is_disabled":false,"rental_uris":{"android":"levelo://app?vid=b25c3d87-0070-4374-bdf5-7e15614284c1","ios":"levelo://app?vid=b25c3d87-0070-4374-bdf5-7e15614284c1"},"vehicle_type_id":"4","last_reported":1721423231,"current_range_meters":2000,"station_id":"ce4bgih2rcd13ifvqba0","pricing_plan_id":"cebpf4jnsgd1na2vs0mg"},{"bike_id":"61f5b2a5-20f8-4469-9048-89078f7c96e0","system_id":"levelo_inurba_marseille","lat":43.29529,"lon":5.385581,"is_reserved":false,"is_disabled":false,"rental_uris":{"android":"levelo://app?vid=61f5b2a5-20f8-4469-9048-89078f7c96e0","ios":"levelo://app?vid=61f5b2a5-20f8-4469-9048-89078f7c96e0"},"vehicle_type_id":"4","last_reported":1721423231,"current_range_meters":31200,"station_id":"ce4bgih2rcd13ifvqba0","pricing_plan_id":"cebpf4jnsgd1na2vs0mg"},{"bike_id":"6a5f15a0-2555-4cdd-98b2-30ce10e6c496","system_id":"levelo_inurba_marseille","lat":43.29529,"lon":5.385581,"is_reserved":false,"is_disabled":false,"rental_uris":{"android":"levelo://app?vid=6a5f15a0-2555-4cdd-98b2-30ce10e6c496","ios":"levelo://app?vid=6a5f15a0-2555-4cdd-98b2-30ce10e6c496"},"vehicle_type_id":"4","last_reported":1721423231,"current_range_meters":29200,"station_id":"ce4bgih2rcd13ifvqba0","pricing_plan_id":"cebpf4jnsgd1na2vs0mg"},{"bike_id":"c6f07855-aa00-42b1-b969-55536f41707e","system_id":"levelo_inurba_marseille","lat":43.29529,"lon":5.385581,"is_reserved":false,"is_disabled":false,"rental_uris":{"android":"levelo://app?vid=c6f07855-aa00-42b1-b969-55536f41707e","ios":"levelo://app?vid=c6f07855-aa00-42b1-b969-55536f41707e"},"vehicle_type_id":"4","last_reported":1721423231,"current_range_meters":22400,"station_id":"ce4bgih2rcd13ifvqba0","pricing_plan_id":"cebpf4jnsgd1na2vs0mg"},{"bike_id":"c9e10013-d8d6-4606-8e63-0c40f9d3e105","system_id":"levelo_inurba_marseille","lat":43.29529,"lon":5.385581,"is_reserved":false,"is_disabled":false,"rental_uris":{"android":"levelo://app?vid=c9e10013-d8d6-4606-8e63-0c40f9d3e105","ios":"levelo://app?vid=c9e10013-d8d6-4606-8e63-0c40f9d3e105"},"vehicle_type_id":"4","last_reported":1721423231,"current_range_meters":10400,"station_id":"ce4bgih2rcd13ifvqba0","pricing_plan_id":"cebpf4jnsgd1na2vs0mg"},{"bike_id":"817e09bc-1ba4-40a4-b571-6ae261979251","system_id":"levelo_inurba_marseille","lat":43.29529,"lon":5.385581,"is_reserved":false,"is_disabled":false,"rental_uris":{"android":"levelo://app?vid=817e09bc-1ba4-40a4-b571-6ae261979251","ios":"levelo://app?vid=817e09bc-1ba4-40a4-b571-6ae261979251"},"vehicle_type_id":"4","last_reported":1721423231,"current_range_meters":15200,"station_id":"ce4bgih2rcd13ifvqba0","pricing_plan_id":"cebpf4jnsgd1na2vs0mg"},{"bike_id":"0229add2-fc29-4b3e-ac8b-6d5a2c7d432e","system_id":"levelo_inurba_marseille","lat":43.29529,"lon":5.385581,"is_reserved":false,"is_disabled":false,"rental_uris":{"android":"levelo://app?vid=0229add2-fc29-4b3e-ac8b-6d5a2c7d432e","ios":"levelo://app?vid=0229add2-fc29-4b3e-ac8b-6d5a2c7d432e"},"vehicle_type_id":"4","last_reported":1721423231,"current_range_meters":4000,"station_id":"ce4bgih2rcd13ifvqba0","pricing_plan_id":"cebpf4jnsgd1na2vs0mg"},{"bike_id":"72a1c061-f195-416f-8e9c-5cefc2468edf","system_id":"levelo_inurba_marseille","lat":43.29529,"lon":5.385581,"is_reserved":false,"is_disabled":false,"rental_uris":{"android":"levelo://app?vid=72a1c061-f195-416f-8e9c-5cefc2468edf","ios":"levelo://app?vid=72a1c061-f195-416f-8e9c-5cefc2468edf"},"vehicle_type_id":"4","last_reported":1721423231,"current_range_meters":2400,"station_id":"ce4bgih2rcd13ifvqba0","pricing_plan_id":"cebpf4jnsgd1na2vs0mg"},{"bike_id":"a6ccefe8-874d-4eb8-9839-4dba5ca53e46","system_id":"levelo_inurba_marseille","lat":43.29529,"lon":5.385581,"is_reserved":false,"is_disabled":false,"rental_uris":{"android":"levelo://app?vid=a6ccefe8-874d-4eb8-9839-4dba5ca53e46","ios":"levelo://app?vid=a6ccefe8-874d-4eb8-9839-4dba5ca53e46"},"vehicle_type_id":"4","last_reported":1721423231,"current_range_meters":5200,"station_id":"ce4bgih2rcd13ifvqba0","pricing_plan_id":"cebpf4jnsgd1na2vs0mg"},{"bike_id":"823bc991-b8a2-4a6c-8a6f-fdad545d167e","system_id":"levelo_inurba_marseille","lat":43.29529,"lon":5.385581,"is_reserved":false,"is_disabled":false,"rental_uris":{"android":"levelo://app?vid=823bc991-b8a2-4a6c-8a6f-fdad545d167e","ios":"levelo://app?vid=823bc991-b8a2-4a6c-8a6f-fdad545d167e"},"vehicle_type_id":"4","last_reported":1721423231,"current_range_meters":5200,"station_id":"ce4bgih2rcd13ifvqba0","pricing_plan_id":"cebpf4jnsgd1na2vs0mg"},{"bike_id":"129ec38a-9ac5-40eb-bc56-92577af025f2","system_id":"levelo_inurba_marseille","lat":43.29529,"lon":5.385581,"is_reserved":false,"is_disabled":false,"rental_uris":{"android":"levelo://app?vid=129ec38a-9ac5-40eb-bc56-92577af025f2","ios":"levelo://app?vid=129ec38a-9ac5-40eb-bc56-92577af025f2"},"vehicle_type_id":"4","last_reported":1721423231,"current_range_meters":24800,"station_id":"ce4bgih2rcd13ifvqba0","pricing_plan_id":"cebpf4jnsgd1na2vs0mg"},{"bike_id":"93c4527a-5708-485b-a5c2-10b6c653c51a","system_id":"levelo_inurba_marseille","lat":43.290779,"lon":5.371482,"is_reserved":false,"is_disabled":false,"rental_uris":{"android":"levelo://app?vid=93c4527a-5708-485b-a5c2-10b6c653c51a","ios":"levelo://app?vid=93c4527a-5708-485b-a5c2-10b6c653c51a"},"vehicle_type_id":"4","last_reported":1721423231,"current_range_meters":23600,"station_id":"ce4bh5p2rcd13ifvqe4g","pricing_plan_id":"cebpf4jnsgd1na2vs0mg"},{"bike_id":"831ad834-ab59-4403-b4ab-155531400375","system_id":"levelo_inurba_marseille","lat":43.29529,"lon":5.385581,"is_reserved":false,"is_disabled":false,"rental_uris":{"android":"levelo://app?vid=831ad834-ab59-4403-b4ab-155531400375","ios":"levelo://app?vid=831ad834-ab59-4403-b4ab-155531400375"},"vehicle_type_id":"4","last_reported":1721423231,"current_range_meters":27600,"station_id":"ce4bgih2rcd13ifvqba0","pricing_plan_id":"cebpf4jnsgd1na2vs0mg"},{"bike_id":"257032b9-99bd-4728-bb72-af494d6f3839","system_id":"levelo_inurba_marseille","lat":43.290779,"lon":5.371482,"is_reserved":false,"is_disabled":false,"rental_uris":{"android":"levelo://app?vid=257032b9-99bd-4728-bb72-af494d6f3839","ios":"levelo://app?vid=257032b9-99bd-4728-bb72-af494d6f3839"},"vehicle_type_id":"4","last_reported":1721423231,"current_range_meters":0,"station_id":"ce4bh5p2rcd13ifvqe4g","pricing_plan_id":"cebpf4jnsgd1na2vs0mg"},{"bike_id":"aebae126-f22d-464f-97f8-d28c48ee7704","system_id":"levelo_inurba_marseille","lat":43.290319,"lon":5.375732,"is_reserved":false,"is_disabled":false,"rental_uris":{"android":"levelo://app?vid=aebae126-f22d-464f-97f8-d28c48ee7704","ios":"levelo://app?vid=aebae126-f22d-464f-97f8-d28c48ee7704"},"vehicle_type_id":"4","last_reported":1721423231,"current_range_meters":3200,"station_id":"ce4bh692rcd13ifvqe90","pricing_plan_id":"cebpf4jnsgd1na2vs0mg"},{"bike_id":"a284894e-cb2b-450c-ab93-9076ac93aa22","system_id":"levelo_inurba_marseille","lat":43.294508,"lon":5.385856,"is_reserved":false,"is_disabled":false,"rental_uris":{"android":"levelo://app?vid=a284894e-cb2b-450c-ab93-9076ac93aa22","ios":"levelo://app?vid=a284894e-cb2b-450c-ab93-9076ac93aa22"},"vehicle_type_id":"4","last_reported":1721423231,"current_range_meters":0,"station_id":"","pricing_plan_id":"cebpf4jnsgd1na2vs0mg"},{"bike_id":"ba9cc8c9-e3c5-423c-a67e-c02e194f90e1","system_id":"levelo_inurba_marseille","lat":43.29419,"lon":5.38618,"is_reserved":false,"is_disabled":false,"rental_uris":{"android":"levelo://app?vid=ba9cc8c9-e3c5-423c-a67e-c02e194f90e1","ios":"levelo://app?vid=ba9cc8c9-e3c5-423c-a67e-c02e194f90e1"},"vehicle_type_id":"4","last_reported":1721423231,"current_range_meters":23200,"station_id":"ce4bh2h2rcd13ifvqdh0","pricing_plan_id":"cebpf4jnsgd1na2vs0mg"},{"bike_id":"89a60836-a92a-4049-8c1e-583e300f4adb","system_id":"levelo_inurba_marseille","lat":43.290319,"lon":5.375732,"is_reserved":false,"is_disabled":false,"rental_uris":{"android":"levelo://app?vid=89a60836-a92a-4049-8c1e-583e300f4adb","ios":"levelo://app?vid=89a60836-a92a-4049-8c1e-583e300f4adb"},"vehicle_type_id":"4","last_reported":1721423231,"current_range_meters":29200,"station_id":"ce4bh692rcd13ifvqe90","pricing_plan_id":"cebpf4jnsgd1na2vs0mg"},{"bike_id":"5eac094f-cf0e-49aa-b5d3-5fea73809ff3","system_id":"levelo_inurba_marseille","lat":43.29418,"lon":5.38618,"is_reserved":false,"is_disabled":false,"rental_uris":{"android":"levelo://app?vid=5eac094f-cf0e-49aa-b5d3-5fea73809ff3","ios":"levelo://app?vid=5eac094f-cf0e-49aa-b5d3-5fea73809ff3"},"vehicle_type_id":"4","last_reported":1721423231,"current_range_meters":30800,"station_id":"ce4bh2h2rcd13ifvqdh0","pricing_plan_id":"cebpf4jnsgd1na2vs0mg"},{"bike_id":"c247dcf0-1ebc-4515-adaf-bdc7bd878317","system_id":"levelo_inurba_marseille","lat":43.29418,"lon":5.3862,"is_reserved":false,"is_disabled":false,"rental_uris":{"android":"levelo://app?vid=c247dcf0-1ebc-4515-adaf-bdc7bd878317","ios":"levelo://app?vid=c247dcf0-1ebc-4515-adaf-bdc7bd878317"},"vehicle_type_id":"4","last_reported":1721423231,"current_range_meters":27600,"station_id":"ce4bh2h2rcd13ifvqdh0","pricing_plan_id":"cebpf4jnsgd1na2vs0mg"},{"bike_id":"438306e6-93dd-4a0c-a5cc-9e21bc40f849","system_id":"levelo_inurba_marseille","lat":43.290319,"lon":5.375732,"is_reserved":false,"is_disabled":false,"rental_uris":{"android":"levelo://app?vid=438306e6-93dd-4a0c-a5cc-9e21bc40f849","ios":"levelo://app?vid=438306e6-93dd-4a0c-a5cc-9e21bc40f849"},"vehicle_type_id":"4","last_reported":1721423231,"current_range_meters":27200,"station_id":"ce4bh692rcd13ifvqe90","pricing_plan_id":"cebpf4jnsgd1na2vs0mg"},{"bike_id":"920ad8d6-a047-4657-a7bf-983cd94cfad4","system_id":"levelo_inurba_marseille","lat":43.290319,"lon":5.375732,"is_reserved":false,"is_disabled":false,"rental_uris":{"android":"levelo://app?vid=920ad8d6-a047-4657-a7bf-983cd94cfad4","ios":"levelo://app?vid=920ad8d6-a047-4657-a7bf-983cd94cfad4"},"vehicle_type_id":"4","last_reported":1721423231,"current_range_meters":11200,"station_id":"ce4bh692rcd13ifvqe90","pricing_plan_id":"cebpf4jnsgd1na2vs0mg"},{"bike_id":"9f3683b6-22a0-4c48-a195-c7693138cf0c","system_id":"levelo_inurba_marseille","lat":43.294153,"lon":5.386305,"is_reserved":false,"is_disabled":false,"rental_uris":{"android":"levelo://app?vid=9f3683b6-22a0-4c48-a195-c7693138cf0c","ios":"levelo://app?vid=9f3683b6-22a0-4c48-a195-c7693138cf0c"},"vehicle_type_id":"4","last_reported":1721423231,"current_range_meters":30400,"station_id":"ce4bh2h2rcd13ifvqdh0","pricing_plan_id":"cebpf4jnsgd1na2vs0mg"},{"bike_id":"4f9dc228-8a26-49a8-9a40-a85081b6318a","system_id":"levelo_inurba_marseille","lat":43.294153,"lon":5.386305,"is_reserved":false,"is_disabled":false,"rental_uris":{"android":"levelo://app?vid=4f9dc228-8a26-49a8-9a40-a85081b6318a","ios":"levelo://app?vid=4f9dc228-8a26-49a8-9a40-a85081b6318a"},"vehicle_type_id":"4","last_reported":1721423231,"current_range_meters":28800,"station_id":"ce4bh2h2rcd13ifvqdh0","pricing_plan_id":"cebpf4jnsgd1na2vs0mg"},{"bike_id":"f6704d7a-7b02-497e-9e4a-d2cb9a5e17ac","system_id":"levelo_inurba_marseille","lat":43.290319,"lon":5.375732,"is_reserved":false,"is_disabled":false,"rental_uris":{"android":"levelo://app?vid=f6704d7a-7b02-497e-9e4a-d2cb9a5e17ac","ios":"levelo://app?vid=f6704d7a-7b02-497e-9e4a-d2cb9a5e17ac"},"vehicle_type_id":"4","last_reported":1721423231,"current_range_meters":3200,"station_id":"ce4bh692rcd13ifvqe90","pricing_plan_id":"cebpf4jnsgd1na2vs0mg"},{"bike_id":"dcb596f7-2b88-4644-8600-8c7adf29b05c","system_id":"levelo_inurba_marseille","lat":43.294142,"lon":5.386177,"is_reserved":false,"is_disabled":false,"rental_uris":{"android":"levelo://app?vid=dcb596f7-2b88-4644-8600-8c7adf29b05c","ios":"levelo://app?vid=dcb596f7-2b88-4644-8600-8c7adf29b05c"},"vehicle_type_id":"4","last_reported":1721423231,"current_range_meters":5600,"station_id":"ce4bh2h2rcd13ifvqdh0","pricing_plan_id":"cebpf4jnsgd1na2vs0mg"},{"bike_id":"d089088c-b5b0-47e5-acb3-ca9fa368bfb6","system_id":"levelo_inurba_marseille","lat":43.294153,"lon":5.386305,"is_reserved":false,"is_disabled":false,"rental_uris":{"android":"levelo://app?vid=d089088c-b5b0-47e5-acb3-ca9fa368bfb6","ios":"levelo://app?vid=d089088c-b5b0-47e5-acb3-ca9fa368bfb6"},"vehicle_type_id":"4","last_reported":1721423231,"current_range_meters":28800,"station_id":"ce4bh2h2rcd13ifvqdh0","pricing_plan_id":"cebpf4jnsgd1na2vs0mg"},{"bike_id":"ea0aa08f-952b-493a-8dd7-93cb07ff157b","system_id":"levelo_inurba_marseille","lat":43.29416,"lon":5.38622,"is_reserved":false,"is_disabled":false,"rental_uris":{"android":"levelo://app?vid=ea0aa08f-952b-493a-8dd7-93cb07ff157b","ios":"levelo://app?vid=ea0aa08f-952b-493a-8dd7-93cb07ff157b"},"vehicle_type_id":"4","last_reported":1721423231,"current_range_meters":30800,"station_id":"ce4bh2h2rcd13ifvqdh0","pricing_plan_id":"cebpf4jnsgd1na2vs0mg"},{"bike_id":"d1dfff8d-93e5-4585-8324-12ba86b47269","system_id":"levelo_inurba_marseille","lat":43.294153,"lon":5.386305,"is_reserved":false,"is_disabled":false,"rental_uris":{"android":"levelo://app?vid=d1dfff8d-93e5-4585-8324-12ba86b47269","ios":"levelo://app?vid=d1dfff8d-93e5-4585-8324-12ba86b47269"},"vehicle_type_id":"4","last_reported":1721423231,"current_range_meters":400,"station_id":"ce4bh2h2rcd13ifvqdh0","pricing_plan_id":"cebpf4jnsgd1na2vs0mg"},{"bike_id":"1fe480f4-6fa4-4d8f-8691-1c0c01875bf7","system_id":"levelo_inurba_marseille","lat":43.29418,"lon":5.38627,"is_reserved":false,"is_disabled":false,"rental_uris":{"android":"levelo://app?vid=1fe480f4-6fa4-4d8f-8691-1c0c01875bf7","ios":"levelo://app?vid=1fe480f4-6fa4-4d8f-8691-1c0c01875bf7"},"vehicle_type_id":"4","last_reported":1721423231,"current_range_meters":22800,"station_id":"ce4bh2h2rcd13ifvqdh0","pricing_plan_id":"cebpf4jnsgd1na2vs0mg"},{"bike_id":"68319939-683c-41eb-bd5b-098756187465","system_id":"levelo_inurba_marseille","lat":43.2942,"lon":5.38632,"is_reserved":false,"is_disabled":false,"rental_uris":{"android":"levelo://app?vid=68319939-683c-41eb-bd5b-098756187465","ios":"levelo://app?vid=68319939-683c-41eb-bd5b-098756187465"},"vehicle_type_id":"4","last_reported":1721423231,"current_range_meters":27200,"station_id":"ce4bh2h2rcd13ifvqdh0","pricing_plan_id":"cebpf4jnsgd1na2vs0mg"},{"bike_id":"5998f886-5ff6-4a0a-8ba5-f75e74a67845","system_id":"levelo_inurba_marseille","lat":43.29415,"lon":5.38623,"is_reserved":false,"is_disabled":false,"rental_uris":{"android":"levelo://app?vid=5998f886-5ff6-4a0a-8ba5-f75e74a67845","ios":"levelo://app?vid=5998f886-5ff6-4a0a-8ba5-f75e74a67845"},"vehicle_type_id":"4","last_reported":1721423231,"current_range_meters":24000,"station_id":"ce4bh2h2rcd13ifvqdh0","pricing_plan_id":"cebpf4jnsgd1na2vs0mg"},{"bike_id":"14b6151a-d437-4c5c-a45e-c545b1a241c9","system_id":"levelo_inurba_marseille","lat":43.294162,"lon":5.386292,"is_reserved":false,"is_disabled":false,"rental_uris":{"android":"levelo://app?vid=14b6151a-d437-4c5c-a45e-c545b1a241c9","ios":"levelo://app?vid=14b6151a-d437-4c5c-a45e-c545b1a241c9"},"vehicle_type_id":"4","last_reported":1721423231,"current_range_meters":28800,"station_id":"ce4bh2h2rcd13ifvqdh0","pricing_plan_id":"cebpf4jnsgd1na2vs0mg"},{"bike_id":"ea30bfc1-bf94-45bb-b613-a25830b2b513","system_id":"levelo_inurba_marseille","lat":43.294162,"lon":5.386292,"is_reserved":false,"is_disabled":false,"rental_uris":{"android":"levelo://app?vid=ea30bfc1-bf94-45bb-b613-a25830b2b513","ios":"levelo://app?vid=ea30bfc1-bf94-45bb-b613-a25830b2b513"},"vehicle_type_id":"4","last_reported":1721423231,"current_range_meters":14800,"station_id":"ce4bh2h2rcd13ifvqdh0","pricing_plan_id":"cebpf4jnsgd1na2vs0mg"},{"bike_id":"e55a4559-29d5-40df-99d2-e9021d9ce773","system_id":"levelo_inurba_marseille","lat":43.29416,"lon":5.38625,"is_reserved":false,"is_disabled":false,"rental_uris":{"android":"levelo://app?vid=e55a4559-29d5-40df-99d2-e9021d9ce773","ios":"levelo://app?vid=e55a4559-29d5-40df-99d2-e9021d9ce773"},"vehicle_type_id":"4","last_reported":1721423231,"current_range_meters":9600,"station_id":"ce4bh2h2rcd13ifvqdh0","pricing_plan_id":"cebpf4jnsgd1na2vs0mg"},{"bike_id":"b2cc404b-79e8-4112-b078-02d98cdff5b1","system_id":"levelo_inurba_marseille","lat":43.294162,"lon":5.386292,"is_reserved":false,"is_disabled":false,"rental_uris":{"android":"levelo://app?vid=b2cc404b-79e8-4112-b078-02d98cdff5b1","ios":"levelo://app?vid=b2cc404b-79e8-4112-b078-02d98cdff5b1"},"vehicle_type_id":"4","last_reported":1721423231,"current_range_meters":0,"station_id":"ce4bh2h2rcd13ifvqdh0","pricing_plan_id":"cebpf4jnsgd1na2vs0mg"},{"bike_id":"afbecf48-da9e-44f1-883f-55f0f89ebd0f","system_id":"levelo_inurba_marseille","lat":43.29416,"lon":5.38628,"is_reserved":false,"is_disabled":false,"rental_uris":{"android":"levelo://app?vid=afbecf48-da9e-44f1-883f-55f0f89ebd0f","ios":"levelo://app?vid=afbecf48-da9e-44f1-883f-55f0f89ebd0f"},"vehicle_type_id":"4","last_reported":1721423231,"current_range_meters":14400,"station_id":"ce4bh2h2rcd13ifvqdh0","pricing_plan_id":"cebpf4jnsgd1na2vs0mg"},{"bike_id":"c2751eb2-34b4-4b1b-8dc2-300f919a8d94","system_id":"levelo_inurba_marseille","lat":43.29417,"lon":5.3863,"is_reserved":false,"is_disabled":false,"rental_uris":{"android":"levelo://app?vid=c2751eb2-34b4-4b1b-8dc2-300f919a8d94","ios":"levelo://app?vid=c2751eb2-34b4-4b1b-8dc2-300f919a8d94"},"vehicle_type_id":"4","last_reported":1721423231,"current_range_meters":0,"station_id":"ce4bh2h2rcd13ifvqdh0","pricing_plan_id":"cebpf4jnsgd1na2vs0mg"},{"bike_id":"d589b1a6-0763-4b4b-b06c-cde9d7166131","system_id":"levelo_inurba_marseille","lat":43.29417,"lon":5.3863,"is_reserved":false,"is_disabled":false,"rental_uris":{"android":"levelo://app?vid=d589b1a6-0763-4b4b-b06c-cde9d7166131","ios":"levelo://app?vid=d589b1a6-0763-4b4b-b06c-cde9d7166131"},"vehicle_type_id":"4","last_reported":1721423231,"current_range_meters":10800,"station_id":"ce4bh2h2rcd13ifvqdh0","pricing_plan_id":"cebpf4jnsgd1na2vs0mg"},{"bike_id":"cc060466-7d6e-4289-a94f-9edb4a992937","system_id":"levelo_inurba_marseille","lat":43.29416,"lon":5.3863,"is_reserved":false,"is_disabled":false,"rental_uris":{"android":"levelo://app?vid=cc060466-7d6e-4289-a94f-9edb4a992937","ios":"levelo://app?vid=cc060466-7d6e-4289-a94f-9edb4a992937"},"vehicle_type_id":"4","last_reported":1721423231,"current_range_meters":6400,"station_id":"ce4bh2h2rcd13ifvqdh0","pricing_plan_id":"cebpf4jnsgd1na2vs0mg"},{"bike_id":"cea58398-9f9b-4e0a-ae67-ed241701c318","system_id":"levelo_inurba_marseille","lat":43.29415,"lon":5.3863,"is_reserved":false,"is_disabled":false,"rental_uris":{"android":"levelo://app?vid=cea58398-9f9b-4e0a-ae67-ed241701c318","ios":"levelo://app?vid=cea58398-9f9b-4e0a-ae67-ed241701c318"},"vehicle_type_id":"4","last_reported":1721423231,"current_range_meters":23200,"station_id":"ce4bh2h2rcd13ifvqdh0","pricing_plan_id":"cebpf4jnsgd1na2vs0mg"},{"bike_id":"0211d3da-6960-4f3d-a44d-aa07e24ee514","system_id":"levelo_inurba_marseille","lat":43.29412,"lon":5.38626,"is_reserved":false,"is_disabled":false,"rental_uris":{"android":"levelo://app?vid=0211d3da-6960-4f3d-a44d-aa07e24ee514","ios":"levelo://app?vid=0211d3da-6960-4f3d-a44d-aa07e24ee514"},"vehicle_type_id":"4","last_reported":1721423231,"current_range_meters":23600,"station_id":"ce4bh2h2rcd13ifvqdh0","pricing_plan_id":"cebpf4jnsgd1na2vs0mg"},{"bike_id":"b850ad82-f2ca-4c2b-bbf5-f0b02c05213c","system_id":"levelo_inurba_marseille","lat":43.294162,"lon":5.386292,"is_reserved":false,"is_disabled":false,"rental_uris":{"android":"levelo://app?vid=b850ad82-f2ca-4c2b-bbf5-f0b02c05213c","ios":"levelo://app?vid=b850ad82-f2ca-4c2b-bbf5-f0b02c05213c"},"vehicle_type_id":"4","last_reported":1721423231,"current_range_meters":17600,"station_id":"ce4bh2h2rcd13ifvqdh0","pricing_plan_id":"cebpf4jnsgd1na2vs0mg"},{"bike_id":"f91b58a2-0737-44b2-ad88-b3894cacda71","system_id":"levelo_inurba_marseille","lat":43.290319,"lon":5.375732,"is_reserved":false,"is_disabled":false,"rental_uris":{"android":"levelo://app?vid=f91b58a2-0737-44b2-ad88-b3894cacda71","ios":"levelo://app?vid=f91b58a2-0737-44b2-ad88-b3894cacda71"},"vehicle_type_id":"4","last_reported":1721423231,"current_range_meters":23200,"station_id":"ce4bh692rcd13ifvqe90","pricing_plan_id":"cebpf4jnsgd1na2vs0mg"},{"bike_id":"46ef04ab-5261-4de6-83e2-740cbc2887cb","system_id":"levelo_inurba_marseille","lat":43.28929,"lon":5.3642,"is_reserved":false,"is_disabled":false,"rental_uris":{"android":"levelo://app?vid=46ef04ab-5261-4de6-83e2-740cbc2887cb","ios":"levelo://app?vid=46ef04ab-5261-4de6-83e2-740cbc2887cb"},"vehicle_type_id":"4","last_reported":1721423231,"current_range_meters":7600,"station_id":"ce4bhc92rcd13ifvqetg","pricing_plan_id":"cebpf4jnsgd1na2vs0mg"},{"bike_id":"88d34968-9074-4121-a82c-ae040cfd1ce2","system_id":"levelo_inurba_marseille","lat":43.29277,"lon":5.38447,"is_reserved":false,"is_disabled":false,"rental_uris":{"android":"levelo://app?vid=88d34968-9074-4121-a82c-ae040cfd1ce2","ios":"levelo://app?vid=88d34968-9074-4121-a82c-ae040cfd1ce2"},"vehicle_type_id":"4","last_reported":1721423231,"current_range_meters":13600,"station_id":"ce4bh692rcd13ifvqea0","pricing_plan_id":"cebpf4jnsgd1na2vs0mg"},{"bike_id":"e582acee-5808-4918-aa65-486ff9c0994a","system_id":"levelo_inurba_marseille","lat":43.292642,"lon":5.384254,"is_reserved":false,"is_disabled":false,"rental_uris":{"android":"levelo://app?vid=e582acee-5808-4918-aa65-486ff9c0994a","ios":"levelo://app?vid=e582acee-5808-4918-aa65-486ff9c0994a"},"vehicle_type_id":"4","last_reported":1721423231,"current_range_meters":22400,"station_id":"ce4bh692rcd13ifvqea0","pricing_plan_id":"cebpf4jnsgd1na2vs0mg"},{"bike_id":"3f04fa7d-d18d-4d6b-acc7-034ce4b093a8","system_id":"levelo_inurba_marseille","lat":43.292644,"lon":5.384257,"is_reserved":false,"is_disabled":false,"rental_uris":{"android":"levelo://app?vid=3f04fa7d-d18d-4d6b-acc7-034ce4b093a8","ios":"levelo://app?vid=3f04fa7d-d18d-4d6b-acc7-034ce4b093a8"},"vehicle_type_id":"4","last_reported":1721423231,"current_range_meters":13600,"station_id":"ce4bh692rcd13ifvqea0","pricing_plan_id":"cebpf4jnsgd1na2vs0mg"},