{"last_updated":1743081617,"ttl":60,"version":"2.2","data":{"bikes":[{"bike_id":"ee28380f-2566-499f-8ab8-5a75cb1ed72f","system_id":"levelo_inurba_marseille","lat":43.288329,"lon":5.393258,"is_reserved":false,"is_disabled":false,"rental_uris":{"android":"levelo://app?vid=ee28380f-2566-499f-8ab8-5a75cb1ed72f","ios":"levelo://app?vid=ee28380f-2566-499f-8ab8-5a75cb1ed72f"},"vehicle_type_id":"4","last_reported":1743081617,"current_range_meters":2800,"station_id":"","pricing_plan_id":"cebpf4jnsgd1na2vs0mg"},{"bike_id":"f223efc7-bb06-45b3-b72b-928a125a1fc9","system_id":"levelo_inurba_marseille","lat":43.28465,"lon":5.381442,"is_reserved":false,"is_disabled":false,"rental_uris":{"android":"levelo://app?vid=f223efc7-bb06-45b3-b72b-928a125a1fc9","ios":"levelo://app?vid=f223efc7-bb06-45b3-b72b-928a125a1fc9"},"vehicle_type_id":"4","last_reported":1743081617,"current_range_meters":2800,"station_id":"ce4bh412rcd13ifvqdr0","pricing_plan_id":"cebpf4jnsgd1na2vs0mg"},{"bike_id":"7d7d2ddd-ffb7-4927-9626-5ee8427baa4b","system_id":"levelo_inurba_marseille","lat":43.30267,"lon":5.37708,"is_reserved":false,"is_disabled":false,"rental_uris":{"android":"levelo://app?vid=7d7d2ddd-ffb7-4927-9626-5ee8427baa4b","ios":"levelo://app?vid=7d7d2ddd-ffb7-4927-9626-5ee8427baa4b"},"vehicle_type_id":"4","last_reported":1743081617,"current_range_meters":3200,"station_id":"ce4bguh2rcd13ifvqcj0","pricing_plan_id":"cebpf4jnsgd1na2vs0mg"},{"bike_id":"e547811a-ac31-4732-bc1e-371e45fcb566","system_id":"levelo_inurba_marseille","lat":43.30543,"lon":5.3654,"is_reserved":false,"is_disabled":false,"rental_uris":{"android":"levelo://app?vid=e547811a-ac31-4732-bc1e-371e45fcb566","ios":"levelo://app?vid=e547811a-ac31-4732-bc1e-371e45fcb566"},"vehicle_type_id":"4","last_reported":1743081617,"current_range_meters":3200,"station_id":"ce4bgs12rcd13ifvqcag","pricing_plan_id":"cebpf4jnsgd1na2vs0mg"},{"bike_id":"cca23ff1-32c8-4cfd-8fd6-f2c0bf95fcfd","system_id":"levelo_inurba_marseille","lat":43.30142,"lon":5.37418,"is_reserved":false,"is_disabled":false,"rental_uris":{"android":"levelo://app?vid=cca23ff1-32c8-4cfd-8fd6-f2c0bf95fcfd","ios":"levelo://app?vid=cca23ff1-32c8-4cfd-8fd6-f2c0bf95fcfd"},"vehicle_type_id":"4","last_reported":1743081617,"current_range_meters":3600,"station_id":"ce4bgs92rcd13ifvqcc0","pricing_plan_id":"cebpf4jnsgd1na2vs0mg"},{"bike_id":"068a596e-c7b8-4371-9016-3842922bc89f","system_id":"levelo_inurba_marseille","lat":43.30843,"lon":5.39621,"is_reserved":false,"is_disabled":false,"rental_uris":{"android":"levelo://app?vid=068a596e-c7b8-4371-9016-3842922bc89f","ios":"levelo://app?vid=068a596e-c7b8-4371-9016-3842922bc89f"},"vehicle_type_id":"4","last_reported":1743081617,"current_range_meters":3600,"station_id":"","pricing_plan_id":"cebpf4jnsgd1na2vs0mg"},{"bike_id":"df0c0cba-77c3-4718-861b-7ce179d82947","system_id":"levelo_inurba_marseille","lat":43.29588,"lon":5.36745,"is_reserved":false,"is_disabled":false,"rental_uris":{"android":"levelo://app?vid=df0c0cba-77c3-4718-861b-7ce179d82947","ios":"levelo://app?vid=df0c0cba-77c3-4718-861b-7ce179d82947"},"vehicle_type_id":"4","last_reported":1743081617,"current_range_meters":3600,"station_id":"ce4bgph2rcd13ifvqc2g","pricing_plan_id":"cebpf4jnsgd1na2vs0mg"},{"bike_id":"44156654-a4cf-4f20-b992-8a27bbcc69ed","system_id":"levelo_inurba_marseille","lat":43.23195,"lon":5.40012,"is_reserved":false,"is_disabled":true,"rental_uris":{"android":"levelo://app?vid=44156654-a4cf-4f20-b992-8a27bbcc69ed","ios":"levelo://app?vid=44156654-a4cf-4f20-b992-8a27bbcc69ed"},"vehicle_type_id":"4","last_reported":1743081617,"current_range_meters":3600,"station_id":"ce4bhn12rcd13ifvqgqg","pricing_plan_id":"cebpf4jnsgd1na2vs0mg"},{"bike_id":"39132323-c731-49ab-98e3-c68cfd77b0de","system_id":"levelo_inurba_marseille","lat":43.26414,"lon":5.4042,"is_reserved":false,"is_disabled":false,"rental_uris":{"android":"levelo://app?vid=39132323-c731-49ab-98e3-c68cfd77b0de","ios":"levelo://app?vid=39132323-c731-49ab-98e3-c68cfd77b0de"},"vehicle_type_id":"4","last_reported":1743081617,"current_range_meters":3600,"station_id":"","pricing_plan_id":"cebpf4jnsgd1na2vs0mg"},{"bike_id":"067247e0-a27c-4e52-9052-c6b9eea5c7f4","system_id":"levelo_inurba_marseille","lat":43.31412,"lon":5.37448,"is_reserved":false,"is_disabled":false,"rental_uris":{"android":"levelo://app?vid=067247e0-a27c-4e52-9052-c6b9eea5c7f4","ios":"levelo://app?vid=067247e0-a27c-4e52-9052-c6b9eea5c7f4"},"vehicle_type_id":"4","last_reported":1743081617,"current_range_meters":3600,"station_id":"","pricing_plan_id":"cebpf4jnsgd1na2vs0mg"},{"bike_id":"372b4e0d-dfe5-4fbd-bedc-cee99856939b","system_id":"levelo_inurba_marseille","lat":43.2901,"lon":5.35615,"is_reserved":false,"is_disabled":false,"rental_uris":{"android":"levelo://app?vid=372b4e0d-dfe5-4fbd-bedc-cee99856939b","ios":"levelo://app?vid=372b4e0d-dfe5-4fbd-bedc-cee99856939b"},"vehicle_type_id":"4","last_reported":1743081617,"current_range_meters":4000,"station_id":"ce4bhb92rcd13ifvqen0","pricing_plan_id":"cebpf4jnsgd1na2vs0mg"},{"bike_id":"94d2585a-410f-4c11-8e97-07a976eb67fc","system_id":"levelo_inurba_marseille","lat":43.30155,"lon":5.38078,"is_reserved":false,"is_disabled":false,"rental_uris":{"android":"levelo://app?vid=94d2585a-410f-4c11-8e97-07a976eb67fc","ios":"levelo://app?vid=94d2585a-410f-4c11-8e97-07a976eb67fc"},"vehicle_type_id":"4","last_reported":1743081617,"current_range_meters":4400,"station_id":"ce4bgjp2rcd13ifvqbh0","pricing_plan_id":"cebpf4jnsgd1na2vs0mg"},{"bike_id":"598e1521-ea09-4968-bac1-208db71d337f","system_id":"levelo_inurba_marseille","lat":43.31246,"lon":5.36846,"is_reserved":false,"is_disabled":false,"rental_uris":{"android":"levelo://app?vid=598e1521-ea09-4968-bac1-208db71d337f","ios":"levelo://app?vid=598e1521-ea09-4968-bac1-208db71d337f"},"vehicle_type_id":"4","last_reported":1743081617,"current_range_meters":4000,"station_id":"ce4bgl92rcd13ifvqbq0","pricing_plan_id":"cebpf4jnsgd1na2vs0mg"},{"bike_id":"afc869f0-3774-45f5-8b92-96b047ad2025","system_id":"levelo_inurba_marseille","lat":43.32375,"lon":5.38891,"is_reserved":false,"is_disabled":false,"rental_uris":{"android":"levelo://app?vid=afc869f0-3774-45f5-8b92-96b047ad2025","ios":"levelo://app?vid=afc869f0-3774-45f5-8b92-96b047ad2025"},"vehicle_type_id":"4","last_reported":1743081617,"current_range_meters":4000,"station_id":"ce4bhqp2rcd13ifvqhog","pricing_plan_id":"cebpf4jnsgd1na2vs0mg"},{"bike_id":"886ff232-970b-4a39-a2b9-d44c0df50eec","system_id":"levelo_inurba_marseille","lat":43.286181,"lon":5.370419,"is_reserved":false,"is_disabled":false,"rental_uris":{"android":"levelo://app?vid=886ff232-970b-4a39-a2b9-d44c0df50eec","ios":"levelo://app?vid=886ff232-970b-4a39-a2b9-d44c0df50eec"},"vehicle_type_id":"4","last_reported":1743081617,"current_range_meters":4400,"station_id":"","pricing_plan_id":"cebpf4jnsgd1na2vs0mg"},{"bike_id":"e8f2bbad-2b1e-4742-90b5-91bb84326456","system_id":"levelo_inurba_marseille","lat":43.28271,"lon":5.35063,"is_reserved":false,"is_disabled":false,"rental_uris":{"android":"levelo://app?vid=e8f2bbad-2b1e-4742-90b5-91bb84326456","ios":"levelo://app?vid=e8f2bbad-2b1e-4742-90b5-91bb84326456"},"vehicle_type_id":"4","last_reported":1743081617,"current_range_meters":4400,"station_id":"ce4bhbp2rcd13ifvqerg","pricing_plan_id":"cebpf4jnsgd1na2vs0mg"},{"bike_id":"32c0e8a8-3183-4f24-9239-339d42d89b9b","system_id":"levelo_inurba_marseille","lat":43.31233,"lon":5.36881,"is_reserved":false,"is_disabled":false,"rental_uris":{"android":"levelo://app?vid=32c0e8a8-3183-4f24-9239-339d42d89b9b","ios":"levelo://app?vid=32c0e8a8-3183-4f24-9239-339d42d89b9b"},"vehicle_type_id":"4","last_reported":1743081617,"current_range_meters":4400,"station_id":"ce4bgl92rcd13ifvqbq0","pricing_plan_id":"cebpf4jnsgd1na2vs0mg"},{"bike_id":"03b836a2-30c9-4d97-84ce-cae6504c3c84","system_id":"levelo_inurba_marseille","lat":43.32117,"lon":5.36785,"is_reserved":false,"is_disabled":false,"rental_uris":{"android":"levelo://app?vid=03b836a2-30c9-4d97-84ce-cae6504c3c84","ios":"levelo://app?vid=03b836a2-30c9-4d97-84ce-cae6504c3c84"},"vehicle_type_id":"4","last_reported":1743081617,"current_range_meters":4400,"station_id":"ce4bhrh2rcd13ifvqhug","pricing_plan_id":"cebpf4jnsgd1na2vs0mg"},{"bike_id":"bcad4280-6d71-4d18-a452-ac04b99fb991","system_id":"levelo_inurba_marseille","lat":43.3136,"lon":5.36708,"is_reserved":false,"is_disabled":false,"rental_uris":{"android":"levelo://app?vid=bcad4280-6d71-4d18-a452-ac04b99fb991","ios":"levelo://app?vid=bcad4280-6d71-4d18-a452-ac04b99fb991"},"vehicle_type_id":"4","last_reported":1743081617,"current_range_meters":4400,"station_id":"ce4bgr92rcd13ifvqc6g","pricing_plan_id":"cebpf4jnsgd1na2vs0mg"},{"bike_id":"ea20248a-486b-41a2-a35b-540175fa9041","system_id":"levelo_inurba_marseille","lat":43.29284,"lon":5.36849,"is_reserved":false,"is_disabled":false,"rental_uris":{"android":"levelo://app?vid=ea20248a-486b-41a2-a35b-540175fa9041","ios":"levelo://app?vid=ea20248a-486b-41a2-a35b-540175fa9041"},"vehicle_type_id":"4","last_reported":1743081617,"current_range_meters":4400,"station_id":"ce4bhbp2rcd13ifvqesg","pricing_plan_id":"cebpf4jnsgd1na2vs0mg"},{"bike_id":"3ebcb383-ee75-4fb7-bad8-7f1832b8dbfe","system_id":"levelo_inurba_marseille","lat":43.29564,"lon":5.39975,"is_reserved":false,"is_disabled":false,"rental_uris":{"android":"levelo://app?vid=3ebcb383-ee75-4fb7-bad8-7f1832b8dbfe","ios":"levelo://app?vid=3ebcb383-ee75-4fb7-bad8-7f1832b8dbfe"},"vehicle_type_id":"4","last_reported":1743081617,"current_range_meters":4400,"station_id":"ce4bh312rcd13ifvqdj0","pricing_plan_id":"cebpf4jnsgd1na2vs0mg"},{"bike_id":"a5fb06d1-c469-4515-9522-548b956fd2b3","system_id":"levelo_inurba_marseille","lat":43.31748,"lon":5.39003,"is_reserved":false,"is_disabled":false,"rental_uris":{"android":"levelo://app?vid=a5fb06d1-c469-4515-9522-548b956fd2b3","ios":"levelo://app?vid=a5fb06d1-c469-4515-9522-548b956fd2b3"},"vehicle_type_id":"4","last_reported":1743081617,"current_range_meters":4800,"station_id":"ce4bhqp2rcd13ifvqhng","pricing_plan_id":"cebpf4jnsgd1na2vs0mg"},{"bike_id":"90ddbade-7cfe-4852-ba33-e90be7980d88","system_id":"levelo_inurba_marseille","lat":43.29536,"lon":5.3855,"is_reserved":false,"is_disabled":false,"rental_uris":{"android":"levelo://app?vid=90ddbade-7cfe-4852-ba33-e90be7980d88","ios":"levelo://app?vid=90ddbade-7cfe-4852-ba33-e90be7980d88"},"vehicle_type_id":"4","last_reported":1743081617,"current_range_meters":4800,"station_id":"ce4bgih2rcd13ifvqba0","pricing_plan_id":"cebpf4jnsgd1na2vs0mg"},{"bike_id":"04bf9c54-d28b-4a3a-8edd-2e8d1721c378","system_id":"levelo_inurba_marseille","lat":43.27914,"lon":5.396,"is_reserved":false,"is_disabled":false,"rental_uris":{"android":"levelo://app?vid=04bf9c54-d28b-4a3a-8edd-2e8d1721c378","ios":"levelo://app?vid=04bf9c54-d28b-4a3a-8edd-2e8d1721c378"},"vehicle_type_id":"4","last_reported":1743081617,"current_range_meters":4800,"station_id":"ce4bhf92rcd13ifvqf40","pricing_plan_id":"cebpf4jnsgd1na2vs0mg"},{"bike_id":"5aed16b5-1469-48e7-8406-522a4e5aaff9","system_id":"levelo_inurba_marseille","lat":43.24668,"lon":5.38175,"is_reserved":false,"is_disabled":false,"rental_uris":{"android":"levelo://app?vid=5aed16b5-1469-48e7-8406-522a4e5aaff9","ios":"levelo://app?vid=5aed16b5-1469-48e7-8406-522a4e5aaff9"},"vehicle_type_id":"4","last_reported":1743081617,"current_range_meters":4800,"station_id":"ce4bhih2rcd13ifvqfr0","pricing_plan_id":"cebpf4jnsgd1na2vs0mg"},{"bike_id":"5b41f33d-8371-4b82-872d-4c0141fa7179","system_id":"levelo_inurba_marseille","lat":43.28419,"lon":5.3499,"is_reserved":false,"is_disabled":false,"rental_uris":{"android":"levelo://app?vid=5b41f33d-8371-4b82-872d-4c0141fa7179","ios":"levelo://app?vid=5b41f33d-8371-4b82-872d-4c0141fa7179"},"vehicle_type_id":"4","last_reported":1743081617,"current_range_meters":4800,"station_id":"ce4bhbh2rcd13ifvqepg","pricing_plan_id":"cebpf4jnsgd1na2vs0mg"},{"bike_id":"5624b55d-06db-4bf6-b342-9d856c40b1f0","system_id":"levelo_inurba_marseille","lat":43.297028,"lon":5.365964,"is_reserved":false,"is_disabled":false,"rental_uris":{"android":"levelo://app?vid=5624b55d-06db-4bf6-b342-9d856c40b1f0","ios":"levelo://app?vid=5624b55d-06db-4bf6-b342-9d856c40b1f0"},"vehicle_type_id":"4","last_reported":1743081617,"current_range_meters":4800,"station_id":"ce4bgn12rcd13ifvqbt0","pricing_plan_id":"cebpf4jnsgd1na2vs0mg"},{"bike_id":"1e0b2636-48a1-4292-92c0-73b807651a12","system_id":"levelo_inurba_marseille","lat":43.289703,"lon":5.37838,"is_reserved":false,"is_disabled":false,"rental_uris":{"android":"levelo://app?vid=1e0b2636-48a1-4292-92c0-73b807651a12","ios":"levelo://app?vid=1e0b2636-48a1-4292-92c0-73b807651a12"},"vehicle_type_id":"4","last_reported":1743081617,"current_range_meters":5600,"station_id":"ce4bgip2rcd13ifvqbb0","pricing_plan_id":"cebpf4jnsgd1na2vs0mg"},{"bike_id":"1756ea08-0f95-46cd-888a-b2cc8fa902b9","system_id":"levelo_inurba_marseille","lat":43.24809,"lon":5.37462,"is_reserved":false,"is_disabled":false,"rental_uris":{"android":"levelo://app?vid=1756ea08-0f95-46cd-888a-b2cc8fa902b9","ios":"levelo://app?vid=1756ea08-0f95-46cd-888a-b2cc8fa902b9"},"vehicle_type_id":"4","last_reported":1743081617,"current_range_meters":5600,"station_id":"ce4bhgh2rcd13ifvqfb0","pricing_plan_id":"cebpf4jnsgd1na2vs0mg"},{"bike_id":"9c66cc15-0096-423b-bdc5-f6e3c74078ab","system_id":"levelo_inurba_marseille","lat":43.311954,"lon":5.378582,"is_reserved":false,"is_disabled":false,"rental_uris":{"android":"levelo://app?vid=9c66cc15-0096-423b-bdc5-f6e3c74078ab","ios":"levelo://app?vid=9c66cc15-0096-423b-bdc5-f6e3c74078ab"},"vehicle_type_id":"4","last_reported":1743081617,"current_range_meters":5600,"station_id":"","pricing_plan_id":"cebpf4jnsgd1na2vs0mg"},{"bike_id":"7a243ddc-5526-4d4d-b7ca-9672baa3a32c","system_id":"levelo_inurba_marseille","lat":43.25119,"lon":5.40318,"is_reserved":false,"is_disabled":false,"rental_uris":{"android":"levelo://app?vid=7a243ddc-5526-4d4d-b7ca-9672baa3a32c","ios":"levelo://app?vid=7a243ddc-5526-4d4d-b7ca-9672baa3a32c"},"vehicle_type_id":"4","last_reported":1743081617,"current_range_meters":5600,"station_id":"ce4bhlh2rcd13ifvqgig","pricing_plan_id":"cebpf4jnsgd1na2vs0mg"},{"bike_id":"68585938-1223-4d87-bcbc-b1bdbe477411","system_id":"levelo_inurba_marseille","lat":43.29075,"lon":5.37193,"is_reserved":false,"is_disabled":false,"rental_uris":{"android":"levelo://app?vid=68585938-1223-4d87-bcbc-b1bdbe477411","ios":"levelo://app?vid=68585938-1223-4d87-bcbc-b1bdbe477411"},"vehicle_type_id":"4","last_reported":1743081617,"current_range_meters":6000,"station_id":"ce4bh5p2rcd13ifvqe4g","pricing_plan_id":"cebpf4jnsgd1na2vs0mg"},{"bike_id":"e40ca3db-9cd3-4e7c-a6c9-9922c73b5079","system_id":"levelo_inurba_marseille","lat":43.3038,"lon":5.42492,"is_reserved":false,"is_disabled":false,"rental_uris":{"android":"levelo://app?vid=e40ca3db-9cd3-4e7c-a6c9-9922c73b5079","ios":"levelo://app?vid=e40ca3db-9cd3-4e7c-a6c9-9922c73b5079"},"vehicle_type_id":"4","last_reported":1743081617,"current_range_meters":6000,"station_id":"ce4bhoh2rcd13ifvqh6g","pricing_plan_id":"cebpf4jnsgd1na2vs0mg"},{"bike_id":"00d4b1fc-b9e3-4d51-ae94-335ca22166c0","system_id":"levelo_inurba_marseille","lat":43.30146,"lon":5.38075,"is_reserved":false,"is_disabled":false,"rental_uris":{"android":"levelo://app?vid=00d4b1fc-b9e3-4d51-ae94-335ca22166c0","ios":"levelo://app?vid=00d4b1fc-b9e3-4d51-ae94-335ca22166c0"},"vehicle_type_id":"4","last_reported":1743081617,"current_range_meters":6000,"station_id":"ce4bgjp2rcd13ifvqbh0","pricing_plan_id":"cebpf4jnsgd1na2vs0mg"},{"bike_id":"ff5154e6-6eca-48c7-ab8f-e677231face4","system_id":"levelo_inurba_marseille","lat":43.29273,"lon":5.40122,"is_reserved":false,"is_disabled":true,"rental_uris":{"android":"levelo://app?vid=ff5154e6-6eca-48c7-ab8f-e677231face4","ios":"levelo://app?vid=ff5154e6-6eca-48c7-ab8f-e677231face4"},"vehicle_type_id":"4","last_reported":1743081617,"current_range_meters":6000,"station_id":"ce4bh312rcd13ifvqdk0","pricing_plan_id":"cebpf4jnsgd1na2vs0mg"},{"bike_id":"918814ca-5e98-4992-8bbe-4f04fdfb2cc7","system_id":"levelo_inurba_marseille","lat":43.30545,"lon":5.36686,"is_reserved":false,"is_disabled":false,"rental_uris":{"android":"levelo://app?vid=918814ca-5e98-4992-8bbe-4f04fdfb2cc7","ios":"levelo://app?vid=918814ca-5e98-4992-8bbe-4f04fdfb2cc7"},"vehicle_type_id":"4","last_reported":1743081617,"current_range_meters":6000,"station_id":"ce4bgrp2rcd13ifvqc9g","pricing_plan_id":"cebpf4jnsgd1na2vs0mg"},{"bike_id":"8a9602e7-e6f2-4dac-845f-cea224e49dd5","system_id":"levelo_inurba_marseille","lat":43.23068,"lon":5.35503,"is_reserved":false,"is_disabled":false,"rental_uris":{"android":"levelo://app?vid=8a9602e7-e6f2-4dac-845f-cea224e49dd5","ios":"levelo://app?vid=8a9602e7-e6f2-4dac-845f-cea224e49dd5"},"vehicle_type_id":"4","last_reported":1743081617,"current_range_meters":6000,"station_id":"cpo3342slgdg3j2ifvpg","pricing_plan_id":"cebpf4jnsgd1na2vs0mg"},{"bike_id":"e3a29d38-a611-4b12-87ef-2fb8a21c41d5","system_id":"levelo_inurba_marseille","lat":43.22918,"lon":5.35383,"is_reserved":false,"is_disabled":false,"rental_uris":{"android":"levelo://app?vid=e3a29d38-a611-4b12-87ef-2fb8a21c41d5","ios":"levelo://app?vid=e3a29d38-a611-4b12-87ef-2fb8a21c41d5"},"vehicle_type_id":"4","last_reported":1743081617,"current_range_meters":6000,"station_id":"cpo3532slgdg3j2ikp40","pricing_plan_id":"cebpf4jnsgd1na2vs0mg"},{"bike_id":"67af165c-2d01-4af4-b9be-5ba5657af0ab","system_id":"levelo_inurba_marseille","lat":43.275225,"lon":5.360057,"is_reserved":false,"is_disabled":false,"rental_uris":{"android":"levelo://app?vid=67af165c-2d01-4af4-b9be-5ba5657af0ab","ios":"levelo://app?vid=67af165c-2d01-4af4-b9be-5ba5657af0ab"},"vehicle_type_id":"4","last_reported":1743081617,"current_range_meters":6000,"station_id":"ce4bh3p2rcd13ifvqdq0","pricing_plan_id":"cebpf4jnsgd1na2vs0mg"},{"bike_id":"2f9176ec-6cfc-4731-a30f-1b9add93dd05","system_id":"levelo_inurba_marseille","lat":43.27812,"lon":5.40715,"is_reserved":false,"is_disabled":false,"rental_uris":{"android":"levelo://app?vid=2f9176ec-6cfc-4731-a30f-1b9add93dd05","ios":"levelo://app?vid=2f9176ec-6cfc-4731-a30f-1b9add93dd05"},"vehicle_type_id":"4","last_reported":1743081617,"current_range_meters":6000,"station_id":"ce4bhnh2rcd13ifvqgtg","pricing_plan_id":"cebpf4jnsgd1na2vs0mg"},{"bike_id":"5ffd4e99-6380-4b1f-8f6d-2598bebc7668","system_id":"levelo_inurba_marseille","lat":43.27494,"lon":5.42451,"is_reserved":false,"is_disabled":false,"rental_uris":{"android":"levelo://app?vid=5ffd4e99-6380-4b1f-8f6d-2598bebc7668","ios":"levelo://app?vid=5ffd4e99-6380-4b1f-8f6d-2598bebc7668"},"vehicle_type_id":"4","last_reported":1743081617,"current_range_meters":6000,"station_id":"ce4bhn92rcd13ifvqgrg","pricing_plan_id":"cebpf4jnsgd1na2vs0mg"},{"bike_id":"ff379a4f-b8f4-474c-94ec-a27a236d7bff","system_id":"levelo_inurba_marseille","lat":43.28263,"lon":5.35075,"is_reserved":false,"is_disabled":false,"rental_uris":{"android":"levelo://app?vid=ff379a4f-b8f4-474c-94ec-a27a236d7bff","ios":"levelo://app?vid=ff379a4f-b8f4-474c-94ec-a27a236d7bff"},"vehicle_type_id":"4","last_reported":1743081617,"current_range_meters":6000,"station_id":"ce4bhbp2rcd13ifvqerg","pricing_plan_id":"cebpf4jnsgd1na2vs0mg"},{"bike_id":"3440ae68-e205-42cf-8956-9a783c13588d","system_id":"levelo_inurba_marseille","lat":43.23066,"lon":5.35492,"is_reserved":false,"is_disabled":false,"rental_uris":{"android":"levelo://app?vid=3440ae68-e205-42cf-8956-9a783c13588d","ios":"levelo://app?vid=3440ae68-e205-42cf-8956-9a783c13588d"},"vehicle_type_id":"4","last_reported":1743081617,"current_range_meters":6000,"station_id":"cpo3342slgdg3j2ifvpg","pricing_plan_id":"cebpf4jnsgd1na2vs0mg"},{"bike_id":"1dd765a9-64b4-439c-a196-df55419cc971","system_id":"levelo_inurba_marseille","lat":43.24156,"lon":5.36414,"is_reserved":false,"is_disabled":false,"rental_uris":{"android":"levelo://app?vid=1dd765a9-64b4-439c-a196-df55419cc971","ios":"levelo://app?vid=1dd765a9-64b4-439c-a196-df55419cc971"},"vehicle_type_id":"4","last_reported":1743081617,"current_range_meters":6400,"station_id":"cpo36qri1sfpv3e86is0","pricing_plan_id":"cebpf4jnsgd1na2vs0mg"},{"bike_id":"b344629e-331a-4949-8b4b-24ef92b425aa","system_id":"levelo_inurba_marseille","lat":43.30484,"lon":5.37905,"is_reserved":false,"is_disabled":false,"rental_uris":{"android":"levelo://app?vid=b344629e-331a-4949-8b4b-24ef92b425aa","ios":"levelo://app?vid=b344629e-331a-4949-8b4b-24ef92b425aa"},"vehicle_type_id":"4","last_reported":1743081617,"current_range_meters":0,"station_id":"ce4bgup2rcd13ifvqcn0","pricing_plan_id":"cebpf4jnsgd1na2vs0mg"},{"bike_id":"aa47d9c3-cdde-45a3-98b3-b41f40901052","system_id":"levelo_inurba_marseille","lat":43.290041,"lon":5.356183,"is_reserved":false,"is_disabled":false,"rental_uris":{"android":"levelo://app?vid=aa47d9c3-cdde-45a3-98b3-b41f40901052","ios":"levelo://app?vid=aa47d9c3-cdde-45a3-98b3-b41f40901052"},"vehicle_type_id":"4","last_reported":1743081617,"current_range_meters":6400,"station_id":"ce4bhc92rcd13ifvqetg","pricing_plan_id":"cebpf4jnsgd1na2vs0mg"},{"bike_id":"f21a10e7-dc29-48c3-a356-f0fba888e108","system_id":"levelo_inurba_marseille","lat":43.27382,"lon":5.36263,"is_reserved":false,"is_disabled":false,"rental_uris":{"android":"levelo://app?vid=f21a10e7-dc29-48c3-a356-f0fba888e108","ios":"levelo://app?vid=f21a10e7-dc29-48c3-a356-f0fba888e108"},"vehicle_type_id":"4","last_reported":1743081617,"current_range_meters":6400,"station_id":"ce4bhbh2rcd13ifvqeo0","pricing_plan_id":"cebpf4jnsgd1na2vs0mg"},{"bike_id":"48ba0d5d-354d-4e65-992c-e8f4ea27ace7","system_id":"levelo_inurba_marseille","lat":43.23215,"lon":5.35559,"is_reserved":false,"is_disabled":false,"rental_uris":{"android":"levelo://app?vid=48ba0d5d-354d-4e65-992c-e8f4ea27ace7","ios":"levelo://app?vid=48ba0d5d-354d-4e65-992c-e8f4ea27ace7"},"vehicle_type_id":"4","last_reported":1743081617,"current_range_meters":6400,"station_id":"ce4bhu92rcd13ifvqi70","pricing_plan_id":"cebpf4jnsgd1na2vs0mg"},{"bike_id":"51e827e3-0a1b-4c8f-a929-0e05b6eb028b","system_id":"levelo_inurba_marseille","lat":43.27984,"lon":5.38747,"is_reserved":false,"is_disabled":false,"rental_uris":{"android":"levelo://app?vid=51e827e3-0a1b-4c8f-a929-0e05b6eb028b","ios":"levelo://app?vid=51e827e3-0a1b-4c8f-a929-0e05b6eb028b"},"vehicle_type_id":"4","last_reported":1743081617,"current_range_meters":6400,"station_id":"ce4bhg12rcd13ifvqf80","pricing_plan_id":"cebpf4jnsgd1na2vs0mg"},{"bike_id":"f22dd984-23ed-4af6-b4bb-c3d5c828c367","system_id":"levelo_inurba_marseille","lat":43.27943,"lon":5.41044,"is_reserved":false,"is_disabled":false,"rental_uris":{"android":"levelo://app?vid=f22dd984-23ed-4af6-b4bb-c3d5c828c367","ios":"levelo://app?vid=f22dd984-23ed-4af6-b4bb-c3d5c828c367"},"vehicle_type_id":"4","last_reported":1743081617,"current_range_meters":6800,"station_id":"ce4bhnp2rcd13ifvqh0g","pricing_plan_id":"cebpf4jnsgd1na2vs0mg"},{"bike_id":"a2ff9691-06bf-45e4-92a4-a9ea5f6b7bb3","system_id":"levelo_inurba_marseille","lat":43.282642,"lon":5.350565,"is_reserved":false,"is_disabled":false,"rental_uris":{"android":"levelo://app?vid=a2ff9691-06bf-45e4-92a4-a9ea5f6b7bb3","ios":"levelo://app?vid=a2ff9691-06bf-45e4-92a4-a9ea5f6b7bb3"},"vehicle_type_id":"4","last_reported":1743081617,"current_range_meters":6800,"station_id":"ce4bhbp2rcd13ifvqerg","pricing_plan_id":"cebpf4jnsgd1na2vs0mg"},{"bike_id":"f17bb7bb-4549-45a6-a8c5-a1760814a158","system_id":"levelo_inurba_marseille","lat":43.27819,"lon":5.40711,"is_reserved":false,"is_disabled":false,"rental_uris":{"android":"levelo://app?vid=f17bb7bb-4549-45a6-a8c5-a1760814a158","ios":"levelo://app?vid=f17bb7bb-4549-45a6-a8c5-a1760814a158"},"vehicle_type_id":"4","last_reported":1743081617,"current_range_meters":6800,"station_id":"ce4bhnh2rcd13ifvqgtg","pricing_plan_id":"cebpf4jnsgd1na2vs0mg"},{"bike_id":"420caf47-dad2-451c-8438-68ae568eee92","system_id":"levelo_inurba_marseille","lat":43.31347,"lon":5.36663,"is_reserved":false,"is_disabled":false,"rental_uris":{"android":"levelo://app?vid=420caf47-dad2-451c-8438-68ae568eee92","ios":"levelo://app?vid=420caf47-dad2-451c-8438-68ae568eee92"},"vehicle_type_id":"4","last_reported":1743081617,"current_range_meters":6800,"station_id":"ce4bgr92rcd13ifvqc6g","pricing_plan_id":"cebpf4jnsgd1na2vs0mg"},{"bike_id":"787d3b21-7966-4c92-bd48-8f52f642c894","system_id":"levelo_inurba_marseille","lat":43.28859,"lon":5.39324,"is_reserved":false,"is_disabled":false,"rental_uris":{"android":"levelo://app?vid=787d3b21-7966-4c92-bd48-8f52f642c894","ios":"levelo://app?vid=787d3b21-7966-4c92-bd48-8f52f642c894"},"vehicle_type_id":"4","last_reported":1743081617,"current_range_meters":6800,"station_id":"ce4bh2p2rcd13ifvqdi0","pricing_plan_id":"cebpf4jnsgd1na2vs0mg"},{"bike_id":"1f6d4f18-ea25-4fe5-be8d-fe30c3d20869","system_id":"levelo_inurba_marseille","lat":43.24388,"lon":5.3706,"is_reserved":false,"is_disabled":false,"rental_uris":{"android":"levelo://app?vid=1f6d4f18-ea25-4fe5-be8d-fe30c3d20869","ios":"levelo://app?vid=1f6d4f18-ea25-4fe5-be8d-fe30c3d20869"},"vehicle_type_id":"4","last_reported":1743081617,"current_range_meters":6800,"station_id":"ce4bhhh2rcd13ifvqfk0","pricing_plan_id":"cebpf4jnsgd1na2vs0mg"},{"bike_id":"a2aa94aa-e95a-4a80-a3a5-656d494e6ca1","system_id":"levelo_inurba_marseille","lat":43.305372,"lon":5.365178,"is_reserved":false,"is_disabled":true,"rental_uris":{"android":"levelo://app?vid=a2aa94aa-e95a-4a80-a3a5-656d494e6ca1","ios":"levelo://app?vid=a2aa94aa-e95a-4a80-a3a5-656d494e6ca1"},"vehicle_type_id":"4","last_reported":1743081617,"current_range_meters":6800,"station_id":"","pricing_plan_id":"cebpf4jnsgd1na2vs0mg"},{"bike_id":"aa0ac7d5-0199-4a5f-9629-646c5d2ea123","system_id":"levelo_inurba_marseille","lat":43.29925,"lon":5.37482,"is_reserved":false,"is_disabled":false,"rental_uris":{"android":"levelo://app?vid=aa0ac7d5-0199-4a5f-9629-646c5d2ea123","ios":"levelo://app?vid=aa0ac7d5-0199-4a5f-9629-646c5d2ea123"},"vehicle_type_id":"4","last_reported":1743081617,"current_range_meters":10800,"station_id":"ce4bgjh2rcd13ifvqbg0","pricing_plan_id":"cebpf4jnsgd1na2vs0mg"},{"bike_id":"29d593d4-e40b-42ae-b2c1-04c0dc2b446f","system_id":"levelo_inurba_marseille","lat":43.28162,"lon":5.42649,"is_reserved":false,"is_disabled":false,"rental_uris":{"android":"levelo://app?vid=29d593d4-e40b-42ae-b2c1-04c0dc2b446f","ios":"levelo://app?vid=29d593d4-e40b-42ae-b2c1-04c0dc2b446f"},"vehicle_type_id":"4","last_reported":1743081617,"current_range_meters":7200,"station_id":"ce4bhnh2rcd13ifvqgug","pricing_plan_id":"cebpf4jnsgd1na2vs0mg"},{"bike_id":"1e4e8a55-ba7e-4c4c-966b-fdbaff99271b","system_id":"levelo_inurba_marseille","lat":43.28699,"lon":5.37916,"is_reserved":false,"is_disabled":false,"rental_uris":{"android":"levelo://app?vid=1e4e8a55-ba7e-4c4c-966b-fdbaff99271b","ios":"levelo://app?vid=1e4e8a55-ba7e-4c4c-966b-fdbaff99271b"},"vehicle_type_id":"4","last_reported":1743081617,"current_range_meters":7200,"station_id":"ce4bh9p2rcd13ifvqec0","pricing_plan_id":"cebpf4jnsgd1na2vs0mg"},{"bike_id":"843ccbe8-0c5b-46de-b39c-b437250640f0","system_id":"levelo_inurba_marseille","lat":43.26036,"lon":5.3755,"is_reserved":false,"is_disabled":false,"rental_uris":{"android":"levelo://app?vid=843ccbe8-0c5b-46de-b39c-b437250640f0","ios":"levelo://app?vid=843ccbe8-0c5b-46de-b39c-b437250640f0"},"vehicle_type_id":"4","last_reported":1743081617,"current_range_meters":7200,"station_id":"ce4bhgh2rcd13ifvqfa0","pricing_plan_id":"cebpf4jnsgd1na2vs0mg"},{"bike_id":"8d029d9f-5e4c-41c8-8f66-c3b58e254d98","system_id":"levelo_inurba_marseille","lat":43.32558,"lon":5.41438,"is_reserved":false,"is_disabled":false,"rental_uris":{"android":"levelo://app?vid=8d029d9f-5e4c-41c8-8f66-c3b58e254d98","ios":"levelo://app?vid=8d029d9f-5e4c-41c8-8f66-c3b58e254d98"},"vehicle_type_id":"4","last_reported":1743081617,"current_range_meters":7200,"station_id":"ce4bhq12rcd13ifvqhhg","pricing_plan_id":"cebpf4jnsgd1na2vs0mg"},{"bike_id":"cc031383-15ba-4cd5-a2b5-28b25e7e4869","system_id":"levelo_inurba_marseille","lat":43.27927,"lon":5.39578,"is_reserved":false,"is_disabled":false,"rental_uris":{"android":"levelo://app?vid=cc031383-15ba-4cd5-a2b5-28b25e7e4869","ios":"levelo://app?vid=cc031383-15ba-4cd5-a2b5-28b25e7e4869"},"vehicle_type_id":"4","last_reported":1743081617,"current_range_meters":7200,"station_id":"ce4bhf92rcd13ifvqf40","pricing_plan_id":"cebpf4jnsgd1na2vs0mg"},{"bike_id":"8f4c6599-c57c-47f3-b859-da4512b39b4a","system_id":"levelo_inurba_marseille","lat":43.30524,"lon":5.36519,"is_reserved":false,"is_disabled":false,"rental_uris":{"android":"levelo://app?vid=8f4c6599-c57c-47f3-b859-da4512b39b4a","ios":"levelo://app?vid=8f4c6599-c57c-47f3-b859-da4512b39b4a"},"vehicle_type_id":"4","last_reported":1743081617,"current_range_meters":7200,"station_id":"","pricing_plan_id":"cebpf4jnsgd1na2vs0mg"},{"bike_id":"149f75da-d880-41c0-977a-3d06f2d846cc","system_id":"levelo_inurba_marseille","lat":43.31165,"lon":5.38721,"is_reserved":false,"is_disabled":false,"rental_uris":{"android":"levelo://app?vid=149f75da-d880-41c0-977a-3d06f2d846cc","ios":"levelo://app?vid=149f75da-d880-41c0-977a-3d06f2d846cc"},"vehicle_type_id":"4","last_reported":1743081617,"current_range_meters":7200,"station_id":"ce4bgv12rcd13ifvqcp0","pricing_plan_id":"cebpf4jnsgd1na2vs0mg"},{"bike_id":"0238b184-60dd-489e-8ce3-0b6830ec89bf","system_id":"levelo_inurba_marseille","lat":43.26507,"lon":5.39558,"is_reserved":false,"is_disabled":false,"rental_uris":{"android":"levelo://app?vid=0238b184-60dd-489e-8ce3-0b6830ec89bf","ios":"levelo://app?vid=0238b184-60dd-489e-8ce3-0b6830ec89bf"},"vehicle_type_id":"4","last_reported":1743081617,"current_range_meters":7200,"station_id":"ce4bhi12rcd13ifvqfq0","pricing_plan_id":"cebpf4jnsgd1na2vs0mg"},{"bike_id":"4fa9b8f4-26cc-4ca0-bd63-5f673cb2743b","system_id":"levelo_inurba_marseille","lat":43.273,"lon":5.39089,"is_reserved":false,"is_disabled":true,"rental_uris":{"android":"levelo://app?vid=4fa9b8f4-26cc-4ca0-bd63-5f673cb2743b","ios":"levelo://app?vid=4fa9b8f4-26cc-4ca0-bd63-5f673cb2743b"},"vehicle_type_id":"4","last_reported":1743081617,"current_range_meters":7200,"station_id":"ce4bhgp2rcd13ifvqfe0","pricing_plan_id":"cebpf4jnsgd1na2vs0mg"},{"bike_id":"e4da3e84-b2d2-487a-9e61-555ac0256fc0","system_id":"levelo_inurba_marseille","lat":43.26959,"lon":5.38632,"is_reserved":false,"is_disabled":false,"rental_uris":{"android":"levelo://app?vid=e4da3e84-b2d2-487a-9e61-555ac0256fc0","ios":"levelo://app?vid=e4da3e84-b2d2-487a-9e61-555ac0256fc0"},"vehicle_type_id":"4","last_reported":1743081617,"current_range_meters":7200,"station_id":"ce4bhh92rcd13ifvqfh0","pricing_plan_id":"cebpf4jnsgd1na2vs0mg"},{"bike_id":"fac85444-a50b-40f4-9b8b-e2c7a754f786","system_id":"levelo_inurba_marseille","lat":43.22941,"lon":5.35383,"is_reserved":false,"is_disabled":false,"rental_uris":{"android":"levelo://app?vid=fac85444-a50b-40f4-9b8b-e2c7a754f786","ios":"levelo://app?vid=fac85444-a50b-40f4-9b8b-e2c7a754f786"},"vehicle_type_id":"4","last_reported":1743081617,"current_range_meters":8000,"station_id":"cpo3532slgdg3j2ikp40","pricing_plan_id":"cebpf4jnsgd1na2vs0mg"},{"bike_id":"1bdb47d8-a4c7-4118-bdaf-4834ca1aaf27","system_id":"levelo_inurba_marseille","lat":43.30536,"lon":5.36525,"is_reserved":false,"is_disabled":false,"rental_uris":{"android":"levelo://app?vid=1bdb47d8-a4c7-4118-bdaf-4834ca1aaf27","ios":"levelo://app?vid=1bdb47d8-a4c7-4118-bdaf-4834ca1aaf27"},"vehicle_type_id":"4","last_reported":1743081617,"current_range_meters":8000,"station_id":"ce4bgs12rcd13ifvqcag","pricing_plan_id":"cebpf4jnsgd1na2vs0mg"},{"bike_id":"1b543932-d5d1-46d8-8c50-5e82d73320ed","system_id":"levelo_inurba_marseille","lat":43.23154,"lon":5.43729,"is_reserved":false,"is_disabled":false,"rental_uris":{"android":"levelo://app?vid=1b543932-d5d1-46d8-8c50-5e82d73320ed","ios":"levelo://app?vid=1b543932-d5d1-46d8-8c50-5e82d73320ed"},"vehicle_type_id":"4","last_reported":1743081617,"current_range_meters":8000,"station_id":"ce4bhmp2rcd13ifvqgog","pricing_plan_id":"cebpf4jnsgd1na2vs0mg"},{"bike_id":"edce3d10-9e67-4307-b38a-0d783376232d","system_id":"levelo_inurba_marseille","lat":43.287142,"lon":5.379407,"is_reserved":false,"is_disabled":false,"rental_uris":{"android":"levelo://app?vid=edce3d10-9e67-4307-b38a-0d783376232d","ios":"levelo://app?vid=edce3d10-9e67-4307-b38a-0d783376232d"},"vehicle_type_id":"4","last_reported":1743081617,"current_range_meters":8000,"station_id":"ce4bh9p2rcd13ifvqec0","pricing_plan_id":"cebpf4jnsgd1na2vs0mg"},{"bike_id":"84a7a785-5392-42bc-8088-fb903bcc7f5c","system_id":"levelo_inurba_marseille","lat":43.23084,"lon":5.35463,"is_reserved":false,"is_disabled":false,"rental_uris":{"android":"levelo://app?vid=84a7a785-5392-42bc-8088-fb903bcc7f5c","ios":"levelo://app?vid=84a7a785-5392-42bc-8088-fb903bcc7f5c"},"vehicle_type_id":"4","last_reported":1743081617,"current_range_meters":8000,"station_id":"cpo3342slgdg3j2ifvpg","pricing_plan_id":"cebpf4jnsgd1na2vs0mg"},{"bike_id":"586f0775-f3c8-4d7f-b5fd-76805e6871fd","system_id":"levelo_inurba_marseille","lat":43.28427,"lon":5.34975,"is_reserved":false,"is_disabled":false,"rental_uris":{"android":"levelo://app?vid=586f0775-f3c8-4d7f-b5fd-76805e6871fd","ios":"levelo://app?vid=586f0775-f3c8-4d7f-b5fd-76805e6871fd"},"vehicle_type_id":"4","last_reported":1743081617,"current_range_meters":8000,"station_id":"ce4bhbh2rcd13ifvqepg","pricing_plan_id":"cebpf4jnsgd1na2vs0mg"},{"bike_id":"7e0e0872-4188-4770-83e6-aa7c63d9682f","system_id":"levelo_inurba_marseille","lat":43.292626,"lon":5.384378,"is_reserved":false,"is_disabled":false,"rental_uris":{"android":"levelo://app?vid=7e0e0872-4188-4770-83e6-aa7c63d9682f","ios":"levelo://app?vid=7e0e0872-4188-4770-83e6-aa7c63d9682f"},"vehicle_type_id":"4","last_reported":1743081617,"current_range_meters":10800,"station_id":"ce4bguh2rcd13ifvqckg","pricing_plan_id":"cebpf4jnsgd1na2vs0mg"},{"bike_id":"dc8ccdc9-a018-4504-b0a9-676297905591","system_id":"levelo_inurba_marseille","lat":43.2931,"lon":5.36983,"is_reserved":false,"is_disabled":false,"rental_uris":{"android":"levelo://app?vid=dc8ccdc9-a018-4504-b0a9-676297905591","ios":"levelo://app?vid=dc8ccdc9-a018-4504-b0a9-676297905591"},"vehicle_type_id":"4","last_reported":1743081617,"current_range_meters":8000,"station_id":"","pricing_plan_id":"cebpf4jnsgd1na2vs0mg"},{"bike_id":"89a3989d-cc70-444b-ac27-21109a2c19ce","system_id":"levelo_inurba_marseille","lat":43.30305,"lon":5.39215,"is_reserved":false,"is_disabled":false,"rental_uris":{"android":"levelo://app?vid=89a3989d-cc70-444b-ac27-21109a2c19ce","ios":"levelo://app?vid=89a3989d-cc70-444b-ac27-21109a2c19ce"},"vehicle_type_id":"4","last_reported":1743081617,"current_range_meters":8000,"station_id":"ce4bgkh2rcd13ifvqbk0","pricing_plan_id":"cebpf4jnsgd1na2vs0mg"},{"bike_id":"9b0db4f1-c6a1-4ca7-86c5-ec1daffe0ea2","system_id":"levelo_inurba_marseille","lat":43.25081,"lon":5.3952,"is_reserved":false,"is_disabled":false,"rental_uris":{"android":"levelo://app?vid=9b0db4f1-c6a1-4ca7-86c5-ec1daffe0ea2","ios":"levelo://app?vid=9b0db4f1-c6a1-4ca7-86c5-ec1daffe0ea2"},"vehicle_type_id":"4","last_reported":1743081617,"current_range_meters":8000,"station_id":"ce4bhm12rcd13ifvqgkg","pricing_plan_id":"cebpf4jnsgd1na2vs0mg"},{"bike_id":"18460cf5-915d-48eb-8bb6-4a7b73794a0c","system_id":"levelo_inurba_marseille","lat":43.31239,"lon":5.36864,"is_reserved":false,"is_disabled":false,"rental_uris":{"android":"levelo://app?vid=18460cf5-915d-48eb-8bb6-4a7b73794a0c","ios":"levelo://app?vid=18460cf5-915d-48eb-8bb6-4a7b73794a0c"},"vehicle_type_id":"4","last_reported":1743081617,"current_range_meters":8400,"station_id":"ce4bgl92rcd13ifvqbq0","pricing_plan_id":"cebpf4jnsgd1na2vs0mg"},{"bike_id":"bd4bbef7-2b02-4f5c-ae63-4729101d80ed","system_id":"levelo_inurba_marseille","lat":43.30804,"lon":5.38158,"is_reserved":false,"is_disabled":false,"rental_uris":{"android":"levelo://app?vid=bd4bbef7-2b02-4f5c-ae63-4729101d80ed","ios":"levelo://app?vid=bd4bbef7-2b02-4f5c-ae63-4729101d80ed"},"vehicle_type_id":"4","last_reported":1743081617,"current_range_meters":8400,"station_id":"ce4bgt12rcd13ifvqce0","pricing_plan_id":"cebpf4jnsgd1na2vs0mg"},{"bike_id":"afbec807-a009-4d46-87f2-222b52abb480","system_id":"levelo_inurba_marseille","lat":43.28852,"lon":5.39325,"is_reserved":false,"is_disabled":false,"rental_uris":{"android":"levelo://app?vid=afbec807-a009-4d46-87f2-222b52abb480","ios":"levelo://app?vid=afbec807-a009-4d46-87f2-222b52abb480"},"vehicle_type_id":"4","last_reported":1743081617,"current_range_meters":8400,"station_id":"ce4bh2p2rcd13ifvqdi0","pricing_plan_id":"cebpf4jnsgd1na2vs0mg"},{"bike_id":"2591bfdd-195a-43fc-b49b-cead5d9ba9e8","system_id":"levelo_inurba_marseille","lat":43.25018,"lon":5.3892,"is_reserved":false,"is_disabled":false,"rental_uris":{"android":"levelo://app?vid=2591bfdd-195a-43fc-b49b-cead5d9ba9e8","ios":"levelo://app?vid=2591bfdd-195a-43fc-b49b-cead5d9ba9e8"},"vehicle_type_id":"4","last_reported":1743081617,"current_range_meters":8400,"station_id":"ce4bhgp2rcd13ifvqfd0","pricing_plan_id":"cebpf4jnsgd1na2vs0mg"},{"bike_id":"3a5e18ad-6a23-4442-9c34-19c7bd17a17e","system_id":"levelo_inurba_marseille","lat":43.22928,"lon":5.35377,"is_reserved":false,"is_disabled":false,"rental_uris":{"android":"levelo://app?vid=3a5e18ad-6a23-4442-9c34-19c7bd17a17e","ios":"levelo://app?vid=3a5e18ad-6a23-4442-9c34-19c7bd17a17e"},"vehicle_type_id":"4","last_reported":1743081617,"current_range_meters":8400,"station_id":"cpo3532slgdg3j2ikp40","pricing_plan_id":"cebpf4jnsgd1na2vs0mg"},{"bike_id":"5028a8b8-9012-4212-9e64-e7392f0d5d5b","system_id":"levelo_inurba_marseille","lat":43.30919,"lon":5.36854,"is_reserved":false,"is_disabled":false,"rental_uris":{"android":"levelo://app?vid=5028a8b8-9012-4212-9e64-e7392f0d5d5b","ios":"levelo://app?vid=5028a8b8-9012-4212-9e64-e7392f0d5d5b"},"vehicle_type_id":"4","last_reported":1743081617,"current_range_meters":8400,"station_id":"ce4bgn92rcd13ifvqbvg","pricing_plan_id":"cebpf4jnsgd1na2vs0mg"},{"bike_id":"813f18ed-22bd-46a4-bbbd-1a4b45fcd91d","system_id":"levelo_inurba_marseille","lat":43.27936,"lon":5.39599,"is_reserved":false,"is_disabled":false,"rental_uris":{"android":"levelo://app?vid=813f18ed-22bd-46a4-bbbd-1a4b45fcd91d","ios":"levelo://app?vid=813f18ed-22bd-46a4-bbbd-1a4b45fcd91d"},"vehicle_type_id":"4","last_reported":1743081617,"current_range_meters":8400,"station_id":"ce4bhf92rcd13ifvqf40","pricing_plan_id":"cebpf4jnsgd1na2vs0mg"},{"bike_id":"7813f42a-8d11-4b2a-b077-be9650363461","system_id":"levelo_inurba_marseille","lat":43.23159,"lon":5.43731,"is_reserved":false,"is_disabled":false,"rental_uris":{"android":"levelo://app?vid=7813f42a-8d11-4b2a-b077-be9650363461","ios":"levelo://app?vid=7813f42a-8d11-4b2a-b077-be9650363461"},"vehicle_type_id":"4","last_reported":1743081617,"current_range_meters":8400,"station_id":"ce4bhmp2rcd13ifvqgog","pricing_plan_id":"cebpf4jnsgd1na2vs0mg"},{"bike_id":"85d0fa0c-b5b9-41cd-ba43-951901672dab","system_id":"levelo_inurba_marseille","lat":43.25627,"lon":5.38986,"is_reserved":false,"is_disabled":false,"rental_uris":{"android":"levelo://app?vid=85d0fa0c-b5b9-41cd-ba43-951901672dab","ios":"levelo://app?vid=85d0fa0c-b5b9-41cd-ba43-951901672dab"},"vehicle_type_id":"4","last_reported":1743081617,"current_range_meters":8400,"station_id":"","pricing_plan_id":"cebpf4jnsgd1na2vs0mg"},{"bike_id":"4aef39ed-7668-4954-a764-a684ec3cab88","system_id":"levelo_inurba_marseille","lat":43.27423,"lon":5.39416,"is_reserved":false,"is_disabled":false,"rental_uris":{"android":"levelo://app?vid=4aef39ed-7668-4954-a764-a684ec3cab88","ios":"levelo://app?vid=4aef39ed-7668-4954-a764-a684ec3cab88"},"vehicle_type_id":"4","last_reported":1743081617,"current_range_meters":8400,"station_id":"ce4bhdp2rcd13ifvqf20","pricing_plan_id":"cebpf4jnsgd1na2vs0mg"},{"bike_id":"3d925b18-32bd-4c1e-890d-2ee787fb4dc4","system_id":"levelo_inurba_marseille","lat":43.24548,"lon":5.39524,"is_reserved":false,"is_disabled":false,"rental_uris":{"android":"levelo://app?vid=3d925b18-32bd-4c1e-890d-2ee787fb4dc4","ios":"levelo://app?vid=3d925b18-32bd-4c1e-890d-2ee787fb4dc4"},"vehicle_type_id":"4","last_reported":1743081617,"current_range_meters":8400,"station_id":"","pricing_plan_id":"cebpf4jnsgd1na2vs0mg"},{"bike_id":"066299a9-b62c-4d32-a632-11c5936f40f0","system_id":"levelo_inurba_marseille","lat":43.23155,"lon":5.43711,"is_reserved":false,"is_disabled":false,"rental_uris":{"android":"levelo://app?vid=066299a9-b62c-4d32-a632-11c5936f40f0","ios":"levelo://app?vid=066299a9-b62c-4d32-a632-11c5936f40f0"},"vehicle_type_id":"4","last_reported":1743081617,"current_range_meters":8400,"station_id":"ce4bhmp2rcd13ifvqgog","pricing_plan_id":"cebpf4jnsgd1na2vs0mg"},{"bike_id":"629dc58e-f1fa-4c78-b496-582f20ae1d69","system_id":"levelo_inurba_marseille","lat":43.23153,"lon":5.43731,"is_reserved":false,"is_disabled":false,"rental_uris":{"android":"levelo://app?vid=629dc58e-f1fa-4c78-b496-582f20ae1d69","ios":"levelo://app?vid=629dc58e-f1fa-4c78-b496-582f20ae1d69"},"vehicle_type_id":"4","last_reported":1743081617,"current_range_meters":8400,"station_id":"ce4bhmp2rcd13ifvqgog","pricing_plan_id":"cebpf4jnsgd1na2vs0mg"},{"bike_id":"54cfd3f4-3a63-4e76-a676-cf05502379e8","system_id":"levelo_inurba_marseille","lat":43.27372,"lon":5.36257,"is_reserved":false,"is_disabled":false,"rental_uris":{"android":"levelo://app?vid=54cfd3f4-3a63-4e76-a676-cf05502379e8","ios":"levelo://app?vid=54cfd3f4-3a63-4e76-a676-cf05502379e8"},"vehicle_type_id":"4","last_reported":1743081617,"current_range_meters":8800,"station_id":"ce4bhbh2rcd13ifvqeo0","pricing_plan_id":"cebpf4jnsgd1na2vs0mg"},{"bike_id":"7d230f0c-819a-4ef9-8fda-3cbcb02bf8d7","system_id":"levelo_inurba_marseille","lat":43.30537,"lon":5.36559,"is_reserved":false,"is_disabled":false,"rental_uris":{"android":"levelo://app?vid=7d230f0c-819a-4ef9-8fda-3cbcb02bf8d7","ios":"levelo://app?vid=7d230f0c-819a-4ef9-8fda-3cbcb02bf8d7"},"vehicle_type_id":"4","last_reported":1743081617,"current_range_meters":8800,"station_id":"ce4bgs12rcd13ifvqcag","pricing_plan_id":"cebpf4jnsgd1na2vs0mg"},{"bike_id":"40046afd-c6aa-43ea-88bd-183a4d2ec61c","system_id":"levelo_inurba_marseille","lat":43.3164,"lon":5.41683,"is_reserved":false,"is_disabled":true,"rental_uris":{"android":"levelo://app?vid=40046afd-c6aa-43ea-88bd-183a4d2ec61c","ios":"levelo://app?vid=40046afd-c6aa-43ea-88bd-183a4d2ec61c"},"vehicle_type_id":"4","last_reported":1743081617,"current_range_meters":8800,"station_id":"","pricing_plan_id":"cebpf4jnsgd1na2vs0mg"},{"bike_id":"6edd2bd2-72b1-4887-ba49-954167f3d056","system_id":"levelo_inurba_marseille","lat":43.28406,"lon":5.37515,"is_reserved":false,"is_disabled":false,"rental_uris":{"android":"levelo://app?vid=6edd2bd2-72b1-4887-ba49-954167f3d056","ios":"levelo://app?vid=6edd2bd2-72b1-4887-ba49-954167f3d056"},"vehicle_type_id":"4","last_reported":1743081617,"current_range_meters":8800,"station_id":"ce4bh412rcd13ifvqds0","pricing_plan_id":"cebpf4jnsgd1na2vs0mg"},{"bike_id":"d9223287-ef5f-4d08-b96d-935936a11ed5","system_id":"levelo_inurba_marseille","lat":43.28278,"lon":5.35061,"is_reserved":false,"is_disabled":false,"rental_uris":{"android":"levelo://app?vid=d9223287-ef5f-4d08-b96d-935936a11ed5","ios":"levelo://app?vid=d9223287-ef5f-4d08-b96d-935936a11ed5"},"vehicle_type_id":"4","last_reported":1743081617,"current_range_meters":8800,"station_id":"ce4bhbp2rcd13ifvqerg","pricing_plan_id":"cebpf4jnsgd1na2vs0mg"},{"bike_id":"3f562d9d-30ba-4828-8fba-808fd026a101","system_id":"levelo_inurba_marseille","lat":43.275548,"lon":5.424094,"is_reserved":false,"is_disabled":false,"rental_uris":{"android":"levelo://app?vid=3f562d9d-30ba-4828-8fba-808fd026a101","ios":"levelo://app?vid=3f562d9d-30ba-4828-8fba-808fd026a101"},"vehicle_type_id":"4","last_reported":1743081617,"current_range_meters":8800,"station_id":"ce4bhn92rcd13ifvqgrg","pricing_plan_id":"cebpf4jnsgd1na2vs0mg"},{"bike_id":"ce5dc413-c0af-44e2-b6e9-e5f933305376","system_id":"levelo_inurba_marseille","lat":43.29077,"lon":5.37165,"is_reserved":false,"is_disabled":false,"rental_uris":{"android":"levelo://app?vid=ce5dc413-c0af-44e2-b6e9-e5f933305376","ios":"levelo://app?vid=ce5dc413-c0af-44e2-b6e9-e5f933305376"},"vehicle_type_id":"4","last_reported":1743081617,"current_range_meters":8800,"station_id":"ce4bh5p2rcd13ifvqe4g","pricing_plan_id":"cebpf4jnsgd1na2vs0mg"},{"bike_id":"90ed0278-e199-4f33-b631-bb6c03ab539d","system_id":"levelo_inurba_marseille","lat":43.279001,"lon":5.380205,"is_reserved":false,"is_disabled":false,"rental_uris":{"android":"levelo://app?vid=90ed0278-e199-4f33-b631-bb6c03ab539d","ios":"levelo://app?vid=90ed0278-e199-4f33-b631-bb6c03ab539d"},"vehicle_type_id":"4","last_reported":1743081617,"current_range_meters":8800,"station_id":"ce4bhf92rcd13ifvqf50","pricing_plan_id":"cebpf4jnsgd1na2vs0mg"},{"bike_id":"cb0c0003-ef86-4089-ad6a-b466f8142df3","system_id":"levelo_inurba_marseille","lat":43.27496,"lon":5.4245,"is_reserved":false,"is_disabled":false,"rental_uris":{"android":"levelo://app?vid=cb0c0003-ef86-4089-ad6a-b466f8142df3","ios":"levelo://app?vid=cb0c0003-ef86-4089-ad6a-b466f8142df3"},"vehicle_type_id":"4","last_reported":1743081617,"current_range_meters":8800,"station_id":"ce4bhn92rcd13ifvqgrg","pricing_plan_id":"cebpf4jnsgd1na2vs0mg"},{"bike_id":"5cd41ede-1055-43ba-aa48-e30641c512a4","system_id":"levelo_inurba_marseille","lat":43.24083,"lon":5.37761,"is_reserved":false,"is_disabled":false,"rental_uris":{"android":"levelo://app?vid=5cd41ede-1055-43ba-aa48-e30641c512a4","ios":"levelo://app?vid=5cd41ede-1055-43ba-aa48-e30641c512a4"},"vehicle_type_id":"4","last_reported":1743081617,"current_range_meters":8800,"station_id":"ce4bhnp2rcd13ifvqgvg","pricing_plan_id":"cebpf4jnsgd1na2vs0mg"},{"bike_id":"4ea2dc4a-53b8-4d21-b056-faf850ab7b24","system_id":"levelo_inurba_marseille","lat":43.29555,"lon":5.42283,"is_reserved":false,"is_disabled":false,"rental_uris":{"android":"levelo://app?vid=4ea2dc4a-53b8-4d21-b056-faf850ab7b24","ios":"levelo://app?vid=4ea2dc4a-53b8-4d21-b056-faf850ab7b24"},"vehicle_type_id":"4","last_reported":1743081617,"current_range_meters":9200,"station_id":"ce4bhph2rcd13ifvqhdg","pricing_plan_id":"cebpf4jnsgd1na2vs0mg"},{"bike_id":"452d2ec4-066f-4eff-b53f-f465a7c49f6e","system_id":"levelo_inurba_marseille","lat":43.28707,"lon":5.39975,"is_reserved":false,"is_disabled":false,"rental_uris":{"android":"levelo://app?vid=452d2ec4-066f-4eff-b53f-f465a7c49f6e","ios":"levelo://app?vid=452d2ec4-066f-4eff-b53f-f465a7c49f6e"},"vehicle_type_id":"4","last_reported":1743081617,"current_range_meters":9200,"station_id":"ce4bho92rcd13ifvqh3g","pricing_plan_id":"cebpf4jnsgd1na2vs0mg"},{"bike_id":"152359cf-4632-460c-ba05-878467e50237","system_id":"levelo_inurba_marseille","lat":43.30797,"lon":5.38165,"is_reserved":false,"is_disabled":false,"rental_uris":{"android":"levelo://app?vid=152359cf-4632-460c-ba05-878467e50237","ios":"levelo://app?vid=152359cf-4632-460c-ba05-878467e50237"},"vehicle_type_id":"4","last_reported":1743081617,"current_range_meters":9200,"station_id":"ce4bgt12rcd13ifvqce0","pricing_plan_id":"cebpf4jnsgd1na2vs0mg"},{"bike_id":"83c296a3-74a2-4498-8955-12ede1464fc5","system_id":"levelo_inurba_marseille","lat":43.27376,"lon":5.36258,"is_reserved":false,"is_disabled":false,"rental_uris":{"android":"levelo://app?vid=83c296a3-74a2-4498-8955-12ede1464fc5","ios":"levelo://app?vid=83c296a3-74a2-4498-8955-12ede1464fc5"},"vehicle_type_id":"4","last_reported":1743081617,"current_range_meters":9200,"station_id":"ce4bhbh2rcd13ifvqeo0","pricing_plan_id":"cebpf4jnsgd1na2vs0mg"},{"bike_id":"99122cd7-e025-4329-991d-c2d464c73009","system_id":"levelo_inurba_marseille","lat":43.282777,"lon":5.35069,"is_reserved":false,"is_disabled":false,"rental_uris":{"android":"levelo://app?vid=99122cd7-e025-4329-991d-c2d464c73009","ios":"levelo://app?vid=99122cd7-e025-4329-991d-c2d464c73009"},"vehicle_type_id":"4","last_reported":1743081617,"current_range_meters":9200,"station_id":"ce4bhbp2rcd13ifvqerg","pricing_plan_id":"cebpf4jnsgd1na2vs0mg"},{"bike_id":"25f5ae66-9bed-4bb5-9e41-64fcd661e193","system_id":"levelo_inurba_marseille","lat":43.31204,"lon":5.36849,"is_reserved":false,"is_disabled":false,"rental_uris":{"android":"levelo://app?vid=25f5ae66-9bed-4bb5-9e41-64fcd661e193","ios":"levelo://app?vid=25f5ae66-9bed-4bb5-9e41-64fcd661e193"},"vehicle_type_id":"4","last_reported":1743081617,"current_range_meters":9200,"station_id":"ce4bgl92rcd13ifvqbq0","pricing_plan_id":"cebpf4jnsgd1na2vs0mg"},{"bike_id":"f20c1623-69ec-48a0-9b4d-d4396bc7908b","system_id":"levelo_inurba_marseille","lat":43.30534,"lon":5.36547,"is_reserved":false,"is_disabled":false,"rental_uris":{"android":"levelo://app?vid=f20c1623-69ec-48a0-9b4d-d4396bc7908b","ios":"levelo://app?vid=f20c1623-69ec-48a0-9b4d-d4396bc7908b"},"vehicle_type_id":"4","last_reported":1743081617,"current_range_meters":9200,"station_id":"ce4bgs12rcd13ifvqcag","pricing_plan_id":"cebpf4jnsgd1na2vs0mg"},{"bike_id":"8d7a5875-bc9c-427a-beb6-fc3b92c96060","system_id":"levelo_inurba_marseille","lat":43.30879,"lon":5.39645,"is_reserved":false,"is_disabled":false,"rental_uris":{"android":"levelo://app?vid=8d7a5875-bc9c-427a-beb6-fc3b92c96060","ios":"levelo://app?vid=8d7a5875-bc9c-427a-beb6-fc3b92c96060"},"vehicle_type_id":"4","last_reported":1743081617,"current_range_meters":9200,"station_id":"ce4bh012rcd13ifvqcv0","pricing_plan_id":"cebpf4jnsgd1na2vs0mg"},{"bike_id":"b6ff07c2-5f60-4b2c-a982-81a7a2d1b893","system_id":"levelo_inurba_marseille","lat":43.26489,"lon":5.39545,"is_reserved":false,"is_disabled":false,"rental_uris":{"android":"levelo://app?vid=b6ff07c2-5f60-4b2c-a982-81a7a2d1b893","ios":"levelo://app?vid=b6ff07c2-5f60-4b2c-a982-81a7a2d1b893"},"vehicle_type_id":"4","last_reported":1743081617,"current_range_meters":9200,"station_id":"ce4bhi12rcd13ifvqfq0","pricing_plan_id":"cebpf4jnsgd1na2vs0mg"},{"bike_id":"a0aa2b66-8d81-4f41-ae27-5d11fde4f918","system_id":"levelo_inurba_marseille","lat":43.28417,"lon":5.34986,"is_reserved":false,"is_disabled":false,"rental_uris":{"android":"levelo://app?vid=a0aa2b66-8d81-4f41-ae27-5d11fde4f918","ios":"levelo://app?vid=a0aa2b66-8d81-4f41-ae27-5d11fde4f918"},"vehicle_type_id":"4","last_reported":1743081617,"current_range_meters":9200,"station_id":"ce4bhbh2rcd13ifvqepg","pricing_plan_id":"cebpf4jnsgd1na2vs0mg"},{"bike_id":"0a5fbe17-09e7-4568-83ad-36886fbbc522","system_id":"levelo_inurba_marseille","lat":43.24088,"lon":5.37758,"is_reserved":false,"is_disabled":false,"rental_uris":{"android":"levelo://app?vid=0a5fbe17-09e7-4568-83ad-36886fbbc522","ios":"levelo://app?vid=0a5fbe17-09e7-4568-83ad-36886fbbc522"},"vehicle_type_id":"4","last_reported":1743081617,"current_range_meters":9600,"station_id":"ce4bhnp2rcd13ifvqgvg","pricing_plan_id":"cebpf4jnsgd1na2vs0mg"},{"bike_id":"f8a5e80a-07e7-47f3-bfaf-ffc91ab4dc2c","system_id":"levelo_inurba_marseille","lat":43.2694,"lon":5.38656,"is_reserved":false,"is_disabled":false,"rental_uris":{"android":"levelo://app?vid=f8a5e80a-07e7-47f3-bfaf-ffc91ab4dc2c","ios":"levelo://app?vid=f8a5e80a-07e7-47f3-bfaf-ffc91ab4dc2c"},"vehicle_type_id":"4","last_reported":1743081617,"current_range_meters":9600,"station_id":"ce4bhh92rcd13ifvqfh0","pricing_plan_id":"cebpf4jnsgd1na2vs0mg"},{"bike_id":"1b43fc25-3ea0-48b3-af2c-a67610b49dc2","system_id":"levelo_inurba_marseille","lat":43.31376,"lon":5.36741,"is_reserved":false,"is_disabled":false,"rental_uris":{"android":"levelo://app?vid=1b43fc25-3ea0-48b3-af2c-a67610b49dc2","ios":"levelo://app?vid=1b43fc25-3ea0-48b3-af2c-a67610b49dc2"},"vehicle_type_id":"4","last_reported":1743081617,"current_range_meters":9600,"station_id":"ce4bgr92rcd13ifvqc6g","pricing_plan_id":"cebpf4jnsgd1na2vs0mg"},{"bike_id":"1c10fa61-6b4d-46b3-b34b-1e0ab4cb2fcd","system_id":"levelo_inurba_marseille","lat":43.26232,"lon":5.40455,"is_reserved":false,"is_disabled":false,"rental_uris":{"android":"levelo://app?vid=1c10fa61-6b4d-46b3-b34b-1e0ab4cb2fcd","ios":"levelo://app?vid=1c10fa61-6b4d-46b3-b34b-1e0ab4cb2fcd"},"vehicle_type_id":"4","last_reported":1743081617,"current_range_meters":9600,"station_id":"ce4bhmh2rcd13ifvqgmg","pricing_plan_id":"cebpf4jnsgd1na2vs0mg"},{"bike_id":"bf33f293-01f5-4623-8623-f472ea300eac","system_id":"levelo_inurba_marseille","lat":43.30304,"lon":5.36902,"is_reserved":false,"is_disabled":false,"rental_uris":{"android":"levelo://app?vid=bf33f293-01f5-4623-8623-f472ea300eac","ios":"levelo://app?vid=bf33f293-01f5-4623-8623-f472ea300eac"},"vehicle_type_id":"4","last_reported":1743081617,"current_range_meters":9600,"station_id":"ce4bgqh2rcd13ifvqc5g","pricing_plan_id":"cebpf4jnsgd1na2vs0mg"},{"bike_id":"696bb09a-dfa5-4699-88fb-b4c906c0b26a","system_id":"levelo_inurba_marseille","lat":43.30936,"lon":5.40166,"is_reserved":false,"is_disabled":false,"rental_uris":{"android":"levelo://app?vid=696bb09a-dfa5-4699-88fb-b4c906c0b26a","ios":"levelo://app?vid=696bb09a-dfa5-4699-88fb-b4c906c0b26a"},"vehicle_type_id":"4","last_reported":1743081617,"current_range_meters":9600,"station_id":"ce4bgvp2rcd13ifvqct0","pricing_plan_id":"cebpf4jnsgd1na2vs0mg"},{"bike_id":"cfee4e76-7d5d-406c-bc52-38f44db21bf3","system_id":"levelo_inurba_marseille","lat":43.30551,"lon":5.36513,"is_reserved":false,"is_disabled":false,"rental_uris":{"android":"levelo://app?vid=cfee4e76-7d5d-406c-bc52-38f44db21bf3","ios":"levelo://app?vid=cfee4e76-7d5d-406c-bc52-38f44db21bf3"},"vehicle_type_id":"4","last_reported":1743081617,"current_range_meters":9600,"station_id":"ce4bgs12rcd13ifvqcag","pricing_plan_id":"cebpf4jnsgd1na2vs0mg"},{"bike_id":"eee50537-91ed-4a28-8822-455687ec1f57","system_id":"levelo_inurba_marseille","lat":43.28852,"lon":5.35848,"is_reserved":false,"is_disabled":false,"rental_uris":{"android":"levelo://app?vid=eee50537-91ed-4a28-8822-455687ec1f57","ios":"levelo://app?vid=eee50537-91ed-4a28-8822-455687ec1f57"},"vehicle_type_id":"4","last_reported":1743081617,"current_range_meters":9600,"station_id":"ce4bhb12rcd13ifvqem0","pricing_plan_id":"cebpf4jnsgd1na2vs0mg"},{"bike_id":"d78bef9c-ed08-4dd3-be8c-89d87f9036be","system_id":"levelo_inurba_marseille","lat":43.28423,"lon":5.34987,"is_reserved":false,"is_disabled":false,"rental_uris":{"android":"levelo://app?vid=d78bef9c-ed08-4dd3-be8c-89d87f9036be","ios":"levelo://app?vid=d78bef9c-ed08-4dd3-be8c-89d87f9036be"},"vehicle_type_id":"4","last_reported":1743081617,"current_range_meters":9600,"station_id":"ce4bhbh2rcd13ifvqepg","pricing_plan_id":"cebpf4jnsgd1na2vs0mg"},{"bike_id":"f67f98a3-54a8-47d6-b2ff-11adab6ff5d2","system_id":"levelo_inurba_marseille","lat":43.312243,"lon":5.36881,"is_reserved":false,"is_disabled":false,"rental_uris":{"android":"levelo://app?vid=f67f98a3-54a8-47d6-b2ff-11adab6ff5d2","ios":"levelo://app?vid=f67f98a3-54a8-47d6-b2ff-11adab6ff5d2"},"vehicle_type_id":"4","last_reported":1743081617,"current_range_meters":10000,"station_id":"ce4bgl92rcd13ifvqbq0","pricing_plan_id":"cebpf4jnsgd1na2vs0mg"},{"bike_id":"0800d7c5-49b7-44bb-bf91-db959408c16f","system_id":"levelo_inurba_marseille","lat":43.284016,"lon":5.374996,"is_reserved":false,"is_disabled":false,"rental_uris":{"android":"levelo://app?vid=0800d7c5-49b7-44bb-bf91-db959408c16f","ios":"levelo://app?vid=0800d7c5-49b7-44bb-bf91-db959408c16f"},"vehicle_type_id":"4","last_reported":1743081617,"current_range_meters":10000,"station_id":"ce4bh412rcd13ifvqds0","pricing_plan_id":"cebpf4jnsgd1na2vs0mg"},{"bike_id":"43c9d463-a195-415d-89b1-687639b39315","system_id":"levelo_inurba_marseille","lat":43.30304,"lon":5.3922,"is_reserved":false,"is_disabled":false,"rental_uris":{"android":"levelo://app?vid=43c9d463-a195-415d-89b1-687639b39315","ios":"levelo://app?vid=43c9d463-a195-415d-89b1-687639b39315"},"vehicle_type_id":"4","last_reported":1743081617,"current_range_meters":10000,"station_id":"ce4bgkh2rcd13ifvqbk0","pricing_plan_id":"cebpf4jnsgd1na2vs0mg"},{"bike_id":"aef508a9-abfb-4348-92a4-49850feea651","system_id":"levelo_inurba_marseille","lat":43.2738,"lon":5.36257,"is_reserved":false,"is_disabled":false,"rental_uris":{"android":"levelo://app?vid=aef508a9-abfb-4348-92a4-49850feea651","ios":"levelo://app?vid=aef508a9-abfb-4348-92a4-49850feea651"},"vehicle_type_id":"4","last_reported":1743081617,"current_range_meters":10000,"station_id":"ce4bhbh2rcd13ifvqeo0","pricing_plan_id":"cebpf4jnsgd1na2vs0mg"},{"bike_id":"17f8f35d-f8fc-44ad-92f1-f5cf10619b9c","system_id":"levelo_inurba_marseille","lat":43.28576,"lon":5.39498,"is_reserved":false,"is_disabled":false,"rental_uris":{"android":"levelo://app?vid=17f8f35d-f8fc-44ad-92f1-f5cf10619b9c","ios":"levelo://app?vid=17f8f35d-f8fc-44ad-92f1-f5cf10619b9c"},"vehicle_type_id":"4","last_reported":1743081617,"current_range_meters":9600,"station_id":"ce4bh292rcd13ifvqdg0","pricing_plan_id":"cebpf4jnsgd1na2vs0mg"},{"bike_id":"c18155db-65c7-4d5a-8c5b-923eb75c675d","system_id":"levelo_inurba_marseille","lat":43.32098,"lon":5.36774,"is_reserved":false,"is_disabled":false,"rental_uris":{"android":"levelo://app?vid=c18155db-65c7-4d5a-8c5b-923eb75c675d","ios":"levelo://app?vid=c18155db-65c7-4d5a-8c5b-923eb75c675d"},"vehicle_type_id":"4","last_reported":1743081617,"current_range_meters":10000,"station_id":"ce4bhrh2rcd13ifvqhug","pricing_plan_id":"cebpf4jnsgd1na2vs0mg"},{"bike_id":"1c21b756-e036-4348-8b3e-23fd217ddfa2","system_id":"levelo_inurba_marseille","lat":43.26919,"lon":5.38668,"is_reserved":false,"is_disabled":false,"rental_uris":{"android":"levelo://app?vid=1c21b756-e036-4348-8b3e-23fd217ddfa2","ios":"levelo://app?vid=1c21b756-e036-4348-8b3e-23fd217ddfa2"},"vehicle_type_id":"4","last_reported":1743081617,"current_range_meters":10000,"station_id":"ce4bhh92rcd13ifvqfh0","pricing_plan_id":"cebpf4jnsgd1na2vs0mg"},{"bike_id":"cc47bdae-e849-4c2a-a9b3-b38e0f1eb05b","system_id":"levelo_inurba_marseille","lat":43.25003,"lon":5.38945,"is_reserved":false,"is_disabled":false,"rental_uris":{"android":"levelo://app?vid=cc47bdae-e849-4c2a-a9b3-b38e0f1eb05b","ios":"levelo://app?vid=cc47bdae-e849-4c2a-a9b3-b38e0f1eb05b"},"vehicle_type_id":"4","last_reported":1743081617,"current_range_meters":10000,"station_id":"ce4bhgp2rcd13ifvqfd0","pricing_plan_id":"cebpf4jnsgd1na2vs0mg"},{"bike_id":"87927af9-479d-4a1f-b32a-da584039ba23","system_id":"levelo_inurba_marseille","lat":43.30222,"lon":5.39476,"is_reserved":false,"is_disabled":false,"rental_uris":{"android":"levelo://app?vid=87927af9-479d-4a1f-b32a-da584039ba23","ios":"levelo://app?vid=87927af9-479d-4a1f-b32a-da584039ba23"},"vehicle_type_id":"4","last_reported":1743081617,"current_range_meters":10800,"station_id":"ce4bh0p2rcd13ifvqd70","pricing_plan_id":"cebpf4jnsgd1na2vs0mg"},{"bike_id":"9a43cf34-3787-4c13-808e-8fc918fd510b","system_id":"levelo_inurba_marseille","lat":43.28256,"lon":5.35058,"is_reserved":false,"is_disabled":false,"rental_uris":{"android":"levelo://app?vid=9a43cf34-3787-4c13-808e-8fc918fd510b","ios":"levelo://app?vid=9a43cf34-3787-4c13-808e-8fc918fd510b"},"vehicle_type_id":"4","last_reported":1743081617,"current_range_meters":10800,"station_id":"ce4bhbp2rcd13ifvqerg","pricing_plan_id":"cebpf4jnsgd1na2vs0mg"},{"bike_id":"8de47489-e5e0-4391-87e9-923340630700","system_id":"levelo_inurba_marseille","lat":43.27495,"lon":5.42459,"is_reserved":false,"is_disabled":false,"rental_uris":{"android":"levelo://app?vid=8de47489-e5e0-4391-87e9-923340630700","ios":"levelo://app?vid=8de47489-e5e0-4391-87e9-923340630700"},"vehicle_type_id":"4","last_reported":1743081617,"current_range_meters":10800,"station_id":"ce4bhn92rcd13ifvqgrg","pricing_plan_id":"cebpf4jnsgd1na2vs0mg"},{"bike_id":"75c7187b-7cb5-4136-b180-795a32bcbe1d","system_id":"levelo_inurba_marseille","lat":43.27974,"lon":5.38589,"is_reserved":false,"is_disabled":true,"rental_uris":{"android":"levelo://app?vid=75c7187b-7cb5-4136-b180-795a32bcbe1d","ios":"levelo://app?vid=75c7187b-7cb5-4136-b180-795a32bcbe1d"},"vehicle_type_id":"4","last_reported":1743081617,"current_range_meters":10800,"station_id":"","pricing_plan_id":"cebpf4jnsgd1na2vs0mg"},{"bike_id":"0ac88cdf-dd3a-494f-aaa5-2b24d1ce393f","system_id":"levelo_inurba_marseille","lat":43.2319,"lon":5.35555,"is_reserved":false,"is_disabled":false,"rental_uris":{"android":"levelo://app?vid=0ac88cdf-dd3a-494f-aaa5-2b24d1ce393f","ios":"levelo://app?vid=0ac88cdf-dd3a-494f-aaa5-2b24d1ce393f"},"vehicle_type_id":"4","last_reported":1743081617,"current_range_meters":10800,"station_id":"ce4bhu92rcd13ifvqi70","pricing_plan_id":"cebpf4jnsgd1na2vs0mg"},{"bike_id":"a0e89771-a530-4890-b74c-df0fd3627a95","system_id":"levelo_inurba_marseille","lat":43.24065,"lon":5.37753,"is_reserved":false,"is_disabled":false,"rental_uris":{"android":"levelo://app?vid=a0e89771-a530-4890-b74c-df0fd3627a95","ios":"levelo://app?vid=a0e89771-a530-4890-b74c-df0fd3627a95"},"vehicle_type_id":"4","last_reported":1743081617,"current_range_meters":10800,"station_id":"ce4bhnp2rcd13ifvqgvg","pricing_plan_id":"cebpf4jnsgd1na2vs0mg"},{"bike_id":"dee19a89-a423-464a-9a44-df2825c63a05","system_id":"levelo_inurba_marseille","lat":43.2408,"lon":5.37751,"is_reserved":false,"is_disabled":false,"rental_uris":{"android":"levelo://app?vid=dee19a89-a423-464a-9a44-df2825c63a05","ios":"levelo://app?vid=dee19a89-a423-464a-9a44-df2825c63a05"},"vehicle_type_id":"4","last_reported":1743081617,"current_range_meters":10800,"station_id":"ce4bhnp2rcd13ifvqgvg","pricing_plan_id":"cebpf4jnsgd1na2vs0mg"},{"bike_id":"e13796b3-7802-48d3-a160-30a831410612","system_id":"levelo_inurba_marseille","lat":43.309157,"lon":5.36845,"is_reserved":false,"is_disabled":false,"rental_uris":{"android":"levelo://app?vid=e13796b3-7802-48d3-a160-30a831410612","ios":"levelo://app?vid=e13796b3-7802-48d3-a160-30a831410612"},"vehicle_type_id":"4","last_reported":1743081617,"current_range_meters":10800,"station_id":"ce4bgn92rcd13ifvqbvg","pricing_plan_id":"cebpf4jnsgd1na2vs0mg"},{"bike_id":"ade3a9ef-59fa-4ad5-b0e3-a4e3f36a4dbc","system_id":"levelo_inurba_marseille","lat":43.27052,"lon":5.40266,"is_reserved":false,"is_disabled":false,"rental_uris":{"android":"levelo://app?vid=ade3a9ef-59fa-4ad5-b0e3-a4e3f36a4dbc","ios":"levelo://app?vid=ade3a9ef-59fa-4ad5-b0e3-a4e3f36a4dbc"},"vehicle_type_id":"4","last_reported":1743081617,"current_range_meters":10800,"station_id":"ce4bhk92rcd13ifvqgc0","pricing_plan_id":"cebpf4jnsgd1na2vs0mg"},{"bike_id":"2d4748b4-d1d5-4d84-85e6-b23c9f28a316","system_id":"levelo_inurba_marseille","lat":43.24178,"lon":5.39732,"is_reserved":false,"is_disabled":false,"rental_uris":{"android":"levelo://app?vid=2d4748b4-d1d5-4d84-85e6-b23c9f28a316","ios":"levelo://app?vid=2d4748b4-d1d5-4d84-85e6-b23c9f28a316"},"vehicle_type_id":"4","last_reported":1743081617,"current_range_meters":11200,"station_id":"ce4bhn12rcd13ifvqgpg","pricing_plan_id":"cebpf4jnsgd1na2vs0mg"},{"bike_id":"3a9bdcca-abab-46db-a40a-336182c98f57","system_id":"levelo_inurba_marseille","lat":43.2781,"lon":5.40739,"is_reserved":false,"is_disabled":false,"rental_uris":{"android":"levelo://app?vid=3a9bdcca-abab-46db-a40a-336182c98f57","ios":"levelo://app?vid=3a9bdcca-abab-46db-a40a-336182c98f57"},"vehicle_type_id":"4","last_reported":1743081617,"current_range_meters":11200,"station_id":"ce4bhnh2rcd13ifvqgtg","pricing_plan_id":"cebpf4jnsgd1na2vs0mg"},{"bike_id":"3db90f6a-9cfc-4bd2-9b37-cf15cf745557","system_id":"levelo_inurba_marseille","lat":43.2816,"lon":5.4265,"is_reserved":false,"is_disabled":false,"rental_uris":{"android":"levelo://app?vid=3db90f6a-9cfc-4bd2-9b37-cf15cf745557","ios":"levelo://app?vid=3db90f6a-9cfc-4bd2-9b37-cf15cf745557"},"vehicle_type_id":"4","last_reported":1743081617,"current_range_meters":11200,"station_id":"ce4bhnh2rcd13ifvqgug","pricing_plan_id":"cebpf4jnsgd1na2vs0mg"},{"bike_id":"2079e143-15fb-4fca-b428-1dcdbd2da2aa","system_id":"levelo_inurba_marseille","lat":43.27786,"lon":5.40748,"is_reserved":false,"is_disabled":false,"rental_uris":{"android":"levelo://app?vid=2079e143-15fb-4fca-b428-1dcdbd2da2aa","ios":"levelo://app?vid=2079e143-15fb-4fca-b428-1dcdbd2da2aa"},"vehicle_type_id":"4","last_reported":1743081617,"current_range_meters":11200,"station_id":"ce4bhnh2rcd13ifvqgtg","pricing_plan_id":"cebpf4jnsgd1na2vs0mg"},{"bike_id":"30cd612a-8cb0-4fab-9e3a-cd08e9fc22b5","system_id":"levelo_inurba_marseille","lat":43.29518,"lon":5.39389,"is_reserved":false,"is_disabled":true,"rental_uris":{"android":"levelo://app?vid=30cd612a-8cb0-4fab-9e3a-cd08e9fc22b5","ios":"levelo://app?vid=30cd612a-8cb0-4fab-9e3a-cd08e9fc22b5"},"vehicle_type_id":"4","last_reported":1743081617,"current_range_meters":11200,"station_id":"ce4bh292rcd13ifvqdf0","pricing_plan_id":"cebpf4jnsgd1na2vs0mg"},{"bike_id":"1ff49c45-cbc2-41a3-a3d1-b45681631f77","system_id":"levelo_inurba_marseille","lat":43.27974,"lon":5.38744,"is_reserved":false,"is_disabled":false,"rental_uris":{"android":"levelo://app?vid=1ff49c45-cbc2-41a3-a3d1-b45681631f77","ios":"levelo://app?vid=1ff49c45-cbc2-41a3-a3d1-b45681631f77"},"vehicle_type_id":"4","last_reported":1743081617,"current_range_meters":11200,"station_id":"ce4bhg12rcd13ifvqf80","pricing_plan_id":"cebpf4jnsgd1na2vs0mg"},{"bike_id":"d4fe3de5-6ed0-4d26-9f5e-b7e6d9274da5","system_id":"levelo_inurba_marseille","lat":43.30151,"lon":5.38063,"is_reserved":false,"is_disabled":false,"rental_uris":{"android":"levelo://app?vid=d4fe3de5-6ed0-4d26-9f5e-b7e6d9274da5","ios":"levelo://app?vid=d4fe3de5-6ed0-4d26-9f5e-b7e6d9274da5"},"vehicle_type_id":"4","last_reported":1743081617,"current_range_meters":11200,"station_id":"ce4bgjp2rcd13ifvqbh0","pricing_plan_id":"cebpf4jnsgd1na2vs0mg"},{"bike_id":"b7df044c-a420-415e-b7b7-345aa8eb07fc","system_id":"levelo_inurba_marseille","lat":43.31848,"lon":5.38736,"is_reserved":false,"is_disabled":false,"rental_uris":{"android":"levelo://app?vid=b7df044c-a420-415e-b7b7-345aa8eb07fc","ios":"levelo://app?vid=b7df044c-a420-415e-b7b7-345aa8eb07fc"},"vehicle_type_id":"4","last_reported":1743081617,"current_range_meters":11200,"station_id":"","pricing_plan_id":"cebpf4jnsgd1na2vs0mg"},{"bike_id":"64f0ea86-1180-4755-95e1-3cbc9c8d4cf5","system_id":"levelo_inurba_marseille","lat":43.330099,"lon":5.438619,"is_reserved":false,"is_disabled":true,"rental_uris":{"android":"levelo://app?vid=64f0ea86-1180-4755-95e1-3cbc9c8d4cf5","ios":"levelo://app?vid=64f0ea86-1180-4755-95e1-3cbc9c8d4cf5"},"vehicle_type_id":"4","last_reported":1743081617,"current_range_meters":11200,"station_id":"","pricing_plan_id":"cebpf4jnsgd1na2vs0mg"},{"bike_id":"7995e57a-fd45-4117-be54-0208a299fffb","system_id":"levelo_inurba_marseille","lat":43.30801,"lon":5.38168,"is_reserved":false,"is_disabled":false,"rental_uris":{"android":"levelo://app?vid=7995e57a-fd45-4117-be54-0208a299fffb","ios":"levelo://app?vid=7995e57a-fd45-4117-be54-0208a299fffb"},"vehicle_type_id":"4","last_reported":1743081617,"current_range_meters":11200,"station_id":"ce4bgt12rcd13ifvqce0","pricing_plan_id":"cebpf4jnsgd1na2vs0mg"},{"bike_id":"4148286b-bba9-4adb-8839-83b192769343","system_id":"levelo_inurba_marseille","lat":43.28415,"lon":5.34991,"is_reserved":false,"is_disabled":false,"rental_uris":{"android":"levelo://app?vid=4148286b-bba9-4adb-8839-83b192769343","ios":"levelo://app?vid=4148286b-bba9-4adb-8839-83b192769343"},"vehicle_type_id":"4","last_reported":1743081617,"current_range_meters":11200,"station_id":"ce4bhbh2rcd13ifvqepg","pricing_plan_id":"cebpf4jnsgd1na2vs0mg"},{"bike_id":"aa9984d2-4ded-4a59-841f-6221daf05709","system_id":"levelo_inurba_marseille","lat":43.3079,"lon":5.37652,"is_reserved":false,"is_disabled":false,"rental_uris":{"android":"levelo://app?vid=aa9984d2-4ded-4a59-841f-6221daf05709","ios":"levelo://app?vid=aa9984d2-4ded-4a59-841f-6221daf05709"},"vehicle_type_id":"4","last_reported":1743081617,"current_range_meters":11200,"station_id":"ce4bgv92rcd13ifvqcq0","pricing_plan_id":"cebpf4jnsgd1na2vs0mg"},{"bike_id":"7897033c-db93-4636-ade3-9f926500b747","system_id":"levelo_inurba_marseille","lat":43.275414,"lon":5.426281,"is_reserved":false,"is_disabled":false,"rental_uris":{"android":"levelo://app?vid=7897033c-db93-4636-ade3-9f926500b747","ios":"levelo://app?vid=7897033c-db93-4636-ade3-9f926500b747"},"vehicle_type_id":"4","last_reported":1743081617,"current_range_meters":11200,"station_id":"ce4bhn92rcd13ifvqgrg","pricing_plan_id":"cebpf4jnsgd1na2vs0mg"},{"bike_id":"98d2d4ab-f09e-4123-b984-e1e59f9551f8","system_id":"levelo_inurba_marseille","lat":43.24998,"lon":5.38926,"is_reserved":false,"is_disabled":false,"rental_uris":{"android":"levelo://app?vid=98d2d4ab-f09e-4123-b984-e1e59f9551f8","ios":"levelo://app?vid=98d2d4ab-f09e-4123-b984-e1e59f9551f8"},"vehicle_type_id":"4","last_reported":1743081617,"current_range_meters":11200,"station_id":"ce4bhgp2rcd13ifvqfd0","pricing_plan_id":"cebpf4jnsgd1na2vs0mg"},{"bike_id":"fc8e8371-f4e9-4721-bc19-563801e389dc","system_id":"levelo_inurba_marseille","lat":43.337444,"lon":5.374475,"is_reserved":false,"is_disabled":false,"rental_uris":{"android":"levelo://app?vid=fc8e8371-f4e9-4721-bc19-563801e389dc","ios":"levelo://app?vid=fc8e8371-f4e9-4721-bc19-563801e389dc"},"vehicle_type_id":"4","last_reported":1743081617,"current_range_meters":11200,"station_id":"","pricing_plan_id":"cebpf4jnsgd1na2vs0mg"},{"bike_id":"025425bb-1287-4df2-9401-0428a6e93f63","system_id":"levelo_inurba_marseille","lat":43.30913,"lon":5.36857,"is_reserved":false,"is_disabled":false,"rental_uris":{"android":"levelo://app?vid=025425bb-1287-4df2-9401-0428a6e93f63","ios":"levelo://app?vid=025425bb-1287-4df2-9401-0428a6e93f63"},"vehicle_type_id":"4","last_reported":1743081617,"current_range_meters":11600,"station_id":"","pricing_plan_id":"cebpf4jnsgd1na2vs0mg"},{"bike_id":"12de2a5d-af1a-406f-ae29-1792c23b418c","system_id":"levelo_inurba_marseille","lat":43.284101,"lon":5.350117,"is_reserved":false,"is_disabled":false,"rental_uris":{"android":"levelo://app?vid=12de2a5d-af1a-406f-ae29-1792c23b418c","ios":"levelo://app?vid=12de2a5d-af1a-406f-ae29-1792c23b418c"},"vehicle_type_id":"4","last_reported":1743081617,"current_range_meters":11600,"station_id":"ce4bhbh2rcd13ifvqepg","pricing_plan_id":"cebpf4jnsgd1na2vs0mg"},{"bike_id":"77066f8f-801d-49c3-ab1d-52d91d3eadc5","system_id":"levelo_inurba_marseille","lat":43.25506,"lon":5.37654,"is_reserved":false,"is_disabled":false,"rental_uris":{"android":"levelo://app?vid=77066f8f-801d-49c3-ab1d-52d91d3eadc5","ios":"levelo://app?vid=77066f8f-801d-49c3-ab1d-52d91d3eadc5"},"vehicle_type_id":"4","last_reported":1743081617,"current_range_meters":11600,"station_id":"ce4bhh12rcd13ifvqff0","pricing_plan_id":"cebpf4jnsgd1na2vs0mg"},{"bike_id":"67d7f243-dad5-46b4-9241-dadc68261985","system_id":"levelo_inurba_marseille","lat":43.25919,"lon":5.4089,"is_reserved":false,"is_disabled":false,"rental_uris":{"android":"levelo://app?vid=67d7f243-dad5-46b4-9241-dadc68261985","ios":"levelo://app?vid=67d7f243-dad5-46b4-9241-dadc68261985"},"vehicle_type_id":"4","last_reported":1743081617,"current_range_meters":11600,"station_id":"ce4bhm92rcd13ifvqglg","pricing_plan_id":"cebpf4jnsgd1na2vs0mg"},{"bike_id":"00f8a823-b5b1-4799-904b-6136ec63ab41","system_id":"levelo_inurba_marseille","lat":43.28624,"lon":5.35112,"is_reserved":false,"is_disabled":false,"rental_uris":{"android":"levelo://app?vid=00f8a823-b5b1-4799-904b-6136ec63ab41","ios":"levelo://app?vid=00f8a823-b5b1-4799-904b-6136ec63ab41"},"vehicle_type_id":"4","last_reported":1743081617,"current_range_meters":11600,"station_id":"ce4bhch2rcd13ifvqeug","pricing_plan_id":"cebpf4jnsgd1na2vs0mg"},{"bike_id":"5e611bed-ca9d-4d28-bd90-aa8fd404a87a","system_id":"levelo_inurba_marseille","lat":43.24809,"lon":5.37451,"is_reserved":false,"is_disabled":true,"rental_uris":{"android":"levelo://app?vid=5e611bed-ca9d-4d28-bd90-aa8fd404a87a","ios":"levelo://app?vid=5e611bed-ca9d-4d28-bd90-aa8fd404a87a"},"vehicle_type_id":"4","last_reported":1743081617,"current_range_meters":11600,"station_id":"ce4bhgh2rcd13ifvqfb0","pricing_plan_id":"cebpf4jnsgd1na2vs0mg"},{"bike_id":"25c93242-72e6-4525-aea7-7d96e2cd1825","system_id":"levelo_inurba_marseille","lat":43.33089,"lon":5.4081,"is_reserved":false,"is_disabled":false,"rental_uris":{"android":"levelo://app?vid=25c93242-72e6-4525-aea7-7d96e2cd1825","ios":"levelo://app?vid=25c93242-72e6-4525-aea7-7d96e2cd1825"},"vehicle_type_id":"4","last_reported":1743081617,"current_range_meters":11600,"station_id":"","pricing_plan_id":"cebpf4jnsgd1na2vs0mg"},{"bike_id":"9a15a95f-cf9b-4362-bb25-0b5170108c0a","system_id":"levelo_inurba_marseille","lat":43.30547,"lon":5.36585,"is_reserved":false,"is_disabled":false,"rental_uris":{"android":"levelo://app?vid=9a15a95f-cf9b-4362-bb25-0b5170108c0a","ios":"levelo://app?vid=9a15a95f-cf9b-4362-bb25-0b5170108c0a"},"vehicle_type_id":"4","last_reported":1743081617,"current_range_meters":11600,"station_id":"ce4bgs12rcd13ifvqcag","pricing_plan_id":"cebpf4jnsgd1na2vs0mg"},{"bike_id":"006b480a-6abf-4c58-876c-6a1638b8d32d","system_id":"levelo_inurba_marseille","lat":43.29096,"lon":5.38132,"is_reserved":false,"is_disabled":false,"rental_uris":{"android":"levelo://app?vid=006b480a-6abf-4c58-876c-6a1638b8d32d","ios":"levelo://app?vid=006b480a-6abf-4c58-876c-6a1638b8d32d"},"vehicle_type_id":"4","last_reported":1743081617,"current_range_meters":11600,"station_id":"ce4bh512rcd13ifvqe2g","pricing_plan_id":"cebpf4jnsgd1na2vs0mg"},{"bike_id":"3d290f3b-e4f4-46ff-bb6d-65fa0034a269","system_id":"levelo_inurba_marseille","lat":43.31235,"lon":5.36879,"is_reserved":false,"is_disabled":false,"rental_uris":{"android":"levelo://app?vid=3d290f3b-e4f4-46ff-bb6d-65fa0034a269","ios":"levelo://app?vid=3d290f3b-e4f4-46ff-bb6d-65fa0034a269"},"vehicle_type_id":"4","last_reported":1743081617,"current_range_meters":11600,"station_id":"ce4bgl92rcd13ifvqbq0","pricing_plan_id":"cebpf4jnsgd1na2vs0mg"},{"bike_id":"3fbe1556-8639-4440-98d0-ebb7bbf7790f","system_id":"levelo_inurba_marseille","lat":43.28274,"lon":5.35075,"is_reserved":false,"is_disabled":false,"rental_uris":{"android":"levelo://app?vid=3fbe1556-8639-4440-98d0-ebb7bbf7790f","ios":"levelo://app?vid=3fbe1556-8639-4440-98d0-ebb7bbf7790f"},"vehicle_type_id":"4","last_reported":1743081617,"current_range_meters":11600,"station_id":"ce4bhbp2rcd13ifvqerg","pricing_plan_id":"cebpf4jnsgd1na2vs0mg"},{"bike_id":"3c19535d-be5b-42b1-85f4-ec8ada0865a5","system_id":"levelo_inurba_marseille","lat":43.27912,"lon":5.39579,"is_reserved":false,"is_disabled":false,"rental_uris":{"android":"levelo://app?vid=3c19535d-be5b-42b1-85f4-ec8ada0865a5","ios":"levelo://app?vid=3c19535d-be5b-42b1-85f4-ec8ada0865a5"},"vehicle_type_id":"4","last_reported":1743081617,"current_range_meters":11600,"station_id":"ce4bhf92rcd13ifvqf40","pricing_plan_id":"cebpf4jnsgd1na2vs0mg"},{"bike_id":"db9d94dc-d8a1-4186-bb52-aeebb8725a5e","system_id":"levelo_inurba_marseille","lat":43.29799,"lon":5.38119,"is_reserved":false,"is_disabled":false,"rental_uris":{"android":"levelo://app?vid=db9d94dc-d8a1-4186-bb52-aeebb8725a5e","ios":"levelo://app?vid=db9d94dc-d8a1-4186-bb52-aeebb8725a5e"},"vehicle_type_id":"4","last_reported":1743081617,"current_range_meters":11600,"station_id":"ce4bgip2rcd13ifvqbb0","pricing_plan_id":"cebpf4jnsgd1na2vs0mg"},{"bike_id":"60d0dbbf-88d3-4a52-a6d0-645622533b79","system_id":"levelo_inurba_marseille","lat":43.23156,"lon":5.43696,"is_reserved":false,"is_disabled":false,"rental_uris":{"android":"levelo://app?vid=60d0dbbf-88d3-4a52-a6d0-645622533b79","ios":"levelo://app?vid=60d0dbbf-88d3-4a52-a6d0-645622533b79"},"vehicle_type_id":"4","last_reported":1743081617,"current_range_meters":12000,"station_id":"ce4bhmp2rcd13ifvqgog","pricing_plan_id":"cebpf4jnsgd1na2vs0mg"},{"bike_id":"46bc710b-ba5b-4a06-b139-1452387f1098","system_id":"levelo_inurba_marseille","lat":43.23154,"lon":5.43736,"is_reserved":false,"is_disabled":false,"rental_uris":{"android":"levelo://app?vid=46bc710b-ba5b-4a06-b139-1452387f1098","ios":"levelo://app?vid=46bc710b-ba5b-4a06-b139-1452387f1098"},"vehicle_type_id":"4","last_reported":1743081617,"current_range_meters":12000,"station_id":"ce4bhmp2rcd13ifvqgog","pricing_plan_id":"cebpf4jnsgd1na2vs0mg"},{"bike_id":"27922866-8bc1-46bb-96c3-ecc806e4fc0d","system_id":"levelo_inurba_marseille","lat":43.24074,"lon":5.37771,"is_reserved":false,"is_disabled":false,"rental_uris":{"android":"levelo://app?vid=27922866-8bc1-46bb-96c3-ecc806e4fc0d","ios":"levelo://app?vid=27922866-8bc1-46bb-96c3-ecc806e4fc0d"},"vehicle_type_id":"4","last_reported":1743081617,"current_range_meters":12000,"station_id":"ce4bhnp2rcd13ifvqgvg","pricing_plan_id":"cebpf4jnsgd1na2vs0mg"},{"bike_id":"795ef212-53f8-4a87-a23c-8d1c034666b8","system_id":"levelo_inurba_marseille","lat":43.24409,"lon":5.37072,"is_reserved":false,"is_disabled":false,"rental_uris":{"android":"levelo://app?vid=795ef212-53f8-4a87-a23c-8d1c034666b8","ios":"levelo://app?vid=795ef212-53f8-4a87-a23c-8d1c034666b8"},"vehicle_type_id":"4","last_reported":1743081617,"current_range_meters":12000,"station_id":"ce4bhhh2rcd13ifvqfk0","pricing_plan_id":"cebpf4jnsgd1na2vs0mg"},{"bike_id":"b830fc61-d8b2-47a2-98fe-ac082c300ab0","system_id":"levelo_inurba_marseille","lat":43.27377,"lon":5.3627,"is_reserved":false,"is_disabled":false,"rental_uris":{"android":"levelo://app?vid=b830fc61-d8b2-47a2-98fe-ac082c300ab0","ios":"levelo://app?vid=b830fc61-d8b2-47a2-98fe-ac082c300ab0"},"vehicle_type_id":"4","last_reported":1743081617,"current_range_meters":12000,"station_id":"ce4bhbh2rcd13ifvqeo0","pricing_plan_id":"cebpf4jnsgd1na2vs0mg"},{"bike_id":"30927ebf-136d-4f6c-b2ac-1dc1d64a9ccb","system_id":"levelo_inurba_marseille","lat":43.32538,"lon":5.41434,"is_reserved":false,"is_disabled":false,"rental_uris":{"android":"levelo://app?vid=30927ebf-136d-4f6c-b2ac-1dc1d64a9ccb","ios":"levelo://app?vid=30927ebf-136d-4f6c-b2ac-1dc1d64a9ccb"},"vehicle_type_id":"4","last_reported":1743081617,"current_range_meters":12000,"station_id":"ce4bhq12rcd13ifvqhhg","pricing_plan_id":"cebpf4jnsgd1na2vs0mg"},{"bike_id":"19221227-42ec-4f4b-8f04-42a0818e22f5","system_id":"levelo_inurba_marseille","lat":43.32108,"lon":5.36762,"is_reserved":false,"is_disabled":false,"rental_uris":{"android":"levelo://app?vid=19221227-42ec-4f4b-8f04-42a0818e22f5","ios":"levelo://app?vid=19221227-42ec-4f4b-8f04-42a0818e22f5"},"vehicle_type_id":"4","last_reported":1743081617,"current_range_meters":12000,"station_id":"ce4bhrh2rcd13ifvqhug","pricing_plan_id":"cebpf4jnsgd1na2vs0mg"},{"bike_id":"de5030ca-d331-4d37-a4ab-96375fbba7e7","system_id":"levelo_inurba_marseille","lat":43.282651,"lon":5.350682,"is_reserved":false,"is_disabled":false,"rental_uris":{"android":"levelo://app?vid=de5030ca-d331-4d37-a4ab-96375fbba7e7","ios":"levelo://app?vid=de5030ca-d331-4d37-a4ab-96375fbba7e7"},"vehicle_type_id":"4","last_reported":1743081617,"current_range_meters":12000,"station_id":"ce4bhbp2rcd13ifvqerg","pricing_plan_id":"cebpf4jnsgd1na2vs0mg"},{"bike_id":"f00e0bf1-e77c-4752-8f1b-63a2e565cf51","system_id":"levelo_inurba_marseille","lat":43.27965,"lon":5.38741,"is_reserved":false,"is_disabled":true,"rental_uris":{"android":"levelo://app?vid=f00e0bf1-e77c-4752-8f1b-63a2e565cf51","ios":"levelo://app?vid=f00e0bf1-e77c-4752-8f1b-63a2e565cf51"},"vehicle_type_id":"4","last_reported":1743081617,"current_range_meters":12400,"station_id":"ce4bhg12rcd13ifvqf80","pricing_plan_id":"cebpf4jnsgd1na2vs0mg"},{"bike_id":"f2f62e1f-4778-43ff-aa99-60a0f71fa1fc","system_id":"levelo_inurba_marseille","lat":43.2315,"lon":5.43714,"is_reserved":false,"is_disabled":false,"rental_uris":{"android":"levelo://app?vid=f2f62e1f-4778-43ff-aa99-60a0f71fa1fc","ios":"levelo://app?vid=f2f62e1f-4778-43ff-aa99-60a0f71fa1fc"},"vehicle_type_id":"4","last_reported":1743081617,"current_range_meters":12400,"station_id":"ce4bhmp2rcd13ifvqgog","pricing_plan_id":"cebpf4jnsgd1na2vs0mg"},{"bike_id":"929dc956-2b4d-4a62-a433-5892161c84a1","system_id":"levelo_inurba_marseille","lat":43.32485,"lon":5.36546,"is_reserved":false,"is_disabled":false,"rental_uris":{"android":"levelo://app?vid=929dc956-2b4d-4a62-a433-5892161c84a1","ios":"levelo://app?vid=929dc956-2b4d-4a62-a433-5892161c84a1"},"vehicle_type_id":"4","last_reported":1743081617,"current_range_meters":12400,"station_id":"ce4bhs12rcd13ifvqhvg","pricing_plan_id":"cebpf4jnsgd1na2vs0mg"},{"bike_id":"42675edf-45d0-4acb-a04f-7d2046352aec","system_id":"levelo_inurba_marseille","lat":43.29897,"lon":5.43672,"is_reserved":false,"is_disabled":false,"rental_uris":{"android":"levelo://app?vid=42675edf-45d0-4acb-a04f-7d2046352aec","ios":"levelo://app?vid=42675edf-45d0-4acb-a04f-7d2046352aec"},"vehicle_type_id":"4","last_reported":1743081617,"current_range_meters":12400,"station_id":"ce4bhpp2rcd13ifvqhfg","pricing_plan_id":"cebpf4jnsgd1na2vs0mg"},{"bike_id":"c37c1a11-fa75-46d3-8726-799f67893a85","system_id":"levelo_inurba_marseille","lat":43.28359,"lon":5.38106,"is_reserved":false,"is_disabled":false,"rental_uris":{"android":"levelo://app?vid=c37c1a11-fa75-46d3-8726-799f67893a85","ios":"levelo://app?vid=c37c1a11-fa75-46d3-8726-799f67893a85"},"vehicle_type_id":"4","last_reported":1743081617,"current_range_meters":12400,"station_id":"ce4bh412rcd13ifvqdr0","pricing_plan_id":"cebpf4jnsgd1na2vs0mg"},{"bike_id":"caf0c098-81f5-4887-bf3f-38c8bcce56ae","system_id":"levelo_inurba_marseille","lat":43.23195,"lon":5.35551,"is_reserved":false,"is_disabled":false,"rental_uris":{"android":"levelo://app?vid=caf0c098-81f5-4887-bf3f-38c8bcce56ae","ios":"levelo://app?vid=caf0c098-81f5-4887-bf3f-38c8bcce56ae"},"vehicle_type_id":"4","last_reported":1743081617,"current_range_meters":12400,"station_id":"ce4bhu92rcd13ifvqi70","pricing_plan_id":"cebpf4jnsgd1na2vs0mg"},{"bike_id":"51b7bc14-2119-4b53-82b2-277067648b1f","system_id":"levelo_inurba_marseille","lat":43.25872,"lon":5.399,"is_reserved":false,"is_disabled":false,"rental_uris":{"android":"levelo://app?vid=51b7bc14-2119-4b53-82b2-277067648b1f","ios":"levelo://app?vid=51b7bc14-2119-4b53-82b2-277067648b1f"},"vehicle_type_id":"4","last_reported":1743081617,"current_range_meters":12400,"station_id":"ce4bhl92rcd13ifvqghg","pricing_plan_id":"cebpf4jnsgd1na2vs0mg"},{"bike_id":"59b78039-07c8-4481-876d-404938d15499","system_id":"levelo_inurba_marseille","lat":43.30534,"lon":5.36532,"is_reserved":false,"is_disabled":false,"rental_uris":{"android":"levelo://app?vid=59b78039-07c8-4481-876d-404938d15499","ios":"levelo://app?vid=59b78039-07c8-4481-876d-404938d15499"},"vehicle_type_id":"4","last_reported":1743081617,"current_range_meters":12400,"station_id":"ce4bgs12rcd13ifvqcag","pricing_plan_id":"cebpf4jnsgd1na2vs0mg"},{"bike_id":"000e4dca-b64b-4bb0-bdc8-729125ae86da","system_id":"levelo_inurba_marseille","lat":43.31074,"lon":5.38343,"is_reserved":false,"is_disabled":false,"rental_uris":{"android":"levelo://app?vid=000e4dca-b64b-4bb0-bdc8-729125ae86da","ios":"levelo://app?vid=000e4dca-b64b-4bb0-bdc8-729125ae86da"},"vehicle_type_id":"4","last_reported":1743081617,"current_range_meters":12400,"station_id":"ce4bgv92rcd13ifvqcr0","pricing_plan_id":"cebpf4jnsgd1na2vs0mg"},{"bike_id":"9eb81e1e-1a35-4d29-8c40-482aa49b4e5b","system_id":"levelo_inurba_marseille","lat":43.25114,"lon":5.40327,"is_reserved":false,"is_disabled":false,"rental_uris":{"android":"levelo://app?vid=9eb81e1e-1a35-4d29-8c40-482aa49b4e5b","ios":"levelo://app?vid=9eb81e1e-1a35-4d29-8c40-482aa49b4e5b"},"vehicle_type_id":"4","last_reported":1743081617,"current_range_meters":12800,"station_id":"ce4bhlh2rcd13ifvqgig","pricing_plan_id":"cebpf4jnsgd1na2vs0mg"},{"bike_id":"1c471c3f-144b-463d-aa91-3811fdaa5642","system_id":"levelo_inurba_marseille","lat":43.240766,"lon":5.377571,"is_reserved":false,"is_disabled":false,"rental_uris":{"android":"levelo://app?vid=1c471c3f-144b-463d-aa91-3811fdaa5642","ios":"levelo://app?vid=1c471c3f-144b-463d-aa91-3811fdaa5642"},"vehicle_type_id":"4","last_reported":1743081617,"current_range_meters":12800,"station_id":"ce4bhnp2rcd13ifvqgvg","pricing_plan_id":"cebpf4jnsgd1na2vs0mg"},{"bike_id":"df767ddd-5f05-41e7-9ca1-d7a3b4ddff9f","system_id":"levelo_inurba_marseille","lat":43.2409,"lon":5.37741,"is_reserved":false,"is_disabled":false,"rental_uris":{"android":"levelo://app?vid=df767ddd-5f05-41e7-9ca1-d7a3b4ddff9f","ios":"levelo://app?vid=df767ddd-5f05-41e7-9ca1-d7a3b4ddff9f"},"vehicle_type_id":"4","last_reported":1743081617,"current_range_meters":12800,"station_id":"ce4bhnp2rcd13ifvqgvg","pricing_plan_id":"cebpf4jnsgd1na2vs0mg"},{"bike_id":"7ead873e-62b2-4def-8f1f-400f2d5423e6","system_id":"levelo_inurba_marseille","lat":43.29795,"lon":5.38114,"is_reserved":false,"is_disabled":false,"rental_uris":{"android":"levelo://app?vid=7ead873e-62b2-4def-8f1f-400f2d5423e6","ios":"levelo://app?vid=7ead873e-62b2-4def-8f1f-400f2d5423e6"},"vehicle_type_id":"4","last_reported":1743081617,"current_range_meters":12800,"station_id":"ce4bgip2rcd13ifvqbb0","pricing_plan_id":"cebpf4jnsgd1na2vs0mg"},{"bike_id":"b01e55c6-6cfd-442a-9579-c299bf3811d5","system_id":"levelo_inurba_marseille","lat":43.3028,"lon":5.37705,"is_reserved":false,"is_disabled":false,"rental_uris":{"android":"levelo://app?vid=b01e55c6-6cfd-442a-9579-c299bf3811d5","ios":"levelo://app?vid=b01e55c6-6cfd-442a-9579-c299bf3811d5"},"vehicle_type_id":"4","last_reported":1743081617,"current_range_meters":12800,"station_id":"ce4bguh2rcd13ifvqcj0","pricing_plan_id":"cebpf4jnsgd1na2vs0mg"},{"bike_id":"969399c7-99e1-44ef-8f9c-8bbbf238adf0","system_id":"levelo_inurba_marseille","lat":43.28045,"lon":5.36946,"is_reserved":false,"is_disabled":false,"rental_uris":{"android":"levelo://app?vid=969399c7-99e1-44ef-8f9c-8bbbf238adf0","ios":"levelo://app?vid=969399c7-99e1-44ef-8f9c-8bbbf238adf0"},"vehicle_type_id":"4","last_reported":1743081617,"current_range_meters":16400,"station_id":"ce4bha12rcd13ifvqef0","pricing_plan_id":"cebpf4jnsgd1na2vs0mg"},{"bike_id":"672f124a-2397-4f77-b0b1-443afadbd7cf","system_id":"levelo_inurba_marseille","lat":43.25716,"lon":5.41113,"is_reserved":false,"is_disabled":false,"rental_uris":{"android":"levelo://app?vid=672f124a-2397-4f77-b0b1-443afadbd7cf","ios":"levelo://app?vid=672f124a-2397-4f77-b0b1-443afadbd7cf"},"vehicle_type_id":"4","last_reported":1743081617,"current_range_meters":12800,"station_id":"ce4bhkp2rcd13ifvqgd0","pricing_plan_id":"cebpf4jnsgd1na2vs0mg"},{"bike_id":"4605e24d-65b2-4424-9d4d-b88f889f4b8e","system_id":"levelo_inurba_marseille","lat":43.28123,"lon":5.39869,"is_reserved":false,"is_disabled":false,"rental_uris":{"android":"levelo://app?vid=4605e24d-65b2-4424-9d4d-b88f889f4b8e","ios":"levelo://app?vid=4605e24d-65b2-4424-9d4d-b88f889f4b8e"},"vehicle_type_id":"4","last_reported":1743081617,"current_range_meters":12800,"station_id":"","pricing_plan_id":"cebpf4jnsgd1na2vs0mg"},{"bike_id":"6bb7a53f-f012-4855-bb26-37beff24b62c","system_id":"levelo_inurba_marseille","lat":43.23071,"lon":5.35502,"is_reserved":false,"is_disabled":false,"rental_uris":{"android":"levelo://app?vid=6bb7a53f-f012-4855-bb26-37beff24b62c","ios":"levelo://app?vid=6bb7a53f-f012-4855-bb26-37beff24b62c"},"vehicle_type_id":"4","last_reported":1743081617,"current_range_meters":13600,"station_id":"cpo3342slgdg3j2ifvpg","pricing_plan_id":"cebpf4jnsgd1na2vs0mg"},{"bike_id":"745c42b1-db65-4e3f-9c3b-ce3a43cf2252","system_id":"levelo_inurba_marseille","lat":43.341249,"lon":5.409251,"is_reserved":false,"is_disabled":false,"rental_uris":{"android":"levelo://app?vid=745c42b1-db65-4e3f-9c3b-ce3a43cf2252","ios":"levelo://app?vid=745c42b1-db65-4e3f-9c3b-ce3a43cf2252"},"vehicle_type_id":"4","last_reported":1743081617,"current_range_meters":13600,"station_id":"ce4bhqh2rcd13ifvqhlg","pricing_plan_id":"cebpf4jnsgd1na2vs0mg"},{"bike_id":"5f16fa23-28c4-4a4a-bfc9-23811c3aa80f","system_id":"levelo_inurba_marseille","lat":43.26078,"lon":5.3937,"is_reserved":false,"is_disabled":false,"rental_uris":{"android":"levelo://app?vid=5f16fa23-28c4-4a4a-bfc9-23811c3aa80f","ios":"levelo://app?vid=5f16fa23-28c4-4a4a-bfc9-23811c3aa80f"},"vehicle_type_id":"4","last_reported":1743081617,"current_range_meters":13600,"station_id":"ce4bhh92rcd13ifvqfj0","pricing_plan_id":"cebpf4jnsgd1na2vs0mg"},{"bike_id":"e9e63acd-5839-4401-a2ca-21076a7e8ee2","system_id":"levelo_inurba_marseille","lat":43.25124,"lon":5.40332,"is_reserved":false,"is_disabled":false,"rental_uris":{"android":"levelo://app?vid=e9e63acd-5839-4401-a2ca-21076a7e8ee2","ios":"levelo://app?vid=e9e63acd-5839-4401-a2ca-21076a7e8ee2"},"vehicle_type_id":"4","last_reported":1743081617,"current_range_meters":13600,"station_id":"ce4bhlh2rcd13ifvqgig","pricing_plan_id":"cebpf4jnsgd1na2vs0mg"},{"bike_id":"e37d2fa9-e0de-41f0-9767-64c01ccdd1e6","system_id":"levelo_inurba_marseille","lat":43.28615,"lon":5.35112,"is_reserved":false,"is_disabled":false,"rental_uris":{"android":"levelo://app?vid=e37d2fa9-e0de-41f0-9767-64c01ccdd1e6","ios":"levelo://app?vid=e37d2fa9-e0de-41f0-9767-64c01ccdd1e6"},"vehicle_type_id":"4","last_reported":1743081617,"current_range_meters":13600,"station_id":"ce4bhch2rcd13ifvqeug","pricing_plan_id":"cebpf4jnsgd1na2vs0mg"},{"bike_id":"8a67b658-819f-4e1f-b8d2-a64ed779df16","system_id":"levelo_inurba_marseille","lat":43.30145,"lon":5.37413,"is_reserved":false,"is_disabled":false,"rental_uris":{"android":"levelo://app?vid=8a67b658-819f-4e1f-b8d2-a64ed779df16","ios":"levelo://app?vid=8a67b658-819f-4e1f-b8d2-a64ed779df16"},"vehicle_type_id":"4","last_reported":1743081617,"current_range_meters":13600,"station_id":"ce4bgs92rcd13ifvqcc0","pricing_plan_id":"cebpf4jnsgd1na2vs0mg"},{"bike_id":"e0f854e6-2375-437d-a78b-6d5bf2ead237","system_id":"levelo_inurba_marseille","lat":43.33414,"lon":5.40049,"is_reserved":false,"is_disabled":false,"rental_uris":{"android":"levelo://app?vid=e0f854e6-2375-437d-a78b-6d5bf2ead237","ios":"levelo://app?vid=e0f854e6-2375-437d-a78b-6d5bf2ead237"},"vehicle_type_id":"4","last_reported":1743081617,"current_range_meters":13600,"station_id":"","pricing_plan_id":"cebpf4jnsgd1na2vs0mg"},{"bike_id":"fca480f8-b315-42ed-8b94-e43ecf953dd7","system_id":"levelo_inurba_marseille","lat":43.26934,"lon":5.38661,"is_reserved":false,"is_disabled":false,"rental_uris":{"android":"levelo://app?vid=fca480f8-b315-42ed-8b94-e43ecf953dd7","ios":"levelo://app?vid=fca480f8-b315-42ed-8b94-e43ecf953dd7"},"vehicle_type_id":"4","last_reported":1743081617,"current_range_meters":14000,"station_id":"ce4bhh92rcd13ifvqfh0","pricing_plan_id":"cebpf4jnsgd1na2vs0mg"},{"bike_id":"fe732956-557a-48a7-90f8-6ea522c4bef7","system_id":"levelo_inurba_marseille","lat":43.26692,"lon":5.38247,"is_reserved":false,"is_disabled":false,"rental_uris":{"android":"levelo://app?vid=fe732956-557a-48a7-90f8-6ea522c4bef7","ios":"levelo://app?vid=fe732956-557a-48a7-90f8-6ea522c4bef7"},"vehicle_type_id":"4","last_reported":1743081617,"current_range_meters":14000,"station_id":"ce4bhg92rcd13ifvqf90","pricing_plan_id":"cebpf4jnsgd1na2vs0mg"},{"bike_id":"c8d3b3e1-534a-498e-9c59-a5d62b7136cf","system_id":"levelo_inurba_marseille","lat":43.248913,"lon":5.383097,"is_reserved":false,"is_disabled":false,"rental_uris":{"android":"levelo://app?vid=c8d3b3e1-534a-498e-9c59-a5d62b7136cf","ios":"levelo://app?vid=c8d3b3e1-534a-498e-9c59-a5d62b7136cf"},"vehicle_type_id":"4","last_reported":1743081617,"current_range_meters":14000,"station_id":"","pricing_plan_id":"cebpf4jnsgd1na2vs0mg"},{"bike_id":"86f30ee5-de09-4826-8dd8-a6fbbe8a7d1b","system_id":"levelo_inurba_marseille","lat":43.25925,"lon":5.40865,"is_reserved":false,"is_disabled":false,"rental_uris":{"android":"levelo://app?vid=86f30ee5-de09-4826-8dd8-a6fbbe8a7d1b","ios":"levelo://app?vid=86f30ee5-de09-4826-8dd8-a6fbbe8a7d1b"},"vehicle_type_id":"4","last_reported":1743081617,"current_range_meters":14000,"station_id":"ce4bhm92rcd13ifvqglg","pricing_plan_id":"cebpf4jnsgd1na2vs0mg"},{"bike_id":"c6061caa-aec8-4bc3-8947-62e900e50737","system_id":"levelo_inurba_marseille","lat":43.29883,"lon":5.38903,"is_reserved":false,"is_disabled":false,"rental_uris":{"android":"levelo://app?vid=c6061caa-aec8-4bc3-8947-62e900e50737","ios":"levelo://app?vid=c6061caa-aec8-4bc3-8947-62e900e50737"},"vehicle_type_id":"4","last_reported":1743081617,"current_range_meters":14400,"station_id":"ce4bh392rcd13ifvqdl0","pricing_plan_id":"cebpf4jnsgd1na2vs0mg"},{"bike_id":"d9de09a9-4ddd-447f-8fde-a09c1f5b7a9b","system_id":"levelo_inurba_marseille","lat":43.2872,"lon":5.37952,"is_reserved":false,"is_disabled":false,"rental_uris":{"android":"levelo://app?vid=d9de09a9-4ddd-447f-8fde-a09c1f5b7a9b","ios":"levelo://app?vid=d9de09a9-4ddd-447f-8fde-a09c1f5b7a9b"},"vehicle_type_id":"4","last_reported":1743081617,"current_range_meters":14400,"station_id":"ce4bh9p2rcd13ifvqec0","pricing_plan_id":"cebpf4jnsgd1na2vs0mg"},{"bike_id":"124d5afc-7405-4c3a-8f18-2f20624653c7","system_id":"levelo_inurba_marseille","lat":43.24167,"lon":5.39714,"is_reserved":false,"is_disabled":false,"rental_uris":{"android":"levelo://app?vid=124d5afc-7405-4c3a-8f18-2f20624653c7","ios":"levelo://app?vid=124d5afc-7405-4c3a-8f18-2f20624653c7"},"vehicle_type_id":"4","last_reported":1743081617,"current_range_meters":14400,"station_id":"ce4bhn12rcd13ifvqgpg","pricing_plan_id":"cebpf4jnsgd1na2vs0mg"},{"bike_id":"561e290b-4db1-442c-80bd-c38abf13836d","system_id":"levelo_inurba_marseille","lat":43.27078,"lon":5.42283,"is_reserved":false,"is_disabled":false,"rental_uris":{"android":"levelo://app?vid=561e290b-4db1-442c-80bd-c38abf13836d","ios":"levelo://app?vid=561e290b-4db1-442c-80bd-c38abf13836d"},"vehicle_type_id":"4","last_reported":1743081617,"current_range_meters":14400,"station_id":"ce4bhk92rcd13ifvqgb0","pricing_plan_id":"cebpf4jnsgd1na2vs0mg"},{"bike_id":"b90ea539-cd4c-4e2f-8708-ffa01e215a77","system_id":"levelo_inurba_marseille","lat":43.31343,"lon":5.36731,"is_reserved":false,"is_disabled":false,"rental_uris":{"android":"levelo://app?vid=b90ea539-cd4c-4e2f-8708-ffa01e215a77","ios":"levelo://app?vid=b90ea539-cd4c-4e2f-8708-ffa01e215a77"},"vehicle_type_id":"4","last_reported":1743081617,"current_range_meters":14400,"station_id":"ce4bgr92rcd13ifvqc6g","pricing_plan_id":"cebpf4jnsgd1na2vs0mg"},{"bike_id":"1c14bf9c-ada4-4a36-8853-740a1a2c000a","system_id":"levelo_inurba_marseille","lat":43.23196,"lon":5.35571,"is_reserved":false,"is_disabled":false,"rental_uris":{"android":"levelo://app?vid=1c14bf9c-ada4-4a36-8853-740a1a2c000a","ios":"levelo://app?vid=1c14bf9c-ada4-4a36-8853-740a1a2c000a"},"vehicle_type_id":"4","last_reported":1743081617,"current_range_meters":14400,"station_id":"ce4bhu92rcd13ifvqi70","pricing_plan_id":"cebpf4jnsgd1na2vs0mg"},{"bike_id":"2277b85e-b181-4caa-bd68-e979e62a344c","system_id":"levelo_inurba_marseille","lat":43.25947,"lon":5.40872,"is_reserved":false,"is_disabled":false,"rental_uris":{"android":"levelo://app?vid=2277b85e-b181-4caa-bd68-e979e62a344c","ios":"levelo://app?vid=2277b85e-b181-4caa-bd68-e979e62a344c"},"vehicle_type_id":"4","last_reported":1743081617,"current_range_meters":14400,"station_id":"ce4bhm92rcd13ifvqglg","pricing_plan_id":"cebpf4jnsgd1na2vs0mg"},{"bike_id":"5a64d06d-50f2-4651-a133-a3fb2c3af1b9","system_id":"levelo_inurba_marseille","lat":43.28647,"lon":5.401,"is_reserved":false,"is_disabled":false,"rental_uris":{"android":"levelo://app?vid=5a64d06d-50f2-4651-a133-a3fb2c3af1b9","ios":"levelo://app?vid=5a64d06d-50f2-4651-a133-a3fb2c3af1b9"},"vehicle_type_id":"4","last_reported":1743081617,"current_range_meters":14800,"station_id":"","pricing_plan_id":"cebpf4jnsgd1na2vs0mg"},{"bike_id":"884a9e69-5b86-4e06-894d-1c0a790fed6c","system_id":"levelo_inurba_marseille","lat":43.31078,"lon":5.38355,"is_reserved":false,"is_disabled":false,"rental_uris":{"android":"levelo://app?vid=884a9e69-5b86-4e06-894d-1c0a790fed6c","ios":"levelo://app?vid=884a9e69-5b86-4e06-894d-1c0a790fed6c"},"vehicle_type_id":"4","last_reported":1743081617,"current_range_meters":14800,"station_id":"ce4bgv92rcd13ifvqcr0","pricing_plan_id":"cebpf4jnsgd1na2vs0mg"},{"bike_id":"79f9cd7a-b757-4868-ac7f-f496b875c21d","system_id":"levelo_inurba_marseille","lat":43.28008,"lon":5.41665,"is_reserved":false,"is_disabled":false,"rental_uris":{"android":"levelo://app?vid=79f9cd7a-b757-4868-ac7f-f496b875c21d","ios":"levelo://app?vid=79f9cd7a-b757-4868-ac7f-f496b875c21d"},"vehicle_type_id":"4","last_reported":1743081617,"current_range_meters":14800,"station_id":"ce4bho12rcd13ifvqh1g","pricing_plan_id":"cebpf4jnsgd1na2vs0mg"},{"bike_id":"2e919ca5-ce98-4c47-a9d7-66e6ab7584e4","system_id":"levelo_inurba_marseille","lat":43.32109,"lon":5.3678,"is_reserved":false,"is_disabled":false,"rental_uris":{"android":"levelo://app?vid=2e919ca5-ce98-4c47-a9d7-66e6ab7584e4","ios":"levelo://app?vid=2e919ca5-ce98-4c47-a9d7-66e6ab7584e4"},"vehicle_type_id":"4","last_reported":1743081617,"current_range_meters":14800,"station_id":"ce4bhrh2rcd13ifvqhug","pricing_plan_id":"cebpf4jnsgd1na2vs0mg"},{"bike_id":"a9c444c2-c06b-432e-9f60-047112b4031f","system_id":"levelo_inurba_marseille","lat":43.28469,"lon":5.38566,"is_reserved":false,"is_disabled":false,"rental_uris":{"android":"levelo://app?vid=a9c444c2-c06b-432e-9f60-047112b4031f","ios":"levelo://app?vid=a9c444c2-c06b-432e-9f60-047112b4031f"},"vehicle_type_id":"4","last_reported":1743081617,"current_range_meters":14800,"station_id":"ce4bh8p2rcd13ifvqeb0","pricing_plan_id":"cebpf4jnsgd1na2vs0mg"},{"bike_id":"8ce3e8ad-9362-40c8-9284-29a9342d7b87","system_id":"levelo_inurba_marseille","lat":43.30523,"lon":5.36511,"is_reserved":false,"is_disabled":true,"rental_uris":{"android":"levelo://app?vid=8ce3e8ad-9362-40c8-9284-29a9342d7b87","ios":"levelo://app?vid=8ce3e8ad-9362-40c8-9284-29a9342d7b87"},"vehicle_type_id":"4","last_reported":1743081617,"current_range_meters":14800,"station_id":"","pricing_plan_id":"cebpf4jnsgd1na2vs0mg"},{"bike_id":"37445bb6-bffa-4e22-91a4-7f0554cb2c32","system_id":"levelo_inurba_marseille","lat":43.30879,"lon":5.37207,"is_reserved":false,"is_disabled":false,"rental_uris":{"android":"levelo://app?vid=37445bb6-bffa-4e22-91a4-7f0554cb2c32","ios":"levelo://app?vid=37445bb6-bffa-4e22-91a4-7f0554cb2c32"},"vehicle_type_id":"4","last_reported":1743081617,"current_range_meters":14800,"station_id":"ce4bguh2rcd13ifvqckg","pricing_plan_id":"cebpf4jnsgd1na2vs0mg"},{"bike_id":"513d1da4-74b9-46d8-a928-84c7cbefccb5","system_id":"levelo_inurba_marseille","lat":43.2979,"lon":5.3809,"is_reserved":false,"is_disabled":false,"rental_uris":{"android":"levelo://app?vid=513d1da4-74b9-46d8-a928-84c7cbefccb5","ios":"levelo://app?vid=513d1da4-74b9-46d8-a928-84c7cbefccb5"},"vehicle_type_id":"4","last_reported":1743081617,"current_range_meters":11600,"station_id":"ce4bgip2rcd13ifvqbb0","pricing_plan_id":"cebpf4jnsgd1na2vs0mg"},{"bike_id":"ca4935c1-b3d1-4445-81bd-fd3700d0af94","system_id":"levelo_inurba_marseille","lat":43.24381,"lon":5.37039,"is_reserved":false,"is_disabled":false,"rental_uris":{"android":"levelo://app?vid=ca4935c1-b3d1-4445-81bd-fd3700d0af94","ios":"levelo://app?vid=ca4935c1-b3d1-4445-81bd-fd3700d0af94"},"vehicle_type_id":"4","last_reported":1743081617,"current_range_meters":14800,"station_id":"ce4bhhh2rcd13ifvqfk0","pricing_plan_id":"cebpf4jnsgd1na2vs0mg"},{"bike_id":"98a5ddf0-31d3-4bf0-acda-5c9dfda08049","system_id":"levelo_inurba_marseille","lat":43.27503,"lon":5.42459,"is_reserved":false,"is_disabled":false,"rental_uris":{"android":"levelo://app?vid=98a5ddf0-31d3-4bf0-acda-5c9dfda08049","ios":"levelo://app?vid=98a5ddf0-31d3-4bf0-acda-5c9dfda08049"},"vehicle_type_id":"4","last_reported":1743081617,"current_range_meters":14800,"station_id":"ce4bhn92rcd13ifvqgrg","pricing_plan_id":"cebpf4jnsgd1na2vs0mg"},{"bike_id":"b9cb9655-3634-4ab4-80f5-11d4c432dccd","system_id":"levelo_inurba_marseille","lat":43.24074,"lon":5.37749,"is_reserved":false,"is_disabled":false,"rental_uris":{"android":"levelo://app?vid=b9cb9655-3634-4ab4-80f5-11d4c432dccd","ios":"levelo://app?vid=b9cb9655-3634-4ab4-80f5-11d4c432dccd"},"vehicle_type_id":"4","last_reported":1743081617,"current_range_meters":14800,"station_id":"ce4bhnp2rcd13ifvqgvg","pricing_plan_id":"cebpf4jnsgd1na2vs0mg"},{"bike_id":"4f24f14c-0f51-4a94-bad2-ef71ce7f56a0","system_id":"levelo_inurba_marseille","lat":43.2971,"lon":5.366,"is_reserved":false,"is_disabled":false,"rental_uris":{"android":"levelo://app?vid=4f24f14c-0f51-4a94-bad2-ef71ce7f56a0","ios":"levelo://app?vid=4f24f14c-0f51-4a94-bad2-ef71ce7f56a0"},"vehicle_type_id":"4","last_reported":1743081617,"current_range_meters":14800,"station_id":"ce4bgn12rcd13ifvqbt0","pricing_plan_id":"cebpf4jnsgd1na2vs0mg"},{"bike_id":"bb6d3e35-eb6d-49e4-9094-4a82b36c2c46","system_id":"levelo_inurba_marseille","lat":43.32362,"lon":5.3674,"is_reserved":false,"is_disabled":false,"rental_uris":{"android":"levelo://app?vid=bb6d3e35-eb6d-49e4-9094-4a82b36c2c46","ios":"levelo://app?vid=bb6d3e35-eb6d-49e4-9094-4a82b36c2c46"},