{"last_updated":1745179813,"ttl":60,"version":"2.2","data":{"bikes":[{"bike_id":"9fe8c14c-2d24-41b2-9662-956cdf9f075c","system_id":"levelo_inurba_marseille","lat":43.24464,"lon":5.36919,"is_reserved":false,"is_disabled":false,"rental_uris":{"android":"levelo://app?vid=9fe8c14c-2d24-41b2-9662-956cdf9f075c","ios":"levelo://app?vid=9fe8c14c-2d24-41b2-9662-956cdf9f075c"},"vehicle_type_id":"4","last_reported":1745179813,"current_range_meters":2800,"station_id":"","pricing_plan_id":"cebpf4jnsgd1na2vs0mg"},{"bike_id":"25cb6338-d492-492c-b50f-241f00833c2c","system_id":"levelo_inurba_marseille","lat":43.27653,"lon":5.38912,"is_reserved":false,"is_disabled":true,"rental_uris":{"android":"levelo://app?vid=25cb6338-d492-492c-b50f-241f00833c2c","ios":"levelo://app?vid=25cb6338-d492-492c-b50f-241f00833c2c"},"vehicle_type_id":"4","last_reported":1745179813,"current_range_meters":2800,"station_id":"ce4bhi12rcd13ifvqfo0","pricing_plan_id":"cebpf4jnsgd1na2vs0mg"},{"bike_id":"89ec2a00-0166-4176-b7d2-ba2535f22e26","system_id":"levelo_inurba_marseille","lat":43.29526,"lon":5.38543,"is_reserved":false,"is_disabled":false,"rental_uris":{"android":"levelo://app?vid=89ec2a00-0166-4176-b7d2-ba2535f22e26","ios":"levelo://app?vid=89ec2a00-0166-4176-b7d2-ba2535f22e26"},"vehicle_type_id":"4","last_reported":1745179813,"current_range_meters":2800,"station_id":"ce4bgih2rcd13ifvqba0","pricing_plan_id":"cebpf4jnsgd1na2vs0mg"},{"bike_id":"7b876d00-9349-4027-9a64-26c5e2666ce1","system_id":"levelo_inurba_marseille","lat":43.29548,"lon":5.38543,"is_reserved":false,"is_disabled":true,"rental_uris":{"android":"levelo://app?vid=7b876d00-9349-4027-9a64-26c5e2666ce1","ios":"levelo://app?vid=7b876d00-9349-4027-9a64-26c5e2666ce1"},"vehicle_type_id":"4","last_reported":1745179813,"current_range_meters":2800,"station_id":"ce4bgih2rcd13ifvqba0","pricing_plan_id":"cebpf4jnsgd1na2vs0mg"},{"bike_id":"ab42e793-35c0-4a52-a3f6-ac07eb6ffa88","system_id":"levelo_inurba_marseille","lat":43.2319,"lon":5.35566,"is_reserved":false,"is_disabled":true,"rental_uris":{"android":"levelo://app?vid=ab42e793-35c0-4a52-a3f6-ac07eb6ffa88","ios":"levelo://app?vid=ab42e793-35c0-4a52-a3f6-ac07eb6ffa88"},"vehicle_type_id":"4","last_reported":1745179813,"current_range_meters":2800,"station_id":"ce4bhu92rcd13ifvqi70","pricing_plan_id":"cebpf4jnsgd1na2vs0mg"},{"bike_id":"bfaf343c-e126-4f94-a4ed-e053ceb74665","system_id":"levelo_inurba_marseille","lat":43.32378,"lon":5.38878,"is_reserved":false,"is_disabled":false,"rental_uris":{"android":"levelo://app?vid=bfaf343c-e126-4f94-a4ed-e053ceb74665","ios":"levelo://app?vid=bfaf343c-e126-4f94-a4ed-e053ceb74665"},"vehicle_type_id":"4","last_reported":1745179813,"current_range_meters":2800,"station_id":"ce4bhqp2rcd13ifvqhog","pricing_plan_id":"cebpf4jnsgd1na2vs0mg"},{"bike_id":"a0ddb0a5-f7f0-4281-aa27-9e82747cc573","system_id":"levelo_inurba_marseille","lat":43.33754,"lon":5.37491,"is_reserved":false,"is_disabled":false,"rental_uris":{"android":"levelo://app?vid=a0ddb0a5-f7f0-4281-aa27-9e82747cc573","ios":"levelo://app?vid=a0ddb0a5-f7f0-4281-aa27-9e82747cc573"},"vehicle_type_id":"4","last_reported":1745179813,"current_range_meters":2800,"station_id":"","pricing_plan_id":"cebpf4jnsgd1na2vs0mg"},{"bike_id":"a47ec344-e3dd-4691-bcb1-47ec3c4beeba","system_id":"levelo_inurba_marseille","lat":43.30766,"lon":5.37654,"is_reserved":false,"is_disabled":false,"rental_uris":{"android":"levelo://app?vid=a47ec344-e3dd-4691-bcb1-47ec3c4beeba","ios":"levelo://app?vid=a47ec344-e3dd-4691-bcb1-47ec3c4beeba"},"vehicle_type_id":"4","last_reported":1745179813,"current_range_meters":2800,"station_id":"ce4bgv92rcd13ifvqcq0","pricing_plan_id":"cebpf4jnsgd1na2vs0mg"},{"bike_id":"fc7f94bf-9c4d-408e-8f51-3158944a4dbc","system_id":"levelo_inurba_marseille","lat":43.31992,"lon":5.38146,"is_reserved":false,"is_disabled":false,"rental_uris":{"android":"levelo://app?vid=fc7f94bf-9c4d-408e-8f51-3158944a4dbc","ios":"levelo://app?vid=fc7f94bf-9c4d-408e-8f51-3158944a4dbc"},"vehicle_type_id":"4","last_reported":1745179813,"current_range_meters":3200,"station_id":"ce4bhr12rcd13ifvqhpg","pricing_plan_id":"cebpf4jnsgd1na2vs0mg"},{"bike_id":"e0a597e0-8d50-4a34-9110-f506b1cff029","system_id":"levelo_inurba_marseille","lat":43.30635,"lon":5.40081,"is_reserved":false,"is_disabled":false,"rental_uris":{"android":"levelo://app?vid=e0a597e0-8d50-4a34-9110-f506b1cff029","ios":"levelo://app?vid=e0a597e0-8d50-4a34-9110-f506b1cff029"},"vehicle_type_id":"4","last_reported":1745179813,"current_range_meters":3200,"station_id":"ce4bh112rcd13ifvqda0","pricing_plan_id":"cebpf4jnsgd1na2vs0mg"},{"bike_id":"608caa31-fe6b-4659-bca1-9d8d0fed7dbf","system_id":"levelo_inurba_marseille","lat":43.21185,"lon":5.35068,"is_reserved":false,"is_disabled":false,"rental_uris":{"android":"levelo://app?vid=608caa31-fe6b-4659-bca1-9d8d0fed7dbf","ios":"levelo://app?vid=608caa31-fe6b-4659-bca1-9d8d0fed7dbf"},"vehicle_type_id":"4","last_reported":1745179813,"current_range_meters":3200,"station_id":"st_cvj6sg6p6f1abm77japg","pricing_plan_id":"cebpf4jnsgd1na2vs0mg"},{"bike_id":"e3ac940e-4d1b-4d51-ad04-b3abc26d819e","system_id":"levelo_inurba_marseille","lat":43.28896,"lon":5.38388,"is_reserved":false,"is_disabled":true,"rental_uris":{"android":"levelo://app?vid=e3ac940e-4d1b-4d51-ad04-b3abc26d819e","ios":"levelo://app?vid=e3ac940e-4d1b-4d51-ad04-b3abc26d819e"},"vehicle_type_id":"4","last_reported":1745179813,"current_range_meters":3600,"station_id":"ce4bh612rcd13ifvqe6g","pricing_plan_id":"cebpf4jnsgd1na2vs0mg"},{"bike_id":"cecd7c84-becb-41c3-9869-71d934006a59","system_id":"levelo_inurba_marseille","lat":43.27376,"lon":5.36235,"is_reserved":false,"is_disabled":true,"rental_uris":{"android":"levelo://app?vid=cecd7c84-becb-41c3-9869-71d934006a59","ios":"levelo://app?vid=cecd7c84-becb-41c3-9869-71d934006a59"},"vehicle_type_id":"4","last_reported":1745179813,"current_range_meters":3600,"station_id":"ce4bhbh2rcd13ifvqeo0","pricing_plan_id":"cebpf4jnsgd1na2vs0mg"},{"bike_id":"05a994f3-8cb4-49d3-b127-298c6d217d41","system_id":"levelo_inurba_marseille","lat":43.29246,"lon":5.38446,"is_reserved":false,"is_disabled":false,"rental_uris":{"android":"levelo://app?vid=05a994f3-8cb4-49d3-b127-298c6d217d41","ios":"levelo://app?vid=05a994f3-8cb4-49d3-b127-298c6d217d41"},"vehicle_type_id":"4","last_reported":1745179813,"current_range_meters":3600,"station_id":"ce4bh692rcd13ifvqea0","pricing_plan_id":"cebpf4jnsgd1na2vs0mg"},{"bike_id":"59b8a710-c124-451a-a8fb-8229b190174f","system_id":"levelo_inurba_marseille","lat":43.24163,"lon":5.36387,"is_reserved":false,"is_disabled":false,"rental_uris":{"android":"levelo://app?vid=59b8a710-c124-451a-a8fb-8229b190174f","ios":"levelo://app?vid=59b8a710-c124-451a-a8fb-8229b190174f"},"vehicle_type_id":"4","last_reported":1745179813,"current_range_meters":4000,"station_id":"cpo36qri1sfpv3e86is0","pricing_plan_id":"cebpf4jnsgd1na2vs0mg"},{"bike_id":"844db808-751e-4d57-805b-c6e5d3fe29c5","system_id":"levelo_inurba_marseille","lat":43.290005,"lon":5.356195,"is_reserved":false,"is_disabled":true,"rental_uris":{"android":"levelo://app?vid=844db808-751e-4d57-805b-c6e5d3fe29c5","ios":"levelo://app?vid=844db808-751e-4d57-805b-c6e5d3fe29c5"},"vehicle_type_id":"4","last_reported":1745179813,"current_range_meters":4000,"station_id":"ce4bhb92rcd13ifvqen0","pricing_plan_id":"cebpf4jnsgd1na2vs0mg"},{"bike_id":"ea475ce3-9949-4571-8652-1d541c78652e","system_id":"levelo_inurba_marseille","lat":43.26953,"lon":5.38634,"is_reserved":false,"is_disabled":false,"rental_uris":{"android":"levelo://app?vid=ea475ce3-9949-4571-8652-1d541c78652e","ios":"levelo://app?vid=ea475ce3-9949-4571-8652-1d541c78652e"},"vehicle_type_id":"4","last_reported":1745179813,"current_range_meters":4800,"station_id":"ce4bhh92rcd13ifvqfh0","pricing_plan_id":"cebpf4jnsgd1na2vs0mg"},{"bike_id":"656ac081-c121-4824-81a4-fa92b7720ed4","system_id":"levelo_inurba_marseille","lat":43.23186,"lon":5.35568,"is_reserved":false,"is_disabled":false,"rental_uris":{"android":"levelo://app?vid=656ac081-c121-4824-81a4-fa92b7720ed4","ios":"levelo://app?vid=656ac081-c121-4824-81a4-fa92b7720ed4"},"vehicle_type_id":"4","last_reported":1745179813,"current_range_meters":4800,"station_id":"ce4bhu92rcd13ifvqi70","pricing_plan_id":"cebpf4jnsgd1na2vs0mg"},{"bike_id":"eb8a0172-041a-4b50-a689-d16c499fd520","system_id":"levelo_inurba_marseille","lat":43.25497,"lon":5.37646,"is_reserved":false,"is_disabled":false,"rental_uris":{"android":"levelo://app?vid=eb8a0172-041a-4b50-a689-d16c499fd520","ios":"levelo://app?vid=eb8a0172-041a-4b50-a689-d16c499fd520"},"vehicle_type_id":"4","last_reported":1745179813,"current_range_meters":4800,"station_id":"ce4bhh12rcd13ifvqff0","pricing_plan_id":"cebpf4jnsgd1na2vs0mg"},{"bike_id":"564fb40e-5fad-4e99-b12d-f5030eebc05e","system_id":"levelo_inurba_marseille","lat":43.265472,"lon":5.372858,"is_reserved":false,"is_disabled":true,"rental_uris":{"android":"levelo://app?vid=564fb40e-5fad-4e99-b12d-f5030eebc05e","ios":"levelo://app?vid=564fb40e-5fad-4e99-b12d-f5030eebc05e"},"vehicle_type_id":"4","last_reported":1745179813,"current_range_meters":4800,"station_id":"ce4bhap2rcd13ifvqek0","pricing_plan_id":"cebpf4jnsgd1na2vs0mg"},{"bike_id":"7d80328a-a429-4456-a7cf-4c598df5d4ce","system_id":"levelo_inurba_marseille","lat":43.28262,"lon":5.35068,"is_reserved":false,"is_disabled":false,"rental_uris":{"android":"levelo://app?vid=7d80328a-a429-4456-a7cf-4c598df5d4ce","ios":"levelo://app?vid=7d80328a-a429-4456-a7cf-4c598df5d4ce"},"vehicle_type_id":"4","last_reported":1745179813,"current_range_meters":5600,"station_id":"ce4bhbp2rcd13ifvqerg","pricing_plan_id":"cebpf4jnsgd1na2vs0mg"},{"bike_id":"a4f53f83-a203-4112-88cd-432220291605","system_id":"levelo_inurba_marseille","lat":43.28402,"lon":5.34993,"is_reserved":false,"is_disabled":true,"rental_uris":{"android":"levelo://app?vid=a4f53f83-a203-4112-88cd-432220291605","ios":"levelo://app?vid=a4f53f83-a203-4112-88cd-432220291605"},"vehicle_type_id":"4","last_reported":1745179813,"current_range_meters":5600,"station_id":"ce4bhbh2rcd13ifvqepg","pricing_plan_id":"cebpf4jnsgd1na2vs0mg"},{"bike_id":"186380b9-3dab-457b-b648-71d123fa0368","system_id":"levelo_inurba_marseille","lat":43.25094,"lon":5.40351,"is_reserved":false,"is_disabled":true,"rental_uris":{"android":"levelo://app?vid=186380b9-3dab-457b-b648-71d123fa0368","ios":"levelo://app?vid=186380b9-3dab-457b-b648-71d123fa0368"},"vehicle_type_id":"4","last_reported":1745179813,"current_range_meters":5600,"station_id":"ce4bhlh2rcd13ifvqgig","pricing_plan_id":"cebpf4jnsgd1na2vs0mg"},{"bike_id":"d2ba4413-c35f-41b1-8baf-f83e6001a359","system_id":"levelo_inurba_marseille","lat":43.290406,"lon":5.38652,"is_reserved":false,"is_disabled":true,"rental_uris":{"android":"levelo://app?vid=d2ba4413-c35f-41b1-8baf-f83e6001a359","ios":"levelo://app?vid=d2ba4413-c35f-41b1-8baf-f83e6001a359"},"vehicle_type_id":"4","last_reported":1745179813,"current_range_meters":5600,"station_id":"ce4bh4p2rcd13ifvqe0g","pricing_plan_id":"cebpf4jnsgd1na2vs0mg"},{"bike_id":"1eaca8f5-0017-418a-9bfc-52185bf67513","system_id":"levelo_inurba_marseille","lat":43.33727,"lon":5.39177,"is_reserved":false,"is_disabled":false,"rental_uris":{"android":"levelo://app?vid=1eaca8f5-0017-418a-9bfc-52185bf67513","ios":"levelo://app?vid=1eaca8f5-0017-418a-9bfc-52185bf67513"},"vehicle_type_id":"4","last_reported":1745179813,"current_range_meters":6000,"station_id":"ce4bhr92rcd13ifvqhsg","pricing_plan_id":"cebpf4jnsgd1na2vs0mg"},{"bike_id":"0d21f9f9-922e-4003-8dc4-8224af9ef712","system_id":"levelo_inurba_marseille","lat":43.32624,"lon":5.35886,"is_reserved":false,"is_disabled":true,"rental_uris":{"android":"levelo://app?vid=0d21f9f9-922e-4003-8dc4-8224af9ef712","ios":"levelo://app?vid=0d21f9f9-922e-4003-8dc4-8224af9ef712"},"vehicle_type_id":"4","last_reported":1745179813,"current_range_meters":6000,"station_id":"","pricing_plan_id":"cebpf4jnsgd1na2vs0mg"},{"bike_id":"677ad226-f2e6-4e3a-87af-cf8da4f1aba4","system_id":"levelo_inurba_marseille","lat":43.31058,"lon":5.38353,"is_reserved":false,"is_disabled":false,"rental_uris":{"android":"levelo://app?vid=677ad226-f2e6-4e3a-87af-cf8da4f1aba4","ios":"levelo://app?vid=677ad226-f2e6-4e3a-87af-cf8da4f1aba4"},"vehicle_type_id":"4","last_reported":1745179813,"current_range_meters":6000,"station_id":"ce4bgv92rcd13ifvqcr0","pricing_plan_id":"cebpf4jnsgd1na2vs0mg"},{"bike_id":"1965f819-3778-4654-96e5-aaaf9c36cc08","system_id":"levelo_inurba_marseille","lat":43.30352,"lon":5.42471,"is_reserved":false,"is_disabled":true,"rental_uris":{"android":"levelo://app?vid=1965f819-3778-4654-96e5-aaaf9c36cc08","ios":"levelo://app?vid=1965f819-3778-4654-96e5-aaaf9c36cc08"},"vehicle_type_id":"4","last_reported":1745179813,"current_range_meters":6400,"station_id":"ce4bhoh2rcd13ifvqh6g","pricing_plan_id":"cebpf4jnsgd1na2vs0mg"},{"bike_id":"358e1f20-d875-48ca-9d8c-02d4bc4fc797","system_id":"levelo_inurba_marseille","lat":43.337177,"lon":5.392107,"is_reserved":false,"is_disabled":false,"rental_uris":{"android":"levelo://app?vid=358e1f20-d875-48ca-9d8c-02d4bc4fc797","ios":"levelo://app?vid=358e1f20-d875-48ca-9d8c-02d4bc4fc797"},"vehicle_type_id":"4","last_reported":1745179813,"current_range_meters":6400,"station_id":"ce4bhr92rcd13ifvqhsg","pricing_plan_id":"cebpf4jnsgd1na2vs0mg"},{"bike_id":"1b4a8f9d-2faa-464e-b7a7-813f9c13d848","system_id":"levelo_inurba_marseille","lat":43.24178,"lon":5.3639,"is_reserved":false,"is_disabled":false,"rental_uris":{"android":"levelo://app?vid=1b4a8f9d-2faa-464e-b7a7-813f9c13d848","ios":"levelo://app?vid=1b4a8f9d-2faa-464e-b7a7-813f9c13d848"},"vehicle_type_id":"4","last_reported":1745179813,"current_range_meters":6400,"station_id":"cpo36qri1sfpv3e86is0","pricing_plan_id":"cebpf4jnsgd1na2vs0mg"},{"bike_id":"60ab0a27-458c-4ace-8f13-f705ad5668b5","system_id":"levelo_inurba_marseille","lat":43.2953,"lon":5.38547,"is_reserved":false,"is_disabled":false,"rental_uris":{"android":"levelo://app?vid=60ab0a27-458c-4ace-8f13-f705ad5668b5","ios":"levelo://app?vid=60ab0a27-458c-4ace-8f13-f705ad5668b5"},"vehicle_type_id":"4","last_reported":1745179813,"current_range_meters":6800,"station_id":"ce4bgih2rcd13ifvqba0","pricing_plan_id":"cebpf4jnsgd1na2vs0mg"},{"bike_id":"931800f0-f5ae-42dc-9401-5ef75e1edc12","system_id":"levelo_inurba_marseille","lat":43.27382,"lon":5.41397,"is_reserved":false,"is_disabled":false,"rental_uris":{"android":"levelo://app?vid=931800f0-f5ae-42dc-9401-5ef75e1edc12","ios":"levelo://app?vid=931800f0-f5ae-42dc-9401-5ef75e1edc12"},"vehicle_type_id":"4","last_reported":1745179813,"current_range_meters":6800,"station_id":"","pricing_plan_id":"cebpf4jnsgd1na2vs0mg"},{"bike_id":"24213b37-b766-4d9c-a174-f6bf34920497","system_id":"levelo_inurba_marseille","lat":43.28469,"lon":5.384178,"is_reserved":false,"is_disabled":false,"rental_uris":{"android":"levelo://app?vid=24213b37-b766-4d9c-a174-f6bf34920497","ios":"levelo://app?vid=24213b37-b766-4d9c-a174-f6bf34920497"},"vehicle_type_id":"4","last_reported":1745179813,"current_range_meters":7200,"station_id":"ce4bh512rcd13ifvqe3g","pricing_plan_id":"cebpf4jnsgd1na2vs0mg"},{"bike_id":"0dd13644-e942-427d-9540-f17eaef6dd89","system_id":"levelo_inurba_marseille","lat":43.27015,"lon":5.38774,"is_reserved":false,"is_disabled":true,"rental_uris":{"android":"levelo://app?vid=0dd13644-e942-427d-9540-f17eaef6dd89","ios":"levelo://app?vid=0dd13644-e942-427d-9540-f17eaef6dd89"},"vehicle_type_id":"4","last_reported":1745179813,"current_range_meters":7200,"station_id":"","pricing_plan_id":"cebpf4jnsgd1na2vs0mg"},{"bike_id":"2d46f81e-bf83-4416-bba9-7e11b13652fc","system_id":"levelo_inurba_marseille","lat":43.30149,"lon":5.37387,"is_reserved":false,"is_disabled":true,"rental_uris":{"android":"levelo://app?vid=2d46f81e-bf83-4416-bba9-7e11b13652fc","ios":"levelo://app?vid=2d46f81e-bf83-4416-bba9-7e11b13652fc"},"vehicle_type_id":"4","last_reported":1745179813,"current_range_meters":7200,"station_id":"ce4bgs92rcd13ifvqcc0","pricing_plan_id":"cebpf4jnsgd1na2vs0mg"},{"bike_id":"2ba8c5c4-f0af-4f23-add7-feee032d7669","system_id":"levelo_inurba_marseille","lat":43.2828,"lon":5.35056,"is_reserved":false,"is_disabled":false,"rental_uris":{"android":"levelo://app?vid=2ba8c5c4-f0af-4f23-add7-feee032d7669","ios":"levelo://app?vid=2ba8c5c4-f0af-4f23-add7-feee032d7669"},"vehicle_type_id":"4","last_reported":1745179813,"current_range_meters":7200,"station_id":"ce4bhbp2rcd13ifvqerg","pricing_plan_id":"cebpf4jnsgd1na2vs0mg"},{"bike_id":"a969d1ed-77d3-4189-b5a7-0bf8cf90d349","system_id":"levelo_inurba_marseille","lat":43.23195,"lon":5.35548,"is_reserved":false,"is_disabled":false,"rental_uris":{"android":"levelo://app?vid=a969d1ed-77d3-4189-b5a7-0bf8cf90d349","ios":"levelo://app?vid=a969d1ed-77d3-4189-b5a7-0bf8cf90d349"},"vehicle_type_id":"4","last_reported":1745179813,"current_range_meters":7200,"station_id":"ce4bhu92rcd13ifvqi70","pricing_plan_id":"cebpf4jnsgd1na2vs0mg"},{"bike_id":"4943456d-b774-48c3-b342-34597b349270","system_id":"levelo_inurba_marseille","lat":43.29252,"lon":5.38435,"is_reserved":false,"is_disabled":false,"rental_uris":{"android":"levelo://app?vid=4943456d-b774-48c3-b342-34597b349270","ios":"levelo://app?vid=4943456d-b774-48c3-b342-34597b349270"},"vehicle_type_id":"4","last_reported":1745179813,"current_range_meters":7200,"station_id":"ce4bh692rcd13ifvqea0","pricing_plan_id":"cebpf4jnsgd1na2vs0mg"},{"bike_id":"cb1906e0-eddc-4a43-b28c-29be8c0aa51a","system_id":"levelo_inurba_marseille","lat":43.2749,"lon":5.42445,"is_reserved":false,"is_disabled":true,"rental_uris":{"android":"levelo://app?vid=cb1906e0-eddc-4a43-b28c-29be8c0aa51a","ios":"levelo://app?vid=cb1906e0-eddc-4a43-b28c-29be8c0aa51a"},"vehicle_type_id":"4","last_reported":1745179813,"current_range_meters":8000,"station_id":"ce4bhn92rcd13ifvqgrg","pricing_plan_id":"cebpf4jnsgd1na2vs0mg"},{"bike_id":"ab9be9a2-b412-4e12-b774-0ac14e1c75f2","system_id":"levelo_inurba_marseille","lat":43.23201,"lon":5.35539,"is_reserved":false,"is_disabled":false,"rental_uris":{"android":"levelo://app?vid=ab9be9a2-b412-4e12-b774-0ac14e1c75f2","ios":"levelo://app?vid=ab9be9a2-b412-4e12-b774-0ac14e1c75f2"},"vehicle_type_id":"4","last_reported":1745179813,"current_range_meters":8000,"station_id":"ce4bhu92rcd13ifvqi70","pricing_plan_id":"cebpf4jnsgd1na2vs0mg"},{"bike_id":"9dc3cccf-6afc-4c4c-b355-a0041a3c8572","system_id":"levelo_inurba_marseille","lat":43.30411,"lon":5.39759,"is_reserved":false,"is_disabled":false,"rental_uris":{"android":"levelo://app?vid=9dc3cccf-6afc-4c4c-b355-a0041a3c8572","ios":"levelo://app?vid=9dc3cccf-6afc-4c4c-b355-a0041a3c8572"},"vehicle_type_id":"4","last_reported":1745179813,"current_range_meters":8000,"station_id":"ce4bh092rcd13ifvqd20","pricing_plan_id":"cebpf4jnsgd1na2vs0mg"},{"bike_id":"f0b6af0d-1cbf-47a3-af07-dab09fabbbf0","system_id":"levelo_inurba_marseille","lat":43.23191,"lon":5.3557,"is_reserved":false,"is_disabled":false,"rental_uris":{"android":"levelo://app?vid=f0b6af0d-1cbf-47a3-af07-dab09fabbbf0","ios":"levelo://app?vid=f0b6af0d-1cbf-47a3-af07-dab09fabbbf0"},"vehicle_type_id":"4","last_reported":1745179813,"current_range_meters":8000,"station_id":"ce4bhu92rcd13ifvqi70","pricing_plan_id":"cebpf4jnsgd1na2vs0mg"},{"bike_id":"8dcdbddf-c32e-4b31-8e8c-b20dbb5dcd33","system_id":"levelo_inurba_marseille","lat":43.27952,"lon":5.41033,"is_reserved":false,"is_disabled":false,"rental_uris":{"android":"levelo://app?vid=8dcdbddf-c32e-4b31-8e8c-b20dbb5dcd33","ios":"levelo://app?vid=8dcdbddf-c32e-4b31-8e8c-b20dbb5dcd33"},"vehicle_type_id":"4","last_reported":1745179813,"current_range_meters":8000,"station_id":"ce4bhnp2rcd13ifvqh0g","pricing_plan_id":"cebpf4jnsgd1na2vs0mg"},{"bike_id":"6565ca44-2e63-4f42-a847-09fa2bdb37f3","system_id":"levelo_inurba_marseille","lat":43.32015,"lon":5.382,"is_reserved":false,"is_disabled":true,"rental_uris":{"android":"levelo://app?vid=6565ca44-2e63-4f42-a847-09fa2bdb37f3","ios":"levelo://app?vid=6565ca44-2e63-4f42-a847-09fa2bdb37f3"},"vehicle_type_id":"4","last_reported":1745179813,"current_range_meters":8000,"station_id":"ce4bhr12rcd13ifvqhpg","pricing_plan_id":"cebpf4jnsgd1na2vs0mg"},{"bike_id":"138d6608-886e-4863-a664-7df6e5cc9a47","system_id":"levelo_inurba_marseille","lat":43.326401,"lon":5.421941,"is_reserved":false,"is_disabled":false,"rental_uris":{"android":"levelo://app?vid=138d6608-886e-4863-a664-7df6e5cc9a47","ios":"levelo://app?vid=138d6608-886e-4863-a664-7df6e5cc9a47"},"vehicle_type_id":"4","last_reported":1745179813,"current_range_meters":8000,"station_id":"","pricing_plan_id":"cebpf4jnsgd1na2vs0mg"},{"bike_id":"47b667cc-a2f4-4be4-8aa3-0241cf9ca1f6","system_id":"levelo_inurba_marseille","lat":43.248147,"lon":5.374617,"is_reserved":false,"is_disabled":false,"rental_uris":{"android":"levelo://app?vid=47b667cc-a2f4-4be4-8aa3-0241cf9ca1f6","ios":"levelo://app?vid=47b667cc-a2f4-4be4-8aa3-0241cf9ca1f6"},"vehicle_type_id":"4","last_reported":1745179813,"current_range_meters":8400,"station_id":"ce4bhgh2rcd13ifvqfb0","pricing_plan_id":"cebpf4jnsgd1na2vs0mg"},{"bike_id":"97e50bb0-9a70-481b-b370-e509345e710a","system_id":"levelo_inurba_marseille","lat":43.28023,"lon":5.3694,"is_reserved":false,"is_disabled":true,"rental_uris":{"android":"levelo://app?vid=97e50bb0-9a70-481b-b370-e509345e710a","ios":"levelo://app?vid=97e50bb0-9a70-481b-b370-e509345e710a"},"vehicle_type_id":"4","last_reported":1745179813,"current_range_meters":8400,"station_id":"ce4bha12rcd13ifvqef0","pricing_plan_id":"cebpf4jnsgd1na2vs0mg"},{"bike_id":"36ac02ba-2835-48d7-9d54-047188b88f77","system_id":"levelo_inurba_marseille","lat":43.24207,"lon":5.39705,"is_reserved":false,"is_disabled":false,"rental_uris":{"android":"levelo://app?vid=36ac02ba-2835-48d7-9d54-047188b88f77","ios":"levelo://app?vid=36ac02ba-2835-48d7-9d54-047188b88f77"},"vehicle_type_id":"4","last_reported":1745179813,"current_range_meters":8400,"station_id":"ce4bhn12rcd13ifvqgpg","pricing_plan_id":"cebpf4jnsgd1na2vs0mg"},{"bike_id":"83737fdd-005d-403e-8fa2-1644fc83261a","system_id":"levelo_inurba_marseille","lat":43.30999,"lon":5.38993,"is_reserved":false,"is_disabled":false,"rental_uris":{"android":"levelo://app?vid=83737fdd-005d-403e-8fa2-1644fc83261a","ios":"levelo://app?vid=83737fdd-005d-403e-8fa2-1644fc83261a"},"vehicle_type_id":"4","last_reported":1745179813,"current_range_meters":8400,"station_id":"","pricing_plan_id":"cebpf4jnsgd1na2vs0mg"},{"bike_id":"d0395819-ea40-46d3-acfe-3a01d6c396c0","system_id":"levelo_inurba_marseille","lat":43.23305,"lon":5.39862,"is_reserved":false,"is_disabled":true,"rental_uris":{"android":"levelo://app?vid=d0395819-ea40-46d3-acfe-3a01d6c396c0","ios":"levelo://app?vid=d0395819-ea40-46d3-acfe-3a01d6c396c0"},"vehicle_type_id":"4","last_reported":1745179813,"current_range_meters":8400,"station_id":"ce4bhn12rcd13ifvqgqg","pricing_plan_id":"cebpf4jnsgd1na2vs0mg"},{"bike_id":"39cb45c7-9a11-4a77-a5d0-2ef59dabb119","system_id":"levelo_inurba_marseille","lat":43.29243,"lon":5.40923,"is_reserved":false,"is_disabled":false,"rental_uris":{"android":"levelo://app?vid=39cb45c7-9a11-4a77-a5d0-2ef59dabb119","ios":"levelo://app?vid=39cb45c7-9a11-4a77-a5d0-2ef59dabb119"},"vehicle_type_id":"4","last_reported":1745179813,"current_range_meters":8800,"station_id":"ce4bh192rcd13ifvqdc0","pricing_plan_id":"cebpf4jnsgd1na2vs0mg"},{"bike_id":"527fac75-0783-4b2c-bd4e-07f2f2fee902","system_id":"levelo_inurba_marseille","lat":43.31162,"lon":5.37742,"is_reserved":false,"is_disabled":true,"rental_uris":{"android":"levelo://app?vid=527fac75-0783-4b2c-bd4e-07f2f2fee902","ios":"levelo://app?vid=527fac75-0783-4b2c-bd4e-07f2f2fee902"},"vehicle_type_id":"4","last_reported":1745179813,"current_range_meters":8800,"station_id":"","pricing_plan_id":"cebpf4jnsgd1na2vs0mg"},{"bike_id":"48481369-7886-4016-ade1-ee6647887399","system_id":"levelo_inurba_marseille","lat":43.30876,"lon":5.39645,"is_reserved":false,"is_disabled":false,"rental_uris":{"android":"levelo://app?vid=48481369-7886-4016-ade1-ee6647887399","ios":"levelo://app?vid=48481369-7886-4016-ade1-ee6647887399"},"vehicle_type_id":"4","last_reported":1745179813,"current_range_meters":8800,"station_id":"ce4bh012rcd13ifvqcv0","pricing_plan_id":"cebpf4jnsgd1na2vs0mg"},{"bike_id":"1b64a06c-8c3f-4044-b435-0c5447524fd5","system_id":"levelo_inurba_marseille","lat":43.28702,"lon":5.37404,"is_reserved":false,"is_disabled":true,"rental_uris":{"android":"levelo://app?vid=1b64a06c-8c3f-4044-b435-0c5447524fd5","ios":"levelo://app?vid=1b64a06c-8c3f-4044-b435-0c5447524fd5"},"vehicle_type_id":"4","last_reported":1745179813,"current_range_meters":8800,"station_id":"ce4bh3p2rcd13ifvqdq0","pricing_plan_id":"cebpf4jnsgd1na2vs0mg"},{"bike_id":"f7135c9a-fe58-4ea2-85f3-4d92c7de0da6","system_id":"levelo_inurba_marseille","lat":43.27998,"lon":5.40006,"is_reserved":false,"is_disabled":false,"rental_uris":{"android":"levelo://app?vid=f7135c9a-fe58-4ea2-85f3-4d92c7de0da6","ios":"levelo://app?vid=f7135c9a-fe58-4ea2-85f3-4d92c7de0da6"},"vehicle_type_id":"4","last_reported":1745179813,"current_range_meters":8800,"station_id":"ce4bho92rcd13ifvqh4g","pricing_plan_id":"cebpf4jnsgd1na2vs0mg"},{"bike_id":"4e6892ef-dbe3-43e4-bc69-b2da5d802c90","system_id":"levelo_inurba_marseille","lat":43.27375,"lon":5.36249,"is_reserved":false,"is_disabled":true,"rental_uris":{"android":"levelo://app?vid=4e6892ef-dbe3-43e4-bc69-b2da5d802c90","ios":"levelo://app?vid=4e6892ef-dbe3-43e4-bc69-b2da5d802c90"},"vehicle_type_id":"4","last_reported":1745179813,"current_range_meters":9200,"station_id":"ce4bhbh2rcd13ifvqeo0","pricing_plan_id":"cebpf4jnsgd1na2vs0mg"},{"bike_id":"791fcd09-1481-4246-a8c5-5c827f767ad2","system_id":"levelo_inurba_marseille","lat":43.3031,"lon":5.40439,"is_reserved":false,"is_disabled":false,"rental_uris":{"android":"levelo://app?vid=791fcd09-1481-4246-a8c5-5c827f767ad2","ios":"levelo://app?vid=791fcd09-1481-4246-a8c5-5c827f767ad2"},"vehicle_type_id":"4","last_reported":1745179813,"current_range_meters":9200,"station_id":"ce4bh012rcd13ifvqd10","pricing_plan_id":"cebpf4jnsgd1na2vs0mg"},{"bike_id":"77d4d260-ee81-4444-9ff3-3ff761928141","system_id":"levelo_inurba_marseille","lat":43.30185,"lon":5.36613,"is_reserved":false,"is_disabled":false,"rental_uris":{"android":"levelo://app?vid=77d4d260-ee81-4444-9ff3-3ff761928141","ios":"levelo://app?vid=77d4d260-ee81-4444-9ff3-3ff761928141"},"vehicle_type_id":"4","last_reported":1745179813,"current_range_meters":9200,"station_id":"ce4bgrh2rcd13ifvqc8g","pricing_plan_id":"cebpf4jnsgd1na2vs0mg"},{"bike_id":"1886fb80-2895-40f7-844d-7933f5d904dc","system_id":"levelo_inurba_marseille","lat":43.27948,"lon":5.39251,"is_reserved":false,"is_disabled":false,"rental_uris":{"android":"levelo://app?vid=1886fb80-2895-40f7-844d-7933f5d904dc","ios":"levelo://app?vid=1886fb80-2895-40f7-844d-7933f5d904dc"},"vehicle_type_id":"4","last_reported":1745179813,"current_range_meters":9200,"station_id":"","pricing_plan_id":"cebpf4jnsgd1na2vs0mg"},{"bike_id":"e565e555-31f9-4777-9d10-05c96f3f3dec","system_id":"levelo_inurba_marseille","lat":43.27972,"lon":5.38742,"is_reserved":false,"is_disabled":false,"rental_uris":{"android":"levelo://app?vid=e565e555-31f9-4777-9d10-05c96f3f3dec","ios":"levelo://app?vid=e565e555-31f9-4777-9d10-05c96f3f3dec"},"vehicle_type_id":"4","last_reported":1745179813,"current_range_meters":9200,"station_id":"ce4bhg12rcd13ifvqf80","pricing_plan_id":"cebpf4jnsgd1na2vs0mg"},{"bike_id":"a41fb6f3-b04d-48f9-b059-37f61447c8e7","system_id":"levelo_inurba_marseille","lat":43.29561,"lon":5.37518,"is_reserved":false,"is_disabled":false,"rental_uris":{"android":"levelo://app?vid=a41fb6f3-b04d-48f9-b059-37f61447c8e7","ios":"levelo://app?vid=a41fb6f3-b04d-48f9-b059-37f61447c8e7"},"vehicle_type_id":"4","last_reported":1745179813,"current_range_meters":9600,"station_id":"ce4bgh92rcd13ifvqb50","pricing_plan_id":"cebpf4jnsgd1na2vs0mg"},{"bike_id":"e2a53fcf-8c26-4043-9b7d-def7bc703d34","system_id":"levelo_inurba_marseille","lat":43.311994,"lon":5.368471,"is_reserved":false,"is_disabled":false,"rental_uris":{"android":"levelo://app?vid=e2a53fcf-8c26-4043-9b7d-def7bc703d34","ios":"levelo://app?vid=e2a53fcf-8c26-4043-9b7d-def7bc703d34"},"vehicle_type_id":"4","last_reported":1745179813,"current_range_meters":9600,"station_id":"ce4bgl92rcd13ifvqbq0","pricing_plan_id":"cebpf4jnsgd1na2vs0mg"},{"bike_id":"f1730efc-fea1-4bee-b289-153cffac940c","system_id":"levelo_inurba_marseille","lat":43.29965,"lon":5.38501,"is_reserved":false,"is_disabled":false,"rental_uris":{"android":"levelo://app?vid=f1730efc-fea1-4bee-b289-153cffac940c","ios":"levelo://app?vid=f1730efc-fea1-4bee-b289-153cffac940c"},"vehicle_type_id":"4","last_reported":1745179813,"current_range_meters":9600,"station_id":"ce4bgj92rcd13ifvqbd0","pricing_plan_id":"cebpf4jnsgd1na2vs0mg"},{"bike_id":"fe945396-bc41-4fac-aacb-16316850202c","system_id":"levelo_inurba_marseille","lat":43.28153,"lon":5.42648,"is_reserved":false,"is_disabled":false,"rental_uris":{"android":"levelo://app?vid=fe945396-bc41-4fac-aacb-16316850202c","ios":"levelo://app?vid=fe945396-bc41-4fac-aacb-16316850202c"},"vehicle_type_id":"4","last_reported":1745179813,"current_range_meters":9600,"station_id":"ce4bhnh2rcd13ifvqgug","pricing_plan_id":"cebpf4jnsgd1na2vs0mg"},{"bike_id":"f7d85225-c65d-4484-ac26-03a6b1fbb5c6","system_id":"levelo_inurba_marseille","lat":43.29595,"lon":5.38103,"is_reserved":false,"is_disabled":true,"rental_uris":{"android":"levelo://app?vid=f7d85225-c65d-4484-ac26-03a6b1fbb5c6","ios":"levelo://app?vid=f7d85225-c65d-4484-ac26-03a6b1fbb5c6"},"vehicle_type_id":"4","last_reported":1745179813,"current_range_meters":9600,"station_id":"ce4bgl12rcd13ifvqbo0","pricing_plan_id":"cebpf4jnsgd1na2vs0mg"},{"bike_id":"d8754dce-3ce6-4f68-ba47-f64cfc8b26ab","system_id":"levelo_inurba_marseille","lat":43.23192,"lon":5.35569,"is_reserved":false,"is_disabled":false,"rental_uris":{"android":"levelo://app?vid=d8754dce-3ce6-4f68-ba47-f64cfc8b26ab","ios":"levelo://app?vid=d8754dce-3ce6-4f68-ba47-f64cfc8b26ab"},"vehicle_type_id":"4","last_reported":1745179813,"current_range_meters":9600,"station_id":"ce4bhu92rcd13ifvqi70","pricing_plan_id":"cebpf4jnsgd1na2vs0mg"},{"bike_id":"ffef6973-8aa3-40b9-9e5d-8cfe95658d5e","system_id":"levelo_inurba_marseille","lat":43.29425,"lon":5.3862,"is_reserved":false,"is_disabled":false,"rental_uris":{"android":"levelo://app?vid=ffef6973-8aa3-40b9-9e5d-8cfe95658d5e","ios":"levelo://app?vid=ffef6973-8aa3-40b9-9e5d-8cfe95658d5e"},"vehicle_type_id":"4","last_reported":1745179813,"current_range_meters":9600,"station_id":"ce4bh2h2rcd13ifvqdh0","pricing_plan_id":"cebpf4jnsgd1na2vs0mg"},{"bike_id":"ce8e233f-97bf-422f-9b86-d3df149429ef","system_id":"levelo_inurba_marseille","lat":43.26195,"lon":5.37921,"is_reserved":false,"is_disabled":false,"rental_uris":{"android":"levelo://app?vid=ce8e233f-97bf-422f-9b86-d3df149429ef","ios":"levelo://app?vid=ce8e233f-97bf-422f-9b86-d3df149429ef"},"vehicle_type_id":"4","last_reported":1745179813,"current_range_meters":9600,"station_id":"ce4bhjp2rcd13ifvqg90","pricing_plan_id":"cebpf4jnsgd1na2vs0mg"},{"bike_id":"6276c712-dc71-4137-9a44-e63299fa20b2","system_id":"levelo_inurba_marseille","lat":43.32694,"lon":5.3586,"is_reserved":false,"is_disabled":false,"rental_uris":{"android":"levelo://app?vid=6276c712-dc71-4137-9a44-e63299fa20b2","ios":"levelo://app?vid=6276c712-dc71-4137-9a44-e63299fa20b2"},"vehicle_type_id":"4","last_reported":1745179813,"current_range_meters":10000,"station_id":"","pricing_plan_id":"cebpf4jnsgd1na2vs0mg"},{"bike_id":"d177bdcb-ba4d-4c2e-8899-f6b0f9af395c","system_id":"levelo_inurba_marseille","lat":43.25949,"lon":5.40899,"is_reserved":false,"is_disabled":false,"rental_uris":{"android":"levelo://app?vid=d177bdcb-ba4d-4c2e-8899-f6b0f9af395c","ios":"levelo://app?vid=d177bdcb-ba4d-4c2e-8899-f6b0f9af395c"},"vehicle_type_id":"4","last_reported":1745179813,"current_range_meters":10000,"station_id":"ce4bhm92rcd13ifvqglg","pricing_plan_id":"cebpf4jnsgd1na2vs0mg"},{"bike_id":"bc9cf579-6881-4faf-93b4-858cb4d8cfc8","system_id":"levelo_inurba_marseille","lat":43.29416,"lon":5.38624,"is_reserved":false,"is_disabled":false,"rental_uris":{"android":"levelo://app?vid=bc9cf579-6881-4faf-93b4-858cb4d8cfc8","ios":"levelo://app?vid=bc9cf579-6881-4faf-93b4-858cb4d8cfc8"},"vehicle_type_id":"4","last_reported":1745179813,"current_range_meters":10000,"station_id":"ce4bh2h2rcd13ifvqdh0","pricing_plan_id":"cebpf4jnsgd1na2vs0mg"},{"bike_id":"33399c5a-7b71-4ae2-a964-55b2f2e618d0","system_id":"levelo_inurba_marseille","lat":43.3023,"lon":5.36593,"is_reserved":false,"is_disabled":true,"rental_uris":{"android":"levelo://app?vid=33399c5a-7b71-4ae2-a964-55b2f2e618d0","ios":"levelo://app?vid=33399c5a-7b71-4ae2-a964-55b2f2e618d0"},"vehicle_type_id":"4","last_reported":1745179813,"current_range_meters":10000,"station_id":"ce4bgrh2rcd13ifvqc8g","pricing_plan_id":"cebpf4jnsgd1na2vs0mg"},{"bike_id":"f16e42f6-8ffe-490e-8c3d-3bb48f0d5f7c","system_id":"levelo_inurba_marseille","lat":43.29525,"lon":5.39038,"is_reserved":false,"is_disabled":false,"rental_uris":{"android":"levelo://app?vid=f16e42f6-8ffe-490e-8c3d-3bb48f0d5f7c","ios":"levelo://app?vid=f16e42f6-8ffe-490e-8c3d-3bb48f0d5f7c"},"vehicle_type_id":"4","last_reported":1745179813,"current_range_meters":10000,"station_id":"ce4bh3p2rcd13ifvqdp0","pricing_plan_id":"cebpf4jnsgd1na2vs0mg"},{"bike_id":"cc4e8daf-8846-4035-942b-a36b9137d061","system_id":"levelo_inurba_marseille","lat":43.2548,"lon":5.3766,"is_reserved":false,"is_disabled":true,"rental_uris":{"android":"levelo://app?vid=cc4e8daf-8846-4035-942b-a36b9137d061","ios":"levelo://app?vid=cc4e8daf-8846-4035-942b-a36b9137d061"},"vehicle_type_id":"4","last_reported":1745179813,"current_range_meters":10000,"station_id":"ce4bhh12rcd13ifvqff0","pricing_plan_id":"cebpf4jnsgd1na2vs0mg"},{"bike_id":"ae701c5e-5e0e-4431-9167-95d75c59ed1b","system_id":"levelo_inurba_marseille","lat":43.29594,"lon":5.38098,"is_reserved":false,"is_disabled":false,"rental_uris":{"android":"levelo://app?vid=ae701c5e-5e0e-4431-9167-95d75c59ed1b","ios":"levelo://app?vid=ae701c5e-5e0e-4431-9167-95d75c59ed1b"},"vehicle_type_id":"4","last_reported":1745179813,"current_range_meters":10000,"station_id":"ce4bgl12rcd13ifvqbo0","pricing_plan_id":"cebpf4jnsgd1na2vs0mg"},{"bike_id":"f33c9509-83d8-478a-bac9-567282b1608a","system_id":"levelo_inurba_marseille","lat":43.28455,"lon":5.35879,"is_reserved":false,"is_disabled":false,"rental_uris":{"android":"levelo://app?vid=f33c9509-83d8-478a-bac9-567282b1608a","ios":"levelo://app?vid=f33c9509-83d8-478a-bac9-567282b1608a"},"vehicle_type_id":"4","last_reported":1745179813,"current_range_meters":10000,"station_id":"ce4bhah2rcd13ifvqei0","pricing_plan_id":"cebpf4jnsgd1na2vs0mg"},{"bike_id":"d5ef647d-00ca-43ce-8de2-a9826ded3f15","system_id":"levelo_inurba_marseille","lat":43.21213,"lon":5.3508,"is_reserved":false,"is_disabled":false,"rental_uris":{"android":"levelo://app?vid=d5ef647d-00ca-43ce-8de2-a9826ded3f15","ios":"levelo://app?vid=d5ef647d-00ca-43ce-8de2-a9826ded3f15"},"vehicle_type_id":"4","last_reported":1745179813,"current_range_meters":10000,"station_id":"st_cvj6sg6p6f1abm77japg","pricing_plan_id":"cebpf4jnsgd1na2vs0mg"},{"bike_id":"3c68d4af-f244-4d5b-a673-170645748e37","system_id":"levelo_inurba_marseille","lat":43.27684,"lon":5.39796,"is_reserved":false,"is_disabled":false,"rental_uris":{"android":"levelo://app?vid=3c68d4af-f244-4d5b-a673-170645748e37","ios":"levelo://app?vid=3c68d4af-f244-4d5b-a673-170645748e37"},"vehicle_type_id":"4","last_reported":1745179813,"current_range_meters":10800,"station_id":"","pricing_plan_id":"cebpf4jnsgd1na2vs0mg"},{"bike_id":"3f9b351e-24c7-4831-949f-a89b33917557","system_id":"levelo_inurba_marseille","lat":43.24072,"lon":5.3775,"is_reserved":false,"is_disabled":false,"rental_uris":{"android":"levelo://app?vid=3f9b351e-24c7-4831-949f-a89b33917557","ios":"levelo://app?vid=3f9b351e-24c7-4831-949f-a89b33917557"},"vehicle_type_id":"4","last_reported":1745179813,"current_range_meters":10800,"station_id":"ce4bhnp2rcd13ifvqgvg","pricing_plan_id":"cebpf4jnsgd1na2vs0mg"},{"bike_id":"1962eea5-0582-4a20-9ded-dce01733ff83","system_id":"levelo_inurba_marseille","lat":43.23956,"lon":5.36638,"is_reserved":false,"is_disabled":false,"rental_uris":{"android":"levelo://app?vid=1962eea5-0582-4a20-9ded-dce01733ff83","ios":"levelo://app?vid=1962eea5-0582-4a20-9ded-dce01733ff83"},"vehicle_type_id":"4","last_reported":1745179813,"current_range_meters":10800,"station_id":"ce4bhi12rcd13ifvqfp0","pricing_plan_id":"cebpf4jnsgd1na2vs0mg"},{"bike_id":"6563b44b-0a3b-4934-bca0-a4ea7f37c5a1","system_id":"levelo_inurba_marseille","lat":43.27631,"lon":5.36112,"is_reserved":false,"is_disabled":false,"rental_uris":{"android":"levelo://app?vid=6563b44b-0a3b-4934-bca0-a4ea7f37c5a1","ios":"levelo://app?vid=6563b44b-0a3b-4934-bca0-a4ea7f37c5a1"},"vehicle_type_id":"4","last_reported":1745179813,"current_range_meters":10800,"station_id":"ce4bgj92rcd13ifvqbe0","pricing_plan_id":"cebpf4jnsgd1na2vs0mg"},{"bike_id":"478adf2f-07e1-4396-965c-e1a74e1fa681","system_id":"levelo_inurba_marseille","lat":43.27887,"lon":5.38002,"is_reserved":false,"is_disabled":false,"rental_uris":{"android":"levelo://app?vid=478adf2f-07e1-4396-965c-e1a74e1fa681","ios":"levelo://app?vid=478adf2f-07e1-4396-965c-e1a74e1fa681"},"vehicle_type_id":"4","last_reported":1745179813,"current_range_meters":10800,"station_id":"ce4bhf92rcd13ifvqf50","pricing_plan_id":"cebpf4jnsgd1na2vs0mg"},{"bike_id":"d260dee3-473c-48d0-85d1-0761d5a8a4ae","system_id":"levelo_inurba_marseille","lat":43.27838,"lon":5.39213,"is_reserved":false,"is_disabled":false,"rental_uris":{"android":"levelo://app?vid=d260dee3-473c-48d0-85d1-0761d5a8a4ae","ios":"levelo://app?vid=d260dee3-473c-48d0-85d1-0761d5a8a4ae"},"vehicle_type_id":"4","last_reported":1745179813,"current_range_meters":10800,"station_id":"ce4bhjp2rcd13ifvqga0","pricing_plan_id":"cebpf4jnsgd1na2vs0mg"},{"bike_id":"ff62b9d0-0cdf-448d-ada3-96d9918ce15c","system_id":"levelo_inurba_marseille","lat":43.31098,"lon":5.36901,"is_reserved":false,"is_disabled":false,"rental_uris":{"android":"levelo://app?vid=ff62b9d0-0cdf-448d-ada3-96d9918ce15c","ios":"levelo://app?vid=ff62b9d0-0cdf-448d-ada3-96d9918ce15c"},"vehicle_type_id":"4","last_reported":1745179813,"current_range_meters":11200,"station_id":"","pricing_plan_id":"cebpf4jnsgd1na2vs0mg"},{"bike_id":"26b9a465-2c94-42ec-b85d-e545bfaf0ca3","system_id":"levelo_inurba_marseille","lat":43.27613,"lon":5.36114,"is_reserved":false,"is_disabled":false,"rental_uris":{"android":"levelo://app?vid=26b9a465-2c94-42ec-b85d-e545bfaf0ca3","ios":"levelo://app?vid=26b9a465-2c94-42ec-b85d-e545bfaf0ca3"},"vehicle_type_id":"4","last_reported":1745179813,"current_range_meters":11200,"station_id":"ce4bgj92rcd13ifvqbe0","pricing_plan_id":"cebpf4jnsgd1na2vs0mg"},{"bike_id":"6bc4d358-1656-47c7-b97c-702142de25ac","system_id":"levelo_inurba_marseille","lat":43.248193,"lon":5.374517,"is_reserved":false,"is_disabled":false,"rental_uris":{"android":"levelo://app?vid=6bc4d358-1656-47c7-b97c-702142de25ac","ios":"levelo://app?vid=6bc4d358-1656-47c7-b97c-702142de25ac"},"vehicle_type_id":"4","last_reported":1745179813,"current_range_meters":11200,"station_id":"ce4bhgh2rcd13ifvqfb0","pricing_plan_id":"cebpf4jnsgd1na2vs0mg"},{"bike_id":"64904af7-8595-4150-91ff-57ff6ea5c1cc","system_id":"levelo_inurba_marseille","lat":43.31518,"lon":5.37279,"is_reserved":false,"is_disabled":false,"rental_uris":{"android":"levelo://app?vid=64904af7-8595-4150-91ff-57ff6ea5c1cc","ios":"levelo://app?vid=64904af7-8595-4150-91ff-57ff6ea5c1cc"},"vehicle_type_id":"4","last_reported":1745179813,"current_range_meters":11200,"station_id":"ce4bgt12rcd13ifvqcd0","pricing_plan_id":"cebpf4jnsgd1na2vs0mg"},{"bike_id":"4e0feb4b-9af5-4c5c-a215-eabded87c4f9","system_id":"levelo_inurba_marseille","lat":43.23195,"lon":5.35547,"is_reserved":false,"is_disabled":false,"rental_uris":{"android":"levelo://app?vid=4e0feb4b-9af5-4c5c-a215-eabded87c4f9","ios":"levelo://app?vid=4e0feb4b-9af5-4c5c-a215-eabded87c4f9"},"vehicle_type_id":"4","last_reported":1745179813,"current_range_meters":11200,"station_id":"ce4bhu92rcd13ifvqi70","pricing_plan_id":"cebpf4jnsgd1na2vs0mg"},{"bike_id":"59216526-d01c-4d77-b6e3-a6c766976571","system_id":"levelo_inurba_marseille","lat":43.22474,"lon":5.34766,"is_reserved":false,"is_disabled":false,"rental_uris":{"android":"levelo://app?vid=59216526-d01c-4d77-b6e3-a6c766976571","ios":"levelo://app?vid=59216526-d01c-4d77-b6e3-a6c766976571"},"vehicle_type_id":"4","last_reported":1745179813,"current_range_meters":11200,"station_id":"st_cvj5dfep6f1abm77gieg","pricing_plan_id":"cebpf4jnsgd1na2vs0mg"},{"bike_id":"9ec00016-bdd1-44d1-be62-4b7d926dd044","system_id":"levelo_inurba_marseille","lat":43.30898,"lon":5.37302,"is_reserved":false,"is_disabled":false,"rental_uris":{"android":"levelo://app?vid=9ec00016-bdd1-44d1-be62-4b7d926dd044","ios":"levelo://app?vid=9ec00016-bdd1-44d1-be62-4b7d926dd044"},"vehicle_type_id":"4","last_reported":1745179813,"current_range_meters":11200,"station_id":"","pricing_plan_id":"cebpf4jnsgd1na2vs0mg"},{"bike_id":"f01fc261-033f-49c7-b09e-b9967362bd76","system_id":"levelo_inurba_marseille","lat":43.29163,"lon":5.35469,"is_reserved":false,"is_disabled":true,"rental_uris":{"android":"levelo://app?vid=f01fc261-033f-49c7-b09e-b9967362bd76","ios":"levelo://app?vid=f01fc261-033f-49c7-b09e-b9967362bd76"},"vehicle_type_id":"4","last_reported":1745179813,"current_range_meters":11200,"station_id":"","pricing_plan_id":"cebpf4jnsgd1na2vs0mg"},{"bike_id":"280be209-ab5b-4a2b-9246-1bdbcaea657a","system_id":"levelo_inurba_marseille","lat":43.28084,"lon":5.39664,"is_reserved":false,"is_disabled":false,"rental_uris":{"android":"levelo://app?vid=280be209-ab5b-4a2b-9246-1bdbcaea657a","ios":"levelo://app?vid=280be209-ab5b-4a2b-9246-1bdbcaea657a"},"vehicle_type_id":"4","last_reported":1745179813,"current_range_meters":11600,"station_id":"ce4bho12rcd13ifvqh2g","pricing_plan_id":"cebpf4jnsgd1na2vs0mg"},{"bike_id":"5801a3ca-80c0-4f04-85da-122046aa79e1","system_id":"levelo_inurba_marseille","lat":43.28996,"lon":5.43851,"is_reserved":false,"is_disabled":false,"rental_uris":{"android":"levelo://app?vid=5801a3ca-80c0-4f04-85da-122046aa79e1","ios":"levelo://app?vid=5801a3ca-80c0-4f04-85da-122046aa79e1"},"vehicle_type_id":"4","last_reported":1745179813,"current_range_meters":11600,"station_id":"","pricing_plan_id":"cebpf4jnsgd1na2vs0mg"},{"bike_id":"7a44e0a8-4e09-45de-a7dd-7017d3a8d8e8","system_id":"levelo_inurba_marseille","lat":43.25724,"lon":5.37627,"is_reserved":false,"is_disabled":false,"rental_uris":{"android":"levelo://app?vid=7a44e0a8-4e09-45de-a7dd-7017d3a8d8e8","ios":"levelo://app?vid=7a44e0a8-4e09-45de-a7dd-7017d3a8d8e8"},"vehicle_type_id":"4","last_reported":1745179813,"current_range_meters":11600,"station_id":"","pricing_plan_id":"cebpf4jnsgd1na2vs0mg"},{"bike_id":"1ace1b61-e2c8-4a41-a3cf-5c94b36f34ae","system_id":"levelo_inurba_marseille","lat":43.21218,"lon":5.35056,"is_reserved":false,"is_disabled":false,"rental_uris":{"android":"levelo://app?vid=1ace1b61-e2c8-4a41-a3cf-5c94b36f34ae","ios":"levelo://app?vid=1ace1b61-e2c8-4a41-a3cf-5c94b36f34ae"},"vehicle_type_id":"4","last_reported":1745179813,"current_range_meters":11600,"station_id":"st_cvj6sg6p6f1abm77japg","pricing_plan_id":"cebpf4jnsgd1na2vs0mg"},{"bike_id":"b0c04d01-4190-4723-819c-23c7adddbadd","system_id":"levelo_inurba_marseille","lat":43.267986,"lon":5.402689,"is_reserved":false,"is_disabled":false,"rental_uris":{"android":"levelo://app?vid=b0c04d01-4190-4723-819c-23c7adddbadd","ios":"levelo://app?vid=b0c04d01-4190-4723-819c-23c7adddbadd"},"vehicle_type_id":"4","last_reported":1745179813,"current_range_meters":11600,"station_id":"ce501612rcd8frsf0b60","pricing_plan_id":"cebpf4jnsgd1na2vs0mg"},{"bike_id":"f15e6d6c-4e91-4850-86dd-4c3b99eca958","system_id":"levelo_inurba_marseille","lat":43.280836,"lon":5.396624,"is_reserved":false,"is_disabled":false,"rental_uris":{"android":"levelo://app?vid=f15e6d6c-4e91-4850-86dd-4c3b99eca958","ios":"levelo://app?vid=f15e6d6c-4e91-4850-86dd-4c3b99eca958"},"vehicle_type_id":"4","last_reported":1745179813,"current_range_meters":11600,"station_id":"ce4bho12rcd13ifvqh2g","pricing_plan_id":"cebpf4jnsgd1na2vs0mg"},{"bike_id":"8a1dde72-6b8d-4113-a8d9-29ea6b05ede2","system_id":"levelo_inurba_marseille","lat":43.25721,"lon":5.3763,"is_reserved":false,"is_disabled":false,"rental_uris":{"android":"levelo://app?vid=8a1dde72-6b8d-4113-a8d9-29ea6b05ede2","ios":"levelo://app?vid=8a1dde72-6b8d-4113-a8d9-29ea6b05ede2"},"vehicle_type_id":"4","last_reported":1745179813,"current_range_meters":12000,"station_id":"","pricing_plan_id":"cebpf4jnsgd1na2vs0mg"},{"bike_id":"1ba58ab0-f8e3-4ca7-b66e-b0f8c2d56e00","system_id":"levelo_inurba_marseille","lat":43.25494,"lon":5.37637,"is_reserved":false,"is_disabled":false,"rental_uris":{"android":"levelo://app?vid=1ba58ab0-f8e3-4ca7-b66e-b0f8c2d56e00","ios":"levelo://app?vid=1ba58ab0-f8e3-4ca7-b66e-b0f8c2d56e00"},"vehicle_type_id":"4","last_reported":1745179813,"current_range_meters":12000,"station_id":"ce4bhh12rcd13ifvqff0","pricing_plan_id":"cebpf4jnsgd1na2vs0mg"},{"bike_id":"cab64969-2640-47ee-abb9-f11afb1f3a59","system_id":"levelo_inurba_marseille","lat":43.28601,"lon":5.35094,"is_reserved":false,"is_disabled":true,"rental_uris":{"android":"levelo://app?vid=cab64969-2640-47ee-abb9-f11afb1f3a59","ios":"levelo://app?vid=cab64969-2640-47ee-abb9-f11afb1f3a59"},"vehicle_type_id":"4","last_reported":1745179813,"current_range_meters":12000,"station_id":"ce4bhch2rcd13ifvqeug","pricing_plan_id":"cebpf4jnsgd1na2vs0mg"},{"bike_id":"90a044fd-0db6-4aee-ab59-8b4b6a7ababe","system_id":"levelo_inurba_marseille","lat":43.29132,"lon":5.38125,"is_reserved":false,"is_disabled":false,"rental_uris":{"android":"levelo://app?vid=90a044fd-0db6-4aee-ab59-8b4b6a7ababe","ios":"levelo://app?vid=90a044fd-0db6-4aee-ab59-8b4b6a7ababe"},"vehicle_type_id":"4","last_reported":1745179813,"current_range_meters":12000,"station_id":"ce4bh512rcd13ifvqe2g","pricing_plan_id":"cebpf4jnsgd1na2vs0mg"},{"bike_id":"d58a8329-7ea2-4490-a571-92cff72b282a","system_id":"levelo_inurba_marseille","lat":43.28252,"lon":5.38797,"is_reserved":false,"is_disabled":false,"rental_uris":{"android":"levelo://app?vid=d58a8329-7ea2-4490-a571-92cff72b282a","ios":"levelo://app?vid=d58a8329-7ea2-4490-a571-92cff72b282a"},"vehicle_type_id":"4","last_reported":1745179813,"current_range_meters":12000,"station_id":"","pricing_plan_id":"cebpf4jnsgd1na2vs0mg"},{"bike_id":"82cd7385-772c-42be-8270-64b79d89cde4","system_id":"levelo_inurba_marseille","lat":43.290673,"lon":5.371628,"is_reserved":false,"is_disabled":false,"rental_uris":{"android":"levelo://app?vid=82cd7385-772c-42be-8270-64b79d89cde4","ios":"levelo://app?vid=82cd7385-772c-42be-8270-64b79d89cde4"},"vehicle_type_id":"4","last_reported":1745179813,"current_range_meters":12000,"station_id":"ce4bh5p2rcd13ifvqe4g","pricing_plan_id":"cebpf4jnsgd1na2vs0mg"},{"bike_id":"bfbd30da-6a45-470f-8dd8-32d95a586503","system_id":"levelo_inurba_marseille","lat":43.29414,"lon":5.38625,"is_reserved":false,"is_disabled":false,"rental_uris":{"android":"levelo://app?vid=bfbd30da-6a45-470f-8dd8-32d95a586503","ios":"levelo://app?vid=bfbd30da-6a45-470f-8dd8-32d95a586503"},"vehicle_type_id":"4","last_reported":1745179813,"current_range_meters":12000,"station_id":"ce4bh2h2rcd13ifvqdh0","pricing_plan_id":"cebpf4jnsgd1na2vs0mg"},{"bike_id":"a3dd9a0b-1e95-49bd-9b52-a761b312f104","system_id":"levelo_inurba_marseille","lat":43.25578,"lon":5.38259,"is_reserved":false,"is_disabled":false,"rental_uris":{"android":"levelo://app?vid=a3dd9a0b-1e95-49bd-9b52-a761b312f104","ios":"levelo://app?vid=a3dd9a0b-1e95-49bd-9b52-a761b312f104"},"vehicle_type_id":"4","last_reported":1745179813,"current_range_meters":12400,"station_id":"ce4bhih2rcd13ifvqfs0","pricing_plan_id":"cebpf4jnsgd1na2vs0mg"},{"bike_id":"40a0faf5-20c9-4b17-95c2-7b545f9b573a","system_id":"levelo_inurba_marseille","lat":43.2848,"lon":5.38572,"is_reserved":false,"is_disabled":false,"rental_uris":{"android":"levelo://app?vid=40a0faf5-20c9-4b17-95c2-7b545f9b573a","ios":"levelo://app?vid=40a0faf5-20c9-4b17-95c2-7b545f9b573a"},"vehicle_type_id":"4","last_reported":1745179813,"current_range_meters":12400,"station_id":"ce4bh8p2rcd13ifvqeb0","pricing_plan_id":"cebpf4jnsgd1na2vs0mg"},{"bike_id":"50720bbe-5512-41d7-86e0-3df313b565c6","system_id":"levelo_inurba_marseille","lat":43.32366,"lon":5.38831,"is_reserved":false,"is_disabled":true,"rental_uris":{"android":"levelo://app?vid=50720bbe-5512-41d7-86e0-3df313b565c6","ios":"levelo://app?vid=50720bbe-5512-41d7-86e0-3df313b565c6"},"vehicle_type_id":"4","last_reported":1745179813,"current_range_meters":12400,"station_id":"ce4bhqp2rcd13ifvqhog","pricing_plan_id":"cebpf4jnsgd1na2vs0mg"},{"bike_id":"066f731a-96d8-4fba-8a3d-d7d6b83a2184","system_id":"levelo_inurba_marseille","lat":43.29252,"lon":5.38432,"is_reserved":false,"is_disabled":false,"rental_uris":{"android":"levelo://app?vid=066f731a-96d8-4fba-8a3d-d7d6b83a2184","ios":"levelo://app?vid=066f731a-96d8-4fba-8a3d-d7d6b83a2184"},"vehicle_type_id":"4","last_reported":1745179813,"current_range_meters":12400,"station_id":"ce4bh692rcd13ifvqea0","pricing_plan_id":"cebpf4jnsgd1na2vs0mg"},{"bike_id":"1184e7cb-97e6-48bd-84cd-8e59c100c07b","system_id":"levelo_inurba_marseille","lat":43.292296,"lon":5.366746,"is_reserved":false,"is_disabled":true,"rental_uris":{"android":"levelo://app?vid=1184e7cb-97e6-48bd-84cd-8e59c100c07b","ios":"levelo://app?vid=1184e7cb-97e6-48bd-84cd-8e59c100c07b"},"vehicle_type_id":"4","last_reported":1745179813,"current_range_meters":12800,"station_id":"ce4bhbp2rcd13ifvqesg","pricing_plan_id":"cebpf4jnsgd1na2vs0mg"},{"bike_id":"d53e964c-f934-484c-a259-3e8f23cdd819","system_id":"levelo_inurba_marseille","lat":43.3372,"lon":5.39192,"is_reserved":false,"is_disabled":false,"rental_uris":{"android":"levelo://app?vid=d53e964c-f934-484c-a259-3e8f23cdd819","ios":"levelo://app?vid=d53e964c-f934-484c-a259-3e8f23cdd819"},"vehicle_type_id":"4","last_reported":1745179813,"current_range_meters":12800,"station_id":"ce4bhr92rcd13ifvqhsg","pricing_plan_id":"cebpf4jnsgd1na2vs0mg"},{"bike_id":"8840feef-7815-4425-a7d2-14c3fd40fafa","system_id":"levelo_inurba_marseille","lat":43.25503,"lon":5.37635,"is_reserved":false,"is_disabled":false,"rental_uris":{"android":"levelo://app?vid=8840feef-7815-4425-a7d2-14c3fd40fafa","ios":"levelo://app?vid=8840feef-7815-4425-a7d2-14c3fd40fafa"},"vehicle_type_id":"4","last_reported":1745179813,"current_range_meters":12800,"station_id":"ce4bhh12rcd13ifvqff0","pricing_plan_id":"cebpf4jnsgd1na2vs0mg"},{"bike_id":"aa4956c6-6845-4783-8776-ee4b88f920ec","system_id":"levelo_inurba_marseille","lat":43.2864,"lon":5.37079,"is_reserved":false,"is_disabled":true,"rental_uris":{"android":"levelo://app?vid=aa4956c6-6845-4783-8776-ee4b88f920ec","ios":"levelo://app?vid=aa4956c6-6845-4783-8776-ee4b88f920ec"},"vehicle_type_id":"4","last_reported":1745179813,"current_range_meters":12800,"station_id":"ce4bht12rcd13ifvqi60","pricing_plan_id":"cebpf4jnsgd1na2vs0mg"},{"bike_id":"1737dea4-541f-4bc8-9731-1ab03c2deae6","system_id":"levelo_inurba_marseille","lat":43.23958,"lon":5.36627,"is_reserved":false,"is_disabled":true,"rental_uris":{"android":"levelo://app?vid=1737dea4-541f-4bc8-9731-1ab03c2deae6","ios":"levelo://app?vid=1737dea4-541f-4bc8-9731-1ab03c2deae6"},"vehicle_type_id":"4","last_reported":1745179813,"current_range_meters":12800,"station_id":"ce4bhi12rcd13ifvqfp0","pricing_plan_id":"cebpf4jnsgd1na2vs0mg"},{"bike_id":"4d8ee2c5-8346-4b66-ae86-f443b6bdd2d9","system_id":"levelo_inurba_marseille","lat":43.24537,"lon":5.41298,"is_reserved":false,"is_disabled":false,"rental_uris":{"android":"levelo://app?vid=4d8ee2c5-8346-4b66-ae86-f443b6bdd2d9","ios":"levelo://app?vid=4d8ee2c5-8346-4b66-ae86-f443b6bdd2d9"},"vehicle_type_id":"4","last_reported":1745179813,"current_range_meters":13600,"station_id":"","pricing_plan_id":"cebpf4jnsgd1na2vs0mg"},{"bike_id":"b157dc81-51c5-45f3-a677-9e9c3cf6283b","system_id":"levelo_inurba_marseille","lat":43.31094,"lon":5.37376,"is_reserved":false,"is_disabled":false,"rental_uris":{"android":"levelo://app?vid=b157dc81-51c5-45f3-a677-9e9c3cf6283b","ios":"levelo://app?vid=b157dc81-51c5-45f3-a677-9e9c3cf6283b"},"vehicle_type_id":"4","last_reported":1745179813,"current_range_meters":13600,"station_id":"","pricing_plan_id":"cebpf4jnsgd1na2vs0mg"},{"bike_id":"54333f71-3852-4e7b-b374-b14e492e4962","system_id":"levelo_inurba_marseille","lat":43.304167,"lon":5.412804,"is_reserved":false,"is_disabled":true,"rental_uris":{"android":"levelo://app?vid=54333f71-3852-4e7b-b374-b14e492e4962","ios":"levelo://app?vid=54333f71-3852-4e7b-b374-b14e492e4962"},"vehicle_type_id":"4","last_reported":1745179813,"current_range_meters":14000,"station_id":"ce4bhop2rcd13ifvqh8g","pricing_plan_id":"cebpf4jnsgd1na2vs0mg"},{"bike_id":"96c1ac31-9fea-4c51-b639-a5cb1598ae10","system_id":"levelo_inurba_marseille","lat":43.29596,"lon":5.38089,"is_reserved":false,"is_disabled":false,"rental_uris":{"android":"levelo://app?vid=96c1ac31-9fea-4c51-b639-a5cb1598ae10","ios":"levelo://app?vid=96c1ac31-9fea-4c51-b639-a5cb1598ae10"},"vehicle_type_id":"4","last_reported":1745179813,"current_range_meters":14000,"station_id":"ce4bgl12rcd13ifvqbo0","pricing_plan_id":"cebpf4jnsgd1na2vs0mg"},{"bike_id":"879c4764-ec34-4053-99a8-4501c6e0ccc4","system_id":"levelo_inurba_marseille","lat":43.25716,"lon":5.41111,"is_reserved":false,"is_disabled":false,"rental_uris":{"android":"levelo://app?vid=879c4764-ec34-4053-99a8-4501c6e0ccc4","ios":"levelo://app?vid=879c4764-ec34-4053-99a8-4501c6e0ccc4"},"vehicle_type_id":"4","last_reported":1745179813,"current_range_meters":14000,"station_id":"ce4bhkp2rcd13ifvqgd0","pricing_plan_id":"cebpf4jnsgd1na2vs0mg"},{"bike_id":"b25b6470-ff43-4d6b-b299-0f21ec070f27","system_id":"levelo_inurba_marseille","lat":43.29904,"lon":5.38117,"is_reserved":false,"is_disabled":true,"rental_uris":{"android":"levelo://app?vid=b25b6470-ff43-4d6b-b299-0f21ec070f27","ios":"levelo://app?vid=b25b6470-ff43-4d6b-b299-0f21ec070f27"},"vehicle_type_id":"4","last_reported":1745179813,"current_range_meters":14000,"station_id":"ce4bgj12rcd13ifvqbc0","pricing_plan_id":"cebpf4jnsgd1na2vs0mg"},{"bike_id":"d66f2fbf-84c1-4006-a003-d92ef3aa9479","system_id":"levelo_inurba_marseille","lat":43.23199,"lon":5.35556,"is_reserved":false,"is_disabled":false,"rental_uris":{"android":"levelo://app?vid=d66f2fbf-84c1-4006-a003-d92ef3aa9479","ios":"levelo://app?vid=d66f2fbf-84c1-4006-a003-d92ef3aa9479"},"vehicle_type_id":"4","last_reported":1745179813,"current_range_meters":14000,"station_id":"ce4bhu92rcd13ifvqi70","pricing_plan_id":"cebpf4jnsgd1na2vs0mg"},{"bike_id":"32455d6b-b8f6-4342-bd18-f622fa5c129e","system_id":"levelo_inurba_marseille","lat":43.29254,"lon":5.38436,"is_reserved":false,"is_disabled":false,"rental_uris":{"android":"levelo://app?vid=32455d6b-b8f6-4342-bd18-f622fa5c129e","ios":"levelo://app?vid=32455d6b-b8f6-4342-bd18-f622fa5c129e"},"vehicle_type_id":"4","last_reported":1745179813,"current_range_meters":14000,"station_id":"ce4bh692rcd13ifvqea0","pricing_plan_id":"cebpf4jnsgd1na2vs0mg"},{"bike_id":"cb04d036-524e-497d-b1e8-d53251979b05","system_id":"levelo_inurba_marseille","lat":43.29883,"lon":5.39748,"is_reserved":false,"is_disabled":true,"rental_uris":{"android":"levelo://app?vid=cb04d036-524e-497d-b1e8-d53251979b05","ios":"levelo://app?vid=cb04d036-524e-497d-b1e8-d53251979b05"},"vehicle_type_id":"4","last_reported":1745179813,"current_range_meters":14400,"station_id":"ce4bh0h2rcd13ifvqd50","pricing_plan_id":"cebpf4jnsgd1na2vs0mg"},{"bike_id":"1b0600a5-6215-4de2-b2e4-3f424170b044","system_id":"levelo_inurba_marseille","lat":43.29546,"lon":5.38141,"is_reserved":false,"is_disabled":false,"rental_uris":{"android":"levelo://app?vid=1b0600a5-6215-4de2-b2e4-3f424170b044","ios":"levelo://app?vid=1b0600a5-6215-4de2-b2e4-3f424170b044"},"vehicle_type_id":"4","last_reported":1745179813,"current_range_meters":14400,"station_id":"","pricing_plan_id":"cebpf4jnsgd1na2vs0mg"},{"bike_id":"8e2f61f9-48db-49ef-8f45-1fae44e1b234","system_id":"levelo_inurba_marseille","lat":43.303,"lon":5.39212,"is_reserved":false,"is_disabled":false,"rental_uris":{"android":"levelo://app?vid=8e2f61f9-48db-49ef-8f45-1fae44e1b234","ios":"levelo://app?vid=8e2f61f9-48db-49ef-8f45-1fae44e1b234"},"vehicle_type_id":"4","last_reported":1745179813,"current_range_meters":14400,"station_id":"ce4bgkh2rcd13ifvqbk0","pricing_plan_id":"cebpf4jnsgd1na2vs0mg"},{"bike_id":"b1a92491-f6da-45e2-a9a5-178685f0efe8","system_id":"levelo_inurba_marseille","lat":43.30902,"lon":5.40141,"is_reserved":false,"is_disabled":false,"rental_uris":{"android":"levelo://app?vid=b1a92491-f6da-45e2-a9a5-178685f0efe8","ios":"levelo://app?vid=b1a92491-f6da-45e2-a9a5-178685f0efe8"},"vehicle_type_id":"4","last_reported":1745179813,"current_range_meters":14800,"station_id":"ce4bgvp2rcd13ifvqct0","pricing_plan_id":"cebpf4jnsgd1na2vs0mg"},{"bike_id":"32ae2d19-1339-42bf-8f5e-e5a9beb6659e","system_id":"levelo_inurba_marseille","lat":43.27825,"lon":5.39214,"is_reserved":false,"is_disabled":false,"rental_uris":{"android":"levelo://app?vid=32ae2d19-1339-42bf-8f5e-e5a9beb6659e","ios":"levelo://app?vid=32ae2d19-1339-42bf-8f5e-e5a9beb6659e"},"vehicle_type_id":"4","last_reported":1745179813,"current_range_meters":14800,"station_id":"ce4bhjp2rcd13ifvqga0","pricing_plan_id":"cebpf4jnsgd1na2vs0mg"},{"bike_id":"271456e2-7177-4ceb-8cff-784e2db81f75","system_id":"levelo_inurba_marseille","lat":43.30594,"lon":5.37233,"is_reserved":false,"is_disabled":false,"rental_uris":{"android":"levelo://app?vid=271456e2-7177-4ceb-8cff-784e2db81f75","ios":"levelo://app?vid=271456e2-7177-4ceb-8cff-784e2db81f75"},"vehicle_type_id":"4","last_reported":1745179813,"current_range_meters":14800,"station_id":"ce4bgqh2rcd13ifvqc4g","pricing_plan_id":"cebpf4jnsgd1na2vs0mg"},{"bike_id":"bc7c10e7-87d1-4c31-967d-a6aa78333b3a","system_id":"levelo_inurba_marseille","lat":43.29452,"lon":5.39751,"is_reserved":false,"is_disabled":false,"rental_uris":{"android":"levelo://app?vid=bc7c10e7-87d1-4c31-967d-a6aa78333b3a","ios":"levelo://app?vid=bc7c10e7-87d1-4c31-967d-a6aa78333b3a"},"vehicle_type_id":"4","last_reported":1745179813,"current_range_meters":14800,"station_id":"ce4bh3h2rcd13ifvqdo0","pricing_plan_id":"cebpf4jnsgd1na2vs0mg"},{"bike_id":"c2a8322a-b557-4826-9e4b-8601da0804ef","system_id":"levelo_inurba_marseille","lat":43.29929,"lon":5.38144,"is_reserved":false,"is_disabled":false,"rental_uris":{"android":"levelo://app?vid=c2a8322a-b557-4826-9e4b-8601da0804ef","ios":"levelo://app?vid=c2a8322a-b557-4826-9e4b-8601da0804ef"},"vehicle_type_id":"4","last_reported":1745179813,"current_range_meters":14800,"station_id":"ce4bgj12rcd13ifvqbc0","pricing_plan_id":"cebpf4jnsgd1na2vs0mg"},{"bike_id":"dd016190-8398-40f0-a058-c0811965fd38","system_id":"levelo_inurba_marseille","lat":43.29035,"lon":5.39962,"is_reserved":false,"is_disabled":false,"rental_uris":{"android":"levelo://app?vid=dd016190-8398-40f0-a058-c0811965fd38","ios":"levelo://app?vid=dd016190-8398-40f0-a058-c0811965fd38"},"vehicle_type_id":"4","last_reported":1745179813,"current_range_meters":14800,"station_id":"ce4bh392rcd13ifvqdm0","pricing_plan_id":"cebpf4jnsgd1na2vs0mg"},{"bike_id":"9cd66f20-0974-44a3-a00c-3af08e74ebf2","system_id":"levelo_inurba_marseille","lat":43.26031,"lon":5.41739,"is_reserved":false,"is_disabled":false,"rental_uris":{"android":"levelo://app?vid=9cd66f20-0974-44a3-a00c-3af08e74ebf2","ios":"levelo://app?vid=9cd66f20-0974-44a3-a00c-3af08e74ebf2"},"vehicle_type_id":"4","last_reported":1745179813,"current_range_meters":14800,"station_id":"","pricing_plan_id":"cebpf4jnsgd1na2vs0mg"},{"bike_id":"9fc1dd27-12bb-4c7c-855d-f82b71b82bf7","system_id":"levelo_inurba_marseille","lat":43.23201,"lon":5.3555,"is_reserved":false,"is_disabled":false,"rental_uris":{"android":"levelo://app?vid=9fc1dd27-12bb-4c7c-855d-f82b71b82bf7","ios":"levelo://app?vid=9fc1dd27-12bb-4c7c-855d-f82b71b82bf7"},"vehicle_type_id":"4","last_reported":1745179813,"current_range_meters":14800,"station_id":"ce4bhu92rcd13ifvqi70","pricing_plan_id":"cebpf4jnsgd1na2vs0mg"},{"bike_id":"6603e725-c7bc-4d06-99d7-4eda086067ad","system_id":"levelo_inurba_marseille","lat":43.26674,"lon":5.38272,"is_reserved":false,"is_disabled":true,"rental_uris":{"android":"levelo://app?vid=6603e725-c7bc-4d06-99d7-4eda086067ad","ios":"levelo://app?vid=6603e725-c7bc-4d06-99d7-4eda086067ad"},"vehicle_type_id":"4","last_reported":1745179813,"current_range_meters":15200,"station_id":"ce4bhg92rcd13ifvqf90","pricing_plan_id":"cebpf4jnsgd1na2vs0mg"},{"bike_id":"f5af73f6-a509-41da-b4ce-01f33ecbc430","system_id":"levelo_inurba_marseille","lat":43.29411,"lon":5.38624,"is_reserved":false,"is_disabled":false,"rental_uris":{"android":"levelo://app?vid=f5af73f6-a509-41da-b4ce-01f33ecbc430","ios":"levelo://app?vid=f5af73f6-a509-41da-b4ce-01f33ecbc430"},"vehicle_type_id":"4","last_reported":1745179813,"current_range_meters":15200,"station_id":"ce4bh2h2rcd13ifvqdh0","pricing_plan_id":"cebpf4jnsgd1na2vs0mg"},{"bike_id":"04e65bef-6d9d-47bd-a5e4-a5793a259c44","system_id":"levelo_inurba_marseille","lat":43.2927,"lon":5.38439,"is_reserved":false,"is_disabled":false,"rental_uris":{"android":"levelo://app?vid=04e65bef-6d9d-47bd-a5e4-a5793a259c44","ios":"levelo://app?vid=04e65bef-6d9d-47bd-a5e4-a5793a259c44"},"vehicle_type_id":"4","last_reported":1745179813,"current_range_meters":15200,"station_id":"ce4bh692rcd13ifvqea0","pricing_plan_id":"cebpf4jnsgd1na2vs0mg"},{"bike_id":"4d548a3c-1761-4c2d-8556-5923248a3c97","system_id":"levelo_inurba_marseille","lat":43.32538,"lon":5.41434,"is_reserved":false,"is_disabled":false,"rental_uris":{"android":"levelo://app?vid=4d548a3c-1761-4c2d-8556-5923248a3c97","ios":"levelo://app?vid=4d548a3c-1761-4c2d-8556-5923248a3c97"},"vehicle_type_id":"4","last_reported":1745179813,"current_range_meters":15200,"station_id":"ce4bhq12rcd13ifvqhhg","pricing_plan_id":"cebpf4jnsgd1na2vs0mg"},{"bike_id":"2d2e4840-713e-4771-ae07-2155d13a6672","system_id":"levelo_inurba_marseille","lat":43.29934,"lon":5.36526,"is_reserved":false,"is_disabled":true,"rental_uris":{"android":"levelo://app?vid=2d2e4840-713e-4771-ae07-2155d13a6672","ios":"levelo://app?vid=2d2e4840-713e-4771-ae07-2155d13a6672"},"vehicle_type_id":"4","last_reported":1745179813,"current_range_meters":15200,"station_id":"ce4bgm92rcd13ifvqbr0","pricing_plan_id":"cebpf4jnsgd1na2vs0mg"},{"bike_id":"f95b6ba3-4ffd-4dee-8387-c1e0a51dcdd2","system_id":"levelo_inurba_marseille","lat":43.27939,"lon":5.41049,"is_reserved":false,"is_disabled":false,"rental_uris":{"android":"levelo://app?vid=f95b6ba3-4ffd-4dee-8387-c1e0a51dcdd2","ios":"levelo://app?vid=f95b6ba3-4ffd-4dee-8387-c1e0a51dcdd2"},"vehicle_type_id":"4","last_reported":1745179813,"current_range_meters":15200,"station_id":"ce4bhnp2rcd13ifvqh0g","pricing_plan_id":"cebpf4jnsgd1na2vs0mg"},{"bike_id":"53b3b9c9-bf4c-40f9-ba2e-ec3f8e3f866c","system_id":"levelo_inurba_marseille","lat":43.22896,"lon":5.35298,"is_reserved":false,"is_disabled":false,"rental_uris":{"android":"levelo://app?vid=53b3b9c9-bf4c-40f9-ba2e-ec3f8e3f866c","ios":"levelo://app?vid=53b3b9c9-bf4c-40f9-ba2e-ec3f8e3f866c"},"vehicle_type_id":"4","last_reported":1745179813,"current_range_meters":16000,"station_id":"cpo3532slgdg3j2ikp40","pricing_plan_id":"cebpf4jnsgd1na2vs0mg"},{"bike_id":"ee910e3a-4ec1-4a75-b39a-8a2ef121fc79","system_id":"levelo_inurba_marseille","lat":43.2549,"lon":5.37645,"is_reserved":false,"is_disabled":false,"rental_uris":{"android":"levelo://app?vid=ee910e3a-4ec1-4a75-b39a-8a2ef121fc79","ios":"levelo://app?vid=ee910e3a-4ec1-4a75-b39a-8a2ef121fc79"},"vehicle_type_id":"4","last_reported":1745179813,"current_range_meters":16000,"station_id":"ce4bhh12rcd13ifvqff0","pricing_plan_id":"cebpf4jnsgd1na2vs0mg"},{"bike_id":"920be78a-bc2d-4cac-b812-0656dfc0bf07","system_id":"levelo_inurba_marseille","lat":43.31505,"lon":5.37289,"is_reserved":false,"is_disabled":false,"rental_uris":{"android":"levelo://app?vid=920be78a-bc2d-4cac-b812-0656dfc0bf07","ios":"levelo://app?vid=920be78a-bc2d-4cac-b812-0656dfc0bf07"},"vehicle_type_id":"4","last_reported":1745179813,"current_range_meters":16000,"station_id":"ce4bgt12rcd13ifvqcd0","pricing_plan_id":"cebpf4jnsgd1na2vs0mg"},{"bike_id":"a049c569-0294-4594-b06b-589d19df1531","system_id":"levelo_inurba_marseille","lat":43.2483,"lon":5.38188,"is_reserved":false,"is_disabled":false,"rental_uris":{"android":"levelo://app?vid=a049c569-0294-4594-b06b-589d19df1531","ios":"levelo://app?vid=a049c569-0294-4594-b06b-589d19df1531"},"vehicle_type_id":"4","last_reported":1745179813,"current_range_meters":16000,"station_id":"","pricing_plan_id":"cebpf4jnsgd1na2vs0mg"},{"bike_id":"5069dd58-c0a4-4a82-89c4-361b75ac07f9","system_id":"levelo_inurba_marseille","lat":43.25581,"lon":5.38237,"is_reserved":false,"is_disabled":false,"rental_uris":{"android":"levelo://app?vid=5069dd58-c0a4-4a82-89c4-361b75ac07f9","ios":"levelo://app?vid=5069dd58-c0a4-4a82-89c4-361b75ac07f9"},"vehicle_type_id":"4","last_reported":1745179813,"current_range_meters":16000,"station_id":"ce4bhih2rcd13ifvqfs0","pricing_plan_id":"cebpf4jnsgd1na2vs0mg"},{"bike_id":"79552c76-80c3-4051-b5d3-1d164ee3da74","system_id":"levelo_inurba_marseille","lat":43.30196,"lon":5.36631,"is_reserved":false,"is_disabled":false,"rental_uris":{"android":"levelo://app?vid=79552c76-80c3-4051-b5d3-1d164ee3da74","ios":"levelo://app?vid=79552c76-80c3-4051-b5d3-1d164ee3da74"},"vehicle_type_id":"4","last_reported":1745179813,"current_range_meters":16000,"station_id":"ce4bgrh2rcd13ifvqc8g","pricing_plan_id":"cebpf4jnsgd1na2vs0mg"},{"bike_id":"0be86137-09cc-4633-b790-89c88cb9a8a3","system_id":"levelo_inurba_marseille","lat":43.23976,"lon":5.36618,"is_reserved":false,"is_disabled":false,"rental_uris":{"android":"levelo://app?vid=0be86137-09cc-4633-b790-89c88cb9a8a3","ios":"levelo://app?vid=0be86137-09cc-4633-b790-89c88cb9a8a3"},"vehicle_type_id":"4","last_reported":1745179813,"current_range_meters":16000,"station_id":"ce4bhi12rcd13ifvqfp0","pricing_plan_id":"cebpf4jnsgd1na2vs0mg"},{"bike_id":"f4f7624b-eec9-47f5-9227-aa44836a7a81","system_id":"levelo_inurba_marseille","lat":43.23204,"lon":5.35546,"is_reserved":false,"is_disabled":false,"rental_uris":{"android":"levelo://app?vid=f4f7624b-eec9-47f5-9227-aa44836a7a81","ios":"levelo://app?vid=f4f7624b-eec9-47f5-9227-aa44836a7a81"},"vehicle_type_id":"4","last_reported":1745179813,"current_range_meters":16000,"station_id":"ce4bhu92rcd13ifvqi70","pricing_plan_id":"cebpf4jnsgd1na2vs0mg"},{"bike_id":"c4fc050b-7c58-4380-8033-ffe242748317","system_id":"levelo_inurba_marseille","lat":43.29525,"lon":5.39401,"is_reserved":false,"is_disabled":true,"rental_uris":{"android":"levelo://app?vid=c4fc050b-7c58-4380-8033-ffe242748317","ios":"levelo://app?vid=c4fc050b-7c58-4380-8033-ffe242748317"},"vehicle_type_id":"4","last_reported":1745179813,"current_range_meters":16400,"station_id":"ce4bh292rcd13ifvqdf0","pricing_plan_id":"cebpf4jnsgd1na2vs0mg"},{"bike_id":"a37db13f-41bc-40e7-a8c3-69bdbd5b97a4","system_id":"levelo_inurba_marseille","lat":43.30249,"lon":5.40042,"is_reserved":false,"is_disabled":false,"rental_uris":{"android":"levelo://app?vid=a37db13f-41bc-40e7-a8c3-69bdbd5b97a4","ios":"levelo://app?vid=a37db13f-41bc-40e7-a8c3-69bdbd5b97a4"},"vehicle_type_id":"4","last_reported":1745179813,"current_range_meters":16400,"station_id":"ce4bgvh2rcd13ifvqcs0","pricing_plan_id":"cebpf4jnsgd1na2vs0mg"},{"bike_id":"04494bc7-45b7-4bae-8033-eab647359250","system_id":"levelo_inurba_marseille","lat":43.2918,"lon":5.39342,"is_reserved":false,"is_disabled":false,"rental_uris":{"android":"levelo://app?vid=04494bc7-45b7-4bae-8033-eab647359250","ios":"levelo://app?vid=04494bc7-45b7-4bae-8033-eab647359250"},"vehicle_type_id":"4","last_reported":1745179813,"current_range_meters":16400,"station_id":"ce4bh192rcd13ifvqdd0","pricing_plan_id":"cebpf4jnsgd1na2vs0mg"},{"bike_id":"90c02110-b26a-4a46-a351-e8bada617baf","system_id":"levelo_inurba_marseille","lat":43.29565,"lon":5.39967,"is_reserved":false,"is_disabled":false,"rental_uris":{"android":"levelo://app?vid=90c02110-b26a-4a46-a351-e8bada617baf","ios":"levelo://app?vid=90c02110-b26a-4a46-a351-e8bada617baf"},"vehicle_type_id":"4","last_reported":1745179813,"current_range_meters":16400,"station_id":"ce4bh312rcd13ifvqdj0","pricing_plan_id":"cebpf4jnsgd1na2vs0mg"},{"bike_id":"b8b48d8d-b58b-465b-9fca-99974ef6798f","system_id":"levelo_inurba_marseille","lat":43.29843,"lon":5.36274,"is_reserved":false,"is_disabled":false,"rental_uris":{"android":"levelo://app?vid=b8b48d8d-b58b-465b-9fca-99974ef6798f","ios":"levelo://app?vid=b8b48d8d-b58b-465b-9fca-99974ef6798f"},"vehicle_type_id":"4","last_reported":1745179813,"current_range_meters":16400,"station_id":"ce4bgpp2rcd13ifvqc3g","pricing_plan_id":"cebpf4jnsgd1na2vs0mg"},{"bike_id":"1ac1b160-80aa-4c3d-8047-868b15af45f6","system_id":"levelo_inurba_marseille","lat":43.27916,"lon":5.39574,"is_reserved":false,"is_disabled":false,"rental_uris":{"android":"levelo://app?vid=1ac1b160-80aa-4c3d-8047-868b15af45f6","ios":"levelo://app?vid=1ac1b160-80aa-4c3d-8047-868b15af45f6"},"vehicle_type_id":"4","last_reported":1745179813,"current_range_meters":16400,"station_id":"ce4bhf92rcd13ifvqf40","pricing_plan_id":"cebpf4jnsgd1na2vs0mg"},{"bike_id":"a5984312-2869-4820-8cb6-c49aefed6914","system_id":"levelo_inurba_marseille","lat":43.28023,"lon":5.36945,"is_reserved":false,"is_disabled":false,"rental_uris":{"android":"levelo://app?vid=a5984312-2869-4820-8cb6-c49aefed6914","ios":"levelo://app?vid=a5984312-2869-4820-8cb6-c49aefed6914"},"vehicle_type_id":"4","last_reported":1745179813,"current_range_meters":16400,"station_id":"ce4bha12rcd13ifvqef0","pricing_plan_id":"cebpf4jnsgd1na2vs0mg"},{"bike_id":"b63b7a5e-a38c-41b2-b8ca-03dcb2ce1a70","system_id":"levelo_inurba_marseille","lat":43.25084,"lon":5.39503,"is_reserved":false,"is_disabled":true,"rental_uris":{"android":"levelo://app?vid=b63b7a5e-a38c-41b2-b8ca-03dcb2ce1a70","ios":"levelo://app?vid=b63b7a5e-a38c-41b2-b8ca-03dcb2ce1a70"},"vehicle_type_id":"4","last_reported":1745179813,"current_range_meters":16400,"station_id":"ce4bhm12rcd13ifvqgkg","pricing_plan_id":"cebpf4jnsgd1na2vs0mg"},{"bike_id":"acb337f8-9a02-4c16-ad32-3a6e67af21e4","system_id":"levelo_inurba_marseille","lat":43.284521,"lon":5.358991,"is_reserved":false,"is_disabled":true,"rental_uris":{"android":"levelo://app?vid=acb337f8-9a02-4c16-ad32-3a6e67af21e4","ios":"levelo://app?vid=acb337f8-9a02-4c16-ad32-3a6e67af21e4"},"vehicle_type_id":"4","last_reported":1745179813,"current_range_meters":16800,"station_id":"ce4bhah2rcd13ifvqei0","pricing_plan_id":"cebpf4jnsgd1na2vs0mg"},{"bike_id":"7becedda-1f1d-4e68-885e-0ba67637470e","system_id":"levelo_inurba_marseille","lat":43.29796,"lon":5.38077,"is_reserved":false,"is_disabled":false,"rental_uris":{"android":"levelo://app?vid=7becedda-1f1d-4e68-885e-0ba67637470e","ios":"levelo://app?vid=7becedda-1f1d-4e68-885e-0ba67637470e"},"vehicle_type_id":"4","last_reported":1745179813,"current_range_meters":16800,"station_id":"ce4bgip2rcd13ifvqbb0","pricing_plan_id":"cebpf4jnsgd1na2vs0mg"},{"bike_id":"bd7d9eec-e237-46d1-86db-a7a0f1e4233a","system_id":"levelo_inurba_marseille","lat":43.2942,"lon":5.38622,"is_reserved":false,"is_disabled":false,"rental_uris":{"android":"levelo://app?vid=bd7d9eec-e237-46d1-86db-a7a0f1e4233a","ios":"levelo://app?vid=bd7d9eec-e237-46d1-86db-a7a0f1e4233a"},"vehicle_type_id":"4","last_reported":1745179813,"current_range_meters":16800,"station_id":"ce4bh2h2rcd13ifvqdh0","pricing_plan_id":"cebpf4jnsgd1na2vs0mg"},{"bike_id":"b50ac1ac-8112-49a9-9684-58c93de8a551","system_id":"levelo_inurba_marseille","lat":43.25494,"lon":5.37655,"is_reserved":false,"is_disabled":false,"rental_uris":{"android":"levelo://app?vid=b50ac1ac-8112-49a9-9684-58c93de8a551","ios":"levelo://app?vid=b50ac1ac-8112-49a9-9684-58c93de8a551"},"vehicle_type_id":"4","last_reported":1745179813,"current_range_meters":16800,"station_id":"ce4bhh12rcd13ifvqff0","pricing_plan_id":"cebpf4jnsgd1na2vs0mg"},{"bike_id":"62faee9b-01cb-43f2-a8c7-4e5b9872a986","system_id":"levelo_inurba_marseille","lat":43.27789,"lon":5.42829,"is_reserved":false,"is_disabled":false,"rental_uris":{"android":"levelo://app?vid=62faee9b-01cb-43f2-a8c7-4e5b9872a986","ios":"levelo://app?vid=62faee9b-01cb-43f2-a8c7-4e5b9872a986"},"vehicle_type_id":"4","last_reported":1745179813,"current_range_meters":17200,"station_id":"","pricing_plan_id":"cebpf4jnsgd1na2vs0mg"},{"bike_id":"b2824bf6-8552-4f18-8f40-49bc145757f1","system_id":"levelo_inurba_marseille","lat":43.29881,"lon":5.38314,"is_reserved":false,"is_disabled":false,"rental_uris":{"android":"levelo://app?vid=b2824bf6-8552-4f18-8f40-49bc145757f1","ios":"levelo://app?vid=b2824bf6-8552-4f18-8f40-49bc145757f1"},"vehicle_type_id":"4","last_reported":1745179813,"current_range_meters":17200,"station_id":"","pricing_plan_id":"cebpf4jnsgd1na2vs0mg"},{"bike_id":"f0ec5bfa-658e-402a-a360-850ad57798c8","system_id":"levelo_inurba_marseille","lat":43.22972,"lon":5.35376,"is_reserved":false,"is_disabled":false,"rental_uris":{"android":"levelo://app?vid=f0ec5bfa-658e-402a-a360-850ad57798c8","ios":"levelo://app?vid=f0ec5bfa-658e-402a-a360-850ad57798c8"},"vehicle_type_id":"4","last_reported":1745179813,"current_range_meters":17200,"station_id":"cpo3532slgdg3j2ikp40","pricing_plan_id":"cebpf4jnsgd1na2vs0mg"},{"bike_id":"4d0c211d-cc3b-4460-a3c4-121acaf031ae","system_id":"levelo_inurba_marseille","lat":43.33722,"lon":5.39184,"is_reserved":false,"is_disabled":false,"rental_uris":{"android":"levelo://app?vid=4d0c211d-cc3b-4460-a3c4-121acaf031ae","ios":"levelo://app?vid=4d0c211d-cc3b-4460-a3c4-121acaf031ae"},"vehicle_type_id":"4","last_reported":1745179813,"current_range_meters":17200,"station_id":"ce4bhr92rcd13ifvqhsg","pricing_plan_id":"cebpf4jnsgd1na2vs0mg"},{"bike_id":"6cce8e16-e82c-4111-875e-bbef700b8890","system_id":"levelo_inurba_marseille","lat":43.2953,"lon":5.39033,"is_reserved":false,"is_disabled":false,"rental_uris":{"android":"levelo://app?vid=6cce8e16-e82c-4111-875e-bbef700b8890","ios":"levelo://app?vid=6cce8e16-e82c-4111-875e-bbef700b8890"},"vehicle_type_id":"4","last_reported":1745179813,"current_range_meters":17200,"station_id":"ce4bh3p2rcd13ifvqdp0","pricing_plan_id":"cebpf4jnsgd1na2vs0mg"},{"bike_id":"1472ee69-7a18-469a-ad90-c444da82f0e2","system_id":"levelo_inurba_marseille","lat":43.29523,"lon":5.38546,"is_reserved":false,"is_disabled":false,"rental_uris":{"android":"levelo://app?vid=1472ee69-7a18-469a-ad90-c444da82f0e2","ios":"levelo://app?vid=1472ee69-7a18-469a-ad90-c444da82f0e2"},"vehicle_type_id":"4","last_reported":1745179813,"current_range_meters":17200,"station_id":"ce4bgih2rcd13ifvqba0","pricing_plan_id":"cebpf4jnsgd1na2vs0mg"},{"bike_id":"5421f91f-c5b9-4312-b8b1-ba44221bb5c0","system_id":"levelo_inurba_marseille","lat":43.26194,"lon":5.37926,"is_reserved":false,"is_disabled":true,"rental_uris":{"android":"levelo://app?vid=5421f91f-c5b9-4312-b8b1-ba44221bb5c0","ios":"levelo://app?vid=5421f91f-c5b9-4312-b8b1-ba44221bb5c0"},"vehicle_type_id":"4","last_reported":1745179813,"current_range_meters":17200,"station_id":"ce4bhjp2rcd13ifvqg90","pricing_plan_id":"cebpf4jnsgd1na2vs0mg"},{"bike_id":"03d24903-f179-419e-a56a-ea0a3e600a13","system_id":"levelo_inurba_marseille","lat":43.25486,"lon":5.37648,"is_reserved":false,"is_disabled":true,"rental_uris":{"android":"levelo://app?vid=03d24903-f179-419e-a56a-ea0a3e600a13","ios":"levelo://app?vid=03d24903-f179-419e-a56a-ea0a3e600a13"},"vehicle_type_id":"4","last_reported":1745179813,"current_range_meters":17200,"station_id":"ce4bhh12rcd13ifvqff0","pricing_plan_id":"cebpf4jnsgd1na2vs0mg"},{"bike_id":"0000bb2d-c949-4d66-8850-83ff23fc0504","system_id":"levelo_inurba_marseille","lat":43.30818,"lon":5.38167,"is_reserved":false,"is_disabled":false,"rental_uris":{"android":"levelo://app?vid=0000bb2d-c949-4d66-8850-83ff23fc0504","ios":"levelo://app?vid=0000bb2d-c949-4d66-8850-83ff23fc0504"},"vehicle_type_id":"4","last_reported":1745179813,"current_range_meters":17200,"station_id":"ce4bgt12rcd13ifvqce0","pricing_plan_id":"cebpf4jnsgd1na2vs0mg"},{"bike_id":"a7f91fb8-2846-493f-a68f-69867197cfa1","system_id":"levelo_inurba_marseille","lat":43.33666,"lon":5.39771,"is_reserved":false,"is_disabled":false,"rental_uris":{"android":"levelo://app?vid=a7f91fb8-2846-493f-a68f-69867197cfa1","ios":"levelo://app?vid=a7f91fb8-2846-493f-a68f-69867197cfa1"},"vehicle_type_id":"4","last_reported":1745179813,"current_range_meters":17600,"station_id":"","pricing_plan_id":"cebpf4jnsgd1na2vs0mg"},{"bike_id":"fb518cf0-772f-4a68-b383-5d5eedf0cffa","system_id":"levelo_inurba_marseille","lat":43.30321,"lon":5.369,"is_reserved":false,"is_disabled":false,"rental_uris":{"android":"levelo://app?vid=fb518cf0-772f-4a68-b383-5d5eedf0cffa","ios":"levelo://app?vid=fb518cf0-772f-4a68-b383-5d5eedf0cffa"},"vehicle_type_id":"4","last_reported":1745179813,"current_range_meters":17600,"station_id":"ce4bgqh2rcd13ifvqc5g","pricing_plan_id":"cebpf4jnsgd1na2vs0mg"},{"bike_id":"7f85cb0c-933e-490b-a0c3-bfacab605268","system_id":"levelo_inurba_marseille","lat":43.28853,"lon":5.35979,"is_reserved":false,"is_disabled":true,"rental_uris":{"android":"levelo://app?vid=7f85cb0c-933e-490b-a0c3-bfacab605268","ios":"levelo://app?vid=7f85cb0c-933e-490b-a0c3-bfacab605268"},"vehicle_type_id":"4","last_reported":1745179813,"current_range_meters":17600,"station_id":"","pricing_plan_id":"cebpf4jnsgd1na2vs0mg"},{"bike_id":"6aa46128-eb42-4fd4-97ab-7cd26ec877ac","system_id":"levelo_inurba_marseille","lat":43.30582,"lon":5.39351,"is_reserved":false,"is_disabled":false,"rental_uris":{"android":"levelo://app?vid=6aa46128-eb42-4fd4-97ab-7cd26ec877ac","ios":"levelo://app?vid=6aa46128-eb42-4fd4-97ab-7cd26ec877ac"},"vehicle_type_id":"4","last_reported":1745179813,"current_range_meters":17600,"station_id":"ce4bh0p2rcd13ifvqd80","pricing_plan_id":"cebpf4jnsgd1na2vs0mg"},{"bike_id":"49e44546-d950-48d4-81ad-6ad303d08980","system_id":"levelo_inurba_marseille","lat":43.21756,"lon":5.34597,"is_reserved":false,"is_disabled":true,"rental_uris":{"android":"levelo://app?vid=49e44546-d950-48d4-81ad-6ad303d08980","ios":"levelo://app?vid=49e44546-d950-48d4-81ad-6ad303d08980"},"vehicle_type_id":"4","last_reported":1745179813,"current_range_meters":17600,"station_id":"","pricing_plan_id":"cebpf4jnsgd1na2vs0mg"},{"bike_id":"820f62be-9c86-4ba0-b470-a6efb3442528","system_id":"levelo_inurba_marseille","lat":43.24083,"lon":5.37748,"is_reserved":false,"is_disabled":true,"rental_uris":{"android":"levelo://app?vid=820f62be-9c86-4ba0-b470-a6efb3442528","ios":"levelo://app?vid=820f62be-9c86-4ba0-b470-a6efb3442528"},"vehicle_type_id":"4","last_reported":1745179813,"current_range_meters":17600,"station_id":"ce4bhnp2rcd13ifvqgvg","pricing_plan_id":"cebpf4jnsgd1na2vs0mg"},{"bike_id":"54547122-c9e3-44aa-92d3-ee29b2aa8445","system_id":"levelo_inurba_marseille","lat":43.28408,"lon":5.35005,"is_reserved":false,"is_disabled":true,"rental_uris":{"android":"levelo://app?vid=54547122-c9e3-44aa-92d3-ee29b2aa8445","ios":"levelo://app?vid=54547122-c9e3-44aa-92d3-ee29b2aa8445"},"vehicle_type_id":"4","last_reported":1745179813,"current_range_meters":17600,"station_id":"ce4bhbh2rcd13ifvqepg","pricing_plan_id":"cebpf4jnsgd1na2vs0mg"},{"bike_id":"b27a9d1c-abb4-43c8-8463-09cd46049d42","system_id":"levelo_inurba_marseille","lat":43.26198,"lon":5.37467,"is_reserved":false,"is_disabled":true,"rental_uris":{"android":"levelo://app?vid=b27a9d1c-abb4-43c8-8463-09cd46049d42","ios":"levelo://app?vid=b27a9d1c-abb4-43c8-8463-09cd46049d42"},"vehicle_type_id":"4","last_reported":1745179813,"current_range_meters":17600,"station_id":"ce4bhgp2rcd13ifvqfc0","pricing_plan_id":"cebpf4jnsgd1na2vs0mg"},{"bike_id":"dbaaf1ea-ade8-4f5f-b915-d93153091b62","system_id":"levelo_inurba_marseille","lat":43.25543,"lon":5.38255,"is_reserved":false,"is_disabled":false,"rental_uris":{"android":"levelo://app?vid=dbaaf1ea-ade8-4f5f-b915-d93153091b62","ios":"levelo://app?vid=dbaaf1ea-ade8-4f5f-b915-d93153091b62"},"vehicle_type_id":"4","last_reported":1745179813,"current_range_meters":17600,"station_id":"ce4bhih2rcd13ifvqfs0","pricing_plan_id":"cebpf4jnsgd1na2vs0mg"},{"bike_id":"608afa2a-e3df-4335-ae2c-e8de6a01e0fb","system_id":"levelo_inurba_marseille","lat":43.24972,"lon":5.38909,"is_reserved":false,"is_disabled":false,"rental_uris":{"android":"levelo://app?vid=608afa2a-e3df-4335-ae2c-e8de6a01e0fb","ios":"levelo://app?vid=608afa2a-e3df-4335-ae2c-e8de6a01e0fb"},"vehicle_type_id":"4","last_reported":1745179813,"current_range_meters":17600,"station_id":"ce4bhgp2rcd13ifvqfd0","pricing_plan_id":"cebpf4jnsgd1na2vs0mg"},{"bike_id":"e35569da-12d5-46cb-8ce6-ffed01b0bb61","system_id":"levelo_inurba_marseille","lat":43.33018,"lon":5.3906,"is_reserved":false,"is_disabled":false,"rental_uris":{"android":"levelo://app?vid=e35569da-12d5-46cb-8ce6-ffed01b0bb61","ios":"levelo://app?vid=e35569da-12d5-46cb-8ce6-ffed01b0bb61"},"vehicle_type_id":"4","last_reported":1745179813,"current_range_meters":17600,"station_id":"ce4bhr92rcd13ifvqhrg","pricing_plan_id":"cebpf4jnsgd1na2vs0mg"},{"bike_id":"b8cd5422-1e24-48d1-bc5d-5f973732c00b","system_id":"levelo_inurba_marseille","lat":43.23193,"lon":5.3553,"is_reserved":false,"is_disabled":false,"rental_uris":{"android":"levelo://app?vid=b8cd5422-1e24-48d1-bc5d-5f973732c00b","ios":"levelo://app?vid=b8cd5422-1e24-48d1-bc5d-5f973732c00b"},"vehicle_type_id":"4","last_reported":1745179813,"current_range_meters":17600,"station_id":"ce4bhu92rcd13ifvqi70","pricing_plan_id":"cebpf4jnsgd1na2vs0mg"},{"bike_id":"fb280366-7e39-420e-8421-e31efce2d3b1","system_id":"levelo_inurba_marseille","lat":43.28696,"lon":5.37389,"is_reserved":false,"is_disabled":false,"rental_uris":{"android":"levelo://app?vid=fb280366-7e39-420e-8421-e31efce2d3b1","ios":"levelo://app?vid=fb280366-7e39-420e-8421-e31efce2d3b1"},"vehicle_type_id":"4","last_reported":1745179813,"current_range_meters":18000,"station_id":"ce4bh3p2rcd13ifvqdq0","pricing_plan_id":"cebpf4jnsgd1na2vs0mg"},{"bike_id":"40509149-37ed-4bff-8337-24743f989815","system_id":"levelo_inurba_marseille","lat":43.29573,"lon":5.37497,"is_reserved":false,"is_disabled":false,"rental_uris":{"android":"levelo://app?vid=40509149-37ed-4bff-8337-24743f989815","ios":"levelo://app?vid=40509149-37ed-4bff-8337-24743f989815"},"vehicle_type_id":"4","last_reported":1745179813,"current_range_meters":18000,"station_id":"ce4bgh92rcd13ifvqb50","pricing_plan_id":"cebpf4jnsgd1na2vs0mg"},{"bike_id":"2b9dc3a3-9ca1-4379-9bb7-4b8dbd4e17cf","system_id":"levelo_inurba_marseille","lat":43.23981,"lon":5.36608,"is_reserved":false,"is_disabled":true,"rental_uris":{"android":"levelo://app?vid=2b9dc3a3-9ca1-4379-9bb7-4b8dbd4e17cf","ios":"levelo://app?vid=2b9dc3a3-9ca1-4379-9bb7-4b8dbd4e17cf"},"vehicle_type_id":"4","last_reported":1745179813,"current_range_meters":18000,"station_id":"ce4bhi12rcd13ifvqfp0","pricing_plan_id":"cebpf4jnsgd1na2vs0mg"},{"bike_id":"af5ba08c-0730-4dda-a43c-3e08ff505b3c","system_id":"levelo_inurba_marseille","lat":43.231978,"lon":5.355546,"is_reserved":false,"is_disabled":false,"rental_uris":{"android":"levelo://app?vid=af5ba08c-0730-4dda-a43c-3e08ff505b3c","ios":"levelo://app?vid=af5ba08c-0730-4dda-a43c-3e08ff505b3c"},"vehicle_type_id":"4","last_reported":1745179813,"current_range_meters":18000,"station_id":"ce4bhu92rcd13ifvqi70","pricing_plan_id":"cebpf4jnsgd1na2vs0mg"},{"bike_id":"2e62bd50-8ce6-4b79-8517-7402c9904232","system_id":"levelo_inurba_marseille","lat":43.23184,"lon":5.39988,"is_reserved":false,"is_disabled":false,"rental_uris":{"android":"levelo://app?vid=2e62bd50-8ce6-4b79-8517-7402c9904232","ios":"levelo://app?vid=2e62bd50-8ce6-4b79-8517-7402c9904232"},"vehicle_type_id":"4","last_reported":1745179813,"current_range_meters":18000,"station_id":"ce4bhn12rcd13ifvqgqg","pricing_plan_id":"cebpf4jnsgd1na2vs0mg"},{"bike_id":"dd97ac6e-46e0-4759-98db-840330173a57","system_id":"levelo_inurba_marseille","lat":43.29415,"lon":5.38618,"is_reserved":false,"is_disabled":false,"rental_uris":{"android":"levelo://app?vid=dd97ac6e-46e0-4759-98db-840330173a57","ios":"levelo://app?vid=dd97ac6e-46e0-4759-98db-840330173a57"},"vehicle_type_id":"4","last_reported":1745179813,"current_range_meters":18000,"station_id":"ce4bh2h2rcd13ifvqdh0","pricing_plan_id":"cebpf4jnsgd1na2vs0mg"},{"bike_id":"788ef9d3-8692-48a2-904c-394a6cb97e1c","system_id":"levelo_inurba_marseille","lat":43.28414,"lon":5.34999,"is_reserved":false,"is_disabled":false,"rental_uris":{"android":"levelo://app?vid=788ef9d3-8692-48a2-904c-394a6cb97e1c","ios":"levelo://app?vid=788ef9d3-8692-48a2-904c-394a6cb97e1c"},"vehicle_type_id":"4","last_reported":1745179813,"current_range_meters":18000,"station_id":"ce4bhbh2rcd13ifvqepg","pricing_plan_id":"cebpf4jnsgd1na2vs0mg"},{"bike_id":"68501225-8cea-4f95-ae47-484785f78e68","system_id":"levelo_inurba_marseille","lat":43.32391,"lon":5.38876,"is_reserved":false,"is_disabled":true,"rental_uris":{"android":"levelo://app?vid=68501225-8cea-4f95-ae47-484785f78e68","ios":"levelo://app?vid=68501225-8cea-4f95-ae47-484785f78e68"},"vehicle_type_id":"4","last_reported":1745179813,"current_range_meters":18000,"station_id":"ce4bhqp2rcd13ifvqhog","pricing_plan_id":"cebpf4jnsgd1na2vs0mg"},{"bike_id":"4dbb92c2-4144-4f16-a7bc-ce7dcbc525e9","system_id":"levelo_inurba_marseille","lat":43.29585,"lon":5.38107,"is_reserved":false,"is_disabled":false,"rental_uris":{"android":"levelo://app?vid=4dbb92c2-4144-4f16-a7bc-ce7dcbc525e9","ios":"levelo://app?vid=4dbb92c2-4144-4f16-a7bc-ce7dcbc525e9"},"vehicle_type_id":"4","last_reported":1745179813,"current_range_meters":18000,"station_id":"ce4bgl12rcd13ifvqbo0","pricing_plan_id":"cebpf4jnsgd1na2vs0mg"},{"bike_id":"f5082407-ad9f-416d-b3f3-a40cd04bfde3","system_id":"levelo_inurba_marseille","lat":43.230135,"lon":5.35482,"is_reserved":false,"is_disabled":false,"rental_uris":{"android":"levelo://app?vid=f5082407-ad9f-416d-b3f3-a40cd04bfde3","ios":"levelo://app?vid=f5082407-ad9f-416d-b3f3-a40cd04bfde3"},"vehicle_type_id":"4","last_reported":1745179813,"current_range_meters":18000,"station_id":"cpo3342slgdg3j2ifvpg","pricing_plan_id":"cebpf4jnsgd1na2vs0mg"},{"bike_id":"3e7d18a7-9988-4127-ac36-51845ec9f1dd","system_id":"levelo_inurba_marseille","lat":43.29519,"lon":5.3941,"is_reserved":false,"is_disabled":false,"rental_uris":{"android":"levelo://app?vid=3e7d18a7-9988-4127-ac36-51845ec9f1dd","ios":"levelo://app?vid=3e7d18a7-9988-4127-ac36-51845ec9f1dd"},"vehicle_type_id":"4","last_reported":1745179813,"current_range_meters":18000,"station_id":"ce4bh292rcd13ifvqdf0","pricing_plan_id":"cebpf4jnsgd1na2vs0mg"},{"bike_id":"0df66e0a-9fc8-4b65-8ac4-cdbc9cef329a","system_id":"levelo_inurba_marseille","lat":43.310889,"lon":5.38364,"is_reserved":false,"is_disabled":true,"rental_uris":{"android":"levelo://app?vid=0df66e0a-9fc8-4b65-8ac4-cdbc9cef329a","ios":"levelo://app?vid=0df66e0a-9fc8-4b65-8ac4-cdbc9cef329a"},"vehicle_type_id":"4","last_reported":1745179813,"current_range_meters":18000,"station_id":"ce4bgv92rcd13ifvqcr0","pricing_plan_id":"cebpf4jnsgd1na2vs0mg"},{"bike_id":"708a791d-3040-4b21-8706-33329d812143","system_id":"levelo_inurba_marseille","lat":43.30686,"lon":5.39254,"is_reserved":false,"is_disabled":true,"rental_uris":{"android":"levelo://app?vid=708a791d-3040-4b21-8706-33329d812143","ios":"levelo://app?vid=708a791d-3040-4b21-8706-33329d812143"},"vehicle_type_id":"4","last_reported":1745179813,"current_range_meters":18000,"station_id":"","pricing_plan_id":"cebpf4jnsgd1na2vs0mg"},{"bike_id":"69d64955-e8a7-487b-b5b2-fbcb61ca43c7","system_id":"levelo_inurba_marseille","lat":43.29522,"lon":5.38552,"is_reserved":false,"is_disabled":false,"rental_uris":{"android":"levelo://app?vid=69d64955-e8a7-487b-b5b2-fbcb61ca43c7","ios":"levelo://app?vid=69d64955-e8a7-487b-b5b2-fbcb61ca43c7"},"vehicle_type_id":"4","last_reported":1745179813,"current_range_meters":18000,"station_id":"ce4bgih2rcd13ifvqba0","pricing_plan_id":"cebpf4jnsgd1na2vs0mg"},{"bike_id":"2b22eb8e-177c-4ead-8259-66e572a51a0a","system_id":"levelo_inurba_marseille","lat":43.30926,"lon":5.40142,"is_reserved":false,"is_disabled":false,"rental_uris":{"android":"levelo://app?vid=2b22eb8e-177c-4ead-8259-66e572a51a0a","ios":"levelo://app?vid=2b22eb8e-177c-4ead-8259-66e572a51a0a"},"vehicle_type_id":"4","last_reported":1745179813,"current_range_meters":18000,"station_id":"ce4bgvp2rcd13ifvqct0","pricing_plan_id":"cebpf4jnsgd1na2vs0mg"},{"bike_id":"76453cd1-7d95-428f-9fac-4fd01a322ba9","system_id":"levelo_inurba_marseille","lat":43.29008,"lon":5.35614,"is_reserved":false,"is_disabled":true,"rental_uris":{"android":"levelo://app?vid=76453cd1-7d95-428f-9fac-4fd01a322ba9","ios":"levelo://app?vid=76453cd1-7d95-428f-9fac-4fd01a322ba9"},"vehicle_type_id":"4","last_reported":1745179813,"current_range_meters":18800,"station_id":"ce4bhb92rcd13ifvqen0","pricing_plan_id":"cebpf4jnsgd1na2vs0mg"},{"bike_id":"1c0fcaac-2744-4bf9-97cd-54cf04cb6c64","system_id":"levelo_inurba_marseille","lat":43.30417,"lon":5.39746,"is_reserved":false,"is_disabled":false,"rental_uris":{"android":"levelo://app?vid=1c0fcaac-2744-4bf9-97cd-54cf04cb6c64","ios":"levelo://app?vid=1c0fcaac-2744-4bf9-97cd-54cf04cb6c64"},"vehicle_type_id":"4","last_reported":1745179813,"current_range_meters":18800,"station_id":"ce4bh092rcd13ifvqd20","pricing_plan_id":"cebpf4jnsgd1na2vs0mg"},{"bike_id":"948d5a35-9c81-459d-880f-1bf6fdb9262c","system_id":"levelo_inurba_marseille","lat":43.337661,"lon":5.374663,"is_reserved":false,"is_disabled":false,"rental_uris":{"android":"levelo://app?vid=948d5a35-9c81-459d-880f-1bf6fdb9262c","ios":"levelo://app?vid=948d5a35-9c81-459d-880f-1bf6fdb9262c"},"vehicle_type_id":"4","last_reported":1745179813,"current_range_meters":18800,"station_id":"","pricing_plan_id":"cebpf4jnsgd1na2vs0mg"},{"bike_id":"499452a3-ebd6-4c24-ad8c-4743ba5b2035","system_id":"levelo_inurba_marseille","lat":43.2846,"lon":5.35881,"is_reserved":false,"is_disabled":false,"rental_uris":{"android":"levelo://app?vid=499452a3-ebd6-4c24-ad8c-4743ba5b2035","ios":"levelo://app?vid=499452a3-ebd6-4c24-ad8c-4743ba5b2035"},"vehicle_type_id":"4","last_reported":1745179813,"current_range_meters":18800,"station_id":"ce4bhah2rcd13ifvqei0","pricing_plan_id":"cebpf4jnsgd1na2vs0mg"},{"bike_id":"9d920290-0075-4692-a2c7-cfe914a2f69f","system_id":"levelo_inurba_marseille","lat":43.28426,"lon":5.37538,"is_reserved":false,"is_disabled":false,"rental_uris":{"android":"levelo://app?vid=9d920290-0075-4692-a2c7-cfe914a2f69f","ios":"levelo://app?vid=9d920290-0075-4692-a2c7-cfe914a2f69f"},"vehicle_type_id":"4","last_reported":1745179813,"current_range_meters":18800,"station_id":"ce4bh412rcd13ifvqds0","pricing_plan_id":"cebpf4jnsgd1na2vs0mg"},{"bike_id":"90ce21df-5f7c-4551-a99a-0900c11e065d","system_id":"levelo_inurba_marseille","lat":43.28369,"lon":5.41855,"is_reserved":false,"is_disabled":false,"rental_uris":{"android":"levelo://app?vid=90ce21df-5f7c-4551-a99a-0900c11e065d","ios":"levelo://app?vid=90ce21df-5f7c-4551-a99a-0900c11e065d"},"vehicle_type_id":"4","last_reported":1745179813,"current_range_meters":19200,"station_id":"","pricing_plan_id":"cebpf4jnsgd1na2vs0mg"},{"bike_id":"fde32162-a627-4dd3-bd27-da9187805f72","system_id":"levelo_inurba_marseille","lat":43.30424,"lon":5.38884,"is_reserved":false,"is_disabled":false,"rental_uris":{"android":"levelo://app?vid=fde32162-a627-4dd3-bd27-da9187805f72","ios":"levelo://app?vid=fde32162-a627-4dd3-bd27-da9187805f72"},"vehicle_type_id":"4","last_reported":1745179813,"current_range_meters":19200,"station_id":"ce4bgk12rcd13ifvqbi0","pricing_plan_id":"cebpf4jnsgd1na2vs0mg"},{"bike_id":"b8daf7a5-96c4-4e6b-803d-9069668d9fdc","system_id":"levelo_inurba_marseille","lat":43.30184,"lon":5.36636,"is_reserved":false,"is_disabled":false,"rental_uris":{"android":"levelo://app?vid=b8daf7a5-96c4-4e6b-803d-9069668d9fdc","ios":"levelo://app?vid=b8daf7a5-96c4-4e6b-803d-9069668d9fdc"},"vehicle_type_id":"4","last_reported":1745179813,"current_range_meters":19200,"station_id":"ce4bgrh2rcd13ifvqc8g","pricing_plan_id":"cebpf4jnsgd1na2vs0mg"},{"bike_id":"9ebb9e31-b181-4120-a985-5579f166c1c4","system_id":"levelo_inurba_marseille","lat":43.28006,"lon":5.39993,"is_reserved":false,"is_disabled":true,"rental_uris":{"android":"levelo://app?vid=9ebb9e31-b181-4120-a985-5579f166c1c4","ios":"levelo://app?vid=9ebb9e31-b181-4120-a985-5579f166c1c4"},"vehicle_type_id":"4","last_reported":1745179813,"current_range_meters":19600,"station_id":"ce4bho92rcd13ifvqh4g","pricing_plan_id":"cebpf4jnsgd1na2vs0mg"},{"bike_id":"3242031d-70ee-42c4-80dd-fc750a7fa2d1","system_id":"levelo_inurba_marseille","lat":43.33751,"lon":5.35594,"is_reserved":false,"is_disabled":false,"rental_uris":{"android":"levelo://app?vid=3242031d-70ee-42c4-80dd-fc750a7fa2d1","ios":"levelo://app?vid=3242031d-70ee-42c4-80dd-fc750a7fa2d1"},"vehicle_type_id":"4","last_reported":1745179813,"current_range_meters":19600,"station_id":"","pricing_plan_id":"cebpf4jnsgd1na2vs0mg"},{"bike_id":"e44c3cd0-a153-4da1-8715-69a867e51c8b","system_id":"levelo_inurba_marseille","lat":43.29604,"lon":5.38099,"is_reserved":false,"is_disabled":false,"rental_uris":{"android":"levelo://app?vid=e44c3cd0-a153-4da1-8715-69a867e51c8b","ios":"levelo://app?vid=e44c3cd0-a153-4da1-8715-69a867e51c8b"},"vehicle_type_id":"4","last_reported":1745179813,"current_range_meters":19600,"station_id":"ce4bgl12rcd13ifvqbo0","pricing_plan_id":"cebpf4jnsgd1na2vs0mg"},{"bike_id":"19928206-fb7a-4806-bb57-5d0451dbd3b5","system_id":"levelo_inurba_marseille","lat":43.29529,"lon":5.38538,"is_reserved":false,"is_disabled":false,"rental_uris":{"android":"levelo://app?vid=19928206-fb7a-4806-bb57-5d0451dbd3b5","ios":"levelo://app?vid=19928206-fb7a-4806-bb57-5d0451dbd3b5"},"vehicle_type_id":"4","last_reported":1745179813,"current_range_meters":19600,"station_id":"ce4bgih2rcd13ifvqba0","pricing_plan_id":"cebpf4jnsgd1na2vs0mg"},{"bike_id":"de6524b5-0d4f-4e06-ba84-338f86533b89","system_id":"levelo_inurba_marseille","lat":43.26484,"lon":5.39549,"is_reserved":false,"is_disabled":false,"rental_uris":{"android":"levelo://app?vid=de6524b5-0d4f-4e06-ba84-338f86533b89","ios":"levelo://app?vid=de6524b5-0d4f-4e06-ba84-338f86533b89"},"vehicle_type_id":"4","last_reported":1745179813,"current_range_meters":19600,"station_id":"ce4bhi12rcd13ifvqfq0","pricing_plan_id":"cebpf4jnsgd1na2vs0mg"},{"bike_id":"961e8b31-7168-4b77-b471-830ac9510468","system_id":"levelo_inurba_marseille","lat":43.30641,"lon":5.37222,"is_reserved":false,"is_disabled":false,"rental_uris":{"android":"levelo://app?vid=961e8b31-7168-4b77-b471-830ac9510468","ios":"levelo://app?vid=961e8b31-7168-4b77-b471-830ac9510468"},"vehicle_type_id":"4","last_reported":1745179813,"current_range_meters":19600,"station_id":"ce4bgqh2rcd13ifvqc4g","pricing_plan_id":"cebpf4jnsgd1na2vs0mg"},{"bike_id":"68132471-8f40-403a-a349-a061aee5c182","system_id":"levelo_inurba_marseille","lat":43.30647,"lon":5.40094,"is_reserved":false,"is_disabled":false,"rental_uris":{"android":"levelo://app?vid=68132471-8f40-403a-a349-a061aee5c182","ios":"levelo://app?vid=68132471-8f40-403a-a349-a061aee5c182"},"vehicle_type_id":"4","last_reported":1745179813,"current_range_meters":19600,"station_id":"ce4bh112rcd13ifvqda0","pricing_plan_id":"cebpf4jnsgd1na2vs0mg"},{"bike_id":"40e3eee1-9722-40a9-8abc-e6bcab30f38f","system_id":"levelo_inurba_marseille","lat":43.2993,"lon":5.36534,"is_reserved":false,"is_disabled":false,"rental_uris":{"android":"levelo://app?vid=40e3eee1-9722-40a9-8abc-e6bcab30f38f","ios":"levelo://app?vid=40e3eee1-9722-40a9-8abc-e6bcab30f38f"},"vehicle_type_id":"4","last_reported":1745179813,"current_range_meters":19600,"station_id":"ce4bgm92rcd13ifvqbr0","pricing_plan_id":"cebpf4jnsgd1na2vs0mg"},{"bike_id":"56f99e67-d079-47ed-9bb2-a7635f2b0972","system_id":"levelo_inurba_marseille","lat":43.24807,"lon":5.37456,"is_reserved":false,"is_disabled":false,"rental_uris":{"android":"levelo://app?vid=56f99e67-d079-47ed-9bb2-a7635f2b0972","ios":"levelo://app?vid=56f99e67-d079-47ed-9bb2-a7635f2b0972"},"vehicle_type_id":"4","last_reported":1745179813,"current_range_meters":19600,"station_id":"ce4bhgh2rcd13ifvqfb0","pricing_plan_id":"cebpf4jnsgd1na2vs0mg"},{"bike_id":"a691c9d3-c9d9-4cda-9ffd-2aafbe92aef0","system_id":"levelo_inurba_marseille","lat":43.28371,"lon":5.38621,"is_reserved":false,"is_disabled":false,"rental_uris":{"android":"levelo://app?vid=a691c9d3-c9d9-4cda-9ffd-2aafbe92aef0","ios":"levelo://app?vid=a691c9d3-c9d9-4cda-9ffd-2aafbe92aef0"},"vehicle_type_id":"4","last_reported":1745179813,"current_range_meters":20000,"station_id":"ce4bh492rcd13ifvqdvg","pricing_plan_id":"cebpf4jnsgd1na2vs0mg"},{"bike_id":"00ffbdc2-2962-4e85-97f2-b2875d1e2753","system_id":"levelo_inurba_marseille","lat":43.28265,"lon":5.35062,"is_reserved":false,"is_disabled":true,"rental_uris":{"android":"levelo://app?vid=00ffbdc2-2962-4e85-97f2-b2875d1e2753","ios":"levelo://app?vid=00ffbdc2-2962-4e85-97f2-b2875d1e2753"},"vehicle_type_id":"4","last_reported":1745179813,"current_range_meters":20000,"station_id":"ce4bhbp2rcd13ifvqerg","pricing_plan_id":"cebpf4jnsgd1na2vs0mg"},{"bike_id":"2ff26491-e609-41a2-a5d1-0ae253fa2ac0","system_id":"levelo_inurba_marseille","lat":43.31157,"lon":5.38703,"is_reserved":false,"is_disabled":false,"rental_uris":{"android":"levelo://app?vid=2ff26491-e609-41a2-a5d1-0ae253fa2ac0","ios":"levelo://app?vid=2ff26491-e609-41a2-a5d1-0ae253fa2ac0"},"vehicle_type_id":"4","last_reported":1745179813,"current_range_meters":20000,"station_id":"ce4bgv12rcd13ifvqcp0","pricing_plan_id":"cebpf4jnsgd1na2vs0mg"},{"bike_id":"b1cbbde4-1469-43dd-bb73-72ae57c3c87e","system_id":"levelo_inurba_marseille","lat":43.25509,"lon":5.37647,"is_reserved":false,"is_disabled":false,"rental_uris":{"android":"levelo://app?vid=b1cbbde4-1469-43dd-bb73-72ae57c3c87e","ios":"levelo://app?vid=b1cbbde4-1469-43dd-bb73-72ae57c3c87e"},"vehicle_type_id":"4","last_reported":1745179813,"current_range_meters":20000,"station_id":"ce4bhh12rcd13ifvqff0","pricing_plan_id":"cebpf4jnsgd1na2vs0mg"},{"bike_id":"5c7908e9-4b49-4db5-986a-b22ba9cd045c","system_id":"levelo_inurba_marseille","lat":43.29255,"lon":5.40902,"is_reserved":false,"is_disabled":false,"rental_uris":{"android":"levelo://app?vid=5c7908e9-4b49-4db5-986a-b22ba9cd045c","ios":"levelo://app?vid=5c7908e9-4b49-4db5-986a-b22ba9cd045c"},"vehicle_type_id":"4","last_reported":1745179813,"current_range_meters":20000,"station_id":"ce4bh192rcd13ifvqdc0","pricing_plan_id":"cebpf4jnsgd1na2vs0mg"},{"bike_id":"bec7e6aa-79e1-4c11-aaac-a64206471eea","system_id":"levelo_inurba_marseille","lat":43.30414,"lon":5.41282,"is_reserved":false,"is_disabled":false,"rental_uris":{"android":"levelo://app?vid=bec7e6aa-79e1-4c11-aaac-a64206471eea","ios":"levelo://app?vid=bec7e6aa-79e1-4c11-aaac-a64206471eea"},"vehicle_type_id":"4","last_reported":1745179813,"current_range_meters":20400,"station_id":"ce4bhop2rcd13ifvqh8g","pricing_plan_id":"cebpf4jnsgd1na2vs0mg"},{"bike_id":"64c1e03b-2971-4be3-b430-369489f10b8e","system_id":"levelo_inurba_marseille","lat":43.29286,"lon":5.37431,"is_reserved":false,"is_disabled":true,"rental_uris":{"android":"levelo://app?vid=64c1e03b-2971-4be3-b430-369489f10b8e","ios":"levelo://app?vid=64c1e03b-2971-4be3-b430-369489f10b8e"},"vehicle_type_id":"4","last_reported":1745179813,"current_range_meters":20400,"station_id":"ce4bgi12rcd13ifvqb70","pricing_plan_id":"cebpf4jnsgd1na2vs0mg"},{"bike_id":"9235e989-b644-4df1-b668-556e4921b40e","system_id":"levelo_inurba_marseille","lat":43.24182,"lon":5.39702,"is_reserved":false,"is_disabled":true,"rental_uris":{"android":"levelo://app?vid=9235e989-b644-4df1-b668-556e4921b40e","ios":"levelo://app?vid=9235e989-b644-4df1-b668-556e4921b40e"},"vehicle_type_id":"4","last_reported":1745179813,"current_range_meters":20800,"station_id":"ce4bhn12rcd13ifvqgpg","pricing_plan_id":"cebpf4jnsgd1na2vs0mg"},{"bike_id":"7806dd9c-868f-4ffd-a1a9-a5b538daceb8","system_id":"levelo_inurba_marseille","lat":43.30506,"lon":5.36688,"is_reserved":false,"is_disabled":false,"rental_uris":{"android":"levelo://app?vid=7806dd9c-868f-4ffd-a1a9-a5b538daceb8","ios":"levelo://app?vid=7806dd9c-868f-4ffd-a1a9-a5b538daceb8"},"vehicle_type_id":"4","last_reported":1745179813,"current_range_meters":20800,"station_id":"","pricing_plan_id":"cebpf4jnsgd1na2vs0mg"},