{"last_updated":1687464472,"ttl":30,"version":"2.2","data":{"bikes":[{"bike_id":"6af3ddd3-abe5-4014-930d-8bc2eb738f55","system_id":"levelo_inurba_marseille","lat":43.31341,"lon":5.367098,"is_reserved":false,"is_disabled":false,"rental_uris":{"android":"levelo://app?vid=6af3ddd3-abe5-4014-930d-8bc2eb738f55","ios":"levelo://app?vid=6af3ddd3-abe5-4014-930d-8bc2eb738f55"},"vehicle_type_id":"4","last_reported":1687464473,"current_range_meters":30400,"station_id":"ce4bgr92rcd13ifvqc6g","pricing_plan_id":"free"},{"bike_id":"0550341a-124c-4d98-bbe2-ecab3fc28f99","system_id":"levelo_inurba_marseille","lat":43.313391,"lon":5.36706,"is_reserved":false,"is_disabled":false,"rental_uris":{"android":"levelo://app?vid=0550341a-124c-4d98-bbe2-ecab3fc28f99","ios":"levelo://app?vid=0550341a-124c-4d98-bbe2-ecab3fc28f99"},"vehicle_type_id":"4","last_reported":1687464473,"current_range_meters":31200,"station_id":"ce4bgr92rcd13ifvqc6g","pricing_plan_id":"free"},{"bike_id":"e174d5f0-b6c8-4dda-a820-d2e61e69de13","system_id":"levelo_inurba_marseille","lat":43.31341,"lon":5.367098,"is_reserved":false,"is_disabled":false,"rental_uris":{"android":"levelo://app?vid=e174d5f0-b6c8-4dda-a820-d2e61e69de13","ios":"levelo://app?vid=e174d5f0-b6c8-4dda-a820-d2e61e69de13"},"vehicle_type_id":"4","last_reported":1687464473,"current_range_meters":30400,"station_id":"ce4bgr92rcd13ifvqc6g","pricing_plan_id":"free"},{"bike_id":"442277db-a1b1-404f-99ca-4e553a79746d","system_id":"levelo_inurba_marseille","lat":43.31341,"lon":5.367098,"is_reserved":false,"is_disabled":false,"rental_uris":{"android":"levelo://app?vid=442277db-a1b1-404f-99ca-4e553a79746d","ios":"levelo://app?vid=442277db-a1b1-404f-99ca-4e553a79746d"},"vehicle_type_id":"4","last_reported":1687464473,"current_range_meters":31200,"station_id":"ce4bgr92rcd13ifvqc6g","pricing_plan_id":"free"},{"bike_id":"5dc666bf-f148-4c4d-ae39-69fe1328a441","system_id":"levelo_inurba_marseille","lat":43.31341,"lon":5.367098,"is_reserved":false,"is_disabled":false,"rental_uris":{"android":"levelo://app?vid=5dc666bf-f148-4c4d-ae39-69fe1328a441","ios":"levelo://app?vid=5dc666bf-f148-4c4d-ae39-69fe1328a441"},"vehicle_type_id":"4","last_reported":1687464473,"current_range_meters":30400,"station_id":"ce4bgr92rcd13ifvqc6g","pricing_plan_id":"free"},{"bike_id":"4953f328-3844-4770-9687-adbaf569325c","system_id":"levelo_inurba_marseille","lat":43.31341,"lon":5.367098,"is_reserved":false,"is_disabled":false,"rental_uris":{"android":"levelo://app?vid=4953f328-3844-4770-9687-adbaf569325c","ios":"levelo://app?vid=4953f328-3844-4770-9687-adbaf569325c"},"vehicle_type_id":"4","last_reported":1687464473,"current_range_meters":30400,"station_id":"ce4bgr92rcd13ifvqc6g","pricing_plan_id":"free"},{"bike_id":"d4332dc1-ca7f-47c1-8251-6fc28249a3b4","system_id":"levelo_inurba_marseille","lat":43.313391,"lon":5.36706,"is_reserved":false,"is_disabled":false,"rental_uris":{"android":"levelo://app?vid=d4332dc1-ca7f-47c1-8251-6fc28249a3b4","ios":"levelo://app?vid=d4332dc1-ca7f-47c1-8251-6fc28249a3b4"},"vehicle_type_id":"4","last_reported":1687464473,"current_range_meters":31200,"station_id":"ce4bgr92rcd13ifvqc6g","pricing_plan_id":"free"},{"bike_id":"830e4573-28c8-4b5a-a546-4278eb33b0a8","system_id":"levelo_inurba_marseille","lat":43.3123,"lon":5.36847,"is_reserved":false,"is_disabled":false,"rental_uris":{"android":"levelo://app?vid=830e4573-28c8-4b5a-a546-4278eb33b0a8","ios":"levelo://app?vid=830e4573-28c8-4b5a-a546-4278eb33b0a8"},"vehicle_type_id":"4","last_reported":1687464473,"current_range_meters":28800,"station_id":"ce4bgl92rcd13ifvqbq0","pricing_plan_id":"free"},{"bike_id":"da440e86-19a8-4aa4-8fb4-b80d05faee49","system_id":"levelo_inurba_marseille","lat":43.31226,"lon":5.36849,"is_reserved":false,"is_disabled":false,"rental_uris":{"android":"levelo://app?vid=da440e86-19a8-4aa4-8fb4-b80d05faee49","ios":"levelo://app?vid=da440e86-19a8-4aa4-8fb4-b80d05faee49"},"vehicle_type_id":"4","last_reported":1687464473,"current_range_meters":28000,"station_id":"ce4bgl92rcd13ifvqbq0","pricing_plan_id":"free"},{"bike_id":"12017bab-d88e-4a72-8b0c-a4e13cfa2cdd","system_id":"levelo_inurba_marseille","lat":43.31229,"lon":5.36851,"is_reserved":false,"is_disabled":false,"rental_uris":{"android":"levelo://app?vid=12017bab-d88e-4a72-8b0c-a4e13cfa2cdd","ios":"levelo://app?vid=12017bab-d88e-4a72-8b0c-a4e13cfa2cdd"},"vehicle_type_id":"4","last_reported":1687464473,"current_range_meters":31200,"station_id":"ce4bgl92rcd13ifvqbq0","pricing_plan_id":"free"},{"bike_id":"5a82247f-0294-41bb-baa7-39331108a748","system_id":"levelo_inurba_marseille","lat":43.312239,"lon":5.368562,"is_reserved":false,"is_disabled":false,"rental_uris":{"android":"levelo://app?vid=5a82247f-0294-41bb-baa7-39331108a748","ios":"levelo://app?vid=5a82247f-0294-41bb-baa7-39331108a748"},"vehicle_type_id":"4","last_reported":1687464473,"current_range_meters":800,"station_id":"ce4bgl92rcd13ifvqbq0","pricing_plan_id":"free"},{"bike_id":"d6f08658-bbc0-4d43-bd05-7a2d426a4583","system_id":"levelo_inurba_marseille","lat":43.312239,"lon":5.368562,"is_reserved":false,"is_disabled":false,"rental_uris":{"android":"levelo://app?vid=d6f08658-bbc0-4d43-bd05-7a2d426a4583","ios":"levelo://app?vid=d6f08658-bbc0-4d43-bd05-7a2d426a4583"},"vehicle_type_id":"4","last_reported":1687464473,"current_range_meters":4000,"station_id":"ce4bgl92rcd13ifvqbq0","pricing_plan_id":"free"},{"bike_id":"9000d116-43f4-4fa8-bfc2-3858a6532e98","system_id":"levelo_inurba_marseille","lat":43.31225,"lon":5.36855,"is_reserved":false,"is_disabled":false,"rental_uris":{"android":"levelo://app?vid=9000d116-43f4-4fa8-bfc2-3858a6532e98","ios":"levelo://app?vid=9000d116-43f4-4fa8-bfc2-3858a6532e98"},"vehicle_type_id":"4","last_reported":1687464473,"current_range_meters":30400,"station_id":"ce4bgl92rcd13ifvqbq0","pricing_plan_id":"free"},{"bike_id":"6077385d-d5e9-40fb-b969-818a094a8c18","system_id":"levelo_inurba_marseille","lat":43.312239,"lon":5.368562,"is_reserved":false,"is_disabled":false,"rental_uris":{"android":"levelo://app?vid=6077385d-d5e9-40fb-b969-818a094a8c18","ios":"levelo://app?vid=6077385d-d5e9-40fb-b969-818a094a8c18"},"vehicle_type_id":"4","last_reported":1687464473,"current_range_meters":27600,"station_id":"ce4bgl92rcd13ifvqbq0","pricing_plan_id":"free"},{"bike_id":"426efe8d-d974-40ba-9a46-234f7ca01b29","system_id":"levelo_inurba_marseille","lat":43.309076,"lon":5.368465,"is_reserved":false,"is_disabled":false,"rental_uris":{"android":"levelo://app?vid=426efe8d-d974-40ba-9a46-234f7ca01b29","ios":"levelo://app?vid=426efe8d-d974-40ba-9a46-234f7ca01b29"},"vehicle_type_id":"4","last_reported":1687464473,"current_range_meters":12400,"station_id":"ce4bgn92rcd13ifvqbvg","pricing_plan_id":"free"},{"bike_id":"23b94c24-41f9-4a4a-94e9-9681cfeef2a0","system_id":"levelo_inurba_marseille","lat":43.309076,"lon":5.368465,"is_reserved":false,"is_disabled":false,"rental_uris":{"android":"levelo://app?vid=23b94c24-41f9-4a4a-94e9-9681cfeef2a0","ios":"levelo://app?vid=23b94c24-41f9-4a4a-94e9-9681cfeef2a0"},"vehicle_type_id":"4","last_reported":1687464473,"current_range_meters":20000,"station_id":"ce4bgn92rcd13ifvqbvg","pricing_plan_id":"free"},{"bike_id":"dbfe3520-3432-4356-a6ad-0499adf7b8b2","system_id":"levelo_inurba_marseille","lat":43.31482,"lon":5.37306,"is_reserved":false,"is_disabled":false,"rental_uris":{"android":"levelo://app?vid=dbfe3520-3432-4356-a6ad-0499adf7b8b2","ios":"levelo://app?vid=dbfe3520-3432-4356-a6ad-0499adf7b8b2"},"vehicle_type_id":"4","last_reported":1687464473,"current_range_meters":31200,"station_id":"ce4bgt12rcd13ifvqcd0","pricing_plan_id":"free"},{"bike_id":"b5fe3601-07a8-4a0b-a035-56d424fbf38c","system_id":"levelo_inurba_marseille","lat":43.31494,"lon":5.3731,"is_reserved":false,"is_disabled":false,"rental_uris":{"android":"levelo://app?vid=b5fe3601-07a8-4a0b-a035-56d424fbf38c","ios":"levelo://app?vid=b5fe3601-07a8-4a0b-a035-56d424fbf38c"},"vehicle_type_id":"4","last_reported":1687464473,"current_range_meters":21200,"station_id":"ce4bgt12rcd13ifvqcd0","pricing_plan_id":"free"},{"bike_id":"077012c0-327a-41b7-a149-1df98069d09b","system_id":"levelo_inurba_marseille","lat":43.3151,"lon":5.37305,"is_reserved":false,"is_disabled":false,"rental_uris":{"android":"levelo://app?vid=077012c0-327a-41b7-a149-1df98069d09b","ios":"levelo://app?vid=077012c0-327a-41b7-a149-1df98069d09b"},"vehicle_type_id":"4","last_reported":1687464473,"current_range_meters":30000,"station_id":"","pricing_plan_id":"free"},{"bike_id":"ab32dd18-283b-4cae-8e2d-e2ced9b6f62c","system_id":"levelo_inurba_marseille","lat":43.308606,"lon":5.372099,"is_reserved":false,"is_disabled":false,"rental_uris":{"android":"levelo://app?vid=ab32dd18-283b-4cae-8e2d-e2ced9b6f62c","ios":"levelo://app?vid=ab32dd18-283b-4cae-8e2d-e2ced9b6f62c"},"vehicle_type_id":"4","last_reported":1687464473,"current_range_meters":4000,"station_id":"ce4bguh2rcd13ifvqckg","pricing_plan_id":"free"},{"bike_id":"e9c4accd-8d38-4929-8890-93bc25cdc726","system_id":"levelo_inurba_marseille","lat":43.308606,"lon":5.372099,"is_reserved":false,"is_disabled":false,"rental_uris":{"android":"levelo://app?vid=e9c4accd-8d38-4929-8890-93bc25cdc726","ios":"levelo://app?vid=e9c4accd-8d38-4929-8890-93bc25cdc726"},"vehicle_type_id":"4","last_reported":1687464473,"current_range_meters":800,"station_id":"ce4bguh2rcd13ifvqckg","pricing_plan_id":"free"},{"bike_id":"af02ffe4-83be-4055-b1c3-8ac53b1a8109","system_id":"levelo_inurba_marseille","lat":43.308606,"lon":5.372099,"is_reserved":false,"is_disabled":false,"rental_uris":{"android":"levelo://app?vid=af02ffe4-83be-4055-b1c3-8ac53b1a8109","ios":"levelo://app?vid=af02ffe4-83be-4055-b1c3-8ac53b1a8109"},"vehicle_type_id":"4","last_reported":1687464473,"current_range_meters":27600,"station_id":"ce4bguh2rcd13ifvqckg","pricing_plan_id":"free"},{"bike_id":"10ffac64-d2be-4181-b484-d916e75da63c","system_id":"levelo_inurba_marseille","lat":43.30886,"lon":5.37189,"is_reserved":false,"is_disabled":false,"rental_uris":{"android":"levelo://app?vid=10ffac64-d2be-4181-b484-d916e75da63c","ios":"levelo://app?vid=10ffac64-d2be-4181-b484-d916e75da63c"},"vehicle_type_id":"4","last_reported":1687464473,"current_range_meters":30000,"station_id":"","pricing_plan_id":"free"},{"bike_id":"180f9377-7647-4db1-a552-6a855fcf1d6a","system_id":"levelo_inurba_marseille","lat":43.305368,"lon":5.367343,"is_reserved":false,"is_disabled":false,"rental_uris":{"android":"levelo://app?vid=180f9377-7647-4db1-a552-6a855fcf1d6a","ios":"levelo://app?vid=180f9377-7647-4db1-a552-6a855fcf1d6a"},"vehicle_type_id":"4","last_reported":1687464473,"current_range_meters":23200,"station_id":"ce4bgrp2rcd13ifvqc9g","pricing_plan_id":"free"},{"bike_id":"7f4dbea1-b8b9-4d70-b7d4-548badc93c81","system_id":"levelo_inurba_marseille","lat":43.30531,"lon":5.36534,"is_reserved":false,"is_disabled":false,"rental_uris":{"android":"levelo://app?vid=7f4dbea1-b8b9-4d70-b7d4-548badc93c81","ios":"levelo://app?vid=7f4dbea1-b8b9-4d70-b7d4-548badc93c81"},"vehicle_type_id":"4","last_reported":1687464473,"current_range_meters":29200,"station_id":"","pricing_plan_id":"free"},{"bike_id":"d8efd172-2b72-4a96-a8a8-c6b94988a9fe","system_id":"levelo_inurba_marseille","lat":43.305989,"lon":5.37225,"is_reserved":false,"is_disabled":false,"rental_uris":{"android":"levelo://app?vid=d8efd172-2b72-4a96-a8a8-c6b94988a9fe","ios":"levelo://app?vid=d8efd172-2b72-4a96-a8a8-c6b94988a9fe"},"vehicle_type_id":"4","last_reported":1687464473,"current_range_meters":800,"station_id":"ce4bgqh2rcd13ifvqc4g","pricing_plan_id":"free"},{"bike_id":"2ab65ec6-c667-4cf2-a921-c632a638d51d","system_id":"levelo_inurba_marseille","lat":43.305989,"lon":5.37225,"is_reserved":false,"is_disabled":false,"rental_uris":{"android":"levelo://app?vid=2ab65ec6-c667-4cf2-a921-c632a638d51d","ios":"levelo://app?vid=2ab65ec6-c667-4cf2-a921-c632a638d51d"},"vehicle_type_id":"4","last_reported":1687464473,"current_range_meters":0,"station_id":"ce4bgqh2rcd13ifvqc4g","pricing_plan_id":"free"},{"bike_id":"819a209d-9422-467b-9c78-f4d3dd027db9","system_id":"levelo_inurba_marseille","lat":43.305989,"lon":5.37225,"is_reserved":false,"is_disabled":false,"rental_uris":{"android":"levelo://app?vid=819a209d-9422-467b-9c78-f4d3dd027db9","ios":"levelo://app?vid=819a209d-9422-467b-9c78-f4d3dd027db9"},"vehicle_type_id":"4","last_reported":1687464473,"current_range_meters":29200,"station_id":"ce4bgqh2rcd13ifvqc4g","pricing_plan_id":"free"},{"bike_id":"ddf8ac5f-96f3-426f-9b61-db2abf7457a8","system_id":"levelo_inurba_marseille","lat":43.311182,"lon":5.377754,"is_reserved":false,"is_disabled":false,"rental_uris":{"android":"levelo://app?vid=ddf8ac5f-96f3-426f-9b61-db2abf7457a8","ios":"levelo://app?vid=ddf8ac5f-96f3-426f-9b61-db2abf7457a8"},"vehicle_type_id":"4","last_reported":1687464473,"current_range_meters":20000,"station_id":"ce4bgt92rcd13ifvqcg0","pricing_plan_id":"free"},{"bike_id":"edeca980-6f9d-468d-a1ed-75e1f21a7fad","system_id":"levelo_inurba_marseille","lat":43.311131,"lon":5.377651,"is_reserved":false,"is_disabled":false,"rental_uris":{"android":"levelo://app?vid=edeca980-6f9d-468d-a1ed-75e1f21a7fad","ios":"levelo://app?vid=edeca980-6f9d-468d-a1ed-75e1f21a7fad"},"vehicle_type_id":"4","last_reported":1687464473,"current_range_meters":26400,"station_id":"ce4bgt92rcd13ifvqcg0","pricing_plan_id":"free"},{"bike_id":"4e58f1fe-62c3-4f4c-b07c-8d7375f42843","system_id":"levelo_inurba_marseille","lat":43.317075,"lon":5.377367,"is_reserved":false,"is_disabled":false,"rental_uris":{"android":"levelo://app?vid=4e58f1fe-62c3-4f4c-b07c-8d7375f42843","ios":"levelo://app?vid=4e58f1fe-62c3-4f4c-b07c-8d7375f42843"},"vehicle_type_id":"4","last_reported":1687464473,"current_range_meters":10000,"station_id":"ce4bgth2rcd13ifvqch0","pricing_plan_id":"free"},{"bike_id":"ff62f17a-b33a-4386-8011-c3471a978524","system_id":"levelo_inurba_marseille","lat":43.31077,"lon":5.37854,"is_reserved":false,"is_disabled":false,"rental_uris":{"android":"levelo://app?vid=ff62f17a-b33a-4386-8011-c3471a978524","ios":"levelo://app?vid=ff62f17a-b33a-4386-8011-c3471a978524"},"vehicle_type_id":"4","last_reported":1687464473,"current_range_meters":26400,"station_id":"","pricing_plan_id":"free"},{"bike_id":"2cebafeb-12a0-4cb6-83ce-4e34dcefc158","system_id":"levelo_inurba_marseille","lat":43.317075,"lon":5.377367,"is_reserved":false,"is_disabled":false,"rental_uris":{"android":"levelo://app?vid=2cebafeb-12a0-4cb6-83ce-4e34dcefc158","ios":"levelo://app?vid=2cebafeb-12a0-4cb6-83ce-4e34dcefc158"},"vehicle_type_id":"4","last_reported":1687464473,"current_range_meters":32000,"station_id":"ce4bgth2rcd13ifvqch0","pricing_plan_id":"free"},{"bike_id":"ff10af4e-ed79-41b9-a171-372351c144ba","system_id":"levelo_inurba_marseille","lat":43.317075,"lon":5.377367,"is_reserved":false,"is_disabled":false,"rental_uris":{"android":"levelo://app?vid=ff10af4e-ed79-41b9-a171-372351c144ba","ios":"levelo://app?vid=ff10af4e-ed79-41b9-a171-372351c144ba"},"vehicle_type_id":"4","last_reported":1687464473,"current_range_meters":31600,"station_id":"ce4bgth2rcd13ifvqch0","pricing_plan_id":"free"},{"bike_id":"0ef3d502-9741-4174-ad8b-cdbf4d01f3c9","system_id":"levelo_inurba_marseille","lat":43.303046,"lon":5.368981,"is_reserved":false,"is_disabled":false,"rental_uris":{"android":"levelo://app?vid=0ef3d502-9741-4174-ad8b-cdbf4d01f3c9","ios":"levelo://app?vid=0ef3d502-9741-4174-ad8b-cdbf4d01f3c9"},"vehicle_type_id":"4","last_reported":1687464473,"current_range_meters":9600,"station_id":"ce4bgqh2rcd13ifvqc5g","pricing_plan_id":"free"},{"bike_id":"0fa69728-87cb-405b-8ee4-863d9e39750d","system_id":"levelo_inurba_marseille","lat":43.303046,"lon":5.368981,"is_reserved":false,"is_disabled":false,"rental_uris":{"android":"levelo://app?vid=0fa69728-87cb-405b-8ee4-863d9e39750d","ios":"levelo://app?vid=0fa69728-87cb-405b-8ee4-863d9e39750d"},"vehicle_type_id":"4","last_reported":1687464473,"current_range_meters":31200,"station_id":"ce4bgqh2rcd13ifvqc5g","pricing_plan_id":"free"},{"bike_id":"f52ebd9f-c426-4dab-b046-38f4966bec86","system_id":"levelo_inurba_marseille","lat":43.303046,"lon":5.368981,"is_reserved":false,"is_disabled":false,"rental_uris":{"android":"levelo://app?vid=f52ebd9f-c426-4dab-b046-38f4966bec86","ios":"levelo://app?vid=f52ebd9f-c426-4dab-b046-38f4966bec86"},"vehicle_type_id":"4","last_reported":1687464473,"current_range_meters":19200,"station_id":"ce4bgqh2rcd13ifvqc5g","pricing_plan_id":"free"},{"bike_id":"cf7014bc-49c1-465b-a116-1efbbe1210c8","system_id":"levelo_inurba_marseille","lat":43.31532,"lon":5.38015,"is_reserved":false,"is_disabled":false,"rental_uris":{"android":"levelo://app?vid=cf7014bc-49c1-465b-a116-1efbbe1210c8","ios":"levelo://app?vid=cf7014bc-49c1-465b-a116-1efbbe1210c8"},"vehicle_type_id":"4","last_reported":1687464473,"current_range_meters":22400,"station_id":"ce4bhsp2rcd13ifvqi50","pricing_plan_id":"free"},{"bike_id":"676544c1-d089-4ff3-ac82-440502e7e765","system_id":"levelo_inurba_marseille","lat":43.31525,"lon":5.38042,"is_reserved":false,"is_disabled":false,"rental_uris":{"android":"levelo://app?vid=676544c1-d089-4ff3-ac82-440502e7e765","ios":"levelo://app?vid=676544c1-d089-4ff3-ac82-440502e7e765"},"vehicle_type_id":"4","last_reported":1687464473,"current_range_meters":27600,"station_id":"ce4bhsp2rcd13ifvqi50","pricing_plan_id":"free"},{"bike_id":"dbb1c652-606c-4469-a58b-8a456acb80d3","system_id":"levelo_inurba_marseille","lat":43.3197,"lon":5.37829,"is_reserved":false,"is_disabled":false,"rental_uris":{"android":"levelo://app?vid=dbb1c652-606c-4469-a58b-8a456acb80d3","ios":"levelo://app?vid=dbb1c652-606c-4469-a58b-8a456acb80d3"},"vehicle_type_id":"4","last_reported":1687464473,"current_range_meters":5600,"station_id":"","pricing_plan_id":"free"},{"bike_id":"3fa4d885-48c6-4e27-a7d2-dcae5aacd676","system_id":"levelo_inurba_marseille","lat":43.301939,"lon":5.366286,"is_reserved":false,"is_disabled":false,"rental_uris":{"android":"levelo://app?vid=3fa4d885-48c6-4e27-a7d2-dcae5aacd676","ios":"levelo://app?vid=3fa4d885-48c6-4e27-a7d2-dcae5aacd676"},"vehicle_type_id":"4","last_reported":1687464473,"current_range_meters":22400,"station_id":"ce4bgrh2rcd13ifvqc8g","pricing_plan_id":"free"},{"bike_id":"c98c824a-5a21-41d7-a2b3-cfad705b7985","system_id":"levelo_inurba_marseille","lat":43.292642,"lon":5.384254,"is_reserved":false,"is_disabled":false,"rental_uris":{"android":"levelo://app?vid=c98c824a-5a21-41d7-a2b3-cfad705b7985","ios":"levelo://app?vid=c98c824a-5a21-41d7-a2b3-cfad705b7985"},"vehicle_type_id":"4","last_reported":1687464473,"current_range_meters":1200,"station_id":"ce4bh692rcd13ifvqea0","pricing_plan_id":"free"},{"bike_id":"89045eea-e64f-4127-9e9f-725c49dc1625","system_id":"levelo_inurba_marseille","lat":43.304606,"lon":5.379026,"is_reserved":false,"is_disabled":false,"rental_uris":{"android":"levelo://app?vid=89045eea-e64f-4127-9e9f-725c49dc1625","ios":"levelo://app?vid=89045eea-e64f-4127-9e9f-725c49dc1625"},"vehicle_type_id":"4","last_reported":1687464473,"current_range_meters":20800,"station_id":"ce4bgup2rcd13ifvqcn0","pricing_plan_id":"free"},{"bike_id":"43fc693e-f2a9-4aec-8fd9-d094bb02cb70","system_id":"levelo_inurba_marseille","lat":43.304606,"lon":5.379026,"is_reserved":false,"is_disabled":false,"rental_uris":{"android":"levelo://app?vid=43fc693e-f2a9-4aec-8fd9-d094bb02cb70","ios":"levelo://app?vid=43fc693e-f2a9-4aec-8fd9-d094bb02cb70"},"vehicle_type_id":"4","last_reported":1687464473,"current_range_meters":800,"station_id":"ce4bgup2rcd13ifvqcn0","pricing_plan_id":"free"},{"bike_id":"e07a87e5-1b11-414b-b3f4-27e7c89b1f7d","system_id":"levelo_inurba_marseille","lat":43.30146,"lon":5.3742,"is_reserved":false,"is_disabled":false,"rental_uris":{"android":"levelo://app?vid=e07a87e5-1b11-414b-b3f4-27e7c89b1f7d","ios":"levelo://app?vid=e07a87e5-1b11-414b-b3f4-27e7c89b1f7d"},"vehicle_type_id":"4","last_reported":1687464473,"current_range_meters":8000,"station_id":"ce4bgs92rcd13ifvqcc0","pricing_plan_id":"free"},{"bike_id":"13f6eef6-3c61-436a-ae50-d70483983bba","system_id":"levelo_inurba_marseille","lat":43.30141,"lon":5.37417,"is_reserved":false,"is_disabled":false,"rental_uris":{"android":"levelo://app?vid=13f6eef6-3c61-436a-ae50-d70483983bba","ios":"levelo://app?vid=13f6eef6-3c61-436a-ae50-d70483983bba"},"vehicle_type_id":"4","last_reported":1687464473,"current_range_meters":25200,"station_id":"ce4bgs92rcd13ifvqcc0","pricing_plan_id":"free"},{"bike_id":"7deee56c-9315-446d-9bb0-655b3a7b2977","system_id":"levelo_inurba_marseille","lat":43.319935,"lon":5.381699,"is_reserved":false,"is_disabled":false,"rental_uris":{"android":"levelo://app?vid=7deee56c-9315-446d-9bb0-655b3a7b2977","ios":"levelo://app?vid=7deee56c-9315-446d-9bb0-655b3a7b2977"},"vehicle_type_id":"4","last_reported":1687464473,"current_range_meters":4000,"station_id":"ce4bhr12rcd13ifvqhpg","pricing_plan_id":"free"},{"bike_id":"dd0223fc-e3b2-4277-9a36-68031be99e8b","system_id":"levelo_inurba_marseille","lat":43.319935,"lon":5.381699,"is_reserved":false,"is_disabled":false,"rental_uris":{"android":"levelo://app?vid=dd0223fc-e3b2-4277-9a36-68031be99e8b","ios":"levelo://app?vid=dd0223fc-e3b2-4277-9a36-68031be99e8b"},"vehicle_type_id":"4","last_reported":1687464473,"current_range_meters":12400,"station_id":"ce4bhr12rcd13ifvqhpg","pricing_plan_id":"free"},{"bike_id":"2b477804-59d6-4ed2-b858-3f9e3c0f0764","system_id":"levelo_inurba_marseille","lat":43.319935,"lon":5.381699,"is_reserved":false,"is_disabled":false,"rental_uris":{"android":"levelo://app?vid=2b477804-59d6-4ed2-b858-3f9e3c0f0764","ios":"levelo://app?vid=2b477804-59d6-4ed2-b858-3f9e3c0f0764"},"vehicle_type_id":"4","last_reported":1687464473,"current_range_meters":2400,"station_id":"ce4bhr12rcd13ifvqhpg","pricing_plan_id":"free"},{"bike_id":"92538564-9a96-4b88-8b68-43fc527fd3b1","system_id":"levelo_inurba_marseille","lat":43.319935,"lon":5.381699,"is_reserved":false,"is_disabled":false,"rental_uris":{"android":"levelo://app?vid=92538564-9a96-4b88-8b68-43fc527fd3b1","ios":"levelo://app?vid=92538564-9a96-4b88-8b68-43fc527fd3b1"},"vehicle_type_id":"4","last_reported":1687464473,"current_range_meters":22000,"station_id":"ce4bhr12rcd13ifvqhpg","pricing_plan_id":"free"},{"bike_id":"fc36b020-a0fa-4ea1-b73a-1b3b927113fc","system_id":"levelo_inurba_marseille","lat":43.319935,"lon":5.381699,"is_reserved":false,"is_disabled":false,"rental_uris":{"android":"levelo://app?vid=fc36b020-a0fa-4ea1-b73a-1b3b927113fc","ios":"levelo://app?vid=fc36b020-a0fa-4ea1-b73a-1b3b927113fc"},"vehicle_type_id":"4","last_reported":1687464473,"current_range_meters":23200,"station_id":"ce4bhr12rcd13ifvqhpg","pricing_plan_id":"free"},{"bike_id":"cc7ccaed-aeac-4fb6-a249-e3eec1cb8751","system_id":"levelo_inurba_marseille","lat":43.32225,"lon":5.37898,"is_reserved":false,"is_disabled":false,"rental_uris":{"android":"levelo://app?vid=cc7ccaed-aeac-4fb6-a249-e3eec1cb8751","ios":"levelo://app?vid=cc7ccaed-aeac-4fb6-a249-e3eec1cb8751"},"vehicle_type_id":"4","last_reported":1687464473,"current_range_meters":30000,"station_id":"","pricing_plan_id":"free"},{"bike_id":"b936f8e9-dc3a-4ecb-8c65-d10db5b9f8f4","system_id":"levelo_inurba_marseille","lat":43.29938,"lon":5.36541,"is_reserved":false,"is_disabled":false,"rental_uris":{"android":"levelo://app?vid=b936f8e9-dc3a-4ecb-8c65-d10db5b9f8f4","ios":"levelo://app?vid=b936f8e9-dc3a-4ecb-8c65-d10db5b9f8f4"},"vehicle_type_id":"4","last_reported":1687464473,"current_range_meters":30400,"station_id":"ce4bgm92rcd13ifvqbr0","pricing_plan_id":"free"},{"bike_id":"06c37c7b-f5c7-42fa-afe9-5605ef8c7235","system_id":"levelo_inurba_marseille","lat":43.299222,"lon":5.365554,"is_reserved":false,"is_disabled":false,"rental_uris":{"android":"levelo://app?vid=06c37c7b-f5c7-42fa-afe9-5605ef8c7235","ios":"levelo://app?vid=06c37c7b-f5c7-42fa-afe9-5605ef8c7235"},"vehicle_type_id":"4","last_reported":1687464473,"current_range_meters":0,"station_id":"ce4bgm92rcd13ifvqbr0","pricing_plan_id":"free"},{"bike_id":"8a008e68-da4c-476e-9c2d-08caa6e01029","system_id":"levelo_inurba_marseille","lat":43.298433,"lon":5.362774,"is_reserved":false,"is_disabled":false,"rental_uris":{"android":"levelo://app?vid=8a008e68-da4c-476e-9c2d-08caa6e01029","ios":"levelo://app?vid=8a008e68-da4c-476e-9c2d-08caa6e01029"},"vehicle_type_id":"4","last_reported":1687464473,"current_range_meters":29600,"station_id":"ce4bgpp2rcd13ifvqc3g","pricing_plan_id":"free"},{"bike_id":"e6ea61d5-da20-4ad2-b344-94c2975133fa","system_id":"levelo_inurba_marseille","lat":43.32285,"lon":5.38177,"is_reserved":false,"is_disabled":false,"rental_uris":{"android":"levelo://app?vid=e6ea61d5-da20-4ad2-b344-94c2975133fa","ios":"levelo://app?vid=e6ea61d5-da20-4ad2-b344-94c2975133fa"},"vehicle_type_id":"4","last_reported":1687464473,"current_range_meters":0,"station_id":"","pricing_plan_id":"free"},{"bike_id":"79a76413-f121-4be0-ad62-797afb1dc643","system_id":"levelo_inurba_marseille","lat":43.311722,"lon":5.387247,"is_reserved":false,"is_disabled":false,"rental_uris":{"android":"levelo://app?vid=79a76413-f121-4be0-ad62-797afb1dc643","ios":"levelo://app?vid=79a76413-f121-4be0-ad62-797afb1dc643"},"vehicle_type_id":"4","last_reported":1687464473,"current_range_meters":16800,"station_id":"ce4bgv12rcd13ifvqcp0","pricing_plan_id":"free"},{"bike_id":"b8ff6f3d-690e-4b98-9d45-08c895fbcfbe","system_id":"levelo_inurba_marseille","lat":43.297774,"lon":5.370875,"is_reserved":false,"is_disabled":false,"rental_uris":{"android":"levelo://app?vid=b8ff6f3d-690e-4b98-9d45-08c895fbcfbe","ios":"levelo://app?vid=b8ff6f3d-690e-4b98-9d45-08c895fbcfbe"},"vehicle_type_id":"4","last_reported":1687464473,"current_range_meters":9600,"station_id":"ce4bgop2rcd13ifvqc1g","pricing_plan_id":"free"},{"bike_id":"443f1573-f529-4573-b1b3-d4b27f89e685","system_id":"levelo_inurba_marseille","lat":43.297794,"lon":5.370888,"is_reserved":false,"is_disabled":false,"rental_uris":{"android":"levelo://app?vid=443f1573-f529-4573-b1b3-d4b27f89e685","ios":"levelo://app?vid=443f1573-f529-4573-b1b3-d4b27f89e685"},"vehicle_type_id":"4","last_reported":1687464473,"current_range_meters":9200,"station_id":"ce4bgop2rcd13ifvqc1g","pricing_plan_id":"free"},{"bike_id":"41235149-f42e-4673-9d1a-055ac92c3df6","system_id":"levelo_inurba_marseille","lat":43.32829,"lon":5.36688,"is_reserved":false,"is_disabled":false,"rental_uris":{"android":"levelo://app?vid=41235149-f42e-4673-9d1a-055ac92c3df6","ios":"levelo://app?vid=41235149-f42e-4673-9d1a-055ac92c3df6"},"vehicle_type_id":"4","last_reported":1687464473,"current_range_meters":28400,"station_id":"ce4bhs92rcd13ifvqi0g","pricing_plan_id":"free"},{"bike_id":"41fc9504-25fb-4da5-847f-b8e1feb4faa7","system_id":"levelo_inurba_marseille","lat":43.32832,"lon":5.36693,"is_reserved":false,"is_disabled":false,"rental_uris":{"android":"levelo://app?vid=41fc9504-25fb-4da5-847f-b8e1feb4faa7","ios":"levelo://app?vid=41fc9504-25fb-4da5-847f-b8e1feb4faa7"},"vehicle_type_id":"4","last_reported":1687464473,"current_range_meters":0,"station_id":"ce4bhs92rcd13ifvqi0g","pricing_plan_id":"free"},{"bike_id":"29faaac2-e1e9-4020-bb5f-a24184ad773e","system_id":"levelo_inurba_marseille","lat":43.297163,"lon":5.365866,"is_reserved":false,"is_disabled":false,"rental_uris":{"android":"levelo://app?vid=29faaac2-e1e9-4020-bb5f-a24184ad773e","ios":"levelo://app?vid=29faaac2-e1e9-4020-bb5f-a24184ad773e"},"vehicle_type_id":"4","last_reported":1687464473,"current_range_meters":14000,"station_id":"ce4bgn12rcd13ifvqbt0","pricing_plan_id":"free"},{"bike_id":"d6aa4b8f-0fbd-492f-a726-f1b64033634e","system_id":"levelo_inurba_marseille","lat":43.29718,"lon":5.364,"is_reserved":false,"is_disabled":false,"rental_uris":{"android":"levelo://app?vid=d6aa4b8f-0fbd-492f-a726-f1b64033634e","ios":"levelo://app?vid=d6aa4b8f-0fbd-492f-a726-f1b64033634e"},"vehicle_type_id":"4","last_reported":1687464473,"current_range_meters":14000,"station_id":"","pricing_plan_id":"free"},{"bike_id":"0164e626-92e3-4bf7-bff6-1a8fab252b5c","system_id":"levelo_inurba_marseille","lat":43.2968,"lon":5.37295,"is_reserved":false,"is_disabled":false,"rental_uris":{"android":"levelo://app?vid=0164e626-92e3-4bf7-bff6-1a8fab252b5c","ios":"levelo://app?vid=0164e626-92e3-4bf7-bff6-1a8fab252b5c"},"vehicle_type_id":"4","last_reported":1687464473,"current_range_meters":24800,"station_id":"ce4bgk12rcd13ifvqbj0","pricing_plan_id":"free"},{"bike_id":"6dd890e9-5b40-498c-b233-6b56739c2179","system_id":"levelo_inurba_marseille","lat":43.30365,"lon":5.38606,"is_reserved":false,"is_disabled":false,"rental_uris":{"android":"levelo://app?vid=6dd890e9-5b40-498c-b233-6b56739c2179","ios":"levelo://app?vid=6dd890e9-5b40-498c-b233-6b56739c2179"},"vehicle_type_id":"4","last_reported":1687464473,"current_range_meters":0,"station_id":"","pricing_plan_id":"free"},{"bike_id":"13a4ee2c-769f-4b61-a780-bd8142721bae","system_id":"levelo_inurba_marseille","lat":43.296131,"lon":5.370773,"is_reserved":false,"is_disabled":false,"rental_uris":{"android":"levelo://app?vid=13a4ee2c-769f-4b61-a780-bd8142721bae","ios":"levelo://app?vid=13a4ee2c-769f-4b61-a780-bd8142721bae"},"vehicle_type_id":"4","last_reported":1687464473,"current_range_meters":2000,"station_id":"ce4bgnh2rcd13ifvqc0g","pricing_plan_id":"free"},{"bike_id":"41e04ea3-e556-4e53-8be3-2571fb68e236","system_id":"levelo_inurba_marseille","lat":43.296131,"lon":5.370773,"is_reserved":false,"is_disabled":false,"rental_uris":{"android":"levelo://app?vid=41e04ea3-e556-4e53-8be3-2571fb68e236","ios":"levelo://app?vid=41e04ea3-e556-4e53-8be3-2571fb68e236"},"vehicle_type_id":"4","last_reported":1687464473,"current_range_meters":3200,"station_id":"ce4bgnh2rcd13ifvqc0g","pricing_plan_id":"free"},{"bike_id":"c6b1d67e-9823-4572-ad78-8c7832cd19fe","system_id":"levelo_inurba_marseille","lat":43.296129,"lon":5.370777,"is_reserved":false,"is_disabled":false,"rental_uris":{"android":"levelo://app?vid=c6b1d67e-9823-4572-ad78-8c7832cd19fe","ios":"levelo://app?vid=c6b1d67e-9823-4572-ad78-8c7832cd19fe"},"vehicle_type_id":"4","last_reported":1687464473,"current_range_meters":17600,"station_id":"ce4bgnh2rcd13ifvqc0g","pricing_plan_id":"free"},{"bike_id":"902d280c-1f48-4908-9332-31d47dd8da43","system_id":"levelo_inurba_marseille","lat":43.29573,"lon":5.367355,"is_reserved":false,"is_disabled":false,"rental_uris":{"android":"levelo://app?vid=902d280c-1f48-4908-9332-31d47dd8da43","ios":"levelo://app?vid=902d280c-1f48-4908-9332-31d47dd8da43"},"vehicle_type_id":"4","last_reported":1687464473,"current_range_meters":10800,"station_id":"ce4bgph2rcd13ifvqc2g","pricing_plan_id":"free"},{"bike_id":"041bc147-ef2f-419b-bb81-deca3bdf89e2","system_id":"levelo_inurba_marseille","lat":43.29611,"lon":5.36046,"is_reserved":false,"is_disabled":false,"rental_uris":{"android":"levelo://app?vid=041bc147-ef2f-419b-bb81-deca3bdf89e2","ios":"levelo://app?vid=041bc147-ef2f-419b-bb81-deca3bdf89e2"},"vehicle_type_id":"4","last_reported":1687464473,"current_range_meters":13200,"station_id":"","pricing_plan_id":"free"},{"bike_id":"c0effad5-a141-4074-be5a-d795d9093b74","system_id":"levelo_inurba_marseille","lat":43.29906,"lon":5.38149,"is_reserved":false,"is_disabled":false,"rental_uris":{"android":"levelo://app?vid=c0effad5-a141-4074-be5a-d795d9093b74","ios":"levelo://app?vid=c0effad5-a141-4074-be5a-d795d9093b74"},"vehicle_type_id":"4","last_reported":1687464473,"current_range_meters":31200,"station_id":"ce4bgj12rcd13ifvqbc0","pricing_plan_id":"free"},{"bike_id":"d88ff082-215f-4043-b461-55485cf743f6","system_id":"levelo_inurba_marseille","lat":43.317557,"lon":5.390173,"is_reserved":false,"is_disabled":false,"rental_uris":{"android":"levelo://app?vid=d88ff082-215f-4043-b461-55485cf743f6","ios":"levelo://app?vid=d88ff082-215f-4043-b461-55485cf743f6"},"vehicle_type_id":"4","last_reported":1687464473,"current_range_meters":14000,"station_id":"ce4bhqp2rcd13ifvqhng","pricing_plan_id":"free"},{"bike_id":"c0094a37-a440-4989-abda-6f036b19ad76","system_id":"levelo_inurba_marseille","lat":43.317557,"lon":5.390173,"is_reserved":false,"is_disabled":false,"rental_uris":{"android":"levelo://app?vid=c0094a37-a440-4989-abda-6f036b19ad76","ios":"levelo://app?vid=c0094a37-a440-4989-abda-6f036b19ad76"},"vehicle_type_id":"4","last_reported":1687464473,"current_range_meters":29200,"station_id":"ce4bhqp2rcd13ifvqhng","pricing_plan_id":"free"},{"bike_id":"f49b2993-e257-45ad-bbae-fb541c05f49a","system_id":"levelo_inurba_marseille","lat":43.296935,"lon":5.376544,"is_reserved":false,"is_disabled":false,"rental_uris":{"android":"levelo://app?vid=f49b2993-e257-45ad-bbae-fb541c05f49a","ios":"levelo://app?vid=f49b2993-e257-45ad-bbae-fb541c05f49a"},"vehicle_type_id":"4","last_reported":1687464473,"current_range_meters":1600,"station_id":"ce4bgkh2rcd13ifvqbl0","pricing_plan_id":"free"},{"bike_id":"d23bee67-d34f-4e58-a259-ca0262701a12","system_id":"levelo_inurba_marseille","lat":43.295752,"lon":5.375148,"is_reserved":false,"is_disabled":false,"rental_uris":{"android":"levelo://app?vid=d23bee67-d34f-4e58-a259-ca0262701a12","ios":"levelo://app?vid=d23bee67-d34f-4e58-a259-ca0262701a12"},"vehicle_type_id":"4","last_reported":1687464473,"current_range_meters":400,"station_id":"","pricing_plan_id":"free"},{"bike_id":"d2ab0546-1c04-436f-8a98-8b650091c075","system_id":"levelo_inurba_marseille","lat":43.295722,"lon":5.375303,"is_reserved":false,"is_disabled":false,"rental_uris":{"android":"levelo://app?vid=d2ab0546-1c04-436f-8a98-8b650091c075","ios":"levelo://app?vid=d2ab0546-1c04-436f-8a98-8b650091c075"},"vehicle_type_id":"4","last_reported":1687464473,"current_range_meters":26000,"station_id":"ce4bgkp2rcd13ifvqbmg","pricing_plan_id":"free"},{"bike_id":"d6a79adc-1409-4274-8796-415bd42bbb72","system_id":"levelo_inurba_marseille","lat":43.30437,"lon":5.38898,"is_reserved":false,"is_disabled":false,"rental_uris":{"android":"levelo://app?vid=d6a79adc-1409-4274-8796-415bd42bbb72","ios":"levelo://app?vid=d6a79adc-1409-4274-8796-415bd42bbb72"},"vehicle_type_id":"4","last_reported":1687464473,"current_range_meters":29200,"station_id":"ce4bgk12rcd13ifvqbi0","pricing_plan_id":"free"},{"bike_id":"57ef74e7-dc4c-4c99-8885-e798792eeba1","system_id":"levelo_inurba_marseille","lat":43.30436,"lon":5.38904,"is_reserved":false,"is_disabled":false,"rental_uris":{"android":"levelo://app?vid=57ef74e7-dc4c-4c99-8885-e798792eeba1","ios":"levelo://app?vid=57ef74e7-dc4c-4c99-8885-e798792eeba1"},"vehicle_type_id":"4","last_reported":1687464473,"current_range_meters":31200,"station_id":"ce4bgk12rcd13ifvqbi0","pricing_plan_id":"free"},{"bike_id":"2a09f3a7-0114-41cd-b60f-3e83f63d0bbd","system_id":"levelo_inurba_marseille","lat":43.30434,"lon":5.38905,"is_reserved":false,"is_disabled":false,"rental_uris":{"android":"levelo://app?vid=2a09f3a7-0114-41cd-b60f-3e83f63d0bbd","ios":"levelo://app?vid=2a09f3a7-0114-41cd-b60f-3e83f63d0bbd"},"vehicle_type_id":"4","last_reported":1687464473,"current_range_meters":2800,"station_id":"ce4bgk12rcd13ifvqbi0","pricing_plan_id":"free"},{"bike_id":"cbc6b701-49b2-41e1-9052-a44e94828ff1","system_id":"levelo_inurba_marseille","lat":43.30394,"lon":5.38884,"is_reserved":false,"is_disabled":false,"rental_uris":{"android":"levelo://app?vid=cbc6b701-49b2-41e1-9052-a44e94828ff1","ios":"levelo://app?vid=cbc6b701-49b2-41e1-9052-a44e94828ff1"},"vehicle_type_id":"4","last_reported":1687464473,"current_range_meters":1600,"station_id":"","pricing_plan_id":"free"},{"bike_id":"8022212b-a30e-4a05-9fdb-8e2253145441","system_id":"levelo_inurba_marseille","lat":43.295279,"lon":5.375048,"is_reserved":false,"is_disabled":false,"rental_uris":{"android":"levelo://app?vid=8022212b-a30e-4a05-9fdb-8e2253145441","ios":"levelo://app?vid=8022212b-a30e-4a05-9fdb-8e2253145441"},"vehicle_type_id":"4","last_reported":1687464473,"current_range_meters":19600,"station_id":"ce4bgkp2rcd13ifvqbmg","pricing_plan_id":"free"},{"bike_id":"81600298-6481-4068-9eb4-7f1549869c7d","system_id":"levelo_inurba_marseille","lat":43.295279,"lon":5.375048,"is_reserved":false,"is_disabled":false,"rental_uris":{"android":"levelo://app?vid=81600298-6481-4068-9eb4-7f1549869c7d","ios":"levelo://app?vid=81600298-6481-4068-9eb4-7f1549869c7d"},"vehicle_type_id":"4","last_reported":1687464473,"current_range_meters":31600,"station_id":"ce4bgkp2rcd13ifvqbmg","pricing_plan_id":"free"},{"bike_id":"8d95615d-ae81-4d93-a15f-5da545736608","system_id":"levelo_inurba_marseille","lat":43.29981,"lon":5.38489,"is_reserved":false,"is_disabled":false,"rental_uris":{"android":"levelo://app?vid=8d95615d-ae81-4d93-a15f-5da545736608","ios":"levelo://app?vid=8d95615d-ae81-4d93-a15f-5da545736608"},"vehicle_type_id":"4","last_reported":1687464473,"current_range_meters":4000,"station_id":"ce4bgj92rcd13ifvqbd0","pricing_plan_id":"free"},{"bike_id":"68bfe694-fa45-4767-b86d-74ca25f23725","system_id":"levelo_inurba_marseille","lat":43.295279,"lon":5.375048,"is_reserved":false,"is_disabled":false,"rental_uris":{"android":"levelo://app?vid=68bfe694-fa45-4767-b86d-74ca25f23725","ios":"levelo://app?vid=68bfe694-fa45-4767-b86d-74ca25f23725"},"vehicle_type_id":"4","last_reported":1687464473,"current_range_meters":4000,"station_id":"ce4bgkp2rcd13ifvqbmg","pricing_plan_id":"free"},{"bike_id":"39828300-ae70-4f9d-b373-1d0244ee1985","system_id":"levelo_inurba_marseille","lat":43.299707,"lon":5.384859,"is_reserved":false,"is_disabled":false,"rental_uris":{"android":"levelo://app?vid=39828300-ae70-4f9d-b373-1d0244ee1985","ios":"levelo://app?vid=39828300-ae70-4f9d-b373-1d0244ee1985"},"vehicle_type_id":"4","last_reported":1687464473,"current_range_meters":11600,"station_id":"ce4bgj92rcd13ifvqbd0","pricing_plan_id":"free"},{"bike_id":"c3de6306-5a80-4d60-8ac6-80773cd3a2aa","system_id":"levelo_inurba_marseille","lat":43.299717,"lon":5.384845,"is_reserved":false,"is_disabled":false,"rental_uris":{"android":"levelo://app?vid=c3de6306-5a80-4d60-8ac6-80773cd3a2aa","ios":"levelo://app?vid=c3de6306-5a80-4d60-8ac6-80773cd3a2aa"},"vehicle_type_id":"4","last_reported":1687464473,"current_range_meters":0,"station_id":"ce4bgj92rcd13ifvqbd0","pricing_plan_id":"free"},{"bike_id":"e5616a54-4bdd-4ec8-b8e2-4832ff7c9e1a","system_id":"levelo_inurba_marseille","lat":43.29679,"lon":5.38128,"is_reserved":false,"is_disabled":false,"rental_uris":{"android":"levelo://app?vid=e5616a54-4bdd-4ec8-b8e2-4832ff7c9e1a","ios":"levelo://app?vid=e5616a54-4bdd-4ec8-b8e2-4832ff7c9e1a"},"vehicle_type_id":"4","last_reported":1687464473,"current_range_meters":4800,"station_id":"","pricing_plan_id":"free"},{"bike_id":"64662981-7513-476f-94ac-37e143c3fe68","system_id":"levelo_inurba_marseille","lat":43.32367,"lon":5.38877,"is_reserved":false,"is_disabled":false,"rental_uris":{"android":"levelo://app?vid=64662981-7513-476f-94ac-37e143c3fe68","ios":"levelo://app?vid=64662981-7513-476f-94ac-37e143c3fe68"},"vehicle_type_id":"4","last_reported":1687464473,"current_range_meters":31200,"station_id":"ce4bhqp2rcd13ifvqhog","pricing_plan_id":"free"},{"bike_id":"a4982143-2425-407a-81e3-fbbbd5897622","system_id":"levelo_inurba_marseille","lat":43.32366,"lon":5.3888,"is_reserved":false,"is_disabled":false,"rental_uris":{"android":"levelo://app?vid=a4982143-2425-407a-81e3-fbbbd5897622","ios":"levelo://app?vid=a4982143-2425-407a-81e3-fbbbd5897622"},"vehicle_type_id":"4","last_reported":1687464473,"current_range_meters":3200,"station_id":"ce4bhqp2rcd13ifvqhog","pricing_plan_id":"free"},{"bike_id":"537904b6-81e9-4163-ada3-bc304b2c5b19","system_id":"levelo_inurba_marseille","lat":43.32366,"lon":5.38885,"is_reserved":false,"is_disabled":false,"rental_uris":{"android":"levelo://app?vid=537904b6-81e9-4163-ada3-bc304b2c5b19","ios":"levelo://app?vid=537904b6-81e9-4163-ada3-bc304b2c5b19"},"vehicle_type_id":"4","last_reported":1687464473,"current_range_meters":14800,"station_id":"ce4bhqp2rcd13ifvqhog","pricing_plan_id":"free"},{"bike_id":"10fe77c1-5e15-42b2-9115-e66cf6b1c4f4","system_id":"levelo_inurba_marseille","lat":43.32367,"lon":5.388836,"is_reserved":false,"is_disabled":false,"rental_uris":{"android":"levelo://app?vid=10fe77c1-5e15-42b2-9115-e66cf6b1c4f4","ios":"levelo://app?vid=10fe77c1-5e15-42b2-9115-e66cf6b1c4f4"},"vehicle_type_id":"4","last_reported":1687464473,"current_range_meters":1600,"station_id":"ce4bhqp2rcd13ifvqhog","pricing_plan_id":"free"},{"bike_id":"ba9bcc13-30a6-41ee-ab87-c9d21de1e9f5","system_id":"levelo_inurba_marseille","lat":43.32367,"lon":5.388836,"is_reserved":false,"is_disabled":false,"rental_uris":{"android":"levelo://app?vid=ba9bcc13-30a6-41ee-ab87-c9d21de1e9f5","ios":"levelo://app?vid=ba9bcc13-30a6-41ee-ab87-c9d21de1e9f5"},"vehicle_type_id":"4","last_reported":1687464473,"current_range_meters":20800,"station_id":"ce4bhqp2rcd13ifvqhog","pricing_plan_id":"free"},{"bike_id":"9eb6839e-6824-4f74-a71e-6f1996b3ff40","system_id":"levelo_inurba_marseille","lat":43.32367,"lon":5.388836,"is_reserved":false,"is_disabled":false,"rental_uris":{"android":"levelo://app?vid=9eb6839e-6824-4f74-a71e-6f1996b3ff40","ios":"levelo://app?vid=9eb6839e-6824-4f74-a71e-6f1996b3ff40"},"vehicle_type_id":"4","last_reported":1687464473,"current_range_meters":24000,"station_id":"ce4bhqp2rcd13ifvqhog","pricing_plan_id":"free"},{"bike_id":"9b0178fb-6b91-4ac4-99a4-5d5fde566b6f","system_id":"levelo_inurba_marseille","lat":43.29601,"lon":5.38093,"is_reserved":false,"is_disabled":false,"rental_uris":{"android":"levelo://app?vid=9b0178fb-6b91-4ac4-99a4-5d5fde566b6f","ios":"levelo://app?vid=9b0178fb-6b91-4ac4-99a4-5d5fde566b6f"},"vehicle_type_id":"4","last_reported":1687464473,"current_range_meters":27200,"station_id":"ce4bgl12rcd13ifvqbo0","pricing_plan_id":"free"},{"bike_id":"7e52b1c8-ab02-48fc-8eed-7535bd58caa2","system_id":"levelo_inurba_marseille","lat":43.29601,"lon":5.381084,"is_reserved":false,"is_disabled":false,"rental_uris":{"android":"levelo://app?vid=7e52b1c8-ab02-48fc-8eed-7535bd58caa2","ios":"levelo://app?vid=7e52b1c8-ab02-48fc-8eed-7535bd58caa2"},"vehicle_type_id":"4","last_reported":1687464473,"current_range_meters":30400,"station_id":"ce4bgl12rcd13ifvqbo0","pricing_plan_id":"free"},{"bike_id":"a2da44b6-4085-43d7-b95a-d57e9f431fbe","system_id":"levelo_inurba_marseille","lat":43.29601,"lon":5.381084,"is_reserved":false,"is_disabled":false,"rental_uris":{"android":"levelo://app?vid=a2da44b6-4085-43d7-b95a-d57e9f431fbe","ios":"levelo://app?vid=a2da44b6-4085-43d7-b95a-d57e9f431fbe"},"vehicle_type_id":"4","last_reported":1687464473,"current_range_meters":8000,"station_id":"ce4bgl12rcd13ifvqbo0","pricing_plan_id":"free"},{"bike_id":"3a8072fb-d95e-4709-a91c-8745f28ce6ef","system_id":"levelo_inurba_marseille","lat":43.293,"lon":5.3718,"is_reserved":false,"is_disabled":false,"rental_uris":{"android":"levelo://app?vid=3a8072fb-d95e-4709-a91c-8745f28ce6ef","ios":"levelo://app?vid=3a8072fb-d95e-4709-a91c-8745f28ce6ef"},"vehicle_type_id":"4","last_reported":1687464473,"current_range_meters":0,"station_id":"ce4bgh92rcd13ifvqb40","pricing_plan_id":"free"},{"bike_id":"ce4b485f-837a-44aa-ba5a-d22e34cdb6bb","system_id":"levelo_inurba_marseille","lat":43.29303,"lon":5.37461,"is_reserved":false,"is_disabled":false,"rental_uris":{"android":"levelo://app?vid=ce4b485f-837a-44aa-ba5a-d22e34cdb6bb","ios":"levelo://app?vid=ce4b485f-837a-44aa-ba5a-d22e34cdb6bb"},"vehicle_type_id":"4","last_reported":1687464473,"current_range_meters":27200,"station_id":"ce4bgi12rcd13ifvqb70","pricing_plan_id":"free"},{"bike_id":"c71ab41a-4d68-4ec3-87e2-56cb05d73c86","system_id":"levelo_inurba_marseille","lat":43.293009,"lon":5.374584,"is_reserved":false,"is_disabled":false,"rental_uris":{"android":"levelo://app?vid=c71ab41a-4d68-4ec3-87e2-56cb05d73c86","ios":"levelo://app?vid=c71ab41a-4d68-4ec3-87e2-56cb05d73c86"},"vehicle_type_id":"4","last_reported":1687464473,"current_range_meters":3600,"station_id":"ce4bgi12rcd13ifvqb70","pricing_plan_id":"free"},{"bike_id":"c60cc5ab-a586-45f3-bd4f-6f6474efebf0","system_id":"levelo_inurba_marseille","lat":43.293009,"lon":5.374584,"is_reserved":false,"is_disabled":false,"rental_uris":{"android":"levelo://app?vid=c60cc5ab-a586-45f3-bd4f-6f6474efebf0","ios":"levelo://app?vid=c60cc5ab-a586-45f3-bd4f-6f6474efebf0"},"vehicle_type_id":"4","last_reported":1687464473,"current_range_meters":400,"station_id":"ce4bgi12rcd13ifvqb70","pricing_plan_id":"free"},{"bike_id":"4f15241e-27e6-465d-8f7e-2a00f619abfa","system_id":"levelo_inurba_marseille","lat":43.293007,"lon":5.374728,"is_reserved":false,"is_disabled":false,"rental_uris":{"android":"levelo://app?vid=4f15241e-27e6-465d-8f7e-2a00f619abfa","ios":"levelo://app?vid=4f15241e-27e6-465d-8f7e-2a00f619abfa"},"vehicle_type_id":"4","last_reported":1687464473,"current_range_meters":18800,"station_id":"ce4bgi12rcd13ifvqb70","pricing_plan_id":"free"},{"bike_id":"fa51bfab-ce54-40a6-91ae-e83f34bd94b2","system_id":"levelo_inurba_marseille","lat":43.293009,"lon":5.374584,"is_reserved":false,"is_disabled":false,"rental_uris":{"android":"levelo://app?vid=fa51bfab-ce54-40a6-91ae-e83f34bd94b2","ios":"levelo://app?vid=fa51bfab-ce54-40a6-91ae-e83f34bd94b2"},"vehicle_type_id":"4","last_reported":1687464473,"current_range_meters":28400,"station_id":"ce4bgi12rcd13ifvqb70","pricing_plan_id":"free"},{"bike_id":"2b3f7c71-d675-4038-9b3d-c364bb718f01","system_id":"levelo_inurba_marseille","lat":43.293009,"lon":5.374584,"is_reserved":false,"is_disabled":false,"rental_uris":{"android":"levelo://app?vid=2b3f7c71-d675-4038-9b3d-c364bb718f01","ios":"levelo://app?vid=2b3f7c71-d675-4038-9b3d-c364bb718f01"},"vehicle_type_id":"4","last_reported":1687464473,"current_range_meters":2800,"station_id":"ce4bgi12rcd13ifvqb70","pricing_plan_id":"free"},{"bike_id":"03752f9a-3029-4d04-a450-ba1d35131e88","system_id":"levelo_inurba_marseille","lat":43.30319,"lon":5.39204,"is_reserved":false,"is_disabled":false,"rental_uris":{"android":"levelo://app?vid=03752f9a-3029-4d04-a450-ba1d35131e88","ios":"levelo://app?vid=03752f9a-3029-4d04-a450-ba1d35131e88"},"vehicle_type_id":"4","last_reported":1687464473,"current_range_meters":10800,"station_id":"ce4bgkh2rcd13ifvqbk0","pricing_plan_id":"free"},{"bike_id":"bb2883e4-e472-421e-95ab-6d790bc50112","system_id":"levelo_inurba_marseille","lat":43.2929,"lon":5.3747,"is_reserved":false,"is_disabled":false,"rental_uris":{"android":"levelo://app?vid=bb2883e4-e472-421e-95ab-6d790bc50112","ios":"levelo://app?vid=bb2883e4-e472-421e-95ab-6d790bc50112"},"vehicle_type_id":"4","last_reported":1687464473,"current_range_meters":9600,"station_id":"ce4bgi12rcd13ifvqb70","pricing_plan_id":"free"},{"bike_id":"6c7b31db-359f-46cf-9e4c-cb21ab38f334","system_id":"levelo_inurba_marseille","lat":43.30304,"lon":5.39212,"is_reserved":false,"is_disabled":false,"rental_uris":{"android":"levelo://app?vid=6c7b31db-359f-46cf-9e4c-cb21ab38f334","ios":"levelo://app?vid=6c7b31db-359f-46cf-9e4c-cb21ab38f334"},"vehicle_type_id":"4","last_reported":1687464473,"current_range_meters":30800,"station_id":"ce4bgkh2rcd13ifvqbk0","pricing_plan_id":"free"},{"bike_id":"82962bf2-4310-4efb-af0e-e0c2985b458f","system_id":"levelo_inurba_marseille","lat":43.29266,"lon":5.35969,"is_reserved":false,"is_disabled":false,"rental_uris":{"android":"levelo://app?vid=82962bf2-4310-4efb-af0e-e0c2985b458f","ios":"levelo://app?vid=82962bf2-4310-4efb-af0e-e0c2985b458f"},"vehicle_type_id":"4","last_reported":1687464473,"current_range_meters":27600,"station_id":"","pricing_plan_id":"free"},{"bike_id":"dd27f633-4bcb-4725-bc2c-85768a05db53","system_id":"levelo_inurba_marseille","lat":43.30353,"lon":5.39297,"is_reserved":false,"is_disabled":false,"rental_uris":{"android":"levelo://app?vid=dd27f633-4bcb-4725-bc2c-85768a05db53","ios":"levelo://app?vid=dd27f633-4bcb-4725-bc2c-85768a05db53"},"vehicle_type_id":"4","last_reported":1687464473,"current_range_meters":2800,"station_id":"","pricing_plan_id":"free"},{"bike_id":"aa5a1074-13d3-4b25-a5f5-925a449e0f36","system_id":"levelo_inurba_marseille","lat":43.30085,"lon":5.390856,"is_reserved":false,"is_disabled":false,"rental_uris":{"android":"levelo://app?vid=aa5a1074-13d3-4b25-a5f5-925a449e0f36","ios":"levelo://app?vid=aa5a1074-13d3-4b25-a5f5-925a449e0f36"},"vehicle_type_id":"4","last_reported":1687464473,"current_range_meters":400,"station_id":"ce4bh192rcd13ifvqdb0","pricing_plan_id":"free"},{"bike_id":"c5a1b2f7-bb14-43b8-873d-d27563880bb7","system_id":"levelo_inurba_marseille","lat":43.300852,"lon":5.390859,"is_reserved":false,"is_disabled":false,"rental_uris":{"android":"levelo://app?vid=c5a1b2f7-bb14-43b8-873d-d27563880bb7","ios":"levelo://app?vid=c5a1b2f7-bb14-43b8-873d-d27563880bb7"},"vehicle_type_id":"4","last_reported":1687464473,"current_range_meters":10400,"station_id":"ce4bh192rcd13ifvqdb0","pricing_plan_id":"free"},{"bike_id":"e48b0942-33a9-4656-a11e-9cc6bfd138e3","system_id":"levelo_inurba_marseille","lat":43.298764,"lon":5.388973,"is_reserved":false,"is_disabled":false,"rental_uris":{"android":"levelo://app?vid=e48b0942-33a9-4656-a11e-9cc6bfd138e3","ios":"levelo://app?vid=e48b0942-33a9-4656-a11e-9cc6bfd138e3"},"vehicle_type_id":"4","last_reported":1687464473,"current_range_meters":400,"station_id":"ce4bh392rcd13ifvqdl0","pricing_plan_id":"free"},{"bike_id":"54fda2f9-7b1a-4838-9b70-087d4101d0ae","system_id":"levelo_inurba_marseille","lat":43.33223,"lon":5.37861,"is_reserved":false,"is_disabled":false,"rental_uris":{"android":"levelo://app?vid=54fda2f9-7b1a-4838-9b70-087d4101d0ae","ios":"levelo://app?vid=54fda2f9-7b1a-4838-9b70-087d4101d0ae"},"vehicle_type_id":"4","last_reported":1687464473,"current_range_meters":17200,"station_id":"","pricing_plan_id":"free"},{"bike_id":"4b5150b5-4796-4e1c-9bd4-79316e6d4556","system_id":"levelo_inurba_marseille","lat":43.298764,"lon":5.388973,"is_reserved":false,"is_disabled":false,"rental_uris":{"android":"levelo://app?vid=4b5150b5-4796-4e1c-9bd4-79316e6d4556","ios":"levelo://app?vid=4b5150b5-4796-4e1c-9bd4-79316e6d4556"},"vehicle_type_id":"4","last_reported":1687464473,"current_range_meters":0,"station_id":"ce4bh392rcd13ifvqdl0","pricing_plan_id":"free"},{"bike_id":"8cacb5d2-13fa-4f30-bf7b-45b673dc085e","system_id":"levelo_inurba_marseille","lat":43.298764,"lon":5.388973,"is_reserved":false,"is_disabled":false,"rental_uris":{"android":"levelo://app?vid=8cacb5d2-13fa-4f30-bf7b-45b673dc085e","ios":"levelo://app?vid=8cacb5d2-13fa-4f30-bf7b-45b673dc085e"},"vehicle_type_id":"4","last_reported":1687464473,"current_range_meters":0,"station_id":"ce4bh392rcd13ifvqdl0","pricing_plan_id":"free"},{"bike_id":"1334198f-1bea-49bf-b610-cb1d6ae78499","system_id":"levelo_inurba_marseille","lat":43.313291,"lon":5.396838,"is_reserved":false,"is_disabled":false,"rental_uris":{"android":"levelo://app?vid=1334198f-1bea-49bf-b610-cb1d6ae78499","ios":"levelo://app?vid=1334198f-1bea-49bf-b610-cb1d6ae78499"},"vehicle_type_id":"4","last_reported":1687464473,"current_range_meters":10400,"station_id":"ce4bgvp2rcd13ifvqcu0","pricing_plan_id":"free"},{"bike_id":"f29a7205-f2cc-4d14-9e6e-ba20e6495f15","system_id":"levelo_inurba_marseille","lat":43.313291,"lon":5.396838,"is_reserved":false,"is_disabled":false,"rental_uris":{"android":"levelo://app?vid=f29a7205-f2cc-4d14-9e6e-ba20e6495f15","ios":"levelo://app?vid=f29a7205-f2cc-4d14-9e6e-ba20e6495f15"},"vehicle_type_id":"4","last_reported":1687464473,"current_range_meters":31200,"station_id":"ce4bgvp2rcd13ifvqcu0","pricing_plan_id":"free"},{"bike_id":"4f73c4a6-861e-449c-845a-ca1f5d859e27","system_id":"levelo_inurba_marseille","lat":43.309038,"lon":5.396546,"is_reserved":false,"is_disabled":false,"rental_uris":{"android":"levelo://app?vid=4f73c4a6-861e-449c-845a-ca1f5d859e27","ios":"levelo://app?vid=4f73c4a6-861e-449c-845a-ca1f5d859e27"},"vehicle_type_id":"4","last_reported":1687464473,"current_range_meters":400,"station_id":"ce4bh012rcd13ifvqcv0","pricing_plan_id":"free"},{"bike_id":"6870945a-0aea-4b40-a0ea-3b55b1af75e8","system_id":"levelo_inurba_marseille","lat":43.309038,"lon":5.396546,"is_reserved":false,"is_disabled":false,"rental_uris":{"android":"levelo://app?vid=6870945a-0aea-4b40-a0ea-3b55b1af75e8","ios":"levelo://app?vid=6870945a-0aea-4b40-a0ea-3b55b1af75e8"},"vehicle_type_id":"4","last_reported":1687464473,"current_range_meters":17600,"station_id":"ce4bh012rcd13ifvqcv0","pricing_plan_id":"free"},{"bike_id":"6ec1133b-9529-4835-8583-a66142eef127","system_id":"levelo_inurba_marseille","lat":43.309038,"lon":5.396546,"is_reserved":false,"is_disabled":false,"rental_uris":{"android":"levelo://app?vid=6ec1133b-9529-4835-8583-a66142eef127","ios":"levelo://app?vid=6ec1133b-9529-4835-8583-a66142eef127"},"vehicle_type_id":"4","last_reported":1687464473,"current_range_meters":21600,"station_id":"ce4bh012rcd13ifvqcv0","pricing_plan_id":"free"},{"bike_id":"c26ac87f-dcc5-46f4-9e51-24c317f4d5f4","system_id":"levelo_inurba_marseille","lat":43.29529,"lon":5.385581,"is_reserved":false,"is_disabled":false,"rental_uris":{"android":"levelo://app?vid=c26ac87f-dcc5-46f4-9e51-24c317f4d5f4","ios":"levelo://app?vid=c26ac87f-dcc5-46f4-9e51-24c317f4d5f4"},"vehicle_type_id":"4","last_reported":1687464473,"current_range_meters":7600,"station_id":"ce4bgih2rcd13ifvqba0","pricing_plan_id":"free"},{"bike_id":"0e78fb84-de21-4610-aca3-48206004a93f","system_id":"levelo_inurba_marseille","lat":43.29529,"lon":5.385581,"is_reserved":false,"is_disabled":false,"rental_uris":{"android":"levelo://app?vid=0e78fb84-de21-4610-aca3-48206004a93f","ios":"levelo://app?vid=0e78fb84-de21-4610-aca3-48206004a93f"},"vehicle_type_id":"4","last_reported":1687464473,"current_range_meters":17200,"station_id":"ce4bgih2rcd13ifvqba0","pricing_plan_id":"free"},{"bike_id":"271d24ac-56fb-4006-a5a3-f3f86336dfc9","system_id":"levelo_inurba_marseille","lat":43.302008,"lon":5.394694,"is_reserved":false,"is_disabled":false,"rental_uris":{"android":"levelo://app?vid=271d24ac-56fb-4006-a5a3-f3f86336dfc9","ios":"levelo://app?vid=271d24ac-56fb-4006-a5a3-f3f86336dfc9"},"vehicle_type_id":"4","last_reported":1687464473,"current_range_meters":8000,"station_id":"ce4bh0p2rcd13ifvqd70","pricing_plan_id":"free"},{"bike_id":"520fa9fa-1b85-4f20-b8c5-38b225b34186","system_id":"levelo_inurba_marseille","lat":43.29487,"lon":5.3865,"is_reserved":false,"is_disabled":false,"rental_uris":{"android":"levelo://app?vid=520fa9fa-1b85-4f20-b8c5-38b225b34186","ios":"levelo://app?vid=520fa9fa-1b85-4f20-b8c5-38b225b34186"},"vehicle_type_id":"4","last_reported":1687464473,"current_range_meters":21600,"station_id":"","pricing_plan_id":"free"},{"bike_id":"18d74348-9b53-4739-8e32-8ee3da4046aa","system_id":"levelo_inurba_marseille","lat":43.290631,"lon":5.359244,"is_reserved":false,"is_disabled":false,"rental_uris":{"android":"levelo://app?vid=18d74348-9b53-4739-8e32-8ee3da4046aa","ios":"levelo://app?vid=18d74348-9b53-4739-8e32-8ee3da4046aa"},"vehicle_type_id":"4","last_reported":1687464473,"current_range_meters":9600,"station_id":"ce4bha92rcd13ifvqeg0","pricing_plan_id":"free"},{"bike_id":"22d72585-864f-4193-be8a-0e31debc70cb","system_id":"levelo_inurba_marseille","lat":43.29424,"lon":5.38617,"is_reserved":false,"is_disabled":false,"rental_uris":{"android":"levelo://app?vid=22d72585-864f-4193-be8a-0e31debc70cb","ios":"levelo://app?vid=22d72585-864f-4193-be8a-0e31debc70cb"},"vehicle_type_id":"4","last_reported":1687464473,"current_range_meters":3200,"station_id":"ce4bh2h2rcd13ifvqdh0","pricing_plan_id":"free"},{"bike_id":"b6484156-5da9-414b-9a8c-d7b4dbe3f1f9","system_id":"levelo_inurba_marseille","lat":43.294162,"lon":5.386292,"is_reserved":false,"is_disabled":false,"rental_uris":{"android":"levelo://app?vid=b6484156-5da9-414b-9a8c-d7b4dbe3f1f9","ios":"levelo://app?vid=b6484156-5da9-414b-9a8c-d7b4dbe3f1f9"},"vehicle_type_id":"4","last_reported":1687464473,"current_range_meters":0,"station_id":"ce4bh2h2rcd13ifvqdh0","pricing_plan_id":"free"},{"bike_id":"52495b44-9f29-4c43-bf4e-4ade398f8fa0","system_id":"levelo_inurba_marseille","lat":43.294162,"lon":5.386292,"is_reserved":false,"is_disabled":false,"rental_uris":{"android":"levelo://app?vid=52495b44-9f29-4c43-bf4e-4ade398f8fa0","ios":"levelo://app?vid=52495b44-9f29-4c43-bf4e-4ade398f8fa0"},"vehicle_type_id":"4","last_reported":1687464473,"current_range_meters":8000,"station_id":"ce4bh2h2rcd13ifvqdh0","pricing_plan_id":"free"},{"bike_id":"20b2702a-2cf1-439f-b7da-41f192fa1a0a","system_id":"levelo_inurba_marseille","lat":43.29411,"lon":5.38614,"is_reserved":false,"is_disabled":false,"rental_uris":{"android":"levelo://app?vid=20b2702a-2cf1-439f-b7da-41f192fa1a0a","ios":"levelo://app?vid=20b2702a-2cf1-439f-b7da-41f192fa1a0a"},"vehicle_type_id":"4","last_reported":1687464473,"current_range_meters":25600,"station_id":"","pricing_plan_id":"free"},{"bike_id":"188a323e-4db1-4a3a-9415-19ec17e374fb","system_id":"levelo_inurba_marseille","lat":43.294162,"lon":5.386292,"is_reserved":false,"is_disabled":false,"rental_uris":{"android":"levelo://app?vid=188a323e-4db1-4a3a-9415-19ec17e374fb","ios":"levelo://app?vid=188a323e-4db1-4a3a-9415-19ec17e374fb"},"vehicle_type_id":"4","last_reported":1687464473,"current_range_meters":10400,"station_id":"ce4bh2h2rcd13ifvqdh0","pricing_plan_id":"free"},{"bike_id":"8edf2680-f0e7-4fec-a98c-57d7c3154664","system_id":"levelo_inurba_marseille","lat":43.294162,"lon":5.386292,"is_reserved":false,"is_disabled":false,"rental_uris":{"android":"levelo://app?vid=8edf2680-f0e7-4fec-a98c-57d7c3154664","ios":"levelo://app?vid=8edf2680-f0e7-4fec-a98c-57d7c3154664"},"vehicle_type_id":"4","last_reported":1687464473,"current_range_meters":16800,"station_id":"ce4bh2h2rcd13ifvqdh0","pricing_plan_id":"free"},{"bike_id":"93587a4b-71b8-4367-9d8e-5f2d127d8773","system_id":"levelo_inurba_marseille","lat":43.28941,"lon":5.36408,"is_reserved":false,"is_disabled":false,"rental_uris":{"android":"levelo://app?vid=93587a4b-71b8-4367-9d8e-5f2d127d8773","ios":"levelo://app?vid=93587a4b-71b8-4367-9d8e-5f2d127d8773"},"vehicle_type_id":"4","last_reported":1687464473,"current_range_meters":0,"station_id":"ce4bhc92rcd13ifvqetg","pricing_plan_id":"free"},{"bike_id":"20b7b4fd-f9a3-40c2-87a1-a193eb55deae","system_id":"levelo_inurba_marseille","lat":43.292644,"lon":5.384257,"is_reserved":false,"is_disabled":false,"rental_uris":{"android":"levelo://app?vid=20b7b4fd-f9a3-40c2-87a1-a193eb55deae","ios":"levelo://app?vid=20b7b4fd-f9a3-40c2-87a1-a193eb55deae"},"vehicle_type_id":"4","last_reported":1687464473,"current_range_meters":10000,"station_id":"ce4bh692rcd13ifvqea0","pricing_plan_id":"free"},{"bike_id":"44211480-c4a4-4bea-a24d-d5e66421e43a","system_id":"levelo_inurba_marseille","lat":43.292644,"lon":5.384257,"is_reserved":false,"is_disabled":false,"rental_uris":{"android":"levelo://app?vid=44211480-c4a4-4bea-a24d-d5e66421e43a","ios":"levelo://app?vid=44211480-c4a4-4bea-a24d-d5e66421e43a"},"vehicle_type_id":"4","last_reported":1687464473,"current_range_meters":10000,"station_id":"ce4bh692rcd13ifvqea0","pricing_plan_id":"free"},{"bike_id":"ad477d14-d057-4c79-94c7-fdc683ff894f","system_id":"levelo_inurba_marseille","lat":43.29277,"lon":5.38464,"is_reserved":false,"is_disabled":false,"rental_uris":{"android":"levelo://app?vid=ad477d14-d057-4c79-94c7-fdc683ff894f","ios":"levelo://app?vid=ad477d14-d057-4c79-94c7-fdc683ff894f"},"vehicle_type_id":"4","last_reported":1687464473,"current_range_meters":13600,"station_id":"ce4bgih2rcd13ifvqba0","pricing_plan_id":"free"},{"bike_id":"11b58989-f5c7-4315-b379-4938ca96edcc","system_id":"levelo_inurba_marseille","lat":43.292644,"lon":5.384257,"is_reserved":false,"is_disabled":false,"rental_uris":{"android":"levelo://app?vid=11b58989-f5c7-4315-b379-4938ca96edcc","ios":"levelo://app?vid=11b58989-f5c7-4315-b379-4938ca96edcc"},"vehicle_type_id":"4","last_reported":1687464473,"current_range_meters":800,"station_id":"ce4bh692rcd13ifvqea0","pricing_plan_id":"free"},{"bike_id":"a5ef1b08-6d76-456a-9762-2ed4a662a615","system_id":"levelo_inurba_marseille","lat":43.30464,"lon":5.39783,"is_reserved":false,"is_disabled":false,"rental_uris":{"android":"levelo://app?vid=a5ef1b08-6d76-456a-9762-2ed4a662a615","ios":"levelo://app?vid=a5ef1b08-6d76-456a-9762-2ed4a662a615"},"vehicle_type_id":"4","last_reported":1687464473,"current_range_meters":3200,"station_id":"","pricing_plan_id":"free"},{"bike_id":"97598302-6bcb-44aa-ad69-5d9a9c29b94c","system_id":"levelo_inurba_marseille","lat":43.292644,"lon":5.384257,"is_reserved":false,"is_disabled":false,"rental_uris":{"android":"levelo://app?vid=97598302-6bcb-44aa-ad69-5d9a9c29b94c","ios":"levelo://app?vid=97598302-6bcb-44aa-ad69-5d9a9c29b94c"},"vehicle_type_id":"4","last_reported":1687464473,"current_range_meters":13200,"station_id":"ce4bh692rcd13ifvqea0","pricing_plan_id":"free"},{"bike_id":"6d72dc61-7179-40ab-9eb9-fbc72613364b","system_id":"levelo_inurba_marseille","lat":43.33046,"lon":5.38915,"is_reserved":false,"is_disabled":false,"rental_uris":{"android":"levelo://app?vid=6d72dc61-7179-40ab-9eb9-fbc72613364b","ios":"levelo://app?vid=6d72dc61-7179-40ab-9eb9-fbc72613364b"},"vehicle_type_id":"4","last_reported":1687464473,"current_range_meters":8400,"station_id":"ce4bhr92rcd13ifvqhrg","pricing_plan_id":"free"},{"bike_id":"b6e30f8b-9a21-4f75-b1c0-16984dcd2984","system_id":"levelo_inurba_marseille","lat":43.290995,"lon":5.381361,"is_reserved":false,"is_disabled":false,"rental_uris":{"android":"levelo://app?vid=b6e30f8b-9a21-4f75-b1c0-16984dcd2984","ios":"levelo://app?vid=b6e30f8b-9a21-4f75-b1c0-16984dcd2984"},"vehicle_type_id":"4","last_reported":1687464473,"current_range_meters":0,"station_id":"ce4bh512rcd13ifvqe2g","pricing_plan_id":"free"},{"bike_id":"c73d2cc7-61ec-4fd2-a002-ffa050603a67","system_id":"levelo_inurba_marseille","lat":43.33041,"lon":5.38938,"is_reserved":false,"is_disabled":false,"rental_uris":{"android":"levelo://app?vid=c73d2cc7-61ec-4fd2-a002-ffa050603a67","ios":"levelo://app?vid=c73d2cc7-61ec-4fd2-a002-ffa050603a67"},"vehicle_type_id":"4","last_reported":1687464473,"current_range_meters":31200,"station_id":"ce4bhr92rcd13ifvqhrg","pricing_plan_id":"free"},{"bike_id":"48b4acac-1b1c-4b08-87cd-f41aca1fde25","system_id":"levelo_inurba_marseille","lat":43.290995,"lon":5.381361,"is_reserved":false,"is_disabled":false,"rental_uris":{"android":"levelo://app?vid=48b4acac-1b1c-4b08-87cd-f41aca1fde25","ios":"levelo://app?vid=48b4acac-1b1c-4b08-87cd-f41aca1fde25"},"vehicle_type_id":"4","last_reported":1687464473,"current_range_meters":0,"station_id":"ce4bh512rcd13ifvqe2g","pricing_plan_id":"free"},{"bike_id":"4373f89d-7e65-447e-81c7-4de17209f376","system_id":"levelo_inurba_marseille","lat":43.295169,"lon":5.390426,"is_reserved":false,"is_disabled":false,"rental_uris":{"android":"levelo://app?vid=4373f89d-7e65-447e-81c7-4de17209f376","ios":"levelo://app?vid=4373f89d-7e65-447e-81c7-4de17209f376"},"vehicle_type_id":"4","last_reported":1687464473,"current_range_meters":6800,"station_id":"ce4bh3p2rcd13ifvqdp0","pricing_plan_id":"free"},{"bike_id":"b77be4c5-d151-4976-821d-a98f46d6f931","system_id":"levelo_inurba_marseille","lat":43.28978,"lon":5.37842,"is_reserved":false,"is_disabled":false,"rental_uris":{"android":"levelo://app?vid=b77be4c5-d151-4976-821d-a98f46d6f931","ios":"levelo://app?vid=b77be4c5-d151-4976-821d-a98f46d6f931"},"vehicle_type_id":"4","last_reported":1687464473,"current_range_meters":0,"station_id":"ce4bh9p2rcd13ifvqed0","pricing_plan_id":"free"},{"bike_id":"ca2876cd-8c7e-4b38-8b8d-823eca6019cd","system_id":"levelo_inurba_marseille","lat":43.286961,"lon":5.373785,"is_reserved":false,"is_disabled":false,"rental_uris":{"android":"levelo://app?vid=ca2876cd-8c7e-4b38-8b8d-823eca6019cd","ios":"levelo://app?vid=ca2876cd-8c7e-4b38-8b8d-823eca6019cd"},"vehicle_type_id":"4","last_reported":1687464473,"current_range_meters":11600,"station_id":"ce4bh3p2rcd13ifvqdq0","pricing_plan_id":"free"},{"bike_id":"3f8a925a-6a54-4259-a38f-9cf091aab246","system_id":"levelo_inurba_marseille","lat":43.29252,"lon":5.38753,"is_reserved":false,"is_disabled":false,"rental_uris":{"android":"levelo://app?vid=3f8a925a-6a54-4259-a38f-9cf091aab246","ios":"levelo://app?vid=3f8a925a-6a54-4259-a38f-9cf091aab246"},"vehicle_type_id":"4","last_reported":1687464473,"current_range_meters":28400,"station_id":"","pricing_plan_id":"free"},{"bike_id":"c180ae38-f769-441f-8a55-5a6e4930e6ad","system_id":"levelo_inurba_marseille","lat":43.33748,"lon":5.37436,"is_reserved":false,"is_disabled":false,"rental_uris":{"android":"levelo://app?vid=c180ae38-f769-441f-8a55-5a6e4930e6ad","ios":"levelo://app?vid=c180ae38-f769-441f-8a55-5a6e4930e6ad"},"vehicle_type_id":"4","last_reported":1687464473,"current_range_meters":28000,"station_id":"","pricing_plan_id":"free"},{"bike_id":"2cb5841e-cfd4-4329-9d4d-e35d1c08e5e2","system_id":"levelo_inurba_marseille","lat":43.33748,"lon":5.37443,"is_reserved":false,"is_disabled":false,"rental_uris":{"android":"levelo://app?vid=2cb5841e-cfd4-4329-9d4d-e35d1c08e5e2","ios":"levelo://app?vid=2cb5841e-cfd4-4329-9d4d-e35d1c08e5e2"},"vehicle_type_id":"4","last_reported":1687464473,"current_range_meters":29600,"station_id":"","pricing_plan_id":"free"},{"bike_id":"d3175af0-f261-4c8e-b4ee-5fbcd20843f5","system_id":"levelo_inurba_marseille","lat":43.309371,"lon":5.401449,"is_reserved":false,"is_disabled":false,"rental_uris":{"android":"levelo://app?vid=d3175af0-f261-4c8e-b4ee-5fbcd20843f5","ios":"levelo://app?vid=d3175af0-f261-4c8e-b4ee-5fbcd20843f5"},"vehicle_type_id":"4","last_reported":1687464473,"current_range_meters":0,"station_id":"ce4bgvp2rcd13ifvqct0","pricing_plan_id":"free"},{"bike_id":"d74474a7-d1ea-4940-94c7-db1e07163ef0","system_id":"levelo_inurba_marseille","lat":43.337482,"lon":5.374726,"is_reserved":false,"is_disabled":false,"rental_uris":{"android":"levelo://app?vid=d74474a7-d1ea-4940-94c7-db1e07163ef0","ios":"levelo://app?vid=d74474a7-d1ea-4940-94c7-db1e07163ef0"},"vehicle_type_id":"4","last_reported":1687464473,"current_range_meters":11200,"station_id":"","pricing_plan_id":"free"},{"bike_id":"71a50c1f-09f0-47f2-bd28-cfcd0711a6bd","system_id":"levelo_inurba_marseille","lat":43.33755,"lon":5.3745,"is_reserved":false,"is_disabled":false,"rental_uris":{"android":"levelo://app?vid=71a50c1f-09f0-47f2-bd28-cfcd0711a6bd","ios":"levelo://app?vid=71a50c1f-09f0-47f2-bd28-cfcd0711a6bd"},"vehicle_type_id":"4","last_reported":1687464473,"current_range_meters":29600,"station_id":"","pricing_plan_id":"free"},{"bike_id":"b0bd3bcb-bd35-4f75-8285-8f528f09b8d5","system_id":"levelo_inurba_marseille","lat":43.337575,"lon":5.374489,"is_reserved":false,"is_disabled":false,"rental_uris":{"android":"levelo://app?vid=b0bd3bcb-bd35-4f75-8285-8f528f09b8d5","ios":"levelo://app?vid=b0bd3bcb-bd35-4f75-8285-8f528f09b8d5"},"vehicle_type_id":"4","last_reported":1687464473,"current_range_meters":14800,"station_id":"","pricing_plan_id":"free"},{"bike_id":"c217c9eb-a7e6-45cb-9d78-dab7c27fed91","system_id":"levelo_inurba_marseille","lat":43.306412,"lon":5.401035,"is_reserved":false,"is_disabled":false,"rental_uris":{"android":"levelo://app?vid=c217c9eb-a7e6-45cb-9d78-dab7c27fed91","ios":"levelo://app?vid=c217c9eb-a7e6-45cb-9d78-dab7c27fed91"},"vehicle_type_id":"4","last_reported":1687464473,"current_range_meters":7600,"station_id":"ce4bh112rcd13ifvqda0","pricing_plan_id":"free"},{"bike_id":"0f1dd5d4-0798-4f2d-bb93-f5da20e4483b","system_id":"levelo_inurba_marseille","lat":43.306412,"lon":5.401035,"is_reserved":false,"is_disabled":false,"rental_uris":{"android":"levelo://app?vid=0f1dd5d4-0798-4f2d-bb93-f5da20e4483b","ios":"levelo://app?vid=0f1dd5d4-0798-4f2d-bb93-f5da20e4483b"},"vehicle_type_id":"4","last_reported":1687464473,"current_range_meters":400,"station_id":"ce4bh112rcd13ifvqda0","pricing_plan_id":"free"},{"bike_id":"d23d8d06-b8e3-4b88-a179-2b274d48eea6","system_id":"levelo_inurba_marseille","lat":43.30642,"lon":5.401031,"is_reserved":false,"is_disabled":false,"rental_uris":{"android":"levelo://app?vid=d23d8d06-b8e3-4b88-a179-2b274d48eea6","ios":"levelo://app?vid=d23d8d06-b8e3-4b88-a179-2b274d48eea6"},"vehicle_type_id":"4","last_reported":1687464473,"current_range_meters":22000,"station_id":"ce4bh112rcd13ifvqda0","pricing_plan_id":"free"},{"bike_id":"7df3376a-a47c-4484-a7c0-cb9799469218","system_id":"levelo_inurba_marseille","lat":43.301117,"lon":5.398795,"is_reserved":false,"is_disabled":false,"rental_uris":{"android":"levelo://app?vid=7df3376a-a47c-4484-a7c0-cb9799469218","ios":"levelo://app?vid=7df3376a-a47c-4484-a7c0-cb9799469218"},"vehicle_type_id":"4","last_reported":1687464473,"current_range_meters":24800,"station_id":"ce4bh0h2rcd13ifvqd40","pricing_plan_id":"free"},{"bike_id":"e178673e-cab5-47d8-ae54-41ca051511f4","system_id":"levelo_inurba_marseille","lat":43.301117,"lon":5.398795,"is_reserved":false,"is_disabled":false,"rental_uris":{"android":"levelo://app?vid=e178673e-cab5-47d8-ae54-41ca051511f4","ios":"levelo://app?vid=e178673e-cab5-47d8-ae54-41ca051511f4"},"vehicle_type_id":"4","last_reported":1687464473,"current_range_meters":24800,"station_id":"ce4bh0h2rcd13ifvqd40","pricing_plan_id":"free"},{"bike_id":"d48f83a6-0d7e-4f84-8ce6-fcf2e3154756","system_id":"levelo_inurba_marseille","lat":43.301117,"lon":5.398795,"is_reserved":false,"is_disabled":false,"rental_uris":{"android":"levelo://app?vid=d48f83a6-0d7e-4f84-8ce6-fcf2e3154756","ios":"levelo://app?vid=d48f83a6-0d7e-4f84-8ce6-fcf2e3154756"},"vehicle_type_id":"4","last_reported":1687464473,"current_range_meters":27600,"station_id":"ce4bh0h2rcd13ifvqd40","pricing_plan_id":"free"},{"bike_id":"d8a45eab-c666-47db-977d-39632631e7bb","system_id":"levelo_inurba_marseille","lat":43.286961,"lon":5.373785,"is_reserved":false,"is_disabled":false,"rental_uris":{"android":"levelo://app?vid=d8a45eab-c666-47db-977d-39632631e7bb","ios":"levelo://app?vid=d8a45eab-c666-47db-977d-39632631e7bb"},"vehicle_type_id":"4","last_reported":1687464473,"current_range_meters":7200,"station_id":"ce4bh3p2rcd13ifvqdq0","pricing_plan_id":"free"},{"bike_id":"98e47006-f1ed-4531-bf96-40044466fe0d","system_id":"levelo_inurba_marseille","lat":43.286591,"lon":5.363346,"is_reserved":false,"is_disabled":false,"rental_uris":{"android":"levelo://app?vid=98e47006-f1ed-4531-bf96-40044466fe0d","ios":"levelo://app?vid=98e47006-f1ed-4531-bf96-40044466fe0d"},"vehicle_type_id":"4","last_reported":1687464473,"current_range_meters":24800,"station_id":"ce4bhah2rcd13ifvqej0","pricing_plan_id":"free"},{"bike_id":"d5d6d81f-799d-4fb0-88c5-f23f85aa9a52","system_id":"levelo_inurba_marseille","lat":43.298681,"lon":5.397225,"is_reserved":false,"is_disabled":false,"rental_uris":{"android":"levelo://app?vid=d5d6d81f-799d-4fb0-88c5-f23f85aa9a52","ios":"levelo://app?vid=d5d6d81f-799d-4fb0-88c5-f23f85aa9a52"},"vehicle_type_id":"4","last_reported":1687464473,"current_range_meters":21600,"station_id":"ce4bh0h2rcd13ifvqd50","pricing_plan_id":"free"},{"bike_id":"0c372014-7ee1-4825-8ebe-10736a521f34","system_id":"levelo_inurba_marseille","lat":43.286591,"lon":5.363346,"is_reserved":false,"is_disabled":false,"rental_uris":{"android":"levelo://app?vid=0c372014-7ee1-4825-8ebe-10736a521f34","ios":"levelo://app?vid=0c372014-7ee1-4825-8ebe-10736a521f34"},"vehicle_type_id":"4","last_reported":1687464473,"current_range_meters":30800,"station_id":"ce4bhah2rcd13ifvqej0","pricing_plan_id":"free"},{"bike_id":"73bb4652-6e61-4b3e-bd83-ee6f01647d93","system_id":"levelo_inurba_marseille","lat":43.286591,"lon":5.363346,"is_reserved":false,"is_disabled":false,"rental_uris":{"android":"levelo://app?vid=73bb4652-6e61-4b3e-bd83-ee6f01647d93","ios":"levelo://app?vid=73bb4652-6e61-4b3e-bd83-ee6f01647d93"},"vehicle_type_id":"4","last_reported":1687464473,"current_range_meters":30000,"station_id":"ce4bhah2rcd13ifvqej0","pricing_plan_id":"free"},{"bike_id":"3fd9d349-56d3-4215-9189-1da04aeacd36","system_id":"levelo_inurba_marseille","lat":43.286961,"lon":5.373785,"is_reserved":false,"is_disabled":false,"rental_uris":{"android":"levelo://app?vid=3fd9d349-56d3-4215-9189-1da04aeacd36","ios":"levelo://app?vid=3fd9d349-56d3-4215-9189-1da04aeacd36"},"vehicle_type_id":"4","last_reported":1687464473,"current_range_meters":18000,"station_id":"ce4bh3p2rcd13ifvqdq0","pricing_plan_id":"free"},{"bike_id":"65695815-9992-4c58-b585-146bb264d540","system_id":"levelo_inurba_marseille","lat":43.286961,"lon":5.373785,"is_reserved":false,"is_disabled":false,"rental_uris":{"android":"levelo://app?vid=65695815-9992-4c58-b585-146bb264d540","ios":"levelo://app?vid=65695815-9992-4c58-b585-146bb264d540"},"vehicle_type_id":"4","last_reported":1687464473,"current_range_meters":26800,"station_id":"ce4bh3p2rcd13ifvqdq0","pricing_plan_id":"free"},{"bike_id":"58a536e5-ffb4-4324-a246-46fc5f9bb86e","system_id":"levelo_inurba_marseille","lat":43.295196,"lon":5.39397,"is_reserved":false,"is_disabled":false,"rental_uris":{"android":"levelo://app?vid=58a536e5-ffb4-4324-a246-46fc5f9bb86e","ios":"levelo://app?vid=58a536e5-ffb4-4324-a246-46fc5f9bb86e"},"vehicle_type_id":"4","last_reported":1687464473,"current_range_meters":10000,"station_id":"ce4bh292rcd13ifvqdf0","pricing_plan_id":"free"},{"bike_id":"df19e942-4b10-40f8-a1aa-9aee7c4beb61","system_id":"levelo_inurba_marseille","lat":43.290345,"lon":5.38646,"is_reserved":false,"is_disabled":false,"rental_uris":{"android":"levelo://app?vid=df19e942-4b10-40f8-a1aa-9aee7c4beb61","ios":"levelo://app?vid=df19e942-4b10-40f8-a1aa-9aee7c4beb61"},"vehicle_type_id":"4","last_reported":1687464473,"current_range_meters":22800,"station_id":"ce4bh4p2rcd13ifvqe0g","pricing_plan_id":"free"},{"bike_id":"f65b24d5-8173-4145-a39c-d0cde875acc5","system_id":"levelo_inurba_marseille","lat":43.29028,"lon":5.3865,"is_reserved":false,"is_disabled":false,"rental_uris":{"android":"levelo://app?vid=f65b24d5-8173-4145-a39c-d0cde875acc5","ios":"levelo://app?vid=f65b24d5-8173-4145-a39c-d0cde875acc5"},"vehicle_type_id":"4","last_reported":1687464473,"current_range_meters":20000,"station_id":"ce4bh4p2rcd13ifvqe0g","pricing_plan_id":"free"},{"bike_id":"cc80e21b-84f7-43ce-b9c7-22664b9d3f6a","system_id":"levelo_inurba_marseille","lat":43.290275,"lon":5.386514,"is_reserved":false,"is_disabled":false,"rental_uris":{"android":"levelo://app?vid=cc80e21b-84f7-43ce-b9c7-22664b9d3f6a","ios":"levelo://app?vid=cc80e21b-84f7-43ce-b9c7-22664b9d3f6a"},"vehicle_type_id":"4","last_reported":1687464473,"current_range_meters":30000,"station_id":"ce4bh4p2rcd13ifvqe0g","pricing_plan_id":"free"},{"bike_id":"ab010165-f7e9-4c63-bff5-2af05fac4cfa","system_id":"levelo_inurba_marseille","lat":43.286039,"lon":5.370679,"is_reserved":false,"is_disabled":false,"rental_uris":{"android":"levelo://app?vid=ab010165-f7e9-4c63-bff5-2af05fac4cfa","ios":"levelo://app?vid=ab010165-f7e9-4c63-bff5-2af05fac4cfa"},"vehicle_type_id":"4","last_reported":1687464473,"current_range_meters":30000,"station_id":"ce4bht12rcd13ifvqi60","pricing_plan_id":"free"},{"bike_id":"c2f137d9-9d1d-49c5-bf33-3d38d71c5f0d","system_id":"levelo_inurba_marseille","lat":43.287184,"lon":5.37937,"is_reserved":false,"is_disabled":false,"rental_uris":{"android":"levelo://app?vid=c2f137d9-9d1d-49c5-bf33-3d38d71c5f0d","ios":"levelo://app?vid=c2f137d9-9d1d-49c5-bf33-3d38d71c5f0d"},"vehicle_type_id":"4","last_reported":1687464473,"current_range_meters":31600,"station_id":"ce4bh9p2rcd13ifvqec0","pricing_plan_id":"free"},{"bike_id":"c660ca73-249c-4be1-81e2-503aae939d9c","system_id":"levelo_inurba_marseille","lat":43.287184,"lon":5.37937,"is_reserved":false,"is_disabled":false,"rental_uris":{"android":"levelo://app?vid=c660ca73-249c-4be1-81e2-503aae939d9c","ios":"levelo://app?vid=c660ca73-249c-4be1-81e2-503aae939d9c"},"vehicle_type_id":"4","last_reported":1687464473,"current_range_meters":17200,"station_id":"ce4bh9p2rcd13ifvqec0","pricing_plan_id":"free"},{"bike_id":"6cfb998c-cd6e-4d12-9ad4-ae802e82e516","system_id":"levelo_inurba_marseille","lat":43.287184,"lon":5.37937,"is_reserved":false,"is_disabled":false,"rental_uris":{"android":"levelo://app?vid=6cfb998c-cd6e-4d12-9ad4-ae802e82e516","ios":"levelo://app?vid=6cfb998c-cd6e-4d12-9ad4-ae802e82e516"},"vehicle_type_id":"4","last_reported":1687464473,"current_range_meters":0,"station_id":"ce4bh9p2rcd13ifvqec0","pricing_plan_id":"free"},{"bike_id":"050b0a2e-1c56-46bd-b2ce-f4ba1a643da6","system_id":"levelo_inurba_marseille","lat":43.287184,"lon":5.37937,"is_reserved":false,"is_disabled":false,"rental_uris":{"android":"levelo://app?vid=050b0a2e-1c56-46bd-b2ce-f4ba1a643da6","ios":"levelo://app?vid=050b0a2e-1c56-46bd-b2ce-f4ba1a643da6"},"vehicle_type_id":"4","last_reported":1687464473,"current_range_meters":28400,"station_id":"ce4bh9p2rcd13ifvqec0","pricing_plan_id":"free"},{"bike_id":"79b6f6be-0ae9-4f3b-bb72-a08884e2c154","system_id":"levelo_inurba_marseille","lat":43.316517,"lon":5.404375,"is_reserved":false,"is_disabled":false,"rental_uris":{"android":"levelo://app?vid=79b6f6be-0ae9-4f3b-bb72-a08884e2c154","ios":"levelo://app?vid=79b6f6be-0ae9-4f3b-bb72-a08884e2c154"},"vehicle_type_id":"4","last_reported":1687464473,"current_range_meters":18000,"station_id":"ce4bh012rcd13ifvqd00","pricing_plan_id":"free"},{"bike_id":"771f1ee5-0eea-421f-82ad-fd8fc8574b24","system_id":"levelo_inurba_marseille","lat":43.316517,"lon":5.404375,"is_reserved":false,"is_disabled":false,"rental_uris":{"android":"levelo://app?vid=771f1ee5-0eea-421f-82ad-fd8fc8574b24","ios":"levelo://app?vid=771f1ee5-0eea-421f-82ad-fd8fc8574b24"},"vehicle_type_id":"4","last_reported":1687464473,"current_range_meters":24000,"station_id":"ce4bh012rcd13ifvqd00","pricing_plan_id":"free"},{"bike_id":"2cf4ab0b-9e86-4969-a6ee-e04688ea3c26","system_id":"levelo_inurba_marseille","lat":43.291994,"lon":5.392907,"is_reserved":false,"is_disabled":false,"rental_uris":{"android":"levelo://app?vid=2cf4ab0b-9e86-4969-a6ee-e04688ea3c26","ios":"levelo://app?vid=2cf4ab0b-9e86-4969-a6ee-e04688ea3c26"},"vehicle_type_id":"4","last_reported":1687464473,"current_range_meters":30000,"station_id":"ce4bh192rcd13ifvqdd0","pricing_plan_id":"free"},{"bike_id":"31465988-671a-4bc8-b72c-2a1a23d99484","system_id":"levelo_inurba_marseille","lat":43.294314,"lon":5.397498,"is_reserved":false,"is_disabled":false,"rental_uris":{"android":"levelo://app?vid=31465988-671a-4bc8-b72c-2a1a23d99484","ios":"levelo://app?vid=31465988-671a-4bc8-b72c-2a1a23d99484"},"vehicle_type_id":"4","last_reported":1687464473,"current_range_meters":4800,"station_id":"ce4bh3h2rcd13ifvqdo0","pricing_plan_id":"free"},{"bike_id":"4d2a5477-9537-4fb7-ab49-73ac44c83da7","system_id":"levelo_inurba_marseille","lat":43.28418,"lon":5.37521,"is_reserved":false,"is_disabled":false,"rental_uris":{"android":"levelo://app?vid=4d2a5477-9537-4fb7-ab49-73ac44c83da7","ios":"levelo://app?vid=4d2a5477-9537-4fb7-ab49-73ac44c83da7"},"vehicle_type_id":"4","last_reported":1687464473,"current_range_meters":1600,"station_id":"ce4bh412rcd13ifvqds0","pricing_plan_id":"free"},{"bike_id":"92dffff9-b5b7-4fce-b076-4e348af99687","system_id":"levelo_inurba_marseille","lat":43.295713,"lon":5.399639,"is_reserved":false,"is_disabled":false,"rental_uris":{"android":"levelo://app?vid=92dffff9-b5b7-4fce-b076-4e348af99687","ios":"levelo://app?vid=92dffff9-b5b7-4fce-b076-4e348af99687"},"vehicle_type_id":"4","last_reported":1687464473,"current_range_meters":2800,"station_id":"ce4bh312rcd13ifvqdj0","pricing_plan_id":"free"},{"bike_id":"f1fd5235-6c6c-4e61-aa15-89a4e4c9b64a","system_id":"levelo_inurba_marseille","lat":43.286595,"lon":5.386795,"is_reserved":false,"is_disabled":false,"rental_uris":{"android":"levelo://app?vid=f1fd5235-6c6c-4e61-aa15-89a4e4c9b64a","ios":"levelo://app?vid=f1fd5235-6c6c-4e61-aa15-89a4e4c9b64a"},"vehicle_type_id":"4","last_reported":1687464473,"current_range_meters":1200,"station_id":"ce4bh492rcd13ifvqdug","pricing_plan_id":"free"},{"bike_id":"b1272a96-cc4f-4bfa-ac0b-3a4354741514","system_id":"levelo_inurba_marseille","lat":43.286595,"lon":5.386795,"is_reserved":false,"is_disabled":false,"rental_uris":{"android":"levelo://app?vid=b1272a96-cc4f-4bfa-ac0b-3a4354741514","ios":"levelo://app?vid=b1272a96-cc4f-4bfa-ac0b-3a4354741514"},"vehicle_type_id":"4","last_reported":1687464473,"current_range_meters":31200,"station_id":"ce4bh492rcd13ifvqdug","pricing_plan_id":"free"},{"bike_id":"e71b5999-1f7f-4d4e-b1b9-134baff0bf8f","system_id":"levelo_inurba_marseille","lat":43.286595,"lon":5.386795,"is_reserved":false,"is_disabled":false,"rental_uris":{"android":"levelo://app?vid=e71b5999-1f7f-4d4e-b1b9-134baff0bf8f","ios":"levelo://app?vid=e71b5999-1f7f-4d4e-b1b9-134baff0bf8f"},"vehicle_type_id":"4","last_reported":1687464473,"current_range_meters":31200,"station_id":"ce4bh492rcd13ifvqdug","pricing_plan_id":"free"},{"bike_id":"ef15d972-ace9-42fe-803e-cace83aa3997","system_id":"levelo_inurba_marseille","lat":43.286595,"lon":5.386795,"is_reserved":false,"is_disabled":false,"rental_uris":{"android":"levelo://app?vid=ef15d972-ace9-42fe-803e-cace83aa3997","ios":"levelo://app?vid=ef15d972-ace9-42fe-803e-cace83aa3997"},"vehicle_type_id":"4","last_reported":1687464473,"current_range_meters":18000,"station_id":"ce4bh492rcd13ifvqdug","pricing_plan_id":"free"},{"bike_id":"f6fda2f2-04f1-4377-bae3-2fc212d95c47","system_id":"levelo_inurba_marseille","lat":43.34229,"lon":5.36211,"is_reserved":false,"is_disabled":false,"rental_uris":{"android":"levelo://app?vid=f6fda2f2-04f1-4377-bae3-2fc212d95c47","ios":"levelo://app?vid=f6fda2f2-04f1-4377-bae3-2fc212d95c47"},"vehicle_type_id":"4","last_reported":1687464473,"current_range_meters":0,"station_id":"","pricing_plan_id":"free"},{"bike_id":"3e9a79af-27e7-495b-bf1d-9d77bc0f52f3","system_id":"levelo_inurba_marseille","lat":43.28655,"lon":5.38665,"is_reserved":false,"is_disabled":false,"rental_uris":{"android":"levelo://app?vid=3e9a79af-27e7-495b-bf1d-9d77bc0f52f3","ios":"levelo://app?vid=3e9a79af-27e7-495b-bf1d-9d77bc0f52f3"},"vehicle_type_id":"4","last_reported":1687464473,"current_range_meters":31200,"station_id":"ce4bh492rcd13ifvqdug","pricing_plan_id":"free"},{"bike_id":"4cc1af33-9059-4574-a529-25594c688e38","system_id":"levelo_inurba_marseille","lat":43.284793,"lon":5.384113,"is_reserved":false,"is_disabled":false,"rental_uris":{"android":"levelo://app?vid=4cc1af33-9059-4574-a529-25594c688e38","ios":"levelo://app?vid=4cc1af33-9059-4574-a529-25594c688e38"},"vehicle_type_id":"4","last_reported":1687464473,"current_range_meters":2800,"station_id":"ce4bh512rcd13ifvqe3g","pricing_plan_id":"free"},{"bike_id":"3409b3cc-a220-46b2-9d55-18c3d287f561","system_id":"levelo_inurba_marseille","lat":43.284793,"lon":5.384113,"is_reserved":false,"is_disabled":false,"rental_uris":{"android":"levelo://app?vid=3409b3cc-a220-46b2-9d55-18c3d287f561","ios":"levelo://app?vid=3409b3cc-a220-46b2-9d55-18c3d287f561"},"vehicle_type_id":"4","last_reported":1687464473,"current_range_meters":1200,"station_id":"ce4bh512rcd13ifvqe3g","pricing_plan_id":"free"},{"bike_id":"e1e0836b-5967-48b1-8d5e-b827cfbdb496","system_id":"levelo_inurba_marseille","lat":43.284793,"lon":5.384113,"is_reserved":false,"is_disabled":false,"rental_uris":{"android":"levelo://app?vid=e1e0836b-5967-48b1-8d5e-b827cfbdb496","ios":"levelo://app?vid=e1e0836b-5967-48b1-8d5e-b827cfbdb496"},"vehicle_type_id":"4","last_reported":1687464473,"current_range_meters":2400,"station_id":"ce4bh512rcd13ifvqe3g","pricing_plan_id":"free"},{"bike_id":"0ed91cf0-65b4-485f-bb66-78ee8d9b9ac7","system_id":"levelo_inurba_marseille","lat":43.32381,"lon":5.40641,"is_reserved":false,"is_disabled":false,"rental_uris":{"android":"levelo://app?vid=0ed91cf0-65b4-485f-bb66-78ee8d9b9ac7","ios":"levelo://app?vid=0ed91cf0-65b4-485f-bb66-78ee8d9b9ac7"},"vehicle_type_id":"4","last_reported":1687464473,"current_range_meters":8000,"station_id":"","pricing_plan_id":"free"},{"bike_id":"fe94dbff-dea0-436e-b15c-cecd9e097221","system_id":"levelo_inurba_marseille","lat":43.288501,"lon":5.393087,"is_reserved":false,"is_disabled":false,"rental_uris":{"android":"levelo://app?vid=fe94dbff-dea0-436e-b15c-cecd9e097221","ios":"levelo://app?vid=fe94dbff-dea0-436e-b15c-cecd9e097221"},"vehicle_type_id":"4","last_reported":1687464473,"current_range_meters":32000,"station_id":"ce4bh2p2rcd13ifvqdi0","pricing_plan_id":"free"},{"bike_id":"dd092429-be91-4be5-8093-e1c461b4d07f","system_id":"levelo_inurba_marseille","lat":43.288501,"lon":5.393087,"is_reserved":false,"is_disabled":false,"rental_uris":{"android":"levelo://app?vid=dd092429-be91-4be5-8093-e1c461b4d07f","ios":"levelo://app?vid=dd092429-be91-4be5-8093-e1c461b4d07f"},"vehicle_type_id":"4","last_reported":1687464473,"current_range_meters":24000,"station_id":"ce4bh2p2rcd13ifvqdi0","pricing_plan_id":"free"},{"bike_id":"b4c950db-352f-4a1a-8e3c-c05101a6dad0","system_id":"levelo_inurba_marseille","lat":43.288497,"lon":5.393089,"is_reserved":false,"is_disabled":false,"rental_uris":{"android":"levelo://app?vid=b4c950db-352f-4a1a-8e3c-c05101a6dad0","ios":"levelo://app?vid=b4c950db-352f-4a1a-8e3c-c05101a6dad0"},"vehicle_type_id":"4","last_reported":1687464473,"current_range_meters":31200,"station_id":"ce4bh2p2rcd13ifvqdi0","pricing_plan_id":"free"},{"bike_id":"d4df8262-9e4d-4103-9d95-2da5c1ac22ff","system_id":"levelo_inurba_marseille","lat":43.28355,"lon":5.38094,"is_reserved":false,"is_disabled":false,"rental_uris":{"android":"levelo://app?vid=d4df8262-9e4d-4103-9d95-2da5c1ac22ff","ios":"levelo://app?vid=d4df8262-9e4d-4103-9d95-2da5c1ac22ff"},"vehicle_type_id":"4","last_reported":1687464473,"current_range_meters":6000,"station_id":"ce4bh412rcd13ifvqdr0","pricing_plan_id":"free"},{"bike_id":"6703be06-7a4f-49e7-a546-d3fd6cc15f62","system_id":"levelo_inurba_marseille","lat":43.288501,"lon":5.393087,"is_reserved":false,"is_disabled":false,"rental_uris":{"android":"levelo://app?vid=6703be06-7a4f-49e7-a546-d3fd6cc15f62","ios":"levelo://app?vid=6703be06-7a4f-49e7-a546-d3fd6cc15f62"},"vehicle_type_id":"4","last_reported":1687464473,"current_range_meters":26000,"station_id":"ce4bh2p2rcd13ifvqdi0","pricing_plan_id":"free"},{"bike_id":"8f4fc66e-8061-445a-817e-22b5ff331782","system_id":"levelo_inurba_marseille","lat":43.288501,"lon":5.393087,"is_reserved":false,"is_disabled":false,"rental_uris":{"android":"levelo://app?vid=8f4fc66e-8061-445a-817e-22b5ff331782","ios":"levelo://app?vid=8f4fc66e-8061-445a-817e-22b5ff331782"},"vehicle_type_id":"4","last_reported":1687464473,"current_range_meters":32000,"station_id":"ce4bh2p2rcd13ifvqdi0","pricing_plan_id":"free"},{"bike_id":"ecd28f79-8356-4e81-a119-5bdf87348e9d","system_id":"levelo_inurba_marseille","lat":43.288424,"lon":5.393231,"is_reserved":false,"is_disabled":false,"rental_uris":{"android":"levelo://app?vid=ecd28f79-8356-4e81-a119-5bdf87348e9d","ios":"levelo://app?vid=ecd28f79-8356-4e81-a119-5bdf87348e9d"},"vehicle_type_id":"4","last_reported":1687464473,"current_range_meters":22000,"station_id":"ce4bh2p2rcd13ifvqdi0","pricing_plan_id":"free"},{"bike_id":"65a3839d-097f-4ede-96c3-449a16ffee73","system_id":"levelo_inurba_marseille","lat":43.288501,"lon":5.393087,"is_reserved":false,"is_disabled":false,"rental_uris":{"android":"levelo://app?vid=65a3839d-097f-4ede-96c3-449a16ffee73","ios":"levelo://app?vid=65a3839d-097f-4ede-96c3-449a16ffee73"},"vehicle_type_id":"4","last_reported":1687464473,"current_range_meters":20800,"station_id":"ce4bh2p2rcd13ifvqdi0","pricing_plan_id":"free"},{"bike_id":"57c41f8b-5507-4c48-b050-5b577352528b","system_id":"levelo_inurba_marseille","lat":43.32961,"lon":5.4028,"is_reserved":false,"is_disabled":false,"rental_uris":{"android":"levelo://app?vid=57c41f8b-5507-4c48-b050-5b577352528b","ios":"levelo://app?vid=57c41f8b-5507-4c48-b050-5b577352528b"},"vehicle_type_id":"4","last_reported":1687464473,"current_range_meters":24000,"station_id":"","pricing_plan_id":"free"},{"bike_id":"e71a6345-380a-4971-a58b-adebae341ae1","system_id":"levelo_inurba_marseille","lat":43.283502,"lon":5.386471,"is_reserved":false,"is_disabled":false,"rental_uris":{"android":"levelo://app?vid=e71a6345-380a-4971-a58b-adebae341ae1","ios":"levelo://app?vid=e71a6345-380a-4971-a58b-adebae341ae1"},"vehicle_type_id":"4","last_reported":1687464473,"current_range_meters":20000,"station_id":"ce4bh492rcd13ifvqdvg","pricing_plan_id":"free"},{"bike_id":"1f49fd6f-617f-4cdc-855e-db4d852cfc9d","system_id":"levelo_inurba_marseille","lat":43.283502,"lon":5.386471,"is_reserved":false,"is_disabled":false,"rental_uris":{"android":"levelo://app?vid=1f49fd6f-617f-4cdc-855e-db4d852cfc9d","ios":"levelo://app?vid=1f49fd6f-617f-4cdc-855e-db4d852cfc9d"},"vehicle_type_id":"4","last_reported":1687464473,"current_range_meters":800,"station_id":"ce4bh492rcd13ifvqdvg","pricing_plan_id":"free"},{"bike_id":"3c951801-bcdb-4724-a1b9-c3005587d453","system_id":"levelo_inurba_marseille","lat":43.28039,"lon":5.369297,"is_reserved":false,"is_disabled":false,"rental_uris":{"android":"levelo://app?vid=3c951801-bcdb-4724-a1b9-c3005587d453","ios":"levelo://app?vid=3c951801-bcdb-4724-a1b9-c3005587d453"},"vehicle_type_id":"4","last_reported":1687464473,"current_range_meters":25600,"station_id":"ce4bha12rcd13ifvqef0","pricing_plan_id":"free"},{"bike_id":"3552973e-60a3-4b5a-84bd-7d1f11f738d0","system_id":"levelo_inurba_marseille","lat":43.28039,"lon":5.369297,"is_reserved":false,"is_disabled":false,"rental_uris":{"android":"levelo://app?vid=3552973e-60a3-4b5a-84bd-7d1f11f738d0","ios":"levelo://app?vid=3552973e-60a3-4b5a-84bd-7d1f11f738d0"},"vehicle_type_id":"4","last_reported":1687464473,"current_range_meters":11600,"station_id":"ce4bha12rcd13ifvqef0","pricing_plan_id":"free"},{"bike_id":"29fd25fe-0bd0-4f2c-b13f-ad5bff135627","system_id":"levelo_inurba_marseille","lat":43.28039,"lon":5.369297,"is_reserved":false,"is_disabled":false,"rental_uris":{"android":"levelo://app?vid=29fd25fe-0bd0-4f2c-b13f-ad5bff135627","ios":"levelo://app?vid=29fd25fe-0bd0-4f2c-b13f-ad5bff135627"},"vehicle_type_id":"4","last_reported":1687464473,"current_range_meters":400,"station_id":"ce4bha12rcd13ifvqef0","pricing_plan_id":"free"},{"bike_id":"902b568c-3044-44a5-b501-2d717a0b27fb","system_id":"levelo_inurba_marseille","lat":43.283502,"lon":5.386471,"is_reserved":false,"is_disabled":false,"rental_uris":{"android":"levelo://app?vid=902b568c-3044-44a5-b501-2d717a0b27fb","ios":"levelo://app?vid=902b568c-3044-44a5-b501-2d717a0b27fb"},"vehicle_type_id":"4","last_reported":1687464473,"current_range_meters":11200,"station_id":"ce4bh492rcd13ifvqdvg","pricing_plan_id":"free"},{"bike_id":"f802147e-26b4-49a9-b6c5-60b58d6ee1bb","system_id":"levelo_inurba_marseille","lat":43.28039,"lon":5.369297,"is_reserved":false,"is_disabled":false,"rental_uris":{"android":"levelo://app?vid=f802147e-26b4-49a9-b6c5-60b58d6ee1bb","ios":"levelo://app?vid=f802147e-26b4-49a9-b6c5-60b58d6ee1bb"},"vehicle_type_id":"4","last_reported":1687464473,"current_range_meters":22400,"station_id":"ce4bha12rcd13ifvqef0","pricing_plan_id":"free"},{"bike_id":"8732715f-39db-4c6f-a4f6-1acf24b1480c","system_id":"levelo_inurba_marseille","lat":43.28039,"lon":5.369297,"is_reserved":false,"is_disabled":false,"rental_uris":{"android":"levelo://app?vid=8732715f-39db-4c6f-a4f6-1acf24b1480c","ios":"levelo://app?vid=8732715f-39db-4c6f-a4f6-1acf24b1480c"},"vehicle_type_id":"4","last_reported":1687464473,"current_range_meters":32000,"station_id":"ce4bha12rcd13ifvqef0","pricing_plan_id":"free"},{"bike_id":"5ee3f4c0-bb4e-40ae-847e-6faf9aae7d5e","system_id":"levelo_inurba_marseille","lat":43.28352,"lon":5.38636,"is_reserved":false,"is_disabled":false,"rental_uris":{"android":"levelo://app?vid=5ee3f4c0-bb4e-40ae-847e-6faf9aae7d5e","ios":"levelo://app?vid=5ee3f4c0-bb4e-40ae-847e-6faf9aae7d5e"},"vehicle_type_id":"4","last_reported":1687464473,"current_range_meters":16800,"station_id":"ce4bh492rcd13ifvqdvg","pricing_plan_id":"free"},{"bike_id":"a17b0029-ca33-4798-baab-0f3eaa19db41","system_id":"levelo_inurba_marseille","lat":43.28031,"lon":5.36957,"is_reserved":false,"is_disabled":false,"rental_uris":{"android":"levelo://app?vid=a17b0029-ca33-4798-baab-0f3eaa19db41","ios":"levelo://app?vid=a17b0029-ca33-4798-baab-0f3eaa19db41"},"vehicle_type_id":"4","last_reported":1687464473,"current_range_meters":30000,"station_id":"ce4bha12rcd13ifvqef0","pricing_plan_id":"free"},{"bike_id":"6ceb940d-e01f-48f2-8994-5040b63e432a","system_id":"levelo_inurba_marseille","lat":43.28029,"lon":5.36945,"is_reserved":false,"is_disabled":false,"rental_uris":{"android":"levelo://app?vid=6ceb940d-e01f-48f2-8994-5040b63e432a","ios":"levelo://app?vid=6ceb940d-e01f-48f2-8994-5040b63e432a"},"vehicle_type_id":"4","last_reported":1687464473,"current_range_meters":12000,"station_id":"ce4bha12rcd13ifvqef0","pricing_plan_id":"free"},{"bike_id":"50f3a798-ec79-4fe0-b285-1326ae52c348","system_id":"levelo_inurba_marseille","lat":43.290394,"lon":5.399781,"is_reserved":false,"is_disabled":false,"rental_uris":{"android":"levelo://app?vid=50f3a798-ec79-4fe0-b285-1326ae52c348","ios":"levelo://app?vid=50f3a798-ec79-4fe0-b285-1326ae52c348"},"vehicle_type_id":"4","last_reported":1687464473,"current_range_meters":0,"station_id":"","pricing_plan_id":"free"},{"bike_id":"658a78bb-9c0d-4168-bf73-328c933e303f","system_id":"levelo_inurba_marseille","lat":43.296263,"lon":5.40601,"is_reserved":false,"is_disabled":false,"rental_uris":{"android":"levelo://app?vid=658a78bb-9c0d-4168-bf73-328c933e303f","ios":"levelo://app?vid=658a78bb-9c0d-4168-bf73-328c933e303f"},"vehicle_type_id":"4","last_reported":1687464473,"current_range_meters":21200,"station_id":"ce4bh0h2rcd13ifvqd60","pricing_plan_id":"free"},{"bike_id":"ff60adae-f71a-4e2f-9c03-c28e9ecc3c45","system_id":"levelo_inurba_marseille","lat":43.32731,"lon":5.40758,"is_reserved":false,"is_disabled":false,"rental_uris":{"android":"levelo://app?vid=ff60adae-f71a-4e2f-9c03-c28e9ecc3c45","ios":"levelo://app?vid=ff60adae-f71a-4e2f-9c03-c28e9ecc3c45"},"vehicle_type_id":"4","last_reported":1687464473,"current_range_meters":13600,"station_id":"","pricing_plan_id":"free"},{"bike_id":"3cd10ad7-a316-4ed6-a3d9-f31d3f3622ac","system_id":"levelo_inurba_marseille","lat":43.34472,"lon":5.37819,"is_reserved":false,"is_disabled":false,"rental_uris":{"android":"levelo://app?vid=3cd10ad7-a316-4ed6-a3d9-f31d3f3622ac","ios":"levelo://app?vid=3cd10ad7-a316-4ed6-a3d9-f31d3f3622ac"},"vehicle_type_id":"4","last_reported":1687464473,"current_range_meters":4400,"station_id":"","pricing_plan_id":"free"},{"bike_id":"7a4ad972-ad5e-4063-b278-387eb97deea7","system_id":"levelo_inurba_marseille","lat":43.284462,"lon":5.392121,"is_reserved":false,"is_disabled":false,"rental_uris":{"android":"levelo://app?vid=7a4ad972-ad5e-4063-b278-387eb97deea7","ios":"levelo://app?vid=7a4ad972-ad5e-4063-b278-387eb97deea7"},"vehicle_type_id":"4","last_reported":1687464473,"current_range_meters":31200,"station_id":"ce4bhoh2rcd13ifvqh5g","pricing_plan_id":"free"},{"bike_id":"cc8750d2-bae6-41dc-bf3a-764b42f56e15","system_id":"levelo_inurba_marseille","lat":43.284452,"lon":5.391918,"is_reserved":false,"is_disabled":false,"rental_uris":{"android":"levelo://app?vid=cc8750d2-bae6-41dc-bf3a-764b42f56e15","ios":"levelo://app?vid=cc8750d2-bae6-41dc-bf3a-764b42f56e15"},"vehicle_type_id":"4","last_reported":1687464473,"current_range_meters":22800,"station_id":"ce4bhoh2rcd13ifvqh5g","pricing_plan_id":"free"},{"bike_id":"2cf6702b-54f1-49fc-90f9-1fe2a013b4ec","system_id":"levelo_inurba_marseille","lat":43.284461,"lon":5.391971,"is_reserved":false,"is_disabled":false,"rental_uris":{"android":"levelo://app?vid=2cf6702b-54f1-49fc-90f9-1fe2a013b4ec","ios":"levelo://app?vid=2cf6702b-54f1-49fc-90f9-1fe2a013b4ec"},"vehicle_type_id":"4","last_reported":1687464473,"current_range_meters":31200,"station_id":"ce4bhoh2rcd13ifvqh5g","pricing_plan_id":"free"},{"bike_id":"7c2124dd-b579-4124-a196-ec28d72328f1","system_id":"levelo_inurba_marseille","lat":43.28438,"lon":5.39184,"is_reserved":false,"is_disabled":false,"rental_uris":{"android":"levelo://app?vid=7c2124dd-b579-4124-a196-ec28d72328f1","ios":"levelo://app?vid=7c2124dd-b579-4124-a196-ec28d72328f1"},"vehicle_type_id":"4","last_reported":1687464473,"current_range_meters":24000,"station_id":"ce4bhoh2rcd13ifvqh5g","pricing_plan_id":"free"},{"bike_id":"7f03b562-ca41-4039-b47b-5705f1a116b6","system_id":"levelo_inurba_marseille","lat":43.284462,"lon":5.392121,"is_reserved":false,"is_disabled":false,"rental_uris":{"android":"levelo://app?vid=7f03b562-ca41-4039-b47b-5705f1a116b6","ios":"levelo://app?vid=7f03b562-ca41-4039-b47b-5705f1a116b6"},"vehicle_type_id":"4","last_reported":1687464473,"current_range_meters":10000,"station_id":"ce4bhoh2rcd13ifvqh5g","pricing_plan_id":"free"},{"bike_id":"2b00482b-ca80-432d-bd1c-6b7b8fa8ac34","system_id":"levelo_inurba_marseille","lat":43.284462,"lon":5.392121,"is_reserved":false,"is_disabled":false,"rental_uris":{"android":"levelo://app?vid=2b00482b-ca80-432d-bd1c-6b7b8fa8ac34","ios":"levelo://app?vid=2b00482b-ca80-432d-bd1c-6b7b8fa8ac34"},"vehicle_type_id":"4","last_reported":1687464473,"current_range_meters":22000,"station_id":"ce4bhoh2rcd13ifvqh5g","pricing_plan_id":"free"},{"bike_id":"811045fb-6e5d-4e4b-987c-994ae08d8f96","system_id":"levelo_inurba_marseille","lat":43.284462,"lon":5.392121,"is_reserved":false,"is_disabled":false,"rental_uris":{"android":"levelo://app?vid=811045fb-6e5d-4e4b-987c-994ae08d8f96","ios":"levelo://app?vid=811045fb-6e5d-4e4b-987c-994ae08d8f96"},"vehicle_type_id":"4","last_reported":1687464473,"current_range_meters":14800,"station_id":"ce4bhoh2rcd13ifvqh5g","pricing_plan_id":"free"},{"bike_id":"0a437091-a8ac-4e67-a4ed-a9396d80e92e","system_id":"levelo_inurba_marseille","lat":43.284462,"lon":5.392121,"is_reserved":false,"is_disabled":false,"rental_uris":{"android":"levelo://app?vid=0a437091-a8ac-4e67-a4ed-a9396d80e92e","ios":"levelo://app?vid=0a437091-a8ac-4e67-a4ed-a9396d80e92e"},"vehicle_type_id":"4","last_reported":1687464473,"current_range_meters":24400,"station_id":"ce4bhoh2rcd13ifvqh5g","pricing_plan_id":"free"},{"bike_id":"fc2a51fe-3bf8-46f3-9fe8-f24612d4a02a","system_id":"levelo_inurba_marseille","lat":43.326565,"lon":5.409975,"is_reserved":false,"is_disabled":false,"rental_uris":{"android":"levelo://app?vid=fc2a51fe-3bf8-46f3-9fe8-f24612d4a02a","ios":"levelo://app?vid=fc2a51fe-3bf8-46f3-9fe8-f24612d4a02a"},"vehicle_type_id":"4","last_reported":1687464473,"current_range_meters":10000,"station_id":"ce4bhpp2rcd13ifvqhgg","pricing_plan_id":"free"},{"bike_id":"0805728d-3872-4152-b8e8-0337a91a6cb9","system_id":"levelo_inurba_marseille","lat":43.326605,"lon":5.409903,"is_reserved":false,"is_disabled":false,"rental_uris":{"android":"levelo://app?vid=0805728d-3872-4152-b8e8-0337a91a6cb9","ios":"levelo://app?vid=0805728d-3872-4152-b8e8-0337a91a6cb9"},"vehicle_type_id":"4","last_reported":1687464473,"current_range_meters":0,"station_id":"ce4bhpp2rcd13ifvqhgg","pricing_plan_id":"free"},{"bike_id":"28062648-e812-40e4-b9e6-d8c6d2cd419a","system_id":"levelo_inurba_marseille","lat":43.30422,"lon":5.41282,"is_reserved":false,"is_disabled":false,"rental_uris":{"android":"levelo://app?vid=28062648-e812-40e4-b9e6-d8c6d2cd419a","ios":"levelo://app?vid=28062648-e812-40e4-b9e6-d8c6d2cd419a"},"vehicle_type_id":"4","last_reported":1687464473,"current_range_meters":0,"station_id":"ce4bhop2rcd13ifvqh8g","pricing_plan_id":"free"},{"bike_id":"c22690d5-d1b6-4a7e-b432-d8bf2669d206","system_id":"levelo_inurba_marseille","lat":43.30419,"lon":5.41292,"is_reserved":false,"is_disabled":false,"rental_uris":{"android":"levelo://app?vid=c22690d5-d1b6-4a7e-b432-d8bf2669d206","ios":"levelo://app?vid=c22690d5-d1b6-4a7e-b432-d8bf2669d206"},"vehicle_type_id":"4","last_reported":1687464473,"current_range_meters":20000,"station_id":"ce4bhop2rcd13ifvqh8g","pricing_plan_id":"free"},{"bike_id":"50fd953c-9754-45f4-aec7-ae52bb9eb6fe","system_id":"levelo_inurba_marseille","lat":43.287154,"lon":5.399979,"is_reserved":false,"is_disabled":false,"rental_uris":{"android":"levelo://app?vid=50fd953c-9754-45f4-aec7-ae52bb9eb6fe","ios":"levelo://app?vid=50fd953c-9754-45f4-aec7-ae52bb9eb6fe"},"vehicle_type_id":"4","last_reported":1687464473,"current_range_meters":25600,"station_id":"ce4bho92rcd13ifvqh3g","pricing_plan_id":"free"},{"bike_id":"f47d889e-f3a7-4cf7-b89b-498d12032e77","system_id":"levelo_inurba_marseille","lat":43.2929,"lon":5.40667,"is_reserved":false,"is_disabled":false,"rental_uris":{"android":"levelo://app?vid=f47d889e-f3a7-4cf7-b89b-498d12032e77","ios":"levelo://app?vid=f47d889e-f3a7-4cf7-b89b-498d12032e77"},"vehicle_type_id":"4","last_reported":1687464473,"current_range_meters":12400,"station_id":"","pricing_plan_id":"free"},{"bike_id":"feac8678-156c-4b3c-8ad4-d5adb27d8874","system_id":"levelo_inurba_marseille","lat":43.28705,"lon":5.39981,"is_reserved":false,"is_disabled":false,"rental_uris":{"android":"levelo://app?vid=feac8678-156c-4b3c-8ad4-d5adb27d8874","ios":"levelo://app?vid=feac8678-156c-4b3c-8ad4-d5adb27d8874"},