{"last_updated":1727852902,"ttl":60,"version":"2.2","data":{"bikes":[{"bike_id":"1ec1f50b-6830-48fa-87dc-50ac191fb307","system_id":"levelo_inurba_marseille","lat":43.30469,"lon":5.37903,"is_reserved":false,"is_disabled":false,"rental_uris":{"android":"levelo://app?vid=1ec1f50b-6830-48fa-87dc-50ac191fb307","ios":"levelo://app?vid=1ec1f50b-6830-48fa-87dc-50ac191fb307"},"vehicle_type_id":"4","last_reported":1727852902,"current_range_meters":33200,"station_id":"ce4bgup2rcd13ifvqcn0","pricing_plan_id":"cebpf4jnsgd1na2vs0mg"},{"bike_id":"484edfb5-9f03-4dae-a24e-4b5baa8721ea","system_id":"levelo_inurba_marseille","lat":43.3047,"lon":5.37901,"is_reserved":false,"is_disabled":false,"rental_uris":{"android":"levelo://app?vid=484edfb5-9f03-4dae-a24e-4b5baa8721ea","ios":"levelo://app?vid=484edfb5-9f03-4dae-a24e-4b5baa8721ea"},"vehicle_type_id":"4","last_reported":1727852902,"current_range_meters":39200,"station_id":"ce4bgup2rcd13ifvqcn0","pricing_plan_id":"cebpf4jnsgd1na2vs0mg"},{"bike_id":"fbc4b367-7bbb-43b3-ba51-7142eb83236b","system_id":"levelo_inurba_marseille","lat":43.31455,"lon":5.37399,"is_reserved":false,"is_disabled":false,"rental_uris":{"android":"levelo://app?vid=fbc4b367-7bbb-43b3-ba51-7142eb83236b","ios":"levelo://app?vid=fbc4b367-7bbb-43b3-ba51-7142eb83236b"},"vehicle_type_id":"4","last_reported":1727852902,"current_range_meters":24800,"station_id":"","pricing_plan_id":"cebpf4jnsgd1na2vs0mg"},{"bike_id":"96d8b6be-baac-4722-8785-0612f979859f","system_id":"levelo_inurba_marseille","lat":43.34141,"lon":5.40906,"is_reserved":false,"is_disabled":false,"rental_uris":{"android":"levelo://app?vid=96d8b6be-baac-4722-8785-0612f979859f","ios":"levelo://app?vid=96d8b6be-baac-4722-8785-0612f979859f"},"vehicle_type_id":"4","last_reported":1727852902,"current_range_meters":38000,"station_id":"ce4bhqh2rcd13ifvqhlg","pricing_plan_id":"cebpf4jnsgd1na2vs0mg"},{"bike_id":"b9f32c6f-a21d-464f-8bc6-000a83d7c950","system_id":"levelo_inurba_marseille","lat":43.295926,"lon":5.375015,"is_reserved":false,"is_disabled":false,"rental_uris":{"android":"levelo://app?vid=b9f32c6f-a21d-464f-8bc6-000a83d7c950","ios":"levelo://app?vid=b9f32c6f-a21d-464f-8bc6-000a83d7c950"},"vehicle_type_id":"4","last_reported":1727852902,"current_range_meters":9200,"station_id":"ce4bgh92rcd13ifvqb50","pricing_plan_id":"cebpf4jnsgd1na2vs0mg"},{"bike_id":"590a8d58-4170-45bf-9ac5-837bd3ff5b81","system_id":"levelo_inurba_marseille","lat":43.270634,"lon":5.42273,"is_reserved":false,"is_disabled":false,"rental_uris":{"android":"levelo://app?vid=590a8d58-4170-45bf-9ac5-837bd3ff5b81","ios":"levelo://app?vid=590a8d58-4170-45bf-9ac5-837bd3ff5b81"},"vehicle_type_id":"4","last_reported":1727852902,"current_range_meters":24400,"station_id":"ce4bhk92rcd13ifvqgb0","pricing_plan_id":"cebpf4jnsgd1na2vs0mg"},{"bike_id":"44cefc2e-25d9-4040-b45f-14956c78c679","system_id":"levelo_inurba_marseille","lat":43.27071,"lon":5.42283,"is_reserved":false,"is_disabled":false,"rental_uris":{"android":"levelo://app?vid=44cefc2e-25d9-4040-b45f-14956c78c679","ios":"levelo://app?vid=44cefc2e-25d9-4040-b45f-14956c78c679"},"vehicle_type_id":"4","last_reported":1727852902,"current_range_meters":38400,"station_id":"ce4bhk92rcd13ifvqgb0","pricing_plan_id":"cebpf4jnsgd1na2vs0mg"},{"bike_id":"98bbd9c1-8307-405d-9250-6682408d96e2","system_id":"levelo_inurba_marseille","lat":43.337444,"lon":5.374475,"is_reserved":false,"is_disabled":false,"rental_uris":{"android":"levelo://app?vid=98bbd9c1-8307-405d-9250-6682408d96e2","ios":"levelo://app?vid=98bbd9c1-8307-405d-9250-6682408d96e2"},"vehicle_type_id":"4","last_reported":1727852902,"current_range_meters":38800,"station_id":"","pricing_plan_id":"cebpf4jnsgd1na2vs0mg"},{"bike_id":"36c16717-a39d-4982-b908-c0d63ba1e343","system_id":"levelo_inurba_marseille","lat":43.30147,"lon":5.38077,"is_reserved":false,"is_disabled":false,"rental_uris":{"android":"levelo://app?vid=36c16717-a39d-4982-b908-c0d63ba1e343","ios":"levelo://app?vid=36c16717-a39d-4982-b908-c0d63ba1e343"},"vehicle_type_id":"4","last_reported":1727852902,"current_range_meters":11600,"station_id":"ce4bgjp2rcd13ifvqbh0","pricing_plan_id":"cebpf4jnsgd1na2vs0mg"},{"bike_id":"13478e4b-fa1f-40b2-b1a4-27334585dcd6","system_id":"levelo_inurba_marseille","lat":43.29551,"lon":5.42287,"is_reserved":false,"is_disabled":false,"rental_uris":{"android":"levelo://app?vid=13478e4b-fa1f-40b2-b1a4-27334585dcd6","ios":"levelo://app?vid=13478e4b-fa1f-40b2-b1a4-27334585dcd6"},"vehicle_type_id":"4","last_reported":1727852902,"current_range_meters":38800,"station_id":"ce4bhph2rcd13ifvqhdg","pricing_plan_id":"cebpf4jnsgd1na2vs0mg"},{"bike_id":"63c520cd-f9df-40ef-a343-da8f58ecb6af","system_id":"levelo_inurba_marseille","lat":43.29316,"lon":5.37179,"is_reserved":false,"is_disabled":false,"rental_uris":{"android":"levelo://app?vid=63c520cd-f9df-40ef-a343-da8f58ecb6af","ios":"levelo://app?vid=63c520cd-f9df-40ef-a343-da8f58ecb6af"},"vehicle_type_id":"4","last_reported":1727852902,"current_range_meters":22000,"station_id":"ce4bgh92rcd13ifvqb40","pricing_plan_id":"cebpf4jnsgd1na2vs0mg"},{"bike_id":"fc6de059-ed5f-4032-af96-8631d36df016","system_id":"levelo_inurba_marseille","lat":43.2789,"lon":5.407479,"is_reserved":false,"is_disabled":false,"rental_uris":{"android":"levelo://app?vid=fc6de059-ed5f-4032-af96-8631d36df016","ios":"levelo://app?vid=fc6de059-ed5f-4032-af96-8631d36df016"},"vehicle_type_id":"4","last_reported":1727852902,"current_range_meters":7200,"station_id":"ce4bgt12rcd13ifvqce0","pricing_plan_id":"cebpf4jnsgd1na2vs0mg"},{"bike_id":"fa980e56-1e85-4ffb-824e-5670ae91f4c6","system_id":"levelo_inurba_marseille","lat":43.28145,"lon":5.42646,"is_reserved":false,"is_disabled":false,"rental_uris":{"android":"levelo://app?vid=fa980e56-1e85-4ffb-824e-5670ae91f4c6","ios":"levelo://app?vid=fa980e56-1e85-4ffb-824e-5670ae91f4c6"},"vehicle_type_id":"4","last_reported":1727852902,"current_range_meters":38800,"station_id":"ce4bhnh2rcd13ifvqgug","pricing_plan_id":"cebpf4jnsgd1na2vs0mg"},{"bike_id":"49538ee1-018d-4b81-97d6-02c09fe11c99","system_id":"levelo_inurba_marseille","lat":43.23155,"lon":5.43707,"is_reserved":false,"is_disabled":false,"rental_uris":{"android":"levelo://app?vid=49538ee1-018d-4b81-97d6-02c09fe11c99","ios":"levelo://app?vid=49538ee1-018d-4b81-97d6-02c09fe11c99"},"vehicle_type_id":"4","last_reported":1727852902,"current_range_meters":19200,"station_id":"ce4bhmp2rcd13ifvqgog","pricing_plan_id":"cebpf4jnsgd1na2vs0mg"},{"bike_id":"a4df2eb7-690f-4b11-9951-67b9790f07be","system_id":"levelo_inurba_marseille","lat":43.24083,"lon":5.37748,"is_reserved":false,"is_disabled":false,"rental_uris":{"android":"levelo://app?vid=a4df2eb7-690f-4b11-9951-67b9790f07be","ios":"levelo://app?vid=a4df2eb7-690f-4b11-9951-67b9790f07be"},"vehicle_type_id":"4","last_reported":1727852902,"current_range_meters":36400,"station_id":"ce4bhnp2rcd13ifvqgvg","pricing_plan_id":"cebpf4jnsgd1na2vs0mg"},{"bike_id":"58f3fb3a-fe36-4c95-8108-a0895ed09833","system_id":"levelo_inurba_marseille","lat":43.26684,"lon":5.38271,"is_reserved":false,"is_disabled":false,"rental_uris":{"android":"levelo://app?vid=58f3fb3a-fe36-4c95-8108-a0895ed09833","ios":"levelo://app?vid=58f3fb3a-fe36-4c95-8108-a0895ed09833"},"vehicle_type_id":"4","last_reported":1727852902,"current_range_meters":38400,"station_id":"ce4bhg92rcd13ifvqf90","pricing_plan_id":"cebpf4jnsgd1na2vs0mg"},{"bike_id":"5849aa66-bc6a-49ef-8105-5c7365520829","system_id":"levelo_inurba_marseille","lat":43.26813,"lon":5.4027,"is_reserved":false,"is_disabled":false,"rental_uris":{"android":"levelo://app?vid=5849aa66-bc6a-49ef-8105-5c7365520829","ios":"levelo://app?vid=5849aa66-bc6a-49ef-8105-5c7365520829"},"vehicle_type_id":"4","last_reported":1727852902,"current_range_meters":39200,"station_id":"ce501612rcd8frsf0b60","pricing_plan_id":"cebpf4jnsgd1na2vs0mg"},{"bike_id":"990c12aa-9878-42d7-adee-717160a3fdf4","system_id":"levelo_inurba_marseille","lat":43.3048,"lon":5.37913,"is_reserved":false,"is_disabled":false,"rental_uris":{"android":"levelo://app?vid=990c12aa-9878-42d7-adee-717160a3fdf4","ios":"levelo://app?vid=990c12aa-9878-42d7-adee-717160a3fdf4"},"vehicle_type_id":"4","last_reported":1727852902,"current_range_meters":11200,"station_id":"ce4bgup2rcd13ifvqcn0","pricing_plan_id":"cebpf4jnsgd1na2vs0mg"},{"bike_id":"143cc235-81ff-4d55-93c3-16c3ed6b4adf","system_id":"levelo_inurba_marseille","lat":43.27072,"lon":5.42281,"is_reserved":false,"is_disabled":false,"rental_uris":{"android":"levelo://app?vid=143cc235-81ff-4d55-93c3-16c3ed6b4adf","ios":"levelo://app?vid=143cc235-81ff-4d55-93c3-16c3ed6b4adf"},"vehicle_type_id":"4","last_reported":1727852902,"current_range_meters":36400,"station_id":"ce4bhk92rcd13ifvqgb0","pricing_plan_id":"cebpf4jnsgd1na2vs0mg"},{"bike_id":"07ab53b1-6afa-4d00-8790-10d358b513ff","system_id":"levelo_inurba_marseille","lat":43.29716,"lon":5.36614,"is_reserved":false,"is_disabled":false,"rental_uris":{"android":"levelo://app?vid=07ab53b1-6afa-4d00-8790-10d358b513ff","ios":"levelo://app?vid=07ab53b1-6afa-4d00-8790-10d358b513ff"},"vehicle_type_id":"4","last_reported":1727852902,"current_range_meters":30800,"station_id":"ce4bgn12rcd13ifvqbt0","pricing_plan_id":"cebpf4jnsgd1na2vs0mg"},{"bike_id":"17199f16-9816-42ff-a5d5-f75a63bfb6b7","system_id":"levelo_inurba_marseille","lat":43.3047,"lon":5.37898,"is_reserved":false,"is_disabled":false,"rental_uris":{"android":"levelo://app?vid=17199f16-9816-42ff-a5d5-f75a63bfb6b7","ios":"levelo://app?vid=17199f16-9816-42ff-a5d5-f75a63bfb6b7"},"vehicle_type_id":"4","last_reported":1727852902,"current_range_meters":34000,"station_id":"ce4bgup2rcd13ifvqcn0","pricing_plan_id":"cebpf4jnsgd1na2vs0mg"},{"bike_id":"a4224d16-b792-43d4-bccc-ee1385fa6dad","system_id":"levelo_inurba_marseille","lat":43.3254,"lon":5.41437,"is_reserved":false,"is_disabled":false,"rental_uris":{"android":"levelo://app?vid=a4224d16-b792-43d4-bccc-ee1385fa6dad","ios":"levelo://app?vid=a4224d16-b792-43d4-bccc-ee1385fa6dad"},"vehicle_type_id":"4","last_reported":1727852902,"current_range_meters":39200,"station_id":"ce4bhq12rcd13ifvqhhg","pricing_plan_id":"cebpf4jnsgd1na2vs0mg"},{"bike_id":"de27b63c-2288-48d0-bf61-e27cd6043c1e","system_id":"levelo_inurba_marseille","lat":43.30319,"lon":5.36909,"is_reserved":false,"is_disabled":false,"rental_uris":{"android":"levelo://app?vid=de27b63c-2288-48d0-bf61-e27cd6043c1e","ios":"levelo://app?vid=de27b63c-2288-48d0-bf61-e27cd6043c1e"},"vehicle_type_id":"4","last_reported":1727852902,"current_range_meters":22000,"station_id":"ce4bgqh2rcd13ifvqc5g","pricing_plan_id":"cebpf4jnsgd1na2vs0mg"},{"bike_id":"202e0f5d-a2cc-4f86-93f0-5e300189a421","system_id":"levelo_inurba_marseille","lat":43.31229,"lon":5.36842,"is_reserved":false,"is_disabled":false,"rental_uris":{"android":"levelo://app?vid=202e0f5d-a2cc-4f86-93f0-5e300189a421","ios":"levelo://app?vid=202e0f5d-a2cc-4f86-93f0-5e300189a421"},"vehicle_type_id":"4","last_reported":1727852902,"current_range_meters":12000,"station_id":"ce4bgl92rcd13ifvqbq0","pricing_plan_id":"cebpf4jnsgd1na2vs0mg"},{"bike_id":"554d7a73-3b40-4dac-9894-f5eadfdc26ff","system_id":"levelo_inurba_marseille","lat":43.28152,"lon":5.42638,"is_reserved":false,"is_disabled":false,"rental_uris":{"android":"levelo://app?vid=554d7a73-3b40-4dac-9894-f5eadfdc26ff","ios":"levelo://app?vid=554d7a73-3b40-4dac-9894-f5eadfdc26ff"},"vehicle_type_id":"4","last_reported":1727852902,"current_range_meters":38800,"station_id":"ce4bhnh2rcd13ifvqgug","pricing_plan_id":"cebpf4jnsgd1na2vs0mg"},{"bike_id":"ced4c431-a75b-4a03-be89-c49e3c7e56b1","system_id":"levelo_inurba_marseille","lat":43.293084,"lon":5.371712,"is_reserved":false,"is_disabled":false,"rental_uris":{"android":"levelo://app?vid=ced4c431-a75b-4a03-be89-c49e3c7e56b1","ios":"levelo://app?vid=ced4c431-a75b-4a03-be89-c49e3c7e56b1"},"vehicle_type_id":"4","last_reported":1727852902,"current_range_meters":25200,"station_id":"ce4bgh92rcd13ifvqb40","pricing_plan_id":"cebpf4jnsgd1na2vs0mg"},{"bike_id":"7e76f61d-1104-460b-895f-03b2abf7da39","system_id":"levelo_inurba_marseille","lat":43.24077,"lon":5.37751,"is_reserved":false,"is_disabled":false,"rental_uris":{"android":"levelo://app?vid=7e76f61d-1104-460b-895f-03b2abf7da39","ios":"levelo://app?vid=7e76f61d-1104-460b-895f-03b2abf7da39"},"vehicle_type_id":"4","last_reported":1727852902,"current_range_meters":12400,"station_id":"ce4bhnp2rcd13ifvqgvg","pricing_plan_id":"cebpf4jnsgd1na2vs0mg"},{"bike_id":"eb1273c6-dccf-4cb7-8b98-9d74066bfb54","system_id":"levelo_inurba_marseille","lat":43.30464,"lon":5.37912,"is_reserved":false,"is_disabled":false,"rental_uris":{"android":"levelo://app?vid=eb1273c6-dccf-4cb7-8b98-9d74066bfb54","ios":"levelo://app?vid=eb1273c6-dccf-4cb7-8b98-9d74066bfb54"},"vehicle_type_id":"4","last_reported":1727852902,"current_range_meters":30800,"station_id":"ce4bgqh2rcd13ifvqc5g","pricing_plan_id":"cebpf4jnsgd1na2vs0mg"},{"bike_id":"cc640da1-a3dd-4e35-b4a7-a69a4681666a","system_id":"levelo_inurba_marseille","lat":43.27072,"lon":5.42281,"is_reserved":false,"is_disabled":false,"rental_uris":{"android":"levelo://app?vid=cc640da1-a3dd-4e35-b4a7-a69a4681666a","ios":"levelo://app?vid=cc640da1-a3dd-4e35-b4a7-a69a4681666a"},"vehicle_type_id":"4","last_reported":1727852902,"current_range_meters":18800,"station_id":"ce4bhk92rcd13ifvqgb0","pricing_plan_id":"cebpf4jnsgd1na2vs0mg"},{"bike_id":"ae712063-d8b0-4b76-b792-94ed0b7279c0","system_id":"levelo_inurba_marseille","lat":43.28929,"lon":5.36392,"is_reserved":false,"is_disabled":false,"rental_uris":{"android":"levelo://app?vid=ae712063-d8b0-4b76-b792-94ed0b7279c0","ios":"levelo://app?vid=ae712063-d8b0-4b76-b792-94ed0b7279c0"},"vehicle_type_id":"4","last_reported":1727852902,"current_range_meters":38000,"station_id":"ce4bhc92rcd13ifvqetg","pricing_plan_id":"cebpf4jnsgd1na2vs0mg"},{"bike_id":"ec1c3e2c-022c-4156-88fa-de4eba1043d2","system_id":"levelo_inurba_marseille","lat":43.25008,"lon":5.38915,"is_reserved":false,"is_disabled":false,"rental_uris":{"android":"levelo://app?vid=ec1c3e2c-022c-4156-88fa-de4eba1043d2","ios":"levelo://app?vid=ec1c3e2c-022c-4156-88fa-de4eba1043d2"},"vehicle_type_id":"4","last_reported":1727852902,"current_range_meters":35200,"station_id":"ce4bhgp2rcd13ifvqfd0","pricing_plan_id":"cebpf4jnsgd1na2vs0mg"},{"bike_id":"8b20c7aa-e45b-446c-8b1c-5fbb02de66e1","system_id":"levelo_inurba_marseille","lat":43.24668,"lon":5.38162,"is_reserved":false,"is_disabled":false,"rental_uris":{"android":"levelo://app?vid=8b20c7aa-e45b-446c-8b1c-5fbb02de66e1","ios":"levelo://app?vid=8b20c7aa-e45b-446c-8b1c-5fbb02de66e1"},"vehicle_type_id":"4","last_reported":1727852902,"current_range_meters":38800,"station_id":"ce4bhih2rcd13ifvqfr0","pricing_plan_id":"cebpf4jnsgd1na2vs0mg"},{"bike_id":"186d1d7d-1293-4df2-9a3c-509d9f14d3c3","system_id":"levelo_inurba_marseille","lat":43.278093,"lon":5.407083,"is_reserved":false,"is_disabled":false,"rental_uris":{"android":"levelo://app?vid=186d1d7d-1293-4df2-9a3c-509d9f14d3c3","ios":"levelo://app?vid=186d1d7d-1293-4df2-9a3c-509d9f14d3c3"},"vehicle_type_id":"4","last_reported":1727852902,"current_range_meters":29600,"station_id":"ce4bhnh2rcd13ifvqgtg","pricing_plan_id":"cebpf4jnsgd1na2vs0mg"},{"bike_id":"7d2d99b7-78c4-4548-a4f6-987534abab75","system_id":"levelo_inurba_marseille","lat":43.28478,"lon":5.38415,"is_reserved":false,"is_disabled":false,"rental_uris":{"android":"levelo://app?vid=7d2d99b7-78c4-4548-a4f6-987534abab75","ios":"levelo://app?vid=7d2d99b7-78c4-4548-a4f6-987534abab75"},"vehicle_type_id":"4","last_reported":1727852902,"current_range_meters":12000,"station_id":"ce4bh512rcd13ifvqe3g","pricing_plan_id":"cebpf4jnsgd1na2vs0mg"},{"bike_id":"124863e4-db68-43d5-b9aa-40c8641a8244","system_id":"levelo_inurba_marseille","lat":43.30305,"lon":5.36903,"is_reserved":false,"is_disabled":false,"rental_uris":{"android":"levelo://app?vid=124863e4-db68-43d5-b9aa-40c8641a8244","ios":"levelo://app?vid=124863e4-db68-43d5-b9aa-40c8641a8244"},"vehicle_type_id":"4","last_reported":1727852902,"current_range_meters":39200,"station_id":"ce4bgqh2rcd13ifvqc5g","pricing_plan_id":"cebpf4jnsgd1na2vs0mg"},{"bike_id":"fec2ef64-dae0-45ad-8eac-e92d7e96595a","system_id":"levelo_inurba_marseille","lat":43.33612,"lon":5.41033,"is_reserved":false,"is_disabled":false,"rental_uris":{"android":"levelo://app?vid=fec2ef64-dae0-45ad-8eac-e92d7e96595a","ios":"levelo://app?vid=fec2ef64-dae0-45ad-8eac-e92d7e96595a"},"vehicle_type_id":"4","last_reported":1727852902,"current_range_meters":32000,"station_id":"ce4bhqh2rcd13ifvqhmg","pricing_plan_id":"cebpf4jnsgd1na2vs0mg"},{"bike_id":"21bd0eaa-d1a8-4886-9288-7871e0263a69","system_id":"levelo_inurba_marseille","lat":43.30534,"lon":5.365262,"is_reserved":false,"is_disabled":false,"rental_uris":{"android":"levelo://app?vid=21bd0eaa-d1a8-4886-9288-7871e0263a69","ios":"levelo://app?vid=21bd0eaa-d1a8-4886-9288-7871e0263a69"},"vehicle_type_id":"4","last_reported":1727852902,"current_range_meters":6800,"station_id":"ce4bgs12rcd13ifvqcag","pricing_plan_id":"cebpf4jnsgd1na2vs0mg"},{"bike_id":"d5bf9db1-7dca-49c1-8306-b4004223ad4f","system_id":"levelo_inurba_marseille","lat":43.30526,"lon":5.3654,"is_reserved":false,"is_disabled":false,"rental_uris":{"android":"levelo://app?vid=d5bf9db1-7dca-49c1-8306-b4004223ad4f","ios":"levelo://app?vid=d5bf9db1-7dca-49c1-8306-b4004223ad4f"},"vehicle_type_id":"4","last_reported":1727852902,"current_range_meters":36400,"station_id":"ce4bgs12rcd13ifvqcag","pricing_plan_id":"cebpf4jnsgd1na2vs0mg"},{"bike_id":"d0c15d8b-7350-4692-b571-b402d13ba997","system_id":"levelo_inurba_marseille","lat":43.32666,"lon":5.41005,"is_reserved":false,"is_disabled":false,"rental_uris":{"android":"levelo://app?vid=d0c15d8b-7350-4692-b571-b402d13ba997","ios":"levelo://app?vid=d0c15d8b-7350-4692-b571-b402d13ba997"},"vehicle_type_id":"4","last_reported":1727852902,"current_range_meters":35200,"station_id":"ce4bhpp2rcd13ifvqhgg","pricing_plan_id":"cebpf4jnsgd1na2vs0mg"},{"bike_id":"c6eb3a38-e30c-4dc0-9d98-a335e28ff92d","system_id":"levelo_inurba_marseille","lat":43.2926,"lon":5.40915,"is_reserved":false,"is_disabled":false,"rental_uris":{"android":"levelo://app?vid=c6eb3a38-e30c-4dc0-9d98-a335e28ff92d","ios":"levelo://app?vid=c6eb3a38-e30c-4dc0-9d98-a335e28ff92d"},"vehicle_type_id":"4","last_reported":1727852902,"current_range_meters":38000,"station_id":"ce4bh192rcd13ifvqdc0","pricing_plan_id":"cebpf4jnsgd1na2vs0mg"},{"bike_id":"1c073e88-e7f2-4ad5-88db-665f67ed8b1e","system_id":"levelo_inurba_marseille","lat":43.28492,"lon":5.38528,"is_reserved":false,"is_disabled":false,"rental_uris":{"android":"levelo://app?vid=1c073e88-e7f2-4ad5-88db-665f67ed8b1e","ios":"levelo://app?vid=1c073e88-e7f2-4ad5-88db-665f67ed8b1e"},"vehicle_type_id":"4","last_reported":1727852902,"current_range_meters":8800,"station_id":"ce4bh8p2rcd13ifvqeb0","pricing_plan_id":"cebpf4jnsgd1na2vs0mg"},{"bike_id":"a7cdaa72-b9b3-4b87-8aad-cb4d6758c123","system_id":"levelo_inurba_marseille","lat":43.31687,"lon":5.40472,"is_reserved":false,"is_disabled":false,"rental_uris":{"android":"levelo://app?vid=a7cdaa72-b9b3-4b87-8aad-cb4d6758c123","ios":"levelo://app?vid=a7cdaa72-b9b3-4b87-8aad-cb4d6758c123"},"vehicle_type_id":"4","last_reported":1727852902,"current_range_meters":15200,"station_id":"ce4bh012rcd13ifvqd00","pricing_plan_id":"cebpf4jnsgd1na2vs0mg"},{"bike_id":"b9554431-9438-4010-9598-02f37b58ccb6","system_id":"levelo_inurba_marseille","lat":43.29075,"lon":5.37172,"is_reserved":false,"is_disabled":false,"rental_uris":{"android":"levelo://app?vid=b9554431-9438-4010-9598-02f37b58ccb6","ios":"levelo://app?vid=b9554431-9438-4010-9598-02f37b58ccb6"},"vehicle_type_id":"4","last_reported":1727852902,"current_range_meters":28000,"station_id":"ce4bh5p2rcd13ifvqe4g","pricing_plan_id":"cebpf4jnsgd1na2vs0mg"},{"bike_id":"0a44300e-e0be-4b18-9930-50ca4ca286dd","system_id":"levelo_inurba_marseille","lat":43.304603,"lon":5.379001,"is_reserved":false,"is_disabled":false,"rental_uris":{"android":"levelo://app?vid=0a44300e-e0be-4b18-9930-50ca4ca286dd","ios":"levelo://app?vid=0a44300e-e0be-4b18-9930-50ca4ca286dd"},"vehicle_type_id":"4","last_reported":1727852902,"current_range_meters":24400,"station_id":"ce4bgup2rcd13ifvqcn0","pricing_plan_id":"cebpf4jnsgd1na2vs0mg"},{"bike_id":"55ab17f1-7827-4fda-89fe-60d616ba6069","system_id":"levelo_inurba_marseille","lat":43.29806,"lon":5.38099,"is_reserved":false,"is_disabled":false,"rental_uris":{"android":"levelo://app?vid=55ab17f1-7827-4fda-89fe-60d616ba6069","ios":"levelo://app?vid=55ab17f1-7827-4fda-89fe-60d616ba6069"},"vehicle_type_id":"4","last_reported":1727852902,"current_range_meters":38000,"station_id":"ce4bgip2rcd13ifvqbb0","pricing_plan_id":"cebpf4jnsgd1na2vs0mg"},{"bike_id":"4af40065-c5ec-4f7d-88bb-124a1c77e44a","system_id":"levelo_inurba_marseille","lat":43.31356,"lon":5.36702,"is_reserved":false,"is_disabled":false,"rental_uris":{"android":"levelo://app?vid=4af40065-c5ec-4f7d-88bb-124a1c77e44a","ios":"levelo://app?vid=4af40065-c5ec-4f7d-88bb-124a1c77e44a"},"vehicle_type_id":"4","last_reported":1727852902,"current_range_meters":37600,"station_id":"ce4bgr92rcd13ifvqc6g","pricing_plan_id":"cebpf4jnsgd1na2vs0mg"},{"bike_id":"008fac8d-dc33-42a6-b679-8f894aa45eeb","system_id":"levelo_inurba_marseille","lat":43.25943,"lon":5.40895,"is_reserved":false,"is_disabled":false,"rental_uris":{"android":"levelo://app?vid=008fac8d-dc33-42a6-b679-8f894aa45eeb","ios":"levelo://app?vid=008fac8d-dc33-42a6-b679-8f894aa45eeb"},"vehicle_type_id":"4","last_reported":1727852902,"current_range_meters":38400,"station_id":"ce4bhm92rcd13ifvqglg","pricing_plan_id":"cebpf4jnsgd1na2vs0mg"},{"bike_id":"c9b08be9-3876-4ad7-8fe9-a9e96fcb76a9","system_id":"levelo_inurba_marseille","lat":43.27211,"lon":5.39185,"is_reserved":false,"is_disabled":false,"rental_uris":{"android":"levelo://app?vid=c9b08be9-3876-4ad7-8fe9-a9e96fcb76a9","ios":"levelo://app?vid=c9b08be9-3876-4ad7-8fe9-a9e96fcb76a9"},"vehicle_type_id":"4","last_reported":1727852902,"current_range_meters":28000,"station_id":"ce4bhhp2rcd13ifvqfm0","pricing_plan_id":"cebpf4jnsgd1na2vs0mg"},{"bike_id":"90085ec2-3304-4141-b2fc-6bbce3f2e437","system_id":"levelo_inurba_marseille","lat":43.24661,"lon":5.38159,"is_reserved":false,"is_disabled":false,"rental_uris":{"android":"levelo://app?vid=90085ec2-3304-4141-b2fc-6bbce3f2e437","ios":"levelo://app?vid=90085ec2-3304-4141-b2fc-6bbce3f2e437"},"vehicle_type_id":"4","last_reported":1727852902,"current_range_meters":25600,"station_id":"ce4bhih2rcd13ifvqfr0","pricing_plan_id":"cebpf4jnsgd1na2vs0mg"},{"bike_id":"7421063a-800a-48c3-92f9-01b2315d5e97","system_id":"levelo_inurba_marseille","lat":43.30472,"lon":5.37904,"is_reserved":false,"is_disabled":false,"rental_uris":{"android":"levelo://app?vid=7421063a-800a-48c3-92f9-01b2315d5e97","ios":"levelo://app?vid=7421063a-800a-48c3-92f9-01b2315d5e97"},"vehicle_type_id":"4","last_reported":1727852902,"current_range_meters":39200,"station_id":"ce4bgup2rcd13ifvqcn0","pricing_plan_id":"cebpf4jnsgd1na2vs0mg"},{"bike_id":"9cd128bb-3a64-4bb5-8c11-3fd33409958b","system_id":"levelo_inurba_marseille","lat":43.23151,"lon":5.43709,"is_reserved":false,"is_disabled":false,"rental_uris":{"android":"levelo://app?vid=9cd128bb-3a64-4bb5-8c11-3fd33409958b","ios":"levelo://app?vid=9cd128bb-3a64-4bb5-8c11-3fd33409958b"},"vehicle_type_id":"4","last_reported":1727852902,"current_range_meters":24400,"station_id":"ce4bhmp2rcd13ifvqgog","pricing_plan_id":"cebpf4jnsgd1na2vs0mg"},{"bike_id":"736bcb89-3fa5-4423-83ab-c46b1faa6d18","system_id":"levelo_inurba_marseille","lat":43.34496,"lon":5.41629,"is_reserved":false,"is_disabled":false,"rental_uris":{"android":"levelo://app?vid=736bcb89-3fa5-4423-83ab-c46b1faa6d18","ios":"levelo://app?vid=736bcb89-3fa5-4423-83ab-c46b1faa6d18"},"vehicle_type_id":"4","last_reported":1727852902,"current_range_meters":6800,"station_id":"","pricing_plan_id":"cebpf4jnsgd1na2vs0mg"},{"bike_id":"a2b2e7ec-9291-4e2e-99f8-400018f4dc70","system_id":"levelo_inurba_marseille","lat":43.30535,"lon":5.36698,"is_reserved":false,"is_disabled":false,"rental_uris":{"android":"levelo://app?vid=a2b2e7ec-9291-4e2e-99f8-400018f4dc70","ios":"levelo://app?vid=a2b2e7ec-9291-4e2e-99f8-400018f4dc70"},"vehicle_type_id":"4","last_reported":1727852902,"current_range_meters":40000,"station_id":"ce4bgrp2rcd13ifvqc9g","pricing_plan_id":"cebpf4jnsgd1na2vs0mg"},{"bike_id":"fc3e073d-7265-4b97-93fb-6072808fabc5","system_id":"levelo_inurba_marseille","lat":43.29038,"lon":5.3757,"is_reserved":false,"is_disabled":false,"rental_uris":{"android":"levelo://app?vid=fc3e073d-7265-4b97-93fb-6072808fabc5","ios":"levelo://app?vid=fc3e073d-7265-4b97-93fb-6072808fabc5"},"vehicle_type_id":"4","last_reported":1727852902,"current_range_meters":30000,"station_id":"ce4bh692rcd13ifvqe90","pricing_plan_id":"cebpf4jnsgd1na2vs0mg"},{"bike_id":"63f98ca1-f16d-4d88-a48d-74ef46e2e311","system_id":"levelo_inurba_marseille","lat":43.24078,"lon":5.37757,"is_reserved":false,"is_disabled":false,"rental_uris":{"android":"levelo://app?vid=63f98ca1-f16d-4d88-a48d-74ef46e2e311","ios":"levelo://app?vid=63f98ca1-f16d-4d88-a48d-74ef46e2e311"},"vehicle_type_id":"4","last_reported":1727852902,"current_range_meters":29600,"station_id":"","pricing_plan_id":"cebpf4jnsgd1na2vs0mg"},{"bike_id":"d65e5f64-4386-4e6f-8cfa-bae49fa3ef42","system_id":"levelo_inurba_marseille","lat":43.30466,"lon":5.37898,"is_reserved":false,"is_disabled":false,"rental_uris":{"android":"levelo://app?vid=d65e5f64-4386-4e6f-8cfa-bae49fa3ef42","ios":"levelo://app?vid=d65e5f64-4386-4e6f-8cfa-bae49fa3ef42"},"vehicle_type_id":"4","last_reported":1727852902,"current_range_meters":38000,"station_id":"ce4bgup2rcd13ifvqcn0","pricing_plan_id":"cebpf4jnsgd1na2vs0mg"},{"bike_id":"cabafb91-95dc-4d5c-baa9-5aea6e08d11c","system_id":"levelo_inurba_marseille","lat":43.33607,"lon":5.41037,"is_reserved":false,"is_disabled":false,"rental_uris":{"android":"levelo://app?vid=cabafb91-95dc-4d5c-baa9-5aea6e08d11c","ios":"levelo://app?vid=cabafb91-95dc-4d5c-baa9-5aea6e08d11c"},"vehicle_type_id":"4","last_reported":1727852902,"current_range_meters":27600,"station_id":"ce4bhqh2rcd13ifvqhmg","pricing_plan_id":"cebpf4jnsgd1na2vs0mg"},{"bike_id":"609844d3-402e-4c83-8b7f-d2093120cb67","system_id":"levelo_inurba_marseille","lat":43.32534,"lon":5.41443,"is_reserved":false,"is_disabled":false,"rental_uris":{"android":"levelo://app?vid=609844d3-402e-4c83-8b7f-d2093120cb67","ios":"levelo://app?vid=609844d3-402e-4c83-8b7f-d2093120cb67"},"vehicle_type_id":"4","last_reported":1727852902,"current_range_meters":36400,"station_id":"ce4bhq12rcd13ifvqhhg","pricing_plan_id":"cebpf4jnsgd1na2vs0mg"},{"bike_id":"de7884da-a3a8-4ce0-aba4-998827e572b7","system_id":"levelo_inurba_marseille","lat":43.23151,"lon":5.43718,"is_reserved":false,"is_disabled":false,"rental_uris":{"android":"levelo://app?vid=de7884da-a3a8-4ce0-aba4-998827e572b7","ios":"levelo://app?vid=de7884da-a3a8-4ce0-aba4-998827e572b7"},"vehicle_type_id":"4","last_reported":1727852902,"current_range_meters":27200,"station_id":"ce4bhmp2rcd13ifvqgog","pricing_plan_id":"cebpf4jnsgd1na2vs0mg"},{"bike_id":"649b0ebd-72c1-4ccb-bdb5-0127394604e7","system_id":"levelo_inurba_marseille","lat":43.3362,"lon":5.41016,"is_reserved":false,"is_disabled":false,"rental_uris":{"android":"levelo://app?vid=649b0ebd-72c1-4ccb-bdb5-0127394604e7","ios":"levelo://app?vid=649b0ebd-72c1-4ccb-bdb5-0127394604e7"},"vehicle_type_id":"4","last_reported":1727852902,"current_range_meters":38000,"station_id":"ce4bhqh2rcd13ifvqhmg","pricing_plan_id":"cebpf4jnsgd1na2vs0mg"},{"bike_id":"f184f6d6-a8c1-4d3e-9dc1-05e0e2d83651","system_id":"levelo_inurba_marseille","lat":43.30147,"lon":5.37419,"is_reserved":false,"is_disabled":false,"rental_uris":{"android":"levelo://app?vid=f184f6d6-a8c1-4d3e-9dc1-05e0e2d83651","ios":"levelo://app?vid=f184f6d6-a8c1-4d3e-9dc1-05e0e2d83651"},"vehicle_type_id":"4","last_reported":1727852902,"current_range_meters":18800,"station_id":"ce4bgs92rcd13ifvqcc0","pricing_plan_id":"cebpf4jnsgd1na2vs0mg"},{"bike_id":"3bcc095d-700a-4eb9-9793-f2e50d9b626e","system_id":"levelo_inurba_marseille","lat":43.29561,"lon":5.42285,"is_reserved":false,"is_disabled":false,"rental_uris":{"android":"levelo://app?vid=3bcc095d-700a-4eb9-9793-f2e50d9b626e","ios":"levelo://app?vid=3bcc095d-700a-4eb9-9793-f2e50d9b626e"},"vehicle_type_id":"4","last_reported":1727852902,"current_range_meters":36800,"station_id":"ce4bhph2rcd13ifvqhdg","pricing_plan_id":"cebpf4jnsgd1na2vs0mg"},{"bike_id":"9e6f82c5-7edd-4d61-8fe9-86f829a7226e","system_id":"levelo_inurba_marseille","lat":43.2315,"lon":5.43722,"is_reserved":false,"is_disabled":false,"rental_uris":{"android":"levelo://app?vid=9e6f82c5-7edd-4d61-8fe9-86f829a7226e","ios":"levelo://app?vid=9e6f82c5-7edd-4d61-8fe9-86f829a7226e"},"vehicle_type_id":"4","last_reported":1727852902,"current_range_meters":12400,"station_id":"ce4bhmp2rcd13ifvqgog","pricing_plan_id":"cebpf4jnsgd1na2vs0mg"},{"bike_id":"a577a3da-f364-41ee-965f-f2f892080409","system_id":"levelo_inurba_marseille","lat":43.25937,"lon":5.40904,"is_reserved":false,"is_disabled":false,"rental_uris":{"android":"levelo://app?vid=a577a3da-f364-41ee-965f-f2f892080409","ios":"levelo://app?vid=a577a3da-f364-41ee-965f-f2f892080409"},"vehicle_type_id":"4","last_reported":1727852902,"current_range_meters":19200,"station_id":"ce4bhm92rcd13ifvqglg","pricing_plan_id":"cebpf4jnsgd1na2vs0mg"},{"bike_id":"461fe619-c53a-40f0-bfc1-9e1cc3aa8c03","system_id":"levelo_inurba_marseille","lat":43.24078,"lon":5.37757,"is_reserved":false,"is_disabled":false,"rental_uris":{"android":"levelo://app?vid=461fe619-c53a-40f0-bfc1-9e1cc3aa8c03","ios":"levelo://app?vid=461fe619-c53a-40f0-bfc1-9e1cc3aa8c03"},"vehicle_type_id":"4","last_reported":1727852902,"current_range_meters":30400,"station_id":"ce4bhnp2rcd13ifvqgvg","pricing_plan_id":"cebpf4jnsgd1na2vs0mg"},{"bike_id":"b205d208-9a25-4595-8271-587611218d74","system_id":"levelo_inurba_marseille","lat":43.29275,"lon":5.36838,"is_reserved":false,"is_disabled":false,"rental_uris":{"android":"levelo://app?vid=b205d208-9a25-4595-8271-587611218d74","ios":"levelo://app?vid=b205d208-9a25-4595-8271-587611218d74"},"vehicle_type_id":"4","last_reported":1727852902,"current_range_meters":6400,"station_id":"ce4bhbp2rcd13ifvqesg","pricing_plan_id":"cebpf4jnsgd1na2vs0mg"},{"bike_id":"aae9a778-56fb-41da-990d-16fb4770a5a3","system_id":"levelo_inurba_marseille","lat":43.25576,"lon":5.38237,"is_reserved":false,"is_disabled":false,"rental_uris":{"android":"levelo://app?vid=aae9a778-56fb-41da-990d-16fb4770a5a3","ios":"levelo://app?vid=aae9a778-56fb-41da-990d-16fb4770a5a3"},"vehicle_type_id":"4","last_reported":1727852902,"current_range_meters":38800,"station_id":"ce4bhih2rcd13ifvqfs0","pricing_plan_id":"cebpf4jnsgd1na2vs0mg"},{"bike_id":"5a0d3d90-449e-478b-94b1-488eb695ddbe","system_id":"levelo_inurba_marseille","lat":43.29843,"lon":5.3627,"is_reserved":false,"is_disabled":false,"rental_uris":{"android":"levelo://app?vid=5a0d3d90-449e-478b-94b1-488eb695ddbe","ios":"levelo://app?vid=5a0d3d90-449e-478b-94b1-488eb695ddbe"},"vehicle_type_id":"4","last_reported":1727852902,"current_range_meters":35600,"station_id":"ce4bgpp2rcd13ifvqc3g","pricing_plan_id":"cebpf4jnsgd1na2vs0mg"},{"bike_id":"54edffe6-5495-491b-9f2e-e7373852c7d2","system_id":"levelo_inurba_marseille","lat":43.30541,"lon":5.36703,"is_reserved":false,"is_disabled":false,"rental_uris":{"android":"levelo://app?vid=54edffe6-5495-491b-9f2e-e7373852c7d2","ios":"levelo://app?vid=54edffe6-5495-491b-9f2e-e7373852c7d2"},"vehicle_type_id":"4","last_reported":1727852902,"current_range_meters":36400,"station_id":"ce4bgrp2rcd13ifvqc9g","pricing_plan_id":"cebpf4jnsgd1na2vs0mg"},{"bike_id":"ea8c2452-bf71-49b6-abc4-1e010f66de00","system_id":"levelo_inurba_marseille","lat":43.27493,"lon":5.42456,"is_reserved":false,"is_disabled":false,"rental_uris":{"android":"levelo://app?vid=ea8c2452-bf71-49b6-abc4-1e010f66de00","ios":"levelo://app?vid=ea8c2452-bf71-49b6-abc4-1e010f66de00"},"vehicle_type_id":"4","last_reported":1727852902,"current_range_meters":29600,"station_id":"ce4bhn92rcd13ifvqgrg","pricing_plan_id":"cebpf4jnsgd1na2vs0mg"},{"bike_id":"b045edaf-600e-4828-8464-8c0604d40a2f","system_id":"levelo_inurba_marseille","lat":43.25866,"lon":5.39902,"is_reserved":false,"is_disabled":false,"rental_uris":{"android":"levelo://app?vid=b045edaf-600e-4828-8464-8c0604d40a2f","ios":"levelo://app?vid=b045edaf-600e-4828-8464-8c0604d40a2f"},"vehicle_type_id":"4","last_reported":1727852902,"current_range_meters":35600,"station_id":"ce4bhl92rcd13ifvqghg","pricing_plan_id":"cebpf4jnsgd1na2vs0mg"},{"bike_id":"76391673-cd5d-49f4-8b45-1b76892547a9","system_id":"levelo_inurba_marseille","lat":43.24076,"lon":5.37761,"is_reserved":false,"is_disabled":false,"rental_uris":{"android":"levelo://app?vid=76391673-cd5d-49f4-8b45-1b76892547a9","ios":"levelo://app?vid=76391673-cd5d-49f4-8b45-1b76892547a9"},"vehicle_type_id":"4","last_reported":1727852902,"current_range_meters":38000,"station_id":"ce4bhnp2rcd13ifvqgvg","pricing_plan_id":"cebpf4jnsgd1na2vs0mg"},{"bike_id":"db254dac-45f5-4132-9ca6-b0673a65c2b8","system_id":"levelo_inurba_marseille","lat":43.26491,"lon":5.39538,"is_reserved":false,"is_disabled":false,"rental_uris":{"android":"levelo://app?vid=db254dac-45f5-4132-9ca6-b0673a65c2b8","ios":"levelo://app?vid=db254dac-45f5-4132-9ca6-b0673a65c2b8"},"vehicle_type_id":"4","last_reported":1727852902,"current_range_meters":36800,"station_id":"ce4bhi12rcd13ifvqfq0","pricing_plan_id":"cebpf4jnsgd1na2vs0mg"},{"bike_id":"39c7dc54-6d62-4b84-92eb-f8a41a50040c","system_id":"levelo_inurba_marseille","lat":43.23155,"lon":5.43707,"is_reserved":false,"is_disabled":false,"rental_uris":{"android":"levelo://app?vid=39c7dc54-6d62-4b84-92eb-f8a41a50040c","ios":"levelo://app?vid=39c7dc54-6d62-4b84-92eb-f8a41a50040c"},"vehicle_type_id":"4","last_reported":1727852902,"current_range_meters":26800,"station_id":"ce4bhmp2rcd13ifvqgog","pricing_plan_id":"cebpf4jnsgd1na2vs0mg"},{"bike_id":"4195c750-3f4c-430b-9a56-c37a806604c7","system_id":"levelo_inurba_marseille","lat":43.33604,"lon":5.41029,"is_reserved":false,"is_disabled":false,"rental_uris":{"android":"levelo://app?vid=4195c750-3f4c-430b-9a56-c37a806604c7","ios":"levelo://app?vid=4195c750-3f4c-430b-9a56-c37a806604c7"},"vehicle_type_id":"4","last_reported":1727852902,"current_range_meters":8800,"station_id":"ce4bhqh2rcd13ifvqhmg","pricing_plan_id":"cebpf4jnsgd1na2vs0mg"},{"bike_id":"5012943b-cf11-4dae-9236-f321dbfe28b8","system_id":"levelo_inurba_marseille","lat":43.290075,"lon":5.356135,"is_reserved":false,"is_disabled":false,"rental_uris":{"android":"levelo://app?vid=5012943b-cf11-4dae-9236-f321dbfe28b8","ios":"levelo://app?vid=5012943b-cf11-4dae-9236-f321dbfe28b8"},"vehicle_type_id":"4","last_reported":1727852902,"current_range_meters":21600,"station_id":"ce4bhq12rcd13ifvqhig","pricing_plan_id":"cebpf4jnsgd1na2vs0mg"},{"bike_id":"d74fb2ef-f814-4ca8-94df-c647e77cc523","system_id":"levelo_inurba_marseille","lat":43.28151,"lon":5.42647,"is_reserved":false,"is_disabled":false,"rental_uris":{"android":"levelo://app?vid=d74fb2ef-f814-4ca8-94df-c647e77cc523","ios":"levelo://app?vid=d74fb2ef-f814-4ca8-94df-c647e77cc523"},"vehicle_type_id":"4","last_reported":1727852902,"current_range_meters":38400,"station_id":"ce4bhnh2rcd13ifvqgug","pricing_plan_id":"cebpf4jnsgd1na2vs0mg"},{"bike_id":"4d604001-b487-40b2-8bf6-bc3f1a343bff","system_id":"levelo_inurba_marseille","lat":43.24071,"lon":5.37766,"is_reserved":false,"is_disabled":false,"rental_uris":{"android":"levelo://app?vid=4d604001-b487-40b2-8bf6-bc3f1a343bff","ios":"levelo://app?vid=4d604001-b487-40b2-8bf6-bc3f1a343bff"},"vehicle_type_id":"4","last_reported":1727852902,"current_range_meters":19600,"station_id":"ce4bhnp2rcd13ifvqgvg","pricing_plan_id":"cebpf4jnsgd1na2vs0mg"},{"bike_id":"095907dd-5778-44cf-ac16-34fae447cd07","system_id":"levelo_inurba_marseille","lat":43.3046,"lon":5.37895,"is_reserved":false,"is_disabled":false,"rental_uris":{"android":"levelo://app?vid=095907dd-5778-44cf-ac16-34fae447cd07","ios":"levelo://app?vid=095907dd-5778-44cf-ac16-34fae447cd07"},"vehicle_type_id":"4","last_reported":1727852902,"current_range_meters":20800,"station_id":"ce4bgup2rcd13ifvqcn0","pricing_plan_id":"cebpf4jnsgd1na2vs0mg"},{"bike_id":"81c8f3eb-4f47-48de-b362-cac094d7e803","system_id":"levelo_inurba_marseille","lat":43.25934,"lon":5.4091,"is_reserved":false,"is_disabled":false,"rental_uris":{"android":"levelo://app?vid=81c8f3eb-4f47-48de-b362-cac094d7e803","ios":"levelo://app?vid=81c8f3eb-4f47-48de-b362-cac094d7e803"},"vehicle_type_id":"4","last_reported":1727852902,"current_range_meters":8000,"station_id":"ce4bhm92rcd13ifvqglg","pricing_plan_id":"cebpf4jnsgd1na2vs0mg"},{"bike_id":"05eb5f29-9489-40a4-9d9d-10a184663c86","system_id":"levelo_inurba_marseille","lat":43.25002,"lon":5.38931,"is_reserved":false,"is_disabled":false,"rental_uris":{"android":"levelo://app?vid=05eb5f29-9489-40a4-9d9d-10a184663c86","ios":"levelo://app?vid=05eb5f29-9489-40a4-9d9d-10a184663c86"},"vehicle_type_id":"4","last_reported":1727852902,"current_range_meters":28800,"station_id":"ce4bhgp2rcd13ifvqfd0","pricing_plan_id":"cebpf4jnsgd1na2vs0mg"},{"bike_id":"613dc259-624b-4dec-b5ed-363ab49a6820","system_id":"levelo_inurba_marseille","lat":43.27498,"lon":5.42448,"is_reserved":false,"is_disabled":false,"rental_uris":{"android":"levelo://app?vid=613dc259-624b-4dec-b5ed-363ab49a6820","ios":"levelo://app?vid=613dc259-624b-4dec-b5ed-363ab49a6820"},"vehicle_type_id":"4","last_reported":1727852902,"current_range_meters":30400,"station_id":"ce4bhn92rcd13ifvqgrg","pricing_plan_id":"cebpf4jnsgd1na2vs0mg"},{"bike_id":"ecfb7345-8500-4199-9629-5050ebd3f45b","system_id":"levelo_inurba_marseille","lat":43.25939,"lon":5.40904,"is_reserved":false,"is_disabled":false,"rental_uris":{"android":"levelo://app?vid=ecfb7345-8500-4199-9629-5050ebd3f45b","ios":"levelo://app?vid=ecfb7345-8500-4199-9629-5050ebd3f45b"},"vehicle_type_id":"4","last_reported":1727852902,"current_range_meters":28400,"station_id":"ce4bhm92rcd13ifvqglg","pricing_plan_id":"cebpf4jnsgd1na2vs0mg"},{"bike_id":"507aca41-3be7-4755-877d-c4a3fbef9610","system_id":"levelo_inurba_marseille","lat":43.23152,"lon":5.43707,"is_reserved":false,"is_disabled":false,"rental_uris":{"android":"levelo://app?vid=507aca41-3be7-4755-877d-c4a3fbef9610","ios":"levelo://app?vid=507aca41-3be7-4755-877d-c4a3fbef9610"},"vehicle_type_id":"4","last_reported":1727852902,"current_range_meters":17600,"station_id":"ce4bhmp2rcd13ifvqgog","pricing_plan_id":"cebpf4jnsgd1na2vs0mg"},{"bike_id":"3de6e063-d170-445d-99e6-b76ac33be872","system_id":"levelo_inurba_marseille","lat":43.23157,"lon":5.43697,"is_reserved":false,"is_disabled":false,"rental_uris":{"android":"levelo://app?vid=3de6e063-d170-445d-99e6-b76ac33be872","ios":"levelo://app?vid=3de6e063-d170-445d-99e6-b76ac33be872"},"vehicle_type_id":"4","last_reported":1727852902,"current_range_meters":18000,"station_id":"ce4bhmp2rcd13ifvqgog","pricing_plan_id":"cebpf4jnsgd1na2vs0mg"},{"bike_id":"c637a392-b21a-40f5-b39b-c0e72e72329e","system_id":"levelo_inurba_marseille","lat":43.27498,"lon":5.4245,"is_reserved":false,"is_disabled":false,"rental_uris":{"android":"levelo://app?vid=c637a392-b21a-40f5-b39b-c0e72e72329e","ios":"levelo://app?vid=c637a392-b21a-40f5-b39b-c0e72e72329e"},"vehicle_type_id":"4","last_reported":1727852902,"current_range_meters":19600,"station_id":"ce4bhn92rcd13ifvqgrg","pricing_plan_id":"cebpf4jnsgd1na2vs0mg"},{"bike_id":"30403b77-709d-4cf2-9f51-d7b09295889a","system_id":"levelo_inurba_marseille","lat":43.33603,"lon":5.41019,"is_reserved":false,"is_disabled":false,"rental_uris":{"android":"levelo://app?vid=30403b77-709d-4cf2-9f51-d7b09295889a","ios":"levelo://app?vid=30403b77-709d-4cf2-9f51-d7b09295889a"},"vehicle_type_id":"4","last_reported":1727852902,"current_range_meters":38000,"station_id":"ce4bhqh2rcd13ifvqhmg","pricing_plan_id":"cebpf4jnsgd1na2vs0mg"},{"bike_id":"61f72b7e-5a1c-4508-8205-c2260db5f7d6","system_id":"levelo_inurba_marseille","lat":43.31168,"lon":5.38728,"is_reserved":false,"is_disabled":false,"rental_uris":{"android":"levelo://app?vid=61f72b7e-5a1c-4508-8205-c2260db5f7d6","ios":"levelo://app?vid=61f72b7e-5a1c-4508-8205-c2260db5f7d6"},"vehicle_type_id":"4","last_reported":1727852902,"current_range_meters":25200,"station_id":"ce4bgv12rcd13ifvqcp0","pricing_plan_id":"cebpf4jnsgd1na2vs0mg"},{"bike_id":"630bf99b-8da5-4fa5-9381-4552175c26f1","system_id":"levelo_inurba_marseille","lat":43.30916,"lon":5.36841,"is_reserved":false,"is_disabled":false,"rental_uris":{"android":"levelo://app?vid=630bf99b-8da5-4fa5-9381-4552175c26f1","ios":"levelo://app?vid=630bf99b-8da5-4fa5-9381-4552175c26f1"},"vehicle_type_id":"4","last_reported":1727852902,"current_range_meters":22800,"station_id":"ce4bgn92rcd13ifvqbvg","pricing_plan_id":"cebpf4jnsgd1na2vs0mg"},{"bike_id":"f8f518e3-bd48-40f5-801a-4ead88758ee2","system_id":"levelo_inurba_marseille","lat":43.32113,"lon":5.36772,"is_reserved":false,"is_disabled":false,"rental_uris":{"android":"levelo://app?vid=f8f518e3-bd48-40f5-801a-4ead88758ee2","ios":"levelo://app?vid=f8f518e3-bd48-40f5-801a-4ead88758ee2"},"vehicle_type_id":"4","last_reported":1727852902,"current_range_meters":10000,"station_id":"ce4bhrh2rcd13ifvqhug","pricing_plan_id":"cebpf4jnsgd1na2vs0mg"},{"bike_id":"eab179a3-0b7b-476e-9dbb-851b5f56bfc3","system_id":"levelo_inurba_marseille","lat":43.265,"lon":5.39541,"is_reserved":false,"is_disabled":false,"rental_uris":{"android":"levelo://app?vid=eab179a3-0b7b-476e-9dbb-851b5f56bfc3","ios":"levelo://app?vid=eab179a3-0b7b-476e-9dbb-851b5f56bfc3"},"vehicle_type_id":"4","last_reported":1727852902,"current_range_meters":38000,"station_id":"ce4bhi12rcd13ifvqfq0","pricing_plan_id":"cebpf4jnsgd1na2vs0mg"},{"bike_id":"b5ae82c3-110d-4c77-9781-3ad95c6afaa7","system_id":"levelo_inurba_marseille","lat":43.34147,"lon":5.40903,"is_reserved":false,"is_disabled":false,"rental_uris":{"android":"levelo://app?vid=b5ae82c3-110d-4c77-9781-3ad95c6afaa7","ios":"levelo://app?vid=b5ae82c3-110d-4c77-9781-3ad95c6afaa7"},"vehicle_type_id":"4","last_reported":1727852902,"current_range_meters":33200,"station_id":"ce4bhqh2rcd13ifvqhlg","pricing_plan_id":"cebpf4jnsgd1na2vs0mg"},{"bike_id":"25d0985d-0c20-48ef-b685-85eabafbcfbb","system_id":"levelo_inurba_marseille","lat":43.29202,"lon":5.39327,"is_reserved":false,"is_disabled":false,"rental_uris":{"android":"levelo://app?vid=25d0985d-0c20-48ef-b685-85eabafbcfbb","ios":"levelo://app?vid=25d0985d-0c20-48ef-b685-85eabafbcfbb"},"vehicle_type_id":"4","last_reported":1727852902,"current_range_meters":35200,"station_id":"ce4bh192rcd13ifvqdd0","pricing_plan_id":"cebpf4jnsgd1na2vs0mg"},{"bike_id":"b8d0f0fe-9829-4e25-b3fc-9da75c2774f3","system_id":"levelo_inurba_marseille","lat":43.25935,"lon":5.40913,"is_reserved":false,"is_disabled":false,"rental_uris":{"android":"levelo://app?vid=b8d0f0fe-9829-4e25-b3fc-9da75c2774f3","ios":"levelo://app?vid=b8d0f0fe-9829-4e25-b3fc-9da75c2774f3"},"vehicle_type_id":"4","last_reported":1727852902,"current_range_meters":19600,"station_id":"ce4bhm92rcd13ifvqglg","pricing_plan_id":"cebpf4jnsgd1na2vs0mg"},{"bike_id":"d3cfa0bf-44b3-4878-8560-b25a05a1d43c","system_id":"levelo_inurba_marseille","lat":43.27494,"lon":5.4245,"is_reserved":false,"is_disabled":false,"rental_uris":{"android":"levelo://app?vid=d3cfa0bf-44b3-4878-8560-b25a05a1d43c","ios":"levelo://app?vid=d3cfa0bf-44b3-4878-8560-b25a05a1d43c"},"vehicle_type_id":"4","last_reported":1727852902,"current_range_meters":24400,"station_id":"ce4bhn92rcd13ifvqgrg","pricing_plan_id":"cebpf4jnsgd1na2vs0mg"},{"bike_id":"88be40c2-24e8-47e0-800c-1739a09a0bbd","system_id":"levelo_inurba_marseille","lat":43.3095,"lon":5.3903,"is_reserved":false,"is_disabled":false,"rental_uris":{"android":"levelo://app?vid=88be40c2-24e8-47e0-800c-1739a09a0bbd","ios":"levelo://app?vid=88be40c2-24e8-47e0-800c-1739a09a0bbd"},"vehicle_type_id":"4","last_reported":1727852902,"current_range_meters":8800,"station_id":"ce4bgup2rcd13ifvqco0","pricing_plan_id":"cebpf4jnsgd1na2vs0mg"},{"bike_id":"414e019a-b874-40a2-84df-b9a486f9f995","system_id":"levelo_inurba_marseille","lat":43.26945,"lon":5.38633,"is_reserved":false,"is_disabled":false,"rental_uris":{"android":"levelo://app?vid=414e019a-b874-40a2-84df-b9a486f9f995","ios":"levelo://app?vid=414e019a-b874-40a2-84df-b9a486f9f995"},"vehicle_type_id":"4","last_reported":1727852902,"current_range_meters":39200,"station_id":"ce4bhh92rcd13ifvqfh0","pricing_plan_id":"cebpf4jnsgd1na2vs0mg"},{"bike_id":"67a0b3a2-d781-40a4-90bf-2aa009f18c8f","system_id":"levelo_inurba_marseille","lat":43.30468,"lon":5.37909,"is_reserved":false,"is_disabled":false,"rental_uris":{"android":"levelo://app?vid=67a0b3a2-d781-40a4-90bf-2aa009f18c8f","ios":"levelo://app?vid=67a0b3a2-d781-40a4-90bf-2aa009f18c8f"},"vehicle_type_id":"4","last_reported":1727852902,"current_range_meters":37600,"station_id":"ce4bgup2rcd13ifvqcn0","pricing_plan_id":"cebpf4jnsgd1na2vs0mg"},{"bike_id":"1f36b12a-c84a-4115-ae35-0baf389b120d","system_id":"levelo_inurba_marseille","lat":43.30895,"lon":5.37182,"is_reserved":false,"is_disabled":false,"rental_uris":{"android":"levelo://app?vid=1f36b12a-c84a-4115-ae35-0baf389b120d","ios":"levelo://app?vid=1f36b12a-c84a-4115-ae35-0baf389b120d"},"vehicle_type_id":"4","last_reported":1727852902,"current_range_meters":34800,"station_id":"ce4bguh2rcd13ifvqckg","pricing_plan_id":"cebpf4jnsgd1na2vs0mg"},{"bike_id":"c79512c0-5855-4853-a139-4583c6a4ff0a","system_id":"levelo_inurba_marseille","lat":43.25008,"lon":5.38947,"is_reserved":false,"is_disabled":false,"rental_uris":{"android":"levelo://app?vid=c79512c0-5855-4853-a139-4583c6a4ff0a","ios":"levelo://app?vid=c79512c0-5855-4853-a139-4583c6a4ff0a"},"vehicle_type_id":"4","last_reported":1727852902,"current_range_meters":32800,"station_id":"ce4bhgp2rcd13ifvqfd0","pricing_plan_id":"cebpf4jnsgd1na2vs0mg"},{"bike_id":"480c0361-ae68-49da-a8bb-b26f4d368c0c","system_id":"levelo_inurba_marseille","lat":43.30467,"lon":5.37901,"is_reserved":false,"is_disabled":false,"rental_uris":{"android":"levelo://app?vid=480c0361-ae68-49da-a8bb-b26f4d368c0c","ios":"levelo://app?vid=480c0361-ae68-49da-a8bb-b26f4d368c0c"},"vehicle_type_id":"4","last_reported":1727852902,"current_range_meters":30000,"station_id":"ce4bgup2rcd13ifvqcn0","pricing_plan_id":"cebpf4jnsgd1na2vs0mg"},{"bike_id":"6da59bb3-bc0d-4109-a90e-8b7c8865ab92","system_id":"levelo_inurba_marseille","lat":43.306102,"lon":5.37218,"is_reserved":false,"is_disabled":false,"rental_uris":{"android":"levelo://app?vid=6da59bb3-bc0d-4109-a90e-8b7c8865ab92","ios":"levelo://app?vid=6da59bb3-bc0d-4109-a90e-8b7c8865ab92"},"vehicle_type_id":"4","last_reported":1727852902,"current_range_meters":33600,"station_id":"ce4bgqh2rcd13ifvqc4g","pricing_plan_id":"cebpf4jnsgd1na2vs0mg"},{"bike_id":"f73c0357-2191-480e-a049-d52ffb607063","system_id":"levelo_inurba_marseille","lat":43.3361,"lon":5.4103,"is_reserved":false,"is_disabled":false,"rental_uris":{"android":"levelo://app?vid=f73c0357-2191-480e-a049-d52ffb607063","ios":"levelo://app?vid=f73c0357-2191-480e-a049-d52ffb607063"},"vehicle_type_id":"4","last_reported":1727852902,"current_range_meters":35600,"station_id":"ce4bhqh2rcd13ifvqhmg","pricing_plan_id":"cebpf4jnsgd1na2vs0mg"},{"bike_id":"78863aa1-ed71-4955-9c54-509cc7bf9e19","system_id":"levelo_inurba_marseille","lat":43.30738,"lon":5.38069,"is_reserved":false,"is_disabled":false,"rental_uris":{"android":"levelo://app?vid=78863aa1-ed71-4955-9c54-509cc7bf9e19","ios":"levelo://app?vid=78863aa1-ed71-4955-9c54-509cc7bf9e19"},"vehicle_type_id":"4","last_reported":1727852902,"current_range_meters":20000,"station_id":"","pricing_plan_id":"cebpf4jnsgd1na2vs0mg"},{"bike_id":"6fd243ed-6d9e-43ef-8c93-97928f9ca9d7","system_id":"levelo_inurba_marseille","lat":43.30536,"lon":5.3672,"is_reserved":false,"is_disabled":false,"rental_uris":{"android":"levelo://app?vid=6fd243ed-6d9e-43ef-8c93-97928f9ca9d7","ios":"levelo://app?vid=6fd243ed-6d9e-43ef-8c93-97928f9ca9d7"},"vehicle_type_id":"4","last_reported":1727852902,"current_range_meters":35600,"station_id":"","pricing_plan_id":"cebpf4jnsgd1na2vs0mg"},{"bike_id":"d1774312-75bc-436e-88ec-22588f98b90c","system_id":"levelo_inurba_marseille","lat":43.32475,"lon":5.36556,"is_reserved":false,"is_disabled":false,"rental_uris":{"android":"levelo://app?vid=d1774312-75bc-436e-88ec-22588f98b90c","ios":"levelo://app?vid=d1774312-75bc-436e-88ec-22588f98b90c"},"vehicle_type_id":"4","last_reported":1727852902,"current_range_meters":6800,"station_id":"ce4bhs12rcd13ifvqhvg","pricing_plan_id":"cebpf4jnsgd1na2vs0mg"},{"bike_id":"d995d233-d2fe-4db9-b69b-baa1337469bf","system_id":"levelo_inurba_marseille","lat":43.26757,"lon":5.40225,"is_reserved":false,"is_disabled":false,"rental_uris":{"android":"levelo://app?vid=d995d233-d2fe-4db9-b69b-baa1337469bf","ios":"levelo://app?vid=d995d233-d2fe-4db9-b69b-baa1337469bf"},"vehicle_type_id":"4","last_reported":1727852902,"current_range_meters":10000,"station_id":"ce4bhm92rcd13ifvqglg","pricing_plan_id":"cebpf4jnsgd1na2vs0mg"},{"bike_id":"d6dc7b1b-6273-4860-a36d-bbcb151b59aa","system_id":"levelo_inurba_marseille","lat":43.29167,"lon":5.3716,"is_reserved":false,"is_disabled":false,"rental_uris":{"android":"levelo://app?vid=d6dc7b1b-6273-4860-a36d-bbcb151b59aa","ios":"levelo://app?vid=d6dc7b1b-6273-4860-a36d-bbcb151b59aa"},"vehicle_type_id":"4","last_reported":1727852902,"current_range_meters":28400,"station_id":"ce4bha92rcd13ifvqeh0","pricing_plan_id":"cebpf4jnsgd1na2vs0mg"},{"bike_id":"3ddf769c-c1f4-4c07-a643-d89d6207fa69","system_id":"levelo_inurba_marseille","lat":43.26692,"lon":5.38268,"is_reserved":false,"is_disabled":false,"rental_uris":{"android":"levelo://app?vid=3ddf769c-c1f4-4c07-a643-d89d6207fa69","ios":"levelo://app?vid=3ddf769c-c1f4-4c07-a643-d89d6207fa69"},"vehicle_type_id":"4","last_reported":1727852902,"current_range_meters":33600,"station_id":"ce4bhg92rcd13ifvqf90","pricing_plan_id":"cebpf4jnsgd1na2vs0mg"},{"bike_id":"1d9d4190-1d4b-4999-8cdd-8e44f04bc896","system_id":"levelo_inurba_marseille","lat":43.24073,"lon":5.37765,"is_reserved":false,"is_disabled":false,"rental_uris":{"android":"levelo://app?vid=1d9d4190-1d4b-4999-8cdd-8e44f04bc896","ios":"levelo://app?vid=1d9d4190-1d4b-4999-8cdd-8e44f04bc896"},"vehicle_type_id":"4","last_reported":1727852902,"current_range_meters":38400,"station_id":"ce4bhnp2rcd13ifvqgvg","pricing_plan_id":"cebpf4jnsgd1na2vs0mg"},{"bike_id":"ae29acc4-697a-4c43-9d59-03971ef798ca","system_id":"levelo_inurba_marseille","lat":43.29923,"lon":5.37495,"is_reserved":false,"is_disabled":false,"rental_uris":{"android":"levelo://app?vid=ae29acc4-697a-4c43-9d59-03971ef798ca","ios":"levelo://app?vid=ae29acc4-697a-4c43-9d59-03971ef798ca"},"vehicle_type_id":"4","last_reported":1727852902,"current_range_meters":36800,"station_id":"ce4bgjh2rcd13ifvqbg0","pricing_plan_id":"cebpf4jnsgd1na2vs0mg"},{"bike_id":"9e0f8531-ac87-4939-876c-6806e8dfeda9","system_id":"levelo_inurba_marseille","lat":43.23153,"lon":5.43716,"is_reserved":false,"is_disabled":false,"rental_uris":{"android":"levelo://app?vid=9e0f8531-ac87-4939-876c-6806e8dfeda9","ios":"levelo://app?vid=9e0f8531-ac87-4939-876c-6806e8dfeda9"},"vehicle_type_id":"4","last_reported":1727852902,"current_range_meters":8400,"station_id":"ce4bhmp2rcd13ifvqgog","pricing_plan_id":"cebpf4jnsgd1na2vs0mg"},{"bike_id":"e5b4acad-a526-4677-b608-6110c1720df0","system_id":"levelo_inurba_marseille","lat":43.31343,"lon":5.36719,"is_reserved":false,"is_disabled":false,"rental_uris":{"android":"levelo://app?vid=e5b4acad-a526-4677-b608-6110c1720df0","ios":"levelo://app?vid=e5b4acad-a526-4677-b608-6110c1720df0"},"vehicle_type_id":"4","last_reported":1727852902,"current_range_meters":5600,"station_id":"ce4bgr92rcd13ifvqc6g","pricing_plan_id":"cebpf4jnsgd1na2vs0mg"},{"bike_id":"009ea4a6-0561-421e-8a2c-1845d149d45a","system_id":"levelo_inurba_marseille","lat":43.3047,"lon":5.37897,"is_reserved":false,"is_disabled":false,"rental_uris":{"android":"levelo://app?vid=009ea4a6-0561-421e-8a2c-1845d149d45a","ios":"levelo://app?vid=009ea4a6-0561-421e-8a2c-1845d149d45a"},"vehicle_type_id":"4","last_reported":1727852902,"current_range_meters":8400,"station_id":"ce4bgup2rcd13ifvqcn0","pricing_plan_id":"cebpf4jnsgd1na2vs0mg"},{"bike_id":"b652f429-09b8-4697-9c1b-3b9adc3c55d8","system_id":"levelo_inurba_marseille","lat":43.26871,"lon":5.39135,"is_reserved":false,"is_disabled":false,"rental_uris":{"android":"levelo://app?vid=b652f429-09b8-4697-9c1b-3b9adc3c55d8","ios":"levelo://app?vid=b652f429-09b8-4697-9c1b-3b9adc3c55d8"},"vehicle_type_id":"4","last_reported":1727852902,"current_range_meters":2800,"station_id":"","pricing_plan_id":"cebpf4jnsgd1na2vs0mg"},{"bike_id":"804e3d71-db47-4264-9445-f1dd957f20d8","system_id":"levelo_inurba_marseille","lat":43.30311,"lon":5.36909,"is_reserved":false,"is_disabled":false,"rental_uris":{"android":"levelo://app?vid=804e3d71-db47-4264-9445-f1dd957f20d8","ios":"levelo://app?vid=804e3d71-db47-4264-9445-f1dd957f20d8"},"vehicle_type_id":"4","last_reported":1727852902,"current_range_meters":38800,"station_id":"ce4bgqh2rcd13ifvqc5g","pricing_plan_id":"cebpf4jnsgd1na2vs0mg"},{"bike_id":"16e01c66-d707-4826-bea8-75f4228c60f3","system_id":"levelo_inurba_marseille","lat":43.30209,"lon":5.39463,"is_reserved":false,"is_disabled":false,"rental_uris":{"android":"levelo://app?vid=16e01c66-d707-4826-bea8-75f4228c60f3","ios":"levelo://app?vid=16e01c66-d707-4826-bea8-75f4228c60f3"},"vehicle_type_id":"4","last_reported":1727852902,"current_range_meters":5600,"station_id":"ce4bh0p2rcd13ifvqd70","pricing_plan_id":"cebpf4jnsgd1na2vs0mg"},{"bike_id":"516b65b8-9466-4e2c-89e3-537811c62c1a","system_id":"levelo_inurba_marseille","lat":43.30146,"lon":5.37412,"is_reserved":false,"is_disabled":false,"rental_uris":{"android":"levelo://app?vid=516b65b8-9466-4e2c-89e3-537811c62c1a","ios":"levelo://app?vid=516b65b8-9466-4e2c-89e3-537811c62c1a"},"vehicle_type_id":"4","last_reported":1727852902,"current_range_meters":32400,"station_id":"ce4bgs92rcd13ifvqcc0","pricing_plan_id":"cebpf4jnsgd1na2vs0mg"},{"bike_id":"54c9fcd6-392d-4711-b61c-979a7335f2fa","system_id":"levelo_inurba_marseille","lat":43.27074,"lon":5.4228,"is_reserved":false,"is_disabled":false,"rental_uris":{"android":"levelo://app?vid=54c9fcd6-392d-4711-b61c-979a7335f2fa","ios":"levelo://app?vid=54c9fcd6-392d-4711-b61c-979a7335f2fa"},"vehicle_type_id":"4","last_reported":1727852902,"current_range_meters":30000,"station_id":"ce4bhk92rcd13ifvqgb0","pricing_plan_id":"cebpf4jnsgd1na2vs0mg"},{"bike_id":"5b789e69-9988-4818-9eca-bf357cf1fde0","system_id":"levelo_inurba_marseille","lat":43.3054,"lon":5.36558,"is_reserved":false,"is_disabled":false,"rental_uris":{"android":"levelo://app?vid=5b789e69-9988-4818-9eca-bf357cf1fde0","ios":"levelo://app?vid=5b789e69-9988-4818-9eca-bf357cf1fde0"},"vehicle_type_id":"4","last_reported":1727852902,"current_range_meters":38400,"station_id":"ce4bgs12rcd13ifvqcag","pricing_plan_id":"cebpf4jnsgd1na2vs0mg"},{"bike_id":"4f2db1d7-0354-4715-b08e-7421c6196cab","system_id":"levelo_inurba_marseille","lat":43.30462,"lon":5.37903,"is_reserved":false,"is_disabled":false,"rental_uris":{"android":"levelo://app?vid=4f2db1d7-0354-4715-b08e-7421c6196cab","ios":"levelo://app?vid=4f2db1d7-0354-4715-b08e-7421c6196cab"},"vehicle_type_id":"4","last_reported":1727852902,"current_range_meters":30000,"station_id":"ce4bgup2rcd13ifvqcn0","pricing_plan_id":"cebpf4jnsgd1na2vs0mg"},{"bike_id":"ee30eb65-e2b5-42f0-9767-04264112c239","system_id":"levelo_inurba_marseille","lat":43.30546,"lon":5.36558,"is_reserved":false,"is_disabled":false,"rental_uris":{"android":"levelo://app?vid=ee30eb65-e2b5-42f0-9767-04264112c239","ios":"levelo://app?vid=ee30eb65-e2b5-42f0-9767-04264112c239"},"vehicle_type_id":"4","last_reported":1727852902,"current_range_meters":16400,"station_id":"ce4bgs12rcd13ifvqcag","pricing_plan_id":"cebpf4jnsgd1na2vs0mg"},{"bike_id":"b993e505-e084-4b1a-9429-c10fe07c1a52","system_id":"levelo_inurba_marseille","lat":43.32536,"lon":5.41444,"is_reserved":false,"is_disabled":false,"rental_uris":{"android":"levelo://app?vid=b993e505-e084-4b1a-9429-c10fe07c1a52","ios":"levelo://app?vid=b993e505-e084-4b1a-9429-c10fe07c1a52"},"vehicle_type_id":"4","last_reported":1727852902,"current_range_meters":8800,"station_id":"ce4bhq12rcd13ifvqhhg","pricing_plan_id":"cebpf4jnsgd1na2vs0mg"},{"bike_id":"76cbff31-11cb-412b-aee6-b19f45ad0bec","system_id":"levelo_inurba_marseille","lat":43.30468,"lon":5.37911,"is_reserved":false,"is_disabled":false,"rental_uris":{"android":"levelo://app?vid=76cbff31-11cb-412b-aee6-b19f45ad0bec","ios":"levelo://app?vid=76cbff31-11cb-412b-aee6-b19f45ad0bec"},"vehicle_type_id":"4","last_reported":1727852902,"current_range_meters":30000,"station_id":"ce4bgup2rcd13ifvqcn0","pricing_plan_id":"cebpf4jnsgd1na2vs0mg"},{"bike_id":"0d0c09c7-e409-4059-95eb-e2007a7f7fa5","system_id":"levelo_inurba_marseille","lat":43.33606,"lon":5.41033,"is_reserved":false,"is_disabled":false,"rental_uris":{"android":"levelo://app?vid=0d0c09c7-e409-4059-95eb-e2007a7f7fa5","ios":"levelo://app?vid=0d0c09c7-e409-4059-95eb-e2007a7f7fa5"},"vehicle_type_id":"4","last_reported":1727852902,"current_range_meters":10800,"station_id":"ce4bhqh2rcd13ifvqhmg","pricing_plan_id":"cebpf4jnsgd1na2vs0mg"},{"bike_id":"d57d63f8-a766-42de-a53d-3a746b641922","system_id":"levelo_inurba_marseille","lat":43.30278,"lon":5.37725,"is_reserved":false,"is_disabled":false,"rental_uris":{"android":"levelo://app?vid=d57d63f8-a766-42de-a53d-3a746b641922","ios":"levelo://app?vid=d57d63f8-a766-42de-a53d-3a746b641922"},"vehicle_type_id":"4","last_reported":1727852902,"current_range_meters":38400,"station_id":"ce4bguh2rcd13ifvqcj0","pricing_plan_id":"cebpf4jnsgd1na2vs0mg"},{"bike_id":"8d5e8a13-9896-43e0-9b11-520e00c6766d","system_id":"levelo_inurba_marseille","lat":43.26687,"lon":5.38272,"is_reserved":false,"is_disabled":false,"rental_uris":{"android":"levelo://app?vid=8d5e8a13-9896-43e0-9b11-520e00c6766d","ios":"levelo://app?vid=8d5e8a13-9896-43e0-9b11-520e00c6766d"},"vehicle_type_id":"4","last_reported":1727852902,"current_range_meters":26800,"station_id":"ce4bhg92rcd13ifvqf90","pricing_plan_id":"cebpf4jnsgd1na2vs0mg"},{"bike_id":"7e00f59b-7040-4db6-81bf-9551415f514e","system_id":"levelo_inurba_marseille","lat":43.337444,"lon":5.374475,"is_reserved":false,"is_disabled":false,"rental_uris":{"android":"levelo://app?vid=7e00f59b-7040-4db6-81bf-9551415f514e","ios":"levelo://app?vid=7e00f59b-7040-4db6-81bf-9551415f514e"},"vehicle_type_id":"4","last_reported":1727852902,"current_range_meters":31200,"station_id":"ce4bgj92rcd13ifvqbd0","pricing_plan_id":"cebpf4jnsgd1na2vs0mg"},{"bike_id":"3c0cfaff-97ac-4a48-a49e-96b14dac12d7","system_id":"levelo_inurba_marseille","lat":43.30947,"lon":5.39033,"is_reserved":false,"is_disabled":false,"rental_uris":{"android":"levelo://app?vid=3c0cfaff-97ac-4a48-a49e-96b14dac12d7","ios":"levelo://app?vid=3c0cfaff-97ac-4a48-a49e-96b14dac12d7"},"vehicle_type_id":"4","last_reported":1727852902,"current_range_meters":11200,"station_id":"ce4bgup2rcd13ifvqco0","pricing_plan_id":"cebpf4jnsgd1na2vs0mg"},{"bike_id":"79d527c7-2bce-4ca9-8ae3-8b1a61dc1cde","system_id":"levelo_inurba_marseille","lat":43.33603,"lon":5.41032,"is_reserved":false,"is_disabled":false,"rental_uris":{"android":"levelo://app?vid=79d527c7-2bce-4ca9-8ae3-8b1a61dc1cde","ios":"levelo://app?vid=79d527c7-2bce-4ca9-8ae3-8b1a61dc1cde"},"vehicle_type_id":"4","last_reported":1727852902,"current_range_meters":36800,"station_id":"ce4bhqh2rcd13ifvqhmg","pricing_plan_id":"cebpf4jnsgd1na2vs0mg"},{"bike_id":"8fc06b6e-11de-43b1-8bb3-103c5d17c3bf","system_id":"levelo_inurba_marseille","lat":43.28463,"lon":5.38409,"is_reserved":false,"is_disabled":false,"rental_uris":{"android":"levelo://app?vid=8fc06b6e-11de-43b1-8bb3-103c5d17c3bf","ios":"levelo://app?vid=8fc06b6e-11de-43b1-8bb3-103c5d17c3bf"},"vehicle_type_id":"4","last_reported":1727852902,"current_range_meters":35600,"station_id":"ce4bh512rcd13ifvqe3g","pricing_plan_id":"cebpf4jnsgd1na2vs0mg"},{"bike_id":"3355cbba-3f17-4f4d-9cae-ee2aa1ddff19","system_id":"levelo_inurba_marseille","lat":43.30143,"lon":5.37407,"is_reserved":false,"is_disabled":false,"rental_uris":{"android":"levelo://app?vid=3355cbba-3f17-4f4d-9cae-ee2aa1ddff19","ios":"levelo://app?vid=3355cbba-3f17-4f4d-9cae-ee2aa1ddff19"},"vehicle_type_id":"4","last_reported":1727852902,"current_range_meters":17600,"station_id":"ce4bgs92rcd13ifvqcc0","pricing_plan_id":"cebpf4jnsgd1na2vs0mg"},{"bike_id":"e87b5406-bfc3-450b-90be-ea33674025e0","system_id":"levelo_inurba_marseille","lat":43.31365,"lon":5.36711,"is_reserved":false,"is_disabled":false,"rental_uris":{"android":"levelo://app?vid=e87b5406-bfc3-450b-90be-ea33674025e0","ios":"levelo://app?vid=e87b5406-bfc3-450b-90be-ea33674025e0"},"vehicle_type_id":"4","last_reported":1727852902,"current_range_meters":16800,"station_id":"ce4bgr92rcd13ifvqc6g","pricing_plan_id":"cebpf4jnsgd1na2vs0mg"},{"bike_id":"dc0269b0-e8b1-42a0-aa7e-d6ae8eb50eb5","system_id":"levelo_inurba_marseille","lat":43.2407,"lon":5.37754,"is_reserved":false,"is_disabled":false,"rental_uris":{"android":"levelo://app?vid=dc0269b0-e8b1-42a0-aa7e-d6ae8eb50eb5","ios":"levelo://app?vid=dc0269b0-e8b1-42a0-aa7e-d6ae8eb50eb5"},"vehicle_type_id":"4","last_reported":1727852902,"current_range_meters":35200,"station_id":"ce4bhnp2rcd13ifvqgvg","pricing_plan_id":"cebpf4jnsgd1na2vs0mg"},{"bike_id":"d93bef78-9da0-48c2-8214-25474d63f427","system_id":"levelo_inurba_marseille","lat":43.30528,"lon":5.38423,"is_reserved":false,"is_disabled":false,"rental_uris":{"android":"levelo://app?vid=d93bef78-9da0-48c2-8214-25474d63f427","ios":"levelo://app?vid=d93bef78-9da0-48c2-8214-25474d63f427"},"vehicle_type_id":"4","last_reported":1727852902,"current_range_meters":28000,"station_id":"ce4bgg92rcd13ifvqb30","pricing_plan_id":"cebpf4jnsgd1na2vs0mg"},{"bike_id":"f791259a-df2c-414e-92e0-4d64d343370b","system_id":"levelo_inurba_marseille","lat":43.30911,"lon":5.36849,"is_reserved":false,"is_disabled":false,"rental_uris":{"android":"levelo://app?vid=f791259a-df2c-414e-92e0-4d64d343370b","ios":"levelo://app?vid=f791259a-df2c-414e-92e0-4d64d343370b"},"vehicle_type_id":"4","last_reported":1727852902,"current_range_meters":38000,"station_id":"ce4bgn92rcd13ifvqbvg","pricing_plan_id":"cebpf4jnsgd1na2vs0mg"},{"bike_id":"ce877261-cb06-40ad-af7a-df51a8a4e943","system_id":"levelo_inurba_marseille","lat":43.30469,"lon":5.37921,"is_reserved":false,"is_disabled":false,"rental_uris":{"android":"levelo://app?vid=ce877261-cb06-40ad-af7a-df51a8a4e943","ios":"levelo://app?vid=ce877261-cb06-40ad-af7a-df51a8a4e943"},"vehicle_type_id":"4","last_reported":1727852902,"current_range_meters":37600,"station_id":"ce4bgup2rcd13ifvqcn0","pricing_plan_id":"cebpf4jnsgd1na2vs0mg"},{"bike_id":"07e74189-38c6-44f2-97b6-b5141fd8d166","system_id":"levelo_inurba_marseille","lat":43.26683,"lon":5.38269,"is_reserved":false,"is_disabled":false,"rental_uris":{"android":"levelo://app?vid=07e74189-38c6-44f2-97b6-b5141fd8d166","ios":"levelo://app?vid=07e74189-38c6-44f2-97b6-b5141fd8d166"},"vehicle_type_id":"4","last_reported":1727852902,"current_range_meters":36400,"station_id":"ce4bhg92rcd13ifvqf90","pricing_plan_id":"cebpf4jnsgd1na2vs0mg"},{"bike_id":"6ae20033-92da-495d-9743-905496a75472","system_id":"levelo_inurba_marseille","lat":43.33611,"lon":5.41022,"is_reserved":false,"is_disabled":false,"rental_uris":{"android":"levelo://app?vid=6ae20033-92da-495d-9743-905496a75472","ios":"levelo://app?vid=6ae20033-92da-495d-9743-905496a75472"},"vehicle_type_id":"4","last_reported":1727852902,"current_range_meters":38800,"station_id":"ce4bhqh2rcd13ifvqhmg","pricing_plan_id":"cebpf4jnsgd1na2vs0mg"},{"bike_id":"32f94b16-f43f-4ab0-9cc4-441c595e0a56","system_id":"levelo_inurba_marseille","lat":43.28155,"lon":5.42639,"is_reserved":false,"is_disabled":false,"rental_uris":{"android":"levelo://app?vid=32f94b16-f43f-4ab0-9cc4-441c595e0a56","ios":"levelo://app?vid=32f94b16-f43f-4ab0-9cc4-441c595e0a56"},"vehicle_type_id":"4","last_reported":1727852902,"current_range_meters":36400,"station_id":"ce4bhnh2rcd13ifvqgug","pricing_plan_id":"cebpf4jnsgd1na2vs0mg"},{"bike_id":"78654682-55d3-4726-9b93-44e606f958fe","system_id":"levelo_inurba_marseille","lat":43.24996,"lon":5.38931,"is_reserved":false,"is_disabled":false,"rental_uris":{"android":"levelo://app?vid=78654682-55d3-4726-9b93-44e606f958fe","ios":"levelo://app?vid=78654682-55d3-4726-9b93-44e606f958fe"},"vehicle_type_id":"4","last_reported":1727852902,"current_range_meters":30800,"station_id":"ce4bhgp2rcd13ifvqfd0","pricing_plan_id":"cebpf4jnsgd1na2vs0mg"},{"bike_id":"11055545-4247-41a3-9906-21261e0748c4","system_id":"levelo_inurba_marseille","lat":43.32533,"lon":5.41445,"is_reserved":false,"is_disabled":false,"rental_uris":{"android":"levelo://app?vid=11055545-4247-41a3-9906-21261e0748c4","ios":"levelo://app?vid=11055545-4247-41a3-9906-21261e0748c4"},"vehicle_type_id":"4","last_reported":1727852902,"current_range_meters":11600,"station_id":"ce4bhq12rcd13ifvqhhg","pricing_plan_id":"cebpf4jnsgd1na2vs0mg"},{"bike_id":"4bd2bdb0-2428-4b26-b66c-938192bf3d68","system_id":"levelo_inurba_marseille","lat":43.33761,"lon":5.37466,"is_reserved":false,"is_disabled":false,"rental_uris":{"android":"levelo://app?vid=4bd2bdb0-2428-4b26-b66c-938192bf3d68","ios":"levelo://app?vid=4bd2bdb0-2428-4b26-b66c-938192bf3d68"},"vehicle_type_id":"4","last_reported":1727852902,"current_range_meters":38800,"station_id":"","pricing_plan_id":"cebpf4jnsgd1na2vs0mg"},{"bike_id":"a9ccf132-3f19-4395-9daa-9d6bab8e9a12","system_id":"levelo_inurba_marseille","lat":43.27953,"lon":5.38755,"is_reserved":false,"is_disabled":false,"rental_uris":{"android":"levelo://app?vid=a9ccf132-3f19-4395-9daa-9d6bab8e9a12","ios":"levelo://app?vid=a9ccf132-3f19-4395-9daa-9d6bab8e9a12"},"vehicle_type_id":"4","last_reported":1727852902,"current_range_meters":26800,"station_id":"ce4bhg12rcd13ifvqf80","pricing_plan_id":"cebpf4jnsgd1na2vs0mg"},{"bike_id":"7c0a7e9a-274d-4edb-a5f4-3ab54445f147","system_id":"levelo_inurba_marseille","lat":43.26489,"lon":5.39546,"is_reserved":false,"is_disabled":false,"rental_uris":{"android":"levelo://app?vid=7c0a7e9a-274d-4edb-a5f4-3ab54445f147","ios":"levelo://app?vid=7c0a7e9a-274d-4edb-a5f4-3ab54445f147"},"vehicle_type_id":"4","last_reported":1727852902,"current_range_meters":38400,"station_id":"ce4bhi12rcd13ifvqfq0","pricing_plan_id":"cebpf4jnsgd1na2vs0mg"},{"bike_id":"c6aefcac-9b59-4be9-ba9c-464572888e5a","system_id":"levelo_inurba_marseille","lat":43.30545,"lon":5.36709,"is_reserved":false,"is_disabled":false,"rental_uris":{"android":"levelo://app?vid=c6aefcac-9b59-4be9-ba9c-464572888e5a","ios":"levelo://app?vid=c6aefcac-9b59-4be9-ba9c-464572888e5a"},"vehicle_type_id":"4","last_reported":1727852902,"current_range_meters":40000,"station_id":"ce4bgrp2rcd13ifvqc9g","pricing_plan_id":"cebpf4jnsgd1na2vs0mg"},{"bike_id":"e327d4c5-e7de-478d-89b6-da24369c6f53","system_id":"levelo_inurba_marseille","lat":43.29843,"lon":5.36275,"is_reserved":false,"is_disabled":false,"rental_uris":{"android":"levelo://app?vid=e327d4c5-e7de-478d-89b6-da24369c6f53","ios":"levelo://app?vid=e327d4c5-e7de-478d-89b6-da24369c6f53"},"vehicle_type_id":"4","last_reported":1727852902,"current_range_meters":38400,"station_id":"ce4bgpp2rcd13ifvqc3g","pricing_plan_id":"cebpf4jnsgd1na2vs0mg"},{"bike_id":"3b5112e4-eaa4-4152-b81d-413ce076a608","system_id":"levelo_inurba_marseille","lat":43.32537,"lon":5.4143,"is_reserved":false,"is_disabled":false,"rental_uris":{"android":"levelo://app?vid=3b5112e4-eaa4-4152-b81d-413ce076a608","ios":"levelo://app?vid=3b5112e4-eaa4-4152-b81d-413ce076a608"},"vehicle_type_id":"4","last_reported":1727852902,"current_range_meters":6800,"station_id":"ce4bhq12rcd13ifvqhhg","pricing_plan_id":"cebpf4jnsgd1na2vs0mg"},{"bike_id":"fa125cbc-dd0e-42e1-8b4f-416263dfbfc0","system_id":"levelo_inurba_marseille","lat":43.29372,"lon":5.37823,"is_reserved":false,"is_disabled":false,"rental_uris":{"android":"levelo://app?vid=fa125cbc-dd0e-42e1-8b4f-416263dfbfc0","ios":"levelo://app?vid=fa125cbc-dd0e-42e1-8b4f-416263dfbfc0"},"vehicle_type_id":"4","last_reported":1727852902,"current_range_meters":32800,"station_id":"ce4bgjh2rcd13ifvqbf0","pricing_plan_id":"cebpf4jnsgd1na2vs0mg"},{"bike_id":"ceab8afc-2178-4f23-802f-645fa15cfce5","system_id":"levelo_inurba_marseille","lat":43.24388,"lon":5.37061,"is_reserved":false,"is_disabled":false,"rental_uris":{"android":"levelo://app?vid=ceab8afc-2178-4f23-802f-645fa15cfce5","ios":"levelo://app?vid=ceab8afc-2178-4f23-802f-645fa15cfce5"},"vehicle_type_id":"4","last_reported":1727852902,"current_range_meters":16800,"station_id":"ce4bhhh2rcd13ifvqfk0","pricing_plan_id":"cebpf4jnsgd1na2vs0mg"},{"bike_id":"4c2ae094-bf26-4caf-a395-61fbe48cf2bb","system_id":"levelo_inurba_marseille","lat":43.27494,"lon":5.42456,"is_reserved":false,"is_disabled":false,"rental_uris":{"android":"levelo://app?vid=4c2ae094-bf26-4caf-a395-61fbe48cf2bb","ios":"levelo://app?vid=4c2ae094-bf26-4caf-a395-61fbe48cf2bb"},"vehicle_type_id":"4","last_reported":1727852902,"current_range_meters":36800,"station_id":"ce4bhn92rcd13ifvqgrg","pricing_plan_id":"cebpf4jnsgd1na2vs0mg"},{"bike_id":"a81f0712-7add-48be-9149-99318a0fb509","system_id":"levelo_inurba_marseille","lat":43.25,"lon":5.38925,"is_reserved":false,"is_disabled":false,"rental_uris":{"android":"levelo://app?vid=a81f0712-7add-48be-9149-99318a0fb509","ios":"levelo://app?vid=a81f0712-7add-48be-9149-99318a0fb509"},"vehicle_type_id":"4","last_reported":1727852902,"current_range_meters":14800,"station_id":"ce4bhgp2rcd13ifvqfd0","pricing_plan_id":"cebpf4jnsgd1na2vs0mg"},{"bike_id":"4b4bb13c-34de-41ef-97de-9566acfaf7d1","system_id":"levelo_inurba_marseille","lat":43.309471,"lon":5.390225,"is_reserved":false,"is_disabled":false,"rental_uris":{"android":"levelo://app?vid=4b4bb13c-34de-41ef-97de-9566acfaf7d1","ios":"levelo://app?vid=4b4bb13c-34de-41ef-97de-9566acfaf7d1"},"vehicle_type_id":"4","last_reported":1727852902,"current_range_meters":11600,"station_id":"ce4bgup2rcd13ifvqco0","pricing_plan_id":"cebpf4jnsgd1na2vs0mg"},{"bike_id":"1b467725-9883-4590-a224-19301fbc2fdc","system_id":"levelo_inurba_marseille","lat":43.302543,"lon":5.400772,"is_reserved":false,"is_disabled":false,"rental_uris":{"android":"levelo://app?vid=1b467725-9883-4590-a224-19301fbc2fdc","ios":"levelo://app?vid=1b467725-9883-4590-a224-19301fbc2fdc"},"vehicle_type_id":"4","last_reported":1727852902,"current_range_meters":28800,"station_id":"ce4bh312rcd13ifvqdj0","pricing_plan_id":"cebpf4jnsgd1na2vs0mg"},{"bike_id":"33ab3f51-3776-44b2-9d39-42527035593d","system_id":"levelo_inurba_marseille","lat":43.24076,"lon":5.3776,"is_reserved":false,"is_disabled":false,"rental_uris":{"android":"levelo://app?vid=33ab3f51-3776-44b2-9d39-42527035593d","ios":"levelo://app?vid=33ab3f51-3776-44b2-9d39-42527035593d"},"vehicle_type_id":"4","last_reported":1727852902,"current_range_meters":27200,"station_id":"ce4bhnp2rcd13ifvqgvg","pricing_plan_id":"cebpf4jnsgd1na2vs0mg"},{"bike_id":"66c1cfb0-2b20-433a-94b2-c02013f6c4e9","system_id":"levelo_inurba_marseille","lat":43.30557,"lon":5.36557,"is_reserved":false,"is_disabled":false,"rental_uris":{"android":"levelo://app?vid=66c1cfb0-2b20-433a-94b2-c02013f6c4e9","ios":"levelo://app?vid=66c1cfb0-2b20-433a-94b2-c02013f6c4e9"},"vehicle_type_id":"4","last_reported":1727852902,"current_range_meters":3200,"station_id":"ce4bgs12rcd13ifvqcag","pricing_plan_id":"cebpf4jnsgd1na2vs0mg"},{"bike_id":"9da4a5f4-1a97-4224-a5a8-18de5740c318","system_id":"levelo_inurba_marseille","lat":43.30549,"lon":5.3656,"is_reserved":false,"is_disabled":false,"rental_uris":{"android":"levelo://app?vid=9da4a5f4-1a97-4224-a5a8-18de5740c318","ios":"levelo://app?vid=9da4a5f4-1a97-4224-a5a8-18de5740c318"},"vehicle_type_id":"4","last_reported":1727852902,"current_range_meters":30000,"station_id":"ce4bgs12rcd13ifvqcag","pricing_plan_id":"cebpf4jnsgd1na2vs0mg"},{"bike_id":"4bc069e9-27cb-4e2c-9e2e-007bc95d2cfc","system_id":"levelo_inurba_marseille","lat":43.292225,"lon":5.360447,"is_reserved":false,"is_disabled":false,"rental_uris":{"android":"levelo://app?vid=4bc069e9-27cb-4e2c-9e2e-007bc95d2cfc","ios":"levelo://app?vid=4bc069e9-27cb-4e2c-9e2e-007bc95d2cfc"},"vehicle_type_id":"4","last_reported":1727852902,"current_range_meters":38400,"station_id":"ce4bhbh2rcd13ifvqeqg","pricing_plan_id":"cebpf4jnsgd1na2vs0mg"},{"bike_id":"5232706d-f6ed-49c5-82b0-3d08f9db9c69","system_id":"levelo_inurba_marseille","lat":43.29841,"lon":5.36268,"is_reserved":false,"is_disabled":false,"rental_uris":{"android":"levelo://app?vid=5232706d-f6ed-49c5-82b0-3d08f9db9c69","ios":"levelo://app?vid=5232706d-f6ed-49c5-82b0-3d08f9db9c69"},"vehicle_type_id":"4","last_reported":1727852902,"current_range_meters":24400,"station_id":"ce4bgpp2rcd13ifvqc3g","pricing_plan_id":"cebpf4jnsgd1na2vs0mg"},{"bike_id":"dbc44908-d446-4545-8bfd-392387f63cc0","system_id":"levelo_inurba_marseille","lat":43.24072,"lon":5.37762,"is_reserved":false,"is_disabled":false,"rental_uris":{"android":"levelo://app?vid=dbc44908-d446-4545-8bfd-392387f63cc0","ios":"levelo://app?vid=dbc44908-d446-4545-8bfd-392387f63cc0"},"vehicle_type_id":"4","last_reported":1727852902,"current_range_meters":24000,"station_id":"ce4bhnp2rcd13ifvqgvg","pricing_plan_id":"cebpf4jnsgd1na2vs0mg"},{"bike_id":"bd0db477-1706-451e-a7f6-635369a0f04a","system_id":"levelo_inurba_marseille","lat":43.2408,"lon":5.37754,"is_reserved":false,"is_disabled":false,"rental_uris":{"android":"levelo://app?vid=bd0db477-1706-451e-a7f6-635369a0f04a","ios":"levelo://app?vid=bd0db477-1706-451e-a7f6-635369a0f04a"},"vehicle_type_id":"4","last_reported":1727852902,"current_range_meters":14800,"station_id":"ce4bhnp2rcd13ifvqgvg","pricing_plan_id":"cebpf4jnsgd1na2vs0mg"},{"bike_id":"688efa76-dae4-402e-867d-4eff39a7bc1a","system_id":"levelo_inurba_marseille","lat":43.30351,"lon":5.41878,"is_reserved":false,"is_disabled":false,"rental_uris":{"android":"levelo://app?vid=688efa76-dae4-402e-867d-4eff39a7bc1a","ios":"levelo://app?vid=688efa76-dae4-402e-867d-4eff39a7bc1a"},"vehicle_type_id":"4","last_reported":1727852902,"current_range_meters":36800,"station_id":"ce4bhop2rcd13ifvqh7g","pricing_plan_id":"cebpf4jnsgd1na2vs0mg"},{"bike_id":"6ca3c324-edcd-4f8d-a4f2-e318473acbb0","system_id":"levelo_inurba_marseille","lat":43.30462,"lon":5.37893,"is_reserved":false,"is_disabled":false,"rental_uris":{"android":"levelo://app?vid=6ca3c324-edcd-4f8d-a4f2-e318473acbb0","ios":"levelo://app?vid=6ca3c324-edcd-4f8d-a4f2-e318473acbb0"},"vehicle_type_id":"4","last_reported":1727852902,"current_range_meters":6800,"station_id":"ce4bgup2rcd13ifvqcn0","pricing_plan_id":"cebpf4jnsgd1na2vs0mg"},{"bike_id":"0edef70a-85da-4e89-b342-790d06383c90","system_id":"levelo_inurba_marseille","lat":43.28928,"lon":5.38403,"is_reserved":false,"is_disabled":false,"rental_uris":{"android":"levelo://app?vid=0edef70a-85da-4e89-b342-790d06383c90","ios":"levelo://app?vid=0edef70a-85da-4e89-b342-790d06383c90"},"vehicle_type_id":"4","last_reported":1727852902,"current_range_meters":9200,"station_id":"ce4bh612rcd13ifvqe6g","pricing_plan_id":"cebpf4jnsgd1na2vs0mg"},{"bike_id":"0e80d975-35b4-4976-96d5-e45fa51557e2","system_id":"levelo_inurba_marseille","lat":43.311676,"lon":5.387196,"is_reserved":false,"is_disabled":false,"rental_uris":{"android":"levelo://app?vid=0e80d975-35b4-4976-96d5-e45fa51557e2","ios":"levelo://app?vid=0e80d975-35b4-4976-96d5-e45fa51557e2"},"vehicle_type_id":"4","last_reported":1727852902,"current_range_meters":4000,"station_id":"ce4bgv12rcd13ifvqcp0","pricing_plan_id":"cebpf4jnsgd1na2vs0mg"},{"bike_id":"9dff1c58-1084-4ecf-a786-30920f143b19","system_id":"levelo_inurba_marseille","lat":43.30711,"lon":5.40153,"is_reserved":false,"is_disabled":false,"rental_uris":{"android":"levelo://app?vid=9dff1c58-1084-4ecf-a786-30920f143b19","ios":"levelo://app?vid=9dff1c58-1084-4ecf-a786-30920f143b19"},"vehicle_type_id":"4","last_reported":1727852902,"current_range_meters":10000,"station_id":"ce4bgvp2rcd13ifvqct0","pricing_plan_id":"cebpf4jnsgd1na2vs0mg"},{"bike_id":"4e69c702-3645-432d-b0a6-65ed6bec937f","system_id":"levelo_inurba_marseille","lat":43.312186,"lon":5.3685,"is_reserved":false,"is_disabled":false,"rental_uris":{"android":"levelo://app?vid=4e69c702-3645-432d-b0a6-65ed6bec937f","ios":"levelo://app?vid=4e69c702-3645-432d-b0a6-65ed6bec937f"},"vehicle_type_id":"4","last_reported":1727852902,"current_range_meters":28000,"station_id":"ce4bgl92rcd13ifvqbq0","pricing_plan_id":"cebpf4jnsgd1na2vs0mg"},{"bike_id":"c1f85944-9ff0-42e2-9037-87d35814bcac","system_id":"levelo_inurba_marseille","lat":43.314206,"lon":5.373718,"is_reserved":false,"is_disabled":false,"rental_uris":{"android":"levelo://app?vid=c1f85944-9ff0-42e2-9037-87d35814bcac","ios":"levelo://app?vid=c1f85944-9ff0-42e2-9037-87d35814bcac"},"vehicle_type_id":"4","last_reported":1727852902,"current_range_meters":15200,"station_id":"ce4bhh12rcd13ifvqfg0","pricing_plan_id":"cebpf4jnsgd1na2vs0mg"},{"bike_id":"d5886dce-2310-4f5f-85b5-6a868bfd7ee8","system_id":"levelo_inurba_marseille","lat":43.261814,"lon":5.374544,"is_reserved":false,"is_disabled":false,"rental_uris":{"android":"levelo://app?vid=d5886dce-2310-4f5f-85b5-6a868bfd7ee8","ios":"levelo://app?vid=d5886dce-2310-4f5f-85b5-6a868bfd7ee8"},"vehicle_type_id":"4","last_reported":1727852902,"current_range_meters":38800,"station_id":"ce4bhgp2rcd13ifvqfc0","pricing_plan_id":"cebpf4jnsgd1na2vs0mg"},{"bike_id":"7e3c2534-8b06-498e-825e-dceb752a1f16","system_id":"levelo_inurba_marseille","lat":43.33752,"lon":5.37475,"is_reserved":false,"is_disabled":false,"rental_uris":{"android":"levelo://app?vid=7e3c2534-8b06-498e-825e-dceb752a1f16","ios":"levelo://app?vid=7e3c2534-8b06-498e-825e-dceb752a1f16"},"vehicle_type_id":"4","last_reported":1727852902,"current_range_meters":38800,"station_id":"","pricing_plan_id":"cebpf4jnsgd1na2vs0mg"},{"bike_id":"772088a0-7828-4f69-ba5d-0f6cdb83dec2","system_id":"levelo_inurba_marseille","lat":43.337444,"lon":5.374475,"is_reserved":false,"is_disabled":false,"rental_uris":{"android":"levelo://app?vid=772088a0-7828-4f69-ba5d-0f6cdb83dec2","ios":"levelo://app?vid=772088a0-7828-4f69-ba5d-0f6cdb83dec2"},"vehicle_type_id":"4","last_reported":1727852902,"current_range_meters":7200,"station_id":"","pricing_plan_id":"cebpf4jnsgd1na2vs0mg"},{"bike_id":"b948b6ca-6de4-40a4-aaa5-d3cb7f561729","system_id":"levelo_inurba_marseille","lat":43.29527,"lon":5.37514,"is_reserved":false,"is_disabled":false,"rental_uris":{"android":"levelo://app?vid=b948b6ca-6de4-40a4-aaa5-d3cb7f561729","ios":"levelo://app?vid=b948b6ca-6de4-40a4-aaa5-d3cb7f561729"},"vehicle_type_id":"4","last_reported":1727852902,"current_range_meters":30800,"station_id":"ce4bgkp2rcd13ifvqbmg","pricing_plan_id":"cebpf4jnsgd1na2vs0mg"},{"bike_id":"6c244554-daa9-4278-a870-72659613edd9","system_id":"levelo_inurba_marseille","lat":43.33611,"lon":5.41035,"is_reserved":false,"is_disabled":false,"rental_uris":{"android":"levelo://app?vid=6c244554-daa9-4278-a870-72659613edd9","ios":"levelo://app?vid=6c244554-daa9-4278-a870-72659613edd9"},"vehicle_type_id":"4","last_reported":1727852902,"current_range_meters":30000,"station_id":"ce4bhqh2rcd13ifvqhmg","pricing_plan_id":"cebpf4jnsgd1na2vs0mg"},{"bike_id":"a839f8c2-1f19-41c9-b661-130324e30c0f","system_id":"levelo_inurba_marseille","lat":43.32291,"lon":5.38258,"is_reserved":false,"is_disabled":false,"rental_uris":{"android":"levelo://app?vid=a839f8c2-1f19-41c9-b661-130324e30c0f","ios":"levelo://app?vid=a839f8c2-1f19-41c9-b661-130324e30c0f"},"vehicle_type_id":"4","last_reported":1727852902,"current_range_meters":38800,"station_id":"ce4bhr12rcd13ifvqhqg","pricing_plan_id":"cebpf4jnsgd1na2vs0mg"},{"bike_id":"7a7e4978-023c-4125-ae1e-54a889e3191f","system_id":"levelo_inurba_marseille","lat":43.30559,"lon":5.36556,"is_reserved":false,"is_disabled":false,"rental_uris":{"android":"levelo://app?vid=7a7e4978-023c-4125-ae1e-54a889e3191f","ios":"levelo://app?vid=7a7e4978-023c-4125-ae1e-54a889e3191f"},"vehicle_type_id":"4","last_reported":1727852902,"current_range_meters":28400,"station_id":"ce4bgs12rcd13ifvqcag","pricing_plan_id":"cebpf4jnsgd1na2vs0mg"},{"bike_id":"cd385f71-7ba5-497a-9c21-e01e06c76d4e","system_id":"levelo_inurba_marseille","lat":43.32058,"lon":5.4155,"is_reserved":false,"is_disabled":false,"rental_uris":{"android":"levelo://app?vid=cd385f71-7ba5-497a-9c21-e01e06c76d4e","ios":"levelo://app?vid=cd385f71-7ba5-497a-9c21-e01e06c76d4e"},"vehicle_type_id":"4","last_reported":1727852902,"current_range_meters":10000,"station_id":"ce4bhq92rcd13ifvqhkg","pricing_plan_id":"cebpf4jnsgd1na2vs0mg"},{"bike_id":"4b1d2441-b9a5-4aff-adfb-da193343efe2","system_id":"levelo_inurba_marseille","lat":43.30911,"lon":5.36843,"is_reserved":false,"is_disabled":false,"rental_uris":{"android":"levelo://app?vid=4b1d2441-b9a5-4aff-adfb-da193343efe2","ios":"levelo://app?vid=4b1d2441-b9a5-4aff-adfb-da193343efe2"},"vehicle_type_id":"4","last_reported":1727852902,"current_range_meters":28400,"station_id":"ce4bgn92rcd13ifvqbvg","pricing_plan_id":"cebpf4jnsgd1na2vs0mg"},{"bike_id":"177513a6-4015-4f91-9e0d-a8eeaee3df8e","system_id":"levelo_inurba_marseille","lat":43.3203,"lon":5.4155,"is_reserved":false,"is_disabled":false,"rental_uris":{"android":"levelo://app?vid=177513a6-4015-4f91-9e0d-a8eeaee3df8e","ios":"levelo://app?vid=177513a6-4015-4f91-9e0d-a8eeaee3df8e"},"vehicle_type_id":"4","last_reported":1727852902,"current_range_meters":34800,"station_id":"ce4bhq92rcd13ifvqhkg","pricing_plan_id":"cebpf4jnsgd1na2vs0mg"},{"bike_id":"1ee457d8-75a5-4f4a-a999-784302d20d90","system_id":"levelo_inurba_marseille","lat":43.29368,"lon":5.37845,"is_reserved":false,"is_disabled":false,"rental_uris":{"android":"levelo://app?vid=1ee457d8-75a5-4f4a-a999-784302d20d90","ios":"levelo://app?vid=1ee457d8-75a5-4f4a-a999-784302d20d90"},"vehicle_type_id":"4","last_reported":1727852902,"current_range_meters":34000,"station_id":"ce4bgjh2rcd13ifvqbf0","pricing_plan_id":"cebpf4jnsgd1na2vs0mg"},{"bike_id":"f2eafe04-603e-4fb0-8676-42d468e4f953","system_id":"levelo_inurba_marseille","lat":43.337444,"lon":5.374475,"is_reserved":false,"is_disabled":false,"rental_uris":{"android":"levelo://app?vid=f2eafe04-603e-4fb0-8676-42d468e4f953","ios":"levelo://app?vid=f2eafe04-603e-4fb0-8676-42d468e4f953"},"vehicle_type_id":"4","last_reported":1727852902,"current_range_meters":28000,"station_id":"","pricing_plan_id":"cebpf4jnsgd1na2vs0mg"},{"bike_id":"e354e395-0ac5-40ec-9397-6d99866c7f31","system_id":"levelo_inurba_marseille","lat":43.33761,"lon":5.37471,"is_reserved":false,"is_disabled":false,"rental_uris":{"android":"levelo://app?vid=e354e395-0ac5-40ec-9397-6d99866c7f31","ios":"levelo://app?vid=e354e395-0ac5-40ec-9397-6d99866c7f31"},"vehicle_type_id":"4","last_reported":1727852902,"current_range_meters":23200,"station_id":"","pricing_plan_id":"cebpf4jnsgd1na2vs0mg"},{"bike_id":"82629651-f3f6-4e9b-971d-0a40fe1449ba","system_id":"levelo_inurba_marseille","lat":43.28152,"lon":5.42647,"is_reserved":false,"is_disabled":false,"rental_uris":{"android":"levelo://app?vid=82629651-f3f6-4e9b-971d-0a40fe1449ba","ios":"levelo://app?vid=82629651-f3f6-4e9b-971d-0a40fe1449ba"},"vehicle_type_id":"4","last_reported":1727852902,"current_range_meters":38400,"station_id":"ce4bhnh2rcd13ifvqgug","pricing_plan_id":"cebpf4jnsgd1na2vs0mg"},{"bike_id":"f74b94bd-4df2-44d7-a73b-0c0ff17290b9","system_id":"levelo_inurba_marseille","lat":43.34143,"lon":5.40897,"is_reserved":false,"is_disabled":false,"rental_uris":{"android":"levelo://app?vid=f74b94bd-4df2-44d7-a73b-0c0ff17290b9","ios":"levelo://app?vid=f74b94bd-4df2-44d7-a73b-0c0ff17290b9"},"vehicle_type_id":"4","last_reported":1727852902,"current_range_meters":11600,"station_id":"ce4bhqh2rcd13ifvqhlg","pricing_plan_id":"cebpf4jnsgd1na2vs0mg"},{"bike_id":"9513f9a4-9927-4c02-908b-a5d770a723ce","system_id":"levelo_inurba_marseille","lat":43.26955,"lon":5.38629,"is_reserved":false,"is_disabled":false,"rental_uris":{"android":"levelo://app?vid=9513f9a4-9927-4c02-908b-a5d770a723ce","ios":"levelo://app?vid=9513f9a4-9927-4c02-908b-a5d770a723ce"},"vehicle_type_id":"4","last_reported":1727852902,"current_range_meters":38400,"station_id":"ce4bhh92rcd13ifvqfh0","pricing_plan_id":"cebpf4jnsgd1na2vs0mg"},{"bike_id":"28378b31-7d41-44a5-ae65-b499de808787","system_id":"levelo_inurba_marseille","lat":43.24074,"lon":5.37762,"is_reserved":false,"is_disabled":false,"rental_uris":{"android":"levelo://app?vid=28378b31-7d41-44a5-ae65-b499de808787","ios":"levelo://app?vid=28378b31-7d41-44a5-ae65-b499de808787"},"vehicle_type_id":"4","last_reported":1727852902,"current_range_meters":35600,"station_id":"ce4bhnp2rcd13ifvqgvg","pricing_plan_id":"cebpf4jnsgd1na2vs0mg"},{"bike_id":"f3be656a-707c-467d-8d0f-fff129d330ae","system_id":"levelo_inurba_marseille","lat":43.30468,"lon":5.37913,"is_reserved":false,"is_disabled":false,"rental_uris":{"android":"levelo://app?vid=f3be656a-707c-467d-8d0f-fff129d330ae","ios":"levelo://app?vid=f3be656a-707c-467d-8d0f-fff129d330ae"},"vehicle_type_id":"4","last_reported":1727852902,"current_range_meters":28000,"station_id":"ce4bgup2rcd13ifvqcn0","pricing_plan_id":"cebpf4jnsgd1na2vs0mg"},{"bike_id":"a6372cdc-5105-4d3f-8f0d-eeca6ef05601","system_id":"levelo_inurba_marseille","lat":43.29965,"lon":5.38488,"is_reserved":false,"is_disabled":false,"rental_uris":{"android":"levelo://app?vid=a6372cdc-5105-4d3f-8f0d-eeca6ef05601","ios":"levelo://app?vid=a6372cdc-5105-4d3f-8f0d-eeca6ef05601"},"vehicle_type_id":"4","last_reported":1727852902,"current_range_meters":36800,"station_id":"ce4bgj92rcd13ifvqbd0","pricing_plan_id":"cebpf4jnsgd1na2vs0mg"},{"bike_id":"6eba1abc-2435-44ab-ba81-b10227bea0da","system_id":"levelo_inurba_marseille","lat":43.24078,"lon":5.37755,"is_reserved":false,"is_disabled":false,"rental_uris":{"android":"levelo://app?vid=6eba1abc-2435-44ab-ba81-b10227bea0da","ios":"levelo://app?vid=6eba1abc-2435-44ab-ba81-b10227bea0da"},"vehicle_type_id":"4","last_reported":1727852902,"current_range_meters":16400,"station_id":"ce4bhnp2rcd13ifvqgvg","pricing_plan_id":"cebpf4jnsgd1na2vs0mg"},{"bike_id":"cec15b1f-3dd5-4b35-876e-5e2f0bee5d3b","system_id":"levelo_inurba_marseille","lat":43.30277,"lon":5.37717,"is_reserved":false,"is_disabled":false,"rental_uris":{"android":"levelo://app?vid=cec15b1f-3dd5-4b35-876e-5e2f0bee5d3b","ios":"levelo://app?vid=cec15b1f-3dd5-4b35-876e-5e2f0bee5d3b"},"vehicle_type_id":"4","last_reported":1727852902,"current_range_meters":22000,"station_id":"ce4bguh2rcd13ifvqcj0","pricing_plan_id":"cebpf4jnsgd1na2vs0mg"},{"bike_id":"d0f3ba74-2db6-4276-a970-d6d9e934005a","system_id":"levelo_inurba_marseille","lat":43.33721,"lon":5.39182,"is_reserved":false,"is_disabled":false,"rental_uris":{"android":"levelo://app?vid=d0f3ba74-2db6-4276-a970-d6d9e934005a","ios":"levelo://app?vid=d0f3ba74-2db6-4276-a970-d6d9e934005a"},"vehicle_type_id":"4","last_reported":1727852902,"current_range_meters":40000,"station_id":"ce4bhr92rcd13ifvqhsg","pricing_plan_id":"cebpf4jnsgd1na2vs0mg"},{"bike_id":"0762ae2d-3475-4532-bfe9-c827a07be2f5","system_id":"levelo_inurba_marseille","lat":43.31341,"lon":5.36807,"is_reserved":false,"is_disabled":false,"rental_uris":{"android":"levelo://app?vid=0762ae2d-3475-4532-bfe9-c827a07be2f5","ios":"levelo://app?vid=0762ae2d-3475-4532-bfe9-c827a07be2f5"},"vehicle_type_id":"4","last_reported":1727852902,"current_range_meters":22400,"station_id":"ce4bgqh2rcd13ifvqc4g","pricing_plan_id":"cebpf4jnsgd1na2vs0mg"},{"bike_id":"890f96ea-eda5-427c-858e-9a917a74f5c2","system_id":"levelo_inurba_marseille","lat":43.26064,"lon":5.39391,"is_reserved":false,"is_disabled":false,"rental_uris":{"android":"levelo://app?vid=890f96ea-eda5-427c-858e-9a917a74f5c2","ios":"levelo://app?vid=890f96ea-eda5-427c-858e-9a917a74f5c2"},"vehicle_type_id":"4","last_reported":1727852902,"current_range_meters":8000,"station_id":"ce4bhh92rcd13ifvqfj0","pricing_plan_id":"cebpf4jnsgd1na2vs0mg"},{"bike_id":"a2ba7602-9b90-45c6-8d5a-66c0710e2f94","system_id":"levelo_inurba_marseille","lat":43.33607,"lon":5.41025,"is_reserved":false,"is_disabled":false,"rental_uris":{"android":"levelo://app?vid=a2ba7602-9b90-45c6-8d5a-66c0710e2f94","ios":"levelo://app?vid=a2ba7602-9b90-45c6-8d5a-66c0710e2f94"},"vehicle_type_id":"4","last_reported":1727852902,"current_range_meters":24800,"station_id":"ce4bhqh2rcd13ifvqhmg","pricing_plan_id":"cebpf4jnsgd1na2vs0mg"},{"bike_id":"0ff27e27-d297-4868-830a-583b86c93763","system_id":"levelo_inurba_marseille","lat":43.30271,"lon":5.37707,"is_reserved":false,"is_disabled":false,"rental_uris":{"android":"levelo://app?vid=0ff27e27-d297-4868-830a-583b86c93763","ios":"levelo://app?vid=0ff27e27-d297-4868-830a-583b86c93763"},"vehicle_type_id":"4","last_reported":1727852902,"current_range_meters":12800,"station_id":"ce4bguh2rcd13ifvqcj0","pricing_plan_id":"cebpf4jnsgd1na2vs0mg"},{"bike_id":"00c14c0d-38dd-4bdb-9a18-133e49d26844","system_id":"levelo_inurba_marseille","lat":43.28467,"lon":5.38419,"is_reserved":false,"is_disabled":false,"rental_uris":{"android":"levelo://app?vid=00c14c0d-38dd-4bdb-9a18-133e49d26844","ios":"levelo://app?vid=00c14c0d-38dd-4bdb-9a18-133e49d26844"},"vehicle_type_id":"4","last_reported":1727852902,"current_range_meters":17200,"station_id":"ce4bh512rcd13ifvqe3g","pricing_plan_id":"cebpf4jnsgd1na2vs0mg"},{"bike_id":"f7f1f8df-12fc-4e27-9e2e-261635c28839","system_id":"levelo_inurba_marseille","lat":43.31343,"lon":5.36716,"is_reserved":false,"is_disabled":false,"rental_uris":{"android":"levelo://app?vid=f7f1f8df-12fc-4e27-9e2e-261635c28839","ios":"levelo://app?vid=f7f1f8df-12fc-4e27-9e2e-261635c28839"},"vehicle_type_id":"4","last_reported":1727852902,"current_range_meters":28400,"station_id":"ce4bgr92rcd13ifvqc6g","pricing_plan_id":"cebpf4jnsgd1na2vs0mg"},{"bike_id":"e81cef68-ecc8-4fe9-a400-7c4a2a76b1ec","system_id":"levelo_inurba_marseille","lat":43.27206,"lon":5.39181,"is_reserved":false,"is_disabled":false,"rental_uris":{"android":"levelo://app?vid=e81cef68-ecc8-4fe9-a400-7c4a2a76b1ec","ios":"levelo://app?vid=e81cef68-ecc8-4fe9-a400-7c4a2a76b1ec"},"vehicle_type_id":"4","last_reported":1727852902,"current_range_meters":39200,"station_id":"ce4bhhp2rcd13ifvqfm0","pricing_plan_id":"cebpf4jnsgd1na2vs0mg"},{"bike_id":"3eb79290-9372-4679-b6ca-b6733b82cfe9","system_id":"levelo_inurba_marseille","lat":43.31222,"lon":5.36852,"is_reserved":false,"is_disabled":false,"rental_uris":{"android":"levelo://app?vid=3eb79290-9372-4679-b6ca-b6733b82cfe9","ios":"levelo://app?vid=3eb79290-9372-4679-b6ca-b6733b82cfe9"},"vehicle_type_id":"4","last_reported":1727852902,"current_range_meters":39200,"station_id":"ce4bgl92rcd13ifvqbq0","pricing_plan_id":"cebpf4jnsgd1na2vs0mg"},{"bike_id":"770e8d71-3f62-4273-974d-1cced1cbb3a8","system_id":"levelo_inurba_marseille","lat":43.28845,"lon":5.39297,"is_reserved":false,"is_disabled":false,"rental_uris":{"android":"levelo://app?vid=770e8d71-3f62-4273-974d-1cced1cbb3a8","ios":"levelo://app?vid=770e8d71-3f62-4273-974d-1cced1cbb3a8"},"vehicle_type_id":"4","last_reported":1727852902,"current_range_meters":34000,"station_id":"ce4bh2p2rcd13ifvqdi0","pricing_plan_id":"cebpf4jnsgd1na2vs0mg"},{"bike_id":"26910d4e-dfca-45c5-9dfb-228d098ca3b4","system_id":"levelo_inurba_marseille","lat":43.31361,"lon":5.36698,"is_reserved":false,"is_disabled":false,"rental_uris":{"android":"levelo://app?vid=26910d4e-dfca-45c5-9dfb-228d098ca3b4","ios":"levelo://app?vid=26910d4e-dfca-45c5-9dfb-228d098ca3b4"},"vehicle_type_id":"4","last_reported":1727852902,"current_range_meters":26000,"station_id":"ce4bgr92rcd13ifvqc6g","pricing_plan_id":"cebpf4jnsgd1na2vs0mg"},{"bike_id":"c90b62d9-56ee-4c39-b816-7c92e6759ba5","system_id":"levelo_inurba_marseille","lat":43.26946,"lon":5.38631,"is_reserved":false,"is_disabled":false,"rental_uris":{"android":"levelo://app?vid=c90b62d9-56ee-4c39-b816-7c92e6759ba5","ios":"levelo://app?vid=c90b62d9-56ee-4c39-b816-7c92e6759ba5"},"vehicle_type_id":"4","last_reported":1727852902,"current_range_meters":39200,"station_id":"ce4bhh92rcd13ifvqfh0","pricing_plan_id":"cebpf4jnsgd1na2vs0mg"},{"bike_id":"c04cd6d3-a338-4b5c-b592-2c911065a6df","system_id":"levelo_inurba_marseille","lat":43.254333,"lon":5.376482,"is_reserved":false,"is_disabled":false,"rental_uris":{"android":"levelo://app?vid=c04cd6d3-a338-4b5c-b592-2c911065a6df","ios":"levelo://app?vid=c04cd6d3-a338-4b5c-b592-2c911065a6df"},"vehicle_type_id":"4","last_reported":1727852902,"current_range_meters":36000,"station_id":"ce4bhg12rcd13ifvqf60","pricing_plan_id":"cebpf4jnsgd1na2vs0mg"},{"bike_id":"0f8d2a22-ab51-4bff-8f03-daaca0211dad","system_id":"levelo_inurba_marseille","lat":43.33755,"lon":5.37433,"is_reserved":false,"is_disabled":false,"rental_uris":{"android":"levelo://app?vid=0f8d2a22-ab51-4bff-8f03-daaca0211dad","ios":"levelo://app?vid=0f8d2a22-ab51-4bff-8f03-daaca0211dad"},"vehicle_type_id":"4","last_reported":1727852902,"current_range_meters":38800,"station_id":"","pricing_plan_id":"cebpf4jnsgd1na2vs0mg"},{"bike_id":"ac67db26-6aa9-4e38-9979-05453f27b6ab","system_id":"levelo_inurba_marseille","lat":43.28942,"lon":5.36642,"is_reserved":false,"is_disabled":false,"rental_uris":{"android":"levelo://app?vid=ac67db26-6aa9-4e38-9979-05453f27b6ab","ios":"levelo://app?vid=ac67db26-6aa9-4e38-9979-05453f27b6ab"},"vehicle_type_id":"4","last_reported":1727852902,"current_range_meters":30800,"station_id":"ce4bhap2rcd13ifvqek0","pricing_plan_id":"cebpf4jnsgd1na2vs0mg"},{"bike_id":"6bc87502-6a3b-47e0-893f-d2d751cfe6ff","system_id":"levelo_inurba_marseille","lat":43.27496,"lon":5.42462,"is_reserved":false,"is_disabled":false,"rental_uris":{"android":"levelo://app?vid=6bc87502-6a3b-47e0-893f-d2d751cfe6ff","ios":"levelo://app?vid=6bc87502-6a3b-47e0-893f-d2d751cfe6ff"},"vehicle_type_id":"4","last_reported":1727852902,"current_range_meters":12400,"station_id":"ce4bhn92rcd13ifvqgrg","pricing_plan_id":"cebpf4jnsgd1na2vs0mg"},{"bike_id":"3835924a-ff99-49c7-ad7c-f9ac4c778823","system_id":"levelo_inurba_marseille","lat":43.2997,"lon":5.38494,"is_reserved":false,"is_disabled":false,"rental_uris":{"android":"levelo://app?vid=3835924a-ff99-49c7-ad7c-f9ac4c778823","ios":"levelo://app?vid=3835924a-ff99-49c7-ad7c-f9ac4c778823"},"vehicle_type_id":"4","last_reported":1727852902,"current_range_meters":39200,"station_id":"ce4bgj92rcd13ifvqbd0","pricing_plan_id":"cebpf4jnsgd1na2vs0mg"},{"bike_id":"86b9ce2f-9e5d-468e-b738-0d4d63494e0e","system_id":"levelo_inurba_marseille","lat":43.30469,"lon":5.37898,"is_reserved":false,"is_disabled":false,"rental_uris":{"android":"levelo://app?vid=86b9ce2f-9e5d-468e-b738-0d4d63494e0e","ios":"levelo://app?vid=86b9ce2f-9e5d-468e-b738-0d4d63494e0e"},"vehicle_type_id":"4","last_reported":1727852902,"current_range_meters":25600,"station_id":"ce4bgup2rcd13ifvqcn0","pricing_plan_id":"cebpf4jnsgd1na2vs0mg"},{"bike_id":"cf9830ce-b6b9-4b7e-bffc-df2763b2b4c1","system_id":"levelo_inurba_marseille","lat":43.24084,"lon":5.37749,"is_reserved":false,"is_disabled":false,"rental_uris":{"android":"levelo://app?vid=cf9830ce-b6b9-4b7e-bffc-df2763b2b4c1","ios":"levelo://app?vid=cf9830ce-b6b9-4b7e-bffc-df2763b2b4c1"},"vehicle_type_id":"4","last_reported":1727852902,"current_range_meters":38800,"station_id":"ce4bhnp2rcd13ifvqgvg","pricing_plan_id":"cebpf4jnsgd1na2vs0mg"},{"bike_id":"4b00bf19-3ccd-42aa-a58e-5be624727ea2","system_id":"levelo_inurba_marseille","lat":43.2418,"lon":5.39728,"is_reserved":false,"is_disabled":false,"rental_uris":{"android":"levelo://app?vid=4b00bf19-3ccd-42aa-a58e-5be624727ea2","ios":"levelo://app?vid=4b00bf19-3ccd-42aa-a58e-5be624727ea2"},"vehicle_type_id":"4","last_reported":1727852902,"current_range_meters":28000,"station_id":"ce4bhn12rcd13ifvqgpg","pricing_plan_id":"cebpf4jnsgd1na2vs0mg"},{"bike_id":"962d3aff-43fc-4a7f-8b69-d05d330f2252","system_id":"levelo_inurba_marseille","lat":43.30536,"lon":5.36697,"is_reserved":false,"is_disabled":false,"rental_uris":{"android":"levelo://app?vid=962d3aff-43fc-4a7f-8b69-d05d330f2252","ios":"levelo://app?vid=962d3aff-43fc-4a7f-8b69-d05d330f2252"},"vehicle_type_id":"4","last_reported":1727852902,"current_range_meters":8400,"station_id":"ce4bgrp2rcd13ifvqc9g","pricing_plan_id":"cebpf4jnsgd1na2vs0mg"},{"bike_id":"bbc80b41-b299-462c-b2cb-66b9afc7fc8d","system_id":"levelo_inurba_marseille","lat":43.2848,"lon":5.38427,"is_reserved":false,"is_disabled":false,"rental_uris":{"android":"levelo://app?vid=bbc80b41-b299-462c-b2cb-66b9afc7fc8d","ios":"levelo://app?vid=bbc80b41-b299-462c-b2cb-66b9afc7fc8d"},"vehicle_type_id":"4","last_reported":1727852902,"current_range_meters":38000,"station_id":"ce4bh512rcd13ifvqe3g","pricing_plan_id":"cebpf4jnsgd1na2vs0mg"},{"bike_id":"68fbe977-0cd5-4564-8f23-a8c2e9bcb77d","system_id":"levelo_inurba_marseille","lat":43.30319,"lon":5.36914,"is_reserved":false,"is_disabled":false,"rental_uris":{"android":"levelo://app?vid=68fbe977-0cd5-4564-8f23-a8c2e9bcb77d","ios":"levelo://app?vid=68fbe977-0cd5-4564-8f23-a8c2e9bcb77d"},"vehicle_type_id":"4","last_reported":1727852902,"current_range_meters":36400,"station_id":"ce4bgqh2rcd13ifvqc5g","pricing_plan_id":"cebpf4jnsgd1na2vs0mg"},{"bike_id":"9f7961ea-681b-442d-b456-bc5f72af8b58","system_id":"levelo_inurba_marseille","lat":43.33611,"lon":5.41023,"is_reserved":false,"is_disabled":false,"rental_uris":{"android":"levelo://app?vid=9f7961ea-681b-442d-b456-bc5f72af8b58","ios":"levelo://app?vid=9f7961ea-681b-442d-b456-bc5f72af8b58"},"vehicle_type_id":"4","last_reported":1727852902,"current_range_meters":34800,"station_id":"ce4bhqh2rcd13ifvqhmg","pricing_plan_id":"cebpf4jnsgd1na2vs0mg"},{"bike_id":"2a967336-3328-4e48-a435-bf7a1d464584","system_id":"levelo_inurba_marseille","lat":43.30915,"lon":5.36843,"is_reserved":false,"is_disabled":false,"rental_uris":{"android":"levelo://app?vid=2a967336-3328-4e48-a435-bf7a1d464584","ios":"levelo://app?vid=2a967336-3328-4e48-a435-bf7a1d464584"},"vehicle_type_id":"4","last_reported":1727852902,"current_range_meters":16400,"station_id":"ce4bgn92rcd13ifvqbvg","pricing_plan_id":"cebpf4jnsgd1na2vs0mg"},{"bike_id":"849785e9-3354-451b-a4b8-9dfecd3e3883","system_id":"levelo_inurba_marseille","lat":43.2668,"lon":5.38275,"is_reserved":false,"is_disabled":false,"rental_uris":{"android":"levelo://app?vid=849785e9-3354-451b-a4b8-9dfecd3e3883","ios":"levelo://app?vid=849785e9-3354-451b-a4b8-9dfecd3e3883"},"vehicle_type_id":"4","last_reported":1727852902,"current_range_meters":40000,"station_id":"ce4bhg92rcd13ifvqf90","pricing_plan_id":"cebpf4jnsgd1na2vs0mg"},{"bike_id":"9a01dcf8-5ed8-4767-a4ab-43252d05c561","system_id":"levelo_inurba_marseille","lat":43.25942,"lon":5.40858,"is_reserved":false,"is_disabled":false,"rental_uris":{"android":"levelo://app?vid=9a01dcf8-5ed8-4767-a4ab-43252d05c561","ios":"levelo://app?vid=9a01dcf8-5ed8-4767-a4ab-43252d05c561"},"vehicle_type_id":"4","last_reported":1727852902,"current_range_meters":34800,"station_id":"ce4bhm92rcd13ifvqglg","pricing_plan_id":"cebpf4jnsgd1na2vs0mg"},{"bike_id":"2d04eabc-20d5-4171-9fd4-aec415b35a7b","system_id":"levelo_inurba_marseille","lat":43.30551,"lon":5.36707,"is_reserved":false,"is_disabled":false,"rental_uris":{"android":"levelo://app?vid=2d04eabc-20d5-4171-9fd4-aec415b35a7b","ios":"levelo://app?vid=2d04eabc-20d5-4171-9fd4-aec415b35a7b"},"vehicle_type_id":"4","last_reported":1727852902,"current_range_meters":37600,"station_id":"ce4bgrp2rcd13ifvqc9g","pricing_plan_id":"cebpf4jnsgd1na2vs0mg"},{"bike_id":"05f2f734-0819-43ae-8511-35888d80acaf","system_id":"levelo_inurba_marseille","lat":43.30903,"lon":5.36846,"is_reserved":false,"is_disabled":false,"rental_uris":{"android":"levelo://app?vid=05f2f734-0819-43ae-8511-35888d80acaf","ios":"levelo://app?vid=05f2f734-0819-43ae-8511-35888d80acaf"},"vehicle_type_id":"4","last_reported":1727852902,"current_range_meters":4800,"station_id":"ce4bgn92rcd13ifvqbvg","pricing_plan_id":"cebpf4jnsgd1na2vs0mg"},{"bike_id":"5691c399-b1d1-4e63-b7d2-9ebd8ff57e09","system_id":"levelo_inurba_marseille","lat":43.30548,"lon":5.36725,"is_reserved":false,"is_disabled":false,"rental_uris":{"android":"levelo://app?vid=5691c399-b1d1-4e63-b7d2-9ebd8ff57e09","ios":"levelo://app?vid=5691c399-b1d1-4e63-b7d2-9ebd8ff57e09"},"vehicle_type_id":"4","last_reported":1727852902,"current_range_meters":25200,"station_id":"ce4bgrp2rcd13ifvqc9g","pricing_plan_id":"cebpf4jnsgd1na2vs0mg"},