{"last_updated":1757963292,"ttl":60,"version":"2.2","data":{"bikes":[{"bike_id":"d1332c8f-454c-4c93-8466-8850dba47ed5","system_id":"levelo_inurba_marseille","lat":43.33025,"lon":5.39038,"is_reserved":false,"is_disabled":false,"rental_uris":{"android":"levelo://app?vid=d1332c8f-454c-4c93-8466-8850dba47ed5","ios":"levelo://app?vid=d1332c8f-454c-4c93-8466-8850dba47ed5"},"vehicle_type_id":"4","last_reported":1757963292,"current_range_meters":2800,"station_id":"ce4bhr92rcd13ifvqhrg","pricing_plan_id":"cebpf4jnsgd1na2vs0mg"},{"bike_id":"ac084ded-3adf-4b0c-9b41-43db3b30746f","system_id":"levelo_inurba_marseille","lat":43.27928,"lon":5.39565,"is_reserved":false,"is_disabled":false,"rental_uris":{"android":"levelo://app?vid=ac084ded-3adf-4b0c-9b41-43db3b30746f","ios":"levelo://app?vid=ac084ded-3adf-4b0c-9b41-43db3b30746f"},"vehicle_type_id":"4","last_reported":1757963292,"current_range_meters":2800,"station_id":"ce4bhf92rcd13ifvqf40","pricing_plan_id":"cebpf4jnsgd1na2vs0mg"},{"bike_id":"b8cd2cea-6106-4409-9e54-034c25854c0c","system_id":"levelo_inurba_marseille","lat":43.28,"lon":5.41664,"is_reserved":false,"is_disabled":false,"rental_uris":{"android":"levelo://app?vid=b8cd2cea-6106-4409-9e54-034c25854c0c","ios":"levelo://app?vid=b8cd2cea-6106-4409-9e54-034c25854c0c"},"vehicle_type_id":"4","last_reported":1757963292,"current_range_meters":2800,"station_id":"ce4bho12rcd13ifvqh1g","pricing_plan_id":"cebpf4jnsgd1na2vs0mg"},{"bike_id":"09cffdcf-7f06-43c9-a99b-2ef566c4f30f","system_id":"levelo_inurba_marseille","lat":43.30887,"lon":5.39663,"is_reserved":false,"is_disabled":false,"rental_uris":{"android":"levelo://app?vid=09cffdcf-7f06-43c9-a99b-2ef566c4f30f","ios":"levelo://app?vid=09cffdcf-7f06-43c9-a99b-2ef566c4f30f"},"vehicle_type_id":"4","last_reported":1757963292,"current_range_meters":8400,"station_id":"ce4bh012rcd13ifvqcv0","pricing_plan_id":"cebpf4jnsgd1na2vs0mg"},{"bike_id":"09eca4d1-495f-4184-9ae0-b5332b75011d","system_id":"levelo_inurba_marseille","lat":43.24803,"lon":5.37454,"is_reserved":false,"is_disabled":true,"rental_uris":{"android":"levelo://app?vid=09eca4d1-495f-4184-9ae0-b5332b75011d","ios":"levelo://app?vid=09eca4d1-495f-4184-9ae0-b5332b75011d"},"vehicle_type_id":"4","last_reported":1757963292,"current_range_meters":3200,"station_id":"ce4bhgh2rcd13ifvqfb0","pricing_plan_id":"cebpf4jnsgd1na2vs0mg"},{"bike_id":"f0aff5fd-6f01-4036-b121-8b43c7672cf7","system_id":"levelo_inurba_marseille","lat":43.29536,"lon":5.38545,"is_reserved":false,"is_disabled":false,"rental_uris":{"android":"levelo://app?vid=f0aff5fd-6f01-4036-b121-8b43c7672cf7","ios":"levelo://app?vid=f0aff5fd-6f01-4036-b121-8b43c7672cf7"},"vehicle_type_id":"4","last_reported":1757963292,"current_range_meters":3200,"station_id":"ce4bgih2rcd13ifvqba0","pricing_plan_id":"cebpf4jnsgd1na2vs0mg"},{"bike_id":"d765e876-dc94-417e-ad8c-0ac49bf5261a","system_id":"levelo_inurba_marseille","lat":43.33559,"lon":5.3586,"is_reserved":false,"is_disabled":false,"rental_uris":{"android":"levelo://app?vid=d765e876-dc94-417e-ad8c-0ac49bf5261a","ios":"levelo://app?vid=d765e876-dc94-417e-ad8c-0ac49bf5261a"},"vehicle_type_id":"4","last_reported":1757963292,"current_range_meters":3200,"station_id":"","pricing_plan_id":"cebpf4jnsgd1na2vs0mg"},{"bike_id":"2e01a0c2-0a5b-4a51-a316-a586de5f31c8","system_id":"levelo_inurba_marseille","lat":43.29722,"lon":5.381767,"is_reserved":false,"is_disabled":false,"rental_uris":{"android":"levelo://app?vid=2e01a0c2-0a5b-4a51-a316-a586de5f31c8","ios":"levelo://app?vid=2e01a0c2-0a5b-4a51-a316-a586de5f31c8"},"vehicle_type_id":"4","last_reported":1757963292,"current_range_meters":3200,"station_id":"","pricing_plan_id":"cebpf4jnsgd1na2vs0mg"},{"bike_id":"4891d751-b66c-4a3d-89d5-78926b795844","system_id":"levelo_inurba_marseille","lat":43.337444,"lon":5.374475,"is_reserved":false,"is_disabled":false,"rental_uris":{"android":"levelo://app?vid=4891d751-b66c-4a3d-89d5-78926b795844","ios":"levelo://app?vid=4891d751-b66c-4a3d-89d5-78926b795844"},"vehicle_type_id":"4","last_reported":1757963292,"current_range_meters":3200,"station_id":"","pricing_plan_id":"cebpf4jnsgd1na2vs0mg"},{"bike_id":"9a45254c-c77a-469d-8fa3-a3fa05a580ba","system_id":"levelo_inurba_marseille","lat":43.271659,"lon":5.386566,"is_reserved":false,"is_disabled":false,"rental_uris":{"android":"levelo://app?vid=9a45254c-c77a-469d-8fa3-a3fa05a580ba","ios":"levelo://app?vid=9a45254c-c77a-469d-8fa3-a3fa05a580ba"},"vehicle_type_id":"4","last_reported":1757963292,"current_range_meters":3200,"station_id":"","pricing_plan_id":"cebpf4jnsgd1na2vs0mg"},{"bike_id":"b8e76d24-1399-4259-b4ff-adc6f78afd0c","system_id":"levelo_inurba_marseille","lat":43.30445,"lon":5.389,"is_reserved":false,"is_disabled":true,"rental_uris":{"android":"levelo://app?vid=b8e76d24-1399-4259-b4ff-adc6f78afd0c","ios":"levelo://app?vid=b8e76d24-1399-4259-b4ff-adc6f78afd0c"},"vehicle_type_id":"4","last_reported":1757963292,"current_range_meters":3200,"station_id":"ce4bgk12rcd13ifvqbi0","pricing_plan_id":"cebpf4jnsgd1na2vs0mg"},{"bike_id":"afd70d28-4174-4093-b8d1-dc79214d8be8","system_id":"levelo_inurba_marseille","lat":43.29824,"lon":5.37699,"is_reserved":false,"is_disabled":true,"rental_uris":{"android":"levelo://app?vid=afd70d28-4174-4093-b8d1-dc79214d8be8","ios":"levelo://app?vid=afd70d28-4174-4093-b8d1-dc79214d8be8"},"vehicle_type_id":"4","last_reported":1757963292,"current_range_meters":3200,"station_id":"","pricing_plan_id":"cebpf4jnsgd1na2vs0mg"},{"bike_id":"042f7ab4-2317-4786-bc9e-e4512da1d90d","system_id":"levelo_inurba_marseille","lat":43.24806,"lon":5.37458,"is_reserved":false,"is_disabled":false,"rental_uris":{"android":"levelo://app?vid=042f7ab4-2317-4786-bc9e-e4512da1d90d","ios":"levelo://app?vid=042f7ab4-2317-4786-bc9e-e4512da1d90d"},"vehicle_type_id":"4","last_reported":1757963292,"current_range_meters":3600,"station_id":"ce4bhgh2rcd13ifvqfb0","pricing_plan_id":"cebpf4jnsgd1na2vs0mg"},{"bike_id":"0b5fca7e-e797-41d1-a672-ef21022852af","system_id":"levelo_inurba_marseille","lat":43.30778,"lon":5.37657,"is_reserved":false,"is_disabled":false,"rental_uris":{"android":"levelo://app?vid=0b5fca7e-e797-41d1-a672-ef21022852af","ios":"levelo://app?vid=0b5fca7e-e797-41d1-a672-ef21022852af"},"vehicle_type_id":"4","last_reported":1757963292,"current_range_meters":3600,"station_id":"ce4bgv92rcd13ifvqcq0","pricing_plan_id":"cebpf4jnsgd1na2vs0mg"},{"bike_id":"d5c98035-fc72-4062-a3ec-13203f68e8ed","system_id":"levelo_inurba_marseille","lat":43.2887,"lon":5.42514,"is_reserved":false,"is_disabled":false,"rental_uris":{"android":"levelo://app?vid=d5c98035-fc72-4062-a3ec-13203f68e8ed","ios":"levelo://app?vid=d5c98035-fc72-4062-a3ec-13203f68e8ed"},"vehicle_type_id":"4","last_reported":1757963292,"current_range_meters":3600,"station_id":"","pricing_plan_id":"cebpf4jnsgd1na2vs0mg"},{"bike_id":"a476a97e-341b-482b-abbb-2381e3c039a1","system_id":"levelo_inurba_marseille","lat":43.29299,"lon":5.37166,"is_reserved":false,"is_disabled":false,"rental_uris":{"android":"levelo://app?vid=a476a97e-341b-482b-abbb-2381e3c039a1","ios":"levelo://app?vid=a476a97e-341b-482b-abbb-2381e3c039a1"},"vehicle_type_id":"4","last_reported":1757963292,"current_range_meters":3600,"station_id":"ce4bgh92rcd13ifvqb40","pricing_plan_id":"cebpf4jnsgd1na2vs0mg"},{"bike_id":"f8ab4548-3265-422a-851f-5983dccb191b","system_id":"levelo_inurba_marseille","lat":43.24955,"lon":5.40487,"is_reserved":false,"is_disabled":false,"rental_uris":{"android":"levelo://app?vid=f8ab4548-3265-422a-851f-5983dccb191b","ios":"levelo://app?vid=f8ab4548-3265-422a-851f-5983dccb191b"},"vehicle_type_id":"4","last_reported":1757963292,"current_range_meters":3600,"station_id":"st_d2ngiaodas8pm72gd1h0","pricing_plan_id":"cebpf4jnsgd1na2vs0mg"},{"bike_id":"02dbb44c-70e3-4a7a-b86e-6159cc35ba47","system_id":"levelo_inurba_marseille","lat":43.29587,"lon":5.38689,"is_reserved":false,"is_disabled":false,"rental_uris":{"android":"levelo://app?vid=02dbb44c-70e3-4a7a-b86e-6159cc35ba47","ios":"levelo://app?vid=02dbb44c-70e3-4a7a-b86e-6159cc35ba47"},"vehicle_type_id":"4","last_reported":1757963292,"current_range_meters":3600,"station_id":"ce4bgih2rcd13ifvqba0","pricing_plan_id":"cebpf4jnsgd1na2vs0mg"},{"bike_id":"0bd7c334-4f62-42e2-af92-640ca19d4ab8","system_id":"levelo_inurba_marseille","lat":43.2837,"lon":5.38631,"is_reserved":false,"is_disabled":false,"rental_uris":{"android":"levelo://app?vid=0bd7c334-4f62-42e2-af92-640ca19d4ab8","ios":"levelo://app?vid=0bd7c334-4f62-42e2-af92-640ca19d4ab8"},"vehicle_type_id":"4","last_reported":1757963292,"current_range_meters":4000,"station_id":"ce4bh492rcd13ifvqdvg","pricing_plan_id":"cebpf4jnsgd1na2vs0mg"},{"bike_id":"55d59e02-f5a5-4e1a-9360-556e842fa2a4","system_id":"levelo_inurba_marseille","lat":43.33764,"lon":5.37496,"is_reserved":false,"is_disabled":false,"rental_uris":{"android":"levelo://app?vid=55d59e02-f5a5-4e1a-9360-556e842fa2a4","ios":"levelo://app?vid=55d59e02-f5a5-4e1a-9360-556e842fa2a4"},"vehicle_type_id":"4","last_reported":1757963292,"current_range_meters":4000,"station_id":"","pricing_plan_id":"cebpf4jnsgd1na2vs0mg"},{"bike_id":"953a56b2-9791-4c51-85e8-6a9340aef2be","system_id":"levelo_inurba_marseille","lat":43.2884,"lon":5.39307,"is_reserved":false,"is_disabled":false,"rental_uris":{"android":"levelo://app?vid=953a56b2-9791-4c51-85e8-6a9340aef2be","ios":"levelo://app?vid=953a56b2-9791-4c51-85e8-6a9340aef2be"},"vehicle_type_id":"4","last_reported":1757963292,"current_range_meters":4000,"station_id":"ce4bh2p2rcd13ifvqdi0","pricing_plan_id":"cebpf4jnsgd1na2vs0mg"},{"bike_id":"7c76ebee-fc66-4811-b2b5-019a36cbd4df","system_id":"levelo_inurba_marseille","lat":43.295319,"lon":5.385484,"is_reserved":false,"is_disabled":false,"rental_uris":{"android":"levelo://app?vid=7c76ebee-fc66-4811-b2b5-019a36cbd4df","ios":"levelo://app?vid=7c76ebee-fc66-4811-b2b5-019a36cbd4df"},"vehicle_type_id":"4","last_reported":1757963292,"current_range_meters":4000,"station_id":"ce4bgih2rcd13ifvqba0","pricing_plan_id":"cebpf4jnsgd1na2vs0mg"},{"bike_id":"64fd3338-9664-4eab-9d69-526a809f8c3c","system_id":"levelo_inurba_marseille","lat":43.33752,"lon":5.36703,"is_reserved":false,"is_disabled":false,"rental_uris":{"android":"levelo://app?vid=64fd3338-9664-4eab-9d69-526a809f8c3c","ios":"levelo://app?vid=64fd3338-9664-4eab-9d69-526a809f8c3c"},"vehicle_type_id":"4","last_reported":1757963292,"current_range_meters":4000,"station_id":"","pricing_plan_id":"cebpf4jnsgd1na2vs0mg"},{"bike_id":"595fcf91-2e66-4c2b-8a3c-21ddb133f196","system_id":"levelo_inurba_marseille","lat":43.217357,"lon":5.346093,"is_reserved":false,"is_disabled":true,"rental_uris":{"android":"levelo://app?vid=595fcf91-2e66-4c2b-8a3c-21ddb133f196","ios":"levelo://app?vid=595fcf91-2e66-4c2b-8a3c-21ddb133f196"},"vehicle_type_id":"4","last_reported":1757963292,"current_range_meters":4000,"station_id":"st_cvj6r9ubvosntc0bgbag","pricing_plan_id":"cebpf4jnsgd1na2vs0mg"},{"bike_id":"c8c54fe0-f80f-446b-b5b6-23cb1ad762a6","system_id":"levelo_inurba_marseille","lat":43.28847,"lon":5.35788,"is_reserved":false,"is_disabled":false,"rental_uris":{"android":"levelo://app?vid=c8c54fe0-f80f-446b-b5b6-23cb1ad762a6","ios":"levelo://app?vid=c8c54fe0-f80f-446b-b5b6-23cb1ad762a6"},"vehicle_type_id":"4","last_reported":1757963292,"current_range_meters":4400,"station_id":"ce4bhb12rcd13ifvqem0","pricing_plan_id":"cebpf4jnsgd1na2vs0mg"},{"bike_id":"5ca486ce-b26b-42e5-b923-aaf3a6221cf0","system_id":"levelo_inurba_marseille","lat":43.28438,"lon":5.392,"is_reserved":false,"is_disabled":false,"rental_uris":{"android":"levelo://app?vid=5ca486ce-b26b-42e5-b923-aaf3a6221cf0","ios":"levelo://app?vid=5ca486ce-b26b-42e5-b923-aaf3a6221cf0"},"vehicle_type_id":"4","last_reported":1757963292,"current_range_meters":4400,"station_id":"ce4bhoh2rcd13ifvqh5g","pricing_plan_id":"cebpf4jnsgd1na2vs0mg"},{"bike_id":"ae1964d6-074f-4435-88d2-8cd5d794151c","system_id":"levelo_inurba_marseille","lat":43.27306,"lon":5.39074,"is_reserved":false,"is_disabled":false,"rental_uris":{"android":"levelo://app?vid=ae1964d6-074f-4435-88d2-8cd5d794151c","ios":"levelo://app?vid=ae1964d6-074f-4435-88d2-8cd5d794151c"},"vehicle_type_id":"4","last_reported":1757963292,"current_range_meters":4400,"station_id":"ce4bhgp2rcd13ifvqfe0","pricing_plan_id":"cebpf4jnsgd1na2vs0mg"},{"bike_id":"12312daf-2469-4735-bf8c-78a818f82cea","system_id":"levelo_inurba_marseille","lat":43.3087,"lon":5.37198,"is_reserved":false,"is_disabled":false,"rental_uris":{"android":"levelo://app?vid=12312daf-2469-4735-bf8c-78a818f82cea","ios":"levelo://app?vid=12312daf-2469-4735-bf8c-78a818f82cea"},"vehicle_type_id":"4","last_reported":1757963292,"current_range_meters":4800,"station_id":"ce4bguh2rcd13ifvqckg","pricing_plan_id":"cebpf4jnsgd1na2vs0mg"},{"bike_id":"cde85143-0216-400e-bdd4-67187d1a06fd","system_id":"levelo_inurba_marseille","lat":43.33751,"lon":5.37436,"is_reserved":false,"is_disabled":false,"rental_uris":{"android":"levelo://app?vid=cde85143-0216-400e-bdd4-67187d1a06fd","ios":"levelo://app?vid=cde85143-0216-400e-bdd4-67187d1a06fd"},"vehicle_type_id":"4","last_reported":1757963292,"current_range_meters":4800,"station_id":"","pricing_plan_id":"cebpf4jnsgd1na2vs0mg"},{"bike_id":"01855996-ead7-4221-a0ac-8e367bb071ee","system_id":"levelo_inurba_marseille","lat":43.3042,"lon":5.41282,"is_reserved":false,"is_disabled":false,"rental_uris":{"android":"levelo://app?vid=01855996-ead7-4221-a0ac-8e367bb071ee","ios":"levelo://app?vid=01855996-ead7-4221-a0ac-8e367bb071ee"},"vehicle_type_id":"4","last_reported":1757963292,"current_range_meters":5600,"station_id":"ce4bhop2rcd13ifvqh8g","pricing_plan_id":"cebpf4jnsgd1na2vs0mg"},{"bike_id":"348fb4b6-1ee9-450f-9b1d-b4c52768d749","system_id":"levelo_inurba_marseille","lat":43.29598,"lon":5.38099,"is_reserved":false,"is_disabled":false,"rental_uris":{"android":"levelo://app?vid=348fb4b6-1ee9-450f-9b1d-b4c52768d749","ios":"levelo://app?vid=348fb4b6-1ee9-450f-9b1d-b4c52768d749"},"vehicle_type_id":"4","last_reported":1757963292,"current_range_meters":5600,"station_id":"ce4bgl12rcd13ifvqbo0","pricing_plan_id":"cebpf4jnsgd1na2vs0mg"},{"bike_id":"237698c3-f7a7-4aa0-a898-7a0e8095f7be","system_id":"levelo_inurba_marseille","lat":43.303047,"lon":5.392086,"is_reserved":false,"is_disabled":true,"rental_uris":{"android":"levelo://app?vid=237698c3-f7a7-4aa0-a898-7a0e8095f7be","ios":"levelo://app?vid=237698c3-f7a7-4aa0-a898-7a0e8095f7be"},"vehicle_type_id":"4","last_reported":1757963292,"current_range_meters":5600,"station_id":"","pricing_plan_id":"cebpf4jnsgd1na2vs0mg"},{"bike_id":"48a38930-1eb5-404c-a8e9-d406af36537f","system_id":"levelo_inurba_marseille","lat":43.28366,"lon":5.3864,"is_reserved":false,"is_disabled":false,"rental_uris":{"android":"levelo://app?vid=48a38930-1eb5-404c-a8e9-d406af36537f","ios":"levelo://app?vid=48a38930-1eb5-404c-a8e9-d406af36537f"},"vehicle_type_id":"4","last_reported":1757963292,"current_range_meters":5600,"station_id":"ce4bh492rcd13ifvqdvg","pricing_plan_id":"cebpf4jnsgd1na2vs0mg"},{"bike_id":"d6c6c98a-3f07-425e-8f59-85b5bd740fe7","system_id":"levelo_inurba_marseille","lat":43.28032,"lon":5.36947,"is_reserved":false,"is_disabled":false,"rental_uris":{"android":"levelo://app?vid=d6c6c98a-3f07-425e-8f59-85b5bd740fe7","ios":"levelo://app?vid=d6c6c98a-3f07-425e-8f59-85b5bd740fe7"},"vehicle_type_id":"4","last_reported":1757963292,"current_range_meters":5600,"station_id":"ce4bha12rcd13ifvqef0","pricing_plan_id":"cebpf4jnsgd1na2vs0mg"},{"bike_id":"c5cba6d7-e282-4417-a818-5fc0802dcb08","system_id":"levelo_inurba_marseille","lat":43.33761,"lon":5.3745,"is_reserved":false,"is_disabled":false,"rental_uris":{"android":"levelo://app?vid=c5cba6d7-e282-4417-a818-5fc0802dcb08","ios":"levelo://app?vid=c5cba6d7-e282-4417-a818-5fc0802dcb08"},"vehicle_type_id":"4","last_reported":1757963292,"current_range_meters":5600,"station_id":"","pricing_plan_id":"cebpf4jnsgd1na2vs0mg"},{"bike_id":"9724f971-e830-4189-8c55-a5c3cf6831a8","system_id":"levelo_inurba_marseille","lat":43.29793,"lon":5.40397,"is_reserved":false,"is_disabled":false,"rental_uris":{"android":"levelo://app?vid=9724f971-e830-4189-8c55-a5c3cf6831a8","ios":"levelo://app?vid=9724f971-e830-4189-8c55-a5c3cf6831a8"},"vehicle_type_id":"4","last_reported":1757963292,"current_range_meters":4000,"station_id":"ce4bh112rcd13ifvqd90","pricing_plan_id":"cebpf4jnsgd1na2vs0mg"},{"bike_id":"7f19c48f-fabe-449e-9e75-aacabea8a409","system_id":"levelo_inurba_marseille","lat":43.3094,"lon":5.40156,"is_reserved":false,"is_disabled":false,"rental_uris":{"android":"levelo://app?vid=7f19c48f-fabe-449e-9e75-aacabea8a409","ios":"levelo://app?vid=7f19c48f-fabe-449e-9e75-aacabea8a409"},"vehicle_type_id":"4","last_reported":1757963292,"current_range_meters":4800,"station_id":"ce4bgvp2rcd13ifvqct0","pricing_plan_id":"cebpf4jnsgd1na2vs0mg"},{"bike_id":"d9c11a94-d122-4240-b95b-24fdee8810ac","system_id":"levelo_inurba_marseille","lat":43.282679,"lon":5.399163,"is_reserved":false,"is_disabled":false,"rental_uris":{"android":"levelo://app?vid=d9c11a94-d122-4240-b95b-24fdee8810ac","ios":"levelo://app?vid=d9c11a94-d122-4240-b95b-24fdee8810ac"},"vehicle_type_id":"4","last_reported":1757963292,"current_range_meters":6000,"station_id":"","pricing_plan_id":"cebpf4jnsgd1na2vs0mg"},{"bike_id":"24afee7b-e393-418d-8358-221acb03da6a","system_id":"levelo_inurba_marseille","lat":43.29541,"lon":5.39015,"is_reserved":false,"is_disabled":false,"rental_uris":{"android":"levelo://app?vid=24afee7b-e393-418d-8358-221acb03da6a","ios":"levelo://app?vid=24afee7b-e393-418d-8358-221acb03da6a"},"vehicle_type_id":"4","last_reported":1757963292,"current_range_meters":6000,"station_id":"ce4bh3p2rcd13ifvqdp0","pricing_plan_id":"cebpf4jnsgd1na2vs0mg"},{"bike_id":"f58c3cf8-9b40-430c-9888-1f65cde26d6b","system_id":"levelo_inurba_marseille","lat":43.34049,"lon":5.40104,"is_reserved":false,"is_disabled":false,"rental_uris":{"android":"levelo://app?vid=f58c3cf8-9b40-430c-9888-1f65cde26d6b","ios":"levelo://app?vid=f58c3cf8-9b40-430c-9888-1f65cde26d6b"},"vehicle_type_id":"4","last_reported":1757963292,"current_range_meters":6000,"station_id":"","pricing_plan_id":"cebpf4jnsgd1na2vs0mg"},{"bike_id":"334215f8-c1a6-482c-bd52-9b79a1ae56e6","system_id":"levelo_inurba_marseille","lat":43.25826,"lon":5.39436,"is_reserved":false,"is_disabled":false,"rental_uris":{"android":"levelo://app?vid=334215f8-c1a6-482c-bd52-9b79a1ae56e6","ios":"levelo://app?vid=334215f8-c1a6-482c-bd52-9b79a1ae56e6"},"vehicle_type_id":"4","last_reported":1757963292,"current_range_meters":6000,"station_id":"ce4bhip2rcd13ifvqft0","pricing_plan_id":"cebpf4jnsgd1na2vs0mg"},{"bike_id":"a3601723-38a1-4cee-83ef-fcb51e3b3705","system_id":"levelo_inurba_marseille","lat":43.28675,"lon":5.38676,"is_reserved":false,"is_disabled":false,"rental_uris":{"android":"levelo://app?vid=a3601723-38a1-4cee-83ef-fcb51e3b3705","ios":"levelo://app?vid=a3601723-38a1-4cee-83ef-fcb51e3b3705"},"vehicle_type_id":"4","last_reported":1757963292,"current_range_meters":6000,"station_id":"ce4bh492rcd13ifvqdug","pricing_plan_id":"cebpf4jnsgd1na2vs0mg"},{"bike_id":"e9af6f8f-6a1c-4a3c-ad89-f573530e955d","system_id":"levelo_inurba_marseille","lat":43.22935,"lon":5.35379,"is_reserved":false,"is_disabled":false,"rental_uris":{"android":"levelo://app?vid=e9af6f8f-6a1c-4a3c-ad89-f573530e955d","ios":"levelo://app?vid=e9af6f8f-6a1c-4a3c-ad89-f573530e955d"},"vehicle_type_id":"4","last_reported":1757963292,"current_range_meters":6400,"station_id":"cpo3532slgdg3j2ikp40","pricing_plan_id":"cebpf4jnsgd1na2vs0mg"},{"bike_id":"6232195a-e912-472e-a229-2cd01c2c5a6e","system_id":"levelo_inurba_marseille","lat":43.33031,"lon":5.39044,"is_reserved":false,"is_disabled":false,"rental_uris":{"android":"levelo://app?vid=6232195a-e912-472e-a229-2cd01c2c5a6e","ios":"levelo://app?vid=6232195a-e912-472e-a229-2cd01c2c5a6e"},"vehicle_type_id":"4","last_reported":1757963292,"current_range_meters":6400,"station_id":"ce4bhr92rcd13ifvqhrg","pricing_plan_id":"cebpf4jnsgd1na2vs0mg"},{"bike_id":"6433061f-e8c0-4516-9aa8-d12faa9421e6","system_id":"levelo_inurba_marseille","lat":43.29032,"lon":5.38126,"is_reserved":false,"is_disabled":false,"rental_uris":{"android":"levelo://app?vid=6433061f-e8c0-4516-9aa8-d12faa9421e6","ios":"levelo://app?vid=6433061f-e8c0-4516-9aa8-d12faa9421e6"},"vehicle_type_id":"4","last_reported":1757963292,"current_range_meters":6400,"station_id":"ce4bh4p2rcd13ifvqe1g","pricing_plan_id":"cebpf4jnsgd1na2vs0mg"},{"bike_id":"90b99ccf-2b3c-4d75-9e45-7dd3a550aac1","system_id":"levelo_inurba_marseille","lat":43.23569,"lon":5.39891,"is_reserved":false,"is_disabled":true,"rental_uris":{"android":"levelo://app?vid=90b99ccf-2b3c-4d75-9e45-7dd3a550aac1","ios":"levelo://app?vid=90b99ccf-2b3c-4d75-9e45-7dd3a550aac1"},"vehicle_type_id":"4","last_reported":1757963292,"current_range_meters":6400,"station_id":"","pricing_plan_id":"cebpf4jnsgd1na2vs0mg"},{"bike_id":"30e85da9-4a4e-420a-bc64-cfe1eeea89eb","system_id":"levelo_inurba_marseille","lat":43.2835,"lon":5.37647,"is_reserved":false,"is_disabled":false,"rental_uris":{"android":"levelo://app?vid=30e85da9-4a4e-420a-bc64-cfe1eeea89eb","ios":"levelo://app?vid=30e85da9-4a4e-420a-bc64-cfe1eeea89eb"},"vehicle_type_id":"4","last_reported":1757963292,"current_range_meters":6400,"station_id":"","pricing_plan_id":"cebpf4jnsgd1na2vs0mg"},{"bike_id":"56fa3e33-56e5-4cd4-a988-95981d6fc344","system_id":"levelo_inurba_marseille","lat":43.22501,"lon":5.34902,"is_reserved":false,"is_disabled":false,"rental_uris":{"android":"levelo://app?vid=56fa3e33-56e5-4cd4-a988-95981d6fc344","ios":"levelo://app?vid=56fa3e33-56e5-4cd4-a988-95981d6fc344"},"vehicle_type_id":"4","last_reported":1757963292,"current_range_meters":6800,"station_id":"","pricing_plan_id":"cebpf4jnsgd1na2vs0mg"},{"bike_id":"4f9bd625-ea72-423e-9234-f59f397dfa3c","system_id":"levelo_inurba_marseille","lat":43.211921,"lon":5.350834,"is_reserved":false,"is_disabled":false,"rental_uris":{"android":"levelo://app?vid=4f9bd625-ea72-423e-9234-f59f397dfa3c","ios":"levelo://app?vid=4f9bd625-ea72-423e-9234-f59f397dfa3c"},"vehicle_type_id":"4","last_reported":1757963292,"current_range_meters":6800,"station_id":"st_cvj6sg6p6f1abm77japg","pricing_plan_id":"cebpf4jnsgd1na2vs0mg"},{"bike_id":"7fcf04b4-326b-4744-a381-0b761615f1fc","system_id":"levelo_inurba_marseille","lat":43.2811,"lon":5.37826,"is_reserved":false,"is_disabled":false,"rental_uris":{"android":"levelo://app?vid=7fcf04b4-326b-4744-a381-0b761615f1fc","ios":"levelo://app?vid=7fcf04b4-326b-4744-a381-0b761615f1fc"},"vehicle_type_id":"4","last_reported":1757963292,"current_range_meters":6800,"station_id":"ce4bha12rcd13ifvqee0","pricing_plan_id":"cebpf4jnsgd1na2vs0mg"},{"bike_id":"18ad662e-80f9-48f5-9a47-75907aa2e7ea","system_id":"levelo_inurba_marseille","lat":43.30041,"lon":5.38338,"is_reserved":false,"is_disabled":false,"rental_uris":{"android":"levelo://app?vid=18ad662e-80f9-48f5-9a47-75907aa2e7ea","ios":"levelo://app?vid=18ad662e-80f9-48f5-9a47-75907aa2e7ea"},"vehicle_type_id":"4","last_reported":1757963292,"current_range_meters":7200,"station_id":"","pricing_plan_id":"cebpf4jnsgd1na2vs0mg"},{"bike_id":"0e074ec0-7a71-4b97-ac79-e46b015d6d6b","system_id":"levelo_inurba_marseille","lat":43.29621,"lon":5.37165,"is_reserved":false,"is_disabled":false,"rental_uris":{"android":"levelo://app?vid=0e074ec0-7a71-4b97-ac79-e46b015d6d6b","ios":"levelo://app?vid=0e074ec0-7a71-4b97-ac79-e46b015d6d6b"},"vehicle_type_id":"4","last_reported":1757963292,"current_range_meters":6800,"station_id":"ce4bgnh2rcd13ifvqc0g","pricing_plan_id":"cebpf4jnsgd1na2vs0mg"},{"bike_id":"f4fd115e-01c3-41a4-98a8-b06f2fb48264","system_id":"levelo_inurba_marseille","lat":43.29038,"lon":5.39952,"is_reserved":false,"is_disabled":false,"rental_uris":{"android":"levelo://app?vid=f4fd115e-01c3-41a4-98a8-b06f2fb48264","ios":"levelo://app?vid=f4fd115e-01c3-41a4-98a8-b06f2fb48264"},"vehicle_type_id":"4","last_reported":1757963292,"current_range_meters":6800,"station_id":"ce4bh392rcd13ifvqdm0","pricing_plan_id":"cebpf4jnsgd1na2vs0mg"},{"bike_id":"92b6cc1f-3a77-4130-8fbf-995fca856c84","system_id":"levelo_inurba_marseille","lat":43.32366,"lon":5.38886,"is_reserved":false,"is_disabled":false,"rental_uris":{"android":"levelo://app?vid=92b6cc1f-3a77-4130-8fbf-995fca856c84","ios":"levelo://app?vid=92b6cc1f-3a77-4130-8fbf-995fca856c84"},"vehicle_type_id":"4","last_reported":1757963292,"current_range_meters":6800,"station_id":"ce4bhqp2rcd13ifvqhog","pricing_plan_id":"cebpf4jnsgd1na2vs0mg"},{"bike_id":"c4ab77ed-b6a0-4bf3-9860-0d1369dadc13","system_id":"levelo_inurba_marseille","lat":43.29868,"lon":5.38902,"is_reserved":false,"is_disabled":false,"rental_uris":{"android":"levelo://app?vid=c4ab77ed-b6a0-4bf3-9860-0d1369dadc13","ios":"levelo://app?vid=c4ab77ed-b6a0-4bf3-9860-0d1369dadc13"},"vehicle_type_id":"4","last_reported":1757963292,"current_range_meters":6800,"station_id":"ce4bh392rcd13ifvqdl0","pricing_plan_id":"cebpf4jnsgd1na2vs0mg"},{"bike_id":"c37933c6-f301-4e72-ae28-b86236887c46","system_id":"levelo_inurba_marseille","lat":43.21743,"lon":5.3461,"is_reserved":false,"is_disabled":false,"rental_uris":{"android":"levelo://app?vid=c37933c6-f301-4e72-ae28-b86236887c46","ios":"levelo://app?vid=c37933c6-f301-4e72-ae28-b86236887c46"},"vehicle_type_id":"4","last_reported":1757963292,"current_range_meters":6800,"station_id":"","pricing_plan_id":"cebpf4jnsgd1na2vs0mg"},{"bike_id":"1c912b96-c773-4fa8-9765-5d2e0112c3d7","system_id":"levelo_inurba_marseille","lat":43.29877,"lon":5.38909,"is_reserved":false,"is_disabled":false,"rental_uris":{"android":"levelo://app?vid=1c912b96-c773-4fa8-9765-5d2e0112c3d7","ios":"levelo://app?vid=1c912b96-c773-4fa8-9765-5d2e0112c3d7"},"vehicle_type_id":"4","last_reported":1757963292,"current_range_meters":6400,"station_id":"ce4bh392rcd13ifvqdl0","pricing_plan_id":"cebpf4jnsgd1na2vs0mg"},{"bike_id":"92328f20-9c61-4621-aefd-c280af7d31a0","system_id":"levelo_inurba_marseille","lat":43.288642,"lon":5.425243,"is_reserved":false,"is_disabled":false,"rental_uris":{"android":"levelo://app?vid=92328f20-9c61-4621-aefd-c280af7d31a0","ios":"levelo://app?vid=92328f20-9c61-4621-aefd-c280af7d31a0"},"vehicle_type_id":"4","last_reported":1757963292,"current_range_meters":6800,"station_id":"","pricing_plan_id":"cebpf4jnsgd1na2vs0mg"},{"bike_id":"24af3ddb-1c96-48e2-91e3-02ef021789ba","system_id":"levelo_inurba_marseille","lat":43.30879,"lon":5.39657,"is_reserved":false,"is_disabled":false,"rental_uris":{"android":"levelo://app?vid=24af3ddb-1c96-48e2-91e3-02ef021789ba","ios":"levelo://app?vid=24af3ddb-1c96-48e2-91e3-02ef021789ba"},"vehicle_type_id":"4","last_reported":1757963292,"current_range_meters":6800,"station_id":"ce4bh012rcd13ifvqcv0","pricing_plan_id":"cebpf4jnsgd1na2vs0mg"},{"bike_id":"4784d109-c5c2-4095-8a24-d6e150d85f5f","system_id":"levelo_inurba_marseille","lat":43.31978,"lon":5.3815,"is_reserved":false,"is_disabled":false,"rental_uris":{"android":"levelo://app?vid=4784d109-c5c2-4095-8a24-d6e150d85f5f","ios":"levelo://app?vid=4784d109-c5c2-4095-8a24-d6e150d85f5f"},"vehicle_type_id":"4","last_reported":1757963292,"current_range_meters":7200,"station_id":"ce4bhr12rcd13ifvqhpg","pricing_plan_id":"cebpf4jnsgd1na2vs0mg"},{"bike_id":"fe44e8d3-4c3a-4efb-a3d9-671a05007529","system_id":"levelo_inurba_marseille","lat":43.30429,"lon":5.41291,"is_reserved":false,"is_disabled":false,"rental_uris":{"android":"levelo://app?vid=fe44e8d3-4c3a-4efb-a3d9-671a05007529","ios":"levelo://app?vid=fe44e8d3-4c3a-4efb-a3d9-671a05007529"},"vehicle_type_id":"4","last_reported":1757963292,"current_range_meters":7200,"station_id":"ce4bhop2rcd13ifvqh8g","pricing_plan_id":"cebpf4jnsgd1na2vs0mg"},{"bike_id":"a4e91179-5d0d-45c5-8f7c-053747f382b7","system_id":"levelo_inurba_marseille","lat":43.28248,"lon":5.44021,"is_reserved":false,"is_disabled":false,"rental_uris":{"android":"levelo://app?vid=a4e91179-5d0d-45c5-8f7c-053747f382b7","ios":"levelo://app?vid=a4e91179-5d0d-45c5-8f7c-053747f382b7"},"vehicle_type_id":"4","last_reported":1757963292,"current_range_meters":7200,"station_id":"","pricing_plan_id":"cebpf4jnsgd1na2vs0mg"},{"bike_id":"ff492c35-4bda-46c5-a136-906d9ef56ad9","system_id":"levelo_inurba_marseille","lat":43.28114,"lon":5.37886,"is_reserved":false,"is_disabled":false,"rental_uris":{"android":"levelo://app?vid=ff492c35-4bda-46c5-a136-906d9ef56ad9","ios":"levelo://app?vid=ff492c35-4bda-46c5-a136-906d9ef56ad9"},"vehicle_type_id":"4","last_reported":1757963292,"current_range_meters":7200,"station_id":"ce4bha12rcd13ifvqee0","pricing_plan_id":"cebpf4jnsgd1na2vs0mg"},{"bike_id":"b89bf677-dac1-40a8-81ca-7fd1d98ed07b","system_id":"levelo_inurba_marseille","lat":43.28936,"lon":5.36639,"is_reserved":false,"is_disabled":false,"rental_uris":{"android":"levelo://app?vid=b89bf677-dac1-40a8-81ca-7fd1d98ed07b","ios":"levelo://app?vid=b89bf677-dac1-40a8-81ca-7fd1d98ed07b"},"vehicle_type_id":"4","last_reported":1757963292,"current_range_meters":7200,"station_id":"ce4bhap2rcd13ifvqek0","pricing_plan_id":"cebpf4jnsgd1na2vs0mg"},{"bike_id":"e4c92214-167c-4d0e-9e92-ad738c423733","system_id":"levelo_inurba_marseille","lat":43.285767,"lon":5.394954,"is_reserved":false,"is_disabled":false,"rental_uris":{"android":"levelo://app?vid=e4c92214-167c-4d0e-9e92-ad738c423733","ios":"levelo://app?vid=e4c92214-167c-4d0e-9e92-ad738c423733"},"vehicle_type_id":"4","last_reported":1757963292,"current_range_meters":7200,"station_id":"ce4bh292rcd13ifvqdg0","pricing_plan_id":"cebpf4jnsgd1na2vs0mg"},{"bike_id":"b982f00c-34a9-4ed3-b17f-5c48d0cb70b9","system_id":"levelo_inurba_marseille","lat":43.23692,"lon":5.3606,"is_reserved":false,"is_disabled":false,"rental_uris":{"android":"levelo://app?vid=b982f00c-34a9-4ed3-b17f-5c48d0cb70b9","ios":"levelo://app?vid=b982f00c-34a9-4ed3-b17f-5c48d0cb70b9"},"vehicle_type_id":"4","last_reported":1757963292,"current_range_meters":7200,"station_id":"","pricing_plan_id":"cebpf4jnsgd1na2vs0mg"},{"bike_id":"d6c2f00d-a4ea-4585-905b-67aee1816148","system_id":"levelo_inurba_marseille","lat":43.29577,"lon":5.39961,"is_reserved":false,"is_disabled":false,"rental_uris":{"android":"levelo://app?vid=d6c2f00d-a4ea-4585-905b-67aee1816148","ios":"levelo://app?vid=d6c2f00d-a4ea-4585-905b-67aee1816148"},"vehicle_type_id":"4","last_reported":1757963292,"current_range_meters":7200,"station_id":"ce4bh312rcd13ifvqdj0","pricing_plan_id":"cebpf4jnsgd1na2vs0mg"},{"bike_id":"99f16c18-aa0f-4175-8e63-e3d26d962310","system_id":"levelo_inurba_marseille","lat":43.29653,"lon":5.38075,"is_reserved":false,"is_disabled":false,"rental_uris":{"android":"levelo://app?vid=99f16c18-aa0f-4175-8e63-e3d26d962310","ios":"levelo://app?vid=99f16c18-aa0f-4175-8e63-e3d26d962310"},"vehicle_type_id":"4","last_reported":1757963292,"current_range_meters":8000,"station_id":"","pricing_plan_id":"cebpf4jnsgd1na2vs0mg"},{"bike_id":"696865a9-d1d0-43e1-a7c7-3203d58b6e06","system_id":"levelo_inurba_marseille","lat":43.29971,"lon":5.3848,"is_reserved":false,"is_disabled":false,"rental_uris":{"android":"levelo://app?vid=696865a9-d1d0-43e1-a7c7-3203d58b6e06","ios":"levelo://app?vid=696865a9-d1d0-43e1-a7c7-3203d58b6e06"},"vehicle_type_id":"4","last_reported":1757963292,"current_range_meters":8000,"station_id":"ce4bgj92rcd13ifvqbd0","pricing_plan_id":"cebpf4jnsgd1na2vs0mg"},{"bike_id":"37c4cb85-41a7-4542-ac9f-6e604d9db307","system_id":"levelo_inurba_marseille","lat":43.297002,"lon":5.376932,"is_reserved":false,"is_disabled":false,"rental_uris":{"android":"levelo://app?vid=37c4cb85-41a7-4542-ac9f-6e604d9db307","ios":"levelo://app?vid=37c4cb85-41a7-4542-ac9f-6e604d9db307"},"vehicle_type_id":"4","last_reported":1757963292,"current_range_meters":8000,"station_id":"ce4bgkh2rcd13ifvqbl0","pricing_plan_id":"cebpf4jnsgd1na2vs0mg"},{"bike_id":"425c444e-5d22-465c-afa2-f1e542ac5d86","system_id":"levelo_inurba_marseille","lat":43.2869,"lon":5.39984,"is_reserved":false,"is_disabled":false,"rental_uris":{"android":"levelo://app?vid=425c444e-5d22-465c-afa2-f1e542ac5d86","ios":"levelo://app?vid=425c444e-5d22-465c-afa2-f1e542ac5d86"},"vehicle_type_id":"4","last_reported":1757963292,"current_range_meters":8000,"station_id":"ce4bho92rcd13ifvqh3g","pricing_plan_id":"cebpf4jnsgd1na2vs0mg"},{"bike_id":"9489e451-a954-40de-b5f3-1b1d26ec3e53","system_id":"levelo_inurba_marseille","lat":43.28112,"lon":5.37864,"is_reserved":false,"is_disabled":false,"rental_uris":{"android":"levelo://app?vid=9489e451-a954-40de-b5f3-1b1d26ec3e53","ios":"levelo://app?vid=9489e451-a954-40de-b5f3-1b1d26ec3e53"},"vehicle_type_id":"4","last_reported":1757963292,"current_range_meters":8000,"station_id":"ce4bha12rcd13ifvqee0","pricing_plan_id":"cebpf4jnsgd1na2vs0mg"},{"bike_id":"8b53bb24-00b5-4fe6-b858-88c90ee71ef0","system_id":"levelo_inurba_marseille","lat":43.286819,"lon":5.373766,"is_reserved":false,"is_disabled":false,"rental_uris":{"android":"levelo://app?vid=8b53bb24-00b5-4fe6-b858-88c90ee71ef0","ios":"levelo://app?vid=8b53bb24-00b5-4fe6-b858-88c90ee71ef0"},"vehicle_type_id":"4","last_reported":1757963292,"current_range_meters":8000,"station_id":"ce4bh3p2rcd13ifvqdq0","pricing_plan_id":"cebpf4jnsgd1na2vs0mg"},{"bike_id":"e7b44f56-3fab-44bb-80a5-0c095f79e188","system_id":"levelo_inurba_marseille","lat":43.286735,"lon":5.386801,"is_reserved":false,"is_disabled":false,"rental_uris":{"android":"levelo://app?vid=e7b44f56-3fab-44bb-80a5-0c095f79e188","ios":"levelo://app?vid=e7b44f56-3fab-44bb-80a5-0c095f79e188"},"vehicle_type_id":"4","last_reported":1757963292,"current_range_meters":8000,"station_id":"","pricing_plan_id":"cebpf4jnsgd1na2vs0mg"},{"bike_id":"c4eb3fd3-3acf-4588-b627-f18f84c0dd34","system_id":"levelo_inurba_marseille","lat":43.29912,"lon":5.38135,"is_reserved":false,"is_disabled":false,"rental_uris":{"android":"levelo://app?vid=c4eb3fd3-3acf-4588-b627-f18f84c0dd34","ios":"levelo://app?vid=c4eb3fd3-3acf-4588-b627-f18f84c0dd34"},"vehicle_type_id":"4","last_reported":1757963292,"current_range_meters":8000,"station_id":"ce4bgj12rcd13ifvqbc0","pricing_plan_id":"cebpf4jnsgd1na2vs0mg"},{"bike_id":"ba4036f3-d95f-41bb-89c9-80dbd56efdd5","system_id":"levelo_inurba_marseille","lat":43.32,"lon":5.38166,"is_reserved":false,"is_disabled":false,"rental_uris":{"android":"levelo://app?vid=ba4036f3-d95f-41bb-89c9-80dbd56efdd5","ios":"levelo://app?vid=ba4036f3-d95f-41bb-89c9-80dbd56efdd5"},"vehicle_type_id":"4","last_reported":1757963292,"current_range_meters":11200,"station_id":"ce4bhr12rcd13ifvqhpg","pricing_plan_id":"cebpf4jnsgd1na2vs0mg"},{"bike_id":"26780225-7a9b-4194-b01f-2f23dd3f8ecd","system_id":"levelo_inurba_marseille","lat":43.26928,"lon":5.38912,"is_reserved":false,"is_disabled":false,"rental_uris":{"android":"levelo://app?vid=26780225-7a9b-4194-b01f-2f23dd3f8ecd","ios":"levelo://app?vid=26780225-7a9b-4194-b01f-2f23dd3f8ecd"},"vehicle_type_id":"4","last_reported":1757963292,"current_range_meters":8000,"station_id":"ce4bhhh2rcd13ifvqfl0","pricing_plan_id":"cebpf4jnsgd1na2vs0mg"},{"bike_id":"766e265d-c5dd-4141-847c-b873454b5fd6","system_id":"levelo_inurba_marseille","lat":43.29283,"lon":5.40114,"is_reserved":false,"is_disabled":false,"rental_uris":{"android":"levelo://app?vid=766e265d-c5dd-4141-847c-b873454b5fd6","ios":"levelo://app?vid=766e265d-c5dd-4141-847c-b873454b5fd6"},"vehicle_type_id":"4","last_reported":1757963292,"current_range_meters":7200,"station_id":"ce4bh312rcd13ifvqdk0","pricing_plan_id":"cebpf4jnsgd1na2vs0mg"},{"bike_id":"41881d5a-c4b0-47fc-9d2a-a4035a9a6d4a","system_id":"levelo_inurba_marseille","lat":43.28933,"lon":5.36627,"is_reserved":false,"is_disabled":false,"rental_uris":{"android":"levelo://app?vid=41881d5a-c4b0-47fc-9d2a-a4035a9a6d4a","ios":"levelo://app?vid=41881d5a-c4b0-47fc-9d2a-a4035a9a6d4a"},"vehicle_type_id":"4","last_reported":1757963292,"current_range_meters":8400,"station_id":"ce4bhap2rcd13ifvqek0","pricing_plan_id":"cebpf4jnsgd1na2vs0mg"},{"bike_id":"4dc2086f-e89c-4e56-8b99-4d8f349a9b49","system_id":"levelo_inurba_marseille","lat":43.2906,"lon":5.40031,"is_reserved":false,"is_disabled":false,"rental_uris":{"android":"levelo://app?vid=4dc2086f-e89c-4e56-8b99-4d8f349a9b49","ios":"levelo://app?vid=4dc2086f-e89c-4e56-8b99-4d8f349a9b49"},"vehicle_type_id":"4","last_reported":1757963292,"current_range_meters":8400,"station_id":"","pricing_plan_id":"cebpf4jnsgd1na2vs0mg"},{"bike_id":"4ec115f7-70e2-44a0-950b-cc56db458600","system_id":"levelo_inurba_marseille","lat":43.21744,"lon":5.34609,"is_reserved":false,"is_disabled":true,"rental_uris":{"android":"levelo://app?vid=4ec115f7-70e2-44a0-950b-cc56db458600","ios":"levelo://app?vid=4ec115f7-70e2-44a0-950b-cc56db458600"},"vehicle_type_id":"4","last_reported":1757963292,"current_range_meters":8400,"station_id":"","pricing_plan_id":"cebpf4jnsgd1na2vs0mg"},{"bike_id":"2bd7f21a-db8c-4b47-acd6-edeafc6d9716","system_id":"levelo_inurba_marseille","lat":43.33024,"lon":5.39047,"is_reserved":false,"is_disabled":false,"rental_uris":{"android":"levelo://app?vid=2bd7f21a-db8c-4b47-acd6-edeafc6d9716","ios":"levelo://app?vid=2bd7f21a-db8c-4b47-acd6-edeafc6d9716"},"vehicle_type_id":"4","last_reported":1757963292,"current_range_meters":8400,"station_id":"ce4bhr92rcd13ifvqhrg","pricing_plan_id":"cebpf4jnsgd1na2vs0mg"},{"bike_id":"7c1fc402-018d-497b-9f28-30d0925b8ff9","system_id":"levelo_inurba_marseille","lat":43.30244,"lon":5.40076,"is_reserved":false,"is_disabled":false,"rental_uris":{"android":"levelo://app?vid=7c1fc402-018d-497b-9f28-30d0925b8ff9","ios":"levelo://app?vid=7c1fc402-018d-497b-9f28-30d0925b8ff9"},"vehicle_type_id":"4","last_reported":1757963292,"current_range_meters":8400,"station_id":"ce4bgvh2rcd13ifvqcs0","pricing_plan_id":"cebpf4jnsgd1na2vs0mg"},{"bike_id":"03045c48-92c5-426d-a1d3-11c9e8f2410c","system_id":"levelo_inurba_marseille","lat":43.28081,"lon":5.3966,"is_reserved":false,"is_disabled":false,"rental_uris":{"android":"levelo://app?vid=03045c48-92c5-426d-a1d3-11c9e8f2410c","ios":"levelo://app?vid=03045c48-92c5-426d-a1d3-11c9e8f2410c"},"vehicle_type_id":"4","last_reported":1757963292,"current_range_meters":8400,"station_id":"ce4bho12rcd13ifvqh2g","pricing_plan_id":"cebpf4jnsgd1na2vs0mg"},{"bike_id":"64290400-566e-46fc-ad08-67b6465a6e36","system_id":"levelo_inurba_marseille","lat":43.28933,"lon":5.39618,"is_reserved":false,"is_disabled":false,"rental_uris":{"android":"levelo://app?vid=64290400-566e-46fc-ad08-67b6465a6e36","ios":"levelo://app?vid=64290400-566e-46fc-ad08-67b6465a6e36"},"vehicle_type_id":"4","last_reported":1757963292,"current_range_meters":8800,"station_id":"ce4bh3h2rcd13ifvqdn0","pricing_plan_id":"cebpf4jnsgd1na2vs0mg"},{"bike_id":"dd32f779-e928-424d-999f-b730cf475fa7","system_id":"levelo_inurba_marseille","lat":43.22399,"lon":5.34657,"is_reserved":false,"is_disabled":false,"rental_uris":{"android":"levelo://app?vid=dd32f779-e928-424d-999f-b730cf475fa7","ios":"levelo://app?vid=dd32f779-e928-424d-999f-b730cf475fa7"},"vehicle_type_id":"4","last_reported":1757963292,"current_range_meters":8800,"station_id":"","pricing_plan_id":"cebpf4jnsgd1na2vs0mg"},{"bike_id":"824c21cb-2914-4109-afe7-abf1a78c08b8","system_id":"levelo_inurba_marseille","lat":43.30321,"lon":5.40444,"is_reserved":false,"is_disabled":true,"rental_uris":{"android":"levelo://app?vid=824c21cb-2914-4109-afe7-abf1a78c08b8","ios":"levelo://app?vid=824c21cb-2914-4109-afe7-abf1a78c08b8"},"vehicle_type_id":"4","last_reported":1757963292,"current_range_meters":8800,"station_id":"ce4bh012rcd13ifvqd10","pricing_plan_id":"cebpf4jnsgd1na2vs0mg"},{"bike_id":"85db8ab9-6b24-4c23-8762-109e948df9cd","system_id":"levelo_inurba_marseille","lat":43.305891,"lon":5.40467,"is_reserved":false,"is_disabled":false,"rental_uris":{"android":"levelo://app?vid=85db8ab9-6b24-4c23-8762-109e948df9cd","ios":"levelo://app?vid=85db8ab9-6b24-4c23-8762-109e948df9cd"},"vehicle_type_id":"4","last_reported":1757963292,"current_range_meters":8800,"station_id":"","pricing_plan_id":"cebpf4jnsgd1na2vs0mg"},{"bike_id":"87b779c5-0742-4a22-a3eb-4d0dff87f077","system_id":"levelo_inurba_marseille","lat":43.29782,"lon":5.38122,"is_reserved":false,"is_disabled":true,"rental_uris":{"android":"levelo://app?vid=87b779c5-0742-4a22-a3eb-4d0dff87f077","ios":"levelo://app?vid=87b779c5-0742-4a22-a3eb-4d0dff87f077"},"vehicle_type_id":"4","last_reported":1757963292,"current_range_meters":8800,"station_id":"ce4bgip2rcd13ifvqbb0","pricing_plan_id":"cebpf4jnsgd1na2vs0mg"},{"bike_id":"0589168a-e350-4bb0-ab6e-56c1c7021f1c","system_id":"levelo_inurba_marseille","lat":43.24177,"lon":5.36375,"is_reserved":false,"is_disabled":true,"rental_uris":{"android":"levelo://app?vid=0589168a-e350-4bb0-ab6e-56c1c7021f1c","ios":"levelo://app?vid=0589168a-e350-4bb0-ab6e-56c1c7021f1c"},"vehicle_type_id":"4","last_reported":1757963292,"current_range_meters":8800,"station_id":"cpo36qri1sfpv3e86is0","pricing_plan_id":"cebpf4jnsgd1na2vs0mg"},{"bike_id":"f526be4b-f938-4d77-9daa-59d51fddf2b0","system_id":"levelo_inurba_marseille","lat":43.29573,"lon":5.39971,"is_reserved":false,"is_disabled":false,"rental_uris":{"android":"levelo://app?vid=f526be4b-f938-4d77-9daa-59d51fddf2b0","ios":"levelo://app?vid=f526be4b-f938-4d77-9daa-59d51fddf2b0"},"vehicle_type_id":"4","last_reported":1757963292,"current_range_meters":8400,"station_id":"ce4bh312rcd13ifvqdj0","pricing_plan_id":"cebpf4jnsgd1na2vs0mg"},{"bike_id":"50a403f5-a88d-48f3-be44-e2a5e3e8a420","system_id":"levelo_inurba_marseille","lat":43.2947,"lon":5.39134,"is_reserved":false,"is_disabled":false,"rental_uris":{"android":"levelo://app?vid=50a403f5-a88d-48f3-be44-e2a5e3e8a420","ios":"levelo://app?vid=50a403f5-a88d-48f3-be44-e2a5e3e8a420"},"vehicle_type_id":"4","last_reported":1757963292,"current_range_meters":9200,"station_id":"","pricing_plan_id":"cebpf4jnsgd1na2vs0mg"},{"bike_id":"904e8e35-b88d-49be-a0b5-c2d01fa33de3","system_id":"levelo_inurba_marseille","lat":43.29028,"lon":5.38134,"is_reserved":false,"is_disabled":false,"rental_uris":{"android":"levelo://app?vid=904e8e35-b88d-49be-a0b5-c2d01fa33de3","ios":"levelo://app?vid=904e8e35-b88d-49be-a0b5-c2d01fa33de3"},"vehicle_type_id":"4","last_reported":1757963292,"current_range_meters":9200,"station_id":"ce4bh4p2rcd13ifvqe1g","pricing_plan_id":"cebpf4jnsgd1na2vs0mg"},{"bike_id":"4d6e6605-7f16-44fa-a19a-c138ee7cb360","system_id":"levelo_inurba_marseille","lat":43.33799,"lon":5.37446,"is_reserved":false,"is_disabled":false,"rental_uris":{"android":"levelo://app?vid=4d6e6605-7f16-44fa-a19a-c138ee7cb360","ios":"levelo://app?vid=4d6e6605-7f16-44fa-a19a-c138ee7cb360"},"vehicle_type_id":"4","last_reported":1757963292,"current_range_meters":9200,"station_id":"","pricing_plan_id":"cebpf4jnsgd1na2vs0mg"},{"bike_id":"e1338670-dc57-4831-85d5-8813247ad0b1","system_id":"levelo_inurba_marseille","lat":43.26261,"lon":5.40424,"is_reserved":false,"is_disabled":true,"rental_uris":{"android":"levelo://app?vid=e1338670-dc57-4831-85d5-8813247ad0b1","ios":"levelo://app?vid=e1338670-dc57-4831-85d5-8813247ad0b1"},"vehicle_type_id":"4","last_reported":1757963292,"current_range_meters":9200,"station_id":"ce4bhmh2rcd13ifvqgmg","pricing_plan_id":"cebpf4jnsgd1na2vs0mg"},{"bike_id":"b6afb09b-c301-4eac-9f5b-88509977730d","system_id":"levelo_inurba_marseille","lat":43.29045,"lon":5.39955,"is_reserved":false,"is_disabled":false,"rental_uris":{"android":"levelo://app?vid=b6afb09b-c301-4eac-9f5b-88509977730d","ios":"levelo://app?vid=b6afb09b-c301-4eac-9f5b-88509977730d"},"vehicle_type_id":"4","last_reported":1757963292,"current_range_meters":9200,"station_id":"ce4bh392rcd13ifvqdm0","pricing_plan_id":"cebpf4jnsgd1na2vs0mg"},{"bike_id":"938864bb-3f12-4a83-ba0d-084c4ce87de1","system_id":"levelo_inurba_marseille","lat":43.2971,"lon":5.37698,"is_reserved":false,"is_disabled":false,"rental_uris":{"android":"levelo://app?vid=938864bb-3f12-4a83-ba0d-084c4ce87de1","ios":"levelo://app?vid=938864bb-3f12-4a83-ba0d-084c4ce87de1"},"vehicle_type_id":"4","last_reported":1757963292,"current_range_meters":9200,"station_id":"ce4bgkh2rcd13ifvqbl0","pricing_plan_id":"cebpf4jnsgd1na2vs0mg"},{"bike_id":"534a5dc9-7558-4eca-9bf8-9333dc1a4710","system_id":"levelo_inurba_marseille","lat":43.275818,"lon":5.384439,"is_reserved":false,"is_disabled":false,"rental_uris":{"android":"levelo://app?vid=534a5dc9-7558-4eca-9bf8-9333dc1a4710","ios":"levelo://app?vid=534a5dc9-7558-4eca-9bf8-9333dc1a4710"},"vehicle_type_id":"4","last_reported":1757963292,"current_range_meters":9600,"station_id":"ce4bhh92rcd13ifvqfi0","pricing_plan_id":"cebpf4jnsgd1na2vs0mg"},{"bike_id":"5ec8aa1d-fb56-4298-bc25-cb847405bd73","system_id":"levelo_inurba_marseille","lat":43.2809,"lon":5.37844,"is_reserved":false,"is_disabled":false,"rental_uris":{"android":"levelo://app?vid=5ec8aa1d-fb56-4298-bc25-cb847405bd73","ios":"levelo://app?vid=5ec8aa1d-fb56-4298-bc25-cb847405bd73"},"vehicle_type_id":"4","last_reported":1757963292,"current_range_meters":9600,"station_id":"ce4bha12rcd13ifvqee0","pricing_plan_id":"cebpf4jnsgd1na2vs0mg"},{"bike_id":"736fe72f-6b64-4c5d-9f67-a4f409a97eee","system_id":"levelo_inurba_marseille","lat":43.23966,"lon":5.36626,"is_reserved":false,"is_disabled":false,"rental_uris":{"android":"levelo://app?vid=736fe72f-6b64-4c5d-9f67-a4f409a97eee","ios":"levelo://app?vid=736fe72f-6b64-4c5d-9f67-a4f409a97eee"},"vehicle_type_id":"4","last_reported":1757963292,"current_range_meters":9600,"station_id":"ce4bhi12rcd13ifvqfp0","pricing_plan_id":"cebpf4jnsgd1na2vs0mg"},{"bike_id":"f595225b-aeb9-4650-b3b4-e232170670bb","system_id":"levelo_inurba_marseille","lat":43.29577,"lon":5.39974,"is_reserved":false,"is_disabled":false,"rental_uris":{"android":"levelo://app?vid=f595225b-aeb9-4650-b3b4-e232170670bb","ios":"levelo://app?vid=f595225b-aeb9-4650-b3b4-e232170670bb"},"vehicle_type_id":"4","last_reported":1757963292,"current_range_meters":9600,"station_id":"ce4bh312rcd13ifvqdj0","pricing_plan_id":"cebpf4jnsgd1na2vs0mg"},{"bike_id":"6d08832a-5b3d-4860-a82f-e94b3a6575f2","system_id":"levelo_inurba_marseille","lat":43.28144,"lon":5.42775,"is_reserved":false,"is_disabled":false,"rental_uris":{"android":"levelo://app?vid=6d08832a-5b3d-4860-a82f-e94b3a6575f2","ios":"levelo://app?vid=6d08832a-5b3d-4860-a82f-e94b3a6575f2"},"vehicle_type_id":"4","last_reported":1757963292,"current_range_meters":9600,"station_id":"","pricing_plan_id":"cebpf4jnsgd1na2vs0mg"},{"bike_id":"deaccf69-4565-4a94-b26f-04b4ff2ef595","system_id":"levelo_inurba_marseille","lat":43.29487,"lon":5.38534,"is_reserved":false,"is_disabled":false,"rental_uris":{"android":"levelo://app?vid=deaccf69-4565-4a94-b26f-04b4ff2ef595","ios":"levelo://app?vid=deaccf69-4565-4a94-b26f-04b4ff2ef595"},"vehicle_type_id":"4","last_reported":1757963292,"current_range_meters":9600,"station_id":"ce4bgih2rcd13ifvqba0","pricing_plan_id":"cebpf4jnsgd1na2vs0mg"},{"bike_id":"96915f62-cebe-4919-b45e-d0c8da1d2f09","system_id":"levelo_inurba_marseille","lat":43.33725,"lon":5.39181,"is_reserved":false,"is_disabled":false,"rental_uris":{"android":"levelo://app?vid=96915f62-cebe-4919-b45e-d0c8da1d2f09","ios":"levelo://app?vid=96915f62-cebe-4919-b45e-d0c8da1d2f09"},"vehicle_type_id":"4","last_reported":1757963292,"current_range_meters":9600,"station_id":"ce4bhr92rcd13ifvqhsg","pricing_plan_id":"cebpf4jnsgd1na2vs0mg"},{"bike_id":"e98620f3-7541-443f-bd25-bf18d8d5884e","system_id":"levelo_inurba_marseille","lat":43.29978,"lon":5.38485,"is_reserved":false,"is_disabled":false,"rental_uris":{"android":"levelo://app?vid=e98620f3-7541-443f-bd25-bf18d8d5884e","ios":"levelo://app?vid=e98620f3-7541-443f-bd25-bf18d8d5884e"},"vehicle_type_id":"4","last_reported":1757963292,"current_range_meters":9600,"station_id":"ce4bgj92rcd13ifvqbd0","pricing_plan_id":"cebpf4jnsgd1na2vs0mg"},{"bike_id":"1170ea8c-7099-4b05-9176-ef9fc7da4ce9","system_id":"levelo_inurba_marseille","lat":43.31681,"lon":5.40473,"is_reserved":false,"is_disabled":false,"rental_uris":{"android":"levelo://app?vid=1170ea8c-7099-4b05-9176-ef9fc7da4ce9","ios":"levelo://app?vid=1170ea8c-7099-4b05-9176-ef9fc7da4ce9"},"vehicle_type_id":"4","last_reported":1757963292,"current_range_meters":9600,"station_id":"ce4bh012rcd13ifvqd00","pricing_plan_id":"cebpf4jnsgd1na2vs0mg"},{"bike_id":"d2a712c7-18ee-4fad-97ec-db96fd982a57","system_id":"levelo_inurba_marseille","lat":43.28856,"lon":5.42533,"is_reserved":false,"is_disabled":false,"rental_uris":{"android":"levelo://app?vid=d2a712c7-18ee-4fad-97ec-db96fd982a57","ios":"levelo://app?vid=d2a712c7-18ee-4fad-97ec-db96fd982a57"},"vehicle_type_id":"4","last_reported":1757963292,"current_range_meters":10000,"station_id":"","pricing_plan_id":"cebpf4jnsgd1na2vs0mg"},{"bike_id":"20edf989-3f85-40a3-9031-2d92f96cb030","system_id":"levelo_inurba_marseille","lat":43.30208,"lon":5.39453,"is_reserved":false,"is_disabled":false,"rental_uris":{"android":"levelo://app?vid=20edf989-3f85-40a3-9031-2d92f96cb030","ios":"levelo://app?vid=20edf989-3f85-40a3-9031-2d92f96cb030"},"vehicle_type_id":"4","last_reported":1757963292,"current_range_meters":9600,"station_id":"ce4bh0p2rcd13ifvqd70","pricing_plan_id":"cebpf4jnsgd1na2vs0mg"},{"bike_id":"d0653ddb-0cde-4808-b349-e6e3a4a8b754","system_id":"levelo_inurba_marseille","lat":43.28346,"lon":5.38114,"is_reserved":false,"is_disabled":false,"rental_uris":{"android":"levelo://app?vid=d0653ddb-0cde-4808-b349-e6e3a4a8b754","ios":"levelo://app?vid=d0653ddb-0cde-4808-b349-e6e3a4a8b754"},"vehicle_type_id":"4","last_reported":1757963292,"current_range_meters":10000,"station_id":"ce4bh412rcd13ifvqdr0","pricing_plan_id":"cebpf4jnsgd1na2vs0mg"},{"bike_id":"3497e7a2-d1ac-45c8-b73f-5afe1dfc9c24","system_id":"levelo_inurba_marseille","lat":43.286061,"lon":5.370719,"is_reserved":false,"is_disabled":false,"rental_uris":{"android":"levelo://app?vid=3497e7a2-d1ac-45c8-b73f-5afe1dfc9c24","ios":"levelo://app?vid=3497e7a2-d1ac-45c8-b73f-5afe1dfc9c24"},"vehicle_type_id":"4","last_reported":1757963292,"current_range_meters":10000,"station_id":"ce4bht12rcd13ifvqi60","pricing_plan_id":"cebpf4jnsgd1na2vs0mg"},{"bike_id":"4b3d29e4-4d48-4f95-a652-be16bfec385d","system_id":"levelo_inurba_marseille","lat":43.29389,"lon":5.37319,"is_reserved":false,"is_disabled":false,"rental_uris":{"android":"levelo://app?vid=4b3d29e4-4d48-4f95-a652-be16bfec385d","ios":"levelo://app?vid=4b3d29e4-4d48-4f95-a652-be16bfec385d"},"vehicle_type_id":"4","last_reported":1757963292,"current_range_meters":10000,"station_id":"","pricing_plan_id":"cebpf4jnsgd1na2vs0mg"},{"bike_id":"2aa0764e-b27b-439b-8060-01c64bd885f7","system_id":"levelo_inurba_marseille","lat":43.297915,"lon":5.393378,"is_reserved":false,"is_disabled":false,"rental_uris":{"android":"levelo://app?vid=2aa0764e-b27b-439b-8060-01c64bd885f7","ios":"levelo://app?vid=2aa0764e-b27b-439b-8060-01c64bd885f7"},"vehicle_type_id":"4","last_reported":1757963292,"current_range_meters":10000,"station_id":"chh1huq6cuj3fo74tm60","pricing_plan_id":"cebpf4jnsgd1na2vs0mg"},{"bike_id":"c6687fa4-366c-4273-a731-aeb0854ebf90","system_id":"levelo_inurba_marseille","lat":43.2828,"lon":5.35072,"is_reserved":false,"is_disabled":true,"rental_uris":{"android":"levelo://app?vid=c6687fa4-366c-4273-a731-aeb0854ebf90","ios":"levelo://app?vid=c6687fa4-366c-4273-a731-aeb0854ebf90"},"vehicle_type_id":"4","last_reported":1757963292,"current_range_meters":10000,"station_id":"ce4bhbp2rcd13ifvqerg","pricing_plan_id":"cebpf4jnsgd1na2vs0mg"},{"bike_id":"274c612c-32f1-4c0b-8269-e2326c4a4323","system_id":"levelo_inurba_marseille","lat":43.29262,"lon":5.38434,"is_reserved":false,"is_disabled":false,"rental_uris":{"android":"levelo://app?vid=274c612c-32f1-4c0b-8269-e2326c4a4323","ios":"levelo://app?vid=274c612c-32f1-4c0b-8269-e2326c4a4323"},"vehicle_type_id":"4","last_reported":1757963292,"current_range_meters":10000,"station_id":"ce4bh692rcd13ifvqea0","pricing_plan_id":"cebpf4jnsgd1na2vs0mg"},{"bike_id":"3a0cc4c0-a33a-4033-a328-8d10e470aa93","system_id":"levelo_inurba_marseille","lat":43.28106,"lon":5.37839,"is_reserved":false,"is_disabled":false,"rental_uris":{"android":"levelo://app?vid=3a0cc4c0-a33a-4033-a328-8d10e470aa93","ios":"levelo://app?vid=3a0cc4c0-a33a-4033-a328-8d10e470aa93"},"vehicle_type_id":"4","last_reported":1757963292,"current_range_meters":10000,"station_id":"ce4bha12rcd13ifvqee0","pricing_plan_id":"cebpf4jnsgd1na2vs0mg"},{"bike_id":"5b71f0be-4481-4d84-a923-5ef3de65d795","system_id":"levelo_inurba_marseille","lat":43.2813,"lon":5.35015,"is_reserved":false,"is_disabled":false,"rental_uris":{"android":"levelo://app?vid=5b71f0be-4481-4d84-a923-5ef3de65d795","ios":"levelo://app?vid=5b71f0be-4481-4d84-a923-5ef3de65d795"},"vehicle_type_id":"4","last_reported":1757963292,"current_range_meters":10000,"station_id":"","pricing_plan_id":"cebpf4jnsgd1na2vs0mg"},{"bike_id":"bed03d54-d7a4-4362-9aaa-88354e22dd8f","system_id":"levelo_inurba_marseille","lat":43.30255,"lon":5.40078,"is_reserved":false,"is_disabled":false,"rental_uris":{"android":"levelo://app?vid=bed03d54-d7a4-4362-9aaa-88354e22dd8f","ios":"levelo://app?vid=bed03d54-d7a4-4362-9aaa-88354e22dd8f"},"vehicle_type_id":"4","last_reported":1757963292,"current_range_meters":10000,"station_id":"ce4bgvh2rcd13ifvqcs0","pricing_plan_id":"cebpf4jnsgd1na2vs0mg"},{"bike_id":"e532a7d6-b729-444a-894e-1b3ef8075b20","system_id":"levelo_inurba_marseille","lat":43.2842,"lon":5.34989,"is_reserved":false,"is_disabled":true,"rental_uris":{"android":"levelo://app?vid=e532a7d6-b729-444a-894e-1b3ef8075b20","ios":"levelo://app?vid=e532a7d6-b729-444a-894e-1b3ef8075b20"},"vehicle_type_id":"4","last_reported":1757963292,"current_range_meters":10800,"station_id":"ce4bhbh2rcd13ifvqepg","pricing_plan_id":"cebpf4jnsgd1na2vs0mg"},{"bike_id":"30163fcc-2fce-49a6-810a-a5caf380e026","system_id":"levelo_inurba_marseille","lat":43.30941,"lon":5.40137,"is_reserved":false,"is_disabled":false,"rental_uris":{"android":"levelo://app?vid=30163fcc-2fce-49a6-810a-a5caf380e026","ios":"levelo://app?vid=30163fcc-2fce-49a6-810a-a5caf380e026"},"vehicle_type_id":"4","last_reported":1757963292,"current_range_meters":10800,"station_id":"ce4bgvp2rcd13ifvqct0","pricing_plan_id":"cebpf4jnsgd1na2vs0mg"},{"bike_id":"e7a329bd-ed66-4ac7-aaba-63f2810ddd86","system_id":"levelo_inurba_marseille","lat":43.31859,"lon":5.37206,"is_reserved":false,"is_disabled":false,"rental_uris":{"android":"levelo://app?vid=e7a329bd-ed66-4ac7-aaba-63f2810ddd86","ios":"levelo://app?vid=e7a329bd-ed66-4ac7-aaba-63f2810ddd86"},"vehicle_type_id":"4","last_reported":1757963292,"current_range_meters":10800,"station_id":"","pricing_plan_id":"cebpf4jnsgd1na2vs0mg"},{"bike_id":"4d58f0ff-3445-4722-a22c-d8c4e0e157b1","system_id":"levelo_inurba_marseille","lat":43.28939,"lon":5.36402,"is_reserved":false,"is_disabled":false,"rental_uris":{"android":"levelo://app?vid=4d58f0ff-3445-4722-a22c-d8c4e0e157b1","ios":"levelo://app?vid=4d58f0ff-3445-4722-a22c-d8c4e0e157b1"},"vehicle_type_id":"4","last_reported":1757963292,"current_range_meters":10800,"station_id":"ce4bhc92rcd13ifvqetg","pricing_plan_id":"cebpf4jnsgd1na2vs0mg"},{"bike_id":"de30054a-99c9-4560-ab42-9584d120217d","system_id":"levelo_inurba_marseille","lat":43.2811,"lon":5.3783,"is_reserved":false,"is_disabled":false,"rental_uris":{"android":"levelo://app?vid=de30054a-99c9-4560-ab42-9584d120217d","ios":"levelo://app?vid=de30054a-99c9-4560-ab42-9584d120217d"},"vehicle_type_id":"4","last_reported":1757963292,"current_range_meters":10800,"station_id":"ce4bha12rcd13ifvqee0","pricing_plan_id":"cebpf4jnsgd1na2vs0mg"},{"bike_id":"63820a7f-4f07-42dd-8c4a-59fd7724b7e0","system_id":"levelo_inurba_marseille","lat":43.26957,"lon":5.38631,"is_reserved":false,"is_disabled":false,"rental_uris":{"android":"levelo://app?vid=63820a7f-4f07-42dd-8c4a-59fd7724b7e0","ios":"levelo://app?vid=63820a7f-4f07-42dd-8c4a-59fd7724b7e0"},"vehicle_type_id":"4","last_reported":1757963292,"current_range_meters":10800,"station_id":"ce4bhh92rcd13ifvqfh0","pricing_plan_id":"cebpf4jnsgd1na2vs0mg"},{"bike_id":"30d92779-838e-460b-bf7a-6371f6646707","system_id":"levelo_inurba_marseille","lat":43.21195,"lon":5.3508,"is_reserved":false,"is_disabled":true,"rental_uris":{"android":"levelo://app?vid=30d92779-838e-460b-bf7a-6371f6646707","ios":"levelo://app?vid=30d92779-838e-460b-bf7a-6371f6646707"},"vehicle_type_id":"4","last_reported":1757963292,"current_range_meters":10800,"station_id":"st_cvj6sg6p6f1abm77japg","pricing_plan_id":"cebpf4jnsgd1na2vs0mg"},{"bike_id":"173ca3ea-7b65-4d4d-9a8f-afb4480ed53c","system_id":"levelo_inurba_marseille","lat":43.29918,"lon":5.37456,"is_reserved":false,"is_disabled":false,"rental_uris":{"android":"levelo://app?vid=173ca3ea-7b65-4d4d-9a8f-afb4480ed53c","ios":"levelo://app?vid=173ca3ea-7b65-4d4d-9a8f-afb4480ed53c"},"vehicle_type_id":"4","last_reported":1757963292,"current_range_meters":10800,"station_id":"ce4bgjh2rcd13ifvqbg0","pricing_plan_id":"cebpf4jnsgd1na2vs0mg"},{"bike_id":"60df5be0-868d-496d-a7cc-2e097de1a47a","system_id":"levelo_inurba_marseille","lat":43.22558,"lon":5.41622,"is_reserved":false,"is_disabled":false,"rental_uris":{"android":"levelo://app?vid=60df5be0-868d-496d-a7cc-2e097de1a47a","ios":"levelo://app?vid=60df5be0-868d-496d-a7cc-2e097de1a47a"},"vehicle_type_id":"4","last_reported":1757963292,"current_range_meters":10800,"station_id":"st_d2o4gvlbi1j2169b742g","pricing_plan_id":"cebpf4jnsgd1na2vs0mg"},{"bike_id":"5a4c56e4-f771-4e7d-b92a-ec5e2ad8cc6a","system_id":"levelo_inurba_marseille","lat":43.30742,"lon":5.42447,"is_reserved":false,"is_disabled":false,"rental_uris":{"android":"levelo://app?vid=5a4c56e4-f771-4e7d-b92a-ec5e2ad8cc6a","ios":"levelo://app?vid=5a4c56e4-f771-4e7d-b92a-ec5e2ad8cc6a"},"vehicle_type_id":"4","last_reported":1757963292,"current_range_meters":10800,"station_id":"st_cvj6ca6bvosntc0bfgr0","pricing_plan_id":"cebpf4jnsgd1na2vs0mg"},{"bike_id":"57127154-7e15-4346-89ed-ab9d76ef9c2c","system_id":"levelo_inurba_marseille","lat":43.28838,"lon":5.36326,"is_reserved":false,"is_disabled":false,"rental_uris":{"android":"levelo://app?vid=57127154-7e15-4346-89ed-ab9d76ef9c2c","ios":"levelo://app?vid=57127154-7e15-4346-89ed-ab9d76ef9c2c"},"vehicle_type_id":"4","last_reported":1757963292,"current_range_meters":10800,"station_id":"","pricing_plan_id":"cebpf4jnsgd1na2vs0mg"},{"bike_id":"33708f05-8452-457e-8535-c980c66aa2da","system_id":"levelo_inurba_marseille","lat":43.28488,"lon":5.38444,"is_reserved":false,"is_disabled":false,"rental_uris":{"android":"levelo://app?vid=33708f05-8452-457e-8535-c980c66aa2da","ios":"levelo://app?vid=33708f05-8452-457e-8535-c980c66aa2da"},"vehicle_type_id":"4","last_reported":1757963292,"current_range_meters":11200,"station_id":"ce4bh512rcd13ifvqe3g","pricing_plan_id":"cebpf4jnsgd1na2vs0mg"},{"bike_id":"6f41b7c8-3a33-41c2-8c72-604a7bb1c342","system_id":"levelo_inurba_marseille","lat":43.29595,"lon":5.38102,"is_reserved":false,"is_disabled":false,"rental_uris":{"android":"levelo://app?vid=6f41b7c8-3a33-41c2-8c72-604a7bb1c342","ios":"levelo://app?vid=6f41b7c8-3a33-41c2-8c72-604a7bb1c342"},"vehicle_type_id":"4","last_reported":1757963292,"current_range_meters":11200,"station_id":"ce4bgl12rcd13ifvqbo0","pricing_plan_id":"cebpf4jnsgd1na2vs0mg"},{"bike_id":"d6e655a1-c036-4ce6-940f-e97ea5f08623","system_id":"levelo_inurba_marseille","lat":43.29531,"lon":5.38534,"is_reserved":false,"is_disabled":false,"rental_uris":{"android":"levelo://app?vid=d6e655a1-c036-4ce6-940f-e97ea5f08623","ios":"levelo://app?vid=d6e655a1-c036-4ce6-940f-e97ea5f08623"},"vehicle_type_id":"4","last_reported":1757963292,"current_range_meters":11200,"station_id":"ce4bgih2rcd13ifvqba0","pricing_plan_id":"cebpf4jnsgd1na2vs0mg"},{"bike_id":"57d59613-4dc6-4c5e-8c5d-b63bea4b0045","system_id":"levelo_inurba_marseille","lat":43.32289,"lon":5.38274,"is_reserved":false,"is_disabled":false,"rental_uris":{"android":"levelo://app?vid=57d59613-4dc6-4c5e-8c5d-b63bea4b0045","ios":"levelo://app?vid=57d59613-4dc6-4c5e-8c5d-b63bea4b0045"},"vehicle_type_id":"4","last_reported":1757963292,"current_range_meters":11200,"station_id":"ce4bhr12rcd13ifvqhqg","pricing_plan_id":"cebpf4jnsgd1na2vs0mg"},{"bike_id":"d3b80ee2-f2e6-4f6c-9c2e-96eec40a96af","system_id":"levelo_inurba_marseille","lat":43.29282,"lon":5.40116,"is_reserved":false,"is_disabled":false,"rental_uris":{"android":"levelo://app?vid=d3b80ee2-f2e6-4f6c-9c2e-96eec40a96af","ios":"levelo://app?vid=d3b80ee2-f2e6-4f6c-9c2e-96eec40a96af"},"vehicle_type_id":"4","last_reported":1757963292,"current_range_meters":11200,"station_id":"ce4bh312rcd13ifvqdk0","pricing_plan_id":"cebpf4jnsgd1na2vs0mg"},{"bike_id":"e55ae905-9410-44da-8e6c-dadab4fedc17","system_id":"levelo_inurba_marseille","lat":43.21751,"lon":5.34608,"is_reserved":false,"is_disabled":false,"rental_uris":{"android":"levelo://app?vid=e55ae905-9410-44da-8e6c-dadab4fedc17","ios":"levelo://app?vid=e55ae905-9410-44da-8e6c-dadab4fedc17"},"vehicle_type_id":"4","last_reported":1757963292,"current_range_meters":11200,"station_id":"","pricing_plan_id":"cebpf4jnsgd1na2vs0mg"},{"bike_id":"152d8046-5e55-455a-9ac3-2109c76490e4","system_id":"levelo_inurba_marseille","lat":43.27825,"lon":5.39205,"is_reserved":false,"is_disabled":false,"rental_uris":{"android":"levelo://app?vid=152d8046-5e55-455a-9ac3-2109c76490e4","ios":"levelo://app?vid=152d8046-5e55-455a-9ac3-2109c76490e4"},"vehicle_type_id":"4","last_reported":1757963292,"current_range_meters":11200,"station_id":"ce4bhjp2rcd13ifvqga0","pricing_plan_id":"cebpf4jnsgd1na2vs0mg"},{"bike_id":"61fee8c2-ef83-4008-8386-edd3e36e8b61","system_id":"levelo_inurba_marseille","lat":43.27556,"lon":5.3843,"is_reserved":false,"is_disabled":false,"rental_uris":{"android":"levelo://app?vid=61fee8c2-ef83-4008-8386-edd3e36e8b61","ios":"levelo://app?vid=61fee8c2-ef83-4008-8386-edd3e36e8b61"},"vehicle_type_id":"4","last_reported":1757963292,"current_range_meters":11600,"station_id":"ce4bhh92rcd13ifvqfi0","pricing_plan_id":"cebpf4jnsgd1na2vs0mg"},{"bike_id":"a42eb76d-0870-42ec-9041-5cd4f9a8f261","system_id":"levelo_inurba_marseille","lat":43.29266,"lon":5.38454,"is_reserved":false,"is_disabled":false,"rental_uris":{"android":"levelo://app?vid=a42eb76d-0870-42ec-9041-5cd4f9a8f261","ios":"levelo://app?vid=a42eb76d-0870-42ec-9041-5cd4f9a8f261"},"vehicle_type_id":"4","last_reported":1757963292,"current_range_meters":11600,"station_id":"ce4bh692rcd13ifvqea0","pricing_plan_id":"cebpf4jnsgd1na2vs0mg"},{"bike_id":"0c6fe877-1024-4901-84e8-0fbaefe45584","system_id":"levelo_inurba_marseille","lat":43.334234,"lon":5.400518,"is_reserved":false,"is_disabled":false,"rental_uris":{"android":"levelo://app?vid=0c6fe877-1024-4901-84e8-0fbaefe45584","ios":"levelo://app?vid=0c6fe877-1024-4901-84e8-0fbaefe45584"},"vehicle_type_id":"4","last_reported":1757963292,"current_range_meters":11600,"station_id":"","pricing_plan_id":"cebpf4jnsgd1na2vs0mg"},{"bike_id":"4211b91c-2bff-43d7-94c3-69c38faa9ebd","system_id":"levelo_inurba_marseille","lat":43.29529,"lon":5.3854,"is_reserved":false,"is_disabled":false,"rental_uris":{"android":"levelo://app?vid=4211b91c-2bff-43d7-94c3-69c38faa9ebd","ios":"levelo://app?vid=4211b91c-2bff-43d7-94c3-69c38faa9ebd"},"vehicle_type_id":"4","last_reported":1757963292,"current_range_meters":11600,"station_id":"ce4bgih2rcd13ifvqba0","pricing_plan_id":"cebpf4jnsgd1na2vs0mg"},{"bike_id":"34539d66-9bce-4d1c-8b94-78e2e11c6e1a","system_id":"levelo_inurba_marseille","lat":43.28872,"lon":5.42513,"is_reserved":false,"is_disabled":false,"rental_uris":{"android":"levelo://app?vid=34539d66-9bce-4d1c-8b94-78e2e11c6e1a","ios":"levelo://app?vid=34539d66-9bce-4d1c-8b94-78e2e11c6e1a"},"vehicle_type_id":"4","last_reported":1757963292,"current_range_meters":11600,"station_id":"","pricing_plan_id":"cebpf4jnsgd1na2vs0mg"},{"bike_id":"e124a1b2-b7c2-4237-bfc2-b30c0b1e12fe","system_id":"levelo_inurba_marseille","lat":43.312797,"lon":5.377283,"is_reserved":false,"is_disabled":false,"rental_uris":{"android":"levelo://app?vid=e124a1b2-b7c2-4237-bfc2-b30c0b1e12fe","ios":"levelo://app?vid=e124a1b2-b7c2-4237-bfc2-b30c0b1e12fe"},"vehicle_type_id":"4","last_reported":1757963292,"current_range_meters":11600,"station_id":"","pricing_plan_id":"cebpf4jnsgd1na2vs0mg"},{"bike_id":"537759c2-d65a-4ca0-b5da-c2e0453e4a1a","system_id":"levelo_inurba_marseille","lat":43.28698,"lon":5.351946,"is_reserved":false,"is_disabled":false,"rental_uris":{"android":"levelo://app?vid=537759c2-d65a-4ca0-b5da-c2e0453e4a1a","ios":"levelo://app?vid=537759c2-d65a-4ca0-b5da-c2e0453e4a1a"},"vehicle_type_id":"4","last_reported":1757963292,"current_range_meters":11600,"station_id":"ce4bgj92rcd13ifvqbe0","pricing_plan_id":"cebpf4jnsgd1na2vs0mg"},{"bike_id":"4c4b53a9-faf9-4aaf-8eb4-f1ccbd8fb62b","system_id":"levelo_inurba_marseille","lat":43.24073,"lon":5.37758,"is_reserved":false,"is_disabled":false,"rental_uris":{"android":"levelo://app?vid=4c4b53a9-faf9-4aaf-8eb4-f1ccbd8fb62b","ios":"levelo://app?vid=4c4b53a9-faf9-4aaf-8eb4-f1ccbd8fb62b"},"vehicle_type_id":"4","last_reported":1757963292,"current_range_meters":12000,"station_id":"ce4bhnp2rcd13ifvqgvg","pricing_plan_id":"cebpf4jnsgd1na2vs0mg"},{"bike_id":"c3ac41cb-fbc5-4e4f-b60f-cc7101476351","system_id":"levelo_inurba_marseille","lat":43.28843,"lon":5.39296,"is_reserved":false,"is_disabled":false,"rental_uris":{"android":"levelo://app?vid=c3ac41cb-fbc5-4e4f-b60f-cc7101476351","ios":"levelo://app?vid=c3ac41cb-fbc5-4e4f-b60f-cc7101476351"},"vehicle_type_id":"4","last_reported":1757963292,"current_range_meters":12000,"station_id":"ce4bh2p2rcd13ifvqdi0","pricing_plan_id":"cebpf4jnsgd1na2vs0mg"},{"bike_id":"322c1f5a-85db-4ef6-bcd4-1b5c417c8ee0","system_id":"levelo_inurba_marseille","lat":43.3377,"lon":5.37488,"is_reserved":false,"is_disabled":false,"rental_uris":{"android":"levelo://app?vid=322c1f5a-85db-4ef6-bcd4-1b5c417c8ee0","ios":"levelo://app?vid=322c1f5a-85db-4ef6-bcd4-1b5c417c8ee0"},"vehicle_type_id":"4","last_reported":1757963292,"current_range_meters":12000,"station_id":"","pricing_plan_id":"cebpf4jnsgd1na2vs0mg"},{"bike_id":"35b187e0-0ca0-4af0-85ef-841a14a29dc9","system_id":"levelo_inurba_marseille","lat":43.290994,"lon":5.381532,"is_reserved":false,"is_disabled":false,"rental_uris":{"android":"levelo://app?vid=35b187e0-0ca0-4af0-85ef-841a14a29dc9","ios":"levelo://app?vid=35b187e0-0ca0-4af0-85ef-841a14a29dc9"},"vehicle_type_id":"4","last_reported":1757963292,"current_range_meters":12000,"station_id":"ce4bh512rcd13ifvqe2g","pricing_plan_id":"cebpf4jnsgd1na2vs0mg"},{"bike_id":"41de12a2-5382-4da2-9751-1300a8df4dc1","system_id":"levelo_inurba_marseille","lat":43.22553,"lon":5.41625,"is_reserved":false,"is_disabled":false,"rental_uris":{"android":"levelo://app?vid=41de12a2-5382-4da2-9751-1300a8df4dc1","ios":"levelo://app?vid=41de12a2-5382-4da2-9751-1300a8df4dc1"},"vehicle_type_id":"4","last_reported":1757963292,"current_range_meters":12000,"station_id":"st_d2o4gvlbi1j2169b742g","pricing_plan_id":"cebpf4jnsgd1na2vs0mg"},{"bike_id":"e92ad9e7-e713-4e75-965b-1c057f5eb0a5","system_id":"levelo_inurba_marseille","lat":43.2506,"lon":5.39496,"is_reserved":false,"is_disabled":false,"rental_uris":{"android":"levelo://app?vid=e92ad9e7-e713-4e75-965b-1c057f5eb0a5","ios":"levelo://app?vid=e92ad9e7-e713-4e75-965b-1c057f5eb0a5"},"vehicle_type_id":"4","last_reported":1757963292,"current_range_meters":12000,"station_id":"ce4bhm12rcd13ifvqgkg","pricing_plan_id":"cebpf4jnsgd1na2vs0mg"},{"bike_id":"9b9a922d-210c-4c6a-8645-0204fd81b6ba","system_id":"levelo_inurba_marseille","lat":43.31075,"lon":5.38339,"is_reserved":false,"is_disabled":false,"rental_uris":{"android":"levelo://app?vid=9b9a922d-210c-4c6a-8645-0204fd81b6ba","ios":"levelo://app?vid=9b9a922d-210c-4c6a-8645-0204fd81b6ba"},"vehicle_type_id":"4","last_reported":1757963292,"current_range_meters":12000,"station_id":"ce4bgv92rcd13ifvqcr0","pricing_plan_id":"cebpf4jnsgd1na2vs0mg"},{"bike_id":"fcd53a0e-c604-4542-af6a-9b4b138bb5f3","system_id":"levelo_inurba_marseille","lat":43.25791,"lon":5.39426,"is_reserved":false,"is_disabled":false,"rental_uris":{"android":"levelo://app?vid=fcd53a0e-c604-4542-af6a-9b4b138bb5f3","ios":"levelo://app?vid=fcd53a0e-c604-4542-af6a-9b4b138bb5f3"},"vehicle_type_id":"4","last_reported":1757963292,"current_range_meters":12400,"station_id":"ce4bhip2rcd13ifvqft0","pricing_plan_id":"cebpf4jnsgd1na2vs0mg"},{"bike_id":"758c05a6-3880-4d40-b63e-aa8ae07f3f9f","system_id":"levelo_inurba_marseille","lat":43.27496,"lon":5.4245,"is_reserved":false,"is_disabled":false,"rental_uris":{"android":"levelo://app?vid=758c05a6-3880-4d40-b63e-aa8ae07f3f9f","ios":"levelo://app?vid=758c05a6-3880-4d40-b63e-aa8ae07f3f9f"},"vehicle_type_id":"4","last_reported":1757963292,"current_range_meters":12400,"station_id":"ce4bhn92rcd13ifvqgrg","pricing_plan_id":"cebpf4jnsgd1na2vs0mg"},{"bike_id":"a155e67d-bec0-4326-ae57-c035ef5e1c81","system_id":"levelo_inurba_marseille","lat":43.29896,"lon":5.43681,"is_reserved":false,"is_disabled":false,"rental_uris":{"android":"levelo://app?vid=a155e67d-bec0-4326-ae57-c035ef5e1c81","ios":"levelo://app?vid=a155e67d-bec0-4326-ae57-c035ef5e1c81"},"vehicle_type_id":"4","last_reported":1757963292,"current_range_meters":12400,"station_id":"ce4bhpp2rcd13ifvqhfg","pricing_plan_id":"cebpf4jnsgd1na2vs0mg"},{"bike_id":"f77322c4-9f6a-4521-8807-199c9f5c5791","system_id":"levelo_inurba_marseille","lat":43.29552,"lon":5.42292,"is_reserved":false,"is_disabled":false,"rental_uris":{"android":"levelo://app?vid=f77322c4-9f6a-4521-8807-199c9f5c5791","ios":"levelo://app?vid=f77322c4-9f6a-4521-8807-199c9f5c5791"},"vehicle_type_id":"4","last_reported":1757963292,"current_range_meters":12400,"station_id":"ce4bhph2rcd13ifvqhdg","pricing_plan_id":"cebpf4jnsgd1na2vs0mg"},{"bike_id":"2d60fca3-01a5-4be3-9d60-da61a4bbae09","system_id":"levelo_inurba_marseille","lat":43.28933,"lon":5.36397,"is_reserved":false,"is_disabled":false,"rental_uris":{"android":"levelo://app?vid=2d60fca3-01a5-4be3-9d60-da61a4bbae09","ios":"levelo://app?vid=2d60fca3-01a5-4be3-9d60-da61a4bbae09"},"vehicle_type_id":"4","last_reported":1757963292,"current_range_meters":12400,"station_id":"ce4bhc92rcd13ifvqetg","pricing_plan_id":"cebpf4jnsgd1na2vs0mg"},{"bike_id":"5f01fc17-b497-4414-9966-da77ccda8d19","system_id":"levelo_inurba_marseille","lat":43.23963,"lon":5.36634,"is_reserved":false,"is_disabled":false,"rental_uris":{"android":"levelo://app?vid=5f01fc17-b497-4414-9966-da77ccda8d19","ios":"levelo://app?vid=5f01fc17-b497-4414-9966-da77ccda8d19"},"vehicle_type_id":"4","last_reported":1757963292,"current_range_meters":12400,"station_id":"ce4bhi12rcd13ifvqfp0","pricing_plan_id":"cebpf4jnsgd1na2vs0mg"},{"bike_id":"e9075faf-dee8-4b0d-82f3-7a8a4fa17b93","system_id":"levelo_inurba_marseille","lat":43.2792,"lon":5.39577,"is_reserved":false,"is_disabled":false,"rental_uris":{"android":"levelo://app?vid=e9075faf-dee8-4b0d-82f3-7a8a4fa17b93","ios":"levelo://app?vid=e9075faf-dee8-4b0d-82f3-7a8a4fa17b93"},"vehicle_type_id":"4","last_reported":1757963292,"current_range_meters":12400,"station_id":"ce4bhf92rcd13ifvqf40","pricing_plan_id":"cebpf4jnsgd1na2vs0mg"},{"bike_id":"e9c27457-8848-4957-bd16-06c46eb957db","system_id":"levelo_inurba_marseille","lat":43.29519,"lon":5.39046,"is_reserved":false,"is_disabled":false,"rental_uris":{"android":"levelo://app?vid=e9c27457-8848-4957-bd16-06c46eb957db","ios":"levelo://app?vid=e9c27457-8848-4957-bd16-06c46eb957db"},"vehicle_type_id":"4","last_reported":1757963292,"current_range_meters":12400,"station_id":"ce4bh3p2rcd13ifvqdp0","pricing_plan_id":"cebpf4jnsgd1na2vs0mg"},{"bike_id":"1d17b734-0dd5-4f68-8ce6-6092552b34dd","system_id":"levelo_inurba_marseille","lat":43.29386,"lon":5.39865,"is_reserved":false,"is_disabled":false,"rental_uris":{"android":"levelo://app?vid=1d17b734-0dd5-4f68-8ce6-6092552b34dd","ios":"levelo://app?vid=1d17b734-0dd5-4f68-8ce6-6092552b34dd"},"vehicle_type_id":"4","last_reported":1757963292,"current_range_meters":12400,"station_id":"","pricing_plan_id":"cebpf4jnsgd1na2vs0mg"},{"bike_id":"957b4df0-5015-4802-b5e8-64fc9bdb8c90","system_id":"levelo_inurba_marseille","lat":43.29977,"lon":5.37178,"is_reserved":false,"is_disabled":false,"rental_uris":{"android":"levelo://app?vid=957b4df0-5015-4802-b5e8-64fc9bdb8c90","ios":"levelo://app?vid=957b4df0-5015-4802-b5e8-64fc9bdb8c90"},"vehicle_type_id":"4","last_reported":1757963292,"current_range_meters":12800,"station_id":"ce4bgr92rcd13ifvqc7g","pricing_plan_id":"cebpf4jnsgd1na2vs0mg"},{"bike_id":"3fa092d5-ee65-4b07-94c7-dffc1bcf1180","system_id":"levelo_inurba_marseille","lat":43.29621,"lon":5.37162,"is_reserved":false,"is_disabled":false,"rental_uris":{"android":"levelo://app?vid=3fa092d5-ee65-4b07-94c7-dffc1bcf1180","ios":"levelo://app?vid=3fa092d5-ee65-4b07-94c7-dffc1bcf1180"},"vehicle_type_id":"4","last_reported":1757963292,"current_range_meters":12800,"station_id":"ce4bgnh2rcd13ifvqc0g","pricing_plan_id":"cebpf4jnsgd1na2vs0mg"},{"bike_id":"c32083d7-1b20-47fb-9554-30f9b2a4184b","system_id":"levelo_inurba_marseille","lat":43.21826,"lon":5.3445,"is_reserved":false,"is_disabled":false,"rental_uris":{"android":"levelo://app?vid=c32083d7-1b20-47fb-9554-30f9b2a4184b","ios":"levelo://app?vid=c32083d7-1b20-47fb-9554-30f9b2a4184b"},"vehicle_type_id":"4","last_reported":1757963292,"current_range_meters":12800,"station_id":"","pricing_plan_id":"cebpf4jnsgd1na2vs0mg"},{"bike_id":"0367bd6c-8d86-4dd5-a210-bf4630a201c0","system_id":"levelo_inurba_marseille","lat":43.28709,"lon":5.373705,"is_reserved":false,"is_disabled":false,"rental_uris":{"android":"levelo://app?vid=0367bd6c-8d86-4dd5-a210-bf4630a201c0","ios":"levelo://app?vid=0367bd6c-8d86-4dd5-a210-bf4630a201c0"},"vehicle_type_id":"4","last_reported":1757963292,"current_range_meters":12800,"station_id":"ce4bh3p2rcd13ifvqdq0","pricing_plan_id":"cebpf4jnsgd1na2vs0mg"},{"bike_id":"29041ddf-0527-45b5-a50a-ca3a1df7b291","system_id":"levelo_inurba_marseille","lat":43.28229,"lon":5.39071,"is_reserved":false,"is_disabled":false,"rental_uris":{"android":"levelo://app?vid=29041ddf-0527-45b5-a50a-ca3a1df7b291","ios":"levelo://app?vid=29041ddf-0527-45b5-a50a-ca3a1df7b291"},"vehicle_type_id":"4","last_reported":1757963292,"current_range_meters":12800,"station_id":"ce4bhn92rcd13ifvqgsg","pricing_plan_id":"cebpf4jnsgd1na2vs0mg"},{"bike_id":"fd1a9a6e-8991-46b8-9fb8-93e60a65d693","system_id":"levelo_inurba_marseille","lat":43.29272,"lon":5.38453,"is_reserved":false,"is_disabled":false,"rental_uris":{"android":"levelo://app?vid=fd1a9a6e-8991-46b8-9fb8-93e60a65d693","ios":"levelo://app?vid=fd1a9a6e-8991-46b8-9fb8-93e60a65d693"},"vehicle_type_id":"4","last_reported":1757963292,"current_range_meters":13600,"station_id":"ce4bh692rcd13ifvqea0","pricing_plan_id":"cebpf4jnsgd1na2vs0mg"},{"bike_id":"38d01427-b961-41e3-9eb8-6be9e79688c4","system_id":"levelo_inurba_marseille","lat":43.28942,"lon":5.39624,"is_reserved":false,"is_disabled":false,"rental_uris":{"android":"levelo://app?vid=38d01427-b961-41e3-9eb8-6be9e79688c4","ios":"levelo://app?vid=38d01427-b961-41e3-9eb8-6be9e79688c4"},"vehicle_type_id":"4","last_reported":1757963292,"current_range_meters":13600,"station_id":"ce4bh3h2rcd13ifvqdn0","pricing_plan_id":"cebpf4jnsgd1na2vs0mg"},{"bike_id":"d73ebff0-d957-41dc-a638-29b88edc4926","system_id":"levelo_inurba_marseille","lat":43.22564,"lon":5.41645,"is_reserved":false,"is_disabled":false,"rental_uris":{"android":"levelo://app?vid=d73ebff0-d957-41dc-a638-29b88edc4926","ios":"levelo://app?vid=d73ebff0-d957-41dc-a638-29b88edc4926"},"vehicle_type_id":"4","last_reported":1757963292,"current_range_meters":13600,"station_id":"st_d2o4gvlbi1j2169b742g","pricing_plan_id":"cebpf4jnsgd1na2vs0mg"},{"bike_id":"c2aef48e-087e-485f-beba-4555486558ab","system_id":"levelo_inurba_marseille","lat":43.29524,"lon":5.39049,"is_reserved":false,"is_disabled":false,"rental_uris":{"android":"levelo://app?vid=c2aef48e-087e-485f-beba-4555486558ab","ios":"levelo://app?vid=c2aef48e-087e-485f-beba-4555486558ab"},"vehicle_type_id":"4","last_reported":1757963292,"current_range_meters":13600,"station_id":"ce4bh3p2rcd13ifvqdp0","pricing_plan_id":"cebpf4jnsgd1na2vs0mg"},{"bike_id":"36a5fcf2-302c-41e8-9b80-9bece1700bc3","system_id":"levelo_inurba_marseille","lat":43.31383,"lon":5.38492,"is_reserved":false,"is_disabled":false,"rental_uris":{"android":"levelo://app?vid=36a5fcf2-302c-41e8-9b80-9bece1700bc3","ios":"levelo://app?vid=36a5fcf2-302c-41e8-9b80-9bece1700bc3"},"vehicle_type_id":"4","last_reported":1757963292,"current_range_meters":13600,"station_id":"ce4bgt92rcd13ifvqcf0","pricing_plan_id":"cebpf4jnsgd1na2vs0mg"},{"bike_id":"86fd1ea8-6b8d-41a6-b37d-1e1e15f2b1df","system_id":"levelo_inurba_marseille","lat":43.28846,"lon":5.39301,"is_reserved":false,"is_disabled":false,"rental_uris":{"android":"levelo://app?vid=86fd1ea8-6b8d-41a6-b37d-1e1e15f2b1df","ios":"levelo://app?vid=86fd1ea8-6b8d-41a6-b37d-1e1e15f2b1df"},"vehicle_type_id":"4","last_reported":1757963292,"current_range_meters":13600,"station_id":"ce4bh2p2rcd13ifvqdi0","pricing_plan_id":"cebpf4jnsgd1na2vs0mg"},{"bike_id":"02ba6ddb-d381-495e-834d-85f9ef652a8f","system_id":"levelo_inurba_marseille","lat":43.26583,"lon":5.40305,"is_reserved":false,"is_disabled":false,"rental_uris":{"android":"levelo://app?vid=02ba6ddb-d381-495e-834d-85f9ef652a8f","ios":"levelo://app?vid=02ba6ddb-d381-495e-834d-85f9ef652a8f"},"vehicle_type_id":"4","last_reported":1757963292,"current_range_meters":13600,"station_id":"ce4bhmp2rcd13ifvqgng","pricing_plan_id":"cebpf4jnsgd1na2vs0mg"},{"bike_id":"d217a64c-0bc5-4e48-995c-ed7dac8a5e39","system_id":"levelo_inurba_marseille","lat":43.28103,"lon":5.37828,"is_reserved":false,"is_disabled":false,"rental_uris":{"android":"levelo://app?vid=d217a64c-0bc5-4e48-995c-ed7dac8a5e39","ios":"levelo://app?vid=d217a64c-0bc5-4e48-995c-ed7dac8a5e39"},"vehicle_type_id":"4","last_reported":1757963292,"current_range_meters":14000,"station_id":"ce4bha12rcd13ifvqee0","pricing_plan_id":"cebpf4jnsgd1na2vs0mg"},{"bike_id":"58b2b423-350d-4856-b516-4fc2f60e0e6d","system_id":"levelo_inurba_marseille","lat":43.324807,"lon":5.365707,"is_reserved":false,"is_disabled":false,"rental_uris":{"android":"levelo://app?vid=58b2b423-350d-4856-b516-4fc2f60e0e6d","ios":"levelo://app?vid=58b2b423-350d-4856-b516-4fc2f60e0e6d"},"vehicle_type_id":"4","last_reported":1757963292,"current_range_meters":14000,"station_id":"ce4bhs12rcd13ifvqhvg","pricing_plan_id":"cebpf4jnsgd1na2vs0mg"},{"bike_id":"d1f15977-2dc1-4c82-a942-9df03247a9cc","system_id":"levelo_inurba_marseille","lat":43.29789,"lon":5.39356,"is_reserved":false,"is_disabled":false,"rental_uris":{"android":"levelo://app?vid=d1f15977-2dc1-4c82-a942-9df03247a9cc","ios":"levelo://app?vid=d1f15977-2dc1-4c82-a942-9df03247a9cc"},"vehicle_type_id":"4","last_reported":1757963292,"current_range_meters":14000,"station_id":"chh1huq6cuj3fo74tm60","pricing_plan_id":"cebpf4jnsgd1na2vs0mg"},{"bike_id":"c07e7a2d-d8a6-4efd-8723-e965be4d1a74","system_id":"levelo_inurba_marseille","lat":43.225336,"lon":5.348312,"is_reserved":false,"is_disabled":false,"rental_uris":{"android":"levelo://app?vid=c07e7a2d-d8a6-4efd-8723-e965be4d1a74","ios":"levelo://app?vid=c07e7a2d-d8a6-4efd-8723-e965be4d1a74"},"vehicle_type_id":"4","last_reported":1757963292,"current_range_meters":14000,"station_id":"","pricing_plan_id":"cebpf4jnsgd1na2vs0mg"},{"bike_id":"f07e9528-b55d-4760-8dd1-d97a96368fdd","system_id":"levelo_inurba_marseille","lat":43.28009,"lon":5.36937,"is_reserved":false,"is_disabled":false,"rental_uris":{"android":"levelo://app?vid=f07e9528-b55d-4760-8dd1-d97a96368fdd","ios":"levelo://app?vid=f07e9528-b55d-4760-8dd1-d97a96368fdd"},"vehicle_type_id":"4","last_reported":1757963292,"current_range_meters":14000,"station_id":"ce4bha12rcd13ifvqef0","pricing_plan_id":"cebpf4jnsgd1na2vs0mg"},{"bike_id":"7f89a805-7561-4728-9fb2-47ecaf142e18","system_id":"levelo_inurba_marseille","lat":43.30955,"lon":5.39057,"is_reserved":false,"is_disabled":true,"rental_uris":{"android":"levelo://app?vid=7f89a805-7561-4728-9fb2-47ecaf142e18","ios":"levelo://app?vid=7f89a805-7561-4728-9fb2-47ecaf142e18"},"vehicle_type_id":"4","last_reported":1757963292,"current_range_meters":14000,"station_id":"ce4bgup2rcd13ifvqco0","pricing_plan_id":"cebpf4jnsgd1na2vs0mg"},{"bike_id":"bcbe7a5e-7784-4d13-96dc-77fd6597b4e4","system_id":"levelo_inurba_marseille","lat":43.21189,"lon":5.35092,"is_reserved":false,"is_disabled":true,"rental_uris":{"android":"levelo://app?vid=bcbe7a5e-7784-4d13-96dc-77fd6597b4e4","ios":"levelo://app?vid=bcbe7a5e-7784-4d13-96dc-77fd6597b4e4"},"vehicle_type_id":"4","last_reported":1757963292,"current_range_meters":14000,"station_id":"st_cvj6sg6p6f1abm77japg","pricing_plan_id":"cebpf4jnsgd1na2vs0mg"},{"bike_id":"fcf47c01-165c-4643-96ea-f74982e318a6","system_id":"levelo_inurba_marseille","lat":43.29692,"lon":5.37299,"is_reserved":false,"is_disabled":false,"rental_uris":{"android":"levelo://app?vid=fcf47c01-165c-4643-96ea-f74982e318a6","ios":"levelo://app?vid=fcf47c01-165c-4643-96ea-f74982e318a6"},"vehicle_type_id":"4","last_reported":1757963292,"current_range_meters":14000,"station_id":"ce4bgk12rcd13ifvqbj0","pricing_plan_id":"cebpf4jnsgd1na2vs0mg"},{"bike_id":"1a4e5b29-8fd5-47b7-9279-98892b46bbf7","system_id":"levelo_inurba_marseille","lat":43.2885,"lon":5.39315,"is_reserved":false,"is_disabled":false,"rental_uris":{"android":"levelo://app?vid=1a4e5b29-8fd5-47b7-9279-98892b46bbf7","ios":"levelo://app?vid=1a4e5b29-8fd5-47b7-9279-98892b46bbf7"},"vehicle_type_id":"4","last_reported":1757963292,"current_range_meters":14000,"station_id":"ce4bh2p2rcd13ifvqdi0","pricing_plan_id":"cebpf4jnsgd1na2vs0mg"},{"bike_id":"e824d254-16a6-4ae4-983a-05af083f4c81","system_id":"levelo_inurba_marseille","lat":43.21753,"lon":5.34607,"is_reserved":false,"is_disabled":false,"rental_uris":{"android":"levelo://app?vid=e824d254-16a6-4ae4-983a-05af083f4c81","ios":"levelo://app?vid=e824d254-16a6-4ae4-983a-05af083f4c81"},"vehicle_type_id":"4","last_reported":1757963292,"current_range_meters":14400,"station_id":"","pricing_plan_id":"cebpf4jnsgd1na2vs0mg"},{"bike_id":"3ba7a977-0d1b-4cc3-9186-5f867a878488","system_id":"levelo_inurba_marseille","lat":43.267003,"lon":5.39402,"is_reserved":false,"is_disabled":false,"rental_uris":{"android":"levelo://app?vid=3ba7a977-0d1b-4cc3-9186-5f867a878488","ios":"levelo://app?vid=3ba7a977-0d1b-4cc3-9186-5f867a878488"},"vehicle_type_id":"4","last_reported":1757963292,"current_range_meters":14400,"station_id":"ce4bhlh2rcd13ifvqgig","pricing_plan_id":"cebpf4jnsgd1na2vs0mg"},{"bike_id":"43c4ca8a-fbd2-42fe-80e8-b2059f5a400f","system_id":"levelo_inurba_marseille","lat":43.29532,"lon":5.38535,"is_reserved":false,"is_disabled":false,"rental_uris":{"android":"levelo://app?vid=43c4ca8a-fbd2-42fe-80e8-b2059f5a400f","ios":"levelo://app?vid=43c4ca8a-fbd2-42fe-80e8-b2059f5a400f"},"vehicle_type_id":"4","last_reported":1757963292,"current_range_meters":14400,"station_id":"ce4bgih2rcd13ifvqba0","pricing_plan_id":"cebpf4jnsgd1na2vs0mg"},{"bike_id":"6585813c-59e8-44c6-a6c8-61b66ab8acf4","system_id":"levelo_inurba_marseille","lat":43.2597,"lon":5.39682,"is_reserved":false,"is_disabled":false,"rental_uris":{"android":"levelo://app?vid=6585813c-59e8-44c6-a6c8-61b66ab8acf4","ios":"levelo://app?vid=6585813c-59e8-44c6-a6c8-61b66ab8acf4"},"vehicle_type_id":"4","last_reported":1757963292,"current_range_meters":14400,"station_id":"","pricing_plan_id":"cebpf4jnsgd1na2vs0mg"},{"bike_id":"12c29fa7-7821-41fd-a89e-635064b05a28","system_id":"levelo_inurba_marseille","lat":43.31103,"lon":5.38597,"is_reserved":false,"is_disabled":false,"rental_uris":{"android":"levelo://app?vid=12c29fa7-7821-41fd-a89e-635064b05a28","ios":"levelo://app?vid=12c29fa7-7821-41fd-a89e-635064b05a28"},"vehicle_type_id":"4","last_reported":1757963292,"current_range_meters":14400,"station_id":"","pricing_plan_id":"cebpf4jnsgd1na2vs0mg"},{"bike_id":"fd345931-048d-40e7-ba88-53128d1b78f8","system_id":"levelo_inurba_marseille","lat":43.30786,"lon":5.37642,"is_reserved":false,"is_disabled":false,"rental_uris":{"android":"levelo://app?vid=fd345931-048d-40e7-ba88-53128d1b78f8","ios":"levelo://app?vid=fd345931-048d-40e7-ba88-53128d1b78f8"},"vehicle_type_id":"4","last_reported":1757963292,"current_range_meters":14400,"station_id":"ce4bgv92rcd13ifvqcq0","pricing_plan_id":"cebpf4jnsgd1na2vs0mg"},{"bike_id":"b6d159aa-3dac-45f6-af72-deaa24223e18","system_id":"levelo_inurba_marseille","lat":43.24389,"lon":5.370627,"is_reserved":false,"is_disabled":false,"rental_uris":{"android":"levelo://app?vid=b6d159aa-3dac-45f6-af72-deaa24223e18","ios":"levelo://app?vid=b6d159aa-3dac-45f6-af72-deaa24223e18"},"vehicle_type_id":"4","last_reported":1757963292,"current_range_meters":14800,"station_id":"ce4bhhh2rcd13ifvqfk0","pricing_plan_id":"cebpf4jnsgd1na2vs0mg"},{"bike_id":"8ef8bf7d-8a91-4724-8c2e-ddeef723e28a","system_id":"levelo_inurba_marseille","lat":43.270333,"lon":5.379197,"is_reserved":false,"is_disabled":false,"rental_uris":{"android":"levelo://app?vid=8ef8bf7d-8a91-4724-8c2e-ddeef723e28a","ios":"levelo://app?vid=8ef8bf7d-8a91-4724-8c2e-ddeef723e28a"},"vehicle_type_id":"4","last_reported":1757963292,"current_range_meters":14800,"station_id":"","pricing_plan_id":"cebpf4jnsgd1na2vs0mg"},{"bike_id":"e1a6ff16-6b86-412c-b345-2a7ac14419df","system_id":"levelo_inurba_marseille","lat":43.29271,"lon":5.37632,"is_reserved":false,"is_disabled":false,"rental_uris":{"android":"levelo://app?vid=e1a6ff16-6b86-412c-b345-2a7ac14419df","ios":"levelo://app?vid=e1a6ff16-6b86-412c-b345-2a7ac14419df"},"vehicle_type_id":"4","last_reported":1757963292,"current_range_meters":14800,"station_id":"ce4bgi12rcd13ifvqb80","pricing_plan_id":"cebpf4jnsgd1na2vs0mg"},{"bike_id":"3dbaea07-3afd-403d-8367-7bfa92596a01","system_id":"levelo_inurba_marseille","lat":43.2255,"lon":5.34818,"is_reserved":false,"is_disabled":false,"rental_uris":{"android":"levelo://app?vid=3dbaea07-3afd-403d-8367-7bfa92596a01","ios":"levelo://app?vid=3dbaea07-3afd-403d-8367-7bfa92596a01"},"vehicle_type_id":"4","last_reported":1757963292,"current_range_meters":14800,"station_id":"","pricing_plan_id":"cebpf4jnsgd1na2vs0mg"},{"bike_id":"e29c3876-6c17-420a-b388-08b4cb1d1160","system_id":"levelo_inurba_marseille","lat":43.25107,"lon":5.40332,"is_reserved":false,"is_disabled":false,"rental_uris":{"android":"levelo://app?vid=e29c3876-6c17-420a-b388-08b4cb1d1160","ios":"levelo://app?vid=e29c3876-6c17-420a-b388-08b4cb1d1160"},"vehicle_type_id":"4","last_reported":1757963292,"current_range_meters":14800,"station_id":"ce4bhlh2rcd13ifvqgig","pricing_plan_id":"cebpf4jnsgd1na2vs0mg"},{"bike_id":"f16c9a4d-1d68-453f-8284-3edb047823b1","system_id":"levelo_inurba_marseille","lat":43.29261,"lon":5.38432,"is_reserved":false,"is_disabled":false,"rental_uris":{"android":"levelo://app?vid=f16c9a4d-1d68-453f-8284-3edb047823b1","ios":"levelo://app?vid=f16c9a4d-1d68-453f-8284-3edb047823b1"},"vehicle_type_id":"4","last_reported":1757963292,"current_range_meters":14800,"station_id":"ce4bh692rcd13ifvqea0","pricing_plan_id":"cebpf4jnsgd1na2vs0mg"},{"bike_id":"e21f2ea2-8f84-4603-b6ac-cd1496515039","system_id":"levelo_inurba_marseille","lat":43.29022,"lon":5.38138,"is_reserved":false,"is_disabled":false,"rental_uris":{"android":"levelo://app?vid=e21f2ea2-8f84-4603-b6ac-cd1496515039","ios":"levelo://app?vid=e21f2ea2-8f84-4603-b6ac-cd1496515039"},"vehicle_type_id":"4","last_reported":1757963292,"current_range_meters":14800,"station_id":"ce4bh4p2rcd13ifvqe1g","pricing_plan_id":"cebpf4jnsgd1na2vs0mg"},{"bike_id":"27772ad5-10be-4b1b-8d6e-18eabd0b9d08","system_id":"levelo_inurba_marseille","lat":43.29374,"lon":5.37861,"is_reserved":false,"is_disabled":true,"rental_uris":{"android":"levelo://app?vid=27772ad5-10be-4b1b-8d6e-18eabd0b9d08","ios":"levelo://app?vid=27772ad5-10be-4b1b-8d6e-18eabd0b9d08"},"vehicle_type_id":"4","last_reported":1757963292,"current_range_meters":15200,"station_id":"ce4bgjh2rcd13ifvqbf0","pricing_plan_id":"cebpf4jnsgd1na2vs0mg"},{"bike_id":"4275e268-b94f-4f47-b62b-dcb3f5cc68eb","system_id":"levelo_inurba_marseille","lat":43.28937,"lon":5.36638,"is_reserved":false,"is_disabled":false,"rental_uris":{"android":"levelo://app?vid=4275e268-b94f-4f47-b62b-dcb3f5cc68eb","ios":"levelo://app?vid=4275e268-b94f-4f47-b62b-dcb3f5cc68eb"},"vehicle_type_id":"4","last_reported":1757963292,"current_range_meters":15200,"station_id":"ce4bhap2rcd13ifvqek0","pricing_plan_id":"cebpf4jnsgd1na2vs0mg"},{"bike_id":"b5c6a96d-32ca-433b-afd1-8620159c29a1","system_id":"levelo_inurba_marseille","lat":43.23181,"lon":5.39989,"is_reserved":false,"is_disabled":false,"rental_uris":{"android":"levelo://app?vid=b5c6a96d-32ca-433b-afd1-8620159c29a1","ios":"levelo://app?vid=b5c6a96d-32ca-433b-afd1-8620159c29a1"},"vehicle_type_id":"4","last_reported":1757963292,"current_range_meters":15200,"station_id":"ce4bhn12rcd13ifvqgqg","pricing_plan_id":"cebpf4jnsgd1na2vs0mg"},{"bike_id":"501aeb78-7f84-44eb-92d7-55000136d0a5","system_id":"levelo_inurba_marseille","lat":43.292725,"lon":5.40113,"is_reserved":false,"is_disabled":false,"rental_uris":{"android":"levelo://app?vid=501aeb78-7f84-44eb-92d7-55000136d0a5","ios":"levelo://app?vid=501aeb78-7f84-44eb-92d7-55000136d0a5"},"vehicle_type_id":"4","last_reported":1757963292,"current_range_meters":15200,"station_id":"","pricing_plan_id":"cebpf4jnsgd1na2vs0mg"},{"bike_id":"c6d38dba-9928-44bb-9e89-9c3f1e7c3d54","system_id":"levelo_inurba_marseille","lat":43.28708,"lon":5.37385,"is_reserved":false,"is_disabled":false,"rental_uris":{"android":"levelo://app?vid=c6d38dba-9928-44bb-9e89-9c3f1e7c3d54","ios":"levelo://app?vid=c6d38dba-9928-44bb-9e89-9c3f1e7c3d54"},"vehicle_type_id":"4","last_reported":1757963292,"current_range_meters":15200,"station_id":"ce4bh3p2rcd13ifvqdq0","pricing_plan_id":"cebpf4jnsgd1na2vs0mg"},{"bike_id":"959153e4-8da4-40cd-8ac7-d69af99c8057","system_id":"levelo_inurba_marseille","lat":43.29517,"lon":5.39047,"is_reserved":false,"is_disabled":false,"rental_uris":{"android":"levelo://app?vid=959153e4-8da4-40cd-8ac7-d69af99c8057","ios":"levelo://app?vid=959153e4-8da4-40cd-8ac7-d69af99c8057"},"vehicle_type_id":"4","last_reported":1757963292,"current_range_meters":15200,"station_id":"ce4bh3p2rcd13ifvqdp0","pricing_plan_id":"cebpf4jnsgd1na2vs0mg"},{"bike_id":"990a0390-8c24-4ce5-90d9-b44f3b906a15","system_id":"levelo_inurba_marseille","lat":43.27991,"lon":5.40019,"is_reserved":false,"is_disabled":false,"rental_uris":{"android":"levelo://app?vid=990a0390-8c24-4ce5-90d9-b44f3b906a15","ios":"levelo://app?vid=990a0390-8c24-4ce5-90d9-b44f3b906a15"},"vehicle_type_id":"4","last_reported":1757963292,"current_range_meters":15200,"station_id":"ce4bho92rcd13ifvqh4g","pricing_plan_id":"cebpf4jnsgd1na2vs0mg"},{"bike_id":"96fb9e77-dbc3-4ba6-98da-4602932ba9e4","system_id":"levelo_inurba_marseille","lat":43.29461,"lon":5.38564,"is_reserved":false,"is_disabled":false,"rental_uris":{"android":"levelo://app?vid=96fb9e77-dbc3-4ba6-98da-4602932ba9e4","ios":"levelo://app?vid=96fb9e77-dbc3-4ba6-98da-4602932ba9e4"},"vehicle_type_id":"4","last_reported":1757963292,"current_range_meters":16000,"station_id":"","pricing_plan_id":"cebpf4jnsgd1na2vs0mg"},{"bike_id":"da9d01de-2efe-4dad-a5de-7b46f90390d5","system_id":"levelo_inurba_marseille","lat":43.31889,"lon":5.40734,"is_reserved":false,"is_disabled":false,"rental_uris":{"android":"levelo://app?vid=da9d01de-2efe-4dad-a5de-7b46f90390d5","ios":"levelo://app?vid=da9d01de-2efe-4dad-a5de-7b46f90390d5"},"vehicle_type_id":"4","last_reported":1757963292,"current_range_meters":16000,"station_id":"ce4bhq12rcd13ifvqhig","pricing_plan_id":"cebpf4jnsgd1na2vs0mg"},{"bike_id":"b18b0233-f381-432b-8549-9605484360ac","system_id":"levelo_inurba_marseille","lat":43.30254,"lon":5.40053,"is_reserved":false,"is_disabled":false,"rental_uris":{"android":"levelo://app?vid=b18b0233-f381-432b-8549-9605484360ac","ios":"levelo://app?vid=b18b0233-f381-432b-8549-9605484360ac"},"vehicle_type_id":"4","last_reported":1757963292,"current_range_meters":16000,"station_id":"ce4bgvh2rcd13ifvqcs0","pricing_plan_id":"cebpf4jnsgd1na2vs0mg"},{"bike_id":"3d6df77a-5c36-40bd-8b3f-676f0e22d938","system_id":"levelo_inurba_marseille","lat":43.29586,"lon":5.38105,"is_reserved":false,"is_disabled":false,"rental_uris":{"android":"levelo://app?vid=3d6df77a-5c36-40bd-8b3f-676f0e22d938","ios":"levelo://app?vid=3d6df77a-5c36-40bd-8b3f-676f0e22d938"},"vehicle_type_id":"4","last_reported":1757963292,"current_range_meters":16000,"station_id":"ce4bgl12rcd13ifvqbo0","pricing_plan_id":"cebpf4jnsgd1na2vs0mg"},{"bike_id":"da885065-f0e2-4903-847a-a135839851b4","system_id":"levelo_inurba_marseille","lat":43.28028,"lon":5.36954,"is_reserved":false,"is_disabled":false,"rental_uris":{"android":"levelo://app?vid=da885065-f0e2-4903-847a-a135839851b4","ios":"levelo://app?vid=da885065-f0e2-4903-847a-a135839851b4"},"vehicle_type_id":"4","last_reported":1757963292,"current_range_meters":16000,"station_id":"ce4bha12rcd13ifvqef0","pricing_plan_id":"cebpf4jnsgd1na2vs0mg"},{"bike_id":"d28c30f7-d993-418e-b279-e6e75970549b","system_id":"levelo_inurba_marseille","lat":43.29633,"lon":5.37698,"is_reserved":false,"is_disabled":true,"rental_uris":{"android":"levelo://app?vid=d28c30f7-d993-418e-b279-e6e75970549b","ios":"levelo://app?vid=d28c30f7-d993-418e-b279-e6e75970549b"},"vehicle_type_id":"4","last_reported":1757963292,"current_range_meters":16000,"station_id":"ce4bgi92rcd13ifvqb90","pricing_plan_id":"cebpf4jnsgd1na2vs0mg"},{"bike_id":"67eac3de-01ca-4d90-a03b-e5bf63e50c9c","system_id":"levelo_inurba_marseille","lat":43.295299,"lon":5.37502,"is_reserved":false,"is_disabled":true,"rental_uris":{"android":"levelo://app?vid=67eac3de-01ca-4d90-a03b-e5bf63e50c9c","ios":"levelo://app?vid=67eac3de-01ca-4d90-a03b-e5bf63e50c9c"},"vehicle_type_id":"4","last_reported":1757963292,"current_range_meters":16000,"station_id":"ce4bgkp2rcd13ifvqbmg","pricing_plan_id":"cebpf4jnsgd1na2vs0mg"},{"bike_id":"d79e4472-9d2b-4227-9a35-0cbaff6d9814","system_id":"levelo_inurba_marseille","lat":43.303233,"lon":5.40439,"is_reserved":false,"is_disabled":false,"rental_uris":{"android":"levelo://app?vid=d79e4472-9d2b-4227-9a35-0cbaff6d9814","ios":"levelo://app?vid=d79e4472-9d2b-4227-9a35-0cbaff6d9814"},"vehicle_type_id":"4","last_reported":1757963292,"current_range_meters":16000,"station_id":"ce4bh012rcd13ifvqd10","pricing_plan_id":"cebpf4jnsgd1na2vs0mg"},{"bike_id":"f4e0ee7b-2e0b-4285-8c24-af7f548f39e0","system_id":"levelo_inurba_marseille","lat":43.27822,"lon":5.40705,"is_reserved":false,"is_disabled":false,"rental_uris":{"android":"levelo://app?vid=f4e0ee7b-2e0b-4285-8c24-af7f548f39e0","ios":"levelo://app?vid=f4e0ee7b-2e0b-4285-8c24-af7f548f39e0"},"vehicle_type_id":"4","last_reported":1757963292,"current_range_meters":16000,"station_id":"ce4bhnh2rcd13ifvqgtg","pricing_plan_id":"cebpf4jnsgd1na2vs0mg"},{"bike_id":"9ee20162-9625-453f-af09-3012df7430b4","system_id":"levelo_inurba_marseille","lat":43.29437,"lon":5.38649,"is_reserved":false,"is_disabled":false,"rental_uris":{"android":"levelo://app?vid=9ee20162-9625-453f-af09-3012df7430b4","ios":"levelo://app?vid=9ee20162-9625-453f-af09-3012df7430b4"},"vehicle_type_id":"4","last_reported":1757963292,"current_range_meters":16000,"station_id":"","pricing_plan_id":"cebpf4jnsgd1na2vs0mg"},{"bike_id":"d7121e99-0b4e-4b28-8634-1d3ebbfe92b8","system_id":"levelo_inurba_marseille","lat":43.28849,"lon":5.35849,"is_reserved":false,"is_disabled":false,"rental_uris":{"android":"levelo://app?vid=d7121e99-0b4e-4b28-8634-1d3ebbfe92b8","ios":"levelo://app?vid=d7121e99-0b4e-4b28-8634-1d3ebbfe92b8"},"vehicle_type_id":"4","last_reported":1757963292,"current_range_meters":16000,"station_id":"ce4bhb12rcd13ifvqem0","pricing_plan_id":"cebpf4jnsgd1na2vs0mg"},{"bike_id":"7372bacb-8fae-45d7-a888-ab7ec06d3ac9","system_id":"levelo_inurba_marseille","lat":43.25721,"lon":5.41121,"is_reserved":false,"is_disabled":false,"rental_uris":{"android":"levelo://app?vid=7372bacb-8fae-45d7-a888-ab7ec06d3ac9","ios":"levelo://app?vid=7372bacb-8fae-45d7-a888-ab7ec06d3ac9"},"vehicle_type_id":"4","last_reported":1757963292,"current_range_meters":16400,"station_id":"ce4bhkp2rcd13ifvqgd0","pricing_plan_id":"cebpf4jnsgd1na2vs0mg"},{"bike_id":"dbd145e8-ae09-4562-82a3-cac3f4d215a1","system_id":"levelo_inurba_marseille","lat":43.27544,"lon":5.38528,"is_reserved":false,"is_disabled":false,"rental_uris":{"android":"levelo://app?vid=dbd145e8-ae09-4562-82a3-cac3f4d215a1","ios":"levelo://app?vid=dbd145e8-ae09-4562-82a3-cac3f4d215a1"},"vehicle_type_id":"4","last_reported":1757963292,"current_range_meters":16400,"station_id":"","pricing_plan_id":"cebpf4jnsgd1na2vs0mg"},{"bike_id":"2fc8b5ed-5ba2-4a32-8574-34d78ca40c05","system_id":"levelo_inurba_marseille","lat":43.2841,"lon":5.37521,"is_reserved":false,"is_disabled":false,"rental_uris":{"android":"levelo://app?vid=2fc8b5ed-5ba2-4a32-8574-34d78ca40c05","ios":"levelo://app?vid=2fc8b5ed-5ba2-4a32-8574-34d78ca40c05"},"vehicle_type_id":"4","last_reported":1757963292,"current_range_meters":16400,"station_id":"ce4bh412rcd13ifvqds0","pricing_plan_id":"cebpf4jnsgd1na2vs0mg"},{"bike_id":"7c65f0b5-71cf-489c-9b4f-b727799f88e4","system_id":"levelo_inurba_marseille","lat":43.28273,"lon":5.35063,"is_reserved":false,"is_disabled":false,"rental_uris":{"android":"levelo://app?vid=7c65f0b5-71cf-489c-9b4f-b727799f88e4","ios":"levelo://app?vid=7c65f0b5-71cf-489c-9b4f-b727799f88e4"},"vehicle_type_id":"4","last_reported":1757963292,"current_range_meters":16400,"station_id":"ce4bhbp2rcd13ifvqerg","pricing_plan_id":"cebpf4jnsgd1na2vs0mg"},{"bike_id":"da74e1ea-54d2-4728-8b2f-7f1209e0fe87","system_id":"levelo_inurba_marseille","lat":43.29877,"lon":5.38907,"is_reserved":false,"is_disabled":false,"rental_uris":{"android":"levelo://app?vid=da74e1ea-54d2-4728-8b2f-7f1209e0fe87","ios":"levelo://app?vid=da74e1ea-54d2-4728-8b2f-7f1209e0fe87"},"vehicle_type_id":"4","last_reported":1757963292,"current_range_meters":16400,"station_id":"ce4bh392rcd13ifvqdl0","pricing_plan_id":"cebpf4jnsgd1na2vs0mg"},{"bike_id":"464adc04-db77-4d7a-90db-840374140f74","system_id":"levelo_inurba_marseille","lat":43.29618,"lon":5.37732,"is_reserved":false,"is_disabled":false,"rental_uris":{"android":"levelo://app?vid=464adc04-db77-4d7a-90db-840374140f74","ios":"levelo://app?vid=464adc04-db77-4d7a-90db-840374140f74"},"vehicle_type_id":"4","last_reported":1757963292,"current_range_meters":16400,"station_id":"ce4bgi92rcd13ifvqb90","pricing_plan_id":"cebpf4jnsgd1na2vs0mg"},{"bike_id":"976a0d28-cac1-409e-9c54-686e01b7c2eb","system_id":"levelo_inurba_marseille","lat":43.22569,"lon":5.41619,"is_reserved":false,"is_disabled":false,"rental_uris":{"android":"levelo://app?vid=976a0d28-cac1-409e-9c54-686e01b7c2eb","ios":"levelo://app?vid=976a0d28-cac1-409e-9c54-686e01b7c2eb"},"vehicle_type_id":"4","last_reported":1757963292,"current_range_meters":16400,"station_id":"st_d2o4gvlbi1j2169b742g","pricing_plan_id":"cebpf4jnsgd1na2vs0mg"},{"bike_id":"f8097b96-89eb-4bf3-b8dd-aacec936b736","system_id":"levelo_inurba_marseille","lat":43.23148,"lon":5.43724,"is_reserved":false,"is_disabled":false,"rental_uris":{"android":"levelo://app?vid=f8097b96-89eb-4bf3-b8dd-aacec936b736","ios":"levelo://app?vid=f8097b96-89eb-4bf3-b8dd-aacec936b736"},"vehicle_type_id":"4","last_reported":1757963292,"current_range_meters":16400,"station_id":"ce4bhmp2rcd13ifvqgog","pricing_plan_id":"cebpf4jnsgd1na2vs0mg"},{"bike_id":"7e1ed37f-5743-4ec2-b256-4fc01e50719e","system_id":"levelo_inurba_marseille","lat":43.29046,"lon":5.37572,"is_reserved":false,"is_disabled":false,"rental_uris":{"android":"levelo://app?vid=7e1ed37f-5743-4ec2-b256-4fc01e50719e","ios":"levelo://app?vid=7e1ed37f-5743-4ec2-b256-4fc01e50719e"},"vehicle_type_id":"4","last_reported":1757963292,"current_range_meters":16400,"station_id":"ce4bh692rcd13ifvqe90","pricing_plan_id":"cebpf4jnsgd1na2vs0mg"},{"bike_id":"df3852e9-daa2-4950-9e2c-b6695bc589cd","system_id":"levelo_inurba_marseille","lat":43.27495,"lon":5.42455,"is_reserved":false,"is_disabled":false,"rental_uris":{"android":"levelo://app?vid=df3852e9-daa2-4950-9e2c-b6695bc589cd","ios":"levelo://app?vid=df3852e9-daa2-4950-9e2c-b6695bc589cd"},"vehicle_type_id":"4","last_reported":1757963292,"current_range_meters":16800,"station_id":"ce4bhn92rcd13ifvqgrg","pricing_plan_id":"cebpf4jnsgd1na2vs0mg"},{"bike_id":"2acd2dbe-544f-41f0-a534-5b82d4d6d647","system_id":"levelo_inurba_marseille","lat":43.317,"lon":5.40456,"is_reserved":false,"is_disabled":false,"rental_uris":{"android":"levelo://app?vid=2acd2dbe-544f-41f0-a534-5b82d4d6d647","ios":"levelo://app?vid=2acd2dbe-544f-41f0-a534-5b82d4d6d647"},"vehicle_type_id":"4","last_reported":1757963292,"current_range_meters":16800,"station_id":"ce4bh012rcd13ifvqd00","pricing_plan_id":"cebpf4jnsgd1na2vs0mg"},