{"last_updated":1723374379,"ttl":30,"version":"2.2","data":{"bikes":[{"bike_id":"76829401-ccfe-4f50-8112-7303ef77ce8d","system_id":"levelo_inurba_marseille","lat":43.31341,"lon":5.367098,"is_reserved":false,"is_disabled":false,"rental_uris":{"android":"levelo://app?vid=76829401-ccfe-4f50-8112-7303ef77ce8d","ios":"levelo://app?vid=76829401-ccfe-4f50-8112-7303ef77ce8d"},"vehicle_type_id":"4","last_reported":1723374379,"current_range_meters":31200,"station_id":"ce4bgr92rcd13ifvqc6g","pricing_plan_id":"cebpf4jnsgd1na2vs0mg"},{"bike_id":"4000ebdd-e072-462f-b914-9ce4605aa750","system_id":"levelo_inurba_marseille","lat":43.313391,"lon":5.36706,"is_reserved":false,"is_disabled":false,"rental_uris":{"android":"levelo://app?vid=4000ebdd-e072-462f-b914-9ce4605aa750","ios":"levelo://app?vid=4000ebdd-e072-462f-b914-9ce4605aa750"},"vehicle_type_id":"4","last_reported":1723374379,"current_range_meters":27200,"station_id":"ce4bgr92rcd13ifvqc6g","pricing_plan_id":"cebpf4jnsgd1na2vs0mg"},{"bike_id":"cd68576e-709a-4ad1-b8de-48a7c2d23086","system_id":"levelo_inurba_marseille","lat":43.312239,"lon":5.368562,"is_reserved":false,"is_disabled":false,"rental_uris":{"android":"levelo://app?vid=cd68576e-709a-4ad1-b8de-48a7c2d23086","ios":"levelo://app?vid=cd68576e-709a-4ad1-b8de-48a7c2d23086"},"vehicle_type_id":"4","last_reported":1723374379,"current_range_meters":4800,"station_id":"ce4bgl92rcd13ifvqbq0","pricing_plan_id":"cebpf4jnsgd1na2vs0mg"},{"bike_id":"b408947b-89fc-47d6-8c4b-3432318aab29","system_id":"levelo_inurba_marseille","lat":43.312239,"lon":5.368562,"is_reserved":false,"is_disabled":false,"rental_uris":{"android":"levelo://app?vid=b408947b-89fc-47d6-8c4b-3432318aab29","ios":"levelo://app?vid=b408947b-89fc-47d6-8c4b-3432318aab29"},"vehicle_type_id":"4","last_reported":1723374379,"current_range_meters":26800,"station_id":"ce4bgl92rcd13ifvqbq0","pricing_plan_id":"cebpf4jnsgd1na2vs0mg"},{"bike_id":"03c6a7d5-b6f1-4131-a862-a3b5279a3ae4","system_id":"levelo_inurba_marseille","lat":43.312239,"lon":5.368562,"is_reserved":false,"is_disabled":false,"rental_uris":{"android":"levelo://app?vid=03c6a7d5-b6f1-4131-a862-a3b5279a3ae4","ios":"levelo://app?vid=03c6a7d5-b6f1-4131-a862-a3b5279a3ae4"},"vehicle_type_id":"4","last_reported":1723374379,"current_range_meters":14000,"station_id":"ce4bgl92rcd13ifvqbq0","pricing_plan_id":"cebpf4jnsgd1na2vs0mg"},{"bike_id":"f8ff27b6-5222-4939-a2bc-ba48493d794c","system_id":"levelo_inurba_marseille","lat":43.312239,"lon":5.368562,"is_reserved":false,"is_disabled":false,"rental_uris":{"android":"levelo://app?vid=f8ff27b6-5222-4939-a2bc-ba48493d794c","ios":"levelo://app?vid=f8ff27b6-5222-4939-a2bc-ba48493d794c"},"vehicle_type_id":"4","last_reported":1723374379,"current_range_meters":800,"station_id":"ce4bgl92rcd13ifvqbq0","pricing_plan_id":"cebpf4jnsgd1na2vs0mg"},{"bike_id":"de74bec8-6eaa-461a-8eeb-4cd4e6f9475c","system_id":"levelo_inurba_marseille","lat":43.314811,"lon":5.373103,"is_reserved":false,"is_disabled":false,"rental_uris":{"android":"levelo://app?vid=de74bec8-6eaa-461a-8eeb-4cd4e6f9475c","ios":"levelo://app?vid=de74bec8-6eaa-461a-8eeb-4cd4e6f9475c"},"vehicle_type_id":"4","last_reported":1723374379,"current_range_meters":30000,"station_id":"ce4bgt12rcd13ifvqcd0","pricing_plan_id":"cebpf4jnsgd1na2vs0mg"},{"bike_id":"fb5a6ba0-1a3f-4ff6-bd2f-8b00ca3a4fa4","system_id":"levelo_inurba_marseille","lat":43.314811,"lon":5.373104,"is_reserved":false,"is_disabled":false,"rental_uris":{"android":"levelo://app?vid=fb5a6ba0-1a3f-4ff6-bd2f-8b00ca3a4fa4","ios":"levelo://app?vid=fb5a6ba0-1a3f-4ff6-bd2f-8b00ca3a4fa4"},"vehicle_type_id":"4","last_reported":1723374379,"current_range_meters":22000,"station_id":"ce4bgt12rcd13ifvqcd0","pricing_plan_id":"cebpf4jnsgd1na2vs0mg"},{"bike_id":"547d0bfb-ad4e-48d5-a802-bc3be03e7e09","system_id":"levelo_inurba_marseille","lat":43.314811,"lon":5.373103,"is_reserved":false,"is_disabled":false,"rental_uris":{"android":"levelo://app?vid=547d0bfb-ad4e-48d5-a802-bc3be03e7e09","ios":"levelo://app?vid=547d0bfb-ad4e-48d5-a802-bc3be03e7e09"},"vehicle_type_id":"4","last_reported":1723374379,"current_range_meters":6800,"station_id":"ce4bgt12rcd13ifvqcd0","pricing_plan_id":"cebpf4jnsgd1na2vs0mg"},{"bike_id":"89405c28-2139-477c-80e1-21ccc40c75fb","system_id":"levelo_inurba_marseille","lat":43.314811,"lon":5.373103,"is_reserved":false,"is_disabled":false,"rental_uris":{"android":"levelo://app?vid=89405c28-2139-477c-80e1-21ccc40c75fb","ios":"levelo://app?vid=89405c28-2139-477c-80e1-21ccc40c75fb"},"vehicle_type_id":"4","last_reported":1723374379,"current_range_meters":25600,"station_id":"ce4bgt12rcd13ifvqcd0","pricing_plan_id":"cebpf4jnsgd1na2vs0mg"},{"bike_id":"0a0d1504-0816-45d1-a14b-7aedf3610e22","system_id":"levelo_inurba_marseille","lat":43.3145,"lon":5.37374,"is_reserved":false,"is_disabled":false,"rental_uris":{"android":"levelo://app?vid=0a0d1504-0816-45d1-a14b-7aedf3610e22","ios":"levelo://app?vid=0a0d1504-0816-45d1-a14b-7aedf3610e22"},"vehicle_type_id":"4","last_reported":1723374379,"current_range_meters":6800,"station_id":"","pricing_plan_id":"cebpf4jnsgd1na2vs0mg"},{"bike_id":"19a0e599-2846-4148-a7fa-6b83d70d0ab4","system_id":"levelo_inurba_marseille","lat":43.308889,"lon":5.371941,"is_reserved":false,"is_disabled":false,"rental_uris":{"android":"levelo://app?vid=19a0e599-2846-4148-a7fa-6b83d70d0ab4","ios":"levelo://app?vid=19a0e599-2846-4148-a7fa-6b83d70d0ab4"},"vehicle_type_id":"4","last_reported":1723374379,"current_range_meters":0,"station_id":"ce4bguh2rcd13ifvqckg","pricing_plan_id":"cebpf4jnsgd1na2vs0mg"},{"bike_id":"07e3278a-2c8f-41d8-9170-363c8b27d30a","system_id":"levelo_inurba_marseille","lat":43.314476,"lon":5.373872,"is_reserved":false,"is_disabled":false,"rental_uris":{"android":"levelo://app?vid=07e3278a-2c8f-41d8-9170-363c8b27d30a","ios":"levelo://app?vid=07e3278a-2c8f-41d8-9170-363c8b27d30a"},"vehicle_type_id":"4","last_reported":1723374379,"current_range_meters":8800,"station_id":"","pricing_plan_id":"cebpf4jnsgd1na2vs0mg"},{"bike_id":"d1847e5f-f879-41a7-80cb-6ec90763e3fe","system_id":"levelo_inurba_marseille","lat":43.30537,"lon":5.367345,"is_reserved":false,"is_disabled":false,"rental_uris":{"android":"levelo://app?vid=d1847e5f-f879-41a7-80cb-6ec90763e3fe","ios":"levelo://app?vid=d1847e5f-f879-41a7-80cb-6ec90763e3fe"},"vehicle_type_id":"4","last_reported":1723374379,"current_range_meters":27200,"station_id":"ce4bgrp2rcd13ifvqc9g","pricing_plan_id":"cebpf4jnsgd1na2vs0mg"},{"bike_id":"2a6a35df-23a3-44e5-929f-267a9bbff0db","system_id":"levelo_inurba_marseille","lat":43.305714,"lon":5.365633,"is_reserved":false,"is_disabled":false,"rental_uris":{"android":"levelo://app?vid=2a6a35df-23a3-44e5-929f-267a9bbff0db","ios":"levelo://app?vid=2a6a35df-23a3-44e5-929f-267a9bbff0db"},"vehicle_type_id":"4","last_reported":1723374379,"current_range_meters":30000,"station_id":"ce4bgs12rcd13ifvqcag","pricing_plan_id":"cebpf4jnsgd1na2vs0mg"},{"bike_id":"4dfb0603-cd61-42c3-bbc4-4f884bf12d0c","system_id":"levelo_inurba_marseille","lat":43.305368,"lon":5.367343,"is_reserved":false,"is_disabled":false,"rental_uris":{"android":"levelo://app?vid=4dfb0603-cd61-42c3-bbc4-4f884bf12d0c","ios":"levelo://app?vid=4dfb0603-cd61-42c3-bbc4-4f884bf12d0c"},"vehicle_type_id":"4","last_reported":1723374379,"current_range_meters":8400,"station_id":"ce4bgrp2rcd13ifvqc9g","pricing_plan_id":"cebpf4jnsgd1na2vs0mg"},{"bike_id":"0f8e45be-fe73-4576-8438-a1c13fd9a7ad","system_id":"levelo_inurba_marseille","lat":43.305368,"lon":5.367343,"is_reserved":false,"is_disabled":false,"rental_uris":{"android":"levelo://app?vid=0f8e45be-fe73-4576-8438-a1c13fd9a7ad","ios":"levelo://app?vid=0f8e45be-fe73-4576-8438-a1c13fd9a7ad"},"vehicle_type_id":"4","last_reported":1723374379,"current_range_meters":24000,"station_id":"ce4bgrp2rcd13ifvqc9g","pricing_plan_id":"cebpf4jnsgd1na2vs0mg"},{"bike_id":"1cef8994-0143-41d9-91f3-d9a48e87fda5","system_id":"levelo_inurba_marseille","lat":43.305706,"lon":5.365654,"is_reserved":false,"is_disabled":false,"rental_uris":{"android":"levelo://app?vid=1cef8994-0143-41d9-91f3-d9a48e87fda5","ios":"levelo://app?vid=1cef8994-0143-41d9-91f3-d9a48e87fda5"},"vehicle_type_id":"4","last_reported":1723374379,"current_range_meters":16400,"station_id":"ce4bgs12rcd13ifvqcag","pricing_plan_id":"cebpf4jnsgd1na2vs0mg"},{"bike_id":"5cb46932-c688-4561-8b18-f3b68fc20f8e","system_id":"levelo_inurba_marseille","lat":43.305706,"lon":5.365654,"is_reserved":false,"is_disabled":false,"rental_uris":{"android":"levelo://app?vid=5cb46932-c688-4561-8b18-f3b68fc20f8e","ios":"levelo://app?vid=5cb46932-c688-4561-8b18-f3b68fc20f8e"},"vehicle_type_id":"4","last_reported":1723374379,"current_range_meters":27600,"station_id":"ce4bgs12rcd13ifvqcag","pricing_plan_id":"cebpf4jnsgd1na2vs0mg"},{"bike_id":"6d95c4b0-a7c8-4076-9904-8bf5925ca8ea","system_id":"levelo_inurba_marseille","lat":43.305706,"lon":5.365654,"is_reserved":false,"is_disabled":false,"rental_uris":{"android":"levelo://app?vid=6d95c4b0-a7c8-4076-9904-8bf5925ca8ea","ios":"levelo://app?vid=6d95c4b0-a7c8-4076-9904-8bf5925ca8ea"},"vehicle_type_id":"4","last_reported":1723374379,"current_range_meters":21600,"station_id":"ce4bgs12rcd13ifvqcag","pricing_plan_id":"cebpf4jnsgd1na2vs0mg"},{"bike_id":"bf0820d8-87da-4fa4-816b-c8f25a808c2c","system_id":"levelo_inurba_marseille","lat":43.305706,"lon":5.365654,"is_reserved":false,"is_disabled":false,"rental_uris":{"android":"levelo://app?vid=bf0820d8-87da-4fa4-816b-c8f25a808c2c","ios":"levelo://app?vid=bf0820d8-87da-4fa4-816b-c8f25a808c2c"},"vehicle_type_id":"4","last_reported":1723374379,"current_range_meters":16400,"station_id":"ce4bgs12rcd13ifvqcag","pricing_plan_id":"cebpf4jnsgd1na2vs0mg"},{"bike_id":"e4fbb306-8e6a-4919-ae66-9ca4489eaa61","system_id":"levelo_inurba_marseille","lat":43.305706,"lon":5.365654,"is_reserved":false,"is_disabled":false,"rental_uris":{"android":"levelo://app?vid=e4fbb306-8e6a-4919-ae66-9ca4489eaa61","ios":"levelo://app?vid=e4fbb306-8e6a-4919-ae66-9ca4489eaa61"},"vehicle_type_id":"4","last_reported":1723374379,"current_range_meters":18000,"station_id":"ce4bgs12rcd13ifvqcag","pricing_plan_id":"cebpf4jnsgd1na2vs0mg"},{"bike_id":"91afd995-6bec-49ae-813d-9fe407806ae8","system_id":"levelo_inurba_marseille","lat":43.305368,"lon":5.367343,"is_reserved":false,"is_disabled":false,"rental_uris":{"android":"levelo://app?vid=91afd995-6bec-49ae-813d-9fe407806ae8","ios":"levelo://app?vid=91afd995-6bec-49ae-813d-9fe407806ae8"},"vehicle_type_id":"4","last_reported":1723374379,"current_range_meters":7200,"station_id":"ce4bgrp2rcd13ifvqc9g","pricing_plan_id":"cebpf4jnsgd1na2vs0mg"},{"bike_id":"0e83acb6-22c1-437a-a816-ccd3ab31219d","system_id":"levelo_inurba_marseille","lat":43.305706,"lon":5.365654,"is_reserved":false,"is_disabled":false,"rental_uris":{"android":"levelo://app?vid=0e83acb6-22c1-437a-a816-ccd3ab31219d","ios":"levelo://app?vid=0e83acb6-22c1-437a-a816-ccd3ab31219d"},"vehicle_type_id":"4","last_reported":1723374379,"current_range_meters":31600,"station_id":"ce4bgs12rcd13ifvqcag","pricing_plan_id":"cebpf4jnsgd1na2vs0mg"},{"bike_id":"0b77984d-2fab-4489-b884-ceb543f1cd85","system_id":"levelo_inurba_marseille","lat":43.305368,"lon":5.367343,"is_reserved":false,"is_disabled":false,"rental_uris":{"android":"levelo://app?vid=0b77984d-2fab-4489-b884-ceb543f1cd85","ios":"levelo://app?vid=0b77984d-2fab-4489-b884-ceb543f1cd85"},"vehicle_type_id":"4","last_reported":1723374379,"current_range_meters":11600,"station_id":"ce4bgrp2rcd13ifvqc9g","pricing_plan_id":"cebpf4jnsgd1na2vs0mg"},{"bike_id":"b62b34e4-9656-4ce9-9e10-09484d0fae89","system_id":"levelo_inurba_marseille","lat":43.305989,"lon":5.37225,"is_reserved":false,"is_disabled":false,"rental_uris":{"android":"levelo://app?vid=b62b34e4-9656-4ce9-9e10-09484d0fae89","ios":"levelo://app?vid=b62b34e4-9656-4ce9-9e10-09484d0fae89"},"vehicle_type_id":"4","last_reported":1723374379,"current_range_meters":24000,"station_id":"ce4bgqh2rcd13ifvqc4g","pricing_plan_id":"cebpf4jnsgd1na2vs0mg"},{"bike_id":"7e6f5b12-e8ee-4be7-ac23-b4b4ce4454fd","system_id":"levelo_inurba_marseille","lat":43.305989,"lon":5.37225,"is_reserved":false,"is_disabled":false,"rental_uris":{"android":"levelo://app?vid=7e6f5b12-e8ee-4be7-ac23-b4b4ce4454fd","ios":"levelo://app?vid=7e6f5b12-e8ee-4be7-ac23-b4b4ce4454fd"},"vehicle_type_id":"4","last_reported":1723374379,"current_range_meters":16400,"station_id":"ce4bgqh2rcd13ifvqc4g","pricing_plan_id":"cebpf4jnsgd1na2vs0mg"},{"bike_id":"19331735-f3fb-4c28-b917-277f9dcd269e","system_id":"levelo_inurba_marseille","lat":43.305989,"lon":5.37225,"is_reserved":false,"is_disabled":false,"rental_uris":{"android":"levelo://app?vid=19331735-f3fb-4c28-b917-277f9dcd269e","ios":"levelo://app?vid=19331735-f3fb-4c28-b917-277f9dcd269e"},"vehicle_type_id":"4","last_reported":1723374379,"current_range_meters":26000,"station_id":"ce4bgqh2rcd13ifvqc4g","pricing_plan_id":"cebpf4jnsgd1na2vs0mg"},{"bike_id":"c3d754a4-1944-4b03-9392-a12e1e920186","system_id":"levelo_inurba_marseille","lat":43.305989,"lon":5.37225,"is_reserved":false,"is_disabled":false,"rental_uris":{"android":"levelo://app?vid=c3d754a4-1944-4b03-9392-a12e1e920186","ios":"levelo://app?vid=c3d754a4-1944-4b03-9392-a12e1e920186"},"vehicle_type_id":"4","last_reported":1723374379,"current_range_meters":18000,"station_id":"ce4bgqh2rcd13ifvqc4g","pricing_plan_id":"cebpf4jnsgd1na2vs0mg"},{"bike_id":"5437b173-b32b-40c7-a9fa-0f16503c7f1d","system_id":"levelo_inurba_marseille","lat":43.307945,"lon":5.376487,"is_reserved":false,"is_disabled":false,"rental_uris":{"android":"levelo://app?vid=5437b173-b32b-40c7-a9fa-0f16503c7f1d","ios":"levelo://app?vid=5437b173-b32b-40c7-a9fa-0f16503c7f1d"},"vehicle_type_id":"4","last_reported":1723374379,"current_range_meters":21600,"station_id":"ce4bgv92rcd13ifvqcq0","pricing_plan_id":"cebpf4jnsgd1na2vs0mg"},{"bike_id":"780f62e7-5f50-44ac-8230-622d28cb1849","system_id":"levelo_inurba_marseille","lat":43.307945,"lon":5.376487,"is_reserved":false,"is_disabled":false,"rental_uris":{"android":"levelo://app?vid=780f62e7-5f50-44ac-8230-622d28cb1849","ios":"levelo://app?vid=780f62e7-5f50-44ac-8230-622d28cb1849"},"vehicle_type_id":"4","last_reported":1723374379,"current_range_meters":31200,"station_id":"ce4bgv92rcd13ifvqcq0","pricing_plan_id":"cebpf4jnsgd1na2vs0mg"},{"bike_id":"f0427ece-42a1-479c-95f3-63e91234fed4","system_id":"levelo_inurba_marseille","lat":43.31247,"lon":5.37996,"is_reserved":false,"is_disabled":false,"rental_uris":{"android":"levelo://app?vid=f0427ece-42a1-479c-95f3-63e91234fed4","ios":"levelo://app?vid=f0427ece-42a1-479c-95f3-63e91234fed4"},"vehicle_type_id":"4","last_reported":1723374379,"current_range_meters":14000,"station_id":"","pricing_plan_id":"cebpf4jnsgd1na2vs0mg"},{"bike_id":"053211df-5f25-467c-a353-e185dd168684","system_id":"levelo_inurba_marseille","lat":43.30304,"lon":5.368987,"is_reserved":false,"is_disabled":false,"rental_uris":{"android":"levelo://app?vid=053211df-5f25-467c-a353-e185dd168684","ios":"levelo://app?vid=053211df-5f25-467c-a353-e185dd168684"},"vehicle_type_id":"4","last_reported":1723374379,"current_range_meters":28000,"station_id":"ce4bgqh2rcd13ifvqc5g","pricing_plan_id":"cebpf4jnsgd1na2vs0mg"},{"bike_id":"af4c1ccd-17c0-4ef7-ae8b-b1f64179b6e2","system_id":"levelo_inurba_marseille","lat":43.30304,"lon":5.368987,"is_reserved":false,"is_disabled":false,"rental_uris":{"android":"levelo://app?vid=af4c1ccd-17c0-4ef7-ae8b-b1f64179b6e2","ios":"levelo://app?vid=af4c1ccd-17c0-4ef7-ae8b-b1f64179b6e2"},"vehicle_type_id":"4","last_reported":1723374379,"current_range_meters":28400,"station_id":"ce4bgqh2rcd13ifvqc5g","pricing_plan_id":"cebpf4jnsgd1na2vs0mg"},{"bike_id":"f841fe34-1760-442e-8b1d-fc1fda798cc9","system_id":"levelo_inurba_marseille","lat":43.301939,"lon":5.366286,"is_reserved":false,"is_disabled":false,"rental_uris":{"android":"levelo://app?vid=f841fe34-1760-442e-8b1d-fc1fda798cc9","ios":"levelo://app?vid=f841fe34-1760-442e-8b1d-fc1fda798cc9"},"vehicle_type_id":"4","last_reported":1723374379,"current_range_meters":25200,"station_id":"ce4bgrh2rcd13ifvqc8g","pricing_plan_id":"cebpf4jnsgd1na2vs0mg"},{"bike_id":"4d7a91ca-2146-48f4-86f0-d1eef1b36937","system_id":"levelo_inurba_marseille","lat":43.301939,"lon":5.366286,"is_reserved":false,"is_disabled":false,"rental_uris":{"android":"levelo://app?vid=4d7a91ca-2146-48f4-86f0-d1eef1b36937","ios":"levelo://app?vid=4d7a91ca-2146-48f4-86f0-d1eef1b36937"},"vehicle_type_id":"4","last_reported":1723374379,"current_range_meters":21600,"station_id":"ce4bgrh2rcd13ifvqc8g","pricing_plan_id":"cebpf4jnsgd1na2vs0mg"},{"bike_id":"7095b520-d860-4dbe-a377-b7c18daa057a","system_id":"levelo_inurba_marseille","lat":43.301939,"lon":5.366286,"is_reserved":false,"is_disabled":false,"rental_uris":{"android":"levelo://app?vid=7095b520-d860-4dbe-a377-b7c18daa057a","ios":"levelo://app?vid=7095b520-d860-4dbe-a377-b7c18daa057a"},"vehicle_type_id":"4","last_reported":1723374379,"current_range_meters":8400,"station_id":"ce4bgrh2rcd13ifvqc8g","pricing_plan_id":"cebpf4jnsgd1na2vs0mg"},{"bike_id":"05d8a436-3164-4415-a27f-523880bef8d7","system_id":"levelo_inurba_marseille","lat":43.301939,"lon":5.366286,"is_reserved":false,"is_disabled":false,"rental_uris":{"android":"levelo://app?vid=05d8a436-3164-4415-a27f-523880bef8d7","ios":"levelo://app?vid=05d8a436-3164-4415-a27f-523880bef8d7"},"vehicle_type_id":"4","last_reported":1723374379,"current_range_meters":12800,"station_id":"ce4bgrh2rcd13ifvqc8g","pricing_plan_id":"cebpf4jnsgd1na2vs0mg"},{"bike_id":"44778564-4075-4345-be0b-7296e0140359","system_id":"levelo_inurba_marseille","lat":43.308012,"lon":5.381511,"is_reserved":false,"is_disabled":false,"rental_uris":{"android":"levelo://app?vid=44778564-4075-4345-be0b-7296e0140359","ios":"levelo://app?vid=44778564-4075-4345-be0b-7296e0140359"},"vehicle_type_id":"4","last_reported":1723374379,"current_range_meters":30800,"station_id":"ce4bgt12rcd13ifvqce0","pricing_plan_id":"cebpf4jnsgd1na2vs0mg"},{"bike_id":"6d5c5b9d-7776-4960-aa97-878df0fcb238","system_id":"levelo_inurba_marseille","lat":43.308077,"lon":5.38166,"is_reserved":false,"is_disabled":false,"rental_uris":{"android":"levelo://app?vid=6d5c5b9d-7776-4960-aa97-878df0fcb238","ios":"levelo://app?vid=6d5c5b9d-7776-4960-aa97-878df0fcb238"},"vehicle_type_id":"4","last_reported":1723374379,"current_range_meters":0,"station_id":"ce4bgt12rcd13ifvqce0","pricing_plan_id":"cebpf4jnsgd1na2vs0mg"},{"bike_id":"64d5d62f-c293-4af2-9a58-59d0c7a56ef7","system_id":"levelo_inurba_marseille","lat":43.30483,"lon":5.379063,"is_reserved":false,"is_disabled":false,"rental_uris":{"android":"levelo://app?vid=64d5d62f-c293-4af2-9a58-59d0c7a56ef7","ios":"levelo://app?vid=64d5d62f-c293-4af2-9a58-59d0c7a56ef7"},"vehicle_type_id":"4","last_reported":1723374379,"current_range_meters":22800,"station_id":"ce4bgup2rcd13ifvqcn0","pricing_plan_id":"cebpf4jnsgd1na2vs0mg"},{"bike_id":"fb031a4c-6f50-41fc-b0c3-b680dcd1e526","system_id":"levelo_inurba_marseille","lat":43.304606,"lon":5.379026,"is_reserved":false,"is_disabled":false,"rental_uris":{"android":"levelo://app?vid=fb031a4c-6f50-41fc-b0c3-b680dcd1e526","ios":"levelo://app?vid=fb031a4c-6f50-41fc-b0c3-b680dcd1e526"},"vehicle_type_id":"4","last_reported":1723374379,"current_range_meters":29200,"station_id":"ce4bgup2rcd13ifvqcn0","pricing_plan_id":"cebpf4jnsgd1na2vs0mg"},{"bike_id":"3d5fe44a-77c4-47fd-a4a3-aaf894215436","system_id":"levelo_inurba_marseille","lat":43.304606,"lon":5.379026,"is_reserved":false,"is_disabled":false,"rental_uris":{"android":"levelo://app?vid=3d5fe44a-77c4-47fd-a4a3-aaf894215436","ios":"levelo://app?vid=3d5fe44a-77c4-47fd-a4a3-aaf894215436"},"vehicle_type_id":"4","last_reported":1723374379,"current_range_meters":22400,"station_id":"ce4bgup2rcd13ifvqcn0","pricing_plan_id":"cebpf4jnsgd1na2vs0mg"},{"bike_id":"50b75305-d812-4c9e-8b39-931653745a74","system_id":"levelo_inurba_marseille","lat":43.304606,"lon":5.379026,"is_reserved":false,"is_disabled":false,"rental_uris":{"android":"levelo://app?vid=50b75305-d812-4c9e-8b39-931653745a74","ios":"levelo://app?vid=50b75305-d812-4c9e-8b39-931653745a74"},"vehicle_type_id":"4","last_reported":1723374379,"current_range_meters":21600,"station_id":"ce4bgup2rcd13ifvqcn0","pricing_plan_id":"cebpf4jnsgd1na2vs0mg"},{"bike_id":"eb2c861b-52ae-4bcd-b09a-93f3744eb67d","system_id":"levelo_inurba_marseille","lat":43.304606,"lon":5.379026,"is_reserved":false,"is_disabled":false,"rental_uris":{"android":"levelo://app?vid=eb2c861b-52ae-4bcd-b09a-93f3744eb67d","ios":"levelo://app?vid=eb2c861b-52ae-4bcd-b09a-93f3744eb67d"},"vehicle_type_id":"4","last_reported":1723374379,"current_range_meters":24800,"station_id":"ce4bgup2rcd13ifvqcn0","pricing_plan_id":"cebpf4jnsgd1na2vs0mg"},{"bike_id":"8a3408eb-7599-4c2e-b2d7-45f08f0e359a","system_id":"levelo_inurba_marseille","lat":43.32478,"lon":5.36576,"is_reserved":false,"is_disabled":false,"rental_uris":{"android":"levelo://app?vid=8a3408eb-7599-4c2e-b2d7-45f08f0e359a","ios":"levelo://app?vid=8a3408eb-7599-4c2e-b2d7-45f08f0e359a"},"vehicle_type_id":"4","last_reported":1723374379,"current_range_meters":25200,"station_id":"ce4bhs12rcd13ifvqhvg","pricing_plan_id":"cebpf4jnsgd1na2vs0mg"},{"bike_id":"75a43ee6-e251-4740-af8e-bff42a826b72","system_id":"levelo_inurba_marseille","lat":43.324771,"lon":5.36557,"is_reserved":false,"is_disabled":false,"rental_uris":{"android":"levelo://app?vid=75a43ee6-e251-4740-af8e-bff42a826b72","ios":"levelo://app?vid=75a43ee6-e251-4740-af8e-bff42a826b72"},"vehicle_type_id":"4","last_reported":1723374379,"current_range_meters":7600,"station_id":"ce4bhs12rcd13ifvqhvg","pricing_plan_id":"cebpf4jnsgd1na2vs0mg"},{"bike_id":"57e8995c-1fc9-4244-abcf-1bf85026f973","system_id":"levelo_inurba_marseille","lat":43.324787,"lon":5.36573,"is_reserved":false,"is_disabled":false,"rental_uris":{"android":"levelo://app?vid=57e8995c-1fc9-4244-abcf-1bf85026f973","ios":"levelo://app?vid=57e8995c-1fc9-4244-abcf-1bf85026f973"},"vehicle_type_id":"4","last_reported":1723374379,"current_range_meters":10400,"station_id":"ce4bhs12rcd13ifvqhvg","pricing_plan_id":"cebpf4jnsgd1na2vs0mg"},{"bike_id":"4bf5be37-0c95-48b4-b540-09fa58a1f6ed","system_id":"levelo_inurba_marseille","lat":43.324771,"lon":5.36557,"is_reserved":false,"is_disabled":false,"rental_uris":{"android":"levelo://app?vid=4bf5be37-0c95-48b4-b540-09fa58a1f6ed","ios":"levelo://app?vid=4bf5be37-0c95-48b4-b540-09fa58a1f6ed"},"vehicle_type_id":"4","last_reported":1723374379,"current_range_meters":29200,"station_id":"ce4bhs12rcd13ifvqhvg","pricing_plan_id":"cebpf4jnsgd1na2vs0mg"},{"bike_id":"f2ee1045-5069-491b-8cec-e4ca131259b8","system_id":"levelo_inurba_marseille","lat":43.324771,"lon":5.36557,"is_reserved":false,"is_disabled":false,"rental_uris":{"android":"levelo://app?vid=f2ee1045-5069-491b-8cec-e4ca131259b8","ios":"levelo://app?vid=f2ee1045-5069-491b-8cec-e4ca131259b8"},"vehicle_type_id":"4","last_reported":1723374379,"current_range_meters":13600,"station_id":"ce4bhs12rcd13ifvqhvg","pricing_plan_id":"cebpf4jnsgd1na2vs0mg"},{"bike_id":"fcb8a6fa-6156-4b33-80d5-0ede5b76cb5b","system_id":"levelo_inurba_marseille","lat":43.324771,"lon":5.36557,"is_reserved":false,"is_disabled":false,"rental_uris":{"android":"levelo://app?vid=fcb8a6fa-6156-4b33-80d5-0ede5b76cb5b","ios":"levelo://app?vid=fcb8a6fa-6156-4b33-80d5-0ede5b76cb5b"},"vehicle_type_id":"4","last_reported":1723374379,"current_range_meters":2800,"station_id":"ce4bhs12rcd13ifvqhvg","pricing_plan_id":"cebpf4jnsgd1na2vs0mg"},{"bike_id":"081007f9-31dc-4b77-b8f2-8dffedab8808","system_id":"levelo_inurba_marseille","lat":43.324771,"lon":5.36557,"is_reserved":false,"is_disabled":false,"rental_uris":{"android":"levelo://app?vid=081007f9-31dc-4b77-b8f2-8dffedab8808","ios":"levelo://app?vid=081007f9-31dc-4b77-b8f2-8dffedab8808"},"vehicle_type_id":"4","last_reported":1723374379,"current_range_meters":17600,"station_id":"ce4bhs12rcd13ifvqhvg","pricing_plan_id":"cebpf4jnsgd1na2vs0mg"},{"bike_id":"e808a47c-f1ab-49c8-9868-162ce164be9e","system_id":"levelo_inurba_marseille","lat":43.324771,"lon":5.36557,"is_reserved":false,"is_disabled":false,"rental_uris":{"android":"levelo://app?vid=e808a47c-f1ab-49c8-9868-162ce164be9e","ios":"levelo://app?vid=e808a47c-f1ab-49c8-9868-162ce164be9e"},"vehicle_type_id":"4","last_reported":1723374379,"current_range_meters":31200,"station_id":"ce4bhs12rcd13ifvqhvg","pricing_plan_id":"cebpf4jnsgd1na2vs0mg"},{"bike_id":"0c46650d-acbb-452c-8551-83b678600d8e","system_id":"levelo_inurba_marseille","lat":43.32483,"lon":5.36562,"is_reserved":false,"is_disabled":false,"rental_uris":{"android":"levelo://app?vid=0c46650d-acbb-452c-8551-83b678600d8e","ios":"levelo://app?vid=0c46650d-acbb-452c-8551-83b678600d8e"},"vehicle_type_id":"4","last_reported":1723374379,"current_range_meters":18400,"station_id":"ce4bhs12rcd13ifvqhvg","pricing_plan_id":"cebpf4jnsgd1na2vs0mg"},{"bike_id":"1ffad33b-bb6d-44b8-aa35-c11639d0650c","system_id":"levelo_inurba_marseille","lat":43.324771,"lon":5.36557,"is_reserved":false,"is_disabled":false,"rental_uris":{"android":"levelo://app?vid=1ffad33b-bb6d-44b8-aa35-c11639d0650c","ios":"levelo://app?vid=1ffad33b-bb6d-44b8-aa35-c11639d0650c"},"vehicle_type_id":"4","last_reported":1723374379,"current_range_meters":27200,"station_id":"ce4bhs12rcd13ifvqhvg","pricing_plan_id":"cebpf4jnsgd1na2vs0mg"},{"bike_id":"e5000063-db07-4064-adf1-e6b77f0e18ee","system_id":"levelo_inurba_marseille","lat":43.324771,"lon":5.36557,"is_reserved":false,"is_disabled":false,"rental_uris":{"android":"levelo://app?vid=e5000063-db07-4064-adf1-e6b77f0e18ee","ios":"levelo://app?vid=e5000063-db07-4064-adf1-e6b77f0e18ee"},"vehicle_type_id":"4","last_reported":1723374379,"current_range_meters":31200,"station_id":"ce4bhs12rcd13ifvqhvg","pricing_plan_id":"cebpf4jnsgd1na2vs0mg"},{"bike_id":"5fc0d868-3327-4e5f-a8aa-7409c11b9642","system_id":"levelo_inurba_marseille","lat":43.310804,"lon":5.38359,"is_reserved":false,"is_disabled":false,"rental_uris":{"android":"levelo://app?vid=5fc0d868-3327-4e5f-a8aa-7409c11b9642","ios":"levelo://app?vid=5fc0d868-3327-4e5f-a8aa-7409c11b9642"},"vehicle_type_id":"4","last_reported":1723374379,"current_range_meters":6000,"station_id":"ce4bgv92rcd13ifvqcr0","pricing_plan_id":"cebpf4jnsgd1na2vs0mg"},{"bike_id":"a5f356b9-9e2f-4bbc-840e-b7ca33dff646","system_id":"levelo_inurba_marseille","lat":43.310804,"lon":5.38359,"is_reserved":false,"is_disabled":false,"rental_uris":{"android":"levelo://app?vid=a5f356b9-9e2f-4bbc-840e-b7ca33dff646","ios":"levelo://app?vid=a5f356b9-9e2f-4bbc-840e-b7ca33dff646"},"vehicle_type_id":"4","last_reported":1723374379,"current_range_meters":20400,"station_id":"ce4bgv92rcd13ifvqcr0","pricing_plan_id":"cebpf4jnsgd1na2vs0mg"},{"bike_id":"620cf760-93c2-46b1-88bb-9a12e066140d","system_id":"levelo_inurba_marseille","lat":43.310804,"lon":5.38359,"is_reserved":false,"is_disabled":false,"rental_uris":{"android":"levelo://app?vid=620cf760-93c2-46b1-88bb-9a12e066140d","ios":"levelo://app?vid=620cf760-93c2-46b1-88bb-9a12e066140d"},"vehicle_type_id":"4","last_reported":1723374379,"current_range_meters":8800,"station_id":"ce4bgv92rcd13ifvqcr0","pricing_plan_id":"cebpf4jnsgd1na2vs0mg"},{"bike_id":"ace94ede-ceef-4bfb-a31b-760bf3dff518","system_id":"levelo_inurba_marseille","lat":43.32491,"lon":5.36563,"is_reserved":false,"is_disabled":false,"rental_uris":{"android":"levelo://app?vid=ace94ede-ceef-4bfb-a31b-760bf3dff518","ios":"levelo://app?vid=ace94ede-ceef-4bfb-a31b-760bf3dff518"},"vehicle_type_id":"4","last_reported":1723374379,"current_range_meters":11200,"station_id":"ce4bhs12rcd13ifvqhvg","pricing_plan_id":"cebpf4jnsgd1na2vs0mg"},{"bike_id":"2b418b33-522e-436c-839c-8c724f789d8e","system_id":"levelo_inurba_marseille","lat":43.310804,"lon":5.38359,"is_reserved":false,"is_disabled":false,"rental_uris":{"android":"levelo://app?vid=2b418b33-522e-436c-839c-8c724f789d8e","ios":"levelo://app?vid=2b418b33-522e-436c-839c-8c724f789d8e"},"vehicle_type_id":"4","last_reported":1723374379,"current_range_meters":21600,"station_id":"ce4bgv92rcd13ifvqcr0","pricing_plan_id":"cebpf4jnsgd1na2vs0mg"},{"bike_id":"e0facb38-3368-476b-b795-e1823a5f98a1","system_id":"levelo_inurba_marseille","lat":43.310804,"lon":5.38359,"is_reserved":false,"is_disabled":false,"rental_uris":{"android":"levelo://app?vid=e0facb38-3368-476b-b795-e1823a5f98a1","ios":"levelo://app?vid=e0facb38-3368-476b-b795-e1823a5f98a1"},"vehicle_type_id":"4","last_reported":1723374379,"current_range_meters":20400,"station_id":"ce4bgv92rcd13ifvqcr0","pricing_plan_id":"cebpf4jnsgd1na2vs0mg"},{"bike_id":"76436274-bfb3-4ec8-ba78-d4d266a1eb0d","system_id":"levelo_inurba_marseille","lat":43.310804,"lon":5.38359,"is_reserved":false,"is_disabled":false,"rental_uris":{"android":"levelo://app?vid=76436274-bfb3-4ec8-ba78-d4d266a1eb0d","ios":"levelo://app?vid=76436274-bfb3-4ec8-ba78-d4d266a1eb0d"},"vehicle_type_id":"4","last_reported":1723374379,"current_range_meters":9600,"station_id":"ce4bgv92rcd13ifvqcr0","pricing_plan_id":"cebpf4jnsgd1na2vs0mg"},{"bike_id":"f9e5303c-7ddd-4fcb-9fca-b3ae6c975122","system_id":"levelo_inurba_marseille","lat":43.310804,"lon":5.38359,"is_reserved":false,"is_disabled":false,"rental_uris":{"android":"levelo://app?vid=f9e5303c-7ddd-4fcb-9fca-b3ae6c975122","ios":"levelo://app?vid=f9e5303c-7ddd-4fcb-9fca-b3ae6c975122"},"vehicle_type_id":"4","last_reported":1723374379,"current_range_meters":14000,"station_id":"ce4bgv92rcd13ifvqcr0","pricing_plan_id":"cebpf4jnsgd1na2vs0mg"},{"bike_id":"3dde525d-ab76-48de-b646-783b0d7af99f","system_id":"levelo_inurba_marseille","lat":43.302784,"lon":5.377158,"is_reserved":false,"is_disabled":false,"rental_uris":{"android":"levelo://app?vid=3dde525d-ab76-48de-b646-783b0d7af99f","ios":"levelo://app?vid=3dde525d-ab76-48de-b646-783b0d7af99f"},"vehicle_type_id":"4","last_reported":1723374379,"current_range_meters":9600,"station_id":"ce4bguh2rcd13ifvqcj0","pricing_plan_id":"cebpf4jnsgd1na2vs0mg"},{"bike_id":"bb4bde9f-e444-49f3-a133-1324dfdbc1a4","system_id":"levelo_inurba_marseille","lat":43.302784,"lon":5.377158,"is_reserved":false,"is_disabled":false,"rental_uris":{"android":"levelo://app?vid=bb4bde9f-e444-49f3-a133-1324dfdbc1a4","ios":"levelo://app?vid=bb4bde9f-e444-49f3-a133-1324dfdbc1a4"},"vehicle_type_id":"4","last_reported":1723374379,"current_range_meters":9200,"station_id":"ce4bguh2rcd13ifvqcj0","pricing_plan_id":"cebpf4jnsgd1na2vs0mg"},{"bike_id":"9d0aeb1c-49d7-4523-b7c2-70c7cdb0d8a2","system_id":"levelo_inurba_marseille","lat":43.302784,"lon":5.377158,"is_reserved":false,"is_disabled":false,"rental_uris":{"android":"levelo://app?vid=9d0aeb1c-49d7-4523-b7c2-70c7cdb0d8a2","ios":"levelo://app?vid=9d0aeb1c-49d7-4523-b7c2-70c7cdb0d8a2"},"vehicle_type_id":"4","last_reported":1723374379,"current_range_meters":26400,"station_id":"ce4bguh2rcd13ifvqcj0","pricing_plan_id":"cebpf4jnsgd1na2vs0mg"},{"bike_id":"1a135513-a1f2-46a3-a5b7-1b676cc78ee6","system_id":"levelo_inurba_marseille","lat":43.301429,"lon":5.37413,"is_reserved":false,"is_disabled":false,"rental_uris":{"android":"levelo://app?vid=1a135513-a1f2-46a3-a5b7-1b676cc78ee6","ios":"levelo://app?vid=1a135513-a1f2-46a3-a5b7-1b676cc78ee6"},"vehicle_type_id":"4","last_reported":1723374379,"current_range_meters":4400,"station_id":"ce4bgs92rcd13ifvqcc0","pricing_plan_id":"cebpf4jnsgd1na2vs0mg"},{"bike_id":"630007f2-747c-4348-8154-375a11dc4985","system_id":"levelo_inurba_marseille","lat":43.30143,"lon":5.37413,"is_reserved":false,"is_disabled":false,"rental_uris":{"android":"levelo://app?vid=630007f2-747c-4348-8154-375a11dc4985","ios":"levelo://app?vid=630007f2-747c-4348-8154-375a11dc4985"},"vehicle_type_id":"4","last_reported":1723374379,"current_range_meters":1600,"station_id":"ce4bgs92rcd13ifvqcc0","pricing_plan_id":"cebpf4jnsgd1na2vs0mg"},{"bike_id":"e217526d-ea63-441e-8f08-6bb8da6a631d","system_id":"levelo_inurba_marseille","lat":43.302784,"lon":5.377158,"is_reserved":false,"is_disabled":false,"rental_uris":{"android":"levelo://app?vid=e217526d-ea63-441e-8f08-6bb8da6a631d","ios":"levelo://app?vid=e217526d-ea63-441e-8f08-6bb8da6a631d"},"vehicle_type_id":"4","last_reported":1723374379,"current_range_meters":11600,"station_id":"ce4bguh2rcd13ifvqcj0","pricing_plan_id":"cebpf4jnsgd1na2vs0mg"},{"bike_id":"81b535ba-ad57-42b7-b331-15c1b0f2abdc","system_id":"levelo_inurba_marseille","lat":43.302784,"lon":5.377158,"is_reserved":false,"is_disabled":false,"rental_uris":{"android":"levelo://app?vid=81b535ba-ad57-42b7-b331-15c1b0f2abdc","ios":"levelo://app?vid=81b535ba-ad57-42b7-b331-15c1b0f2abdc"},"vehicle_type_id":"4","last_reported":1723374379,"current_range_meters":11600,"station_id":"ce4bguh2rcd13ifvqcj0","pricing_plan_id":"cebpf4jnsgd1na2vs0mg"},{"bike_id":"298c7516-e0b7-4e93-adc7-799edd3005c0","system_id":"levelo_inurba_marseille","lat":43.30143,"lon":5.37413,"is_reserved":false,"is_disabled":false,"rental_uris":{"android":"levelo://app?vid=298c7516-e0b7-4e93-adc7-799edd3005c0","ios":"levelo://app?vid=298c7516-e0b7-4e93-adc7-799edd3005c0"},"vehicle_type_id":"4","last_reported":1723374379,"current_range_meters":14400,"station_id":"ce4bgs92rcd13ifvqcc0","pricing_plan_id":"cebpf4jnsgd1na2vs0mg"},{"bike_id":"30afd4ba-cf91-4167-8613-b1d40aab98cb","system_id":"levelo_inurba_marseille","lat":43.302784,"lon":5.377158,"is_reserved":false,"is_disabled":false,"rental_uris":{"android":"levelo://app?vid=30afd4ba-cf91-4167-8613-b1d40aab98cb","ios":"levelo://app?vid=30afd4ba-cf91-4167-8613-b1d40aab98cb"},"vehicle_type_id":"4","last_reported":1723374379,"current_range_meters":18400,"station_id":"ce4bguh2rcd13ifvqcj0","pricing_plan_id":"cebpf4jnsgd1na2vs0mg"},{"bike_id":"4b8f75e4-9981-4710-aeaa-33bd1da095c8","system_id":"levelo_inurba_marseille","lat":43.302784,"lon":5.377158,"is_reserved":false,"is_disabled":false,"rental_uris":{"android":"levelo://app?vid=4b8f75e4-9981-4710-aeaa-33bd1da095c8","ios":"levelo://app?vid=4b8f75e4-9981-4710-aeaa-33bd1da095c8"},"vehicle_type_id":"4","last_reported":1723374379,"current_range_meters":28400,"station_id":"ce4bguh2rcd13ifvqcj0","pricing_plan_id":"cebpf4jnsgd1na2vs0mg"},{"bike_id":"0f729656-690e-418e-a05d-890954d1f523","system_id":"levelo_inurba_marseille","lat":43.30143,"lon":5.37413,"is_reserved":false,"is_disabled":false,"rental_uris":{"android":"levelo://app?vid=0f729656-690e-418e-a05d-890954d1f523","ios":"levelo://app?vid=0f729656-690e-418e-a05d-890954d1f523"},"vehicle_type_id":"4","last_reported":1723374379,"current_range_meters":10800,"station_id":"ce4bgs92rcd13ifvqcc0","pricing_plan_id":"cebpf4jnsgd1na2vs0mg"},{"bike_id":"51cc679c-0094-4d6a-a315-83b521ecd3b7","system_id":"levelo_inurba_marseille","lat":43.302784,"lon":5.377158,"is_reserved":false,"is_disabled":false,"rental_uris":{"android":"levelo://app?vid=51cc679c-0094-4d6a-a315-83b521ecd3b7","ios":"levelo://app?vid=51cc679c-0094-4d6a-a315-83b521ecd3b7"},"vehicle_type_id":"4","last_reported":1723374379,"current_range_meters":12000,"station_id":"ce4bguh2rcd13ifvqcj0","pricing_plan_id":"cebpf4jnsgd1na2vs0mg"},{"bike_id":"a2b42f11-e712-49bf-bcdb-8cc5ae376ec5","system_id":"levelo_inurba_marseille","lat":43.31991,"lon":5.38151,"is_reserved":false,"is_disabled":false,"rental_uris":{"android":"levelo://app?vid=a2b42f11-e712-49bf-bcdb-8cc5ae376ec5","ios":"levelo://app?vid=a2b42f11-e712-49bf-bcdb-8cc5ae376ec5"},"vehicle_type_id":"4","last_reported":1723374379,"current_range_meters":30800,"station_id":"ce4bhr12rcd13ifvqhpg","pricing_plan_id":"cebpf4jnsgd1na2vs0mg"},{"bike_id":"057ccf9f-39fa-445b-aa8c-1553727eb8e1","system_id":"levelo_inurba_marseille","lat":43.319956,"lon":5.381508,"is_reserved":false,"is_disabled":false,"rental_uris":{"android":"levelo://app?vid=057ccf9f-39fa-445b-aa8c-1553727eb8e1","ios":"levelo://app?vid=057ccf9f-39fa-445b-aa8c-1553727eb8e1"},"vehicle_type_id":"4","last_reported":1723374379,"current_range_meters":30800,"station_id":"ce4bhr12rcd13ifvqhpg","pricing_plan_id":"cebpf4jnsgd1na2vs0mg"},{"bike_id":"b5c52bc9-7172-40d6-a885-1cfb27d024cf","system_id":"levelo_inurba_marseille","lat":43.30332,"lon":5.378933,"is_reserved":false,"is_disabled":false,"rental_uris":{"android":"levelo://app?vid=b5c52bc9-7172-40d6-a885-1cfb27d024cf","ios":"levelo://app?vid=b5c52bc9-7172-40d6-a885-1cfb27d024cf"},"vehicle_type_id":"4","last_reported":1723374379,"current_range_meters":0,"station_id":"","pricing_plan_id":"cebpf4jnsgd1na2vs0mg"},{"bike_id":"ff39d0c8-ba61-4ae1-abef-c721ee1fd9c8","system_id":"levelo_inurba_marseille","lat":43.314,"lon":5.384615,"is_reserved":false,"is_disabled":false,"rental_uris":{"android":"levelo://app?vid=ff39d0c8-ba61-4ae1-abef-c721ee1fd9c8","ios":"levelo://app?vid=ff39d0c8-ba61-4ae1-abef-c721ee1fd9c8"},"vehicle_type_id":"4","last_reported":1723374379,"current_range_meters":9200,"station_id":"","pricing_plan_id":"cebpf4jnsgd1na2vs0mg"},{"bike_id":"ac199aab-4a97-45fa-97eb-920567d75d3e","system_id":"levelo_inurba_marseille","lat":43.30182,"lon":5.376825,"is_reserved":false,"is_disabled":false,"rental_uris":{"android":"levelo://app?vid=ac199aab-4a97-45fa-97eb-920567d75d3e","ios":"levelo://app?vid=ac199aab-4a97-45fa-97eb-920567d75d3e"},"vehicle_type_id":"4","last_reported":1723374379,"current_range_meters":17200,"station_id":"","pricing_plan_id":"cebpf4jnsgd1na2vs0mg"},{"bike_id":"9757e549-1c13-4c66-8829-10d58675811a","system_id":"levelo_inurba_marseille","lat":43.31364,"lon":5.38494,"is_reserved":false,"is_disabled":false,"rental_uris":{"android":"levelo://app?vid=9757e549-1c13-4c66-8829-10d58675811a","ios":"levelo://app?vid=9757e549-1c13-4c66-8829-10d58675811a"},"vehicle_type_id":"4","last_reported":1723374379,"current_range_meters":31200,"station_id":"ce4bgt92rcd13ifvqcf0","pricing_plan_id":"cebpf4jnsgd1na2vs0mg"},{"bike_id":"3f68294d-cd2d-4a29-9f7e-169398acb0ed","system_id":"levelo_inurba_marseille","lat":43.313571,"lon":5.384829,"is_reserved":false,"is_disabled":false,"rental_uris":{"android":"levelo://app?vid=3f68294d-cd2d-4a29-9f7e-169398acb0ed","ios":"levelo://app?vid=3f68294d-cd2d-4a29-9f7e-169398acb0ed"},"vehicle_type_id":"4","last_reported":1723374379,"current_range_meters":12400,"station_id":"ce4bgt92rcd13ifvqcf0","pricing_plan_id":"cebpf4jnsgd1na2vs0mg"},{"bike_id":"b9c92734-98cf-4475-979e-706510604306","system_id":"levelo_inurba_marseille","lat":43.299222,"lon":5.365554,"is_reserved":false,"is_disabled":false,"rental_uris":{"android":"levelo://app?vid=b9c92734-98cf-4475-979e-706510604306","ios":"levelo://app?vid=b9c92734-98cf-4475-979e-706510604306"},"vehicle_type_id":"4","last_reported":1723374379,"current_range_meters":24400,"station_id":"ce4bgm92rcd13ifvqbr0","pricing_plan_id":"cebpf4jnsgd1na2vs0mg"},{"bike_id":"115e6613-3fa6-4aca-b1e7-1e6893438d53","system_id":"levelo_inurba_marseille","lat":43.299222,"lon":5.365554,"is_reserved":false,"is_disabled":false,"rental_uris":{"android":"levelo://app?vid=115e6613-3fa6-4aca-b1e7-1e6893438d53","ios":"levelo://app?vid=115e6613-3fa6-4aca-b1e7-1e6893438d53"},"vehicle_type_id":"4","last_reported":1723374379,"current_range_meters":17600,"station_id":"ce4bgm92rcd13ifvqbr0","pricing_plan_id":"cebpf4jnsgd1na2vs0mg"},{"bike_id":"e4de0c04-87e0-40fc-bfed-7dba466aefec","system_id":"levelo_inurba_marseille","lat":43.286039,"lon":5.370681,"is_reserved":false,"is_disabled":false,"rental_uris":{"android":"levelo://app?vid=e4de0c04-87e0-40fc-bfed-7dba466aefec","ios":"levelo://app?vid=e4de0c04-87e0-40fc-bfed-7dba466aefec"},"vehicle_type_id":"4","last_reported":1723374379,"current_range_meters":1200,"station_id":"ce4bht12rcd13ifvqi60","pricing_plan_id":"cebpf4jnsgd1na2vs0mg"},{"bike_id":"6dd155ab-e76c-4fad-8870-9ed85c1d253f","system_id":"levelo_inurba_marseille","lat":43.30591,"lon":5.3838,"is_reserved":false,"is_disabled":false,"rental_uris":{"android":"levelo://app?vid=6dd155ab-e76c-4fad-8870-9ed85c1d253f","ios":"levelo://app?vid=6dd155ab-e76c-4fad-8870-9ed85c1d253f"},"vehicle_type_id":"4","last_reported":1723374379,"current_range_meters":24000,"station_id":"","pricing_plan_id":"cebpf4jnsgd1na2vs0mg"},{"bike_id":"da450512-82e9-4fbd-ad1e-a4f2660ba086","system_id":"levelo_inurba_marseille","lat":43.29855,"lon":5.36277,"is_reserved":false,"is_disabled":false,"rental_uris":{"android":"levelo://app?vid=da450512-82e9-4fbd-ad1e-a4f2660ba086","ios":"levelo://app?vid=da450512-82e9-4fbd-ad1e-a4f2660ba086"},"vehicle_type_id":"4","last_reported":1723374379,"current_range_meters":14000,"station_id":"ce4bgpp2rcd13ifvqc3g","pricing_plan_id":"cebpf4jnsgd1na2vs0mg"},{"bike_id":"780ea3e5-038b-4b48-9ce8-496088702bff","system_id":"levelo_inurba_marseille","lat":43.29851,"lon":5.36269,"is_reserved":false,"is_disabled":false,"rental_uris":{"android":"levelo://app?vid=780ea3e5-038b-4b48-9ce8-496088702bff","ios":"levelo://app?vid=780ea3e5-038b-4b48-9ce8-496088702bff"},"vehicle_type_id":"4","last_reported":1723374379,"current_range_meters":29200,"station_id":"ce4bgpp2rcd13ifvqc3g","pricing_plan_id":"cebpf4jnsgd1na2vs0mg"},{"bike_id":"d0e24aa9-e6a2-4a86-9709-bdaa9941c04d","system_id":"levelo_inurba_marseille","lat":43.2985,"lon":5.36264,"is_reserved":false,"is_disabled":false,"rental_uris":{"android":"levelo://app?vid=d0e24aa9-e6a2-4a86-9709-bdaa9941c04d","ios":"levelo://app?vid=d0e24aa9-e6a2-4a86-9709-bdaa9941c04d"},"vehicle_type_id":"4","last_reported":1723374379,"current_range_meters":12000,"station_id":"ce4bgpp2rcd13ifvqc3g","pricing_plan_id":"cebpf4jnsgd1na2vs0mg"},{"bike_id":"7cac55a6-2b81-4aac-8e9e-10a13cc3263c","system_id":"levelo_inurba_marseille","lat":43.29844,"lon":5.362833,"is_reserved":false,"is_disabled":false,"rental_uris":{"android":"levelo://app?vid=7cac55a6-2b81-4aac-8e9e-10a13cc3263c","ios":"levelo://app?vid=7cac55a6-2b81-4aac-8e9e-10a13cc3263c"},"vehicle_type_id":"4","last_reported":1723374379,"current_range_meters":15600,"station_id":"ce4bgpp2rcd13ifvqc3g","pricing_plan_id":"cebpf4jnsgd1na2vs0mg"},{"bike_id":"3e790d6e-b011-4480-960e-66b7e264e2d2","system_id":"levelo_inurba_marseille","lat":43.298444,"lon":5.362632,"is_reserved":false,"is_disabled":false,"rental_uris":{"android":"levelo://app?vid=3e790d6e-b011-4480-960e-66b7e264e2d2","ios":"levelo://app?vid=3e790d6e-b011-4480-960e-66b7e264e2d2"},"vehicle_type_id":"4","last_reported":1723374379,"current_range_meters":25600,"station_id":"ce4bgpp2rcd13ifvqc3g","pricing_plan_id":"cebpf4jnsgd1na2vs0mg"},{"bike_id":"ced9b3aa-202f-4e23-bea7-1e008cfb46e0","system_id":"levelo_inurba_marseille","lat":43.29843,"lon":5.36265,"is_reserved":false,"is_disabled":false,"rental_uris":{"android":"levelo://app?vid=ced9b3aa-202f-4e23-bea7-1e008cfb46e0","ios":"levelo://app?vid=ced9b3aa-202f-4e23-bea7-1e008cfb46e0"},"vehicle_type_id":"4","last_reported":1723374379,"current_range_meters":4400,"station_id":"ce4bgpp2rcd13ifvqc3g","pricing_plan_id":"cebpf4jnsgd1na2vs0mg"},{"bike_id":"31bcd29f-f6ee-471e-ab33-251531e53550","system_id":"levelo_inurba_marseille","lat":43.311722,"lon":5.387247,"is_reserved":false,"is_disabled":false,"rental_uris":{"android":"levelo://app?vid=31bcd29f-f6ee-471e-ab33-251531e53550","ios":"levelo://app?vid=31bcd29f-f6ee-471e-ab33-251531e53550"},"vehicle_type_id":"4","last_reported":1723374379,"current_range_meters":21200,"station_id":"ce4bgv12rcd13ifvqcp0","pricing_plan_id":"cebpf4jnsgd1na2vs0mg"},{"bike_id":"f45b749a-50c3-4278-96a1-aeb769663f4d","system_id":"levelo_inurba_marseille","lat":43.29804,"lon":5.37122,"is_reserved":false,"is_disabled":false,"rental_uris":{"android":"levelo://app?vid=f45b749a-50c3-4278-96a1-aeb769663f4d","ios":"levelo://app?vid=f45b749a-50c3-4278-96a1-aeb769663f4d"},"vehicle_type_id":"4","last_reported":1723374379,"current_range_meters":0,"station_id":"ce4bgop2rcd13ifvqc1g","pricing_plan_id":"cebpf4jnsgd1na2vs0mg"},{"bike_id":"889f3050-0236-4cca-910b-b1142dfa270c","system_id":"levelo_inurba_marseille","lat":43.297794,"lon":5.370888,"is_reserved":false,"is_disabled":false,"rental_uris":{"android":"levelo://app?vid=889f3050-0236-4cca-910b-b1142dfa270c","ios":"levelo://app?vid=889f3050-0236-4cca-910b-b1142dfa270c"},"vehicle_type_id":"4","last_reported":1723374379,"current_range_meters":17200,"station_id":"ce4bgop2rcd13ifvqc1g","pricing_plan_id":"cebpf4jnsgd1na2vs0mg"},{"bike_id":"97e8c6ed-446d-4bf1-8878-dd979011cc4f","system_id":"levelo_inurba_marseille","lat":43.297794,"lon":5.370888,"is_reserved":false,"is_disabled":false,"rental_uris":{"android":"levelo://app?vid=97e8c6ed-446d-4bf1-8878-dd979011cc4f","ios":"levelo://app?vid=97e8c6ed-446d-4bf1-8878-dd979011cc4f"},"vehicle_type_id":"4","last_reported":1723374379,"current_range_meters":14800,"station_id":"ce4bgop2rcd13ifvqc1g","pricing_plan_id":"cebpf4jnsgd1na2vs0mg"},{"bike_id":"b8dd4a31-7be8-4103-8e86-6ae06293fd67","system_id":"levelo_inurba_marseille","lat":43.29784,"lon":5.37111,"is_reserved":false,"is_disabled":false,"rental_uris":{"android":"levelo://app?vid=b8dd4a31-7be8-4103-8e86-6ae06293fd67","ios":"levelo://app?vid=b8dd4a31-7be8-4103-8e86-6ae06293fd67"},"vehicle_type_id":"4","last_reported":1723374379,"current_range_meters":21600,"station_id":"ce4bgop2rcd13ifvqc1g","pricing_plan_id":"cebpf4jnsgd1na2vs0mg"},{"bike_id":"37762c1b-4a5f-43c5-bdeb-f511c781c938","system_id":"levelo_inurba_marseille","lat":43.297794,"lon":5.370888,"is_reserved":false,"is_disabled":false,"rental_uris":{"android":"levelo://app?vid=37762c1b-4a5f-43c5-bdeb-f511c781c938","ios":"levelo://app?vid=37762c1b-4a5f-43c5-bdeb-f511c781c938"},"vehicle_type_id":"4","last_reported":1723374379,"current_range_meters":16000,"station_id":"ce4bgop2rcd13ifvqc1g","pricing_plan_id":"cebpf4jnsgd1na2vs0mg"},{"bike_id":"3febb56b-3627-49ab-8afa-e970aeb77301","system_id":"levelo_inurba_marseille","lat":43.297774,"lon":5.370875,"is_reserved":false,"is_disabled":false,"rental_uris":{"android":"levelo://app?vid=3febb56b-3627-49ab-8afa-e970aeb77301","ios":"levelo://app?vid=3febb56b-3627-49ab-8afa-e970aeb77301"},"vehicle_type_id":"4","last_reported":1723374379,"current_range_meters":12400,"station_id":"ce4bgop2rcd13ifvqc1g","pricing_plan_id":"cebpf4jnsgd1na2vs0mg"},{"bike_id":"1521700e-d2ce-459c-b8c6-46dc9146887b","system_id":"levelo_inurba_marseille","lat":43.297794,"lon":5.370888,"is_reserved":false,"is_disabled":false,"rental_uris":{"android":"levelo://app?vid=1521700e-d2ce-459c-b8c6-46dc9146887b","ios":"levelo://app?vid=1521700e-d2ce-459c-b8c6-46dc9146887b"},"vehicle_type_id":"4","last_reported":1723374379,"current_range_meters":13200,"station_id":"ce4bgop2rcd13ifvqc1g","pricing_plan_id":"cebpf4jnsgd1na2vs0mg"},{"bike_id":"3fcafe52-95d8-47ac-a135-19eb42d71c41","system_id":"levelo_inurba_marseille","lat":43.322895,"lon":5.382565,"is_reserved":false,"is_disabled":false,"rental_uris":{"android":"levelo://app?vid=3fcafe52-95d8-47ac-a135-19eb42d71c41","ios":"levelo://app?vid=3fcafe52-95d8-47ac-a135-19eb42d71c41"},"vehicle_type_id":"4","last_reported":1723374379,"current_range_meters":22000,"station_id":"ce4bhr12rcd13ifvqhqg","pricing_plan_id":"cebpf4jnsgd1na2vs0mg"},{"bike_id":"3dd1619e-75d7-4fcd-bddc-cee4efa70e43","system_id":"levelo_inurba_marseille","lat":43.297794,"lon":5.370888,"is_reserved":false,"is_disabled":false,"rental_uris":{"android":"levelo://app?vid=3dd1619e-75d7-4fcd-bddc-cee4efa70e43","ios":"levelo://app?vid=3dd1619e-75d7-4fcd-bddc-cee4efa70e43"},"vehicle_type_id":"4","last_reported":1723374379,"current_range_meters":24800,"station_id":"ce4bgop2rcd13ifvqc1g","pricing_plan_id":"cebpf4jnsgd1na2vs0mg"},{"bike_id":"80f9f110-4ffc-4297-bf57-2bf2a710da39","system_id":"levelo_inurba_marseille","lat":43.323008,"lon":5.382828,"is_reserved":false,"is_disabled":false,"rental_uris":{"android":"levelo://app?vid=80f9f110-4ffc-4297-bf57-2bf2a710da39","ios":"levelo://app?vid=80f9f110-4ffc-4297-bf57-2bf2a710da39"},"vehicle_type_id":"4","last_reported":1723374379,"current_range_meters":13600,"station_id":"ce4bhr12rcd13ifvqhqg","pricing_plan_id":"cebpf4jnsgd1na2vs0mg"},{"bike_id":"906a1073-7b05-4dfa-a7d8-abded222e52e","system_id":"levelo_inurba_marseille","lat":43.2968,"lon":5.37291,"is_reserved":false,"is_disabled":false,"rental_uris":{"android":"levelo://app?vid=906a1073-7b05-4dfa-a7d8-abded222e52e","ios":"levelo://app?vid=906a1073-7b05-4dfa-a7d8-abded222e52e"},"vehicle_type_id":"4","last_reported":1723374379,"current_range_meters":29600,"station_id":"ce4bgk12rcd13ifvqbj0","pricing_plan_id":"cebpf4jnsgd1na2vs0mg"},{"bike_id":"7bbdba60-234e-4aca-867a-e53793a9dd68","system_id":"levelo_inurba_marseille","lat":43.296131,"lon":5.370791,"is_reserved":false,"is_disabled":false,"rental_uris":{"android":"levelo://app?vid=7bbdba60-234e-4aca-867a-e53793a9dd68","ios":"levelo://app?vid=7bbdba60-234e-4aca-867a-e53793a9dd68"},"vehicle_type_id":"4","last_reported":1723374379,"current_range_meters":27600,"station_id":"ce4bgnh2rcd13ifvqc0g","pricing_plan_id":"cebpf4jnsgd1na2vs0mg"},{"bike_id":"00dab63c-be27-482d-819f-94b421d6cde9","system_id":"levelo_inurba_marseille","lat":43.29573,"lon":5.367355,"is_reserved":false,"is_disabled":false,"rental_uris":{"android":"levelo://app?vid=00dab63c-be27-482d-819f-94b421d6cde9","ios":"levelo://app?vid=00dab63c-be27-482d-819f-94b421d6cde9"},"vehicle_type_id":"4","last_reported":1723374379,"current_range_meters":6800,"station_id":"ce4bgph2rcd13ifvqc2g","pricing_plan_id":"cebpf4jnsgd1na2vs0mg"},{"bike_id":"5b4e807c-914d-4d77-8b62-1e5860551217","system_id":"levelo_inurba_marseille","lat":43.29573,"lon":5.367355,"is_reserved":false,"is_disabled":false,"rental_uris":{"android":"levelo://app?vid=5b4e807c-914d-4d77-8b62-1e5860551217","ios":"levelo://app?vid=5b4e807c-914d-4d77-8b62-1e5860551217"},"vehicle_type_id":"4","last_reported":1723374379,"current_range_meters":8400,"station_id":"ce4bgph2rcd13ifvqc2g","pricing_plan_id":"cebpf4jnsgd1na2vs0mg"},{"bike_id":"7ad9fbf0-2fc3-4e08-99e0-b47faced061a","system_id":"levelo_inurba_marseille","lat":43.299028,"lon":5.381509,"is_reserved":false,"is_disabled":false,"rental_uris":{"android":"levelo://app?vid=7ad9fbf0-2fc3-4e08-99e0-b47faced061a","ios":"levelo://app?vid=7ad9fbf0-2fc3-4e08-99e0-b47faced061a"},"vehicle_type_id":"4","last_reported":1723374379,"current_range_meters":8800,"station_id":"ce4bgj12rcd13ifvqbc0","pricing_plan_id":"cebpf4jnsgd1na2vs0mg"},{"bike_id":"fc7b1bac-e8ed-4e93-b2e0-ae372a8cf6ed","system_id":"levelo_inurba_marseille","lat":43.309589,"lon":5.390258,"is_reserved":false,"is_disabled":false,"rental_uris":{"android":"levelo://app?vid=fc7b1bac-e8ed-4e93-b2e0-ae372a8cf6ed","ios":"levelo://app?vid=fc7b1bac-e8ed-4e93-b2e0-ae372a8cf6ed"},"vehicle_type_id":"4","last_reported":1723374379,"current_range_meters":13200,"station_id":"ce4bgup2rcd13ifvqco0","pricing_plan_id":"cebpf4jnsgd1na2vs0mg"},{"bike_id":"169f5654-f8ac-474c-8d0b-d09ccc006dea","system_id":"levelo_inurba_marseille","lat":43.31742,"lon":5.38978,"is_reserved":false,"is_disabled":false,"rental_uris":{"android":"levelo://app?vid=169f5654-f8ac-474c-8d0b-d09ccc006dea","ios":"levelo://app?vid=169f5654-f8ac-474c-8d0b-d09ccc006dea"},"vehicle_type_id":"4","last_reported":1723374379,"current_range_meters":9600,"station_id":"","pricing_plan_id":"cebpf4jnsgd1na2vs0mg"},{"bike_id":"87104302-e1c0-4a67-995a-21c3bd93361a","system_id":"levelo_inurba_marseille","lat":43.309589,"lon":5.390258,"is_reserved":false,"is_disabled":false,"rental_uris":{"android":"levelo://app?vid=87104302-e1c0-4a67-995a-21c3bd93361a","ios":"levelo://app?vid=87104302-e1c0-4a67-995a-21c3bd93361a"},"vehicle_type_id":"4","last_reported":1723374379,"current_range_meters":21200,"station_id":"ce4bgup2rcd13ifvqco0","pricing_plan_id":"cebpf4jnsgd1na2vs0mg"},{"bike_id":"415fcd08-a29c-4261-9393-0cc25ea41d00","system_id":"levelo_inurba_marseille","lat":43.309589,"lon":5.390258,"is_reserved":false,"is_disabled":false,"rental_uris":{"android":"levelo://app?vid=415fcd08-a29c-4261-9393-0cc25ea41d00","ios":"levelo://app?vid=415fcd08-a29c-4261-9393-0cc25ea41d00"},"vehicle_type_id":"4","last_reported":1723374379,"current_range_meters":3600,"station_id":"ce4bgup2rcd13ifvqco0","pricing_plan_id":"cebpf4jnsgd1na2vs0mg"},{"bike_id":"1c4b32fb-a979-415e-a03a-2399c51fa230","system_id":"levelo_inurba_marseille","lat":43.309589,"lon":5.390258,"is_reserved":false,"is_disabled":false,"rental_uris":{"android":"levelo://app?vid=1c4b32fb-a979-415e-a03a-2399c51fa230","ios":"levelo://app?vid=1c4b32fb-a979-415e-a03a-2399c51fa230"},"vehicle_type_id":"4","last_reported":1723374379,"current_range_meters":21600,"station_id":"ce4bgup2rcd13ifvqco0","pricing_plan_id":"cebpf4jnsgd1na2vs0mg"},{"bike_id":"057a013e-894a-41c5-889b-76d52f604ac5","system_id":"levelo_inurba_marseille","lat":43.299028,"lon":5.381509,"is_reserved":false,"is_disabled":false,"rental_uris":{"android":"levelo://app?vid=057a013e-894a-41c5-889b-76d52f604ac5","ios":"levelo://app?vid=057a013e-894a-41c5-889b-76d52f604ac5"},"vehicle_type_id":"4","last_reported":1723374379,"current_range_meters":0,"station_id":"ce4bgj12rcd13ifvqbc0","pricing_plan_id":"cebpf4jnsgd1na2vs0mg"},{"bike_id":"03a0f295-9410-4d4c-98b1-b146a391490e","system_id":"levelo_inurba_marseille","lat":43.309589,"lon":5.390258,"is_reserved":false,"is_disabled":false,"rental_uris":{"android":"levelo://app?vid=03a0f295-9410-4d4c-98b1-b146a391490e","ios":"levelo://app?vid=03a0f295-9410-4d4c-98b1-b146a391490e"},"vehicle_type_id":"4","last_reported":1723374379,"current_range_meters":1200,"station_id":"ce4bgup2rcd13ifvqco0","pricing_plan_id":"cebpf4jnsgd1na2vs0mg"},{"bike_id":"c568f253-f437-40d7-91e0-8a0c20115011","system_id":"levelo_inurba_marseille","lat":43.32266,"lon":5.38683,"is_reserved":false,"is_disabled":false,"rental_uris":{"android":"levelo://app?vid=c568f253-f437-40d7-91e0-8a0c20115011","ios":"levelo://app?vid=c568f253-f437-40d7-91e0-8a0c20115011"},"vehicle_type_id":"4","last_reported":1723374379,"current_range_meters":14000,"station_id":"","pricing_plan_id":"cebpf4jnsgd1na2vs0mg"},{"bike_id":"6493af19-f060-4a13-9486-85d97280605d","system_id":"levelo_inurba_marseille","lat":43.309589,"lon":5.390258,"is_reserved":false,"is_disabled":false,"rental_uris":{"android":"levelo://app?vid=6493af19-f060-4a13-9486-85d97280605d","ios":"levelo://app?vid=6493af19-f060-4a13-9486-85d97280605d"},"vehicle_type_id":"4","last_reported":1723374379,"current_range_meters":4000,"station_id":"ce4bgup2rcd13ifvqco0","pricing_plan_id":"cebpf4jnsgd1na2vs0mg"},{"bike_id":"ec010570-144d-4f08-bb6e-c1ceab786c5d","system_id":"levelo_inurba_marseille","lat":43.298037,"lon":5.381066,"is_reserved":false,"is_disabled":false,"rental_uris":{"android":"levelo://app?vid=ec010570-144d-4f08-bb6e-c1ceab786c5d","ios":"levelo://app?vid=ec010570-144d-4f08-bb6e-c1ceab786c5d"},"vehicle_type_id":"4","last_reported":1723374379,"current_range_meters":18800,"station_id":"ce4bgip2rcd13ifvqbb0","pricing_plan_id":"cebpf4jnsgd1na2vs0mg"},{"bike_id":"8f6ae9d7-54d2-4451-b40b-d0fbf0b32aa2","system_id":"levelo_inurba_marseille","lat":43.298037,"lon":5.381066,"is_reserved":false,"is_disabled":false,"rental_uris":{"android":"levelo://app?vid=8f6ae9d7-54d2-4451-b40b-d0fbf0b32aa2","ios":"levelo://app?vid=8f6ae9d7-54d2-4451-b40b-d0fbf0b32aa2"},"vehicle_type_id":"4","last_reported":1723374379,"current_range_meters":22400,"station_id":"ce4bgip2rcd13ifvqbb0","pricing_plan_id":"cebpf4jnsgd1na2vs0mg"},{"bike_id":"67615c0f-1f22-494b-9914-8783dc0127ca","system_id":"levelo_inurba_marseille","lat":43.29796,"lon":5.38095,"is_reserved":false,"is_disabled":false,"rental_uris":{"android":"levelo://app?vid=67615c0f-1f22-494b-9914-8783dc0127ca","ios":"levelo://app?vid=67615c0f-1f22-494b-9914-8783dc0127ca"},"vehicle_type_id":"4","last_reported":1723374379,"current_range_meters":0,"station_id":"ce4bgip2rcd13ifvqbb0","pricing_plan_id":"cebpf4jnsgd1na2vs0mg"},{"bike_id":"b1da9b4f-53ae-4264-8d53-cfb812a98166","system_id":"levelo_inurba_marseille","lat":43.29572,"lon":5.37528,"is_reserved":false,"is_disabled":false,"rental_uris":{"android":"levelo://app?vid=b1da9b4f-53ae-4264-8d53-cfb812a98166","ios":"levelo://app?vid=b1da9b4f-53ae-4264-8d53-cfb812a98166"},"vehicle_type_id":"4","last_reported":1723374379,"current_range_meters":6000,"station_id":"ce4bgh92rcd13ifvqb50","pricing_plan_id":"cebpf4jnsgd1na2vs0mg"},{"bike_id":"df714269-1b66-44f5-831f-895d5d2b9d7e","system_id":"levelo_inurba_marseille","lat":43.296277,"lon":5.377108,"is_reserved":false,"is_disabled":false,"rental_uris":{"android":"levelo://app?vid=df714269-1b66-44f5-831f-895d5d2b9d7e","ios":"levelo://app?vid=df714269-1b66-44f5-831f-895d5d2b9d7e"},"vehicle_type_id":"4","last_reported":1723374379,"current_range_meters":16400,"station_id":"ce4bgi92rcd13ifvqb90","pricing_plan_id":"cebpf4jnsgd1na2vs0mg"},{"bike_id":"25c1ca10-5684-4047-a5d0-18945ce88f14","system_id":"levelo_inurba_marseille","lat":43.304278,"lon":5.388868,"is_reserved":false,"is_disabled":false,"rental_uris":{"android":"levelo://app?vid=25c1ca10-5684-4047-a5d0-18945ce88f14","ios":"levelo://app?vid=25c1ca10-5684-4047-a5d0-18945ce88f14"},"vehicle_type_id":"4","last_reported":1723374379,"current_range_meters":27600,"station_id":"ce4bgk12rcd13ifvqbi0","pricing_plan_id":"cebpf4jnsgd1na2vs0mg"},{"bike_id":"2f883e55-d127-4143-91a8-63ca999f69a6","system_id":"levelo_inurba_marseille","lat":43.295279,"lon":5.375048,"is_reserved":false,"is_disabled":false,"rental_uris":{"android":"levelo://app?vid=2f883e55-d127-4143-91a8-63ca999f69a6","ios":"levelo://app?vid=2f883e55-d127-4143-91a8-63ca999f69a6"},"vehicle_type_id":"4","last_reported":1723374379,"current_range_meters":0,"station_id":"ce4bgkp2rcd13ifvqbmg","pricing_plan_id":"cebpf4jnsgd1na2vs0mg"},{"bike_id":"77192461-172c-4d40-8ca2-f5aa19dcb034","system_id":"levelo_inurba_marseille","lat":43.33042,"lon":5.3589,"is_reserved":false,"is_disabled":false,"rental_uris":{"android":"levelo://app?vid=77192461-172c-4d40-8ca2-f5aa19dcb034","ios":"levelo://app?vid=77192461-172c-4d40-8ca2-f5aa19dcb034"},"vehicle_type_id":"4","last_reported":1723374379,"current_range_meters":12000,"station_id":"","pricing_plan_id":"cebpf4jnsgd1na2vs0mg"},{"bike_id":"ed788100-5403-4e53-b131-ed76e6e22485","system_id":"levelo_inurba_marseille","lat":43.32367,"lon":5.38882,"is_reserved":false,"is_disabled":false,"rental_uris":{"android":"levelo://app?vid=ed788100-5403-4e53-b131-ed76e6e22485","ios":"levelo://app?vid=ed788100-5403-4e53-b131-ed76e6e22485"},"vehicle_type_id":"4","last_reported":1723374379,"current_range_meters":0,"station_id":"ce4bhqp2rcd13ifvqhog","pricing_plan_id":"cebpf4jnsgd1na2vs0mg"},{"bike_id":"85528bf6-1942-439b-9360-e35f7b6247c9","system_id":"levelo_inurba_marseille","lat":43.32367,"lon":5.388836,"is_reserved":false,"is_disabled":false,"rental_uris":{"android":"levelo://app?vid=85528bf6-1942-439b-9360-e35f7b6247c9","ios":"levelo://app?vid=85528bf6-1942-439b-9360-e35f7b6247c9"},"vehicle_type_id":"4","last_reported":1723374379,"current_range_meters":29600,"station_id":"ce4bhqp2rcd13ifvqhog","pricing_plan_id":"cebpf4jnsgd1na2vs0mg"},{"bike_id":"85f2084f-b82b-4837-926d-2cafa09dffdc","system_id":"levelo_inurba_marseille","lat":43.29602,"lon":5.381084,"is_reserved":false,"is_disabled":false,"rental_uris":{"android":"levelo://app?vid=85f2084f-b82b-4837-926d-2cafa09dffdc","ios":"levelo://app?vid=85f2084f-b82b-4837-926d-2cafa09dffdc"},"vehicle_type_id":"4","last_reported":1723374379,"current_range_meters":18000,"station_id":"ce4bgl12rcd13ifvqbo0","pricing_plan_id":"cebpf4jnsgd1na2vs0mg"},{"bike_id":"1a09b025-6ab4-4988-bcc4-1c5c941562ed","system_id":"levelo_inurba_marseille","lat":43.29602,"lon":5.381084,"is_reserved":false,"is_disabled":false,"rental_uris":{"android":"levelo://app?vid=1a09b025-6ab4-4988-bcc4-1c5c941562ed","ios":"levelo://app?vid=1a09b025-6ab4-4988-bcc4-1c5c941562ed"},"vehicle_type_id":"4","last_reported":1723374379,"current_range_meters":4400,"station_id":"ce4bgl12rcd13ifvqbo0","pricing_plan_id":"cebpf4jnsgd1na2vs0mg"},{"bike_id":"6d5b013e-574f-404e-904b-0057aac8b72c","system_id":"levelo_inurba_marseille","lat":43.29299,"lon":5.3718,"is_reserved":false,"is_disabled":false,"rental_uris":{"android":"levelo://app?vid=6d5b013e-574f-404e-904b-0057aac8b72c","ios":"levelo://app?vid=6d5b013e-574f-404e-904b-0057aac8b72c"},"vehicle_type_id":"4","last_reported":1723374379,"current_range_meters":0,"station_id":"ce4bgh92rcd13ifvqb40","pricing_plan_id":"cebpf4jnsgd1na2vs0mg"},{"bike_id":"8d37495d-9961-45f8-ba67-ee81725ae3ae","system_id":"levelo_inurba_marseille","lat":43.29228,"lon":5.36363,"is_reserved":false,"is_disabled":false,"rental_uris":{"android":"levelo://app?vid=8d37495d-9961-45f8-ba67-ee81725ae3ae","ios":"levelo://app?vid=8d37495d-9961-45f8-ba67-ee81725ae3ae"},"vehicle_type_id":"4","last_reported":1723374379,"current_range_meters":5600,"station_id":"","pricing_plan_id":"cebpf4jnsgd1na2vs0mg"},{"bike_id":"b09e1bee-f763-48e4-aab7-b3a4678a8814","system_id":"levelo_inurba_marseille","lat":43.302992,"lon":5.392136,"is_reserved":false,"is_disabled":false,"rental_uris":{"android":"levelo://app?vid=b09e1bee-f763-48e4-aab7-b3a4678a8814","ios":"levelo://app?vid=b09e1bee-f763-48e4-aab7-b3a4678a8814"},"vehicle_type_id":"4","last_reported":1723374379,"current_range_meters":2000,"station_id":"ce4bgkh2rcd13ifvqbk0","pricing_plan_id":"cebpf4jnsgd1na2vs0mg"},{"bike_id":"1c288167-4cbb-4750-9723-d9e5b2ed85f6","system_id":"levelo_inurba_marseille","lat":43.2936,"lon":5.37835,"is_reserved":false,"is_disabled":false,"rental_uris":{"android":"levelo://app?vid=1c288167-4cbb-4750-9723-d9e5b2ed85f6","ios":"levelo://app?vid=1c288167-4cbb-4750-9723-d9e5b2ed85f6"},"vehicle_type_id":"4","last_reported":1723374379,"current_range_meters":19600,"station_id":"ce4bgjh2rcd13ifvqbf0","pricing_plan_id":"cebpf4jnsgd1na2vs0mg"},{"bike_id":"a20cd2e6-f437-4976-8aa7-d5a67aa109ad","system_id":"levelo_inurba_marseille","lat":43.292311,"lon":5.360731,"is_reserved":false,"is_disabled":false,"rental_uris":{"android":"levelo://app?vid=a20cd2e6-f437-4976-8aa7-d5a67aa109ad","ios":"levelo://app?vid=a20cd2e6-f437-4976-8aa7-d5a67aa109ad"},"vehicle_type_id":"4","last_reported":1723374379,"current_range_meters":24400,"station_id":"ce4bhbh2rcd13ifvqeqg","pricing_plan_id":"cebpf4jnsgd1na2vs0mg"},{"bike_id":"46d7dbe2-50fb-4671-93b2-bc54f2251c2e","system_id":"levelo_inurba_marseille","lat":43.2936,"lon":5.37835,"is_reserved":false,"is_disabled":false,"rental_uris":{"android":"levelo://app?vid=46d7dbe2-50fb-4671-93b2-bc54f2251c2e","ios":"levelo://app?vid=46d7dbe2-50fb-4671-93b2-bc54f2251c2e"},"vehicle_type_id":"4","last_reported":1723374379,"current_range_meters":16800,"station_id":"ce4bgjh2rcd13ifvqbf0","pricing_plan_id":"cebpf4jnsgd1na2vs0mg"},{"bike_id":"8764d74d-df42-4063-960a-5e21c0cd04e1","system_id":"levelo_inurba_marseille","lat":43.292311,"lon":5.360731,"is_reserved":false,"is_disabled":false,"rental_uris":{"android":"levelo://app?vid=8764d74d-df42-4063-960a-5e21c0cd04e1","ios":"levelo://app?vid=8764d74d-df42-4063-960a-5e21c0cd04e1"},"vehicle_type_id":"4","last_reported":1723374379,"current_range_meters":12800,"station_id":"ce4bhbh2rcd13ifvqeqg","pricing_plan_id":"cebpf4jnsgd1na2vs0mg"},{"bike_id":"7fcd8c4b-e28b-4a1e-aa5b-a11643e6bf96","system_id":"levelo_inurba_marseille","lat":43.29225,"lon":5.36075,"is_reserved":false,"is_disabled":false,"rental_uris":{"android":"levelo://app?vid=7fcd8c4b-e28b-4a1e-aa5b-a11643e6bf96","ios":"levelo://app?vid=7fcd8c4b-e28b-4a1e-aa5b-a11643e6bf96"},"vehicle_type_id":"4","last_reported":1723374379,"current_range_meters":28000,"station_id":"ce4bhbh2rcd13ifvqeqg","pricing_plan_id":"cebpf4jnsgd1na2vs0mg"},{"bike_id":"aa7cba2f-08f1-4077-aed2-0ce67cc2dcf0","system_id":"levelo_inurba_marseille","lat":43.292311,"lon":5.360731,"is_reserved":false,"is_disabled":false,"rental_uris":{"android":"levelo://app?vid=aa7cba2f-08f1-4077-aed2-0ce67cc2dcf0","ios":"levelo://app?vid=aa7cba2f-08f1-4077-aed2-0ce67cc2dcf0"},"vehicle_type_id":"4","last_reported":1723374379,"current_range_meters":2400,"station_id":"ce4bhbh2rcd13ifvqeqg","pricing_plan_id":"cebpf4jnsgd1na2vs0mg"},{"bike_id":"c272379a-0499-44d8-a039-146de135e38a","system_id":"levelo_inurba_marseille","lat":43.29218,"lon":5.36077,"is_reserved":false,"is_disabled":false,"rental_uris":{"android":"levelo://app?vid=c272379a-0499-44d8-a039-146de135e38a","ios":"levelo://app?vid=c272379a-0499-44d8-a039-146de135e38a"},"vehicle_type_id":"4","last_reported":1723374379,"current_range_meters":28400,"station_id":"ce4bhbh2rcd13ifvqeqg","pricing_plan_id":"cebpf4jnsgd1na2vs0mg"},{"bike_id":"7544f9e5-6e95-4b4c-b869-fa676e64bf79","system_id":"levelo_inurba_marseille","lat":43.30085,"lon":5.390856,"is_reserved":false,"is_disabled":false,"rental_uris":{"android":"levelo://app?vid=7544f9e5-6e95-4b4c-b869-fa676e64bf79","ios":"levelo://app?vid=7544f9e5-6e95-4b4c-b869-fa676e64bf79"},"vehicle_type_id":"4","last_reported":1723374379,"current_range_meters":0,"station_id":"ce4bh192rcd13ifvqdb0","pricing_plan_id":"cebpf4jnsgd1na2vs0mg"},{"bike_id":"8669c215-f64f-4991-918a-38e605b47e3d","system_id":"levelo_inurba_marseille","lat":43.292847,"lon":5.355585,"is_reserved":false,"is_disabled":false,"rental_uris":{"android":"levelo://app?vid=8669c215-f64f-4991-918a-38e605b47e3d","ios":"levelo://app?vid=8669c215-f64f-4991-918a-38e605b47e3d"},"vehicle_type_id":"4","last_reported":1723374379,"current_range_meters":3200,"station_id":"","pricing_plan_id":"cebpf4jnsgd1na2vs0mg"},{"bike_id":"fc3fa332-dd9e-4c08-814d-4d253ad53bf8","system_id":"levelo_inurba_marseille","lat":43.292005,"lon":5.357875,"is_reserved":false,"is_disabled":false,"rental_uris":{"android":"levelo://app?vid=fc3fa332-dd9e-4c08-814d-4d253ad53bf8","ios":"levelo://app?vid=fc3fa332-dd9e-4c08-814d-4d253ad53bf8"},"vehicle_type_id":"4","last_reported":1723374379,"current_range_meters":31200,"station_id":"ce4bhb12rcd13ifvqel0","pricing_plan_id":"cebpf4jnsgd1na2vs0mg"},{"bike_id":"727e5ca1-a3ef-4fc1-a332-6fcf1da9024c","system_id":"levelo_inurba_marseille","lat":43.292005,"lon":5.357875,"is_reserved":false,"is_disabled":false,"rental_uris":{"android":"levelo://app?vid=727e5ca1-a3ef-4fc1-a332-6fcf1da9024c","ios":"levelo://app?vid=727e5ca1-a3ef-4fc1-a332-6fcf1da9024c"},"vehicle_type_id":"4","last_reported":1723374379,"current_range_meters":21200,"station_id":"ce4bhb12rcd13ifvqel0","pricing_plan_id":"cebpf4jnsgd1na2vs0mg"},{"bike_id":"51ac89ce-e4a1-452e-9a8d-a323aa5ae6f2","system_id":"levelo_inurba_marseille","lat":43.313291,"lon":5.396838,"is_reserved":false,"is_disabled":false,"rental_uris":{"android":"levelo://app?vid=51ac89ce-e4a1-452e-9a8d-a323aa5ae6f2","ios":"levelo://app?vid=51ac89ce-e4a1-452e-9a8d-a323aa5ae6f2"},"vehicle_type_id":"4","last_reported":1723374379,"current_range_meters":21200,"station_id":"ce4bgvp2rcd13ifvqcu0","pricing_plan_id":"cebpf4jnsgd1na2vs0mg"},{"bike_id":"9d4b68a5-c93f-4844-a235-5ff4a055b660","system_id":"levelo_inurba_marseille","lat":43.292385,"lon":5.37767,"is_reserved":false,"is_disabled":false,"rental_uris":{"android":"levelo://app?vid=9d4b68a5-c93f-4844-a235-5ff4a055b660","ios":"levelo://app?vid=9d4b68a5-c93f-4844-a235-5ff4a055b660"},"vehicle_type_id":"4","last_reported":1723374379,"current_range_meters":8400,"station_id":"","pricing_plan_id":"cebpf4jnsgd1na2vs0mg"},{"bike_id":"73bc6f62-b415-4380-abc8-94835dd419f2","system_id":"levelo_inurba_marseille","lat":43.313291,"lon":5.396838,"is_reserved":false,"is_disabled":false,"rental_uris":{"android":"levelo://app?vid=73bc6f62-b415-4380-abc8-94835dd419f2","ios":"levelo://app?vid=73bc6f62-b415-4380-abc8-94835dd419f2"},"vehicle_type_id":"4","last_reported":1723374379,"current_range_meters":15600,"station_id":"ce4bgvp2rcd13ifvqcu0","pricing_plan_id":"cebpf4jnsgd1na2vs0mg"},{"bike_id":"080f81f4-890d-49a7-a3bc-93072d7e054d","system_id":"levelo_inurba_marseille","lat":43.291994,"lon":5.357886,"is_reserved":false,"is_disabled":false,"rental_uris":{"android":"levelo://app?vid=080f81f4-890d-49a7-a3bc-93072d7e054d","ios":"levelo://app?vid=080f81f4-890d-49a7-a3bc-93072d7e054d"},"vehicle_type_id":"4","last_reported":1723374379,"current_range_meters":31200,"station_id":"ce4bhb12rcd13ifvqel0","pricing_plan_id":"cebpf4jnsgd1na2vs0mg"},{"bike_id":"de29d767-c050-4cdb-aac2-89188d1688a9","system_id":"levelo_inurba_marseille","lat":43.313291,"lon":5.396838,"is_reserved":false,"is_disabled":false,"rental_uris":{"android":"levelo://app?vid=de29d767-c050-4cdb-aac2-89188d1688a9","ios":"levelo://app?vid=de29d767-c050-4cdb-aac2-89188d1688a9"},"vehicle_type_id":"4","last_reported":1723374379,"current_range_meters":19200,"station_id":"ce4bgvp2rcd13ifvqcu0","pricing_plan_id":"cebpf4jnsgd1na2vs0mg"},{"bike_id":"8b6c0672-ada3-4507-a0ec-fd601dc4fbf9","system_id":"levelo_inurba_marseille","lat":43.313291,"lon":5.396838,"is_reserved":false,"is_disabled":false,"rental_uris":{"android":"levelo://app?vid=8b6c0672-ada3-4507-a0ec-fd601dc4fbf9","ios":"levelo://app?vid=8b6c0672-ada3-4507-a0ec-fd601dc4fbf9"},"vehicle_type_id":"4","last_reported":1723374379,"current_range_meters":31600,"station_id":"ce4bgvp2rcd13ifvqcu0","pricing_plan_id":"cebpf4jnsgd1na2vs0mg"},{"bike_id":"ec666fdd-3b3f-47f4-8781-9822b842d4d4","system_id":"levelo_inurba_marseille","lat":43.313291,"lon":5.396838,"is_reserved":false,"is_disabled":false,"rental_uris":{"android":"levelo://app?vid=ec666fdd-3b3f-47f4-8781-9822b842d4d4","ios":"levelo://app?vid=ec666fdd-3b3f-47f4-8781-9822b842d4d4"},"vehicle_type_id":"4","last_reported":1723374379,"current_range_meters":14400,"station_id":"ce4bgvp2rcd13ifvqcu0","pricing_plan_id":"cebpf4jnsgd1na2vs0mg"},{"bike_id":"f5e7466d-3f61-419c-b9dd-545e025d7a10","system_id":"levelo_inurba_marseille","lat":43.29529,"lon":5.385373,"is_reserved":false,"is_disabled":false,"rental_uris":{"android":"levelo://app?vid=f5e7466d-3f61-419c-b9dd-545e025d7a10","ios":"levelo://app?vid=f5e7466d-3f61-419c-b9dd-545e025d7a10"},"vehicle_type_id":"4","last_reported":1723374379,"current_range_meters":0,"station_id":"ce4bgih2rcd13ifvqba0","pricing_plan_id":"cebpf4jnsgd1na2vs0mg"},{"bike_id":"b113f935-e662-4539-9651-780fdf1005db","system_id":"levelo_inurba_marseille","lat":43.29529,"lon":5.385581,"is_reserved":false,"is_disabled":false,"rental_uris":{"android":"levelo://app?vid=b113f935-e662-4539-9651-780fdf1005db","ios":"levelo://app?vid=b113f935-e662-4539-9651-780fdf1005db"},"vehicle_type_id":"4","last_reported":1723374379,"current_range_meters":14000,"station_id":"ce4bgih2rcd13ifvqba0","pricing_plan_id":"cebpf4jnsgd1na2vs0mg"},{"bike_id":"924348cb-79a7-4834-8c7b-f16dbb5b8ed3","system_id":"levelo_inurba_marseille","lat":43.29529,"lon":5.385581,"is_reserved":false,"is_disabled":false,"rental_uris":{"android":"levelo://app?vid=924348cb-79a7-4834-8c7b-f16dbb5b8ed3","ios":"levelo://app?vid=924348cb-79a7-4834-8c7b-f16dbb5b8ed3"},"vehicle_type_id":"4","last_reported":1723374379,"current_range_meters":7200,"station_id":"ce4bgih2rcd13ifvqba0","pricing_plan_id":"cebpf4jnsgd1na2vs0mg"},{"bike_id":"e0dc01d0-3a15-4f53-b8c7-8a8e05a579d6","system_id":"levelo_inurba_marseille","lat":43.309449,"lon":5.397727,"is_reserved":false,"is_disabled":false,"rental_uris":{"android":"levelo://app?vid=e0dc01d0-3a15-4f53-b8c7-8a8e05a579d6","ios":"levelo://app?vid=e0dc01d0-3a15-4f53-b8c7-8a8e05a579d6"},"vehicle_type_id":"4","last_reported":1723374379,"current_range_meters":6000,"station_id":"","pricing_plan_id":"cebpf4jnsgd1na2vs0mg"},{"bike_id":"f487b378-cf2d-4387-b118-1081f1938911","system_id":"levelo_inurba_marseille","lat":43.29287,"lon":5.38244,"is_reserved":false,"is_disabled":false,"rental_uris":{"android":"levelo://app?vid=f487b378-cf2d-4387-b118-1081f1938911","ios":"levelo://app?vid=f487b378-cf2d-4387-b118-1081f1938911"},"vehicle_type_id":"4","last_reported":1723374379,"current_range_meters":1200,"station_id":"","pricing_plan_id":"cebpf4jnsgd1na2vs0mg"},{"bike_id":"8bc09df8-44be-4f14-86fa-cab2f1c625f0","system_id":"levelo_inurba_marseille","lat":43.294153,"lon":5.386305,"is_reserved":false,"is_disabled":false,"rental_uris":{"android":"levelo://app?vid=8bc09df8-44be-4f14-86fa-cab2f1c625f0","ios":"levelo://app?vid=8bc09df8-44be-4f14-86fa-cab2f1c625f0"},"vehicle_type_id":"4","last_reported":1723374379,"current_range_meters":24400,"station_id":"ce4bh2h2rcd13ifvqdh0","pricing_plan_id":"cebpf4jnsgd1na2vs0mg"},{"bike_id":"22c5eff9-9d0d-4dea-8d18-c2658dc4924e","system_id":"levelo_inurba_marseille","lat":43.289468,"lon":5.363719,"is_reserved":false,"is_disabled":false,"rental_uris":{"android":"levelo://app?vid=22c5eff9-9d0d-4dea-8d18-c2658dc4924e","ios":"levelo://app?vid=22c5eff9-9d0d-4dea-8d18-c2658dc4924e"},"vehicle_type_id":"4","last_reported":1723374379,"current_range_meters":2400,"station_id":"ce4bhc92rcd13ifvqetg","pricing_plan_id":"cebpf4jnsgd1na2vs0mg"},{"bike_id":"e690133b-4020-4d7f-9f1d-096ed6d3181e","system_id":"levelo_inurba_marseille","lat":43.289468,"lon":5.363719,"is_reserved":false,"is_disabled":false,"rental_uris":{"android":"levelo://app?vid=e690133b-4020-4d7f-9f1d-096ed6d3181e","ios":"levelo://app?vid=e690133b-4020-4d7f-9f1d-096ed6d3181e"},"vehicle_type_id":"4","last_reported":1723374379,"current_range_meters":20400,"station_id":"ce4bhc92rcd13ifvqetg","pricing_plan_id":"cebpf4jnsgd1na2vs0mg"},{"bike_id":"0e27a5c8-f48e-41c1-a718-2adf5fdf4fb5","system_id":"levelo_inurba_marseille","lat":43.28944,"lon":5.36634,"is_reserved":false,"is_disabled":false,"rental_uris":{"android":"levelo://app?vid=0e27a5c8-f48e-41c1-a718-2adf5fdf4fb5","ios":"levelo://app?vid=0e27a5c8-f48e-41c1-a718-2adf5fdf4fb5"},"vehicle_type_id":"4","last_reported":1723374379,"current_range_meters":24800,"station_id":"ce4bhap2rcd13ifvqek0","pricing_plan_id":"cebpf4jnsgd1na2vs0mg"},{"bike_id":"11595f64-6790-4fbe-ab09-9130d66f5f4d","system_id":"levelo_inurba_marseille","lat":43.289468,"lon":5.363719,"is_reserved":false,"is_disabled":false,"rental_uris":{"android":"levelo://app?vid=11595f64-6790-4fbe-ab09-9130d66f5f4d","ios":"levelo://app?vid=11595f64-6790-4fbe-ab09-9130d66f5f4d"},"vehicle_type_id":"4","last_reported":1723374379,"current_range_meters":12000,"station_id":"ce4bhc92rcd13ifvqetg","pricing_plan_id":"cebpf4jnsgd1na2vs0mg"},{"bike_id":"a0840ab0-88ba-4b92-a013-c8f813bf30e9","system_id":"levelo_inurba_marseille","lat":43.28942,"lon":5.36406,"is_reserved":false,"is_disabled":false,"rental_uris":{"android":"levelo://app?vid=a0840ab0-88ba-4b92-a013-c8f813bf30e9","ios":"levelo://app?vid=a0840ab0-88ba-4b92-a013-c8f813bf30e9"},"vehicle_type_id":"4","last_reported":1723374379,"current_range_meters":8000,"station_id":"ce4bhc92rcd13ifvqetg","pricing_plan_id":"cebpf4jnsgd1na2vs0mg"},{"bike_id":"defb7149-6fab-4ec3-b2a8-e51c99e24297","system_id":"levelo_inurba_marseille","lat":43.289184,"lon":5.366408,"is_reserved":false,"is_disabled":false,"rental_uris":{"android":"levelo://app?vid=defb7149-6fab-4ec3-b2a8-e51c99e24297","ios":"levelo://app?vid=defb7149-6fab-4ec3-b2a8-e51c99e24297"},"vehicle_type_id":"4","last_reported":1723374379,"current_range_meters":2400,"station_id":"ce4bhap2rcd13ifvqek0","pricing_plan_id":"cebpf4jnsgd1na2vs0mg"},{"bike_id":"7a64a02d-d4a9-44bd-8b49-1966dd80a4ac","system_id":"levelo_inurba_marseille","lat":43.289184,"lon":5.366408,"is_reserved":false,"is_disabled":false,"rental_uris":{"android":"levelo://app?vid=7a64a02d-d4a9-44bd-8b49-1966dd80a4ac","ios":"levelo://app?vid=7a64a02d-d4a9-44bd-8b49-1966dd80a4ac"},"vehicle_type_id":"4","last_reported":1723374379,"current_range_meters":26800,"station_id":"ce4bhap2rcd13ifvqek0","pricing_plan_id":"cebpf4jnsgd1na2vs0mg"},{"bike_id":"0f1ec51c-e837-4e8e-8083-6d3ad8084afa","system_id":"levelo_inurba_marseille","lat":43.289468,"lon":5.363719,"is_reserved":false,"is_disabled":false,"rental_uris":{"android":"levelo://app?vid=0f1ec51c-e837-4e8e-8083-6d3ad8084afa","ios":"levelo://app?vid=0f1ec51c-e837-4e8e-8083-6d3ad8084afa"},"vehicle_type_id":"4","last_reported":1723374379,"current_range_meters":16000,"station_id":"ce4bhc92rcd13ifvqetg","pricing_plan_id":"cebpf4jnsgd1na2vs0mg"},{"bike_id":"ff99e601-dc8d-49fe-a017-dcc1a1eed783","system_id":"levelo_inurba_marseille","lat":43.292509,"lon":5.384208,"is_reserved":false,"is_disabled":false,"rental_uris":{"android":"levelo://app?vid=ff99e601-dc8d-49fe-a017-dcc1a1eed783","ios":"levelo://app?vid=ff99e601-dc8d-49fe-a017-dcc1a1eed783"},"vehicle_type_id":"4","last_reported":1723374379,"current_range_meters":20800,"station_id":"","pricing_plan_id":"cebpf4jnsgd1na2vs0mg"},{"bike_id":"c1412c7f-68b5-4e66-8258-4653f9467de8","system_id":"levelo_inurba_marseille","lat":43.292644,"lon":5.384257,"is_reserved":false,"is_disabled":false,"rental_uris":{"android":"levelo://app?vid=c1412c7f-68b5-4e66-8258-4653f9467de8","ios":"levelo://app?vid=c1412c7f-68b5-4e66-8258-4653f9467de8"},"vehicle_type_id":"4","last_reported":1723374379,"current_range_meters":27600,"station_id":"ce4bh692rcd13ifvqea0","pricing_plan_id":"cebpf4jnsgd1na2vs0mg"},{"bike_id":"735bd8b1-dfea-419e-b584-1710ae8b7520","system_id":"levelo_inurba_marseille","lat":43.290103,"lon":5.356114,"is_reserved":false,"is_disabled":false,"rental_uris":{"android":"levelo://app?vid=735bd8b1-dfea-419e-b584-1710ae8b7520","ios":"levelo://app?vid=735bd8b1-dfea-419e-b584-1710ae8b7520"},"vehicle_type_id":"4","last_reported":1723374379,"current_range_meters":29600,"station_id":"ce4bhb92rcd13ifvqen0","pricing_plan_id":"cebpf4jnsgd1na2vs0mg"},{"bike_id":"ee67a1dc-b3c9-48bf-9a06-10da32189d18","system_id":"levelo_inurba_marseille","lat":43.29008,"lon":5.35628,"is_reserved":false,"is_disabled":false,"rental_uris":{"android":"levelo://app?vid=ee67a1dc-b3c9-48bf-9a06-10da32189d18","ios":"levelo://app?vid=ee67a1dc-b3c9-48bf-9a06-10da32189d18"},"vehicle_type_id":"4","last_reported":1723374379,"current_range_meters":30800,"station_id":"ce4bhb92rcd13ifvqen0","pricing_plan_id":"cebpf4jnsgd1na2vs0mg"},{"bike_id":"9192bc42-c32c-4089-8429-03c75727d798","system_id":"levelo_inurba_marseille","lat":43.290103,"lon":5.356114,"is_reserved":false,"is_disabled":false,"rental_uris":{"android":"levelo://app?vid=9192bc42-c32c-4089-8429-03c75727d798","ios":"levelo://app?vid=9192bc42-c32c-4089-8429-03c75727d798"},"vehicle_type_id":"4","last_reported":1723374379,"current_range_meters":26400,"station_id":"ce4bhb92rcd13ifvqen0","pricing_plan_id":"cebpf4jnsgd1na2vs0mg"},{"bike_id":"65e1742e-6785-4dd2-adb0-66c40fa0750c","system_id":"levelo_inurba_marseille","lat":43.29009,"lon":5.35618,"is_reserved":false,"is_disabled":false,"rental_uris":{"android":"levelo://app?vid=65e1742e-6785-4dd2-adb0-66c40fa0750c","ios":"levelo://app?vid=65e1742e-6785-4dd2-adb0-66c40fa0750c"},"vehicle_type_id":"4","last_reported":1723374379,"current_range_meters":14000,"station_id":"ce4bhb92rcd13ifvqen0","pricing_plan_id":"cebpf4jnsgd1na2vs0mg"},{"bike_id":"11124d6f-d25c-4acd-9323-ab25faf72365","system_id":"levelo_inurba_marseille","lat":43.290103,"lon":5.356114,"is_reserved":false,"is_disabled":false,"rental_uris":{"android":"levelo://app?vid=11124d6f-d25c-4acd-9323-ab25faf72365","ios":"levelo://app?vid=11124d6f-d25c-4acd-9323-ab25faf72365"},"vehicle_type_id":"4","last_reported":1723374379,"current_range_meters":16800,"station_id":"ce4bhb92rcd13ifvqen0","pricing_plan_id":"cebpf4jnsgd1na2vs0mg"},{"bike_id":"08d00db7-74c3-4516-9ad6-e83f1670a4d3","system_id":"levelo_inurba_marseille","lat":43.290103,"lon":5.356114,"is_reserved":false,"is_disabled":false,"rental_uris":{"android":"levelo://app?vid=08d00db7-74c3-4516-9ad6-e83f1670a4d3","ios":"levelo://app?vid=08d00db7-74c3-4516-9ad6-e83f1670a4d3"},"vehicle_type_id":"4","last_reported":1723374379,"current_range_meters":30800,"station_id":"ce4bhb92rcd13ifvqen0","pricing_plan_id":"cebpf4jnsgd1na2vs0mg"},{"bike_id":"b22d11b0-0a8c-4061-984c-e6975c962de4","system_id":"levelo_inurba_marseille","lat":43.330442,"lon":5.389148,"is_reserved":false,"is_disabled":false,"rental_uris":{"android":"levelo://app?vid=b22d11b0-0a8c-4061-984c-e6975c962de4","ios":"levelo://app?vid=b22d11b0-0a8c-4061-984c-e6975c962de4"},"vehicle_type_id":"4","last_reported":1723374379,"current_range_meters":30000,"station_id":"ce4bhr92rcd13ifvqhrg","pricing_plan_id":"cebpf4jnsgd1na2vs0mg"},{"bike_id":"6fa03b0d-f70d-43d7-bbad-facd58006f90","system_id":"levelo_inurba_marseille","lat":43.295169,"lon":5.390426,"is_reserved":false,"is_disabled":false,"rental_uris":{"android":"levelo://app?vid=6fa03b0d-f70d-43d7-bbad-facd58006f90","ios":"levelo://app?vid=6fa03b0d-f70d-43d7-bbad-facd58006f90"},"vehicle_type_id":"4","last_reported":1723374379,"current_range_meters":15600,"station_id":"ce4bh3p2rcd13ifvqdp0","pricing_plan_id":"cebpf4jnsgd1na2vs0mg"},{"bike_id":"0b3026fb-8bfd-4b6c-8010-5b4207697d48","system_id":"levelo_inurba_marseille","lat":43.330442,"lon":5.389148,"is_reserved":false,"is_disabled":false,"rental_uris":{"android":"levelo://app?vid=0b3026fb-8bfd-4b6c-8010-5b4207697d48","ios":"levelo://app?vid=0b3026fb-8bfd-4b6c-8010-5b4207697d48"},"vehicle_type_id":"4","last_reported":1723374379,"current_range_meters":31200,"station_id":"ce4bhr92rcd13ifvqhrg","pricing_plan_id":"cebpf4jnsgd1na2vs0mg"},{"bike_id":"15351475-626f-468a-9f7f-33afa44d236f","system_id":"levelo_inurba_marseille","lat":43.330442,"lon":5.389148,"is_reserved":false,"is_disabled":false,"rental_uris":{"android":"levelo://app?vid=15351475-626f-468a-9f7f-33afa44d236f","ios":"levelo://app?vid=15351475-626f-468a-9f7f-33afa44d236f"},"vehicle_type_id":"4","last_reported":1723374379,"current_range_meters":11600,"station_id":"ce4bhr92rcd13ifvqhrg","pricing_plan_id":"cebpf4jnsgd1na2vs0mg"},{"bike_id":"2ae1d524-cf98-4bc5-9bb8-f396e1a7c33b","system_id":"levelo_inurba_marseille","lat":43.33027,"lon":5.39044,"is_reserved":false,"is_disabled":false,"rental_uris":{"android":"levelo://app?vid=2ae1d524-cf98-4bc5-9bb8-f396e1a7c33b","ios":"levelo://app?vid=2ae1d524-cf98-4bc5-9bb8-f396e1a7c33b"},"vehicle_type_id":"4","last_reported":1723374379,"current_range_meters":2400,"station_id":"ce4bhr92rcd13ifvqhrg","pricing_plan_id":"cebpf4jnsgd1na2vs0mg"},{"bike_id":"9f43cce4-2786-48e5-b554-ef94204f327a","system_id":"levelo_inurba_marseille","lat":43.30304,"lon":5.368987,"is_reserved":false,"is_disabled":false,"rental_uris":{"android":"levelo://app?vid=9f43cce4-2786-48e5-b554-ef94204f327a","ios":"levelo://app?vid=9f43cce4-2786-48e5-b554-ef94204f327a"},"vehicle_type_id":"4","last_reported":1723374379,"current_range_meters":18000,"station_id":"ce4bgqh2rcd13ifvqc5g","pricing_plan_id":"cebpf4jnsgd1na2vs0mg"},{"bike_id":"959d4c63-df60-4f23-9987-f0b6f1f472c1","system_id":"levelo_inurba_marseille","lat":43.28856,"lon":5.358371,"is_reserved":false,"is_disabled":false,"rental_uris":{"android":"levelo://app?vid=959d4c63-df60-4f23-9987-f0b6f1f472c1","ios":"levelo://app?vid=959d4c63-df60-4f23-9987-f0b6f1f472c1"},"vehicle_type_id":"4","last_reported":1723374379,"current_range_meters":31200,"station_id":"ce4bhb12rcd13ifvqem0","pricing_plan_id":"cebpf4jnsgd1na2vs0mg"},{"bike_id":"602dd4cf-1349-4d99-a3f3-78c884caa2f4","system_id":"levelo_inurba_marseille","lat":43.28856,"lon":5.358371,"is_reserved":false,"is_disabled":false,"rental_uris":{"android":"levelo://app?vid=602dd4cf-1349-4d99-a3f3-78c884caa2f4","ios":"levelo://app?vid=602dd4cf-1349-4d99-a3f3-78c884caa2f4"},"vehicle_type_id":"4","last_reported":1723374379,"current_range_meters":21600,"station_id":"ce4bhb12rcd13ifvqem0","pricing_plan_id":"cebpf4jnsgd1na2vs0mg"},{"bike_id":"75ad9e42-5753-44a7-959b-c595c2439e25","system_id":"levelo_inurba_marseille","lat":43.28856,"lon":5.358371,"is_reserved":false,"is_disabled":false,"rental_uris":{"android":"levelo://app?vid=75ad9e42-5753-44a7-959b-c595c2439e25","ios":"levelo://app?vid=75ad9e42-5753-44a7-959b-c595c2439e25"},"vehicle_type_id":"4","last_reported":1723374379,"current_range_meters":31200,"station_id":"ce4bhb12rcd13ifvqem0","pricing_plan_id":"cebpf4jnsgd1na2vs0mg"},{"bike_id":"3bddb62c-2d52-4c3a-8452-b866061adece","system_id":"levelo_inurba_marseille","lat":43.312609,"lon":5.401662,"is_reserved":false,"is_disabled":false,"rental_uris":{"android":"levelo://app?vid=3bddb62c-2d52-4c3a-8452-b866061adece","ios":"levelo://app?vid=3bddb62c-2d52-4c3a-8452-b866061adece"},"vehicle_type_id":"4","last_reported":1723374379,"current_range_meters":31600,"station_id":"ce4bh092rcd13ifvqd30","pricing_plan_id":"cebpf4jnsgd1na2vs0mg"},{"bike_id":"bebce8ee-6374-4089-86b4-fb79f92fccf8","system_id":"levelo_inurba_marseille","lat":43.312609,"lon":5.401662,"is_reserved":false,"is_disabled":false,"rental_uris":{"android":"levelo://app?vid=bebce8ee-6374-4089-86b4-fb79f92fccf8","ios":"levelo://app?vid=bebce8ee-6374-4089-86b4-fb79f92fccf8"},"vehicle_type_id":"4","last_reported":1723374379,"current_range_meters":24400,"station_id":"ce4bh092rcd13ifvqd30","pricing_plan_id":"cebpf4jnsgd1na2vs0mg"},{"bike_id":"48860155-e864-4bb1-81e2-8104ab2a7512","system_id":"levelo_inurba_marseille","lat":43.309371,"lon":5.401449,"is_reserved":false,"is_disabled":false,"rental_uris":{"android":"levelo://app?vid=48860155-e864-4bb1-81e2-8104ab2a7512","ios":"levelo://app?vid=48860155-e864-4bb1-81e2-8104ab2a7512"},"vehicle_type_id":"4","last_reported":1723374379,"current_range_meters":16800,"station_id":"ce4bgvp2rcd13ifvqct0","pricing_plan_id":"cebpf4jnsgd1na2vs0mg"},{"bike_id":"c3cf305c-692c-41ed-b07c-7ebbc13f240d","system_id":"levelo_inurba_marseille","lat":43.337405,"lon":5.374624,"is_reserved":false,"is_disabled":false,"rental_uris":{"android":"levelo://app?vid=c3cf305c-692c-41ed-b07c-7ebbc13f240d","ios":"levelo://app?vid=c3cf305c-692c-41ed-b07c-7ebbc13f240d"},"vehicle_type_id":"4","last_reported":1723374379,"current_range_meters":14800,"station_id":"","pricing_plan_id":"cebpf4jnsgd1na2vs0mg"},{"bike_id":"4dd3df97-f042-4ef0-9fba-47ec4b401346","system_id":"levelo_inurba_marseille","lat":43.312609,"lon":5.401662,"is_reserved":false,"is_disabled":false,"rental_uris":{"android":"levelo://app?vid=4dd3df97-f042-4ef0-9fba-47ec4b401346","ios":"levelo://app?vid=4dd3df97-f042-4ef0-9fba-47ec4b401346"},"vehicle_type_id":"4","last_reported":1723374379,"current_range_meters":31200,"station_id":"ce4bh092rcd13ifvqd30","pricing_plan_id":"cebpf4jnsgd1na2vs0mg"},{"bike_id":"f4767f82-aaaf-446c-9ba1-3bf9f4d71aad","system_id":"levelo_inurba_marseille","lat":43.312609,"lon":5.401662,"is_reserved":false,"is_disabled":false,"rental_uris":{"android":"levelo://app?vid=f4767f82-aaaf-446c-9ba1-3bf9f4d71aad","ios":"levelo://app?vid=f4767f82-aaaf-446c-9ba1-3bf9f4d71aad"},"vehicle_type_id":"4","last_reported":1723374379,"current_range_meters":20800,"station_id":"ce4bh092rcd13ifvqd30","pricing_plan_id":"cebpf4jnsgd1na2vs0mg"},{"bike_id":"ac75d8e5-5139-4e43-a64e-51e7994c2517","system_id":"levelo_inurba_marseille","lat":43.337444,"lon":5.374475,"is_reserved":false,"is_disabled":false,"rental_uris":{"android":"levelo://app?vid=ac75d8e5-5139-4e43-a64e-51e7994c2517","ios":"levelo://app?vid=ac75d8e5-5139-4e43-a64e-51e7994c2517"},"vehicle_type_id":"3","last_reported":1723374379,"current_range_meters":24800,"station_id":"","pricing_plan_id":"cebpf4jnsgd1na2vs0mg"},{"bike_id":"43f21911-683d-4ba4-93d3-8a7e20e1c78c","system_id":"levelo_inurba_marseille","lat":43.337425,"lon":5.374649,"is_reserved":false,"is_disabled":false,"rental_uris":{"android":"levelo://app?vid=43f21911-683d-4ba4-93d3-8a7e20e1c78c","ios":"levelo://app?vid=43f21911-683d-4ba4-93d3-8a7e20e1c78c"},"vehicle_type_id":"4","last_reported":1723374379,"current_range_meters":27600,"station_id":"","pricing_plan_id":"cebpf4jnsgd1na2vs0mg"},{"bike_id":"8b5f6228-3582-497c-9919-c849c8ef0c9b","system_id":"levelo_inurba_marseille","lat":43.337436,"lon":5.374589,"is_reserved":false,"is_disabled":false,"rental_uris":{"android":"levelo://app?vid=8b5f6228-3582-497c-9919-c849c8ef0c9b","ios":"levelo://app?vid=8b5f6228-3582-497c-9919-c849c8ef0c9b"},"vehicle_type_id":"4","last_reported":1723374379,"current_range_meters":800,"station_id":"","pricing_plan_id":"cebpf4jnsgd1na2vs0mg"},{"bike_id":"99ff80d6-767c-4ca9-81b5-c19f253f3bd3","system_id":"levelo_inurba_marseille","lat":43.337453,"lon":5.374557,"is_reserved":false,"is_disabled":false,"rental_uris":{"android":"levelo://app?vid=99ff80d6-767c-4ca9-81b5-c19f253f3bd3","ios":"levelo://app?vid=99ff80d6-767c-4ca9-81b5-c19f253f3bd3"},"vehicle_type_id":"4","last_reported":1723374379,"current_range_meters":0,"station_id":"","pricing_plan_id":"cebpf4jnsgd1na2vs0mg"},{"bike_id":"a99690a8-3e4f-41a1-9b6a-5b43249a269f","system_id":"levelo_inurba_marseille","lat":43.33746,"lon":5.37457,"is_reserved":false,"is_disabled":false,"rental_uris":{"android":"levelo://app?vid=a99690a8-3e4f-41a1-9b6a-5b43249a269f","ios":"levelo://app?vid=a99690a8-3e4f-41a1-9b6a-5b43249a269f"},"vehicle_type_id":"4","last_reported":1723374379,"current_range_meters":1600,"station_id":"","pricing_plan_id":"cebpf4jnsgd1na2vs0mg"},{"bike_id":"7553d7c6-8eef-4b21-9dca-534ec43256a6","system_id":"levelo_inurba_marseille","lat":43.33748,"lon":5.3747,"is_reserved":false,"is_disabled":false,"rental_uris":{"android":"levelo://app?vid=7553d7c6-8eef-4b21-9dca-534ec43256a6","ios":"levelo://app?vid=7553d7c6-8eef-4b21-9dca-534ec43256a6"},"vehicle_type_id":"4","last_reported":1723374379,"current_range_meters":10400,"station_id":"","pricing_plan_id":"cebpf4jnsgd1na2vs0mg"},{"bike_id":"6137b86e-8de9-4c4f-94ef-bfa372175031","system_id":"levelo_inurba_marseille","lat":43.337513,"lon":5.37454,"is_reserved":false,"is_disabled":false,"rental_uris":{"android":"levelo://app?vid=6137b86e-8de9-4c4f-94ef-bfa372175031","ios":"levelo://app?vid=6137b86e-8de9-4c4f-94ef-bfa372175031"},"vehicle_type_id":"4","last_reported":1723374379,"current_range_meters":12400,"station_id":"","pricing_plan_id":"cebpf4jnsgd1na2vs0mg"},{"bike_id":"1ece39e8-5ec5-465b-b0d5-bdea3554c74d","system_id":"levelo_inurba_marseille","lat":43.337559,"lon":5.374482,"is_reserved":false,"is_disabled":false,"rental_uris":{"android":"levelo://app?vid=1ece39e8-5ec5-465b-b0d5-bdea3554c74d","ios":"levelo://app?vid=1ece39e8-5ec5-465b-b0d5-bdea3554c74d"},"vehicle_type_id":"4","last_reported":1723374379,"current_range_meters":21600,"station_id":"","pricing_plan_id":"cebpf4jnsgd1na2vs0mg"},{"bike_id":"ea1cc1bc-b3f0-4093-8f5f-6dfff1fa63d9","system_id":"levelo_inurba_marseille","lat":43.337575,"lon":5.37485,"is_reserved":false,"is_disabled":false,"rental_uris":{"android":"levelo://app?vid=ea1cc1bc-b3f0-4093-8f5f-6dfff1fa63d9","ios":"levelo://app?vid=ea1cc1bc-b3f0-4093-8f5f-6dfff1fa63d9"},"vehicle_type_id":"4","last_reported":1723374379,"current_range_meters":30400,"station_id":"","pricing_plan_id":"cebpf4jnsgd1na2vs0mg"},{"bike_id":"e0da458e-1309-458b-956b-aab617b2ea05","system_id":"levelo_inurba_marseille","lat":43.3376,"lon":5.37473,"is_reserved":false,"is_disabled":false,"rental_uris":{"android":"levelo://app?vid=e0da458e-1309-458b-956b-aab617b2ea05","ios":"levelo://app?vid=e0da458e-1309-458b-956b-aab617b2ea05"},"vehicle_type_id":"4","last_reported":1723374379,"current_range_meters":24000,"station_id":"","pricing_plan_id":"cebpf4jnsgd1na2vs0mg"},{"bike_id":"a7e71684-8757-4c0e-98c0-cd5b05cd0ba7","system_id":"levelo_inurba_marseille","lat":43.337583,"lon":5.374932,"is_reserved":false,"is_disabled":false,"rental_uris":{"android":"levelo://app?vid=a7e71684-8757-4c0e-98c0-cd5b05cd0ba7","ios":"levelo://app?vid=a7e71684-8757-4c0e-98c0-cd5b05cd0ba7"},"vehicle_type_id":"4","last_reported":1723374379,"current_range_meters":30000,"station_id":"","pricing_plan_id":"cebpf4jnsgd1na2vs0mg"},{"bike_id":"5cb0d0f3-eacc-40eb-a46e-542fc59e15f6","system_id":"levelo_inurba_marseille","lat":43.33762,"lon":5.3749,"is_reserved":false,"is_disabled":false,"rental_uris":{"android":"levelo://app?vid=5cb0d0f3-eacc-40eb-a46e-542fc59e15f6","ios":"levelo://app?vid=5cb0d0f3-eacc-40eb-a46e-542fc59e15f6"},"vehicle_type_id":"4","last_reported":1723374379,"current_range_meters":30000,"station_id":"","pricing_plan_id":"cebpf4jnsgd1na2vs0mg"},{"bike_id":"475ed14f-5d86-4ce1-9e44-9d4d1bef7035","system_id":"levelo_inurba_marseille","lat":43.33765,"lon":5.37486,"is_reserved":false,"is_disabled":false,"rental_uris":{"android":"levelo://app?vid=475ed14f-5d86-4ce1-9e44-9d4d1bef7035","ios":"levelo://app?vid=475ed14f-5d86-4ce1-9e44-9d4d1bef7035"},"vehicle_type_id":"4","last_reported":1723374379,"current_range_meters":22000,"station_id":"","pricing_plan_id":"cebpf4jnsgd1na2vs0mg"},{"bike_id":"57da0337-159a-4148-be4f-fc6e9aca3c31","system_id":"levelo_inurba_marseille","lat":43.337068,"lon":5.355745,"is_reserved":false,"is_disabled":false,"rental_uris":{"android":"levelo://app?vid=57da0337-159a-4148-be4f-fc6e9aca3c31","ios":"levelo://app?vid=57da0337-159a-4148-be4f-fc6e9aca3c31"},"vehicle_type_id":"4","last_reported":1723374379,"current_range_meters":5200,"station_id":"","pricing_plan_id":"cebpf4jnsgd1na2vs0mg"},{"bike_id":"6f8a75ef-cfde-4da5-99c7-85f9ae9b026b","system_id":"levelo_inurba_marseille","lat":43.3378,"lon":5.37456,"is_reserved":false,"is_disabled":false,"rental_uris":{"android":"levelo://app?vid=6f8a75ef-cfde-4da5-99c7-85f9ae9b026b","ios":"levelo://app?vid=6f8a75ef-cfde-4da5-99c7-85f9ae9b026b"},"vehicle_type_id":"4","last_reported":1723374379,"current_range_meters":23200,"station_id":"","pricing_plan_id":"cebpf4jnsgd1na2vs0mg"},{"bike_id":"d04356fe-572a-423c-b2a8-6897ea1f4001","system_id":"levelo_inurba_marseille","lat":43.301117,"lon":5.398795,"is_reserved":false,"is_disabled":false,"rental_uris":{"android":"levelo://app?vid=d04356fe-572a-423c-b2a8-6897ea1f4001","ios":"levelo://app?vid=d04356fe-572a-423c-b2a8-6897ea1f4001"},"vehicle_type_id":"4","last_reported":1723374379,"current_range_meters":24400,"station_id":"ce4bh0h2rcd13ifvqd40","pricing_plan_id":"cebpf4jnsgd1na2vs0mg"},{"bike_id":"a74b99c0-bb0b-4ad9-a67d-d00d89968b65","system_id":"levelo_inurba_marseille","lat":43.286961,"lon":5.373785,"is_reserved":false,"is_disabled":false,"rental_uris":{"android":"levelo://app?vid=a74b99c0-bb0b-4ad9-a67d-d00d89968b65","ios":"levelo://app?vid=a74b99c0-bb0b-4ad9-a67d-d00d89968b65"},"vehicle_type_id":"4","last_reported":1723374379,"current_range_meters":7600,"station_id":"ce4bh3p2rcd13ifvqdq0","pricing_plan_id":"cebpf4jnsgd1na2vs0mg"},{"bike_id":"6181f186-530d-467e-a804-0a2d8d6aca81","system_id":"levelo_inurba_marseille","lat":43.286683,"lon":5.36341,"is_reserved":false,"is_disabled":false,"rental_uris":{"android":"levelo://app?vid=6181f186-530d-467e-a804-0a2d8d6aca81","ios":"levelo://app?vid=6181f186-530d-467e-a804-0a2d8d6aca81"},"vehicle_type_id":"4","last_reported":1723374379,"current_range_meters":0,"station_id":"ce4bhah2rcd13ifvqej0","pricing_plan_id":"cebpf4jnsgd1na2vs0mg"},{"bike_id":"70cd6a18-ccce-4ee6-961f-5b983864b41c","system_id":"levelo_inurba_marseille","lat":43.286657,"lon":5.36358,"is_reserved":false,"is_disabled":false,"rental_uris":{"android":"levelo://app?vid=70cd6a18-ccce-4ee6-961f-5b983864b41c","ios":"levelo://app?vid=70cd6a18-ccce-4ee6-961f-5b983864b41c"},"vehicle_type_id":"4","last_reported":1723374379,"current_range_meters":31200,"station_id":"ce4bhah2rcd13ifvqej0","pricing_plan_id":"cebpf4jnsgd1na2vs0mg"},{"bike_id":"0cccd5e0-b09f-4a35-b2bc-fddc53c542ec","system_id":"levelo_inurba_marseille","lat":43.286961,"lon":5.373785,"is_reserved":false,"is_disabled":false,"rental_uris":{"android":"levelo://app?vid=0cccd5e0-b09f-4a35-b2bc-fddc53c542ec","ios":"levelo://app?vid=0cccd5e0-b09f-4a35-b2bc-fddc53c542ec"},"vehicle_type_id":"4","last_reported":1723374379,"current_range_meters":20400,"station_id":"ce4bh3p2rcd13ifvqdq0","pricing_plan_id":"cebpf4jnsgd1na2vs0mg"},{"bike_id":"eaaeaac8-8c11-46b6-b6c0-ae92a8fb94dc","system_id":"levelo_inurba_marseille","lat":43.28667,"lon":5.36337,"is_reserved":false,"is_disabled":false,"rental_uris":{"android":"levelo://app?vid=eaaeaac8-8c11-46b6-b6c0-ae92a8fb94dc","ios":"levelo://app?vid=eaaeaac8-8c11-46b6-b6c0-ae92a8fb94dc"},"vehicle_type_id":"4","last_reported":1723374379,"current_range_meters":4800,"station_id":"ce4bhah2rcd13ifvqej0","pricing_plan_id":"cebpf4jnsgd1na2vs0mg"},{"bike_id":"976d0109-9de7-4d45-bd81-5491eb52ebe8","system_id":"levelo_inurba_marseille","lat":43.33031,"lon":5.39365,"is_reserved":false,"is_disabled":false,"rental_uris":{"android":"levelo://app?vid=976d0109-9de7-4d45-bd81-5491eb52ebe8","ios":"levelo://app?vid=976d0109-9de7-4d45-bd81-5491eb52ebe8"},"vehicle_type_id":"4","last_reported":1723374379,"current_range_meters":6400,"station_id":"","pricing_plan_id":"cebpf4jnsgd1na2vs0mg"},{"bike_id":"464319e8-bbc0-4a93-9546-8fbc2dd213c8","system_id":"levelo_inurba_marseille","lat":43.298934,"lon":5.397541,"is_reserved":false,"is_disabled":false,"rental_uris":{"android":"levelo://app?vid=464319e8-bbc0-4a93-9546-8fbc2dd213c8","ios":"levelo://app?vid=464319e8-bbc0-4a93-9546-8fbc2dd213c8"},"vehicle_type_id":"4","last_reported":1723374379,"current_range_meters":6800,"station_id":"","pricing_plan_id":"cebpf4jnsgd1na2vs0mg"},{"bike_id":"7a54cf66-cd4a-4a15-9dc8-9bd7b7eed6b0","system_id":"levelo_inurba_marseille","lat":43.286593,"lon":5.363346,"is_reserved":false,"is_disabled":false,"rental_uris":{"android":"levelo://app?vid=7a54cf66-cd4a-4a15-9dc8-9bd7b7eed6b0","ios":"levelo://app?vid=7a54cf66-cd4a-4a15-9dc8-9bd7b7eed6b0"},"vehicle_type_id":"4","last_reported":1723374379,"current_range_meters":23200,"station_id":"ce4bhah2rcd13ifvqej0","pricing_plan_id":"cebpf4jnsgd1na2vs0mg"},{"bike_id":"5c36cb26-26af-4457-ba4a-4beb2c7c1199","system_id":"levelo_inurba_marseille","lat":43.28663,"lon":5.36334,"is_reserved":false,"is_disabled":false,"rental_uris":{"android":"levelo://app?vid=5c36cb26-26af-4457-ba4a-4beb2c7c1199","ios":"levelo://app?vid=5c36cb26-26af-4457-ba4a-4beb2c7c1199"},"vehicle_type_id":"4","last_reported":1723374379,"current_range_meters":10000,"station_id":"ce4bhah2rcd13ifvqej0","pricing_plan_id":"cebpf4jnsgd1na2vs0mg"},{"bike_id":"7dcbc451-fba0-4596-9ec5-4b46a2c4eacc","system_id":"levelo_inurba_marseille","lat":43.298681,"lon":5.397225,"is_reserved":false,"is_disabled":false,"rental_uris":{"android":"levelo://app?vid=7dcbc451-fba0-4596-9ec5-4b46a2c4eacc","ios":"levelo://app?vid=7dcbc451-fba0-4596-9ec5-4b46a2c4eacc"},"vehicle_type_id":"4","last_reported":1723374379,"current_range_meters":22000,"station_id":"ce4bh0h2rcd13ifvqd50","pricing_plan_id":"cebpf4jnsgd1na2vs0mg"},{"bike_id":"589fc1b6-06df-4765-8b24-9f5f3b55ed62","system_id":"levelo_inurba_marseille","lat":43.286591,"lon":5.363346,"is_reserved":false,"is_disabled":false,"rental_uris":{"android":"levelo://app?vid=589fc1b6-06df-4765-8b24-9f5f3b55ed62","ios":"levelo://app?vid=589fc1b6-06df-4765-8b24-9f5f3b55ed62"},"vehicle_type_id":"4","last_reported":1723374379,"current_range_meters":31200,"station_id":"ce4bhah2rcd13ifvqej0","pricing_plan_id":"cebpf4jnsgd1na2vs0mg"},{"bike_id":"c218f0ea-5cca-44ea-b35c-9ba8f01db793","system_id":"levelo_inurba_marseille","lat":43.287498,"lon":5.376935,"is_reserved":false,"is_disabled":false,"rental_uris":{"android":"levelo://app?vid=c218f0ea-5cca-44ea-b35c-9ba8f01db793","ios":"levelo://app?vid=c218f0ea-5cca-44ea-b35c-9ba8f01db793"},"vehicle_type_id":"4","last_reported":1723374379,"current_range_meters":26400,"station_id":"","pricing_plan_id":"cebpf4jnsgd1na2vs0mg"},{"bike_id":"e63a092d-e6d7-4270-a045-fc45120d0a7e","system_id":"levelo_inurba_marseille","lat":43.286593,"lon":5.363346,"is_reserved":false,"is_disabled":false,"rental_uris":{"android":"levelo://app?vid=e63a092d-e6d7-4270-a045-fc45120d0a7e","ios":"levelo://app?vid=e63a092d-e6d7-4270-a045-fc45120d0a7e"},"vehicle_type_id":"4","last_reported":1723374379,"current_range_meters":31200,"station_id":"ce4bhah2rcd13ifvqej0","pricing_plan_id":"cebpf4jnsgd1na2vs0mg"},{"bike_id":"b268e6dd-f58f-4b56-a8e7-9370cde2137b","system_id":"levelo_inurba_marseille","lat":43.28661,"lon":5.363057,"is_reserved":false,"is_disabled":false,"rental_uris":{"android":"levelo://app?vid=b268e6dd-f58f-4b56-a8e7-9370cde2137b","ios":"levelo://app?vid=b268e6dd-f58f-4b56-a8e7-9370cde2137b"},"vehicle_type_id":"4","last_reported":1723374379,"current_range_meters":22000,"station_id":"ce4bhah2rcd13ifvqej0","pricing_plan_id":"cebpf4jnsgd1na2vs0mg"},{"bike_id":"f63fc19b-8b17-415f-9db7-2b5970cc88fd","system_id":"levelo_inurba_marseille","lat":43.290345,"lon":5.38646,"is_reserved":false,"is_disabled":false,"rental_uris":{"android":"levelo://app?vid=f63fc19b-8b17-415f-9db7-2b5970cc88fd","ios":"levelo://app?vid=f63fc19b-8b17-415f-9db7-2b5970cc88fd"},"vehicle_type_id":"4","last_reported":1723374379,"current_range_meters":1600,"station_id":"ce4bh4p2rcd13ifvqe0g","pricing_plan_id":"cebpf4jnsgd1na2vs0mg"},{"bike_id":"8f551870-0fec-4dd0-8168-39d07d9586ce","system_id":"levelo_inurba_marseille","lat":43.28747,"lon":5.35219,"is_reserved":false,"is_disabled":false,"rental_uris":{"android":"levelo://app?vid=8f551870-0fec-4dd0-8168-39d07d9586ce","ios":"levelo://app?vid=8f551870-0fec-4dd0-8168-39d07d9586ce"},