{"last_updated":1745403127,"ttl":60,"version":"2.2","data":{"bikes":[{"bike_id":"88335c64-1861-495e-9baa-2fdf9cd9808c","system_id":"levelo_inurba_marseille","lat":43.27489,"lon":5.42455,"is_reserved":false,"is_disabled":true,"rental_uris":{"android":"levelo://app?vid=88335c64-1861-495e-9baa-2fdf9cd9808c","ios":"levelo://app?vid=88335c64-1861-495e-9baa-2fdf9cd9808c"},"vehicle_type_id":"4","last_reported":1745403128,"current_range_meters":2800,"station_id":"ce4bhn92rcd13ifvqgrg","pricing_plan_id":"cebpf4jnsgd1na2vs0mg"},{"bike_id":"a9e6893d-2702-42a3-9fbb-0c000a2b159c","system_id":"levelo_inurba_marseille","lat":43.29029,"lon":5.38643,"is_reserved":false,"is_disabled":false,"rental_uris":{"android":"levelo://app?vid=a9e6893d-2702-42a3-9fbb-0c000a2b159c","ios":"levelo://app?vid=a9e6893d-2702-42a3-9fbb-0c000a2b159c"},"vehicle_type_id":"4","last_reported":1745403128,"current_range_meters":4000,"station_id":"ce4bh4p2rcd13ifvqe0g","pricing_plan_id":"cebpf4jnsgd1na2vs0mg"},{"bike_id":"8d3d203c-c49c-4deb-a007-2f93fb4b57dd","system_id":"levelo_inurba_marseille","lat":43.29893,"lon":5.4366,"is_reserved":false,"is_disabled":false,"rental_uris":{"android":"levelo://app?vid=8d3d203c-c49c-4deb-a007-2f93fb4b57dd","ios":"levelo://app?vid=8d3d203c-c49c-4deb-a007-2f93fb4b57dd"},"vehicle_type_id":"4","last_reported":1745403128,"current_range_meters":3600,"station_id":"ce4bhpp2rcd13ifvqhfg","pricing_plan_id":"cebpf4jnsgd1na2vs0mg"},{"bike_id":"182afcf4-6610-4d73-92ca-b6e8d7d8825a","system_id":"levelo_inurba_marseille","lat":43.294144,"lon":5.386235,"is_reserved":false,"is_disabled":false,"rental_uris":{"android":"levelo://app?vid=182afcf4-6610-4d73-92ca-b6e8d7d8825a","ios":"levelo://app?vid=182afcf4-6610-4d73-92ca-b6e8d7d8825a"},"vehicle_type_id":"4","last_reported":1745403128,"current_range_meters":3600,"station_id":"ce4bh2h2rcd13ifvqdh0","pricing_plan_id":"cebpf4jnsgd1na2vs0mg"},{"bike_id":"8259f285-9191-4f38-9be8-76b269c988ae","system_id":"levelo_inurba_marseille","lat":43.29899,"lon":5.38158,"is_reserved":false,"is_disabled":false,"rental_uris":{"android":"levelo://app?vid=8259f285-9191-4f38-9be8-76b269c988ae","ios":"levelo://app?vid=8259f285-9191-4f38-9be8-76b269c988ae"},"vehicle_type_id":"4","last_reported":1745403128,"current_range_meters":3600,"station_id":"ce4bgj12rcd13ifvqbc0","pricing_plan_id":"cebpf4jnsgd1na2vs0mg"},{"bike_id":"d43547af-5929-4dd3-bb35-5762bf0cbf0b","system_id":"levelo_inurba_marseille","lat":43.28701,"lon":5.39986,"is_reserved":false,"is_disabled":false,"rental_uris":{"android":"levelo://app?vid=d43547af-5929-4dd3-bb35-5762bf0cbf0b","ios":"levelo://app?vid=d43547af-5929-4dd3-bb35-5762bf0cbf0b"},"vehicle_type_id":"4","last_reported":1745403128,"current_range_meters":4000,"station_id":"ce4bho92rcd13ifvqh3g","pricing_plan_id":"cebpf4jnsgd1na2vs0mg"},{"bike_id":"4c86fcc4-0337-44f8-9e9f-6e2b6f103395","system_id":"levelo_inurba_marseille","lat":43.29529,"lon":5.39042,"is_reserved":false,"is_disabled":false,"rental_uris":{"android":"levelo://app?vid=4c86fcc4-0337-44f8-9e9f-6e2b6f103395","ios":"levelo://app?vid=4c86fcc4-0337-44f8-9e9f-6e2b6f103395"},"vehicle_type_id":"4","last_reported":1745403128,"current_range_meters":4000,"station_id":"ce4bh3p2rcd13ifvqdp0","pricing_plan_id":"cebpf4jnsgd1na2vs0mg"},{"bike_id":"610459a9-a906-4a92-8ac0-c05874be7103","system_id":"levelo_inurba_marseille","lat":43.32374,"lon":5.38886,"is_reserved":false,"is_disabled":false,"rental_uris":{"android":"levelo://app?vid=610459a9-a906-4a92-8ac0-c05874be7103","ios":"levelo://app?vid=610459a9-a906-4a92-8ac0-c05874be7103"},"vehicle_type_id":"4","last_reported":1745403128,"current_range_meters":4000,"station_id":"ce4bhqp2rcd13ifvqhog","pricing_plan_id":"cebpf4jnsgd1na2vs0mg"},{"bike_id":"bf6c36ab-dc49-4eec-a404-cf93a9fe99ac","system_id":"levelo_inurba_marseille","lat":43.27209,"lon":5.39188,"is_reserved":false,"is_disabled":false,"rental_uris":{"android":"levelo://app?vid=bf6c36ab-dc49-4eec-a404-cf93a9fe99ac","ios":"levelo://app?vid=bf6c36ab-dc49-4eec-a404-cf93a9fe99ac"},"vehicle_type_id":"4","last_reported":1745403128,"current_range_meters":3200,"station_id":"ce4bhhp2rcd13ifvqfm0","pricing_plan_id":"cebpf4jnsgd1na2vs0mg"},{"bike_id":"d1dd35dd-9b45-4fd4-afa8-5d13a999085d","system_id":"levelo_inurba_marseille","lat":43.29638,"lon":5.377192,"is_reserved":false,"is_disabled":false,"rental_uris":{"android":"levelo://app?vid=d1dd35dd-9b45-4fd4-afa8-5d13a999085d","ios":"levelo://app?vid=d1dd35dd-9b45-4fd4-afa8-5d13a999085d"},"vehicle_type_id":"4","last_reported":1745403128,"current_range_meters":4400,"station_id":"ce4bgi92rcd13ifvqb90","pricing_plan_id":"cebpf4jnsgd1na2vs0mg"},{"bike_id":"f55e462f-3db3-47fc-92e4-121fc7b4f89d","system_id":"levelo_inurba_marseille","lat":43.30915,"lon":5.36895,"is_reserved":false,"is_disabled":false,"rental_uris":{"android":"levelo://app?vid=f55e462f-3db3-47fc-92e4-121fc7b4f89d","ios":"levelo://app?vid=f55e462f-3db3-47fc-92e4-121fc7b4f89d"},"vehicle_type_id":"4","last_reported":1745403128,"current_range_meters":4400,"station_id":"ce4bgn92rcd13ifvqbvg","pricing_plan_id":"cebpf4jnsgd1na2vs0mg"},{"bike_id":"3a4b8606-d2fc-4181-8a90-3951869c1c31","system_id":"levelo_inurba_marseille","lat":43.28153,"lon":5.42633,"is_reserved":false,"is_disabled":false,"rental_uris":{"android":"levelo://app?vid=3a4b8606-d2fc-4181-8a90-3951869c1c31","ios":"levelo://app?vid=3a4b8606-d2fc-4181-8a90-3951869c1c31"},"vehicle_type_id":"4","last_reported":1745403128,"current_range_meters":4800,"station_id":"ce4bhnh2rcd13ifvqgug","pricing_plan_id":"cebpf4jnsgd1na2vs0mg"},{"bike_id":"c4644969-f9bf-4342-a987-722ad64a3032","system_id":"levelo_inurba_marseille","lat":43.29847,"lon":5.36295,"is_reserved":false,"is_disabled":true,"rental_uris":{"android":"levelo://app?vid=c4644969-f9bf-4342-a987-722ad64a3032","ios":"levelo://app?vid=c4644969-f9bf-4342-a987-722ad64a3032"},"vehicle_type_id":"4","last_reported":1745403128,"current_range_meters":5600,"station_id":"ce4bgpp2rcd13ifvqc3g","pricing_plan_id":"cebpf4jnsgd1na2vs0mg"},{"bike_id":"5a072652-972a-415f-a0b2-35d024735d69","system_id":"levelo_inurba_marseille","lat":43.29844,"lon":5.36261,"is_reserved":false,"is_disabled":false,"rental_uris":{"android":"levelo://app?vid=5a072652-972a-415f-a0b2-35d024735d69","ios":"levelo://app?vid=5a072652-972a-415f-a0b2-35d024735d69"},"vehicle_type_id":"4","last_reported":1745403128,"current_range_meters":5600,"station_id":"ce4bgpp2rcd13ifvqc3g","pricing_plan_id":"cebpf4jnsgd1na2vs0mg"},{"bike_id":"4b8921bc-5aaf-4418-89cf-4d61eddbd7dc","system_id":"levelo_inurba_marseille","lat":43.29603,"lon":5.36708,"is_reserved":false,"is_disabled":false,"rental_uris":{"android":"levelo://app?vid=4b8921bc-5aaf-4418-89cf-4d61eddbd7dc","ios":"levelo://app?vid=4b8921bc-5aaf-4418-89cf-4d61eddbd7dc"},"vehicle_type_id":"4","last_reported":1745403128,"current_range_meters":6000,"station_id":"ce4bgph2rcd13ifvqc2g","pricing_plan_id":"cebpf4jnsgd1na2vs0mg"},{"bike_id":"28dbeddd-838b-456e-82ff-c5881d62245f","system_id":"levelo_inurba_marseille","lat":43.22943,"lon":5.35382,"is_reserved":false,"is_disabled":false,"rental_uris":{"android":"levelo://app?vid=28dbeddd-838b-456e-82ff-c5881d62245f","ios":"levelo://app?vid=28dbeddd-838b-456e-82ff-c5881d62245f"},"vehicle_type_id":"4","last_reported":1745403128,"current_range_meters":6000,"station_id":"cpo3532slgdg3j2ikp40","pricing_plan_id":"cebpf4jnsgd1na2vs0mg"},{"bike_id":"fb4295a7-4e4f-4eb6-8442-338aafdcde0d","system_id":"levelo_inurba_marseille","lat":43.259385,"lon":5.409025,"is_reserved":false,"is_disabled":true,"rental_uris":{"android":"levelo://app?vid=fb4295a7-4e4f-4eb6-8442-338aafdcde0d","ios":"levelo://app?vid=fb4295a7-4e4f-4eb6-8442-338aafdcde0d"},"vehicle_type_id":"4","last_reported":1745403128,"current_range_meters":6400,"station_id":"ce4bhm92rcd13ifvqglg","pricing_plan_id":"cebpf4jnsgd1na2vs0mg"},{"bike_id":"a759e60d-eb58-4cdb-9ec7-01bacc01905e","system_id":"levelo_inurba_marseille","lat":43.28121,"lon":5.42742,"is_reserved":false,"is_disabled":false,"rental_uris":{"android":"levelo://app?vid=a759e60d-eb58-4cdb-9ec7-01bacc01905e","ios":"levelo://app?vid=a759e60d-eb58-4cdb-9ec7-01bacc01905e"},"vehicle_type_id":"4","last_reported":1745403128,"current_range_meters":6400,"station_id":"ce4bh2p2rcd13ifvqdi0","pricing_plan_id":"cebpf4jnsgd1na2vs0mg"},{"bike_id":"a4c061e0-de29-4019-99d9-f3fb2ed30cc0","system_id":"levelo_inurba_marseille","lat":43.2743,"lon":5.39414,"is_reserved":false,"is_disabled":false,"rental_uris":{"android":"levelo://app?vid=a4c061e0-de29-4019-99d9-f3fb2ed30cc0","ios":"levelo://app?vid=a4c061e0-de29-4019-99d9-f3fb2ed30cc0"},"vehicle_type_id":"4","last_reported":1745403128,"current_range_meters":6400,"station_id":"ce4bhdp2rcd13ifvqf20","pricing_plan_id":"cebpf4jnsgd1na2vs0mg"},{"bike_id":"80db4a28-3fc1-4d2d-a585-ced8cbcf7ab5","system_id":"levelo_inurba_marseille","lat":43.26558,"lon":5.37285,"is_reserved":false,"is_disabled":false,"rental_uris":{"android":"levelo://app?vid=80db4a28-3fc1-4d2d-a585-ced8cbcf7ab5","ios":"levelo://app?vid=80db4a28-3fc1-4d2d-a585-ced8cbcf7ab5"},"vehicle_type_id":"4","last_reported":1745403128,"current_range_meters":6800,"station_id":"ce4bhg12rcd13ifvqf70","pricing_plan_id":"cebpf4jnsgd1na2vs0mg"},{"bike_id":"cb7cbd63-9930-410a-9a53-110589ad3377","system_id":"levelo_inurba_marseille","lat":43.32369,"lon":5.36784,"is_reserved":false,"is_disabled":false,"rental_uris":{"android":"levelo://app?vid=cb7cbd63-9930-410a-9a53-110589ad3377","ios":"levelo://app?vid=cb7cbd63-9930-410a-9a53-110589ad3377"},"vehicle_type_id":"4","last_reported":1745403128,"current_range_meters":6800,"station_id":"ce4bhsh2rcd13ifvqi2g","pricing_plan_id":"cebpf4jnsgd1na2vs0mg"},{"bike_id":"fe9353af-0db9-4688-84b0-7d58bdce9daf","system_id":"levelo_inurba_marseille","lat":43.30165,"lon":5.38103,"is_reserved":false,"is_disabled":false,"rental_uris":{"android":"levelo://app?vid=fe9353af-0db9-4688-84b0-7d58bdce9daf","ios":"levelo://app?vid=fe9353af-0db9-4688-84b0-7d58bdce9daf"},"vehicle_type_id":"4","last_reported":1745403128,"current_range_meters":6800,"station_id":"ce4bgjp2rcd13ifvqbh0","pricing_plan_id":"cebpf4jnsgd1na2vs0mg"},{"bike_id":"01a83426-5094-453b-a3b5-3598d555b1fe","system_id":"levelo_inurba_marseille","lat":43.312205,"lon":5.368701,"is_reserved":false,"is_disabled":false,"rental_uris":{"android":"levelo://app?vid=01a83426-5094-453b-a3b5-3598d555b1fe","ios":"levelo://app?vid=01a83426-5094-453b-a3b5-3598d555b1fe"},"vehicle_type_id":"4","last_reported":1745403128,"current_range_meters":6800,"station_id":"ce4bguh2rcd13ifvqcj0","pricing_plan_id":"cebpf4jnsgd1na2vs0mg"},{"bike_id":"2bb4dbbf-21b8-43cb-ab86-b7d00e702a08","system_id":"levelo_inurba_marseille","lat":43.33031,"lon":5.39023,"is_reserved":false,"is_disabled":false,"rental_uris":{"android":"levelo://app?vid=2bb4dbbf-21b8-43cb-ab86-b7d00e702a08","ios":"levelo://app?vid=2bb4dbbf-21b8-43cb-ab86-b7d00e702a08"},"vehicle_type_id":"4","last_reported":1745403128,"current_range_meters":7200,"station_id":"ce4bhr92rcd13ifvqhrg","pricing_plan_id":"cebpf4jnsgd1na2vs0mg"},{"bike_id":"34c614d5-1e78-4af9-bbc7-3ebce54fbdb1","system_id":"levelo_inurba_marseille","lat":43.29626,"lon":5.37718,"is_reserved":false,"is_disabled":true,"rental_uris":{"android":"levelo://app?vid=34c614d5-1e78-4af9-bbc7-3ebce54fbdb1","ios":"levelo://app?vid=34c614d5-1e78-4af9-bbc7-3ebce54fbdb1"},"vehicle_type_id":"4","last_reported":1745403128,"current_range_meters":7200,"station_id":"ce4bgi92rcd13ifvqb90","pricing_plan_id":"cebpf4jnsgd1na2vs0mg"},{"bike_id":"0bab3051-42e2-4369-84ce-136e23cbc473","system_id":"levelo_inurba_marseille","lat":43.30176,"lon":5.38848,"is_reserved":false,"is_disabled":false,"rental_uris":{"android":"levelo://app?vid=0bab3051-42e2-4369-84ce-136e23cbc473","ios":"levelo://app?vid=0bab3051-42e2-4369-84ce-136e23cbc473"},"vehicle_type_id":"4","last_reported":1745403128,"current_range_meters":7200,"station_id":"","pricing_plan_id":"cebpf4jnsgd1na2vs0mg"},{"bike_id":"5eb00c1f-5613-4821-b619-855a368372dd","system_id":"levelo_inurba_marseille","lat":43.26558,"lon":5.37286,"is_reserved":false,"is_disabled":false,"rental_uris":{"android":"levelo://app?vid=5eb00c1f-5613-4821-b619-855a368372dd","ios":"levelo://app?vid=5eb00c1f-5613-4821-b619-855a368372dd"},"vehicle_type_id":"4","last_reported":1745403128,"current_range_meters":7200,"station_id":"ce4bhg12rcd13ifvqf70","pricing_plan_id":"cebpf4jnsgd1na2vs0mg"},{"bike_id":"10bb30a3-ac22-4b86-9177-fda831d764d9","system_id":"levelo_inurba_marseille","lat":43.29219,"lon":5.3605,"is_reserved":false,"is_disabled":false,"rental_uris":{"android":"levelo://app?vid=10bb30a3-ac22-4b86-9177-fda831d764d9","ios":"levelo://app?vid=10bb30a3-ac22-4b86-9177-fda831d764d9"},"vehicle_type_id":"4","last_reported":1745403128,"current_range_meters":7200,"station_id":"ce4bhbh2rcd13ifvqeqg","pricing_plan_id":"cebpf4jnsgd1na2vs0mg"},{"bike_id":"d8d27387-fb66-4c0a-90dc-eef7a69dc87d","system_id":"levelo_inurba_marseille","lat":43.21205,"lon":5.35065,"is_reserved":false,"is_disabled":false,"rental_uris":{"android":"levelo://app?vid=d8d27387-fb66-4c0a-90dc-eef7a69dc87d","ios":"levelo://app?vid=d8d27387-fb66-4c0a-90dc-eef7a69dc87d"},"vehicle_type_id":"4","last_reported":1745403128,"current_range_meters":7200,"station_id":"st_cvj6sg6p6f1abm77japg","pricing_plan_id":"cebpf4jnsgd1na2vs0mg"},{"bike_id":"eea8e2cc-48ae-4e4f-90e1-5b9caede66a9","system_id":"levelo_inurba_marseille","lat":43.27956,"lon":5.38748,"is_reserved":false,"is_disabled":false,"rental_uris":{"android":"levelo://app?vid=eea8e2cc-48ae-4e4f-90e1-5b9caede66a9","ios":"levelo://app?vid=eea8e2cc-48ae-4e4f-90e1-5b9caede66a9"},"vehicle_type_id":"4","last_reported":1745403128,"current_range_meters":7200,"station_id":"ce4bhg12rcd13ifvqf80","pricing_plan_id":"cebpf4jnsgd1na2vs0mg"},{"bike_id":"640467f2-cbb3-4f63-b9ee-4178caff383d","system_id":"levelo_inurba_marseille","lat":43.254109,"lon":5.419231,"is_reserved":false,"is_disabled":false,"rental_uris":{"android":"levelo://app?vid=640467f2-cbb3-4f63-b9ee-4178caff383d","ios":"levelo://app?vid=640467f2-cbb3-4f63-b9ee-4178caff383d"},"vehicle_type_id":"4","last_reported":1745403128,"current_range_meters":8000,"station_id":"","pricing_plan_id":"cebpf4jnsgd1na2vs0mg"},{"bike_id":"c3163225-c9c9-420f-9fc9-28a1e975e08a","system_id":"levelo_inurba_marseille","lat":43.30446,"lon":5.38877,"is_reserved":false,"is_disabled":false,"rental_uris":{"android":"levelo://app?vid=c3163225-c9c9-420f-9fc9-28a1e975e08a","ios":"levelo://app?vid=c3163225-c9c9-420f-9fc9-28a1e975e08a"},"vehicle_type_id":"4","last_reported":1745403128,"current_range_meters":8000,"station_id":"ce4bgk12rcd13ifvqbi0","pricing_plan_id":"cebpf4jnsgd1na2vs0mg"},{"bike_id":"3f4ce14a-b97c-45b4-8990-bafe9aac152d","system_id":"levelo_inurba_marseille","lat":43.30853,"lon":5.37735,"is_reserved":false,"is_disabled":false,"rental_uris":{"android":"levelo://app?vid=3f4ce14a-b97c-45b4-8990-bafe9aac152d","ios":"levelo://app?vid=3f4ce14a-b97c-45b4-8990-bafe9aac152d"},"vehicle_type_id":"4","last_reported":1745403128,"current_range_meters":11600,"station_id":"","pricing_plan_id":"cebpf4jnsgd1na2vs0mg"},{"bike_id":"92500e5e-65ee-40ea-8df2-a3c295596657","system_id":"levelo_inurba_marseille","lat":43.298511,"lon":5.362752,"is_reserved":false,"is_disabled":false,"rental_uris":{"android":"levelo://app?vid=92500e5e-65ee-40ea-8df2-a3c295596657","ios":"levelo://app?vid=92500e5e-65ee-40ea-8df2-a3c295596657"},"vehicle_type_id":"4","last_reported":1745403128,"current_range_meters":8000,"station_id":"ce4bgpp2rcd13ifvqc3g","pricing_plan_id":"cebpf4jnsgd1na2vs0mg"},{"bike_id":"8a81e038-a413-47f3-878d-be3088becd89","system_id":"levelo_inurba_marseille","lat":43.28707,"lon":5.39983,"is_reserved":false,"is_disabled":false,"rental_uris":{"android":"levelo://app?vid=8a81e038-a413-47f3-878d-be3088becd89","ios":"levelo://app?vid=8a81e038-a413-47f3-878d-be3088becd89"},"vehicle_type_id":"4","last_reported":1745403128,"current_range_meters":8400,"station_id":"ce4bho92rcd13ifvqh3g","pricing_plan_id":"cebpf4jnsgd1na2vs0mg"},{"bike_id":"03d16c71-e020-4f5a-86c6-072b4fb5ff89","system_id":"levelo_inurba_marseille","lat":43.24653,"lon":5.38892,"is_reserved":false,"is_disabled":false,"rental_uris":{"android":"levelo://app?vid=03d16c71-e020-4f5a-86c6-072b4fb5ff89","ios":"levelo://app?vid=03d16c71-e020-4f5a-86c6-072b4fb5ff89"},"vehicle_type_id":"4","last_reported":1745403128,"current_range_meters":8400,"station_id":"ce4bhg12rcd13ifvqf60","pricing_plan_id":"cebpf4jnsgd1na2vs0mg"},{"bike_id":"00f791b3-0448-4fb6-a61d-87ad238478b1","system_id":"levelo_inurba_marseille","lat":43.30903,"lon":5.36854,"is_reserved":false,"is_disabled":false,"rental_uris":{"android":"levelo://app?vid=00f791b3-0448-4fb6-a61d-87ad238478b1","ios":"levelo://app?vid=00f791b3-0448-4fb6-a61d-87ad238478b1"},"vehicle_type_id":"4","last_reported":1745403128,"current_range_meters":8400,"station_id":"ce4bgn92rcd13ifvqbvg","pricing_plan_id":"cebpf4jnsgd1na2vs0mg"},{"bike_id":"47dd5431-5404-4b08-8a58-9b1fe252101e","system_id":"levelo_inurba_marseille","lat":43.33615,"lon":5.41001,"is_reserved":false,"is_disabled":false,"rental_uris":{"android":"levelo://app?vid=47dd5431-5404-4b08-8a58-9b1fe252101e","ios":"levelo://app?vid=47dd5431-5404-4b08-8a58-9b1fe252101e"},"vehicle_type_id":"4","last_reported":1745403128,"current_range_meters":8400,"station_id":"ce4bhqh2rcd13ifvqhmg","pricing_plan_id":"cebpf4jnsgd1na2vs0mg"},{"bike_id":"d5c22dfd-9b83-448a-8f86-41a4127af319","system_id":"levelo_inurba_marseille","lat":43.29901,"lon":5.43643,"is_reserved":false,"is_disabled":false,"rental_uris":{"android":"levelo://app?vid=d5c22dfd-9b83-448a-8f86-41a4127af319","ios":"levelo://app?vid=d5c22dfd-9b83-448a-8f86-41a4127af319"},"vehicle_type_id":"4","last_reported":1745403128,"current_range_meters":8400,"station_id":"ce4bhpp2rcd13ifvqhfg","pricing_plan_id":"cebpf4jnsgd1na2vs0mg"},{"bike_id":"d9b3a586-930b-42c8-9f5b-5badd89f78d7","system_id":"levelo_inurba_marseille","lat":43.29007,"lon":5.35617,"is_reserved":false,"is_disabled":false,"rental_uris":{"android":"levelo://app?vid=d9b3a586-930b-42c8-9f5b-5badd89f78d7","ios":"levelo://app?vid=d9b3a586-930b-42c8-9f5b-5badd89f78d7"},"vehicle_type_id":"4","last_reported":1745403128,"current_range_meters":8800,"station_id":"ce4bhb92rcd13ifvqen0","pricing_plan_id":"cebpf4jnsgd1na2vs0mg"},{"bike_id":"203edac6-808a-418e-a924-a5a89c94880e","system_id":"levelo_inurba_marseille","lat":43.28134,"lon":5.378632,"is_reserved":false,"is_disabled":false,"rental_uris":{"android":"levelo://app?vid=203edac6-808a-418e-a924-a5a89c94880e","ios":"levelo://app?vid=203edac6-808a-418e-a924-a5a89c94880e"},"vehicle_type_id":"4","last_reported":1745403128,"current_range_meters":8800,"station_id":"ce4bha12rcd13ifvqee0","pricing_plan_id":"cebpf4jnsgd1na2vs0mg"},{"bike_id":"ff6ba0d0-efef-49a3-ad3c-0a87196dffc3","system_id":"levelo_inurba_marseille","lat":43.23169,"lon":5.43703,"is_reserved":false,"is_disabled":false,"rental_uris":{"android":"levelo://app?vid=ff6ba0d0-efef-49a3-ad3c-0a87196dffc3","ios":"levelo://app?vid=ff6ba0d0-efef-49a3-ad3c-0a87196dffc3"},"vehicle_type_id":"4","last_reported":1745403128,"current_range_meters":8800,"station_id":"ce4bhmp2rcd13ifvqgog","pricing_plan_id":"cebpf4jnsgd1na2vs0mg"},{"bike_id":"74d9d775-203a-4e78-87a8-87ce42195784","system_id":"levelo_inurba_marseille","lat":43.3096,"lon":5.39047,"is_reserved":false,"is_disabled":true,"rental_uris":{"android":"levelo://app?vid=74d9d775-203a-4e78-87a8-87ce42195784","ios":"levelo://app?vid=74d9d775-203a-4e78-87a8-87ce42195784"},"vehicle_type_id":"4","last_reported":1745403128,"current_range_meters":9200,"station_id":"ce4bgup2rcd13ifvqco0","pricing_plan_id":"cebpf4jnsgd1na2vs0mg"},{"bike_id":"546076dc-951e-4fe0-b46d-14bdc8dc6da0","system_id":"levelo_inurba_marseille","lat":43.23206,"lon":5.35544,"is_reserved":false,"is_disabled":false,"rental_uris":{"android":"levelo://app?vid=546076dc-951e-4fe0-b46d-14bdc8dc6da0","ios":"levelo://app?vid=546076dc-951e-4fe0-b46d-14bdc8dc6da0"},"vehicle_type_id":"4","last_reported":1745403128,"current_range_meters":9200,"station_id":"ce4bhu92rcd13ifvqi70","pricing_plan_id":"cebpf4jnsgd1na2vs0mg"},{"bike_id":"b9d656e1-d255-4793-9637-f54a5824a133","system_id":"levelo_inurba_marseille","lat":43.33643,"lon":5.41034,"is_reserved":false,"is_disabled":false,"rental_uris":{"android":"levelo://app?vid=b9d656e1-d255-4793-9637-f54a5824a133","ios":"levelo://app?vid=b9d656e1-d255-4793-9637-f54a5824a133"},"vehicle_type_id":"4","last_reported":1745403128,"current_range_meters":9600,"station_id":"ce4bhqh2rcd13ifvqhmg","pricing_plan_id":"cebpf4jnsgd1na2vs0mg"},{"bike_id":"7bb0f7b3-4ccd-48ad-ba52-e8b077e3d170","system_id":"levelo_inurba_marseille","lat":43.231915,"lon":5.355518,"is_reserved":false,"is_disabled":false,"rental_uris":{"android":"levelo://app?vid=7bb0f7b3-4ccd-48ad-ba52-e8b077e3d170","ios":"levelo://app?vid=7bb0f7b3-4ccd-48ad-ba52-e8b077e3d170"},"vehicle_type_id":"4","last_reported":1745403128,"current_range_meters":9600,"station_id":"ce4bhu92rcd13ifvqi70","pricing_plan_id":"cebpf4jnsgd1na2vs0mg"},{"bike_id":"1d7664a9-64c1-4824-939e-2ece1942c3ec","system_id":"levelo_inurba_marseille","lat":43.26223,"lon":5.40459,"is_reserved":false,"is_disabled":false,"rental_uris":{"android":"levelo://app?vid=1d7664a9-64c1-4824-939e-2ece1942c3ec","ios":"levelo://app?vid=1d7664a9-64c1-4824-939e-2ece1942c3ec"},"vehicle_type_id":"4","last_reported":1745403128,"current_range_meters":9600,"station_id":"ce4bhmh2rcd13ifvqgmg","pricing_plan_id":"cebpf4jnsgd1na2vs0mg"},{"bike_id":"bb06ea08-62b3-4aab-bd33-de40bdd04403","system_id":"levelo_inurba_marseille","lat":43.28855,"lon":5.35853,"is_reserved":false,"is_disabled":false,"rental_uris":{"android":"levelo://app?vid=bb06ea08-62b3-4aab-bd33-de40bdd04403","ios":"levelo://app?vid=bb06ea08-62b3-4aab-bd33-de40bdd04403"},"vehicle_type_id":"4","last_reported":1745403128,"current_range_meters":9600,"station_id":"ce4bhb12rcd13ifvqem0","pricing_plan_id":"cebpf4jnsgd1na2vs0mg"},{"bike_id":"49c0f902-eac7-4a79-adf0-d142aff51e11","system_id":"levelo_inurba_marseille","lat":43.24171,"lon":5.36387,"is_reserved":false,"is_disabled":false,"rental_uris":{"android":"levelo://app?vid=49c0f902-eac7-4a79-adf0-d142aff51e11","ios":"levelo://app?vid=49c0f902-eac7-4a79-adf0-d142aff51e11"},"vehicle_type_id":"4","last_reported":1745403128,"current_range_meters":9600,"station_id":"cpo36qri1sfpv3e86is0","pricing_plan_id":"cebpf4jnsgd1na2vs0mg"},{"bike_id":"0a9c846e-1fa3-4612-af7d-11e99cd9c38e","system_id":"levelo_inurba_marseille","lat":43.28414,"lon":5.35032,"is_reserved":false,"is_disabled":false,"rental_uris":{"android":"levelo://app?vid=0a9c846e-1fa3-4612-af7d-11e99cd9c38e","ios":"levelo://app?vid=0a9c846e-1fa3-4612-af7d-11e99cd9c38e"},"vehicle_type_id":"4","last_reported":1745403128,"current_range_meters":10000,"station_id":"ce4bhbh2rcd13ifvqepg","pricing_plan_id":"cebpf4jnsgd1na2vs0mg"},{"bike_id":"728b7169-2c34-494f-ac43-6fdd418034b4","system_id":"levelo_inurba_marseille","lat":43.23166,"lon":5.43723,"is_reserved":false,"is_disabled":false,"rental_uris":{"android":"levelo://app?vid=728b7169-2c34-494f-ac43-6fdd418034b4","ios":"levelo://app?vid=728b7169-2c34-494f-ac43-6fdd418034b4"},"vehicle_type_id":"4","last_reported":1745403128,"current_range_meters":10000,"station_id":"ce4bhmp2rcd13ifvqgog","pricing_plan_id":"cebpf4jnsgd1na2vs0mg"},{"bike_id":"f2857039-c5ca-4dd8-b812-d34780e7675b","system_id":"levelo_inurba_marseille","lat":43.281949,"lon":5.385474,"is_reserved":false,"is_disabled":false,"rental_uris":{"android":"levelo://app?vid=f2857039-c5ca-4dd8-b812-d34780e7675b","ios":"levelo://app?vid=f2857039-c5ca-4dd8-b812-d34780e7675b"},"vehicle_type_id":"4","last_reported":1745403128,"current_range_meters":13600,"station_id":"ce4bhi12rcd13ifvqfo0","pricing_plan_id":"cebpf4jnsgd1na2vs0mg"},{"bike_id":"b95cf883-905e-4531-8cca-bff4c85a0b39","system_id":"levelo_inurba_marseille","lat":43.2894,"lon":5.36363,"is_reserved":false,"is_disabled":false,"rental_uris":{"android":"levelo://app?vid=b95cf883-905e-4531-8cca-bff4c85a0b39","ios":"levelo://app?vid=b95cf883-905e-4531-8cca-bff4c85a0b39"},"vehicle_type_id":"4","last_reported":1745403128,"current_range_meters":10000,"station_id":"ce4bhc92rcd13ifvqetg","pricing_plan_id":"cebpf4jnsgd1na2vs0mg"},{"bike_id":"62f288a3-04c3-4a5a-8ec2-4936480f6d7c","system_id":"levelo_inurba_marseille","lat":43.2706,"lon":5.4026,"is_reserved":false,"is_disabled":false,"rental_uris":{"android":"levelo://app?vid=62f288a3-04c3-4a5a-8ec2-4936480f6d7c","ios":"levelo://app?vid=62f288a3-04c3-4a5a-8ec2-4936480f6d7c"},"vehicle_type_id":"4","last_reported":1745403128,"current_range_meters":10800,"station_id":"ce4bhk92rcd13ifvqgc0","pricing_plan_id":"cebpf4jnsgd1na2vs0mg"},{"bike_id":"c612583d-79c0-480f-8d78-405c84662324","system_id":"levelo_inurba_marseille","lat":43.2978,"lon":5.38105,"is_reserved":false,"is_disabled":true,"rental_uris":{"android":"levelo://app?vid=c612583d-79c0-480f-8d78-405c84662324","ios":"levelo://app?vid=c612583d-79c0-480f-8d78-405c84662324"},"vehicle_type_id":"4","last_reported":1745403128,"current_range_meters":10800,"station_id":"ce4bgip2rcd13ifvqbb0","pricing_plan_id":"cebpf4jnsgd1na2vs0mg"},{"bike_id":"8c3b73ee-a008-40cd-a54b-d4a53c61f939","system_id":"levelo_inurba_marseille","lat":43.269853,"lon":5.4023,"is_reserved":false,"is_disabled":false,"rental_uris":{"android":"levelo://app?vid=8c3b73ee-a008-40cd-a54b-d4a53c61f939","ios":"levelo://app?vid=8c3b73ee-a008-40cd-a54b-d4a53c61f939"},"vehicle_type_id":"4","last_reported":1745403128,"current_range_meters":10800,"station_id":"cjm6bp8fraef2m0cb0m0","pricing_plan_id":"cebpf4jnsgd1na2vs0mg"},{"bike_id":"0be71eeb-cefe-4948-8eb2-cd4af44b6abd","system_id":"levelo_inurba_marseille","lat":43.26557,"lon":5.37284,"is_reserved":false,"is_disabled":false,"rental_uris":{"android":"levelo://app?vid=0be71eeb-cefe-4948-8eb2-cd4af44b6abd","ios":"levelo://app?vid=0be71eeb-cefe-4948-8eb2-cd4af44b6abd"},"vehicle_type_id":"4","last_reported":1745403128,"current_range_meters":10800,"station_id":"ce4bhg12rcd13ifvqf70","pricing_plan_id":"cebpf4jnsgd1na2vs0mg"},{"bike_id":"60e44951-73fa-40df-af01-964f6a607a24","system_id":"levelo_inurba_marseille","lat":43.27682,"lon":5.38861,"is_reserved":false,"is_disabled":false,"rental_uris":{"android":"levelo://app?vid=60e44951-73fa-40df-af01-964f6a607a24","ios":"levelo://app?vid=60e44951-73fa-40df-af01-964f6a607a24"},"vehicle_type_id":"4","last_reported":1745403128,"current_range_meters":12000,"station_id":"ce4bhi12rcd13ifvqfo0","pricing_plan_id":"cebpf4jnsgd1na2vs0mg"},{"bike_id":"cc63e4da-bb38-4138-9810-77fa0a0daa52","system_id":"levelo_inurba_marseille","lat":43.33605,"lon":5.41032,"is_reserved":false,"is_disabled":false,"rental_uris":{"android":"levelo://app?vid=cc63e4da-bb38-4138-9810-77fa0a0daa52","ios":"levelo://app?vid=cc63e4da-bb38-4138-9810-77fa0a0daa52"},"vehicle_type_id":"4","last_reported":1745403128,"current_range_meters":10800,"station_id":"ce4bhqh2rcd13ifvqhmg","pricing_plan_id":"cebpf4jnsgd1na2vs0mg"},{"bike_id":"2cb82fb4-f985-447a-bb6a-7e3bf09deebf","system_id":"levelo_inurba_marseille","lat":43.27938,"lon":5.4105,"is_reserved":false,"is_disabled":false,"rental_uris":{"android":"levelo://app?vid=2cb82fb4-f985-447a-bb6a-7e3bf09deebf","ios":"levelo://app?vid=2cb82fb4-f985-447a-bb6a-7e3bf09deebf"},"vehicle_type_id":"4","last_reported":1745403128,"current_range_meters":10800,"station_id":"ce4bhnp2rcd13ifvqh0g","pricing_plan_id":"cebpf4jnsgd1na2vs0mg"},{"bike_id":"0cd70ce2-53e4-44af-83e7-cbafa1a9909d","system_id":"levelo_inurba_marseille","lat":43.217504,"lon":5.345982,"is_reserved":false,"is_disabled":false,"rental_uris":{"android":"levelo://app?vid=0cd70ce2-53e4-44af-83e7-cbafa1a9909d","ios":"levelo://app?vid=0cd70ce2-53e4-44af-83e7-cbafa1a9909d"},"vehicle_type_id":"4","last_reported":1745403128,"current_range_meters":11200,"station_id":"","pricing_plan_id":"cebpf4jnsgd1na2vs0mg"},{"bike_id":"b8679a73-b322-48f2-9878-042b6a43fe06","system_id":"levelo_inurba_marseille","lat":43.289795,"lon":5.365249,"is_reserved":false,"is_disabled":false,"rental_uris":{"android":"levelo://app?vid=b8679a73-b322-48f2-9878-042b6a43fe06","ios":"levelo://app?vid=b8679a73-b322-48f2-9878-042b6a43fe06"},"vehicle_type_id":"4","last_reported":1745403128,"current_range_meters":10800,"station_id":"ce4bhah2rcd13ifvqej0","pricing_plan_id":"cebpf4jnsgd1na2vs0mg"},{"bike_id":"bdd70688-a2f7-4e33-b430-4b789cdf9b4b","system_id":"levelo_inurba_marseille","lat":43.2464,"lon":5.389,"is_reserved":false,"is_disabled":false,"rental_uris":{"android":"levelo://app?vid=bdd70688-a2f7-4e33-b430-4b789cdf9b4b","ios":"levelo://app?vid=bdd70688-a2f7-4e33-b430-4b789cdf9b4b"},"vehicle_type_id":"4","last_reported":1745403128,"current_range_meters":11200,"station_id":"ce4bhg12rcd13ifvqf60","pricing_plan_id":"cebpf4jnsgd1na2vs0mg"},{"bike_id":"10d2cc5a-3e75-42c8-883f-cc0d8f96f495","system_id":"levelo_inurba_marseille","lat":43.26219,"lon":5.40442,"is_reserved":false,"is_disabled":false,"rental_uris":{"android":"levelo://app?vid=10d2cc5a-3e75-42c8-883f-cc0d8f96f495","ios":"levelo://app?vid=10d2cc5a-3e75-42c8-883f-cc0d8f96f495"},"vehicle_type_id":"4","last_reported":1745403128,"current_range_meters":11600,"station_id":"ce4bhmh2rcd13ifvqgmg","pricing_plan_id":"cebpf4jnsgd1na2vs0mg"},{"bike_id":"dc448b74-99a7-46c2-aa41-8f488ef30ba8","system_id":"levelo_inurba_marseille","lat":43.2407,"lon":5.37767,"is_reserved":false,"is_disabled":false,"rental_uris":{"android":"levelo://app?vid=dc448b74-99a7-46c2-aa41-8f488ef30ba8","ios":"levelo://app?vid=dc448b74-99a7-46c2-aa41-8f488ef30ba8"},"vehicle_type_id":"4","last_reported":1745403128,"current_range_meters":11600,"station_id":"ce4bhnp2rcd13ifvqgvg","pricing_plan_id":"cebpf4jnsgd1na2vs0mg"},{"bike_id":"ef22bc55-23a6-453b-9911-933d4035ca9b","system_id":"levelo_inurba_marseille","lat":43.25823,"lon":5.3943,"is_reserved":false,"is_disabled":false,"rental_uris":{"android":"levelo://app?vid=ef22bc55-23a6-453b-9911-933d4035ca9b","ios":"levelo://app?vid=ef22bc55-23a6-453b-9911-933d4035ca9b"},"vehicle_type_id":"4","last_reported":1745403128,"current_range_meters":11600,"station_id":"ce4bhip2rcd13ifvqft0","pricing_plan_id":"cebpf4jnsgd1na2vs0mg"},{"bike_id":"fc95c022-5d99-4883-976b-3e014c5a3389","system_id":"levelo_inurba_marseille","lat":43.23148,"lon":5.43725,"is_reserved":false,"is_disabled":false,"rental_uris":{"android":"levelo://app?vid=fc95c022-5d99-4883-976b-3e014c5a3389","ios":"levelo://app?vid=fc95c022-5d99-4883-976b-3e014c5a3389"},"vehicle_type_id":"4","last_reported":1745403128,"current_range_meters":11600,"station_id":"ce4bhmp2rcd13ifvqgog","pricing_plan_id":"cebpf4jnsgd1na2vs0mg"},{"bike_id":"29557cd6-e30c-4193-97f9-eb19785da0d9","system_id":"levelo_inurba_marseille","lat":43.309103,"lon":5.368504,"is_reserved":false,"is_disabled":false,"rental_uris":{"android":"levelo://app?vid=29557cd6-e30c-4193-97f9-eb19785da0d9","ios":"levelo://app?vid=29557cd6-e30c-4193-97f9-eb19785da0d9"},"vehicle_type_id":"4","last_reported":1745403128,"current_range_meters":11600,"station_id":"ce4bgn92rcd13ifvqbvg","pricing_plan_id":"cebpf4jnsgd1na2vs0mg"},{"bike_id":"0282fa7b-48a5-4197-a6a5-4b4d41933314","system_id":"levelo_inurba_marseille","lat":43.30423,"lon":5.39742,"is_reserved":false,"is_disabled":false,"rental_uris":{"android":"levelo://app?vid=0282fa7b-48a5-4197-a6a5-4b4d41933314","ios":"levelo://app?vid=0282fa7b-48a5-4197-a6a5-4b4d41933314"},"vehicle_type_id":"4","last_reported":1745403128,"current_range_meters":14000,"station_id":"ce4bh492rcd13ifvqdug","pricing_plan_id":"cebpf4jnsgd1na2vs0mg"},{"bike_id":"a756bae3-49c1-4d6c-89e8-fcb7b0e7d2e2","system_id":"levelo_inurba_marseille","lat":43.290436,"lon":5.359149,"is_reserved":false,"is_disabled":false,"rental_uris":{"android":"levelo://app?vid=a756bae3-49c1-4d6c-89e8-fcb7b0e7d2e2","ios":"levelo://app?vid=a756bae3-49c1-4d6c-89e8-fcb7b0e7d2e2"},"vehicle_type_id":"4","last_reported":1745403128,"current_range_meters":12000,"station_id":"ce4bha92rcd13ifvqeg0","pricing_plan_id":"cebpf4jnsgd1na2vs0mg"},{"bike_id":"6481ebfd-d026-4e8e-bc71-8442232bafa9","system_id":"levelo_inurba_marseille","lat":43.23193,"lon":5.35556,"is_reserved":false,"is_disabled":false,"rental_uris":{"android":"levelo://app?vid=6481ebfd-d026-4e8e-bc71-8442232bafa9","ios":"levelo://app?vid=6481ebfd-d026-4e8e-bc71-8442232bafa9"},"vehicle_type_id":"4","last_reported":1745403128,"current_range_meters":12000,"station_id":"ce4bhu92rcd13ifvqi70","pricing_plan_id":"cebpf4jnsgd1na2vs0mg"},{"bike_id":"761ae269-6b1f-4092-8e33-c55e4d5d8dff","system_id":"levelo_inurba_marseille","lat":43.22924,"lon":5.35379,"is_reserved":false,"is_disabled":false,"rental_uris":{"android":"levelo://app?vid=761ae269-6b1f-4092-8e33-c55e4d5d8dff","ios":"levelo://app?vid=761ae269-6b1f-4092-8e33-c55e4d5d8dff"},"vehicle_type_id":"4","last_reported":1745403128,"current_range_meters":12000,"station_id":"cpo3532slgdg3j2ikp40","pricing_plan_id":"cebpf4jnsgd1na2vs0mg"},{"bike_id":"55650ded-2588-4e83-8365-d229a50994a3","system_id":"levelo_inurba_marseille","lat":43.3172,"lon":5.40448,"is_reserved":false,"is_disabled":false,"rental_uris":{"android":"levelo://app?vid=55650ded-2588-4e83-8365-d229a50994a3","ios":"levelo://app?vid=55650ded-2588-4e83-8365-d229a50994a3"},"vehicle_type_id":"4","last_reported":1745403128,"current_range_meters":12400,"station_id":"ce4bh012rcd13ifvqd00","pricing_plan_id":"cebpf4jnsgd1na2vs0mg"},{"bike_id":"b7792c75-a5d2-46c9-a7a4-846d54a83653","system_id":"levelo_inurba_marseille","lat":43.2953,"lon":5.39051,"is_reserved":false,"is_disabled":false,"rental_uris":{"android":"levelo://app?vid=b7792c75-a5d2-46c9-a7a4-846d54a83653","ios":"levelo://app?vid=b7792c75-a5d2-46c9-a7a4-846d54a83653"},"vehicle_type_id":"4","last_reported":1745403128,"current_range_meters":12400,"station_id":"ce4bh3p2rcd13ifvqdp0","pricing_plan_id":"cebpf4jnsgd1na2vs0mg"},{"bike_id":"2615042e-81a6-4000-8851-5ae500e6a851","system_id":"levelo_inurba_marseille","lat":43.2953,"lon":5.38554,"is_reserved":false,"is_disabled":false,"rental_uris":{"android":"levelo://app?vid=2615042e-81a6-4000-8851-5ae500e6a851","ios":"levelo://app?vid=2615042e-81a6-4000-8851-5ae500e6a851"},"vehicle_type_id":"4","last_reported":1745403128,"current_range_meters":12800,"station_id":"ce4bgih2rcd13ifvqba0","pricing_plan_id":"cebpf4jnsgd1na2vs0mg"},{"bike_id":"6ee9ffdf-3f66-4df4-bfbe-df8fdfd87ac5","system_id":"levelo_inurba_marseille","lat":43.3031,"lon":5.36907,"is_reserved":false,"is_disabled":false,"rental_uris":{"android":"levelo://app?vid=6ee9ffdf-3f66-4df4-bfbe-df8fdfd87ac5","ios":"levelo://app?vid=6ee9ffdf-3f66-4df4-bfbe-df8fdfd87ac5"},"vehicle_type_id":"4","last_reported":1745403128,"current_range_meters":12800,"station_id":"ce4bgqh2rcd13ifvqc5g","pricing_plan_id":"cebpf4jnsgd1na2vs0mg"},{"bike_id":"abd226a8-d003-4133-b9d2-b7c952b7ead1","system_id":"levelo_inurba_marseille","lat":43.23057,"lon":5.35489,"is_reserved":false,"is_disabled":false,"rental_uris":{"android":"levelo://app?vid=abd226a8-d003-4133-b9d2-b7c952b7ead1","ios":"levelo://app?vid=abd226a8-d003-4133-b9d2-b7c952b7ead1"},"vehicle_type_id":"4","last_reported":1745403128,"current_range_meters":12800,"station_id":"cpo3342slgdg3j2ifvpg","pricing_plan_id":"cebpf4jnsgd1na2vs0mg"},{"bike_id":"7c110556-51f7-4ebc-a93b-d3e946a92a50","system_id":"levelo_inurba_marseille","lat":43.3178,"lon":5.43725,"is_reserved":false,"is_disabled":true,"rental_uris":{"android":"levelo://app?vid=7c110556-51f7-4ebc-a93b-d3e946a92a50","ios":"levelo://app?vid=7c110556-51f7-4ebc-a93b-d3e946a92a50"},"vehicle_type_id":"4","last_reported":1745403128,"current_range_meters":12800,"station_id":"ce4bhp92rcd13ifvqhcg","pricing_plan_id":"cebpf4jnsgd1na2vs0mg"},{"bike_id":"f36d089e-788c-4bd3-9198-e8cacf91e002","system_id":"levelo_inurba_marseille","lat":43.312316,"lon":5.36871,"is_reserved":false,"is_disabled":false,"rental_uris":{"android":"levelo://app?vid=f36d089e-788c-4bd3-9198-e8cacf91e002","ios":"levelo://app?vid=f36d089e-788c-4bd3-9198-e8cacf91e002"},"vehicle_type_id":"4","last_reported":1745403128,"current_range_meters":12800,"station_id":"ce4bgl92rcd13ifvqbq0","pricing_plan_id":"cebpf4jnsgd1na2vs0mg"},{"bike_id":"567907a2-002e-47f0-8506-c9b2fc899797","system_id":"levelo_inurba_marseille","lat":43.24637,"lon":5.38902,"is_reserved":false,"is_disabled":false,"rental_uris":{"android":"levelo://app?vid=567907a2-002e-47f0-8506-c9b2fc899797","ios":"levelo://app?vid=567907a2-002e-47f0-8506-c9b2fc899797"},"vehicle_type_id":"4","last_reported":1745403128,"current_range_meters":13600,"station_id":"ce4bhg12rcd13ifvqf60","pricing_plan_id":"cebpf4jnsgd1na2vs0mg"},{"bike_id":"1b903b38-38de-4714-9a2c-59836acfa168","system_id":"levelo_inurba_marseille","lat":43.31716,"lon":5.43702,"is_reserved":false,"is_disabled":true,"rental_uris":{"android":"levelo://app?vid=1b903b38-38de-4714-9a2c-59836acfa168","ios":"levelo://app?vid=1b903b38-38de-4714-9a2c-59836acfa168"},"vehicle_type_id":"4","last_reported":1745403128,"current_range_meters":13600,"station_id":"ce4bhp92rcd13ifvqhcg","pricing_plan_id":"cebpf4jnsgd1na2vs0mg"},{"bike_id":"688caaf3-ab91-4e9e-b3ad-9be627bd4609","system_id":"levelo_inurba_marseille","lat":43.23148,"lon":5.43733,"is_reserved":false,"is_disabled":false,"rental_uris":{"android":"levelo://app?vid=688caaf3-ab91-4e9e-b3ad-9be627bd4609","ios":"levelo://app?vid=688caaf3-ab91-4e9e-b3ad-9be627bd4609"},"vehicle_type_id":"4","last_reported":1745403128,"current_range_meters":13600,"station_id":"ce4bhmp2rcd13ifvqgog","pricing_plan_id":"cebpf4jnsgd1na2vs0mg"},{"bike_id":"b96d48d5-fc65-423b-9a30-5d2c864e8939","system_id":"levelo_inurba_marseille","lat":43.225,"lon":5.34792,"is_reserved":false,"is_disabled":true,"rental_uris":{"android":"levelo://app?vid=b96d48d5-fc65-423b-9a30-5d2c864e8939","ios":"levelo://app?vid=b96d48d5-fc65-423b-9a30-5d2c864e8939"},"vehicle_type_id":"4","last_reported":1745403128,"current_range_meters":14000,"station_id":"st_cvj5dfep6f1abm77gieg","pricing_plan_id":"cebpf4jnsgd1na2vs0mg"},{"bike_id":"42d5113b-5e3e-4420-8abf-a6ad429c2600","system_id":"levelo_inurba_marseille","lat":43.29024,"lon":5.3864,"is_reserved":false,"is_disabled":false,"rental_uris":{"android":"levelo://app?vid=42d5113b-5e3e-4420-8abf-a6ad429c2600","ios":"levelo://app?vid=42d5113b-5e3e-4420-8abf-a6ad429c2600"},"vehicle_type_id":"4","last_reported":1745403128,"current_range_meters":14000,"station_id":"ce4bh4p2rcd13ifvqe0g","pricing_plan_id":"cebpf4jnsgd1na2vs0mg"},{"bike_id":"3e8f0127-96fd-4fdd-97f2-be6e836f9523","system_id":"levelo_inurba_marseille","lat":43.33769,"lon":5.37435,"is_reserved":false,"is_disabled":false,"rental_uris":{"android":"levelo://app?vid=3e8f0127-96fd-4fdd-97f2-be6e836f9523","ios":"levelo://app?vid=3e8f0127-96fd-4fdd-97f2-be6e836f9523"},"vehicle_type_id":"4","last_reported":1745403128,"current_range_meters":14000,"station_id":"","pricing_plan_id":"cebpf4jnsgd1na2vs0mg"},{"bike_id":"d8ef3988-002f-42dc-b706-ecebe9835e72","system_id":"levelo_inurba_marseille","lat":43.29891,"lon":5.43682,"is_reserved":false,"is_disabled":false,"rental_uris":{"android":"levelo://app?vid=d8ef3988-002f-42dc-b706-ecebe9835e72","ios":"levelo://app?vid=d8ef3988-002f-42dc-b706-ecebe9835e72"},"vehicle_type_id":"4","last_reported":1745403128,"current_range_meters":14400,"station_id":"ce4bhpp2rcd13ifvqhfg","pricing_plan_id":"cebpf4jnsgd1na2vs0mg"},{"bike_id":"3491c7a7-76ee-45fa-94fa-ae18f9247cc0","system_id":"levelo_inurba_marseille","lat":43.33599,"lon":5.41031,"is_reserved":false,"is_disabled":false,"rental_uris":{"android":"levelo://app?vid=3491c7a7-76ee-45fa-94fa-ae18f9247cc0","ios":"levelo://app?vid=3491c7a7-76ee-45fa-94fa-ae18f9247cc0"},"vehicle_type_id":"4","last_reported":1745403128,"current_range_meters":14400,"station_id":"ce4bhqh2rcd13ifvqhmg","pricing_plan_id":"cebpf4jnsgd1na2vs0mg"},{"bike_id":"0eda7991-7ece-44cc-943a-e7eeed56fcd2","system_id":"levelo_inurba_marseille","lat":43.31489,"lon":5.37282,"is_reserved":false,"is_disabled":true,"rental_uris":{"android":"levelo://app?vid=0eda7991-7ece-44cc-943a-e7eeed56fcd2","ios":"levelo://app?vid=0eda7991-7ece-44cc-943a-e7eeed56fcd2"},"vehicle_type_id":"4","last_reported":1745403128,"current_range_meters":14400,"station_id":"ce4bgt12rcd13ifvqcd0","pricing_plan_id":"cebpf4jnsgd1na2vs0mg"},{"bike_id":"41386a75-315f-418f-b6c9-d56e48590a3e","system_id":"levelo_inurba_marseille","lat":43.33616,"lon":5.41036,"is_reserved":false,"is_disabled":false,"rental_uris":{"android":"levelo://app?vid=41386a75-315f-418f-b6c9-d56e48590a3e","ios":"levelo://app?vid=41386a75-315f-418f-b6c9-d56e48590a3e"},"vehicle_type_id":"4","last_reported":1745403128,"current_range_meters":14400,"station_id":"ce4bhqh2rcd13ifvqhmg","pricing_plan_id":"cebpf4jnsgd1na2vs0mg"},{"bike_id":"3552b81c-38d3-403a-8cb4-56bfb1e2c575","system_id":"levelo_inurba_marseille","lat":43.29905,"lon":5.38141,"is_reserved":false,"is_disabled":false,"rental_uris":{"android":"levelo://app?vid=3552b81c-38d3-403a-8cb4-56bfb1e2c575","ios":"levelo://app?vid=3552b81c-38d3-403a-8cb4-56bfb1e2c575"},"vehicle_type_id":"4","last_reported":1745403128,"current_range_meters":14400,"station_id":"ce4bgj12rcd13ifvqbc0","pricing_plan_id":"cebpf4jnsgd1na2vs0mg"},{"bike_id":"8ec4edd5-2bea-40a0-b859-167cd6f853c9","system_id":"levelo_inurba_marseille","lat":43.308272,"lon":5.372337,"is_reserved":false,"is_disabled":false,"rental_uris":{"android":"levelo://app?vid=8ec4edd5-2bea-40a0-b859-167cd6f853c9","ios":"levelo://app?vid=8ec4edd5-2bea-40a0-b859-167cd6f853c9"},"vehicle_type_id":"4","last_reported":1745403128,"current_range_meters":14400,"station_id":"ce4bguh2rcd13ifvqckg","pricing_plan_id":"cebpf4jnsgd1na2vs0mg"},{"bike_id":"9d67a024-1314-40f7-923c-3ceb535a6a7f","system_id":"levelo_inurba_marseille","lat":43.2315,"lon":5.43716,"is_reserved":false,"is_disabled":false,"rental_uris":{"android":"levelo://app?vid=9d67a024-1314-40f7-923c-3ceb535a6a7f","ios":"levelo://app?vid=9d67a024-1314-40f7-923c-3ceb535a6a7f"},"vehicle_type_id":"4","last_reported":1745403128,"current_range_meters":14800,"station_id":"ce4bhmp2rcd13ifvqgog","pricing_plan_id":"cebpf4jnsgd1na2vs0mg"},{"bike_id":"7f29eb6b-25c4-4f86-ad2d-9b28c225cf8b","system_id":"levelo_inurba_marseille","lat":43.251464,"lon":5.39489,"is_reserved":false,"is_disabled":false,"rental_uris":{"android":"levelo://app?vid=7f29eb6b-25c4-4f86-ad2d-9b28c225cf8b","ios":"levelo://app?vid=7f29eb6b-25c4-4f86-ad2d-9b28c225cf8b"},"vehicle_type_id":"4","last_reported":1745403128,"current_range_meters":14800,"station_id":"ce4bhm12rcd13ifvqgkg","pricing_plan_id":"cebpf4jnsgd1na2vs0mg"},{"bike_id":"a1835b16-9e05-4b53-baf5-10eeb04320bb","system_id":"levelo_inurba_marseille","lat":43.28709,"lon":5.37382,"is_reserved":false,"is_disabled":true,"rental_uris":{"android":"levelo://app?vid=a1835b16-9e05-4b53-baf5-10eeb04320bb","ios":"levelo://app?vid=a1835b16-9e05-4b53-baf5-10eeb04320bb"},"vehicle_type_id":"4","last_reported":1745403128,"current_range_meters":15200,"station_id":"ce4bh3p2rcd13ifvqdq0","pricing_plan_id":"cebpf4jnsgd1na2vs0mg"},{"bike_id":"1399e9d7-c141-4d1b-8ab1-29880eb403fd","system_id":"levelo_inurba_marseille","lat":43.29706,"lon":5.36614,"is_reserved":false,"is_disabled":false,"rental_uris":{"android":"levelo://app?vid=1399e9d7-c141-4d1b-8ab1-29880eb403fd","ios":"levelo://app?vid=1399e9d7-c141-4d1b-8ab1-29880eb403fd"},"vehicle_type_id":"4","last_reported":1745403128,"current_range_meters":15200,"station_id":"ce4bgn12rcd13ifvqbt0","pricing_plan_id":"cebpf4jnsgd1na2vs0mg"},{"bike_id":"770a8ebe-ad9f-4ca8-8223-e84205b78a55","system_id":"levelo_inurba_marseille","lat":43.24551,"lon":5.39519,"is_reserved":false,"is_disabled":false,"rental_uris":{"android":"levelo://app?vid=770a8ebe-ad9f-4ca8-8223-e84205b78a55","ios":"levelo://app?vid=770a8ebe-ad9f-4ca8-8223-e84205b78a55"},"vehicle_type_id":"4","last_reported":1745403128,"current_range_meters":15200,"station_id":"ce4bhlp2rcd13ifvqgjg","pricing_plan_id":"cebpf4jnsgd1na2vs0mg"},{"bike_id":"b74100ec-2ebe-4d0f-bc2e-73a63b38fda8","system_id":"levelo_inurba_marseille","lat":43.31397,"lon":5.3671,"is_reserved":false,"is_disabled":true,"rental_uris":{"android":"levelo://app?vid=b74100ec-2ebe-4d0f-bc2e-73a63b38fda8","ios":"levelo://app?vid=b74100ec-2ebe-4d0f-bc2e-73a63b38fda8"},"vehicle_type_id":"4","last_reported":1745403128,"current_range_meters":15200,"station_id":"","pricing_plan_id":"cebpf4jnsgd1na2vs0mg"},{"bike_id":"34d18faf-fe69-46ed-a4a9-9e404cad30f2","system_id":"levelo_inurba_marseille","lat":43.30937,"lon":5.36813,"is_reserved":false,"is_disabled":false,"rental_uris":{"android":"levelo://app?vid=34d18faf-fe69-46ed-a4a9-9e404cad30f2","ios":"levelo://app?vid=34d18faf-fe69-46ed-a4a9-9e404cad30f2"},"vehicle_type_id":"4","last_reported":1745403128,"current_range_meters":16000,"station_id":"ce4bgn92rcd13ifvqbvg","pricing_plan_id":"cebpf4jnsgd1na2vs0mg"},{"bike_id":"ad1417da-1d54-4e91-a4ed-05f40228481e","system_id":"levelo_inurba_marseille","lat":43.31165,"lon":5.38728,"is_reserved":false,"is_disabled":false,"rental_uris":{"android":"levelo://app?vid=ad1417da-1d54-4e91-a4ed-05f40228481e","ios":"levelo://app?vid=ad1417da-1d54-4e91-a4ed-05f40228481e"},"vehicle_type_id":"4","last_reported":1745403128,"current_range_meters":18000,"station_id":"ce4bgv12rcd13ifvqcp0","pricing_plan_id":"cebpf4jnsgd1na2vs0mg"},{"bike_id":"f3b5b33a-51b7-4463-baea-6928a983105b","system_id":"levelo_inurba_marseille","lat":43.23143,"lon":5.4371,"is_reserved":false,"is_disabled":false,"rental_uris":{"android":"levelo://app?vid=f3b5b33a-51b7-4463-baea-6928a983105b","ios":"levelo://app?vid=f3b5b33a-51b7-4463-baea-6928a983105b"},"vehicle_type_id":"4","last_reported":1745403128,"current_range_meters":16000,"station_id":"ce4bhmp2rcd13ifvqgog","pricing_plan_id":"cebpf4jnsgd1na2vs0mg"},{"bike_id":"d28dce6f-df39-4098-a29d-cfe28483762f","system_id":"levelo_inurba_marseille","lat":43.28425,"lon":5.34988,"is_reserved":false,"is_disabled":false,"rental_uris":{"android":"levelo://app?vid=d28dce6f-df39-4098-a29d-cfe28483762f","ios":"levelo://app?vid=d28dce6f-df39-4098-a29d-cfe28483762f"},"vehicle_type_id":"4","last_reported":1745403128,"current_range_meters":16000,"station_id":"ce4bhbh2rcd13ifvqepg","pricing_plan_id":"cebpf4jnsgd1na2vs0mg"},{"bike_id":"bceb8cba-0252-464f-a7c9-f9b4548f7a27","system_id":"levelo_inurba_marseille","lat":43.28076,"lon":5.39667,"is_reserved":false,"is_disabled":true,"rental_uris":{"android":"levelo://app?vid=bceb8cba-0252-464f-a7c9-f9b4548f7a27","ios":"levelo://app?vid=bceb8cba-0252-464f-a7c9-f9b4548f7a27"},"vehicle_type_id":"4","last_reported":1745403128,"current_range_meters":16000,"station_id":"ce4bho12rcd13ifvqh2g","pricing_plan_id":"cebpf4jnsgd1na2vs0mg"},{"bike_id":"b5d609bf-0c9b-49e3-9426-ce02cb8383b8","system_id":"levelo_inurba_marseille","lat":43.34153,"lon":5.40916,"is_reserved":false,"is_disabled":true,"rental_uris":{"android":"levelo://app?vid=b5d609bf-0c9b-49e3-9426-ce02cb8383b8","ios":"levelo://app?vid=b5d609bf-0c9b-49e3-9426-ce02cb8383b8"},"vehicle_type_id":"4","last_reported":1745403128,"current_range_meters":16400,"station_id":"ce4bhqh2rcd13ifvqhlg","pricing_plan_id":"cebpf4jnsgd1na2vs0mg"},{"bike_id":"ed18e2a2-8c6c-4f73-bbcb-3a3cf0147f75","system_id":"levelo_inurba_marseille","lat":43.29895,"lon":5.436702,"is_reserved":false,"is_disabled":false,"rental_uris":{"android":"levelo://app?vid=ed18e2a2-8c6c-4f73-bbcb-3a3cf0147f75","ios":"levelo://app?vid=ed18e2a2-8c6c-4f73-bbcb-3a3cf0147f75"},"vehicle_type_id":"4","last_reported":1745403128,"current_range_meters":16400,"station_id":"ce4bhpp2rcd13ifvqhfg","pricing_plan_id":"cebpf4jnsgd1na2vs0mg"},{"bike_id":"db6c3ea9-7917-44bd-958f-99f8a50fb72d","system_id":"levelo_inurba_marseille","lat":43.3097,"lon":5.36801,"is_reserved":false,"is_disabled":false,"rental_uris":{"android":"levelo://app?vid=db6c3ea9-7917-44bd-958f-99f8a50fb72d","ios":"levelo://app?vid=db6c3ea9-7917-44bd-958f-99f8a50fb72d"},"vehicle_type_id":"4","last_reported":1745403128,"current_range_meters":16400,"station_id":"","pricing_plan_id":"cebpf4jnsgd1na2vs0mg"},{"bike_id":"46374c49-3adc-4c5a-8966-e00f056c0d57","system_id":"levelo_inurba_marseille","lat":43.27846,"lon":5.35442,"is_reserved":false,"is_disabled":false,"rental_uris":{"android":"levelo://app?vid=46374c49-3adc-4c5a-8966-e00f056c0d57","ios":"levelo://app?vid=46374c49-3adc-4c5a-8966-e00f056c0d57"},"vehicle_type_id":"4","last_reported":1745403128,"current_range_meters":16800,"station_id":"","pricing_plan_id":"cebpf4jnsgd1na2vs0mg"},{"bike_id":"9731232c-0816-40a0-9168-491f835e4ce7","system_id":"levelo_inurba_marseille","lat":43.2884,"lon":5.39299,"is_reserved":false,"is_disabled":false,"rental_uris":{"android":"levelo://app?vid=9731232c-0816-40a0-9168-491f835e4ce7","ios":"levelo://app?vid=9731232c-0816-40a0-9168-491f835e4ce7"},"vehicle_type_id":"4","last_reported":1745403128,"current_range_meters":18000,"station_id":"ce4bh2p2rcd13ifvqdi0","pricing_plan_id":"cebpf4jnsgd1na2vs0mg"},{"bike_id":"f4cf2b50-5f9e-49ff-80a5-4899979e4fc4","system_id":"levelo_inurba_marseille","lat":43.24809,"lon":5.37451,"is_reserved":false,"is_disabled":false,"rental_uris":{"android":"levelo://app?vid=f4cf2b50-5f9e-49ff-80a5-4899979e4fc4","ios":"levelo://app?vid=f4cf2b50-5f9e-49ff-80a5-4899979e4fc4"},"vehicle_type_id":"4","last_reported":1745403128,"current_range_meters":17200,"station_id":"ce4bhgh2rcd13ifvqfb0","pricing_plan_id":"cebpf4jnsgd1na2vs0mg"},{"bike_id":"29c27f6c-b172-4d99-add3-c74bdfc6be20","system_id":"levelo_inurba_marseille","lat":43.330231,"lon":5.390454,"is_reserved":false,"is_disabled":false,"rental_uris":{"android":"levelo://app?vid=29c27f6c-b172-4d99-add3-c74bdfc6be20","ios":"levelo://app?vid=29c27f6c-b172-4d99-add3-c74bdfc6be20"},"vehicle_type_id":"4","last_reported":1745403128,"current_range_meters":17200,"station_id":"ce4bhr92rcd13ifvqhrg","pricing_plan_id":"cebpf4jnsgd1na2vs0mg"},{"bike_id":"32ff1669-50bb-472e-9811-5cc8ca32551f","system_id":"levelo_inurba_marseille","lat":43.30966,"lon":5.39036,"is_reserved":false,"is_disabled":false,"rental_uris":{"android":"levelo://app?vid=32ff1669-50bb-472e-9811-5cc8ca32551f","ios":"levelo://app?vid=32ff1669-50bb-472e-9811-5cc8ca32551f"},"vehicle_type_id":"4","last_reported":1745403128,"current_range_meters":17200,"station_id":"ce4bgup2rcd13ifvqco0","pricing_plan_id":"cebpf4jnsgd1na2vs0mg"},{"bike_id":"038eb241-a544-4313-beae-323f188c6862","system_id":"levelo_inurba_marseille","lat":43.29417,"lon":5.38631,"is_reserved":false,"is_disabled":false,"rental_uris":{"android":"levelo://app?vid=038eb241-a544-4313-beae-323f188c6862","ios":"levelo://app?vid=038eb241-a544-4313-beae-323f188c6862"},"vehicle_type_id":"4","last_reported":1745403128,"current_range_meters":17200,"station_id":"ce4bh2h2rcd13ifvqdh0","pricing_plan_id":"cebpf4jnsgd1na2vs0mg"},{"bike_id":"ae5d327f-5620-42de-8ddf-d3ae78b63b26","system_id":"levelo_inurba_marseille","lat":43.30284,"lon":5.37712,"is_reserved":false,"is_disabled":false,"rental_uris":{"android":"levelo://app?vid=ae5d327f-5620-42de-8ddf-d3ae78b63b26","ios":"levelo://app?vid=ae5d327f-5620-42de-8ddf-d3ae78b63b26"},"vehicle_type_id":"4","last_reported":1745403128,"current_range_meters":17200,"station_id":"ce4bguh2rcd13ifvqcj0","pricing_plan_id":"cebpf4jnsgd1na2vs0mg"},{"bike_id":"9ec49457-910a-4a25-9cd0-b82d5625cff5","system_id":"levelo_inurba_marseille","lat":43.23147,"lon":5.43716,"is_reserved":false,"is_disabled":false,"rental_uris":{"android":"levelo://app?vid=9ec49457-910a-4a25-9cd0-b82d5625cff5","ios":"levelo://app?vid=9ec49457-910a-4a25-9cd0-b82d5625cff5"},"vehicle_type_id":"4","last_reported":1745403128,"current_range_meters":17200,"station_id":"ce4bhmp2rcd13ifvqgog","pricing_plan_id":"cebpf4jnsgd1na2vs0mg"},{"bike_id":"b244cdd7-891e-41d3-bbdf-d6e3de24d190","system_id":"levelo_inurba_marseille","lat":43.29182,"lon":5.35805,"is_reserved":false,"is_disabled":false,"rental_uris":{"android":"levelo://app?vid=b244cdd7-891e-41d3-bbdf-d6e3de24d190","ios":"levelo://app?vid=b244cdd7-891e-41d3-bbdf-d6e3de24d190"},"vehicle_type_id":"4","last_reported":1745403128,"current_range_meters":17600,"station_id":"ce4bhb12rcd13ifvqel0","pricing_plan_id":"cebpf4jnsgd1na2vs0mg"},{"bike_id":"0fb99e50-92b8-403f-8a93-b366320f1008","system_id":"levelo_inurba_marseille","lat":43.312545,"lon":5.396378,"is_reserved":false,"is_disabled":false,"rental_uris":{"android":"levelo://app?vid=0fb99e50-92b8-403f-8a93-b366320f1008","ios":"levelo://app?vid=0fb99e50-92b8-403f-8a93-b366320f1008"},"vehicle_type_id":"4","last_reported":1745403128,"current_range_meters":17600,"station_id":"ce4bgvp2rcd13ifvqcu0","pricing_plan_id":"cebpf4jnsgd1na2vs0mg"},{"bike_id":"e880ecc6-a27b-473c-93e6-655ca4a033b2","system_id":"levelo_inurba_marseille","lat":43.30375,"lon":5.4248,"is_reserved":false,"is_disabled":false,"rental_uris":{"android":"levelo://app?vid=e880ecc6-a27b-473c-93e6-655ca4a033b2","ios":"levelo://app?vid=e880ecc6-a27b-473c-93e6-655ca4a033b2"},"vehicle_type_id":"4","last_reported":1745403128,"current_range_meters":17600,"station_id":"ce4bhoh2rcd13ifvqh6g","pricing_plan_id":"cebpf4jnsgd1na2vs0mg"},{"bike_id":"54253048-f935-49a1-9a18-e27095dd7346","system_id":"levelo_inurba_marseille","lat":43.3044,"lon":5.37137,"is_reserved":false,"is_disabled":false,"rental_uris":{"android":"levelo://app?vid=54253048-f935-49a1-9a18-e27095dd7346","ios":"levelo://app?vid=54253048-f935-49a1-9a18-e27095dd7346"},"vehicle_type_id":"4","last_reported":1745403128,"current_range_meters":18000,"station_id":"","pricing_plan_id":"cebpf4jnsgd1na2vs0mg"},{"bike_id":"9966e2c4-c438-4020-9570-af75c54f7699","system_id":"levelo_inurba_marseille","lat":43.25108,"lon":5.40324,"is_reserved":false,"is_disabled":false,"rental_uris":{"android":"levelo://app?vid=9966e2c4-c438-4020-9570-af75c54f7699","ios":"levelo://app?vid=9966e2c4-c438-4020-9570-af75c54f7699"},"vehicle_type_id":"4","last_reported":1745403128,"current_range_meters":17600,"station_id":"ce4bhlh2rcd13ifvqgig","pricing_plan_id":"cebpf4jnsgd1na2vs0mg"},{"bike_id":"012877b6-e9c9-482d-997f-6a78ad0ac83b","system_id":"levelo_inurba_marseille","lat":43.29621,"lon":5.37158,"is_reserved":false,"is_disabled":false,"rental_uris":{"android":"levelo://app?vid=012877b6-e9c9-482d-997f-6a78ad0ac83b","ios":"levelo://app?vid=012877b6-e9c9-482d-997f-6a78ad0ac83b"},"vehicle_type_id":"4","last_reported":1745403128,"current_range_meters":17600,"station_id":"ce4bgnh2rcd13ifvqc0g","pricing_plan_id":"cebpf4jnsgd1na2vs0mg"},{"bike_id":"859dc122-ee95-4256-83b5-5f37aeadd7b7","system_id":"levelo_inurba_marseille","lat":43.289398,"lon":5.366419,"is_reserved":false,"is_disabled":false,"rental_uris":{"android":"levelo://app?vid=859dc122-ee95-4256-83b5-5f37aeadd7b7","ios":"levelo://app?vid=859dc122-ee95-4256-83b5-5f37aeadd7b7"},"vehicle_type_id":"4","last_reported":1745403128,"current_range_meters":18000,"station_id":"ce4bhap2rcd13ifvqek0","pricing_plan_id":"cebpf4jnsgd1na2vs0mg"},{"bike_id":"548a676c-6329-4f1b-a15f-51e09f419043","system_id":"levelo_inurba_marseille","lat":43.2695,"lon":5.38641,"is_reserved":false,"is_disabled":true,"rental_uris":{"android":"levelo://app?vid=548a676c-6329-4f1b-a15f-51e09f419043","ios":"levelo://app?vid=548a676c-6329-4f1b-a15f-51e09f419043"},"vehicle_type_id":"4","last_reported":1745403128,"current_range_meters":18000,"station_id":"ce4bhh92rcd13ifvqfh0","pricing_plan_id":"cebpf4jnsgd1na2vs0mg"},{"bike_id":"7a02db5c-9a0f-4fd0-bc48-3f6276e4c713","system_id":"levelo_inurba_marseille","lat":43.29844,"lon":5.36267,"is_reserved":false,"is_disabled":false,"rental_uris":{"android":"levelo://app?vid=7a02db5c-9a0f-4fd0-bc48-3f6276e4c713","ios":"levelo://app?vid=7a02db5c-9a0f-4fd0-bc48-3f6276e4c713"},"vehicle_type_id":"4","last_reported":1745403128,"current_range_meters":18000,"station_id":"ce4bgpp2rcd13ifvqc3g","pricing_plan_id":"cebpf4jnsgd1na2vs0mg"},{"bike_id":"8ea6e189-4b3a-405f-a2d6-a9ba31b4e542","system_id":"levelo_inurba_marseille","lat":43.24801,"lon":5.3746,"is_reserved":false,"is_disabled":false,"rental_uris":{"android":"levelo://app?vid=8ea6e189-4b3a-405f-a2d6-a9ba31b4e542","ios":"levelo://app?vid=8ea6e189-4b3a-405f-a2d6-a9ba31b4e542"},"vehicle_type_id":"4","last_reported":1745403128,"current_range_meters":18000,"station_id":"ce4bhgh2rcd13ifvqfb0","pricing_plan_id":"cebpf4jnsgd1na2vs0mg"},{"bike_id":"84f0edd6-31f2-4516-a17a-c8dabb2e25b3","system_id":"levelo_inurba_marseille","lat":43.31234,"lon":5.36871,"is_reserved":false,"is_disabled":false,"rental_uris":{"android":"levelo://app?vid=84f0edd6-31f2-4516-a17a-c8dabb2e25b3","ios":"levelo://app?vid=84f0edd6-31f2-4516-a17a-c8dabb2e25b3"},"vehicle_type_id":"4","last_reported":1745403128,"current_range_meters":18000,"station_id":"ce4bgl92rcd13ifvqbq0","pricing_plan_id":"cebpf4jnsgd1na2vs0mg"},{"bike_id":"4bc4cd93-e9bd-4431-9aba-4a53a5a1a94b","system_id":"levelo_inurba_marseille","lat":43.30549,"lon":5.3671,"is_reserved":false,"is_disabled":false,"rental_uris":{"android":"levelo://app?vid=4bc4cd93-e9bd-4431-9aba-4a53a5a1a94b","ios":"levelo://app?vid=4bc4cd93-e9bd-4431-9aba-4a53a5a1a94b"},"vehicle_type_id":"4","last_reported":1745403128,"current_range_meters":18000,"station_id":"ce4bgrp2rcd13ifvqc9g","pricing_plan_id":"cebpf4jnsgd1na2vs0mg"},{"bike_id":"2c210749-934e-4075-8f69-64b44da87771","system_id":"levelo_inurba_marseille","lat":43.30299,"lon":5.39199,"is_reserved":false,"is_disabled":false,"rental_uris":{"android":"levelo://app?vid=2c210749-934e-4075-8f69-64b44da87771","ios":"levelo://app?vid=2c210749-934e-4075-8f69-64b44da87771"},"vehicle_type_id":"4","last_reported":1745403128,"current_range_meters":18000,"station_id":"ce4bgkh2rcd13ifvqbk0","pricing_plan_id":"cebpf4jnsgd1na2vs0mg"},{"bike_id":"e5ad4660-38ce-476a-9441-61a875f879c1","system_id":"levelo_inurba_marseille","lat":43.29777,"lon":5.39326,"is_reserved":false,"is_disabled":false,"rental_uris":{"android":"levelo://app?vid=e5ad4660-38ce-476a-9441-61a875f879c1","ios":"levelo://app?vid=e5ad4660-38ce-476a-9441-61a875f879c1"},"vehicle_type_id":"4","last_reported":1745403128,"current_range_meters":18000,"station_id":"chh1huq6cuj3fo74tm60","pricing_plan_id":"cebpf4jnsgd1na2vs0mg"},{"bike_id":"431f8e0d-2b86-4422-8cda-97ec47af7bcd","system_id":"levelo_inurba_marseille","lat":43.26222,"lon":5.40447,"is_reserved":false,"is_disabled":false,"rental_uris":{"android":"levelo://app?vid=431f8e0d-2b86-4422-8cda-97ec47af7bcd","ios":"levelo://app?vid=431f8e0d-2b86-4422-8cda-97ec47af7bcd"},"vehicle_type_id":"4","last_reported":1745403128,"current_range_meters":18000,"station_id":"ce4bhmh2rcd13ifvqgmg","pricing_plan_id":"cebpf4jnsgd1na2vs0mg"},{"bike_id":"8492fc37-6c73-4a09-9b31-986bd564c641","system_id":"levelo_inurba_marseille","lat":43.31693,"lon":5.40412,"is_reserved":false,"is_disabled":false,"rental_uris":{"android":"levelo://app?vid=8492fc37-6c73-4a09-9b31-986bd564c641","ios":"levelo://app?vid=8492fc37-6c73-4a09-9b31-986bd564c641"},"vehicle_type_id":"4","last_reported":1745403128,"current_range_meters":18000,"station_id":"","pricing_plan_id":"cebpf4jnsgd1na2vs0mg"},{"bike_id":"1aa656ae-0dd8-48ec-9f42-95c2db273681","system_id":"levelo_inurba_marseille","lat":43.30602,"lon":5.36678,"is_reserved":false,"is_disabled":false,"rental_uris":{"android":"levelo://app?vid=1aa656ae-0dd8-48ec-9f42-95c2db273681","ios":"levelo://app?vid=1aa656ae-0dd8-48ec-9f42-95c2db273681"},"vehicle_type_id":"4","last_reported":1745403128,"current_range_meters":18000,"station_id":"","pricing_plan_id":"cebpf4jnsgd1na2vs0mg"},{"bike_id":"47908667-b659-48f7-b343-f70ebed7bbd5","system_id":"levelo_inurba_marseille","lat":43.23184,"lon":5.39987,"is_reserved":false,"is_disabled":false,"rental_uris":{"android":"levelo://app?vid=47908667-b659-48f7-b343-f70ebed7bbd5","ios":"levelo://app?vid=47908667-b659-48f7-b343-f70ebed7bbd5"},"vehicle_type_id":"4","last_reported":1745403128,"current_range_meters":18800,"station_id":"ce4bhn12rcd13ifvqgqg","pricing_plan_id":"cebpf4jnsgd1na2vs0mg"},{"bike_id":"0ea362ce-4354-4f0f-acc7-962b146816c7","system_id":"levelo_inurba_marseille","lat":43.25862,"lon":5.39902,"is_reserved":false,"is_disabled":true,"rental_uris":{"android":"levelo://app?vid=0ea362ce-4354-4f0f-acc7-962b146816c7","ios":"levelo://app?vid=0ea362ce-4354-4f0f-acc7-962b146816c7"},"vehicle_type_id":"4","last_reported":1745403128,"current_range_meters":18800,"station_id":"ce4bhl92rcd13ifvqghg","pricing_plan_id":"cebpf4jnsgd1na2vs0mg"},{"bike_id":"7bda5196-b22a-4d62-8cbb-997368bea13c","system_id":"levelo_inurba_marseille","lat":43.30309,"lon":5.3692,"is_reserved":false,"is_disabled":false,"rental_uris":{"android":"levelo://app?vid=7bda5196-b22a-4d62-8cbb-997368bea13c","ios":"levelo://app?vid=7bda5196-b22a-4d62-8cbb-997368bea13c"},"vehicle_type_id":"4","last_reported":1745403128,"current_range_meters":18800,"station_id":"ce4bgqh2rcd13ifvqc5g","pricing_plan_id":"cebpf4jnsgd1na2vs0mg"},{"bike_id":"7b3b4f60-bf9c-4025-b10a-6b97b1277562","system_id":"levelo_inurba_marseille","lat":43.23149,"lon":5.43723,"is_reserved":false,"is_disabled":false,"rental_uris":{"android":"levelo://app?vid=7b3b4f60-bf9c-4025-b10a-6b97b1277562","ios":"levelo://app?vid=7b3b4f60-bf9c-4025-b10a-6b97b1277562"},"vehicle_type_id":"4","last_reported":1745403128,"current_range_meters":18800,"station_id":"ce4bhmp2rcd13ifvqgog","pricing_plan_id":"cebpf4jnsgd1na2vs0mg"},{"bike_id":"4913507c-096c-4918-8edb-802e1c951937","system_id":"levelo_inurba_marseille","lat":43.29894,"lon":5.43672,"is_reserved":false,"is_disabled":false,"rental_uris":{"android":"levelo://app?vid=4913507c-096c-4918-8edb-802e1c951937","ios":"levelo://app?vid=4913507c-096c-4918-8edb-802e1c951937"},"vehicle_type_id":"4","last_reported":1745403128,"current_range_meters":18800,"station_id":"ce4bhpp2rcd13ifvqhfg","pricing_plan_id":"cebpf4jnsgd1na2vs0mg"},{"bike_id":"c7b90bf3-baf1-4b35-b182-f85c92c205a4","system_id":"levelo_inurba_marseille","lat":43.28414,"lon":5.35,"is_reserved":false,"is_disabled":false,"rental_uris":{"android":"levelo://app?vid=c7b90bf3-baf1-4b35-b182-f85c92c205a4","ios":"levelo://app?vid=c7b90bf3-baf1-4b35-b182-f85c92c205a4"},"vehicle_type_id":"4","last_reported":1745403128,"current_range_meters":18800,"station_id":"ce4bhbh2rcd13ifvqepg","pricing_plan_id":"cebpf4jnsgd1na2vs0mg"},{"bike_id":"e49eed1a-7555-49e7-be27-d9cd2d811f92","system_id":"levelo_inurba_marseille","lat":43.25822,"lon":5.39423,"is_reserved":false,"is_disabled":false,"rental_uris":{"android":"levelo://app?vid=e49eed1a-7555-49e7-be27-d9cd2d811f92","ios":"levelo://app?vid=e49eed1a-7555-49e7-be27-d9cd2d811f92"},"vehicle_type_id":"4","last_reported":1745403128,"current_range_meters":18800,"station_id":"ce4bhip2rcd13ifvqft0","pricing_plan_id":"cebpf4jnsgd1na2vs0mg"},{"bike_id":"87312631-fb5a-4f56-8007-b856e54062fa","system_id":"levelo_inurba_marseille","lat":43.29633,"lon":5.4061,"is_reserved":false,"is_disabled":false,"rental_uris":{"android":"levelo://app?vid=87312631-fb5a-4f56-8007-b856e54062fa","ios":"levelo://app?vid=87312631-fb5a-4f56-8007-b856e54062fa"},"vehicle_type_id":"4","last_reported":1745403128,"current_range_meters":19200,"station_id":"ce4bh0h2rcd13ifvqd60","pricing_plan_id":"cebpf4jnsgd1na2vs0mg"},{"bike_id":"daea874d-487d-4e98-9991-6e3a44dd30e4","system_id":"levelo_inurba_marseille","lat":43.28416,"lon":5.34991,"is_reserved":false,"is_disabled":false,"rental_uris":{"android":"levelo://app?vid=daea874d-487d-4e98-9991-6e3a44dd30e4","ios":"levelo://app?vid=daea874d-487d-4e98-9991-6e3a44dd30e4"},"vehicle_type_id":"4","last_reported":1745403128,"current_range_meters":19200,"station_id":"ce4bhbh2rcd13ifvqepg","pricing_plan_id":"cebpf4jnsgd1na2vs0mg"},{"bike_id":"48d3867a-636b-468a-9edb-f27c9042c606","system_id":"levelo_inurba_marseille","lat":43.2953,"lon":5.3854,"is_reserved":false,"is_disabled":false,"rental_uris":{"android":"levelo://app?vid=48d3867a-636b-468a-9edb-f27c9042c606","ios":"levelo://app?vid=48d3867a-636b-468a-9edb-f27c9042c606"},"vehicle_type_id":"4","last_reported":1745403128,"current_range_meters":19200,"station_id":"ce4bgih2rcd13ifvqba0","pricing_plan_id":"cebpf4jnsgd1na2vs0mg"},{"bike_id":"322995c8-8601-4b19-ac1c-f357afc63d51","system_id":"levelo_inurba_marseille","lat":43.23151,"lon":5.43709,"is_reserved":false,"is_disabled":false,"rental_uris":{"android":"levelo://app?vid=322995c8-8601-4b19-ac1c-f357afc63d51","ios":"levelo://app?vid=322995c8-8601-4b19-ac1c-f357afc63d51"},"vehicle_type_id":"4","last_reported":1745403128,"current_range_meters":19200,"station_id":"ce4bhmp2rcd13ifvqgog","pricing_plan_id":"cebpf4jnsgd1na2vs0mg"},{"bike_id":"99a764d9-c775-4ca6-a51a-b13cec54798f","system_id":"levelo_inurba_marseille","lat":43.30466,"lon":5.37901,"is_reserved":false,"is_disabled":false,"rental_uris":{"android":"levelo://app?vid=99a764d9-c775-4ca6-a51a-b13cec54798f","ios":"levelo://app?vid=99a764d9-c775-4ca6-a51a-b13cec54798f"},"vehicle_type_id":"4","last_reported":1745403128,"current_range_meters":19200,"station_id":"ce4bgup2rcd13ifvqcn0","pricing_plan_id":"cebpf4jnsgd1na2vs0mg"},{"bike_id":"e0a0b092-ada3-4f08-8bbf-7f01fc66edf8","system_id":"levelo_inurba_marseille","lat":43.28443,"lon":5.35002,"is_reserved":false,"is_disabled":false,"rental_uris":{"android":"levelo://app?vid=e0a0b092-ada3-4f08-8bbf-7f01fc66edf8","ios":"levelo://app?vid=e0a0b092-ada3-4f08-8bbf-7f01fc66edf8"},"vehicle_type_id":"4","last_reported":1745403128,"current_range_meters":19200,"station_id":"ce4bhbh2rcd13ifvqepg","pricing_plan_id":"cebpf4jnsgd1na2vs0mg"},{"bike_id":"a575fc3b-1fa7-4dd4-9809-6d16f3c2011f","system_id":"levelo_inurba_marseille","lat":43.29618,"lon":5.37731,"is_reserved":false,"is_disabled":false,"rental_uris":{"android":"levelo://app?vid=a575fc3b-1fa7-4dd4-9809-6d16f3c2011f","ios":"levelo://app?vid=a575fc3b-1fa7-4dd4-9809-6d16f3c2011f"},"vehicle_type_id":"4","last_reported":1745403128,"current_range_meters":19600,"station_id":"ce4bgi92rcd13ifvqb90","pricing_plan_id":"cebpf4jnsgd1na2vs0mg"},{"bike_id":"7f4c3b02-135e-4c8b-ae41-58f43c6a5eeb","system_id":"levelo_inurba_marseille","lat":43.32482,"lon":5.3657,"is_reserved":false,"is_disabled":false,"rental_uris":{"android":"levelo://app?vid=7f4c3b02-135e-4c8b-ae41-58f43c6a5eeb","ios":"levelo://app?vid=7f4c3b02-135e-4c8b-ae41-58f43c6a5eeb"},"vehicle_type_id":"4","last_reported":1745403128,"current_range_meters":19600,"station_id":"ce4bhs12rcd13ifvqhvg","pricing_plan_id":"cebpf4jnsgd1na2vs0mg"},{"bike_id":"76795801-15e6-4272-80f9-f24296731352","system_id":"levelo_inurba_marseille","lat":43.25006,"lon":5.38911,"is_reserved":false,"is_disabled":false,"rental_uris":{"android":"levelo://app?vid=76795801-15e6-4272-80f9-f24296731352","ios":"levelo://app?vid=76795801-15e6-4272-80f9-f24296731352"},"vehicle_type_id":"4","last_reported":1745403128,"current_range_meters":19600,"station_id":"ce4bhgp2rcd13ifvqfd0","pricing_plan_id":"cebpf4jnsgd1na2vs0mg"},{"bike_id":"1801b48e-90da-4d8c-a2b9-226c20a87a1d","system_id":"levelo_inurba_marseille","lat":43.27992,"lon":5.41662,"is_reserved":false,"is_disabled":false,"rental_uris":{"android":"levelo://app?vid=1801b48e-90da-4d8c-a2b9-226c20a87a1d","ios":"levelo://app?vid=1801b48e-90da-4d8c-a2b9-226c20a87a1d"},"vehicle_type_id":"4","last_reported":1745403128,"current_range_meters":19600,"station_id":"ce4bho12rcd13ifvqh1g","pricing_plan_id":"cebpf4jnsgd1na2vs0mg"},{"bike_id":"b8fb165a-8bde-4bbe-a3eb-ad74c528b8d4","system_id":"levelo_inurba_marseille","lat":43.22936,"lon":5.35378,"is_reserved":false,"is_disabled":false,"rental_uris":{"android":"levelo://app?vid=b8fb165a-8bde-4bbe-a3eb-ad74c528b8d4","ios":"levelo://app?vid=b8fb165a-8bde-4bbe-a3eb-ad74c528b8d4"},"vehicle_type_id":"4","last_reported":1745403128,"current_range_meters":19600,"station_id":"cpo3532slgdg3j2ikp40","pricing_plan_id":"cebpf4jnsgd1na2vs0mg"},{"bike_id":"894b8530-885f-4d4d-a2ae-913958cbbe2f","system_id":"levelo_inurba_marseille","lat":43.25936,"lon":5.40921,"is_reserved":false,"is_disabled":true,"rental_uris":{"android":"levelo://app?vid=894b8530-885f-4d4d-a2ae-913958cbbe2f","ios":"levelo://app?vid=894b8530-885f-4d4d-a2ae-913958cbbe2f"},"vehicle_type_id":"4","last_reported":1745403128,"current_range_meters":19600,"station_id":"ce4bhm92rcd13ifvqglg","pricing_plan_id":"cebpf4jnsgd1na2vs0mg"},{"bike_id":"675a939b-d753-43ff-a709-52593e152734","system_id":"levelo_inurba_marseille","lat":43.31686,"lon":5.4045,"is_reserved":false,"is_disabled":false,"rental_uris":{"android":"levelo://app?vid=675a939b-d753-43ff-a709-52593e152734","ios":"levelo://app?vid=675a939b-d753-43ff-a709-52593e152734"},"vehicle_type_id":"4","last_reported":1745403128,"current_range_meters":19600,"station_id":"ce4bh012rcd13ifvqd00","pricing_plan_id":"cebpf4jnsgd1na2vs0mg"},{"bike_id":"938a84f3-f7be-4534-b084-493ff66c25ee","system_id":"levelo_inurba_marseille","lat":43.2768,"lon":5.38877,"is_reserved":false,"is_disabled":false,"rental_uris":{"android":"levelo://app?vid=938a84f3-f7be-4534-b084-493ff66c25ee","ios":"levelo://app?vid=938a84f3-f7be-4534-b084-493ff66c25ee"},"vehicle_type_id":"4","last_reported":1745403128,"current_range_meters":19600,"station_id":"ce4bhi12rcd13ifvqfo0","pricing_plan_id":"cebpf4jnsgd1na2vs0mg"},{"bike_id":"8b13a928-cf73-4379-a0db-2b466786b7d8","system_id":"levelo_inurba_marseille","lat":43.33774,"lon":5.37441,"is_reserved":false,"is_disabled":false,"rental_uris":{"android":"levelo://app?vid=8b13a928-cf73-4379-a0db-2b466786b7d8","ios":"levelo://app?vid=8b13a928-cf73-4379-a0db-2b466786b7d8"},"vehicle_type_id":"4","last_reported":1745403128,"current_range_meters":20000,"station_id":"","pricing_plan_id":"cebpf4jnsgd1na2vs0mg"},{"bike_id":"4ed887b4-7e7a-4790-b221-00379cf5d520","system_id":"levelo_inurba_marseille","lat":43.29731,"lon":5.37675,"is_reserved":false,"is_disabled":false,"rental_uris":{"android":"levelo://app?vid=4ed887b4-7e7a-4790-b221-00379cf5d520","ios":"levelo://app?vid=4ed887b4-7e7a-4790-b221-00379cf5d520"},"vehicle_type_id":"4","last_reported":1745403128,"current_range_meters":20000,"station_id":"ce4bgkh2rcd13ifvqbl0","pricing_plan_id":"cebpf4jnsgd1na2vs0mg"},{"bike_id":"5dfdc24e-b183-43b7-ab5f-edfe079f5a99","system_id":"levelo_inurba_marseille","lat":43.2718,"lon":5.40956,"is_reserved":false,"is_disabled":true,"rental_uris":{"android":"levelo://app?vid=5dfdc24e-b183-43b7-ab5f-edfe079f5a99","ios":"levelo://app?vid=5dfdc24e-b183-43b7-ab5f-edfe079f5a99"},"vehicle_type_id":"4","last_reported":1745403128,"current_range_meters":20000,"station_id":"ce4bhl12rcd13ifvqgf0","pricing_plan_id":"cebpf4jnsgd1na2vs0mg"},{"bike_id":"fdff1c06-f320-4e73-a9df-a3f71dc0bc56","system_id":"levelo_inurba_marseille","lat":43.2439,"lon":5.3706,"is_reserved":false,"is_disabled":false,"rental_uris":{"android":"levelo://app?vid=fdff1c06-f320-4e73-a9df-a3f71dc0bc56","ios":"levelo://app?vid=fdff1c06-f320-4e73-a9df-a3f71dc0bc56"},"vehicle_type_id":"4","last_reported":1745403128,"current_range_meters":20000,"station_id":"ce4bhhh2rcd13ifvqfk0","pricing_plan_id":"cebpf4jnsgd1na2vs0mg"},{"bike_id":"85a1ca08-d50d-4500-a6c1-565f524b93b3","system_id":"levelo_inurba_marseille","lat":43.29938,"lon":5.36543,"is_reserved":false,"is_disabled":true,"rental_uris":{"android":"levelo://app?vid=85a1ca08-d50d-4500-a6c1-565f524b93b3","ios":"levelo://app?vid=85a1ca08-d50d-4500-a6c1-565f524b93b3"},"vehicle_type_id":"4","last_reported":1745403128,"current_range_meters":20400,"station_id":"ce4bgm92rcd13ifvqbr0","pricing_plan_id":"cebpf4jnsgd1na2vs0mg"},{"bike_id":"1d2222fc-b545-4f16-b71c-bc76dcbcbaa9","system_id":"levelo_inurba_marseille","lat":43.24168,"lon":5.39739,"is_reserved":false,"is_disabled":false,"rental_uris":{"android":"levelo://app?vid=1d2222fc-b545-4f16-b71c-bc76dcbcbaa9","ios":"levelo://app?vid=1d2222fc-b545-4f16-b71c-bc76dcbcbaa9"},"vehicle_type_id":"4","last_reported":1745403128,"current_range_meters":20400,"station_id":"ce4bhn12rcd13ifvqgpg","pricing_plan_id":"cebpf4jnsgd1na2vs0mg"},{"bike_id":"7049f559-46ea-469f-b042-655207f67349","system_id":"levelo_inurba_marseille","lat":43.23152,"lon":5.4373,"is_reserved":false,"is_disabled":false,"rental_uris":{"android":"levelo://app?vid=7049f559-46ea-469f-b042-655207f67349","ios":"levelo://app?vid=7049f559-46ea-469f-b042-655207f67349"},"vehicle_type_id":"4","last_reported":1745403128,"current_range_meters":20400,"station_id":"ce4bhmp2rcd13ifvqgog","pricing_plan_id":"cebpf4jnsgd1na2vs0mg"},{"bike_id":"9635db3b-3afb-4368-b1d6-3cccad6d8266","system_id":"levelo_inurba_marseille","lat":43.30304,"lon":5.3689,"is_reserved":false,"is_disabled":false,"rental_uris":{"android":"levelo://app?vid=9635db3b-3afb-4368-b1d6-3cccad6d8266","ios":"levelo://app?vid=9635db3b-3afb-4368-b1d6-3cccad6d8266"},"vehicle_type_id":"4","last_reported":1745403128,"current_range_meters":20400,"station_id":"ce4bgqh2rcd13ifvqc5g","pricing_plan_id":"cebpf4jnsgd1na2vs0mg"},{"bike_id":"a50c0add-04db-4008-88e1-60ef015df2b9","system_id":"levelo_inurba_marseille","lat":43.336038,"lon":5.4102,"is_reserved":false,"is_disabled":false,"rental_uris":{"android":"levelo://app?vid=a50c0add-04db-4008-88e1-60ef015df2b9","ios":"levelo://app?vid=a50c0add-04db-4008-88e1-60ef015df2b9"},"vehicle_type_id":"4","last_reported":1745403128,"current_range_meters":20800,"station_id":"ce4bhqh2rcd13ifvqhmg","pricing_plan_id":"cebpf4jnsgd1na2vs0mg"},{"bike_id":"4d97209e-c90a-4f87-b79e-7ebc5a4ff745","system_id":"levelo_inurba_marseille","lat":43.30139,"lon":5.38055,"is_reserved":false,"is_disabled":false,"rental_uris":{"android":"levelo://app?vid=4d97209e-c90a-4f87-b79e-7ebc5a4ff745","ios":"levelo://app?vid=4d97209e-c90a-4f87-b79e-7ebc5a4ff745"},"vehicle_type_id":"4","last_reported":1745403128,"current_range_meters":21600,"station_id":"ce4bgjp2rcd13ifvqbh0","pricing_plan_id":"cebpf4jnsgd1na2vs0mg"},{"bike_id":"9b2c04b7-43b1-47c4-89cd-676a654cd53e","system_id":"levelo_inurba_marseille","lat":43.3035,"lon":5.41873,"is_reserved":false,"is_disabled":false,"rental_uris":{"android":"levelo://app?vid=9b2c04b7-43b1-47c4-89cd-676a654cd53e","ios":"levelo://app?vid=9b2c04b7-43b1-47c4-89cd-676a654cd53e"},"vehicle_type_id":"4","last_reported":1745403128,"current_range_meters":21600,"station_id":"ce4bhop2rcd13ifvqh7g","pricing_plan_id":"cebpf4jnsgd1na2vs0mg"},{"bike_id":"3e7d9460-b0c5-4185-bde7-e2a5498a091d","system_id":"levelo_inurba_marseille","lat":43.3168,"lon":5.40473,"is_reserved":false,"is_disabled":false,"rental_uris":{"android":"levelo://app?vid=3e7d9460-b0c5-4185-bde7-e2a5498a091d","ios":"levelo://app?vid=3e7d9460-b0c5-4185-bde7-e2a5498a091d"},"vehicle_type_id":"4","last_reported":1745403128,"current_range_meters":21600,"station_id":"ce4bh012rcd13ifvqd00","pricing_plan_id":"cebpf4jnsgd1na2vs0mg"},{"bike_id":"ab8406b2-4f8d-4381-8821-3db52b0a4d4d","system_id":"levelo_inurba_marseille","lat":43.2736,"lon":5.37835,"is_reserved":false,"is_disabled":false,"rental_uris":{"android":"levelo://app?vid=ab8406b2-4f8d-4381-8821-3db52b0a4d4d","ios":"levelo://app?vid=ab8406b2-4f8d-4381-8821-3db52b0a4d4d"},"vehicle_type_id":"4","last_reported":1745403128,"current_range_meters":21600,"station_id":"","pricing_plan_id":"cebpf4jnsgd1na2vs0mg"},{"bike_id":"a2f407dc-7fa5-4d61-bbb5-5e7c2043ecfd","system_id":"levelo_inurba_marseille","lat":43.33608,"lon":5.41021,"is_reserved":false,"is_disabled":false,"rental_uris":{"android":"levelo://app?vid=a2f407dc-7fa5-4d61-bbb5-5e7c2043ecfd","ios":"levelo://app?vid=a2f407dc-7fa5-4d61-bbb5-5e7c2043ecfd"},"vehicle_type_id":"4","last_reported":1745403128,"current_range_meters":21600,"station_id":"ce4bhqh2rcd13ifvqhmg","pricing_plan_id":"cebpf4jnsgd1na2vs0mg"},{"bike_id":"ef7b4785-fa2b-49c3-8f9c-177a53d7e716","system_id":"levelo_inurba_marseille","lat":43.30312,"lon":5.3692,"is_reserved":false,"is_disabled":false,"rental_uris":{"android":"levelo://app?vid=ef7b4785-fa2b-49c3-8f9c-177a53d7e716","ios":"levelo://app?vid=ef7b4785-fa2b-49c3-8f9c-177a53d7e716"},"vehicle_type_id":"4","last_reported":1745403128,"current_range_meters":21600,"station_id":"ce4bgqh2rcd13ifvqc5g","pricing_plan_id":"cebpf4jnsgd1na2vs0mg"},{"bike_id":"11f4ee4a-7fa1-4c62-b378-a96e1722a902","system_id":"levelo_inurba_marseille","lat":43.30547,"lon":5.36707,"is_reserved":false,"is_disabled":true,"rental_uris":{"android":"levelo://app?vid=11f4ee4a-7fa1-4c62-b378-a96e1722a902","ios":"levelo://app?vid=11f4ee4a-7fa1-4c62-b378-a96e1722a902"},"vehicle_type_id":"4","last_reported":1745403128,"current_range_meters":22000,"station_id":"ce4bgrp2rcd13ifvqc9g","pricing_plan_id":"cebpf4jnsgd1na2vs0mg"},{"bike_id":"214bbde7-aa65-480a-8046-2c18c1efb04d","system_id":"levelo_inurba_marseille","lat":43.29806,"lon":5.38064,"is_reserved":false,"is_disabled":true,"rental_uris":{"android":"levelo://app?vid=214bbde7-aa65-480a-8046-2c18c1efb04d","ios":"levelo://app?vid=214bbde7-aa65-480a-8046-2c18c1efb04d"},"vehicle_type_id":"4","last_reported":1745403128,"current_range_meters":22000,"station_id":"ce4bgip2rcd13ifvqbb0","pricing_plan_id":"cebpf4jnsgd1na2vs0mg"},{"bike_id":"17f64928-2dde-4002-ba54-81b220f041ae","system_id":"levelo_inurba_marseille","lat":43.28416,"lon":5.34982,"is_reserved":false,"is_disabled":false,"rental_uris":{"android":"levelo://app?vid=17f64928-2dde-4002-ba54-81b220f041ae","ios":"levelo://app?vid=17f64928-2dde-4002-ba54-81b220f041ae"},"vehicle_type_id":"4","last_reported":1745403128,"current_range_meters":22000,"station_id":"ce4bhbh2rcd13ifvqepg","pricing_plan_id":"cebpf4jnsgd1na2vs0mg"},{"bike_id":"dd4bb082-fd23-4772-a02a-a2b44e93058b","system_id":"levelo_inurba_marseille","lat":43.29527,"lon":5.38534,"is_reserved":false,"is_disabled":false,"rental_uris":{"android":"levelo://app?vid=dd4bb082-fd23-4772-a02a-a2b44e93058b","ios":"levelo://app?vid=dd4bb082-fd23-4772-a02a-a2b44e93058b"},"vehicle_type_id":"4","last_reported":1745403128,"current_range_meters":21600,"station_id":"ce4bgih2rcd13ifvqba0","pricing_plan_id":"cebpf4jnsgd1na2vs0mg"},{"bike_id":"8b43b1fb-5cab-4db8-ae05-f66514d8855e","system_id":"levelo_inurba_marseille","lat":43.3132,"lon":5.37333,"is_reserved":false,"is_disabled":false,"rental_uris":{"android":"levelo://app?vid=8b43b1fb-5cab-4db8-ae05-f66514d8855e","ios":"levelo://app?vid=8b43b1fb-5cab-4db8-ae05-f66514d8855e"},"vehicle_type_id":"4","last_reported":1745403128,"current_range_meters":22000,"station_id":"","pricing_plan_id":"cebpf4jnsgd1na2vs0mg"},{"bike_id":"32f4fde7-f9bb-48cf-850f-4f6df8e3f810","system_id":"levelo_inurba_marseille","lat":43.29836,"lon":5.36263,"is_reserved":false,"is_disabled":false,"rental_uris":{"android":"levelo://app?vid=32f4fde7-f9bb-48cf-850f-4f6df8e3f810","ios":"levelo://app?vid=32f4fde7-f9bb-48cf-850f-4f6df8e3f810"},"vehicle_type_id":"4","last_reported":1745403128,"current_range_meters":22000,"station_id":"ce4bgpp2rcd13ifvqc3g","pricing_plan_id":"cebpf4jnsgd1na2vs0mg"},{"bike_id":"07b1453d-921f-46b6-9ea4-aaa2aff66d5e","system_id":"levelo_inurba_marseille","lat":43.26224,"lon":5.40447,"is_reserved":false,"is_disabled":false,"rental_uris":{"android":"levelo://app?vid=07b1453d-921f-46b6-9ea4-aaa2aff66d5e","ios":"levelo://app?vid=07b1453d-921f-46b6-9ea4-aaa2aff66d5e"},"vehicle_type_id":"4","last_reported":1745403128,"current_range_meters":22000,"station_id":"ce4bhmh2rcd13ifvqgmg","pricing_plan_id":"cebpf4jnsgd1na2vs0mg"},{"bike_id":"9f5e106b-c898-432b-9e23-4035ae8c33a8","system_id":"levelo_inurba_marseille","lat":43.30545,"lon":5.36691,"is_reserved":false,"is_disabled":true,"rental_uris":{"android":"levelo://app?vid=9f5e106b-c898-432b-9e23-4035ae8c33a8","ios":"levelo://app?vid=9f5e106b-c898-432b-9e23-4035ae8c33a8"},"vehicle_type_id":"4","last_reported":1745403128,"current_range_meters":22000,"station_id":"ce4bgrp2rcd13ifvqc9g","pricing_plan_id":"cebpf4jnsgd1na2vs0mg"},{"bike_id":"e2af550e-f5d9-45d1-8ef6-8cd0a67460a1","system_id":"levelo_inurba_marseille","lat":43.29604,"lon":5.38103,"is_reserved":false,"is_disabled":false,"rental_uris":{"android":"levelo://app?vid=e2af550e-f5d9-45d1-8ef6-8cd0a67460a1","ios":"levelo://app?vid=e2af550e-f5d9-45d1-8ef6-8cd0a67460a1"},"vehicle_type_id":"4","last_reported":1745403128,"current_range_meters":21600,"station_id":"ce4bgl12rcd13ifvqbo0","pricing_plan_id":"cebpf4jnsgd1na2vs0mg"},{"bike_id":"58c13b7e-5806-4707-8d15-89dacda1d223","system_id":"levelo_inurba_marseille","lat":43.26579,"lon":5.39015,"is_reserved":false,"is_disabled":false,"rental_uris":{"android":"levelo://app?vid=58c13b7e-5806-4707-8d15-89dacda1d223","ios":"levelo://app?vid=58c13b7e-5806-4707-8d15-89dacda1d223"},"vehicle_type_id":"4","last_reported":1745403128,"current_range_meters":22400,"station_id":"ce4bhe12rcd13ifvqf30","pricing_plan_id":"cebpf4jnsgd1na2vs0mg"},{"bike_id":"b80022cb-a29e-4744-b1c0-16d659917ee2","system_id":"levelo_inurba_marseille","lat":43.29839,"lon":5.36273,"is_reserved":false,"is_disabled":false,"rental_uris":{"android":"levelo://app?vid=b80022cb-a29e-4744-b1c0-16d659917ee2","ios":"levelo://app?vid=b80022cb-a29e-4744-b1c0-16d659917ee2"},"vehicle_type_id":"4","last_reported":1745403128,"current_range_meters":22400,"station_id":"ce4bgpp2rcd13ifvqc3g","pricing_plan_id":"cebpf4jnsgd1na2vs0mg"},{"bike_id":"a5856b95-9e19-4436-b973-344e5d5dcbd8","system_id":"levelo_inurba_marseille","lat":43.24162,"lon":5.3641,"is_reserved":false,"is_disabled":false,"rental_uris":{"android":"levelo://app?vid=a5856b95-9e19-4436-b973-344e5d5dcbd8","ios":"levelo://app?vid=a5856b95-9e19-4436-b973-344e5d5dcbd8"},"vehicle_type_id":"4","last_reported":1745403128,"current_range_meters":22400,"station_id":"cpo36qri1sfpv3e86is0","pricing_plan_id":"cebpf4jnsgd1na2vs0mg"},{"bike_id":"db3018c9-7880-4a6c-8f0a-5866e4ae8934","system_id":"levelo_inurba_marseille","lat":43.27936,"lon":5.4105,"is_reserved":false,"is_disabled":false,"rental_uris":{"android":"levelo://app?vid=db3018c9-7880-4a6c-8f0a-5866e4ae8934","ios":"levelo://app?vid=db3018c9-7880-4a6c-8f0a-5866e4ae8934"},"vehicle_type_id":"4","last_reported":1745403128,"current_range_meters":22400,"station_id":"ce4bhnp2rcd13ifvqh0g","pricing_plan_id":"cebpf4jnsgd1na2vs0mg"},{"bike_id":"f8503247-3152-4d9b-8745-089b55a85c87","system_id":"levelo_inurba_marseille","lat":43.305907,"lon":5.393624,"is_reserved":false,"is_disabled":false,"rental_uris":{"android":"levelo://app?vid=f8503247-3152-4d9b-8745-089b55a85c87","ios":"levelo://app?vid=f8503247-3152-4d9b-8745-089b55a85c87"},"vehicle_type_id":"4","last_reported":1745403128,"current_range_meters":22400,"station_id":"ce4bh012rcd13ifvqcv0","pricing_plan_id":"cebpf4jnsgd1na2vs0mg"},{"bike_id":"49a9d462-1dd2-48bd-8984-546cb07c15b6","system_id":"levelo_inurba_marseille","lat":43.25823,"lon":5.39442,"is_reserved":false,"is_disabled":false,"rental_uris":{"android":"levelo://app?vid=49a9d462-1dd2-48bd-8984-546cb07c15b6","ios":"levelo://app?vid=49a9d462-1dd2-48bd-8984-546cb07c15b6"},"vehicle_type_id":"4","last_reported":1745403128,"current_range_meters":22400,"station_id":"ce4bhip2rcd13ifvqft0","pricing_plan_id":"cebpf4jnsgd1na2vs0mg"},{"bike_id":"30da752e-5450-4da3-965e-773778ce5d7d","system_id":"levelo_inurba_marseille","lat":43.24167,"lon":5.36392,"is_reserved":false,"is_disabled":false,"rental_uris":{"android":"levelo://app?vid=30da752e-5450-4da3-965e-773778ce5d7d","ios":"levelo://app?vid=30da752e-5450-4da3-965e-773778ce5d7d"},"vehicle_type_id":"4","last_reported":1745403128,"current_range_meters":22800,"station_id":"cpo36qri1sfpv3e86is0","pricing_plan_id":"cebpf4jnsgd1na2vs0mg"},{"bike_id":"7ba7cc5a-d644-4107-9ee5-ec1d0a29bc19","system_id":"levelo_inurba_marseille","lat":43.30879,"lon":5.37191,"is_reserved":false,"is_disabled":false,"rental_uris":{"android":"levelo://app?vid=7ba7cc5a-d644-4107-9ee5-ec1d0a29bc19","ios":"levelo://app?vid=7ba7cc5a-d644-4107-9ee5-ec1d0a29bc19"},"vehicle_type_id":"4","last_reported":1745403128,"current_range_meters":22800,"station_id":"ce4bguh2rcd13ifvqckg","pricing_plan_id":"cebpf4jnsgd1na2vs0mg"},{"bike_id":"571a5c63-680f-4fa3-864f-f63c619bdcdb","system_id":"levelo_inurba_marseille","lat":43.2842,"lon":5.34982,"is_reserved":false,"is_disabled":false,"rental_uris":{"android":"levelo://app?vid=571a5c63-680f-4fa3-864f-f63c619bdcdb","ios":"levelo://app?vid=571a5c63-680f-4fa3-864f-f63c619bdcdb"},"vehicle_type_id":"4","last_reported":1745403128,"current_range_meters":23200,"station_id":"ce4bhbh2rcd13ifvqepg","pricing_plan_id":"cebpf4jnsgd1na2vs0mg"},{"bike_id":"67d250d8-05ec-459c-a12c-6f6771c8dbe1","system_id":"levelo_inurba_marseille","lat":43.32118,"lon":5.36781,"is_reserved":false,"is_disabled":false,"rental_uris":{"android":"levelo://app?vid=67d250d8-05ec-459c-a12c-6f6771c8dbe1","ios":"levelo://app?vid=67d250d8-05ec-459c-a12c-6f6771c8dbe1"},"vehicle_type_id":"4","last_reported":1745403128,"current_range_meters":23200,"station_id":"ce4bhrh2rcd13ifvqhug","pricing_plan_id":"cebpf4jnsgd1na2vs0mg"},{"bike_id":"903af2d1-8720-495d-86c1-34eea9725983","system_id":"levelo_inurba_marseille","lat":43.26783,"lon":5.39417,"is_reserved":false,"is_disabled":false,"rental_uris":{"android":"levelo://app?vid=903af2d1-8720-495d-86c1-34eea9725983","ios":"levelo://app?vid=903af2d1-8720-495d-86c1-34eea9725983"},"vehicle_type_id":"4","last_reported":1745403128,"current_range_meters":21600,"station_id":"ce4bhh12rcd13ifvqfg0","pricing_plan_id":"cebpf4jnsgd1na2vs0mg"},{"bike_id":"73f40cff-bb71-4b7a-8ad7-f06c69fb0596","system_id":"levelo_inurba_marseille","lat":43.21205,"lon":5.35081,"is_reserved":false,"is_disabled":false,"rental_uris":{"android":"levelo://app?vid=73f40cff-bb71-4b7a-8ad7-f06c69fb0596","ios":"levelo://app?vid=73f40cff-bb71-4b7a-8ad7-f06c69fb0596"},"vehicle_type_id":"4","last_reported":1745403128,"current_range_meters":23200,"station_id":"st_cvj6sg6p6f1abm77japg","pricing_plan_id":"cebpf4jnsgd1na2vs0mg"},{"bike_id":"c4b736c9-1440-4a83-a0cb-06795dedb1bb","system_id":"levelo_inurba_marseille","lat":43.29193,"lon":5.3581,"is_reserved":false,"is_disabled":false,"rental_uris":{"android":"levelo://app?vid=c4b736c9-1440-4a83-a0cb-06795dedb1bb","ios":"levelo://app?vid=c4b736c9-1440-4a83-a0cb-06795dedb1bb"},"vehicle_type_id":"4","last_reported":1745403128,"current_range_meters":23200,"station_id":"ce4bhb12rcd13ifvqel0","pricing_plan_id":"cebpf4jnsgd1na2vs0mg"},{"bike_id":"a09d1f25-50a0-4a39-938f-8708b336d9f8","system_id":"levelo_inurba_marseille","lat":43.33728,"lon":5.39201,"is_reserved":false,"is_disabled":false,"rental_uris":{"android":"levelo://app?vid=a09d1f25-50a0-4a39-938f-8708b336d9f8","ios":"levelo://app?vid=a09d1f25-50a0-4a39-938f-8708b336d9f8"},"vehicle_type_id":"4","last_reported":1745403128,"current_range_meters":23200,"station_id":"ce4bhr92rcd13ifvqhsg","pricing_plan_id":"cebpf4jnsgd1na2vs0mg"},{"bike_id":"987d7900-bb2a-45cb-bed7-6d69f6fd4fa3","system_id":"levelo_inurba_marseille","lat":43.28487,"lon":5.38438,"is_reserved":false,"is_disabled":false,"rental_uris":{"android":"levelo://app?vid=987d7900-bb2a-45cb-bed7-6d69f6fd4fa3","ios":"levelo://app?vid=987d7900-bb2a-45cb-bed7-6d69f6fd4fa3"},"vehicle_type_id":"4","last_reported":1745403128,"current_range_meters":23200,"station_id":"ce4bh512rcd13ifvqe3g","pricing_plan_id":"cebpf4jnsgd1na2vs0mg"},{"bike_id":"7a38cd50-7a93-4627-806c-1a69d66aceb3","system_id":"levelo_inurba_marseille","lat":43.30796,"lon":5.43518,"is_reserved":false,"is_disabled":false,"rental_uris":{"android":"levelo://app?vid=7a38cd50-7a93-4627-806c-1a69d66aceb3","ios":"levelo://app?vid=7a38cd50-7a93-4627-806c-1a69d66aceb3"},"vehicle_type_id":"4","last_reported":1745403128,"current_range_meters":23200,"station_id":"ce4bhph2rcd13ifvqheg","pricing_plan_id":"cebpf4jnsgd1na2vs0mg"},{"bike_id":"a3b1a9d2-0170-4398-995b-a8853572e80e","system_id":"levelo_inurba_marseille","lat":43.26559,"lon":5.37279,"is_reserved":false,"is_disabled":false,"rental_uris":{"android":"levelo://app?vid=a3b1a9d2-0170-4398-995b-a8853572e80e","ios":"levelo://app?vid=a3b1a9d2-0170-4398-995b-a8853572e80e"},"vehicle_type_id":"4","last_reported":1745403128,"current_range_meters":23200,"station_id":"ce4bhg12rcd13ifvqf70","pricing_plan_id":"cebpf4jnsgd1na2vs0mg"},{"bike_id":"059726cb-7b89-4e13-b17a-f25e1cde181d","system_id":"levelo_inurba_marseille","lat":43.27172,"lon":5.4099,"is_reserved":false,"is_disabled":false,"rental_uris":{"android":"levelo://app?vid=059726cb-7b89-4e13-b17a-f25e1cde181d","ios":"levelo://app?vid=059726cb-7b89-4e13-b17a-f25e1cde181d"},"vehicle_type_id":"4","last_reported":1745403128,"current_range_meters":24000,"station_id":"ce4bhl12rcd13ifvqgf0","pricing_plan_id":"cebpf4jnsgd1na2vs0mg"},{"bike_id":"551d446e-37b3-496f-910e-9612f4dd6882","system_id":"levelo_inurba_marseille","lat":43.27427,"lon":5.39402,"is_reserved":false,"is_disabled":true,"rental_uris":{"android":"levelo://app?vid=551d446e-37b3-496f-910e-9612f4dd6882","ios":"levelo://app?vid=551d446e-37b3-496f-910e-9612f4dd6882"},"vehicle_type_id":"4","last_reported":1745403128,"current_range_meters":24000,"station_id":"ce4bhdp2rcd13ifvqf20","pricing_plan_id":"cebpf4jnsgd1na2vs0mg"},{"bike_id":"bad43876-48a1-4e18-9519-1b8c70f438a6","system_id":"levelo_inurba_marseille","lat":43.29718,"lon":5.37716,"is_reserved":false,"is_disabled":true,"rental_uris":{"android":"levelo://app?vid=bad43876-48a1-4e18-9519-1b8c70f438a6","ios":"levelo://app?vid=bad43876-48a1-4e18-9519-1b8c70f438a6"},"vehicle_type_id":"4","last_reported":1745403128,"current_range_meters":24000,"station_id":"ce4bgkh2rcd13ifvqbl0","pricing_plan_id":"cebpf4jnsgd1na2vs0mg"},{"bike_id":"73b54c58-6236-44f3-8812-61e251b3b227","system_id":"levelo_inurba_marseille","lat":43.28418,"lon":5.34984,"is_reserved":false,"is_disabled":false,"rental_uris":{"android":"levelo://app?vid=73b54c58-6236-44f3-8812-61e251b3b227","ios":"levelo://app?vid=73b54c58-6236-44f3-8812-61e251b3b227"},"vehicle_type_id":"4","last_reported":1745403128,"current_range_meters":24000,"station_id":"ce4bhbh2rcd13ifvqepg","pricing_plan_id":"cebpf4jnsgd1na2vs0mg"},{"bike_id":"8a716f10-6abe-4f80-94ce-4c02fac0f570","system_id":"levelo_inurba_marseille","lat":43.25008,"lon":5.3892,"is_reserved":false,"is_disabled":false,"rental_uris":{"android":"levelo://app?vid=8a716f10-6abe-4f80-94ce-4c02fac0f570","ios":"levelo://app?vid=8a716f10-6abe-4f80-94ce-4c02fac0f570"},"vehicle_type_id":"4","last_reported":1745403128,"current_range_meters":24000,"station_id":"ce4bhgp2rcd13ifvqfd0","pricing_plan_id":"cebpf4jnsgd1na2vs0mg"},{"bike_id":"5fec05ec-55b9-423c-aebb-393cf3a9a93c","system_id":"levelo_inurba_marseille","lat":43.29575,"lon":5.37505,"is_reserved":false,"is_disabled":true,"rental_uris":{"android":"levelo://app?vid=5fec05ec-55b9-423c-aebb-393cf3a9a93c","ios":"levelo://app?vid=5fec05ec-55b9-423c-aebb-393cf3a9a93c"},"vehicle_type_id":"4","last_reported":1745403128,"current_range_meters":24000,"station_id":"ce4bgh92rcd13ifvqb50","pricing_plan_id":"cebpf4jnsgd1na2vs0mg"},{"bike_id":"0267d9c2-dd60-4f6c-9d59-14262d3dc999","system_id":"levelo_inurba_marseille","lat":43.23192,"lon":5.35554,"is_reserved":false,"is_disabled":false,"rental_uris":{"android":"levelo://app?vid=0267d9c2-dd60-4f6c-9d59-14262d3dc999","ios":"levelo://app?vid=0267d9c2-dd60-4f6c-9d59-14262d3dc999"},"vehicle_type_id":"4","last_reported":1745403128,"current_range_meters":24000,"station_id":"ce4bhu92rcd13ifvqi70","pricing_plan_id":"cebpf4jnsgd1na2vs0mg"},{"bike_id":"e4e681c3-5e6d-45c7-b595-e1cb9e1d72a9","system_id":"levelo_inurba_marseille","lat":43.29185,"lon":5.35802,"is_reserved":false,"is_disabled":false,"rental_uris":{"android":"levelo://app?vid=e4e681c3-5e6d-45c7-b595-e1cb9e1d72a9","ios":"levelo://app?vid=e4e681c3-5e6d-45c7-b595-e1cb9e1d72a9"},"vehicle_type_id":"4","last_reported":1745403128,"current_range_meters":24000,"station_id":"ce4bhb12rcd13ifvqel0","pricing_plan_id":"cebpf4jnsgd1na2vs0mg"},{"bike_id":"3bec0f97-cdae-4155-8541-e8662afd6254","system_id":"levelo_inurba_marseille","lat":43.31162,"lon":5.36834,"is_reserved":false,"is_disabled":false,"rental_uris":{"android":"levelo://app?vid=3bec0f97-cdae-4155-8541-e8662afd6254","ios":"levelo://app?vid=3bec0f97-cdae-4155-8541-e8662afd6254"},"vehicle_type_id":"4","last_reported":1745403128,"current_range_meters":24000,"station_id":"","pricing_plan_id":"cebpf4jnsgd1na2vs0mg"},{"bike_id":"016aff3c-2e4d-4623-aab5-eb6af42fe42f","system_id":"levelo_inurba_marseille","lat":43.29036,"lon":5.37569,"is_reserved":false,"is_disabled":false,"rental_uris":{"android":"levelo://app?vid=016aff3c-2e4d-4623-aab5-eb6af42fe42f","ios":"levelo://app?vid=016aff3c-2e4d-4623-aab5-eb6af42fe42f"},"vehicle_type_id":"4","last_reported":1745403128,"current_range_meters":24000,"station_id":"ce4bh692rcd13ifvqe90","pricing_plan_id":"cebpf4jnsgd1na2vs0mg"},{"bike_id":"47e732d0-9295-418c-81d8-386161e848ec","system_id":"levelo_inurba_marseille","lat":43.29262,"lon":5.38439,"is_reserved":false,"is_disabled":false,"rental_uris":{"android":"levelo://app?vid=47e732d0-9295-418c-81d8-386161e848ec","ios":"levelo://app?vid=47e732d0-9295-418c-81d8-386161e848ec"},"vehicle_type_id":"4","last_reported":1745403128,"current_range_meters":23200,"station_id":"ce4bh692rcd13ifvqea0","pricing_plan_id":"cebpf4jnsgd1na2vs0mg"},{"bike_id":"413f4d9d-b034-4a62-9dd5-fb1e57ec700a","system_id":"levelo_inurba_marseille","lat":43.23144,"lon":5.43712,"is_reserved":false,"is_disabled":false,"rental_uris":{"android":"levelo://app?vid=413f4d9d-b034-4a62-9dd5-fb1e57ec700a","ios":"levelo://app?vid=413f4d9d-b034-4a62-9dd5-fb1e57ec700a"},"vehicle_type_id":"4","last_reported":1745403128,"current_range_meters":24400,"station_id":"ce4bhmp2rcd13ifvqgog","pricing_plan_id":"cebpf4jnsgd1na2vs0mg"},{"bike_id":"984f5c6a-2e49-49e2-a94d-7136519ad79a","system_id":"levelo_inurba_marseille","lat":43.25825,"lon":5.39435,"is_reserved":false,"is_disabled":false,"rental_uris":{"android":"levelo://app?vid=984f5c6a-2e49-49e2-a94d-7136519ad79a","ios":"levelo://app?vid=984f5c6a-2e49-49e2-a94d-7136519ad79a"},"vehicle_type_id":"4","last_reported":1745403128,"current_range_meters":24400,"station_id":"ce4bhip2rcd13ifvqft0","pricing_plan_id":"cebpf4jnsgd1na2vs0mg"},{"bike_id":"622af181-d399-4afb-908b-9aa9e810e546","system_id":"levelo_inurba_marseille","lat":43.24672,"lon":5.38149,"is_reserved":false,"is_disabled":false,"rental_uris":{"android":"levelo://app?vid=622af181-d399-4afb-908b-9aa9e810e546","ios":"levelo://app?vid=622af181-d399-4afb-908b-9aa9e810e546"},"vehicle_type_id":"4","last_reported":1745403128,"current_range_meters":24400,"station_id":"ce4bhih2rcd13ifvqfr0","pricing_plan_id":"cebpf4jnsgd1na2vs0mg"},{"bike_id":"614d1d33-3c58-408b-96db-9505ac77b220","system_id":"levelo_inurba_marseille","lat":43.27994,"lon":5.40023,"is_reserved":false,"is_disabled":false,"rental_uris":{"android":"levelo://app?vid=614d1d33-3c58-408b-96db-9505ac77b220","ios":"levelo://app?vid=614d1d33-3c58-408b-96db-9505ac77b220"},"vehicle_type_id":"4","last_reported":1745403128,"current_range_meters":24400,"station_id":"ce4bho92rcd13ifvqh4g","pricing_plan_id":"cebpf4jnsgd1na2vs0mg"},{"bike_id":"ab4b1a20-cb7a-42b6-9cb4-1a682bd6fd5b","system_id":"levelo_inurba_marseille","lat":43.29234,"lon":5.36039,"is_reserved":false,"is_disabled":false,"rental_uris":{"android":"levelo://app?vid=ab4b1a20-cb7a-42b6-9cb4-1a682bd6fd5b","ios":"levelo://app?vid=ab4b1a20-cb7a-42b6-9cb4-1a682bd6fd5b"},"vehicle_type_id":"4","last_reported":1745403128,"current_range_meters":24400,"station_id":"ce4bhbh2rcd13ifvqeqg","pricing_plan_id":"cebpf4jnsgd1na2vs0mg"},{"bike_id":"7e1d1a54-d3c4-46d1-b727-7952f94fd43c","system_id":"levelo_inurba_marseille","lat":43.25934,"lon":5.40907,"is_reserved":false,"is_disabled":false,"rental_uris":{"android":"levelo://app?vid=7e1d1a54-d3c4-46d1-b727-7952f94fd43c","ios":"levelo://app?vid=7e1d1a54-d3c4-46d1-b727-7952f94fd43c"},"vehicle_type_id":"4","last_reported":1745403128,"current_range_meters":24400,"station_id":"ce4bhm92rcd13ifvqglg","pricing_plan_id":"cebpf4jnsgd1na2vs0mg"},{"bike_id":"d97d9e4b-cff0-4930-b3cd-ce5c039f800f","system_id":"levelo_inurba_marseille","lat":43.29054,"lon":5.3715,"is_reserved":false,"is_disabled":false,"rental_uris":{"android":"levelo://app?vid=d97d9e4b-cff0-4930-b3cd-ce5c039f800f","ios":"levelo://app?vid=d97d9e4b-cff0-4930-b3cd-ce5c039f800f"},"vehicle_type_id":"4","last_reported":1745403128,"current_range_meters":24000,"station_id":"ce4bh5p2rcd13ifvqe4g","pricing_plan_id":"cebpf4jnsgd1na2vs0mg"},{"bike_id":"f4930378-f29b-40d7-aa0e-a7c709b3fd07","system_id":"levelo_inurba_marseille","lat":43.30576,"lon":5.36654,"is_reserved":false,"is_disabled":false,"rental_uris":{"android":"levelo://app?vid=f4930378-f29b-40d7-aa0e-a7c709b3fd07","ios":"levelo://app?vid=f4930378-f29b-40d7-aa0e-a7c709b3fd07"},"vehicle_type_id":"4","last_reported":1745403128,"current_range_meters":24800,"station_id":"ce4bgrp2rcd13ifvqc9g","pricing_plan_id":"cebpf4jnsgd1na2vs0mg"},{"bike_id":"4c249e06-6b94-409a-8aae-8fd0f7473ddc","system_id":"levelo_inurba_marseille","lat":43.276728,"lon":5.388894,"is_reserved":false,"is_disabled":false,"rental_uris":{"android":"levelo://app?vid=4c249e06-6b94-409a-8aae-8fd0f7473ddc","ios":"levelo://app?vid=4c249e06-6b94-409a-8aae-8fd0f7473ddc"},"vehicle_type_id":"4","last_reported":1745403128,"current_range_meters":24800,"station_id":"ce4bhnp2rcd13ifvqgvg","pricing_plan_id":"cebpf4jnsgd1na2vs0mg"},{"bike_id":"b6ca71d5-c9bb-4cd6-be15-0b43b83a485a","system_id":"levelo_inurba_marseille","lat":43.31711,"lon":5.4371,"is_reserved":false,"is_disabled":false,"rental_uris":{"android":"levelo://app?vid=b6ca71d5-c9bb-4cd6-be15-0b43b83a485a","ios":"levelo://app?vid=b6ca71d5-c9bb-4cd6-be15-0b43b83a485a"},"vehicle_type_id":"4","last_reported":1745403128,"current_range_meters":24800,"station_id":"ce4bhp92rcd13ifvqhcg","pricing_plan_id":"cebpf4jnsgd1na2vs0mg"},{"bike_id":"c2fdb92f-cd5e-450d-8726-656d2a1d7bd9","system_id":"levelo_inurba_marseille","lat":43.313298,"lon":5.396925,"is_reserved":false,"is_disabled":false,"rental_uris":{"android":"levelo://app?vid=c2fdb92f-cd5e-450d-8726-656d2a1d7bd9","ios":"levelo://app?vid=c2fdb92f-cd5e-450d-8726-656d2a1d7bd9"},"vehicle_type_id":"4","last_reported":1745403128,"current_range_meters":24800,"station_id":"ce4bgvp2rcd13ifvqcu0","pricing_plan_id":"cebpf4jnsgd1na2vs0mg"},{"bike_id":"59128327-e0c3-4402-9161-9520c4b67a48","system_id":"levelo_inurba_marseille","lat":43.30182,"lon":5.36611,"is_reserved":false,"is_disabled":false,"rental_uris":{"android":"levelo://app?vid=59128327-e0c3-4402-9161-9520c4b67a48","ios":"levelo://app?vid=59128327-e0c3-4402-9161-9520c4b67a48"},"vehicle_type_id":"4","last_reported":1745403128,"current_range_meters":24800,"station_id":"ce4bgrh2rcd13ifvqc8g","pricing_plan_id":"cebpf4jnsgd1na2vs0mg"},{"bike_id":"2ee5afbf-5020-4f9d-851e-d847472cbaf7","system_id":"levelo_inurba_marseille","lat":43.32481,"lon":5.36562,"is_reserved":false,"is_disabled":false,"rental_uris":{"android":"levelo://app?vid=2ee5afbf-5020-4f9d-851e-d847472cbaf7","ios":"levelo://app?vid=2ee5afbf-5020-4f9d-851e-d847472cbaf7"},"vehicle_type_id":"4","last_reported":1745403128,"current_range_meters":24800,"station_id":"ce4bhs12rcd13ifvqhvg","pricing_plan_id":"cebpf4jnsgd1na2vs0mg"},{"bike_id":"400ed758-b0d4-4aae-add0-f4e28ee14914","system_id":"levelo_inurba_marseille","lat":43.30929,"lon":5.36836,"is_reserved":false,"is_disabled":false,"rental_uris":{"android":"levelo://app?vid=400ed758-b0d4-4aae-add0-f4e28ee14914","ios":"levelo://app?vid=400ed758-b0d4-4aae-add0-f4e28ee14914"},"vehicle_type_id":"4","last_reported":1745403128,"current_range_meters":24800,"station_id":"ce4bgn92rcd13ifvqbvg","pricing_plan_id":"cebpf4jnsgd1na2vs0mg"},{"bike_id":"f9e03743-d133-4ab7-a384-4df5473e2e58","system_id":"levelo_inurba_marseille","lat":43.29585,"lon":5.36731,"is_reserved":false,"is_disabled":false,"rental_uris":{"android":"levelo://app?vid=f9e03743-d133-4ab7-a384-4df5473e2e58","ios":"levelo://app?vid=f9e03743-d133-4ab7-a384-4df5473e2e58"},"vehicle_type_id":"4","last_reported":1745403128,"current_range_meters":25200,"station_id":"ce4bgph2rcd13ifvqc2g","pricing_plan_id":"cebpf4jnsgd1na2vs0mg"},{"bike_id":"76ac17f7-9973-4efc-99e8-02dcaa559f64","system_id":"levelo_inurba_marseille","lat":43.2897,"lon":5.37832,"is_reserved":false,"is_disabled":false,"rental_uris":{"android":"levelo://app?vid=76ac17f7-9973-4efc-99e8-02dcaa559f64","ios":"levelo://app?vid=76ac17f7-9973-4efc-99e8-02dcaa559f64"},"vehicle_type_id":"4","last_reported":1745403128,"current_range_meters":24800,"station_id":"ce4bh9p2rcd13ifvqed0","pricing_plan_id":"cebpf4jnsgd1na2vs0mg"},