{"last_updated":1702839891,"ttl":30,"version":"2.2","data":{"bikes":[{"bike_id":"c5803ac3-2171-4f06-9e14-de110a4e18ca","system_id":"levelo_inurba_marseille","lat":43.313391,"lon":5.36706,"is_reserved":false,"is_disabled":false,"rental_uris":{"android":"levelo://app?vid=c5803ac3-2171-4f06-9e14-de110a4e18ca","ios":"levelo://app?vid=c5803ac3-2171-4f06-9e14-de110a4e18ca"},"vehicle_type_id":"4","last_reported":1702839891,"current_range_meters":13200,"station_id":"ce4bgr92rcd13ifvqc6g","pricing_plan_id":"free"},{"bike_id":"e6289ad0-b501-47db-a815-8bfd14e5129d","system_id":"levelo_inurba_marseille","lat":43.313391,"lon":5.36706,"is_reserved":false,"is_disabled":false,"rental_uris":{"android":"levelo://app?vid=e6289ad0-b501-47db-a815-8bfd14e5129d","ios":"levelo://app?vid=e6289ad0-b501-47db-a815-8bfd14e5129d"},"vehicle_type_id":"4","last_reported":1702839891,"current_range_meters":30800,"station_id":"ce4bgr92rcd13ifvqc6g","pricing_plan_id":"free"},{"bike_id":"49b985fb-0947-46b5-9dcb-58edb32b29d8","system_id":"levelo_inurba_marseille","lat":43.313391,"lon":5.36706,"is_reserved":false,"is_disabled":false,"rental_uris":{"android":"levelo://app?vid=49b985fb-0947-46b5-9dcb-58edb32b29d8","ios":"levelo://app?vid=49b985fb-0947-46b5-9dcb-58edb32b29d8"},"vehicle_type_id":"4","last_reported":1702839891,"current_range_meters":10400,"station_id":"ce4bgr92rcd13ifvqc6g","pricing_plan_id":"free"},{"bike_id":"e43df7c1-4f1e-456b-ac86-b1c60962b98c","system_id":"levelo_inurba_marseille","lat":43.314811,"lon":5.373104,"is_reserved":false,"is_disabled":false,"rental_uris":{"android":"levelo://app?vid=e43df7c1-4f1e-456b-ac86-b1c60962b98c","ios":"levelo://app?vid=e43df7c1-4f1e-456b-ac86-b1c60962b98c"},"vehicle_type_id":"4","last_reported":1702839891,"current_range_meters":8400,"station_id":"ce4bgt12rcd13ifvqcd0","pricing_plan_id":"free"},{"bike_id":"30f0e139-9801-4d30-9d5b-697014677b3d","system_id":"levelo_inurba_marseille","lat":43.309039,"lon":5.371797,"is_reserved":false,"is_disabled":false,"rental_uris":{"android":"levelo://app?vid=30f0e139-9801-4d30-9d5b-697014677b3d","ios":"levelo://app?vid=30f0e139-9801-4d30-9d5b-697014677b3d"},"vehicle_type_id":"4","last_reported":1702839891,"current_range_meters":25600,"station_id":"ce4bguh2rcd13ifvqckg","pricing_plan_id":"free"},{"bike_id":"955e4ab2-16e5-44e8-a986-a2f50ff96c06","system_id":"levelo_inurba_marseille","lat":43.305382,"lon":5.365389,"is_reserved":false,"is_disabled":false,"rental_uris":{"android":"levelo://app?vid=955e4ab2-16e5-44e8-a986-a2f50ff96c06","ios":"levelo://app?vid=955e4ab2-16e5-44e8-a986-a2f50ff96c06"},"vehicle_type_id":"4","last_reported":1702839891,"current_range_meters":10800,"station_id":"","pricing_plan_id":"free"},{"bike_id":"d4435e5f-a082-4785-9ee0-0cf46bb63911","system_id":"levelo_inurba_marseille","lat":43.305989,"lon":5.37225,"is_reserved":false,"is_disabled":false,"rental_uris":{"android":"levelo://app?vid=d4435e5f-a082-4785-9ee0-0cf46bb63911","ios":"levelo://app?vid=d4435e5f-a082-4785-9ee0-0cf46bb63911"},"vehicle_type_id":"4","last_reported":1702839891,"current_range_meters":16000,"station_id":"ce4bgqh2rcd13ifvqc4g","pricing_plan_id":"free"},{"bike_id":"66f3f77d-ea9d-4831-abe4-3405e3551bbd","system_id":"levelo_inurba_marseille","lat":43.311125,"lon":5.377624,"is_reserved":false,"is_disabled":false,"rental_uris":{"android":"levelo://app?vid=66f3f77d-ea9d-4831-abe4-3405e3551bbd","ios":"levelo://app?vid=66f3f77d-ea9d-4831-abe4-3405e3551bbd"},"vehicle_type_id":"4","last_reported":1702839891,"current_range_meters":6800,"station_id":"ce4bgt92rcd13ifvqcg0","pricing_plan_id":"free"},{"bike_id":"e9ba45b5-8fae-4a08-87b6-e10637948fac","system_id":"levelo_inurba_marseille","lat":43.311125,"lon":5.377624,"is_reserved":false,"is_disabled":false,"rental_uris":{"android":"levelo://app?vid=e9ba45b5-8fae-4a08-87b6-e10637948fac","ios":"levelo://app?vid=e9ba45b5-8fae-4a08-87b6-e10637948fac"},"vehicle_type_id":"4","last_reported":1702839891,"current_range_meters":10400,"station_id":"ce4bgt92rcd13ifvqcg0","pricing_plan_id":"free"},{"bike_id":"1073fb61-f133-4e31-9df2-1a8b563ba3d5","system_id":"levelo_inurba_marseille","lat":43.311125,"lon":5.377624,"is_reserved":false,"is_disabled":false,"rental_uris":{"android":"levelo://app?vid=1073fb61-f133-4e31-9df2-1a8b563ba3d5","ios":"levelo://app?vid=1073fb61-f133-4e31-9df2-1a8b563ba3d5"},"vehicle_type_id":"4","last_reported":1702839891,"current_range_meters":21600,"station_id":"ce4bgt92rcd13ifvqcg0","pricing_plan_id":"free"},{"bike_id":"16a1bbed-ad75-408a-a803-c02fcc99ba08","system_id":"levelo_inurba_marseille","lat":43.307945,"lon":5.376487,"is_reserved":false,"is_disabled":false,"rental_uris":{"android":"levelo://app?vid=16a1bbed-ad75-408a-a803-c02fcc99ba08","ios":"levelo://app?vid=16a1bbed-ad75-408a-a803-c02fcc99ba08"},"vehicle_type_id":"4","last_reported":1702839891,"current_range_meters":29600,"station_id":"ce4bgv92rcd13ifvqcq0","pricing_plan_id":"free"},{"bike_id":"e965d98e-5725-40c8-9334-792ca22b51ec","system_id":"levelo_inurba_marseille","lat":43.317075,"lon":5.377367,"is_reserved":false,"is_disabled":false,"rental_uris":{"android":"levelo://app?vid=e965d98e-5725-40c8-9334-792ca22b51ec","ios":"levelo://app?vid=e965d98e-5725-40c8-9334-792ca22b51ec"},"vehicle_type_id":"4","last_reported":1702839891,"current_range_meters":28400,"station_id":"ce4bgth2rcd13ifvqch0","pricing_plan_id":"free"},{"bike_id":"170d11bb-6d2b-466a-a704-afdbf9d3f032","system_id":"levelo_inurba_marseille","lat":43.317075,"lon":5.377367,"is_reserved":false,"is_disabled":false,"rental_uris":{"android":"levelo://app?vid=170d11bb-6d2b-466a-a704-afdbf9d3f032","ios":"levelo://app?vid=170d11bb-6d2b-466a-a704-afdbf9d3f032"},"vehicle_type_id":"4","last_reported":1702839891,"current_range_meters":10400,"station_id":"ce4bgth2rcd13ifvqch0","pricing_plan_id":"free"},{"bike_id":"7e3c2e23-933b-4ea6-bb2c-8e5b36e39b1d","system_id":"levelo_inurba_marseille","lat":43.308012,"lon":5.381511,"is_reserved":false,"is_disabled":false,"rental_uris":{"android":"levelo://app?vid=7e3c2e23-933b-4ea6-bb2c-8e5b36e39b1d","ios":"levelo://app?vid=7e3c2e23-933b-4ea6-bb2c-8e5b36e39b1d"},"vehicle_type_id":"4","last_reported":1702839891,"current_range_meters":16400,"station_id":"ce4bgt12rcd13ifvqce0","pricing_plan_id":"free"},{"bike_id":"9f45c6c0-0aa9-4a3f-8e93-309bbb0f5835","system_id":"levelo_inurba_marseille","lat":43.304606,"lon":5.379026,"is_reserved":false,"is_disabled":false,"rental_uris":{"android":"levelo://app?vid=9f45c6c0-0aa9-4a3f-8e93-309bbb0f5835","ios":"levelo://app?vid=9f45c6c0-0aa9-4a3f-8e93-309bbb0f5835"},"vehicle_type_id":"4","last_reported":1702839891,"current_range_meters":5200,"station_id":"ce4bgup2rcd13ifvqcn0","pricing_plan_id":"free"},{"bike_id":"1fd6c623-ff3f-4509-a7f5-eb89969b055d","system_id":"levelo_inurba_marseille","lat":43.30143,"lon":5.37413,"is_reserved":false,"is_disabled":false,"rental_uris":{"android":"levelo://app?vid=1fd6c623-ff3f-4509-a7f5-eb89969b055d","ios":"levelo://app?vid=1fd6c623-ff3f-4509-a7f5-eb89969b055d"},"vehicle_type_id":"4","last_reported":1702839891,"current_range_meters":26400,"station_id":"ce4bgs92rcd13ifvqcc0","pricing_plan_id":"free"},{"bike_id":"0af92e7d-9899-4d39-b103-b99db5c12ebd","system_id":"levelo_inurba_marseille","lat":43.301429,"lon":5.37413,"is_reserved":false,"is_disabled":false,"rental_uris":{"android":"levelo://app?vid=0af92e7d-9899-4d39-b103-b99db5c12ebd","ios":"levelo://app?vid=0af92e7d-9899-4d39-b103-b99db5c12ebd"},"vehicle_type_id":"4","last_reported":1702839891,"current_range_meters":30400,"station_id":"ce4bgs92rcd13ifvqcc0","pricing_plan_id":"free"},{"bike_id":"b7a05b36-f443-4896-84c8-915437a35d8b","system_id":"levelo_inurba_marseille","lat":43.31988,"lon":5.38148,"is_reserved":false,"is_disabled":false,"rental_uris":{"android":"levelo://app?vid=b7a05b36-f443-4896-84c8-915437a35d8b","ios":"levelo://app?vid=b7a05b36-f443-4896-84c8-915437a35d8b"},"vehicle_type_id":"4","last_reported":1702839891,"current_range_meters":28800,"station_id":"ce4bhr12rcd13ifvqhpg","pricing_plan_id":"free"},{"bike_id":"9f084666-d9c8-4104-8112-29f1dad66c8e","system_id":"levelo_inurba_marseille","lat":43.31995,"lon":5.38149,"is_reserved":false,"is_disabled":false,"rental_uris":{"android":"levelo://app?vid=9f084666-d9c8-4104-8112-29f1dad66c8e","ios":"levelo://app?vid=9f084666-d9c8-4104-8112-29f1dad66c8e"},"vehicle_type_id":"4","last_reported":1702839891,"current_range_meters":0,"station_id":"ce4bhr12rcd13ifvqhpg","pricing_plan_id":"free"},{"bike_id":"2d3343bd-f5b5-4872-aeeb-741ab83dbdf3","system_id":"levelo_inurba_marseille","lat":43.313571,"lon":5.384829,"is_reserved":false,"is_disabled":false,"rental_uris":{"android":"levelo://app?vid=2d3343bd-f5b5-4872-aeeb-741ab83dbdf3","ios":"levelo://app?vid=2d3343bd-f5b5-4872-aeeb-741ab83dbdf3"},"vehicle_type_id":"4","last_reported":1702839891,"current_range_meters":2800,"station_id":"ce4bgt92rcd13ifvqcf0","pricing_plan_id":"free"},{"bike_id":"a2d1fa68-9df8-4aa5-a2fa-0a95f6b28217","system_id":"levelo_inurba_marseille","lat":43.313571,"lon":5.384829,"is_reserved":false,"is_disabled":false,"rental_uris":{"android":"levelo://app?vid=a2d1fa68-9df8-4aa5-a2fa-0a95f6b28217","ios":"levelo://app?vid=a2d1fa68-9df8-4aa5-a2fa-0a95f6b28217"},"vehicle_type_id":"4","last_reported":1702839891,"current_range_meters":24400,"station_id":"ce4bgt92rcd13ifvqcf0","pricing_plan_id":"free"},{"bike_id":"52cba0ac-2e5e-4f9f-8e69-338538225404","system_id":"levelo_inurba_marseille","lat":43.31363,"lon":5.384896,"is_reserved":false,"is_disabled":false,"rental_uris":{"android":"levelo://app?vid=52cba0ac-2e5e-4f9f-8e69-338538225404","ios":"levelo://app?vid=52cba0ac-2e5e-4f9f-8e69-338538225404"},"vehicle_type_id":"4","last_reported":1702839891,"current_range_meters":14000,"station_id":"ce4bgt92rcd13ifvqcf0","pricing_plan_id":"free"},{"bike_id":"078e48d2-aab9-4521-9e44-671b66509960","system_id":"levelo_inurba_marseille","lat":43.313571,"lon":5.384829,"is_reserved":false,"is_disabled":false,"rental_uris":{"android":"levelo://app?vid=078e48d2-aab9-4521-9e44-671b66509960","ios":"levelo://app?vid=078e48d2-aab9-4521-9e44-671b66509960"},"vehicle_type_id":"4","last_reported":1702839891,"current_range_meters":11600,"station_id":"ce4bgt92rcd13ifvqcf0","pricing_plan_id":"free"},{"bike_id":"dd704785-cf89-4e45-8db5-bc9f9a7c396f","system_id":"levelo_inurba_marseille","lat":43.313571,"lon":5.384829,"is_reserved":false,"is_disabled":false,"rental_uris":{"android":"levelo://app?vid=dd704785-cf89-4e45-8db5-bc9f9a7c396f","ios":"levelo://app?vid=dd704785-cf89-4e45-8db5-bc9f9a7c396f"},"vehicle_type_id":"4","last_reported":1702839891,"current_range_meters":19200,"station_id":"ce4bgt92rcd13ifvqcf0","pricing_plan_id":"free"},{"bike_id":"46e6d4cc-904e-476a-bf87-53d33fbe5143","system_id":"levelo_inurba_marseille","lat":43.299724,"lon":5.371829,"is_reserved":false,"is_disabled":false,"rental_uris":{"android":"levelo://app?vid=46e6d4cc-904e-476a-bf87-53d33fbe5143","ios":"levelo://app?vid=46e6d4cc-904e-476a-bf87-53d33fbe5143"},"vehicle_type_id":"4","last_reported":1702839891,"current_range_meters":30800,"station_id":"ce4bgr92rcd13ifvqc7g","pricing_plan_id":"free"},{"bike_id":"555f8cef-2953-4826-8329-d6525e5266f3","system_id":"levelo_inurba_marseille","lat":43.299724,"lon":5.371829,"is_reserved":false,"is_disabled":false,"rental_uris":{"android":"levelo://app?vid=555f8cef-2953-4826-8329-d6525e5266f3","ios":"levelo://app?vid=555f8cef-2953-4826-8329-d6525e5266f3"},"vehicle_type_id":"4","last_reported":1702839891,"current_range_meters":21200,"station_id":"ce4bgr92rcd13ifvqc7g","pricing_plan_id":"free"},{"bike_id":"a642bfbe-ecc2-46e6-8d97-19b10a2b4771","system_id":"levelo_inurba_marseille","lat":43.299831,"lon":5.371863,"is_reserved":false,"is_disabled":false,"rental_uris":{"android":"levelo://app?vid=a642bfbe-ecc2-46e6-8d97-19b10a2b4771","ios":"levelo://app?vid=a642bfbe-ecc2-46e6-8d97-19b10a2b4771"},"vehicle_type_id":"4","last_reported":1702839891,"current_range_meters":22800,"station_id":"","pricing_plan_id":"free"},{"bike_id":"ea440cbe-68e4-4af1-a58d-7e8659e259aa","system_id":"levelo_inurba_marseille","lat":43.299724,"lon":5.371829,"is_reserved":false,"is_disabled":false,"rental_uris":{"android":"levelo://app?vid=ea440cbe-68e4-4af1-a58d-7e8659e259aa","ios":"levelo://app?vid=ea440cbe-68e4-4af1-a58d-7e8659e259aa"},"vehicle_type_id":"4","last_reported":1702839891,"current_range_meters":28800,"station_id":"ce4bgr92rcd13ifvqc7g","pricing_plan_id":"free"},{"bike_id":"e33ef115-1aeb-465d-a64d-35c01e20f8b6","system_id":"levelo_inurba_marseille","lat":43.305364,"lon":5.384119,"is_reserved":false,"is_disabled":false,"rental_uris":{"android":"levelo://app?vid=e33ef115-1aeb-465d-a64d-35c01e20f8b6","ios":"levelo://app?vid=e33ef115-1aeb-465d-a64d-35c01e20f8b6"},"vehicle_type_id":"4","last_reported":1702839891,"current_range_meters":0,"station_id":"ce4bgg92rcd13ifvqb30","pricing_plan_id":"free"},{"bike_id":"c4e77394-aef9-4077-b745-e99148625344","system_id":"levelo_inurba_marseille","lat":43.32733,"lon":5.36707,"is_reserved":false,"is_disabled":false,"rental_uris":{"android":"levelo://app?vid=c4e77394-aef9-4077-b745-e99148625344","ios":"levelo://app?vid=c4e77394-aef9-4077-b745-e99148625344"},"vehicle_type_id":"4","last_reported":1702839891,"current_range_meters":18000,"station_id":"","pricing_plan_id":"free"},{"bike_id":"819cb438-2e9c-4e0b-902b-5e19ef554d5c","system_id":"levelo_inurba_marseille","lat":43.305542,"lon":5.384376,"is_reserved":false,"is_disabled":false,"rental_uris":{"android":"levelo://app?vid=819cb438-2e9c-4e0b-902b-5e19ef554d5c","ios":"levelo://app?vid=819cb438-2e9c-4e0b-902b-5e19ef554d5c"},"vehicle_type_id":"4","last_reported":1702839891,"current_range_meters":10400,"station_id":"ce4bgg92rcd13ifvqb30","pricing_plan_id":"free"},{"bike_id":"37ed653e-8b58-47f4-8a95-783ba8267b70","system_id":"levelo_inurba_marseille","lat":43.305364,"lon":5.384119,"is_reserved":false,"is_disabled":false,"rental_uris":{"android":"levelo://app?vid=37ed653e-8b58-47f4-8a95-783ba8267b70","ios":"levelo://app?vid=37ed653e-8b58-47f4-8a95-783ba8267b70"},"vehicle_type_id":"4","last_reported":1702839891,"current_range_meters":0,"station_id":"ce4bgg92rcd13ifvqb30","pricing_plan_id":"free"},{"bike_id":"5af89b76-5b0a-4d78-89e3-e8a4f5f5e170","system_id":"levelo_inurba_marseille","lat":43.298433,"lon":5.362774,"is_reserved":false,"is_disabled":false,"rental_uris":{"android":"levelo://app?vid=5af89b76-5b0a-4d78-89e3-e8a4f5f5e170","ios":"levelo://app?vid=5af89b76-5b0a-4d78-89e3-e8a4f5f5e170"},"vehicle_type_id":"4","last_reported":1702839891,"current_range_meters":6400,"station_id":"ce4bgpp2rcd13ifvqc3g","pricing_plan_id":"free"},{"bike_id":"404cf1a7-04dd-4cda-9f39-a48e8aef5ebc","system_id":"levelo_inurba_marseille","lat":43.311722,"lon":5.387247,"is_reserved":false,"is_disabled":false,"rental_uris":{"android":"levelo://app?vid=404cf1a7-04dd-4cda-9f39-a48e8aef5ebc","ios":"levelo://app?vid=404cf1a7-04dd-4cda-9f39-a48e8aef5ebc"},"vehicle_type_id":"4","last_reported":1702839891,"current_range_meters":26400,"station_id":"ce4bgv12rcd13ifvqcp0","pricing_plan_id":"free"},{"bike_id":"410cf47e-4960-491c-995d-36dc49f9a140","system_id":"levelo_inurba_marseille","lat":43.31169,"lon":5.38727,"is_reserved":false,"is_disabled":false,"rental_uris":{"android":"levelo://app?vid=410cf47e-4960-491c-995d-36dc49f9a140","ios":"levelo://app?vid=410cf47e-4960-491c-995d-36dc49f9a140"},"vehicle_type_id":"4","last_reported":1702839891,"current_range_meters":9600,"station_id":"ce4bgv12rcd13ifvqcp0","pricing_plan_id":"free"},{"bike_id":"3737aebe-1cce-415b-8132-94746ed5f00f","system_id":"levelo_inurba_marseille","lat":43.32297,"lon":5.38268,"is_reserved":false,"is_disabled":false,"rental_uris":{"android":"levelo://app?vid=3737aebe-1cce-415b-8132-94746ed5f00f","ios":"levelo://app?vid=3737aebe-1cce-415b-8132-94746ed5f00f"},"vehicle_type_id":"4","last_reported":1702839891,"current_range_meters":2400,"station_id":"ce4bhr12rcd13ifvqhqg","pricing_plan_id":"free"},{"bike_id":"28ff091e-889a-4c5b-a63e-adca6541230f","system_id":"levelo_inurba_marseille","lat":43.2968,"lon":5.37291,"is_reserved":false,"is_disabled":false,"rental_uris":{"android":"levelo://app?vid=28ff091e-889a-4c5b-a63e-adca6541230f","ios":"levelo://app?vid=28ff091e-889a-4c5b-a63e-adca6541230f"},"vehicle_type_id":"4","last_reported":1702839891,"current_range_meters":21600,"station_id":"ce4bgk12rcd13ifvqbj0","pricing_plan_id":"free"},{"bike_id":"e4c4e820-b000-40ab-8b03-75db48e932cf","system_id":"levelo_inurba_marseille","lat":43.317557,"lon":5.390173,"is_reserved":false,"is_disabled":false,"rental_uris":{"android":"levelo://app?vid=e4c4e820-b000-40ab-8b03-75db48e932cf","ios":"levelo://app?vid=e4c4e820-b000-40ab-8b03-75db48e932cf"},"vehicle_type_id":"4","last_reported":1702839891,"current_range_meters":11600,"station_id":"ce4bhqp2rcd13ifvqhng","pricing_plan_id":"free"},{"bike_id":"650147b0-5419-411d-a52c-464e1d09662d","system_id":"levelo_inurba_marseille","lat":43.297984,"lon":5.380972,"is_reserved":false,"is_disabled":false,"rental_uris":{"android":"levelo://app?vid=650147b0-5419-411d-a52c-464e1d09662d","ios":"levelo://app?vid=650147b0-5419-411d-a52c-464e1d09662d"},"vehicle_type_id":"4","last_reported":1702839891,"current_range_meters":800,"station_id":"ce4bgip2rcd13ifvqbb0","pricing_plan_id":"free"},{"bike_id":"60d7c910-3729-4ff7-b163-7c259ff3f3c7","system_id":"levelo_inurba_marseille","lat":43.29795,"lon":5.38106,"is_reserved":false,"is_disabled":false,"rental_uris":{"android":"levelo://app?vid=60d7c910-3729-4ff7-b163-7c259ff3f3c7","ios":"levelo://app?vid=60d7c910-3729-4ff7-b163-7c259ff3f3c7"},"vehicle_type_id":"4","last_reported":1702839891,"current_range_meters":23600,"station_id":"ce4bgip2rcd13ifvqbb0","pricing_plan_id":"free"},{"bike_id":"fdbe364b-3ba7-40b3-a0dd-eae1bb405ffb","system_id":"levelo_inurba_marseille","lat":43.304278,"lon":5.388868,"is_reserved":false,"is_disabled":false,"rental_uris":{"android":"levelo://app?vid=fdbe364b-3ba7-40b3-a0dd-eae1bb405ffb","ios":"levelo://app?vid=fdbe364b-3ba7-40b3-a0dd-eae1bb405ffb"},"vehicle_type_id":"4","last_reported":1702839891,"current_range_meters":26400,"station_id":"ce4bgk12rcd13ifvqbi0","pricing_plan_id":"free"},{"bike_id":"37186a21-99a1-4c81-91f2-4920df2c6d7d","system_id":"levelo_inurba_marseille","lat":43.304278,"lon":5.388868,"is_reserved":false,"is_disabled":false,"rental_uris":{"android":"levelo://app?vid=37186a21-99a1-4c81-91f2-4920df2c6d7d","ios":"levelo://app?vid=37186a21-99a1-4c81-91f2-4920df2c6d7d"},"vehicle_type_id":"4","last_reported":1702839891,"current_range_meters":19600,"station_id":"ce4bgk12rcd13ifvqbi0","pricing_plan_id":"free"},{"bike_id":"6fb87cac-29b7-4539-98f3-9411e2507cc8","system_id":"levelo_inurba_marseille","lat":43.304274,"lon":5.388873,"is_reserved":false,"is_disabled":false,"rental_uris":{"android":"levelo://app?vid=6fb87cac-29b7-4539-98f3-9411e2507cc8","ios":"levelo://app?vid=6fb87cac-29b7-4539-98f3-9411e2507cc8"},"vehicle_type_id":"4","last_reported":1702839891,"current_range_meters":10800,"station_id":"ce4bgk12rcd13ifvqbi0","pricing_plan_id":"free"},{"bike_id":"378ac545-7c24-4426-833c-550f79cee2ea","system_id":"levelo_inurba_marseille","lat":43.296263,"lon":5.377094,"is_reserved":false,"is_disabled":false,"rental_uris":{"android":"levelo://app?vid=378ac545-7c24-4426-833c-550f79cee2ea","ios":"levelo://app?vid=378ac545-7c24-4426-833c-550f79cee2ea"},"vehicle_type_id":"4","last_reported":1702839891,"current_range_meters":0,"station_id":"ce4bgi92rcd13ifvqb90","pricing_plan_id":"free"},{"bike_id":"55e87139-04fa-4a79-9e88-3778538b2f86","system_id":"levelo_inurba_marseille","lat":43.29516,"lon":5.37495,"is_reserved":false,"is_disabled":false,"rental_uris":{"android":"levelo://app?vid=55e87139-04fa-4a79-9e88-3778538b2f86","ios":"levelo://app?vid=55e87139-04fa-4a79-9e88-3778538b2f86"},"vehicle_type_id":"4","last_reported":1702839891,"current_range_meters":23600,"station_id":"ce4bgkp2rcd13ifvqbmg","pricing_plan_id":"free"},{"bike_id":"da2bf830-8371-4987-8296-d78e324a9b5b","system_id":"levelo_inurba_marseille","lat":43.296415,"lon":5.37969,"is_reserved":false,"is_disabled":false,"rental_uris":{"android":"levelo://app?vid=da2bf830-8371-4987-8296-d78e324a9b5b","ios":"levelo://app?vid=da2bf830-8371-4987-8296-d78e324a9b5b"},"vehicle_type_id":"4","last_reported":1702839891,"current_range_meters":0,"station_id":"","pricing_plan_id":"free"},{"bike_id":"d9aa4877-5083-41c2-8a54-ec3707b7f7c8","system_id":"levelo_inurba_marseille","lat":43.301177,"lon":5.387989,"is_reserved":false,"is_disabled":false,"rental_uris":{"android":"levelo://app?vid=d9aa4877-5083-41c2-8a54-ec3707b7f7c8","ios":"levelo://app?vid=d9aa4877-5083-41c2-8a54-ec3707b7f7c8"},"vehicle_type_id":"4","last_reported":1702839891,"current_range_meters":0,"station_id":"","pricing_plan_id":"free"},{"bike_id":"719dd386-c8e4-4ab9-a7ca-1fcf34b3e07b","system_id":"levelo_inurba_marseille","lat":43.29601,"lon":5.381084,"is_reserved":false,"is_disabled":false,"rental_uris":{"android":"levelo://app?vid=719dd386-c8e4-4ab9-a7ca-1fcf34b3e07b","ios":"levelo://app?vid=719dd386-c8e4-4ab9-a7ca-1fcf34b3e07b"},"vehicle_type_id":"4","last_reported":1702839891,"current_range_meters":3200,"station_id":"ce4bgl12rcd13ifvqbo0","pricing_plan_id":"free"},{"bike_id":"20efacc3-cb5a-4467-b87a-b6cd7f6305c7","system_id":"levelo_inurba_marseille","lat":43.293259,"lon":5.371586,"is_reserved":false,"is_disabled":false,"rental_uris":{"android":"levelo://app?vid=20efacc3-cb5a-4467-b87a-b6cd7f6305c7","ios":"levelo://app?vid=20efacc3-cb5a-4467-b87a-b6cd7f6305c7"},"vehicle_type_id":"4","last_reported":1702839891,"current_range_meters":1200,"station_id":"ce4bgh92rcd13ifvqb40","pricing_plan_id":"free"},{"bike_id":"e1431053-b0fb-4edd-9c5b-2d5b9125befd","system_id":"levelo_inurba_marseille","lat":43.29301,"lon":5.371615,"is_reserved":false,"is_disabled":false,"rental_uris":{"android":"levelo://app?vid=e1431053-b0fb-4edd-9c5b-2d5b9125befd","ios":"levelo://app?vid=e1431053-b0fb-4edd-9c5b-2d5b9125befd"},"vehicle_type_id":"4","last_reported":1702839891,"current_range_meters":14000,"station_id":"ce4bgh92rcd13ifvqb40","pricing_plan_id":"free"},{"bike_id":"b716980a-eea2-4017-b1e7-8995681be786","system_id":"levelo_inurba_marseille","lat":43.29273,"lon":5.36845,"is_reserved":false,"is_disabled":false,"rental_uris":{"android":"levelo://app?vid=b716980a-eea2-4017-b1e7-8995681be786","ios":"levelo://app?vid=b716980a-eea2-4017-b1e7-8995681be786"},"vehicle_type_id":"4","last_reported":1702839891,"current_range_meters":13600,"station_id":"ce4bhbp2rcd13ifvqesg","pricing_plan_id":"free"},{"bike_id":"b4c52cbe-5e37-4152-96b1-932464c3eb6a","system_id":"levelo_inurba_marseille","lat":43.29273,"lon":5.3685,"is_reserved":false,"is_disabled":false,"rental_uris":{"android":"levelo://app?vid=b4c52cbe-5e37-4152-96b1-932464c3eb6a","ios":"levelo://app?vid=b4c52cbe-5e37-4152-96b1-932464c3eb6a"},"vehicle_type_id":"4","last_reported":1702839891,"current_range_meters":5200,"station_id":"ce4bhbp2rcd13ifvqesg","pricing_plan_id":"free"},{"bike_id":"f76ce8d4-327c-4ddd-bcd9-df02ba725758","system_id":"levelo_inurba_marseille","lat":43.293009,"lon":5.374584,"is_reserved":false,"is_disabled":false,"rental_uris":{"android":"levelo://app?vid=f76ce8d4-327c-4ddd-bcd9-df02ba725758","ios":"levelo://app?vid=f76ce8d4-327c-4ddd-bcd9-df02ba725758"},"vehicle_type_id":"4","last_reported":1702839891,"current_range_meters":8800,"station_id":"ce4bgi12rcd13ifvqb70","pricing_plan_id":"free"},{"bike_id":"fca22749-496c-4938-b580-3a6f2b3835ce","system_id":"levelo_inurba_marseille","lat":43.303002,"lon":5.392142,"is_reserved":false,"is_disabled":false,"rental_uris":{"android":"levelo://app?vid=fca22749-496c-4938-b580-3a6f2b3835ce","ios":"levelo://app?vid=fca22749-496c-4938-b580-3a6f2b3835ce"},"vehicle_type_id":"4","last_reported":1702839891,"current_range_meters":27600,"station_id":"ce4bgkh2rcd13ifvqbk0","pricing_plan_id":"free"},{"bike_id":"53dd01d9-dfba-45d5-8aa1-246978042040","system_id":"levelo_inurba_marseille","lat":43.29375,"lon":5.3784,"is_reserved":false,"is_disabled":false,"rental_uris":{"android":"levelo://app?vid=53dd01d9-dfba-45d5-8aa1-246978042040","ios":"levelo://app?vid=53dd01d9-dfba-45d5-8aa1-246978042040"},"vehicle_type_id":"4","last_reported":1702839891,"current_range_meters":0,"station_id":"ce4bgjh2rcd13ifvqbf0","pricing_plan_id":"free"},{"bike_id":"0b20022c-5cda-4aa1-b160-6f242b493a74","system_id":"levelo_inurba_marseille","lat":43.30085,"lon":5.390856,"is_reserved":false,"is_disabled":false,"rental_uris":{"android":"levelo://app?vid=0b20022c-5cda-4aa1-b160-6f242b493a74","ios":"levelo://app?vid=0b20022c-5cda-4aa1-b160-6f242b493a74"},"vehicle_type_id":"4","last_reported":1702839891,"current_range_meters":23200,"station_id":"ce4bh192rcd13ifvqdb0","pricing_plan_id":"free"},{"bike_id":"42e96695-4863-4030-97cc-b2e8a2328935","system_id":"levelo_inurba_marseille","lat":43.300852,"lon":5.390859,"is_reserved":false,"is_disabled":false,"rental_uris":{"android":"levelo://app?vid=42e96695-4863-4030-97cc-b2e8a2328935","ios":"levelo://app?vid=42e96695-4863-4030-97cc-b2e8a2328935"},"vehicle_type_id":"4","last_reported":1702839891,"current_range_meters":1200,"station_id":"ce4bh192rcd13ifvqdb0","pricing_plan_id":"free"},{"bike_id":"80f3c3de-0d53-49ee-91ee-adb181d5a975","system_id":"levelo_inurba_marseille","lat":43.300852,"lon":5.390859,"is_reserved":false,"is_disabled":false,"rental_uris":{"android":"levelo://app?vid=80f3c3de-0d53-49ee-91ee-adb181d5a975","ios":"levelo://app?vid=80f3c3de-0d53-49ee-91ee-adb181d5a975"},"vehicle_type_id":"4","last_reported":1702839891,"current_range_meters":18000,"station_id":"ce4bh192rcd13ifvqdb0","pricing_plan_id":"free"},{"bike_id":"3706bb3c-346b-454e-98c3-135162acc3b6","system_id":"levelo_inurba_marseille","lat":43.30085,"lon":5.390856,"is_reserved":false,"is_disabled":false,"rental_uris":{"android":"levelo://app?vid=3706bb3c-346b-454e-98c3-135162acc3b6","ios":"levelo://app?vid=3706bb3c-346b-454e-98c3-135162acc3b6"},"vehicle_type_id":"4","last_reported":1702839891,"current_range_meters":8800,"station_id":"ce4bh192rcd13ifvqdb0","pricing_plan_id":"free"},{"bike_id":"73815211-5232-4632-87f2-c538e158f7f2","system_id":"levelo_inurba_marseille","lat":43.313291,"lon":5.396838,"is_reserved":false,"is_disabled":false,"rental_uris":{"android":"levelo://app?vid=73815211-5232-4632-87f2-c538e158f7f2","ios":"levelo://app?vid=73815211-5232-4632-87f2-c538e158f7f2"},"vehicle_type_id":"4","last_reported":1702839891,"current_range_meters":12400,"station_id":"ce4bgvp2rcd13ifvqcu0","pricing_plan_id":"free"},{"bike_id":"e74ed0fc-ce34-4e9a-8468-48a3d6f72149","system_id":"levelo_inurba_marseille","lat":43.309038,"lon":5.396546,"is_reserved":false,"is_disabled":false,"rental_uris":{"android":"levelo://app?vid=e74ed0fc-ce34-4e9a-8468-48a3d6f72149","ios":"levelo://app?vid=e74ed0fc-ce34-4e9a-8468-48a3d6f72149"},"vehicle_type_id":"4","last_reported":1702839891,"current_range_meters":9600,"station_id":"ce4bh012rcd13ifvqcv0","pricing_plan_id":"free"},{"bike_id":"af0e3f33-33fd-4cfa-9307-5ebe4697f462","system_id":"levelo_inurba_marseille","lat":43.31331,"lon":5.39693,"is_reserved":false,"is_disabled":false,"rental_uris":{"android":"levelo://app?vid=af0e3f33-33fd-4cfa-9307-5ebe4697f462","ios":"levelo://app?vid=af0e3f33-33fd-4cfa-9307-5ebe4697f462"},"vehicle_type_id":"4","last_reported":1702839891,"current_range_meters":11600,"station_id":"ce4bgvp2rcd13ifvqcu0","pricing_plan_id":"free"},{"bike_id":"233d6dad-2293-4dd7-b307-467051e0fce4","system_id":"levelo_inurba_marseille","lat":43.31329,"lon":5.39694,"is_reserved":false,"is_disabled":false,"rental_uris":{"android":"levelo://app?vid=233d6dad-2293-4dd7-b307-467051e0fce4","ios":"levelo://app?vid=233d6dad-2293-4dd7-b307-467051e0fce4"},"vehicle_type_id":"4","last_reported":1702839891,"current_range_meters":0,"station_id":"ce4bgvp2rcd13ifvqcu0","pricing_plan_id":"free"},{"bike_id":"24eac149-e661-4054-8287-6eacb6ec442e","system_id":"levelo_inurba_marseille","lat":43.309047,"lon":5.396551,"is_reserved":false,"is_disabled":false,"rental_uris":{"android":"levelo://app?vid=24eac149-e661-4054-8287-6eacb6ec442e","ios":"levelo://app?vid=24eac149-e661-4054-8287-6eacb6ec442e"},"vehicle_type_id":"4","last_reported":1702839891,"current_range_meters":18000,"station_id":"ce4bh012rcd13ifvqcv0","pricing_plan_id":"free"},{"bike_id":"ac02f0b4-11e5-4bc4-96db-786bb1ac4a28","system_id":"levelo_inurba_marseille","lat":43.309038,"lon":5.396546,"is_reserved":false,"is_disabled":false,"rental_uris":{"android":"levelo://app?vid=ac02f0b4-11e5-4bc4-96db-786bb1ac4a28","ios":"levelo://app?vid=ac02f0b4-11e5-4bc4-96db-786bb1ac4a28"},"vehicle_type_id":"4","last_reported":1702839891,"current_range_meters":25200,"station_id":"ce4bh012rcd13ifvqcv0","pricing_plan_id":"free"},{"bike_id":"3d4da57d-a9de-4f06-b9c7-a8b4f0925e04","system_id":"levelo_inurba_marseille","lat":43.309038,"lon":5.396546,"is_reserved":false,"is_disabled":false,"rental_uris":{"android":"levelo://app?vid=3d4da57d-a9de-4f06-b9c7-a8b4f0925e04","ios":"levelo://app?vid=3d4da57d-a9de-4f06-b9c7-a8b4f0925e04"},"vehicle_type_id":"4","last_reported":1702839891,"current_range_meters":8000,"station_id":"ce4bh012rcd13ifvqcv0","pricing_plan_id":"free"},{"bike_id":"5637f062-f5f3-45b4-9f73-9a1b133c5dc4","system_id":"levelo_inurba_marseille","lat":43.309038,"lon":5.396546,"is_reserved":false,"is_disabled":false,"rental_uris":{"android":"levelo://app?vid=5637f062-f5f3-45b4-9f73-9a1b133c5dc4","ios":"levelo://app?vid=5637f062-f5f3-45b4-9f73-9a1b133c5dc4"},"vehicle_type_id":"4","last_reported":1702839891,"current_range_meters":23200,"station_id":"ce4bh012rcd13ifvqcv0","pricing_plan_id":"free"},{"bike_id":"86ab5bdf-a30f-4e59-a212-e354734e3bb0","system_id":"levelo_inurba_marseille","lat":43.29529,"lon":5.385581,"is_reserved":false,"is_disabled":false,"rental_uris":{"android":"levelo://app?vid=86ab5bdf-a30f-4e59-a212-e354734e3bb0","ios":"levelo://app?vid=86ab5bdf-a30f-4e59-a212-e354734e3bb0"},"vehicle_type_id":"4","last_reported":1702839891,"current_range_meters":10400,"station_id":"ce4bgih2rcd13ifvqba0","pricing_plan_id":"free"},{"bike_id":"bfc41238-2023-480b-b755-77c13894c91f","system_id":"levelo_inurba_marseille","lat":43.302008,"lon":5.394694,"is_reserved":false,"is_disabled":false,"rental_uris":{"android":"levelo://app?vid=bfc41238-2023-480b-b755-77c13894c91f","ios":"levelo://app?vid=bfc41238-2023-480b-b755-77c13894c91f"},"vehicle_type_id":"4","last_reported":1702839891,"current_range_meters":0,"station_id":"ce4bh0p2rcd13ifvqd70","pricing_plan_id":"free"},{"bike_id":"2ccb46b6-74b1-470a-912b-6995bb7027cd","system_id":"levelo_inurba_marseille","lat":43.290624,"lon":5.359245,"is_reserved":false,"is_disabled":false,"rental_uris":{"android":"levelo://app?vid=2ccb46b6-74b1-470a-912b-6995bb7027cd","ios":"levelo://app?vid=2ccb46b6-74b1-470a-912b-6995bb7027cd"},"vehicle_type_id":"4","last_reported":1702839891,"current_range_meters":6800,"station_id":"ce4bha92rcd13ifvqeg0","pricing_plan_id":"free"},{"bike_id":"1a241f81-32ab-472c-bc68-49b693af7036","system_id":"levelo_inurba_marseille","lat":43.290631,"lon":5.359244,"is_reserved":false,"is_disabled":false,"rental_uris":{"android":"levelo://app?vid=1a241f81-32ab-472c-bc68-49b693af7036","ios":"levelo://app?vid=1a241f81-32ab-472c-bc68-49b693af7036"},"vehicle_type_id":"4","last_reported":1702839891,"current_range_meters":19600,"station_id":"ce4bha92rcd13ifvqeg0","pricing_plan_id":"free"},{"bike_id":"8da36282-2d0f-4920-aba6-7634d91d19de","system_id":"levelo_inurba_marseille","lat":43.290327,"lon":5.375711,"is_reserved":false,"is_disabled":false,"rental_uris":{"android":"levelo://app?vid=8da36282-2d0f-4920-aba6-7634d91d19de","ios":"levelo://app?vid=8da36282-2d0f-4920-aba6-7634d91d19de"},"vehicle_type_id":"4","last_reported":1702839891,"current_range_meters":10800,"station_id":"ce4bh692rcd13ifvqe90","pricing_plan_id":"free"},{"bike_id":"65b5c3a0-587f-423a-8477-70545531300a","system_id":"levelo_inurba_marseille","lat":43.28946,"lon":5.36638,"is_reserved":false,"is_disabled":false,"rental_uris":{"android":"levelo://app?vid=65b5c3a0-587f-423a-8477-70545531300a","ios":"levelo://app?vid=65b5c3a0-587f-423a-8477-70545531300a"},"vehicle_type_id":"4","last_reported":1702839891,"current_range_meters":22800,"station_id":"ce4bhap2rcd13ifvqek0","pricing_plan_id":"free"},{"bike_id":"03e75761-acec-4a1e-a145-090cc9df6e01","system_id":"levelo_inurba_marseille","lat":43.28941,"lon":5.36631,"is_reserved":false,"is_disabled":false,"rental_uris":{"android":"levelo://app?vid=03e75761-acec-4a1e-a145-090cc9df6e01","ios":"levelo://app?vid=03e75761-acec-4a1e-a145-090cc9df6e01"},"vehicle_type_id":"4","last_reported":1702839891,"current_range_meters":26000,"station_id":"ce4bhap2rcd13ifvqek0","pricing_plan_id":"free"},{"bike_id":"fbfee449-77af-4303-8c5e-ea9e5b07bcde","system_id":"levelo_inurba_marseille","lat":43.289208,"lon":5.366483,"is_reserved":false,"is_disabled":false,"rental_uris":{"android":"levelo://app?vid=fbfee449-77af-4303-8c5e-ea9e5b07bcde","ios":"levelo://app?vid=fbfee449-77af-4303-8c5e-ea9e5b07bcde"},"vehicle_type_id":"4","last_reported":1702839891,"current_range_meters":19200,"station_id":"","pricing_plan_id":"free"},{"bike_id":"7a1f7bfb-499f-4eb4-8e2f-076f259b3df5","system_id":"levelo_inurba_marseille","lat":43.292644,"lon":5.384257,"is_reserved":false,"is_disabled":false,"rental_uris":{"android":"levelo://app?vid=7a1f7bfb-499f-4eb4-8e2f-076f259b3df5","ios":"levelo://app?vid=7a1f7bfb-499f-4eb4-8e2f-076f259b3df5"},"vehicle_type_id":"4","last_reported":1702839891,"current_range_meters":26400,"station_id":"ce4bh692rcd13ifvqea0","pricing_plan_id":"free"},{"bike_id":"4307e344-f1ed-4ce2-940a-81d309d06930","system_id":"levelo_inurba_marseille","lat":43.33044,"lon":5.38921,"is_reserved":false,"is_disabled":false,"rental_uris":{"android":"levelo://app?vid=4307e344-f1ed-4ce2-940a-81d309d06930","ios":"levelo://app?vid=4307e344-f1ed-4ce2-940a-81d309d06930"},"vehicle_type_id":"4","last_reported":1702839891,"current_range_meters":18400,"station_id":"ce4bhr92rcd13ifvqhrg","pricing_plan_id":"free"},{"bike_id":"53ccf89c-58d8-4826-99aa-9f38084d5218","system_id":"levelo_inurba_marseille","lat":43.290104,"lon":5.356111,"is_reserved":false,"is_disabled":false,"rental_uris":{"android":"levelo://app?vid=53ccf89c-58d8-4826-99aa-9f38084d5218","ios":"levelo://app?vid=53ccf89c-58d8-4826-99aa-9f38084d5218"},"vehicle_type_id":"4","last_reported":1702839891,"current_range_meters":29600,"station_id":"ce4bhb92rcd13ifvqen0","pricing_plan_id":"free"},{"bike_id":"5fa34a05-5c55-4873-a568-038c0fe9a5d6","system_id":"levelo_inurba_marseille","lat":43.33044,"lon":5.38923,"is_reserved":false,"is_disabled":false,"rental_uris":{"android":"levelo://app?vid=5fa34a05-5c55-4873-a568-038c0fe9a5d6","ios":"levelo://app?vid=5fa34a05-5c55-4873-a568-038c0fe9a5d6"},"vehicle_type_id":"4","last_reported":1702839891,"current_range_meters":10800,"station_id":"ce4bhr92rcd13ifvqhrg","pricing_plan_id":"free"},{"bike_id":"5e34ed2c-bf38-40ae-a8cb-00f085f8e568","system_id":"levelo_inurba_marseille","lat":43.29157,"lon":5.382838,"is_reserved":false,"is_disabled":false,"rental_uris":{"android":"levelo://app?vid=5e34ed2c-bf38-40ae-a8cb-00f085f8e568","ios":"levelo://app?vid=5e34ed2c-bf38-40ae-a8cb-00f085f8e568"},"vehicle_type_id":"4","last_reported":1702839891,"current_range_meters":0,"station_id":"","pricing_plan_id":"free"},{"bike_id":"65328495-1e42-4317-bf0d-2d56562b58a8","system_id":"levelo_inurba_marseille","lat":43.297886,"lon":5.393318,"is_reserved":false,"is_disabled":false,"rental_uris":{"android":"levelo://app?vid=65328495-1e42-4317-bf0d-2d56562b58a8","ios":"levelo://app?vid=65328495-1e42-4317-bf0d-2d56562b58a8"},"vehicle_type_id":"4","last_reported":1702839891,"current_range_meters":10400,"station_id":"chh1huq6cuj3fo74tm60","pricing_plan_id":"free"},{"bike_id":"ebee04b5-5d6f-4289-980d-69e0698d9b10","system_id":"levelo_inurba_marseille","lat":43.297815,"lon":5.393548,"is_reserved":false,"is_disabled":false,"rental_uris":{"android":"levelo://app?vid=ebee04b5-5d6f-4289-980d-69e0698d9b10","ios":"levelo://app?vid=ebee04b5-5d6f-4289-980d-69e0698d9b10"},"vehicle_type_id":"4","last_reported":1702839891,"current_range_meters":14800,"station_id":"chh1huq6cuj3fo74tm60","pricing_plan_id":"free"},{"bike_id":"ae38ef89-de9f-4459-9c8d-cd1afa5abf0e","system_id":"levelo_inurba_marseille","lat":43.297815,"lon":5.393548,"is_reserved":false,"is_disabled":false,"rental_uris":{"android":"levelo://app?vid=ae38ef89-de9f-4459-9c8d-cd1afa5abf0e","ios":"levelo://app?vid=ae38ef89-de9f-4459-9c8d-cd1afa5abf0e"},"vehicle_type_id":"4","last_reported":1702839891,"current_range_meters":8000,"station_id":"chh1huq6cuj3fo74tm60","pricing_plan_id":"free"},{"bike_id":"a7e2187b-efbe-4c54-bbf2-0d9d9de30506","system_id":"levelo_inurba_marseille","lat":43.33144,"lon":5.38929,"is_reserved":false,"is_disabled":false,"rental_uris":{"android":"levelo://app?vid=a7e2187b-efbe-4c54-bbf2-0d9d9de30506","ios":"levelo://app?vid=a7e2187b-efbe-4c54-bbf2-0d9d9de30506"},"vehicle_type_id":"4","last_reported":1702839891,"current_range_meters":15200,"station_id":"","pricing_plan_id":"free"},{"bike_id":"4f5e4472-4230-4feb-91e0-abe54f458031","system_id":"levelo_inurba_marseille","lat":43.28856,"lon":5.358371,"is_reserved":false,"is_disabled":false,"rental_uris":{"android":"levelo://app?vid=4f5e4472-4230-4feb-91e0-abe54f458031","ios":"levelo://app?vid=4f5e4472-4230-4feb-91e0-abe54f458031"},"vehicle_type_id":"4","last_reported":1702839891,"current_range_meters":20000,"station_id":"ce4bhb12rcd13ifvqem0","pricing_plan_id":"free"},{"bike_id":"da6ac146-5a23-4497-98d6-3519b6e74a6b","system_id":"levelo_inurba_marseille","lat":43.288488,"lon":5.35837,"is_reserved":false,"is_disabled":false,"rental_uris":{"android":"levelo://app?vid=da6ac146-5a23-4497-98d6-3519b6e74a6b","ios":"levelo://app?vid=da6ac146-5a23-4497-98d6-3519b6e74a6b"},"vehicle_type_id":"4","last_reported":1702839891,"current_range_meters":0,"station_id":"ce4bhb12rcd13ifvqem0","pricing_plan_id":"free"},{"bike_id":"27371b33-fe33-4f1d-ae9d-806609b20732","system_id":"levelo_inurba_marseille","lat":43.31268,"lon":5.40168,"is_reserved":false,"is_disabled":false,"rental_uris":{"android":"levelo://app?vid=27371b33-fe33-4f1d-ae9d-806609b20732","ios":"levelo://app?vid=27371b33-fe33-4f1d-ae9d-806609b20732"},"vehicle_type_id":"4","last_reported":1702839891,"current_range_meters":4800,"station_id":"ce4bh092rcd13ifvqd30","pricing_plan_id":"free"},{"bike_id":"b7d518e7-4e65-4403-9041-44eb3ef57146","system_id":"levelo_inurba_marseille","lat":43.28727,"lon":5.36078,"is_reserved":false,"is_disabled":false,"rental_uris":{"android":"levelo://app?vid=b7d518e7-4e65-4403-9041-44eb3ef57146","ios":"levelo://app?vid=b7d518e7-4e65-4403-9041-44eb3ef57146"},"vehicle_type_id":"4","last_reported":1702839891,"current_range_meters":30000,"station_id":"cki0cbj6b192h4jlfktg","pricing_plan_id":"free"},{"bike_id":"c85243a8-91c4-4691-add6-1c7378f4173f","system_id":"levelo_inurba_marseille","lat":43.29872,"lon":5.39726,"is_reserved":false,"is_disabled":false,"rental_uris":{"android":"levelo://app?vid=c85243a8-91c4-4691-add6-1c7378f4173f","ios":"levelo://app?vid=c85243a8-91c4-4691-add6-1c7378f4173f"},"vehicle_type_id":"4","last_reported":1702839891,"current_range_meters":0,"station_id":"ce4bh0h2rcd13ifvqd50","pricing_plan_id":"free"},{"bike_id":"f048a930-74d5-438f-a6ee-62b4fb8754b8","system_id":"levelo_inurba_marseille","lat":43.286591,"lon":5.363346,"is_reserved":false,"is_disabled":false,"rental_uris":{"android":"levelo://app?vid=f048a930-74d5-438f-a6ee-62b4fb8754b8","ios":"levelo://app?vid=f048a930-74d5-438f-a6ee-62b4fb8754b8"},"vehicle_type_id":"4","last_reported":1702839891,"current_range_meters":13200,"station_id":"ce4bhah2rcd13ifvqej0","pricing_plan_id":"free"},{"bike_id":"a014d20b-f311-4d79-b9e4-c101e16db406","system_id":"levelo_inurba_marseille","lat":43.29869,"lon":5.39724,"is_reserved":false,"is_disabled":false,"rental_uris":{"android":"levelo://app?vid=a014d20b-f311-4d79-b9e4-c101e16db406","ios":"levelo://app?vid=a014d20b-f311-4d79-b9e4-c101e16db406"},"vehicle_type_id":"4","last_reported":1702839891,"current_range_meters":16000,"station_id":"ce4bh0h2rcd13ifvqd50","pricing_plan_id":"free"},{"bike_id":"6f9025f6-4425-40e0-bcc7-e9aafb90be75","system_id":"levelo_inurba_marseille","lat":43.29867,"lon":5.39729,"is_reserved":false,"is_disabled":false,"rental_uris":{"android":"levelo://app?vid=6f9025f6-4425-40e0-bcc7-e9aafb90be75","ios":"levelo://app?vid=6f9025f6-4425-40e0-bcc7-e9aafb90be75"},"vehicle_type_id":"4","last_reported":1702839891,"current_range_meters":12000,"station_id":"ce4bh0h2rcd13ifvqd50","pricing_plan_id":"free"},{"bike_id":"80cef11c-093a-4293-ad56-ec757926bf3a","system_id":"levelo_inurba_marseille","lat":43.286591,"lon":5.363346,"is_reserved":false,"is_disabled":false,"rental_uris":{"android":"levelo://app?vid=80cef11c-093a-4293-ad56-ec757926bf3a","ios":"levelo://app?vid=80cef11c-093a-4293-ad56-ec757926bf3a"},"vehicle_type_id":"4","last_reported":1702839891,"current_range_meters":12000,"station_id":"ce4bhah2rcd13ifvqej0","pricing_plan_id":"free"},{"bike_id":"e574afab-8ef5-4337-aba3-6e90a1770da5","system_id":"levelo_inurba_marseille","lat":43.295194,"lon":5.39397,"is_reserved":false,"is_disabled":false,"rental_uris":{"android":"levelo://app?vid=e574afab-8ef5-4337-aba3-6e90a1770da5","ios":"levelo://app?vid=e574afab-8ef5-4337-aba3-6e90a1770da5"},"vehicle_type_id":"4","last_reported":1702839891,"current_range_meters":18400,"station_id":"ce4bh292rcd13ifvqdf0","pricing_plan_id":"free"},{"bike_id":"dd65d3fc-b189-483b-b1c3-3cf4f9be1232","system_id":"levelo_inurba_marseille","lat":43.295194,"lon":5.39397,"is_reserved":false,"is_disabled":false,"rental_uris":{"android":"levelo://app?vid=dd65d3fc-b189-483b-b1c3-3cf4f9be1232","ios":"levelo://app?vid=dd65d3fc-b189-483b-b1c3-3cf4f9be1232"},"vehicle_type_id":"4","last_reported":1702839891,"current_range_meters":0,"station_id":"ce4bh292rcd13ifvqdf0","pricing_plan_id":"free"},{"bike_id":"deb47c49-7f59-45b1-a9ec-9a69b0f3f5c1","system_id":"levelo_inurba_marseille","lat":43.2903,"lon":5.38631,"is_reserved":false,"is_disabled":false,"rental_uris":{"android":"levelo://app?vid=deb47c49-7f59-45b1-a9ec-9a69b0f3f5c1","ios":"levelo://app?vid=deb47c49-7f59-45b1-a9ec-9a69b0f3f5c1"},"vehicle_type_id":"4","last_reported":1702839891,"current_range_meters":0,"station_id":"ce4bh4p2rcd13ifvqe0g","pricing_plan_id":"free"},{"bike_id":"6a85e0c6-ce65-4c3d-9c63-b75039aaf20c","system_id":"levelo_inurba_marseille","lat":43.290345,"lon":5.38646,"is_reserved":false,"is_disabled":false,"rental_uris":{"android":"levelo://app?vid=6a85e0c6-ce65-4c3d-9c63-b75039aaf20c","ios":"levelo://app?vid=6a85e0c6-ce65-4c3d-9c63-b75039aaf20c"},"vehicle_type_id":"4","last_reported":1702839891,"current_range_meters":0,"station_id":"ce4bh4p2rcd13ifvqe0g","pricing_plan_id":"free"},{"bike_id":"935437d0-23dc-4ceb-9818-bd3d11379bbc","system_id":"levelo_inurba_marseille","lat":43.30251,"lon":5.40055,"is_reserved":false,"is_disabled":false,"rental_uris":{"android":"levelo://app?vid=935437d0-23dc-4ceb-9818-bd3d11379bbc","ios":"levelo://app?vid=935437d0-23dc-4ceb-9818-bd3d11379bbc"},"vehicle_type_id":"4","last_reported":1702839891,"current_range_meters":0,"station_id":"ce4bgvh2rcd13ifvqcs0","pricing_plan_id":"free"},{"bike_id":"e550e1ea-2dbb-4257-9c39-ac92cbc06595","system_id":"levelo_inurba_marseille","lat":43.290345,"lon":5.38646,"is_reserved":false,"is_disabled":false,"rental_uris":{"android":"levelo://app?vid=e550e1ea-2dbb-4257-9c39-ac92cbc06595","ios":"levelo://app?vid=e550e1ea-2dbb-4257-9c39-ac92cbc06595"},"vehicle_type_id":"4","last_reported":1702839891,"current_range_meters":18400,"station_id":"ce4bh4p2rcd13ifvqe0g","pricing_plan_id":"free"},{"bike_id":"2a553197-7fdc-452f-a9e1-4c9e00d5a090","system_id":"levelo_inurba_marseille","lat":43.286039,"lon":5.370679,"is_reserved":false,"is_disabled":false,"rental_uris":{"android":"levelo://app?vid=2a553197-7fdc-452f-a9e1-4c9e00d5a090","ios":"levelo://app?vid=2a553197-7fdc-452f-a9e1-4c9e00d5a090"},"vehicle_type_id":"4","last_reported":1702839891,"current_range_meters":30000,"station_id":"ce4bht12rcd13ifvqi60","pricing_plan_id":"free"},{"bike_id":"72e78105-a230-43e1-b0cb-43844cee1f2c","system_id":"levelo_inurba_marseille","lat":43.287185,"lon":5.379373,"is_reserved":false,"is_disabled":false,"rental_uris":{"android":"levelo://app?vid=72e78105-a230-43e1-b0cb-43844cee1f2c","ios":"levelo://app?vid=72e78105-a230-43e1-b0cb-43844cee1f2c"},"vehicle_type_id":"4","last_reported":1702839891,"current_range_meters":28000,"station_id":"ce4bh9p2rcd13ifvqec0","pricing_plan_id":"free"},{"bike_id":"4bc92b51-e6b0-4e46-b625-40fe62c193f8","system_id":"levelo_inurba_marseille","lat":43.291994,"lon":5.392907,"is_reserved":false,"is_disabled":false,"rental_uris":{"android":"levelo://app?vid=4bc92b51-e6b0-4e46-b625-40fe62c193f8","ios":"levelo://app?vid=4bc92b51-e6b0-4e46-b625-40fe62c193f8"},"vehicle_type_id":"4","last_reported":1702839891,"current_range_meters":7200,"station_id":"ce4bh192rcd13ifvqdd0","pricing_plan_id":"free"},{"bike_id":"a2577d38-3f83-4bd1-af83-835925ebcd8a","system_id":"levelo_inurba_marseille","lat":43.291994,"lon":5.392907,"is_reserved":false,"is_disabled":false,"rental_uris":{"android":"levelo://app?vid=a2577d38-3f83-4bd1-af83-835925ebcd8a","ios":"levelo://app?vid=a2577d38-3f83-4bd1-af83-835925ebcd8a"},"vehicle_type_id":"4","last_reported":1702839891,"current_range_meters":26800,"station_id":"ce4bh192rcd13ifvqdd0","pricing_plan_id":"free"},{"bike_id":"6e6ff843-86a3-4eeb-8003-2bb88a4e4a10","system_id":"levelo_inurba_marseille","lat":43.284538,"lon":5.358657,"is_reserved":false,"is_disabled":false,"rental_uris":{"android":"levelo://app?vid=6e6ff843-86a3-4eeb-8003-2bb88a4e4a10","ios":"levelo://app?vid=6e6ff843-86a3-4eeb-8003-2bb88a4e4a10"},"vehicle_type_id":"4","last_reported":1702839891,"current_range_meters":10400,"station_id":"ce4bhah2rcd13ifvqei0","pricing_plan_id":"free"},{"bike_id":"bd3a2400-a385-4a91-8a98-308ffcc17cff","system_id":"levelo_inurba_marseille","lat":43.284538,"lon":5.358657,"is_reserved":false,"is_disabled":false,"rental_uris":{"android":"levelo://app?vid=bd3a2400-a385-4a91-8a98-308ffcc17cff","ios":"levelo://app?vid=bd3a2400-a385-4a91-8a98-308ffcc17cff"},"vehicle_type_id":"4","last_reported":1702839891,"current_range_meters":4000,"station_id":"ce4bhah2rcd13ifvqei0","pricing_plan_id":"free"},{"bike_id":"1cc5a14c-6808-435d-91c4-04d365485132","system_id":"levelo_inurba_marseille","lat":43.284538,"lon":5.358657,"is_reserved":false,"is_disabled":false,"rental_uris":{"android":"levelo://app?vid=1cc5a14c-6808-435d-91c4-04d365485132","ios":"levelo://app?vid=1cc5a14c-6808-435d-91c4-04d365485132"},"vehicle_type_id":"4","last_reported":1702839891,"current_range_meters":3200,"station_id":"ce4bhah2rcd13ifvqei0","pricing_plan_id":"free"},{"bike_id":"1d9d46bb-e4d4-4a2a-93d0-196dd004a212","system_id":"levelo_inurba_marseille","lat":43.284534,"lon":5.358662,"is_reserved":false,"is_disabled":false,"rental_uris":{"android":"levelo://app?vid=1d9d46bb-e4d4-4a2a-93d0-196dd004a212","ios":"levelo://app?vid=1d9d46bb-e4d4-4a2a-93d0-196dd004a212"},"vehicle_type_id":"4","last_reported":1702839891,"current_range_meters":31200,"station_id":"ce4bhah2rcd13ifvqei0","pricing_plan_id":"free"},{"bike_id":"cc9e6774-ea62-4601-8f82-8f55a65017e9","system_id":"levelo_inurba_marseille","lat":43.284534,"lon":5.358662,"is_reserved":false,"is_disabled":false,"rental_uris":{"android":"levelo://app?vid=cc9e6774-ea62-4601-8f82-8f55a65017e9","ios":"levelo://app?vid=cc9e6774-ea62-4601-8f82-8f55a65017e9"},"vehicle_type_id":"4","last_reported":1702839891,"current_range_meters":1200,"station_id":"ce4bhah2rcd13ifvqei0","pricing_plan_id":"free"},{"bike_id":"4bf2e7d9-4897-4437-8481-c5a015f03941","system_id":"levelo_inurba_marseille","lat":43.284534,"lon":5.358662,"is_reserved":false,"is_disabled":false,"rental_uris":{"android":"levelo://app?vid=4bf2e7d9-4897-4437-8481-c5a015f03941","ios":"levelo://app?vid=4bf2e7d9-4897-4437-8481-c5a015f03941"},"vehicle_type_id":"4","last_reported":1702839891,"current_range_meters":4400,"station_id":"ce4bhah2rcd13ifvqei0","pricing_plan_id":"free"},{"bike_id":"152e101c-87a5-4f4a-944b-0d8eca576432","system_id":"levelo_inurba_marseille","lat":43.284534,"lon":5.358662,"is_reserved":false,"is_disabled":false,"rental_uris":{"android":"levelo://app?vid=152e101c-87a5-4f4a-944b-0d8eca576432","ios":"levelo://app?vid=152e101c-87a5-4f4a-944b-0d8eca576432"},"vehicle_type_id":"4","last_reported":1702839891,"current_range_meters":16000,"station_id":"ce4bhah2rcd13ifvqei0","pricing_plan_id":"free"},{"bike_id":"c86cbb5e-cb67-4579-bd96-2e1b14274c49","system_id":"levelo_inurba_marseille","lat":43.294314,"lon":5.397498,"is_reserved":false,"is_disabled":false,"rental_uris":{"android":"levelo://app?vid=c86cbb5e-cb67-4579-bd96-2e1b14274c49","ios":"levelo://app?vid=c86cbb5e-cb67-4579-bd96-2e1b14274c49"},"vehicle_type_id":"4","last_reported":1702839891,"current_range_meters":8800,"station_id":"ce4bh3h2rcd13ifvqdo0","pricing_plan_id":"free"},{"bike_id":"eaefbba3-0d02-435d-9681-4bf0d7e848a0","system_id":"levelo_inurba_marseille","lat":43.283998,"lon":5.375062,"is_reserved":false,"is_disabled":false,"rental_uris":{"android":"levelo://app?vid=eaefbba3-0d02-435d-9681-4bf0d7e848a0","ios":"levelo://app?vid=eaefbba3-0d02-435d-9681-4bf0d7e848a0"},"vehicle_type_id":"4","last_reported":1702839891,"current_range_meters":18800,"station_id":"ce4bh412rcd13ifvqds0","pricing_plan_id":"free"},{"bike_id":"ae462576-f72b-4543-bc8e-0c05d9e43201","system_id":"levelo_inurba_marseille","lat":43.295713,"lon":5.399639,"is_reserved":false,"is_disabled":false,"rental_uris":{"android":"levelo://app?vid=ae462576-f72b-4543-bc8e-0c05d9e43201","ios":"levelo://app?vid=ae462576-f72b-4543-bc8e-0c05d9e43201"},"vehicle_type_id":"4","last_reported":1702839891,"current_range_meters":6800,"station_id":"ce4bh312rcd13ifvqdj0","pricing_plan_id":"free"},{"bike_id":"cbe50103-a4b4-4d1a-b078-a27b480d2ca8","system_id":"levelo_inurba_marseille","lat":43.29576,"lon":5.39973,"is_reserved":false,"is_disabled":false,"rental_uris":{"android":"levelo://app?vid=cbe50103-a4b4-4d1a-b078-a27b480d2ca8","ios":"levelo://app?vid=cbe50103-a4b4-4d1a-b078-a27b480d2ca8"},"vehicle_type_id":"4","last_reported":1702839891,"current_range_meters":18400,"station_id":"ce4bh312rcd13ifvqdj0","pricing_plan_id":"free"},{"bike_id":"2dfa5049-0e1b-4839-b5c3-156910a65dbd","system_id":"levelo_inurba_marseille","lat":43.33218,"lon":5.397067,"is_reserved":false,"is_disabled":false,"rental_uris":{"android":"levelo://app?vid=2dfa5049-0e1b-4839-b5c3-156910a65dbd","ios":"levelo://app?vid=2dfa5049-0e1b-4839-b5c3-156910a65dbd"},"vehicle_type_id":"4","last_reported":1702839891,"current_range_meters":8000,"station_id":"","pricing_plan_id":"free"},{"bike_id":"d5b5baf9-579a-465f-9295-32e19942f7a0","system_id":"levelo_inurba_marseille","lat":43.295713,"lon":5.399639,"is_reserved":false,"is_disabled":false,"rental_uris":{"android":"levelo://app?vid=d5b5baf9-579a-465f-9295-32e19942f7a0","ios":"levelo://app?vid=d5b5baf9-579a-465f-9295-32e19942f7a0"},"vehicle_type_id":"4","last_reported":1702839891,"current_range_meters":22000,"station_id":"ce4bh312rcd13ifvqdj0","pricing_plan_id":"free"},{"bike_id":"d6284a72-130c-4768-bc08-1087913f919c","system_id":"levelo_inurba_marseille","lat":43.283653,"lon":5.375289,"is_reserved":false,"is_disabled":false,"rental_uris":{"android":"levelo://app?vid=d6284a72-130c-4768-bc08-1087913f919c","ios":"levelo://app?vid=d6284a72-130c-4768-bc08-1087913f919c"},"vehicle_type_id":"4","last_reported":1702839891,"current_range_meters":8800,"station_id":"ce4bh412rcd13ifvqds0","pricing_plan_id":"free"},{"bike_id":"27e96943-1418-4832-a4a9-710f9b22d4e8","system_id":"levelo_inurba_marseille","lat":43.323464,"lon":5.406297,"is_reserved":false,"is_disabled":false,"rental_uris":{"android":"levelo://app?vid=27e96943-1418-4832-a4a9-710f9b22d4e8","ios":"levelo://app?vid=27e96943-1418-4832-a4a9-710f9b22d4e8"},"vehicle_type_id":"4","last_reported":1702839891,"current_range_meters":30400,"station_id":"ce4bhq92rcd13ifvqhjg","pricing_plan_id":"free"},{"bike_id":"29316d07-1338-4037-b577-0cc4ef196a63","system_id":"levelo_inurba_marseille","lat":43.33717,"lon":5.391857,"is_reserved":false,"is_disabled":false,"rental_uris":{"android":"levelo://app?vid=29316d07-1338-4037-b577-0cc4ef196a63","ios":"levelo://app?vid=29316d07-1338-4037-b577-0cc4ef196a63"},"vehicle_type_id":"4","last_reported":1702839891,"current_range_meters":28800,"station_id":"ce4bhr92rcd13ifvqhsg","pricing_plan_id":"free"},{"bike_id":"b34fbf20-cd25-49b9-9953-c6707ccaf0f5","system_id":"levelo_inurba_marseille","lat":43.337168,"lon":5.391825,"is_reserved":false,"is_disabled":false,"rental_uris":{"android":"levelo://app?vid=b34fbf20-cd25-49b9-9953-c6707ccaf0f5","ios":"levelo://app?vid=b34fbf20-cd25-49b9-9953-c6707ccaf0f5"},"vehicle_type_id":"4","last_reported":1702839891,"current_range_meters":27200,"station_id":"ce4bhr92rcd13ifvqhsg","pricing_plan_id":"free"},{"bike_id":"e6e8def3-4d43-4d3d-b4c8-e06233981f99","system_id":"levelo_inurba_marseille","lat":43.323464,"lon":5.406297,"is_reserved":false,"is_disabled":false,"rental_uris":{"android":"levelo://app?vid=e6e8def3-4d43-4d3d-b4c8-e06233981f99","ios":"levelo://app?vid=e6e8def3-4d43-4d3d-b4c8-e06233981f99"},"vehicle_type_id":"4","last_reported":1702839891,"current_range_meters":18800,"station_id":"ce4bhq92rcd13ifvqhjg","pricing_plan_id":"free"},{"bike_id":"afe3af6e-f6e0-4a26-8358-779ad1c8940f","system_id":"levelo_inurba_marseille","lat":43.284828,"lon":5.3842,"is_reserved":false,"is_disabled":false,"rental_uris":{"android":"levelo://app?vid=afe3af6e-f6e0-4a26-8358-779ad1c8940f","ios":"levelo://app?vid=afe3af6e-f6e0-4a26-8358-779ad1c8940f"},"vehicle_type_id":"4","last_reported":1702839891,"current_range_meters":0,"station_id":"ce4bh512rcd13ifvqe3g","pricing_plan_id":"free"},{"bike_id":"fb54eacc-53da-4029-8bb8-f4e175579af4","system_id":"levelo_inurba_marseille","lat":43.288501,"lon":5.393087,"is_reserved":false,"is_disabled":false,"rental_uris":{"android":"levelo://app?vid=fb54eacc-53da-4029-8bb8-f4e175579af4","ios":"levelo://app?vid=fb54eacc-53da-4029-8bb8-f4e175579af4"},"vehicle_type_id":"4","last_reported":1702839891,"current_range_meters":1200,"station_id":"ce4bh2p2rcd13ifvqdi0","pricing_plan_id":"free"},{"bike_id":"d358d374-c5ce-4245-9d81-442d81118a93","system_id":"levelo_inurba_marseille","lat":43.288501,"lon":5.393087,"is_reserved":false,"is_disabled":false,"rental_uris":{"android":"levelo://app?vid=d358d374-c5ce-4245-9d81-442d81118a93","ios":"levelo://app?vid=d358d374-c5ce-4245-9d81-442d81118a93"},"vehicle_type_id":"4","last_reported":1702839891,"current_range_meters":24400,"station_id":"ce4bh2p2rcd13ifvqdi0","pricing_plan_id":"free"},{"bike_id":"4987098c-386e-435b-bf00-27151595496e","system_id":"levelo_inurba_marseille","lat":43.288501,"lon":5.393087,"is_reserved":false,"is_disabled":false,"rental_uris":{"android":"levelo://app?vid=4987098c-386e-435b-bf00-27151595496e","ios":"levelo://app?vid=4987098c-386e-435b-bf00-27151595496e"},"vehicle_type_id":"4","last_reported":1702839891,"current_range_meters":7600,"station_id":"ce4bh2p2rcd13ifvqdi0","pricing_plan_id":"free"},{"bike_id":"8f1617f8-72ab-46af-b9ee-377f375c48de","system_id":"levelo_inurba_marseille","lat":43.283498,"lon":5.380948,"is_reserved":false,"is_disabled":false,"rental_uris":{"android":"levelo://app?vid=8f1617f8-72ab-46af-b9ee-377f375c48de","ios":"levelo://app?vid=8f1617f8-72ab-46af-b9ee-377f375c48de"},"vehicle_type_id":"4","last_reported":1702839891,"current_range_meters":11600,"station_id":"ce4bh412rcd13ifvqdr0","pricing_plan_id":"free"},{"bike_id":"e9a83db3-38af-4100-b49f-3435652853dd","system_id":"levelo_inurba_marseille","lat":43.283498,"lon":5.380948,"is_reserved":false,"is_disabled":false,"rental_uris":{"android":"levelo://app?vid=e9a83db3-38af-4100-b49f-3435652853dd","ios":"levelo://app?vid=e9a83db3-38af-4100-b49f-3435652853dd"},"vehicle_type_id":"4","last_reported":1702839891,"current_range_meters":9200,"station_id":"ce4bh412rcd13ifvqdr0","pricing_plan_id":"free"},{"bike_id":"27b2b65e-7fdb-4ee6-9838-5db0e591fdc4","system_id":"levelo_inurba_marseille","lat":43.289363,"lon":5.396322,"is_reserved":false,"is_disabled":false,"rental_uris":{"android":"levelo://app?vid=27b2b65e-7fdb-4ee6-9838-5db0e591fdc4","ios":"levelo://app?vid=27b2b65e-7fdb-4ee6-9838-5db0e591fdc4"},"vehicle_type_id":"4","last_reported":1702839891,"current_range_meters":24000,"station_id":"ce4bh3h2rcd13ifvqdn0","pricing_plan_id":"free"},{"bike_id":"0805c00c-13e8-44d3-8139-42a5c5fa3ac2","system_id":"levelo_inurba_marseille","lat":43.280382,"lon":5.369291,"is_reserved":false,"is_disabled":false,"rental_uris":{"android":"levelo://app?vid=0805c00c-13e8-44d3-8139-42a5c5fa3ac2","ios":"levelo://app?vid=0805c00c-13e8-44d3-8139-42a5c5fa3ac2"},"vehicle_type_id":"4","last_reported":1702839891,"current_range_meters":10000,"station_id":"ce4bha12rcd13ifvqef0","pricing_plan_id":"free"},{"bike_id":"156b5265-77d1-4866-b0d7-a09aa52daba5","system_id":"levelo_inurba_marseille","lat":43.28028,"lon":5.36937,"is_reserved":false,"is_disabled":false,"rental_uris":{"android":"levelo://app?vid=156b5265-77d1-4866-b0d7-a09aa52daba5","ios":"levelo://app?vid=156b5265-77d1-4866-b0d7-a09aa52daba5"},"vehicle_type_id":"4","last_reported":1702839891,"current_range_meters":19600,"station_id":"ce4bha12rcd13ifvqef0","pricing_plan_id":"free"},{"bike_id":"cf5d15c2-43dc-4bcd-8c7c-59c7768637f0","system_id":"levelo_inurba_marseille","lat":43.296263,"lon":5.40601,"is_reserved":false,"is_disabled":false,"rental_uris":{"android":"levelo://app?vid=cf5d15c2-43dc-4bcd-8c7c-59c7768637f0","ios":"levelo://app?vid=cf5d15c2-43dc-4bcd-8c7c-59c7768637f0"},"vehicle_type_id":"4","last_reported":1702839891,"current_range_meters":25600,"station_id":"ce4bh0h2rcd13ifvqd60","pricing_plan_id":"free"},{"bike_id":"b1bba2b6-372d-49dd-b13b-1b4d710db23d","system_id":"levelo_inurba_marseille","lat":43.32405,"lon":5.4097,"is_reserved":false,"is_disabled":false,"rental_uris":{"android":"levelo://app?vid=b1bba2b6-372d-49dd-b13b-1b4d710db23d","ios":"levelo://app?vid=b1bba2b6-372d-49dd-b13b-1b4d710db23d"},"vehicle_type_id":"4","last_reported":1702839891,"current_range_meters":30800,"station_id":"","pricing_plan_id":"free"},{"bike_id":"729e99be-c53a-46c6-94c2-9abcc6ed261f","system_id":"levelo_inurba_marseille","lat":43.284462,"lon":5.392121,"is_reserved":false,"is_disabled":false,"rental_uris":{"android":"levelo://app?vid=729e99be-c53a-46c6-94c2-9abcc6ed261f","ios":"levelo://app?vid=729e99be-c53a-46c6-94c2-9abcc6ed261f"},"vehicle_type_id":"4","last_reported":1702839891,"current_range_meters":23600,"station_id":"ce4bhoh2rcd13ifvqh5g","pricing_plan_id":"free"},{"bike_id":"6fbf6000-a81a-40e9-a3b8-f07a509ae220","system_id":"levelo_inurba_marseille","lat":43.284462,"lon":5.392121,"is_reserved":false,"is_disabled":false,"rental_uris":{"android":"levelo://app?vid=6fbf6000-a81a-40e9-a3b8-f07a509ae220","ios":"levelo://app?vid=6fbf6000-a81a-40e9-a3b8-f07a509ae220"},"vehicle_type_id":"4","last_reported":1702839891,"current_range_meters":6000,"station_id":"ce4bhoh2rcd13ifvqh5g","pricing_plan_id":"free"},{"bike_id":"c15a5e52-3f33-41f4-af7f-8c37b1f3e63a","system_id":"levelo_inurba_marseille","lat":43.285742,"lon":5.395004,"is_reserved":false,"is_disabled":false,"rental_uris":{"android":"levelo://app?vid=c15a5e52-3f33-41f4-af7f-8c37b1f3e63a","ios":"levelo://app?vid=c15a5e52-3f33-41f4-af7f-8c37b1f3e63a"},"vehicle_type_id":"4","last_reported":1702839891,"current_range_meters":19200,"station_id":"ce4bh292rcd13ifvqdg0","pricing_plan_id":"free"},{"bike_id":"0d5f0c75-54bc-425f-bc8e-5422da997b04","system_id":"levelo_inurba_marseille","lat":43.28573,"lon":5.394992,"is_reserved":false,"is_disabled":false,"rental_uris":{"android":"levelo://app?vid=0d5f0c75-54bc-425f-bc8e-5422da997b04","ios":"levelo://app?vid=0d5f0c75-54bc-425f-bc8e-5422da997b04"},"vehicle_type_id":"4","last_reported":1702839891,"current_range_meters":23600,"station_id":"ce4bh292rcd13ifvqdg0","pricing_plan_id":"free"},{"bike_id":"12315da7-3b45-43fd-974c-8a96b1f0ae1c","system_id":"levelo_inurba_marseille","lat":43.28573,"lon":5.394992,"is_reserved":false,"is_disabled":false,"rental_uris":{"android":"levelo://app?vid=12315da7-3b45-43fd-974c-8a96b1f0ae1c","ios":"levelo://app?vid=12315da7-3b45-43fd-974c-8a96b1f0ae1c"},"vehicle_type_id":"4","last_reported":1702839891,"current_range_meters":9200,"station_id":"ce4bh292rcd13ifvqdg0","pricing_plan_id":"free"},{"bike_id":"29de040c-9371-498e-8665-b73a3ba4c1f9","system_id":"levelo_inurba_marseille","lat":43.285742,"lon":5.395004,"is_reserved":false,"is_disabled":false,"rental_uris":{"android":"levelo://app?vid=29de040c-9371-498e-8665-b73a3ba4c1f9","ios":"levelo://app?vid=29de040c-9371-498e-8665-b73a3ba4c1f9"},"vehicle_type_id":"4","last_reported":1702839891,"current_range_meters":25200,"station_id":"ce4bh292rcd13ifvqdg0","pricing_plan_id":"free"},{"bike_id":"ba23a49f-f752-40f9-b881-d731ba920e07","system_id":"levelo_inurba_marseille","lat":43.326605,"lon":5.409903,"is_reserved":false,"is_disabled":false,"rental_uris":{"android":"levelo://app?vid=ba23a49f-f752-40f9-b881-d731ba920e07","ios":"levelo://app?vid=ba23a49f-f752-40f9-b881-d731ba920e07"},"vehicle_type_id":"4","last_reported":1702839891,"current_range_meters":25200,"station_id":"ce4bhpp2rcd13ifvqhgg","pricing_plan_id":"free"},{"bike_id":"647c4c8d-99b7-450a-a7e1-bc152ee316c5","system_id":"levelo_inurba_marseille","lat":43.304188,"lon":5.412904,"is_reserved":false,"is_disabled":false,"rental_uris":{"android":"levelo://app?vid=647c4c8d-99b7-450a-a7e1-bc152ee316c5","ios":"levelo://app?vid=647c4c8d-99b7-450a-a7e1-bc152ee316c5"},"vehicle_type_id":"4","last_reported":1702839891,"current_range_meters":20800,"station_id":"ce4bhop2rcd13ifvqh8g","pricing_plan_id":"free"},{"bike_id":"7b652222-c241-4144-b048-8fe60bb3a872","system_id":"levelo_inurba_marseille","lat":43.279087,"lon":5.380114,"is_reserved":false,"is_disabled":false,"rental_uris":{"android":"levelo://app?vid=7b652222-c241-4144-b048-8fe60bb3a872","ios":"levelo://app?vid=7b652222-c241-4144-b048-8fe60bb3a872"},"vehicle_type_id":"4","last_reported":1702839891,"current_range_meters":31200,"station_id":"ce4bhf92rcd13ifvqf50","pricing_plan_id":"free"},{"bike_id":"1749adfe-3426-4fb3-ac75-a7da66fe02b3","system_id":"levelo_inurba_marseille","lat":43.279087,"lon":5.380114,"is_reserved":false,"is_disabled":false,"rental_uris":{"android":"levelo://app?vid=1749adfe-3426-4fb3-ac75-a7da66fe02b3","ios":"levelo://app?vid=1749adfe-3426-4fb3-ac75-a7da66fe02b3"},"vehicle_type_id":"4","last_reported":1702839891,"current_range_meters":26800,"station_id":"ce4bhf92rcd13ifvqf50","pricing_plan_id":"free"},{"bike_id":"0885dd01-e271-4497-b363-0ea9d6555856","system_id":"levelo_inurba_marseille","lat":43.279087,"lon":5.380114,"is_reserved":false,"is_disabled":false,"rental_uris":{"android":"levelo://app?vid=0885dd01-e271-4497-b363-0ea9d6555856","ios":"levelo://app?vid=0885dd01-e271-4497-b363-0ea9d6555856"},"vehicle_type_id":"4","last_reported":1702839891,"current_range_meters":25200,"station_id":"ce4bhf92rcd13ifvqf50","pricing_plan_id":"free"},{"bike_id":"adc04715-dbbe-4d7f-a3ba-3ee4a59c5080","system_id":"levelo_inurba_marseille","lat":43.287154,"lon":5.399979,"is_reserved":false,"is_disabled":false,"rental_uris":{"android":"levelo://app?vid=adc04715-dbbe-4d7f-a3ba-3ee4a59c5080","ios":"levelo://app?vid=adc04715-dbbe-4d7f-a3ba-3ee4a59c5080"},"vehicle_type_id":"4","last_reported":1702839891,"current_range_meters":6000,"station_id":"ce4bho92rcd13ifvqh3g","pricing_plan_id":"free"},{"bike_id":"ef5cb19f-20a4-4812-9325-15fc9b8bebfa","system_id":"levelo_inurba_marseille","lat":43.27888,"lon":5.38007,"is_reserved":false,"is_disabled":false,"rental_uris":{"android":"levelo://app?vid=ef5cb19f-20a4-4812-9325-15fc9b8bebfa","ios":"levelo://app?vid=ef5cb19f-20a4-4812-9325-15fc9b8bebfa"},"vehicle_type_id":"4","last_reported":1702839891,"current_range_meters":24000,"station_id":"ce4bhf92rcd13ifvqf50","pricing_plan_id":"free"},{"bike_id":"22108b1c-5fc7-4b97-967f-5fd8edb3c448","system_id":"levelo_inurba_marseille","lat":43.299579,"lon":5.413255,"is_reserved":false,"is_disabled":false,"rental_uris":{"android":"levelo://app?vid=22108b1c-5fc7-4b97-967f-5fd8edb3c448","ios":"levelo://app?vid=22108b1c-5fc7-4b97-967f-5fd8edb3c448"},"vehicle_type_id":"4","last_reported":1702839891,"current_range_meters":27200,"station_id":"ce4bhp12rcd13ifvqh9g","pricing_plan_id":"free"},{"bike_id":"736fe630-e182-4549-b1a2-068f6f7e6901","system_id":"levelo_inurba_marseille","lat":43.2925,"lon":5.40907,"is_reserved":false,"is_disabled":false,"rental_uris":{"android":"levelo://app?vid=736fe630-e182-4549-b1a2-068f6f7e6901","ios":"levelo://app?vid=736fe630-e182-4549-b1a2-068f6f7e6901"},"vehicle_type_id":"4","last_reported":1702839891,"current_range_meters":0,"station_id":"ce4bh192rcd13ifvqdc0","pricing_plan_id":"free"},{"bike_id":"fce4fb24-8a42-4ef0-8fd6-e8a980267948","system_id":"levelo_inurba_marseille","lat":43.325233,"lon":5.414318,"is_reserved":false,"is_disabled":false,"rental_uris":{"android":"levelo://app?vid=fce4fb24-8a42-4ef0-8fd6-e8a980267948","ios":"levelo://app?vid=fce4fb24-8a42-4ef0-8fd6-e8a980267948"},"vehicle_type_id":"4","last_reported":1702839891,"current_range_meters":30400,"station_id":"ce4bhq12rcd13ifvqhhg","pricing_plan_id":"free"},{"bike_id":"78dbc347-4fad-4206-b033-0dcd3533c8e1","system_id":"levelo_inurba_marseille","lat":43.278399,"lon":5.392139,"is_reserved":false,"is_disabled":false,"rental_uris":{"android":"levelo://app?vid=78dbc347-4fad-4206-b033-0dcd3533c8e1","ios":"levelo://app?vid=78dbc347-4fad-4206-b033-0dcd3533c8e1"},"vehicle_type_id":"4","last_reported":1702839891,"current_range_meters":0,"station_id":"ce4bhjp2rcd13ifvqga0","pricing_plan_id":"free"},{"bike_id":"e97cfacb-2fd3-47b1-a05f-4061fb47afc3","system_id":"levelo_inurba_marseille","lat":43.336148,"lon":5.410349,"is_reserved":false,"is_disabled":false,"rental_uris":{"android":"levelo://app?vid=e97cfacb-2fd3-47b1-a05f-4061fb47afc3","ios":"levelo://app?vid=e97cfacb-2fd3-47b1-a05f-4061fb47afc3"},"vehicle_type_id":"4","last_reported":1702839891,"current_range_meters":4000,"station_id":"ce4bhqh2rcd13ifvqhmg","pricing_plan_id":"free"},{"bike_id":"ea3d35f6-b07e-4308-ae51-5376e9d8e7cc","system_id":"levelo_inurba_marseille","lat":43.273451,"lon":5.36457,"is_reserved":false,"is_disabled":false,"rental_uris":{"android":"levelo://app?vid=ea3d35f6-b07e-4308-ae51-5376e9d8e7cc","ios":"levelo://app?vid=ea3d35f6-b07e-4308-ae51-5376e9d8e7cc"},"vehicle_type_id":"4","last_reported":1702839891,"current_range_meters":10800,"station_id":"","pricing_plan_id":"free"},{"bike_id":"f97f3ae3-0746-4a73-8a97-072f8aa9cb10","system_id":"levelo_inurba_marseille","lat":43.310785,"lon":5.424305,"is_reserved":false,"is_disabled":false,"rental_uris":{"android":"levelo://app?vid=f97f3ae3-0746-4a73-8a97-072f8aa9cb10","ios":"levelo://app?vid=f97f3ae3-0746-4a73-8a97-072f8aa9cb10"},"vehicle_type_id":"4","last_reported":1702839891,"current_range_meters":31200,"station_id":"ce4bhp92rcd13ifvqhag","pricing_plan_id":"free"},{"bike_id":"3ca2c2d2-99b0-4aa6-a05d-e30f02e6a7fb","system_id":"levelo_inurba_marseille","lat":43.276092,"lon":5.395289,"is_reserved":false,"is_disabled":false,"rental_uris":{"android":"levelo://app?vid=3ca2c2d2-99b0-4aa6-a05d-e30f02e6a7fb","ios":"levelo://app?vid=3ca2c2d2-99b0-4aa6-a05d-e30f02e6a7fb"},"vehicle_type_id":"4","last_reported":1702839891,"current_range_meters":17600,"station_id":"","pricing_plan_id":"free"},{"bike_id":"b31cc55d-94ec-47c4-a18b-caaf3ff0a629","system_id":"levelo_inurba_marseille","lat":43.304096,"lon":5.425385,"is_reserved":false,"is_disabled":false,"rental_uris":{"android":"levelo://app?vid=b31cc55d-94ec-47c4-a18b-caaf3ff0a629","ios":"levelo://app?vid=b31cc55d-94ec-47c4-a18b-caaf3ff0a629"},"vehicle_type_id":"4","last_reported":1702839891,"current_range_meters":17600,"station_id":"ce4bhoh2rcd13ifvqh6g","pricing_plan_id":"free"},{"bike_id":"1bdc891d-fbe3-4200-bb2d-90f31499a11e","system_id":"levelo_inurba_marseille","lat":43.295523,"lon":5.422926,"is_reserved":false,"is_disabled":false,"rental_uris":{"android":"levelo://app?vid=1bdc891d-fbe3-4200-bb2d-90f31499a11e","ios":"levelo://app?vid=1bdc891d-fbe3-4200-bb2d-90f31499a11e"},"vehicle_type_id":"4","last_reported":1702839891,"current_range_meters":2400,"station_id":"ce4bhph2rcd13ifvqhdg","pricing_plan_id":"free"},{"bike_id":"6ce46d8b-eab3-4509-bce2-112ff2d1c3b6","system_id":"levelo_inurba_marseille","lat":43.295523,"lon":5.422926,"is_reserved":false,"is_disabled":false,"rental_uris":{"android":"levelo://app?vid=6ce46d8b-eab3-4509-bce2-112ff2d1c3b6","ios":"levelo://app?vid=6ce46d8b-eab3-4509-bce2-112ff2d1c3b6"},"vehicle_type_id":"4","last_reported":1702839891,"current_range_meters":10400,"station_id":"ce4bhph2rcd13ifvqhdg","pricing_plan_id":"free"},{"bike_id":"c3593738-67c8-4383-b91b-5758d2e1aa07","system_id":"levelo_inurba_marseille","lat":43.295511,"lon":5.422926,"is_reserved":false,"is_disabled":false,"rental_uris":{"android":"levelo://app?vid=c3593738-67c8-4383-b91b-5758d2e1aa07","ios":"levelo://app?vid=c3593738-67c8-4383-b91b-5758d2e1aa07"},"vehicle_type_id":"4","last_reported":1702839891,"current_range_meters":26400,"station_id":"ce4bhph2rcd13ifvqhdg","pricing_plan_id":"free"},{"bike_id":"bd889d21-a0bd-40b0-b41b-49629447ae8d","system_id":"levelo_inurba_marseille","lat":43.295511,"lon":5.422926,"is_reserved":false,"is_disabled":false,"rental_uris":{"android":"levelo://app?vid=bd889d21-a0bd-40b0-b41b-49629447ae8d","ios":"levelo://app?vid=bd889d21-a0bd-40b0-b41b-49629447ae8d"},"vehicle_type_id":"4","last_reported":1702839891,"current_range_meters":23600,"station_id":"ce4bhph2rcd13ifvqhdg","pricing_plan_id":"free"},{"bike_id":"628a1844-4de6-4ff8-b7b8-44bb12a39376","system_id":"levelo_inurba_marseille","lat":43.295511,"lon":5.422926,"is_reserved":false,"is_disabled":false,"rental_uris":{"android":"levelo://app?vid=628a1844-4de6-4ff8-b7b8-44bb12a39376","ios":"levelo://app?vid=628a1844-4de6-4ff8-b7b8-44bb12a39376"},"vehicle_type_id":"4","last_reported":1702839891,"current_range_meters":17600,"station_id":"ce4bhph2rcd13ifvqhdg","pricing_plan_id":"free"},{"bike_id":"7c5e5a9a-9f39-4a14-9573-d5b8ab599dd5","system_id":"levelo_inurba_marseille","lat":43.27188,"lon":5.39224,"is_reserved":false,"is_disabled":false,"rental_uris":{"android":"levelo://app?vid=7c5e5a9a-9f39-4a14-9573-d5b8ab599dd5","ios":"levelo://app?vid=7c5e5a9a-9f39-4a14-9573-d5b8ab599dd5"},"vehicle_type_id":"4","last_reported":1702839891,"current_range_meters":17200,"station_id":"ce4bhhp2rcd13ifvqfm0","pricing_plan_id":"free"},{"bike_id":"3ca807ae-0c0f-456a-ba65-facd790d95b1","system_id":"levelo_inurba_marseille","lat":43.278128,"lon":5.407195,"is_reserved":false,"is_disabled":false,"rental_uris":{"android":"levelo://app?vid=3ca807ae-0c0f-456a-ba65-facd790d95b1","ios":"levelo://app?vid=3ca807ae-0c0f-456a-ba65-facd790d95b1"},"vehicle_type_id":"4","last_reported":1702839891,"current_range_meters":5200,"station_id":"ce4bhnh2rcd13ifvqgtg","pricing_plan_id":"free"},{"bike_id":"49484e60-f8f7-4099-a194-850e2e238bf1","system_id":"levelo_inurba_marseille","lat":43.278128,"lon":5.407195,"is_reserved":false,"is_disabled":false,"rental_uris":{"android":"levelo://app?vid=49484e60-f8f7-4099-a194-850e2e238bf1","ios":"levelo://app?vid=49484e60-f8f7-4099-a194-850e2e238bf1"},"vehicle_type_id":"4","last_reported":1702839891,"current_range_meters":18400,"station_id":"ce4bhnh2rcd13ifvqgtg","pricing_plan_id":"free"},{"bike_id":"a896bfa2-3478-4b71-bf7d-c58661ee1b5a","system_id":"levelo_inurba_marseille","lat":43.278128,"lon":5.407195,"is_reserved":false,"is_disabled":false,"rental_uris":{"android":"levelo://app?vid=a896bfa2-3478-4b71-bf7d-c58661ee1b5a","ios":"levelo://app?vid=a896bfa2-3478-4b71-bf7d-c58661ee1b5a"},"vehicle_type_id":"4","last_reported":1702839891,"current_range_meters":11600,"station_id":"ce4bhnh2rcd13ifvqgtg","pricing_plan_id":"free"},{"bike_id":"cb1349af-d167-4749-90ed-30da85f59eea","system_id":"levelo_inurba_marseille","lat":43.278128,"lon":5.407195,"is_reserved":false,"is_disabled":false,"rental_uris":{"android":"levelo://app?vid=cb1349af-d167-4749-90ed-30da85f59eea","ios":"levelo://app?vid=cb1349af-d167-4749-90ed-30da85f59eea"},"vehicle_type_id":"4","last_reported":1702839891,"current_range_meters":22400,"station_id":"ce4bhnh2rcd13ifvqgtg","pricing_plan_id":"free"},{"bike_id":"53989e26-4507-4b2d-b9d4-b136f3984b7a","system_id":"levelo_inurba_marseille","lat":43.26957,"lon":5.38622,"is_reserved":false,"is_disabled":false,"rental_uris":{"android":"levelo://app?vid=53989e26-4507-4b2d-b9d4-b136f3984b7a","ios":"levelo://app?vid=53989e26-4507-4b2d-b9d4-b136f3984b7a"},"vehicle_type_id":"4","last_reported":1702839891,"current_range_meters":23600,"station_id":"ce4bhh92rcd13ifvqfh0","pricing_plan_id":"free"},{"bike_id":"32ff1737-7bda-4031-8382-878c33834030","system_id":"levelo_inurba_marseille","lat":43.27952,"lon":5.4104,"is_reserved":false,"is_disabled":false,"rental_uris":{"android":"levelo://app?vid=32ff1737-7bda-4031-8382-878c33834030","ios":"levelo://app?vid=32ff1737-7bda-4031-8382-878c33834030"},"vehicle_type_id":"4","last_reported":1702839891,"current_range_meters":3200,"station_id":"ce4bhnp2rcd13ifvqh0g","pricing_plan_id":"free"},{"bike_id":"e99bf7c3-6bad-4bca-bf07-91c5db8679a7","system_id":"levelo_inurba_marseille","lat":43.27946,"lon":5.4104,"is_reserved":false,"is_disabled":false,"rental_uris":{"android":"levelo://app?vid=e99bf7c3-6bad-4bca-bf07-91c5db8679a7","ios":"levelo://app?vid=e99bf7c3-6bad-4bca-bf07-91c5db8679a7"},"vehicle_type_id":"4","last_reported":1702839891,"current_range_meters":20400,"station_id":"ce4bhnp2rcd13ifvqh0g","pricing_plan_id":"free"},{"bike_id":"db774753-4382-453e-a138-c32d538f9839","system_id":"levelo_inurba_marseille","lat":43.358673,"lon":5.356739,"is_reserved":false,"is_disabled":false,"rental_uris":{"android":"levelo://app?vid=db774753-4382-453e-a138-c32d538f9839","ios":"levelo://app?vid=db774753-4382-453e-a138-c32d538f9839"},"vehicle_type_id":"4","last_reported":1702839891,"current_range_meters":10400,"station_id":"","pricing_plan_id":"free"},{"bike_id":"3ec397f0-b8da-4e84-be43-f4abb20ebecf","system_id":"levelo_inurba_marseille","lat":43.276604,"lon":5.411739,"is_reserved":false,"is_disabled":false,"rental_uris":{"android":"levelo://app?vid=3ec397f0-b8da-4e84-be43-f4abb20ebecf","ios":"levelo://app?vid=3ec397f0-b8da-4e84-be43-f4abb20ebecf"},"vehicle_type_id":"4","last_reported":1702839891,"current_range_meters":26800,"station_id":"","pricing_plan_id":"free"},{"bike_id":"8b9fef27-83d0-4ce4-a773-c05574fec50c","system_id":"levelo_inurba_marseille","lat":43.27996,"lon":5.416624,"is_reserved":false,"is_disabled":false,"rental_uris":{"android":"levelo://app?vid=8b9fef27-83d0-4ce4-a773-c05574fec50c","ios":"levelo://app?vid=8b9fef27-83d0-4ce4-a773-c05574fec50c"},"vehicle_type_id":"4","last_reported":1702839891,"current_range_meters":6000,"station_id":"ce4bho12rcd13ifvqh1g","pricing_plan_id":"free"},{"bike_id":"65775943-c61b-4f6b-8d98-0189049620fe","system_id":"levelo_inurba_marseille","lat":43.27996,"lon":5.416624,"is_reserved":false,"is_disabled":false,"rental_uris":{"android":"levelo://app?vid=65775943-c61b-4f6b-8d98-0189049620fe","ios":"levelo://app?vid=65775943-c61b-4f6b-8d98-0189049620fe"},"vehicle_type_id":"4","last_reported":1702839891,"current_range_meters":3200,"station_id":"ce4bho12rcd13ifvqh1g","pricing_plan_id":"free"},{"bike_id":"6abfd672-edce-4506-8ac1-6a27b1d3fe2a","system_id":"levelo_inurba_marseille","lat":43.27996,"lon":5.416624,"is_reserved":false,"is_disabled":false,"rental_uris":{"android":"levelo://app?vid=6abfd672-edce-4506-8ac1-6a27b1d3fe2a","ios":"levelo://app?vid=6abfd672-edce-4506-8ac1-6a27b1d3fe2a"},"vehicle_type_id":"4","last_reported":1702839891,"current_range_meters":6400,"station_id":"ce4bho12rcd13ifvqh1g","pricing_plan_id":"free"},{"bike_id":"26030a54-a29d-45bd-bdf0-bc6ffff500cf","system_id":"levelo_inurba_marseille","lat":43.271368,"lon":5.40928,"is_reserved":false,"is_disabled":false,"rental_uris":{"android":"levelo://app?vid=26030a54-a29d-45bd-bdf0-bc6ffff500cf","ios":"levelo://app?vid=26030a54-a29d-45bd-bdf0-bc6ffff500cf"},"vehicle_type_id":"4","last_reported":1702839891,"current_range_meters":7600,"station_id":"ce4bhl12rcd13ifvqgf0","pricing_plan_id":"free"},{"bike_id":"bf55f8cb-5fee-466f-93fc-36bd6e62a43a","system_id":"levelo_inurba_marseille","lat":43.267959,"lon":5.402687,"is_reserved":false,"is_disabled":false,"rental_uris":{"android":"levelo://app?vid=bf55f8cb-5fee-466f-93fc-36bd6e62a43a","ios":"levelo://app?vid=bf55f8cb-5fee-466f-93fc-36bd6e62a43a"},"vehicle_type_id":"4","last_reported":1702839891,"current_range_meters":20800,"station_id":"ce501612rcd8frsf0b60","pricing_plan_id":"free"},{"bike_id":"c2167490-6be9-498c-b423-bd4d5928adb2","system_id":"levelo_inurba_marseille","lat":43.298768,"lon":5.43643,"is_reserved":false,"is_disabled":false,"rental_uris":{"android":"levelo://app?vid=c2167490-6be9-498c-b423-bd4d5928adb2","ios":"levelo://app?vid=c2167490-6be9-498c-b423-bd4d5928adb2"},"vehicle_type_id":"4","last_reported":1702839891,"current_range_meters":16800,"station_id":"ce4bhpp2rcd13ifvqhfg","pricing_plan_id":"free"},{"bike_id":"ca24fd01-fe41-4594-99e5-b25e1c77639a","system_id":"levelo_inurba_marseille","lat":43.281548,"lon":5.42643,"is_reserved":false,"is_disabled":false,"rental_uris":{"android":"levelo://app?vid=ca24fd01-fe41-4594-99e5-b25e1c77639a","ios":"levelo://app?vid=ca24fd01-fe41-4594-99e5-b25e1c77639a"},"vehicle_type_id":"4","last_reported":1702839891,"current_range_meters":31200,"station_id":"ce4bhnh2rcd13ifvqgug","pricing_plan_id":"free"},{"bike_id":"82baed80-82a8-4a1a-ac7d-eb2a2bef5bc7","system_id":"levelo_inurba_marseille","lat":43.281548,"lon":5.42643,"is_reserved":false,"is_disabled":false,"rental_uris":{"android":"levelo://app?vid=82baed80-82a8-4a1a-ac7d-eb2a2bef5bc7","ios":"levelo://app?vid=82baed80-82a8-4a1a-ac7d-eb2a2bef5bc7"},"vehicle_type_id":"4","last_reported":1702839891,"current_range_meters":28800,"station_id":"ce4bhnh2rcd13ifvqgug","pricing_plan_id":"free"},{"bike_id":"789899a7-63a0-46b3-843c-64ff0b8e294b","system_id":"levelo_inurba_marseille","lat":43.28152,"lon":5.42639,"is_reserved":false,"is_disabled":false,"rental_uris":{"android":"levelo://app?vid=789899a7-63a0-46b3-843c-64ff0b8e294b","ios":"levelo://app?vid=789899a7-63a0-46b3-843c-64ff0b8e294b"},"vehicle_type_id":"4","last_reported":1702839891,"current_range_meters":2000,"station_id":"ce4bhnh2rcd13ifvqgug","pricing_plan_id":"free"},{"bike_id":"ddbf5051-c90b-46f5-bffe-7b7e7bcd726d","system_id":"levelo_inurba_marseille","lat":43.281548,"lon":5.42643,"is_reserved":false,"is_disabled":false,"rental_uris":{"android":"levelo://app?vid=ddbf5051-c90b-46f5-bffe-7b7e7bcd726d","ios":"levelo://app?vid=ddbf5051-c90b-46f5-bffe-7b7e7bcd726d"},"vehicle_type_id":"4","last_reported":1702839891,"current_range_meters":22400,"station_id":"ce4bhnh2rcd13ifvqgug","pricing_plan_id":"free"},{"bike_id":"6a2c27d7-6ee5-4de4-8f3d-1b53dc62a886","system_id":"levelo_inurba_marseille","lat":43.281548,"lon":5.42643,"is_reserved":false,"is_disabled":false,"rental_uris":{"android":"levelo://app?vid=6a2c27d7-6ee5-4de4-8f3d-1b53dc62a886","ios":"levelo://app?vid=6a2c27d7-6ee5-4de4-8f3d-1b53dc62a886"},"vehicle_type_id":"4","last_reported":1702839891,"current_range_meters":24000,"station_id":"ce4bhnh2rcd13ifvqgug","pricing_plan_id":"free"},{"bike_id":"6a24c9c2-0536-4d05-8056-8d8332f4bc28","system_id":"levelo_inurba_marseille","lat":43.27501,"lon":5.42446,"is_reserved":false,"is_disabled":false,"rental_uris":{"android":"levelo://app?vid=6a24c9c2-0536-4d05-8056-8d8332f4bc28","ios":"levelo://app?vid=6a24c9c2-0536-4d05-8056-8d8332f4bc28"},"vehicle_type_id":"4","last_reported":1702839891,"current_range_meters":23200,"station_id":"ce4bhn92rcd13ifvqgrg","pricing_plan_id":"free"},{"bike_id":"d2007443-4338-42cb-923c-147041d30edf","system_id":"levelo_inurba_marseille","lat":43.275028,"lon":5.424534,"is_reserved":false,"is_disabled":false,"rental_uris":{"android":"levelo://app?vid=d2007443-4338-42cb-923c-147041d30edf","ios":"levelo://app?vid=d2007443-4338-42cb-923c-147041d30edf"},"vehicle_type_id":"4","last_reported":1702839891,"current_range_meters":30800,"station_id":"ce4bhn92rcd13ifvqgrg","pricing_plan_id":"free"},{"bike_id":"b6836b5c-bf87-43d1-afcb-477e491235ab","system_id":"levelo_inurba_marseille","lat":43.260816,"lon":5.397618,"is_reserved":false,"is_disabled":false,"rental_uris":{"android":"levelo://app?vid=b6836b5c-bf87-43d1-afcb-477e491235ab","ios":"levelo://app?vid=b6836b5c-bf87-43d1-afcb-477e491235ab"},"vehicle_type_id":"4","last_reported":1702839891,"current_range_meters":0,"station_id":"","pricing_plan_id":"free"},{"bike_id":"2404f129-3094-46f1-903e-09d93e9d46df","system_id":"levelo_inurba_marseille","lat":43.25587,"lon":5.38227,"is_reserved":false,"is_disabled":false,"rental_uris":{"android":"levelo://app?vid=2404f129-3094-46f1-903e-09d93e9d46df","ios":"levelo://app?vid=2404f129-3094-46f1-903e-09d93e9d46df"},"vehicle_type_id":"4","last_reported":1702839891,"current_range_meters":0,"station_id":"ce4bhih2rcd13ifvqfs0","pricing_plan_id":"free"},{"bike_id":"894c7bfd-1457-4b5b-aa99-ce098fef9992","system_id":"levelo_inurba_marseille","lat":43.25822,"lon":5.39421,"is_reserved":false,"is_disabled":false,"rental_uris":{"android":"levelo://app?vid=894c7bfd-1457-4b5b-aa99-ce098fef9992","ios":"levelo://app?vid=894c7bfd-1457-4b5b-aa99-ce098fef9992"},"vehicle_type_id":"4","last_reported":1702839891,"current_range_meters":23200,"station_id":"ce4bhip2rcd13ifvqft0","pricing_plan_id":"free"},{"bike_id":"515d0fde-389d-4ed0-bbc2-8b970ea82a25","system_id":"levelo_inurba_marseille","lat":43.270721,"lon":5.422764,"is_reserved":false,"is_disabled":false,"rental_uris":{"android":"levelo://app?vid=515d0fde-389d-4ed0-bbc2-8b970ea82a25","ios":"levelo://app?vid=515d0fde-389d-4ed0-bbc2-8b970ea82a25"},"vehicle_type_id":"4","last_reported":1702839891,"current_range_meters":4800,"station_id":"ce4bhk92rcd13ifvqgb0","pricing_plan_id":"free"},{"bike_id":"4675c895-b883-447a-b13a-959de327057b","system_id":"levelo_inurba_marseille","lat":43.258658,"lon":5.398935,"is_reserved":false,"is_disabled":false,"rental_uris":{"android":"levelo://app?vid=4675c895-b883-447a-b13a-959de327057b","ios":"levelo://app?vid=4675c895-b883-447a-b13a-959de327057b"},"vehicle_type_id":"4","last_reported":1702839891,"current_range_meters":9600,"station_id":"ce4bhl92rcd13ifvqghg","pricing_plan_id":"free"},{"bike_id":"2d57c9a4-fa6f-4edf-857b-107297fcf971","system_id":"levelo_inurba_marseille","lat":43.258658,"lon":5.398935,"is_reserved":false,"is_disabled":false,"rental_uris":{"android":"levelo://app?vid=2d57c9a4-fa6f-4edf-857b-107297fcf971","ios":"levelo://app?vid=2d57c9a4-fa6f-4edf-857b-107297fcf971"},"vehicle_type_id":"4","last_reported":1702839891,"current_range_meters":0,"station_id":"ce4bhl92rcd13ifvqghg","pricing_plan_id":"free"},{"bike_id":"82d9b786-2d01-49f9-96bc-6cb49865c2cc","system_id":"levelo_inurba_marseille","lat":43.259009,"lon":5.40929,"is_reserved":false,"is_disabled":false,"rental_uris":{"android":"levelo://app?vid=82d9b786-2d01-49f9-96bc-6cb49865c2cc","ios":"levelo://app?vid=82d9b786-2d01-49f9-96bc-6cb49865c2cc"},"vehicle_type_id":"4","last_reported":1702839891,"current_range_meters":0,"station_id":"ce4bhm92rcd13ifvqglg","pricing_plan_id":"free"},{"bike_id":"12e6f69a-c21c-4196-9de8-7fc6dbb8d05e","system_id":"levelo_inurba_marseille","lat":43.25932,"lon":5.40908,"is_reserved":false,"is_disabled":false,"rental_uris":{"android":"levelo://app?vid=12e6f69a-c21c-4196-9de8-7fc6dbb8d05e","ios":"levelo://app?vid=12e6f69a-c21c-4196-9de8-7fc6dbb8d05e"},"vehicle_type_id":"4","last_reported":1702839891,"current_range_meters":17200,"station_id":"ce4bhm92rcd13ifvqglg","pricing_plan_id":"free"},{"bike_id":"61a4c449-70c1-4d31-941e-a3fe596474dd","system_id":"levelo_inurba_marseille","lat":43.259278,"lon":5.409126,"is_reserved":false,"is_disabled":false,"rental_uris":{"android":"levelo://app?vid=61a4c449-70c1-4d31-941e-a3fe596474dd","ios":"levelo://app?vid=61a4c449-70c1-4d31-941e-a3fe596474dd"},"vehicle_type_id":"4","last_reported":1702839891,"current_range_meters":30800,"station_id":"ce4bhm92rcd13ifvqglg","pricing_plan_id":"free"},{"bike_id":"d88d2000-998d-46ba-bea0-24cc5387513c","system_id":"levelo_inurba_marseille","lat":43.25722,"lon":5.41107,"is_reserved":false,"is_disabled":false,"rental_uris":{"android":"levelo://app?vid=d88d2000-998d-46ba-bea0-24cc5387513c","ios":"levelo://app?vid=d88d2000-998d-46ba-bea0-24cc5387513c"},"vehicle_type_id":"4","last_reported":1702839891,"current_range_meters":1600,"station_id":"ce4bhkp2rcd13ifvqgd0","pricing_plan_id":"free"},{"bike_id":"458f438c-c772-4f53-bea4-5f5d58494161","system_id":"levelo_inurba_marseille","lat":43.250009,"lon":5.389195,"is_reserved":false,"is_disabled":false,"rental_uris":{"android":"levelo://app?vid=458f438c-c772-4f53-bea4-5f5d58494161","ios":"levelo://app?vid=458f438c-c772-4f53-bea4-5f5d58494161"},"vehicle_type_id":"4","last_reported":1702839891,"current_range_meters":16800,"station_id":"ce4bhgp2rcd13ifvqfd0","pricing_plan_id":"free"},{"bike_id":"f05adf45-6799-4a9e-98f3-1637de8c8916","system_id":"levelo_inurba_marseille","lat":43.250023,"lon":5.38919,"is_reserved":false,"is_disabled":false,"rental_uris":{"android":"levelo://app?vid=f05adf45-6799-4a9e-98f3-1637de8c8916","ios":"levelo://app?vid=f05adf45-6799-4a9e-98f3-1637de8c8916"},"vehicle_type_id":"4","last_reported":1702839891,"current_range_meters":16400,"station_id":"ce4bhgp2rcd13ifvqfd0","pricing_plan_id":"free"},{"bike_id":"17ec82a7-a075-4c53-84c1-a60158f8545d","system_id":"levelo_inurba_marseille","lat":43.250966,"lon":5.395186,"is_reserved":false,"is_disabled":false,"rental_uris":{"android":"levelo://app?vid=17ec82a7-a075-4c53-84c1-a60158f8545d","ios":"levelo://app?vid=17ec82a7-a075-4c53-84c1-a60158f8545d"},"vehicle_type_id":"4","last_reported":1702839891,"current_range_meters":32000,"station_id":"ce4bhm12rcd13ifvqgkg","pricing_plan_id":"free"},{"bike_id":"c1990bdb-4017-4dd6-b9ba-79a531ab0cee","system_id":"levelo_inurba_marseille","lat":43.250966,"lon":5.395186,"is_reserved":false,"is_disabled":false,"rental_uris":{"android":"levelo://app?vid=c1990bdb-4017-4dd6-b9ba-79a531ab0cee","ios":"levelo://app?vid=c1990bdb-4017-4dd6-b9ba-79a531ab0cee"},"vehicle_type_id":"4","last_reported":1702839891,"current_range_meters":17200,"station_id":"ce4bhm12rcd13ifvqgkg","pricing_plan_id":"free"},{"bike_id":"c2c0979d-9cc3-473b-a5f4-b75a1728b955","system_id":"levelo_inurba_marseille","lat":43.250966,"lon":5.395186,"is_reserved":false,"is_disabled":false,"rental_uris":{"android":"levelo://app?vid=c2c0979d-9cc3-473b-a5f4-b75a1728b955","ios":"levelo://app?vid=c2c0979d-9cc3-473b-a5f4-b75a1728b955"},"vehicle_type_id":"4","last_reported":1702839891,"current_range_meters":29600,"station_id":"ce4bhm12rcd13ifvqgkg","pricing_plan_id":"free"},{"bike_id":"1e3f0e65-d4f8-4a80-9ec3-0d49c53493b9","system_id":"levelo_inurba_marseille","lat":43.250966,"lon":5.395186,"is_reserved":false,"is_disabled":false,"rental_uris":{"android":"levelo://app?vid=1e3f0e65-d4f8-4a80-9ec3-0d49c53493b9","ios":"levelo://app?vid=1e3f0e65-d4f8-4a80-9ec3-0d49c53493b9"},"vehicle_type_id":"4","last_reported":1702839891,"current_range_meters":9600,"station_id":"ce4bhm12rcd13ifvqgkg","pricing_plan_id":"free"},{"bike_id":"5065f1c1-0d9e-438b-a54c-a6bd79eab63b","system_id":"levelo_inurba_marseille","lat":43.2508,"lon":5.39519,"is_reserved":false,"is_disabled":false,"rental_uris":{"android":"levelo://app?vid=5065f1c1-0d9e-438b-a54c-a6bd79eab63b","ios":"levelo://app?vid=5065f1c1-0d9e-438b-a54c-a6bd79eab63b"},"vehicle_type_id":"4","last_reported":1702839891,"current_range_meters":16000,"station_id":"ce4bhm12rcd13ifvqgkg","pricing_plan_id":"free"},{"bike_id":"46edb3d8-c64d-42db-8e6a-ef63a2a0c805","system_id":"levelo_inurba_marseille","lat":43.24693,"lon":5.382096,"is_reserved":false,"is_disabled":false,"rental_uris":{"android":"levelo://app?vid=46edb3d8-c64d-42db-8e6a-ef63a2a0c805","ios":"levelo://app?vid=46edb3d8-c64d-42db-8e6a-ef63a2a0c805"},"vehicle_type_id":"4","last_reported":1702839891,"current_range_meters":11600,"station_id":"ce4bhih2rcd13ifvqfr0","pricing_plan_id":"free"},{"bike_id":"a7b2c679-a700-48f4-8f38-fea952b39ac6","system_id":"levelo_inurba_marseille","lat":43.24693,"lon":5.382096,"is_reserved":false,"is_disabled":false,"rental_uris":{"android":"levelo://app?vid=a7b2c679-a700-48f4-8f38-fea952b39ac6","ios":"levelo://app?vid=a7b2c679-a700-48f4-8f38-fea952b39ac6"},"vehicle_type_id":"4","last_reported":1702839891,"current_range_meters":20000,"station_id":"ce4bhih2rcd13ifvqfr0","pricing_plan_id":"free"},{"bike_id":"49736bf4-0f56-4b62-858d-fd0c6b53c171","system_id":"levelo_inurba_marseille","lat":43.25102,"lon":5.403214,"is_reserved":false,"is_disabled":false,"rental_uris":{"android":"levelo://app?vid=49736bf4-0f56-4b62-858d-fd0c6b53c171","ios":"levelo://app?vid=49736bf4-0f56-4b62-858d-fd0c6b53c171"},"vehicle_type_id":"4","last_reported":1702839891,"current_range_meters":24800,"station_id":"ce4bhlh2rcd13ifvqgig","pricing_plan_id":"free"},{"bike_id":"0e479667-b9b1-4650-bb39-956dc638fa4e","system_id":"levelo_inurba_marseille","lat":43.25102,"lon":5.403214,"is_reserved":false,"is_disabled":false,"rental_uris":{"android":"levelo://app?vid=0e479667-b9b1-4650-bb39-956dc638fa4e","ios":"levelo://app?vid=0e479667-b9b1-4650-bb39-956dc638fa4e"},"vehicle_type_id":"4","last_reported":1702839891,"current_range_meters":19600,"station_id":"ce4bhlh2rcd13ifvqgig","pricing_plan_id":"free"},{"bike_id":"1a4f327e-cf97-49cf-b242-87c2e19e8eb8","system_id":"levelo_inurba_marseille","lat":43.25102,"lon":5.403214,"is_reserved":false,"is_disabled":false,"rental_uris":{"android":"levelo://app?vid=1a4f327e-cf97-49cf-b242-87c2e19e8eb8","ios":"levelo://app?vid=1a4f327e-cf97-49cf-b242-87c2e19e8eb8"},"vehicle_type_id":"4","last_reported":1702839891,"current_range_meters":4800,"station_id":"ce4bhlh2rcd13ifvqgig","pricing_plan_id":"free"},{"bike_id":"ff87c97a-8d50-4ebb-a273-c67feb832d49","system_id":"levelo_inurba_marseille","lat":43.25102,"lon":5.403214,"is_reserved":false,"is_disabled":false,"rental_uris":{"android":"levelo://app?vid=ff87c97a-8d50-4ebb-a273-c67feb832d49","ios":"levelo://app?vid=ff87c97a-8d50-4ebb-a273-c67feb832d49"},"vehicle_type_id":"4","last_reported":1702839891,"current_range_meters":26800,"station_id":"ce4bhlh2rcd13ifvqgig","pricing_plan_id":"free"},{"bike_id":"c7978104-24ef-4e1d-8dc8-cc046b6c7589","system_id":"levelo_inurba_marseille","lat":43.243884,"lon":5.370737,"is_reserved":false,"is_disabled":false,"rental_uris":{"android":"levelo://app?vid=c7978104-24ef-4e1d-8dc8-cc046b6c7589","ios":"levelo://app?vid=c7978104-24ef-4e1d-8dc8-cc046b6c7589"},"vehicle_type_id":"4","last_reported":1702839891,"current_range_meters":22400,"station_id":"ce4bhhh2rcd13ifvqfk0","pricing_plan_id":"free"},{"bike_id":"c26d6df2-50c5-4e14-9967-4ccd466285c9","system_id":"levelo_inurba_marseille","lat":43.243884,"lon":5.370736,"is_reserved":false,"is_disabled":false,"rental_uris":{"android":"levelo://app?vid=c26d6df2-50c5-4e14-9967-4ccd466285c9","ios":"levelo://app?vid=c26d6df2-50c5-4e14-9967-4ccd466285c9"},"vehicle_type_id":"4","last_reported":1702839891,"current_range_meters":28400,"station_id":"ce4bhhh2rcd13ifvqfk0","pricing_plan_id":"free"},{"bike_id":"fe15f254-4446-453f-bfd7-f986bc6ceb05","system_id":"levelo_inurba_marseille","lat":43.243884,"lon":5.370737,"is_reserved":false,"is_disabled":false,"rental_uris":{"android":"levelo://app?vid=fe15f254-4446-453f-bfd7-f986bc6ceb05","ios":"levelo://app?vid=fe15f254-4446-453f-bfd7-f986bc6ceb05"},"vehicle_type_id":"4","last_reported":1702839891,"current_range_meters":16000,"station_id":"ce4bhhh2rcd13ifvqfk0","pricing_plan_id":"free"},{"bike_id":"f8278e08-8947-417c-99f2-ea2400097ac8","system_id":"levelo_inurba_marseille","lat":43.245581,"lon":5.395069,"is_reserved":false,"is_disabled":false,"rental_uris":{"android":"levelo://app?vid=f8278e08-8947-417c-99f2-ea2400097ac8","ios":"levelo://app?vid=f8278e08-8947-417c-99f2-ea2400097ac8"},"vehicle_type_id":"4","last_reported":1702839891,"current_range_meters":26400,"station_id":"ce4bhlp2rcd13ifvqgjg","pricing_plan_id":"free"},{"bike_id":"bfc09dd1-ee9f-467a-8fd9-017443a3e28a","system_id":"levelo_inurba_marseille","lat":43.24549,"lon":5.39524,"is_reserved":false,"is_disabled":false,"rental_uris":{"android":"levelo://app?vid=bfc09dd1-ee9f-467a-8fd9-017443a3e28a","ios":"levelo://app?vid=bfc09dd1-ee9f-467a-8fd9-017443a3e28a"},"vehicle_type_id":"4","last_reported":1702839891,"current_range_meters":0,"station_id":"ce4bhlp2rcd13ifvqgjg","pricing_plan_id":"free"},{"bike_id":"de16e32e-95e8-41ca-ac3c-687d8db6550f","system_id":"levelo_inurba_marseille","lat":43.245581,"lon":5.395069,"is_reserved":false,"is_disabled":false,"rental_uris":{"android":"levelo://app?vid=de16e32e-95e8-41ca-ac3c-687d8db6550f","ios":"levelo://app?vid=de16e32e-95e8-41ca-ac3c-687d8db6550f"},"vehicle_type_id":"4","last_reported":1702839891,"current_range_meters":22000,"station_id":"ce4bhlp2rcd13ifvqgjg","pricing_plan_id":"free"},{"bike_id":"81aa4bb6-e1ec-4401-9a4f-6a3d5c4ee44a","system_id":"levelo_inurba_marseille","lat":43.245581,"lon":5.395069,"is_reserved":false,"is_disabled":false,"rental_uris":{"android":"levelo://app?vid=81aa4bb6-e1ec-4401-9a4f-6a3d5c4ee44a","ios":"levelo://app?vid=81aa4bb6-e1ec-4401-9a4f-6a3d5c4ee44a"},"vehicle_type_id":"4","last_reported":1702839891,"current_range_meters":23200,"station_id":"ce4bhlp2rcd13ifvqgjg","pricing_plan_id":"free"},{"bike_id":"1298c8d1-99b7-490b-bf5e-0bb55da7ec27","system_id":"levelo_inurba_marseille","lat":43.245581,"lon":5.395069,"is_reserved":false,"is_disabled":false,"rental_uris":{"android":"levelo://app?vid=1298c8d1-99b7-490b-bf5e-0bb55da7ec27","ios":"levelo://app?vid=1298c8d1-99b7-490b-bf5e-0bb55da7ec27"},"vehicle_type_id":"4","last_reported":1702839891,"current_range_meters":18400,"station_id":"ce4bhlp2rcd13ifvqgjg","pricing_plan_id":"free"},{"bike_id":"06bea5c1-932e-4686-a69e-73c3a94a649c","system_id":"levelo_inurba_marseille","lat":43.24076,"lon":5.37766,"is_reserved":false,"is_disabled":false,"rental_uris":{"android":"levelo://app?vid=06bea5c1-932e-4686-a69e-73c3a94a649c","ios":"levelo://app?vid=06bea5c1-932e-4686-a69e-73c3a94a649c"},"vehicle_type_id":"4","last_reported":1702839891,"current_range_meters":29600,"station_id":"ce4bhnp2rcd13ifvqgvg","pricing_plan_id":"free"},{"bike_id":"aa97c409-4ac7-48ec-8a79-8af04518d4fe","system_id":"levelo_inurba_marseille","lat":43.240623,"lon":5.377642,"is_reserved":false,"is_disabled":false,"rental_uris":{"android":"levelo://app?vid=aa97c409-4ac7-48ec-8a79-8af04518d4fe","ios":"levelo://app?vid=aa97c409-4ac7-48ec-8a79-8af04518d4fe"},"vehicle_type_id":"4","last_reported":1702839891,"current_range_meters":17200,"station_id":"ce4bhnp2rcd13ifvqgvg","pricing_plan_id":"free"},{"bike_id":"bf18716f-b52c-4345-a69f-b9b1cd13bfa8","system_id":"levelo_inurba_marseille","lat":43.24073,"lon":5.3776,"is_reserved":false,"is_disabled":false,"rental_uris":{"android":"levelo://app?vid=bf18716f-b52c-4345-a69f-b9b1cd13bfa8","ios":"levelo://app?vid=bf18716f-b52c-4345-a69f-b9b1cd13bfa8"},"vehicle_type_id":"4","last_reported":1702839891,"current_range_meters":0,"station_id":"ce4bhnp2rcd13ifvqgvg","pricing_plan_id":"free"},{"bike_id":"06b4f2b0-f274-474c-a1c2-df6e6c70ba20","system_id":"levelo_inurba_marseille","lat":43.240673,"lon":5.377613,"is_reserved":false,"is_disabled":false,"rental_uris":{"android":"levelo://app?vid=06b4f2b0-f274-474c-a1c2-df6e6c70ba20","ios":"levelo://app?vid=06b4f2b0-f274-474c-a1c2-df6e6c70ba20"},"vehicle_type_id":"4","last_reported":1702839891,"current_range_meters":31200,"station_id":"ce4bhnp2rcd13ifvqgvg","pricing_plan_id":"free"},{"bike_id":"348c8008-eb97-45e9-b5a7-a3bb3c3d64df","system_id":"levelo_inurba_marseille","lat":43.240626,"lon":5.377568,"is_reserved":false,"is_disabled":false,"rental_uris":{"android":"levelo://app?vid=348c8008-eb97-45e9-b5a7-a3bb3c3d64df","ios":"levelo://app?vid=348c8008-eb97-45e9-b5a7-a3bb3c3d64df"},"vehicle_type_id":"4","last_reported":1702839891,"current_range_meters":19200,"station_id":"ce4bhnp2rcd13ifvqgvg","pricing_plan_id":"free"},{"bike_id":"ab53bb42-61c7-49e6-9264-16f1931406aa","system_id":"levelo_inurba_marseille","lat":43.23965,"lon":5.36622,"is_reserved":false,"is_disabled":false,"rental_uris":{"android":"levelo://app?vid=ab53bb42-61c7-49e6-9264-16f1931406aa","ios":"levelo://app?vid=ab53bb42-61c7-49e6-9264-16f1931406aa"},"vehicle_type_id":"4","last_reported":1702839891,"current_range_meters":20800,"station_id":"ce4bhi12rcd13ifvqfp0","pricing_plan_id":"free"},{"bike_id":"630cf2f9-baf1-4860-be47-7a66ce2ac839","system_id":"levelo_inurba_marseille","lat":43.23959,"lon":5.3663,"is_reserved":false,"is_disabled":false,"rental_uris":{"android":"levelo://app?vid=630cf2f9-baf1-4860-be47-7a66ce2ac839","ios":"levelo://app?vid=630cf2f9-baf1-4860-be47-7a66ce2ac839"},"vehicle_type_id":"4","last_reported":1702839891,"current_range_meters":24000,"station_id":"ce4bhi12rcd13ifvqfp0","pricing_plan_id":"free"},{"bike_id":"391d21ee-50f4-4ad5-9205-d2446648b03a","system_id":"levelo_inurba_marseille","lat":43.239588,"lon":5.366238,"is_reserved":false,"is_disabled":false,"rental_uris":{"android":"levelo://app?vid=391d21ee-50f4-4ad5-9205-d2446648b03a","ios":"levelo://app?vid=391d21ee-50f4-4ad5-9205-d2446648b03a"},"vehicle_type_id":"4","last_reported":1702839891,"current_range_meters":28000,"station_id":"ce4bhi12rcd13ifvqfp0","pricing_plan_id":"free"},{"bike_id":"27ba2b70-7808-484e-9ba2-68ee6811dbcf","system_id":"levelo_inurba_marseille","lat":43.241782,"lon":5.397261,"is_reserved":false,"is_disabled":false,"rental_uris":{"android":"levelo://app?vid=27ba2b70-7808-484e-9ba2-68ee6811dbcf","ios":"levelo://app?vid=27ba2b70-7808-484e-9ba2-68ee6811dbcf"},"vehicle_type_id":"4","last_reported":1702839891,"current_range_meters":31200,"station_id":"ce4bhn12rcd13ifvqgpg","pricing_plan_id":"free"},{"bike_id":"7544b8c0-a29f-44c5-8842-21760cbddff8","system_id":"levelo_inurba_marseille","lat":43.241782,"lon":5.397261,"is_reserved":false,"is_disabled":false,"rental_uris":{"android":"levelo://app?vid=7544b8c0-a29f-44c5-8842-21760cbddff8","ios":"levelo://app?vid=7544b8c0-a29f-44c5-8842-21760cbddff8"},"vehicle_type_id":"4","last_reported":1702839891,"current_range_meters":12400,"station_id":"ce4bhn12rcd13ifvqgpg","pricing_plan_id":"free"},{"bike_id":"b1a5513e-82e0-4056-9d3f-b0751052c966","system_id":"levelo_inurba_marseille","lat":43.241782,"lon":5.397261,"is_reserved":false,"is_disabled":false,"rental_uris":{"android":"levelo://app?vid=b1a5513e-82e0-4056-9d3f-b0751052c966","ios":"levelo://app?vid=b1a5513e-82e0-4056-9d3f-b0751052c966"},"vehicle_type_id":"4","last_reported":1702839891,"current_range_meters":7200,"station_id":"ce4bhn12rcd13ifvqgpg","pricing_plan_id":"free"},{"bike_id":"83e81e69-db0f-47f9-a374-f01b664427a3","system_id":"levelo_inurba_marseille","lat":43.241782,"lon":5.397261,"is_reserved":false,"is_disabled":false,"rental_uris":{"android":"levelo://app?vid=83e81e69-db0f-47f9-a374-f01b664427a3","ios":"levelo://app?vid=83e81e69-db0f-47f9-a374-f01b664427a3"},"vehicle_type_id":"4","last_reported":1702839891,"current_range_meters":25600,"station_id":"ce4bhn12rcd13ifvqgpg","pricing_plan_id":"free"},{"bike_id":"8fa8dcad-9213-4682-9e78-bced4d248910","system_id":"levelo_inurba_marseille","lat":43.23197,"lon":5.35545,"is_reserved":false,"is_disabled":false,"rental_uris":{"android":"levelo://app?vid=8fa8dcad-9213-4682-9e78-bced4d248910","ios":"levelo://app?vid=8fa8dcad-9213-4682-9e78-bced4d248910"},"vehicle_type_id":"4","last_reported":1702839891,"current_range_meters":11200,"station_id":"ce4bhu92rcd13ifvqi70","pricing_plan_id":"free"},{"bike_id":"deb8549c-895f-4c6d-b68c-130ea343f1e6","system_id":"levelo_inurba_marseille","lat":43.23194,"lon":5.35555,"is_reserved":false,"is_disabled":false,"rental_uris":{"android":"levelo://app?vid=deb8549c-895f-4c6d-b68c-130ea343f1e6","ios":"levelo://app?vid=deb8549c-895f-4c6d-b68c-130ea343f1e6"},