{"last_updated":1701846405,"ttl":30,"version":"2.2","data":{"bikes":[{"bike_id":"e00719ba-086a-47b3-8f4f-3f2634239513","system_id":"levelo_inurba_marseille","lat":43.313391,"lon":5.36706,"is_reserved":false,"is_disabled":false,"rental_uris":{"android":"levelo://app?vid=e00719ba-086a-47b3-8f4f-3f2634239513","ios":"levelo://app?vid=e00719ba-086a-47b3-8f4f-3f2634239513"},"vehicle_type_id":"4","last_reported":1701846405,"current_range_meters":27600,"station_id":"ce4bgr92rcd13ifvqc6g","pricing_plan_id":"free"},{"bike_id":"4823973d-d09b-4cd0-9bae-f0a538770670","system_id":"levelo_inurba_marseille","lat":43.31341,"lon":5.367098,"is_reserved":false,"is_disabled":false,"rental_uris":{"android":"levelo://app?vid=4823973d-d09b-4cd0-9bae-f0a538770670","ios":"levelo://app?vid=4823973d-d09b-4cd0-9bae-f0a538770670"},"vehicle_type_id":"4","last_reported":1701846405,"current_range_meters":20400,"station_id":"ce4bgr92rcd13ifvqc6g","pricing_plan_id":"free"},{"bike_id":"b6d54a48-902c-426a-b11c-618be86c2cb1","system_id":"levelo_inurba_marseille","lat":43.312239,"lon":5.368562,"is_reserved":false,"is_disabled":false,"rental_uris":{"android":"levelo://app?vid=b6d54a48-902c-426a-b11c-618be86c2cb1","ios":"levelo://app?vid=b6d54a48-902c-426a-b11c-618be86c2cb1"},"vehicle_type_id":"4","last_reported":1701846405,"current_range_meters":28400,"station_id":"ce4bgl92rcd13ifvqbq0","pricing_plan_id":"free"},{"bike_id":"4093627f-5da6-4a2c-a1bb-1cd39e8119df","system_id":"levelo_inurba_marseille","lat":43.312239,"lon":5.368562,"is_reserved":false,"is_disabled":false,"rental_uris":{"android":"levelo://app?vid=4093627f-5da6-4a2c-a1bb-1cd39e8119df","ios":"levelo://app?vid=4093627f-5da6-4a2c-a1bb-1cd39e8119df"},"vehicle_type_id":"4","last_reported":1701846405,"current_range_meters":20400,"station_id":"ce4bgl92rcd13ifvqbq0","pricing_plan_id":"free"},{"bike_id":"fe8ed160-a46b-428b-aa46-aa71955dbaf9","system_id":"levelo_inurba_marseille","lat":43.312239,"lon":5.368562,"is_reserved":false,"is_disabled":false,"rental_uris":{"android":"levelo://app?vid=fe8ed160-a46b-428b-aa46-aa71955dbaf9","ios":"levelo://app?vid=fe8ed160-a46b-428b-aa46-aa71955dbaf9"},"vehicle_type_id":"4","last_reported":1701846405,"current_range_meters":16400,"station_id":"ce4bgl92rcd13ifvqbq0","pricing_plan_id":"free"},{"bike_id":"dcb43cd7-88c8-4dcf-a960-ae5b43dabc47","system_id":"levelo_inurba_marseille","lat":43.312239,"lon":5.368562,"is_reserved":false,"is_disabled":false,"rental_uris":{"android":"levelo://app?vid=dcb43cd7-88c8-4dcf-a960-ae5b43dabc47","ios":"levelo://app?vid=dcb43cd7-88c8-4dcf-a960-ae5b43dabc47"},"vehicle_type_id":"4","last_reported":1701846405,"current_range_meters":20800,"station_id":"ce4bgl92rcd13ifvqbq0","pricing_plan_id":"free"},{"bike_id":"a4a3a6f5-6956-4dc3-818a-cfb5b5452cbe","system_id":"levelo_inurba_marseille","lat":43.312239,"lon":5.368562,"is_reserved":false,"is_disabled":false,"rental_uris":{"android":"levelo://app?vid=a4a3a6f5-6956-4dc3-818a-cfb5b5452cbe","ios":"levelo://app?vid=a4a3a6f5-6956-4dc3-818a-cfb5b5452cbe"},"vehicle_type_id":"4","last_reported":1701846405,"current_range_meters":24400,"station_id":"ce4bgl92rcd13ifvqbq0","pricing_plan_id":"free"},{"bike_id":"7dc4670a-28b4-4825-a9a8-63e11bd07e96","system_id":"levelo_inurba_marseille","lat":43.309076,"lon":5.368465,"is_reserved":false,"is_disabled":false,"rental_uris":{"android":"levelo://app?vid=7dc4670a-28b4-4825-a9a8-63e11bd07e96","ios":"levelo://app?vid=7dc4670a-28b4-4825-a9a8-63e11bd07e96"},"vehicle_type_id":"4","last_reported":1701846405,"current_range_meters":27600,"station_id":"ce4bgn92rcd13ifvqbvg","pricing_plan_id":"free"},{"bike_id":"ea63cac6-15ca-468b-aab4-c09625efa6da","system_id":"levelo_inurba_marseille","lat":43.314811,"lon":5.373103,"is_reserved":false,"is_disabled":false,"rental_uris":{"android":"levelo://app?vid=ea63cac6-15ca-468b-aab4-c09625efa6da","ios":"levelo://app?vid=ea63cac6-15ca-468b-aab4-c09625efa6da"},"vehicle_type_id":"4","last_reported":1701846405,"current_range_meters":7200,"station_id":"ce4bgt12rcd13ifvqcd0","pricing_plan_id":"free"},{"bike_id":"c0cdb455-7ae6-4922-8bcf-32f586157c61","system_id":"levelo_inurba_marseille","lat":43.309039,"lon":5.371797,"is_reserved":false,"is_disabled":false,"rental_uris":{"android":"levelo://app?vid=c0cdb455-7ae6-4922-8bcf-32f586157c61","ios":"levelo://app?vid=c0cdb455-7ae6-4922-8bcf-32f586157c61"},"vehicle_type_id":"4","last_reported":1701846405,"current_range_meters":26400,"station_id":"ce4bguh2rcd13ifvqckg","pricing_plan_id":"free"},{"bike_id":"3f09dec8-9b79-4492-ad5d-712106a3f9be","system_id":"levelo_inurba_marseille","lat":43.309039,"lon":5.371797,"is_reserved":false,"is_disabled":false,"rental_uris":{"android":"levelo://app?vid=3f09dec8-9b79-4492-ad5d-712106a3f9be","ios":"levelo://app?vid=3f09dec8-9b79-4492-ad5d-712106a3f9be"},"vehicle_type_id":"4","last_reported":1701846405,"current_range_meters":30800,"station_id":"ce4bguh2rcd13ifvqckg","pricing_plan_id":"free"},{"bike_id":"cfbfd12b-7d66-41c9-aaa4-af928ef383cf","system_id":"levelo_inurba_marseille","lat":43.30546,"lon":5.3654,"is_reserved":false,"is_disabled":false,"rental_uris":{"android":"levelo://app?vid=cfbfd12b-7d66-41c9-aaa4-af928ef383cf","ios":"levelo://app?vid=cfbfd12b-7d66-41c9-aaa4-af928ef383cf"},"vehicle_type_id":"4","last_reported":1701846405,"current_range_meters":26000,"station_id":"ce4bgs12rcd13ifvqcag","pricing_plan_id":"free"},{"bike_id":"3e6ced5a-0626-4ce4-bb1b-8aaeefab4dfe","system_id":"levelo_inurba_marseille","lat":43.305706,"lon":5.365654,"is_reserved":false,"is_disabled":false,"rental_uris":{"android":"levelo://app?vid=3e6ced5a-0626-4ce4-bb1b-8aaeefab4dfe","ios":"levelo://app?vid=3e6ced5a-0626-4ce4-bb1b-8aaeefab4dfe"},"vehicle_type_id":"4","last_reported":1701846405,"current_range_meters":29200,"station_id":"ce4bgs12rcd13ifvqcag","pricing_plan_id":"free"},{"bike_id":"b065b12a-ef87-47d8-8ac6-a38844050d40","system_id":"levelo_inurba_marseille","lat":43.319237,"lon":5.37299,"is_reserved":false,"is_disabled":false,"rental_uris":{"android":"levelo://app?vid=b065b12a-ef87-47d8-8ac6-a38844050d40","ios":"levelo://app?vid=b065b12a-ef87-47d8-8ac6-a38844050d40"},"vehicle_type_id":"4","last_reported":1701846405,"current_range_meters":0,"station_id":"","pricing_plan_id":"free"},{"bike_id":"e7b75511-229e-4c7c-b141-5dd237c6333f","system_id":"levelo_inurba_marseille","lat":43.317075,"lon":5.377367,"is_reserved":false,"is_disabled":false,"rental_uris":{"android":"levelo://app?vid=e7b75511-229e-4c7c-b141-5dd237c6333f","ios":"levelo://app?vid=e7b75511-229e-4c7c-b141-5dd237c6333f"},"vehicle_type_id":"4","last_reported":1701846405,"current_range_meters":30400,"station_id":"ce4bgth2rcd13ifvqch0","pricing_plan_id":"free"},{"bike_id":"fb6fd937-527b-4585-9058-0dfdc6436ac8","system_id":"levelo_inurba_marseille","lat":43.31351,"lon":5.37909,"is_reserved":false,"is_disabled":false,"rental_uris":{"android":"levelo://app?vid=fb6fd937-527b-4585-9058-0dfdc6436ac8","ios":"levelo://app?vid=fb6fd937-527b-4585-9058-0dfdc6436ac8"},"vehicle_type_id":"4","last_reported":1701846405,"current_range_meters":7200,"station_id":"","pricing_plan_id":"free"},{"bike_id":"71d575e8-eed2-4bcd-bb66-8939863b10da","system_id":"levelo_inurba_marseille","lat":43.3028,"lon":5.373475,"is_reserved":false,"is_disabled":false,"rental_uris":{"android":"levelo://app?vid=71d575e8-eed2-4bcd-bb66-8939863b10da","ios":"levelo://app?vid=71d575e8-eed2-4bcd-bb66-8939863b10da"},"vehicle_type_id":"4","last_reported":1701846405,"current_range_meters":11600,"station_id":"","pricing_plan_id":"free"},{"bike_id":"f2136cb8-79e0-476e-ae80-d97aa389be86","system_id":"levelo_inurba_marseille","lat":43.30463,"lon":5.37897,"is_reserved":false,"is_disabled":false,"rental_uris":{"android":"levelo://app?vid=f2136cb8-79e0-476e-ae80-d97aa389be86","ios":"levelo://app?vid=f2136cb8-79e0-476e-ae80-d97aa389be86"},"vehicle_type_id":"4","last_reported":1701846405,"current_range_meters":31200,"station_id":"ce4bgup2rcd13ifvqcn0","pricing_plan_id":"free"},{"bike_id":"b58743e7-d2b0-4c17-9d88-61ed01751a70","system_id":"levelo_inurba_marseille","lat":43.304606,"lon":5.379026,"is_reserved":false,"is_disabled":false,"rental_uris":{"android":"levelo://app?vid=b58743e7-d2b0-4c17-9d88-61ed01751a70","ios":"levelo://app?vid=b58743e7-d2b0-4c17-9d88-61ed01751a70"},"vehicle_type_id":"4","last_reported":1701846405,"current_range_meters":17200,"station_id":"ce4bgup2rcd13ifvqcn0","pricing_plan_id":"free"},{"bike_id":"79b4aec9-7e33-4c16-848f-207ff08f453c","system_id":"levelo_inurba_marseille","lat":43.304606,"lon":5.379026,"is_reserved":false,"is_disabled":false,"rental_uris":{"android":"levelo://app?vid=79b4aec9-7e33-4c16-848f-207ff08f453c","ios":"levelo://app?vid=79b4aec9-7e33-4c16-848f-207ff08f453c"},"vehicle_type_id":"4","last_reported":1701846405,"current_range_meters":26400,"station_id":"ce4bgup2rcd13ifvqcn0","pricing_plan_id":"free"},{"bike_id":"d377f604-d0a8-4aed-a3e8-dbb887ede63d","system_id":"levelo_inurba_marseille","lat":43.30467,"lon":5.37906,"is_reserved":false,"is_disabled":false,"rental_uris":{"android":"levelo://app?vid=d377f604-d0a8-4aed-a3e8-dbb887ede63d","ios":"levelo://app?vid=d377f604-d0a8-4aed-a3e8-dbb887ede63d"},"vehicle_type_id":"4","last_reported":1701846405,"current_range_meters":7600,"station_id":"ce4bgup2rcd13ifvqcn0","pricing_plan_id":"free"},{"bike_id":"a889a367-8fc0-47b0-981a-5b9896a63217","system_id":"levelo_inurba_marseille","lat":43.304606,"lon":5.379026,"is_reserved":false,"is_disabled":false,"rental_uris":{"android":"levelo://app?vid=a889a367-8fc0-47b0-981a-5b9896a63217","ios":"levelo://app?vid=a889a367-8fc0-47b0-981a-5b9896a63217"},"vehicle_type_id":"4","last_reported":1701846405,"current_range_meters":7200,"station_id":"ce4bgup2rcd13ifvqcn0","pricing_plan_id":"free"},{"bike_id":"40e43884-e63b-4b01-a5e1-c4826629a650","system_id":"levelo_inurba_marseille","lat":43.304606,"lon":5.379026,"is_reserved":false,"is_disabled":false,"rental_uris":{"android":"levelo://app?vid=40e43884-e63b-4b01-a5e1-c4826629a650","ios":"levelo://app?vid=40e43884-e63b-4b01-a5e1-c4826629a650"},"vehicle_type_id":"4","last_reported":1701846405,"current_range_meters":8800,"station_id":"ce4bgup2rcd13ifvqcn0","pricing_plan_id":"free"},{"bike_id":"7edd9626-7848-459b-bedb-e987cc431172","system_id":"levelo_inurba_marseille","lat":43.304606,"lon":5.379026,"is_reserved":false,"is_disabled":false,"rental_uris":{"android":"levelo://app?vid=7edd9626-7848-459b-bedb-e987cc431172","ios":"levelo://app?vid=7edd9626-7848-459b-bedb-e987cc431172"},"vehicle_type_id":"4","last_reported":1701846405,"current_range_meters":21200,"station_id":"ce4bgup2rcd13ifvqcn0","pricing_plan_id":"free"},{"bike_id":"ab542b0a-b258-4b62-baed-c4ff4b3a7961","system_id":"levelo_inurba_marseille","lat":43.324771,"lon":5.36557,"is_reserved":false,"is_disabled":false,"rental_uris":{"android":"levelo://app?vid=ab542b0a-b258-4b62-baed-c4ff4b3a7961","ios":"levelo://app?vid=ab542b0a-b258-4b62-baed-c4ff4b3a7961"},"vehicle_type_id":"4","last_reported":1701846405,"current_range_meters":30000,"station_id":"ce4bhs12rcd13ifvqhvg","pricing_plan_id":"free"},{"bike_id":"44daef8b-fa02-4a26-9dd4-12ca03bac7dd","system_id":"levelo_inurba_marseille","lat":43.302784,"lon":5.377158,"is_reserved":false,"is_disabled":false,"rental_uris":{"android":"levelo://app?vid=44daef8b-fa02-4a26-9dd4-12ca03bac7dd","ios":"levelo://app?vid=44daef8b-fa02-4a26-9dd4-12ca03bac7dd"},"vehicle_type_id":"4","last_reported":1701846405,"current_range_meters":26400,"station_id":"ce4bguh2rcd13ifvqcj0","pricing_plan_id":"free"},{"bike_id":"3a79af47-f3db-4694-8725-62e847ba98c3","system_id":"levelo_inurba_marseille","lat":43.301429,"lon":5.37413,"is_reserved":false,"is_disabled":false,"rental_uris":{"android":"levelo://app?vid=3a79af47-f3db-4694-8725-62e847ba98c3","ios":"levelo://app?vid=3a79af47-f3db-4694-8725-62e847ba98c3"},"vehicle_type_id":"4","last_reported":1701846405,"current_range_meters":10000,"station_id":"ce4bgs92rcd13ifvqcc0","pricing_plan_id":"free"},{"bike_id":"a7503af2-3416-42b0-89b3-360ea5b90ea2","system_id":"levelo_inurba_marseille","lat":43.319935,"lon":5.381699,"is_reserved":false,"is_disabled":false,"rental_uris":{"android":"levelo://app?vid=a7503af2-3416-42b0-89b3-360ea5b90ea2","ios":"levelo://app?vid=a7503af2-3416-42b0-89b3-360ea5b90ea2"},"vehicle_type_id":"4","last_reported":1701846405,"current_range_meters":25600,"station_id":"ce4bhr12rcd13ifvqhpg","pricing_plan_id":"free"},{"bike_id":"65f8fa65-6ae7-4e94-86fb-6a8a6a019c04","system_id":"levelo_inurba_marseille","lat":43.31993,"lon":5.38147,"is_reserved":false,"is_disabled":false,"rental_uris":{"android":"levelo://app?vid=65f8fa65-6ae7-4e94-86fb-6a8a6a019c04","ios":"levelo://app?vid=65f8fa65-6ae7-4e94-86fb-6a8a6a019c04"},"vehicle_type_id":"4","last_reported":1701846405,"current_range_meters":10800,"station_id":"ce4bhr12rcd13ifvqhpg","pricing_plan_id":"free"},{"bike_id":"1e44eb00-5254-457d-b804-b536ef4db324","system_id":"levelo_inurba_marseille","lat":43.319988,"lon":5.381476,"is_reserved":false,"is_disabled":false,"rental_uris":{"android":"levelo://app?vid=1e44eb00-5254-457d-b804-b536ef4db324","ios":"levelo://app?vid=1e44eb00-5254-457d-b804-b536ef4db324"},"vehicle_type_id":"4","last_reported":1701846405,"current_range_meters":12400,"station_id":"ce4bhr12rcd13ifvqhpg","pricing_plan_id":"free"},{"bike_id":"8f0e376d-d370-406a-9c0a-dac0b1463e7e","system_id":"levelo_inurba_marseille","lat":43.319997,"lon":5.381594,"is_reserved":false,"is_disabled":false,"rental_uris":{"android":"levelo://app?vid=8f0e376d-d370-406a-9c0a-dac0b1463e7e","ios":"levelo://app?vid=8f0e376d-d370-406a-9c0a-dac0b1463e7e"},"vehicle_type_id":"4","last_reported":1701846405,"current_range_meters":800,"station_id":"ce4bhr12rcd13ifvqhpg","pricing_plan_id":"free"},{"bike_id":"bd082ecf-686f-49c5-a30a-7ea43132642a","system_id":"levelo_inurba_marseille","lat":43.31367,"lon":5.38494,"is_reserved":false,"is_disabled":false,"rental_uris":{"android":"levelo://app?vid=bd082ecf-686f-49c5-a30a-7ea43132642a","ios":"levelo://app?vid=bd082ecf-686f-49c5-a30a-7ea43132642a"},"vehicle_type_id":"4","last_reported":1701846405,"current_range_meters":0,"station_id":"ce4bgt92rcd13ifvqcf0","pricing_plan_id":"free"},{"bike_id":"07726374-4274-45c3-b383-18c70dbb476c","system_id":"levelo_inurba_marseille","lat":43.29951,"lon":5.36541,"is_reserved":false,"is_disabled":false,"rental_uris":{"android":"levelo://app?vid=07726374-4274-45c3-b383-18c70dbb476c","ios":"levelo://app?vid=07726374-4274-45c3-b383-18c70dbb476c"},"vehicle_type_id":"4","last_reported":1701846405,"current_range_meters":19600,"station_id":"ce4bgm92rcd13ifvqbr0","pricing_plan_id":"free"},{"bike_id":"b4879a0b-f87c-476b-ba9f-57011b8686d8","system_id":"levelo_inurba_marseille","lat":43.298218,"lon":5.374416,"is_reserved":false,"is_disabled":false,"rental_uris":{"android":"levelo://app?vid=b4879a0b-f87c-476b-ba9f-57011b8686d8","ios":"levelo://app?vid=b4879a0b-f87c-476b-ba9f-57011b8686d8"},"vehicle_type_id":"4","last_reported":1701846405,"current_range_meters":14800,"station_id":"","pricing_plan_id":"free"},{"bike_id":"8146f9b5-b15a-4a68-934b-8d7fdd7ab4e5","system_id":"levelo_inurba_marseille","lat":43.31602,"lon":5.38777,"is_reserved":false,"is_disabled":false,"rental_uris":{"android":"levelo://app?vid=8146f9b5-b15a-4a68-934b-8d7fdd7ab4e5","ios":"levelo://app?vid=8146f9b5-b15a-4a68-934b-8d7fdd7ab4e5"},"vehicle_type_id":"4","last_reported":1701846405,"current_range_meters":18800,"station_id":"","pricing_plan_id":"free"},{"bike_id":"73c23a8d-2837-446e-83fd-663e18a9fad1","system_id":"levelo_inurba_marseille","lat":43.3283,"lon":5.36665,"is_reserved":false,"is_disabled":false,"rental_uris":{"android":"levelo://app?vid=73c23a8d-2837-446e-83fd-663e18a9fad1","ios":"levelo://app?vid=73c23a8d-2837-446e-83fd-663e18a9fad1"},"vehicle_type_id":"4","last_reported":1701846405,"current_range_meters":30800,"station_id":"ce4bhs92rcd13ifvqi0g","pricing_plan_id":"free"},{"bike_id":"ecea1b8b-fd9b-4853-98ad-20ceb4f35948","system_id":"levelo_inurba_marseille","lat":43.32833,"lon":5.3667,"is_reserved":false,"is_disabled":false,"rental_uris":{"android":"levelo://app?vid=ecea1b8b-fd9b-4853-98ad-20ceb4f35948","ios":"levelo://app?vid=ecea1b8b-fd9b-4853-98ad-20ceb4f35948"},"vehicle_type_id":"4","last_reported":1701846405,"current_range_meters":24000,"station_id":"ce4bhs92rcd13ifvqi0g","pricing_plan_id":"free"},{"bike_id":"3a2dda2e-3aab-4d0e-a954-793f1706ec09","system_id":"levelo_inurba_marseille","lat":43.298891,"lon":5.378223,"is_reserved":false,"is_disabled":false,"rental_uris":{"android":"levelo://app?vid=3a2dda2e-3aab-4d0e-a954-793f1706ec09","ios":"levelo://app?vid=3a2dda2e-3aab-4d0e-a954-793f1706ec09"},"vehicle_type_id":"4","last_reported":1701846405,"current_range_meters":22400,"station_id":"","pricing_plan_id":"free"},{"bike_id":"fad051df-9150-4866-a68e-71dc1b88d26f","system_id":"levelo_inurba_marseille","lat":43.316538,"lon":5.38954,"is_reserved":false,"is_disabled":false,"rental_uris":{"android":"levelo://app?vid=fad051df-9150-4866-a68e-71dc1b88d26f","ios":"levelo://app?vid=fad051df-9150-4866-a68e-71dc1b88d26f"},"vehicle_type_id":"4","last_reported":1701846405,"current_range_meters":10400,"station_id":"","pricing_plan_id":"free"},{"bike_id":"4c7a2d18-b227-4fdf-a843-f59edb231412","system_id":"levelo_inurba_marseille","lat":43.299028,"lon":5.381509,"is_reserved":false,"is_disabled":false,"rental_uris":{"android":"levelo://app?vid=4c7a2d18-b227-4fdf-a843-f59edb231412","ios":"levelo://app?vid=4c7a2d18-b227-4fdf-a843-f59edb231412"},"vehicle_type_id":"4","last_reported":1701846405,"current_range_meters":24800,"station_id":"ce4bgj12rcd13ifvqbc0","pricing_plan_id":"free"},{"bike_id":"9125e9db-3b90-44e7-bcfa-b59d18641cca","system_id":"levelo_inurba_marseille","lat":43.317557,"lon":5.390173,"is_reserved":false,"is_disabled":false,"rental_uris":{"android":"levelo://app?vid=9125e9db-3b90-44e7-bcfa-b59d18641cca","ios":"levelo://app?vid=9125e9db-3b90-44e7-bcfa-b59d18641cca"},"vehicle_type_id":"4","last_reported":1701846405,"current_range_meters":23200,"station_id":"ce4bhqp2rcd13ifvqhng","pricing_plan_id":"free"},{"bike_id":"ae79f685-f122-4368-a8ee-34c58444df36","system_id":"levelo_inurba_marseille","lat":43.297868,"lon":5.381148,"is_reserved":false,"is_disabled":false,"rental_uris":{"android":"levelo://app?vid=ae79f685-f122-4368-a8ee-34c58444df36","ios":"levelo://app?vid=ae79f685-f122-4368-a8ee-34c58444df36"},"vehicle_type_id":"4","last_reported":1701846405,"current_range_meters":10400,"station_id":"ce4bgip2rcd13ifvqbb0","pricing_plan_id":"free"},{"bike_id":"abe84497-fb17-455f-b511-71d1ec1fd3ce","system_id":"levelo_inurba_marseille","lat":43.32364,"lon":5.388795,"is_reserved":false,"is_disabled":false,"rental_uris":{"android":"levelo://app?vid=abe84497-fb17-455f-b511-71d1ec1fd3ce","ios":"levelo://app?vid=abe84497-fb17-455f-b511-71d1ec1fd3ce"},"vehicle_type_id":"4","last_reported":1701846405,"current_range_meters":6000,"station_id":"ce4bhqp2rcd13ifvqhog","pricing_plan_id":"free"},{"bike_id":"b8dd85b6-33db-497a-a812-3d411cc80858","system_id":"levelo_inurba_marseille","lat":43.32367,"lon":5.388836,"is_reserved":false,"is_disabled":false,"rental_uris":{"android":"levelo://app?vid=b8dd85b6-33db-497a-a812-3d411cc80858","ios":"levelo://app?vid=b8dd85b6-33db-497a-a812-3d411cc80858"},"vehicle_type_id":"4","last_reported":1701846405,"current_range_meters":14800,"station_id":"ce4bhqp2rcd13ifvqhog","pricing_plan_id":"free"},{"bike_id":"c3643ac2-cdd1-4bd1-99e6-62e33012d634","system_id":"levelo_inurba_marseille","lat":43.323679,"lon":5.388819,"is_reserved":false,"is_disabled":false,"rental_uris":{"android":"levelo://app?vid=c3643ac2-cdd1-4bd1-99e6-62e33012d634","ios":"levelo://app?vid=c3643ac2-cdd1-4bd1-99e6-62e33012d634"},"vehicle_type_id":"4","last_reported":1701846405,"current_range_meters":8400,"station_id":"ce4bhqp2rcd13ifvqhog","pricing_plan_id":"free"},{"bike_id":"07967f1e-00b3-4d63-8ab5-24c06e141a86","system_id":"levelo_inurba_marseille","lat":43.323627,"lon":5.388885,"is_reserved":false,"is_disabled":false,"rental_uris":{"android":"levelo://app?vid=07967f1e-00b3-4d63-8ab5-24c06e141a86","ios":"levelo://app?vid=07967f1e-00b3-4d63-8ab5-24c06e141a86"},"vehicle_type_id":"4","last_reported":1701846405,"current_range_meters":14000,"station_id":"ce4bhqp2rcd13ifvqhog","pricing_plan_id":"free"},{"bike_id":"6cf15f05-2828-4f9a-a7d3-54085a8c4fc1","system_id":"levelo_inurba_marseille","lat":43.29601,"lon":5.381084,"is_reserved":false,"is_disabled":false,"rental_uris":{"android":"levelo://app?vid=6cf15f05-2828-4f9a-a7d3-54085a8c4fc1","ios":"levelo://app?vid=6cf15f05-2828-4f9a-a7d3-54085a8c4fc1"},"vehicle_type_id":"4","last_reported":1701846405,"current_range_meters":2800,"station_id":"ce4bgl12rcd13ifvqbo0","pricing_plan_id":"free"},{"bike_id":"23022e28-6dd2-4b65-af35-82a9113990ce","system_id":"levelo_inurba_marseille","lat":43.292311,"lon":5.360731,"is_reserved":false,"is_disabled":false,"rental_uris":{"android":"levelo://app?vid=23022e28-6dd2-4b65-af35-82a9113990ce","ios":"levelo://app?vid=23022e28-6dd2-4b65-af35-82a9113990ce"},"vehicle_type_id":"4","last_reported":1701846405,"current_range_meters":16400,"station_id":"ce4bhbh2rcd13ifvqeqg","pricing_plan_id":"free"},{"bike_id":"178e73e4-e6ce-4511-a294-c5ec2b846498","system_id":"levelo_inurba_marseille","lat":43.2988,"lon":5.38902,"is_reserved":false,"is_disabled":false,"rental_uris":{"android":"levelo://app?vid=178e73e4-e6ce-4511-a294-c5ec2b846498","ios":"levelo://app?vid=178e73e4-e6ce-4511-a294-c5ec2b846498"},"vehicle_type_id":"4","last_reported":1701846405,"current_range_meters":15600,"station_id":"ce4bh392rcd13ifvqdl0","pricing_plan_id":"free"},{"bike_id":"03e6c0fe-b662-4064-9e11-cb25d06b296e","system_id":"levelo_inurba_marseille","lat":43.298764,"lon":5.388973,"is_reserved":false,"is_disabled":false,"rental_uris":{"android":"levelo://app?vid=03e6c0fe-b662-4064-9e11-cb25d06b296e","ios":"levelo://app?vid=03e6c0fe-b662-4064-9e11-cb25d06b296e"},"vehicle_type_id":"4","last_reported":1701846405,"current_range_meters":23200,"station_id":"ce4bh392rcd13ifvqdl0","pricing_plan_id":"free"},{"bike_id":"c94a57df-5862-4150-adf0-a8983eb8e0eb","system_id":"levelo_inurba_marseille","lat":43.302008,"lon":5.394694,"is_reserved":false,"is_disabled":false,"rental_uris":{"android":"levelo://app?vid=c94a57df-5862-4150-adf0-a8983eb8e0eb","ios":"levelo://app?vid=c94a57df-5862-4150-adf0-a8983eb8e0eb"},"vehicle_type_id":"4","last_reported":1701846405,"current_range_meters":24400,"station_id":"ce4bh0p2rcd13ifvqd70","pricing_plan_id":"free"},{"bike_id":"e2f832d6-f887-4ce9-ad89-ed2221c2987d","system_id":"levelo_inurba_marseille","lat":43.29045,"lon":5.3755,"is_reserved":false,"is_disabled":false,"rental_uris":{"android":"levelo://app?vid=e2f832d6-f887-4ce9-ad89-ed2221c2987d","ios":"levelo://app?vid=e2f832d6-f887-4ce9-ad89-ed2221c2987d"},"vehicle_type_id":"4","last_reported":1701846405,"current_range_meters":26000,"station_id":"ce4bh692rcd13ifvqe90","pricing_plan_id":"free"},{"bike_id":"71e5b983-f75d-4baa-8172-30e291776ff5","system_id":"levelo_inurba_marseille","lat":43.290327,"lon":5.375711,"is_reserved":false,"is_disabled":false,"rental_uris":{"android":"levelo://app?vid=71e5b983-f75d-4baa-8172-30e291776ff5","ios":"levelo://app?vid=71e5b983-f75d-4baa-8172-30e291776ff5"},"vehicle_type_id":"4","last_reported":1701846405,"current_range_meters":21200,"station_id":"ce4bh692rcd13ifvqe90","pricing_plan_id":"free"},{"bike_id":"45909252-2507-4571-9306-7c1fcef00512","system_id":"levelo_inurba_marseille","lat":43.289184,"lon":5.366408,"is_reserved":false,"is_disabled":false,"rental_uris":{"android":"levelo://app?vid=45909252-2507-4571-9306-7c1fcef00512","ios":"levelo://app?vid=45909252-2507-4571-9306-7c1fcef00512"},"vehicle_type_id":"4","last_reported":1701846405,"current_range_meters":26000,"station_id":"ce4bhap2rcd13ifvqek0","pricing_plan_id":"free"},{"bike_id":"60dfccae-9455-4002-a5aa-21d2f55b77a1","system_id":"levelo_inurba_marseille","lat":43.292642,"lon":5.384254,"is_reserved":false,"is_disabled":false,"rental_uris":{"android":"levelo://app?vid=60dfccae-9455-4002-a5aa-21d2f55b77a1","ios":"levelo://app?vid=60dfccae-9455-4002-a5aa-21d2f55b77a1"},"vehicle_type_id":"4","last_reported":1701846405,"current_range_meters":28800,"station_id":"ce4bh692rcd13ifvqea0","pricing_plan_id":"free"},{"bike_id":"2580b689-4f0d-4c63-8937-29a36a535ee2","system_id":"levelo_inurba_marseille","lat":43.290995,"lon":5.381361,"is_reserved":false,"is_disabled":false,"rental_uris":{"android":"levelo://app?vid=2580b689-4f0d-4c63-8937-29a36a535ee2","ios":"levelo://app?vid=2580b689-4f0d-4c63-8937-29a36a535ee2"},"vehicle_type_id":"4","last_reported":1701846405,"current_range_meters":26400,"station_id":"ce4bh512rcd13ifvqe2g","pricing_plan_id":"free"},{"bike_id":"0c43d888-a286-43c0-9f96-bd8661485ca1","system_id":"levelo_inurba_marseille","lat":43.290104,"lon":5.356111,"is_reserved":false,"is_disabled":false,"rental_uris":{"android":"levelo://app?vid=0c43d888-a286-43c0-9f96-bd8661485ca1","ios":"levelo://app?vid=0c43d888-a286-43c0-9f96-bd8661485ca1"},"vehicle_type_id":"4","last_reported":1701846405,"current_range_meters":16800,"station_id":"ce4bhb92rcd13ifvqen0","pricing_plan_id":"free"},{"bike_id":"a4e0111a-ec53-43cd-8fa3-45105441d583","system_id":"levelo_inurba_marseille","lat":43.290104,"lon":5.356111,"is_reserved":false,"is_disabled":false,"rental_uris":{"android":"levelo://app?vid=a4e0111a-ec53-43cd-8fa3-45105441d583","ios":"levelo://app?vid=a4e0111a-ec53-43cd-8fa3-45105441d583"},"vehicle_type_id":"4","last_reported":1701846405,"current_range_meters":24000,"station_id":"ce4bhb92rcd13ifvqen0","pricing_plan_id":"free"},{"bike_id":"f68e2c8b-de08-4ad7-b342-74483183b5be","system_id":"levelo_inurba_marseille","lat":43.330413,"lon":5.389293,"is_reserved":false,"is_disabled":false,"rental_uris":{"android":"levelo://app?vid=f68e2c8b-de08-4ad7-b342-74483183b5be","ios":"levelo://app?vid=f68e2c8b-de08-4ad7-b342-74483183b5be"},"vehicle_type_id":"4","last_reported":1701846405,"current_range_meters":28800,"station_id":"ce4bhr92rcd13ifvqhrg","pricing_plan_id":"free"},{"bike_id":"39f116d2-927c-4852-9b8a-e1e0d7464a24","system_id":"levelo_inurba_marseille","lat":43.28856,"lon":5.358371,"is_reserved":false,"is_disabled":false,"rental_uris":{"android":"levelo://app?vid=39f116d2-927c-4852-9b8a-e1e0d7464a24","ios":"levelo://app?vid=39f116d2-927c-4852-9b8a-e1e0d7464a24"},"vehicle_type_id":"4","last_reported":1701846405,"current_range_meters":21200,"station_id":"ce4bhb12rcd13ifvqem0","pricing_plan_id":"free"},{"bike_id":"950b734c-07f2-4d66-87de-6e6621dcfd93","system_id":"levelo_inurba_marseille","lat":43.28845,"lon":5.35864,"is_reserved":false,"is_disabled":false,"rental_uris":{"android":"levelo://app?vid=950b734c-07f2-4d66-87de-6e6621dcfd93","ios":"levelo://app?vid=950b734c-07f2-4d66-87de-6e6621dcfd93"},"vehicle_type_id":"4","last_reported":1701846405,"current_range_meters":16000,"station_id":"ce4bhb12rcd13ifvqem0","pricing_plan_id":"free"},{"bike_id":"7c0a94bf-edf6-40d7-bd05-dc49ccfa175f","system_id":"levelo_inurba_marseille","lat":43.28856,"lon":5.358371,"is_reserved":false,"is_disabled":false,"rental_uris":{"android":"levelo://app?vid=7c0a94bf-edf6-40d7-bd05-dc49ccfa175f","ios":"levelo://app?vid=7c0a94bf-edf6-40d7-bd05-dc49ccfa175f"},"vehicle_type_id":"4","last_reported":1701846405,"current_range_meters":14400,"station_id":"ce4bhb12rcd13ifvqem0","pricing_plan_id":"free"},{"bike_id":"8302aefd-687a-4f70-8241-409c6c229323","system_id":"levelo_inurba_marseille","lat":43.28844,"lon":5.358315,"is_reserved":false,"is_disabled":false,"rental_uris":{"android":"levelo://app?vid=8302aefd-687a-4f70-8241-409c6c229323","ios":"levelo://app?vid=8302aefd-687a-4f70-8241-409c6c229323"},"vehicle_type_id":"4","last_reported":1701846405,"current_range_meters":22400,"station_id":"ce4bhb12rcd13ifvqem0","pricing_plan_id":"free"},{"bike_id":"a01a8d62-3f82-430f-8cbf-bf5e5048b82c","system_id":"levelo_inurba_marseille","lat":43.337451,"lon":5.374555,"is_reserved":false,"is_disabled":false,"rental_uris":{"android":"levelo://app?vid=a01a8d62-3f82-430f-8cbf-bf5e5048b82c","ios":"levelo://app?vid=a01a8d62-3f82-430f-8cbf-bf5e5048b82c"},"vehicle_type_id":"4","last_reported":1701846405,"current_range_meters":23200,"station_id":"","pricing_plan_id":"free"},{"bike_id":"b1da507f-59bc-4bfa-9de7-dd18b0d37739","system_id":"levelo_inurba_marseille","lat":43.337515,"lon":5.374499,"is_reserved":false,"is_disabled":false,"rental_uris":{"android":"levelo://app?vid=b1da507f-59bc-4bfa-9de7-dd18b0d37739","ios":"levelo://app?vid=b1da507f-59bc-4bfa-9de7-dd18b0d37739"},"vehicle_type_id":"4","last_reported":1701846405,"current_range_meters":30400,"station_id":"","pricing_plan_id":"free"},{"bike_id":"61e94894-252e-4e6e-9735-b09eceabfad5","system_id":"levelo_inurba_marseille","lat":43.337466,"lon":5.374806,"is_reserved":false,"is_disabled":false,"rental_uris":{"android":"levelo://app?vid=61e94894-252e-4e6e-9735-b09eceabfad5","ios":"levelo://app?vid=61e94894-252e-4e6e-9735-b09eceabfad5"},"vehicle_type_id":"4","last_reported":1701846405,"current_range_meters":30800,"station_id":"","pricing_plan_id":"free"},{"bike_id":"2fbea006-0d22-445c-bfc1-d379dcddc1c1","system_id":"levelo_inurba_marseille","lat":43.337489,"lon":5.374696,"is_reserved":false,"is_disabled":false,"rental_uris":{"android":"levelo://app?vid=2fbea006-0d22-445c-bfc1-d379dcddc1c1","ios":"levelo://app?vid=2fbea006-0d22-445c-bfc1-d379dcddc1c1"},"vehicle_type_id":"4","last_reported":1701846405,"current_range_meters":25200,"station_id":"","pricing_plan_id":"free"},{"bike_id":"82aceeed-6a3f-4dcf-9611-c927556a3952","system_id":"levelo_inurba_marseille","lat":43.337525,"lon":5.374495,"is_reserved":false,"is_disabled":false,"rental_uris":{"android":"levelo://app?vid=82aceeed-6a3f-4dcf-9611-c927556a3952","ios":"levelo://app?vid=82aceeed-6a3f-4dcf-9611-c927556a3952"},"vehicle_type_id":"4","last_reported":1701846405,"current_range_meters":29200,"station_id":"","pricing_plan_id":"free"},{"bike_id":"94559e2c-f22c-4ac5-af24-05076ed30144","system_id":"levelo_inurba_marseille","lat":43.337606,"lon":5.374454,"is_reserved":false,"is_disabled":false,"rental_uris":{"android":"levelo://app?vid=94559e2c-f22c-4ac5-af24-05076ed30144","ios":"levelo://app?vid=94559e2c-f22c-4ac5-af24-05076ed30144"},"vehicle_type_id":"4","last_reported":1701846405,"current_range_meters":28000,"station_id":"","pricing_plan_id":"free"},{"bike_id":"f0464f50-e84c-41e8-8839-9b31e220379c","system_id":"levelo_inurba_marseille","lat":43.33759,"lon":5.37484,"is_reserved":false,"is_disabled":false,"rental_uris":{"android":"levelo://app?vid=f0464f50-e84c-41e8-8839-9b31e220379c","ios":"levelo://app?vid=f0464f50-e84c-41e8-8839-9b31e220379c"},"vehicle_type_id":"4","last_reported":1701846405,"current_range_meters":30400,"station_id":"","pricing_plan_id":"free"},{"bike_id":"53c89e70-6b67-4cef-9393-e4547e0e2694","system_id":"levelo_inurba_marseille","lat":43.30642,"lon":5.401031,"is_reserved":false,"is_disabled":false,"rental_uris":{"android":"levelo://app?vid=53c89e70-6b67-4cef-9393-e4547e0e2694","ios":"levelo://app?vid=53c89e70-6b67-4cef-9393-e4547e0e2694"},"vehicle_type_id":"4","last_reported":1701846405,"current_range_meters":16800,"station_id":"ce4bh112rcd13ifvqda0","pricing_plan_id":"free"},{"bike_id":"9fbce3be-7a31-40bf-92ea-9652de23e2ef","system_id":"levelo_inurba_marseille","lat":43.28859,"lon":5.37886,"is_reserved":false,"is_disabled":false,"rental_uris":{"android":"levelo://app?vid=9fbce3be-7a31-40bf-92ea-9652de23e2ef","ios":"levelo://app?vid=9fbce3be-7a31-40bf-92ea-9652de23e2ef"},"vehicle_type_id":"4","last_reported":1701846405,"current_range_meters":20000,"station_id":"","pricing_plan_id":"free"},{"bike_id":"1658dd3b-9f05-49bc-82a4-60882e063b01","system_id":"levelo_inurba_marseille","lat":43.28727,"lon":5.36078,"is_reserved":false,"is_disabled":false,"rental_uris":{"android":"levelo://app?vid=1658dd3b-9f05-49bc-82a4-60882e063b01","ios":"levelo://app?vid=1658dd3b-9f05-49bc-82a4-60882e063b01"},"vehicle_type_id":"4","last_reported":1701846405,"current_range_meters":22400,"station_id":"cki0cbj6b192h4jlfktg","pricing_plan_id":"free"},{"bike_id":"cd6eb00c-ff5d-43c6-a056-5ac6ed97402c","system_id":"levelo_inurba_marseille","lat":43.290345,"lon":5.38646,"is_reserved":false,"is_disabled":false,"rental_uris":{"android":"levelo://app?vid=cd6eb00c-ff5d-43c6-a056-5ac6ed97402c","ios":"levelo://app?vid=cd6eb00c-ff5d-43c6-a056-5ac6ed97402c"},"vehicle_type_id":"4","last_reported":1701846405,"current_range_meters":24000,"station_id":"ce4bh4p2rcd13ifvqe0g","pricing_plan_id":"free"},{"bike_id":"f4637ab7-86e9-465f-856d-e3f51c4fd01f","system_id":"levelo_inurba_marseille","lat":43.30256,"lon":5.40061,"is_reserved":false,"is_disabled":false,"rental_uris":{"android":"levelo://app?vid=f4637ab7-86e9-465f-856d-e3f51c4fd01f","ios":"levelo://app?vid=f4637ab7-86e9-465f-856d-e3f51c4fd01f"},"vehicle_type_id":"4","last_reported":1701846405,"current_range_meters":22800,"station_id":"ce4bgvh2rcd13ifvqcs0","pricing_plan_id":"free"},{"bike_id":"0c925e6a-6ce6-49f3-85b0-0ba1182f030b","system_id":"levelo_inurba_marseille","lat":43.289307,"lon":5.38406,"is_reserved":false,"is_disabled":false,"rental_uris":{"android":"levelo://app?vid=0c925e6a-6ce6-49f3-85b0-0ba1182f030b","ios":"levelo://app?vid=0c925e6a-6ce6-49f3-85b0-0ba1182f030b"},"vehicle_type_id":"4","last_reported":1701846405,"current_range_meters":0,"station_id":"ce4bh612rcd13ifvqe6g","pricing_plan_id":"free"},{"bike_id":"caad029f-710e-4d6b-a2fc-aa6316f10813","system_id":"levelo_inurba_marseille","lat":43.29022,"lon":5.38645,"is_reserved":false,"is_disabled":false,"rental_uris":{"android":"levelo://app?vid=caad029f-710e-4d6b-a2fc-aa6316f10813","ios":"levelo://app?vid=caad029f-710e-4d6b-a2fc-aa6316f10813"},"vehicle_type_id":"4","last_reported":1701846405,"current_range_meters":24800,"station_id":"ce4bh4p2rcd13ifvqe0g","pricing_plan_id":"free"},{"bike_id":"659c081e-069e-4449-93a4-bc5f874433b5","system_id":"levelo_inurba_marseille","lat":43.290336,"lon":5.386425,"is_reserved":false,"is_disabled":false,"rental_uris":{"android":"levelo://app?vid=659c081e-069e-4449-93a4-bc5f874433b5","ios":"levelo://app?vid=659c081e-069e-4449-93a4-bc5f874433b5"},"vehicle_type_id":"4","last_reported":1701846405,"current_range_meters":19200,"station_id":"ce4bh4p2rcd13ifvqe0g","pricing_plan_id":"free"},{"bike_id":"debdba19-ebe5-46b6-9afc-9df8f53259eb","system_id":"levelo_inurba_marseille","lat":43.29011,"lon":5.38666,"is_reserved":false,"is_disabled":false,"rental_uris":{"android":"levelo://app?vid=debdba19-ebe5-46b6-9afc-9df8f53259eb","ios":"levelo://app?vid=debdba19-ebe5-46b6-9afc-9df8f53259eb"},"vehicle_type_id":"4","last_reported":1701846405,"current_range_meters":13200,"station_id":"ce4bh4p2rcd13ifvqe0g","pricing_plan_id":"free"},{"bike_id":"f03e892f-ed00-49e7-9684-56046542fcd2","system_id":"levelo_inurba_marseille","lat":43.287185,"lon":5.379373,"is_reserved":false,"is_disabled":false,"rental_uris":{"android":"levelo://app?vid=f03e892f-ed00-49e7-9684-56046542fcd2","ios":"levelo://app?vid=f03e892f-ed00-49e7-9684-56046542fcd2"},"vehicle_type_id":"4","last_reported":1701846405,"current_range_meters":16000,"station_id":"ce4bh9p2rcd13ifvqec0","pricing_plan_id":"free"},{"bike_id":"d10025a9-8478-4e1c-b9f0-23676ef9fa27","system_id":"levelo_inurba_marseille","lat":43.28714,"lon":5.37937,"is_reserved":false,"is_disabled":false,"rental_uris":{"android":"levelo://app?vid=d10025a9-8478-4e1c-b9f0-23676ef9fa27","ios":"levelo://app?vid=d10025a9-8478-4e1c-b9f0-23676ef9fa27"},"vehicle_type_id":"4","last_reported":1701846405,"current_range_meters":23600,"station_id":"ce4bh9p2rcd13ifvqec0","pricing_plan_id":"free"},{"bike_id":"4db3561d-739e-4e74-b002-7896eecd2bb2","system_id":"levelo_inurba_marseille","lat":43.28615,"lon":5.35111,"is_reserved":false,"is_disabled":false,"rental_uris":{"android":"levelo://app?vid=4db3561d-739e-4e74-b002-7896eecd2bb2","ios":"levelo://app?vid=4db3561d-739e-4e74-b002-7896eecd2bb2"},"vehicle_type_id":"4","last_reported":1701846405,"current_range_meters":0,"station_id":"ce4bhch2rcd13ifvqeug","pricing_plan_id":"free"},{"bike_id":"fa28a2b1-e806-4db2-abd6-4aa3185ebe7d","system_id":"levelo_inurba_marseille","lat":43.286156,"lon":5.351016,"is_reserved":false,"is_disabled":false,"rental_uris":{"android":"levelo://app?vid=fa28a2b1-e806-4db2-abd6-4aa3185ebe7d","ios":"levelo://app?vid=fa28a2b1-e806-4db2-abd6-4aa3185ebe7d"},"vehicle_type_id":"4","last_reported":1701846405,"current_range_meters":31200,"station_id":"ce4bhch2rcd13ifvqeug","pricing_plan_id":"free"},{"bike_id":"f68e9703-0e1a-4a4b-a409-dda413e21634","system_id":"levelo_inurba_marseille","lat":43.28616,"lon":5.35098,"is_reserved":false,"is_disabled":false,"rental_uris":{"android":"levelo://app?vid=f68e9703-0e1a-4a4b-a409-dda413e21634","ios":"levelo://app?vid=f68e9703-0e1a-4a4b-a409-dda413e21634"},"vehicle_type_id":"4","last_reported":1701846405,"current_range_meters":16800,"station_id":"ce4bhch2rcd13ifvqeug","pricing_plan_id":"free"},{"bike_id":"81903cfa-58ae-42a2-ac21-e3e71134ff92","system_id":"levelo_inurba_marseille","lat":43.28614,"lon":5.35104,"is_reserved":false,"is_disabled":false,"rental_uris":{"android":"levelo://app?vid=81903cfa-58ae-42a2-ac21-e3e71134ff92","ios":"levelo://app?vid=81903cfa-58ae-42a2-ac21-e3e71134ff92"},"vehicle_type_id":"4","last_reported":1701846405,"current_range_meters":19600,"station_id":"ce4bhch2rcd13ifvqeug","pricing_plan_id":"free"},{"bike_id":"28223428-3ee5-4401-9929-00f420b602a1","system_id":"levelo_inurba_marseille","lat":43.28614,"lon":5.35101,"is_reserved":false,"is_disabled":false,"rental_uris":{"android":"levelo://app?vid=28223428-3ee5-4401-9929-00f420b602a1","ios":"levelo://app?vid=28223428-3ee5-4401-9929-00f420b602a1"},"vehicle_type_id":"4","last_reported":1701846405,"current_range_meters":19600,"station_id":"ce4bhch2rcd13ifvqeug","pricing_plan_id":"free"},{"bike_id":"a867505a-c221-403a-bba6-7f68373835b5","system_id":"levelo_inurba_marseille","lat":43.28615,"lon":5.350964,"is_reserved":false,"is_disabled":false,"rental_uris":{"android":"levelo://app?vid=a867505a-c221-403a-bba6-7f68373835b5","ios":"levelo://app?vid=a867505a-c221-403a-bba6-7f68373835b5"},"vehicle_type_id":"4","last_reported":1701846405,"current_range_meters":15600,"station_id":"ce4bhch2rcd13ifvqeug","pricing_plan_id":"free"},{"bike_id":"2ecc71a3-2ca5-44cd-a5d5-05ad021322df","system_id":"levelo_inurba_marseille","lat":43.28612,"lon":5.35105,"is_reserved":false,"is_disabled":false,"rental_uris":{"android":"levelo://app?vid=2ecc71a3-2ca5-44cd-a5d5-05ad021322df","ios":"levelo://app?vid=2ecc71a3-2ca5-44cd-a5d5-05ad021322df"},"vehicle_type_id":"4","last_reported":1701846405,"current_range_meters":31200,"station_id":"ce4bhch2rcd13ifvqeug","pricing_plan_id":"free"},{"bike_id":"2f3b213e-f5d1-4efb-9aaa-9c4446289860","system_id":"levelo_inurba_marseille","lat":43.283998,"lon":5.375062,"is_reserved":false,"is_disabled":false,"rental_uris":{"android":"levelo://app?vid=2f3b213e-f5d1-4efb-9aaa-9c4446289860","ios":"levelo://app?vid=2f3b213e-f5d1-4efb-9aaa-9c4446289860"},"vehicle_type_id":"4","last_reported":1701846405,"current_range_meters":23600,"station_id":"ce4bh412rcd13ifvqds0","pricing_plan_id":"free"},{"bike_id":"65f3cc7c-a37a-4f4d-81aa-c7a860ae6ac8","system_id":"levelo_inurba_marseille","lat":43.283998,"lon":5.375062,"is_reserved":false,"is_disabled":false,"rental_uris":{"android":"levelo://app?vid=65f3cc7c-a37a-4f4d-81aa-c7a860ae6ac8","ios":"levelo://app?vid=65f3cc7c-a37a-4f4d-81aa-c7a860ae6ac8"},"vehicle_type_id":"4","last_reported":1701846405,"current_range_meters":17600,"station_id":"ce4bh412rcd13ifvqds0","pricing_plan_id":"free"},{"bike_id":"95014d3b-8672-418a-bc7e-22f6c9474956","system_id":"levelo_inurba_marseille","lat":43.283494,"lon":5.380945,"is_reserved":false,"is_disabled":false,"rental_uris":{"android":"levelo://app?vid=95014d3b-8672-418a-bc7e-22f6c9474956","ios":"levelo://app?vid=95014d3b-8672-418a-bc7e-22f6c9474956"},"vehicle_type_id":"4","last_reported":1701846405,"current_range_meters":25600,"station_id":"ce4bh412rcd13ifvqdr0","pricing_plan_id":"free"},{"bike_id":"9989cf22-9144-4700-96a2-87d6fe6daab0","system_id":"levelo_inurba_marseille","lat":43.283494,"lon":5.380945,"is_reserved":false,"is_disabled":false,"rental_uris":{"android":"levelo://app?vid=9989cf22-9144-4700-96a2-87d6fe6daab0","ios":"levelo://app?vid=9989cf22-9144-4700-96a2-87d6fe6daab0"},"vehicle_type_id":"4","last_reported":1701846405,"current_range_meters":23200,"station_id":"ce4bh412rcd13ifvqdr0","pricing_plan_id":"free"},{"bike_id":"1335749a-3d7e-4781-a248-8950e7eacf73","system_id":"levelo_inurba_marseille","lat":43.283494,"lon":5.380945,"is_reserved":false,"is_disabled":false,"rental_uris":{"android":"levelo://app?vid=1335749a-3d7e-4781-a248-8950e7eacf73","ios":"levelo://app?vid=1335749a-3d7e-4781-a248-8950e7eacf73"},"vehicle_type_id":"4","last_reported":1701846405,"current_range_meters":19600,"station_id":"ce4bh412rcd13ifvqdr0","pricing_plan_id":"free"},{"bike_id":"f891986a-7565-409d-9d2a-3c5a8d484f88","system_id":"levelo_inurba_marseille","lat":43.283494,"lon":5.380945,"is_reserved":false,"is_disabled":false,"rental_uris":{"android":"levelo://app?vid=f891986a-7565-409d-9d2a-3c5a8d484f88","ios":"levelo://app?vid=f891986a-7565-409d-9d2a-3c5a8d484f88"},"vehicle_type_id":"4","last_reported":1701846405,"current_range_meters":30000,"station_id":"ce4bh412rcd13ifvqdr0","pricing_plan_id":"free"},{"bike_id":"b411a6fe-e04c-4606-b9fe-2cb1536b0fed","system_id":"levelo_inurba_marseille","lat":43.283494,"lon":5.380945,"is_reserved":false,"is_disabled":false,"rental_uris":{"android":"levelo://app?vid=b411a6fe-e04c-4606-b9fe-2cb1536b0fed","ios":"levelo://app?vid=b411a6fe-e04c-4606-b9fe-2cb1536b0fed"},"vehicle_type_id":"4","last_reported":1701846405,"current_range_meters":23600,"station_id":"ce4bh412rcd13ifvqdr0","pricing_plan_id":"free"},{"bike_id":"9738ce5d-832a-4280-a550-2a00396f74a3","system_id":"levelo_inurba_marseille","lat":43.284217,"lon":5.349697,"is_reserved":false,"is_disabled":false,"rental_uris":{"android":"levelo://app?vid=9738ce5d-832a-4280-a550-2a00396f74a3","ios":"levelo://app?vid=9738ce5d-832a-4280-a550-2a00396f74a3"},"vehicle_type_id":"4","last_reported":1701846405,"current_range_meters":26000,"station_id":"ce4bhbh2rcd13ifvqepg","pricing_plan_id":"free"},{"bike_id":"5f1c38dc-7899-43ea-9f70-7647bdfbc9a6","system_id":"levelo_inurba_marseille","lat":43.289363,"lon":5.396322,"is_reserved":false,"is_disabled":false,"rental_uris":{"android":"levelo://app?vid=5f1c38dc-7899-43ea-9f70-7647bdfbc9a6","ios":"levelo://app?vid=5f1c38dc-7899-43ea-9f70-7647bdfbc9a6"},"vehicle_type_id":"4","last_reported":1701846405,"current_range_meters":19200,"station_id":"ce4bh3h2rcd13ifvqdn0","pricing_plan_id":"free"},{"bike_id":"158223b0-0014-44ae-9a6c-7021932f56b0","system_id":"levelo_inurba_marseille","lat":43.289363,"lon":5.396322,"is_reserved":false,"is_disabled":false,"rental_uris":{"android":"levelo://app?vid=158223b0-0014-44ae-9a6c-7021932f56b0","ios":"levelo://app?vid=158223b0-0014-44ae-9a6c-7021932f56b0"},"vehicle_type_id":"4","last_reported":1701846405,"current_range_meters":14800,"station_id":"ce4bh3h2rcd13ifvqdn0","pricing_plan_id":"free"},{"bike_id":"1865f5fc-88df-4d6b-a923-2ff9747723ed","system_id":"levelo_inurba_marseille","lat":43.292724,"lon":5.401131,"is_reserved":false,"is_disabled":false,"rental_uris":{"android":"levelo://app?vid=1865f5fc-88df-4d6b-a923-2ff9747723ed","ios":"levelo://app?vid=1865f5fc-88df-4d6b-a923-2ff9747723ed"},"vehicle_type_id":"4","last_reported":1701846405,"current_range_meters":18800,"station_id":"ce4bh312rcd13ifvqdk0","pricing_plan_id":"free"},{"bike_id":"b61cb168-6661-4c89-a543-372c70857191","system_id":"levelo_inurba_marseille","lat":43.282744,"lon":5.350533,"is_reserved":false,"is_disabled":false,"rental_uris":{"android":"levelo://app?vid=b61cb168-6661-4c89-a543-372c70857191","ios":"levelo://app?vid=b61cb168-6661-4c89-a543-372c70857191"},"vehicle_type_id":"4","last_reported":1701846405,"current_range_meters":31200,"station_id":"ce4bhbp2rcd13ifvqerg","pricing_plan_id":"free"},{"bike_id":"59bbb630-b9b5-40a2-be7a-9960104c3558","system_id":"levelo_inurba_marseille","lat":43.282754,"lon":5.350519,"is_reserved":false,"is_disabled":false,"rental_uris":{"android":"levelo://app?vid=59bbb630-b9b5-40a2-be7a-9960104c3558","ios":"levelo://app?vid=59bbb630-b9b5-40a2-be7a-9960104c3558"},"vehicle_type_id":"4","last_reported":1701846405,"current_range_meters":31200,"station_id":"ce4bhbp2rcd13ifvqerg","pricing_plan_id":"free"},{"bike_id":"d646aa68-9c4d-43d0-ba82-1619c0e4ff50","system_id":"levelo_inurba_marseille","lat":43.282744,"lon":5.350533,"is_reserved":false,"is_disabled":false,"rental_uris":{"android":"levelo://app?vid=d646aa68-9c4d-43d0-ba82-1619c0e4ff50","ios":"levelo://app?vid=d646aa68-9c4d-43d0-ba82-1619c0e4ff50"},"vehicle_type_id":"4","last_reported":1701846405,"current_range_meters":30400,"station_id":"ce4bhbp2rcd13ifvqerg","pricing_plan_id":"free"},{"bike_id":"f0b4956a-2532-460a-99a9-3113d5731e10","system_id":"levelo_inurba_marseille","lat":43.282754,"lon":5.350519,"is_reserved":false,"is_disabled":false,"rental_uris":{"android":"levelo://app?vid=f0b4956a-2532-460a-99a9-3113d5731e10","ios":"levelo://app?vid=f0b4956a-2532-460a-99a9-3113d5731e10"},"vehicle_type_id":"4","last_reported":1701846405,"current_range_meters":28400,"station_id":"ce4bhbp2rcd13ifvqerg","pricing_plan_id":"free"},{"bike_id":"9ec80907-fc80-49ca-b652-121cdde6ccf0","system_id":"levelo_inurba_marseille","lat":43.282744,"lon":5.350533,"is_reserved":false,"is_disabled":false,"rental_uris":{"android":"levelo://app?vid=9ec80907-fc80-49ca-b652-121cdde6ccf0","ios":"levelo://app?vid=9ec80907-fc80-49ca-b652-121cdde6ccf0"},"vehicle_type_id":"4","last_reported":1701846405,"current_range_meters":25200,"station_id":"ce4bhbp2rcd13ifvqerg","pricing_plan_id":"free"},{"bike_id":"9ab5e306-a959-4019-9f36-a46979c1ae60","system_id":"levelo_inurba_marseille","lat":43.282744,"lon":5.350533,"is_reserved":false,"is_disabled":false,"rental_uris":{"android":"levelo://app?vid=9ab5e306-a959-4019-9f36-a46979c1ae60","ios":"levelo://app?vid=9ab5e306-a959-4019-9f36-a46979c1ae60"},"vehicle_type_id":"4","last_reported":1701846405,"current_range_meters":29200,"station_id":"ce4bhbp2rcd13ifvqerg","pricing_plan_id":"free"},{"bike_id":"4fad7b4f-33b5-47c5-bbcc-8f9f23bf290f","system_id":"levelo_inurba_marseille","lat":43.290412,"lon":5.399633,"is_reserved":false,"is_disabled":false,"rental_uris":{"android":"levelo://app?vid=4fad7b4f-33b5-47c5-bbcc-8f9f23bf290f","ios":"levelo://app?vid=4fad7b4f-33b5-47c5-bbcc-8f9f23bf290f"},"vehicle_type_id":"4","last_reported":1701846405,"current_range_meters":22400,"station_id":"ce4bh392rcd13ifvqdm0","pricing_plan_id":"free"},{"bike_id":"3b4ac1c6-6cbf-4e90-b601-9d8596040740","system_id":"levelo_inurba_marseille","lat":43.284462,"lon":5.392121,"is_reserved":false,"is_disabled":false,"rental_uris":{"android":"levelo://app?vid=3b4ac1c6-6cbf-4e90-b601-9d8596040740","ios":"levelo://app?vid=3b4ac1c6-6cbf-4e90-b601-9d8596040740"},"vehicle_type_id":"4","last_reported":1701846405,"current_range_meters":10000,"station_id":"ce4bhoh2rcd13ifvqh5g","pricing_plan_id":"free"},{"bike_id":"30faf595-d9a3-4e34-b5a3-d9005e5d8d47","system_id":"levelo_inurba_marseille","lat":43.28432,"lon":5.39181,"is_reserved":false,"is_disabled":false,"rental_uris":{"android":"levelo://app?vid=30faf595-d9a3-4e34-b5a3-d9005e5d8d47","ios":"levelo://app?vid=30faf595-d9a3-4e34-b5a3-d9005e5d8d47"},"vehicle_type_id":"4","last_reported":1701846405,"current_range_meters":7200,"station_id":"ce4bhoh2rcd13ifvqh5g","pricing_plan_id":"free"},{"bike_id":"537b6760-696d-4ecd-93fb-02bd18532c61","system_id":"levelo_inurba_marseille","lat":43.28573,"lon":5.394992,"is_reserved":false,"is_disabled":false,"rental_uris":{"android":"levelo://app?vid=537b6760-696d-4ecd-93fb-02bd18532c61","ios":"levelo://app?vid=537b6760-696d-4ecd-93fb-02bd18532c61"},"vehicle_type_id":"4","last_reported":1701846405,"current_range_meters":31600,"station_id":"ce4bh292rcd13ifvqdg0","pricing_plan_id":"free"},{"bike_id":"b48fc1d6-c7da-451a-8c70-234dcc4c8cfe","system_id":"levelo_inurba_marseille","lat":43.325243,"lon":5.414326,"is_reserved":false,"is_disabled":false,"rental_uris":{"android":"levelo://app?vid=b48fc1d6-c7da-451a-8c70-234dcc4c8cfe","ios":"levelo://app?vid=b48fc1d6-c7da-451a-8c70-234dcc4c8cfe"},"vehicle_type_id":"4","last_reported":1701846405,"current_range_meters":29200,"station_id":"ce4bhq12rcd13ifvqhhg","pricing_plan_id":"free"},{"bike_id":"d648cd2e-546b-4e78-8ec2-e4e3837d9411","system_id":"levelo_inurba_marseille","lat":43.325243,"lon":5.414326,"is_reserved":false,"is_disabled":false,"rental_uris":{"android":"levelo://app?vid=d648cd2e-546b-4e78-8ec2-e4e3837d9411","ios":"levelo://app?vid=d648cd2e-546b-4e78-8ec2-e4e3837d9411"},"vehicle_type_id":"4","last_reported":1701846405,"current_range_meters":20800,"station_id":"ce4bhq12rcd13ifvqhhg","pricing_plan_id":"free"},{"bike_id":"f875c7c6-4aca-4be8-9481-f8750532292f","system_id":"levelo_inurba_marseille","lat":43.325233,"lon":5.414318,"is_reserved":false,"is_disabled":false,"rental_uris":{"android":"levelo://app?vid=f875c7c6-4aca-4be8-9481-f8750532292f","ios":"levelo://app?vid=f875c7c6-4aca-4be8-9481-f8750532292f"},"vehicle_type_id":"4","last_reported":1701846405,"current_range_meters":30400,"station_id":"ce4bhq12rcd13ifvqhhg","pricing_plan_id":"free"},{"bike_id":"e653648a-b829-4301-bab0-7c830288dee0","system_id":"levelo_inurba_marseille","lat":43.303837,"lon":5.418724,"is_reserved":false,"is_disabled":false,"rental_uris":{"android":"levelo://app?vid=e653648a-b829-4301-bab0-7c830288dee0","ios":"levelo://app?vid=e653648a-b829-4301-bab0-7c830288dee0"},"vehicle_type_id":"4","last_reported":1701846405,"current_range_meters":30400,"station_id":"ce4bhop2rcd13ifvqh7g","pricing_plan_id":"free"},{"bike_id":"aa6ce2fc-ad88-4844-a4c0-c13bf514035e","system_id":"levelo_inurba_marseille","lat":43.33612,"lon":5.410321,"is_reserved":false,"is_disabled":false,"rental_uris":{"android":"levelo://app?vid=aa6ce2fc-ad88-4844-a4c0-c13bf514035e","ios":"levelo://app?vid=aa6ce2fc-ad88-4844-a4c0-c13bf514035e"},"vehicle_type_id":"4","last_reported":1701846405,"current_range_meters":25200,"station_id":"ce4bhqh2rcd13ifvqhmg","pricing_plan_id":"free"},{"bike_id":"0d6360d2-75d9-4d43-9449-6f2f60f16a7f","system_id":"levelo_inurba_marseille","lat":43.336134,"lon":5.410341,"is_reserved":false,"is_disabled":false,"rental_uris":{"android":"levelo://app?vid=0d6360d2-75d9-4d43-9449-6f2f60f16a7f","ios":"levelo://app?vid=0d6360d2-75d9-4d43-9449-6f2f60f16a7f"},"vehicle_type_id":"4","last_reported":1701846405,"current_range_meters":18800,"station_id":"ce4bhqh2rcd13ifvqhmg","pricing_plan_id":"free"},{"bike_id":"b3af03d2-80d8-4012-9216-f736c34e0d98","system_id":"levelo_inurba_marseille","lat":43.33612,"lon":5.410321,"is_reserved":false,"is_disabled":false,"rental_uris":{"android":"levelo://app?vid=b3af03d2-80d8-4012-9216-f736c34e0d98","ios":"levelo://app?vid=b3af03d2-80d8-4012-9216-f736c34e0d98"},"vehicle_type_id":"4","last_reported":1701846405,"current_range_meters":3600,"station_id":"ce4bhqh2rcd13ifvqhmg","pricing_plan_id":"free"},{"bike_id":"00438f4d-3411-483d-bfa2-a0b6eede8d82","system_id":"levelo_inurba_marseille","lat":43.27676,"lon":5.38878,"is_reserved":false,"is_disabled":false,"rental_uris":{"android":"levelo://app?vid=00438f4d-3411-483d-bfa2-a0b6eede8d82","ios":"levelo://app?vid=00438f4d-3411-483d-bfa2-a0b6eede8d82"},"vehicle_type_id":"4","last_reported":1701846405,"current_range_meters":9200,"station_id":"ce4bhi12rcd13ifvqfo0","pricing_plan_id":"free"},{"bike_id":"84a5be92-2ee9-4e1f-8be5-7799f9c06b50","system_id":"levelo_inurba_marseille","lat":43.276707,"lon":5.38878,"is_reserved":false,"is_disabled":false,"rental_uris":{"android":"levelo://app?vid=84a5be92-2ee9-4e1f-8be5-7799f9c06b50","ios":"levelo://app?vid=84a5be92-2ee9-4e1f-8be5-7799f9c06b50"},"vehicle_type_id":"4","last_reported":1701846405,"current_range_meters":21600,"station_id":"ce4bhi12rcd13ifvqfo0","pricing_plan_id":"free"},{"bike_id":"b1e0d68f-b5ce-4efc-a11d-bb9890d3062f","system_id":"levelo_inurba_marseille","lat":43.278784,"lon":5.394901,"is_reserved":false,"is_disabled":false,"rental_uris":{"android":"levelo://app?vid=b1e0d68f-b5ce-4efc-a11d-bb9890d3062f","ios":"levelo://app?vid=b1e0d68f-b5ce-4efc-a11d-bb9890d3062f"},"vehicle_type_id":"4","last_reported":1701846405,"current_range_meters":26000,"station_id":"","pricing_plan_id":"free"},{"bike_id":"dd6b756e-3032-4bf3-8729-0e0248edbc6c","system_id":"levelo_inurba_marseille","lat":43.317121,"lon":5.423936,"is_reserved":false,"is_disabled":false,"rental_uris":{"android":"levelo://app?vid=dd6b756e-3032-4bf3-8729-0e0248edbc6c","ios":"levelo://app?vid=dd6b756e-3032-4bf3-8729-0e0248edbc6c"},"vehicle_type_id":"4","last_reported":1701846405,"current_range_meters":31200,"station_id":"ce4bhp92rcd13ifvqhbg","pricing_plan_id":"free"},{"bike_id":"989a01d2-f2a9-4c11-8a79-9792d64b5413","system_id":"levelo_inurba_marseille","lat":43.27622,"lon":5.39483,"is_reserved":false,"is_disabled":false,"rental_uris":{"android":"levelo://app?vid=989a01d2-f2a9-4c11-8a79-9792d64b5413","ios":"levelo://app?vid=989a01d2-f2a9-4c11-8a79-9792d64b5413"},"vehicle_type_id":"4","last_reported":1701846405,"current_range_meters":9600,"station_id":"","pricing_plan_id":"free"},{"bike_id":"35583fe3-d19c-4d33-bdaf-ce96ce3f04aa","system_id":"levelo_inurba_marseille","lat":43.340804,"lon":5.410219,"is_reserved":false,"is_disabled":false,"rental_uris":{"android":"levelo://app?vid=35583fe3-d19c-4d33-bdaf-ce96ce3f04aa","ios":"levelo://app?vid=35583fe3-d19c-4d33-bdaf-ce96ce3f04aa"},"vehicle_type_id":"4","last_reported":1701846405,"current_range_meters":26400,"station_id":"ce4bhqh2rcd13ifvqhlg","pricing_plan_id":"free"},{"bike_id":"03835873-5d6e-49cc-8bf7-4974064c28c9","system_id":"levelo_inurba_marseille","lat":43.340804,"lon":5.410219,"is_reserved":false,"is_disabled":false,"rental_uris":{"android":"levelo://app?vid=03835873-5d6e-49cc-8bf7-4974064c28c9","ios":"levelo://app?vid=03835873-5d6e-49cc-8bf7-4974064c28c9"},"vehicle_type_id":"4","last_reported":1701846405,"current_range_meters":18400,"station_id":"ce4bhqh2rcd13ifvqhlg","pricing_plan_id":"free"},{"bike_id":"a9ff8126-4ac4-4e80-bb22-6442024b0cee","system_id":"levelo_inurba_marseille","lat":43.34138,"lon":5.40908,"is_reserved":false,"is_disabled":false,"rental_uris":{"android":"levelo://app?vid=a9ff8126-4ac4-4e80-bb22-6442024b0cee","ios":"levelo://app?vid=a9ff8126-4ac4-4e80-bb22-6442024b0cee"},"vehicle_type_id":"4","last_reported":1701846405,"current_range_meters":23600,"station_id":"ce4bhqh2rcd13ifvqhlg","pricing_plan_id":"free"},{"bike_id":"910fd3aa-d2e0-4553-894a-6161d41c7fcd","system_id":"levelo_inurba_marseille","lat":43.2757,"lon":5.39533,"is_reserved":false,"is_disabled":false,"rental_uris":{"android":"levelo://app?vid=910fd3aa-d2e0-4553-894a-6161d41c7fcd","ios":"levelo://app?vid=910fd3aa-d2e0-4553-894a-6161d41c7fcd"},"vehicle_type_id":"4","last_reported":1701846405,"current_range_meters":4000,"station_id":"","pricing_plan_id":"free"},{"bike_id":"b4023b38-34d7-4dde-8ce7-608b8a9af452","system_id":"levelo_inurba_marseille","lat":43.30411,"lon":5.42543,"is_reserved":false,"is_disabled":false,"rental_uris":{"android":"levelo://app?vid=b4023b38-34d7-4dde-8ce7-608b8a9af452","ios":"levelo://app?vid=b4023b38-34d7-4dde-8ce7-608b8a9af452"},"vehicle_type_id":"4","last_reported":1701846405,"current_range_meters":29600,"station_id":"ce4bhoh2rcd13ifvqh6g","pricing_plan_id":"free"},{"bike_id":"e5ea545a-52b1-4ab2-8ff2-e9099d2397af","system_id":"levelo_inurba_marseille","lat":43.295511,"lon":5.422926,"is_reserved":false,"is_disabled":false,"rental_uris":{"android":"levelo://app?vid=e5ea545a-52b1-4ab2-8ff2-e9099d2397af","ios":"levelo://app?vid=e5ea545a-52b1-4ab2-8ff2-e9099d2397af"},"vehicle_type_id":"4","last_reported":1701846405,"current_range_meters":24400,"station_id":"ce4bhph2rcd13ifvqhdg","pricing_plan_id":"free"},{"bike_id":"4aaafaa4-5992-4d41-aca4-45ea537c3e9e","system_id":"levelo_inurba_marseille","lat":43.27214,"lon":5.3925,"is_reserved":false,"is_disabled":false,"rental_uris":{"android":"levelo://app?vid=4aaafaa4-5992-4d41-aca4-45ea537c3e9e","ios":"levelo://app?vid=4aaafaa4-5992-4d41-aca4-45ea537c3e9e"},"vehicle_type_id":"4","last_reported":1701846405,"current_range_meters":14000,"station_id":"","pricing_plan_id":"free"},{"bike_id":"41c2b40c-1d1e-4e89-9031-180343f19e92","system_id":"levelo_inurba_marseille","lat":43.269467,"lon":5.386439,"is_reserved":false,"is_disabled":false,"rental_uris":{"android":"levelo://app?vid=41c2b40c-1d1e-4e89-9031-180343f19e92","ios":"levelo://app?vid=41c2b40c-1d1e-4e89-9031-180343f19e92"},"vehicle_type_id":"4","last_reported":1701846405,"current_range_meters":21600,"station_id":"ce4bhh92rcd13ifvqfh0","pricing_plan_id":"free"},{"bike_id":"6379bef0-4421-4fb6-b9da-489282352ddb","system_id":"levelo_inurba_marseille","lat":43.269467,"lon":5.386439,"is_reserved":false,"is_disabled":false,"rental_uris":{"android":"levelo://app?vid=6379bef0-4421-4fb6-b9da-489282352ddb","ios":"levelo://app?vid=6379bef0-4421-4fb6-b9da-489282352ddb"},"vehicle_type_id":"4","last_reported":1701846405,"current_range_meters":20400,"station_id":"ce4bhh92rcd13ifvqfh0","pricing_plan_id":"free"},{"bike_id":"7fbe080b-2196-4d9a-810f-ffd60d6ebb57","system_id":"levelo_inurba_marseille","lat":43.269467,"lon":5.386439,"is_reserved":false,"is_disabled":false,"rental_uris":{"android":"levelo://app?vid=7fbe080b-2196-4d9a-810f-ffd60d6ebb57","ios":"levelo://app?vid=7fbe080b-2196-4d9a-810f-ffd60d6ebb57"},"vehicle_type_id":"4","last_reported":1701846405,"current_range_meters":28000,"station_id":"ce4bhh92rcd13ifvqfh0","pricing_plan_id":"free"},{"bike_id":"f89cbc71-d031-45fe-8acc-873f62a25982","system_id":"levelo_inurba_marseille","lat":43.269319,"lon":5.389397,"is_reserved":false,"is_disabled":false,"rental_uris":{"android":"levelo://app?vid=f89cbc71-d031-45fe-8acc-873f62a25982","ios":"levelo://app?vid=f89cbc71-d031-45fe-8acc-873f62a25982"},"vehicle_type_id":"4","last_reported":1701846405,"current_range_meters":12000,"station_id":"ce4bhhh2rcd13ifvqfl0","pricing_plan_id":"free"},{"bike_id":"1ccdf379-a16a-4b4d-aac2-f0555b1e4d46","system_id":"levelo_inurba_marseille","lat":43.26681,"lon":5.382694,"is_reserved":false,"is_disabled":false,"rental_uris":{"android":"levelo://app?vid=1ccdf379-a16a-4b4d-aac2-f0555b1e4d46","ios":"levelo://app?vid=1ccdf379-a16a-4b4d-aac2-f0555b1e4d46"},"vehicle_type_id":"4","last_reported":1701846405,"current_range_meters":25600,"station_id":"ce4bhg92rcd13ifvqf90","pricing_plan_id":"free"},{"bike_id":"8209aafb-2027-4cbd-8eb8-0e1c3363e94b","system_id":"levelo_inurba_marseille","lat":43.26681,"lon":5.382694,"is_reserved":false,"is_disabled":false,"rental_uris":{"android":"levelo://app?vid=8209aafb-2027-4cbd-8eb8-0e1c3363e94b","ios":"levelo://app?vid=8209aafb-2027-4cbd-8eb8-0e1c3363e94b"},"vehicle_type_id":"4","last_reported":1701846405,"current_range_meters":26800,"station_id":"ce4bhg92rcd13ifvqf90","pricing_plan_id":"free"},{"bike_id":"a4170f54-00ac-456c-b9a7-c78894468c22","system_id":"levelo_inurba_marseille","lat":43.26681,"lon":5.382694,"is_reserved":false,"is_disabled":false,"rental_uris":{"android":"levelo://app?vid=a4170f54-00ac-456c-b9a7-c78894468c22","ios":"levelo://app?vid=a4170f54-00ac-456c-b9a7-c78894468c22"},"vehicle_type_id":"4","last_reported":1701846405,"current_range_meters":31200,"station_id":"ce4bhg92rcd13ifvqf90","pricing_plan_id":"free"},{"bike_id":"a096c7b6-0324-45c5-aebe-20feced15eca","system_id":"levelo_inurba_marseille","lat":43.26681,"lon":5.382694,"is_reserved":false,"is_disabled":false,"rental_uris":{"android":"levelo://app?vid=a096c7b6-0324-45c5-aebe-20feced15eca","ios":"levelo://app?vid=a096c7b6-0324-45c5-aebe-20feced15eca"},"vehicle_type_id":"4","last_reported":1701846405,"current_range_meters":26800,"station_id":"ce4bhg92rcd13ifvqf90","pricing_plan_id":"free"},{"bike_id":"bff70a8e-bc00-441c-a561-523ddeb09bfd","system_id":"levelo_inurba_marseille","lat":43.265714,"lon":5.372891,"is_reserved":false,"is_disabled":false,"rental_uris":{"android":"levelo://app?vid=bff70a8e-bc00-441c-a561-523ddeb09bfd","ios":"levelo://app?vid=bff70a8e-bc00-441c-a561-523ddeb09bfd"},"vehicle_type_id":"4","last_reported":1701846405,"current_range_meters":6400,"station_id":"ce4bhg12rcd13ifvqf70","pricing_plan_id":"free"},{"bike_id":"e28d175b-aee7-434d-9d42-7cdcbfb6079c","system_id":"levelo_inurba_marseille","lat":43.265714,"lon":5.372891,"is_reserved":false,"is_disabled":false,"rental_uris":{"android":"levelo://app?vid=e28d175b-aee7-434d-9d42-7cdcbfb6079c","ios":"levelo://app?vid=e28d175b-aee7-434d-9d42-7cdcbfb6079c"},"vehicle_type_id":"4","last_reported":1701846405,"current_range_meters":23200,"station_id":"ce4bhg12rcd13ifvqf70","pricing_plan_id":"free"},{"bike_id":"9ae15cbb-affc-4981-ab4e-18e544d2c8c4","system_id":"levelo_inurba_marseille","lat":43.26576,"lon":5.39024,"is_reserved":false,"is_disabled":false,"rental_uris":{"android":"levelo://app?vid=9ae15cbb-affc-4981-ab4e-18e544d2c8c4","ios":"levelo://app?vid=9ae15cbb-affc-4981-ab4e-18e544d2c8c4"},"vehicle_type_id":"4","last_reported":1701846405,"current_range_meters":17200,"station_id":"ce4bhe12rcd13ifvqf30","pricing_plan_id":"free"},{"bike_id":"d2a962c0-5f6d-4f44-adf9-51230bc37438","system_id":"levelo_inurba_marseille","lat":43.265569,"lon":5.390047,"is_reserved":false,"is_disabled":false,"rental_uris":{"android":"levelo://app?vid=d2a962c0-5f6d-4f44-adf9-51230bc37438","ios":"levelo://app?vid=d2a962c0-5f6d-4f44-adf9-51230bc37438"},"vehicle_type_id":"4","last_reported":1701846405,"current_range_meters":24000,"station_id":"ce4bhe12rcd13ifvqf30","pricing_plan_id":"free"},{"bike_id":"c367bd69-9ad9-4775-9a16-9c262e4a6ffb","system_id":"levelo_inurba_marseille","lat":43.26943,"lon":5.40249,"is_reserved":false,"is_disabled":false,"rental_uris":{"android":"levelo://app?vid=c367bd69-9ad9-4775-9a16-9c262e4a6ffb","ios":"levelo://app?vid=c367bd69-9ad9-4775-9a16-9c262e4a6ffb"},"vehicle_type_id":"4","last_reported":1701846405,"current_range_meters":4800,"station_id":"cjm6bp8fraef2m0cb0m0","pricing_plan_id":"free"},{"bike_id":"4da8d4ff-cca1-4bbf-8bff-5890c75198a3","system_id":"levelo_inurba_marseille","lat":43.261782,"lon":5.374515,"is_reserved":false,"is_disabled":false,"rental_uris":{"android":"levelo://app?vid=4da8d4ff-cca1-4bbf-8bff-5890c75198a3","ios":"levelo://app?vid=4da8d4ff-cca1-4bbf-8bff-5890c75198a3"},"vehicle_type_id":"4","last_reported":1701846405,"current_range_meters":15600,"station_id":"ce4bhgp2rcd13ifvqfc0","pricing_plan_id":"free"},{"bike_id":"a256b908-7140-4ae0-aa15-504799516201","system_id":"levelo_inurba_marseille","lat":43.261782,"lon":5.374515,"is_reserved":false,"is_disabled":false,"rental_uris":{"android":"levelo://app?vid=a256b908-7140-4ae0-aa15-504799516201","ios":"levelo://app?vid=a256b908-7140-4ae0-aa15-504799516201"},"vehicle_type_id":"4","last_reported":1701846405,"current_range_meters":20800,"station_id":"ce4bhgp2rcd13ifvqfc0","pricing_plan_id":"free"},{"bike_id":"64b92630-41b1-408c-905e-9edc2aae542a","system_id":"levelo_inurba_marseille","lat":43.2618,"lon":5.37442,"is_reserved":false,"is_disabled":false,"rental_uris":{"android":"levelo://app?vid=64b92630-41b1-408c-905e-9edc2aae542a","ios":"levelo://app?vid=64b92630-41b1-408c-905e-9edc2aae542a"},"vehicle_type_id":"4","last_reported":1701846405,"current_range_meters":29200,"station_id":"ce4bhgp2rcd13ifvqfc0","pricing_plan_id":"free"},{"bike_id":"e3b38ee4-eaa0-4a98-a2cc-1dfbdbf6ce43","system_id":"levelo_inurba_marseille","lat":43.31715,"lon":5.43708,"is_reserved":false,"is_disabled":false,"rental_uris":{"android":"levelo://app?vid=e3b38ee4-eaa0-4a98-a2cc-1dfbdbf6ce43","ios":"levelo://app?vid=e3b38ee4-eaa0-4a98-a2cc-1dfbdbf6ce43"},"vehicle_type_id":"4","last_reported":1701846405,"current_range_meters":14400,"station_id":"ce4bhp92rcd13ifvqhcg","pricing_plan_id":"free"},{"bike_id":"29666f4f-8c2f-4d16-8f73-ba9f7e5ded49","system_id":"levelo_inurba_marseille","lat":43.26177,"lon":5.37439,"is_reserved":false,"is_disabled":false,"rental_uris":{"android":"levelo://app?vid=29666f4f-8c2f-4d16-8f73-ba9f7e5ded49","ios":"levelo://app?vid=29666f4f-8c2f-4d16-8f73-ba9f7e5ded49"},"vehicle_type_id":"4","last_reported":1701846405,"current_range_meters":14800,"station_id":"ce4bhgp2rcd13ifvqfc0","pricing_plan_id":"free"},{"bike_id":"37038aca-97ca-4cb2-81d0-9a4826818ca5","system_id":"levelo_inurba_marseille","lat":43.26202,"lon":5.379299,"is_reserved":false,"is_disabled":false,"rental_uris":{"android":"levelo://app?vid=37038aca-97ca-4cb2-81d0-9a4826818ca5","ios":"levelo://app?vid=37038aca-97ca-4cb2-81d0-9a4826818ca5"},"vehicle_type_id":"4","last_reported":1701846405,"current_range_meters":28000,"station_id":"ce4bhjp2rcd13ifvqg90","pricing_plan_id":"free"},{"bike_id":"c54cd023-a6f2-4d68-aabc-4be9f862ccbb","system_id":"levelo_inurba_marseille","lat":43.298768,"lon":5.43643,"is_reserved":false,"is_disabled":false,"rental_uris":{"android":"levelo://app?vid=c54cd023-a6f2-4d68-aabc-4be9f862ccbb","ios":"levelo://app?vid=c54cd023-a6f2-4d68-aabc-4be9f862ccbb"},"vehicle_type_id":"4","last_reported":1701846405,"current_range_meters":31200,"station_id":"ce4bhpp2rcd13ifvqhfg","pricing_plan_id":"free"},{"bike_id":"ee3f0752-b275-4948-a5e5-3ea20bb15c3f","system_id":"levelo_inurba_marseille","lat":43.2607,"lon":5.393983,"is_reserved":false,"is_disabled":false,"rental_uris":{"android":"levelo://app?vid=ee3f0752-b275-4948-a5e5-3ea20bb15c3f","ios":"levelo://app?vid=ee3f0752-b275-4948-a5e5-3ea20bb15c3f"},"vehicle_type_id":"4","last_reported":1701846405,"current_range_meters":22400,"station_id":"ce4bhh92rcd13ifvqfj0","pricing_plan_id":"free"},{"bike_id":"3a58cd85-63e2-4a9a-aeed-0f60a3da03ac","system_id":"levelo_inurba_marseille","lat":43.275028,"lon":5.424534,"is_reserved":false,"is_disabled":false,"rental_uris":{"android":"levelo://app?vid=3a58cd85-63e2-4a9a-aeed-0f60a3da03ac","ios":"levelo://app?vid=3a58cd85-63e2-4a9a-aeed-0f60a3da03ac"},"vehicle_type_id":"4","last_reported":1701846405,"current_range_meters":3600,"station_id":"ce4bhn92rcd13ifvqgrg","pricing_plan_id":"free"},{"bike_id":"6726c534-ff6f-4db6-9fca-4a0e65814a68","system_id":"levelo_inurba_marseille","lat":43.275028,"lon":5.424534,"is_reserved":false,"is_disabled":false,"rental_uris":{"android":"levelo://app?vid=6726c534-ff6f-4db6-9fca-4a0e65814a68","ios":"levelo://app?vid=6726c534-ff6f-4db6-9fca-4a0e65814a68"},"vehicle_type_id":"4","last_reported":1701846405,"current_range_meters":28400,"station_id":"ce4bhn92rcd13ifvqgrg","pricing_plan_id":"free"},{"bike_id":"27e05443-4c1a-4d3d-99c9-39e4a9fc4815","system_id":"levelo_inurba_marseille","lat":43.275028,"lon":5.424534,"is_reserved":false,"is_disabled":false,"rental_uris":{"android":"levelo://app?vid=27e05443-4c1a-4d3d-99c9-39e4a9fc4815","ios":"levelo://app?vid=27e05443-4c1a-4d3d-99c9-39e4a9fc4815"},"vehicle_type_id":"4","last_reported":1701846405,"current_range_meters":28800,"station_id":"ce4bhn92rcd13ifvqgrg","pricing_plan_id":"free"},{"bike_id":"e9a7a629-3de0-40b5-aedd-b046b0d110ef","system_id":"levelo_inurba_marseille","lat":43.275028,"lon":5.424534,"is_reserved":false,"is_disabled":false,"rental_uris":{"android":"levelo://app?vid=e9a7a629-3de0-40b5-aedd-b046b0d110ef","ios":"levelo://app?vid=e9a7a629-3de0-40b5-aedd-b046b0d110ef"},"vehicle_type_id":"4","last_reported":1701846405,"current_range_meters":18400,"station_id":"ce4bhn92rcd13ifvqgrg","pricing_plan_id":"free"},{"bike_id":"01853790-7cce-4669-90e1-2af4fc74c549","system_id":"levelo_inurba_marseille","lat":43.274946,"lon":5.424503,"is_reserved":false,"is_disabled":false,"rental_uris":{"android":"levelo://app?vid=01853790-7cce-4669-90e1-2af4fc74c549","ios":"levelo://app?vid=01853790-7cce-4669-90e1-2af4fc74c549"},"vehicle_type_id":"4","last_reported":1701846405,"current_range_meters":27200,"station_id":"","pricing_plan_id":"free"},{"bike_id":"eedffa3a-2616-4da1-a808-36be14df7d8d","system_id":"levelo_inurba_marseille","lat":43.275028,"lon":5.424534,"is_reserved":false,"is_disabled":false,"rental_uris":{"android":"levelo://app?vid=eedffa3a-2616-4da1-a808-36be14df7d8d","ios":"levelo://app?vid=eedffa3a-2616-4da1-a808-36be14df7d8d"},"vehicle_type_id":"4","last_reported":1701846405,"current_range_meters":22400,"station_id":"ce4bhn92rcd13ifvqgrg","pricing_plan_id":"free"},{"bike_id":"6e55a235-0c71-4e21-96a0-27d603e3dbaf","system_id":"levelo_inurba_marseille","lat":43.275028,"lon":5.424534,"is_reserved":false,"is_disabled":false,"rental_uris":{"android":"levelo://app?vid=6e55a235-0c71-4e21-96a0-27d603e3dbaf","ios":"levelo://app?vid=6e55a235-0c71-4e21-96a0-27d603e3dbaf"},"vehicle_type_id":"4","last_reported":1701846405,"current_range_meters":7600,"station_id":"ce4bhn92rcd13ifvqgrg","pricing_plan_id":"free"},{"bike_id":"6ac65797-ae0b-4ccc-8c36-4bf9783e9ab6","system_id":"levelo_inurba_marseille","lat":43.275028,"lon":5.424534,"is_reserved":false,"is_disabled":false,"rental_uris":{"android":"levelo://app?vid=6ac65797-ae0b-4ccc-8c36-4bf9783e9ab6","ios":"levelo://app?vid=6ac65797-ae0b-4ccc-8c36-4bf9783e9ab6"},"vehicle_type_id":"4","last_reported":1701846405,"current_range_meters":25600,"station_id":"ce4bhn92rcd13ifvqgrg","pricing_plan_id":"free"},{"bike_id":"220c2539-b262-48f0-9b44-388a5306d1a7","system_id":"levelo_inurba_marseille","lat":43.275028,"lon":5.424534,"is_reserved":false,"is_disabled":false,"rental_uris":{"android":"levelo://app?vid=220c2539-b262-48f0-9b44-388a5306d1a7","ios":"levelo://app?vid=220c2539-b262-48f0-9b44-388a5306d1a7"},"vehicle_type_id":"4","last_reported":1701846405,"current_range_meters":6400,"station_id":"ce4bhn92rcd13ifvqgrg","pricing_plan_id":"free"},{"bike_id":"19b1077d-a475-4b07-99c0-a8a402eb44f0","system_id":"levelo_inurba_marseille","lat":43.275028,"lon":5.424534,"is_reserved":false,"is_disabled":false,"rental_uris":{"android":"levelo://app?vid=19b1077d-a475-4b07-99c0-a8a402eb44f0","ios":"levelo://app?vid=19b1077d-a475-4b07-99c0-a8a402eb44f0"},"vehicle_type_id":"4","last_reported":1701846405,"current_range_meters":18800,"station_id":"ce4bhn92rcd13ifvqgrg","pricing_plan_id":"free"},{"bike_id":"99bc3bf0-c7f0-411e-b927-79e5b1ad773d","system_id":"levelo_inurba_marseille","lat":43.275028,"lon":5.424534,"is_reserved":false,"is_disabled":false,"rental_uris":{"android":"levelo://app?vid=99bc3bf0-c7f0-411e-b927-79e5b1ad773d","ios":"levelo://app?vid=99bc3bf0-c7f0-411e-b927-79e5b1ad773d"},"vehicle_type_id":"4","last_reported":1701846405,"current_range_meters":16400,"station_id":"ce4bhn92rcd13ifvqgrg","pricing_plan_id":"free"},{"bike_id":"77b5292f-d0a0-40ae-a46d-2f3d574f3b92","system_id":"levelo_inurba_marseille","lat":43.275028,"lon":5.424534,"is_reserved":false,"is_disabled":false,"rental_uris":{"android":"levelo://app?vid=77b5292f-d0a0-40ae-a46d-2f3d574f3b92","ios":"levelo://app?vid=77b5292f-d0a0-40ae-a46d-2f3d574f3b92"},"vehicle_type_id":"4","last_reported":1701846405,"current_range_meters":22800,"station_id":"ce4bhn92rcd13ifvqgrg","pricing_plan_id":"free"},{"bike_id":"56a66b8d-f2c9-4d86-b6da-0f4d9fdfa5f2","system_id":"levelo_inurba_marseille","lat":43.25588,"lon":5.38224,"is_reserved":false,"is_disabled":false,"rental_uris":{"android":"levelo://app?vid=56a66b8d-f2c9-4d86-b6da-0f4d9fdfa5f2","ios":"levelo://app?vid=56a66b8d-f2c9-4d86-b6da-0f4d9fdfa5f2"},"vehicle_type_id":"4","last_reported":1701846405,"current_range_meters":12800,"station_id":"ce4bhih2rcd13ifvqfs0","pricing_plan_id":"free"},{"bike_id":"87a77a58-ec9e-4525-9985-8ab94d6cd9b0","system_id":"levelo_inurba_marseille","lat":43.25827,"lon":5.39438,"is_reserved":false,"is_disabled":false,"rental_uris":{"android":"levelo://app?vid=87a77a58-ec9e-4525-9985-8ab94d6cd9b0","ios":"levelo://app?vid=87a77a58-ec9e-4525-9985-8ab94d6cd9b0"},"vehicle_type_id":"4","last_reported":1701846405,"current_range_meters":3200,"station_id":"ce4bhip2rcd13ifvqft0","pricing_plan_id":"free"},{"bike_id":"d0106df9-056f-4781-80be-5377d6ae96c0","system_id":"levelo_inurba_marseille","lat":43.258224,"lon":5.394369,"is_reserved":false,"is_disabled":false,"rental_uris":{"android":"levelo://app?vid=d0106df9-056f-4781-80be-5377d6ae96c0","ios":"levelo://app?vid=d0106df9-056f-4781-80be-5377d6ae96c0"},"vehicle_type_id":"4","last_reported":1701846405,"current_range_meters":30400,"station_id":"ce4bhip2rcd13ifvqft0","pricing_plan_id":"free"},{"bike_id":"74d22f92-4df4-461a-8f36-dbc8334d8d61","system_id":"levelo_inurba_marseille","lat":43.258224,"lon":5.394369,"is_reserved":false,"is_disabled":false,"rental_uris":{"android":"levelo://app?vid=74d22f92-4df4-461a-8f36-dbc8334d8d61","ios":"levelo://app?vid=74d22f92-4df4-461a-8f36-dbc8334d8d61"},"vehicle_type_id":"4","last_reported":1701846405,"current_range_meters":7200,"station_id":"ce4bhip2rcd13ifvqft0","pricing_plan_id":"free"},{"bike_id":"f6225bef-2316-4fa7-a461-2a35560205b5","system_id":"levelo_inurba_marseille","lat":43.25509,"lon":5.37648,"is_reserved":false,"is_disabled":false,"rental_uris":{"android":"levelo://app?vid=f6225bef-2316-4fa7-a461-2a35560205b5","ios":"levelo://app?vid=f6225bef-2316-4fa7-a461-2a35560205b5"},"vehicle_type_id":"4","last_reported":1701846405,"current_range_meters":25600,"station_id":"ce4bhh12rcd13ifvqff0","pricing_plan_id":"free"},{"bike_id":"17f04a7c-4c0d-410b-8b98-175b327b84b8","system_id":"levelo_inurba_marseille","lat":43.25818,"lon":5.39428,"is_reserved":false,"is_disabled":false,"rental_uris":{"android":"levelo://app?vid=17f04a7c-4c0d-410b-8b98-175b327b84b8","ios":"levelo://app?vid=17f04a7c-4c0d-410b-8b98-175b327b84b8"},"vehicle_type_id":"4","last_reported":1701846405,"current_range_meters":30400,"station_id":"ce4bhip2rcd13ifvqft0","pricing_plan_id":"free"},{"bike_id":"5e5e7574-4f45-48e4-936b-03f30d961b04","system_id":"levelo_inurba_marseille","lat":43.25507,"lon":5.37649,"is_reserved":false,"is_disabled":false,"rental_uris":{"android":"levelo://app?vid=5e5e7574-4f45-48e4-936b-03f30d961b04","ios":"levelo://app?vid=5e5e7574-4f45-48e4-936b-03f30d961b04"},"vehicle_type_id":"4","last_reported":1701846405,"current_range_meters":18400,"station_id":"ce4bhh12rcd13ifvqff0","pricing_plan_id":"free"},{"bike_id":"379e0731-7f57-4502-8a2a-0fb434ea06dd","system_id":"levelo_inurba_marseille","lat":43.255748,"lon":5.382373,"is_reserved":false,"is_disabled":false,"rental_uris":{"android":"levelo://app?vid=379e0731-7f57-4502-8a2a-0fb434ea06dd","ios":"levelo://app?vid=379e0731-7f57-4502-8a2a-0fb434ea06dd"},"vehicle_type_id":"4","last_reported":1701846405,"current_range_meters":26000,"station_id":"ce4bhih2rcd13ifvqfs0","pricing_plan_id":"free"},{"bike_id":"20e9d879-7ab6-4d31-9ea0-b43d6766c982","system_id":"levelo_inurba_marseille","lat":43.25503,"lon":5.37647,"is_reserved":false,"is_disabled":false,"rental_uris":{"android":"levelo://app?vid=20e9d879-7ab6-4d31-9ea0-b43d6766c982","ios":"levelo://app?vid=20e9d879-7ab6-4d31-9ea0-b43d6766c982"},"vehicle_type_id":"4","last_reported":1701846405,"current_range_meters":28800,"station_id":"ce4bhh12rcd13ifvqff0","pricing_plan_id":"free"},{"bike_id":"ca9332e9-cbef-43ed-9c45-0222a0848c83","system_id":"levelo_inurba_marseille","lat":43.255,"lon":5.37651,"is_reserved":false,"is_disabled":false,"rental_uris":{"android":"levelo://app?vid=ca9332e9-cbef-43ed-9c45-0222a0848c83","ios":"levelo://app?vid=ca9332e9-cbef-43ed-9c45-0222a0848c83"},"vehicle_type_id":"4","last_reported":1701846405,"current_range_meters":30000,"station_id":"ce4bhh12rcd13ifvqff0","pricing_plan_id":"free"},{"bike_id":"e0f2affa-09b0-4bf8-96bb-ed8a1d4d1221","system_id":"levelo_inurba_marseille","lat":43.25496,"lon":5.37651,"is_reserved":false,"is_disabled":false,"rental_uris":{"android":"levelo://app?vid=e0f2affa-09b0-4bf8-96bb-ed8a1d4d1221","ios":"levelo://app?vid=e0f2affa-09b0-4bf8-96bb-ed8a1d4d1221"},"vehicle_type_id":"4","last_reported":1701846405,"current_range_meters":26000,"station_id":"ce4bhh12rcd13ifvqff0","pricing_plan_id":"free"},{"bike_id":"247af584-b3f4-42a0-9236-07d89794d35d","system_id":"levelo_inurba_marseille","lat":43.270721,"lon":5.422764,"is_reserved":false,"is_disabled":false,"rental_uris":{"android":"levelo://app?vid=247af584-b3f4-42a0-9236-07d89794d35d","ios":"levelo://app?vid=247af584-b3f4-42a0-9236-07d89794d35d"},"vehicle_type_id":"4","last_reported":1701846405,"current_range_meters":28400,"station_id":"ce4bhk92rcd13ifvqgb0","pricing_plan_id":"free"},{"bike_id":"c808fd05-3396-47eb-a8be-22cb6b8a77b4","system_id":"levelo_inurba_marseille","lat":43.27065,"lon":5.42269,"is_reserved":false,"is_disabled":false,"rental_uris":{"android":"levelo://app?vid=c808fd05-3396-47eb-a8be-22cb6b8a77b4","ios":"levelo://app?vid=c808fd05-3396-47eb-a8be-22cb6b8a77b4"},"vehicle_type_id":"4","last_reported":1701846405,"current_range_meters":20000,"station_id":"ce4bhk92rcd13ifvqgb0","pricing_plan_id":"free"},{"bike_id":"50d78045-fcc5-47a3-89c4-74dbb7805bbd","system_id":"levelo_inurba_marseille","lat":43.25939,"lon":5.4091,"is_reserved":false,"is_disabled":false,"rental_uris":{"android":"levelo://app?vid=50d78045-fcc5-47a3-89c4-74dbb7805bbd","ios":"levelo://app?vid=50d78045-fcc5-47a3-89c4-74dbb7805bbd"},"vehicle_type_id":"4","last_reported":1701846405,"current_range_meters":18400,"station_id":"ce4bhm92rcd13ifvqglg","pricing_plan_id":"free"},{"bike_id":"b2a211c2-601f-4a2e-82b4-5e5b1d16fc19","system_id":"levelo_inurba_marseille","lat":43.259013,"lon":5.409301,"is_reserved":false,"is_disabled":false,"rental_uris":{"android":"levelo://app?vid=b2a211c2-601f-4a2e-82b4-5e5b1d16fc19","ios":"levelo://app?vid=b2a211c2-601f-4a2e-82b4-5e5b1d16fc19"},"vehicle_type_id":"4","last_reported":1701846405,"current_range_meters":25200,"station_id":"ce4bhm92rcd13ifvqglg","pricing_plan_id":"free"},{"bike_id":"85461d52-108f-4674-9751-e4e6d032a0f3","system_id":"levelo_inurba_marseille","lat":43.25727,"lon":5.41111,"is_reserved":false,"is_disabled":false,"rental_uris":{"android":"levelo://app?vid=85461d52-108f-4674-9751-e4e6d032a0f3","ios":"levelo://app?vid=85461d52-108f-4674-9751-e4e6d032a0f3"},"vehicle_type_id":"4","last_reported":1701846405,"current_range_meters":11600,"station_id":"ce4bhkp2rcd13ifvqgd0","pricing_plan_id":"free"},{"bike_id":"d9778b34-be45-4a9e-815f-34fa65ab33d0","system_id":"levelo_inurba_marseille","lat":43.257079,"lon":5.411051,"is_reserved":false,"is_disabled":false,"rental_uris":{"android":"levelo://app?vid=d9778b34-be45-4a9e-815f-34fa65ab33d0","ios":"levelo://app?vid=d9778b34-be45-4a9e-815f-34fa65ab33d0"},"vehicle_type_id":"4","last_reported":1701846405,"current_range_meters":26800,"station_id":"ce4bhkp2rcd13ifvqgd0","pricing_plan_id":"free"},{"bike_id":"5e03874a-61c5-470c-8350-111f23e224ac","system_id":"levelo_inurba_marseille","lat":43.257079,"lon":5.411051,"is_reserved":false,"is_disabled":false,"rental_uris":{"android":"levelo://app?vid=5e03874a-61c5-470c-8350-111f23e224ac","ios":"levelo://app?vid=5e03874a-61c5-470c-8350-111f23e224ac"},"vehicle_type_id":"4","last_reported":1701846405,"current_range_meters":31200,"station_id":"ce4bhkp2rcd13ifvqgd0","pricing_plan_id":"free"},{"bike_id":"7209a566-cbfd-498e-b0c7-d5bab9b9338d","system_id":"levelo_inurba_marseille","lat":43.250009,"lon":5.389195,"is_reserved":false,"is_disabled":false,"rental_uris":{"android":"levelo://app?vid=7209a566-cbfd-498e-b0c7-d5bab9b9338d","ios":"levelo://app?vid=7209a566-cbfd-498e-b0c7-d5bab9b9338d"},"vehicle_type_id":"4","last_reported":1701846405,"current_range_meters":15200,"station_id":"ce4bhgp2rcd13ifvqfd0","pricing_plan_id":"free"},{"bike_id":"e68cfafb-784c-4d25-b8a5-401a4f504e08","system_id":"levelo_inurba_marseille","lat":43.246795,"lon":5.381639,"is_reserved":false,"is_disabled":false,"rental_uris":{"android":"levelo://app?vid=e68cfafb-784c-4d25-b8a5-401a4f504e08","ios":"levelo://app?vid=e68cfafb-784c-4d25-b8a5-401a4f504e08"},"vehicle_type_id":"4","last_reported":1701846405,"current_range_meters":8000,"station_id":"ce4bhih2rcd13ifvqfr0","pricing_plan_id":"free"},{"bike_id":"90c0d0f5-d5fb-4f05-8e90-fe6ebbb7fb73","system_id":"levelo_inurba_marseille","lat":43.246461,"lon":5.389014,"is_reserved":false,"is_disabled":false,"rental_uris":{"android":"levelo://app?vid=90c0d0f5-d5fb-4f05-8e90-fe6ebbb7fb73","ios":"levelo://app?vid=90c0d0f5-d5fb-4f05-8e90-fe6ebbb7fb73"},"vehicle_type_id":"4","last_reported":1701846405,"current_range_meters":5200,"station_id":"ce4bhg12rcd13ifvqf60","pricing_plan_id":"free"},{"bike_id":"ce91da00-6e2d-4481-bc4e-9e801a4a9a2a","system_id":"levelo_inurba_marseille","lat":43.24545,"lon":5.39528,"is_reserved":false,"is_disabled":false,"rental_uris":{"android":"levelo://app?vid=ce91da00-6e2d-4481-bc4e-9e801a4a9a2a","ios":"levelo://app?vid=ce91da00-6e2d-4481-bc4e-9e801a4a9a2a"},"vehicle_type_id":"4","last_reported":1701846405,"current_range_meters":0,"station_id":"ce4bhlp2rcd13ifvqgjg","pricing_plan_id":"free"},{"bike_id":"0931915a-97e2-46cc-97be-1970d3747868","system_id":"levelo_inurba_marseille","lat":43.240623,"lon":5.377642,"is_reserved":false,"is_disabled":false,"rental_uris":{"android":"levelo://app?vid=0931915a-97e2-46cc-97be-1970d3747868","ios":"levelo://app?vid=0931915a-97e2-46cc-97be-1970d3747868"},"vehicle_type_id":"4","last_reported":1701846405,"current_range_meters":23600,"station_id":"ce4bhnp2rcd13ifvqgvg","pricing_plan_id":"free"},{"bike_id":"b3ce5390-f9cb-4b00-96b4-4e84bab13b3e","system_id":"levelo_inurba_marseille","lat":43.240623,"lon":5.377642,"is_reserved":false,"is_disabled":false,"rental_uris":{"android":"levelo://app?vid=b3ce5390-f9cb-4b00-96b4-4e84bab13b3e","ios":"levelo://app?vid=b3ce5390-f9cb-4b00-96b4-4e84bab13b3e"},"vehicle_type_id":"4","last_reported":1701846405,"current_range_meters":25600,"station_id":"ce4bhnp2rcd13ifvqgvg","pricing_plan_id":"free"},{"bike_id":"5d80738c-ba9d-43e1-ad03-808dbd3b16a9","system_id":"levelo_inurba_marseille","lat":43.240623,"lon":5.377642,"is_reserved":false,"is_disabled":false,"rental_uris":{"android":"levelo://app?vid=5d80738c-ba9d-43e1-ad03-808dbd3b16a9","ios":"levelo://app?vid=5d80738c-ba9d-43e1-ad03-808dbd3b16a9"},"vehicle_type_id":"4","last_reported":1701846405,"current_range_meters":15200,"station_id":"ce4bhnp2rcd13ifvqgvg","pricing_plan_id":"free"},{"bike_id":"55c4f7f2-9a95-42eb-a55b-87d34b930930","system_id":"levelo_inurba_marseille","lat":43.24074,"lon":5.37758,"is_reserved":false,"is_disabled":false,"rental_uris":{"android":"levelo://app?vid=55c4f7f2-9a95-42eb-a55b-87d34b930930","ios":"levelo://app?vid=55c4f7f2-9a95-42eb-a55b-87d34b930930"},"vehicle_type_id":"4","last_reported":1701846405,"current_range_meters":18800,"station_id":"ce4bhnp2rcd13ifvqgvg","pricing_plan_id":"free"},{"bike_id":"f2b91f46-6dd1-4f8e-b011-fa0d86fddb82","system_id":"levelo_inurba_marseille","lat":43.240623,"lon":5.377642,"is_reserved":false,"is_disabled":false,"rental_uris":{"android":"levelo://app?vid=f2b91f46-6dd1-4f8e-b011-fa0d86fddb82","ios":"levelo://app?vid=f2b91f46-6dd1-4f8e-b011-fa0d86fddb82"},"vehicle_type_id":"4","last_reported":1701846405,"current_range_meters":14800,"station_id":"ce4bhnp2rcd13ifvqgvg","pricing_plan_id":"free"},{"bike_id":"6b391060-65a6-4fb2-8d11-c8a6d61997f1","system_id":"levelo_inurba_marseille","lat":43.240623,"lon":5.377642,"is_reserved":false,"is_disabled":false,"rental_uris":{"android":"levelo://app?vid=6b391060-65a6-4fb2-8d11-c8a6d61997f1","ios":"levelo://app?vid=6b391060-65a6-4fb2-8d11-c8a6d61997f1"},"vehicle_type_id":"4","last_reported":1701846405,"current_range_meters":27200,"station_id":"ce4bhnp2rcd13ifvqgvg","pricing_plan_id":"free"},{"bike_id":"06c341e8-f875-490b-baeb-17717328f7c7","system_id":"levelo_inurba_marseille","lat":43.24072,"lon":5.37759,"is_reserved":false,"is_disabled":false,"rental_uris":{"android":"levelo://app?vid=06c341e8-f875-490b-baeb-17717328f7c7","ios":"levelo://app?vid=06c341e8-f875-490b-baeb-17717328f7c7"},"vehicle_type_id":"4","last_reported":1701846405,"current_range_meters":26400,"station_id":"ce4bhnp2rcd13ifvqgvg","pricing_plan_id":"free"},{"bike_id":"58053e1e-c5d0-4b04-81ee-abc21ca7c551","system_id":"levelo_inurba_marseille","lat":43.240623,"lon":5.377642,"is_reserved":false,"is_disabled":false,"rental_uris":{"android":"levelo://app?vid=58053e1e-c5d0-4b04-81ee-abc21ca7c551","ios":"levelo://app?vid=58053e1e-c5d0-4b04-81ee-abc21ca7c551"},"vehicle_type_id":"4","last_reported":1701846405,"current_range_meters":22800,"station_id":"ce4bhnp2rcd13ifvqgvg","pricing_plan_id":"free"},{"bike_id":"05b6bc82-d92e-42d5-a5a6-bf5604667c1d","system_id":"levelo_inurba_marseille","lat":43.240623,"lon":5.377642,"is_reserved":false,"is_disabled":false,"rental_uris":{"android":"levelo://app?vid=05b6bc82-d92e-42d5-a5a6-bf5604667c1d","ios":"levelo://app?vid=05b6bc82-d92e-42d5-a5a6-bf5604667c1d"},"vehicle_type_id":"4","last_reported":1701846405,"current_range_meters":0,"station_id":"ce4bhnp2rcd13ifvqgvg","pricing_plan_id":"free"},{"bike_id":"8306754c-9b29-4149-8ee6-9f3fdb1e2404","system_id":"levelo_inurba_marseille","lat":43.24071,"lon":5.3776,"is_reserved":false,"is_disabled":false,"rental_uris":{"android":"levelo://app?vid=8306754c-9b29-4149-8ee6-9f3fdb1e2404","ios":"levelo://app?vid=8306754c-9b29-4149-8ee6-9f3fdb1e2404"},"vehicle_type_id":"4","last_reported":1701846405,"current_range_meters":12400,"station_id":"ce4bhnp2rcd13ifvqgvg","pricing_plan_id":"free"},{"bike_id":"530186fd-19db-4bab-83dc-b218fce5756d","system_id":"levelo_inurba_marseille","lat":43.24071,"lon":5.37762,"is_reserved":false,"is_disabled":false,"rental_uris":{"android":"levelo://app?vid=530186fd-19db-4bab-83dc-b218fce5756d","ios":"levelo://app?vid=530186fd-19db-4bab-83dc-b218fce5756d"},"vehicle_type_id":"4","last_reported":1701846405,"current_range_meters":26800,"station_id":"ce4bhnp2rcd13ifvqgvg","pricing_plan_id":"free"},{"bike_id":"7ff990ab-b3c8-438b-b492-93b4d306fa58","system_id":"levelo_inurba_marseille","lat":43.240623,"lon":5.377642,"is_reserved":false,"is_disabled":false,"rental_uris":{"android":"levelo://app?vid=7ff990ab-b3c8-438b-b492-93b4d306fa58","ios":"levelo://app?vid=7ff990ab-b3c8-438b-b492-93b4d306fa58"},"vehicle_type_id":"4","last_reported":1701846405,"current_range_meters":22800,"station_id":"ce4bhnp2rcd13ifvqgvg","pricing_plan_id":"free"},{"bike_id":"74bc4804-1965-4d25-8199-cd34a282c6b4","system_id":"levelo_inurba_marseille","lat":43.240623,"lon":5.377642,"is_reserved":false,"is_disabled":false,"rental_uris":{"android":"levelo://app?vid=74bc4804-1965-4d25-8199-cd34a282c6b4","ios":"levelo://app?vid=74bc4804-1965-4d25-8199-cd34a282c6b4"},"vehicle_type_id":"4","last_reported":1701846405,"current_range_meters":21200,"station_id":"ce4bhnp2rcd13ifvqgvg","pricing_plan_id":"free"},{"bike_id":"3211a8d3-2c58-4c73-b06f-28f319863513","system_id":"levelo_inurba_marseille","lat":43.240623,"lon":5.377642,"is_reserved":false,"is_disabled":false,"rental_uris":{"android":"levelo://app?vid=3211a8d3-2c58-4c73-b06f-28f319863513","ios":"levelo://app?vid=3211a8d3-2c58-4c73-b06f-28f319863513"},"vehicle_type_id":"4","last_reported":1701846405,"current_range_meters":8800,"station_id":"ce4bhnp2rcd13ifvqgvg","pricing_plan_id":"free"},{"bike_id":"997fd2e8-a739-42e8-907b-cbaffd16bd36","system_id":"levelo_inurba_marseille","lat":43.240623,"lon":5.377642,"is_reserved":false,"is_disabled":false,"rental_uris":{"android":"levelo://app?vid=997fd2e8-a739-42e8-907b-cbaffd16bd36","ios":"levelo://app?vid=997fd2e8-a739-42e8-907b-cbaffd16bd36"},"vehicle_type_id":"4","last_reported":1701846405,"current_range_meters":31200,"station_id":"ce4bhnp2rcd13ifvqgvg","pricing_plan_id":"free"},{"bike_id":"570503fd-2307-43b3-9557-847509788418","system_id":"levelo_inurba_marseille","lat":43.240623,"lon":5.377642,"is_reserved":false,"is_disabled":false,"rental_uris":{"android":"levelo://app?vid=570503fd-2307-43b3-9557-847509788418","ios":"levelo://app?vid=570503fd-2307-43b3-9557-847509788418"},"vehicle_type_id":"4","last_reported":1701846405,"current_range_meters":30800,"station_id":"ce4bhnp2rcd13ifvqgvg","pricing_plan_id":"free"},{"bike_id":"4739a368-3333-42f2-af96-f3d310d3b65f","system_id":"levelo_inurba_marseille","lat":43.240623,"lon":5.377642,"is_reserved":false,"is_disabled":false,"rental_uris":{"android":"levelo://app?vid=4739a368-3333-42f2-af96-f3d310d3b65f","ios":"levelo://app?vid=4739a368-3333-42f2-af96-f3d310d3b65f"},"vehicle_type_id":"4","last_reported":1701846405,"current_range_meters":21200,"station_id":"ce4bhnp2rcd13ifvqgvg","pricing_plan_id":"free"},{"bike_id":"08610f80-88db-4290-a770-9fb9184e3e28","system_id":"levelo_inurba_marseille","lat":43.240623,"lon":5.377642,"is_reserved":false,"is_disabled":false,"rental_uris":{"android":"levelo://app?vid=08610f80-88db-4290-a770-9fb9184e3e28","ios":"levelo://app?vid=08610f80-88db-4290-a770-9fb9184e3e28"},"vehicle_type_id":"4","last_reported":1701846405,"current_range_meters":19600,"station_id":"ce4bhnp2rcd13ifvqgvg","pricing_plan_id":"free"},{"bike_id":"b7889d62-43b9-4540-91fc-9f1fa3cd91a3","system_id":"levelo_inurba_marseille","lat":43.240623,"lon":5.377642,"is_reserved":false,"is_disabled":false,"rental_uris":{"android":"levelo://app?vid=b7889d62-43b9-4540-91fc-9f1fa3cd91a3","ios":"levelo://app?vid=b7889d62-43b9-4540-91fc-9f1fa3cd91a3"},"vehicle_type_id":"4","last_reported":1701846405,"current_range_meters":22800,"station_id":"ce4bhnp2rcd13ifvqgvg","pricing_plan_id":"free"},{"bike_id":"42f8059c-0c8c-4b88-b8c4-4995fc37151e","system_id":"levelo_inurba_marseille","lat":43.240623,"lon":5.377642,"is_reserved":false,"is_disabled":false,"rental_uris":{"android":"levelo://app?vid=42f8059c-0c8c-4b88-b8c4-4995fc37151e","ios":"levelo://app?vid=42f8059c-0c8c-4b88-b8c4-4995fc37151e"},"vehicle_type_id":"4","last_reported":1701846405,"current_range_meters":20400,"station_id":"ce4bhnp2rcd13ifvqgvg","pricing_plan_id":"free"},{"bike_id":"04b00323-44dc-4556-add8-5a131157a4f0","system_id":"levelo_inurba_marseille","lat":43.243928,"lon":5.401721,"is_reserved":false,"is_disabled":false,"rental_uris":{"android":"levelo://app?vid=04b00323-44dc-4556-add8-5a131157a4f0","ios":"levelo://app?vid=04b00323-44dc-4556-add8-5a131157a4f0"},"vehicle_type_id":"4","last_reported":1701846405,"current_range_meters":0,"station_id":"","pricing_plan_id":"free"},{"bike_id":"03147709-054c-4872-b1e4-9f5a93f8bdda","system_id":"levelo_inurba_marseille","lat":43.241782,"lon":5.397261,"is_reserved":false,"is_disabled":false,"rental_uris":{"android":"levelo://app?vid=03147709-054c-4872-b1e4-9f5a93f8bdda","ios":"levelo://app?vid=03147709-054c-4872-b1e4-9f5a93f8bdda"},"vehicle_type_id":"4","last_reported":1701846405,"current_range_meters":21200,"station_id":"ce4bhn12rcd13ifvqgpg","pricing_plan_id":"free"},{"bike_id":"f23e87f8-970d-4f02-83e4-20ba7232e14a","system_id":"levelo_inurba_marseille","lat":43.241782,"lon":5.397261,"is_reserved":false,"is_disabled":false,"rental_uris":{"android":"levelo://app?vid=f23e87f8-970d-4f02-83e4-20ba7232e14a","ios":"levelo://app?vid=f23e87f8-970d-4f02-83e4-20ba7232e14a"},"vehicle_type_id":"4","last_reported":1701846405,"current_range_meters":13600,"station_id":"ce4bhn12rcd13ifvqgpg","pricing_plan_id":"free"},{"bike_id":"d868c0b5-242c-4b9f-b108-cbde91aaec79","system_id":"levelo_inurba_marseille","lat":43.231923,"lon":5.355545,"is_reserved":false,"is_disabled":false,"rental_uris":{"android":"levelo://app?vid=d868c0b5-242c-4b9f-b108-cbde91aaec79","ios":"levelo://app?vid=d868c0b5-242c-4b9f-b108-cbde91aaec79"},"vehicle_type_id":"4","last_reported":1701846405,"current_range_meters":22000,"station_id":"ce4bhu92rcd13ifvqi70","pricing_plan_id":"free"},{"bike_id":"e2fb0602-0025-4bc2-a80e-ca4c6079bddc","system_id":"levelo_inurba_marseille","lat":43.231923,"lon":5.355545,"is_reserved":false,"is_disabled":false,"rental_uris":{"android":"levelo://app?vid=e2fb0602-0025-4bc2-a80e-ca4c6079bddc","ios":"levelo://app?vid=e2fb0602-0025-4bc2-a80e-ca4c6079bddc"},"vehicle_type_id":"4","last_reported":1701846405,"current_range_meters":26400,"station_id":"ce4bhu92rcd13ifvqi70","pricing_plan_id":"free"},{"bike_id":"cf3102c4-88e0-4a41-86b7-69a76932d3e6","system_id":"levelo_inurba_marseille","lat":43.231923,"lon":5.355545,"is_reserved":false,"is_disabled":false,"rental_uris":{"android":"levelo://app?vid=cf3102c4-88e0-4a41-86b7-69a76932d3e6","ios":"levelo://app?vid=cf3102c4-88e0-4a41-86b7-69a76932d3e6"},"vehicle_type_id":"4","last_reported":1701846405,"current_range_meters":31200,"station_id":"ce4bhu92rcd13ifvqi70","pricing_plan_id":"free"},{"bike_id":"b988d3fe-c649-4089-ae26-b7efbdfc136a","system_id":"levelo_inurba_marseille","lat":43.231794,"lon":5.400052,"is_reserved":false,"is_disabled":false,"rental_uris":{"android":"levelo://app?vid=b988d3fe-c649-4089-ae26-b7efbdfc136a","ios":"levelo://app?vid=b988d3fe-c649-4089-ae26-b7efbdfc136a"},"vehicle_type_id":"4","last_reported":1701846405,"current_range_meters":31200,"station_id":"ce4bhn12rcd13ifvqgqg","pricing_plan_id":"free"},{"bike_id":"dc29a285-2eb7-4eea-83a6-73eca831345a","system_id":"levelo_inurba_marseille","lat":43.231794,"lon":5.400052,"is_reserved":false,"is_disabled":false,"rental_uris":{"android":"levelo://app?vid=dc29a285-2eb7-4eea-83a6-73eca831345a","ios":"levelo://app?vid=dc29a285-2eb7-4eea-83a6-73eca831345a"},"vehicle_type_id":"4","last_reported":1701846405,"current_range_meters":30000,"station_id":"ce4bhn12rcd13ifvqgqg","pricing_plan_id":"free"},{"bike_id":"38245e9a-47dc-4456-9bf1-c0e93f657d16","system_id":"levelo_inurba_marseille","lat":43.231562,"lon":5.436933,"is_reserved":false,"is_disabled":false,"rental_uris":{"android":"levelo://app?vid=38245e9a-47dc-4456-9bf1-c0e93f657d16","ios":"levelo://app?vid=38245e9a-47dc-4456-9bf1-c0e93f657d16"},"vehicle_type_id":"4","last_reported":1701846405,"current_range_meters":28400,"station_id":"ce4bhmp2rcd13ifvqgog","pricing_plan_id":"free"}]}}