{"last_updated":1706638131,"ttl":30,"version":"2.2","data":{"bikes":[{"bike_id":"758686a0-22a5-4b32-9cbd-09e0fd620cf1","system_id":"levelo_inurba_marseille","lat":43.312239,"lon":5.368562,"is_reserved":false,"is_disabled":false,"rental_uris":{"android":"levelo://app?vid=758686a0-22a5-4b32-9cbd-09e0fd620cf1","ios":"levelo://app?vid=758686a0-22a5-4b32-9cbd-09e0fd620cf1"},"vehicle_type_id":"4","last_reported":1706638131,"current_range_meters":10400,"station_id":"ce4bgl92rcd13ifvqbq0","pricing_plan_id":"free"},{"bike_id":"daad360f-a6bc-478f-9e45-c735bad2f436","system_id":"levelo_inurba_marseille","lat":43.309076,"lon":5.368465,"is_reserved":false,"is_disabled":false,"rental_uris":{"android":"levelo://app?vid=daad360f-a6bc-478f-9e45-c735bad2f436","ios":"levelo://app?vid=daad360f-a6bc-478f-9e45-c735bad2f436"},"vehicle_type_id":"4","last_reported":1706638131,"current_range_meters":0,"station_id":"ce4bgn92rcd13ifvqbvg","pricing_plan_id":"free"},{"bike_id":"98f08caf-7963-4b4b-8879-d602ef2d4aca","system_id":"levelo_inurba_marseille","lat":43.309076,"lon":5.368465,"is_reserved":false,"is_disabled":false,"rental_uris":{"android":"levelo://app?vid=98f08caf-7963-4b4b-8879-d602ef2d4aca","ios":"levelo://app?vid=98f08caf-7963-4b4b-8879-d602ef2d4aca"},"vehicle_type_id":"4","last_reported":1706638131,"current_range_meters":4000,"station_id":"ce4bgn92rcd13ifvqbvg","pricing_plan_id":"free"},{"bike_id":"899d0092-7653-45db-88aa-d3f5eb3a8508","system_id":"levelo_inurba_marseille","lat":43.3149,"lon":5.37267,"is_reserved":false,"is_disabled":false,"rental_uris":{"android":"levelo://app?vid=899d0092-7653-45db-88aa-d3f5eb3a8508","ios":"levelo://app?vid=899d0092-7653-45db-88aa-d3f5eb3a8508"},"vehicle_type_id":"4","last_reported":1706638131,"current_range_meters":22800,"station_id":"","pricing_plan_id":"free"},{"bike_id":"757bca03-2335-48aa-b8ee-58a03d2a5848","system_id":"levelo_inurba_marseille","lat":43.31478,"lon":5.37317,"is_reserved":false,"is_disabled":false,"rental_uris":{"android":"levelo://app?vid=757bca03-2335-48aa-b8ee-58a03d2a5848","ios":"levelo://app?vid=757bca03-2335-48aa-b8ee-58a03d2a5848"},"vehicle_type_id":"4","last_reported":1706638131,"current_range_meters":0,"station_id":"ce4bgt12rcd13ifvqcd0","pricing_plan_id":"free"},{"bike_id":"7067c42f-8802-4a17-bd3d-bbe1428ebca0","system_id":"levelo_inurba_marseille","lat":43.314811,"lon":5.373104,"is_reserved":false,"is_disabled":false,"rental_uris":{"android":"levelo://app?vid=7067c42f-8802-4a17-bd3d-bbe1428ebca0","ios":"levelo://app?vid=7067c42f-8802-4a17-bd3d-bbe1428ebca0"},"vehicle_type_id":"4","last_reported":1706638131,"current_range_meters":1200,"station_id":"ce4bgt12rcd13ifvqcd0","pricing_plan_id":"free"},{"bike_id":"a5c6ef37-948c-4181-b2a9-9b8e942c7e41","system_id":"levelo_inurba_marseille","lat":43.309039,"lon":5.371797,"is_reserved":false,"is_disabled":false,"rental_uris":{"android":"levelo://app?vid=a5c6ef37-948c-4181-b2a9-9b8e942c7e41","ios":"levelo://app?vid=a5c6ef37-948c-4181-b2a9-9b8e942c7e41"},"vehicle_type_id":"4","last_reported":1706638131,"current_range_meters":24000,"station_id":"ce4bguh2rcd13ifvqckg","pricing_plan_id":"free"},{"bike_id":"6d684c8c-5118-4c46-812a-0f0b6c70dce0","system_id":"levelo_inurba_marseille","lat":43.309039,"lon":5.371797,"is_reserved":false,"is_disabled":false,"rental_uris":{"android":"levelo://app?vid=6d684c8c-5118-4c46-812a-0f0b6c70dce0","ios":"levelo://app?vid=6d684c8c-5118-4c46-812a-0f0b6c70dce0"},"vehicle_type_id":"4","last_reported":1706638131,"current_range_meters":17600,"station_id":"ce4bguh2rcd13ifvqckg","pricing_plan_id":"free"},{"bike_id":"1f9c3040-da72-4f21-ae07-5ba1712a5209","system_id":"levelo_inurba_marseille","lat":43.30885,"lon":5.37202,"is_reserved":false,"is_disabled":false,"rental_uris":{"android":"levelo://app?vid=1f9c3040-da72-4f21-ae07-5ba1712a5209","ios":"levelo://app?vid=1f9c3040-da72-4f21-ae07-5ba1712a5209"},"vehicle_type_id":"4","last_reported":1706638131,"current_range_meters":12400,"station_id":"","pricing_plan_id":"free"},{"bike_id":"a60577c2-6ce0-4f6f-b30d-4b8a59fa84e2","system_id":"levelo_inurba_marseille","lat":43.305359,"lon":5.366981,"is_reserved":false,"is_disabled":false,"rental_uris":{"android":"levelo://app?vid=a60577c2-6ce0-4f6f-b30d-4b8a59fa84e2","ios":"levelo://app?vid=a60577c2-6ce0-4f6f-b30d-4b8a59fa84e2"},"vehicle_type_id":"4","last_reported":1706638131,"current_range_meters":28800,"station_id":"ce4bgrp2rcd13ifvqc9g","pricing_plan_id":"free"},{"bike_id":"b03790ec-864d-4317-96b1-bc1e2be74cce","system_id":"levelo_inurba_marseille","lat":43.305706,"lon":5.365654,"is_reserved":false,"is_disabled":false,"rental_uris":{"android":"levelo://app?vid=b03790ec-864d-4317-96b1-bc1e2be74cce","ios":"levelo://app?vid=b03790ec-864d-4317-96b1-bc1e2be74cce"},"vehicle_type_id":"4","last_reported":1706638131,"current_range_meters":0,"station_id":"ce4bgs12rcd13ifvqcag","pricing_plan_id":"free"},{"bike_id":"bf99b03e-2b71-407e-84bf-bc4759cd85ab","system_id":"levelo_inurba_marseille","lat":43.305333,"lon":5.366978,"is_reserved":false,"is_disabled":false,"rental_uris":{"android":"levelo://app?vid=bf99b03e-2b71-407e-84bf-bc4759cd85ab","ios":"levelo://app?vid=bf99b03e-2b71-407e-84bf-bc4759cd85ab"},"vehicle_type_id":"4","last_reported":1706638131,"current_range_meters":30400,"station_id":"","pricing_plan_id":"free"},{"bike_id":"993ae3f2-db2c-4a08-aee7-8ba21c89a25d","system_id":"levelo_inurba_marseille","lat":43.304606,"lon":5.379026,"is_reserved":false,"is_disabled":false,"rental_uris":{"android":"levelo://app?vid=993ae3f2-db2c-4a08-aee7-8ba21c89a25d","ios":"levelo://app?vid=993ae3f2-db2c-4a08-aee7-8ba21c89a25d"},"vehicle_type_id":"4","last_reported":1706638131,"current_range_meters":12800,"station_id":"ce4bgup2rcd13ifvqcn0","pricing_plan_id":"free"},{"bike_id":"ba168ce4-274b-4da9-85f9-6dffbbf69301","system_id":"levelo_inurba_marseille","lat":43.30304,"lon":5.368987,"is_reserved":false,"is_disabled":false,"rental_uris":{"android":"levelo://app?vid=ba168ce4-274b-4da9-85f9-6dffbbf69301","ios":"levelo://app?vid=ba168ce4-274b-4da9-85f9-6dffbbf69301"},"vehicle_type_id":"4","last_reported":1706638131,"current_range_meters":9200,"station_id":"ce4bgqh2rcd13ifvqc5g","pricing_plan_id":"free"},{"bike_id":"f451b387-0e79-4dde-bd10-32f4ba4d50bd","system_id":"levelo_inurba_marseille","lat":43.30835,"lon":5.37943,"is_reserved":false,"is_disabled":false,"rental_uris":{"android":"levelo://app?vid=f451b387-0e79-4dde-bd10-32f4ba4d50bd","ios":"levelo://app?vid=f451b387-0e79-4dde-bd10-32f4ba4d50bd"},"vehicle_type_id":"4","last_reported":1706638131,"current_range_meters":6400,"station_id":"","pricing_plan_id":"free"},{"bike_id":"da7dcaae-033a-4491-afc8-287d2278d803","system_id":"levelo_inurba_marseille","lat":43.315293,"lon":5.380349,"is_reserved":false,"is_disabled":false,"rental_uris":{"android":"levelo://app?vid=da7dcaae-033a-4491-afc8-287d2278d803","ios":"levelo://app?vid=da7dcaae-033a-4491-afc8-287d2278d803"},"vehicle_type_id":"4","last_reported":1706638131,"current_range_meters":27600,"station_id":"ce4bhsp2rcd13ifvqi50","pricing_plan_id":"free"},{"bike_id":"15177c93-1564-4cbb-b02a-7caf8aaa0bc8","system_id":"levelo_inurba_marseille","lat":43.301939,"lon":5.366286,"is_reserved":false,"is_disabled":false,"rental_uris":{"android":"levelo://app?vid=15177c93-1564-4cbb-b02a-7caf8aaa0bc8","ios":"levelo://app?vid=15177c93-1564-4cbb-b02a-7caf8aaa0bc8"},"vehicle_type_id":"4","last_reported":1706638131,"current_range_meters":2800,"station_id":"ce4bgrh2rcd13ifvqc8g","pricing_plan_id":"free"},{"bike_id":"b4516f13-6a45-415a-8ddb-dc87907e4282","system_id":"levelo_inurba_marseille","lat":43.301939,"lon":5.366286,"is_reserved":false,"is_disabled":false,"rental_uris":{"android":"levelo://app?vid=b4516f13-6a45-415a-8ddb-dc87907e4282","ios":"levelo://app?vid=b4516f13-6a45-415a-8ddb-dc87907e4282"},"vehicle_type_id":"4","last_reported":1706638131,"current_range_meters":14400,"station_id":"ce4bgrh2rcd13ifvqc8g","pricing_plan_id":"free"},{"bike_id":"a01abab0-8344-4b2f-95bf-a9bb6f73d33d","system_id":"levelo_inurba_marseille","lat":43.308012,"lon":5.381511,"is_reserved":false,"is_disabled":false,"rental_uris":{"android":"levelo://app?vid=a01abab0-8344-4b2f-95bf-a9bb6f73d33d","ios":"levelo://app?vid=a01abab0-8344-4b2f-95bf-a9bb6f73d33d"},"vehicle_type_id":"4","last_reported":1706638131,"current_range_meters":18400,"station_id":"ce4bgt12rcd13ifvqce0","pricing_plan_id":"free"},{"bike_id":"68716124-d4bd-4207-8bad-3dbb37fc9295","system_id":"levelo_inurba_marseille","lat":43.304606,"lon":5.379026,"is_reserved":false,"is_disabled":false,"rental_uris":{"android":"levelo://app?vid=68716124-d4bd-4207-8bad-3dbb37fc9295","ios":"levelo://app?vid=68716124-d4bd-4207-8bad-3dbb37fc9295"},"vehicle_type_id":"4","last_reported":1706638131,"current_range_meters":22000,"station_id":"ce4bgup2rcd13ifvqcn0","pricing_plan_id":"free"},{"bike_id":"04a284c6-ab3f-4874-9aaa-d24e4dd52dec","system_id":"levelo_inurba_marseille","lat":43.304631,"lon":5.379048,"is_reserved":false,"is_disabled":false,"rental_uris":{"android":"levelo://app?vid=04a284c6-ab3f-4874-9aaa-d24e4dd52dec","ios":"levelo://app?vid=04a284c6-ab3f-4874-9aaa-d24e4dd52dec"},"vehicle_type_id":"4","last_reported":1706638131,"current_range_meters":0,"station_id":"ce4bgup2rcd13ifvqcn0","pricing_plan_id":"free"},{"bike_id":"f9b3aa5a-40af-4040-a917-268c7acc95ae","system_id":"levelo_inurba_marseille","lat":43.32481,"lon":5.36578,"is_reserved":false,"is_disabled":false,"rental_uris":{"android":"levelo://app?vid=f9b3aa5a-40af-4040-a917-268c7acc95ae","ios":"levelo://app?vid=f9b3aa5a-40af-4040-a917-268c7acc95ae"},"vehicle_type_id":"4","last_reported":1706638131,"current_range_meters":21200,"station_id":"ce4bhs12rcd13ifvqhvg","pricing_plan_id":"free"},{"bike_id":"4c1d912b-8425-4b28-bcd4-0691a1724560","system_id":"levelo_inurba_marseille","lat":43.324845,"lon":5.36581,"is_reserved":false,"is_disabled":false,"rental_uris":{"android":"levelo://app?vid=4c1d912b-8425-4b28-bcd4-0691a1724560","ios":"levelo://app?vid=4c1d912b-8425-4b28-bcd4-0691a1724560"},"vehicle_type_id":"4","last_reported":1706638131,"current_range_meters":23200,"station_id":"ce4bhs12rcd13ifvqhvg","pricing_plan_id":"free"},{"bike_id":"4736ab2f-d481-4964-88a7-047c1ca02d2a","system_id":"levelo_inurba_marseille","lat":43.32487,"lon":5.36579,"is_reserved":false,"is_disabled":false,"rental_uris":{"android":"levelo://app?vid=4736ab2f-d481-4964-88a7-047c1ca02d2a","ios":"levelo://app?vid=4736ab2f-d481-4964-88a7-047c1ca02d2a"},"vehicle_type_id":"4","last_reported":1706638131,"current_range_meters":29200,"station_id":"ce4bhs12rcd13ifvqhvg","pricing_plan_id":"free"},{"bike_id":"53d04a29-c269-42b0-9cfd-d1f84c517022","system_id":"levelo_inurba_marseille","lat":43.30143,"lon":5.37413,"is_reserved":false,"is_disabled":false,"rental_uris":{"android":"levelo://app?vid=53d04a29-c269-42b0-9cfd-d1f84c517022","ios":"levelo://app?vid=53d04a29-c269-42b0-9cfd-d1f84c517022"},"vehicle_type_id":"4","last_reported":1706638131,"current_range_meters":5600,"station_id":"ce4bgs92rcd13ifvqcc0","pricing_plan_id":"free"},{"bike_id":"d0746e43-620f-459f-9e60-baedd4dac370","system_id":"levelo_inurba_marseille","lat":43.319935,"lon":5.381699,"is_reserved":false,"is_disabled":false,"rental_uris":{"android":"levelo://app?vid=d0746e43-620f-459f-9e60-baedd4dac370","ios":"levelo://app?vid=d0746e43-620f-459f-9e60-baedd4dac370"},"vehicle_type_id":"4","last_reported":1706638131,"current_range_meters":0,"station_id":"ce4bhr12rcd13ifvqhpg","pricing_plan_id":"free"},{"bike_id":"b8b1dbbf-61db-4523-87cf-433d900d312a","system_id":"levelo_inurba_marseille","lat":43.319935,"lon":5.381699,"is_reserved":false,"is_disabled":false,"rental_uris":{"android":"levelo://app?vid=b8b1dbbf-61db-4523-87cf-433d900d312a","ios":"levelo://app?vid=b8b1dbbf-61db-4523-87cf-433d900d312a"},"vehicle_type_id":"4","last_reported":1706638131,"current_range_meters":7600,"station_id":"ce4bhr12rcd13ifvqhpg","pricing_plan_id":"free"},{"bike_id":"56347f14-6f6f-4c88-b081-1083f2758abb","system_id":"levelo_inurba_marseille","lat":43.319935,"lon":5.381699,"is_reserved":false,"is_disabled":false,"rental_uris":{"android":"levelo://app?vid=56347f14-6f6f-4c88-b081-1083f2758abb","ios":"levelo://app?vid=56347f14-6f6f-4c88-b081-1083f2758abb"},"vehicle_type_id":"4","last_reported":1706638131,"current_range_meters":8000,"station_id":"ce4bhr12rcd13ifvqhpg","pricing_plan_id":"free"},{"bike_id":"c4e490d7-0ea5-4f58-9a22-31a35fb1514e","system_id":"levelo_inurba_marseille","lat":43.319935,"lon":5.381699,"is_reserved":false,"is_disabled":false,"rental_uris":{"android":"levelo://app?vid=c4e490d7-0ea5-4f58-9a22-31a35fb1514e","ios":"levelo://app?vid=c4e490d7-0ea5-4f58-9a22-31a35fb1514e"},"vehicle_type_id":"4","last_reported":1706638131,"current_range_meters":2800,"station_id":"ce4bhr12rcd13ifvqhpg","pricing_plan_id":"free"},{"bike_id":"3f4d96cf-b110-4a20-b31e-a4373c40e7be","system_id":"levelo_inurba_marseille","lat":43.31996,"lon":5.38157,"is_reserved":false,"is_disabled":false,"rental_uris":{"android":"levelo://app?vid=3f4d96cf-b110-4a20-b31e-a4373c40e7be","ios":"levelo://app?vid=3f4d96cf-b110-4a20-b31e-a4373c40e7be"},"vehicle_type_id":"4","last_reported":1706638131,"current_range_meters":18400,"station_id":"ce4bhr12rcd13ifvqhpg","pricing_plan_id":"free"},{"bike_id":"39d3556f-b58d-4d01-a2ba-6aee8701a40d","system_id":"levelo_inurba_marseille","lat":43.313571,"lon":5.384829,"is_reserved":false,"is_disabled":false,"rental_uris":{"android":"levelo://app?vid=39d3556f-b58d-4d01-a2ba-6aee8701a40d","ios":"levelo://app?vid=39d3556f-b58d-4d01-a2ba-6aee8701a40d"},"vehicle_type_id":"4","last_reported":1706638131,"current_range_meters":13200,"station_id":"ce4bgt92rcd13ifvqcf0","pricing_plan_id":"free"},{"bike_id":"019b88cb-f415-4e12-97d5-61f5c770d6ee","system_id":"levelo_inurba_marseille","lat":43.313571,"lon":5.384829,"is_reserved":false,"is_disabled":false,"rental_uris":{"android":"levelo://app?vid=019b88cb-f415-4e12-97d5-61f5c770d6ee","ios":"levelo://app?vid=019b88cb-f415-4e12-97d5-61f5c770d6ee"},"vehicle_type_id":"4","last_reported":1706638131,"current_range_meters":7600,"station_id":"ce4bgt92rcd13ifvqcf0","pricing_plan_id":"free"},{"bike_id":"e2d0a3d4-e2a9-4dcc-99e6-eb940863c528","system_id":"levelo_inurba_marseille","lat":43.31362,"lon":5.38494,"is_reserved":false,"is_disabled":false,"rental_uris":{"android":"levelo://app?vid=e2d0a3d4-e2a9-4dcc-99e6-eb940863c528","ios":"levelo://app?vid=e2d0a3d4-e2a9-4dcc-99e6-eb940863c528"},"vehicle_type_id":"4","last_reported":1706638131,"current_range_meters":0,"station_id":"ce4bgt92rcd13ifvqcf0","pricing_plan_id":"free"},{"bike_id":"b98b133d-2d4f-4456-82c6-b1cf060c5f72","system_id":"levelo_inurba_marseille","lat":43.313571,"lon":5.384829,"is_reserved":false,"is_disabled":false,"rental_uris":{"android":"levelo://app?vid=b98b133d-2d4f-4456-82c6-b1cf060c5f72","ios":"levelo://app?vid=b98b133d-2d4f-4456-82c6-b1cf060c5f72"},"vehicle_type_id":"4","last_reported":1706638131,"current_range_meters":20800,"station_id":"ce4bgt92rcd13ifvqcf0","pricing_plan_id":"free"},{"bike_id":"48cd1ab9-fc31-4452-b1a9-914d8dadb358","system_id":"levelo_inurba_marseille","lat":43.313571,"lon":5.384829,"is_reserved":false,"is_disabled":false,"rental_uris":{"android":"levelo://app?vid=48cd1ab9-fc31-4452-b1a9-914d8dadb358","ios":"levelo://app?vid=48cd1ab9-fc31-4452-b1a9-914d8dadb358"},"vehicle_type_id":"4","last_reported":1706638131,"current_range_meters":11200,"station_id":"ce4bgt92rcd13ifvqcf0","pricing_plan_id":"free"},{"bike_id":"88020db4-3cd0-4a44-ae34-22d03870e908","system_id":"levelo_inurba_marseille","lat":43.313571,"lon":5.384829,"is_reserved":false,"is_disabled":false,"rental_uris":{"android":"levelo://app?vid=88020db4-3cd0-4a44-ae34-22d03870e908","ios":"levelo://app?vid=88020db4-3cd0-4a44-ae34-22d03870e908"},"vehicle_type_id":"4","last_reported":1706638131,"current_range_meters":400,"station_id":"ce4bgt92rcd13ifvqcf0","pricing_plan_id":"free"},{"bike_id":"d1e58052-768b-446f-a6f7-3920b1d6d32e","system_id":"levelo_inurba_marseille","lat":43.313571,"lon":5.384829,"is_reserved":false,"is_disabled":false,"rental_uris":{"android":"levelo://app?vid=d1e58052-768b-446f-a6f7-3920b1d6d32e","ios":"levelo://app?vid=d1e58052-768b-446f-a6f7-3920b1d6d32e"},"vehicle_type_id":"4","last_reported":1706638131,"current_range_meters":23200,"station_id":"ce4bgt92rcd13ifvqcf0","pricing_plan_id":"free"},{"bike_id":"39b64e8c-33e0-4494-94ef-e13787cc36b5","system_id":"levelo_inurba_marseille","lat":43.313571,"lon":5.384829,"is_reserved":false,"is_disabled":false,"rental_uris":{"android":"levelo://app?vid=39b64e8c-33e0-4494-94ef-e13787cc36b5","ios":"levelo://app?vid=39b64e8c-33e0-4494-94ef-e13787cc36b5"},"vehicle_type_id":"4","last_reported":1706638131,"current_range_meters":26800,"station_id":"ce4bgt92rcd13ifvqcf0","pricing_plan_id":"free"},{"bike_id":"298b3a3c-f213-4696-8193-0f3b64c1bea6","system_id":"levelo_inurba_marseille","lat":43.299222,"lon":5.365554,"is_reserved":false,"is_disabled":false,"rental_uris":{"android":"levelo://app?vid=298b3a3c-f213-4696-8193-0f3b64c1bea6","ios":"levelo://app?vid=298b3a3c-f213-4696-8193-0f3b64c1bea6"},"vehicle_type_id":"4","last_reported":1706638131,"current_range_meters":0,"station_id":"ce4bgm92rcd13ifvqbr0","pricing_plan_id":"free"},{"bike_id":"f448d995-223b-48f6-8af0-188bca4e28cd","system_id":"levelo_inurba_marseille","lat":43.299724,"lon":5.371829,"is_reserved":false,"is_disabled":false,"rental_uris":{"android":"levelo://app?vid=f448d995-223b-48f6-8af0-188bca4e28cd","ios":"levelo://app?vid=f448d995-223b-48f6-8af0-188bca4e28cd"},"vehicle_type_id":"4","last_reported":1706638131,"current_range_meters":2800,"station_id":"ce4bgr92rcd13ifvqc7g","pricing_plan_id":"free"},{"bike_id":"31a08ba5-1ed0-4fc9-bff5-e565023add18","system_id":"levelo_inurba_marseille","lat":43.299724,"lon":5.371829,"is_reserved":false,"is_disabled":false,"rental_uris":{"android":"levelo://app?vid=31a08ba5-1ed0-4fc9-bff5-e565023add18","ios":"levelo://app?vid=31a08ba5-1ed0-4fc9-bff5-e565023add18"},"vehicle_type_id":"4","last_reported":1706638131,"current_range_meters":1200,"station_id":"ce4bgr92rcd13ifvqc7g","pricing_plan_id":"free"},{"bike_id":"46cab661-f3ab-40e3-b67c-67fbf6d45648","system_id":"levelo_inurba_marseille","lat":43.299163,"lon":5.375987,"is_reserved":false,"is_disabled":false,"rental_uris":{"android":"levelo://app?vid=46cab661-f3ab-40e3-b67c-67fbf6d45648","ios":"levelo://app?vid=46cab661-f3ab-40e3-b67c-67fbf6d45648"},"vehicle_type_id":"4","last_reported":1706638131,"current_range_meters":0,"station_id":"","pricing_plan_id":"free"},{"bike_id":"7f20dc7e-badd-444e-a7c8-bf3a545cc809","system_id":"levelo_inurba_marseille","lat":43.322872,"lon":5.382756,"is_reserved":false,"is_disabled":false,"rental_uris":{"android":"levelo://app?vid=7f20dc7e-badd-444e-a7c8-bf3a545cc809","ios":"levelo://app?vid=7f20dc7e-badd-444e-a7c8-bf3a545cc809"},"vehicle_type_id":"4","last_reported":1706638131,"current_range_meters":14800,"station_id":"ce4bhr12rcd13ifvqhqg","pricing_plan_id":"free"},{"bike_id":"e53b96f6-0749-4e57-9ae0-506258818dab","system_id":"levelo_inurba_marseille","lat":43.322872,"lon":5.382756,"is_reserved":false,"is_disabled":false,"rental_uris":{"android":"levelo://app?vid=e53b96f6-0749-4e57-9ae0-506258818dab","ios":"levelo://app?vid=e53b96f6-0749-4e57-9ae0-506258818dab"},"vehicle_type_id":"4","last_reported":1706638131,"current_range_meters":12400,"station_id":"ce4bhr12rcd13ifvqhqg","pricing_plan_id":"free"},{"bike_id":"15c5b4e1-183a-4607-833b-66ed07103bdb","system_id":"levelo_inurba_marseille","lat":43.32824,"lon":5.36689,"is_reserved":false,"is_disabled":false,"rental_uris":{"android":"levelo://app?vid=15c5b4e1-183a-4607-833b-66ed07103bdb","ios":"levelo://app?vid=15c5b4e1-183a-4607-833b-66ed07103bdb"},"vehicle_type_id":"4","last_reported":1706638131,"current_range_meters":9200,"station_id":"ce4bhs92rcd13ifvqi0g","pricing_plan_id":"free"},{"bike_id":"d2fd0d93-9a42-456a-ad4a-a5813dc11fe4","system_id":"levelo_inurba_marseille","lat":43.32825,"lon":5.36686,"is_reserved":false,"is_disabled":false,"rental_uris":{"android":"levelo://app?vid=d2fd0d93-9a42-456a-ad4a-a5813dc11fe4","ios":"levelo://app?vid=d2fd0d93-9a42-456a-ad4a-a5813dc11fe4"},"vehicle_type_id":"4","last_reported":1706638131,"current_range_meters":12000,"station_id":"ce4bhs92rcd13ifvqi0g","pricing_plan_id":"free"},{"bike_id":"e9842c34-5cb2-47ba-87a1-99bf36004d12","system_id":"levelo_inurba_marseille","lat":43.32825,"lon":5.36677,"is_reserved":false,"is_disabled":false,"rental_uris":{"android":"levelo://app?vid=e9842c34-5cb2-47ba-87a1-99bf36004d12","ios":"levelo://app?vid=e9842c34-5cb2-47ba-87a1-99bf36004d12"},"vehicle_type_id":"4","last_reported":1706638131,"current_range_meters":0,"station_id":"ce4bhs92rcd13ifvqi0g","pricing_plan_id":"free"},{"bike_id":"5e0d7018-715e-4087-a2d6-cfa7ba43c5e5","system_id":"levelo_inurba_marseille","lat":43.32829,"lon":5.36675,"is_reserved":false,"is_disabled":false,"rental_uris":{"android":"levelo://app?vid=5e0d7018-715e-4087-a2d6-cfa7ba43c5e5","ios":"levelo://app?vid=5e0d7018-715e-4087-a2d6-cfa7ba43c5e5"},"vehicle_type_id":"4","last_reported":1706638131,"current_range_meters":17200,"station_id":"ce4bhs92rcd13ifvqi0g","pricing_plan_id":"free"},{"bike_id":"92589973-d956-4826-a1e1-8b958e0b4b1a","system_id":"levelo_inurba_marseille","lat":43.3283,"lon":5.36679,"is_reserved":false,"is_disabled":false,"rental_uris":{"android":"levelo://app?vid=92589973-d956-4826-a1e1-8b958e0b4b1a","ios":"levelo://app?vid=92589973-d956-4826-a1e1-8b958e0b4b1a"},"vehicle_type_id":"4","last_reported":1706638131,"current_range_meters":0,"station_id":"ce4bhs92rcd13ifvqi0g","pricing_plan_id":"free"},{"bike_id":"424909ae-9d19-4429-b2eb-854d86d8f2f1","system_id":"levelo_inurba_marseille","lat":43.297163,"lon":5.365866,"is_reserved":false,"is_disabled":false,"rental_uris":{"android":"levelo://app?vid=424909ae-9d19-4429-b2eb-854d86d8f2f1","ios":"levelo://app?vid=424909ae-9d19-4429-b2eb-854d86d8f2f1"},"vehicle_type_id":"4","last_reported":1706638131,"current_range_meters":12800,"station_id":"ce4bgn12rcd13ifvqbt0","pricing_plan_id":"free"},{"bike_id":"98e54288-174d-4664-9ba3-11eeb898766b","system_id":"levelo_inurba_marseille","lat":43.297163,"lon":5.365866,"is_reserved":false,"is_disabled":false,"rental_uris":{"android":"levelo://app?vid=98e54288-174d-4664-9ba3-11eeb898766b","ios":"levelo://app?vid=98e54288-174d-4664-9ba3-11eeb898766b"},"vehicle_type_id":"4","last_reported":1706638131,"current_range_meters":31200,"station_id":"ce4bgn12rcd13ifvqbt0","pricing_plan_id":"free"},{"bike_id":"d2181c36-39f6-44ae-99fe-ccb8b3bba9dc","system_id":"levelo_inurba_marseille","lat":43.29627,"lon":5.37152,"is_reserved":false,"is_disabled":false,"rental_uris":{"android":"levelo://app?vid=d2181c36-39f6-44ae-99fe-ccb8b3bba9dc","ios":"levelo://app?vid=d2181c36-39f6-44ae-99fe-ccb8b3bba9dc"},"vehicle_type_id":"4","last_reported":1706638131,"current_range_meters":21200,"station_id":"ce4bgnh2rcd13ifvqc0g","pricing_plan_id":"free"},{"bike_id":"c1f181be-3653-4ac0-a9c3-7a529ce3dc91","system_id":"levelo_inurba_marseille","lat":43.299028,"lon":5.381509,"is_reserved":false,"is_disabled":false,"rental_uris":{"android":"levelo://app?vid=c1f181be-3653-4ac0-a9c3-7a529ce3dc91","ios":"levelo://app?vid=c1f181be-3653-4ac0-a9c3-7a529ce3dc91"},"vehicle_type_id":"4","last_reported":1706638131,"current_range_meters":10400,"station_id":"ce4bgj12rcd13ifvqbc0","pricing_plan_id":"free"},{"bike_id":"e1a47259-8be6-4ad9-86ae-0315c81fe1e7","system_id":"levelo_inurba_marseille","lat":43.299028,"lon":5.381509,"is_reserved":false,"is_disabled":false,"rental_uris":{"android":"levelo://app?vid=e1a47259-8be6-4ad9-86ae-0315c81fe1e7","ios":"levelo://app?vid=e1a47259-8be6-4ad9-86ae-0315c81fe1e7"},"vehicle_type_id":"4","last_reported":1706638131,"current_range_meters":12000,"station_id":"ce4bgj12rcd13ifvqbc0","pricing_plan_id":"free"},{"bike_id":"0377cbc6-7ba4-430c-875c-a8427995ef79","system_id":"levelo_inurba_marseille","lat":43.299028,"lon":5.381509,"is_reserved":false,"is_disabled":false,"rental_uris":{"android":"levelo://app?vid=0377cbc6-7ba4-430c-875c-a8427995ef79","ios":"levelo://app?vid=0377cbc6-7ba4-430c-875c-a8427995ef79"},"vehicle_type_id":"4","last_reported":1706638131,"current_range_meters":14400,"station_id":"ce4bgj12rcd13ifvqbc0","pricing_plan_id":"free"},{"bike_id":"02beb103-1e96-49ee-9a21-5c19c073b271","system_id":"levelo_inurba_marseille","lat":43.299028,"lon":5.381509,"is_reserved":false,"is_disabled":false,"rental_uris":{"android":"levelo://app?vid=02beb103-1e96-49ee-9a21-5c19c073b271","ios":"levelo://app?vid=02beb103-1e96-49ee-9a21-5c19c073b271"},"vehicle_type_id":"4","last_reported":1706638131,"current_range_meters":3600,"station_id":"ce4bgj12rcd13ifvqbc0","pricing_plan_id":"free"},{"bike_id":"ea4ebf95-b03d-40ff-8446-fb63d958dad3","system_id":"levelo_inurba_marseille","lat":43.299028,"lon":5.381509,"is_reserved":false,"is_disabled":false,"rental_uris":{"android":"levelo://app?vid=ea4ebf95-b03d-40ff-8446-fb63d958dad3","ios":"levelo://app?vid=ea4ebf95-b03d-40ff-8446-fb63d958dad3"},"vehicle_type_id":"4","last_reported":1706638131,"current_range_meters":15200,"station_id":"ce4bgj12rcd13ifvqbc0","pricing_plan_id":"free"},{"bike_id":"4809665d-326e-4bf1-a1fe-a56451514348","system_id":"levelo_inurba_marseille","lat":43.299028,"lon":5.381509,"is_reserved":false,"is_disabled":false,"rental_uris":{"android":"levelo://app?vid=4809665d-326e-4bf1-a1fe-a56451514348","ios":"levelo://app?vid=4809665d-326e-4bf1-a1fe-a56451514348"},"vehicle_type_id":"4","last_reported":1706638131,"current_range_meters":4400,"station_id":"ce4bgj12rcd13ifvqbc0","pricing_plan_id":"free"},{"bike_id":"c26ef711-5f73-4767-8310-e67618617659","system_id":"levelo_inurba_marseille","lat":43.299028,"lon":5.381509,"is_reserved":false,"is_disabled":false,"rental_uris":{"android":"levelo://app?vid=c26ef711-5f73-4767-8310-e67618617659","ios":"levelo://app?vid=c26ef711-5f73-4767-8310-e67618617659"},"vehicle_type_id":"4","last_reported":1706638131,"current_range_meters":1600,"station_id":"ce4bgj12rcd13ifvqbc0","pricing_plan_id":"free"},{"bike_id":"2ba7978d-bb8c-4eef-ab4d-9990b7c97d23","system_id":"levelo_inurba_marseille","lat":43.298037,"lon":5.381066,"is_reserved":false,"is_disabled":false,"rental_uris":{"android":"levelo://app?vid=2ba7978d-bb8c-4eef-ab4d-9990b7c97d23","ios":"levelo://app?vid=2ba7978d-bb8c-4eef-ab4d-9990b7c97d23"},"vehicle_type_id":"4","last_reported":1706638131,"current_range_meters":8800,"station_id":"ce4bgip2rcd13ifvqbb0","pricing_plan_id":"free"},{"bike_id":"3b674f68-d8bf-478b-a10b-a4fda373db1c","system_id":"levelo_inurba_marseille","lat":43.298037,"lon":5.381066,"is_reserved":false,"is_disabled":false,"rental_uris":{"android":"levelo://app?vid=3b674f68-d8bf-478b-a10b-a4fda373db1c","ios":"levelo://app?vid=3b674f68-d8bf-478b-a10b-a4fda373db1c"},"vehicle_type_id":"4","last_reported":1706638131,"current_range_meters":0,"station_id":"ce4bgip2rcd13ifvqbb0","pricing_plan_id":"free"},{"bike_id":"a75a9c03-c10b-46ca-a6f1-f085c90bc0fa","system_id":"levelo_inurba_marseille","lat":43.295748,"lon":5.37522,"is_reserved":false,"is_disabled":false,"rental_uris":{"android":"levelo://app?vid=a75a9c03-c10b-46ca-a6f1-f085c90bc0fa","ios":"levelo://app?vid=a75a9c03-c10b-46ca-a6f1-f085c90bc0fa"},"vehicle_type_id":"4","last_reported":1706638131,"current_range_meters":0,"station_id":"ce4bgh92rcd13ifvqb50","pricing_plan_id":"free"},{"bike_id":"8d9c1a5c-6afa-4211-aeb0-5e40400839e4","system_id":"levelo_inurba_marseille","lat":43.298037,"lon":5.381066,"is_reserved":false,"is_disabled":false,"rental_uris":{"android":"levelo://app?vid=8d9c1a5c-6afa-4211-aeb0-5e40400839e4","ios":"levelo://app?vid=8d9c1a5c-6afa-4211-aeb0-5e40400839e4"},"vehicle_type_id":"4","last_reported":1706638131,"current_range_meters":9200,"station_id":"ce4bgip2rcd13ifvqbb0","pricing_plan_id":"free"},{"bike_id":"5100ded1-1db6-42f4-bd86-6f26f21e8fb3","system_id":"levelo_inurba_marseille","lat":43.304274,"lon":5.388873,"is_reserved":false,"is_disabled":false,"rental_uris":{"android":"levelo://app?vid=5100ded1-1db6-42f4-bd86-6f26f21e8fb3","ios":"levelo://app?vid=5100ded1-1db6-42f4-bd86-6f26f21e8fb3"},"vehicle_type_id":"4","last_reported":1706638131,"current_range_meters":5600,"station_id":"ce4bgk12rcd13ifvqbi0","pricing_plan_id":"free"},{"bike_id":"b106b04c-a63a-459d-b4af-77ff59901bf1","system_id":"levelo_inurba_marseille","lat":43.29479,"lon":5.36213,"is_reserved":false,"is_disabled":false,"rental_uris":{"android":"levelo://app?vid=b106b04c-a63a-459d-b4af-77ff59901bf1","ios":"levelo://app?vid=b106b04c-a63a-459d-b4af-77ff59901bf1"},"vehicle_type_id":"4","last_reported":1706638131,"current_range_meters":5200,"station_id":"","pricing_plan_id":"free"},{"bike_id":"a52bad76-e2d7-4869-b6d8-c01da898cb08","system_id":"levelo_inurba_marseille","lat":43.299707,"lon":5.384859,"is_reserved":false,"is_disabled":false,"rental_uris":{"android":"levelo://app?vid=a52bad76-e2d7-4869-b6d8-c01da898cb08","ios":"levelo://app?vid=a52bad76-e2d7-4869-b6d8-c01da898cb08"},"vehicle_type_id":"4","last_reported":1706638131,"current_range_meters":18400,"station_id":"ce4bgj92rcd13ifvqbd0","pricing_plan_id":"free"},{"bike_id":"6cda3a27-4d39-4fc9-b1cb-140ba815580d","system_id":"levelo_inurba_marseille","lat":43.2997,"lon":5.38509,"is_reserved":false,"is_disabled":false,"rental_uris":{"android":"levelo://app?vid=6cda3a27-4d39-4fc9-b1cb-140ba815580d","ios":"levelo://app?vid=6cda3a27-4d39-4fc9-b1cb-140ba815580d"},"vehicle_type_id":"4","last_reported":1706638131,"current_range_meters":0,"station_id":"ce4bgj92rcd13ifvqbd0","pricing_plan_id":"free"},{"bike_id":"cbca4571-db08-4464-a5c5-ca0f6e976746","system_id":"levelo_inurba_marseille","lat":43.299717,"lon":5.384845,"is_reserved":false,"is_disabled":false,"rental_uris":{"android":"levelo://app?vid=cbca4571-db08-4464-a5c5-ca0f6e976746","ios":"levelo://app?vid=cbca4571-db08-4464-a5c5-ca0f6e976746"},"vehicle_type_id":"4","last_reported":1706638131,"current_range_meters":23200,"station_id":"ce4bgj92rcd13ifvqbd0","pricing_plan_id":"free"},{"bike_id":"de25d637-84ec-4203-b892-3e1c2d7c4ddb","system_id":"levelo_inurba_marseille","lat":43.331714,"lon":5.364468,"is_reserved":false,"is_disabled":false,"rental_uris":{"android":"levelo://app?vid=de25d637-84ec-4203-b892-3e1c2d7c4ddb","ios":"levelo://app?vid=de25d637-84ec-4203-b892-3e1c2d7c4ddb"},"vehicle_type_id":"4","last_reported":1706638131,"current_range_meters":11600,"station_id":"","pricing_plan_id":"free"},{"bike_id":"4e4bc9ec-f8c5-4fd6-9615-35270feaab14","system_id":"levelo_inurba_marseille","lat":43.32367,"lon":5.388836,"is_reserved":false,"is_disabled":false,"rental_uris":{"android":"levelo://app?vid=4e4bc9ec-f8c5-4fd6-9615-35270feaab14","ios":"levelo://app?vid=4e4bc9ec-f8c5-4fd6-9615-35270feaab14"},"vehicle_type_id":"4","last_reported":1706638131,"current_range_meters":2800,"station_id":"ce4bhqp2rcd13ifvqhog","pricing_plan_id":"free"},{"bike_id":"87c37e20-93d8-4821-b2fb-71a6c4f572ed","system_id":"levelo_inurba_marseille","lat":43.32367,"lon":5.388836,"is_reserved":false,"is_disabled":false,"rental_uris":{"android":"levelo://app?vid=87c37e20-93d8-4821-b2fb-71a6c4f572ed","ios":"levelo://app?vid=87c37e20-93d8-4821-b2fb-71a6c4f572ed"},"vehicle_type_id":"4","last_reported":1706638131,"current_range_meters":6800,"station_id":"ce4bhqp2rcd13ifvqhog","pricing_plan_id":"free"},{"bike_id":"834dea89-2e29-4e3a-a0b7-7e4af6c75f2c","system_id":"levelo_inurba_marseille","lat":43.32367,"lon":5.388836,"is_reserved":false,"is_disabled":false,"rental_uris":{"android":"levelo://app?vid=834dea89-2e29-4e3a-a0b7-7e4af6c75f2c","ios":"levelo://app?vid=834dea89-2e29-4e3a-a0b7-7e4af6c75f2c"},"vehicle_type_id":"4","last_reported":1706638131,"current_range_meters":12800,"station_id":"ce4bhqp2rcd13ifvqhog","pricing_plan_id":"free"},{"bike_id":"2b10781d-71f0-46f3-b6a1-8bde9d3cf93f","system_id":"levelo_inurba_marseille","lat":43.32367,"lon":5.388836,"is_reserved":false,"is_disabled":false,"rental_uris":{"android":"levelo://app?vid=2b10781d-71f0-46f3-b6a1-8bde9d3cf93f","ios":"levelo://app?vid=2b10781d-71f0-46f3-b6a1-8bde9d3cf93f"},"vehicle_type_id":"4","last_reported":1706638131,"current_range_meters":9200,"station_id":"ce4bhqp2rcd13ifvqhog","pricing_plan_id":"free"},{"bike_id":"0679196a-cfba-4373-a7ff-0b80ba558cd2","system_id":"levelo_inurba_marseille","lat":43.32367,"lon":5.388836,"is_reserved":false,"is_disabled":false,"rental_uris":{"android":"levelo://app?vid=0679196a-cfba-4373-a7ff-0b80ba558cd2","ios":"levelo://app?vid=0679196a-cfba-4373-a7ff-0b80ba558cd2"},"vehicle_type_id":"4","last_reported":1706638131,"current_range_meters":16400,"station_id":"ce4bhqp2rcd13ifvqhog","pricing_plan_id":"free"},{"bike_id":"dda43dbe-a7be-4a7b-9332-08da2481e778","system_id":"levelo_inurba_marseille","lat":43.29601,"lon":5.381084,"is_reserved":false,"is_disabled":false,"rental_uris":{"android":"levelo://app?vid=dda43dbe-a7be-4a7b-9332-08da2481e778","ios":"levelo://app?vid=dda43dbe-a7be-4a7b-9332-08da2481e778"},"vehicle_type_id":"4","last_reported":1706638131,"current_range_meters":16400,"station_id":"ce4bgl12rcd13ifvqbo0","pricing_plan_id":"free"},{"bike_id":"40442b77-11cd-4b26-a52b-de1193d3301d","system_id":"levelo_inurba_marseille","lat":43.29601,"lon":5.381084,"is_reserved":false,"is_disabled":false,"rental_uris":{"android":"levelo://app?vid=40442b77-11cd-4b26-a52b-de1193d3301d","ios":"levelo://app?vid=40442b77-11cd-4b26-a52b-de1193d3301d"},"vehicle_type_id":"4","last_reported":1706638131,"current_range_meters":14400,"station_id":"ce4bgl12rcd13ifvqbo0","pricing_plan_id":"free"},{"bike_id":"1de3445b-f582-4ca1-9e42-7948b6f9968f","system_id":"levelo_inurba_marseille","lat":43.29307,"lon":5.37197,"is_reserved":false,"is_disabled":false,"rental_uris":{"android":"levelo://app?vid=1de3445b-f582-4ca1-9e42-7948b6f9968f","ios":"levelo://app?vid=1de3445b-f582-4ca1-9e42-7948b6f9968f"},"vehicle_type_id":"4","last_reported":1706638131,"current_range_meters":15600,"station_id":"ce4bgh92rcd13ifvqb40","pricing_plan_id":"free"},{"bike_id":"de1fa926-3b70-438f-bba5-ebb315b5c310","system_id":"levelo_inurba_marseille","lat":43.29298,"lon":5.37177,"is_reserved":false,"is_disabled":false,"rental_uris":{"android":"levelo://app?vid=de1fa926-3b70-438f-bba5-ebb315b5c310","ios":"levelo://app?vid=de1fa926-3b70-438f-bba5-ebb315b5c310"},"vehicle_type_id":"4","last_reported":1706638131,"current_range_meters":4400,"station_id":"ce4bgj92rcd13ifvqbd0","pricing_plan_id":"free"},{"bike_id":"67cc158c-ec48-4504-835a-d11592fc516f","system_id":"levelo_inurba_marseille","lat":43.292749,"lon":5.368402,"is_reserved":false,"is_disabled":false,"rental_uris":{"android":"levelo://app?vid=67cc158c-ec48-4504-835a-d11592fc516f","ios":"levelo://app?vid=67cc158c-ec48-4504-835a-d11592fc516f"},"vehicle_type_id":"4","last_reported":1706638131,"current_range_meters":0,"station_id":"ce4bhbp2rcd13ifvqesg","pricing_plan_id":"free"},{"bike_id":"812c624a-562d-4928-9eae-4d6cb00bc146","system_id":"levelo_inurba_marseille","lat":43.303002,"lon":5.392142,"is_reserved":false,"is_disabled":false,"rental_uris":{"android":"levelo://app?vid=812c624a-562d-4928-9eae-4d6cb00bc146","ios":"levelo://app?vid=812c624a-562d-4928-9eae-4d6cb00bc146"},"vehicle_type_id":"4","last_reported":1706638131,"current_range_meters":17600,"station_id":"ce4bgkh2rcd13ifvqbk0","pricing_plan_id":"free"},{"bike_id":"c97f7ddc-65d1-4db7-90a8-cc5f31be151e","system_id":"levelo_inurba_marseille","lat":43.293711,"lon":5.378604,"is_reserved":false,"is_disabled":false,"rental_uris":{"android":"levelo://app?vid=c97f7ddc-65d1-4db7-90a8-cc5f31be151e","ios":"levelo://app?vid=c97f7ddc-65d1-4db7-90a8-cc5f31be151e"},"vehicle_type_id":"4","last_reported":1706638131,"current_range_meters":0,"station_id":"ce4bgjh2rcd13ifvqbf0","pricing_plan_id":"free"},{"bike_id":"ebb50ce1-9c12-44c3-8e28-84059808d37b","system_id":"levelo_inurba_marseille","lat":43.292311,"lon":5.360731,"is_reserved":false,"is_disabled":false,"rental_uris":{"android":"levelo://app?vid=ebb50ce1-9c12-44c3-8e28-84059808d37b","ios":"levelo://app?vid=ebb50ce1-9c12-44c3-8e28-84059808d37b"},"vehicle_type_id":"4","last_reported":1706638131,"current_range_meters":16800,"station_id":"ce4bhbh2rcd13ifvqeqg","pricing_plan_id":"free"},{"bike_id":"ff6f1e79-15b4-4a21-bd0a-4015cc86f17c","system_id":"levelo_inurba_marseille","lat":43.300852,"lon":5.390859,"is_reserved":false,"is_disabled":false,"rental_uris":{"android":"levelo://app?vid=ff6f1e79-15b4-4a21-bd0a-4015cc86f17c","ios":"levelo://app?vid=ff6f1e79-15b4-4a21-bd0a-4015cc86f17c"},"vehicle_type_id":"4","last_reported":1706638131,"current_range_meters":0,"station_id":"ce4bh192rcd13ifvqdb0","pricing_plan_id":"free"},{"bike_id":"b58dd66c-f75e-44cb-b521-4769b7a60e59","system_id":"levelo_inurba_marseille","lat":43.30091,"lon":5.39069,"is_reserved":false,"is_disabled":false,"rental_uris":{"android":"levelo://app?vid=b58dd66c-f75e-44cb-b521-4769b7a60e59","ios":"levelo://app?vid=b58dd66c-f75e-44cb-b521-4769b7a60e59"},"vehicle_type_id":"4","last_reported":1706638131,"current_range_meters":1600,"station_id":"ce4bh192rcd13ifvqdb0","pricing_plan_id":"free"},{"bike_id":"835cd297-2a34-4331-86bf-7d28bedb68ce","system_id":"levelo_inurba_marseille","lat":43.300852,"lon":5.390859,"is_reserved":false,"is_disabled":false,"rental_uris":{"android":"levelo://app?vid=835cd297-2a34-4331-86bf-7d28bedb68ce","ios":"levelo://app?vid=835cd297-2a34-4331-86bf-7d28bedb68ce"},"vehicle_type_id":"4","last_reported":1706638131,"current_range_meters":4800,"station_id":"ce4bh192rcd13ifvqdb0","pricing_plan_id":"free"},{"bike_id":"9d0dbddd-727e-42fd-9ef0-86b78a9f6118","system_id":"levelo_inurba_marseille","lat":43.292311,"lon":5.360731,"is_reserved":false,"is_disabled":false,"rental_uris":{"android":"levelo://app?vid=9d0dbddd-727e-42fd-9ef0-86b78a9f6118","ios":"levelo://app?vid=9d0dbddd-727e-42fd-9ef0-86b78a9f6118"},"vehicle_type_id":"4","last_reported":1706638131,"current_range_meters":6000,"station_id":"ce4bhbh2rcd13ifvqeqg","pricing_plan_id":"free"},{"bike_id":"ea94f227-9972-4fa5-aead-e1014da3a35a","system_id":"levelo_inurba_marseille","lat":43.300852,"lon":5.390859,"is_reserved":false,"is_disabled":false,"rental_uris":{"android":"levelo://app?vid=ea94f227-9972-4fa5-aead-e1014da3a35a","ios":"levelo://app?vid=ea94f227-9972-4fa5-aead-e1014da3a35a"},"vehicle_type_id":"4","last_reported":1706638131,"current_range_meters":0,"station_id":"ce4bh192rcd13ifvqdb0","pricing_plan_id":"free"},{"bike_id":"c640050a-9ca3-4934-8529-eb34ef0638fa","system_id":"levelo_inurba_marseille","lat":43.29257,"lon":5.37495,"is_reserved":false,"is_disabled":false,"rental_uris":{"android":"levelo://app?vid=c640050a-9ca3-4934-8529-eb34ef0638fa","ios":"levelo://app?vid=c640050a-9ca3-4934-8529-eb34ef0638fa"},"vehicle_type_id":"4","last_reported":1706638131,"current_range_meters":0,"station_id":"","pricing_plan_id":"free"},{"bike_id":"1bae008f-956f-4ca3-b5e0-ff8d7cd209dc","system_id":"levelo_inurba_marseille","lat":43.30085,"lon":5.390856,"is_reserved":false,"is_disabled":false,"rental_uris":{"android":"levelo://app?vid=1bae008f-956f-4ca3-b5e0-ff8d7cd209dc","ios":"levelo://app?vid=1bae008f-956f-4ca3-b5e0-ff8d7cd209dc"},"vehicle_type_id":"4","last_reported":1706638131,"current_range_meters":0,"station_id":"ce4bh192rcd13ifvqdb0","pricing_plan_id":"free"},{"bike_id":"cdf47ed8-c846-4536-97ae-e71735e9fb32","system_id":"levelo_inurba_marseille","lat":43.3009,"lon":5.39086,"is_reserved":false,"is_disabled":false,"rental_uris":{"android":"levelo://app?vid=cdf47ed8-c846-4536-97ae-e71735e9fb32","ios":"levelo://app?vid=cdf47ed8-c846-4536-97ae-e71735e9fb32"},"vehicle_type_id":"4","last_reported":1706638131,"current_range_meters":2800,"station_id":"ce4bh192rcd13ifvqdb0","pricing_plan_id":"free"},{"bike_id":"d9873ebc-7cf6-417d-896b-9716baeaf9b7","system_id":"levelo_inurba_marseille","lat":43.300913,"lon":5.390899,"is_reserved":false,"is_disabled":false,"rental_uris":{"android":"levelo://app?vid=d9873ebc-7cf6-417d-896b-9716baeaf9b7","ios":"levelo://app?vid=d9873ebc-7cf6-417d-896b-9716baeaf9b7"},"vehicle_type_id":"4","last_reported":1706638131,"current_range_meters":25200,"station_id":"ce4bh192rcd13ifvqdb0","pricing_plan_id":"free"},{"bike_id":"634ad628-d27e-46fa-9392-3c993f97067c","system_id":"levelo_inurba_marseille","lat":43.298764,"lon":5.388973,"is_reserved":false,"is_disabled":false,"rental_uris":{"android":"levelo://app?vid=634ad628-d27e-46fa-9392-3c993f97067c","ios":"levelo://app?vid=634ad628-d27e-46fa-9392-3c993f97067c"},"vehicle_type_id":"4","last_reported":1706638131,"current_range_meters":0,"station_id":"ce4bh392rcd13ifvqdl0","pricing_plan_id":"free"},{"bike_id":"67e19fc9-3ad9-4275-9232-c38409e9e3cd","system_id":"levelo_inurba_marseille","lat":43.301099,"lon":5.391339,"is_reserved":false,"is_disabled":false,"rental_uris":{"android":"levelo://app?vid=67e19fc9-3ad9-4275-9232-c38409e9e3cd","ios":"levelo://app?vid=67e19fc9-3ad9-4275-9232-c38409e9e3cd"},"vehicle_type_id":"4","last_reported":1706638131,"current_range_meters":28800,"station_id":"ce4bh192rcd13ifvqdb0","pricing_plan_id":"free"},{"bike_id":"4e77f90e-d186-4e73-b63c-b6b89b7a958c","system_id":"levelo_inurba_marseille","lat":43.291675,"lon":5.371583,"is_reserved":false,"is_disabled":false,"rental_uris":{"android":"levelo://app?vid=4e77f90e-d186-4e73-b63c-b6b89b7a958c","ios":"levelo://app?vid=4e77f90e-d186-4e73-b63c-b6b89b7a958c"},"vehicle_type_id":"4","last_reported":1706638131,"current_range_meters":0,"station_id":"ce4bha92rcd13ifvqeh0","pricing_plan_id":"free"},{"bike_id":"a84fa023-0061-4df6-a4de-d7b49ee28e4f","system_id":"levelo_inurba_marseille","lat":43.298764,"lon":5.388973,"is_reserved":false,"is_disabled":false,"rental_uris":{"android":"levelo://app?vid=a84fa023-0061-4df6-a4de-d7b49ee28e4f","ios":"levelo://app?vid=a84fa023-0061-4df6-a4de-d7b49ee28e4f"},"vehicle_type_id":"4","last_reported":1706638131,"current_range_meters":0,"station_id":"ce4bh392rcd13ifvqdl0","pricing_plan_id":"free"},{"bike_id":"956c4d98-ecc1-497c-be0d-59e0c6d5ed12","system_id":"levelo_inurba_marseille","lat":43.298764,"lon":5.388973,"is_reserved":false,"is_disabled":false,"rental_uris":{"android":"levelo://app?vid=956c4d98-ecc1-497c-be0d-59e0c6d5ed12","ios":"levelo://app?vid=956c4d98-ecc1-497c-be0d-59e0c6d5ed12"},"vehicle_type_id":"4","last_reported":1706638131,"current_range_meters":22800,"station_id":"ce4bh392rcd13ifvqdl0","pricing_plan_id":"free"},{"bike_id":"21d015e2-db24-4902-8b40-5a8765a0c54e","system_id":"levelo_inurba_marseille","lat":43.295196,"lon":5.39397,"is_reserved":false,"is_disabled":false,"rental_uris":{"android":"levelo://app?vid=21d015e2-db24-4902-8b40-5a8765a0c54e","ios":"levelo://app?vid=21d015e2-db24-4902-8b40-5a8765a0c54e"},"vehicle_type_id":"4","last_reported":1706638131,"current_range_meters":15200,"station_id":"ce4bh292rcd13ifvqdf0","pricing_plan_id":"free"},{"bike_id":"ded832ba-eca5-4af4-941f-d6a20500a6d6","system_id":"levelo_inurba_marseille","lat":43.291994,"lon":5.357886,"is_reserved":false,"is_disabled":false,"rental_uris":{"android":"levelo://app?vid=ded832ba-eca5-4af4-941f-d6a20500a6d6","ios":"levelo://app?vid=ded832ba-eca5-4af4-941f-d6a20500a6d6"},"vehicle_type_id":"4","last_reported":1706638131,"current_range_meters":22800,"station_id":"ce4bhb12rcd13ifvqel0","pricing_plan_id":"free"},{"bike_id":"42921f66-5b76-4b2d-b6a2-3cea714caf46","system_id":"levelo_inurba_marseille","lat":43.29198,"lon":5.35803,"is_reserved":false,"is_disabled":false,"rental_uris":{"android":"levelo://app?vid=42921f66-5b76-4b2d-b6a2-3cea714caf46","ios":"levelo://app?vid=42921f66-5b76-4b2d-b6a2-3cea714caf46"},"vehicle_type_id":"4","last_reported":1706638131,"current_range_meters":1200,"station_id":"","pricing_plan_id":"free"},{"bike_id":"4624590c-3b2b-493a-b2fa-2bab519e6c02","system_id":"levelo_inurba_marseille","lat":43.302784,"lon":5.377158,"is_reserved":false,"is_disabled":false,"rental_uris":{"android":"levelo://app?vid=4624590c-3b2b-493a-b2fa-2bab519e6c02","ios":"levelo://app?vid=4624590c-3b2b-493a-b2fa-2bab519e6c02"},"vehicle_type_id":"4","last_reported":1706638131,"current_range_meters":2000,"station_id":"ce4bguh2rcd13ifvqcj0","pricing_plan_id":"free"},{"bike_id":"b674387c-dac7-4c72-8c60-5bdca13ab48d","system_id":"levelo_inurba_marseille","lat":43.313291,"lon":5.396838,"is_reserved":false,"is_disabled":false,"rental_uris":{"android":"levelo://app?vid=b674387c-dac7-4c72-8c60-5bdca13ab48d","ios":"levelo://app?vid=b674387c-dac7-4c72-8c60-5bdca13ab48d"},"vehicle_type_id":"4","last_reported":1706638131,"current_range_meters":0,"station_id":"ce4bgvp2rcd13ifvqcu0","pricing_plan_id":"free"},{"bike_id":"8d913f47-6f2f-4a1c-8016-0e48526f676f","system_id":"levelo_inurba_marseille","lat":43.313291,"lon":5.396838,"is_reserved":false,"is_disabled":false,"rental_uris":{"android":"levelo://app?vid=8d913f47-6f2f-4a1c-8016-0e48526f676f","ios":"levelo://app?vid=8d913f47-6f2f-4a1c-8016-0e48526f676f"},"vehicle_type_id":"4","last_reported":1706638131,"current_range_meters":12800,"station_id":"ce4bgvp2rcd13ifvqcu0","pricing_plan_id":"free"},{"bike_id":"2c385079-e5b2-4b9a-8b42-a844c70ece13","system_id":"levelo_inurba_marseille","lat":43.313291,"lon":5.396838,"is_reserved":false,"is_disabled":false,"rental_uris":{"android":"levelo://app?vid=2c385079-e5b2-4b9a-8b42-a844c70ece13","ios":"levelo://app?vid=2c385079-e5b2-4b9a-8b42-a844c70ece13"},"vehicle_type_id":"4","last_reported":1706638131,"current_range_meters":17200,"station_id":"ce4bgvp2rcd13ifvqcu0","pricing_plan_id":"free"},{"bike_id":"3c4672c7-5915-4150-90ba-d91dd82427ee","system_id":"levelo_inurba_marseille","lat":43.3089,"lon":5.39643,"is_reserved":false,"is_disabled":false,"rental_uris":{"android":"levelo://app?vid=3c4672c7-5915-4150-90ba-d91dd82427ee","ios":"levelo://app?vid=3c4672c7-5915-4150-90ba-d91dd82427ee"},"vehicle_type_id":"4","last_reported":1706638131,"current_range_meters":0,"station_id":"ce4bh012rcd13ifvqcv0","pricing_plan_id":"free"},{"bike_id":"0e939496-2def-4b51-b8a6-8154a39f3ea3","system_id":"levelo_inurba_marseille","lat":43.313291,"lon":5.396838,"is_reserved":false,"is_disabled":false,"rental_uris":{"android":"levelo://app?vid=0e939496-2def-4b51-b8a6-8154a39f3ea3","ios":"levelo://app?vid=0e939496-2def-4b51-b8a6-8154a39f3ea3"},"vehicle_type_id":"4","last_reported":1706638131,"current_range_meters":27600,"station_id":"ce4bgvp2rcd13ifvqcu0","pricing_plan_id":"free"},{"bike_id":"4a5c34f9-7e25-4bfd-94ee-9e57829ead28","system_id":"levelo_inurba_marseille","lat":43.313291,"lon":5.396838,"is_reserved":false,"is_disabled":false,"rental_uris":{"android":"levelo://app?vid=4a5c34f9-7e25-4bfd-94ee-9e57829ead28","ios":"levelo://app?vid=4a5c34f9-7e25-4bfd-94ee-9e57829ead28"},"vehicle_type_id":"4","last_reported":1706638131,"current_range_meters":22800,"station_id":"ce4bgvp2rcd13ifvqcu0","pricing_plan_id":"free"},{"bike_id":"feeb888a-249a-48c9-9c30-faafc06cbb32","system_id":"levelo_inurba_marseille","lat":43.313291,"lon":5.396838,"is_reserved":false,"is_disabled":false,"rental_uris":{"android":"levelo://app?vid=feeb888a-249a-48c9-9c30-faafc06cbb32","ios":"levelo://app?vid=feeb888a-249a-48c9-9c30-faafc06cbb32"},"vehicle_type_id":"4","last_reported":1706638131,"current_range_meters":17600,"station_id":"ce4bgvp2rcd13ifvqcu0","pricing_plan_id":"free"},{"bike_id":"751d9503-550a-45bb-8373-25caab9ec8d7","system_id":"levelo_inurba_marseille","lat":43.313291,"lon":5.396838,"is_reserved":false,"is_disabled":false,"rental_uris":{"android":"levelo://app?vid=751d9503-550a-45bb-8373-25caab9ec8d7","ios":"levelo://app?vid=751d9503-550a-45bb-8373-25caab9ec8d7"},"vehicle_type_id":"4","last_reported":1706638131,"current_range_meters":18000,"station_id":"ce4bgvp2rcd13ifvqcu0","pricing_plan_id":"free"},{"bike_id":"dacef0ad-9800-41af-828e-19ff6aaaffb4","system_id":"levelo_inurba_marseille","lat":43.313291,"lon":5.396838,"is_reserved":false,"is_disabled":false,"rental_uris":{"android":"levelo://app?vid=dacef0ad-9800-41af-828e-19ff6aaaffb4","ios":"levelo://app?vid=dacef0ad-9800-41af-828e-19ff6aaaffb4"},"vehicle_type_id":"4","last_reported":1706638131,"current_range_meters":29600,"station_id":"ce4bgvp2rcd13ifvqcu0","pricing_plan_id":"free"},{"bike_id":"7f6aa594-0861-4485-833e-2c96eb223d5a","system_id":"levelo_inurba_marseille","lat":43.313291,"lon":5.396838,"is_reserved":false,"is_disabled":false,"rental_uris":{"android":"levelo://app?vid=7f6aa594-0861-4485-833e-2c96eb223d5a","ios":"levelo://app?vid=7f6aa594-0861-4485-833e-2c96eb223d5a"},"vehicle_type_id":"4","last_reported":1706638131,"current_range_meters":18400,"station_id":"ce4bgvp2rcd13ifvqcu0","pricing_plan_id":"free"},{"bike_id":"9a015444-c4b0-41cf-b428-0705d5bd5a83","system_id":"levelo_inurba_marseille","lat":43.313291,"lon":5.396838,"is_reserved":false,"is_disabled":false,"rental_uris":{"android":"levelo://app?vid=9a015444-c4b0-41cf-b428-0705d5bd5a83","ios":"levelo://app?vid=9a015444-c4b0-41cf-b428-0705d5bd5a83"},"vehicle_type_id":"4","last_reported":1706638131,"current_range_meters":13600,"station_id":"ce4bgvp2rcd13ifvqcu0","pricing_plan_id":"free"},{"bike_id":"c6bbb307-40ce-4d17-bd61-1e147db096d4","system_id":"levelo_inurba_marseille","lat":43.29186,"lon":5.358153,"is_reserved":false,"is_disabled":false,"rental_uris":{"android":"levelo://app?vid=c6bbb307-40ce-4d17-bd61-1e147db096d4","ios":"levelo://app?vid=c6bbb307-40ce-4d17-bd61-1e147db096d4"},"vehicle_type_id":"4","last_reported":1706638131,"current_range_meters":0,"station_id":"ce4bhb12rcd13ifvqel0","pricing_plan_id":"free"},{"bike_id":"7c58d407-434c-4e1f-9a30-a620fe52b872","system_id":"levelo_inurba_marseille","lat":43.313291,"lon":5.396838,"is_reserved":false,"is_disabled":false,"rental_uris":{"android":"levelo://app?vid=7c58d407-434c-4e1f-9a30-a620fe52b872","ios":"levelo://app?vid=7c58d407-434c-4e1f-9a30-a620fe52b872"},"vehicle_type_id":"4","last_reported":1706638131,"current_range_meters":12000,"station_id":"ce4bgvp2rcd13ifvqcu0","pricing_plan_id":"free"},{"bike_id":"b62bcfa5-473d-4221-b143-66a964158134","system_id":"levelo_inurba_marseille","lat":43.313252,"lon":5.396954,"is_reserved":false,"is_disabled":false,"rental_uris":{"android":"levelo://app?vid=b62bcfa5-473d-4221-b143-66a964158134","ios":"levelo://app?vid=b62bcfa5-473d-4221-b143-66a964158134"},"vehicle_type_id":"4","last_reported":1706638131,"current_range_meters":2400,"station_id":"ce4bgvp2rcd13ifvqcu0","pricing_plan_id":"free"},{"bike_id":"4970a1f1-2562-4cd9-ae69-8b029fbc1985","system_id":"levelo_inurba_marseille","lat":43.313291,"lon":5.396838,"is_reserved":false,"is_disabled":false,"rental_uris":{"android":"levelo://app?vid=4970a1f1-2562-4cd9-ae69-8b029fbc1985","ios":"levelo://app?vid=4970a1f1-2562-4cd9-ae69-8b029fbc1985"},"vehicle_type_id":"4","last_reported":1706638131,"current_range_meters":18400,"station_id":"ce4bgvp2rcd13ifvqcu0","pricing_plan_id":"free"},{"bike_id":"0db4327a-f873-4b61-9e5d-93ba3c4b6379","system_id":"levelo_inurba_marseille","lat":43.313291,"lon":5.396838,"is_reserved":false,"is_disabled":false,"rental_uris":{"android":"levelo://app?vid=0db4327a-f873-4b61-9e5d-93ba3c4b6379","ios":"levelo://app?vid=0db4327a-f873-4b61-9e5d-93ba3c4b6379"},"vehicle_type_id":"4","last_reported":1706638131,"current_range_meters":400,"station_id":"ce4bgvp2rcd13ifvqcu0","pricing_plan_id":"free"},{"bike_id":"7f40c595-1c4f-4ac5-898c-e19e6e7abfa5","system_id":"levelo_inurba_marseille","lat":43.313291,"lon":5.396838,"is_reserved":false,"is_disabled":false,"rental_uris":{"android":"levelo://app?vid=7f40c595-1c4f-4ac5-898c-e19e6e7abfa5","ios":"levelo://app?vid=7f40c595-1c4f-4ac5-898c-e19e6e7abfa5"},"vehicle_type_id":"4","last_reported":1706638131,"current_range_meters":18400,"station_id":"ce4bgvp2rcd13ifvqcu0","pricing_plan_id":"free"},{"bike_id":"50abaccf-dd88-40c7-8675-0ffb04196c99","system_id":"levelo_inurba_marseille","lat":43.313291,"lon":5.396838,"is_reserved":false,"is_disabled":false,"rental_uris":{"android":"levelo://app?vid=50abaccf-dd88-40c7-8675-0ffb04196c99","ios":"levelo://app?vid=50abaccf-dd88-40c7-8675-0ffb04196c99"},"vehicle_type_id":"4","last_reported":1706638131,"current_range_meters":22400,"station_id":"ce4bgvp2rcd13ifvqcu0","pricing_plan_id":"free"},{"bike_id":"961af791-ce80-4780-8123-07223dca3aae","system_id":"levelo_inurba_marseille","lat":43.313291,"lon":5.396838,"is_reserved":false,"is_disabled":false,"rental_uris":{"android":"levelo://app?vid=961af791-ce80-4780-8123-07223dca3aae","ios":"levelo://app?vid=961af791-ce80-4780-8123-07223dca3aae"},"vehicle_type_id":"4","last_reported":1706638131,"current_range_meters":14400,"station_id":"ce4bgvp2rcd13ifvqcu0","pricing_plan_id":"free"},{"bike_id":"1c9ce51b-33d4-41ff-a491-07c4b0b68cb0","system_id":"levelo_inurba_marseille","lat":43.313267,"lon":5.396973,"is_reserved":false,"is_disabled":false,"rental_uris":{"android":"levelo://app?vid=1c9ce51b-33d4-41ff-a491-07c4b0b68cb0","ios":"levelo://app?vid=1c9ce51b-33d4-41ff-a491-07c4b0b68cb0"},"vehicle_type_id":"4","last_reported":1706638131,"current_range_meters":4000,"station_id":"ce4bgvp2rcd13ifvqcu0","pricing_plan_id":"free"},{"bike_id":"a81ffb1d-f7f4-41a9-a4d4-6a804b0f144a","system_id":"levelo_inurba_marseille","lat":43.313291,"lon":5.396838,"is_reserved":false,"is_disabled":false,"rental_uris":{"android":"levelo://app?vid=a81ffb1d-f7f4-41a9-a4d4-6a804b0f144a","ios":"levelo://app?vid=a81ffb1d-f7f4-41a9-a4d4-6a804b0f144a"},"vehicle_type_id":"4","last_reported":1706638131,"current_range_meters":18400,"station_id":"ce4bgvp2rcd13ifvqcu0","pricing_plan_id":"free"},{"bike_id":"37011456-8e63-438e-9884-74d5058338f8","system_id":"levelo_inurba_marseille","lat":43.313291,"lon":5.396838,"is_reserved":false,"is_disabled":false,"rental_uris":{"android":"levelo://app?vid=37011456-8e63-438e-9884-74d5058338f8","ios":"levelo://app?vid=37011456-8e63-438e-9884-74d5058338f8"},"vehicle_type_id":"4","last_reported":1706638131,"current_range_meters":6400,"station_id":"ce4bgvp2rcd13ifvqcu0","pricing_plan_id":"free"},{"bike_id":"fd032832-9814-42c3-abf6-948d3fd5d135","system_id":"levelo_inurba_marseille","lat":43.313291,"lon":5.396838,"is_reserved":false,"is_disabled":false,"rental_uris":{"android":"levelo://app?vid=fd032832-9814-42c3-abf6-948d3fd5d135","ios":"levelo://app?vid=fd032832-9814-42c3-abf6-948d3fd5d135"},"vehicle_type_id":"4","last_reported":1706638131,"current_range_meters":21200,"station_id":"ce4bgvp2rcd13ifvqcu0","pricing_plan_id":"free"},{"bike_id":"ef62cf81-cc32-4f0e-bdf1-8a6a90e9453b","system_id":"levelo_inurba_marseille","lat":43.313291,"lon":5.396838,"is_reserved":false,"is_disabled":false,"rental_uris":{"android":"levelo://app?vid=ef62cf81-cc32-4f0e-bdf1-8a6a90e9453b","ios":"levelo://app?vid=ef62cf81-cc32-4f0e-bdf1-8a6a90e9453b"},"vehicle_type_id":"4","last_reported":1706638131,"current_range_meters":18000,"station_id":"ce4bgvp2rcd13ifvqcu0","pricing_plan_id":"free"},{"bike_id":"067a3f54-cdb1-4351-888c-7235aaac275f","system_id":"levelo_inurba_marseille","lat":43.313291,"lon":5.396838,"is_reserved":false,"is_disabled":false,"rental_uris":{"android":"levelo://app?vid=067a3f54-cdb1-4351-888c-7235aaac275f","ios":"levelo://app?vid=067a3f54-cdb1-4351-888c-7235aaac275f"},"vehicle_type_id":"4","last_reported":1706638131,"current_range_meters":6400,"station_id":"ce4bgvp2rcd13ifvqcu0","pricing_plan_id":"free"},{"bike_id":"ad62d05c-e4ea-4189-8ac3-d1038681fc6a","system_id":"levelo_inurba_marseille","lat":43.313291,"lon":5.396838,"is_reserved":false,"is_disabled":false,"rental_uris":{"android":"levelo://app?vid=ad62d05c-e4ea-4189-8ac3-d1038681fc6a","ios":"levelo://app?vid=ad62d05c-e4ea-4189-8ac3-d1038681fc6a"},"vehicle_type_id":"4","last_reported":1706638131,"current_range_meters":20800,"station_id":"ce4bgvp2rcd13ifvqcu0","pricing_plan_id":"free"},{"bike_id":"2ffc279e-2799-4474-8220-0a993408586f","system_id":"levelo_inurba_marseille","lat":43.313291,"lon":5.396838,"is_reserved":false,"is_disabled":false,"rental_uris":{"android":"levelo://app?vid=2ffc279e-2799-4474-8220-0a993408586f","ios":"levelo://app?vid=2ffc279e-2799-4474-8220-0a993408586f"},"vehicle_type_id":"4","last_reported":1706638131,"current_range_meters":31600,"station_id":"ce4bgvp2rcd13ifvqcu0","pricing_plan_id":"free"},{"bike_id":"08c8936f-6282-4269-ac71-328472fd491d","system_id":"levelo_inurba_marseille","lat":43.313291,"lon":5.396838,"is_reserved":false,"is_disabled":false,"rental_uris":{"android":"levelo://app?vid=08c8936f-6282-4269-ac71-328472fd491d","ios":"levelo://app?vid=08c8936f-6282-4269-ac71-328472fd491d"},"vehicle_type_id":"4","last_reported":1706638131,"current_range_meters":31200,"station_id":"ce4bgvp2rcd13ifvqcu0","pricing_plan_id":"free"},{"bike_id":"96772678-d17a-43c2-a5f2-9de991a51cc0","system_id":"levelo_inurba_marseille","lat":43.30835,"lon":5.39641,"is_reserved":false,"is_disabled":false,"rental_uris":{"android":"levelo://app?vid=96772678-d17a-43c2-a5f2-9de991a51cc0","ios":"levelo://app?vid=96772678-d17a-43c2-a5f2-9de991a51cc0"},"vehicle_type_id":"4","last_reported":1706638131,"current_range_meters":25200,"station_id":"ce4bh012rcd13ifvqcv0","pricing_plan_id":"free"},{"bike_id":"276d7544-5a9f-42b8-ad4b-d6d347fc2dd6","system_id":"levelo_inurba_marseille","lat":43.298764,"lon":5.388973,"is_reserved":false,"is_disabled":false,"rental_uris":{"android":"levelo://app?vid=276d7544-5a9f-42b8-ad4b-d6d347fc2dd6","ios":"levelo://app?vid=276d7544-5a9f-42b8-ad4b-d6d347fc2dd6"},"vehicle_type_id":"4","last_reported":1706638131,"current_range_meters":19200,"station_id":"ce4bh392rcd13ifvqdl0","pricing_plan_id":"free"},{"bike_id":"6bfe7562-847e-4102-8f75-8f0b466b2311","system_id":"levelo_inurba_marseille","lat":43.29529,"lon":5.385581,"is_reserved":false,"is_disabled":false,"rental_uris":{"android":"levelo://app?vid=6bfe7562-847e-4102-8f75-8f0b466b2311","ios":"levelo://app?vid=6bfe7562-847e-4102-8f75-8f0b466b2311"},"vehicle_type_id":"4","last_reported":1706638131,"current_range_meters":20400,"station_id":"ce4bgih2rcd13ifvqba0","pricing_plan_id":"free"},{"bike_id":"9fb6e92a-de6f-4b04-92d4-3c9d81ced72c","system_id":"levelo_inurba_marseille","lat":43.29529,"lon":5.3854,"is_reserved":false,"is_disabled":false,"rental_uris":{"android":"levelo://app?vid=9fb6e92a-de6f-4b04-92d4-3c9d81ced72c","ios":"levelo://app?vid=9fb6e92a-de6f-4b04-92d4-3c9d81ced72c"},"vehicle_type_id":"4","last_reported":1706638131,"current_range_meters":27600,"station_id":"","pricing_plan_id":"free"},{"bike_id":"f6ce03b0-abeb-400f-bf41-e5c00a82f8bb","system_id":"levelo_inurba_marseille","lat":43.29529,"lon":5.385581,"is_reserved":false,"is_disabled":false,"rental_uris":{"android":"levelo://app?vid=f6ce03b0-abeb-400f-bf41-e5c00a82f8bb","ios":"levelo://app?vid=f6ce03b0-abeb-400f-bf41-e5c00a82f8bb"},"vehicle_type_id":"4","last_reported":1706638131,"current_range_meters":9200,"station_id":"ce4bgih2rcd13ifvqba0","pricing_plan_id":"free"},{"bike_id":"e309805d-b3a8-4810-a8a8-6d179c639b04","system_id":"levelo_inurba_marseille","lat":43.29529,"lon":5.385581,"is_reserved":false,"is_disabled":false,"rental_uris":{"android":"levelo://app?vid=e309805d-b3a8-4810-a8a8-6d179c639b04","ios":"levelo://app?vid=e309805d-b3a8-4810-a8a8-6d179c639b04"},"vehicle_type_id":"4","last_reported":1706638131,"current_range_meters":18000,"station_id":"ce4bgih2rcd13ifvqba0","pricing_plan_id":"free"},{"bike_id":"bd1ba94f-5cbc-430f-95f0-1c2a2dad53e8","system_id":"levelo_inurba_marseille","lat":43.290779,"lon":5.371482,"is_reserved":false,"is_disabled":false,"rental_uris":{"android":"levelo://app?vid=bd1ba94f-5cbc-430f-95f0-1c2a2dad53e8","ios":"levelo://app?vid=bd1ba94f-5cbc-430f-95f0-1c2a2dad53e8"},"vehicle_type_id":"4","last_reported":1706638131,"current_range_meters":4000,"station_id":"ce4bh5p2rcd13ifvqe4g","pricing_plan_id":"free"},{"bike_id":"2c1e47ad-3478-424c-8c66-23a600b1f0dc","system_id":"levelo_inurba_marseille","lat":43.290441,"lon":5.359123,"is_reserved":false,"is_disabled":false,"rental_uris":{"android":"levelo://app?vid=2c1e47ad-3478-424c-8c66-23a600b1f0dc","ios":"levelo://app?vid=2c1e47ad-3478-424c-8c66-23a600b1f0dc"},"vehicle_type_id":"4","last_reported":1706638131,"current_range_meters":17200,"station_id":"","pricing_plan_id":"free"},{"bike_id":"995fafa8-6169-4bff-ba5b-4fb6980cff7d","system_id":"levelo_inurba_marseille","lat":43.2942,"lon":5.3862,"is_reserved":false,"is_disabled":false,"rental_uris":{"android":"levelo://app?vid=995fafa8-6169-4bff-ba5b-4fb6980cff7d","ios":"levelo://app?vid=995fafa8-6169-4bff-ba5b-4fb6980cff7d"},"vehicle_type_id":"4","last_reported":1706638131,"current_range_meters":9600,"station_id":"ce4bh2h2rcd13ifvqdh0","pricing_plan_id":"free"},{"bike_id":"c5492cfa-c930-45dc-88ed-9c81870ba716","system_id":"levelo_inurba_marseille","lat":43.294162,"lon":5.386292,"is_reserved":false,"is_disabled":false,"rental_uris":{"android":"levelo://app?vid=c5492cfa-c930-45dc-88ed-9c81870ba716","ios":"levelo://app?vid=c5492cfa-c930-45dc-88ed-9c81870ba716"},"vehicle_type_id":"4","last_reported":1706638131,"current_range_meters":23600,"station_id":"ce4bh2h2rcd13ifvqdh0","pricing_plan_id":"free"},{"bike_id":"e6c1bbe6-83e9-413b-85fe-09e35195dffa","system_id":"levelo_inurba_marseille","lat":43.294153,"lon":5.386305,"is_reserved":false,"is_disabled":false,"rental_uris":{"android":"levelo://app?vid=e6c1bbe6-83e9-413b-85fe-09e35195dffa","ios":"levelo://app?vid=e6c1bbe6-83e9-413b-85fe-09e35195dffa"},"vehicle_type_id":"4","last_reported":1706638131,"current_range_meters":11200,"station_id":"ce4bh2h2rcd13ifvqdh0","pricing_plan_id":"free"},{"bike_id":"6c5ac049-8b17-4d42-b77c-66a06135d2d7","system_id":"levelo_inurba_marseille","lat":43.294162,"lon":5.386292,"is_reserved":false,"is_disabled":false,"rental_uris":{"android":"levelo://app?vid=6c5ac049-8b17-4d42-b77c-66a06135d2d7","ios":"levelo://app?vid=6c5ac049-8b17-4d42-b77c-66a06135d2d7"},"vehicle_type_id":"4","last_reported":1706638131,"current_range_meters":400,"station_id":"ce4bh2h2rcd13ifvqdh0","pricing_plan_id":"free"},{"bike_id":"c432b136-568d-48fa-8ed6-e298adec0fb6","system_id":"levelo_inurba_marseille","lat":43.2942,"lon":5.38629,"is_reserved":false,"is_disabled":false,"rental_uris":{"android":"levelo://app?vid=c432b136-568d-48fa-8ed6-e298adec0fb6","ios":"levelo://app?vid=c432b136-568d-48fa-8ed6-e298adec0fb6"},"vehicle_type_id":"4","last_reported":1706638131,"current_range_meters":22000,"station_id":"ce4bh2h2rcd13ifvqdh0","pricing_plan_id":"free"},{"bike_id":"6fc8ea74-de37-483d-a3da-866427fdf2dd","system_id":"levelo_inurba_marseille","lat":43.29413,"lon":5.38621,"is_reserved":false,"is_disabled":false,"rental_uris":{"android":"levelo://app?vid=6fc8ea74-de37-483d-a3da-866427fdf2dd","ios":"levelo://app?vid=6fc8ea74-de37-483d-a3da-866427fdf2dd"},"vehicle_type_id":"4","last_reported":1706638131,"current_range_meters":22000,"station_id":"ce4bh2h2rcd13ifvqdh0","pricing_plan_id":"free"},{"bike_id":"21fecfae-ca61-4e65-a202-7ab0952daa58","system_id":"levelo_inurba_marseille","lat":43.2894,"lon":5.3663,"is_reserved":false,"is_disabled":false,"rental_uris":{"android":"levelo://app?vid=21fecfae-ca61-4e65-a202-7ab0952daa58","ios":"levelo://app?vid=21fecfae-ca61-4e65-a202-7ab0952daa58"},"vehicle_type_id":"4","last_reported":1706638131,"current_range_meters":0,"station_id":"ce4bhap2rcd13ifvqek0","pricing_plan_id":"free"},{"bike_id":"7dc3d1a6-3944-4cb2-8991-00a236fcb1af","system_id":"levelo_inurba_marseille","lat":43.289184,"lon":5.366408,"is_reserved":false,"is_disabled":false,"rental_uris":{"android":"levelo://app?vid=7dc3d1a6-3944-4cb2-8991-00a236fcb1af","ios":"levelo://app?vid=7dc3d1a6-3944-4cb2-8991-00a236fcb1af"},"vehicle_type_id":"4","last_reported":1706638131,"current_range_meters":0,"station_id":"ce4bhap2rcd13ifvqek0","pricing_plan_id":"free"},{"bike_id":"7c8d0c4f-43bc-409d-822d-709d98054e51","system_id":"levelo_inurba_marseille","lat":43.289184,"lon":5.366408,"is_reserved":false,"is_disabled":false,"rental_uris":{"android":"levelo://app?vid=7c8d0c4f-43bc-409d-822d-709d98054e51","ios":"levelo://app?vid=7c8d0c4f-43bc-409d-822d-709d98054e51"},"vehicle_type_id":"4","last_reported":1706638131,"current_range_meters":0,"station_id":"ce4bhap2rcd13ifvqek0","pricing_plan_id":"free"},{"bike_id":"8e5ccbdf-689f-4611-8d15-26725c6f2c7b","system_id":"levelo_inurba_marseille","lat":43.295713,"lon":5.399639,"is_reserved":false,"is_disabled":false,"rental_uris":{"android":"levelo://app?vid=8e5ccbdf-689f-4611-8d15-26725c6f2c7b","ios":"levelo://app?vid=8e5ccbdf-689f-4611-8d15-26725c6f2c7b"},"vehicle_type_id":"4","last_reported":1706638131,"current_range_meters":2800,"station_id":"ce4bh312rcd13ifvqdj0","pricing_plan_id":"free"},{"bike_id":"fd76dbe7-ec81-4885-9b21-5bce92643002","system_id":"levelo_inurba_marseille","lat":43.285742,"lon":5.395004,"is_reserved":false,"is_disabled":false,"rental_uris":{"android":"levelo://app?vid=fd76dbe7-ec81-4885-9b21-5bce92643002","ios":"levelo://app?vid=fd76dbe7-ec81-4885-9b21-5bce92643002"},"vehicle_type_id":"4","last_reported":1706638131,"current_range_meters":15600,"station_id":"ce4bh292rcd13ifvqdg0","pricing_plan_id":"free"},{"bike_id":"7239f694-d564-46db-b486-547f4b2da7eb","system_id":"levelo_inurba_marseille","lat":43.292642,"lon":5.384254,"is_reserved":false,"is_disabled":false,"rental_uris":{"android":"levelo://app?vid=7239f694-d564-46db-b486-547f4b2da7eb","ios":"levelo://app?vid=7239f694-d564-46db-b486-547f4b2da7eb"},"vehicle_type_id":"4","last_reported":1706638131,"current_range_meters":22800,"station_id":"ce4bh692rcd13ifvqea0","pricing_plan_id":"free"},{"bike_id":"7bd3bb83-c945-4017-90ed-b5c84d6d76db","system_id":"levelo_inurba_marseille","lat":43.292642,"lon":5.384254,"is_reserved":false,"is_disabled":false,"rental_uris":{"android":"levelo://app?vid=7bd3bb83-c945-4017-90ed-b5c84d6d76db","ios":"levelo://app?vid=7bd3bb83-c945-4017-90ed-b5c84d6d76db"},"vehicle_type_id":"4","last_reported":1706638131,"current_range_meters":12800,"station_id":"ce4bh692rcd13ifvqea0","pricing_plan_id":"free"},{"bike_id":"a926dd93-df77-4bde-9166-f9b3f2d6d44b","system_id":"levelo_inurba_marseille","lat":43.292644,"lon":5.384257,"is_reserved":false,"is_disabled":false,"rental_uris":{"android":"levelo://app?vid=a926dd93-df77-4bde-9166-f9b3f2d6d44b","ios":"levelo://app?vid=a926dd93-df77-4bde-9166-f9b3f2d6d44b"},"vehicle_type_id":"4","last_reported":1706638131,"current_range_meters":400,"station_id":"ce4bh692rcd13ifvqea0","pricing_plan_id":"free"},{"bike_id":"9025e360-0feb-48cf-8b27-714c830f85b7","system_id":"levelo_inurba_marseille","lat":43.292644,"lon":5.384257,"is_reserved":false,"is_disabled":false,"rental_uris":{"android":"levelo://app?vid=9025e360-0feb-48cf-8b27-714c830f85b7","ios":"levelo://app?vid=9025e360-0feb-48cf-8b27-714c830f85b7"},"vehicle_type_id":"4","last_reported":1706638131,"current_range_meters":14800,"station_id":"ce4bh692rcd13ifvqea0","pricing_plan_id":"free"},{"bike_id":"0a0e8175-5066-44e1-bd96-3efc87881862","system_id":"levelo_inurba_marseille","lat":43.292644,"lon":5.384257,"is_reserved":false,"is_disabled":false,"rental_uris":{"android":"levelo://app?vid=0a0e8175-5066-44e1-bd96-3efc87881862","ios":"levelo://app?vid=0a0e8175-5066-44e1-bd96-3efc87881862"},"vehicle_type_id":"4","last_reported":1706638131,"current_range_meters":3200,"station_id":"ce4bh692rcd13ifvqea0","pricing_plan_id":"free"},{"bike_id":"124438de-f7a6-47be-a309-ec438970470c","system_id":"levelo_inurba_marseille","lat":43.290103,"lon":5.356114,"is_reserved":false,"is_disabled":false,"rental_uris":{"android":"levelo://app?vid=124438de-f7a6-47be-a309-ec438970470c","ios":"levelo://app?vid=124438de-f7a6-47be-a309-ec438970470c"},"vehicle_type_id":"4","last_reported":1706638131,"current_range_meters":16000,"station_id":"ce4bhb92rcd13ifvqen0","pricing_plan_id":"free"},{"bike_id":"228d613d-efd0-4be1-a070-10ad508c33de","system_id":"levelo_inurba_marseille","lat":43.290103,"lon":5.356114,"is_reserved":false,"is_disabled":false,"rental_uris":{"android":"levelo://app?vid=228d613d-efd0-4be1-a070-10ad508c33de","ios":"levelo://app?vid=228d613d-efd0-4be1-a070-10ad508c33de"},"vehicle_type_id":"4","last_reported":1706638131,"current_range_meters":14000,"station_id":"ce4bhb92rcd13ifvqen0","pricing_plan_id":"free"},{"bike_id":"46da3db9-e90a-44ac-a7b3-747fd1f4f791","system_id":"levelo_inurba_marseille","lat":43.29561,"lon":5.39021,"is_reserved":false,"is_disabled":false,"rental_uris":{"android":"levelo://app?vid=46da3db9-e90a-44ac-a7b3-747fd1f4f791","ios":"levelo://app?vid=46da3db9-e90a-44ac-a7b3-747fd1f4f791"},"vehicle_type_id":"4","last_reported":1706638131,"current_range_meters":13600,"station_id":"","pricing_plan_id":"free"},{"bike_id":"9d04f22f-e1a4-47bf-9d29-67876c885943","system_id":"levelo_inurba_marseille","lat":43.295169,"lon":5.390426,"is_reserved":false,"is_disabled":false,"rental_uris":{"android":"levelo://app?vid=9d04f22f-e1a4-47bf-9d29-67876c885943","ios":"levelo://app?vid=9d04f22f-e1a4-47bf-9d29-67876c885943"},"vehicle_type_id":"4","last_reported":1706638131,"current_range_meters":28800,"station_id":"ce4bh3p2rcd13ifvqdp0","pricing_plan_id":"free"},{"bike_id":"9c7a9839-bda3-4c8b-b68c-6ac3367bbc8e","system_id":"levelo_inurba_marseille","lat":43.330442,"lon":5.389148,"is_reserved":false,"is_disabled":false,"rental_uris":{"android":"levelo://app?vid=9c7a9839-bda3-4c8b-b68c-6ac3367bbc8e","ios":"levelo://app?vid=9c7a9839-bda3-4c8b-b68c-6ac3367bbc8e"},"vehicle_type_id":"4","last_reported":1706638131,"current_range_meters":25600,"station_id":"ce4bhr92rcd13ifvqhrg","pricing_plan_id":"free"},{"bike_id":"ff708cda-0d47-4a10-a7f9-fd329bffdc33","system_id":"levelo_inurba_marseille","lat":43.330442,"lon":5.389148,"is_reserved":false,"is_disabled":false,"rental_uris":{"android":"levelo://app?vid=ff708cda-0d47-4a10-a7f9-fd329bffdc33","ios":"levelo://app?vid=ff708cda-0d47-4a10-a7f9-fd329bffdc33"},"vehicle_type_id":"4","last_reported":1706638131,"current_range_meters":3200,"station_id":"ce4bhr92rcd13ifvqhrg","pricing_plan_id":"free"},{"bike_id":"6587bccc-79e1-424f-8ec5-6c8f05287a7b","system_id":"levelo_inurba_marseille","lat":43.295169,"lon":5.390426,"is_reserved":false,"is_disabled":false,"rental_uris":{"android":"levelo://app?vid=6587bccc-79e1-424f-8ec5-6c8f05287a7b","ios":"levelo://app?vid=6587bccc-79e1-424f-8ec5-6c8f05287a7b"},"vehicle_type_id":"4","last_reported":1706638131,"current_range_meters":28000,"station_id":"ce4bh3p2rcd13ifvqdp0","pricing_plan_id":"free"},{"bike_id":"c11dfe63-9dbc-402f-84ab-8b8317733a63","system_id":"levelo_inurba_marseille","lat":43.33025,"lon":5.39042,"is_reserved":false,"is_disabled":false,"rental_uris":{"android":"levelo://app?vid=c11dfe63-9dbc-402f-84ab-8b8317733a63","ios":"levelo://app?vid=c11dfe63-9dbc-402f-84ab-8b8317733a63"},"vehicle_type_id":"4","last_reported":1706638131,"current_range_meters":3200,"station_id":"ce4bhr92rcd13ifvqhrg","pricing_plan_id":"free"},{"bike_id":"dde1b304-8ca4-428e-82d4-7f51667fdb61","system_id":"levelo_inurba_marseille","lat":43.29526,"lon":5.39047,"is_reserved":false,"is_disabled":false,"rental_uris":{"android":"levelo://app?vid=dde1b304-8ca4-428e-82d4-7f51667fdb61","ios":"levelo://app?vid=dde1b304-8ca4-428e-82d4-7f51667fdb61"},"vehicle_type_id":"4","last_reported":1706638131,"current_range_meters":17600,"station_id":"ce4bh3p2rcd13ifvqdp0","pricing_plan_id":"free"},{"bike_id":"d886f36e-218b-497f-bf3c-7716ce70d8cc","system_id":"levelo_inurba_marseille","lat":43.33027,"lon":5.39046,"is_reserved":false,"is_disabled":false,"rental_uris":{"android":"levelo://app?vid=d886f36e-218b-497f-bf3c-7716ce70d8cc","ios":"levelo://app?vid=d886f36e-218b-497f-bf3c-7716ce70d8cc"},"vehicle_type_id":"4","last_reported":1706638131,"current_range_meters":3200,"station_id":"ce4bhr92rcd13ifvqhrg","pricing_plan_id":"free"},{"bike_id":"dd0b700c-9a30-4ef4-9a9f-62504c762774","system_id":"levelo_inurba_marseille","lat":43.295169,"lon":5.390426,"is_reserved":false,"is_disabled":false,"rental_uris":{"android":"levelo://app?vid=dd0b700c-9a30-4ef4-9a9f-62504c762774","ios":"levelo://app?vid=dd0b700c-9a30-4ef4-9a9f-62504c762774"},"vehicle_type_id":"4","last_reported":1706638131,"current_range_meters":26000,"station_id":"ce4bh3p2rcd13ifvqdp0","pricing_plan_id":"free"},{"bike_id":"43244c99-5db6-42f7-9190-d887fb9e70d9","system_id":"levelo_inurba_marseille","lat":43.33028,"lon":5.39065,"is_reserved":false,"is_disabled":false,"rental_uris":{"android":"levelo://app?vid=43244c99-5db6-42f7-9190-d887fb9e70d9","ios":"levelo://app?vid=43244c99-5db6-42f7-9190-d887fb9e70d9"},"vehicle_type_id":"4","last_reported":1706638131,"current_range_meters":18400,"station_id":"ce4bhr92rcd13ifvqhrg","pricing_plan_id":"free"},{"bike_id":"69be143d-2d2b-4a08-a569-4d0efe66087e","system_id":"levelo_inurba_marseille","lat":43.28856,"lon":5.358371,"is_reserved":false,"is_disabled":false,"rental_uris":{"android":"levelo://app?vid=69be143d-2d2b-4a08-a569-4d0efe66087e","ios":"levelo://app?vid=69be143d-2d2b-4a08-a569-4d0efe66087e"},"vehicle_type_id":"4","last_reported":1706638131,"current_range_meters":8800,"station_id":"ce4bhb12rcd13ifvqem0","pricing_plan_id":"free"},{"bike_id":"8c42e843-6acf-4c2e-b268-a13a2f8e0fc7","system_id":"levelo_inurba_marseille","lat":43.290094,"lon":5.381264,"is_reserved":false,"is_disabled":false,"rental_uris":{"android":"levelo://app?vid=8c42e843-6acf-4c2e-b268-a13a2f8e0fc7","ios":"levelo://app?vid=8c42e843-6acf-4c2e-b268-a13a2f8e0fc7"},"vehicle_type_id":"4","last_reported":1706638131,"current_range_meters":0,"station_id":"ce4bh4p2rcd13ifvqe1g","pricing_plan_id":"free"},{"bike_id":"ff23f96c-0593-4484-8873-48bd9013dd28","system_id":"levelo_inurba_marseille","lat":43.28856,"lon":5.358371,"is_reserved":false,"is_disabled":false,"rental_uris":{"android":"levelo://app?vid=ff23f96c-0593-4484-8873-48bd9013dd28","ios":"levelo://app?vid=ff23f96c-0593-4484-8873-48bd9013dd28"},"vehicle_type_id":"4","last_reported":1706638131,"current_range_meters":10400,"station_id":"ce4bhb12rcd13ifvqem0","pricing_plan_id":"free"},{"bike_id":"a2caf985-4601-49c6-8c50-340d046e22db","system_id":"levelo_inurba_marseille","lat":43.28856,"lon":5.358371,"is_reserved":false,"is_disabled":false,"rental_uris":{"android":"levelo://app?vid=a2caf985-4601-49c6-8c50-340d046e22db","ios":"levelo://app?vid=a2caf985-4601-49c6-8c50-340d046e22db"},"vehicle_type_id":"4","last_reported":1706638131,"current_range_meters":1600,"station_id":"ce4bhb12rcd13ifvqem0","pricing_plan_id":"free"},{"bike_id":"8a0be387-e59a-4e28-b0df-7e795def2c7b","system_id":"levelo_inurba_marseille","lat":43.28856,"lon":5.358371,"is_reserved":false,"is_disabled":false,"rental_uris":{"android":"levelo://app?vid=8a0be387-e59a-4e28-b0df-7e795def2c7b","ios":"levelo://app?vid=8a0be387-e59a-4e28-b0df-7e795def2c7b"},"vehicle_type_id":"4","last_reported":1706638131,"current_range_meters":28400,"station_id":"ce4bhb12rcd13ifvqem0","pricing_plan_id":"free"},{"bike_id":"e19cd6be-0fcb-411e-850f-533acfd24fee","system_id":"levelo_inurba_marseille","lat":43.28856,"lon":5.358371,"is_reserved":false,"is_disabled":false,"rental_uris":{"android":"levelo://app?vid=e19cd6be-0fcb-411e-850f-533acfd24fee","ios":"levelo://app?vid=e19cd6be-0fcb-411e-850f-533acfd24fee"},"vehicle_type_id":"4","last_reported":1706638131,"current_range_meters":25600,"station_id":"ce4bhb12rcd13ifvqem0","pricing_plan_id":"free"},{"bike_id":"61ac6bdf-04a5-41d8-b609-838050af9446","system_id":"levelo_inurba_marseille","lat":43.28856,"lon":5.358371,"is_reserved":false,"is_disabled":false,"rental_uris":{"android":"levelo://app?vid=61ac6bdf-04a5-41d8-b609-838050af9446","ios":"levelo://app?vid=61ac6bdf-04a5-41d8-b609-838050af9446"},"vehicle_type_id":"4","last_reported":1706638131,"current_range_meters":27200,"station_id":"ce4bhb12rcd13ifvqem0","pricing_plan_id":"free"},{"bike_id":"16bdf5c4-14c8-4b05-ad62-d1115b2aa00d","system_id":"levelo_inurba_marseille","lat":43.28856,"lon":5.358371,"is_reserved":false,"is_disabled":false,"rental_uris":{"android":"levelo://app?vid=16bdf5c4-14c8-4b05-ad62-d1115b2aa00d","ios":"levelo://app?vid=16bdf5c4-14c8-4b05-ad62-d1115b2aa00d"},"vehicle_type_id":"4","last_reported":1706638131,"current_range_meters":16000,"station_id":"ce4bhb12rcd13ifvqem0","pricing_plan_id":"free"},{"bike_id":"70770ecd-216a-467f-8858-7aa6679f1335","system_id":"levelo_inurba_marseille","lat":43.28856,"lon":5.358371,"is_reserved":false,"is_disabled":false,"rental_uris":{"android":"levelo://app?vid=70770ecd-216a-467f-8858-7aa6679f1335","ios":"levelo://app?vid=70770ecd-216a-467f-8858-7aa6679f1335"},"vehicle_type_id":"4","last_reported":1706638131,"current_range_meters":15600,"station_id":"ce4bhb12rcd13ifvqem0","pricing_plan_id":"free"},{"bike_id":"6d17daa7-6fc8-4f03-9bd6-ddb9e06e2207","system_id":"levelo_inurba_marseille","lat":43.288477,"lon":5.358551,"is_reserved":false,"is_disabled":false,"rental_uris":{"android":"levelo://app?vid=6d17daa7-6fc8-4f03-9bd6-ddb9e06e2207","ios":"levelo://app?vid=6d17daa7-6fc8-4f03-9bd6-ddb9e06e2207"},"vehicle_type_id":"4","last_reported":1706638131,"current_range_meters":3200,"station_id":"ce4bhb12rcd13ifvqem0","pricing_plan_id":"free"},{"bike_id":"a410b630-21f0-488e-b5e2-14f05f8552fd","system_id":"levelo_inurba_marseille","lat":43.28856,"lon":5.358371,"is_reserved":false,"is_disabled":false,"rental_uris":{"android":"levelo://app?vid=a410b630-21f0-488e-b5e2-14f05f8552fd","ios":"levelo://app?vid=a410b630-21f0-488e-b5e2-14f05f8552fd"},"vehicle_type_id":"4","last_reported":1706638131,"current_range_meters":21600,"station_id":"ce4bhb12rcd13ifvqem0","pricing_plan_id":"free"},{"bike_id":"24bca81d-f76b-46b1-ad04-20c7073dfe30","system_id":"levelo_inurba_marseille","lat":43.28856,"lon":5.358371,"is_reserved":false,"is_disabled":false,"rental_uris":{"android":"levelo://app?vid=24bca81d-f76b-46b1-ad04-20c7073dfe30","ios":"levelo://app?vid=24bca81d-f76b-46b1-ad04-20c7073dfe30"},"vehicle_type_id":"4","last_reported":1706638131,"current_range_meters":27600,"station_id":"ce4bhb12rcd13ifvqem0","pricing_plan_id":"free"},{"bike_id":"9008239d-ce45-46c2-8381-3c063bd03566","system_id":"levelo_inurba_marseille","lat":43.33734,"lon":5.37459,"is_reserved":false,"is_disabled":false,"rental_uris":{"android":"levelo://app?vid=9008239d-ce45-46c2-8381-3c063bd03566","ios":"levelo://app?vid=9008239d-ce45-46c2-8381-3c063bd03566"},"vehicle_type_id":"4","last_reported":1706638131,"current_range_meters":17600,"station_id":"","pricing_plan_id":"free"},{"bike_id":"caad8c37-fdb0-4dd8-9853-9a0b62c09b59","system_id":"levelo_inurba_marseille","lat":43.30923,"lon":5.40139,"is_reserved":false,"is_disabled":false,"rental_uris":{"android":"levelo://app?vid=caad8c37-fdb0-4dd8-9853-9a0b62c09b59","ios":"levelo://app?vid=caad8c37-fdb0-4dd8-9853-9a0b62c09b59"},"vehicle_type_id":"4","last_reported":1706638131,"current_range_meters":0,"station_id":"ce4bgvp2rcd13ifvqct0","pricing_plan_id":"free"},{"bike_id":"d240c5eb-413e-4c2a-b76a-d4fd02f7e6b7","system_id":"levelo_inurba_marseille","lat":43.309371,"lon":5.401449,"is_reserved":false,"is_disabled":false,"rental_uris":{"android":"levelo://app?vid=d240c5eb-413e-4c2a-b76a-d4fd02f7e6b7","ios":"levelo://app?vid=d240c5eb-413e-4c2a-b76a-d4fd02f7e6b7"},"vehicle_type_id":"4","last_reported":1706638131,"current_range_meters":20800,"station_id":"ce4bgvp2rcd13ifvqct0","pricing_plan_id":"free"},{"bike_id":"dd4b1d33-c442-4751-bc7d-f88085de455a","system_id":"levelo_inurba_marseille","lat":43.312757,"lon":5.40176,"is_reserved":false,"is_disabled":false,"rental_uris":{"android":"levelo://app?vid=dd4b1d33-c442-4751-bc7d-f88085de455a","ios":"levelo://app?vid=dd4b1d33-c442-4751-bc7d-f88085de455a"},"vehicle_type_id":"4","last_reported":1706638131,"current_range_meters":9200,"station_id":"ce4bh092rcd13ifvqd30","pricing_plan_id":"free"},{"bike_id":"f8945722-f515-420f-9dbd-4e07bb8780ce","system_id":"levelo_inurba_marseille","lat":43.30931,"lon":5.40144,"is_reserved":false,"is_disabled":false,"rental_uris":{"android":"levelo://app?vid=f8945722-f515-420f-9dbd-4e07bb8780ce","ios":"levelo://app?vid=f8945722-f515-420f-9dbd-4e07bb8780ce"},"vehicle_type_id":"4","last_reported":1706638131,"current_range_meters":400,"station_id":"ce4bgvp2rcd13ifvqct0","pricing_plan_id":"free"},{"bike_id":"ef5e8755-ee96-4e8a-9b6f-0abf7e71668a","system_id":"levelo_inurba_marseille","lat":43.309371,"lon":5.401449,"is_reserved":false,"is_disabled":false,"rental_uris":{"android":"levelo://app?vid=ef5e8755-ee96-4e8a-9b6f-0abf7e71668a","ios":"levelo://app?vid=ef5e8755-ee96-4e8a-9b6f-0abf7e71668a"},"vehicle_type_id":"4","last_reported":1706638131,"current_range_meters":11200,"station_id":"ce4bgvp2rcd13ifvqct0","pricing_plan_id":"free"},{"bike_id":"079b4b7f-7794-4fd3-b904-e59b8d3dca7c","system_id":"levelo_inurba_marseille","lat":43.309371,"lon":5.401449,"is_reserved":false,"is_disabled":false,"rental_uris":{"android":"levelo://app?vid=079b4b7f-7794-4fd3-b904-e59b8d3dca7c","ios":"levelo://app?vid=079b4b7f-7794-4fd3-b904-e59b8d3dca7c"},"vehicle_type_id":"4","last_reported":1706638131,"current_range_meters":24800,"station_id":"ce4bgvp2rcd13ifvqct0","pricing_plan_id":"free"},{"bike_id":"e7f5de90-1e40-49b1-b842-fb030d7f55ee","system_id":"levelo_inurba_marseille","lat":43.3093,"lon":5.40156,"is_reserved":false,"is_disabled":false,"rental_uris":{"android":"levelo://app?vid=e7f5de90-1e40-49b1-b842-fb030d7f55ee","ios":"levelo://app?vid=e7f5de90-1e40-49b1-b842-fb030d7f55ee"},"vehicle_type_id":"4","last_reported":1706638131,"current_range_meters":0,"station_id":"ce4bgvp2rcd13ifvqct0","pricing_plan_id":"free"},{"bike_id":"b7d3b81d-d85a-44b5-a0c7-8f9c9f74639e","system_id":"levelo_inurba_marseille","lat":43.337587,"lon":5.374576,"is_reserved":false,"is_disabled":false,"rental_uris":{"android":"levelo://app?vid=b7d3b81d-d85a-44b5-a0c7-8f9c9f74639e","ios":"levelo://app?vid=b7d3b81d-d85a-44b5-a0c7-8f9c9f74639e"},"vehicle_type_id":"4","last_reported":1706638131,"current_range_meters":18800,"station_id":"","pricing_plan_id":"free"},{"bike_id":"2fe24097-b1c2-4583-ba1f-cf8501171a4c","system_id":"levelo_inurba_marseille","lat":43.33753,"lon":5.37494,"is_reserved":false,"is_disabled":false,"rental_uris":{"android":"levelo://app?vid=2fe24097-b1c2-4583-ba1f-cf8501171a4c","ios":"levelo://app?vid=2fe24097-b1c2-4583-ba1f-cf8501171a4c"},"vehicle_type_id":"4","last_reported":1706638131,"current_range_meters":1600,"station_id":"","pricing_plan_id":"free"},{"bike_id":"1facbbf3-baac-42f8-85eb-cb1e36f3e4b9","system_id":"levelo_inurba_marseille","lat":43.33757,"lon":5.37485,"is_reserved":false,"is_disabled":false,"rental_uris":{"android":"levelo://app?vid=1facbbf3-baac-42f8-85eb-cb1e36f3e4b9","ios":"levelo://app?vid=1facbbf3-baac-42f8-85eb-cb1e36f3e4b9"},"vehicle_type_id":"4","last_reported":1706638131,"current_range_meters":4000,"station_id":"","pricing_plan_id":"free"},{"bike_id":"12568932-a9a7-4d52-8b2c-668683b75358","system_id":"levelo_inurba_marseille","lat":43.3376,"lon":5.37492,"is_reserved":false,"is_disabled":false,"rental_uris":{"android":"levelo://app?vid=12568932-a9a7-4d52-8b2c-668683b75358","ios":"levelo://app?vid=12568932-a9a7-4d52-8b2c-668683b75358"},"vehicle_type_id":"4","last_reported":1706638131,"current_range_meters":15600,"station_id":"","pricing_plan_id":"free"},{"bike_id":"c86e3709-7919-4729-8928-a0acc081a2ae","system_id":"levelo_inurba_marseille","lat":43.30642,"lon":5.401031,"is_reserved":false,"is_disabled":false,"rental_uris":{"android":"levelo://app?vid=c86e3709-7919-4729-8928-a0acc081a2ae","ios":"levelo://app?vid=c86e3709-7919-4729-8928-a0acc081a2ae"},"vehicle_type_id":"4","last_reported":1706638131,"current_range_meters":19200,"station_id":"ce4bh112rcd13ifvqda0","pricing_plan_id":"free"},{"bike_id":"77562440-9968-4512-879b-993d4cdac811","system_id":"levelo_inurba_marseille","lat":43.28727,"lon":5.36078,"is_reserved":false,"is_disabled":false,"rental_uris":{"android":"levelo://app?vid=77562440-9968-4512-879b-993d4cdac811","ios":"levelo://app?vid=77562440-9968-4512-879b-993d4cdac811"},"vehicle_type_id":"4","last_reported":1706638131,"current_range_meters":6400,"station_id":"cki0cbj6b192h4jlfktg","pricing_plan_id":"free"},{"bike_id":"0555e4d1-181a-4cf9-a2af-e40de8c12013","system_id":"levelo_inurba_marseille","lat":43.28727,"lon":5.36078,"is_reserved":false,"is_disabled":false,"rental_uris":{"android":"levelo://app?vid=0555e4d1-181a-4cf9-a2af-e40de8c12013","ios":"levelo://app?vid=0555e4d1-181a-4cf9-a2af-e40de8c12013"},"vehicle_type_id":"4","last_reported":1706638131,"current_range_meters":13600,"station_id":"cki0cbj6b192h4jlfktg","pricing_plan_id":"free"},{"bike_id":"b023b534-423f-4cb3-a638-d350146f6b21","system_id":"levelo_inurba_marseille","lat":43.28727,"lon":5.36078,"is_reserved":false,"is_disabled":false,"rental_uris":{"android":"levelo://app?vid=b023b534-423f-4cb3-a638-d350146f6b21","ios":"levelo://app?vid=b023b534-423f-4cb3-a638-d350146f6b21"},"vehicle_type_id":"4","last_reported":1706638131,"current_range_meters":400,"station_id":"cki0cbj6b192h4jlfktg","pricing_plan_id":"free"},{"bike_id":"1b13fa42-6e5e-409d-ba70-53d1547330af","system_id":"levelo_inurba_marseille","lat":43.28727,"lon":5.36078,"is_reserved":false,"is_disabled":false,"rental_uris":{"android":"levelo://app?vid=1b13fa42-6e5e-409d-ba70-53d1547330af","ios":"levelo://app?vid=1b13fa42-6e5e-409d-ba70-53d1547330af"},"vehicle_type_id":"4","last_reported":1706638131,"current_range_meters":5600,"station_id":"cki0cbj6b192h4jlfktg","pricing_plan_id":"free"},{"bike_id":"8ba96fc3-ee90-4916-97b9-7f0afb411a1f","system_id":"levelo_inurba_marseille","lat":43.286961,"lon":5.373785,"is_reserved":false,"is_disabled":false,"rental_uris":{"android":"levelo://app?vid=8ba96fc3-ee90-4916-97b9-7f0afb411a1f","ios":"levelo://app?vid=8ba96fc3-ee90-4916-97b9-7f0afb411a1f"},"vehicle_type_id":"4","last_reported":1706638131,"current_range_meters":10800,"station_id":"ce4bh3p2rcd13ifvqdq0","pricing_plan_id":"free"},{"bike_id":"fc796636-8609-46e1-a79c-7547f995d8d0","system_id":"levelo_inurba_marseille","lat":43.295196,"lon":5.39397,"is_reserved":false,"is_disabled":false,"rental_uris":{"android":"levelo://app?vid=fc796636-8609-46e1-a79c-7547f995d8d0","ios":"levelo://app?vid=fc796636-8609-46e1-a79c-7547f995d8d0"},"vehicle_type_id":"4","last_reported":1706638131,"current_range_meters":7200,"station_id":"ce4bh292rcd13ifvqdf0","pricing_plan_id":"free"},{"bike_id":"a0cba3c7-2003-459b-ac9a-c54e8206ee21","system_id":"levelo_inurba_marseille","lat":43.286961,"lon":5.373785,"is_reserved":false,"is_disabled":false,"rental_uris":{"android":"levelo://app?vid=a0cba3c7-2003-459b-ac9a-c54e8206ee21","ios":"levelo://app?vid=a0cba3c7-2003-459b-ac9a-c54e8206ee21"},"vehicle_type_id":"4","last_reported":1706638131,"current_range_meters":22400,"station_id":"ce4bh3p2rcd13ifvqdq0","pricing_plan_id":"free"},{"bike_id":"14d0ef62-1764-41e7-af4c-4664d45255ba","system_id":"levelo_inurba_marseille","lat":43.295748,"lon":5.37522,"is_reserved":false,"is_disabled":false,"rental_uris":{"android":"levelo://app?vid=14d0ef62-1764-41e7-af4c-4664d45255ba","ios":"levelo://app?vid=14d0ef62-1764-41e7-af4c-4664d45255ba"},"vehicle_type_id":"4","last_reported":1706638131,"current_range_meters":24800,"station_id":"ce4bgh92rcd13ifvqb50","pricing_plan_id":"free"},{"bike_id":"31e4b8e0-baed-43fd-977a-c5bdce749edc","system_id":"levelo_inurba_marseille","lat":43.295196,"lon":5.39397,"is_reserved":false,"is_disabled":false,"rental_uris":{"android":"levelo://app?vid=31e4b8e0-baed-43fd-977a-c5bdce749edc","ios":"levelo://app?vid=31e4b8e0-baed-43fd-977a-c5bdce749edc"},"vehicle_type_id":"4","last_reported":1706638131,"current_range_meters":10000,"station_id":"ce4bh292rcd13ifvqdf0","pricing_plan_id":"free"},{"bike_id":"7befc0ce-f87f-40da-b0f1-ba8492cc4d36","system_id":"levelo_inurba_marseille","lat":43.286591,"lon":5.363346,"is_reserved":false,"is_disabled":false,"rental_uris":{"android":"levelo://app?vid=7befc0ce-f87f-40da-b0f1-ba8492cc4d36","ios":"levelo://app?vid=7befc0ce-f87f-40da-b0f1-ba8492cc4d36"},"vehicle_type_id":"4","last_reported":1706638131,"current_range_meters":19600,"station_id":"ce4bhah2rcd13ifvqej0","pricing_plan_id":"free"},{"bike_id":"da4a55dc-8035-4e13-bb4c-37a9a5f9b9d5","system_id":"levelo_inurba_marseille","lat":43.298681,"lon":5.397225,"is_reserved":false,"is_disabled":false,"rental_uris":{"android":"levelo://app?vid=da4a55dc-8035-4e13-bb4c-37a9a5f9b9d5","ios":"levelo://app?vid=da4a55dc-8035-4e13-bb4c-37a9a5f9b9d5"},"vehicle_type_id":"4","last_reported":1706638131,"current_range_meters":8800,"station_id":"ce4bh0h2rcd13ifvqd50","pricing_plan_id":"free"},{"bike_id":"c3b03110-e075-460e-89ca-baec9b79c913","system_id":"levelo_inurba_marseille","lat":43.286593,"lon":5.363346,"is_reserved":false,"is_disabled":false,"rental_uris":{"android":"levelo://app?vid=c3b03110-e075-460e-89ca-baec9b79c913","ios":"levelo://app?vid=c3b03110-e075-460e-89ca-baec9b79c913"},"vehicle_type_id":"4","last_reported":1706638131,"current_range_meters":12800,"station_id":"ce4bhah2rcd13ifvqej0","pricing_plan_id":"free"},{"bike_id":"080b12b7-091d-443f-8335-4bb2ef7c2b9d","system_id":"levelo_inurba_marseille","lat":43.298681,"lon":5.397225,"is_reserved":false,"is_disabled":false,"rental_uris":{"android":"levelo://app?vid=080b12b7-091d-443f-8335-4bb2ef7c2b9d","ios":"levelo://app?vid=080b12b7-091d-443f-8335-4bb2ef7c2b9d"},"vehicle_type_id":"4","last_reported":1706638131,"current_range_meters":25200,"station_id":"ce4bh0h2rcd13ifvqd50","pricing_plan_id":"free"},{"bike_id":"c77d8d17-a753-4337-ac0d-3e5bf8b675e5","system_id":"levelo_inurba_marseille","lat":43.286593,"lon":5.363346,"is_reserved":false,"is_disabled":false,"rental_uris":{"android":"levelo://app?vid=c77d8d17-a753-4337-ac0d-3e5bf8b675e5","ios":"levelo://app?vid=c77d8d17-a753-4337-ac0d-3e5bf8b675e5"},"vehicle_type_id":"4","last_reported":1706638131,"current_range_meters":18000,"station_id":"ce4bhah2rcd13ifvqej0","pricing_plan_id":"free"},{"bike_id":"9a1b8234-627a-4dbb-992a-17644c83fdf7","system_id":"levelo_inurba_marseille","lat":43.286593,"lon":5.363346,"is_reserved":false,"is_disabled":false,"rental_uris":{"android":"levelo://app?vid=9a1b8234-627a-4dbb-992a-17644c83fdf7","ios":"levelo://app?vid=9a1b8234-627a-4dbb-992a-17644c83fdf7"},"vehicle_type_id":"4","last_reported":1706638131,"current_range_meters":12400,"station_id":"ce4bhah2rcd13ifvqej0","pricing_plan_id":"free"},{"bike_id":"b14bf0f9-175f-4bd0-843a-afe614dda8af","system_id":"levelo_inurba_marseille","lat":43.295196,"lon":5.39397,"is_reserved":false,"is_disabled":false,"rental_uris":{"android":"levelo://app?vid=b14bf0f9-175f-4bd0-843a-afe614dda8af","ios":"levelo://app?vid=b14bf0f9-175f-4bd0-843a-afe614dda8af"},"vehicle_type_id":"4","last_reported":1706638131,"current_range_meters":3200,"station_id":"ce4bh292rcd13ifvqdf0","pricing_plan_id":"free"},{"bike_id":"02fa29dc-125d-4268-aaf1-6a080937a7bd","system_id":"levelo_inurba_marseille","lat":43.295196,"lon":5.39397,"is_reserved":false,"is_disabled":false,"rental_uris":{"android":"levelo://app?vid=02fa29dc-125d-4268-aaf1-6a080937a7bd","ios":"levelo://app?vid=02fa29dc-125d-4268-aaf1-6a080937a7bd"},"vehicle_type_id":"4","last_reported":1706638131,"current_range_meters":24000,"station_id":"ce4bh292rcd13ifvqdf0","pricing_plan_id":"free"},{"bike_id":"82d59bfd-3d18-4374-bf64-336f889bb14b","system_id":"levelo_inurba_marseille","lat":43.286961,"lon":5.373785,"is_reserved":false,"is_disabled":false,"rental_uris":{"android":"levelo://app?vid=82d59bfd-3d18-4374-bf64-336f889bb14b","ios":"levelo://app?vid=82d59bfd-3d18-4374-bf64-336f889bb14b"},"vehicle_type_id":"4","last_reported":1706638131,"current_range_meters":1200,"station_id":"ce4bh3p2rcd13ifvqdq0","pricing_plan_id":"free"},{"bike_id":"1aa6b0e1-7b65-4d8d-addc-0656b319eb42","system_id":"levelo_inurba_marseille","lat":43.286583,"lon":5.363537,"is_reserved":false,"is_disabled":false,"rental_uris":{"android":"levelo://app?vid=1aa6b0e1-7b65-4d8d-addc-0656b319eb42","ios":"levelo://app?vid=1aa6b0e1-7b65-4d8d-addc-0656b319eb42"},"vehicle_type_id":"4","last_reported":1706638131,"current_range_meters":13600,"station_id":"ce4bhah2rcd13ifvqej0","pricing_plan_id":"free"},{"bike_id":"8605282d-0d1f-4d50-8a20-056f2cfedcf3","system_id":"levelo_inurba_marseille","lat":43.286961,"lon":5.373785,"is_reserved":false,"is_disabled":false,"rental_uris":{"android":"levelo://app?vid=8605282d-0d1f-4d50-8a20-056f2cfedcf3","ios":"levelo://app?vid=8605282d-0d1f-4d50-8a20-056f2cfedcf3"},"vehicle_type_id":"4","last_reported":1706638131,"current_range_meters":8400,"station_id":"ce4bh3p2rcd13ifvqdq0","pricing_plan_id":"free"},{"bike_id":"48880dd2-3e66-492a-99d8-ded48275c74d","system_id":"levelo_inurba_marseille","lat":43.286961,"lon":5.373785,"is_reserved":false,"is_disabled":false,"rental_uris":{"android":"levelo://app?vid=48880dd2-3e66-492a-99d8-ded48275c74d","ios":"levelo://app?vid=48880dd2-3e66-492a-99d8-ded48275c74d"},"vehicle_type_id":"4","last_reported":1706638131,"current_range_meters":21200,"station_id":"ce4bh3p2rcd13ifvqdq0","pricing_plan_id":"free"},{"bike_id":"151547ed-6d55-4c3a-8a27-a31449bcda6a","system_id":"levelo_inurba_marseille","lat":43.295196,"lon":5.39397,"is_reserved":false,"is_disabled":false,"rental_uris":{"android":"levelo://app?vid=151547ed-6d55-4c3a-8a27-a31449bcda6a","ios":"levelo://app?vid=151547ed-6d55-4c3a-8a27-a31449bcda6a"},"vehicle_type_id":"4","last_reported":1706638131,"current_range_meters":4000,"station_id":"ce4bh292rcd13ifvqdf0","pricing_plan_id":"free"},{"bike_id":"217bf2a4-dd81-44c7-8fa4-6d14a457783a","system_id":"levelo_inurba_marseille","lat":43.295196,"lon":5.39397,"is_reserved":false,"is_disabled":false,"rental_uris":{"android":"levelo://app?vid=217bf2a4-dd81-44c7-8fa4-6d14a457783a","ios":"levelo://app?vid=217bf2a4-dd81-44c7-8fa4-6d14a457783a"},"vehicle_type_id":"4","last_reported":1706638131,"current_range_meters":20800,"station_id":"ce4bh292rcd13ifvqdf0","pricing_plan_id":"free"},{"bike_id":"c48cfb71-85b2-4df5-83f5-73037b0e5dcd","system_id":"levelo_inurba_marseille","lat":43.29517,"lon":5.39399,"is_reserved":false,"is_disabled":false,"rental_uris":{"android":"levelo://app?vid=c48cfb71-85b2-4df5-83f5-73037b0e5dcd","ios":"levelo://app?vid=c48cfb71-85b2-4df5-83f5-73037b0e5dcd"},"vehicle_type_id":"4","last_reported":1706638131,"current_range_meters":800,"station_id":"ce4bh292rcd13ifvqdf0","pricing_plan_id":"free"},{"bike_id":"5ea5efff-aab8-4d9a-9b77-81737209a6f4","system_id":"levelo_inurba_marseille","lat":43.289307,"lon":5.38406,"is_reserved":false,"is_disabled":false,"rental_uris":{"android":"levelo://app?vid=5ea5efff-aab8-4d9a-9b77-81737209a6f4","ios":"levelo://app?vid=5ea5efff-aab8-4d9a-9b77-81737209a6f4"},"vehicle_type_id":"4","last_reported":1706638131,"current_range_meters":14000,"station_id":"ce4bh612rcd13ifvqe6g","pricing_plan_id":"free"},{"bike_id":"2aa99fe3-ab26-4c05-a883-17c267cb2394","system_id":"levelo_inurba_marseille","lat":43.29518,"lon":5.39415,"is_reserved":false,"is_disabled":false,"rental_uris":{"android":"levelo://app?vid=2aa99fe3-ab26-4c05-a883-17c267cb2394","ios":"levelo://app?vid=2aa99fe3-ab26-4c05-a883-17c267cb2394"},"vehicle_type_id":"4","last_reported":1706638131,"current_range_meters":0,"station_id":"ce4bh292rcd13ifvqdf0","pricing_plan_id":"free"},{"bike_id":"43b9e1ce-7920-4b22-a974-e32eda02f634","system_id":"levelo_inurba_marseille","lat":43.28605,"lon":5.37067,"is_reserved":false,"is_disabled":false,"rental_uris":{"android":"levelo://app?vid=43b9e1ce-7920-4b22-a974-e32eda02f634","ios":"levelo://app?vid=43b9e1ce-7920-4b22-a974-e32eda02f634"},"vehicle_type_id":"4","last_reported":1706638131,"current_range_meters":27600,"station_id":"","pricing_plan_id":"free"},{"bike_id":"1ef8da0a-02b3-459a-8ef5-a203515e081d","system_id":"levelo_inurba_marseille","lat":43.287185,"lon":5.379373,"is_reserved":false,"is_disabled":false,"rental_uris":{"android":"levelo://app?vid=1ef8da0a-02b3-459a-8ef5-a203515e081d","ios":"levelo://app?vid=1ef8da0a-02b3-459a-8ef5-a203515e081d"},"vehicle_type_id":"4","last_reported":1706638131,"current_range_meters":6400,"station_id":"ce4bh9p2rcd13ifvqec0","pricing_plan_id":"free"},{"bike_id":"81490955-d0f9-4cf2-b4a6-0b41e3d3fdcd","system_id":"levelo_inurba_marseille","lat":43.287185,"lon":5.379373,"is_reserved":false,"is_disabled":false,"rental_uris":{"android":"levelo://app?vid=81490955-d0f9-4cf2-b4a6-0b41e3d3fdcd","ios":"levelo://app?vid=81490955-d0f9-4cf2-b4a6-0b41e3d3fdcd"},"vehicle_type_id":"4","last_reported":1706638131,"current_range_meters":0,"station_id":"ce4bh9p2rcd13ifvqec0","pricing_plan_id":"free"},{"bike_id":"ca2e5e58-b029-428b-ab25-c6e94f29203f","system_id":"levelo_inurba_marseille","lat":43.302992,"lon":5.392136,"is_reserved":false,"is_disabled":false,"rental_uris":{"android":"levelo://app?vid=ca2e5e58-b029-428b-ab25-c6e94f29203f","ios":"levelo://app?vid=ca2e5e58-b029-428b-ab25-c6e94f29203f"},"vehicle_type_id":"4","last_reported":1706638131,"current_range_meters":18000,"station_id":"ce4bgkh2rcd13ifvqbk0","pricing_plan_id":"free"},{"bike_id":"cda0563a-42fc-473e-b153-5fcb343d6b15","system_id":"levelo_inurba_marseille","lat":43.28523,"lon":5.37382,"is_reserved":false,"is_disabled":false,"rental_uris":{"android":"levelo://app?vid=cda0563a-42fc-473e-b153-5fcb343d6b15","ios":"levelo://app?vid=cda0563a-42fc-473e-b153-5fcb343d6b15"},"vehicle_type_id":"4","last_reported":1706638131,"current_range_meters":14400,"station_id":"","pricing_plan_id":"free"},{"bike_id":"01b842bc-d421-4252-8926-65fb59419df0","system_id":"levelo_inurba_marseille","lat":43.291994,"lon":5.392907,"is_reserved":false,"is_disabled":false,"rental_uris":{"android":"levelo://app?vid=01b842bc-d421-4252-8926-65fb59419df0","ios":"levelo://app?vid=01b842bc-d421-4252-8926-65fb59419df0"},"vehicle_type_id":"4","last_reported":1706638131,"current_range_meters":5600,"station_id":"ce4bh192rcd13ifvqdd0","pricing_plan_id":"free"},{"bike_id":"a2c478e2-5b73-432a-b73a-c5b636daca55","system_id":"levelo_inurba_marseille","lat":43.287184,"lon":5.37937,"is_reserved":false,"is_disabled":false,"rental_uris":{"android":"levelo://app?vid=a2c478e2-5b73-432a-b73a-c5b636daca55","ios":"levelo://app?vid=a2c478e2-5b73-432a-b73a-c5b636daca55"},"vehicle_type_id":"4","last_reported":1706638131,"current_range_meters":4400,"station_id":"ce4bh9p2rcd13ifvqec0","pricing_plan_id":"free"},{"bike_id":"01e6d8e5-4a4b-450d-a606-be54b83c8986","system_id":"levelo_inurba_marseille","lat":43.284696,"lon":5.358895,"is_reserved":false,"is_disabled":false,"rental_uris":{"android":"levelo://app?vid=01e6d8e5-4a4b-450d-a606-be54b83c8986","ios":"levelo://app?vid=01e6d8e5-4a4b-450d-a606-be54b83c8986"},"vehicle_type_id":"4","last_reported":1706638131,"current_range_meters":8000,"station_id":"ce4bhah2rcd13ifvqei0","pricing_plan_id":"free"},{"bike_id":"366819eb-6375-4a2e-b466-ca076395720e","system_id":"levelo_inurba_marseille","lat":43.28468,"lon":5.35888,"is_reserved":false,"is_disabled":false,"rental_uris":{"android":"levelo://app?vid=366819eb-6375-4a2e-b466-ca076395720e","ios":"levelo://app?vid=366819eb-6375-4a2e-b466-ca076395720e"},"vehicle_type_id":"4","last_reported":1706638131,"current_range_meters":0,"station_id":"ce4bhah2rcd13ifvqei0","pricing_plan_id":"free"},{"bike_id":"2a50d6f7-38eb-40a0-9ae6-e8dc4d264fbd","system_id":"levelo_inurba_marseille","lat":43.28466,"lon":5.35889,"is_reserved":false,"is_disabled":false,"rental_uris":{"android":"levelo://app?vid=2a50d6f7-38eb-40a0-9ae6-e8dc4d264fbd","ios":"levelo://app?vid=2a50d6f7-38eb-40a0-9ae6-e8dc4d264fbd"},"vehicle_type_id":"4","last_reported":1706638131,"current_range_meters":4400,"station_id":"ce4bhah2rcd13ifvqei0","pricing_plan_id":"free"},{"bike_id":"f7484cd4-ff49-46dc-92e9-225670c0bbe6","system_id":"levelo_inurba_marseille","lat":43.28462,"lon":5.35895,"is_reserved":false,"is_disabled":false,"rental_uris":{"android":"levelo://app?vid=f7484cd4-ff49-46dc-92e9-225670c0bbe6","ios":"levelo://app?vid=f7484cd4-ff49-46dc-92e9-225670c0bbe6"},"vehicle_type_id":"4","last_reported":1706638131,"current_range_meters":14800,"station_id":"ce4bhah2rcd13ifvqei0","pricing_plan_id":"free"},{"bike_id":"57521985-3093-4889-852f-44b3dbcf58d8","system_id":"levelo_inurba_marseille","lat":43.284534,"lon":5.358662,"is_reserved":false,"is_disabled":false,"rental_uris":{"android":"levelo://app?vid=57521985-3093-4889-852f-44b3dbcf58d8","ios":"levelo://app?vid=57521985-3093-4889-852f-44b3dbcf58d8"},"vehicle_type_id":"4","last_reported":1706638131,"current_range_meters":4400,"station_id":"ce4bhah2rcd13ifvqei0","pricing_plan_id":"free"},