{"last_updated":1783243984,"ttl":60,"version":"2.2","data":{"bikes":[{"bike_id":"ba0c28b1-8732-48e2-8079-f25b2b3fbc3c","system_id":"levelo_inurba_marseille","lat":43.337444,"lon":5.374475,"is_reserved":false,"is_disabled":false,"rental_uris":{"android":"levelo://app?vid=ba0c28b1-8732-48e2-8079-f25b2b3fbc3c","ios":"levelo://app?vid=ba0c28b1-8732-48e2-8079-f25b2b3fbc3c"},"vehicle_type_id":"4","last_reported":1783243985,"current_range_meters":0,"station_id":"","pricing_plan_id":"cebpf4jnsgd1na2vs0mg"},{"bike_id":"77bd7814-3284-4db5-9189-9e576ce0dac2","system_id":"levelo_inurba_marseille","lat":43.28413,"lon":5.3498,"is_reserved":false,"is_disabled":false,"rental_uris":{"android":"levelo://app?vid=77bd7814-3284-4db5-9189-9e576ce0dac2","ios":"levelo://app?vid=77bd7814-3284-4db5-9189-9e576ce0dac2"},"vehicle_type_id":"4","last_reported":1783243985,"current_range_meters":2800,"station_id":"ce4bhbh2rcd13ifvqepg","pricing_plan_id":"cebpf4jnsgd1na2vs0mg"},{"bike_id":"aa50fd8d-af5d-4ede-99be-6e7dcd9cfc20","system_id":"levelo_inurba_marseille","lat":43.31451,"lon":5.37378,"is_reserved":false,"is_disabled":false,"rental_uris":{"android":"levelo://app?vid=aa50fd8d-af5d-4ede-99be-6e7dcd9cfc20","ios":"levelo://app?vid=aa50fd8d-af5d-4ede-99be-6e7dcd9cfc20"},"vehicle_type_id":"4","last_reported":1783243985,"current_range_meters":2800,"station_id":"","pricing_plan_id":"cebpf4jnsgd1na2vs0mg"},{"bike_id":"9a3bfc49-0ee5-49f1-b778-bab88ca7b823","system_id":"levelo_inurba_marseille","lat":43.2698,"lon":5.40261,"is_reserved":false,"is_disabled":true,"rental_uris":{"android":"levelo://app?vid=9a3bfc49-0ee5-49f1-b778-bab88ca7b823","ios":"levelo://app?vid=9a3bfc49-0ee5-49f1-b778-bab88ca7b823"},"vehicle_type_id":"4","last_reported":1783243985,"current_range_meters":2800,"station_id":"cjm6bp8fraef2m0cb0m0","pricing_plan_id":"cebpf4jnsgd1na2vs0mg"},{"bike_id":"8404d3b3-ae8a-4231-b9b0-c87b520fc6fa","system_id":"levelo_inurba_marseille","lat":43.303,"lon":5.39199,"is_reserved":false,"is_disabled":false,"rental_uris":{"android":"levelo://app?vid=8404d3b3-ae8a-4231-b9b0-c87b520fc6fa","ios":"levelo://app?vid=8404d3b3-ae8a-4231-b9b0-c87b520fc6fa"},"vehicle_type_id":"4","last_reported":1783243985,"current_range_meters":2800,"station_id":"ce4bgkh2rcd13ifvqbk0","pricing_plan_id":"cebpf4jnsgd1na2vs0mg"},{"bike_id":"da877165-3a25-4d72-9854-85df2b3fe835","system_id":"levelo_inurba_marseille","lat":43.30776,"lon":5.39356,"is_reserved":false,"is_disabled":false,"rental_uris":{"android":"levelo://app?vid=da877165-3a25-4d72-9854-85df2b3fe835","ios":"levelo://app?vid=da877165-3a25-4d72-9854-85df2b3fe835"},"vehicle_type_id":"4","last_reported":1783243985,"current_range_meters":2800,"station_id":"","pricing_plan_id":"cebpf4jnsgd1na2vs0mg"},{"bike_id":"9fa74e1b-9530-43c8-bfa1-f3494492f86c","system_id":"levelo_inurba_marseille","lat":43.31287,"lon":5.417,"is_reserved":false,"is_disabled":false,"rental_uris":{"android":"levelo://app?vid=9fa74e1b-9530-43c8-bfa1-f3494492f86c","ios":"levelo://app?vid=9fa74e1b-9530-43c8-bfa1-f3494492f86c"},"vehicle_type_id":"4","last_reported":1783243985,"current_range_meters":2800,"station_id":"","pricing_plan_id":"cebpf4jnsgd1na2vs0mg"},{"bike_id":"bb82b558-6057-48ae-8a0d-5d0410926389","system_id":"levelo_inurba_marseille","lat":43.26368,"lon":5.42037,"is_reserved":false,"is_disabled":false,"rental_uris":{"android":"levelo://app?vid=bb82b558-6057-48ae-8a0d-5d0410926389","ios":"levelo://app?vid=bb82b558-6057-48ae-8a0d-5d0410926389"},"vehicle_type_id":"4","last_reported":1783243985,"current_range_meters":2800,"station_id":"","pricing_plan_id":"cebpf4jnsgd1na2vs0mg"},{"bike_id":"e8f6a657-271f-4b5c-8154-326e45ad5126","system_id":"levelo_inurba_marseille","lat":43.32229,"lon":5.40173,"is_reserved":false,"is_disabled":false,"rental_uris":{"android":"levelo://app?vid=e8f6a657-271f-4b5c-8154-326e45ad5126","ios":"levelo://app?vid=e8f6a657-271f-4b5c-8154-326e45ad5126"},"vehicle_type_id":"4","last_reported":1783243985,"current_range_meters":2800,"station_id":"","pricing_plan_id":"cebpf4jnsgd1na2vs0mg"},{"bike_id":"d786907d-707a-4d54-99f6-8c841f75b65b","system_id":"levelo_inurba_marseille","lat":43.28104,"lon":5.3783,"is_reserved":false,"is_disabled":false,"rental_uris":{"android":"levelo://app?vid=d786907d-707a-4d54-99f6-8c841f75b65b","ios":"levelo://app?vid=d786907d-707a-4d54-99f6-8c841f75b65b"},"vehicle_type_id":"4","last_reported":1783243985,"current_range_meters":2800,"station_id":"ce4bha12rcd13ifvqee0","pricing_plan_id":"cebpf4jnsgd1na2vs0mg"},{"bike_id":"6deb9262-0883-4b47-a1f1-3841a75dbf01","system_id":"levelo_inurba_marseille","lat":43.30294,"lon":5.36874,"is_reserved":false,"is_disabled":false,"rental_uris":{"android":"levelo://app?vid=6deb9262-0883-4b47-a1f1-3841a75dbf01","ios":"levelo://app?vid=6deb9262-0883-4b47-a1f1-3841a75dbf01"},"vehicle_type_id":"4","last_reported":1783243985,"current_range_meters":3200,"station_id":"ce4bgqh2rcd13ifvqc5g","pricing_plan_id":"cebpf4jnsgd1na2vs0mg"},{"bike_id":"364e159d-eb0f-40e5-9921-1bf5d818571c","system_id":"levelo_inurba_marseille","lat":43.27876,"lon":5.38002,"is_reserved":false,"is_disabled":false,"rental_uris":{"android":"levelo://app?vid=364e159d-eb0f-40e5-9921-1bf5d818571c","ios":"levelo://app?vid=364e159d-eb0f-40e5-9921-1bf5d818571c"},"vehicle_type_id":"4","last_reported":1783243985,"current_range_meters":3200,"station_id":"ce4bhf92rcd13ifvqf50","pricing_plan_id":"cebpf4jnsgd1na2vs0mg"},{"bike_id":"e6848630-9072-460b-b017-5daf7a537da6","system_id":"levelo_inurba_marseille","lat":43.27897,"lon":5.38009,"is_reserved":false,"is_disabled":false,"rental_uris":{"android":"levelo://app?vid=e6848630-9072-460b-b017-5daf7a537da6","ios":"levelo://app?vid=e6848630-9072-460b-b017-5daf7a537da6"},"vehicle_type_id":"4","last_reported":1783243985,"current_range_meters":3200,"station_id":"ce4bhf92rcd13ifvqf50","pricing_plan_id":"cebpf4jnsgd1na2vs0mg"},{"bike_id":"5c81c856-5fb8-4bea-9872-86004f0d9dfd","system_id":"levelo_inurba_marseille","lat":43.31042,"lon":5.38595,"is_reserved":false,"is_disabled":false,"rental_uris":{"android":"levelo://app?vid=5c81c856-5fb8-4bea-9872-86004f0d9dfd","ios":"levelo://app?vid=5c81c856-5fb8-4bea-9872-86004f0d9dfd"},"vehicle_type_id":"4","last_reported":1783243985,"current_range_meters":3200,"station_id":"","pricing_plan_id":"cebpf4jnsgd1na2vs0mg"},{"bike_id":"0afbfa5b-a988-460e-ab1f-a6790b3b99dc","system_id":"levelo_inurba_marseille","lat":43.29066,"lon":5.4225,"is_reserved":false,"is_disabled":false,"rental_uris":{"android":"levelo://app?vid=0afbfa5b-a988-460e-ab1f-a6790b3b99dc","ios":"levelo://app?vid=0afbfa5b-a988-460e-ab1f-a6790b3b99dc"},"vehicle_type_id":"4","last_reported":1783243985,"current_range_meters":3200,"station_id":"","pricing_plan_id":"cebpf4jnsgd1na2vs0mg"},{"bike_id":"0097db39-22ab-462c-ab27-eaa866ac43b5","system_id":"levelo_inurba_marseille","lat":43.23461,"lon":5.40913,"is_reserved":false,"is_disabled":false,"rental_uris":{"android":"levelo://app?vid=0097db39-22ab-462c-ab27-eaa866ac43b5","ios":"levelo://app?vid=0097db39-22ab-462c-ab27-eaa866ac43b5"},"vehicle_type_id":"4","last_reported":1783243985,"current_range_meters":3200,"station_id":"","pricing_plan_id":"cebpf4jnsgd1na2vs0mg"},{"bike_id":"e911e088-d0dd-4ad9-9e79-f02c77582343","system_id":"levelo_inurba_marseille","lat":43.29174,"lon":5.37149,"is_reserved":false,"is_disabled":false,"rental_uris":{"android":"levelo://app?vid=e911e088-d0dd-4ad9-9e79-f02c77582343","ios":"levelo://app?vid=e911e088-d0dd-4ad9-9e79-f02c77582343"},"vehicle_type_id":"4","last_reported":1783243985,"current_range_meters":3200,"station_id":"ce4bha92rcd13ifvqeh0","pricing_plan_id":"cebpf4jnsgd1na2vs0mg"},{"bike_id":"c00350d5-4dab-4004-927a-3688436cfd2e","system_id":"levelo_inurba_marseille","lat":43.29529,"lon":5.38557,"is_reserved":false,"is_disabled":true,"rental_uris":{"android":"levelo://app?vid=c00350d5-4dab-4004-927a-3688436cfd2e","ios":"levelo://app?vid=c00350d5-4dab-4004-927a-3688436cfd2e"},"vehicle_type_id":"4","last_reported":1783243985,"current_range_meters":3200,"station_id":"ce4bgih2rcd13ifvqba0","pricing_plan_id":"cebpf4jnsgd1na2vs0mg"},{"bike_id":"2259ff17-d88b-4c0b-bd45-29703333fa4e","system_id":"levelo_inurba_marseille","lat":43.2886,"lon":5.36384,"is_reserved":false,"is_disabled":true,"rental_uris":{"android":"levelo://app?vid=2259ff17-d88b-4c0b-bd45-29703333fa4e","ios":"levelo://app?vid=2259ff17-d88b-4c0b-bd45-29703333fa4e"},"vehicle_type_id":"4","last_reported":1783243985,"current_range_meters":3200,"station_id":"","pricing_plan_id":"cebpf4jnsgd1na2vs0mg"},{"bike_id":"f37aa11b-792f-4a06-bdbd-c449f5d0628a","system_id":"levelo_inurba_marseille","lat":43.26199,"lon":5.3794,"is_reserved":false,"is_disabled":false,"rental_uris":{"android":"levelo://app?vid=f37aa11b-792f-4a06-bdbd-c449f5d0628a","ios":"levelo://app?vid=f37aa11b-792f-4a06-bdbd-c449f5d0628a"},"vehicle_type_id":"4","last_reported":1783243985,"current_range_meters":3200,"station_id":"ce4bhjp2rcd13ifvqg90","pricing_plan_id":"cebpf4jnsgd1na2vs0mg"},{"bike_id":"370012cd-d205-46eb-8a80-a3b9f0a7309d","system_id":"levelo_inurba_marseille","lat":43.24801,"lon":5.37446,"is_reserved":false,"is_disabled":true,"rental_uris":{"android":"levelo://app?vid=370012cd-d205-46eb-8a80-a3b9f0a7309d","ios":"levelo://app?vid=370012cd-d205-46eb-8a80-a3b9f0a7309d"},"vehicle_type_id":"4","last_reported":1783243985,"current_range_meters":3200,"station_id":"ce4bhgh2rcd13ifvqfb0","pricing_plan_id":"cebpf4jnsgd1na2vs0mg"},{"bike_id":"0258c125-282f-4adb-84e3-d806703dc533","system_id":"levelo_inurba_marseille","lat":43.31284,"lon":5.39382,"is_reserved":false,"is_disabled":false,"rental_uris":{"android":"levelo://app?vid=0258c125-282f-4adb-84e3-d806703dc533","ios":"levelo://app?vid=0258c125-282f-4adb-84e3-d806703dc533"},"vehicle_type_id":"4","last_reported":1783243985,"current_range_meters":3200,"station_id":"","pricing_plan_id":"cebpf4jnsgd1na2vs0mg"},{"bike_id":"4f239ab5-9e38-41eb-a6bf-b73f41ae97f7","system_id":"levelo_inurba_marseille","lat":43.31135,"lon":5.37283,"is_reserved":false,"is_disabled":false,"rental_uris":{"android":"levelo://app?vid=4f239ab5-9e38-41eb-a6bf-b73f41ae97f7","ios":"levelo://app?vid=4f239ab5-9e38-41eb-a6bf-b73f41ae97f7"},"vehicle_type_id":"4","last_reported":1783243985,"current_range_meters":3200,"station_id":"","pricing_plan_id":"cebpf4jnsgd1na2vs0mg"},{"bike_id":"13dd3260-5d56-4587-b6f9-965fab8f284a","system_id":"levelo_inurba_marseille","lat":43.28213,"lon":5.39066,"is_reserved":false,"is_disabled":false,"rental_uris":{"android":"levelo://app?vid=13dd3260-5d56-4587-b6f9-965fab8f284a","ios":"levelo://app?vid=13dd3260-5d56-4587-b6f9-965fab8f284a"},"vehicle_type_id":"4","last_reported":1783243985,"current_range_meters":3200,"station_id":"ce4bhn92rcd13ifvqgsg","pricing_plan_id":"cebpf4jnsgd1na2vs0mg"},{"bike_id":"1656f878-9756-4f0d-9fa6-a808b299b894","system_id":"levelo_inurba_marseille","lat":43.28845,"lon":5.39332,"is_reserved":false,"is_disabled":false,"rental_uris":{"android":"levelo://app?vid=1656f878-9756-4f0d-9fa6-a808b299b894","ios":"levelo://app?vid=1656f878-9756-4f0d-9fa6-a808b299b894"},"vehicle_type_id":"4","last_reported":1783243985,"current_range_meters":3200,"station_id":"ce4bh2p2rcd13ifvqdi0","pricing_plan_id":"cebpf4jnsgd1na2vs0mg"},{"bike_id":"0f787ef2-c2c0-4177-b354-032bc8ec2dce","system_id":"levelo_inurba_marseille","lat":43.24946,"lon":5.40502,"is_reserved":false,"is_disabled":false,"rental_uris":{"android":"levelo://app?vid=0f787ef2-c2c0-4177-b354-032bc8ec2dce","ios":"levelo://app?vid=0f787ef2-c2c0-4177-b354-032bc8ec2dce"},"vehicle_type_id":"4","last_reported":1783243985,"current_range_meters":3200,"station_id":"st_d2ngiaodas8pm72gd1h0","pricing_plan_id":"cebpf4jnsgd1na2vs0mg"},{"bike_id":"2142e8ea-12ce-40aa-a810-9100b20be27f","system_id":"levelo_inurba_marseille","lat":43.28262,"lon":5.35058,"is_reserved":false,"is_disabled":false,"rental_uris":{"android":"levelo://app?vid=2142e8ea-12ce-40aa-a810-9100b20be27f","ios":"levelo://app?vid=2142e8ea-12ce-40aa-a810-9100b20be27f"},"vehicle_type_id":"4","last_reported":1783243985,"current_range_meters":3200,"station_id":"ce4bhbp2rcd13ifvqerg","pricing_plan_id":"cebpf4jnsgd1na2vs0mg"},{"bike_id":"1ea8bdc2-9ab9-45a5-9a07-418a954aeab7","system_id":"levelo_inurba_marseille","lat":43.2254,"lon":5.34824,"is_reserved":false,"is_disabled":false,"rental_uris":{"android":"levelo://app?vid=1ea8bdc2-9ab9-45a5-9a07-418a954aeab7","ios":"levelo://app?vid=1ea8bdc2-9ab9-45a5-9a07-418a954aeab7"},"vehicle_type_id":"4","last_reported":1783243985,"current_range_meters":3200,"station_id":"st_cvj5dfep6f1abm77gieg","pricing_plan_id":"cebpf4jnsgd1na2vs0mg"},{"bike_id":"bbc4114e-8917-4ae3-9524-c61197d9a885","system_id":"levelo_inurba_marseille","lat":43.29031,"lon":5.43987,"is_reserved":false,"is_disabled":false,"rental_uris":{"android":"levelo://app?vid=bbc4114e-8917-4ae3-9524-c61197d9a885","ios":"levelo://app?vid=bbc4114e-8917-4ae3-9524-c61197d9a885"},"vehicle_type_id":"4","last_reported":1783243985,"current_range_meters":3200,"station_id":"","pricing_plan_id":"cebpf4jnsgd1na2vs0mg"},{"bike_id":"4c986123-5e2d-4e54-a19e-58aafac449d4","system_id":"levelo_inurba_marseille","lat":43.28373,"lon":5.38595,"is_reserved":false,"is_disabled":true,"rental_uris":{"android":"levelo://app?vid=4c986123-5e2d-4e54-a19e-58aafac449d4","ios":"levelo://app?vid=4c986123-5e2d-4e54-a19e-58aafac449d4"},"vehicle_type_id":"4","last_reported":1783243985,"current_range_meters":3200,"station_id":"ce4bh492rcd13ifvqdvg","pricing_plan_id":"cebpf4jnsgd1na2vs0mg"},{"bike_id":"d093438b-5abc-469e-baeb-0e71e88c0762","system_id":"levelo_inurba_marseille","lat":43.28138,"lon":5.36374,"is_reserved":false,"is_disabled":false,"rental_uris":{"android":"levelo://app?vid=d093438b-5abc-469e-baeb-0e71e88c0762","ios":"levelo://app?vid=d093438b-5abc-469e-baeb-0e71e88c0762"},"vehicle_type_id":"4","last_reported":1783243985,"current_range_meters":3200,"station_id":"","pricing_plan_id":"cebpf4jnsgd1na2vs0mg"},{"bike_id":"92e63590-d42c-41ed-9197-022317634a3d","system_id":"levelo_inurba_marseille","lat":43.30548,"lon":5.39921,"is_reserved":false,"is_disabled":false,"rental_uris":{"android":"levelo://app?vid=92e63590-d42c-41ed-9197-022317634a3d","ios":"levelo://app?vid=92e63590-d42c-41ed-9197-022317634a3d"},"vehicle_type_id":"4","last_reported":1783243985,"current_range_meters":3200,"station_id":"","pricing_plan_id":"cebpf4jnsgd1na2vs0mg"},{"bike_id":"a53bde85-5c99-45a9-829e-ba6410d488a7","system_id":"levelo_inurba_marseille","lat":43.24589,"lon":5.39709,"is_reserved":false,"is_disabled":false,"rental_uris":{"android":"levelo://app?vid=a53bde85-5c99-45a9-829e-ba6410d488a7","ios":"levelo://app?vid=a53bde85-5c99-45a9-829e-ba6410d488a7"},"vehicle_type_id":"4","last_reported":1783243985,"current_range_meters":3200,"station_id":"","pricing_plan_id":"cebpf4jnsgd1na2vs0mg"},{"bike_id":"c0a58a83-ad1a-4b47-89af-4c4eb76491e2","system_id":"levelo_inurba_marseille","lat":43.29844,"lon":5.36276,"is_reserved":false,"is_disabled":false,"rental_uris":{"android":"levelo://app?vid=c0a58a83-ad1a-4b47-89af-4c4eb76491e2","ios":"levelo://app?vid=c0a58a83-ad1a-4b47-89af-4c4eb76491e2"},"vehicle_type_id":"4","last_reported":1783243985,"current_range_meters":3200,"station_id":"ce4bgpp2rcd13ifvqc3g","pricing_plan_id":"cebpf4jnsgd1na2vs0mg"},{"bike_id":"06a8253e-2715-46f0-b3a7-68e363678aa0","system_id":"levelo_inurba_marseille","lat":43.26223,"lon":5.40407,"is_reserved":false,"is_disabled":false,"rental_uris":{"android":"levelo://app?vid=06a8253e-2715-46f0-b3a7-68e363678aa0","ios":"levelo://app?vid=06a8253e-2715-46f0-b3a7-68e363678aa0"},"vehicle_type_id":"4","last_reported":1783243985,"current_range_meters":3600,"station_id":"ce4bhmh2rcd13ifvqgmg","pricing_plan_id":"cebpf4jnsgd1na2vs0mg"},{"bike_id":"f6a588f6-73ad-4dc2-9dac-0fa0dfa77cde","system_id":"levelo_inurba_marseille","lat":43.30949,"lon":5.39054,"is_reserved":false,"is_disabled":true,"rental_uris":{"android":"levelo://app?vid=f6a588f6-73ad-4dc2-9dac-0fa0dfa77cde","ios":"levelo://app?vid=f6a588f6-73ad-4dc2-9dac-0fa0dfa77cde"},"vehicle_type_id":"4","last_reported":1783243985,"current_range_meters":3600,"station_id":"ce4bgup2rcd13ifvqco0","pricing_plan_id":"cebpf4jnsgd1na2vs0mg"},{"bike_id":"a6e047d4-9829-4b23-b5e1-20c5a9277b5d","system_id":"levelo_inurba_marseille","lat":43.29239,"lon":5.38403,"is_reserved":false,"is_disabled":true,"rental_uris":{"android":"levelo://app?vid=a6e047d4-9829-4b23-b5e1-20c5a9277b5d","ios":"levelo://app?vid=a6e047d4-9829-4b23-b5e1-20c5a9277b5d"},"vehicle_type_id":"4","last_reported":1783243985,"current_range_meters":3600,"station_id":"ce4bh692rcd13ifvqea0","pricing_plan_id":"cebpf4jnsgd1na2vs0mg"},{"bike_id":"7dcdb77e-5520-404c-a8e4-5410b21ff636","system_id":"levelo_inurba_marseille","lat":43.2961,"lon":5.4238,"is_reserved":false,"is_disabled":false,"rental_uris":{"android":"levelo://app?vid=7dcdb77e-5520-404c-a8e4-5410b21ff636","ios":"levelo://app?vid=7dcdb77e-5520-404c-a8e4-5410b21ff636"},"vehicle_type_id":"4","last_reported":1783243985,"current_range_meters":3600,"station_id":"","pricing_plan_id":"cebpf4jnsgd1na2vs0mg"},{"bike_id":"65396844-0447-48b9-aa45-af445ded3e70","system_id":"levelo_inurba_marseille","lat":43.29375,"lon":5.37852,"is_reserved":false,"is_disabled":false,"rental_uris":{"android":"levelo://app?vid=65396844-0447-48b9-aa45-af445ded3e70","ios":"levelo://app?vid=65396844-0447-48b9-aa45-af445ded3e70"},"vehicle_type_id":"4","last_reported":1783243985,"current_range_meters":3600,"station_id":"ce4bgjh2rcd13ifvqbf0","pricing_plan_id":"cebpf4jnsgd1na2vs0mg"},{"bike_id":"3c354882-7037-41be-b4ea-ca21d0d21b67","system_id":"levelo_inurba_marseille","lat":43.28409,"lon":5.34972,"is_reserved":false,"is_disabled":false,"rental_uris":{"android":"levelo://app?vid=3c354882-7037-41be-b4ea-ca21d0d21b67","ios":"levelo://app?vid=3c354882-7037-41be-b4ea-ca21d0d21b67"},"vehicle_type_id":"4","last_reported":1783243985,"current_range_meters":3600,"station_id":"ce4bhbh2rcd13ifvqepg","pricing_plan_id":"cebpf4jnsgd1na2vs0mg"},{"bike_id":"e34d317c-42f4-445f-af6f-bd978b03e594","system_id":"levelo_inurba_marseille","lat":43.30536,"lon":5.36686,"is_reserved":false,"is_disabled":true,"rental_uris":{"android":"levelo://app?vid=e34d317c-42f4-445f-af6f-bd978b03e594","ios":"levelo://app?vid=e34d317c-42f4-445f-af6f-bd978b03e594"},"vehicle_type_id":"4","last_reported":1783243985,"current_range_meters":3600,"station_id":"ce4bgrp2rcd13ifvqc9g","pricing_plan_id":"cebpf4jnsgd1na2vs0mg"},{"bike_id":"6f37e172-e521-4e45-91cc-413b9ad92298","system_id":"levelo_inurba_marseille","lat":43.29337,"lon":5.37613,"is_reserved":false,"is_disabled":true,"rental_uris":{"android":"levelo://app?vid=6f37e172-e521-4e45-91cc-413b9ad92298","ios":"levelo://app?vid=6f37e172-e521-4e45-91cc-413b9ad92298"},"vehicle_type_id":"4","last_reported":1783243985,"current_range_meters":3600,"station_id":"","pricing_plan_id":"cebpf4jnsgd1na2vs0mg"},{"bike_id":"3ebffa1d-c0f9-4ffa-970e-aa829931fe90","system_id":"levelo_inurba_marseille","lat":43.28414,"lon":5.34977,"is_reserved":false,"is_disabled":false,"rental_uris":{"android":"levelo://app?vid=3ebffa1d-c0f9-4ffa-970e-aa829931fe90","ios":"levelo://app?vid=3ebffa1d-c0f9-4ffa-970e-aa829931fe90"},"vehicle_type_id":"4","last_reported":1783243985,"current_range_meters":3600,"station_id":"ce4bhbh2rcd13ifvqepg","pricing_plan_id":"cebpf4jnsgd1na2vs0mg"},{"bike_id":"abf1c1fa-1405-476f-bd73-54723798211b","system_id":"levelo_inurba_marseille","lat":43.23718,"lon":5.40197,"is_reserved":false,"is_disabled":false,"rental_uris":{"android":"levelo://app?vid=abf1c1fa-1405-476f-bd73-54723798211b","ios":"levelo://app?vid=abf1c1fa-1405-476f-bd73-54723798211b"},"vehicle_type_id":"4","last_reported":1783243985,"current_range_meters":3600,"station_id":"","pricing_plan_id":"cebpf4jnsgd1na2vs0mg"},{"bike_id":"267dcfcf-4c0c-4e52-a89b-30943bf74d94","system_id":"levelo_inurba_marseille","lat":43.26882,"lon":5.38574,"is_reserved":false,"is_disabled":false,"rental_uris":{"android":"levelo://app?vid=267dcfcf-4c0c-4e52-a89b-30943bf74d94","ios":"levelo://app?vid=267dcfcf-4c0c-4e52-a89b-30943bf74d94"},"vehicle_type_id":"4","last_reported":1783243985,"current_range_meters":3600,"station_id":"","pricing_plan_id":"cebpf4jnsgd1na2vs0mg"},{"bike_id":"21c46627-93c0-4ab5-b259-0186a02d6cac","system_id":"levelo_inurba_marseille","lat":43.247994,"lon":5.3746,"is_reserved":false,"is_disabled":false,"rental_uris":{"android":"levelo://app?vid=21c46627-93c0-4ab5-b259-0186a02d6cac","ios":"levelo://app?vid=21c46627-93c0-4ab5-b259-0186a02d6cac"},"vehicle_type_id":"4","last_reported":1783243985,"current_range_meters":3600,"station_id":"ce4bhgh2rcd13ifvqfb0","pricing_plan_id":"cebpf4jnsgd1na2vs0mg"},{"bike_id":"1458833f-5014-412b-8af9-0d2d5024b835","system_id":"levelo_inurba_marseille","lat":43.27486,"lon":5.42555,"is_reserved":false,"is_disabled":false,"rental_uris":{"android":"levelo://app?vid=1458833f-5014-412b-8af9-0d2d5024b835","ios":"levelo://app?vid=1458833f-5014-412b-8af9-0d2d5024b835"},"vehicle_type_id":"4","last_reported":1783243985,"current_range_meters":3600,"station_id":"st_d8t4bh7nbrqs73arha60","pricing_plan_id":"cebpf4jnsgd1na2vs0mg"},{"bike_id":"61cd84df-f76f-41ad-9da2-1b4df883e51c","system_id":"levelo_inurba_marseille","lat":43.26236,"lon":5.38993,"is_reserved":false,"is_disabled":false,"rental_uris":{"android":"levelo://app?vid=61cd84df-f76f-41ad-9da2-1b4df883e51c","ios":"levelo://app?vid=61cd84df-f76f-41ad-9da2-1b4df883e51c"},"vehicle_type_id":"4","last_reported":1783243985,"current_range_meters":3600,"station_id":"","pricing_plan_id":"cebpf4jnsgd1na2vs0mg"},{"bike_id":"50aa6815-cb65-48bd-999a-1d2dfbbe24c7","system_id":"levelo_inurba_marseille","lat":43.28468,"lon":5.48404,"is_reserved":false,"is_disabled":false,"rental_uris":{"android":"levelo://app?vid=50aa6815-cb65-48bd-999a-1d2dfbbe24c7","ios":"levelo://app?vid=50aa6815-cb65-48bd-999a-1d2dfbbe24c7"},"vehicle_type_id":"4","last_reported":1783243985,"current_range_meters":4000,"station_id":"st_d3svhcjqgbts73a3dn0g","pricing_plan_id":"cebpf4jnsgd1na2vs0mg"},{"bike_id":"4c4f87e3-f39e-4907-a603-871d43ed3075","system_id":"levelo_inurba_marseille","lat":43.29849,"lon":5.36283,"is_reserved":false,"is_disabled":false,"rental_uris":{"android":"levelo://app?vid=4c4f87e3-f39e-4907-a603-871d43ed3075","ios":"levelo://app?vid=4c4f87e3-f39e-4907-a603-871d43ed3075"},"vehicle_type_id":"4","last_reported":1783243985,"current_range_meters":4000,"station_id":"ce4bgpp2rcd13ifvqc3g","pricing_plan_id":"cebpf4jnsgd1na2vs0mg"},{"bike_id":"aac6d6f5-5414-4268-950d-e95baa8a24a9","system_id":"levelo_inurba_marseille","lat":43.32479,"lon":5.36577,"is_reserved":false,"is_disabled":false,"rental_uris":{"android":"levelo://app?vid=aac6d6f5-5414-4268-950d-e95baa8a24a9","ios":"levelo://app?vid=aac6d6f5-5414-4268-950d-e95baa8a24a9"},"vehicle_type_id":"4","last_reported":1783243985,"current_range_meters":4000,"station_id":"ce4bhs12rcd13ifvqhvg","pricing_plan_id":"cebpf4jnsgd1na2vs0mg"},{"bike_id":"3edad406-7310-4441-b103-43aa843ff572","system_id":"levelo_inurba_marseille","lat":43.27934,"lon":5.37222,"is_reserved":false,"is_disabled":false,"rental_uris":{"android":"levelo://app?vid=3edad406-7310-4441-b103-43aa843ff572","ios":"levelo://app?vid=3edad406-7310-4441-b103-43aa843ff572"},"vehicle_type_id":"4","last_reported":1783243985,"current_range_meters":4000,"station_id":"","pricing_plan_id":"cebpf4jnsgd1na2vs0mg"},{"bike_id":"c1990069-8df2-4f11-a197-6ba738eab2ba","system_id":"levelo_inurba_marseille","lat":43.30494,"lon":5.37896,"is_reserved":false,"is_disabled":false,"rental_uris":{"android":"levelo://app?vid=c1990069-8df2-4f11-a197-6ba738eab2ba","ios":"levelo://app?vid=c1990069-8df2-4f11-a197-6ba738eab2ba"},"vehicle_type_id":"4","last_reported":1783243985,"current_range_meters":4000,"station_id":"ce4bgup2rcd13ifvqcn0","pricing_plan_id":"cebpf4jnsgd1na2vs0mg"},{"bike_id":"09d85256-ccbd-4a18-9651-0de221aa81cc","system_id":"levelo_inurba_marseille","lat":43.28521,"lon":5.44096,"is_reserved":false,"is_disabled":false,"rental_uris":{"android":"levelo://app?vid=09d85256-ccbd-4a18-9651-0de221aa81cc","ios":"levelo://app?vid=09d85256-ccbd-4a18-9651-0de221aa81cc"},"vehicle_type_id":"4","last_reported":1783243985,"current_range_meters":4000,"station_id":"st_d3j3df2ikq2c7380ej80","pricing_plan_id":"cebpf4jnsgd1na2vs0mg"},{"bike_id":"d5e51f24-3dde-4b7b-9831-f9e147114644","system_id":"levelo_inurba_marseille","lat":43.30934,"lon":5.40138,"is_reserved":false,"is_disabled":false,"rental_uris":{"android":"levelo://app?vid=d5e51f24-3dde-4b7b-9831-f9e147114644","ios":"levelo://app?vid=d5e51f24-3dde-4b7b-9831-f9e147114644"},"vehicle_type_id":"4","last_reported":1783243985,"current_range_meters":4000,"station_id":"ce4bgvp2rcd13ifvqct0","pricing_plan_id":"cebpf4jnsgd1na2vs0mg"},{"bike_id":"c03616ae-9d00-47f7-a0ee-97717b9f27f4","system_id":"levelo_inurba_marseille","lat":43.2964,"lon":5.40544,"is_reserved":false,"is_disabled":false,"rental_uris":{"android":"levelo://app?vid=c03616ae-9d00-47f7-a0ee-97717b9f27f4","ios":"levelo://app?vid=c03616ae-9d00-47f7-a0ee-97717b9f27f4"},"vehicle_type_id":"4","last_reported":1783243985,"current_range_meters":4000,"station_id":"ce4bh0h2rcd13ifvqd60","pricing_plan_id":"cebpf4jnsgd1na2vs0mg"},{"bike_id":"fa60f93d-ad38-4af6-be84-609fd8fcf28e","system_id":"levelo_inurba_marseille","lat":43.27492,"lon":5.42557,"is_reserved":false,"is_disabled":false,"rental_uris":{"android":"levelo://app?vid=fa60f93d-ad38-4af6-be84-609fd8fcf28e","ios":"levelo://app?vid=fa60f93d-ad38-4af6-be84-609fd8fcf28e"},"vehicle_type_id":"4","last_reported":1783243985,"current_range_meters":4000,"station_id":"st_d8t4bh7nbrqs73arha60","pricing_plan_id":"cebpf4jnsgd1na2vs0mg"},{"bike_id":"c4e8210f-6b7a-4305-9e0f-987d46077c47","system_id":"levelo_inurba_marseille","lat":43.26212,"lon":5.37431,"is_reserved":false,"is_disabled":false,"rental_uris":{"android":"levelo://app?vid=c4e8210f-6b7a-4305-9e0f-987d46077c47","ios":"levelo://app?vid=c4e8210f-6b7a-4305-9e0f-987d46077c47"},"vehicle_type_id":"4","last_reported":1783243985,"current_range_meters":4000,"station_id":"ce4bhgp2rcd13ifvqfc0","pricing_plan_id":"cebpf4jnsgd1na2vs0mg"},{"bike_id":"40fdd1cf-c3bf-484e-8ffd-9f5f22190a77","system_id":"levelo_inurba_marseille","lat":43.32112,"lon":5.36766,"is_reserved":false,"is_disabled":false,"rental_uris":{"android":"levelo://app?vid=40fdd1cf-c3bf-484e-8ffd-9f5f22190a77","ios":"levelo://app?vid=40fdd1cf-c3bf-484e-8ffd-9f5f22190a77"},"vehicle_type_id":"4","last_reported":1783243985,"current_range_meters":4000,"station_id":"ce4bhrh2rcd13ifvqhug","pricing_plan_id":"cebpf4jnsgd1na2vs0mg"},{"bike_id":"d728b632-da17-49b6-bee6-586bce6b51e3","system_id":"levelo_inurba_marseille","lat":43.25232,"lon":5.4102,"is_reserved":false,"is_disabled":false,"rental_uris":{"android":"levelo://app?vid=d728b632-da17-49b6-bee6-586bce6b51e3","ios":"levelo://app?vid=d728b632-da17-49b6-bee6-586bce6b51e3"},"vehicle_type_id":"4","last_reported":1783243985,"current_range_meters":4000,"station_id":"","pricing_plan_id":"cebpf4jnsgd1na2vs0mg"},{"bike_id":"6ef850e0-0b9e-4ba3-8fc1-079933a8baa1","system_id":"levelo_inurba_marseille","lat":43.26942,"lon":5.38658,"is_reserved":false,"is_disabled":false,"rental_uris":{"android":"levelo://app?vid=6ef850e0-0b9e-4ba3-8fc1-079933a8baa1","ios":"levelo://app?vid=6ef850e0-0b9e-4ba3-8fc1-079933a8baa1"},"vehicle_type_id":"4","last_reported":1783243985,"current_range_meters":4000,"station_id":"ce4bhh92rcd13ifvqfh0","pricing_plan_id":"cebpf4jnsgd1na2vs0mg"},{"bike_id":"91536602-64c3-4f05-937f-5ff1f849ba25","system_id":"levelo_inurba_marseille","lat":43.30003,"lon":5.3638,"is_reserved":false,"is_disabled":false,"rental_uris":{"android":"levelo://app?vid=91536602-64c3-4f05-937f-5ff1f849ba25","ios":"levelo://app?vid=91536602-64c3-4f05-937f-5ff1f849ba25"},"vehicle_type_id":"4","last_reported":1783243985,"current_range_meters":4000,"station_id":"","pricing_plan_id":"cebpf4jnsgd1na2vs0mg"},{"bike_id":"51e7e5db-21d7-4eef-9556-8d53c85c4ede","system_id":"levelo_inurba_marseille","lat":43.25131,"lon":5.40352,"is_reserved":false,"is_disabled":false,"rental_uris":{"android":"levelo://app?vid=51e7e5db-21d7-4eef-9556-8d53c85c4ede","ios":"levelo://app?vid=51e7e5db-21d7-4eef-9556-8d53c85c4ede"},"vehicle_type_id":"4","last_reported":1783243985,"current_range_meters":4000,"station_id":"ce4bhlh2rcd13ifvqgig","pricing_plan_id":"cebpf4jnsgd1na2vs0mg"},{"bike_id":"e7650e98-2e77-4971-9381-e6d4c3861e9c","system_id":"levelo_inurba_marseille","lat":43.31212,"lon":5.36832,"is_reserved":false,"is_disabled":false,"rental_uris":{"android":"levelo://app?vid=e7650e98-2e77-4971-9381-e6d4c3861e9c","ios":"levelo://app?vid=e7650e98-2e77-4971-9381-e6d4c3861e9c"},"vehicle_type_id":"4","last_reported":1783243985,"current_range_meters":4000,"station_id":"ce4bgl92rcd13ifvqbq0","pricing_plan_id":"cebpf4jnsgd1na2vs0mg"},{"bike_id":"ea74b46d-ac18-48b3-a910-39d5524d6dd3","system_id":"levelo_inurba_marseille","lat":43.31136,"lon":5.37751,"is_reserved":false,"is_disabled":false,"rental_uris":{"android":"levelo://app?vid=ea74b46d-ac18-48b3-a910-39d5524d6dd3","ios":"levelo://app?vid=ea74b46d-ac18-48b3-a910-39d5524d6dd3"},"vehicle_type_id":"4","last_reported":1783243985,"current_range_meters":4000,"station_id":"ce4bgt92rcd13ifvqcg0","pricing_plan_id":"cebpf4jnsgd1na2vs0mg"},{"bike_id":"2c52e4bc-365b-40fb-ace9-a63bc2aa685a","system_id":"levelo_inurba_marseille","lat":43.33079,"lon":5.38568,"is_reserved":false,"is_disabled":false,"rental_uris":{"android":"levelo://app?vid=2c52e4bc-365b-40fb-ace9-a63bc2aa685a","ios":"levelo://app?vid=2c52e4bc-365b-40fb-ace9-a63bc2aa685a"},"vehicle_type_id":"4","last_reported":1783243985,"current_range_meters":4000,"station_id":"","pricing_plan_id":"cebpf4jnsgd1na2vs0mg"},{"bike_id":"be14d72b-ec18-44f3-b0c0-3b262635bc8f","system_id":"levelo_inurba_marseille","lat":43.29727,"lon":5.36606,"is_reserved":false,"is_disabled":true,"rental_uris":{"android":"levelo://app?vid=be14d72b-ec18-44f3-b0c0-3b262635bc8f","ios":"levelo://app?vid=be14d72b-ec18-44f3-b0c0-3b262635bc8f"},"vehicle_type_id":"4","last_reported":1783243985,"current_range_meters":4000,"station_id":"ce4bgn12rcd13ifvqbt0","pricing_plan_id":"cebpf4jnsgd1na2vs0mg"},{"bike_id":"45bc7e62-8a80-484e-a905-77cfb767fdbc","system_id":"levelo_inurba_marseille","lat":43.305423,"lon":5.367349,"is_reserved":false,"is_disabled":false,"rental_uris":{"android":"levelo://app?vid=45bc7e62-8a80-484e-a905-77cfb767fdbc","ios":"levelo://app?vid=45bc7e62-8a80-484e-a905-77cfb767fdbc"},"vehicle_type_id":"4","last_reported":1783243985,"current_range_meters":4000,"station_id":"ce4bgrp2rcd13ifvqc9g","pricing_plan_id":"cebpf4jnsgd1na2vs0mg"},{"bike_id":"1959d89c-958b-41ef-bd52-1c96fb77483f","system_id":"levelo_inurba_marseille","lat":43.25124,"lon":5.40317,"is_reserved":false,"is_disabled":false,"rental_uris":{"android":"levelo://app?vid=1959d89c-958b-41ef-bd52-1c96fb77483f","ios":"levelo://app?vid=1959d89c-958b-41ef-bd52-1c96fb77483f"},"vehicle_type_id":"4","last_reported":1783243985,"current_range_meters":4400,"station_id":"ce4bhlh2rcd13ifvqgig","pricing_plan_id":"cebpf4jnsgd1na2vs0mg"},{"bike_id":"b7c7c1e8-84e9-49fb-a54d-fbe5086cd61a","system_id":"levelo_inurba_marseille","lat":43.27812,"lon":5.40731,"is_reserved":false,"is_disabled":true,"rental_uris":{"android":"levelo://app?vid=b7c7c1e8-84e9-49fb-a54d-fbe5086cd61a","ios":"levelo://app?vid=b7c7c1e8-84e9-49fb-a54d-fbe5086cd61a"},"vehicle_type_id":"4","last_reported":1783243985,"current_range_meters":4400,"station_id":"ce4bhnh2rcd13ifvqgtg","pricing_plan_id":"cebpf4jnsgd1na2vs0mg"},{"bike_id":"693afbfa-e70f-40d9-9271-5aba390db9b6","system_id":"levelo_inurba_marseille","lat":43.2409,"lon":5.36289,"is_reserved":false,"is_disabled":false,"rental_uris":{"android":"levelo://app?vid=693afbfa-e70f-40d9-9271-5aba390db9b6","ios":"levelo://app?vid=693afbfa-e70f-40d9-9271-5aba390db9b6"},"vehicle_type_id":"4","last_reported":1783243985,"current_range_meters":4400,"station_id":"","pricing_plan_id":"cebpf4jnsgd1na2vs0mg"},{"bike_id":"5fcf023b-277c-4f44-8079-d2eab60d05a0","system_id":"levelo_inurba_marseille","lat":43.313276,"lon":5.396867,"is_reserved":false,"is_disabled":false,"rental_uris":{"android":"levelo://app?vid=5fcf023b-277c-4f44-8079-d2eab60d05a0","ios":"levelo://app?vid=5fcf023b-277c-4f44-8079-d2eab60d05a0"},"vehicle_type_id":"4","last_reported":1783243985,"current_range_meters":4400,"station_id":"ce4bgvp2rcd13ifvqcu0","pricing_plan_id":"cebpf4jnsgd1na2vs0mg"},{"bike_id":"4ef9d4cb-cbb4-473d-9b95-4aa874734694","system_id":"levelo_inurba_marseille","lat":43.24789,"lon":5.37512,"is_reserved":false,"is_disabled":false,"rental_uris":{"android":"levelo://app?vid=4ef9d4cb-cbb4-473d-9b95-4aa874734694","ios":"levelo://app?vid=4ef9d4cb-cbb4-473d-9b95-4aa874734694"},"vehicle_type_id":"4","last_reported":1783243985,"current_range_meters":4400,"station_id":"","pricing_plan_id":"cebpf4jnsgd1na2vs0mg"},{"bike_id":"0a9ebcff-1b56-45db-9b33-1cda38943cf9","system_id":"levelo_inurba_marseille","lat":43.24464,"lon":5.4074,"is_reserved":false,"is_disabled":false,"rental_uris":{"android":"levelo://app?vid=0a9ebcff-1b56-45db-9b33-1cda38943cf9","ios":"levelo://app?vid=0a9ebcff-1b56-45db-9b33-1cda38943cf9"},"vehicle_type_id":"4","last_reported":1783243985,"current_range_meters":4400,"station_id":"","pricing_plan_id":"cebpf4jnsgd1na2vs0mg"},{"bike_id":"190f53f5-1748-48a1-9fe2-500cc8cefa8e","system_id":"levelo_inurba_marseille","lat":43.32564,"lon":5.36546,"is_reserved":false,"is_disabled":false,"rental_uris":{"android":"levelo://app?vid=190f53f5-1748-48a1-9fe2-500cc8cefa8e","ios":"levelo://app?vid=190f53f5-1748-48a1-9fe2-500cc8cefa8e"},"vehicle_type_id":"4","last_reported":1783243985,"current_range_meters":4400,"station_id":"","pricing_plan_id":"cebpf4jnsgd1na2vs0mg"},{"bike_id":"5658cfe3-ed59-45e9-8a44-0561163fcd3f","system_id":"levelo_inurba_marseille","lat":43.30836,"lon":5.405,"is_reserved":false,"is_disabled":false,"rental_uris":{"android":"levelo://app?vid=5658cfe3-ed59-45e9-8a44-0561163fcd3f","ios":"levelo://app?vid=5658cfe3-ed59-45e9-8a44-0561163fcd3f"},"vehicle_type_id":"4","last_reported":1783243985,"current_range_meters":4400,"station_id":"","pricing_plan_id":"cebpf4jnsgd1na2vs0mg"},{"bike_id":"521080ad-0053-41e3-bcb5-1056f3ff73f5","system_id":"levelo_inurba_marseille","lat":43.28607,"lon":5.37066,"is_reserved":false,"is_disabled":false,"rental_uris":{"android":"levelo://app?vid=521080ad-0053-41e3-bcb5-1056f3ff73f5","ios":"levelo://app?vid=521080ad-0053-41e3-bcb5-1056f3ff73f5"},"vehicle_type_id":"4","last_reported":1783243985,"current_range_meters":4400,"station_id":"ce4bht12rcd13ifvqi60","pricing_plan_id":"cebpf4jnsgd1na2vs0mg"},{"bike_id":"3bc6d12d-59c0-4162-9cda-07f3d37dc2e0","system_id":"levelo_inurba_marseille","lat":43.24434,"lon":5.40294,"is_reserved":false,"is_disabled":false,"rental_uris":{"android":"levelo://app?vid=3bc6d12d-59c0-4162-9cda-07f3d37dc2e0","ios":"levelo://app?vid=3bc6d12d-59c0-4162-9cda-07f3d37dc2e0"},"vehicle_type_id":"4","last_reported":1783243985,"current_range_meters":4800,"station_id":"","pricing_plan_id":"cebpf4jnsgd1na2vs0mg"},{"bike_id":"367e2c77-1840-403a-b532-0336e7732bd2","system_id":"levelo_inurba_marseille","lat":43.25572,"lon":5.3824,"is_reserved":false,"is_disabled":true,"rental_uris":{"android":"levelo://app?vid=367e2c77-1840-403a-b532-0336e7732bd2","ios":"levelo://app?vid=367e2c77-1840-403a-b532-0336e7732bd2"},"vehicle_type_id":"4","last_reported":1783243985,"current_range_meters":4800,"station_id":"ce4bhih2rcd13ifvqfs0","pricing_plan_id":"cebpf4jnsgd1na2vs0mg"},{"bike_id":"5430afe5-06a5-4787-ba5b-5e9ab28e8196","system_id":"levelo_inurba_marseille","lat":43.30889,"lon":5.36846,"is_reserved":false,"is_disabled":false,"rental_uris":{"android":"levelo://app?vid=5430afe5-06a5-4787-ba5b-5e9ab28e8196","ios":"levelo://app?vid=5430afe5-06a5-4787-ba5b-5e9ab28e8196"},"vehicle_type_id":"4","last_reported":1783243985,"current_range_meters":4800,"station_id":"ce4bgn92rcd13ifvqbvg","pricing_plan_id":"cebpf4jnsgd1na2vs0mg"},{"bike_id":"100ad6d7-a57d-4dc6-8669-de9175e60dfe","system_id":"levelo_inurba_marseille","lat":43.26963,"lon":5.38615,"is_reserved":false,"is_disabled":false,"rental_uris":{"android":"levelo://app?vid=100ad6d7-a57d-4dc6-8669-de9175e60dfe","ios":"levelo://app?vid=100ad6d7-a57d-4dc6-8669-de9175e60dfe"},"vehicle_type_id":"4","last_reported":1783243985,"current_range_meters":4800,"station_id":"ce4bhh92rcd13ifvqfh0","pricing_plan_id":"cebpf4jnsgd1na2vs0mg"},{"bike_id":"0df3073c-4d91-4aad-99ca-3266164a2dbe","system_id":"levelo_inurba_marseille","lat":43.28406,"lon":5.37521,"is_reserved":false,"is_disabled":true,"rental_uris":{"android":"levelo://app?vid=0df3073c-4d91-4aad-99ca-3266164a2dbe","ios":"levelo://app?vid=0df3073c-4d91-4aad-99ca-3266164a2dbe"},"vehicle_type_id":"4","last_reported":1783243985,"current_range_meters":4800,"station_id":"ce4bh412rcd13ifvqds0","pricing_plan_id":"cebpf4jnsgd1na2vs0mg"},{"bike_id":"d0f28ab1-3c46-46de-ad46-1a7ea455b32f","system_id":"levelo_inurba_marseille","lat":43.29612,"lon":5.37717,"is_reserved":false,"is_disabled":false,"rental_uris":{"android":"levelo://app?vid=d0f28ab1-3c46-46de-ad46-1a7ea455b32f","ios":"levelo://app?vid=d0f28ab1-3c46-46de-ad46-1a7ea455b32f"},"vehicle_type_id":"4","last_reported":1783243985,"current_range_meters":4800,"station_id":"ce4bgi92rcd13ifvqb90","pricing_plan_id":"cebpf4jnsgd1na2vs0mg"},{"bike_id":"af26679a-e8ca-431b-8d22-f0bcd570a8fb","system_id":"levelo_inurba_marseille","lat":43.2742,"lon":5.39424,"is_reserved":false,"is_disabled":false,"rental_uris":{"android":"levelo://app?vid=af26679a-e8ca-431b-8d22-f0bcd570a8fb","ios":"levelo://app?vid=af26679a-e8ca-431b-8d22-f0bcd570a8fb"},"vehicle_type_id":"4","last_reported":1783243985,"current_range_meters":4800,"station_id":"ce4bhdp2rcd13ifvqf20","pricing_plan_id":"cebpf4jnsgd1na2vs0mg"},{"bike_id":"ad7df966-8773-4e44-b118-1dbc68af219b","system_id":"levelo_inurba_marseille","lat":43.23961,"lon":5.36637,"is_reserved":false,"is_disabled":false,"rental_uris":{"android":"levelo://app?vid=ad7df966-8773-4e44-b118-1dbc68af219b","ios":"levelo://app?vid=ad7df966-8773-4e44-b118-1dbc68af219b"},"vehicle_type_id":"4","last_reported":1783243985,"current_range_meters":4800,"station_id":"ce4bhi12rcd13ifvqfp0","pricing_plan_id":"cebpf4jnsgd1na2vs0mg"},{"bike_id":"a77df645-5a3d-4473-87f8-fcae29a5431e","system_id":"levelo_inurba_marseille","lat":43.28437,"lon":5.39174,"is_reserved":false,"is_disabled":false,"rental_uris":{"android":"levelo://app?vid=a77df645-5a3d-4473-87f8-fcae29a5431e","ios":"levelo://app?vid=a77df645-5a3d-4473-87f8-fcae29a5431e"},"vehicle_type_id":"4","last_reported":1783243985,"current_range_meters":4800,"station_id":"ce4bhoh2rcd13ifvqh5g","pricing_plan_id":"cebpf4jnsgd1na2vs0mg"},{"bike_id":"38bab4f0-5ec6-405a-8108-9ab8dd28a389","system_id":"levelo_inurba_marseille","lat":43.30286,"lon":5.36879,"is_reserved":false,"is_disabled":false,"rental_uris":{"android":"levelo://app?vid=38bab4f0-5ec6-405a-8108-9ab8dd28a389","ios":"levelo://app?vid=38bab4f0-5ec6-405a-8108-9ab8dd28a389"},"vehicle_type_id":"4","last_reported":1783243985,"current_range_meters":4800,"station_id":"ce4bgqh2rcd13ifvqc5g","pricing_plan_id":"cebpf4jnsgd1na2vs0mg"},{"bike_id":"920030f9-5a5a-46c3-b782-7f1b4e73123f","system_id":"levelo_inurba_marseille","lat":43.28409,"lon":5.37514,"is_reserved":false,"is_disabled":false,"rental_uris":{"android":"levelo://app?vid=920030f9-5a5a-46c3-b782-7f1b4e73123f","ios":"levelo://app?vid=920030f9-5a5a-46c3-b782-7f1b4e73123f"},"vehicle_type_id":"4","last_reported":1783243985,"current_range_meters":4800,"station_id":"ce4bh412rcd13ifvqds0","pricing_plan_id":"cebpf4jnsgd1na2vs0mg"},{"bike_id":"54db33aa-17e0-4887-bd60-f808cc5cd70d","system_id":"levelo_inurba_marseille","lat":43.21153,"lon":5.35083,"is_reserved":false,"is_disabled":false,"rental_uris":{"android":"levelo://app?vid=54db33aa-17e0-4887-bd60-f808cc5cd70d","ios":"levelo://app?vid=54db33aa-17e0-4887-bd60-f808cc5cd70d"},"vehicle_type_id":"4","last_reported":1783243985,"current_range_meters":4800,"station_id":"st_cvj6sg6p6f1abm77japg","pricing_plan_id":"cebpf4jnsgd1na2vs0mg"},{"bike_id":"d8d40ed0-a3f1-47e2-b1bf-7e8d3b829169","system_id":"levelo_inurba_marseille","lat":43.21187,"lon":5.35096,"is_reserved":false,"is_disabled":false,"rental_uris":{"android":"levelo://app?vid=d8d40ed0-a3f1-47e2-b1bf-7e8d3b829169","ios":"levelo://app?vid=d8d40ed0-a3f1-47e2-b1bf-7e8d3b829169"},"vehicle_type_id":"4","last_reported":1783243985,"current_range_meters":4800,"station_id":"st_cvj6sg6p6f1abm77japg","pricing_plan_id":"cebpf4jnsgd1na2vs0mg"},{"bike_id":"053ac7f0-2661-4959-8f04-39a48999ab79","system_id":"levelo_inurba_marseille","lat":43.24664,"lon":5.38149,"is_reserved":false,"is_disabled":false,"rental_uris":{"android":"levelo://app?vid=053ac7f0-2661-4959-8f04-39a48999ab79","ios":"levelo://app?vid=053ac7f0-2661-4959-8f04-39a48999ab79"},"vehicle_type_id":"4","last_reported":1783243985,"current_range_meters":4800,"station_id":"ce4bhih2rcd13ifvqfr0","pricing_plan_id":"cebpf4jnsgd1na2vs0mg"},{"bike_id":"3af208fb-ed62-4f29-bcd1-b301d13a9628","system_id":"levelo_inurba_marseille","lat":43.28398,"lon":5.36468,"is_reserved":false,"is_disabled":false,"rental_uris":{"android":"levelo://app?vid=3af208fb-ed62-4f29-bcd1-b301d13a9628","ios":"levelo://app?vid=3af208fb-ed62-4f29-bcd1-b301d13a9628"},"vehicle_type_id":"4","last_reported":1783243985,"current_range_meters":4800,"station_id":"","pricing_plan_id":"cebpf4jnsgd1na2vs0mg"},{"bike_id":"7b9b4653-dc1f-4144-8788-bd5e4a15a5be","system_id":"levelo_inurba_marseille","lat":43.29251,"lon":5.40908,"is_reserved":false,"is_disabled":false,"rental_uris":{"android":"levelo://app?vid=7b9b4653-dc1f-4144-8788-bd5e4a15a5be","ios":"levelo://app?vid=7b9b4653-dc1f-4144-8788-bd5e4a15a5be"},"vehicle_type_id":"4","last_reported":1783243985,"current_range_meters":4800,"station_id":"ce4bh192rcd13ifvqdc0","pricing_plan_id":"cebpf4jnsgd1na2vs0mg"},{"bike_id":"cdb96f67-4069-4baa-a896-228f7764dacd","system_id":"levelo_inurba_marseille","lat":43.29576,"lon":5.37899,"is_reserved":false,"is_disabled":false,"rental_uris":{"android":"levelo://app?vid=cdb96f67-4069-4baa-a896-228f7764dacd","ios":"levelo://app?vid=cdb96f67-4069-4baa-a896-228f7764dacd"},"vehicle_type_id":"4","last_reported":1783243985,"current_range_meters":5600,"station_id":"","pricing_plan_id":"cebpf4jnsgd1na2vs0mg"},{"bike_id":"b2206209-3ca9-41e2-80e2-68b97279a6f4","system_id":"levelo_inurba_marseille","lat":43.24671,"lon":5.38097,"is_reserved":false,"is_disabled":false,"rental_uris":{"android":"levelo://app?vid=b2206209-3ca9-41e2-80e2-68b97279a6f4","ios":"levelo://app?vid=b2206209-3ca9-41e2-80e2-68b97279a6f4"},"vehicle_type_id":"4","last_reported":1783243985,"current_range_meters":5600,"station_id":"","pricing_plan_id":"cebpf4jnsgd1na2vs0mg"},{"bike_id":"8fee7d24-2407-40c0-82b1-3dfb558327f1","system_id":"levelo_inurba_marseille","lat":43.27822,"lon":5.40742,"is_reserved":false,"is_disabled":false,"rental_uris":{"android":"levelo://app?vid=8fee7d24-2407-40c0-82b1-3dfb558327f1","ios":"levelo://app?vid=8fee7d24-2407-40c0-82b1-3dfb558327f1"},"vehicle_type_id":"4","last_reported":1783243985,"current_range_meters":5600,"station_id":"ce4bhnh2rcd13ifvqgtg","pricing_plan_id":"cebpf4jnsgd1na2vs0mg"},{"bike_id":"f32649e7-7632-4652-b17b-3ae6b603dcc2","system_id":"levelo_inurba_marseille","lat":43.32083,"lon":5.36807,"is_reserved":false,"is_disabled":false,"rental_uris":{"android":"levelo://app?vid=f32649e7-7632-4652-b17b-3ae6b603dcc2","ios":"levelo://app?vid=f32649e7-7632-4652-b17b-3ae6b603dcc2"},"vehicle_type_id":"4","last_reported":1783243985,"current_range_meters":5600,"station_id":"ce4bhrh2rcd13ifvqhug","pricing_plan_id":"cebpf4jnsgd1na2vs0mg"},{"bike_id":"a82796c5-40ef-4807-b26d-66152c959991","system_id":"levelo_inurba_marseille","lat":43.2797,"lon":5.39867,"is_reserved":false,"is_disabled":false,"rental_uris":{"android":"levelo://app?vid=a82796c5-40ef-4807-b26d-66152c959991","ios":"levelo://app?vid=a82796c5-40ef-4807-b26d-66152c959991"},"vehicle_type_id":"4","last_reported":1783243985,"current_range_meters":5600,"station_id":"","pricing_plan_id":"cebpf4jnsgd1na2vs0mg"},{"bike_id":"e3d48b75-de3c-4aea-9ad7-5155b3195ead","system_id":"levelo_inurba_marseille","lat":43.29004,"lon":5.35579,"is_reserved":false,"is_disabled":false,"rental_uris":{"android":"levelo://app?vid=e3d48b75-de3c-4aea-9ad7-5155b3195ead","ios":"levelo://app?vid=e3d48b75-de3c-4aea-9ad7-5155b3195ead"},"vehicle_type_id":"4","last_reported":1783243985,"current_range_meters":5600,"station_id":"ce4bhb92rcd13ifvqen0","pricing_plan_id":"cebpf4jnsgd1na2vs0mg"},{"bike_id":"de6914c1-a127-4bad-9192-c1a2795bb81d","system_id":"levelo_inurba_marseille","lat":43.21191,"lon":5.35069,"is_reserved":false,"is_disabled":false,"rental_uris":{"android":"levelo://app?vid=de6914c1-a127-4bad-9192-c1a2795bb81d","ios":"levelo://app?vid=de6914c1-a127-4bad-9192-c1a2795bb81d"},"vehicle_type_id":"4","last_reported":1783243985,"current_range_meters":5600,"station_id":"st_cvj6sg6p6f1abm77japg","pricing_plan_id":"cebpf4jnsgd1na2vs0mg"},{"bike_id":"c5716036-0194-46a1-8323-9e6336598a67","system_id":"levelo_inurba_marseille","lat":43.22538,"lon":5.34875,"is_reserved":false,"is_disabled":false,"rental_uris":{"android":"levelo://app?vid=c5716036-0194-46a1-8323-9e6336598a67","ios":"levelo://app?vid=c5716036-0194-46a1-8323-9e6336598a67"},"vehicle_type_id":"4","last_reported":1783243985,"current_range_meters":5600,"station_id":"st_cvj5dfep6f1abm77gieg","pricing_plan_id":"cebpf4jnsgd1na2vs0mg"},{"bike_id":"8c51c550-068e-4ee8-9e6b-2b6156bd353f","system_id":"levelo_inurba_marseille","lat":43.30189,"lon":5.36626,"is_reserved":false,"is_disabled":true,"rental_uris":{"android":"levelo://app?vid=8c51c550-068e-4ee8-9e6b-2b6156bd353f","ios":"levelo://app?vid=8c51c550-068e-4ee8-9e6b-2b6156bd353f"},"vehicle_type_id":"4","last_reported":1783243985,"current_range_meters":5600,"station_id":"ce4bgrh2rcd13ifvqc8g","pricing_plan_id":"cebpf4jnsgd1na2vs0mg"},{"bike_id":"910a0e56-3842-458a-b929-4deeebc2ab76","system_id":"levelo_inurba_marseille","lat":43.21188,"lon":5.35082,"is_reserved":false,"is_disabled":false,"rental_uris":{"android":"levelo://app?vid=910a0e56-3842-458a-b929-4deeebc2ab76","ios":"levelo://app?vid=910a0e56-3842-458a-b929-4deeebc2ab76"},"vehicle_type_id":"4","last_reported":1783243985,"current_range_meters":5600,"station_id":"st_cvj6sg6p6f1abm77japg","pricing_plan_id":"cebpf4jnsgd1na2vs0mg"},{"bike_id":"9721af8c-8419-4a7c-ac70-241e4be05937","system_id":"levelo_inurba_marseille","lat":43.24615,"lon":5.43147,"is_reserved":false,"is_disabled":false,"rental_uris":{"android":"levelo://app?vid=9721af8c-8419-4a7c-ac70-241e4be05937","ios":"levelo://app?vid=9721af8c-8419-4a7c-ac70-241e4be05937"},"vehicle_type_id":"4","last_reported":1783243985,"current_range_meters":5600,"station_id":"st_d2m6c4gdas8pm72e190g","pricing_plan_id":"cebpf4jnsgd1na2vs0mg"},{"bike_id":"d22b5fd8-9302-49a2-a73d-51a28a423939","system_id":"levelo_inurba_marseille","lat":43.28265,"lon":5.35062,"is_reserved":false,"is_disabled":false,"rental_uris":{"android":"levelo://app?vid=d22b5fd8-9302-49a2-a73d-51a28a423939","ios":"levelo://app?vid=d22b5fd8-9302-49a2-a73d-51a28a423939"},"vehicle_type_id":"4","last_reported":1783243985,"current_range_meters":5600,"station_id":"ce4bhbp2rcd13ifvqerg","pricing_plan_id":"cebpf4jnsgd1na2vs0mg"},{"bike_id":"d6788e7d-6ca0-41b0-9b54-a846cce64917","system_id":"levelo_inurba_marseille","lat":43.26592,"lon":5.39039,"is_reserved":false,"is_disabled":false,"rental_uris":{"android":"levelo://app?vid=d6788e7d-6ca0-41b0-9b54-a846cce64917","ios":"levelo://app?vid=d6788e7d-6ca0-41b0-9b54-a846cce64917"},"vehicle_type_id":"4","last_reported":1783243985,"current_range_meters":5600,"station_id":"ce4bhe12rcd13ifvqf30","pricing_plan_id":"cebpf4jnsgd1na2vs0mg"},{"bike_id":"093f2aee-57dd-4ef8-94a9-d1c03b3fa122","system_id":"levelo_inurba_marseille","lat":43.27492,"lon":5.42454,"is_reserved":false,"is_disabled":false,"rental_uris":{"android":"levelo://app?vid=093f2aee-57dd-4ef8-94a9-d1c03b3fa122","ios":"levelo://app?vid=093f2aee-57dd-4ef8-94a9-d1c03b3fa122"},"vehicle_type_id":"4","last_reported":1783243985,"current_range_meters":5600,"station_id":"ce4bhn92rcd13ifvqgrg","pricing_plan_id":"cebpf4jnsgd1na2vs0mg"},{"bike_id":"c0080d7a-1f56-488a-9914-bd2925216be0","system_id":"levelo_inurba_marseille","lat":43.22555,"lon":5.41618,"is_reserved":false,"is_disabled":false,"rental_uris":{"android":"levelo://app?vid=c0080d7a-1f56-488a-9914-bd2925216be0","ios":"levelo://app?vid=c0080d7a-1f56-488a-9914-bd2925216be0"},"vehicle_type_id":"4","last_reported":1783243985,"current_range_meters":5600,"station_id":"st_d2o4gvlbi1j2169b742g","pricing_plan_id":"cebpf4jnsgd1na2vs0mg"},{"bike_id":"7464974b-751e-4f84-9f73-74598ad26b7a","system_id":"levelo_inurba_marseille","lat":43.29205,"lon":5.35804,"is_reserved":false,"is_disabled":false,"rental_uris":{"android":"levelo://app?vid=7464974b-751e-4f84-9f73-74598ad26b7a","ios":"levelo://app?vid=7464974b-751e-4f84-9f73-74598ad26b7a"},"vehicle_type_id":"4","last_reported":1783243985,"current_range_meters":5600,"station_id":"ce4bhb12rcd13ifvqel0","pricing_plan_id":"cebpf4jnsgd1na2vs0mg"},{"bike_id":"635949bd-bbed-4ebd-b888-018abdba9fac","system_id":"levelo_inurba_marseille","lat":43.26682,"lon":5.38273,"is_reserved":false,"is_disabled":false,"rental_uris":{"android":"levelo://app?vid=635949bd-bbed-4ebd-b888-018abdba9fac","ios":"levelo://app?vid=635949bd-bbed-4ebd-b888-018abdba9fac"},"vehicle_type_id":"4","last_reported":1783243985,"current_range_meters":6000,"station_id":"ce4bhg92rcd13ifvqf90","pricing_plan_id":"cebpf4jnsgd1na2vs0mg"},{"bike_id":"b74986d2-a017-40be-8756-6f69c7af4c8a","system_id":"levelo_inurba_marseille","lat":43.29227,"lon":5.36051,"is_reserved":false,"is_disabled":true,"rental_uris":{"android":"levelo://app?vid=b74986d2-a017-40be-8756-6f69c7af4c8a","ios":"levelo://app?vid=b74986d2-a017-40be-8756-6f69c7af4c8a"},"vehicle_type_id":"4","last_reported":1783243985,"current_range_meters":6000,"station_id":"ce4bhbh2rcd13ifvqeqg","pricing_plan_id":"cebpf4jnsgd1na2vs0mg"},{"bike_id":"98d9ab63-952f-49d0-8775-50ac81ca5fd7","system_id":"levelo_inurba_marseille","lat":43.30924,"lon":5.37497,"is_reserved":false,"is_disabled":false,"rental_uris":{"android":"levelo://app?vid=98d9ab63-952f-49d0-8775-50ac81ca5fd7","ios":"levelo://app?vid=98d9ab63-952f-49d0-8775-50ac81ca5fd7"},"vehicle_type_id":"4","last_reported":1783243985,"current_range_meters":6000,"station_id":"","pricing_plan_id":"cebpf4jnsgd1na2vs0mg"},{"bike_id":"40c60d26-7793-4225-aaf2-3a67b9faf4fc","system_id":"levelo_inurba_marseille","lat":43.23482,"lon":5.38063,"is_reserved":false,"is_disabled":false,"rental_uris":{"android":"levelo://app?vid=40c60d26-7793-4225-aaf2-3a67b9faf4fc","ios":"levelo://app?vid=40c60d26-7793-4225-aaf2-3a67b9faf4fc"},"vehicle_type_id":"4","last_reported":1783243985,"current_range_meters":6000,"station_id":"","pricing_plan_id":"cebpf4jnsgd1na2vs0mg"},{"bike_id":"e2770b29-2b53-4a1b-b237-7b8799569b06","system_id":"levelo_inurba_marseille","lat":43.29541,"lon":5.394,"is_reserved":false,"is_disabled":true,"rental_uris":{"android":"levelo://app?vid=e2770b29-2b53-4a1b-b237-7b8799569b06","ios":"levelo://app?vid=e2770b29-2b53-4a1b-b237-7b8799569b06"},"vehicle_type_id":"4","last_reported":1783243985,"current_range_meters":6000,"station_id":"ce4bh292rcd13ifvqdf0","pricing_plan_id":"cebpf4jnsgd1na2vs0mg"},{"bike_id":"c3485d90-3822-42cc-aa0a-42b926fcbc4a","system_id":"levelo_inurba_marseille","lat":43.2803,"lon":5.3706,"is_reserved":false,"is_disabled":false,"rental_uris":{"android":"levelo://app?vid=c3485d90-3822-42cc-aa0a-42b926fcbc4a","ios":"levelo://app?vid=c3485d90-3822-42cc-aa0a-42b926fcbc4a"},"vehicle_type_id":"4","last_reported":1783243985,"current_range_meters":6000,"station_id":"","pricing_plan_id":"cebpf4jnsgd1na2vs0mg"},{"bike_id":"82ef6f10-36a8-4d84-ac85-08bca67e1403","system_id":"levelo_inurba_marseille","lat":43.27207,"lon":5.39192,"is_reserved":false,"is_disabled":false,"rental_uris":{"android":"levelo://app?vid=82ef6f10-36a8-4d84-ac85-08bca67e1403","ios":"levelo://app?vid=82ef6f10-36a8-4d84-ac85-08bca67e1403"},"vehicle_type_id":"4","last_reported":1783243985,"current_range_meters":6000,"station_id":"ce4bhhp2rcd13ifvqfm0","pricing_plan_id":"cebpf4jnsgd1na2vs0mg"},{"bike_id":"7a71c416-c3b5-4289-ad0e-531bcb18f06d","system_id":"levelo_inurba_marseille","lat":43.33165,"lon":5.3769,"is_reserved":false,"is_disabled":false,"rental_uris":{"android":"levelo://app?vid=7a71c416-c3b5-4289-ad0e-531bcb18f06d","ios":"levelo://app?vid=7a71c416-c3b5-4289-ad0e-531bcb18f06d"},"vehicle_type_id":"4","last_reported":1783243985,"current_range_meters":6000,"station_id":"st_d46cu089ee8s73dldbu0","pricing_plan_id":"cebpf4jnsgd1na2vs0mg"},{"bike_id":"412a0234-248c-4842-8523-92cb414da6da","system_id":"levelo_inurba_marseille","lat":43.292669,"lon":5.365612,"is_reserved":false,"is_disabled":false,"rental_uris":{"android":"levelo://app?vid=412a0234-248c-4842-8523-92cb414da6da","ios":"levelo://app?vid=412a0234-248c-4842-8523-92cb414da6da"},"vehicle_type_id":"4","last_reported":1783243985,"current_range_meters":6000,"station_id":"ce4bhbh2rcd13ifvqepg","pricing_plan_id":"cebpf4jnsgd1na2vs0mg"},{"bike_id":"126ae75a-53c5-4ad9-ae00-25ec42abdb82","system_id":"levelo_inurba_marseille","lat":43.27051,"lon":5.40261,"is_reserved":false,"is_disabled":false,"rental_uris":{"android":"levelo://app?vid=126ae75a-53c5-4ad9-ae00-25ec42abdb82","ios":"levelo://app?vid=126ae75a-53c5-4ad9-ae00-25ec42abdb82"},"vehicle_type_id":"4","last_reported":1783243985,"current_range_meters":6000,"station_id":"ce4bhk92rcd13ifvqgc0","pricing_plan_id":"cebpf4jnsgd1na2vs0mg"},{"bike_id":"637ca6f2-621c-4ae1-adb4-7b5112bde475","system_id":"levelo_inurba_marseille","lat":43.28676,"lon":5.36351,"is_reserved":false,"is_disabled":true,"rental_uris":{"android":"levelo://app?vid=637ca6f2-621c-4ae1-adb4-7b5112bde475","ios":"levelo://app?vid=637ca6f2-621c-4ae1-adb4-7b5112bde475"},"vehicle_type_id":"4","last_reported":1783243985,"current_range_meters":6000,"station_id":"ce4bhah2rcd13ifvqej0","pricing_plan_id":"cebpf4jnsgd1na2vs0mg"},{"bike_id":"927bb2ca-4182-456e-aeb0-f6e054388e9d","system_id":"levelo_inurba_marseille","lat":43.29194,"lon":5.35798,"is_reserved":false,"is_disabled":false,"rental_uris":{"android":"levelo://app?vid=927bb2ca-4182-456e-aeb0-f6e054388e9d","ios":"levelo://app?vid=927bb2ca-4182-456e-aeb0-f6e054388e9d"},"vehicle_type_id":"4","last_reported":1783243985,"current_range_meters":6000,"station_id":"ce4bhb12rcd13ifvqel0","pricing_plan_id":"cebpf4jnsgd1na2vs0mg"},{"bike_id":"ffea6b56-400a-490d-82be-58d6b97c6449","system_id":"levelo_inurba_marseille","lat":43.28857,"lon":5.42533,"is_reserved":false,"is_disabled":false,"rental_uris":{"android":"levelo://app?vid=ffea6b56-400a-490d-82be-58d6b97c6449","ios":"levelo://app?vid=ffea6b56-400a-490d-82be-58d6b97c6449"},"vehicle_type_id":"4","last_reported":1783243985,"current_range_meters":6000,"station_id":"st_d3b462108ojc7389ooeg","pricing_plan_id":"cebpf4jnsgd1na2vs0mg"},{"bike_id":"7fcca41e-2146-47b2-bf38-372ba8763a88","system_id":"levelo_inurba_marseille","lat":43.27993,"lon":5.41673,"is_reserved":false,"is_disabled":false,"rental_uris":{"android":"levelo://app?vid=7fcca41e-2146-47b2-bf38-372ba8763a88","ios":"levelo://app?vid=7fcca41e-2146-47b2-bf38-372ba8763a88"},"vehicle_type_id":"4","last_reported":1783243985,"current_range_meters":6000,"station_id":"ce4bho12rcd13ifvqh1g","pricing_plan_id":"cebpf4jnsgd1na2vs0mg"},{"bike_id":"ba134be4-42af-4670-a145-0318372118dc","system_id":"levelo_inurba_marseille","lat":43.31113,"lon":5.37752,"is_reserved":false,"is_disabled":false,"rental_uris":{"android":"levelo://app?vid=ba134be4-42af-4670-a145-0318372118dc","ios":"levelo://app?vid=ba134be4-42af-4670-a145-0318372118dc"},"vehicle_type_id":"4","last_reported":1783243985,"current_range_meters":6000,"station_id":"ce4bgt92rcd13ifvqcg0","pricing_plan_id":"cebpf4jnsgd1na2vs0mg"},{"bike_id":"d3892a3c-536b-40ee-a330-b0ffdeec8edb","system_id":"levelo_inurba_marseille","lat":43.29202,"lon":5.35822,"is_reserved":false,"is_disabled":false,"rental_uris":{"android":"levelo://app?vid=d3892a3c-536b-40ee-a330-b0ffdeec8edb","ios":"levelo://app?vid=d3892a3c-536b-40ee-a330-b0ffdeec8edb"},"vehicle_type_id":"4","last_reported":1783243985,"current_range_meters":6000,"station_id":"ce4bhb12rcd13ifvqel0","pricing_plan_id":"cebpf4jnsgd1na2vs0mg"},{"bike_id":"9efeb665-6ac9-4e70-ba70-20bf3b204b4c","system_id":"levelo_inurba_marseille","lat":43.299059,"lon":5.381578,"is_reserved":false,"is_disabled":false,"rental_uris":{"android":"levelo://app?vid=9efeb665-6ac9-4e70-ba70-20bf3b204b4c","ios":"levelo://app?vid=9efeb665-6ac9-4e70-ba70-20bf3b204b4c"},"vehicle_type_id":"4","last_reported":1783243985,"current_range_meters":6000,"station_id":"ce4bgip2rcd13ifvqbb0","pricing_plan_id":"cebpf4jnsgd1na2vs0mg"},{"bike_id":"69e417ad-b027-4e19-ab2c-a27b60962176","system_id":"levelo_inurba_marseille","lat":43.33535,"lon":5.37476,"is_reserved":false,"is_disabled":false,"rental_uris":{"android":"levelo://app?vid=69e417ad-b027-4e19-ab2c-a27b60962176","ios":"levelo://app?vid=69e417ad-b027-4e19-ab2c-a27b60962176"},"vehicle_type_id":"4","last_reported":1783243985,"current_range_meters":6000,"station_id":"st_d46tts09ee8s73dlu43g","pricing_plan_id":"cebpf4jnsgd1na2vs0mg"},{"bike_id":"d455396b-25c8-4bf4-aa48-4df15ad83f7e","system_id":"levelo_inurba_marseille","lat":43.33863,"lon":5.3479,"is_reserved":false,"is_disabled":false,"rental_uris":{"android":"levelo://app?vid=d455396b-25c8-4bf4-aa48-4df15ad83f7e","ios":"levelo://app?vid=d455396b-25c8-4bf4-aa48-4df15ad83f7e"},"vehicle_type_id":"4","last_reported":1783243985,"current_range_meters":6000,"station_id":"","pricing_plan_id":"cebpf4jnsgd1na2vs0mg"},{"bike_id":"4664349a-092c-40aa-b88d-50f3cab6843e","system_id":"levelo_inurba_marseille","lat":43.28537,"lon":5.44087,"is_reserved":false,"is_disabled":false,"rental_uris":{"android":"levelo://app?vid=4664349a-092c-40aa-b88d-50f3cab6843e","ios":"levelo://app?vid=4664349a-092c-40aa-b88d-50f3cab6843e"},"vehicle_type_id":"4","last_reported":1783243985,"current_range_meters":6000,"station_id":"st_d3j3df2ikq2c7380ej80","pricing_plan_id":"cebpf4jnsgd1na2vs0mg"},{"bike_id":"e4ee63c7-9eff-4911-8f46-91d4a1859e49","system_id":"levelo_inurba_marseille","lat":43.21195,"lon":5.35079,"is_reserved":false,"is_disabled":false,"rental_uris":{"android":"levelo://app?vid=e4ee63c7-9eff-4911-8f46-91d4a1859e49","ios":"levelo://app?vid=e4ee63c7-9eff-4911-8f46-91d4a1859e49"},"vehicle_type_id":"4","last_reported":1783243985,"current_range_meters":6000,"station_id":"st_cvj6sg6p6f1abm77japg","pricing_plan_id":"cebpf4jnsgd1na2vs0mg"},{"bike_id":"d051061f-d3f4-48a6-9cb6-831fa44cd9aa","system_id":"levelo_inurba_marseille","lat":43.273233,"lon":5.390681,"is_reserved":false,"is_disabled":false,"rental_uris":{"android":"levelo://app?vid=d051061f-d3f4-48a6-9cb6-831fa44cd9aa","ios":"levelo://app?vid=d051061f-d3f4-48a6-9cb6-831fa44cd9aa"},"vehicle_type_id":"4","last_reported":1783243985,"current_range_meters":6000,"station_id":"ce4bhgp2rcd13ifvqfe0","pricing_plan_id":"cebpf4jnsgd1na2vs0mg"},{"bike_id":"183aea5c-d661-450f-b481-dd58e2ca7c18","system_id":"levelo_inurba_marseille","lat":43.30546,"lon":5.36545,"is_reserved":false,"is_disabled":false,"rental_uris":{"android":"levelo://app?vid=183aea5c-d661-450f-b481-dd58e2ca7c18","ios":"levelo://app?vid=183aea5c-d661-450f-b481-dd58e2ca7c18"},"vehicle_type_id":"4","last_reported":1783243985,"current_range_meters":6400,"station_id":"ce4bgs12rcd13ifvqcag","pricing_plan_id":"cebpf4jnsgd1na2vs0mg"},{"bike_id":"2f1e7c27-cdbb-4552-bcb6-438088afd41d","system_id":"levelo_inurba_marseille","lat":43.297995,"lon":5.381091,"is_reserved":false,"is_disabled":false,"rental_uris":{"android":"levelo://app?vid=2f1e7c27-cdbb-4552-bcb6-438088afd41d","ios":"levelo://app?vid=2f1e7c27-cdbb-4552-bcb6-438088afd41d"},"vehicle_type_id":"4","last_reported":1783243985,"current_range_meters":6400,"station_id":"ce4bgl12rcd13ifvqbo0","pricing_plan_id":"cebpf4jnsgd1na2vs0mg"},{"bike_id":"90956858-67b4-4bbd-82de-736588e9511e","system_id":"levelo_inurba_marseille","lat":43.22552,"lon":5.41641,"is_reserved":false,"is_disabled":false,"rental_uris":{"android":"levelo://app?vid=90956858-67b4-4bbd-82de-736588e9511e","ios":"levelo://app?vid=90956858-67b4-4bbd-82de-736588e9511e"},"vehicle_type_id":"4","last_reported":1783243985,"current_range_meters":6400,"station_id":"st_d2o4gvlbi1j2169b742g","pricing_plan_id":"cebpf4jnsgd1na2vs0mg"},{"bike_id":"25801e0a-e313-4f6c-8662-d1791b0082b9","system_id":"levelo_inurba_marseille","lat":43.25121,"lon":5.40302,"is_reserved":false,"is_disabled":false,"rental_uris":{"android":"levelo://app?vid=25801e0a-e313-4f6c-8662-d1791b0082b9","ios":"levelo://app?vid=25801e0a-e313-4f6c-8662-d1791b0082b9"},"vehicle_type_id":"4","last_reported":1783243985,"current_range_meters":6400,"station_id":"ce4bhlh2rcd13ifvqgig","pricing_plan_id":"cebpf4jnsgd1na2vs0mg"},{"bike_id":"6bfed8b6-c2f0-4dd2-afe2-1ed7b81e9669","system_id":"levelo_inurba_marseille","lat":43.23966,"lon":5.36619,"is_reserved":false,"is_disabled":false,"rental_uris":{"android":"levelo://app?vid=6bfed8b6-c2f0-4dd2-afe2-1ed7b81e9669","ios":"levelo://app?vid=6bfed8b6-c2f0-4dd2-afe2-1ed7b81e9669"},"vehicle_type_id":"4","last_reported":1783243985,"current_range_meters":6400,"station_id":"ce4bhi12rcd13ifvqfp0","pricing_plan_id":"cebpf4jnsgd1na2vs0mg"},{"bike_id":"88634da4-5d5a-4c95-95d4-0e111a943869","system_id":"levelo_inurba_marseille","lat":43.32289,"lon":5.38272,"is_reserved":false,"is_disabled":false,"rental_uris":{"android":"levelo://app?vid=88634da4-5d5a-4c95-95d4-0e111a943869","ios":"levelo://app?vid=88634da4-5d5a-4c95-95d4-0e111a943869"},"vehicle_type_id":"4","last_reported":1783243985,"current_range_meters":6400,"station_id":"ce4bhr12rcd13ifvqhqg","pricing_plan_id":"cebpf4jnsgd1na2vs0mg"},{"bike_id":"558cffce-bef5-4f7b-b636-7f88d54a4bba","system_id":"levelo_inurba_marseille","lat":43.21182,"lon":5.35087,"is_reserved":false,"is_disabled":false,"rental_uris":{"android":"levelo://app?vid=558cffce-bef5-4f7b-b636-7f88d54a4bba","ios":"levelo://app?vid=558cffce-bef5-4f7b-b636-7f88d54a4bba"},"vehicle_type_id":"4","last_reported":1783243985,"current_range_meters":6400,"station_id":"st_cvj6sg6p6f1abm77japg","pricing_plan_id":"cebpf4jnsgd1na2vs0mg"},{"bike_id":"62f9c1b0-01ba-49cb-b2d3-2c1a1ace0e77","system_id":"levelo_inurba_marseille","lat":43.28679,"lon":5.39912,"is_reserved":false,"is_disabled":false,"rental_uris":{"android":"levelo://app?vid=62f9c1b0-01ba-49cb-b2d3-2c1a1ace0e77","ios":"levelo://app?vid=62f9c1b0-01ba-49cb-b2d3-2c1a1ace0e77"},"vehicle_type_id":"4","last_reported":1783243985,"current_range_meters":6400,"station_id":"","pricing_plan_id":"cebpf4jnsgd1na2vs0mg"},{"bike_id":"dbf64650-89eb-48b6-b9f2-72f63f8936ba","system_id":"levelo_inurba_marseille","lat":43.29194,"lon":5.37881,"is_reserved":false,"is_disabled":false,"rental_uris":{"android":"levelo://app?vid=dbf64650-89eb-48b6-b9f2-72f63f8936ba","ios":"levelo://app?vid=dbf64650-89eb-48b6-b9f2-72f63f8936ba"},"vehicle_type_id":"4","last_reported":1783243985,"current_range_meters":6400,"station_id":"","pricing_plan_id":"cebpf4jnsgd1na2vs0mg"},{"bike_id":"9972642f-35aa-4c20-918a-dcbc07e9e004","system_id":"levelo_inurba_marseille","lat":43.29582,"lon":5.36738,"is_reserved":false,"is_disabled":true,"rental_uris":{"android":"levelo://app?vid=9972642f-35aa-4c20-918a-dcbc07e9e004","ios":"levelo://app?vid=9972642f-35aa-4c20-918a-dcbc07e9e004"},"vehicle_type_id":"4","last_reported":1783243985,"current_range_meters":6400,"station_id":"ce4bgph2rcd13ifvqc2g","pricing_plan_id":"cebpf4jnsgd1na2vs0mg"},{"bike_id":"ffc3d1f4-2d9c-49e7-b9c6-239475b2640a","system_id":"levelo_inurba_marseille","lat":43.28474,"lon":5.38433,"is_reserved":false,"is_disabled":true,"rental_uris":{"android":"levelo://app?vid=ffc3d1f4-2d9c-49e7-b9c6-239475b2640a","ios":"levelo://app?vid=ffc3d1f4-2d9c-49e7-b9c6-239475b2640a"},"vehicle_type_id":"4","last_reported":1783243985,"current_range_meters":6400,"station_id":"ce4bh512rcd13ifvqe3g","pricing_plan_id":"cebpf4jnsgd1na2vs0mg"},{"bike_id":"8f7c87c4-3734-4bb7-beaa-d8eddced6ec6","system_id":"levelo_inurba_marseille","lat":43.28262,"lon":5.35051,"is_reserved":false,"is_disabled":false,"rental_uris":{"android":"levelo://app?vid=8f7c87c4-3734-4bb7-beaa-d8eddced6ec6","ios":"levelo://app?vid=8f7c87c4-3734-4bb7-beaa-d8eddced6ec6"},"vehicle_type_id":"4","last_reported":1783243985,"current_range_meters":6400,"station_id":"ce4bhbp2rcd13ifvqerg","pricing_plan_id":"cebpf4jnsgd1na2vs0mg"},{"bike_id":"75ebe46d-92d1-4961-ac06-6553a761dcd0","system_id":"levelo_inurba_marseille","lat":43.305431,"lon":5.365512,"is_reserved":false,"is_disabled":false,"rental_uris":{"android":"levelo://app?vid=75ebe46d-92d1-4961-ac06-6553a761dcd0","ios":"levelo://app?vid=75ebe46d-92d1-4961-ac06-6553a761dcd0"},"vehicle_type_id":"4","last_reported":1783243985,"current_range_meters":6400,"station_id":"ce4bgs12rcd13ifvqcag","pricing_plan_id":"cebpf4jnsgd1na2vs0mg"},{"bike_id":"f5d895ef-c089-403e-ab80-fa5c68c05b11","system_id":"levelo_inurba_marseille","lat":43.29987,"lon":5.37161,"is_reserved":false,"is_disabled":false,"rental_uris":{"android":"levelo://app?vid=f5d895ef-c089-403e-ab80-fa5c68c05b11","ios":"levelo://app?vid=f5d895ef-c089-403e-ab80-fa5c68c05b11"},"vehicle_type_id":"4","last_reported":1783243985,"current_range_meters":6800,"station_id":"ce4bgr92rcd13ifvqc7g","pricing_plan_id":"cebpf4jnsgd1na2vs0mg"},{"bike_id":"0e329229-8565-4a9d-b593-532bd3ccbaef","system_id":"levelo_inurba_marseille","lat":43.31241,"lon":5.38793,"is_reserved":false,"is_disabled":false,"rental_uris":{"android":"levelo://app?vid=0e329229-8565-4a9d-b593-532bd3ccbaef","ios":"levelo://app?vid=0e329229-8565-4a9d-b593-532bd3ccbaef"},"vehicle_type_id":"4","last_reported":1783243985,"current_range_meters":6800,"station_id":"","pricing_plan_id":"cebpf4jnsgd1na2vs0mg"},{"bike_id":"3dd5da9d-0765-4606-af6a-73d468190eb9","system_id":"levelo_inurba_marseille","lat":43.29269,"lon":5.36839,"is_reserved":false,"is_disabled":false,"rental_uris":{"android":"levelo://app?vid=3dd5da9d-0765-4606-af6a-73d468190eb9","ios":"levelo://app?vid=3dd5da9d-0765-4606-af6a-73d468190eb9"},"vehicle_type_id":"4","last_reported":1783243985,"current_range_meters":6800,"station_id":"ce4bhbp2rcd13ifvqesg","pricing_plan_id":"cebpf4jnsgd1na2vs0mg"},{"bike_id":"250735b4-5b8b-4dc7-b190-cde8d2987c64","system_id":"levelo_inurba_marseille","lat":43.30643,"lon":5.40087,"is_reserved":false,"is_disabled":false,"rental_uris":{"android":"levelo://app?vid=250735b4-5b8b-4dc7-b190-cde8d2987c64","ios":"levelo://app?vid=250735b4-5b8b-4dc7-b190-cde8d2987c64"},"vehicle_type_id":"4","last_reported":1783243985,"current_range_meters":6800,"station_id":"ce4bh112rcd13ifvqda0","pricing_plan_id":"cebpf4jnsgd1na2vs0mg"},{"bike_id":"d832a3d0-79c6-4ba7-ac9f-b53b8986b84b","system_id":"levelo_inurba_marseille","lat":43.293733,"lon":5.378506,"is_reserved":false,"is_disabled":false,"rental_uris":{"android":"levelo://app?vid=d832a3d0-79c6-4ba7-ac9f-b53b8986b84b","ios":"levelo://app?vid=d832a3d0-79c6-4ba7-ac9f-b53b8986b84b"},"vehicle_type_id":"4","last_reported":1783243985,"current_range_meters":6800,"station_id":"ce4bhch2rcd13ifvqeug","pricing_plan_id":"cebpf4jnsgd1na2vs0mg"},{"bike_id":"a351dbfd-b396-4fee-bbf9-64048b7d5b49","system_id":"levelo_inurba_marseille","lat":43.26775,"lon":5.39453,"is_reserved":false,"is_disabled":false,"rental_uris":{"android":"levelo://app?vid=a351dbfd-b396-4fee-bbf9-64048b7d5b49","ios":"levelo://app?vid=a351dbfd-b396-4fee-bbf9-64048b7d5b49"},"vehicle_type_id":"4","last_reported":1783243985,"current_range_meters":6800,"station_id":"","pricing_plan_id":"cebpf4jnsgd1na2vs0mg"},{"bike_id":"00e9f481-d59a-48fd-9603-1a3e40938620","system_id":"levelo_inurba_marseille","lat":43.29942,"lon":5.38148,"is_reserved":false,"is_disabled":false,"rental_uris":{"android":"levelo://app?vid=00e9f481-d59a-48fd-9603-1a3e40938620","ios":"levelo://app?vid=00e9f481-d59a-48fd-9603-1a3e40938620"},"vehicle_type_id":"4","last_reported":1783243985,"current_range_meters":6800,"station_id":"ce4bgj12rcd13ifvqbc0","pricing_plan_id":"cebpf4jnsgd1na2vs0mg"},{"bike_id":"5bf642a2-0666-4f4b-b733-015a5e1eff97","system_id":"levelo_inurba_marseille","lat":43.28001,"lon":5.40006,"is_reserved":false,"is_disabled":false,"rental_uris":{"android":"levelo://app?vid=5bf642a2-0666-4f4b-b733-015a5e1eff97","ios":"levelo://app?vid=5bf642a2-0666-4f4b-b733-015a5e1eff97"},"vehicle_type_id":"4","last_reported":1783243985,"current_range_meters":6800,"station_id":"ce4bho92rcd13ifvqh4g","pricing_plan_id":"cebpf4jnsgd1na2vs0mg"},{"bike_id":"f803775f-8fe2-4d7e-82f4-f1c4f606bb2a","system_id":"levelo_inurba_marseille","lat":43.28138,"lon":5.42644,"is_reserved":false,"is_disabled":false,"rental_uris":{"android":"levelo://app?vid=f803775f-8fe2-4d7e-82f4-f1c4f606bb2a","ios":"levelo://app?vid=f803775f-8fe2-4d7e-82f4-f1c4f606bb2a"},"vehicle_type_id":"4","last_reported":1783243985,"current_range_meters":6800,"station_id":"ce4bhnh2rcd13ifvqgug","pricing_plan_id":"cebpf4jnsgd1na2vs0mg"},{"bike_id":"93d3fb66-f34f-4759-ab74-73ca751cb508","system_id":"levelo_inurba_marseille","lat":43.28543,"lon":5.36929,"is_reserved":false,"is_disabled":false,"rental_uris":{"android":"levelo://app?vid=93d3fb66-f34f-4759-ab74-73ca751cb508","ios":"levelo://app?vid=93d3fb66-f34f-4759-ab74-73ca751cb508"},"vehicle_type_id":"4","last_reported":1783243985,"current_range_meters":6800,"station_id":"ce4bht12rcd13ifvqi60","pricing_plan_id":"cebpf4jnsgd1na2vs0mg"},{"bike_id":"c64fd8b2-f458-4a6e-88eb-895f5a6985c2","system_id":"levelo_inurba_marseille","lat":43.31411,"lon":5.39401,"is_reserved":false,"is_disabled":true,"rental_uris":{"android":"levelo://app?vid=c64fd8b2-f458-4a6e-88eb-895f5a6985c2","ios":"levelo://app?vid=c64fd8b2-f458-4a6e-88eb-895f5a6985c2"},"vehicle_type_id":"4","last_reported":1783243985,"current_range_meters":6800,"station_id":"","pricing_plan_id":"cebpf4jnsgd1na2vs0mg"},{"bike_id":"d38bd415-3d0a-4a55-b982-afd00c9a112e","system_id":"levelo_inurba_marseille","lat":43.313316,"lon":5.396914,"is_reserved":false,"is_disabled":false,"rental_uris":{"android":"levelo://app?vid=d38bd415-3d0a-4a55-b982-afd00c9a112e","ios":"levelo://app?vid=d38bd415-3d0a-4a55-b982-afd00c9a112e"},"vehicle_type_id":"4","last_reported":1783243985,"current_range_meters":6800,"station_id":"ce4bgvp2rcd13ifvqcu0","pricing_plan_id":"cebpf4jnsgd1na2vs0mg"},{"bike_id":"2f1d2e8f-d322-4d6f-b465-8fbf8a513dbf","system_id":"levelo_inurba_marseille","lat":43.29547,"lon":5.37498,"is_reserved":false,"is_disabled":false,"rental_uris":{"android":"levelo://app?vid=2f1d2e8f-d322-4d6f-b465-8fbf8a513dbf","ios":"levelo://app?vid=2f1d2e8f-d322-4d6f-b465-8fbf8a513dbf"},"vehicle_type_id":"4","last_reported":1783243985,"current_range_meters":6800,"station_id":"ce4bgkp2rcd13ifvqbmg","pricing_plan_id":"cebpf4jnsgd1na2vs0mg"},{"bike_id":"defe664f-116a-400b-aa68-5aba6647b941","system_id":"levelo_inurba_marseille","lat":43.29305,"lon":5.44582,"is_reserved":false,"is_disabled":false,"rental_uris":{"android":"levelo://app?vid=defe664f-116a-400b-aa68-5aba6647b941","ios":"levelo://app?vid=defe664f-116a-400b-aa68-5aba6647b941"},"vehicle_type_id":"4","last_reported":1783243985,"current_range_meters":6800,"station_id":"","pricing_plan_id":"cebpf4jnsgd1na2vs0mg"},{"bike_id":"f56c5a55-490f-470f-bccd-8a878283165b","system_id":"levelo_inurba_marseille","lat":43.31797,"lon":5.36827,"is_reserved":false,"is_disabled":false,"rental_uris":{"android":"levelo://app?vid=f56c5a55-490f-470f-bccd-8a878283165b","ios":"levelo://app?vid=f56c5a55-490f-470f-bccd-8a878283165b"},"vehicle_type_id":"4","last_reported":1783243985,"current_range_meters":6800,"station_id":"","pricing_plan_id":"cebpf4jnsgd1na2vs0mg"},{"bike_id":"2a8f592d-3ebd-4853-bf23-1a2cca68a093","system_id":"levelo_inurba_marseille","lat":43.2706,"lon":5.38513,"is_reserved":false,"is_disabled":false,"rental_uris":{"android":"levelo://app?vid=2a8f592d-3ebd-4853-bf23-1a2cca68a093","ios":"levelo://app?vid=2a8f592d-3ebd-4853-bf23-1a2cca68a093"},"vehicle_type_id":"4","last_reported":1783243985,"current_range_meters":6800,"station_id":"","pricing_plan_id":"cebpf4jnsgd1na2vs0mg"},{"bike_id":"74c027a4-4b67-40ff-a2fc-35f79d498796","system_id":"levelo_inurba_marseille","lat":43.29212,"lon":5.36046,"is_reserved":false,"is_disabled":true,"rental_uris":{"android":"levelo://app?vid=74c027a4-4b67-40ff-a2fc-35f79d498796","ios":"levelo://app?vid=74c027a4-4b67-40ff-a2fc-35f79d498796"},"vehicle_type_id":"4","last_reported":1783243985,"current_range_meters":6800,"station_id":"ce4bhbh2rcd13ifvqeqg","pricing_plan_id":"cebpf4jnsgd1na2vs0mg"},{"bike_id":"ed5c7db6-f8ab-4b3b-8e18-9436ad688be6","system_id":"levelo_inurba_marseille","lat":43.28624,"lon":5.37093,"is_reserved":false,"is_disabled":false,"rental_uris":{"android":"levelo://app?vid=ed5c7db6-f8ab-4b3b-8e18-9436ad688be6","ios":"levelo://app?vid=ed5c7db6-f8ab-4b3b-8e18-9436ad688be6"},"vehicle_type_id":"4","last_reported":1783243985,"current_range_meters":6800,"station_id":"ce4bht12rcd13ifvqi60","pricing_plan_id":"cebpf4jnsgd1na2vs0mg"},{"bike_id":"a12a4f83-c050-4064-a9cd-bf7775a31f2f","system_id":"levelo_inurba_marseille","lat":43.24661,"lon":5.38216,"is_reserved":false,"is_disabled":true,"rental_uris":{"android":"levelo://app?vid=a12a4f83-c050-4064-a9cd-bf7775a31f2f","ios":"levelo://app?vid=a12a4f83-c050-4064-a9cd-bf7775a31f2f"},"vehicle_type_id":"4","last_reported":1783243985,"current_range_meters":6800,"station_id":"ce4bhih2rcd13ifvqfr0","pricing_plan_id":"cebpf4jnsgd1na2vs0mg"},{"bike_id":"abf8e30d-ac86-42fd-8f02-010fdd14dc34","system_id":"levelo_inurba_marseille","lat":43.2841,"lon":5.37518,"is_reserved":false,"is_disabled":false,"rental_uris":{"android":"levelo://app?vid=abf8e30d-ac86-42fd-8f02-010fdd14dc34","ios":"levelo://app?vid=abf8e30d-ac86-42fd-8f02-010fdd14dc34"},"vehicle_type_id":"4","last_reported":1783243985,"current_range_meters":6800,"station_id":"ce4bh412rcd13ifvqds0","pricing_plan_id":"cebpf4jnsgd1na2vs0mg"},{"bike_id":"a1f32e76-4126-4796-9783-810ced54e16b","system_id":"levelo_inurba_marseille","lat":43.298,"lon":5.40423,"is_reserved":false,"is_disabled":false,"rental_uris":{"android":"levelo://app?vid=a1f32e76-4126-4796-9783-810ced54e16b","ios":"levelo://app?vid=a1f32e76-4126-4796-9783-810ced54e16b"},"vehicle_type_id":"4","last_reported":1783243985,"current_range_meters":6800,"station_id":"ce4bh112rcd13ifvqd90","pricing_plan_id":"cebpf4jnsgd1na2vs0mg"},{"bike_id":"30b56041-a68c-4c98-b608-26b2eb6bc78a","system_id":"levelo_inurba_marseille","lat":43.25136,"lon":5.40325,"is_reserved":false,"is_disabled":false,"rental_uris":{"android":"levelo://app?vid=30b56041-a68c-4c98-b608-26b2eb6bc78a","ios":"levelo://app?vid=30b56041-a68c-4c98-b608-26b2eb6bc78a"},"vehicle_type_id":"4","last_reported":1783243985,"current_range_meters":6800,"station_id":"ce4bhlh2rcd13ifvqgig","pricing_plan_id":"cebpf4jnsgd1na2vs0mg"},{"bike_id":"7c427d21-5ba3-47e9-b621-2ca7d29df3d2","system_id":"levelo_inurba_marseille","lat":43.28468,"lon":5.43719,"is_reserved":false,"is_disabled":false,"rental_uris":{"android":"levelo://app?vid=7c427d21-5ba3-47e9-b621-2ca7d29df3d2","ios":"levelo://app?vid=7c427d21-5ba3-47e9-b621-2ca7d29df3d2"},"vehicle_type_id":"4","last_reported":1783243985,"current_range_meters":6800,"station_id":"","pricing_plan_id":"cebpf4jnsgd1na2vs0mg"},{"bike_id":"afe59100-6c37-4856-8339-4eb1d27fdc25","system_id":"levelo_inurba_marseille","lat":43.26202,"lon":5.3793,"is_reserved":false,"is_disabled":false,"rental_uris":{"android":"levelo://app?vid=afe59100-6c37-4856-8339-4eb1d27fdc25","ios":"levelo://app?vid=afe59100-6c37-4856-8339-4eb1d27fdc25"},"vehicle_type_id":"4","last_reported":1783243985,"current_range_meters":6800,"station_id":"ce4bhjp2rcd13ifvqg90","pricing_plan_id":"cebpf4jnsgd1na2vs0mg"},{"bike_id":"3e047eff-ccd0-4082-aa67-8df162a75a39","system_id":"levelo_inurba_marseille","lat":43.30376,"lon":5.424927,"is_reserved":false,"is_disabled":false,"rental_uris":{"android":"levelo://app?vid=3e047eff-ccd0-4082-aa67-8df162a75a39","ios":"levelo://app?vid=3e047eff-ccd0-4082-aa67-8df162a75a39"},"vehicle_type_id":"4","last_reported":1783243985,"current_range_meters":6800,"station_id":"ce4bhoh2rcd13ifvqh6g","pricing_plan_id":"cebpf4jnsgd1na2vs0mg"},{"bike_id":"67ff903d-b2b0-4196-be8d-ce9048cbff4d","system_id":"levelo_inurba_marseille","lat":43.22974,"lon":5.4448,"is_reserved":false,"is_disabled":false,"rental_uris":{"android":"levelo://app?vid=67ff903d-b2b0-4196-be8d-ce9048cbff4d","ios":"levelo://app?vid=67ff903d-b2b0-4196-be8d-ce9048cbff4d"},"vehicle_type_id":"4","last_reported":1783243985,"current_range_meters":6800,"station_id":"","pricing_plan_id":"cebpf4jnsgd1na2vs0mg"},{"bike_id":"42768633-cdff-4643-9ae6-164a5e9274b2","system_id":"levelo_inurba_marseille","lat":43.31111,"lon":5.37759,"is_reserved":false,"is_disabled":false,"rental_uris":{"android":"levelo://app?vid=42768633-cdff-4643-9ae6-164a5e9274b2","ios":"levelo://app?vid=42768633-cdff-4643-9ae6-164a5e9274b2"},"vehicle_type_id":"4","last_reported":1783243985,"current_range_meters":7200,"station_id":"ce4bgt92rcd13ifvqcg0","pricing_plan_id":"cebpf4jnsgd1na2vs0mg"},{"bike_id":"7353a5db-0b63-416d-abba-7495d0ab1bab","system_id":"levelo_inurba_marseille","lat":43.306,"lon":5.37313,"is_reserved":false,"is_disabled":false,"rental_uris":{"android":"levelo://app?vid=7353a5db-0b63-416d-abba-7495d0ab1bab","ios":"levelo://app?vid=7353a5db-0b63-416d-abba-7495d0ab1bab"},"vehicle_type_id":"4","last_reported":1783243985,"current_range_meters":7200,"station_id":"","pricing_plan_id":"cebpf4jnsgd1na2vs0mg"},{"bike_id":"5cf8ff3f-002e-4490-b36d-5909b772d854","system_id":"levelo_inurba_marseille","lat":43.22544,"lon":5.34842,"is_reserved":false,"is_disabled":true,"rental_uris":{"android":"levelo://app?vid=5cf8ff3f-002e-4490-b36d-5909b772d854","ios":"levelo://app?vid=5cf8ff3f-002e-4490-b36d-5909b772d854"},"vehicle_type_id":"4","last_reported":1783243985,"current_range_meters":7200,"station_id":"st_cvj5dfep6f1abm77gieg","pricing_plan_id":"cebpf4jnsgd1na2vs0mg"},{"bike_id":"6b4bd43f-9d60-40f8-96cc-0292b478f552","system_id":"levelo_inurba_marseille","lat":43.28779,"lon":5.4662,"is_reserved":false,"is_disabled":false,"rental_uris":{"android":"levelo://app?vid=6b4bd43f-9d60-40f8-96cc-0292b478f552","ios":"levelo://app?vid=6b4bd43f-9d60-40f8-96cc-0292b478f552"},"vehicle_type_id":"4","last_reported":1783243985,"current_range_meters":7200,"station_id":"","pricing_plan_id":"cebpf4jnsgd1na2vs0mg"},{"bike_id":"f23277d8-f6ba-4318-adff-f74c278d6cb4","system_id":"levelo_inurba_marseille","lat":43.27964,"lon":5.38752,"is_reserved":false,"is_disabled":false,"rental_uris":{"android":"levelo://app?vid=f23277d8-f6ba-4318-adff-f74c278d6cb4","ios":"levelo://app?vid=f23277d8-f6ba-4318-adff-f74c278d6cb4"},"vehicle_type_id":"4","last_reported":1783243985,"current_range_meters":7200,"station_id":"ce4bhg12rcd13ifvqf80","pricing_plan_id":"cebpf4jnsgd1na2vs0mg"},{"bike_id":"38360f99-2bce-4f28-bc36-3bc8367dcc77","system_id":"levelo_inurba_marseille","lat":43.302907,"lon":5.377195,"is_reserved":false,"is_disabled":false,"rental_uris":{"android":"levelo://app?vid=38360f99-2bce-4f28-bc36-3bc8367dcc77","ios":"levelo://app?vid=38360f99-2bce-4f28-bc36-3bc8367dcc77"},"vehicle_type_id":"4","last_reported":1783243985,"current_range_meters":7200,"station_id":"ce4bgqh2rcd13ifvqc5g","pricing_plan_id":"cebpf4jnsgd1na2vs0mg"},{"bike_id":"4d52a61b-5c30-41df-a6ac-71b42f016aed","system_id":"levelo_inurba_marseille","lat":43.25872,"lon":5.39912,"is_reserved":false,"is_disabled":true,"rental_uris":{"android":"levelo://app?vid=4d52a61b-5c30-41df-a6ac-71b42f016aed","ios":"levelo://app?vid=4d52a61b-5c30-41df-a6ac-71b42f016aed"},"vehicle_type_id":"4","last_reported":1783243985,"current_range_meters":7200,"station_id":"ce4bhl92rcd13ifvqghg","pricing_plan_id":"cebpf4jnsgd1na2vs0mg"},{"bike_id":"a86c6a45-14a6-45d7-bb8b-4159049f8d87","system_id":"levelo_inurba_marseille","lat":43.29308,"lon":5.36855,"is_reserved":false,"is_disabled":false,"rental_uris":{"android":"levelo://app?vid=a86c6a45-14a6-45d7-bb8b-4159049f8d87","ios":"levelo://app?vid=a86c6a45-14a6-45d7-bb8b-4159049f8d87"},"vehicle_type_id":"4","last_reported":1783243985,"current_range_meters":7200,"station_id":"ce4bhbp2rcd13ifvqesg","pricing_plan_id":"cebpf4jnsgd1na2vs0mg"},{"bike_id":"cc738f32-f811-4e3f-b968-0bc0d7c9be0d","system_id":"levelo_inurba_marseille","lat":43.29254,"lon":5.40923,"is_reserved":false,"is_disabled":true,"rental_uris":{"android":"levelo://app?vid=cc738f32-f811-4e3f-b968-0bc0d7c9be0d","ios":"levelo://app?vid=cc738f32-f811-4e3f-b968-0bc0d7c9be0d"},"vehicle_type_id":"4","last_reported":1783243985,"current_range_meters":7200,"station_id":"ce4bh192rcd13ifvqdc0","pricing_plan_id":"cebpf4jnsgd1na2vs0mg"},{"bike_id":"b1d456c7-d87b-4429-b628-67b1440b4dec","system_id":"levelo_inurba_marseille","lat":43.28844,"lon":5.39303,"is_reserved":false,"is_disabled":false,"rental_uris":{"android":"levelo://app?vid=b1d456c7-d87b-4429-b628-67b1440b4dec","ios":"levelo://app?vid=b1d456c7-d87b-4429-b628-67b1440b4dec"},"vehicle_type_id":"4","last_reported":1783243985,"current_range_meters":7200,"station_id":"ce4bh2p2rcd13ifvqdi0","pricing_plan_id":"cebpf4jnsgd1na2vs0mg"},{"bike_id":"4f7effd4-d4f9-46ca-9e58-fa62c431d741","system_id":"levelo_inurba_marseille","lat":43.32543,"lon":5.41469,"is_reserved":false,"is_disabled":false,"rental_uris":{"android":"levelo://app?vid=4f7effd4-d4f9-46ca-9e58-fa62c431d741","ios":"levelo://app?vid=4f7effd4-d4f9-46ca-9e58-fa62c431d741"},"vehicle_type_id":"4","last_reported":1783243985,"current_range_meters":7200,"station_id":"ce4bhq12rcd13ifvqhhg","pricing_plan_id":"cebpf4jnsgd1na2vs0mg"},{"bike_id":"8220ecc2-6bf9-4e7d-8a35-6858c0daf5f4","system_id":"levelo_inurba_marseille","lat":43.2119,"lon":5.35075,"is_reserved":false,"is_disabled":false,"rental_uris":{"android":"levelo://app?vid=8220ecc2-6bf9-4e7d-8a35-6858c0daf5f4","ios":"levelo://app?vid=8220ecc2-6bf9-4e7d-8a35-6858c0daf5f4"},"vehicle_type_id":"4","last_reported":1783243985,"current_range_meters":7200,"station_id":"st_cvj6sg6p6f1abm77japg","pricing_plan_id":"cebpf4jnsgd1na2vs0mg"},{"bike_id":"7ebd98d4-c322-4c5d-91e7-8df572d41a0a","system_id":"levelo_inurba_marseille","lat":43.273739,"lon":5.362575,"is_reserved":false,"is_disabled":false,"rental_uris":{"android":"levelo://app?vid=7ebd98d4-c322-4c5d-91e7-8df572d41a0a","ios":"levelo://app?vid=7ebd98d4-c322-4c5d-91e7-8df572d41a0a"},"vehicle_type_id":"4","last_reported":1783243985,"current_range_meters":7200,"station_id":"ce4bhbh2rcd13ifvqeo0","pricing_plan_id":"cebpf4jnsgd1na2vs0mg"},{"bike_id":"12e196a1-122e-4b4f-84bb-3c91817402e0","system_id":"levelo_inurba_marseille","lat":43.30535,"lon":5.36508,"is_reserved":false,"is_disabled":false,"rental_uris":{"android":"levelo://app?vid=12e196a1-122e-4b4f-84bb-3c91817402e0","ios":"levelo://app?vid=12e196a1-122e-4b4f-84bb-3c91817402e0"},"vehicle_type_id":"4","last_reported":1783243985,"current_range_meters":7200,"station_id":"ce4bgs12rcd13ifvqcag","pricing_plan_id":"cebpf4jnsgd1na2vs0mg"},{"bike_id":"3892050e-cb6a-457e-90e6-5def440715fd","system_id":"levelo_inurba_marseille","lat":43.28707,"lon":5.46685,"is_reserved":false,"is_disabled":false,"rental_uris":{"android":"levelo://app?vid=3892050e-cb6a-457e-90e6-5def440715fd","ios":"levelo://app?vid=3892050e-cb6a-457e-90e6-5def440715fd"},"vehicle_type_id":"4","last_reported":1783243985,"current_range_meters":7200,"station_id":"st_d6tc3vkotcvc738tfjhg","pricing_plan_id":"cebpf4jnsgd1na2vs0mg"},{"bike_id":"66f64495-157d-434d-a3ef-5a17f45e04e3","system_id":"levelo_inurba_marseille","lat":43.24148,"lon":5.40995,"is_reserved":false,"is_disabled":false,"rental_uris":{"android":"levelo://app?vid=66f64495-157d-434d-a3ef-5a17f45e04e3","ios":"levelo://app?vid=66f64495-157d-434d-a3ef-5a17f45e04e3"},"vehicle_type_id":"4","last_reported":1783243985,"current_range_meters":7200,"station_id":"","pricing_plan_id":"cebpf4jnsgd1na2vs0mg"},{"bike_id":"a0b4dd2c-256f-4eb7-82e7-460d8c6a2a20","system_id":"levelo_inurba_marseille","lat":43.30419,"lon":5.4129,"is_reserved":false,"is_disabled":false,"rental_uris":{"android":"levelo://app?vid=a0b4dd2c-256f-4eb7-82e7-460d8c6a2a20","ios":"levelo://app?vid=a0b4dd2c-256f-4eb7-82e7-460d8c6a2a20"},"vehicle_type_id":"4","last_reported":1783243985,"current_range_meters":7200,"station_id":"ce4bhop2rcd13ifvqh8g","pricing_plan_id":"cebpf4jnsgd1na2vs0mg"},{"bike_id":"95e2c5d3-ee09-417b-93c0-7f04fa895ada","system_id":"levelo_inurba_marseille","lat":43.31916,"lon":5.37378,"is_reserved":false,"is_disabled":false,"rental_uris":{"android":"levelo://app?vid=95e2c5d3-ee09-417b-93c0-7f04fa895ada","ios":"levelo://app?vid=95e2c5d3-ee09-417b-93c0-7f04fa895ada"},"vehicle_type_id":"4","last_reported":1783243985,"current_range_meters":7200,"station_id":"","pricing_plan_id":"cebpf4jnsgd1na2vs0mg"},{"bike_id":"97b9345f-3d95-4fe0-8cce-f66f21ea4f2a","system_id":"levelo_inurba_marseille","lat":43.26219,"lon":5.38782,"is_reserved":false,"is_disabled":false,"rental_uris":{"android":"levelo://app?vid=97b9345f-3d95-4fe0-8cce-f66f21ea4f2a","ios":"levelo://app?vid=97b9345f-3d95-4fe0-8cce-f66f21ea4f2a"},"vehicle_type_id":"4","last_reported":1783243985,"current_range_meters":7200,"station_id":"st_d8gjfg747rts73coq3b0","pricing_plan_id":"cebpf4jnsgd1na2vs0mg"},{"bike_id":"a8c9fd2b-b5f0-41b3-ae6f-5e9d923f45a8","system_id":"levelo_inurba_marseille","lat":43.28617,"lon":5.35098,"is_reserved":false,"is_disabled":false,"rental_uris":{"android":"levelo://app?vid=a8c9fd2b-b5f0-41b3-ae6f-5e9d923f45a8","ios":"levelo://app?vid=a8c9fd2b-b5f0-41b3-ae6f-5e9d923f45a8"},"vehicle_type_id":"4","last_reported":1783243985,"current_range_meters":7200,"station_id":"ce4bhch2rcd13ifvqeug","pricing_plan_id":"cebpf4jnsgd1na2vs0mg"},{"bike_id":"b031910f-0afb-425d-8469-728c7bf7e48b","system_id":"levelo_inurba_marseille","lat":43.29535,"lon":5.3751,"is_reserved":false,"is_disabled":false,"rental_uris":{"android":"levelo://app?vid=b031910f-0afb-425d-8469-728c7bf7e48b","ios":"levelo://app?vid=b031910f-0afb-425d-8469-728c7bf7e48b"},"vehicle_type_id":"4","last_reported":1783243985,"current_range_meters":7200,"station_id":"ce4bgkp2rcd13ifvqbmg","pricing_plan_id":"cebpf4jnsgd1na2vs0mg"},{"bike_id":"3cdd1f2b-56d7-4d6c-9b4f-baa522786585","system_id":"levelo_inurba_marseille","lat":43.26193,"lon":5.37933,"is_reserved":false,"is_disabled":false,"rental_uris":{"android":"levelo://app?vid=3cdd1f2b-56d7-4d6c-9b4f-baa522786585","ios":"levelo://app?vid=3cdd1f2b-56d7-4d6c-9b4f-baa522786585"},"vehicle_type_id":"4","last_reported":1783243985,"current_range_meters":7200,"station_id":"ce4bhjp2rcd13ifvqg90","pricing_plan_id":"cebpf4jnsgd1na2vs0mg"},{"bike_id":"b857dd05-d912-4904-aaff-74596cdc07af","system_id":"levelo_inurba_marseille","lat":43.24069,"lon":5.37762,"is_reserved":false,"is_disabled":false,"rental_uris":{"android":"levelo://app?vid=b857dd05-d912-4904-aaff-74596cdc07af","ios":"levelo://app?vid=b857dd05-d912-4904-aaff-74596cdc07af"},"vehicle_type_id":"4","last_reported":1783243985,"current_range_meters":7200,"station_id":"ce4bhnp2rcd13ifvqgvg","pricing_plan_id":"cebpf4jnsgd1na2vs0mg"},{"bike_id":"1ee117dc-6d9b-4a29-ad43-0e31c488dfd4","system_id":"levelo_inurba_marseille","lat":43.24635,"lon":5.38614,"is_reserved":false,"is_disabled":false,"rental_uris":{"android":"levelo://app?vid=1ee117dc-6d9b-4a29-ad43-0e31c488dfd4","ios":"levelo://app?vid=1ee117dc-6d9b-4a29-ad43-0e31c488dfd4"},"vehicle_type_id":"4","last_reported":1783243985,"current_range_meters":7200,"station_id":"","pricing_plan_id":"cebpf4jnsgd1na2vs0mg"},{"bike_id":"1ef77d10-3808-4032-a625-bdc5532d78f3","system_id":"levelo_inurba_marseille","lat":43.28988,"lon":5.37815,"is_reserved":false,"is_disabled":true,"rental_uris":{"android":"levelo://app?vid=1ef77d10-3808-4032-a625-bdc5532d78f3","ios":"levelo://app?vid=1ef77d10-3808-4032-a625-bdc5532d78f3"},"vehicle_type_id":"4","last_reported":1783243985,"current_range_meters":7200,"station_id":"ce4bh9p2rcd13ifvqed0","pricing_plan_id":"cebpf4jnsgd1na2vs0mg"},{"bike_id":"a5ad3c1b-326d-4b0a-b4f8-8382f11e36db","system_id":"levelo_inurba_marseille","lat":43.2984,"lon":5.36291,"is_reserved":false,"is_disabled":false,"rental_uris":{"android":"levelo://app?vid=a5ad3c1b-326d-4b0a-b4f8-8382f11e36db","ios":"levelo://app?vid=a5ad3c1b-326d-4b0a-b4f8-8382f11e36db"},"vehicle_type_id":"4","last_reported":1783243985,"current_range_meters":8000,"station_id":"ce4bgpp2rcd13ifvqc3g","pricing_plan_id":"cebpf4jnsgd1na2vs0mg"},{"bike_id":"08aa9e82-acd5-4c73-9542-29caeaf3b759","system_id":"levelo_inurba_marseille","lat":43.2998,"lon":5.37164,"is_reserved":false,"is_disabled":false,"rental_uris":{"android":"levelo://app?vid=08aa9e82-acd5-4c73-9542-29caeaf3b759","ios":"levelo://app?vid=08aa9e82-acd5-4c73-9542-29caeaf3b759"},"vehicle_type_id":"4","last_reported":1783243985,"current_range_meters":8000,"station_id":"ce4bgr92rcd13ifvqc7g","pricing_plan_id":"cebpf4jnsgd1na2vs0mg"},{"bike_id":"f5e140c4-bed7-476f-8fb7-5f1ebf91823d","system_id":"levelo_inurba_marseille","lat":43.27975,"lon":5.3874,"is_reserved":false,"is_disabled":false,"rental_uris":{"android":"levelo://app?vid=f5e140c4-bed7-476f-8fb7-5f1ebf91823d","ios":"levelo://app?vid=f5e140c4-bed7-476f-8fb7-5f1ebf91823d"},"vehicle_type_id":"4","last_reported":1783243985,"current_range_meters":8000,"station_id":"ce4bhg12rcd13ifvqf80","pricing_plan_id":"cebpf4jnsgd1na2vs0mg"},{"bike_id":"8add3d14-7583-4bbe-a39a-8070d5f4d47a","system_id":"levelo_inurba_marseille","lat":43.325,"lon":5.38299,"is_reserved":false,"is_disabled":false,"rental_uris":{"android":"levelo://app?vid=8add3d14-7583-4bbe-a39a-8070d5f4d47a","ios":"levelo://app?vid=8add3d14-7583-4bbe-a39a-8070d5f4d47a"},"vehicle_type_id":"4","last_reported":1783243985,"current_range_meters":8000,"station_id":"st_d4asgbiv49dc73anf9m0","pricing_plan_id":"cebpf4jnsgd1na2vs0mg"},{"bike_id":"ffc1a511-9f6c-4972-9ed7-31229f3c6516","system_id":"levelo_inurba_marseille","lat":43.30294,"lon":5.37707,"is_reserved":false,"is_disabled":false,"rental_uris":{"android":"levelo://app?vid=ffc1a511-9f6c-4972-9ed7-31229f3c6516","ios":"levelo://app?vid=ffc1a511-9f6c-4972-9ed7-31229f3c6516"},"vehicle_type_id":"4","last_reported":1783243985,"current_range_meters":8000,"station_id":"ce4bguh2rcd13ifvqcj0","pricing_plan_id":"cebpf4jnsgd1na2vs0mg"},{"bike_id":"8573ae4c-c9fc-4ff8-a5e9-0df2486e1c40","system_id":"levelo_inurba_marseille","lat":43.26021,"lon":5.37552,"is_reserved":false,"is_disabled":true,"rental_uris":{"android":"levelo://app?vid=8573ae4c-c9fc-4ff8-a5e9-0df2486e1c40","ios":"levelo://app?vid=8573ae4c-c9fc-4ff8-a5e9-0df2486e1c40"},"vehicle_type_id":"4","last_reported":1783243985,"current_range_meters":8000,"station_id":"ce4bhgh2rcd13ifvqfa0","pricing_plan_id":"cebpf4jnsgd1na2vs0mg"},{"bike_id":"ebb69cdb-f57c-486a-9d37-3814132e26e5","system_id":"levelo_inurba_marseille","lat":43.28048,"lon":5.37033,"is_reserved":false,"is_disabled":true,"rental_uris":{"android":"levelo://app?vid=ebb69cdb-f57c-486a-9d37-3814132e26e5","ios":"levelo://app?vid=ebb69cdb-f57c-486a-9d37-3814132e26e5"},"vehicle_type_id":"4","last_reported":1783243985,"current_range_meters":8000,"station_id":"ce4bha12rcd13ifvqef0","pricing_plan_id":"cebpf4jnsgd1na2vs0mg"},{"bike_id":"b99fa2fa-6caa-4e97-a941-8427d6ff2309","system_id":"levelo_inurba_marseille","lat":43.26241,"lon":5.38768,"is_reserved":false,"is_disabled":true,"rental_uris":{"android":"levelo://app?vid=b99fa2fa-6caa-4e97-a941-8427d6ff2309","ios":"levelo://app?vid=b99fa2fa-6caa-4e97-a941-8427d6ff2309"},"vehicle_type_id":"4","last_reported":1783243985,"current_range_meters":8000,"station_id":"st_d8gjfg747rts73coq3b0","pricing_plan_id":"cebpf4jnsgd1na2vs0mg"},{"bike_id":"d542e80b-c621-4744-a175-6c723a1aa866","system_id":"levelo_inurba_marseille","lat":43.29309,"lon":5.4456,"is_reserved":false,"is_disabled":false,"rental_uris":{"android":"levelo://app?vid=d542e80b-c621-4744-a175-6c723a1aa866","ios":"levelo://app?vid=d542e80b-c621-4744-a175-6c723a1aa866"},"vehicle_type_id":"4","last_reported":1783243985,"current_range_meters":8000,"station_id":"","pricing_plan_id":"cebpf4jnsgd1na2vs0mg"},{"bike_id":"a18362aa-72a1-48c4-b48d-a5c94ab56aaa","system_id":"levelo_inurba_marseille","lat":43.30162,"lon":5.38089,"is_reserved":false,"is_disabled":false,"rental_uris":{"android":"levelo://app?vid=a18362aa-72a1-48c4-b48d-a5c94ab56aaa","ios":"levelo://app?vid=a18362aa-72a1-48c4-b48d-a5c94ab56aaa"},"vehicle_type_id":"4","last_reported":1783243985,"current_range_meters":8000,"station_id":"ce4bgjp2rcd13ifvqbh0","pricing_plan_id":"cebpf4jnsgd1na2vs0mg"},{"bike_id":"2c0108bf-a38b-4991-a07a-777d40314fcb","system_id":"levelo_inurba_marseille","lat":43.29272,"lon":5.36838,"is_reserved":false,"is_disabled":false,"rental_uris":{"android":"levelo://app?vid=2c0108bf-a38b-4991-a07a-777d40314fcb","ios":"levelo://app?vid=2c0108bf-a38b-4991-a07a-777d40314fcb"},"vehicle_type_id":"4","last_reported":1783243985,"current_range_meters":8000,"station_id":"ce4bhbp2rcd13ifvqesg","pricing_plan_id":"cebpf4jnsgd1na2vs0mg"},{"bike_id":"4ea05420-4688-4f88-ab4d-87e93bd11b74","system_id":"levelo_inurba_marseille","lat":43.29255,"lon":5.40919,"is_reserved":false,"is_disabled":false,"rental_uris":{"android":"levelo://app?vid=4ea05420-4688-4f88-ab4d-87e93bd11b74","ios":"levelo://app?vid=4ea05420-4688-4f88-ab4d-87e93bd11b74"},"vehicle_type_id":"4","last_reported":1783243985,"current_range_meters":8000,"station_id":"ce4bh192rcd13ifvqdc0","pricing_plan_id":"cebpf4jnsgd1na2vs0mg"},{"bike_id":"1c2caa2d-b419-4b27-a655-9fc2d74e9b2f","system_id":"levelo_inurba_marseille","lat":43.29004,"lon":5.35633,"is_reserved":false,"is_disabled":false,"rental_uris":{"android":"levelo://app?vid=1c2caa2d-b419-4b27-a655-9fc2d74e9b2f","ios":"levelo://app?vid=1c2caa2d-b419-4b27-a655-9fc2d74e9b2f"},"vehicle_type_id":"4","last_reported":1783243985,"current_range_meters":8000,"station_id":"ce4bhb92rcd13ifvqen0","pricing_plan_id":"cebpf4jnsgd1na2vs0mg"},{"bike_id":"43d30edd-cdea-4445-a246-fe658042dfdb","system_id":"levelo_inurba_marseille","lat":43.30819,"lon":5.3764,"is_reserved":false,"is_disabled":false,"rental_uris":{"android":"levelo://app?vid=43d30edd-cdea-4445-a246-fe658042dfdb","ios":"levelo://app?vid=43d30edd-cdea-4445-a246-fe658042dfdb"},"vehicle_type_id":"4","last_reported":1783243985,"current_range_meters":8000,"station_id":"ce4bgv92rcd13ifvqcq0","pricing_plan_id":"cebpf4jnsgd1na2vs0mg"},{"bike_id":"c9445652-b236-402b-8ec1-fb5567a22b0f","system_id":"levelo_inurba_marseille","lat":43.24448,"lon":5.40951,"is_reserved":false,"is_disabled":false,"rental_uris":{"android":"levelo://app?vid=c9445652-b236-402b-8ec1-fb5567a22b0f","ios":"levelo://app?vid=c9445652-b236-402b-8ec1-fb5567a22b0f"},"vehicle_type_id":"4","last_reported":1783243985,"current_range_meters":8000,"station_id":"","pricing_plan_id":"cebpf4jnsgd1na2vs0mg"},{"bike_id":"acb6b183-d4d6-4d8e-974e-924b61f91a80","system_id":"levelo_inurba_marseille","lat":43.34395,"lon":5.4211,"is_reserved":false,"is_disabled":false,"rental_uris":{"android":"levelo://app?vid=acb6b183-d4d6-4d8e-974e-924b61f91a80","ios":"levelo://app?vid=acb6b183-d4d6-4d8e-974e-924b61f91a80"},"vehicle_type_id":"4","last_reported":1783243985,"current_range_meters":8000,"station_id":"","pricing_plan_id":"cebpf4jnsgd1na2vs0mg"},{"bike_id":"fc5d7b22-bed1-4640-a4b2-9379b1406486","system_id":"levelo_inurba_marseille","lat":43.29465,"lon":5.3842,"is_reserved":false,"is_disabled":true,"rental_uris":{"android":"levelo://app?vid=fc5d7b22-bed1-4640-a4b2-9379b1406486","ios":"levelo://app?vid=fc5d7b22-bed1-4640-a4b2-9379b1406486"},"vehicle_type_id":"4","last_reported":1783243985,"current_range_meters":8000,"station_id":"","pricing_plan_id":"cebpf4jnsgd1na2vs0mg"},{"bike_id":"edcc3590-70e8-4e95-b642-168c305063fc","system_id":"levelo_inurba_marseille","lat":43.30926,"lon":5.39631,"is_reserved":false,"is_disabled":false,"rental_uris":{"android":"levelo://app?vid=edcc3590-70e8-4e95-b642-168c305063fc","ios":"levelo://app?vid=edcc3590-70e8-4e95-b642-168c305063fc"},"vehicle_type_id":"4","last_reported":1783243985,"current_range_meters":8000,"station_id":"ce4bh012rcd13ifvqcv0","pricing_plan_id":"cebpf4jnsgd1na2vs0mg"},{"bike_id":"c1c88b11-92f5-437b-85af-b745aa920b32","system_id":"levelo_inurba_marseille","lat":43.26706,"lon":5.38722,"is_reserved":false,"is_disabled":false,"rental_uris":{"android":"levelo://app?vid=c1c88b11-92f5-437b-85af-b745aa920b32","ios":"levelo://app?vid=c1c88b11-92f5-437b-85af-b745aa920b32"},"vehicle_type_id":"4","last_reported":1783243985,"current_range_meters":8000,"station_id":"","pricing_plan_id":"cebpf4jnsgd1na2vs0mg"},{"bike_id":"51687ee8-dba7-4061-9600-574b19684104","system_id":"levelo_inurba_marseille","lat":43.30711,"lon":5.38422,"is_reserved":false,"is_disabled":false,"rental_uris":{"android":"levelo://app?vid=51687ee8-dba7-4061-9600-574b19684104","ios":"levelo://app?vid=51687ee8-dba7-4061-9600-574b19684104"},"vehicle_type_id":"4","last_reported":1783243985,"current_range_meters":8000,"station_id":"","pricing_plan_id":"cebpf4jnsgd1na2vs0mg"},{"bike_id":"7f12e5a2-955f-42a0-87a4-54480f18e191","system_id":"levelo_inurba_marseille","lat":43.289465,"lon":5.363946,"is_reserved":false,"is_disabled":false,"rental_uris":{"android":"levelo://app?vid=7f12e5a2-955f-42a0-87a4-54480f18e191","ios":"levelo://app?vid=7f12e5a2-955f-42a0-87a4-54480f18e191"},"vehicle_type_id":"4","last_reported":1783243985,"current_range_meters":8000,"station_id":"","pricing_plan_id":"cebpf4jnsgd1na2vs0mg"},{"bike_id":"5632bdc0-9030-4ab1-9a7d-a2b34cf1a1e4","system_id":"levelo_inurba_marseille","lat":43.29491,"lon":5.43309,"is_reserved":false,"is_disabled":false,"rental_uris":{"android":"levelo://app?vid=5632bdc0-9030-4ab1-9a7d-a2b34cf1a1e4","ios":"levelo://app?vid=5632bdc0-9030-4ab1-9a7d-a2b34cf1a1e4"},"vehicle_type_id":"4","last_reported":1783243985,"current_range_meters":8000,"station_id":"st_d3j5ugp08ojc73fj9d10","pricing_plan_id":"cebpf4jnsgd1na2vs0mg"},{"bike_id":"028c7fed-5f2f-40d0-baa1-a58613675508","system_id":"levelo_inurba_marseille","lat":43.25346,"lon":5.42198,"is_reserved":false,"is_disabled":false,"rental_uris":{"android":"levelo://app?vid=028c7fed-5f2f-40d0-baa1-a58613675508","ios":"levelo://app?vid=028c7fed-5f2f-40d0-baa1-a58613675508"},"vehicle_type_id":"4","last_reported":1783243985,"current_range_meters":8400,"station_id":"st_d2m65c5bi1j21697t3ng","pricing_plan_id":"cebpf4jnsgd1na2vs0mg"},{"bike_id":"0cd8a246-f552-4fec-abbb-e6589415435d","system_id":"levelo_inurba_marseille","lat":43.31882,"lon":5.36815,"is_reserved":false,"is_disabled":false,"rental_uris":{"android":"levelo://app?vid=0cd8a246-f552-4fec-abbb-e6589415435d","ios":"levelo://app?vid=0cd8a246-f552-4fec-abbb-e6589415435d"},"vehicle_type_id":"4","last_reported":1783243985,"current_range_meters":8400,"station_id":"st_d6o2h0d0559c73evc1b0","pricing_plan_id":"cebpf4jnsgd1na2vs0mg"},{"bike_id":"84190724-6310-46fa-9887-294bd5296f4a","system_id":"levelo_inurba_marseille","lat":43.29266,"lon":5.36825,"is_reserved":false,"is_disabled":false,"rental_uris":{"android":"levelo://app?vid=84190724-6310-46fa-9887-294bd5296f4a","ios":"levelo://app?vid=84190724-6310-46fa-9887-294bd5296f4a"},"vehicle_type_id":"4","last_reported":1783243985,"current_range_meters":8400,"station_id":"ce4bhbp2rcd13ifvqesg","pricing_plan_id":"cebpf4jnsgd1na2vs0mg"},{"bike_id":"d1f95cf9-3c50-44e1-afec-1a16e5b009af","system_id":"levelo_inurba_marseille","lat":43.266713,"lon":5.372395,"is_reserved":false,"is_disabled":false,"rental_uris":{"android":"levelo://app?vid=d1f95cf9-3c50-44e1-afec-1a16e5b009af","ios":"levelo://app?vid=d1f95cf9-3c50-44e1-afec-1a16e5b009af"},"vehicle_type_id":"4","last_reported":1783243985,"current_range_meters":8400,"station_id":"","pricing_plan_id":"cebpf4jnsgd1na2vs0mg"},{"bike_id":"2d3dd4f4-c2be-4315-be3d-f35763bc2c71","system_id":"levelo_inurba_marseille","lat":43.267,"lon":5.40178,"is_reserved":false,"is_disabled":false,"rental_uris":{"android":"levelo://app?vid=2d3dd4f4-c2be-4315-be3d-f35763bc2c71","ios":"levelo://app?vid=2d3dd4f4-c2be-4315-be3d-f35763bc2c71"},