{"last_updated":1723576041,"ttl":30,"version":"2.2","data":{"bikes":[{"bike_id":"cf845ce9-f55e-46a0-ba07-3f676c305d8e","system_id":"levelo_inurba_marseille","lat":43.312239,"lon":5.368562,"is_reserved":false,"is_disabled":false,"rental_uris":{"android":"levelo://app?vid=cf845ce9-f55e-46a0-ba07-3f676c305d8e","ios":"levelo://app?vid=cf845ce9-f55e-46a0-ba07-3f676c305d8e"},"vehicle_type_id":"4","last_reported":1723576041,"current_range_meters":22000,"station_id":"ce4bgl92rcd13ifvqbq0","pricing_plan_id":"cebpf4jnsgd1na2vs0mg"},{"bike_id":"25ae556d-ee28-4f70-bb61-2dc580a95cb1","system_id":"levelo_inurba_marseille","lat":43.3123,"lon":5.36854,"is_reserved":false,"is_disabled":false,"rental_uris":{"android":"levelo://app?vid=25ae556d-ee28-4f70-bb61-2dc580a95cb1","ios":"levelo://app?vid=25ae556d-ee28-4f70-bb61-2dc580a95cb1"},"vehicle_type_id":"4","last_reported":1723576041,"current_range_meters":7600,"station_id":"ce4bgl92rcd13ifvqbq0","pricing_plan_id":"cebpf4jnsgd1na2vs0mg"},{"bike_id":"ce0e461e-c8af-4d4c-985e-691212d6e28b","system_id":"levelo_inurba_marseille","lat":43.31229,"lon":5.3686,"is_reserved":false,"is_disabled":false,"rental_uris":{"android":"levelo://app?vid=ce0e461e-c8af-4d4c-985e-691212d6e28b","ios":"levelo://app?vid=ce0e461e-c8af-4d4c-985e-691212d6e28b"},"vehicle_type_id":"4","last_reported":1723576041,"current_range_meters":0,"station_id":"ce4bgl92rcd13ifvqbq0","pricing_plan_id":"cebpf4jnsgd1na2vs0mg"},{"bike_id":"11c86499-645e-49e7-af61-df48829fbb50","system_id":"levelo_inurba_marseille","lat":43.314811,"lon":5.373103,"is_reserved":false,"is_disabled":false,"rental_uris":{"android":"levelo://app?vid=11c86499-645e-49e7-af61-df48829fbb50","ios":"levelo://app?vid=11c86499-645e-49e7-af61-df48829fbb50"},"vehicle_type_id":"4","last_reported":1723576041,"current_range_meters":3600,"station_id":"ce4bgt12rcd13ifvqcd0","pricing_plan_id":"cebpf4jnsgd1na2vs0mg"},{"bike_id":"64fda0b9-d3ae-43e1-b204-0b2d6fe4e851","system_id":"levelo_inurba_marseille","lat":43.309039,"lon":5.371797,"is_reserved":false,"is_disabled":false,"rental_uris":{"android":"levelo://app?vid=64fda0b9-d3ae-43e1-b204-0b2d6fe4e851","ios":"levelo://app?vid=64fda0b9-d3ae-43e1-b204-0b2d6fe4e851"},"vehicle_type_id":"4","last_reported":1723576041,"current_range_meters":16400,"station_id":"ce4bguh2rcd13ifvqckg","pricing_plan_id":"cebpf4jnsgd1na2vs0mg"},{"bike_id":"7209dbf5-998d-4016-a569-aad93eb9971e","system_id":"levelo_inurba_marseille","lat":43.309034,"lon":5.371783,"is_reserved":false,"is_disabled":false,"rental_uris":{"android":"levelo://app?vid=7209dbf5-998d-4016-a569-aad93eb9971e","ios":"levelo://app?vid=7209dbf5-998d-4016-a569-aad93eb9971e"},"vehicle_type_id":"4","last_reported":1723576041,"current_range_meters":20400,"station_id":"ce4bguh2rcd13ifvqckg","pricing_plan_id":"cebpf4jnsgd1na2vs0mg"},{"bike_id":"794e9f10-53c3-4540-a25d-26570344a089","system_id":"levelo_inurba_marseille","lat":43.30818,"lon":5.37319,"is_reserved":false,"is_disabled":false,"rental_uris":{"android":"levelo://app?vid=794e9f10-53c3-4540-a25d-26570344a089","ios":"levelo://app?vid=794e9f10-53c3-4540-a25d-26570344a089"},"vehicle_type_id":"4","last_reported":1723576041,"current_range_meters":24000,"station_id":"","pricing_plan_id":"cebpf4jnsgd1na2vs0mg"},{"bike_id":"938a6387-e294-4ad2-a51e-6ee061a272cb","system_id":"levelo_inurba_marseille","lat":43.305368,"lon":5.367343,"is_reserved":false,"is_disabled":false,"rental_uris":{"android":"levelo://app?vid=938a6387-e294-4ad2-a51e-6ee061a272cb","ios":"levelo://app?vid=938a6387-e294-4ad2-a51e-6ee061a272cb"},"vehicle_type_id":"4","last_reported":1723576041,"current_range_meters":23600,"station_id":"ce4bgrp2rcd13ifvqc9g","pricing_plan_id":"cebpf4jnsgd1na2vs0mg"},{"bike_id":"ea701b0d-a5bb-4d73-9f2c-e8bce2cf5c94","system_id":"levelo_inurba_marseille","lat":43.305706,"lon":5.365654,"is_reserved":false,"is_disabled":false,"rental_uris":{"android":"levelo://app?vid=ea701b0d-a5bb-4d73-9f2c-e8bce2cf5c94","ios":"levelo://app?vid=ea701b0d-a5bb-4d73-9f2c-e8bce2cf5c94"},"vehicle_type_id":"4","last_reported":1723576041,"current_range_meters":2000,"station_id":"ce4bgs12rcd13ifvqcag","pricing_plan_id":"cebpf4jnsgd1na2vs0mg"},{"bike_id":"eabb42e4-b174-4508-8c54-7b1626eb1367","system_id":"levelo_inurba_marseille","lat":43.305337,"lon":5.366947,"is_reserved":false,"is_disabled":false,"rental_uris":{"android":"levelo://app?vid=eabb42e4-b174-4508-8c54-7b1626eb1367","ios":"levelo://app?vid=eabb42e4-b174-4508-8c54-7b1626eb1367"},"vehicle_type_id":"4","last_reported":1723576041,"current_range_meters":0,"station_id":"ce4bgrp2rcd13ifvqc9g","pricing_plan_id":"cebpf4jnsgd1na2vs0mg"},{"bike_id":"16ce72aa-e515-462a-a798-442ca174bc87","system_id":"levelo_inurba_marseille","lat":43.31596,"lon":5.37609,"is_reserved":false,"is_disabled":false,"rental_uris":{"android":"levelo://app?vid=16ce72aa-e515-462a-a798-442ca174bc87","ios":"levelo://app?vid=16ce72aa-e515-462a-a798-442ca174bc87"},"vehicle_type_id":"4","last_reported":1723576041,"current_range_meters":2800,"station_id":"","pricing_plan_id":"cebpf4jnsgd1na2vs0mg"},{"bike_id":"cb8ea659-7046-47a7-91b4-76dc9b8c21e8","system_id":"levelo_inurba_marseille","lat":43.305989,"lon":5.37225,"is_reserved":false,"is_disabled":false,"rental_uris":{"android":"levelo://app?vid=cb8ea659-7046-47a7-91b4-76dc9b8c21e8","ios":"levelo://app?vid=cb8ea659-7046-47a7-91b4-76dc9b8c21e8"},"vehicle_type_id":"4","last_reported":1723576041,"current_range_meters":4000,"station_id":"ce4bgqh2rcd13ifvqc4g","pricing_plan_id":"cebpf4jnsgd1na2vs0mg"},{"bike_id":"155568fc-1309-4d05-a623-e6c8c5d7eefb","system_id":"levelo_inurba_marseille","lat":43.305989,"lon":5.37225,"is_reserved":false,"is_disabled":false,"rental_uris":{"android":"levelo://app?vid=155568fc-1309-4d05-a623-e6c8c5d7eefb","ios":"levelo://app?vid=155568fc-1309-4d05-a623-e6c8c5d7eefb"},"vehicle_type_id":"4","last_reported":1723576041,"current_range_meters":0,"station_id":"ce4bgqh2rcd13ifvqc4g","pricing_plan_id":"cebpf4jnsgd1na2vs0mg"},{"bike_id":"2d877a5c-27b7-4bac-aa8c-67a4ffa22dbb","system_id":"levelo_inurba_marseille","lat":43.305989,"lon":5.37225,"is_reserved":false,"is_disabled":false,"rental_uris":{"android":"levelo://app?vid=2d877a5c-27b7-4bac-aa8c-67a4ffa22dbb","ios":"levelo://app?vid=2d877a5c-27b7-4bac-aa8c-67a4ffa22dbb"},"vehicle_type_id":"4","last_reported":1723576041,"current_range_meters":8000,"station_id":"ce4bgqh2rcd13ifvqc4g","pricing_plan_id":"cebpf4jnsgd1na2vs0mg"},{"bike_id":"96cca623-9842-4a48-adbd-30c85975071a","system_id":"levelo_inurba_marseille","lat":43.30537,"lon":5.367345,"is_reserved":false,"is_disabled":false,"rental_uris":{"android":"levelo://app?vid=96cca623-9842-4a48-adbd-30c85975071a","ios":"levelo://app?vid=96cca623-9842-4a48-adbd-30c85975071a"},"vehicle_type_id":"4","last_reported":1723576041,"current_range_meters":5200,"station_id":"ce4bgrp2rcd13ifvqc9g","pricing_plan_id":"cebpf4jnsgd1na2vs0mg"},{"bike_id":"7806b0be-55a9-4f34-b004-39d3004794f0","system_id":"levelo_inurba_marseille","lat":43.311131,"lon":5.377651,"is_reserved":false,"is_disabled":false,"rental_uris":{"android":"levelo://app?vid=7806b0be-55a9-4f34-b004-39d3004794f0","ios":"levelo://app?vid=7806b0be-55a9-4f34-b004-39d3004794f0"},"vehicle_type_id":"4","last_reported":1723576041,"current_range_meters":0,"station_id":"ce4bgt92rcd13ifvqcg0","pricing_plan_id":"cebpf4jnsgd1na2vs0mg"},{"bike_id":"6aa50127-5c31-4e7c-b67d-e429cb5f92cf","system_id":"levelo_inurba_marseille","lat":43.311125,"lon":5.377624,"is_reserved":false,"is_disabled":false,"rental_uris":{"android":"levelo://app?vid=6aa50127-5c31-4e7c-b67d-e429cb5f92cf","ios":"levelo://app?vid=6aa50127-5c31-4e7c-b67d-e429cb5f92cf"},"vehicle_type_id":"4","last_reported":1723576041,"current_range_meters":21200,"station_id":"ce4bgt92rcd13ifvqcg0","pricing_plan_id":"cebpf4jnsgd1na2vs0mg"},{"bike_id":"da763c36-6a1d-4b63-a2ae-d88535b257f1","system_id":"levelo_inurba_marseille","lat":43.311131,"lon":5.377651,"is_reserved":false,"is_disabled":false,"rental_uris":{"android":"levelo://app?vid=da763c36-6a1d-4b63-a2ae-d88535b257f1","ios":"levelo://app?vid=da763c36-6a1d-4b63-a2ae-d88535b257f1"},"vehicle_type_id":"4","last_reported":1723576041,"current_range_meters":18400,"station_id":"ce4bgt92rcd13ifvqcg0","pricing_plan_id":"cebpf4jnsgd1na2vs0mg"},{"bike_id":"127dbdcc-05e7-404b-9132-0bea6f5aa8fb","system_id":"levelo_inurba_marseille","lat":43.311253,"lon":5.37774,"is_reserved":false,"is_disabled":false,"rental_uris":{"android":"levelo://app?vid=127dbdcc-05e7-404b-9132-0bea6f5aa8fb","ios":"levelo://app?vid=127dbdcc-05e7-404b-9132-0bea6f5aa8fb"},"vehicle_type_id":"4","last_reported":1723576041,"current_range_meters":4800,"station_id":"ce4bgt92rcd13ifvqcg0","pricing_plan_id":"cebpf4jnsgd1na2vs0mg"},{"bike_id":"575b27aa-b1d9-400e-9978-4d5a4ebf4351","system_id":"levelo_inurba_marseille","lat":43.311125,"lon":5.377624,"is_reserved":false,"is_disabled":false,"rental_uris":{"android":"levelo://app?vid=575b27aa-b1d9-400e-9978-4d5a4ebf4351","ios":"levelo://app?vid=575b27aa-b1d9-400e-9978-4d5a4ebf4351"},"vehicle_type_id":"4","last_reported":1723576041,"current_range_meters":17200,"station_id":"ce4bgt92rcd13ifvqcg0","pricing_plan_id":"cebpf4jnsgd1na2vs0mg"},{"bike_id":"7cb24f6c-4122-4d00-8f21-03a2d9366933","system_id":"levelo_inurba_marseille","lat":43.311125,"lon":5.377624,"is_reserved":false,"is_disabled":false,"rental_uris":{"android":"levelo://app?vid=7cb24f6c-4122-4d00-8f21-03a2d9366933","ios":"levelo://app?vid=7cb24f6c-4122-4d00-8f21-03a2d9366933"},"vehicle_type_id":"4","last_reported":1723576041,"current_range_meters":30800,"station_id":"ce4bgt92rcd13ifvqcg0","pricing_plan_id":"cebpf4jnsgd1na2vs0mg"},{"bike_id":"b561b226-2950-4d87-aee6-e63fe0c677e9","system_id":"levelo_inurba_marseille","lat":43.311125,"lon":5.377624,"is_reserved":false,"is_disabled":false,"rental_uris":{"android":"levelo://app?vid=b561b226-2950-4d87-aee6-e63fe0c677e9","ios":"levelo://app?vid=b561b226-2950-4d87-aee6-e63fe0c677e9"},"vehicle_type_id":"4","last_reported":1723576041,"current_range_meters":20400,"station_id":"ce4bgt92rcd13ifvqcg0","pricing_plan_id":"cebpf4jnsgd1na2vs0mg"},{"bike_id":"22f58406-a16f-46ae-9914-fa7862e31244","system_id":"levelo_inurba_marseille","lat":43.307945,"lon":5.376487,"is_reserved":false,"is_disabled":false,"rental_uris":{"android":"levelo://app?vid=22f58406-a16f-46ae-9914-fa7862e31244","ios":"levelo://app?vid=22f58406-a16f-46ae-9914-fa7862e31244"},"vehicle_type_id":"4","last_reported":1723576041,"current_range_meters":13600,"station_id":"ce4bgv92rcd13ifvqcq0","pricing_plan_id":"cebpf4jnsgd1na2vs0mg"},{"bike_id":"70ca3f22-7426-43d3-b351-992447fe5ec4","system_id":"levelo_inurba_marseille","lat":43.307945,"lon":5.376487,"is_reserved":false,"is_disabled":false,"rental_uris":{"android":"levelo://app?vid=70ca3f22-7426-43d3-b351-992447fe5ec4","ios":"levelo://app?vid=70ca3f22-7426-43d3-b351-992447fe5ec4"},"vehicle_type_id":"4","last_reported":1723576041,"current_range_meters":16800,"station_id":"ce4bgv92rcd13ifvqcq0","pricing_plan_id":"cebpf4jnsgd1na2vs0mg"},{"bike_id":"ba6e0970-3e62-43fb-87f6-ddfd4b4c2301","system_id":"levelo_inurba_marseille","lat":43.30781,"lon":5.37646,"is_reserved":false,"is_disabled":false,"rental_uris":{"android":"levelo://app?vid=ba6e0970-3e62-43fb-87f6-ddfd4b4c2301","ios":"levelo://app?vid=ba6e0970-3e62-43fb-87f6-ddfd4b4c2301"},"vehicle_type_id":"4","last_reported":1723576041,"current_range_meters":1600,"station_id":"ce4bgv92rcd13ifvqcq0","pricing_plan_id":"cebpf4jnsgd1na2vs0mg"},{"bike_id":"3f9a2689-729b-424c-ab14-a97ce453c2c6","system_id":"levelo_inurba_marseille","lat":43.31678,"lon":5.3775,"is_reserved":false,"is_disabled":false,"rental_uris":{"android":"levelo://app?vid=3f9a2689-729b-424c-ab14-a97ce453c2c6","ios":"levelo://app?vid=3f9a2689-729b-424c-ab14-a97ce453c2c6"},"vehicle_type_id":"4","last_reported":1723576041,"current_range_meters":400,"station_id":"ce4bgth2rcd13ifvqch0","pricing_plan_id":"cebpf4jnsgd1na2vs0mg"},{"bike_id":"de39d614-6aed-4821-8555-fd75c8d6c330","system_id":"levelo_inurba_marseille","lat":43.317075,"lon":5.377367,"is_reserved":false,"is_disabled":false,"rental_uris":{"android":"levelo://app?vid=de39d614-6aed-4821-8555-fd75c8d6c330","ios":"levelo://app?vid=de39d614-6aed-4821-8555-fd75c8d6c330"},"vehicle_type_id":"4","last_reported":1723576041,"current_range_meters":5200,"station_id":"ce4bgth2rcd13ifvqch0","pricing_plan_id":"cebpf4jnsgd1na2vs0mg"},{"bike_id":"9d8c28fc-c37c-4717-9680-3b0facbb3599","system_id":"levelo_inurba_marseille","lat":43.317075,"lon":5.377367,"is_reserved":false,"is_disabled":false,"rental_uris":{"android":"levelo://app?vid=9d8c28fc-c37c-4717-9680-3b0facbb3599","ios":"levelo://app?vid=9d8c28fc-c37c-4717-9680-3b0facbb3599"},"vehicle_type_id":"4","last_reported":1723576041,"current_range_meters":8800,"station_id":"ce4bgth2rcd13ifvqch0","pricing_plan_id":"cebpf4jnsgd1na2vs0mg"},{"bike_id":"4fef5692-bba9-460a-a774-7053515df4ac","system_id":"levelo_inurba_marseille","lat":43.31362,"lon":5.37915,"is_reserved":false,"is_disabled":false,"rental_uris":{"android":"levelo://app?vid=4fef5692-bba9-460a-a774-7053515df4ac","ios":"levelo://app?vid=4fef5692-bba9-460a-a774-7053515df4ac"},"vehicle_type_id":"4","last_reported":1723576041,"current_range_meters":4400,"station_id":"","pricing_plan_id":"cebpf4jnsgd1na2vs0mg"},{"bike_id":"069fb723-fcb8-440c-ad29-76ff4868d8a5","system_id":"levelo_inurba_marseille","lat":43.31359,"lon":5.37919,"is_reserved":false,"is_disabled":false,"rental_uris":{"android":"levelo://app?vid=069fb723-fcb8-440c-ad29-76ff4868d8a5","ios":"levelo://app?vid=069fb723-fcb8-440c-ad29-76ff4868d8a5"},"vehicle_type_id":"4","last_reported":1723576041,"current_range_meters":14400,"station_id":"","pricing_plan_id":"cebpf4jnsgd1na2vs0mg"},{"bike_id":"e7b2bf90-071a-497e-a7b8-5d577dec8dd8","system_id":"levelo_inurba_marseille","lat":43.3137,"lon":5.3792,"is_reserved":false,"is_disabled":false,"rental_uris":{"android":"levelo://app?vid=e7b2bf90-071a-497e-a7b8-5d577dec8dd8","ios":"levelo://app?vid=e7b2bf90-071a-497e-a7b8-5d577dec8dd8"},"vehicle_type_id":"4","last_reported":1723576041,"current_range_meters":17200,"station_id":"","pricing_plan_id":"cebpf4jnsgd1na2vs0mg"},{"bike_id":"e43d9e2c-9d56-4741-96c8-9ef311a5fe37","system_id":"levelo_inurba_marseille","lat":43.308693,"lon":5.37863,"is_reserved":false,"is_disabled":false,"rental_uris":{"android":"levelo://app?vid=e43d9e2c-9d56-4741-96c8-9ef311a5fe37","ios":"levelo://app?vid=e43d9e2c-9d56-4741-96c8-9ef311a5fe37"},"vehicle_type_id":"4","last_reported":1723576041,"current_range_meters":15200,"station_id":"","pricing_plan_id":"cebpf4jnsgd1na2vs0mg"},{"bike_id":"4f25aa95-a734-452b-9bf7-1657ebff2438","system_id":"levelo_inurba_marseille","lat":43.314189,"lon":5.380275,"is_reserved":false,"is_disabled":false,"rental_uris":{"android":"levelo://app?vid=4f25aa95-a734-452b-9bf7-1657ebff2438","ios":"levelo://app?vid=4f25aa95-a734-452b-9bf7-1657ebff2438"},"vehicle_type_id":"4","last_reported":1723576041,"current_range_meters":11200,"station_id":"","pricing_plan_id":"cebpf4jnsgd1na2vs0mg"},{"bike_id":"92a1c3a4-5393-45c4-9c50-5c0d0adcfb4b","system_id":"levelo_inurba_marseille","lat":43.315289,"lon":5.380349,"is_reserved":false,"is_disabled":false,"rental_uris":{"android":"levelo://app?vid=92a1c3a4-5393-45c4-9c50-5c0d0adcfb4b","ios":"levelo://app?vid=92a1c3a4-5393-45c4-9c50-5c0d0adcfb4b"},"vehicle_type_id":"4","last_reported":1723576041,"current_range_meters":0,"station_id":"ce4bhsp2rcd13ifvqi50","pricing_plan_id":"cebpf4jnsgd1na2vs0mg"},{"bike_id":"ab069b94-9bf1-406f-9029-fc2cb70bf7db","system_id":"levelo_inurba_marseille","lat":43.30193,"lon":5.366,"is_reserved":false,"is_disabled":false,"rental_uris":{"android":"levelo://app?vid=ab069b94-9bf1-406f-9029-fc2cb70bf7db","ios":"levelo://app?vid=ab069b94-9bf1-406f-9029-fc2cb70bf7db"},"vehicle_type_id":"4","last_reported":1723576041,"current_range_meters":29600,"station_id":"ce4bgrh2rcd13ifvqc8g","pricing_plan_id":"cebpf4jnsgd1na2vs0mg"},{"bike_id":"7f3d92ca-75ba-4d1d-a262-d9d0d530687b","system_id":"levelo_inurba_marseille","lat":43.301939,"lon":5.366286,"is_reserved":false,"is_disabled":false,"rental_uris":{"android":"levelo://app?vid=7f3d92ca-75ba-4d1d-a262-d9d0d530687b","ios":"levelo://app?vid=7f3d92ca-75ba-4d1d-a262-d9d0d530687b"},"vehicle_type_id":"4","last_reported":1723576041,"current_range_meters":400,"station_id":"ce4bgrh2rcd13ifvqc8g","pricing_plan_id":"cebpf4jnsgd1na2vs0mg"},{"bike_id":"6a341a44-5887-494c-aad8-cf7948d32d59","system_id":"levelo_inurba_marseille","lat":43.308012,"lon":5.381511,"is_reserved":false,"is_disabled":false,"rental_uris":{"android":"levelo://app?vid=6a341a44-5887-494c-aad8-cf7948d32d59","ios":"levelo://app?vid=6a341a44-5887-494c-aad8-cf7948d32d59"},"vehicle_type_id":"4","last_reported":1723576041,"current_range_meters":9600,"station_id":"ce4bgt12rcd13ifvqce0","pricing_plan_id":"cebpf4jnsgd1na2vs0mg"},{"bike_id":"7761b1e0-15e3-42b4-a8a5-98e7f59922ba","system_id":"levelo_inurba_marseille","lat":43.324771,"lon":5.36557,"is_reserved":false,"is_disabled":false,"rental_uris":{"android":"levelo://app?vid=7761b1e0-15e3-42b4-a8a5-98e7f59922ba","ios":"levelo://app?vid=7761b1e0-15e3-42b4-a8a5-98e7f59922ba"},"vehicle_type_id":"4","last_reported":1723576041,"current_range_meters":19200,"station_id":"ce4bhs12rcd13ifvqhvg","pricing_plan_id":"cebpf4jnsgd1na2vs0mg"},{"bike_id":"43ac8b57-ce6e-4c45-935f-2b37e08785dd","system_id":"levelo_inurba_marseille","lat":43.324771,"lon":5.36557,"is_reserved":false,"is_disabled":false,"rental_uris":{"android":"levelo://app?vid=43ac8b57-ce6e-4c45-935f-2b37e08785dd","ios":"levelo://app?vid=43ac8b57-ce6e-4c45-935f-2b37e08785dd"},"vehicle_type_id":"4","last_reported":1723576041,"current_range_meters":26000,"station_id":"ce4bhs12rcd13ifvqhvg","pricing_plan_id":"cebpf4jnsgd1na2vs0mg"},{"bike_id":"ec43ee6c-fdf1-46a8-bab9-a0712bf7de62","system_id":"levelo_inurba_marseille","lat":43.324771,"lon":5.36557,"is_reserved":false,"is_disabled":false,"rental_uris":{"android":"levelo://app?vid=ec43ee6c-fdf1-46a8-bab9-a0712bf7de62","ios":"levelo://app?vid=ec43ee6c-fdf1-46a8-bab9-a0712bf7de62"},"vehicle_type_id":"4","last_reported":1723576041,"current_range_meters":31200,"station_id":"ce4bhs12rcd13ifvqhvg","pricing_plan_id":"cebpf4jnsgd1na2vs0mg"},{"bike_id":"2384f629-5c9d-4d06-9eb4-81aeb9ed0de3","system_id":"levelo_inurba_marseille","lat":43.310804,"lon":5.38359,"is_reserved":false,"is_disabled":false,"rental_uris":{"android":"levelo://app?vid=2384f629-5c9d-4d06-9eb4-81aeb9ed0de3","ios":"levelo://app?vid=2384f629-5c9d-4d06-9eb4-81aeb9ed0de3"},"vehicle_type_id":"4","last_reported":1723576041,"current_range_meters":31200,"station_id":"ce4bgv92rcd13ifvqcr0","pricing_plan_id":"cebpf4jnsgd1na2vs0mg"},{"bike_id":"65b36211-1908-45d7-80bb-c0fa9628fd62","system_id":"levelo_inurba_marseille","lat":43.310804,"lon":5.38359,"is_reserved":false,"is_disabled":false,"rental_uris":{"android":"levelo://app?vid=65b36211-1908-45d7-80bb-c0fa9628fd62","ios":"levelo://app?vid=65b36211-1908-45d7-80bb-c0fa9628fd62"},"vehicle_type_id":"4","last_reported":1723576041,"current_range_meters":5600,"station_id":"ce4bgv92rcd13ifvqcr0","pricing_plan_id":"cebpf4jnsgd1na2vs0mg"},{"bike_id":"2b2e0e71-1cda-4b99-a466-6325ec5a5f24","system_id":"levelo_inurba_marseille","lat":43.301429,"lon":5.37413,"is_reserved":false,"is_disabled":false,"rental_uris":{"android":"levelo://app?vid=2b2e0e71-1cda-4b99-a466-6325ec5a5f24","ios":"levelo://app?vid=2b2e0e71-1cda-4b99-a466-6325ec5a5f24"},"vehicle_type_id":"4","last_reported":1723576041,"current_range_meters":12000,"station_id":"ce4bgs92rcd13ifvqcc0","pricing_plan_id":"cebpf4jnsgd1na2vs0mg"},{"bike_id":"12dbba97-a633-478f-b3e1-c7d94baa0068","system_id":"levelo_inurba_marseille","lat":43.302784,"lon":5.377158,"is_reserved":false,"is_disabled":false,"rental_uris":{"android":"levelo://app?vid=12dbba97-a633-478f-b3e1-c7d94baa0068","ios":"levelo://app?vid=12dbba97-a633-478f-b3e1-c7d94baa0068"},"vehicle_type_id":"4","last_reported":1723576041,"current_range_meters":2400,"station_id":"ce4bguh2rcd13ifvqcj0","pricing_plan_id":"cebpf4jnsgd1na2vs0mg"},{"bike_id":"12b99780-2045-44f6-9a8c-7099fee7df4e","system_id":"levelo_inurba_marseille","lat":43.319935,"lon":5.381699,"is_reserved":false,"is_disabled":false,"rental_uris":{"android":"levelo://app?vid=12b99780-2045-44f6-9a8c-7099fee7df4e","ios":"levelo://app?vid=12b99780-2045-44f6-9a8c-7099fee7df4e"},"vehicle_type_id":"4","last_reported":1723576041,"current_range_meters":4800,"station_id":"ce4bhr12rcd13ifvqhpg","pricing_plan_id":"cebpf4jnsgd1na2vs0mg"},{"bike_id":"9671cd8b-a854-4e00-bd63-f12dac177dd4","system_id":"levelo_inurba_marseille","lat":43.31361,"lon":5.38487,"is_reserved":false,"is_disabled":false,"rental_uris":{"android":"levelo://app?vid=9671cd8b-a854-4e00-bd63-f12dac177dd4","ios":"levelo://app?vid=9671cd8b-a854-4e00-bd63-f12dac177dd4"},"vehicle_type_id":"4","last_reported":1723576041,"current_range_meters":6000,"station_id":"ce4bgt92rcd13ifvqcf0","pricing_plan_id":"cebpf4jnsgd1na2vs0mg"},{"bike_id":"69abe6a1-ce61-48be-9f7a-43bce4ab0dff","system_id":"levelo_inurba_marseille","lat":43.313571,"lon":5.384829,"is_reserved":false,"is_disabled":false,"rental_uris":{"android":"levelo://app?vid=69abe6a1-ce61-48be-9f7a-43bce4ab0dff","ios":"levelo://app?vid=69abe6a1-ce61-48be-9f7a-43bce4ab0dff"},"vehicle_type_id":"4","last_reported":1723576041,"current_range_meters":30400,"station_id":"ce4bgt92rcd13ifvqcf0","pricing_plan_id":"cebpf4jnsgd1na2vs0mg"},{"bike_id":"bf1e3420-398a-45da-8d64-b82d8e5a8b86","system_id":"levelo_inurba_marseille","lat":43.299724,"lon":5.371829,"is_reserved":false,"is_disabled":false,"rental_uris":{"android":"levelo://app?vid=bf1e3420-398a-45da-8d64-b82d8e5a8b86","ios":"levelo://app?vid=bf1e3420-398a-45da-8d64-b82d8e5a8b86"},"vehicle_type_id":"4","last_reported":1723576041,"current_range_meters":13200,"station_id":"ce4bgr92rcd13ifvqc7g","pricing_plan_id":"cebpf4jnsgd1na2vs0mg"},{"bike_id":"46d09444-3255-49ce-9251-45e43b96391f","system_id":"levelo_inurba_marseille","lat":43.299222,"lon":5.365554,"is_reserved":false,"is_disabled":false,"rental_uris":{"android":"levelo://app?vid=46d09444-3255-49ce-9251-45e43b96391f","ios":"levelo://app?vid=46d09444-3255-49ce-9251-45e43b96391f"},"vehicle_type_id":"4","last_reported":1723576041,"current_range_meters":8800,"station_id":"ce4bgm92rcd13ifvqbr0","pricing_plan_id":"cebpf4jnsgd1na2vs0mg"},{"bike_id":"4462c483-6ad5-4b74-8229-63a007d9a945","system_id":"levelo_inurba_marseille","lat":43.32674,"lon":5.36722,"is_reserved":false,"is_disabled":false,"rental_uris":{"android":"levelo://app?vid=4462c483-6ad5-4b74-8229-63a007d9a945","ios":"levelo://app?vid=4462c483-6ad5-4b74-8229-63a007d9a945"},"vehicle_type_id":"4","last_reported":1723576041,"current_range_meters":15600,"station_id":"","pricing_plan_id":"cebpf4jnsgd1na2vs0mg"},{"bike_id":"0524fcfc-ce3a-4d21-93c8-5c5c937e83fd","system_id":"levelo_inurba_marseille","lat":43.30199,"lon":5.37963,"is_reserved":false,"is_disabled":false,"rental_uris":{"android":"levelo://app?vid=0524fcfc-ce3a-4d21-93c8-5c5c937e83fd","ios":"levelo://app?vid=0524fcfc-ce3a-4d21-93c8-5c5c937e83fd"},"vehicle_type_id":"4","last_reported":1723576041,"current_range_meters":15600,"station_id":"","pricing_plan_id":"cebpf4jnsgd1na2vs0mg"},{"bike_id":"3bd70456-db17-4ef3-b62d-e2a0a77da64f","system_id":"levelo_inurba_marseille","lat":43.311722,"lon":5.387247,"is_reserved":false,"is_disabled":false,"rental_uris":{"android":"levelo://app?vid=3bd70456-db17-4ef3-b62d-e2a0a77da64f","ios":"levelo://app?vid=3bd70456-db17-4ef3-b62d-e2a0a77da64f"},"vehicle_type_id":"4","last_reported":1723576041,"current_range_meters":15600,"station_id":"ce4bgv12rcd13ifvqcp0","pricing_plan_id":"cebpf4jnsgd1na2vs0mg"},{"bike_id":"ab0ac82b-e0f7-457a-a255-10a86a5c3d48","system_id":"levelo_inurba_marseille","lat":43.299243,"lon":5.37481,"is_reserved":false,"is_disabled":false,"rental_uris":{"android":"levelo://app?vid=ab0ac82b-e0f7-457a-a255-10a86a5c3d48","ios":"levelo://app?vid=ab0ac82b-e0f7-457a-a255-10a86a5c3d48"},"vehicle_type_id":"4","last_reported":1723576041,"current_range_meters":1200,"station_id":"ce4bgjh2rcd13ifvqbg0","pricing_plan_id":"cebpf4jnsgd1na2vs0mg"},{"bike_id":"195dd2e4-1653-4f19-b9ae-ecc417eaa0d7","system_id":"levelo_inurba_marseille","lat":43.299243,"lon":5.37481,"is_reserved":false,"is_disabled":false,"rental_uris":{"android":"levelo://app?vid=195dd2e4-1653-4f19-b9ae-ecc417eaa0d7","ios":"levelo://app?vid=195dd2e4-1653-4f19-b9ae-ecc417eaa0d7"},"vehicle_type_id":"4","last_reported":1723576041,"current_range_meters":7600,"station_id":"ce4bgjh2rcd13ifvqbg0","pricing_plan_id":"cebpf4jnsgd1na2vs0mg"},{"bike_id":"04cb7de7-81ab-45ac-8fc5-119ae53d25c2","system_id":"levelo_inurba_marseille","lat":43.311722,"lon":5.387247,"is_reserved":false,"is_disabled":false,"rental_uris":{"android":"levelo://app?vid=04cb7de7-81ab-45ac-8fc5-119ae53d25c2","ios":"levelo://app?vid=04cb7de7-81ab-45ac-8fc5-119ae53d25c2"},"vehicle_type_id":"4","last_reported":1723576041,"current_range_meters":8000,"station_id":"ce4bgv12rcd13ifvqcp0","pricing_plan_id":"cebpf4jnsgd1na2vs0mg"},{"bike_id":"62a0f379-f615-447f-92e9-bca20fdb598d","system_id":"levelo_inurba_marseille","lat":43.29913,"lon":5.3757,"is_reserved":false,"is_disabled":false,"rental_uris":{"android":"levelo://app?vid=62a0f379-f615-447f-92e9-bca20fdb598d","ios":"levelo://app?vid=62a0f379-f615-447f-92e9-bca20fdb598d"},"vehicle_type_id":"4","last_reported":1723576041,"current_range_meters":4800,"station_id":"","pricing_plan_id":"cebpf4jnsgd1na2vs0mg"},{"bike_id":"616f0a05-d513-4b8e-8e01-77c9129ddf11","system_id":"levelo_inurba_marseille","lat":43.297163,"lon":5.365866,"is_reserved":false,"is_disabled":false,"rental_uris":{"android":"levelo://app?vid=616f0a05-d513-4b8e-8e01-77c9129ddf11","ios":"levelo://app?vid=616f0a05-d513-4b8e-8e01-77c9129ddf11"},"vehicle_type_id":"4","last_reported":1723576041,"current_range_meters":12400,"station_id":"ce4bgn12rcd13ifvqbt0","pricing_plan_id":"cebpf4jnsgd1na2vs0mg"},{"bike_id":"b65afdfa-f971-471a-95a6-e33d4f2f3d55","system_id":"levelo_inurba_marseille","lat":43.296784,"lon":5.371968,"is_reserved":false,"is_disabled":false,"rental_uris":{"android":"levelo://app?vid=b65afdfa-f971-471a-95a6-e33d4f2f3d55","ios":"levelo://app?vid=b65afdfa-f971-471a-95a6-e33d4f2f3d55"},"vehicle_type_id":"4","last_reported":1723576041,"current_range_meters":12400,"station_id":"","pricing_plan_id":"cebpf4jnsgd1na2vs0mg"},{"bike_id":"3f4a7bea-7511-46ae-aed6-6b9a30102284","system_id":"levelo_inurba_marseille","lat":43.2968,"lon":5.37291,"is_reserved":false,"is_disabled":false,"rental_uris":{"android":"levelo://app?vid=3f4a7bea-7511-46ae-aed6-6b9a30102284","ios":"levelo://app?vid=3f4a7bea-7511-46ae-aed6-6b9a30102284"},"vehicle_type_id":"4","last_reported":1723576041,"current_range_meters":26000,"station_id":"ce4bgk12rcd13ifvqbj0","pricing_plan_id":"cebpf4jnsgd1na2vs0mg"},{"bike_id":"75975c98-0f69-4f17-bf41-6d186543e062","system_id":"levelo_inurba_marseille","lat":43.29623,"lon":5.37169,"is_reserved":false,"is_disabled":false,"rental_uris":{"android":"levelo://app?vid=75975c98-0f69-4f17-bf41-6d186543e062","ios":"levelo://app?vid=75975c98-0f69-4f17-bf41-6d186543e062"},"vehicle_type_id":"4","last_reported":1723576041,"current_range_meters":0,"station_id":"ce4bgnh2rcd13ifvqc0g","pricing_plan_id":"cebpf4jnsgd1na2vs0mg"},{"bike_id":"49204d73-6a09-43a6-8441-cb5af3a4f17d","system_id":"levelo_inurba_marseille","lat":43.32321,"lon":5.38527,"is_reserved":false,"is_disabled":false,"rental_uris":{"android":"levelo://app?vid=49204d73-6a09-43a6-8441-cb5af3a4f17d","ios":"levelo://app?vid=49204d73-6a09-43a6-8441-cb5af3a4f17d"},"vehicle_type_id":"4","last_reported":1723576041,"current_range_meters":7600,"station_id":"","pricing_plan_id":"cebpf4jnsgd1na2vs0mg"},{"bike_id":"fd056494-1ca0-48ee-8331-d1e443f55afc","system_id":"levelo_inurba_marseille","lat":43.323247,"lon":5.38526,"is_reserved":false,"is_disabled":false,"rental_uris":{"android":"levelo://app?vid=fd056494-1ca0-48ee-8331-d1e443f55afc","ios":"levelo://app?vid=fd056494-1ca0-48ee-8331-d1e443f55afc"},"vehicle_type_id":"4","last_reported":1723576041,"current_range_meters":19200,"station_id":"","pricing_plan_id":"cebpf4jnsgd1na2vs0mg"},{"bike_id":"cb8a98cb-0fd3-4e28-ae00-f8dabb497859","system_id":"levelo_inurba_marseille","lat":43.29572,"lon":5.36673,"is_reserved":false,"is_disabled":false,"rental_uris":{"android":"levelo://app?vid=cb8a98cb-0fd3-4e28-ae00-f8dabb497859","ios":"levelo://app?vid=cb8a98cb-0fd3-4e28-ae00-f8dabb497859"},"vehicle_type_id":"4","last_reported":1723576041,"current_range_meters":13200,"station_id":"","pricing_plan_id":"cebpf4jnsgd1na2vs0mg"},{"bike_id":"33011ba2-3273-4b0b-b63e-114fb4881baa","system_id":"levelo_inurba_marseille","lat":43.29714,"lon":5.37693,"is_reserved":false,"is_disabled":false,"rental_uris":{"android":"levelo://app?vid=33011ba2-3273-4b0b-b63e-114fb4881baa","ios":"levelo://app?vid=33011ba2-3273-4b0b-b63e-114fb4881baa"},"vehicle_type_id":"4","last_reported":1723576041,"current_range_meters":9600,"station_id":"ce4bgkh2rcd13ifvqbl0","pricing_plan_id":"cebpf4jnsgd1na2vs0mg"},{"bike_id":"724d30a2-2222-4068-971d-c395e00f7b9e","system_id":"levelo_inurba_marseille","lat":43.299028,"lon":5.381509,"is_reserved":false,"is_disabled":false,"rental_uris":{"android":"levelo://app?vid=724d30a2-2222-4068-971d-c395e00f7b9e","ios":"levelo://app?vid=724d30a2-2222-4068-971d-c395e00f7b9e"},"vehicle_type_id":"4","last_reported":1723576041,"current_range_meters":11200,"station_id":"ce4bgj12rcd13ifvqbc0","pricing_plan_id":"cebpf4jnsgd1na2vs0mg"},{"bike_id":"f72b8fd9-aa22-444e-a33b-044ba31efc0e","system_id":"levelo_inurba_marseille","lat":43.298037,"lon":5.381066,"is_reserved":false,"is_disabled":false,"rental_uris":{"android":"levelo://app?vid=f72b8fd9-aa22-444e-a33b-044ba31efc0e","ios":"levelo://app?vid=f72b8fd9-aa22-444e-a33b-044ba31efc0e"},"vehicle_type_id":"4","last_reported":1723576041,"current_range_meters":23600,"station_id":"ce4bgip2rcd13ifvqbb0","pricing_plan_id":"cebpf4jnsgd1na2vs0mg"},{"bike_id":"2a477520-4ca9-4f1b-b9ab-572688352119","system_id":"levelo_inurba_marseille","lat":43.298037,"lon":5.381066,"is_reserved":false,"is_disabled":false,"rental_uris":{"android":"levelo://app?vid=2a477520-4ca9-4f1b-b9ab-572688352119","ios":"levelo://app?vid=2a477520-4ca9-4f1b-b9ab-572688352119"},"vehicle_type_id":"4","last_reported":1723576041,"current_range_meters":28400,"station_id":"ce4bgip2rcd13ifvqbb0","pricing_plan_id":"cebpf4jnsgd1na2vs0mg"},{"bike_id":"a111719e-33a6-4a0c-b32f-801e44887d52","system_id":"levelo_inurba_marseille","lat":43.298037,"lon":5.381066,"is_reserved":false,"is_disabled":false,"rental_uris":{"android":"levelo://app?vid=a111719e-33a6-4a0c-b32f-801e44887d52","ios":"levelo://app?vid=a111719e-33a6-4a0c-b32f-801e44887d52"},"vehicle_type_id":"4","last_reported":1723576041,"current_range_meters":14400,"station_id":"ce4bgip2rcd13ifvqbb0","pricing_plan_id":"cebpf4jnsgd1na2vs0mg"},{"bike_id":"1d39513a-e80d-4321-8167-82e17fd70d57","system_id":"levelo_inurba_marseille","lat":43.298037,"lon":5.381066,"is_reserved":false,"is_disabled":false,"rental_uris":{"android":"levelo://app?vid=1d39513a-e80d-4321-8167-82e17fd70d57","ios":"levelo://app?vid=1d39513a-e80d-4321-8167-82e17fd70d57"},"vehicle_type_id":"4","last_reported":1723576041,"current_range_meters":4800,"station_id":"ce4bgip2rcd13ifvqbb0","pricing_plan_id":"cebpf4jnsgd1na2vs0mg"},{"bike_id":"d59fb961-b5b1-4c57-8f44-161d3666c96a","system_id":"levelo_inurba_marseille","lat":43.2958,"lon":5.37511,"is_reserved":false,"is_disabled":false,"rental_uris":{"android":"levelo://app?vid=d59fb961-b5b1-4c57-8f44-161d3666c96a","ios":"levelo://app?vid=d59fb961-b5b1-4c57-8f44-161d3666c96a"},"vehicle_type_id":"4","last_reported":1723576041,"current_range_meters":1600,"station_id":"ce4bgh92rcd13ifvqb50","pricing_plan_id":"cebpf4jnsgd1na2vs0mg"},{"bike_id":"c8bafb93-32d2-470e-ab3d-889644b5aea0","system_id":"levelo_inurba_marseille","lat":43.298037,"lon":5.381066,"is_reserved":false,"is_disabled":false,"rental_uris":{"android":"levelo://app?vid=c8bafb93-32d2-470e-ab3d-889644b5aea0","ios":"levelo://app?vid=c8bafb93-32d2-470e-ab3d-889644b5aea0"},"vehicle_type_id":"4","last_reported":1723576041,"current_range_meters":4000,"station_id":"ce4bgip2rcd13ifvqbb0","pricing_plan_id":"cebpf4jnsgd1na2vs0mg"},{"bike_id":"6d242f4d-80d1-4236-b199-701815743076","system_id":"levelo_inurba_marseille","lat":43.295748,"lon":5.37522,"is_reserved":false,"is_disabled":false,"rental_uris":{"android":"levelo://app?vid=6d242f4d-80d1-4236-b199-701815743076","ios":"levelo://app?vid=6d242f4d-80d1-4236-b199-701815743076"},"vehicle_type_id":"4","last_reported":1723576041,"current_range_meters":29600,"station_id":"ce4bgh92rcd13ifvqb50","pricing_plan_id":"cebpf4jnsgd1na2vs0mg"},{"bike_id":"cfbc4313-e45f-47a3-b8cb-2af37161d20d","system_id":"levelo_inurba_marseille","lat":43.295748,"lon":5.37522,"is_reserved":false,"is_disabled":false,"rental_uris":{"android":"levelo://app?vid=cfbc4313-e45f-47a3-b8cb-2af37161d20d","ios":"levelo://app?vid=cfbc4313-e45f-47a3-b8cb-2af37161d20d"},"vehicle_type_id":"4","last_reported":1723576041,"current_range_meters":23600,"station_id":"ce4bgh92rcd13ifvqb50","pricing_plan_id":"cebpf4jnsgd1na2vs0mg"},{"bike_id":"e42df713-3d12-40a2-9efb-829a584bbfc3","system_id":"levelo_inurba_marseille","lat":43.295748,"lon":5.37522,"is_reserved":false,"is_disabled":false,"rental_uris":{"android":"levelo://app?vid=e42df713-3d12-40a2-9efb-829a584bbfc3","ios":"levelo://app?vid=e42df713-3d12-40a2-9efb-829a584bbfc3"},"vehicle_type_id":"4","last_reported":1723576041,"current_range_meters":29600,"station_id":"ce4bgh92rcd13ifvqb50","pricing_plan_id":"cebpf4jnsgd1na2vs0mg"},{"bike_id":"4edaa9be-a581-4580-b85d-65a3258c981d","system_id":"levelo_inurba_marseille","lat":43.298037,"lon":5.381066,"is_reserved":false,"is_disabled":false,"rental_uris":{"android":"levelo://app?vid=4edaa9be-a581-4580-b85d-65a3258c981d","ios":"levelo://app?vid=4edaa9be-a581-4580-b85d-65a3258c981d"},"vehicle_type_id":"4","last_reported":1723576041,"current_range_meters":15600,"station_id":"ce4bgip2rcd13ifvqbb0","pricing_plan_id":"cebpf4jnsgd1na2vs0mg"},{"bike_id":"9572200b-cdae-4edb-9ddd-03bb75ce9c0f","system_id":"levelo_inurba_marseille","lat":43.296277,"lon":5.377108,"is_reserved":false,"is_disabled":false,"rental_uris":{"android":"levelo://app?vid=9572200b-cdae-4edb-9ddd-03bb75ce9c0f","ios":"levelo://app?vid=9572200b-cdae-4edb-9ddd-03bb75ce9c0f"},"vehicle_type_id":"4","last_reported":1723576041,"current_range_meters":16800,"station_id":"ce4bgi92rcd13ifvqb90","pricing_plan_id":"cebpf4jnsgd1na2vs0mg"},{"bike_id":"227aad63-cf31-4e77-86a6-27f2ec2112fe","system_id":"levelo_inurba_marseille","lat":43.295748,"lon":5.37522,"is_reserved":false,"is_disabled":false,"rental_uris":{"android":"levelo://app?vid=227aad63-cf31-4e77-86a6-27f2ec2112fe","ios":"levelo://app?vid=227aad63-cf31-4e77-86a6-27f2ec2112fe"},"vehicle_type_id":"4","last_reported":1723576041,"current_range_meters":26000,"station_id":"ce4bgh92rcd13ifvqb50","pricing_plan_id":"cebpf4jnsgd1na2vs0mg"},{"bike_id":"0973d721-9fd2-47f1-ab3b-0fba13feab2d","system_id":"levelo_inurba_marseille","lat":43.298037,"lon":5.381066,"is_reserved":false,"is_disabled":false,"rental_uris":{"android":"levelo://app?vid=0973d721-9fd2-47f1-ab3b-0fba13feab2d","ios":"levelo://app?vid=0973d721-9fd2-47f1-ab3b-0fba13feab2d"},"vehicle_type_id":"4","last_reported":1723576041,"current_range_meters":800,"station_id":"ce4bgip2rcd13ifvqbb0","pricing_plan_id":"cebpf4jnsgd1na2vs0mg"},{"bike_id":"76ba4fa6-99d0-4f93-97f4-f8f4cdf3d8db","system_id":"levelo_inurba_marseille","lat":43.295748,"lon":5.37522,"is_reserved":false,"is_disabled":false,"rental_uris":{"android":"levelo://app?vid=76ba4fa6-99d0-4f93-97f4-f8f4cdf3d8db","ios":"levelo://app?vid=76ba4fa6-99d0-4f93-97f4-f8f4cdf3d8db"},"vehicle_type_id":"4","last_reported":1723576041,"current_range_meters":23600,"station_id":"ce4bgh92rcd13ifvqb50","pricing_plan_id":"cebpf4jnsgd1na2vs0mg"},{"bike_id":"54d984e1-913f-49a7-8526-c1877a506a6b","system_id":"levelo_inurba_marseille","lat":43.295748,"lon":5.37522,"is_reserved":false,"is_disabled":false,"rental_uris":{"android":"levelo://app?vid=54d984e1-913f-49a7-8526-c1877a506a6b","ios":"levelo://app?vid=54d984e1-913f-49a7-8526-c1877a506a6b"},"vehicle_type_id":"4","last_reported":1723576041,"current_range_meters":17600,"station_id":"ce4bgh92rcd13ifvqb50","pricing_plan_id":"cebpf4jnsgd1na2vs0mg"},{"bike_id":"06d82265-f492-4717-8474-1f14c064ccb7","system_id":"levelo_inurba_marseille","lat":43.304274,"lon":5.388873,"is_reserved":false,"is_disabled":false,"rental_uris":{"android":"levelo://app?vid=06d82265-f492-4717-8474-1f14c064ccb7","ios":"levelo://app?vid=06d82265-f492-4717-8474-1f14c064ccb7"},"vehicle_type_id":"4","last_reported":1723576041,"current_range_meters":0,"station_id":"ce4bgk12rcd13ifvqbi0","pricing_plan_id":"cebpf4jnsgd1na2vs0mg"},{"bike_id":"b08dff04-59f7-48e8-af6c-184d4db3f6b5","system_id":"levelo_inurba_marseille","lat":43.296277,"lon":5.377108,"is_reserved":false,"is_disabled":false,"rental_uris":{"android":"levelo://app?vid=b08dff04-59f7-48e8-af6c-184d4db3f6b5","ios":"levelo://app?vid=b08dff04-59f7-48e8-af6c-184d4db3f6b5"},"vehicle_type_id":"4","last_reported":1723576041,"current_range_meters":31200,"station_id":"ce4bgi92rcd13ifvqb90","pricing_plan_id":"cebpf4jnsgd1na2vs0mg"},{"bike_id":"8bb0499a-b951-4002-8b25-b44df740b87a","system_id":"levelo_inurba_marseille","lat":43.296263,"lon":5.377094,"is_reserved":false,"is_disabled":false,"rental_uris":{"android":"levelo://app?vid=8bb0499a-b951-4002-8b25-b44df740b87a","ios":"levelo://app?vid=8bb0499a-b951-4002-8b25-b44df740b87a"},"vehicle_type_id":"4","last_reported":1723576041,"current_range_meters":31200,"station_id":"ce4bgi92rcd13ifvqb90","pricing_plan_id":"cebpf4jnsgd1na2vs0mg"},{"bike_id":"7df302d6-871f-4058-a427-3794e2124223","system_id":"levelo_inurba_marseille","lat":43.296263,"lon":5.377094,"is_reserved":false,"is_disabled":false,"rental_uris":{"android":"levelo://app?vid=7df302d6-871f-4058-a427-3794e2124223","ios":"levelo://app?vid=7df302d6-871f-4058-a427-3794e2124223"},"vehicle_type_id":"4","last_reported":1723576041,"current_range_meters":30400,"station_id":"ce4bgi92rcd13ifvqb90","pricing_plan_id":"cebpf4jnsgd1na2vs0mg"},{"bike_id":"cc36374c-653c-471a-9e80-fbffb8e5d357","system_id":"levelo_inurba_marseille","lat":43.304274,"lon":5.388873,"is_reserved":false,"is_disabled":false,"rental_uris":{"android":"levelo://app?vid=cc36374c-653c-471a-9e80-fbffb8e5d357","ios":"levelo://app?vid=cc36374c-653c-471a-9e80-fbffb8e5d357"},"vehicle_type_id":"4","last_reported":1723576041,"current_range_meters":0,"station_id":"ce4bgk12rcd13ifvqbi0","pricing_plan_id":"cebpf4jnsgd1na2vs0mg"},{"bike_id":"2f7bdf44-f46d-4c4e-aff4-d6fe7ea0be92","system_id":"levelo_inurba_marseille","lat":43.295404,"lon":5.375082,"is_reserved":false,"is_disabled":false,"rental_uris":{"android":"levelo://app?vid=2f7bdf44-f46d-4c4e-aff4-d6fe7ea0be92","ios":"levelo://app?vid=2f7bdf44-f46d-4c4e-aff4-d6fe7ea0be92"},"vehicle_type_id":"4","last_reported":1723576041,"current_range_meters":0,"station_id":"ce4bgkp2rcd13ifvqbmg","pricing_plan_id":"cebpf4jnsgd1na2vs0mg"},{"bike_id":"f9fcaa12-fe4c-4433-b860-31f22568ef75","system_id":"levelo_inurba_marseille","lat":43.299717,"lon":5.384845,"is_reserved":false,"is_disabled":false,"rental_uris":{"android":"levelo://app?vid=f9fcaa12-fe4c-4433-b860-31f22568ef75","ios":"levelo://app?vid=f9fcaa12-fe4c-4433-b860-31f22568ef75"},"vehicle_type_id":"4","last_reported":1723576041,"current_range_meters":20800,"station_id":"ce4bgj92rcd13ifvqbd0","pricing_plan_id":"cebpf4jnsgd1na2vs0mg"},{"bike_id":"3650b44a-c00e-48e8-a2ac-8e041a2fc7ef","system_id":"levelo_inurba_marseille","lat":43.29971,"lon":5.38491,"is_reserved":false,"is_disabled":false,"rental_uris":{"android":"levelo://app?vid=3650b44a-c00e-48e8-a2ac-8e041a2fc7ef","ios":"levelo://app?vid=3650b44a-c00e-48e8-a2ac-8e041a2fc7ef"},"vehicle_type_id":"4","last_reported":1723576041,"current_range_meters":0,"station_id":"ce4bgj92rcd13ifvqbd0","pricing_plan_id":"cebpf4jnsgd1na2vs0mg"},{"bike_id":"c07b519c-f875-4ca0-bcfe-ed1f132bf92a","system_id":"levelo_inurba_marseille","lat":43.299724,"lon":5.384848,"is_reserved":false,"is_disabled":false,"rental_uris":{"android":"levelo://app?vid=c07b519c-f875-4ca0-bcfe-ed1f132bf92a","ios":"levelo://app?vid=c07b519c-f875-4ca0-bcfe-ed1f132bf92a"},"vehicle_type_id":"4","last_reported":1723576041,"current_range_meters":0,"station_id":"ce4bgj92rcd13ifvqbd0","pricing_plan_id":"cebpf4jnsgd1na2vs0mg"},{"bike_id":"29a10862-65ba-49fa-a0dc-dbe4fc4f01dd","system_id":"levelo_inurba_marseille","lat":43.299717,"lon":5.384845,"is_reserved":false,"is_disabled":false,"rental_uris":{"android":"levelo://app?vid=29a10862-65ba-49fa-a0dc-dbe4fc4f01dd","ios":"levelo://app?vid=29a10862-65ba-49fa-a0dc-dbe4fc4f01dd"},"vehicle_type_id":"4","last_reported":1723576041,"current_range_meters":25600,"station_id":"ce4bgj92rcd13ifvqbd0","pricing_plan_id":"cebpf4jnsgd1na2vs0mg"},{"bike_id":"1cd024a9-485e-4935-b3f9-7dc2fb7a9ec8","system_id":"levelo_inurba_marseille","lat":43.299,"lon":5.38457,"is_reserved":false,"is_disabled":false,"rental_uris":{"android":"levelo://app?vid=1cd024a9-485e-4935-b3f9-7dc2fb7a9ec8","ios":"levelo://app?vid=1cd024a9-485e-4935-b3f9-7dc2fb7a9ec8"},"vehicle_type_id":"4","last_reported":1723576041,"current_range_meters":9600,"station_id":"","pricing_plan_id":"cebpf4jnsgd1na2vs0mg"},{"bike_id":"df4fd074-6dbc-4b01-87a5-f63dff555df3","system_id":"levelo_inurba_marseille","lat":43.30141,"lon":5.38772,"is_reserved":false,"is_disabled":false,"rental_uris":{"android":"levelo://app?vid=df4fd074-6dbc-4b01-87a5-f63dff555df3","ios":"levelo://app?vid=df4fd074-6dbc-4b01-87a5-f63dff555df3"},"vehicle_type_id":"4","last_reported":1723576041,"current_range_meters":31200,"station_id":"ce4bghh2rcd13ifvqb60","pricing_plan_id":"cebpf4jnsgd1na2vs0mg"},{"bike_id":"f1c08d9d-a337-4da3-a390-487de9d8cc05","system_id":"levelo_inurba_marseille","lat":43.301396,"lon":5.387812,"is_reserved":false,"is_disabled":false,"rental_uris":{"android":"levelo://app?vid=f1c08d9d-a337-4da3-a390-487de9d8cc05","ios":"levelo://app?vid=f1c08d9d-a337-4da3-a390-487de9d8cc05"},"vehicle_type_id":"4","last_reported":1723576041,"current_range_meters":31200,"station_id":"ce4bghh2rcd13ifvqb60","pricing_plan_id":"cebpf4jnsgd1na2vs0mg"},{"bike_id":"a985504f-a9d2-4239-b0e8-202e3b9c2d1e","system_id":"levelo_inurba_marseille","lat":43.30135,"lon":5.38778,"is_reserved":false,"is_disabled":false,"rental_uris":{"android":"levelo://app?vid=a985504f-a9d2-4239-b0e8-202e3b9c2d1e","ios":"levelo://app?vid=a985504f-a9d2-4239-b0e8-202e3b9c2d1e"},"vehicle_type_id":"4","last_reported":1723576041,"current_range_meters":6000,"station_id":"ce4bghh2rcd13ifvqb60","pricing_plan_id":"cebpf4jnsgd1na2vs0mg"},{"bike_id":"23e5f60c-1f1e-405d-869d-88ea76c9f57e","system_id":"levelo_inurba_marseille","lat":43.30139,"lon":5.38783,"is_reserved":false,"is_disabled":false,"rental_uris":{"android":"levelo://app?vid=23e5f60c-1f1e-405d-869d-88ea76c9f57e","ios":"levelo://app?vid=23e5f60c-1f1e-405d-869d-88ea76c9f57e"},"vehicle_type_id":"4","last_reported":1723576041,"current_range_meters":22800,"station_id":"","pricing_plan_id":"cebpf4jnsgd1na2vs0mg"},{"bike_id":"6c69e8d1-eb34-48d0-a799-086202d79286","system_id":"levelo_inurba_marseille","lat":43.301396,"lon":5.387812,"is_reserved":false,"is_disabled":false,"rental_uris":{"android":"levelo://app?vid=6c69e8d1-eb34-48d0-a799-086202d79286","ios":"levelo://app?vid=6c69e8d1-eb34-48d0-a799-086202d79286"},"vehicle_type_id":"4","last_reported":1723576041,"current_range_meters":2400,"station_id":"ce4bghh2rcd13ifvqb60","pricing_plan_id":"cebpf4jnsgd1na2vs0mg"},{"bike_id":"91df2db3-2b4a-4582-ae6b-66a249a02edf","system_id":"levelo_inurba_marseille","lat":43.30132,"lon":5.38778,"is_reserved":false,"is_disabled":false,"rental_uris":{"android":"levelo://app?vid=91df2db3-2b4a-4582-ae6b-66a249a02edf","ios":"levelo://app?vid=91df2db3-2b4a-4582-ae6b-66a249a02edf"},"vehicle_type_id":"4","last_reported":1723576041,"current_range_meters":7200,"station_id":"ce4bghh2rcd13ifvqb60","pricing_plan_id":"cebpf4jnsgd1na2vs0mg"},{"bike_id":"35f84bd0-75bd-4fff-80e1-295c51078003","system_id":"levelo_inurba_marseille","lat":43.323743,"lon":5.388748,"is_reserved":false,"is_disabled":false,"rental_uris":{"android":"levelo://app?vid=35f84bd0-75bd-4fff-80e1-295c51078003","ios":"levelo://app?vid=35f84bd0-75bd-4fff-80e1-295c51078003"},"vehicle_type_id":"4","last_reported":1723576041,"current_range_meters":3600,"station_id":"","pricing_plan_id":"cebpf4jnsgd1na2vs0mg"},{"bike_id":"820c9ad7-8a90-4879-83aa-cedb5b5f7a1f","system_id":"levelo_inurba_marseille","lat":43.304278,"lon":5.388868,"is_reserved":false,"is_disabled":false,"rental_uris":{"android":"levelo://app?vid=820c9ad7-8a90-4879-83aa-cedb5b5f7a1f","ios":"levelo://app?vid=820c9ad7-8a90-4879-83aa-cedb5b5f7a1f"},"vehicle_type_id":"4","last_reported":1723576041,"current_range_meters":10800,"station_id":"ce4bgk12rcd13ifvqbi0","pricing_plan_id":"cebpf4jnsgd1na2vs0mg"},{"bike_id":"c175905e-2091-48bc-97c0-3509d7728caa","system_id":"levelo_inurba_marseille","lat":43.32367,"lon":5.388836,"is_reserved":false,"is_disabled":false,"rental_uris":{"android":"levelo://app?vid=c175905e-2091-48bc-97c0-3509d7728caa","ios":"levelo://app?vid=c175905e-2091-48bc-97c0-3509d7728caa"},"vehicle_type_id":"4","last_reported":1723576041,"current_range_meters":0,"station_id":"ce4bhqp2rcd13ifvqhog","pricing_plan_id":"cebpf4jnsgd1na2vs0mg"},{"bike_id":"e9b88f23-19be-46c4-abd9-011c02422e04","system_id":"levelo_inurba_marseille","lat":43.32367,"lon":5.388836,"is_reserved":false,"is_disabled":false,"rental_uris":{"android":"levelo://app?vid=e9b88f23-19be-46c4-abd9-011c02422e04","ios":"levelo://app?vid=e9b88f23-19be-46c4-abd9-011c02422e04"},"vehicle_type_id":"4","last_reported":1723576041,"current_range_meters":4800,"station_id":"ce4bhqp2rcd13ifvqhog","pricing_plan_id":"cebpf4jnsgd1na2vs0mg"},{"bike_id":"417cc149-7502-4acd-ab91-fbe4307b0c7f","system_id":"levelo_inurba_marseille","lat":43.29602,"lon":5.381084,"is_reserved":false,"is_disabled":false,"rental_uris":{"android":"levelo://app?vid=417cc149-7502-4acd-ab91-fbe4307b0c7f","ios":"levelo://app?vid=417cc149-7502-4acd-ab91-fbe4307b0c7f"},"vehicle_type_id":"4","last_reported":1723576041,"current_range_meters":4000,"station_id":"ce4bgl12rcd13ifvqbo0","pricing_plan_id":"cebpf4jnsgd1na2vs0mg"},{"bike_id":"7d06f3e7-0594-4ef1-8be2-f9459a1aecbd","system_id":"levelo_inurba_marseille","lat":43.29601,"lon":5.38097,"is_reserved":false,"is_disabled":false,"rental_uris":{"android":"levelo://app?vid=7d06f3e7-0594-4ef1-8be2-f9459a1aecbd","ios":"levelo://app?vid=7d06f3e7-0594-4ef1-8be2-f9459a1aecbd"},"vehicle_type_id":"4","last_reported":1723576041,"current_range_meters":30800,"station_id":"ce4bgl12rcd13ifvqbo0","pricing_plan_id":"cebpf4jnsgd1na2vs0mg"},{"bike_id":"267017d7-3cd7-4629-969c-2839e289d33a","system_id":"levelo_inurba_marseille","lat":43.29602,"lon":5.381084,"is_reserved":false,"is_disabled":false,"rental_uris":{"android":"levelo://app?vid=267017d7-3cd7-4629-969c-2839e289d33a","ios":"levelo://app?vid=267017d7-3cd7-4629-969c-2839e289d33a"},"vehicle_type_id":"4","last_reported":1723576041,"current_range_meters":3600,"station_id":"ce4bgl12rcd13ifvqbo0","pricing_plan_id":"cebpf4jnsgd1na2vs0mg"},{"bike_id":"ea3ee229-4a96-40d7-8319-acad7fdb35f7","system_id":"levelo_inurba_marseille","lat":43.295973,"lon":5.38103,"is_reserved":false,"is_disabled":false,"rental_uris":{"android":"levelo://app?vid=ea3ee229-4a96-40d7-8319-acad7fdb35f7","ios":"levelo://app?vid=ea3ee229-4a96-40d7-8319-acad7fdb35f7"},"vehicle_type_id":"4","last_reported":1723576041,"current_range_meters":31200,"station_id":"ce4bgl12rcd13ifvqbo0","pricing_plan_id":"cebpf4jnsgd1na2vs0mg"},{"bike_id":"93c779d2-9ccc-4864-a159-546017df8ca6","system_id":"levelo_inurba_marseille","lat":43.2959,"lon":5.381017,"is_reserved":false,"is_disabled":false,"rental_uris":{"android":"levelo://app?vid=93c779d2-9ccc-4864-a159-546017df8ca6","ios":"levelo://app?vid=93c779d2-9ccc-4864-a159-546017df8ca6"},"vehicle_type_id":"4","last_reported":1723576041,"current_range_meters":7200,"station_id":"ce4bgl12rcd13ifvqbo0","pricing_plan_id":"cebpf4jnsgd1na2vs0mg"},{"bike_id":"a84b53dc-4b0d-4436-affc-43d5919f0071","system_id":"levelo_inurba_marseille","lat":43.299028,"lon":5.381509,"is_reserved":false,"is_disabled":false,"rental_uris":{"android":"levelo://app?vid=a84b53dc-4b0d-4436-affc-43d5919f0071","ios":"levelo://app?vid=a84b53dc-4b0d-4436-affc-43d5919f0071"},"vehicle_type_id":"4","last_reported":1723576041,"current_range_meters":2000,"station_id":"ce4bgj12rcd13ifvqbc0","pricing_plan_id":"cebpf4jnsgd1na2vs0mg"},{"bike_id":"6e17a20b-6a22-4d37-aa1b-708cc535175f","system_id":"levelo_inurba_marseille","lat":43.292749,"lon":5.368398,"is_reserved":false,"is_disabled":false,"rental_uris":{"android":"levelo://app?vid=6e17a20b-6a22-4d37-aa1b-708cc535175f","ios":"levelo://app?vid=6e17a20b-6a22-4d37-aa1b-708cc535175f"},"vehicle_type_id":"4","last_reported":1723576041,"current_range_meters":31200,"station_id":"ce4bhbp2rcd13ifvqesg","pricing_plan_id":"cebpf4jnsgd1na2vs0mg"},{"bike_id":"fa47a6d5-4dba-4c4a-a006-75d1f998eb99","system_id":"levelo_inurba_marseille","lat":43.292749,"lon":5.368402,"is_reserved":false,"is_disabled":false,"rental_uris":{"android":"levelo://app?vid=fa47a6d5-4dba-4c4a-a006-75d1f998eb99","ios":"levelo://app?vid=fa47a6d5-4dba-4c4a-a006-75d1f998eb99"},"vehicle_type_id":"4","last_reported":1723576041,"current_range_meters":9200,"station_id":"ce4bhbp2rcd13ifvqesg","pricing_plan_id":"cebpf4jnsgd1na2vs0mg"},{"bike_id":"39265247-7b4c-461d-853b-a4a861ce5417","system_id":"levelo_inurba_marseille","lat":43.292749,"lon":5.368398,"is_reserved":false,"is_disabled":false,"rental_uris":{"android":"levelo://app?vid=39265247-7b4c-461d-853b-a4a861ce5417","ios":"levelo://app?vid=39265247-7b4c-461d-853b-a4a861ce5417"},"vehicle_type_id":"4","last_reported":1723576041,"current_range_meters":14400,"station_id":"ce4bhbp2rcd13ifvqesg","pricing_plan_id":"cebpf4jnsgd1na2vs0mg"},{"bike_id":"62c6fb45-961b-4516-a4ed-0141a6bdbf94","system_id":"levelo_inurba_marseille","lat":43.293259,"lon":5.371586,"is_reserved":false,"is_disabled":false,"rental_uris":{"android":"levelo://app?vid=62c6fb45-961b-4516-a4ed-0141a6bdbf94","ios":"levelo://app?vid=62c6fb45-961b-4516-a4ed-0141a6bdbf94"},"vehicle_type_id":"4","last_reported":1723576041,"current_range_meters":28000,"station_id":"ce4bgh92rcd13ifvqb40","pricing_plan_id":"cebpf4jnsgd1na2vs0mg"},{"bike_id":"c03aa563-27f7-4c81-8f87-fb5d0987115d","system_id":"levelo_inurba_marseille","lat":43.292749,"lon":5.368402,"is_reserved":false,"is_disabled":false,"rental_uris":{"android":"levelo://app?vid=c03aa563-27f7-4c81-8f87-fb5d0987115d","ios":"levelo://app?vid=c03aa563-27f7-4c81-8f87-fb5d0987115d"},"vehicle_type_id":"4","last_reported":1723576041,"current_range_meters":28000,"station_id":"ce4bhbp2rcd13ifvqesg","pricing_plan_id":"cebpf4jnsgd1na2vs0mg"},{"bike_id":"14644bd0-fdaf-47d7-9d34-0de6be2e68b3","system_id":"levelo_inurba_marseille","lat":43.293259,"lon":5.371586,"is_reserved":false,"is_disabled":false,"rental_uris":{"android":"levelo://app?vid=14644bd0-fdaf-47d7-9d34-0de6be2e68b3","ios":"levelo://app?vid=14644bd0-fdaf-47d7-9d34-0de6be2e68b3"},"vehicle_type_id":"4","last_reported":1723576041,"current_range_meters":28000,"station_id":"ce4bgh92rcd13ifvqb40","pricing_plan_id":"cebpf4jnsgd1na2vs0mg"},{"bike_id":"6e842464-a7ba-491e-8fa3-39a7c2fbc11e","system_id":"levelo_inurba_marseille","lat":43.293259,"lon":5.371586,"is_reserved":false,"is_disabled":false,"rental_uris":{"android":"levelo://app?vid=6e842464-a7ba-491e-8fa3-39a7c2fbc11e","ios":"levelo://app?vid=6e842464-a7ba-491e-8fa3-39a7c2fbc11e"},"vehicle_type_id":"4","last_reported":1723576041,"current_range_meters":8800,"station_id":"ce4bgh92rcd13ifvqb40","pricing_plan_id":"cebpf4jnsgd1na2vs0mg"},{"bike_id":"da133975-3bcd-4f7e-8f06-d21ae9cb02a2","system_id":"levelo_inurba_marseille","lat":43.29279,"lon":5.36844,"is_reserved":false,"is_disabled":false,"rental_uris":{"android":"levelo://app?vid=da133975-3bcd-4f7e-8f06-d21ae9cb02a2","ios":"levelo://app?vid=da133975-3bcd-4f7e-8f06-d21ae9cb02a2"},"vehicle_type_id":"4","last_reported":1723576041,"current_range_meters":31200,"station_id":"ce4bhbp2rcd13ifvqesg","pricing_plan_id":"cebpf4jnsgd1na2vs0mg"},{"bike_id":"9d4ac7c4-1162-4e7b-9e75-f5a3f9615ddb","system_id":"levelo_inurba_marseille","lat":43.293259,"lon":5.371586,"is_reserved":false,"is_disabled":false,"rental_uris":{"android":"levelo://app?vid=9d4ac7c4-1162-4e7b-9e75-f5a3f9615ddb","ios":"levelo://app?vid=9d4ac7c4-1162-4e7b-9e75-f5a3f9615ddb"},"vehicle_type_id":"4","last_reported":1723576041,"current_range_meters":15200,"station_id":"ce4bgh92rcd13ifvqb40","pricing_plan_id":"cebpf4jnsgd1na2vs0mg"},{"bike_id":"b94ac1f9-8d42-4121-b3d0-39cf600c5bee","system_id":"levelo_inurba_marseille","lat":43.29277,"lon":5.36836,"is_reserved":false,"is_disabled":false,"rental_uris":{"android":"levelo://app?vid=b94ac1f9-8d42-4121-b3d0-39cf600c5bee","ios":"levelo://app?vid=b94ac1f9-8d42-4121-b3d0-39cf600c5bee"},"vehicle_type_id":"4","last_reported":1723576041,"current_range_meters":31200,"station_id":"ce4bhbp2rcd13ifvqesg","pricing_plan_id":"cebpf4jnsgd1na2vs0mg"},{"bike_id":"c3d23337-1df0-4129-9ab2-e8cd33330a60","system_id":"levelo_inurba_marseille","lat":43.292749,"lon":5.368398,"is_reserved":false,"is_disabled":false,"rental_uris":{"android":"levelo://app?vid=c3d23337-1df0-4129-9ab2-e8cd33330a60","ios":"levelo://app?vid=c3d23337-1df0-4129-9ab2-e8cd33330a60"},"vehicle_type_id":"4","last_reported":1723576041,"current_range_meters":30400,"station_id":"ce4bhbp2rcd13ifvqesg","pricing_plan_id":"cebpf4jnsgd1na2vs0mg"},{"bike_id":"82bdb2ba-129a-44eb-94bb-a62d580afacd","system_id":"levelo_inurba_marseille","lat":43.292749,"lon":5.368398,"is_reserved":false,"is_disabled":false,"rental_uris":{"android":"levelo://app?vid=82bdb2ba-129a-44eb-94bb-a62d580afacd","ios":"levelo://app?vid=82bdb2ba-129a-44eb-94bb-a62d580afacd"},"vehicle_type_id":"4","last_reported":1723576041,"current_range_meters":28800,"station_id":"ce4bhbp2rcd13ifvqesg","pricing_plan_id":"cebpf4jnsgd1na2vs0mg"},{"bike_id":"717c0f9f-a377-4326-92c6-8ab487dd412a","system_id":"levelo_inurba_marseille","lat":43.293259,"lon":5.371586,"is_reserved":false,"is_disabled":false,"rental_uris":{"android":"levelo://app?vid=717c0f9f-a377-4326-92c6-8ab487dd412a","ios":"levelo://app?vid=717c0f9f-a377-4326-92c6-8ab487dd412a"},"vehicle_type_id":"4","last_reported":1723576041,"current_range_meters":27200,"station_id":"ce4bgh92rcd13ifvqb40","pricing_plan_id":"cebpf4jnsgd1na2vs0mg"},{"bike_id":"8915a181-6598-4f3f-b5c7-77bbd9f024b2","system_id":"levelo_inurba_marseille","lat":43.293259,"lon":5.371586,"is_reserved":false,"is_disabled":false,"rental_uris":{"android":"levelo://app?vid=8915a181-6598-4f3f-b5c7-77bbd9f024b2","ios":"levelo://app?vid=8915a181-6598-4f3f-b5c7-77bbd9f024b2"},"vehicle_type_id":"4","last_reported":1723576041,"current_range_meters":26800,"station_id":"ce4bgh92rcd13ifvqb40","pricing_plan_id":"cebpf4jnsgd1na2vs0mg"},{"bike_id":"de80611f-879f-42a6-be4c-ec3bf008b46a","system_id":"levelo_inurba_marseille","lat":43.292749,"lon":5.368398,"is_reserved":false,"is_disabled":false,"rental_uris":{"android":"levelo://app?vid=de80611f-879f-42a6-be4c-ec3bf008b46a","ios":"levelo://app?vid=de80611f-879f-42a6-be4c-ec3bf008b46a"},"vehicle_type_id":"4","last_reported":1723576041,"current_range_meters":29600,"station_id":"ce4bhbp2rcd13ifvqesg","pricing_plan_id":"cebpf4jnsgd1na2vs0mg"},{"bike_id":"769e8b8b-85bc-4d57-b3b3-ef330809cee4","system_id":"levelo_inurba_marseille","lat":43.293259,"lon":5.371586,"is_reserved":false,"is_disabled":false,"rental_uris":{"android":"levelo://app?vid=769e8b8b-85bc-4d57-b3b3-ef330809cee4","ios":"levelo://app?vid=769e8b8b-85bc-4d57-b3b3-ef330809cee4"},"vehicle_type_id":"4","last_reported":1723576041,"current_range_meters":9600,"station_id":"ce4bgh92rcd13ifvqb40","pricing_plan_id":"cebpf4jnsgd1na2vs0mg"},{"bike_id":"96543af9-7889-48bf-9d6b-0217d99ec8c1","system_id":"levelo_inurba_marseille","lat":43.2927,"lon":5.36842,"is_reserved":false,"is_disabled":false,"rental_uris":{"android":"levelo://app?vid=96543af9-7889-48bf-9d6b-0217d99ec8c1","ios":"levelo://app?vid=96543af9-7889-48bf-9d6b-0217d99ec8c1"},"vehicle_type_id":"4","last_reported":1723576041,"current_range_meters":0,"station_id":"ce4bhbp2rcd13ifvqesg","pricing_plan_id":"cebpf4jnsgd1na2vs0mg"},{"bike_id":"04f60b4b-d871-417c-bace-72248366dc2e","system_id":"levelo_inurba_marseille","lat":43.292749,"lon":5.368402,"is_reserved":false,"is_disabled":false,"rental_uris":{"android":"levelo://app?vid=04f60b4b-d871-417c-bace-72248366dc2e","ios":"levelo://app?vid=04f60b4b-d871-417c-bace-72248366dc2e"},"vehicle_type_id":"4","last_reported":1723576041,"current_range_meters":30400,"station_id":"ce4bhbp2rcd13ifvqesg","pricing_plan_id":"cebpf4jnsgd1na2vs0mg"},{"bike_id":"eb4610b3-963c-4f9e-9e52-b1f62f47a354","system_id":"levelo_inurba_marseille","lat":43.32387,"lon":5.38996,"is_reserved":false,"is_disabled":false,"rental_uris":{"android":"levelo://app?vid=eb4610b3-963c-4f9e-9e52-b1f62f47a354","ios":"levelo://app?vid=eb4610b3-963c-4f9e-9e52-b1f62f47a354"},"vehicle_type_id":"4","last_reported":1723576041,"current_range_meters":2000,"station_id":"","pricing_plan_id":"cebpf4jnsgd1na2vs0mg"},{"bike_id":"e275a416-a2e0-4f6e-a7aa-05af0f31ec6b","system_id":"levelo_inurba_marseille","lat":43.29264,"lon":5.36838,"is_reserved":false,"is_disabled":false,"rental_uris":{"android":"levelo://app?vid=e275a416-a2e0-4f6e-a7aa-05af0f31ec6b","ios":"levelo://app?vid=e275a416-a2e0-4f6e-a7aa-05af0f31ec6b"},"vehicle_type_id":"4","last_reported":1723576041,"current_range_meters":1200,"station_id":"ce4bhbp2rcd13ifvqesg","pricing_plan_id":"cebpf4jnsgd1na2vs0mg"},{"bike_id":"2140ce9b-dc3a-4351-82ef-1241f9a589d8","system_id":"levelo_inurba_marseille","lat":43.29602,"lon":5.381084,"is_reserved":false,"is_disabled":false,"rental_uris":{"android":"levelo://app?vid=2140ce9b-dc3a-4351-82ef-1241f9a589d8","ios":"levelo://app?vid=2140ce9b-dc3a-4351-82ef-1241f9a589d8"},"vehicle_type_id":"4","last_reported":1723576041,"current_range_meters":7200,"station_id":"ce4bgl12rcd13ifvqbo0","pricing_plan_id":"cebpf4jnsgd1na2vs0mg"},{"bike_id":"0e2b7849-cddc-48a4-86e6-30a5e0774497","system_id":"levelo_inurba_marseille","lat":43.29306,"lon":5.37459,"is_reserved":false,"is_disabled":false,"rental_uris":{"android":"levelo://app?vid=0e2b7849-cddc-48a4-86e6-30a5e0774497","ios":"levelo://app?vid=0e2b7849-cddc-48a4-86e6-30a5e0774497"},"vehicle_type_id":"4","last_reported":1723576041,"current_range_meters":1200,"station_id":"ce4bgi12rcd13ifvqb70","pricing_plan_id":"cebpf4jnsgd1na2vs0mg"},{"bike_id":"688b3f01-cad1-4e95-bdc6-f974f43a6aec","system_id":"levelo_inurba_marseille","lat":43.29301,"lon":5.37445,"is_reserved":false,"is_disabled":false,"rental_uris":{"android":"levelo://app?vid=688b3f01-cad1-4e95-bdc6-f974f43a6aec","ios":"levelo://app?vid=688b3f01-cad1-4e95-bdc6-f974f43a6aec"},"vehicle_type_id":"4","last_reported":1723576041,"current_range_meters":4800,"station_id":"ce4bgi12rcd13ifvqb70","pricing_plan_id":"cebpf4jnsgd1na2vs0mg"},{"bike_id":"92ced45b-2469-4ffd-bed2-b67bde85ffdf","system_id":"levelo_inurba_marseille","lat":43.29294,"lon":5.37441,"is_reserved":false,"is_disabled":false,"rental_uris":{"android":"levelo://app?vid=92ced45b-2469-4ffd-bed2-b67bde85ffdf","ios":"levelo://app?vid=92ced45b-2469-4ffd-bed2-b67bde85ffdf"},"vehicle_type_id":"4","last_reported":1723576041,"current_range_meters":0,"station_id":"ce4bgi12rcd13ifvqb70","pricing_plan_id":"cebpf4jnsgd1na2vs0mg"},{"bike_id":"41dec2ff-f3bf-48dd-a56e-d5b0b2886304","system_id":"levelo_inurba_marseille","lat":43.29296,"lon":5.37466,"is_reserved":false,"is_disabled":false,"rental_uris":{"android":"levelo://app?vid=41dec2ff-f3bf-48dd-a56e-d5b0b2886304","ios":"levelo://app?vid=41dec2ff-f3bf-48dd-a56e-d5b0b2886304"},"vehicle_type_id":"4","last_reported":1723576041,"current_range_meters":31200,"station_id":"ce4bgi12rcd13ifvqb70","pricing_plan_id":"cebpf4jnsgd1na2vs0mg"},{"bike_id":"00128144-665c-4bf6-be0f-675414b10c4d","system_id":"levelo_inurba_marseille","lat":43.292948,"lon":5.374644,"is_reserved":false,"is_disabled":false,"rental_uris":{"android":"levelo://app?vid=00128144-665c-4bf6-be0f-675414b10c4d","ios":"levelo://app?vid=00128144-665c-4bf6-be0f-675414b10c4d"},"vehicle_type_id":"4","last_reported":1723576041,"current_range_meters":3200,"station_id":"","pricing_plan_id":"cebpf4jnsgd1na2vs0mg"},{"bike_id":"4b0341d9-8da7-44a0-a51f-d5be6fd101b6","system_id":"levelo_inurba_marseille","lat":43.302918,"lon":5.391993,"is_reserved":false,"is_disabled":false,"rental_uris":{"android":"levelo://app?vid=4b0341d9-8da7-44a0-a51f-d5be6fd101b6","ios":"levelo://app?vid=4b0341d9-8da7-44a0-a51f-d5be6fd101b6"},"vehicle_type_id":"4","last_reported":1723576041,"current_range_meters":28000,"station_id":"ce4bgkh2rcd13ifvqbk0","pricing_plan_id":"cebpf4jnsgd1na2vs0mg"},{"bike_id":"76905a84-bd4d-472e-8843-df06ca3a96f2","system_id":"levelo_inurba_marseille","lat":43.303002,"lon":5.392142,"is_reserved":false,"is_disabled":false,"rental_uris":{"android":"levelo://app?vid=76905a84-bd4d-472e-8843-df06ca3a96f2","ios":"levelo://app?vid=76905a84-bd4d-472e-8843-df06ca3a96f2"},"vehicle_type_id":"4","last_reported":1723576041,"current_range_meters":13200,"station_id":"ce4bgkh2rcd13ifvqbk0","pricing_plan_id":"cebpf4jnsgd1na2vs0mg"},{"bike_id":"19d77829-7834-49a1-8944-e06b5ce22dfa","system_id":"levelo_inurba_marseille","lat":43.2936,"lon":5.37835,"is_reserved":false,"is_disabled":false,"rental_uris":{"android":"levelo://app?vid=19d77829-7834-49a1-8944-e06b5ce22dfa","ios":"levelo://app?vid=19d77829-7834-49a1-8944-e06b5ce22dfa"},"vehicle_type_id":"4","last_reported":1723576041,"current_range_meters":29200,"station_id":"ce4bgjh2rcd13ifvqbf0","pricing_plan_id":"cebpf4jnsgd1na2vs0mg"},{"bike_id":"043a9a4b-f53d-44d6-9f94-1d58b45b63b0","system_id":"levelo_inurba_marseille","lat":43.2936,"lon":5.37835,"is_reserved":false,"is_disabled":false,"rental_uris":{"android":"levelo://app?vid=043a9a4b-f53d-44d6-9f94-1d58b45b63b0","ios":"levelo://app?vid=043a9a4b-f53d-44d6-9f94-1d58b45b63b0"},"vehicle_type_id":"4","last_reported":1723576041,"current_range_meters":0,"station_id":"ce4bgjh2rcd13ifvqbf0","pricing_plan_id":"cebpf4jnsgd1na2vs0mg"},{"bike_id":"ac96c81a-96f0-43a7-abe7-9acf682e5c76","system_id":"levelo_inurba_marseille","lat":43.2936,"lon":5.37835,"is_reserved":false,"is_disabled":false,"rental_uris":{"android":"levelo://app?vid=ac96c81a-96f0-43a7-abe7-9acf682e5c76","ios":"levelo://app?vid=ac96c81a-96f0-43a7-abe7-9acf682e5c76"},"vehicle_type_id":"4","last_reported":1723576041,"current_range_meters":26000,"station_id":"ce4bgjh2rcd13ifvqbf0","pricing_plan_id":"cebpf4jnsgd1na2vs0mg"},{"bike_id":"1028f04f-d7b4-4c08-b901-8c8694854d47","system_id":"levelo_inurba_marseille","lat":43.2936,"lon":5.37835,"is_reserved":false,"is_disabled":false,"rental_uris":{"android":"levelo://app?vid=1028f04f-d7b4-4c08-b901-8c8694854d47","ios":"levelo://app?vid=1028f04f-d7b4-4c08-b901-8c8694854d47"},"vehicle_type_id":"4","last_reported":1723576041,"current_range_meters":28400,"station_id":"ce4bgjh2rcd13ifvqbf0","pricing_plan_id":"cebpf4jnsgd1na2vs0mg"},{"bike_id":"26da8075-3637-4058-9ae7-9982231e69ea","system_id":"levelo_inurba_marseille","lat":43.2936,"lon":5.37835,"is_reserved":false,"is_disabled":false,"rental_uris":{"android":"levelo://app?vid=26da8075-3637-4058-9ae7-9982231e69ea","ios":"levelo://app?vid=26da8075-3637-4058-9ae7-9982231e69ea"},"vehicle_type_id":"4","last_reported":1723576041,"current_range_meters":7600,"station_id":"ce4bgjh2rcd13ifvqbf0","pricing_plan_id":"cebpf4jnsgd1na2vs0mg"},{"bike_id":"625fad73-7195-4b3d-8a57-997f5093a86d","system_id":"levelo_inurba_marseille","lat":43.292311,"lon":5.360731,"is_reserved":false,"is_disabled":false,"rental_uris":{"android":"levelo://app?vid=625fad73-7195-4b3d-8a57-997f5093a86d","ios":"levelo://app?vid=625fad73-7195-4b3d-8a57-997f5093a86d"},"vehicle_type_id":"4","last_reported":1723576041,"current_range_meters":0,"station_id":"ce4bhbh2rcd13ifvqeqg","pricing_plan_id":"cebpf4jnsgd1na2vs0mg"},{"bike_id":"bb3249db-487a-4de7-8d07-d6658dc89181","system_id":"levelo_inurba_marseille","lat":43.30085,"lon":5.390856,"is_reserved":false,"is_disabled":false,"rental_uris":{"android":"levelo://app?vid=bb3249db-487a-4de7-8d07-d6658dc89181","ios":"levelo://app?vid=bb3249db-487a-4de7-8d07-d6658dc89181"},"vehicle_type_id":"4","last_reported":1723576041,"current_range_meters":6000,"station_id":"ce4bh192rcd13ifvqdb0","pricing_plan_id":"cebpf4jnsgd1na2vs0mg"},{"bike_id":"01e119df-632b-45b8-9c07-63fc625f5c24","system_id":"levelo_inurba_marseille","lat":43.30085,"lon":5.390856,"is_reserved":false,"is_disabled":false,"rental_uris":{"android":"levelo://app?vid=01e119df-632b-45b8-9c07-63fc625f5c24","ios":"levelo://app?vid=01e119df-632b-45b8-9c07-63fc625f5c24"},"vehicle_type_id":"4","last_reported":1723576041,"current_range_meters":0,"station_id":"ce4bh192rcd13ifvqdb0","pricing_plan_id":"cebpf4jnsgd1na2vs0mg"},{"bike_id":"d966142d-b2cc-49a5-9d56-434d45837c7f","system_id":"levelo_inurba_marseille","lat":43.29221,"lon":5.36045,"is_reserved":false,"is_disabled":false,"rental_uris":{"android":"levelo://app?vid=d966142d-b2cc-49a5-9d56-434d45837c7f","ios":"levelo://app?vid=d966142d-b2cc-49a5-9d56-434d45837c7f"},"vehicle_type_id":"4","last_reported":1723576041,"current_range_meters":0,"station_id":"ce4bhbh2rcd13ifvqeqg","pricing_plan_id":"cebpf4jnsgd1na2vs0mg"},{"bike_id":"de5efeea-2dcd-4c89-937b-377913ef9b05","system_id":"levelo_inurba_marseille","lat":43.29886,"lon":5.38894,"is_reserved":false,"is_disabled":false,"rental_uris":{"android":"levelo://app?vid=de5efeea-2dcd-4c89-937b-377913ef9b05","ios":"levelo://app?vid=de5efeea-2dcd-4c89-937b-377913ef9b05"},"vehicle_type_id":"4","last_reported":1723576041,"current_range_meters":0,"station_id":"ce4bh392rcd13ifvqdl0","pricing_plan_id":"cebpf4jnsgd1na2vs0mg"},{"bike_id":"2fd5f5b5-fd95-497e-8a44-94b914338c25","system_id":"levelo_inurba_marseille","lat":43.291671,"lon":5.371575,"is_reserved":false,"is_disabled":false,"rental_uris":{"android":"levelo://app?vid=2fd5f5b5-fd95-497e-8a44-94b914338c25","ios":"levelo://app?vid=2fd5f5b5-fd95-497e-8a44-94b914338c25"},"vehicle_type_id":"4","last_reported":1723576041,"current_range_meters":6400,"station_id":"ce4bha92rcd13ifvqeh0","pricing_plan_id":"cebpf4jnsgd1na2vs0mg"},{"bike_id":"45c16833-232e-487b-b19f-9fbf0a32094a","system_id":"levelo_inurba_marseille","lat":43.291675,"lon":5.371583,"is_reserved":false,"is_disabled":false,"rental_uris":{"android":"levelo://app?vid=45c16833-232e-487b-b19f-9fbf0a32094a","ios":"levelo://app?vid=45c16833-232e-487b-b19f-9fbf0a32094a"},"vehicle_type_id":"4","last_reported":1723576041,"current_range_meters":2000,"station_id":"ce4bha92rcd13ifvqeh0","pricing_plan_id":"cebpf4jnsgd1na2vs0mg"},{"bike_id":"2222c156-6902-42f5-b11f-a88b52b1eee4","system_id":"levelo_inurba_marseille","lat":43.291671,"lon":5.371575,"is_reserved":false,"is_disabled":false,"rental_uris":{"android":"levelo://app?vid=2222c156-6902-42f5-b11f-a88b52b1eee4","ios":"levelo://app?vid=2222c156-6902-42f5-b11f-a88b52b1eee4"},"vehicle_type_id":"4","last_reported":1723576041,"current_range_meters":19200,"station_id":"ce4bha92rcd13ifvqeh0","pricing_plan_id":"cebpf4jnsgd1na2vs0mg"},{"bike_id":"b7d84346-4cf3-49bd-ba7c-9d58b1ecb97e","system_id":"levelo_inurba_marseille","lat":43.291675,"lon":5.371583,"is_reserved":false,"is_disabled":false,"rental_uris":{"android":"levelo://app?vid=b7d84346-4cf3-49bd-ba7c-9d58b1ecb97e","ios":"levelo://app?vid=b7d84346-4cf3-49bd-ba7c-9d58b1ecb97e"},"vehicle_type_id":"4","last_reported":1723576041,"current_range_meters":14800,"station_id":"ce4bha92rcd13ifvqeh0","pricing_plan_id":"cebpf4jnsgd1na2vs0mg"},{"bike_id":"f571bd6f-16a4-4f83-944b-a0371718b384","system_id":"levelo_inurba_marseille","lat":43.292005,"lon":5.357875,"is_reserved":false,"is_disabled":false,"rental_uris":{"android":"levelo://app?vid=f571bd6f-16a4-4f83-944b-a0371718b384","ios":"levelo://app?vid=f571bd6f-16a4-4f83-944b-a0371718b384"},"vehicle_type_id":"4","last_reported":1723576041,"current_range_meters":0,"station_id":"ce4bhb12rcd13ifvqel0","pricing_plan_id":"cebpf4jnsgd1na2vs0mg"},{"bike_id":"06fd451f-767a-463b-8981-d682df824f20","system_id":"levelo_inurba_marseille","lat":43.313291,"lon":5.396838,"is_reserved":false,"is_disabled":false,"rental_uris":{"android":"levelo://app?vid=06fd451f-767a-463b-8981-d682df824f20","ios":"levelo://app?vid=06fd451f-767a-463b-8981-d682df824f20"},"vehicle_type_id":"4","last_reported":1723576041,"current_range_meters":9600,"station_id":"ce4bgvp2rcd13ifvqcu0","pricing_plan_id":"cebpf4jnsgd1na2vs0mg"},{"bike_id":"f0aad17f-4506-4e29-b454-47baa608b815","system_id":"levelo_inurba_marseille","lat":43.313291,"lon":5.396838,"is_reserved":false,"is_disabled":false,"rental_uris":{"android":"levelo://app?vid=f0aad17f-4506-4e29-b454-47baa608b815","ios":"levelo://app?vid=f0aad17f-4506-4e29-b454-47baa608b815"},"vehicle_type_id":"4","last_reported":1723576041,"current_range_meters":12800,"station_id":"ce4bgvp2rcd13ifvqcu0","pricing_plan_id":"cebpf4jnsgd1na2vs0mg"},{"bike_id":"e65d4914-4f4b-4cb2-a7e8-c8cb6ea6a146","system_id":"levelo_inurba_marseille","lat":43.313291,"lon":5.396838,"is_reserved":false,"is_disabled":false,"rental_uris":{"android":"levelo://app?vid=e65d4914-4f4b-4cb2-a7e8-c8cb6ea6a146","ios":"levelo://app?vid=e65d4914-4f4b-4cb2-a7e8-c8cb6ea6a146"},"vehicle_type_id":"4","last_reported":1723576041,"current_range_meters":20000,"station_id":"ce4bgvp2rcd13ifvqcu0","pricing_plan_id":"cebpf4jnsgd1na2vs0mg"},{"bike_id":"29c1a14e-491f-4286-b673-44f4033f6ea3","system_id":"levelo_inurba_marseille","lat":43.313291,"lon":5.396838,"is_reserved":false,"is_disabled":false,"rental_uris":{"android":"levelo://app?vid=29c1a14e-491f-4286-b673-44f4033f6ea3","ios":"levelo://app?vid=29c1a14e-491f-4286-b673-44f4033f6ea3"},"vehicle_type_id":"4","last_reported":1723576041,"current_range_meters":23200,"station_id":"ce4bgvp2rcd13ifvqcu0","pricing_plan_id":"cebpf4jnsgd1na2vs0mg"},{"bike_id":"9d4b68a5-c93f-4844-a235-5ff4a055b660","system_id":"levelo_inurba_marseille","lat":43.292385,"lon":5.37767,"is_reserved":false,"is_disabled":false,"rental_uris":{"android":"levelo://app?vid=9d4b68a5-c93f-4844-a235-5ff4a055b660","ios":"levelo://app?vid=9d4b68a5-c93f-4844-a235-5ff4a055b660"},"vehicle_type_id":"4","last_reported":1723576041,"current_range_meters":0,"station_id":"","pricing_plan_id":"cebpf4jnsgd1na2vs0mg"},{"bike_id":"68729b1b-e3f0-46b6-bc2b-3053a2f66b6f","system_id":"levelo_inurba_marseille","lat":43.313291,"lon":5.396838,"is_reserved":false,"is_disabled":false,"rental_uris":{"android":"levelo://app?vid=68729b1b-e3f0-46b6-bc2b-3053a2f66b6f","ios":"levelo://app?vid=68729b1b-e3f0-46b6-bc2b-3053a2f66b6f"},"vehicle_type_id":"4","last_reported":1723576041,"current_range_meters":31200,"station_id":"ce4bgvp2rcd13ifvqcu0","pricing_plan_id":"cebpf4jnsgd1na2vs0mg"},{"bike_id":"a739aad7-b732-458a-9cc0-b05cbe1e2f0e","system_id":"levelo_inurba_marseille","lat":43.31328,"lon":5.39691,"is_reserved":false,"is_disabled":false,"rental_uris":{"android":"levelo://app?vid=a739aad7-b732-458a-9cc0-b05cbe1e2f0e","ios":"levelo://app?vid=a739aad7-b732-458a-9cc0-b05cbe1e2f0e"},"vehicle_type_id":"4","last_reported":1723576041,"current_range_meters":12400,"station_id":"ce4bgvp2rcd13ifvqcu0","pricing_plan_id":"cebpf4jnsgd1na2vs0mg"},{"bike_id":"a7f71794-e635-49d6-a6e3-ee953dde4d65","system_id":"levelo_inurba_marseille","lat":43.31328,"lon":5.39691,"is_reserved":false,"is_disabled":false,"rental_uris":{"android":"levelo://app?vid=a7f71794-e635-49d6-a6e3-ee953dde4d65","ios":"levelo://app?vid=a7f71794-e635-49d6-a6e3-ee953dde4d65"},"vehicle_type_id":"4","last_reported":1723576041,"current_range_meters":31200,"station_id":"ce4bgvp2rcd13ifvqcu0","pricing_plan_id":"cebpf4jnsgd1na2vs0mg"},{"bike_id":"b5392e86-56a3-4d9f-a510-feb59383cc02","system_id":"levelo_inurba_marseille","lat":43.31326,"lon":5.39696,"is_reserved":false,"is_disabled":false,"rental_uris":{"android":"levelo://app?vid=b5392e86-56a3-4d9f-a510-feb59383cc02","ios":"levelo://app?vid=b5392e86-56a3-4d9f-a510-feb59383cc02"},"vehicle_type_id":"4","last_reported":1723576041,"current_range_meters":31200,"station_id":"ce4bgvp2rcd13ifvqcu0","pricing_plan_id":"cebpf4jnsgd1na2vs0mg"},{"bike_id":"dd14464a-91a9-487a-a023-d7b6a3c93959","system_id":"levelo_inurba_marseille","lat":43.313291,"lon":5.396838,"is_reserved":false,"is_disabled":false,"rental_uris":{"android":"levelo://app?vid=dd14464a-91a9-487a-a023-d7b6a3c93959","ios":"levelo://app?vid=dd14464a-91a9-487a-a023-d7b6a3c93959"},"vehicle_type_id":"4","last_reported":1723576041,"current_range_meters":27200,"station_id":"ce4bgvp2rcd13ifvqcu0","pricing_plan_id":"cebpf4jnsgd1na2vs0mg"},{"bike_id":"9a3ebc2b-7424-4376-bb54-b2e27f820be0","system_id":"levelo_inurba_marseille","lat":43.30888,"lon":5.39656,"is_reserved":false,"is_disabled":false,"rental_uris":{"android":"levelo://app?vid=9a3ebc2b-7424-4376-bb54-b2e27f820be0","ios":"levelo://app?vid=9a3ebc2b-7424-4376-bb54-b2e27f820be0"},"vehicle_type_id":"4","last_reported":1723576041,"current_range_meters":3600,"station_id":"ce4bh012rcd13ifvqcv0","pricing_plan_id":"cebpf4jnsgd1na2vs0mg"},{"bike_id":"83f7104f-73c9-49cb-83cb-817d60b7a19a","system_id":"levelo_inurba_marseille","lat":43.309047,"lon":5.396551,"is_reserved":false,"is_disabled":false,"rental_uris":{"android":"levelo://app?vid=83f7104f-73c9-49cb-83cb-817d60b7a19a","ios":"levelo://app?vid=83f7104f-73c9-49cb-83cb-817d60b7a19a"},"vehicle_type_id":"4","last_reported":1723576041,"current_range_meters":4000,"station_id":"ce4bh012rcd13ifvqcv0","pricing_plan_id":"cebpf4jnsgd1na2vs0mg"},{"bike_id":"f3d44700-8981-4465-be4c-24b7f9f1bbb9","system_id":"levelo_inurba_marseille","lat":43.309047,"lon":5.396551,"is_reserved":false,"is_disabled":false,"rental_uris":{"android":"levelo://app?vid=f3d44700-8981-4465-be4c-24b7f9f1bbb9","ios":"levelo://app?vid=f3d44700-8981-4465-be4c-24b7f9f1bbb9"},"vehicle_type_id":"4","last_reported":1723576041,"current_range_meters":1600,"station_id":"ce4bh012rcd13ifvqcv0","pricing_plan_id":"cebpf4jnsgd1na2vs0mg"},{"bike_id":"29a2532f-bb79-4bfe-9a9d-2dde31a922a0","system_id":"levelo_inurba_marseille","lat":43.29539,"lon":5.38548,"is_reserved":false,"is_disabled":false,"rental_uris":{"android":"levelo://app?vid=29a2532f-bb79-4bfe-9a9d-2dde31a922a0","ios":"levelo://app?vid=29a2532f-bb79-4bfe-9a9d-2dde31a922a0"},"vehicle_type_id":"4","last_reported":1723576041,"current_range_meters":31200,"station_id":"ce4bgih2rcd13ifvqba0","pricing_plan_id":"cebpf4jnsgd1na2vs0mg"},{"bike_id":"44d2e332-8fef-4576-830e-b6352873a29d","system_id":"levelo_inurba_marseille","lat":43.29529,"lon":5.385581,"is_reserved":false,"is_disabled":false,"rental_uris":{"android":"levelo://app?vid=44d2e332-8fef-4576-830e-b6352873a29d","ios":"levelo://app?vid=44d2e332-8fef-4576-830e-b6352873a29d"},"vehicle_type_id":"4","last_reported":1723576041,"current_range_meters":24800,"station_id":"ce4bgih2rcd13ifvqba0","pricing_plan_id":"cebpf4jnsgd1na2vs0mg"},{"bike_id":"0f2966ed-fd34-4353-89e2-e7beecfbc086","system_id":"levelo_inurba_marseille","lat":43.29529,"lon":5.385581,"is_reserved":false,"is_disabled":false,"rental_uris":{"android":"levelo://app?vid=0f2966ed-fd34-4353-89e2-e7beecfbc086","ios":"levelo://app?vid=0f2966ed-fd34-4353-89e2-e7beecfbc086"},"vehicle_type_id":"4","last_reported":1723576041,"current_range_meters":13600,"station_id":"ce4bgih2rcd13ifvqba0","pricing_plan_id":"cebpf4jnsgd1na2vs0mg"},{"bike_id":"dc1caa53-4951-4e3c-9e38-9e9803d62cc5","system_id":"levelo_inurba_marseille","lat":43.29529,"lon":5.385581,"is_reserved":false,"is_disabled":false,"rental_uris":{"android":"levelo://app?vid=dc1caa53-4951-4e3c-9e38-9e9803d62cc5","ios":"levelo://app?vid=dc1caa53-4951-4e3c-9e38-9e9803d62cc5"},"vehicle_type_id":"4","last_reported":1723576041,"current_range_meters":31200,"station_id":"ce4bgih2rcd13ifvqba0","pricing_plan_id":"cebpf4jnsgd1na2vs0mg"},{"bike_id":"16f2cbd7-2b10-4673-abe4-8b3de7b457af","system_id":"levelo_inurba_marseille","lat":43.29529,"lon":5.385581,"is_reserved":false,"is_disabled":false,"rental_uris":{"android":"levelo://app?vid=16f2cbd7-2b10-4673-abe4-8b3de7b457af","ios":"levelo://app?vid=16f2cbd7-2b10-4673-abe4-8b3de7b457af"},"vehicle_type_id":"4","last_reported":1723576041,"current_range_meters":2800,"station_id":"ce4bgih2rcd13ifvqba0","pricing_plan_id":"cebpf4jnsgd1na2vs0mg"},{"bike_id":"ce60529c-641b-47ec-8384-cf2f06b67c2e","system_id":"levelo_inurba_marseille","lat":43.29529,"lon":5.385581,"is_reserved":false,"is_disabled":false,"rental_uris":{"android":"levelo://app?vid=ce60529c-641b-47ec-8384-cf2f06b67c2e","ios":"levelo://app?vid=ce60529c-641b-47ec-8384-cf2f06b67c2e"},"vehicle_type_id":"4","last_reported":1723576041,"current_range_meters":30000,"station_id":"ce4bgih2rcd13ifvqba0","pricing_plan_id":"cebpf4jnsgd1na2vs0mg"},{"bike_id":"31eb4ff6-2e72-4339-bd28-e777c1180dc3","system_id":"levelo_inurba_marseille","lat":43.29529,"lon":5.385581,"is_reserved":false,"is_disabled":false,"rental_uris":{"android":"levelo://app?vid=31eb4ff6-2e72-4339-bd28-e777c1180dc3","ios":"levelo://app?vid=31eb4ff6-2e72-4339-bd28-e777c1180dc3"},"vehicle_type_id":"4","last_reported":1723576041,"current_range_meters":3200,"station_id":"ce4bgih2rcd13ifvqba0","pricing_plan_id":"cebpf4jnsgd1na2vs0mg"},{"bike_id":"7181ba7c-4fcb-4d6f-945e-b501abe85a85","system_id":"levelo_inurba_marseille","lat":43.29529,"lon":5.385581,"is_reserved":false,"is_disabled":false,"rental_uris":{"android":"levelo://app?vid=7181ba7c-4fcb-4d6f-945e-b501abe85a85","ios":"levelo://app?vid=7181ba7c-4fcb-4d6f-945e-b501abe85a85"},"vehicle_type_id":"4","last_reported":1723576041,"current_range_meters":31200,"station_id":"ce4bgih2rcd13ifvqba0","pricing_plan_id":"cebpf4jnsgd1na2vs0mg"},{"bike_id":"e57b4a4d-4678-4621-8dda-8a62c78eff9c","system_id":"levelo_inurba_marseille","lat":43.29529,"lon":5.385581,"is_reserved":false,"is_disabled":false,"rental_uris":{"android":"levelo://app?vid=e57b4a4d-4678-4621-8dda-8a62c78eff9c","ios":"levelo://app?vid=e57b4a4d-4678-4621-8dda-8a62c78eff9c"},"vehicle_type_id":"4","last_reported":1723576041,"current_range_meters":6800,"station_id":"ce4bgih2rcd13ifvqba0","pricing_plan_id":"cebpf4jnsgd1na2vs0mg"},{"bike_id":"a903d15a-4f34-4304-b9bb-5740d077a8e7","system_id":"levelo_inurba_marseille","lat":43.29529,"lon":5.385581,"is_reserved":false,"is_disabled":false,"rental_uris":{"android":"levelo://app?vid=a903d15a-4f34-4304-b9bb-5740d077a8e7","ios":"levelo://app?vid=a903d15a-4f34-4304-b9bb-5740d077a8e7"},"vehicle_type_id":"4","last_reported":1723576041,"current_range_meters":18800,"station_id":"ce4bgih2rcd13ifvqba0","pricing_plan_id":"cebpf4jnsgd1na2vs0mg"},{"bike_id":"350ed5d1-2525-41de-a765-f5ebb60008e2","system_id":"levelo_inurba_marseille","lat":43.29529,"lon":5.385581,"is_reserved":false,"is_disabled":false,"rental_uris":{"android":"levelo://app?vid=350ed5d1-2525-41de-a765-f5ebb60008e2","ios":"levelo://app?vid=350ed5d1-2525-41de-a765-f5ebb60008e2"},"vehicle_type_id":"4","last_reported":1723576041,"current_range_meters":24000,"station_id":"ce4bgih2rcd13ifvqba0","pricing_plan_id":"cebpf4jnsgd1na2vs0mg"},{"bike_id":"bedec6da-d6ad-4efe-af27-03fd8eb3cc4a","system_id":"levelo_inurba_marseille","lat":43.29529,"lon":5.385581,"is_reserved":false,"is_disabled":false,"rental_uris":{"android":"levelo://app?vid=bedec6da-d6ad-4efe-af27-03fd8eb3cc4a","ios":"levelo://app?vid=bedec6da-d6ad-4efe-af27-03fd8eb3cc4a"},"vehicle_type_id":"4","last_reported":1723576041,"current_range_meters":24800,"station_id":"ce4bgih2rcd13ifvqba0","pricing_plan_id":"cebpf4jnsgd1na2vs0mg"},{"bike_id":"cef0d714-641e-4d42-8172-fea2e584b319","system_id":"levelo_inurba_marseille","lat":43.29529,"lon":5.385581,"is_reserved":false,"is_disabled":false,"rental_uris":{"android":"levelo://app?vid=cef0d714-641e-4d42-8172-fea2e584b319","ios":"levelo://app?vid=cef0d714-641e-4d42-8172-fea2e584b319"},"vehicle_type_id":"4","last_reported":1723576041,"current_range_meters":0,"station_id":"ce4bgih2rcd13ifvqba0","pricing_plan_id":"cebpf4jnsgd1na2vs0mg"},{"bike_id":"95cf2b8c-27bb-4dc1-bcef-36b387c0b230","system_id":"levelo_inurba_marseille","lat":43.29529,"lon":5.385581,"is_reserved":false,"is_disabled":false,"rental_uris":{"android":"levelo://app?vid=95cf2b8c-27bb-4dc1-bcef-36b387c0b230","ios":"levelo://app?vid=95cf2b8c-27bb-4dc1-bcef-36b387c0b230"},"vehicle_type_id":"4","last_reported":1723576041,"current_range_meters":18800,"station_id":"ce4bgih2rcd13ifvqba0","pricing_plan_id":"cebpf4jnsgd1na2vs0mg"},{"bike_id":"d6d79cf9-497b-482a-a69a-03a37fd09fcd","system_id":"levelo_inurba_marseille","lat":43.29529,"lon":5.385581,"is_reserved":false,"is_disabled":false,"rental_uris":{"android":"levelo://app?vid=d6d79cf9-497b-482a-a69a-03a37fd09fcd","ios":"levelo://app?vid=d6d79cf9-497b-482a-a69a-03a37fd09fcd"},"vehicle_type_id":"4","last_reported":1723576041,"current_range_meters":31200,"station_id":"ce4bgih2rcd13ifvqba0","pricing_plan_id":"cebpf4jnsgd1na2vs0mg"},{"bike_id":"80103dc9-63c8-4030-8423-60d1d0377e7c","system_id":"levelo_inurba_marseille","lat":43.29529,"lon":5.385581,"is_reserved":false,"is_disabled":false,"rental_uris":{"android":"levelo://app?vid=80103dc9-63c8-4030-8423-60d1d0377e7c","ios":"levelo://app?vid=80103dc9-63c8-4030-8423-60d1d0377e7c"},"vehicle_type_id":"4","last_reported":1723576041,"current_range_meters":31200,"station_id":"ce4bgih2rcd13ifvqba0","pricing_plan_id":"cebpf4jnsgd1na2vs0mg"},{"bike_id":"a8b1440b-ac4c-4fd5-ab36-0fed0b24515b","system_id":"levelo_inurba_marseille","lat":43.29529,"lon":5.385581,"is_reserved":false,"is_disabled":false,"rental_uris":{"android":"levelo://app?vid=a8b1440b-ac4c-4fd5-ab36-0fed0b24515b","ios":"levelo://app?vid=a8b1440b-ac4c-4fd5-ab36-0fed0b24515b"},"vehicle_type_id":"4","last_reported":1723576041,"current_range_meters":30800,"station_id":"ce4bgih2rcd13ifvqba0","pricing_plan_id":"cebpf4jnsgd1na2vs0mg"},{"bike_id":"89308d3e-1ff3-409f-8c15-b08742c654de","system_id":"levelo_inurba_marseille","lat":43.29529,"lon":5.385581,"is_reserved":false,"is_disabled":false,"rental_uris":{"android":"levelo://app?vid=89308d3e-1ff3-409f-8c15-b08742c654de","ios":"levelo://app?vid=89308d3e-1ff3-409f-8c15-b08742c654de"},"vehicle_type_id":"4","last_reported":1723576041,"current_range_meters":10400,"station_id":"ce4bgih2rcd13ifvqba0","pricing_plan_id":"cebpf4jnsgd1na2vs0mg"},{"bike_id":"ea70d078-4e46-4f39-a144-a528aef363ea","system_id":"levelo_inurba_marseille","lat":43.29529,"lon":5.385581,"is_reserved":false,"is_disabled":false,"rental_uris":{"android":"levelo://app?vid=ea70d078-4e46-4f39-a144-a528aef363ea","ios":"levelo://app?vid=ea70d078-4e46-4f39-a144-a528aef363ea"},"vehicle_type_id":"4","last_reported":1723576041,"current_range_meters":7600,"station_id":"ce4bgih2rcd13ifvqba0","pricing_plan_id":"cebpf4jnsgd1na2vs0mg"},{"bike_id":"1f037b35-0b2d-404e-baed-ac0560dbb0b1","system_id":"levelo_inurba_marseille","lat":43.29529,"lon":5.385581,"is_reserved":false,"is_disabled":false,"rental_uris":{"android":"levelo://app?vid=1f037b35-0b2d-404e-baed-ac0560dbb0b1","ios":"levelo://app?vid=1f037b35-0b2d-404e-baed-ac0560dbb0b1"},"vehicle_type_id":"4","last_reported":1723576041,"current_range_meters":31600,"station_id":"ce4bgih2rcd13ifvqba0","pricing_plan_id":"cebpf4jnsgd1na2vs0mg"},{"bike_id":"15c1aba7-7d19-47d4-a886-9c5694be8f2d","system_id":"levelo_inurba_marseille","lat":43.29529,"lon":5.385581,"is_reserved":false,"is_disabled":false,"rental_uris":{"android":"levelo://app?vid=15c1aba7-7d19-47d4-a886-9c5694be8f2d","ios":"levelo://app?vid=15c1aba7-7d19-47d4-a886-9c5694be8f2d"},"vehicle_type_id":"4","last_reported":1723576041,"current_range_meters":12000,"station_id":"ce4bgih2rcd13ifvqba0","pricing_plan_id":"cebpf4jnsgd1na2vs0mg"},{"bike_id":"41936ed7-6eb6-4ba4-82ea-88cb76b7022c","system_id":"levelo_inurba_marseille","lat":43.290779,"lon":5.371482,"is_reserved":false,"is_disabled":false,"rental_uris":{"android":"levelo://app?vid=41936ed7-6eb6-4ba4-82ea-88cb76b7022c","ios":"levelo://app?vid=41936ed7-6eb6-4ba4-82ea-88cb76b7022c"},"vehicle_type_id":"4","last_reported":1723576041,"current_range_meters":20800,"station_id":"ce4bh5p2rcd13ifvqe4g","pricing_plan_id":"cebpf4jnsgd1na2vs0mg"},{"bike_id":"9d54aa26-7489-46d1-b1b2-5d248490c0db","system_id":"levelo_inurba_marseille","lat":43.290779,"lon":5.371482,"is_reserved":false,"is_disabled":false,"rental_uris":{"android":"levelo://app?vid=9d54aa26-7489-46d1-b1b2-5d248490c0db","ios":"levelo://app?vid=9d54aa26-7489-46d1-b1b2-5d248490c0db"},"vehicle_type_id":"4","last_reported":1723576041,"current_range_meters":22800,"station_id":"ce4bh5p2rcd13ifvqe4g","pricing_plan_id":"cebpf4jnsgd1na2vs0mg"},{"bike_id":"950974b8-2de5-4838-9f69-8ef2e9af759d","system_id":"levelo_inurba_marseille","lat":43.290702,"lon":5.37161,"is_reserved":false,"is_disabled":false,"rental_uris":{"android":"levelo://app?vid=950974b8-2de5-4838-9f69-8ef2e9af759d","ios":"levelo://app?vid=950974b8-2de5-4838-9f69-8ef2e9af759d"},"vehicle_type_id":"4","last_reported":1723576041,"current_range_meters":1600,"station_id":"ce4bh5p2rcd13ifvqe4g","pricing_plan_id":"cebpf4jnsgd1na2vs0mg"},{"bike_id":"fd4322eb-3c70-4c96-9faf-6905c58a6329","system_id":"levelo_inurba_marseille","lat":43.29068,"lon":5.37167,"is_reserved":false,"is_disabled":false,"rental_uris":{"android":"levelo://app?vid=fd4322eb-3c70-4c96-9faf-6905c58a6329","ios":"levelo://app?vid=fd4322eb-3c70-4c96-9faf-6905c58a6329"},"vehicle_type_id":"4","last_reported":1723576041,"current_range_meters":18000,"station_id":"ce4bh5p2rcd13ifvqe4g","pricing_plan_id":"cebpf4jnsgd1na2vs0mg"},{"bike_id":"998d4eba-7990-49a4-8000-f8424d6bddff","system_id":"levelo_inurba_marseille","lat":43.302008,"lon":5.394694,"is_reserved":false,"is_disabled":false,"rental_uris":{"android":"levelo://app?vid=998d4eba-7990-49a4-8000-f8424d6bddff","ios":"levelo://app?vid=998d4eba-7990-49a4-8000-f8424d6bddff"},"vehicle_type_id":"4","last_reported":1723576041,"current_range_meters":15600,"station_id":"ce4bh0p2rcd13ifvqd70","pricing_plan_id":"cebpf4jnsgd1na2vs0mg"},{"bike_id":"3613f310-994f-4daa-b84c-d4426d541b66","system_id":"levelo_inurba_marseille","lat":43.29423,"lon":5.38621,"is_reserved":false,"is_disabled":false,"rental_uris":{"android":"levelo://app?vid=3613f310-994f-4daa-b84c-d4426d541b66","ios":"levelo://app?vid=3613f310-994f-4daa-b84c-d4426d541b66"},"vehicle_type_id":"4","last_reported":1723576041,"current_range_meters":14800,"station_id":"ce4bh2h2rcd13ifvqdh0","pricing_plan_id":"cebpf4jnsgd1na2vs0mg"},{"bike_id":"387cf428-316f-4101-b506-d8c203f679d1","system_id":"levelo_inurba_marseille","lat":43.2942,"lon":5.38617,"is_reserved":false,"is_disabled":false,"rental_uris":{"android":"levelo://app?vid=387cf428-316f-4101-b506-d8c203f679d1","ios":"levelo://app?vid=387cf428-316f-4101-b506-d8c203f679d1"},"vehicle_type_id":"4","last_reported":1723576041,"current_range_meters":10400,"station_id":"ce4bh2h2rcd13ifvqdh0","pricing_plan_id":"cebpf4jnsgd1na2vs0mg"},{"bike_id":"dea75a72-5ed5-42e6-95da-76a20bdb821a","system_id":"levelo_inurba_marseille","lat":43.290319,"lon":5.375732,"is_reserved":false,"is_disabled":false,"rental_uris":{"android":"levelo://app?vid=dea75a72-5ed5-42e6-95da-76a20bdb821a","ios":"levelo://app?vid=dea75a72-5ed5-42e6-95da-76a20bdb821a"},"vehicle_type_id":"4","last_reported":1723576041,"current_range_meters":26000,"station_id":"ce4bh692rcd13ifvqe90","pricing_plan_id":"cebpf4jnsgd1na2vs0mg"},{"bike_id":"4cb92cef-bce4-4245-9e84-0a6b79edf21b","system_id":"levelo_inurba_marseille","lat":43.29417,"lon":5.38615,"is_reserved":false,"is_disabled":false,"rental_uris":{"android":"levelo://app?vid=4cb92cef-bce4-4245-9e84-0a6b79edf21b","ios":"levelo://app?vid=4cb92cef-bce4-4245-9e84-0a6b79edf21b"},"vehicle_type_id":"4","last_reported":1723576041,"current_range_meters":25200,"station_id":"ce4bh2h2rcd13ifvqdh0","pricing_plan_id":"cebpf4jnsgd1na2vs0mg"},{"bike_id":"058e8b3c-f7a7-4de0-b90e-6b0e2065622f","system_id":"levelo_inurba_marseille","lat":43.294162,"lon":5.386292,"is_reserved":false,"is_disabled":false,"rental_uris":{"android":"levelo://app?vid=058e8b3c-f7a7-4de0-b90e-6b0e2065622f","ios":"levelo://app?vid=058e8b3c-f7a7-4de0-b90e-6b0e2065622f"},"vehicle_type_id":"4","last_reported":1723576041,"current_range_meters":28800,"station_id":"ce4bh2h2rcd13ifvqdh0","pricing_plan_id":"cebpf4jnsgd1na2vs0mg"},{"bike_id":"c2d33f0d-5e51-4e75-a851-9d2c7970d60e","system_id":"levelo_inurba_marseille","lat":43.29421,"lon":5.38623,"is_reserved":false,"is_disabled":false,"rental_uris":{"android":"levelo://app?vid=c2d33f0d-5e51-4e75-a851-9d2c7970d60e","ios":"levelo://app?vid=c2d33f0d-5e51-4e75-a851-9d2c7970d60e"},"vehicle_type_id":"4","last_reported":1723576041,"current_range_meters":29600,"station_id":"ce4bh2h2rcd13ifvqdh0","pricing_plan_id":"cebpf4jnsgd1na2vs0mg"},{"bike_id":"97108bb9-915c-4203-bcac-37c0a02e42ad","system_id":"levelo_inurba_marseille","lat":43.294159,"lon":5.386141,"is_reserved":false,"is_disabled":false,"rental_uris":{"android":"levelo://app?vid=97108bb9-915c-4203-bcac-37c0a02e42ad","ios":"levelo://app?vid=97108bb9-915c-4203-bcac-37c0a02e42ad"},"vehicle_type_id":"4","last_reported":1723576041,"current_range_meters":9600,"station_id":"ce4bh2h2rcd13ifvqdh0","pricing_plan_id":"cebpf4jnsgd1na2vs0mg"},{"bike_id":"0e4fbd21-1579-40fc-a36f-ecd3e8920623","system_id":"levelo_inurba_marseille","lat":43.29418,"lon":5.38619,"is_reserved":false,"is_disabled":false,"rental_uris":{"android":"levelo://app?vid=0e4fbd21-1579-40fc-a36f-ecd3e8920623","ios":"levelo://app?vid=0e4fbd21-1579-40fc-a36f-ecd3e8920623"},"vehicle_type_id":"4","last_reported":1723576041,"current_range_meters":7200,"station_id":"ce4bh2h2rcd13ifvqdh0","pricing_plan_id":"cebpf4jnsgd1na2vs0mg"},{"bike_id":"822e7763-a789-4475-9ced-4f60be66ad03","system_id":"levelo_inurba_marseille","lat":43.29032,"lon":5.37544,"is_reserved":false,"is_disabled":false,"rental_uris":{"android":"levelo://app?vid=822e7763-a789-4475-9ced-4f60be66ad03","ios":"levelo://app?vid=822e7763-a789-4475-9ced-4f60be66ad03"},"vehicle_type_id":"4","last_reported":1723576041,"current_range_meters":0,"station_id":"ce4bh692rcd13ifvqe90","pricing_plan_id":"cebpf4jnsgd1na2vs0mg"},{"bike_id":"3c164d5d-c646-46de-87ad-955e829c7b95","system_id":"levelo_inurba_marseille","lat":43.290327,"lon":5.375711,"is_reserved":false,"is_disabled":false,"rental_uris":{"android":"levelo://app?vid=3c164d5d-c646-46de-87ad-955e829c7b95","ios":"levelo://app?vid=3c164d5d-c646-46de-87ad-955e829c7b95"},"vehicle_type_id":"4","last_reported":1723576041,"current_range_meters":26400,"station_id":"ce4bh692rcd13ifvqe90","pricing_plan_id":"cebpf4jnsgd1na2vs0mg"},{"bike_id":"281f87c4-2f0e-4d46-bdb0-d237b2d35c3d","system_id":"levelo_inurba_marseille","lat":43.2942,"lon":5.38625,"is_reserved":false,"is_disabled":false,"rental_uris":{"android":"levelo://app?vid=281f87c4-2f0e-4d46-bdb0-d237b2d35c3d","ios":"levelo://app?vid=281f87c4-2f0e-4d46-bdb0-d237b2d35c3d"},"vehicle_type_id":"4","last_reported":1723576041,"current_range_meters":23200,"station_id":"ce4bh2h2rcd13ifvqdh0","pricing_plan_id":"cebpf4jnsgd1na2vs0mg"},{"bike_id":"c1aa8622-916d-451a-a445-106c3b333233","system_id":"levelo_inurba_marseille","lat":43.294162,"lon":5.386292,"is_reserved":false,"is_disabled":false,"rental_uris":{"android":"levelo://app?vid=c1aa8622-916d-451a-a445-106c3b333233","ios":"levelo://app?vid=c1aa8622-916d-451a-a445-106c3b333233"},"vehicle_type_id":"4","last_reported":1723576041,"current_range_meters":7600,"station_id":"ce4bh2h2rcd13ifvqdh0","pricing_plan_id":"cebpf4jnsgd1na2vs0mg"},{"bike_id":"73acc59c-561c-4c45-af76-377595e339a3","system_id":"levelo_inurba_marseille","lat":43.294153,"lon":5.386305,"is_reserved":false,"is_disabled":false,"rental_uris":{"android":"levelo://app?vid=73acc59c-561c-4c45-af76-377595e339a3","ios":"levelo://app?vid=73acc59c-561c-4c45-af76-377595e339a3"},"vehicle_type_id":"4","last_reported":1723576041,"current_range_meters":400,"station_id":"ce4bh2h2rcd13ifvqdh0","pricing_plan_id":"cebpf4jnsgd1na2vs0mg"},{"bike_id":"4ddc26d8-8d20-4c59-bf90-2fa97ad33e2d","system_id":"levelo_inurba_marseille","lat":43.294162,"lon":5.386292,"is_reserved":false,"is_disabled":false,"rental_uris":{"android":"levelo://app?vid=4ddc26d8-8d20-4c59-bf90-2fa97ad33e2d","ios":"levelo://app?vid=4ddc26d8-8d20-4c59-bf90-2fa97ad33e2d"},"vehicle_type_id":"4","last_reported":1723576041,"current_range_meters":1600,"station_id":"ce4bh2h2rcd13ifvqdh0","pricing_plan_id":"cebpf4jnsgd1na2vs0mg"},{"bike_id":"2ef914cb-50f2-4b24-9860-6acce60014fc","system_id":"levelo_inurba_marseille","lat":43.294162,"lon":5.386292,"is_reserved":false,"is_disabled":false,"rental_uris":{"android":"levelo://app?vid=2ef914cb-50f2-4b24-9860-6acce60014fc","ios":"levelo://app?vid=2ef914cb-50f2-4b24-9860-6acce60014fc"},"vehicle_type_id":"4","last_reported":1723576041,"current_range_meters":4800,"station_id":"ce4bh2h2rcd13ifvqdh0","pricing_plan_id":"cebpf4jnsgd1na2vs0mg"},{"bike_id":"7c9f6dd3-f3d3-46b4-bac0-a767766c149a","system_id":"levelo_inurba_marseille","lat":43.2942,"lon":5.38628,"is_reserved":false,"is_disabled":false,"rental_uris":{"android":"levelo://app?vid=7c9f6dd3-f3d3-46b4-bac0-a767766c149a","ios":"levelo://app?vid=7c9f6dd3-f3d3-46b4-bac0-a767766c149a"},"vehicle_type_id":"4","last_reported":1723576041,"current_range_meters":28000,"station_id":"ce4bh2h2rcd13ifvqdh0","pricing_plan_id":"cebpf4jnsgd1na2vs0mg"},{"bike_id":"6b4d85b1-1aad-4c0a-bdac-00012cef7d35","system_id":"levelo_inurba_marseille","lat":43.28946,"lon":5.36636,"is_reserved":false,"is_disabled":false,"rental_uris":{"android":"levelo://app?vid=6b4d85b1-1aad-4c0a-bdac-00012cef7d35","ios":"levelo://app?vid=6b4d85b1-1aad-4c0a-bdac-00012cef7d35"},"vehicle_type_id":"4","last_reported":1723576041,"current_range_meters":24800,"station_id":"ce4bhap2rcd13ifvqek0","pricing_plan_id":"cebpf4jnsgd1na2vs0mg"},{"bike_id":"4d75c4e1-3ad4-4582-ad3b-76109365be50","system_id":"levelo_inurba_marseille","lat":43.294153,"lon":5.386305,"is_reserved":false,"is_disabled":false,"rental_uris":{"android":"levelo://app?vid=4d75c4e1-3ad4-4582-ad3b-76109365be50","ios":"levelo://app?vid=4d75c4e1-3ad4-4582-ad3b-76109365be50"},"vehicle_type_id":"4","last_reported":1723576041,"current_range_meters":2400,"station_id":"ce4bh2h2rcd13ifvqdh0","pricing_plan_id":"cebpf4jnsgd1na2vs0mg"},{"bike_id":"c726fd52-da5d-4dda-85db-70253667cbbc","system_id":"levelo_inurba_marseille","lat":43.294162,"lon":5.386292,"is_reserved":false,"is_disabled":false,"rental_uris":{"android":"levelo://app?vid=c726fd52-da5d-4dda-85db-70253667cbbc","ios":"levelo://app?vid=c726fd52-da5d-4dda-85db-70253667cbbc"},"vehicle_type_id":"4","last_reported":1723576041,"current_range_meters":12800,"station_id":"ce4bh2h2rcd13ifvqdh0","pricing_plan_id":"cebpf4jnsgd1na2vs0mg"},{"bike_id":"adbefd68-0138-4d1d-a71b-92e743451596","system_id":"levelo_inurba_marseille","lat":43.294162,"lon":5.386292,"is_reserved":false,"is_disabled":false,"rental_uris":{"android":"levelo://app?vid=adbefd68-0138-4d1d-a71b-92e743451596","ios":"levelo://app?vid=adbefd68-0138-4d1d-a71b-92e743451596"},"vehicle_type_id":"4","last_reported":1723576041,"current_range_meters":0,"station_id":"ce4bh2h2rcd13ifvqdh0","pricing_plan_id":"cebpf4jnsgd1na2vs0mg"},{"bike_id":"93be6599-8869-4012-9762-67cfe2dc84e3","system_id":"levelo_inurba_marseille","lat":43.29418,"lon":5.38625,"is_reserved":false,"is_disabled":false,"rental_uris":{"android":"levelo://app?vid=93be6599-8869-4012-9762-67cfe2dc84e3","ios":"levelo://app?vid=93be6599-8869-4012-9762-67cfe2dc84e3"},"vehicle_type_id":"4","last_reported":1723576041,"current_range_meters":25200,"station_id":"ce4bh2h2rcd13ifvqdh0","pricing_plan_id":"cebpf4jnsgd1na2vs0mg"},{"bike_id":"97146d3b-cf61-48bc-915a-2ee2fc7dd2cb","system_id":"levelo_inurba_marseille","lat":43.290327,"lon":5.375711,"is_reserved":false,"is_disabled":false,"rental_uris":{"android":"levelo://app?vid=97146d3b-cf61-48bc-915a-2ee2fc7dd2cb","ios":"levelo://app?vid=97146d3b-cf61-48bc-915a-2ee2fc7dd2cb"},"vehicle_type_id":"4","last_reported":1723576041,"current_range_meters":20800,"station_id":"ce4bh692rcd13ifvqe90","pricing_plan_id":"cebpf4jnsgd1na2vs0mg"},{"bike_id":"8119bf47-5984-4f86-8dd9-f1e6b1f7cbc4","system_id":"levelo_inurba_marseille","lat":43.29418,"lon":5.38626,"is_reserved":false,"is_disabled":false,"rental_uris":{"android":"levelo://app?vid=8119bf47-5984-4f86-8dd9-f1e6b1f7cbc4","ios":"levelo://app?vid=8119bf47-5984-4f86-8dd9-f1e6b1f7cbc4"},"vehicle_type_id":"4","last_reported":1723576041,"current_range_meters":7200,"station_id":"ce4bh2h2rcd13ifvqdh0","pricing_plan_id":"cebpf4jnsgd1na2vs0mg"},{"bike_id":"25f41fd5-f486-48ee-9c91-16c13a51d6f2","system_id":"levelo_inurba_marseille","lat":43.29417,"lon":5.38625,"is_reserved":false,"is_disabled":false,"rental_uris":{"android":"levelo://app?vid=25f41fd5-f486-48ee-9c91-16c13a51d6f2","ios":"levelo://app?vid=25f41fd5-f486-48ee-9c91-16c13a51d6f2"},"vehicle_type_id":"4","last_reported":1723576041,"current_range_meters":22800,"station_id":"ce4bh2h2rcd13ifvqdh0","pricing_plan_id":"cebpf4jnsgd1na2vs0mg"},{"bike_id":"ddb6ed95-3a2b-43eb-a440-94b203965693","system_id":"levelo_inurba_marseille","lat":43.290327,"lon":5.375711,"is_reserved":false,"is_disabled":false,"rental_uris":{"android":"levelo://app?vid=ddb6ed95-3a2b-43eb-a440-94b203965693","ios":"levelo://app?vid=ddb6ed95-3a2b-43eb-a440-94b203965693"},"vehicle_type_id":"4","last_reported":1723576041,"current_range_meters":24800,"station_id":"ce4bh692rcd13ifvqe90","pricing_plan_id":"cebpf4jnsgd1na2vs0mg"},{"bike_id":"5ff23cfc-4a52-473a-8a99-efe711c85de6","system_id":"levelo_inurba_marseille","lat":43.290327,"lon":5.375711,"is_reserved":false,"is_disabled":false,"rental_uris":{"android":"levelo://app?vid=5ff23cfc-4a52-473a-8a99-efe711c85de6","ios":"levelo://app?vid=5ff23cfc-4a52-473a-8a99-efe711c85de6"},"vehicle_type_id":"4","last_reported":1723576041,"current_range_meters":1200,"station_id":"ce4bh692rcd13ifvqe90","pricing_plan_id":"cebpf4jnsgd1na2vs0mg"},{"bike_id":"5b90675e-6b65-4021-804e-033ceb9fb30c","system_id":"levelo_inurba_marseille","lat":43.29416,"lon":5.38626,"is_reserved":false,"is_disabled":false,"rental_uris":{"android":"levelo://app?vid=5b90675e-6b65-4021-804e-033ceb9fb30c","ios":"levelo://app?vid=5b90675e-6b65-4021-804e-033ceb9fb30c"},"vehicle_type_id":"4","last_reported":1723576041,"current_range_meters":28800,"station_id":"ce4bh2h2rcd13ifvqdh0","pricing_plan_id":"cebpf4jnsgd1na2vs0mg"},{"bike_id":"ece4cc77-c042-4047-ac06-dbc79b6f28b4","system_id":"levelo_inurba_marseille","lat":43.290233,"lon":5.358603,"is_reserved":false,"is_disabled":false,"rental_uris":{"android":"levelo://app?vid=ece4cc77-c042-4047-ac06-dbc79b6f28b4","ios":"levelo://app?vid=ece4cc77-c042-4047-ac06-dbc79b6f28b4"},"vehicle_type_id":"4","last_reported":1723576041,"current_range_meters":22800,"station_id":"","pricing_plan_id":"cebpf4jnsgd1na2vs0mg"},{"bike_id":"a5980287-d076-4904-a14d-2abc59042fe8","system_id":"levelo_inurba_marseille","lat":43.29418,"lon":5.38631,"is_reserved":false,"is_disabled":false,"rental_uris":{"android":"levelo://app?vid=a5980287-d076-4904-a14d-2abc59042fe8","ios":"levelo://app?vid=a5980287-d076-4904-a14d-2abc59042fe8"},"vehicle_type_id":"4","last_reported":1723576041,"current_range_meters":21200,"station_id":"ce4bh2h2rcd13ifvqdh0","pricing_plan_id":"cebpf4jnsgd1na2vs0mg"},{"bike_id":"b708810b-8e39-421b-b02c-96b6942e6703","system_id":"levelo_inurba_marseille","lat":43.29416,"lon":5.38631,"is_reserved":false,"is_disabled":false,"rental_uris":{"android":"levelo://app?vid=b708810b-8e39-421b-b02c-96b6942e6703","ios":"levelo://app?vid=b708810b-8e39-421b-b02c-96b6942e6703"},"vehicle_type_id":"4","last_reported":1723576041,"current_range_meters":12800,"station_id":"ce4bh2h2rcd13ifvqdh0","pricing_plan_id":"cebpf4jnsgd1na2vs0mg"},