{"last_updated":1739696900,"ttl":60,"version":"2.2","data":{"bikes":[{"bike_id":"bd6a1e19-6806-44e1-a810-de054147bcfe","system_id":"levelo_inurba_marseille","lat":43.31534,"lon":5.38044,"is_reserved":false,"is_disabled":false,"rental_uris":{"android":"levelo://app?vid=bd6a1e19-6806-44e1-a810-de054147bcfe","ios":"levelo://app?vid=bd6a1e19-6806-44e1-a810-de054147bcfe"},"vehicle_type_id":"4","last_reported":1739696900,"current_range_meters":37600,"station_id":"ce4bhsp2rcd13ifvqi50","pricing_plan_id":"cebpf4jnsgd1na2vs0mg"},{"bike_id":"b1589c62-efb6-4964-ade1-e2ad8e9b6ead","system_id":"levelo_inurba_marseille","lat":43.231533,"lon":5.437024,"is_reserved":false,"is_disabled":false,"rental_uris":{"android":"levelo://app?vid=b1589c62-efb6-4964-ade1-e2ad8e9b6ead","ios":"levelo://app?vid=b1589c62-efb6-4964-ade1-e2ad8e9b6ead"},"vehicle_type_id":"4","last_reported":1739696900,"current_range_meters":37600,"station_id":"ce4bhmp2rcd13ifvqgog","pricing_plan_id":"cebpf4jnsgd1na2vs0mg"},{"bike_id":"5a7b9fda-fcf7-4f0d-b371-842def3cdff7","system_id":"levelo_inurba_marseille","lat":43.29266,"lon":5.40138,"is_reserved":false,"is_disabled":true,"rental_uris":{"android":"levelo://app?vid=5a7b9fda-fcf7-4f0d-b371-842def3cdff7","ios":"levelo://app?vid=5a7b9fda-fcf7-4f0d-b371-842def3cdff7"},"vehicle_type_id":"4","last_reported":1739696900,"current_range_meters":34000,"station_id":"ce4bh312rcd13ifvqdk0","pricing_plan_id":"cebpf4jnsgd1na2vs0mg"},{"bike_id":"314ecb77-8b90-4fdb-aaf3-bbba8b437b8a","system_id":"levelo_inurba_marseille","lat":43.290804,"lon":5.380365,"is_reserved":false,"is_disabled":false,"rental_uris":{"android":"levelo://app?vid=314ecb77-8b90-4fdb-aaf3-bbba8b437b8a","ios":"levelo://app?vid=314ecb77-8b90-4fdb-aaf3-bbba8b437b8a"},"vehicle_type_id":"4","last_reported":1739696900,"current_range_meters":4800,"station_id":"","pricing_plan_id":"cebpf4jnsgd1na2vs0mg"},{"bike_id":"12c3694c-32df-46ed-95f2-cdd3b6575844","system_id":"levelo_inurba_marseille","lat":43.27194,"lon":5.40994,"is_reserved":false,"is_disabled":false,"rental_uris":{"android":"levelo://app?vid=12c3694c-32df-46ed-95f2-cdd3b6575844","ios":"levelo://app?vid=12c3694c-32df-46ed-95f2-cdd3b6575844"},"vehicle_type_id":"4","last_reported":1739696900,"current_range_meters":22800,"station_id":"ce4bhl12rcd13ifvqgf0","pricing_plan_id":"cebpf4jnsgd1na2vs0mg"},{"bike_id":"48a00b36-c772-4089-a1d7-3835b3c473bc","system_id":"levelo_inurba_marseille","lat":43.29693,"lon":5.36609,"is_reserved":false,"is_disabled":false,"rental_uris":{"android":"levelo://app?vid=48a00b36-c772-4089-a1d7-3835b3c473bc","ios":"levelo://app?vid=48a00b36-c772-4089-a1d7-3835b3c473bc"},"vehicle_type_id":"4","last_reported":1739696900,"current_range_meters":38000,"station_id":"ce4bgn12rcd13ifvqbt0","pricing_plan_id":"cebpf4jnsgd1na2vs0mg"},{"bike_id":"4f45f8e9-0c7b-4084-8dd3-4de8e3df7577","system_id":"levelo_inurba_marseille","lat":43.25119,"lon":5.40334,"is_reserved":false,"is_disabled":false,"rental_uris":{"android":"levelo://app?vid=4f45f8e9-0c7b-4084-8dd3-4de8e3df7577","ios":"levelo://app?vid=4f45f8e9-0c7b-4084-8dd3-4de8e3df7577"},"vehicle_type_id":"4","last_reported":1739696900,"current_range_meters":39200,"station_id":"ce4bhlh2rcd13ifvqgig","pricing_plan_id":"cebpf4jnsgd1na2vs0mg"},{"bike_id":"0ae73e20-3ba2-4a20-bef5-04dff4cd870f","system_id":"levelo_inurba_marseille","lat":43.29929,"lon":5.38854,"is_reserved":false,"is_disabled":false,"rental_uris":{"android":"levelo://app?vid=0ae73e20-3ba2-4a20-bef5-04dff4cd870f","ios":"levelo://app?vid=0ae73e20-3ba2-4a20-bef5-04dff4cd870f"},"vehicle_type_id":"4","last_reported":1739696900,"current_range_meters":9200,"station_id":"","pricing_plan_id":"cebpf4jnsgd1na2vs0mg"},{"bike_id":"d86538d6-fc22-47f9-a266-776ca22f5975","system_id":"levelo_inurba_marseille","lat":43.28269,"lon":5.35057,"is_reserved":false,"is_disabled":false,"rental_uris":{"android":"levelo://app?vid=d86538d6-fc22-47f9-a266-776ca22f5975","ios":"levelo://app?vid=d86538d6-fc22-47f9-a266-776ca22f5975"},"vehicle_type_id":"4","last_reported":1739696900,"current_range_meters":34000,"station_id":"ce4bhbp2rcd13ifvqerg","pricing_plan_id":"cebpf4jnsgd1na2vs0mg"},{"bike_id":"56851809-1ddb-4244-9921-277fa67ca171","system_id":"levelo_inurba_marseille","lat":43.28846,"lon":5.35847,"is_reserved":false,"is_disabled":false,"rental_uris":{"android":"levelo://app?vid=56851809-1ddb-4244-9921-277fa67ca171","ios":"levelo://app?vid=56851809-1ddb-4244-9921-277fa67ca171"},"vehicle_type_id":"4","last_reported":1739696900,"current_range_meters":8000,"station_id":"ce4bhb12rcd13ifvqem0","pricing_plan_id":"cebpf4jnsgd1na2vs0mg"},{"bike_id":"ff426081-3726-4b6c-aa9f-0d0db0cbc7e6","system_id":"levelo_inurba_marseille","lat":43.28052,"lon":5.36954,"is_reserved":false,"is_disabled":false,"rental_uris":{"android":"levelo://app?vid=ff426081-3726-4b6c-aa9f-0d0db0cbc7e6","ios":"levelo://app?vid=ff426081-3726-4b6c-aa9f-0d0db0cbc7e6"},"vehicle_type_id":"4","last_reported":1739696900,"current_range_meters":38800,"station_id":"ce4bha12rcd13ifvqef0","pricing_plan_id":"cebpf4jnsgd1na2vs0mg"},{"bike_id":"58558eec-a927-4202-aa3d-c8ad7d804276","system_id":"levelo_inurba_marseille","lat":43.33016,"lon":5.39065,"is_reserved":false,"is_disabled":false,"rental_uris":{"android":"levelo://app?vid=58558eec-a927-4202-aa3d-c8ad7d804276","ios":"levelo://app?vid=58558eec-a927-4202-aa3d-c8ad7d804276"},"vehicle_type_id":"4","last_reported":1739696900,"current_range_meters":38800,"station_id":"ce4bhr92rcd13ifvqhrg","pricing_plan_id":"cebpf4jnsgd1na2vs0mg"},{"bike_id":"b2b69db9-a41c-4d37-b7e5-2536d9067581","system_id":"levelo_inurba_marseille","lat":43.27869,"lon":5.38021,"is_reserved":false,"is_disabled":false,"rental_uris":{"android":"levelo://app?vid=b2b69db9-a41c-4d37-b7e5-2536d9067581","ios":"levelo://app?vid=b2b69db9-a41c-4d37-b7e5-2536d9067581"},"vehicle_type_id":"4","last_reported":1739696900,"current_range_meters":25200,"station_id":"ce4bhf92rcd13ifvqf50","pricing_plan_id":"cebpf4jnsgd1na2vs0mg"},{"bike_id":"8c76a68a-1681-44e1-9c07-f9fb5ba2aeb9","system_id":"levelo_inurba_marseille","lat":43.25565,"lon":5.39789,"is_reserved":false,"is_disabled":false,"rental_uris":{"android":"levelo://app?vid=8c76a68a-1681-44e1-9c07-f9fb5ba2aeb9","ios":"levelo://app?vid=8c76a68a-1681-44e1-9c07-f9fb5ba2aeb9"},"vehicle_type_id":"4","last_reported":1739696900,"current_range_meters":30400,"station_id":"","pricing_plan_id":"cebpf4jnsgd1na2vs0mg"},{"bike_id":"ee4cedd9-ffe8-4c75-8719-c95ff3d3200f","system_id":"levelo_inurba_marseille","lat":43.29791,"lon":5.38094,"is_reserved":false,"is_disabled":false,"rental_uris":{"android":"levelo://app?vid=ee4cedd9-ffe8-4c75-8719-c95ff3d3200f","ios":"levelo://app?vid=ee4cedd9-ffe8-4c75-8719-c95ff3d3200f"},"vehicle_type_id":"4","last_reported":1739696900,"current_range_meters":38800,"station_id":"ce4bgip2rcd13ifvqbb0","pricing_plan_id":"cebpf4jnsgd1na2vs0mg"},{"bike_id":"f5f8dc66-64c5-4881-82b1-6414e53b43d4","system_id":"levelo_inurba_marseille","lat":43.286179,"lon":5.351004,"is_reserved":false,"is_disabled":false,"rental_uris":{"android":"levelo://app?vid=f5f8dc66-64c5-4881-82b1-6414e53b43d4","ios":"levelo://app?vid=f5f8dc66-64c5-4881-82b1-6414e53b43d4"},"vehicle_type_id":"4","last_reported":1739696900,"current_range_meters":6800,"station_id":"ce4bhch2rcd13ifvqeug","pricing_plan_id":"cebpf4jnsgd1na2vs0mg"},{"bike_id":"c7322498-81a4-46c8-b4c9-ec796bfac1e6","system_id":"levelo_inurba_marseille","lat":43.24173,"lon":5.36394,"is_reserved":false,"is_disabled":false,"rental_uris":{"android":"levelo://app?vid=c7322498-81a4-46c8-b4c9-ec796bfac1e6","ios":"levelo://app?vid=c7322498-81a4-46c8-b4c9-ec796bfac1e6"},"vehicle_type_id":"4","last_reported":1739696900,"current_range_meters":36400,"station_id":"cpo36qri1sfpv3e86is0","pricing_plan_id":"cebpf4jnsgd1na2vs0mg"},{"bike_id":"ef18327b-fd5f-482d-a33a-46273e7de7ae","system_id":"levelo_inurba_marseille","lat":43.28401,"lon":5.38082,"is_reserved":false,"is_disabled":false,"rental_uris":{"android":"levelo://app?vid=ef18327b-fd5f-482d-a33a-46273e7de7ae","ios":"levelo://app?vid=ef18327b-fd5f-482d-a33a-46273e7de7ae"},"vehicle_type_id":"4","last_reported":1739696900,"current_range_meters":35200,"station_id":"ce4bgt12rcd13ifvqce0","pricing_plan_id":"cebpf4jnsgd1na2vs0mg"},{"bike_id":"90f3e139-bace-4d38-b0a9-483c2a21ef01","system_id":"levelo_inurba_marseille","lat":43.27926,"lon":5.41057,"is_reserved":false,"is_disabled":false,"rental_uris":{"android":"levelo://app?vid=90f3e139-bace-4d38-b0a9-483c2a21ef01","ios":"levelo://app?vid=90f3e139-bace-4d38-b0a9-483c2a21ef01"},"vehicle_type_id":"4","last_reported":1739696900,"current_range_meters":7200,"station_id":"ce4bhnp2rcd13ifvqh0g","pricing_plan_id":"cebpf4jnsgd1na2vs0mg"},{"bike_id":"b0608a51-76d4-48cf-ad4a-891a136def1c","system_id":"levelo_inurba_marseille","lat":43.29195,"lon":5.36101,"is_reserved":false,"is_disabled":false,"rental_uris":{"android":"levelo://app?vid=b0608a51-76d4-48cf-ad4a-891a136def1c","ios":"levelo://app?vid=b0608a51-76d4-48cf-ad4a-891a136def1c"},"vehicle_type_id":"4","last_reported":1739696900,"current_range_meters":18800,"station_id":"ce4bhbh2rcd13ifvqeqg","pricing_plan_id":"cebpf4jnsgd1na2vs0mg"},{"bike_id":"8f28beee-2a0c-4896-878b-48a55ccfc291","system_id":"levelo_inurba_marseille","lat":43.28691,"lon":5.37979,"is_reserved":false,"is_disabled":false,"rental_uris":{"android":"levelo://app?vid=8f28beee-2a0c-4896-878b-48a55ccfc291","ios":"levelo://app?vid=8f28beee-2a0c-4896-878b-48a55ccfc291"},"vehicle_type_id":"4","last_reported":1739696900,"current_range_meters":38800,"station_id":"ce4bh9p2rcd13ifvqec0","pricing_plan_id":"cebpf4jnsgd1na2vs0mg"},{"bike_id":"12b446d5-f76b-4158-af75-29a23d10c68e","system_id":"levelo_inurba_marseille","lat":43.3064,"lon":5.40082,"is_reserved":false,"is_disabled":false,"rental_uris":{"android":"levelo://app?vid=12b446d5-f76b-4158-af75-29a23d10c68e","ios":"levelo://app?vid=12b446d5-f76b-4158-af75-29a23d10c68e"},"vehicle_type_id":"4","last_reported":1739696900,"current_range_meters":26800,"station_id":"ce4bh112rcd13ifvqda0","pricing_plan_id":"cebpf4jnsgd1na2vs0mg"},{"bike_id":"b34c6303-752a-46a1-93ad-ddbc991e20b6","system_id":"levelo_inurba_marseille","lat":43.23082,"lon":5.35468,"is_reserved":false,"is_disabled":false,"rental_uris":{"android":"levelo://app?vid=b34c6303-752a-46a1-93ad-ddbc991e20b6","ios":"levelo://app?vid=b34c6303-752a-46a1-93ad-ddbc991e20b6"},"vehicle_type_id":"4","last_reported":1739696900,"current_range_meters":35200,"station_id":"cpo3342slgdg3j2ifvpg","pricing_plan_id":"cebpf4jnsgd1na2vs0mg"},{"bike_id":"f7abcf74-16eb-4369-b6b8-ac0e795f9129","system_id":"levelo_inurba_marseille","lat":43.2814,"lon":5.42668,"is_reserved":false,"is_disabled":false,"rental_uris":{"android":"levelo://app?vid=f7abcf74-16eb-4369-b6b8-ac0e795f9129","ios":"levelo://app?vid=f7abcf74-16eb-4369-b6b8-ac0e795f9129"},"vehicle_type_id":"4","last_reported":1739696900,"current_range_meters":28400,"station_id":"ce4bhnh2rcd13ifvqgug","pricing_plan_id":"cebpf4jnsgd1na2vs0mg"},{"bike_id":"58f90898-7499-443b-a458-e2c59058430b","system_id":"levelo_inurba_marseille","lat":43.24066,"lon":5.37748,"is_reserved":false,"is_disabled":false,"rental_uris":{"android":"levelo://app?vid=58f90898-7499-443b-a458-e2c59058430b","ios":"levelo://app?vid=58f90898-7499-443b-a458-e2c59058430b"},"vehicle_type_id":"4","last_reported":1739696900,"current_range_meters":38800,"station_id":"ce4bhnp2rcd13ifvqgvg","pricing_plan_id":"cebpf4jnsgd1na2vs0mg"},{"bike_id":"bed4de35-ef09-4f9f-a13d-845fdf520d58","system_id":"levelo_inurba_marseille","lat":43.27476,"lon":5.41525,"is_reserved":false,"is_disabled":false,"rental_uris":{"android":"levelo://app?vid=bed4de35-ef09-4f9f-a13d-845fdf520d58","ios":"levelo://app?vid=bed4de35-ef09-4f9f-a13d-845fdf520d58"},"vehicle_type_id":"4","last_reported":1739696900,"current_range_meters":8400,"station_id":"","pricing_plan_id":"cebpf4jnsgd1na2vs0mg"},{"bike_id":"2821d2ff-3fc8-480e-81a3-1928b04e4a1d","system_id":"levelo_inurba_marseille","lat":43.31207,"lon":5.38262,"is_reserved":false,"is_disabled":false,"rental_uris":{"android":"levelo://app?vid=2821d2ff-3fc8-480e-81a3-1928b04e4a1d","ios":"levelo://app?vid=2821d2ff-3fc8-480e-81a3-1928b04e4a1d"},"vehicle_type_id":"4","last_reported":1739696900,"current_range_meters":7200,"station_id":"","pricing_plan_id":"cebpf4jnsgd1na2vs0mg"},{"bike_id":"ed72e317-b0f2-47df-a27f-f0a79f848886","system_id":"levelo_inurba_marseille","lat":43.27915,"lon":5.37993,"is_reserved":false,"is_disabled":false,"rental_uris":{"android":"levelo://app?vid=ed72e317-b0f2-47df-a27f-f0a79f848886","ios":"levelo://app?vid=ed72e317-b0f2-47df-a27f-f0a79f848886"},"vehicle_type_id":"4","last_reported":1739696900,"current_range_meters":38800,"station_id":"ce4bhf92rcd13ifvqf50","pricing_plan_id":"cebpf4jnsgd1na2vs0mg"},{"bike_id":"733b5e87-b364-4f07-9fd3-5df8261cb7c5","system_id":"levelo_inurba_marseille","lat":43.28819,"lon":5.39339,"is_reserved":false,"is_disabled":false,"rental_uris":{"android":"levelo://app?vid=733b5e87-b364-4f07-9fd3-5df8261cb7c5","ios":"levelo://app?vid=733b5e87-b364-4f07-9fd3-5df8261cb7c5"},"vehicle_type_id":"4","last_reported":1739696900,"current_range_meters":20400,"station_id":"ce4bh2p2rcd13ifvqdi0","pricing_plan_id":"cebpf4jnsgd1na2vs0mg"},{"bike_id":"f8d16498-d8f9-4eeb-a7df-835133606e02","system_id":"levelo_inurba_marseille","lat":43.29799,"lon":5.40404,"is_reserved":false,"is_disabled":false,"rental_uris":{"android":"levelo://app?vid=f8d16498-d8f9-4eeb-a7df-835133606e02","ios":"levelo://app?vid=f8d16498-d8f9-4eeb-a7df-835133606e02"},"vehicle_type_id":"4","last_reported":1739696900,"current_range_meters":30800,"station_id":"ce4bh112rcd13ifvqd90","pricing_plan_id":"cebpf4jnsgd1na2vs0mg"},{"bike_id":"4596b24e-dd41-4060-813c-4788cbea1bcb","system_id":"levelo_inurba_marseille","lat":43.2973,"lon":5.37688,"is_reserved":false,"is_disabled":false,"rental_uris":{"android":"levelo://app?vid=4596b24e-dd41-4060-813c-4788cbea1bcb","ios":"levelo://app?vid=4596b24e-dd41-4060-813c-4788cbea1bcb"},"vehicle_type_id":"4","last_reported":1739696900,"current_range_meters":32800,"station_id":"ce4bgkh2rcd13ifvqbl0","pricing_plan_id":"cebpf4jnsgd1na2vs0mg"},{"bike_id":"bcaf8af6-c642-49c0-a3a2-1964c4eaa3d3","system_id":"levelo_inurba_marseille","lat":43.251044,"lon":5.403278,"is_reserved":false,"is_disabled":false,"rental_uris":{"android":"levelo://app?vid=bcaf8af6-c642-49c0-a3a2-1964c4eaa3d3","ios":"levelo://app?vid=bcaf8af6-c642-49c0-a3a2-1964c4eaa3d3"},"vehicle_type_id":"4","last_reported":1739696900,"current_range_meters":9600,"station_id":"ce4bhlh2rcd13ifvqgig","pricing_plan_id":"cebpf4jnsgd1na2vs0mg"},{"bike_id":"940ffad1-8d03-466c-a361-1bdb8859eb0e","system_id":"levelo_inurba_marseille","lat":43.28633,"lon":5.35102,"is_reserved":false,"is_disabled":true,"rental_uris":{"android":"levelo://app?vid=940ffad1-8d03-466c-a361-1bdb8859eb0e","ios":"levelo://app?vid=940ffad1-8d03-466c-a361-1bdb8859eb0e"},"vehicle_type_id":"4","last_reported":1739696900,"current_range_meters":0,"station_id":"ce4bhch2rcd13ifvqeug","pricing_plan_id":"cebpf4jnsgd1na2vs0mg"},{"bike_id":"71ee7552-6225-4f21-8301-72c964ebec2d","system_id":"levelo_inurba_marseille","lat":43.2667,"lon":5.38251,"is_reserved":false,"is_disabled":true,"rental_uris":{"android":"levelo://app?vid=71ee7552-6225-4f21-8301-72c964ebec2d","ios":"levelo://app?vid=71ee7552-6225-4f21-8301-72c964ebec2d"},"vehicle_type_id":"4","last_reported":1739696900,"current_range_meters":4400,"station_id":"ce4bhg92rcd13ifvqf90","pricing_plan_id":"cebpf4jnsgd1na2vs0mg"},{"bike_id":"7dbd5b9a-43cb-483c-a00a-ce13856c7714","system_id":"levelo_inurba_marseille","lat":43.29439,"lon":5.39755,"is_reserved":false,"is_disabled":false,"rental_uris":{"android":"levelo://app?vid=7dbd5b9a-43cb-483c-a00a-ce13856c7714","ios":"levelo://app?vid=7dbd5b9a-43cb-483c-a00a-ce13856c7714"},"vehicle_type_id":"4","last_reported":1739696900,"current_range_meters":38800,"station_id":"ce4bh3h2rcd13ifvqdo0","pricing_plan_id":"cebpf4jnsgd1na2vs0mg"},{"bike_id":"86a75285-7243-40ee-925b-d20bf72a6a49","system_id":"levelo_inurba_marseille","lat":43.29823,"lon":5.36318,"is_reserved":false,"is_disabled":false,"rental_uris":{"android":"levelo://app?vid=86a75285-7243-40ee-925b-d20bf72a6a49","ios":"levelo://app?vid=86a75285-7243-40ee-925b-d20bf72a6a49"},"vehicle_type_id":"4","last_reported":1739696900,"current_range_meters":39200,"station_id":"ce4bgpp2rcd13ifvqc3g","pricing_plan_id":"cebpf4jnsgd1na2vs0mg"},{"bike_id":"1f0657bb-7196-41de-84fc-c834bbf90b28","system_id":"levelo_inurba_marseille","lat":43.28083,"lon":5.39673,"is_reserved":false,"is_disabled":true,"rental_uris":{"android":"levelo://app?vid=1f0657bb-7196-41de-84fc-c834bbf90b28","ios":"levelo://app?vid=1f0657bb-7196-41de-84fc-c834bbf90b28"},"vehicle_type_id":"4","last_reported":1739696900,"current_range_meters":39200,"station_id":"ce4bho12rcd13ifvqh2g","pricing_plan_id":"cebpf4jnsgd1na2vs0mg"},{"bike_id":"4085957e-a34f-48ec-8023-d0e7a9e56b71","system_id":"levelo_inurba_marseille","lat":43.23068,"lon":5.35487,"is_reserved":false,"is_disabled":false,"rental_uris":{"android":"levelo://app?vid=4085957e-a34f-48ec-8023-d0e7a9e56b71","ios":"levelo://app?vid=4085957e-a34f-48ec-8023-d0e7a9e56b71"},"vehicle_type_id":"4","last_reported":1739696900,"current_range_meters":37600,"station_id":"cpo3342slgdg3j2ifvpg","pricing_plan_id":"cebpf4jnsgd1na2vs0mg"},{"bike_id":"f2109cf1-8d49-4b78-bee1-4b30300bad2d","system_id":"levelo_inurba_marseille","lat":43.30178,"lon":5.36623,"is_reserved":false,"is_disabled":false,"rental_uris":{"android":"levelo://app?vid=f2109cf1-8d49-4b78-bee1-4b30300bad2d","ios":"levelo://app?vid=f2109cf1-8d49-4b78-bee1-4b30300bad2d"},"vehicle_type_id":"4","last_reported":1739696900,"current_range_meters":38800,"station_id":"ce4bgrh2rcd13ifvqc8g","pricing_plan_id":"cebpf4jnsgd1na2vs0mg"},{"bike_id":"7aa83162-9c5d-4ed6-8f35-2d6bbe2f04c1","system_id":"levelo_inurba_marseille","lat":43.29694,"lon":5.37692,"is_reserved":false,"is_disabled":false,"rental_uris":{"android":"levelo://app?vid=7aa83162-9c5d-4ed6-8f35-2d6bbe2f04c1","ios":"levelo://app?vid=7aa83162-9c5d-4ed6-8f35-2d6bbe2f04c1"},"vehicle_type_id":"4","last_reported":1739696900,"current_range_meters":38400,"station_id":"ce4bgkh2rcd13ifvqbl0","pricing_plan_id":"cebpf4jnsgd1na2vs0mg"},{"bike_id":"8172451f-620b-4bb8-91b1-1e4678991019","system_id":"levelo_inurba_marseille","lat":43.28162,"lon":5.42687,"is_reserved":false,"is_disabled":false,"rental_uris":{"android":"levelo://app?vid=8172451f-620b-4bb8-91b1-1e4678991019","ios":"levelo://app?vid=8172451f-620b-4bb8-91b1-1e4678991019"},"vehicle_type_id":"4","last_reported":1739696900,"current_range_meters":37600,"station_id":"ce4bhnh2rcd13ifvqgug","pricing_plan_id":"cebpf4jnsgd1na2vs0mg"},{"bike_id":"d6fdeac0-7252-460c-9b91-9ee63ef09f4e","system_id":"levelo_inurba_marseille","lat":43.29252,"lon":5.40164,"is_reserved":false,"is_disabled":false,"rental_uris":{"android":"levelo://app?vid=d6fdeac0-7252-460c-9b91-9ee63ef09f4e","ios":"levelo://app?vid=d6fdeac0-7252-460c-9b91-9ee63ef09f4e"},"vehicle_type_id":"4","last_reported":1739696900,"current_range_meters":16000,"station_id":"ce4bh312rcd13ifvqdk0","pricing_plan_id":"cebpf4jnsgd1na2vs0mg"},{"bike_id":"1bb282de-7a9b-4949-a763-e4305f74cf66","system_id":"levelo_inurba_marseille","lat":43.23561,"lon":5.38018,"is_reserved":false,"is_disabled":false,"rental_uris":{"android":"levelo://app?vid=1bb282de-7a9b-4949-a763-e4305f74cf66","ios":"levelo://app?vid=1bb282de-7a9b-4949-a763-e4305f74cf66"},"vehicle_type_id":"4","last_reported":1739696900,"current_range_meters":21600,"station_id":"","pricing_plan_id":"cebpf4jnsgd1na2vs0mg"},{"bike_id":"b4501870-b8ed-41e7-9c02-cfe959070884","system_id":"levelo_inurba_marseille","lat":43.24078,"lon":5.37761,"is_reserved":false,"is_disabled":false,"rental_uris":{"android":"levelo://app?vid=b4501870-b8ed-41e7-9c02-cfe959070884","ios":"levelo://app?vid=b4501870-b8ed-41e7-9c02-cfe959070884"},"vehicle_type_id":"4","last_reported":1739696900,"current_range_meters":28400,"station_id":"ce4bhnp2rcd13ifvqgvg","pricing_plan_id":"cebpf4jnsgd1na2vs0mg"},{"bike_id":"39715b54-d64d-41e3-8875-a9955c264132","system_id":"levelo_inurba_marseille","lat":43.26941,"lon":5.38891,"is_reserved":false,"is_disabled":false,"rental_uris":{"android":"levelo://app?vid=39715b54-d64d-41e3-8875-a9955c264132","ios":"levelo://app?vid=39715b54-d64d-41e3-8875-a9955c264132"},"vehicle_type_id":"4","last_reported":1739696900,"current_range_meters":38800,"station_id":"ce4bhhh2rcd13ifvqfl0","pricing_plan_id":"cebpf4jnsgd1na2vs0mg"},{"bike_id":"71875786-9294-4d77-b785-1038c95812cc","system_id":"levelo_inurba_marseille","lat":43.29699,"lon":5.37722,"is_reserved":false,"is_disabled":false,"rental_uris":{"android":"levelo://app?vid=71875786-9294-4d77-b785-1038c95812cc","ios":"levelo://app?vid=71875786-9294-4d77-b785-1038c95812cc"},"vehicle_type_id":"4","last_reported":1739696900,"current_range_meters":38400,"station_id":"ce4bgkh2rcd13ifvqbl0","pricing_plan_id":"cebpf4jnsgd1na2vs0mg"},{"bike_id":"f92e748a-9f9b-4e54-8084-07e33515f3d5","system_id":"levelo_inurba_marseille","lat":43.27071,"lon":5.39347,"is_reserved":false,"is_disabled":true,"rental_uris":{"android":"levelo://app?vid=f92e748a-9f9b-4e54-8084-07e33515f3d5","ios":"levelo://app?vid=f92e748a-9f9b-4e54-8084-07e33515f3d5"},"vehicle_type_id":"4","last_reported":1739696900,"current_range_meters":0,"station_id":"","pricing_plan_id":"cebpf4jnsgd1na2vs0mg"},{"bike_id":"f8c65a5b-ff0f-449e-a3de-34c9a777f2a9","system_id":"levelo_inurba_marseille","lat":43.26961,"lon":5.38633,"is_reserved":false,"is_disabled":false,"rental_uris":{"android":"levelo://app?vid=f8c65a5b-ff0f-449e-a3de-34c9a777f2a9","ios":"levelo://app?vid=f8c65a5b-ff0f-449e-a3de-34c9a777f2a9"},"vehicle_type_id":"4","last_reported":1739696900,"current_range_meters":18000,"station_id":"ce4bhh92rcd13ifvqfh0","pricing_plan_id":"cebpf4jnsgd1na2vs0mg"},{"bike_id":"8342996b-6007-42c1-80fc-fcd9d943d64e","system_id":"levelo_inurba_marseille","lat":43.29565,"lon":5.37514,"is_reserved":false,"is_disabled":false,"rental_uris":{"android":"levelo://app?vid=8342996b-6007-42c1-80fc-fcd9d943d64e","ios":"levelo://app?vid=8342996b-6007-42c1-80fc-fcd9d943d64e"},"vehicle_type_id":"4","last_reported":1739696900,"current_range_meters":33200,"station_id":"ce4bgh92rcd13ifvqb50","pricing_plan_id":"cebpf4jnsgd1na2vs0mg"},{"bike_id":"a41bc1c5-d238-43e3-abb3-4fcf0a480bdc","system_id":"levelo_inurba_marseille","lat":43.28932,"lon":5.36379,"is_reserved":false,"is_disabled":false,"rental_uris":{"android":"levelo://app?vid=a41bc1c5-d238-43e3-abb3-4fcf0a480bdc","ios":"levelo://app?vid=a41bc1c5-d238-43e3-abb3-4fcf0a480bdc"},"vehicle_type_id":"4","last_reported":1739696900,"current_range_meters":28400,"station_id":"ce4bhc92rcd13ifvqetg","pricing_plan_id":"cebpf4jnsgd1na2vs0mg"},{"bike_id":"99c4c5b0-43b8-4473-9c97-42d51a31c13a","system_id":"levelo_inurba_marseille","lat":43.30936,"lon":5.4015,"is_reserved":false,"is_disabled":false,"rental_uris":{"android":"levelo://app?vid=99c4c5b0-43b8-4473-9c97-42d51a31c13a","ios":"levelo://app?vid=99c4c5b0-43b8-4473-9c97-42d51a31c13a"},"vehicle_type_id":"4","last_reported":1739696900,"current_range_meters":28400,"station_id":"ce4bgvp2rcd13ifvqct0","pricing_plan_id":"cebpf4jnsgd1na2vs0mg"},{"bike_id":"542db65b-4c63-46f9-87df-aed33986fb69","system_id":"levelo_inurba_marseille","lat":43.30653,"lon":5.40089,"is_reserved":false,"is_disabled":false,"rental_uris":{"android":"levelo://app?vid=542db65b-4c63-46f9-87df-aed33986fb69","ios":"levelo://app?vid=542db65b-4c63-46f9-87df-aed33986fb69"},"vehicle_type_id":"4","last_reported":1739696900,"current_range_meters":6400,"station_id":"ce4bh112rcd13ifvqda0","pricing_plan_id":"cebpf4jnsgd1na2vs0mg"},{"bike_id":"4dd9a4e0-c137-4560-8761-8f56d3f447a7","system_id":"levelo_inurba_marseille","lat":43.308819,"lon":5.396326,"is_reserved":false,"is_disabled":false,"rental_uris":{"android":"levelo://app?vid=4dd9a4e0-c137-4560-8761-8f56d3f447a7","ios":"levelo://app?vid=4dd9a4e0-c137-4560-8761-8f56d3f447a7"},"vehicle_type_id":"4","last_reported":1739696900,"current_range_meters":20400,"station_id":"ce4bh012rcd13ifvqcv0","pricing_plan_id":"cebpf4jnsgd1na2vs0mg"},{"bike_id":"9cf8e6d9-67b8-441b-8ab4-08ef8560d2b0","system_id":"levelo_inurba_marseille","lat":43.33514,"lon":5.35585,"is_reserved":false,"is_disabled":true,"rental_uris":{"android":"levelo://app?vid=9cf8e6d9-67b8-441b-8ab4-08ef8560d2b0","ios":"levelo://app?vid=9cf8e6d9-67b8-441b-8ab4-08ef8560d2b0"},"vehicle_type_id":"4","last_reported":1739696900,"current_range_meters":0,"station_id":"","pricing_plan_id":"cebpf4jnsgd1na2vs0mg"},{"bike_id":"edf3c825-afeb-495d-879c-98eb7e2cc1b3","system_id":"levelo_inurba_marseille","lat":43.28632,"lon":5.36379,"is_reserved":false,"is_disabled":false,"rental_uris":{"android":"levelo://app?vid=edf3c825-afeb-495d-879c-98eb7e2cc1b3","ios":"levelo://app?vid=edf3c825-afeb-495d-879c-98eb7e2cc1b3"},"vehicle_type_id":"4","last_reported":1739696900,"current_range_meters":37600,"station_id":"ce4bhah2rcd13ifvqej0","pricing_plan_id":"cebpf4jnsgd1na2vs0mg"},{"bike_id":"0c02c842-4f61-4404-a07d-57e5e1b07bc3","system_id":"levelo_inurba_marseille","lat":43.259534,"lon":5.413744,"is_reserved":false,"is_disabled":false,"rental_uris":{"android":"levelo://app?vid=0c02c842-4f61-4404-a07d-57e5e1b07bc3","ios":"levelo://app?vid=0c02c842-4f61-4404-a07d-57e5e1b07bc3"},"vehicle_type_id":"4","last_reported":1739696900,"current_range_meters":24000,"station_id":"","pricing_plan_id":"cebpf4jnsgd1na2vs0mg"},{"bike_id":"e5c24b65-f0fa-4002-a427-8976c2dddfc4","system_id":"levelo_inurba_marseille","lat":43.31317,"lon":5.39729,"is_reserved":false,"is_disabled":true,"rental_uris":{"android":"levelo://app?vid=e5c24b65-f0fa-4002-a427-8976c2dddfc4","ios":"levelo://app?vid=e5c24b65-f0fa-4002-a427-8976c2dddfc4"},"vehicle_type_id":"4","last_reported":1739696900,"current_range_meters":0,"station_id":"ce4bgvp2rcd13ifvqcu0","pricing_plan_id":"cebpf4jnsgd1na2vs0mg"},{"bike_id":"843c1cdc-a175-42b5-be19-e1b9d6757ae2","system_id":"levelo_inurba_marseille","lat":43.24618,"lon":5.39001,"is_reserved":false,"is_disabled":false,"rental_uris":{"android":"levelo://app?vid=843c1cdc-a175-42b5-be19-e1b9d6757ae2","ios":"levelo://app?vid=843c1cdc-a175-42b5-be19-e1b9d6757ae2"},"vehicle_type_id":"4","last_reported":1739696900,"current_range_meters":38800,"station_id":"ce4bhg12rcd13ifvqf60","pricing_plan_id":"cebpf4jnsgd1na2vs0mg"},{"bike_id":"a47a49ff-3d8c-459e-91ff-bddc8c1b5078","system_id":"levelo_inurba_marseille","lat":43.29569,"lon":5.39971,"is_reserved":false,"is_disabled":false,"rental_uris":{"android":"levelo://app?vid=a47a49ff-3d8c-459e-91ff-bddc8c1b5078","ios":"levelo://app?vid=a47a49ff-3d8c-459e-91ff-bddc8c1b5078"},"vehicle_type_id":"4","last_reported":1739696900,"current_range_meters":38000,"station_id":"ce4bh312rcd13ifvqdj0","pricing_plan_id":"cebpf4jnsgd1na2vs0mg"},{"bike_id":"46252e49-398c-407a-8202-f65c1512c035","system_id":"levelo_inurba_marseille","lat":43.28389,"lon":5.37516,"is_reserved":false,"is_disabled":false,"rental_uris":{"android":"levelo://app?vid=46252e49-398c-407a-8202-f65c1512c035","ios":"levelo://app?vid=46252e49-398c-407a-8202-f65c1512c035"},"vehicle_type_id":"4","last_reported":1739696900,"current_range_meters":38800,"station_id":"ce4bh412rcd13ifvqds0","pricing_plan_id":"cebpf4jnsgd1na2vs0mg"},{"bike_id":"540bf5a8-5786-4431-b160-b1b1e0ba365f","system_id":"levelo_inurba_marseille","lat":43.299614,"lon":5.400823,"is_reserved":false,"is_disabled":false,"rental_uris":{"android":"levelo://app?vid=540bf5a8-5786-4431-b160-b1b1e0ba365f","ios":"levelo://app?vid=540bf5a8-5786-4431-b160-b1b1e0ba365f"},"vehicle_type_id":"4","last_reported":1739696900,"current_range_meters":36800,"station_id":"","pricing_plan_id":"cebpf4jnsgd1na2vs0mg"},{"bike_id":"98cda1ee-64ab-4524-be3c-951477745525","system_id":"levelo_inurba_marseille","lat":43.28847,"lon":5.39318,"is_reserved":false,"is_disabled":false,"rental_uris":{"android":"levelo://app?vid=98cda1ee-64ab-4524-be3c-951477745525","ios":"levelo://app?vid=98cda1ee-64ab-4524-be3c-951477745525"},"vehicle_type_id":"4","last_reported":1739696900,"current_range_meters":23200,"station_id":"ce4bh2p2rcd13ifvqdi0","pricing_plan_id":"cebpf4jnsgd1na2vs0mg"},{"bike_id":"51ab7186-5043-4bed-baca-73708608a302","system_id":"levelo_inurba_marseille","lat":43.29584,"lon":5.37026,"is_reserved":false,"is_disabled":true,"rental_uris":{"android":"levelo://app?vid=51ab7186-5043-4bed-baca-73708608a302","ios":"levelo://app?vid=51ab7186-5043-4bed-baca-73708608a302"},"vehicle_type_id":"4","last_reported":1739696900,"current_range_meters":0,"station_id":"","pricing_plan_id":"cebpf4jnsgd1na2vs0mg"},{"bike_id":"9fdb08b8-1ceb-474a-abf2-04c699884b4a","system_id":"levelo_inurba_marseille","lat":43.23219,"lon":5.35536,"is_reserved":false,"is_disabled":false,"rental_uris":{"android":"levelo://app?vid=9fdb08b8-1ceb-474a-abf2-04c699884b4a","ios":"levelo://app?vid=9fdb08b8-1ceb-474a-abf2-04c699884b4a"},"vehicle_type_id":"4","last_reported":1739696900,"current_range_meters":37600,"station_id":"ce4bhu92rcd13ifvqi70","pricing_plan_id":"cebpf4jnsgd1na2vs0mg"},{"bike_id":"485502f3-3b80-4687-aac8-10dc57118684","system_id":"levelo_inurba_marseille","lat":43.262211,"lon":5.404631,"is_reserved":false,"is_disabled":false,"rental_uris":{"android":"levelo://app?vid=485502f3-3b80-4687-aac8-10dc57118684","ios":"levelo://app?vid=485502f3-3b80-4687-aac8-10dc57118684"},"vehicle_type_id":"4","last_reported":1739696900,"current_range_meters":10000,"station_id":"ce4bhmh2rcd13ifvqgmg","pricing_plan_id":"cebpf4jnsgd1na2vs0mg"},{"bike_id":"e16b3a6b-3656-461f-bbf9-195601822b7e","system_id":"levelo_inurba_marseille","lat":43.30954,"lon":5.39054,"is_reserved":false,"is_disabled":false,"rental_uris":{"android":"levelo://app?vid=e16b3a6b-3656-461f-bbf9-195601822b7e","ios":"levelo://app?vid=e16b3a6b-3656-461f-bbf9-195601822b7e"},"vehicle_type_id":"4","last_reported":1739696900,"current_range_meters":38800,"station_id":"ce4bgup2rcd13ifvqco0","pricing_plan_id":"cebpf4jnsgd1na2vs0mg"},{"bike_id":"21927afe-ac76-4751-9326-5e07ce38bfb7","system_id":"levelo_inurba_marseille","lat":43.29274,"lon":5.36839,"is_reserved":false,"is_disabled":false,"rental_uris":{"android":"levelo://app?vid=21927afe-ac76-4751-9326-5e07ce38bfb7","ios":"levelo://app?vid=21927afe-ac76-4751-9326-5e07ce38bfb7"},"vehicle_type_id":"4","last_reported":1739696900,"current_range_meters":26000,"station_id":"ce4bhbp2rcd13ifvqesg","pricing_plan_id":"cebpf4jnsgd1na2vs0mg"},{"bike_id":"747738f1-db73-4ea5-8dc8-39e0154843fb","system_id":"levelo_inurba_marseille","lat":43.30933,"lon":5.40155,"is_reserved":false,"is_disabled":false,"rental_uris":{"android":"levelo://app?vid=747738f1-db73-4ea5-8dc8-39e0154843fb","ios":"levelo://app?vid=747738f1-db73-4ea5-8dc8-39e0154843fb"},"vehicle_type_id":"4","last_reported":1739696900,"current_range_meters":30000,"station_id":"ce4bgvp2rcd13ifvqct0","pricing_plan_id":"cebpf4jnsgd1na2vs0mg"},{"bike_id":"2d744cd1-8083-459a-b942-57bd28387959","system_id":"levelo_inurba_marseille","lat":43.25569,"lon":5.38241,"is_reserved":false,"is_disabled":false,"rental_uris":{"android":"levelo://app?vid=2d744cd1-8083-459a-b942-57bd28387959","ios":"levelo://app?vid=2d744cd1-8083-459a-b942-57bd28387959"},"vehicle_type_id":"4","last_reported":1739696900,"current_range_meters":22000,"station_id":"ce4bhih2rcd13ifvqfs0","pricing_plan_id":"cebpf4jnsgd1na2vs0mg"},{"bike_id":"c40e2cb9-b89c-4dbd-956b-535ef79f1d37","system_id":"levelo_inurba_marseille","lat":43.24811,"lon":5.37419,"is_reserved":false,"is_disabled":false,"rental_uris":{"android":"levelo://app?vid=c40e2cb9-b89c-4dbd-956b-535ef79f1d37","ios":"levelo://app?vid=c40e2cb9-b89c-4dbd-956b-535ef79f1d37"},"vehicle_type_id":"4","last_reported":1739696900,"current_range_meters":19600,"station_id":"ce4bhgh2rcd13ifvqfb0","pricing_plan_id":"cebpf4jnsgd1na2vs0mg"},{"bike_id":"621aa48b-6d99-46c4-b886-2c6eb903854e","system_id":"levelo_inurba_marseille","lat":43.29272,"lon":5.36834,"is_reserved":false,"is_disabled":true,"rental_uris":{"android":"levelo://app?vid=621aa48b-6d99-46c4-b886-2c6eb903854e","ios":"levelo://app?vid=621aa48b-6d99-46c4-b886-2c6eb903854e"},"vehicle_type_id":"4","last_reported":1739696900,"current_range_meters":28800,"station_id":"ce4bhbp2rcd13ifvqesg","pricing_plan_id":"cebpf4jnsgd1na2vs0mg"},{"bike_id":"460e673d-f39f-4b14-a48a-f584a9ac2195","system_id":"levelo_inurba_marseille","lat":43.25725,"lon":5.41121,"is_reserved":false,"is_disabled":false,"rental_uris":{"android":"levelo://app?vid=460e673d-f39f-4b14-a48a-f584a9ac2195","ios":"levelo://app?vid=460e673d-f39f-4b14-a48a-f584a9ac2195"},"vehicle_type_id":"4","last_reported":1739696900,"current_range_meters":36400,"station_id":"ce4bhkp2rcd13ifvqgd0","pricing_plan_id":"cebpf4jnsgd1na2vs0mg"},{"bike_id":"52f0172c-5485-4234-ab72-828fe4e1e6ea","system_id":"levelo_inurba_marseille","lat":43.3262,"lon":5.41022,"is_reserved":false,"is_disabled":false,"rental_uris":{"android":"levelo://app?vid=52f0172c-5485-4234-ab72-828fe4e1e6ea","ios":"levelo://app?vid=52f0172c-5485-4234-ab72-828fe4e1e6ea"},"vehicle_type_id":"4","last_reported":1739696900,"current_range_meters":38000,"station_id":"ce4bhpp2rcd13ifvqhgg","pricing_plan_id":"cebpf4jnsgd1na2vs0mg"},{"bike_id":"8ea8a511-fb9d-427a-9d43-0669507fa2be","system_id":"levelo_inurba_marseille","lat":43.32466,"lon":5.36574,"is_reserved":false,"is_disabled":false,"rental_uris":{"android":"levelo://app?vid=8ea8a511-fb9d-427a-9d43-0669507fa2be","ios":"levelo://app?vid=8ea8a511-fb9d-427a-9d43-0669507fa2be"},"vehicle_type_id":"4","last_reported":1739696900,"current_range_meters":39200,"station_id":"ce4bhs12rcd13ifvqhvg","pricing_plan_id":"cebpf4jnsgd1na2vs0mg"},{"bike_id":"4afd05b5-41e1-4012-b907-304d88773920","system_id":"levelo_inurba_marseille","lat":43.23965,"lon":5.36641,"is_reserved":false,"is_disabled":false,"rental_uris":{"android":"levelo://app?vid=4afd05b5-41e1-4012-b907-304d88773920","ios":"levelo://app?vid=4afd05b5-41e1-4012-b907-304d88773920"},"vehicle_type_id":"4","last_reported":1739696900,"current_range_meters":36800,"station_id":"ce4bhi12rcd13ifvqfp0","pricing_plan_id":"cebpf4jnsgd1na2vs0mg"},{"bike_id":"1d2ff744-1c27-4c3c-8edc-e33765db134a","system_id":"levelo_inurba_marseille","lat":43.30874,"lon":5.372,"is_reserved":false,"is_disabled":false,"rental_uris":{"android":"levelo://app?vid=1d2ff744-1c27-4c3c-8edc-e33765db134a","ios":"levelo://app?vid=1d2ff744-1c27-4c3c-8edc-e33765db134a"},"vehicle_type_id":"4","last_reported":1739696900,"current_range_meters":25200,"station_id":"ce4bguh2rcd13ifvqckg","pricing_plan_id":"cebpf4jnsgd1na2vs0mg"},{"bike_id":"af02ac68-734a-4337-a76f-2d6f15936fdf","system_id":"levelo_inurba_marseille","lat":43.281497,"lon":5.426425,"is_reserved":false,"is_disabled":false,"rental_uris":{"android":"levelo://app?vid=af02ac68-734a-4337-a76f-2d6f15936fdf","ios":"levelo://app?vid=af02ac68-734a-4337-a76f-2d6f15936fdf"},"vehicle_type_id":"4","last_reported":1739696900,"current_range_meters":37600,"station_id":"ce4bhnh2rcd13ifvqgug","pricing_plan_id":"cebpf4jnsgd1na2vs0mg"},{"bike_id":"3d3a1b8e-9ac6-4dbd-9886-9c9cf6ac4982","system_id":"levelo_inurba_marseille","lat":43.313219,"lon":5.396963,"is_reserved":false,"is_disabled":false,"rental_uris":{"android":"levelo://app?vid=3d3a1b8e-9ac6-4dbd-9886-9c9cf6ac4982","ios":"levelo://app?vid=3d3a1b8e-9ac6-4dbd-9886-9c9cf6ac4982"},"vehicle_type_id":"4","last_reported":1739696900,"current_range_meters":38400,"station_id":"ce4bgvp2rcd13ifvqcu0","pricing_plan_id":"cebpf4jnsgd1na2vs0mg"},{"bike_id":"4a6bd693-024c-43c3-92ac-1d6f513c7850","system_id":"levelo_inurba_marseille","lat":43.25493,"lon":5.37648,"is_reserved":false,"is_disabled":false,"rental_uris":{"android":"levelo://app?vid=4a6bd693-024c-43c3-92ac-1d6f513c7850","ios":"levelo://app?vid=4a6bd693-024c-43c3-92ac-1d6f513c7850"},"vehicle_type_id":"4","last_reported":1739696900,"current_range_meters":38800,"station_id":"ce4bhh12rcd13ifvqff0","pricing_plan_id":"cebpf4jnsgd1na2vs0mg"},{"bike_id":"2229140b-0040-47ab-b57a-ad864d16aba9","system_id":"levelo_inurba_marseille","lat":43.287089,"lon":5.399793,"is_reserved":false,"is_disabled":false,"rental_uris":{"android":"levelo://app?vid=2229140b-0040-47ab-b57a-ad864d16aba9","ios":"levelo://app?vid=2229140b-0040-47ab-b57a-ad864d16aba9"},"vehicle_type_id":"4","last_reported":1739696900,"current_range_meters":37600,"station_id":"ce4bho92rcd13ifvqh3g","pricing_plan_id":"cebpf4jnsgd1na2vs0mg"},{"bike_id":"22da4f1b-a4d2-4d1f-9a4c-47740455ded9","system_id":"levelo_inurba_marseille","lat":43.295019,"lon":5.375137,"is_reserved":false,"is_disabled":false,"rental_uris":{"android":"levelo://app?vid=22da4f1b-a4d2-4d1f-9a4c-47740455ded9","ios":"levelo://app?vid=22da4f1b-a4d2-4d1f-9a4c-47740455ded9"},"vehicle_type_id":"4","last_reported":1739696900,"current_range_meters":35200,"station_id":"ce4bgkp2rcd13ifvqbmg","pricing_plan_id":"cebpf4jnsgd1na2vs0mg"},{"bike_id":"3ce3dae2-ed5f-43cb-bad9-b317ce2471d9","system_id":"levelo_inurba_marseille","lat":43.24813,"lon":5.37471,"is_reserved":false,"is_disabled":false,"rental_uris":{"android":"levelo://app?vid=3ce3dae2-ed5f-43cb-bad9-b317ce2471d9","ios":"levelo://app?vid=3ce3dae2-ed5f-43cb-bad9-b317ce2471d9"},"vehicle_type_id":"4","last_reported":1739696900,"current_range_meters":37600,"station_id":"ce4bhgh2rcd13ifvqfb0","pricing_plan_id":"cebpf4jnsgd1na2vs0mg"},{"bike_id":"b9e97b6e-67ae-41fc-bb3a-88f0580c2a2a","system_id":"levelo_inurba_marseille","lat":43.29259,"lon":5.36861,"is_reserved":false,"is_disabled":false,"rental_uris":{"android":"levelo://app?vid=b9e97b6e-67ae-41fc-bb3a-88f0580c2a2a","ios":"levelo://app?vid=b9e97b6e-67ae-41fc-bb3a-88f0580c2a2a"},"vehicle_type_id":"4","last_reported":1739696900,"current_range_meters":32400,"station_id":"ce4bhbp2rcd13ifvqesg","pricing_plan_id":"cebpf4jnsgd1na2vs0mg"},{"bike_id":"397f7144-3e20-4f61-9149-2720265fc375","system_id":"levelo_inurba_marseille","lat":43.24043,"lon":5.37745,"is_reserved":false,"is_disabled":false,"rental_uris":{"android":"levelo://app?vid=397f7144-3e20-4f61-9149-2720265fc375","ios":"levelo://app?vid=397f7144-3e20-4f61-9149-2720265fc375"},"vehicle_type_id":"4","last_reported":1739696900,"current_range_meters":36000,"station_id":"ce4bhnp2rcd13ifvqgvg","pricing_plan_id":"cebpf4jnsgd1na2vs0mg"},{"bike_id":"0c4294a0-e272-4613-87a9-1d8bb0783a64","system_id":"levelo_inurba_marseille","lat":43.30807,"lon":5.38141,"is_reserved":false,"is_disabled":false,"rental_uris":{"android":"levelo://app?vid=0c4294a0-e272-4613-87a9-1d8bb0783a64","ios":"levelo://app?vid=0c4294a0-e272-4613-87a9-1d8bb0783a64"},"vehicle_type_id":"4","last_reported":1739696900,"current_range_meters":24800,"station_id":"ce4bgt12rcd13ifvqce0","pricing_plan_id":"cebpf4jnsgd1na2vs0mg"},{"bike_id":"d22c0354-a53f-4a52-be5a-3deea4eca1e3","system_id":"levelo_inurba_marseille","lat":43.31249,"lon":5.36839,"is_reserved":false,"is_disabled":false,"rental_uris":{"android":"levelo://app?vid=d22c0354-a53f-4a52-be5a-3deea4eca1e3","ios":"levelo://app?vid=d22c0354-a53f-4a52-be5a-3deea4eca1e3"},"vehicle_type_id":"4","last_reported":1739696900,"current_range_meters":38400,"station_id":"ce4bgl92rcd13ifvqbq0","pricing_plan_id":"cebpf4jnsgd1na2vs0mg"},{"bike_id":"561c6c76-a6da-48c4-9ca0-fc5f4ea5945b","system_id":"levelo_inurba_marseille","lat":43.297578,"lon":5.380886,"is_reserved":false,"is_disabled":true,"rental_uris":{"android":"levelo://app?vid=561c6c76-a6da-48c4-9ca0-fc5f4ea5945b","ios":"levelo://app?vid=561c6c76-a6da-48c4-9ca0-fc5f4ea5945b"},"vehicle_type_id":"4","last_reported":1739696900,"current_range_meters":0,"station_id":"","pricing_plan_id":"cebpf4jnsgd1na2vs0mg"},{"bike_id":"391408fa-4661-4fa3-8f76-e7bcc0045315","system_id":"levelo_inurba_marseille","lat":43.2815,"lon":5.42649,"is_reserved":false,"is_disabled":false,"rental_uris":{"android":"levelo://app?vid=391408fa-4661-4fa3-8f76-e7bcc0045315","ios":"levelo://app?vid=391408fa-4661-4fa3-8f76-e7bcc0045315"},"vehicle_type_id":"4","last_reported":1739696900,"current_range_meters":38400,"station_id":"ce4bhnh2rcd13ifvqgug","pricing_plan_id":"cebpf4jnsgd1na2vs0mg"},{"bike_id":"7e823bc5-0deb-4af4-9a3e-1509918ed3b3","system_id":"levelo_inurba_marseille","lat":43.30159,"lon":5.38077,"is_reserved":false,"is_disabled":false,"rental_uris":{"android":"levelo://app?vid=7e823bc5-0deb-4af4-9a3e-1509918ed3b3","ios":"levelo://app?vid=7e823bc5-0deb-4af4-9a3e-1509918ed3b3"},"vehicle_type_id":"4","last_reported":1739696900,"current_range_meters":16800,"station_id":"ce4bgjp2rcd13ifvqbh0","pricing_plan_id":"cebpf4jnsgd1na2vs0mg"},{"bike_id":"9d7c84b1-5e85-40b5-9214-0ea5f354ecac","system_id":"levelo_inurba_marseille","lat":43.28615,"lon":5.38432,"is_reserved":false,"is_disabled":false,"rental_uris":{"android":"levelo://app?vid=9d7c84b1-5e85-40b5-9214-0ea5f354ecac","ios":"levelo://app?vid=9d7c84b1-5e85-40b5-9214-0ea5f354ecac"},"vehicle_type_id":"4","last_reported":1739696900,"current_range_meters":10000,"station_id":"","pricing_plan_id":"cebpf4jnsgd1na2vs0mg"},{"bike_id":"022c45bb-24ec-40e4-96c1-c93674470ea9","system_id":"levelo_inurba_marseille","lat":43.30984,"lon":5.40087,"is_reserved":false,"is_disabled":false,"rental_uris":{"android":"levelo://app?vid=022c45bb-24ec-40e4-96c1-c93674470ea9","ios":"levelo://app?vid=022c45bb-24ec-40e4-96c1-c93674470ea9"},"vehicle_type_id":"4","last_reported":1739696900,"current_range_meters":30000,"station_id":"ce4bgvp2rcd13ifvqct0","pricing_plan_id":"cebpf4jnsgd1na2vs0mg"},{"bike_id":"d505ae6b-8401-49d2-a7e3-85c98bc77f1c","system_id":"levelo_inurba_marseille","lat":43.32345,"lon":5.40629,"is_reserved":false,"is_disabled":false,"rental_uris":{"android":"levelo://app?vid=d505ae6b-8401-49d2-a7e3-85c98bc77f1c","ios":"levelo://app?vid=d505ae6b-8401-49d2-a7e3-85c98bc77f1c"},"vehicle_type_id":"4","last_reported":1739696900,"current_range_meters":19600,"station_id":"ce4bhq92rcd13ifvqhjg","pricing_plan_id":"cebpf4jnsgd1na2vs0mg"},{"bike_id":"d4d36247-2aab-4add-8265-c91892033971","system_id":"levelo_inurba_marseille","lat":43.278153,"lon":5.407051,"is_reserved":false,"is_disabled":false,"rental_uris":{"android":"levelo://app?vid=d4d36247-2aab-4add-8265-c91892033971","ios":"levelo://app?vid=d4d36247-2aab-4add-8265-c91892033971"},"vehicle_type_id":"4","last_reported":1739696900,"current_range_meters":18000,"station_id":"ce4bhnh2rcd13ifvqgtg","pricing_plan_id":"cebpf4jnsgd1na2vs0mg"},{"bike_id":"6408b994-ae56-4e32-95b9-cb0502299b0f","system_id":"levelo_inurba_marseille","lat":43.29564,"lon":5.42244,"is_reserved":false,"is_disabled":false,"rental_uris":{"android":"levelo://app?vid=6408b994-ae56-4e32-95b9-cb0502299b0f","ios":"levelo://app?vid=6408b994-ae56-4e32-95b9-cb0502299b0f"},"vehicle_type_id":"4","last_reported":1739696900,"current_range_meters":38400,"station_id":"ce4bhph2rcd13ifvqhdg","pricing_plan_id":"cebpf4jnsgd1na2vs0mg"},{"bike_id":"1196a9d6-675a-4454-8f43-1f67f9fb2664","system_id":"levelo_inurba_marseille","lat":43.27549,"lon":5.38409,"is_reserved":false,"is_disabled":false,"rental_uris":{"android":"levelo://app?vid=1196a9d6-675a-4454-8f43-1f67f9fb2664","ios":"levelo://app?vid=1196a9d6-675a-4454-8f43-1f67f9fb2664"},"vehicle_type_id":"4","last_reported":1739696900,"current_range_meters":38000,"station_id":"ce4bhh92rcd13ifvqfi0","pricing_plan_id":"cebpf4jnsgd1na2vs0mg"},{"bike_id":"982c499f-f482-40de-b19f-0c738b7d10ae","system_id":"levelo_inurba_marseille","lat":43.24805,"lon":5.37439,"is_reserved":false,"is_disabled":false,"rental_uris":{"android":"levelo://app?vid=982c499f-f482-40de-b19f-0c738b7d10ae","ios":"levelo://app?vid=982c499f-f482-40de-b19f-0c738b7d10ae"},"vehicle_type_id":"4","last_reported":1739696900,"current_range_meters":38800,"station_id":"ce4bhgh2rcd13ifvqfb0","pricing_plan_id":"cebpf4jnsgd1na2vs0mg"},{"bike_id":"98f62326-8a26-4889-8233-3fa661e57e03","system_id":"levelo_inurba_marseille","lat":43.25115,"lon":5.40321,"is_reserved":false,"is_disabled":false,"rental_uris":{"android":"levelo://app?vid=98f62326-8a26-4889-8233-3fa661e57e03","ios":"levelo://app?vid=98f62326-8a26-4889-8233-3fa661e57e03"},"vehicle_type_id":"4","last_reported":1739696900,"current_range_meters":8400,"station_id":"ce4bhlh2rcd13ifvqgig","pricing_plan_id":"cebpf4jnsgd1na2vs0mg"},{"bike_id":"265ccf22-a162-4f39-8e8c-a647f59c9078","system_id":"levelo_inurba_marseille","lat":43.24651,"lon":5.38134,"is_reserved":false,"is_disabled":false,"rental_uris":{"android":"levelo://app?vid=265ccf22-a162-4f39-8e8c-a647f59c9078","ios":"levelo://app?vid=265ccf22-a162-4f39-8e8c-a647f59c9078"},"vehicle_type_id":"4","last_reported":1739696900,"current_range_meters":27200,"station_id":"ce4bhih2rcd13ifvqfr0","pricing_plan_id":"cebpf4jnsgd1na2vs0mg"},{"bike_id":"4e1f36bf-920b-407f-bd8e-e12200457304","system_id":"levelo_inurba_marseille","lat":43.27801,"lon":5.40709,"is_reserved":false,"is_disabled":false,"rental_uris":{"android":"levelo://app?vid=4e1f36bf-920b-407f-bd8e-e12200457304","ios":"levelo://app?vid=4e1f36bf-920b-407f-bd8e-e12200457304"},"vehicle_type_id":"4","last_reported":1739696900,"current_range_meters":38400,"station_id":"ce4bhnh2rcd13ifvqgtg","pricing_plan_id":"cebpf4jnsgd1na2vs0mg"},{"bike_id":"7df33989-9cd1-4583-a90f-25c190f648b5","system_id":"levelo_inurba_marseille","lat":43.29379,"lon":5.38628,"is_reserved":false,"is_disabled":false,"rental_uris":{"android":"levelo://app?vid=7df33989-9cd1-4583-a90f-25c190f648b5","ios":"levelo://app?vid=7df33989-9cd1-4583-a90f-25c190f648b5"},"vehicle_type_id":"4","last_reported":1739696900,"current_range_meters":30400,"station_id":"ce4bh2h2rcd13ifvqdh0","pricing_plan_id":"cebpf4jnsgd1na2vs0mg"},{"bike_id":"20dca62c-279f-4d77-befc-f9aa410b4d31","system_id":"levelo_inurba_marseille","lat":43.24679,"lon":5.38149,"is_reserved":false,"is_disabled":false,"rental_uris":{"android":"levelo://app?vid=20dca62c-279f-4d77-befc-f9aa410b4d31","ios":"levelo://app?vid=20dca62c-279f-4d77-befc-f9aa410b4d31"},"vehicle_type_id":"4","last_reported":1739696900,"current_range_meters":38800,"station_id":"ce4bhih2rcd13ifvqfr0","pricing_plan_id":"cebpf4jnsgd1na2vs0mg"},{"bike_id":"efd9901a-6803-4b29-8df7-8219e5534d2f","system_id":"levelo_inurba_marseille","lat":43.29105,"lon":5.38131,"is_reserved":false,"is_disabled":false,"rental_uris":{"android":"levelo://app?vid=efd9901a-6803-4b29-8df7-8219e5534d2f","ios":"levelo://app?vid=efd9901a-6803-4b29-8df7-8219e5534d2f"},"vehicle_type_id":"4","last_reported":1739696900,"current_range_meters":11200,"station_id":"ce4bh512rcd13ifvqe2g","pricing_plan_id":"cebpf4jnsgd1na2vs0mg"},{"bike_id":"dbdf47a4-d01b-412c-94d4-ad4fe723ba69","system_id":"levelo_inurba_marseille","lat":43.290773,"lon":5.399586,"is_reserved":false,"is_disabled":false,"rental_uris":{"android":"levelo://app?vid=dbdf47a4-d01b-412c-94d4-ad4fe723ba69","ios":"levelo://app?vid=dbdf47a4-d01b-412c-94d4-ad4fe723ba69"},"vehicle_type_id":"4","last_reported":1739696900,"current_range_meters":33200,"station_id":"ce4bh392rcd13ifvqdm0","pricing_plan_id":"cebpf4jnsgd1na2vs0mg"},{"bike_id":"2ffb2f0d-1564-4b61-9641-0264b97dcb96","system_id":"levelo_inurba_marseille","lat":43.29631,"lon":5.40607,"is_reserved":false,"is_disabled":false,"rental_uris":{"android":"levelo://app?vid=2ffb2f0d-1564-4b61-9641-0264b97dcb96","ios":"levelo://app?vid=2ffb2f0d-1564-4b61-9641-0264b97dcb96"},"vehicle_type_id":"4","last_reported":1739696900,"current_range_meters":36000,"station_id":"ce4bh0h2rcd13ifvqd60","pricing_plan_id":"cebpf4jnsgd1na2vs0mg"},{"bike_id":"2511d7ac-a24a-4d26-a5ec-52dbc6dd9ae0","system_id":"levelo_inurba_marseille","lat":43.29527,"lon":5.37497,"is_reserved":false,"is_disabled":false,"rental_uris":{"android":"levelo://app?vid=2511d7ac-a24a-4d26-a5ec-52dbc6dd9ae0","ios":"levelo://app?vid=2511d7ac-a24a-4d26-a5ec-52dbc6dd9ae0"},"vehicle_type_id":"4","last_reported":1739696900,"current_range_meters":38000,"station_id":"ce4bgkp2rcd13ifvqbmg","pricing_plan_id":"cebpf4jnsgd1na2vs0mg"},{"bike_id":"be2f27c7-ea95-4fbb-9388-111f59027127","system_id":"levelo_inurba_marseille","lat":43.27316,"lon":5.39077,"is_reserved":false,"is_disabled":false,"rental_uris":{"android":"levelo://app?vid=be2f27c7-ea95-4fbb-9388-111f59027127","ios":"levelo://app?vid=be2f27c7-ea95-4fbb-9388-111f59027127"},"vehicle_type_id":"4","last_reported":1739696900,"current_range_meters":37600,"station_id":"ce4bhgp2rcd13ifvqfe0","pricing_plan_id":"cebpf4jnsgd1na2vs0mg"},{"bike_id":"4f94d3ea-2fa8-406d-ac76-1cdda1cdfddb","system_id":"levelo_inurba_marseille","lat":43.324845,"lon":5.36562,"is_reserved":false,"is_disabled":false,"rental_uris":{"android":"levelo://app?vid=4f94d3ea-2fa8-406d-ac76-1cdda1cdfddb","ios":"levelo://app?vid=4f94d3ea-2fa8-406d-ac76-1cdda1cdfddb"},"vehicle_type_id":"4","last_reported":1739696900,"current_range_meters":32000,"station_id":"ce4bhs12rcd13ifvqhvg","pricing_plan_id":"cebpf4jnsgd1na2vs0mg"},{"bike_id":"72526c7a-bad2-48be-9eb5-30027376ec95","system_id":"levelo_inurba_marseille","lat":43.232031,"lon":5.355541,"is_reserved":false,"is_disabled":false,"rental_uris":{"android":"levelo://app?vid=72526c7a-bad2-48be-9eb5-30027376ec95","ios":"levelo://app?vid=72526c7a-bad2-48be-9eb5-30027376ec95"},"vehicle_type_id":"4","last_reported":1739696900,"current_range_meters":38000,"station_id":"ce4bhu92rcd13ifvqi70","pricing_plan_id":"cebpf4jnsgd1na2vs0mg"},{"bike_id":"556c1d6d-667a-404b-9e60-1953c9298af3","system_id":"levelo_inurba_marseille","lat":43.286178,"lon":5.351049,"is_reserved":false,"is_disabled":false,"rental_uris":{"android":"levelo://app?vid=556c1d6d-667a-404b-9e60-1953c9298af3","ios":"levelo://app?vid=556c1d6d-667a-404b-9e60-1953c9298af3"},"vehicle_type_id":"4","last_reported":1739696900,"current_range_meters":7200,"station_id":"ce4bhch2rcd13ifvqeug","pricing_plan_id":"cebpf4jnsgd1na2vs0mg"},{"bike_id":"208f6fa9-d018-4d26-9e12-c220cc22c78a","system_id":"levelo_inurba_marseille","lat":43.29791,"lon":5.39345,"is_reserved":false,"is_disabled":false,"rental_uris":{"android":"levelo://app?vid=208f6fa9-d018-4d26-9e12-c220cc22c78a","ios":"levelo://app?vid=208f6fa9-d018-4d26-9e12-c220cc22c78a"},"vehicle_type_id":"4","last_reported":1739696900,"current_range_meters":37600,"station_id":"chh1huq6cuj3fo74tm60","pricing_plan_id":"cebpf4jnsgd1na2vs0mg"},{"bike_id":"ce732306-e365-46c6-bdc9-b95cbf3434a0","system_id":"levelo_inurba_marseille","lat":43.24663,"lon":5.38159,"is_reserved":false,"is_disabled":false,"rental_uris":{"android":"levelo://app?vid=ce732306-e365-46c6-bdc9-b95cbf3434a0","ios":"levelo://app?vid=ce732306-e365-46c6-bdc9-b95cbf3434a0"},"vehicle_type_id":"4","last_reported":1739696900,"current_range_meters":33200,"station_id":"ce4bhih2rcd13ifvqfr0","pricing_plan_id":"cebpf4jnsgd1na2vs0mg"},{"bike_id":"2b6f667b-5ac4-40dd-9719-2c1d8e18c2d1","system_id":"levelo_inurba_marseille","lat":43.30421,"lon":5.41276,"is_reserved":false,"is_disabled":false,"rental_uris":{"android":"levelo://app?vid=2b6f667b-5ac4-40dd-9719-2c1d8e18c2d1","ios":"levelo://app?vid=2b6f667b-5ac4-40dd-9719-2c1d8e18c2d1"},"vehicle_type_id":"4","last_reported":1739696900,"current_range_meters":23200,"station_id":"ce4bhop2rcd13ifvqh8g","pricing_plan_id":"cebpf4jnsgd1na2vs0mg"},{"bike_id":"917b1dc0-adb2-4903-84ef-22990e0daa55","system_id":"levelo_inurba_marseille","lat":43.30407,"lon":5.41311,"is_reserved":false,"is_disabled":false,"rental_uris":{"android":"levelo://app?vid=917b1dc0-adb2-4903-84ef-22990e0daa55","ios":"levelo://app?vid=917b1dc0-adb2-4903-84ef-22990e0daa55"},"vehicle_type_id":"4","last_reported":1739696900,"current_range_meters":34000,"station_id":"ce4bhop2rcd13ifvqh8g","pricing_plan_id":"cebpf4jnsgd1na2vs0mg"},{"bike_id":"d40731c3-185c-4afc-b30b-3965bcf00f5f","system_id":"levelo_inurba_marseille","lat":43.31502,"lon":5.37257,"is_reserved":false,"is_disabled":false,"rental_uris":{"android":"levelo://app?vid=d40731c3-185c-4afc-b30b-3965bcf00f5f","ios":"levelo://app?vid=d40731c3-185c-4afc-b30b-3965bcf00f5f"},"vehicle_type_id":"4","last_reported":1739696900,"current_range_meters":39200,"station_id":"ce4bgt12rcd13ifvqcd0","pricing_plan_id":"cebpf4jnsgd1na2vs0mg"},{"bike_id":"03eba1d0-92c1-4e6e-a4d0-7c546f2439c0","system_id":"levelo_inurba_marseille","lat":43.337444,"lon":5.374475,"is_reserved":false,"is_disabled":true,"rental_uris":{"android":"levelo://app?vid=03eba1d0-92c1-4e6e-a4d0-7c546f2439c0","ios":"levelo://app?vid=03eba1d0-92c1-4e6e-a4d0-7c546f2439c0"},"vehicle_type_id":"4","last_reported":1739696900,"current_range_meters":0,"station_id":"","pricing_plan_id":"cebpf4jnsgd1na2vs0mg"},{"bike_id":"2b51a041-a600-4f69-92f9-b5941fc7c79e","system_id":"levelo_inurba_marseille","lat":43.28443,"lon":5.391825,"is_reserved":false,"is_disabled":true,"rental_uris":{"android":"levelo://app?vid=2b51a041-a600-4f69-92f9-b5941fc7c79e","ios":"levelo://app?vid=2b51a041-a600-4f69-92f9-b5941fc7c79e"},"vehicle_type_id":"4","last_reported":1739696900,"current_range_meters":28800,"station_id":"ce4bhoh2rcd13ifvqh5g","pricing_plan_id":"cebpf4jnsgd1na2vs0mg"},{"bike_id":"653b3681-8d49-4063-97bd-177fe11162f9","system_id":"levelo_inurba_marseille","lat":43.254887,"lon":5.376624,"is_reserved":false,"is_disabled":true,"rental_uris":{"android":"levelo://app?vid=653b3681-8d49-4063-97bd-177fe11162f9","ios":"levelo://app?vid=653b3681-8d49-4063-97bd-177fe11162f9"},"vehicle_type_id":"4","last_reported":1739696900,"current_range_meters":33200,"station_id":"ce4bhh12rcd13ifvqff0","pricing_plan_id":"cebpf4jnsgd1na2vs0mg"},{"bike_id":"01d63376-9c77-45ad-85cc-66ef373398fe","system_id":"levelo_inurba_marseille","lat":43.32464,"lon":5.36588,"is_reserved":false,"is_disabled":false,"rental_uris":{"android":"levelo://app?vid=01d63376-9c77-45ad-85cc-66ef373398fe","ios":"levelo://app?vid=01d63376-9c77-45ad-85cc-66ef373398fe"},"vehicle_type_id":"4","last_reported":1739696900,"current_range_meters":38000,"station_id":"ce4bhs12rcd13ifvqhvg","pricing_plan_id":"cebpf4jnsgd1na2vs0mg"},{"bike_id":"561fd983-a1c7-43b8-8f57-a73d312cb67a","system_id":"levelo_inurba_marseille","lat":43.32049,"lon":5.4158,"is_reserved":false,"is_disabled":false,"rental_uris":{"android":"levelo://app?vid=561fd983-a1c7-43b8-8f57-a73d312cb67a","ios":"levelo://app?vid=561fd983-a1c7-43b8-8f57-a73d312cb67a"},"vehicle_type_id":"4","last_reported":1739696900,"current_range_meters":38000,"station_id":"ce4bhq92rcd13ifvqhkg","pricing_plan_id":"cebpf4jnsgd1na2vs0mg"},{"bike_id":"3341758d-d181-4d02-b02c-6161e8816e88","system_id":"levelo_inurba_marseille","lat":43.31903,"lon":5.40736,"is_reserved":false,"is_disabled":false,"rental_uris":{"android":"levelo://app?vid=3341758d-d181-4d02-b02c-6161e8816e88","ios":"levelo://app?vid=3341758d-d181-4d02-b02c-6161e8816e88"},"vehicle_type_id":"4","last_reported":1739696900,"current_range_meters":18000,"station_id":"ce4bhq12rcd13ifvqhig","pricing_plan_id":"cebpf4jnsgd1na2vs0mg"},{"bike_id":"dbf220bb-131a-4509-b32e-690ce6030049","system_id":"levelo_inurba_marseille","lat":43.323988,"lon":5.406654,"is_reserved":false,"is_disabled":false,"rental_uris":{"android":"levelo://app?vid=dbf220bb-131a-4509-b32e-690ce6030049","ios":"levelo://app?vid=dbf220bb-131a-4509-b32e-690ce6030049"},"vehicle_type_id":"4","last_reported":1739696900,"current_range_meters":26800,"station_id":"","pricing_plan_id":"cebpf4jnsgd1na2vs0mg"},{"bike_id":"d7bb91c7-1e6c-4011-85a2-08678dbfba66","system_id":"levelo_inurba_marseille","lat":43.24392,"lon":5.37097,"is_reserved":false,"is_disabled":false,"rental_uris":{"android":"levelo://app?vid=d7bb91c7-1e6c-4011-85a2-08678dbfba66","ios":"levelo://app?vid=d7bb91c7-1e6c-4011-85a2-08678dbfba66"},"vehicle_type_id":"4","last_reported":1739696900,"current_range_meters":38800,"station_id":"ce4bhhh2rcd13ifvqfk0","pricing_plan_id":"cebpf4jnsgd1na2vs0mg"},{"bike_id":"e076a757-de65-497e-b004-8a6913560a59","system_id":"levelo_inurba_marseille","lat":43.31506,"lon":5.37294,"is_reserved":false,"is_disabled":false,"rental_uris":{"android":"levelo://app?vid=e076a757-de65-497e-b004-8a6913560a59","ios":"levelo://app?vid=e076a757-de65-497e-b004-8a6913560a59"},"vehicle_type_id":"4","last_reported":1739696900,"current_range_meters":34000,"station_id":"ce4bgt12rcd13ifvqcd0","pricing_plan_id":"cebpf4jnsgd1na2vs0mg"},{"bike_id":"1163f4f7-255b-46d1-8012-6cca3151d589","system_id":"levelo_inurba_marseille","lat":43.30803,"lon":5.38142,"is_reserved":false,"is_disabled":false,"rental_uris":{"android":"levelo://app?vid=1163f4f7-255b-46d1-8012-6cca3151d589","ios":"levelo://app?vid=1163f4f7-255b-46d1-8012-6cca3151d589"},"vehicle_type_id":"4","last_reported":1739696900,"current_range_meters":24800,"station_id":"ce4bgt12rcd13ifvqce0","pricing_plan_id":"cebpf4jnsgd1na2vs0mg"},{"bike_id":"1f52f3b3-3e4c-4076-9fe5-f4b3bb4b252a","system_id":"levelo_inurba_marseille","lat":43.274643,"lon":5.435179,"is_reserved":false,"is_disabled":true,"rental_uris":{"android":"levelo://app?vid=1f52f3b3-3e4c-4076-9fe5-f4b3bb4b252a","ios":"levelo://app?vid=1f52f3b3-3e4c-4076-9fe5-f4b3bb4b252a"},"vehicle_type_id":"4","last_reported":1739696900,"current_range_meters":0,"station_id":"","pricing_plan_id":"cebpf4jnsgd1na2vs0mg"},{"bike_id":"36e9626a-f0c0-42ed-9b51-b652c3621f49","system_id":"levelo_inurba_marseille","lat":43.2417,"lon":5.39755,"is_reserved":false,"is_disabled":false,"rental_uris":{"android":"levelo://app?vid=36e9626a-f0c0-42ed-9b51-b652c3621f49","ios":"levelo://app?vid=36e9626a-f0c0-42ed-9b51-b652c3621f49"},"vehicle_type_id":"4","last_reported":1739696900,"current_range_meters":18800,"station_id":"ce4bhn12rcd13ifvqgpg","pricing_plan_id":"cebpf4jnsgd1na2vs0mg"},{"bike_id":"7810399a-aba8-4931-8563-2a4f4266c078","system_id":"levelo_inurba_marseille","lat":43.25112,"lon":5.40318,"is_reserved":false,"is_disabled":false,"rental_uris":{"android":"levelo://app?vid=7810399a-aba8-4931-8563-2a4f4266c078","ios":"levelo://app?vid=7810399a-aba8-4931-8563-2a4f4266c078"},"vehicle_type_id":"4","last_reported":1739696900,"current_range_meters":9600,"station_id":"ce4bhlh2rcd13ifvqgig","pricing_plan_id":"cebpf4jnsgd1na2vs0mg"},{"bike_id":"c02630e4-0321-47b6-ac2b-aeaf7b2a8056","system_id":"levelo_inurba_marseille","lat":43.2988,"lon":5.39727,"is_reserved":false,"is_disabled":false,"rental_uris":{"android":"levelo://app?vid=c02630e4-0321-47b6-ac2b-aeaf7b2a8056","ios":"levelo://app?vid=c02630e4-0321-47b6-ac2b-aeaf7b2a8056"},"vehicle_type_id":"4","last_reported":1739696900,"current_range_meters":8000,"station_id":"ce4bh0h2rcd13ifvqd50","pricing_plan_id":"cebpf4jnsgd1na2vs0mg"},{"bike_id":"bd1fbd17-5ecd-4c2a-9290-d1ffd1a70214","system_id":"levelo_inurba_marseille","lat":43.29553,"lon":5.42281,"is_reserved":false,"is_disabled":false,"rental_uris":{"android":"levelo://app?vid=bd1fbd17-5ecd-4c2a-9290-d1ffd1a70214","ios":"levelo://app?vid=bd1fbd17-5ecd-4c2a-9290-d1ffd1a70214"},"vehicle_type_id":"4","last_reported":1739696900,"current_range_meters":28800,"station_id":"ce4bhph2rcd13ifvqhdg","pricing_plan_id":"cebpf4jnsgd1na2vs0mg"},{"bike_id":"6127f497-466e-4a0c-8551-3df79a118870","system_id":"levelo_inurba_marseille","lat":43.30812,"lon":5.38156,"is_reserved":false,"is_disabled":false,"rental_uris":{"android":"levelo://app?vid=6127f497-466e-4a0c-8551-3df79a118870","ios":"levelo://app?vid=6127f497-466e-4a0c-8551-3df79a118870"},"vehicle_type_id":"4","last_reported":1739696900,"current_range_meters":38800,"station_id":"ce4bgt12rcd13ifvqce0","pricing_plan_id":"cebpf4jnsgd1na2vs0mg"},{"bike_id":"25515edf-cc9e-4e85-becb-3fd8e850755e","system_id":"levelo_inurba_marseille","lat":43.28153,"lon":5.42659,"is_reserved":false,"is_disabled":false,"rental_uris":{"android":"levelo://app?vid=25515edf-cc9e-4e85-becb-3fd8e850755e","ios":"levelo://app?vid=25515edf-cc9e-4e85-becb-3fd8e850755e"},"vehicle_type_id":"4","last_reported":1739696900,"current_range_meters":7200,"station_id":"ce4bhnh2rcd13ifvqgug","pricing_plan_id":"cebpf4jnsgd1na2vs0mg"},{"bike_id":"b9ff6eec-0a38-4789-a15e-f3855db0e022","system_id":"levelo_inurba_marseille","lat":43.25106,"lon":5.40417,"is_reserved":false,"is_disabled":false,"rental_uris":{"android":"levelo://app?vid=b9ff6eec-0a38-4789-a15e-f3855db0e022","ios":"levelo://app?vid=b9ff6eec-0a38-4789-a15e-f3855db0e022"},"vehicle_type_id":"4","last_reported":1739696900,"current_range_meters":10800,"station_id":"","pricing_plan_id":"cebpf4jnsgd1na2vs0mg"},{"bike_id":"4f34ac20-13f8-4bff-8fa6-5425328bb98e","system_id":"levelo_inurba_marseille","lat":43.3025,"lon":5.40094,"is_reserved":false,"is_disabled":true,"rental_uris":{"android":"levelo://app?vid=4f34ac20-13f8-4bff-8fa6-5425328bb98e","ios":"levelo://app?vid=4f34ac20-13f8-4bff-8fa6-5425328bb98e"},"vehicle_type_id":"4","last_reported":1739696900,"current_range_meters":25200,"station_id":"ce4bgvh2rcd13ifvqcs0","pricing_plan_id":"cebpf4jnsgd1na2vs0mg"},{"bike_id":"6ebbedc7-a203-43c1-be28-2b5d0c0af955","system_id":"levelo_inurba_marseille","lat":43.279416,"lon":5.410364,"is_reserved":false,"is_disabled":false,"rental_uris":{"android":"levelo://app?vid=6ebbedc7-a203-43c1-be28-2b5d0c0af955","ios":"levelo://app?vid=6ebbedc7-a203-43c1-be28-2b5d0c0af955"},"vehicle_type_id":"4","last_reported":1739696900,"current_range_meters":18000,"station_id":"ce4bhnp2rcd13ifvqh0g","pricing_plan_id":"cebpf4jnsgd1na2vs0mg"},{"bike_id":"68e091eb-0298-4cb5-b5eb-8dfc36218da6","system_id":"levelo_inurba_marseille","lat":43.23174,"lon":5.39993,"is_reserved":false,"is_disabled":false,"rental_uris":{"android":"levelo://app?vid=68e091eb-0298-4cb5-b5eb-8dfc36218da6","ios":"levelo://app?vid=68e091eb-0298-4cb5-b5eb-8dfc36218da6"},"vehicle_type_id":"4","last_reported":1739696900,"current_range_meters":38000,"station_id":"ce4bhn12rcd13ifvqgqg","pricing_plan_id":"cebpf4jnsgd1na2vs0mg"},{"bike_id":"d63b7867-53a4-4bca-be72-b856d1cbea50","system_id":"levelo_inurba_marseille","lat":43.239594,"lon":5.366254,"is_reserved":false,"is_disabled":false,"rental_uris":{"android":"levelo://app?vid=d63b7867-53a4-4bca-be72-b856d1cbea50","ios":"levelo://app?vid=d63b7867-53a4-4bca-be72-b856d1cbea50"},"vehicle_type_id":"4","last_reported":1739696900,"current_range_meters":20800,"station_id":"ce4bhi12rcd13ifvqfp0","pricing_plan_id":"cebpf4jnsgd1na2vs0mg"},{"bike_id":"67b9e083-4966-492b-9ec6-8c76d84bc7cc","system_id":"levelo_inurba_marseille","lat":43.2985,"lon":5.39769,"is_reserved":false,"is_disabled":false,"rental_uris":{"android":"levelo://app?vid=67b9e083-4966-492b-9ec6-8c76d84bc7cc","ios":"levelo://app?vid=67b9e083-4966-492b-9ec6-8c76d84bc7cc"},"vehicle_type_id":"4","last_reported":1739696900,"current_range_meters":16400,"station_id":"ce4bh0h2rcd13ifvqd50","pricing_plan_id":"cebpf4jnsgd1na2vs0mg"},{"bike_id":"c47616ba-4408-41b4-bfef-d41e880abc31","system_id":"levelo_inurba_marseille","lat":43.23188,"lon":5.39992,"is_reserved":false,"is_disabled":false,"rental_uris":{"android":"levelo://app?vid=c47616ba-4408-41b4-bfef-d41e880abc31","ios":"levelo://app?vid=c47616ba-4408-41b4-bfef-d41e880abc31"},"vehicle_type_id":"4","last_reported":1739696900,"current_range_meters":15200,"station_id":"ce4bhn12rcd13ifvqgqg","pricing_plan_id":"cebpf4jnsgd1na2vs0mg"},{"bike_id":"55201e7b-c86e-4903-ba7d-a7f135f32788","system_id":"levelo_inurba_marseille","lat":43.315292,"lon":5.380268,"is_reserved":false,"is_disabled":false,"rental_uris":{"android":"levelo://app?vid=55201e7b-c86e-4903-ba7d-a7f135f32788","ios":"levelo://app?vid=55201e7b-c86e-4903-ba7d-a7f135f32788"},"vehicle_type_id":"4","last_reported":1739696900,"current_range_meters":38800,"station_id":"ce4bhsp2rcd13ifvqi50","pricing_plan_id":"cebpf4jnsgd1na2vs0mg"},{"bike_id":"1a70beae-318b-417c-9b69-06b61a7df44a","system_id":"levelo_inurba_marseille","lat":43.298697,"lon":5.397316,"is_reserved":false,"is_disabled":false,"rental_uris":{"android":"levelo://app?vid=1a70beae-318b-417c-9b69-06b61a7df44a","ios":"levelo://app?vid=1a70beae-318b-417c-9b69-06b61a7df44a"},"vehicle_type_id":"4","last_reported":1739696900,"current_range_meters":25200,"station_id":"ce4bh0h2rcd13ifvqd50","pricing_plan_id":"cebpf4jnsgd1na2vs0mg"},{"bike_id":"02db7a28-fc2d-4a4a-92a0-cec040e64718","system_id":"levelo_inurba_marseille","lat":43.239589,"lon":5.366362,"is_reserved":false,"is_disabled":false,"rental_uris":{"android":"levelo://app?vid=02db7a28-fc2d-4a4a-92a0-cec040e64718","ios":"levelo://app?vid=02db7a28-fc2d-4a4a-92a0-cec040e64718"},"vehicle_type_id":"4","last_reported":1739696900,"current_range_meters":5600,"station_id":"ce4bhi12rcd13ifvqfp0","pricing_plan_id":"cebpf4jnsgd1na2vs0mg"},{"bike_id":"4ae4c2a1-d7a8-4f2e-ba31-84f8ae4e4055","system_id":"levelo_inurba_marseille","lat":43.26743,"lon":5.37202,"is_reserved":false,"is_disabled":false,"rental_uris":{"android":"levelo://app?vid=4ae4c2a1-d7a8-4f2e-ba31-84f8ae4e4055","ios":"levelo://app?vid=4ae4c2a1-d7a8-4f2e-ba31-84f8ae4e4055"},"vehicle_type_id":"4","last_reported":1739696900,"current_range_meters":16000,"station_id":"","pricing_plan_id":"cebpf4jnsgd1na2vs0mg"},{"bike_id":"6f820518-8b07-484a-8c43-5d5451e338e7","system_id":"levelo_inurba_marseille","lat":43.231995,"lon":5.355585,"is_reserved":false,"is_disabled":false,"rental_uris":{"android":"levelo://app?vid=6f820518-8b07-484a-8c43-5d5451e338e7","ios":"levelo://app?vid=6f820518-8b07-484a-8c43-5d5451e338e7"},"vehicle_type_id":"4","last_reported":1739696900,"current_range_meters":30000,"station_id":"ce4bhu92rcd13ifvqi70","pricing_plan_id":"cebpf4jnsgd1na2vs0mg"},{"bike_id":"5eaad8a1-aa0b-468e-8026-b99911c4bead","system_id":"levelo_inurba_marseille","lat":43.23197,"lon":5.35556,"is_reserved":false,"is_disabled":false,"rental_uris":{"android":"levelo://app?vid=5eaad8a1-aa0b-468e-8026-b99911c4bead","ios":"levelo://app?vid=5eaad8a1-aa0b-468e-8026-b99911c4bead"},"vehicle_type_id":"4","last_reported":1739696900,"current_range_meters":12000,"station_id":"ce4bhu92rcd13ifvqi70","pricing_plan_id":"cebpf4jnsgd1na2vs0mg"},{"bike_id":"a3b76a23-e719-4cac-9132-63d31b15a8de","system_id":"levelo_inurba_marseille","lat":43.24159,"lon":5.36398,"is_reserved":false,"is_disabled":false,"rental_uris":{"android":"levelo://app?vid=a3b76a23-e719-4cac-9132-63d31b15a8de","ios":"levelo://app?vid=a3b76a23-e719-4cac-9132-63d31b15a8de"},"vehicle_type_id":"4","last_reported":1739696900,"current_range_meters":26000,"station_id":"cpo36qri1sfpv3e86is0","pricing_plan_id":"cebpf4jnsgd1na2vs0mg"},{"bike_id":"9769b69e-538d-40a3-8256-515928e1b590","system_id":"levelo_inurba_marseille","lat":43.30882,"lon":5.37212,"is_reserved":false,"is_disabled":false,"rental_uris":{"android":"levelo://app?vid=9769b69e-538d-40a3-8256-515928e1b590","ios":"levelo://app?vid=9769b69e-538d-40a3-8256-515928e1b590"},"vehicle_type_id":"4","last_reported":1739696900,"current_range_meters":6800,"station_id":"ce4bguh2rcd13ifvqckg","pricing_plan_id":"cebpf4jnsgd1na2vs0mg"},{"bike_id":"772a37e8-fd5d-4087-a73b-27277751f71e","system_id":"levelo_inurba_marseille","lat":43.2396,"lon":5.36642,"is_reserved":false,"is_disabled":false,"rental_uris":{"android":"levelo://app?vid=772a37e8-fd5d-4087-a73b-27277751f71e","ios":"levelo://app?vid=772a37e8-fd5d-4087-a73b-27277751f71e"},"vehicle_type_id":"4","last_reported":1739696900,"current_range_meters":9200,"station_id":"ce4bhi12rcd13ifvqfp0","pricing_plan_id":"cebpf4jnsgd1na2vs0mg"},{"bike_id":"fe0f12a8-8d62-4d79-b629-bda6901e6297","system_id":"levelo_inurba_marseille","lat":43.26979,"lon":5.40278,"is_reserved":false,"is_disabled":true,"rental_uris":{"android":"levelo://app?vid=fe0f12a8-8d62-4d79-b629-bda6901e6297","ios":"levelo://app?vid=fe0f12a8-8d62-4d79-b629-bda6901e6297"},"vehicle_type_id":"4","last_reported":1739696900,"current_range_meters":28000,"station_id":"cjm6bp8fraef2m0cb0m0","pricing_plan_id":"cebpf4jnsgd1na2vs0mg"},{"bike_id":"7dae3a69-67eb-430d-9d61-6bea76b2a848","system_id":"levelo_inurba_marseille","lat":43.28082,"lon":5.39644,"is_reserved":false,"is_disabled":false,"rental_uris":{"android":"levelo://app?vid=7dae3a69-67eb-430d-9d61-6bea76b2a848","ios":"levelo://app?vid=7dae3a69-67eb-430d-9d61-6bea76b2a848"},"vehicle_type_id":"4","last_reported":1739696900,"current_range_meters":15200,"station_id":"ce4bho12rcd13ifvqh2g","pricing_plan_id":"cebpf4jnsgd1na2vs0mg"},{"bike_id":"9f17ecbf-4d38-44f0-b012-f073da0b0f39","system_id":"levelo_inurba_marseille","lat":43.29277,"lon":5.36849,"is_reserved":false,"is_disabled":false,"rental_uris":{"android":"levelo://app?vid=9f17ecbf-4d38-44f0-b012-f073da0b0f39","ios":"levelo://app?vid=9f17ecbf-4d38-44f0-b012-f073da0b0f39"},"vehicle_type_id":"4","last_reported":1739696900,"current_range_meters":9200,"station_id":"ce4bhbp2rcd13ifvqesg","pricing_plan_id":"cebpf4jnsgd1na2vs0mg"},{"bike_id":"466babc0-124c-418f-8013-0bdd9593df0f","system_id":"levelo_inurba_marseille","lat":43.24393,"lon":5.37056,"is_reserved":false,"is_disabled":false,"rental_uris":{"android":"levelo://app?vid=466babc0-124c-418f-8013-0bdd9593df0f","ios":"levelo://app?vid=466babc0-124c-418f-8013-0bdd9593df0f"},"vehicle_type_id":"4","last_reported":1739696900,"current_range_meters":38800,"station_id":"ce4bhhh2rcd13ifvqfk0","pricing_plan_id":"cebpf4jnsgd1na2vs0mg"},{"bike_id":"cfbe67cf-6420-4945-9471-2d464aa6fcd4","system_id":"levelo_inurba_marseille","lat":43.2784,"lon":5.392038,"is_reserved":false,"is_disabled":true,"rental_uris":{"android":"levelo://app?vid=cfbe67cf-6420-4945-9471-2d464aa6fcd4","ios":"levelo://app?vid=cfbe67cf-6420-4945-9471-2d464aa6fcd4"},"vehicle_type_id":"4","last_reported":1739696900,"current_range_meters":6000,"station_id":"ce4bhjp2rcd13ifvqga0","pricing_plan_id":"cebpf4jnsgd1na2vs0mg"},{"bike_id":"168c41a1-aa17-40ae-aac7-dd02a7e23b9b","system_id":"levelo_inurba_marseille","lat":43.25101,"lon":5.40354,"is_reserved":false,"is_disabled":false,"rental_uris":{"android":"levelo://app?vid=168c41a1-aa17-40ae-aac7-dd02a7e23b9b","ios":"levelo://app?vid=168c41a1-aa17-40ae-aac7-dd02a7e23b9b"},"vehicle_type_id":"4","last_reported":1739696900,"current_range_meters":38800,"station_id":"ce4bhlh2rcd13ifvqgig","pricing_plan_id":"cebpf4jnsgd1na2vs0mg"},{"bike_id":"dc5294ff-c647-4cc8-9ff2-9cfe7a38b888","system_id":"levelo_inurba_marseille","lat":43.30533,"lon":5.3731,"is_reserved":false,"is_disabled":false,"rental_uris":{"android":"levelo://app?vid=dc5294ff-c647-4cc8-9ff2-9cfe7a38b888","ios":"levelo://app?vid=dc5294ff-c647-4cc8-9ff2-9cfe7a38b888"},"vehicle_type_id":"4","last_reported":1739696900,"current_range_meters":38800,"station_id":"ce4bgqh2rcd13ifvqc4g","pricing_plan_id":"cebpf4jnsgd1na2vs0mg"},{"bike_id":"2d1a0294-4315-4a6d-9042-006493c526cd","system_id":"levelo_inurba_marseille","lat":43.2957,"lon":5.40615,"is_reserved":false,"is_disabled":false,"rental_uris":{"android":"levelo://app?vid=2d1a0294-4315-4a6d-9042-006493c526cd","ios":"levelo://app?vid=2d1a0294-4315-4a6d-9042-006493c526cd"},"vehicle_type_id":"4","last_reported":1739696900,"current_range_meters":3600,"station_id":"","pricing_plan_id":"cebpf4jnsgd1na2vs0mg"},{"bike_id":"18decbeb-4062-42a7-b490-79abb09eacf9","system_id":"levelo_inurba_marseille","lat":43.26065,"lon":5.39358,"is_reserved":false,"is_disabled":false,"rental_uris":{"android":"levelo://app?vid=18decbeb-4062-42a7-b490-79abb09eacf9","ios":"levelo://app?vid=18decbeb-4062-42a7-b490-79abb09eacf9"},"vehicle_type_id":"4","last_reported":1739696900,"current_range_meters":33600,"station_id":"ce4bhh92rcd13ifvqfj0","pricing_plan_id":"cebpf4jnsgd1na2vs0mg"},{"bike_id":"1c5f2528-be3d-4d3f-a22c-a2658d4a3bca","system_id":"levelo_inurba_marseille","lat":43.25005,"lon":5.38936,"is_reserved":false,"is_disabled":false,"rental_uris":{"android":"levelo://app?vid=1c5f2528-be3d-4d3f-a22c-a2658d4a3bca","ios":"levelo://app?vid=1c5f2528-be3d-4d3f-a22c-a2658d4a3bca"},"vehicle_type_id":"4","last_reported":1739696900,"current_range_meters":27200,"station_id":"ce4bhgp2rcd13ifvqfd0","pricing_plan_id":"cebpf4jnsgd1na2vs0mg"},{"bike_id":"95a0c179-9678-4626-bcf6-57c11dc20a09","system_id":"levelo_inurba_marseille","lat":43.25128,"lon":5.40344,"is_reserved":false,"is_disabled":false,"rental_uris":{"android":"levelo://app?vid=95a0c179-9678-4626-bcf6-57c11dc20a09","ios":"levelo://app?vid=95a0c179-9678-4626-bcf6-57c11dc20a09"},"vehicle_type_id":"4","last_reported":1739696900,"current_range_meters":39200,"station_id":"ce4bhlh2rcd13ifvqgig","pricing_plan_id":"cebpf4jnsgd1na2vs0mg"},{"bike_id":"fd3c4de7-c544-4bdf-b31e-d362276f517f","system_id":"levelo_inurba_marseille","lat":43.287,"lon":5.36122,"is_reserved":false,"is_disabled":false,"rental_uris":{"android":"levelo://app?vid=fd3c4de7-c544-4bdf-b31e-d362276f517f","ios":"levelo://app?vid=fd3c4de7-c544-4bdf-b31e-d362276f517f"},"vehicle_type_id":"4","last_reported":1739696900,"current_range_meters":30400,"station_id":"cki0cbj6b192h4jlfktg","pricing_plan_id":"cebpf4jnsgd1na2vs0mg"},{"bike_id":"9f912eed-51aa-49cb-84a4-977637263173","system_id":"levelo_inurba_marseille","lat":43.29889,"lon":5.38088,"is_reserved":false,"is_disabled":false,"rental_uris":{"android":"levelo://app?vid=9f912eed-51aa-49cb-84a4-977637263173","ios":"levelo://app?vid=9f912eed-51aa-49cb-84a4-977637263173"},"vehicle_type_id":"4","last_reported":1739696900,"current_range_meters":23200,"station_id":"","pricing_plan_id":"cebpf4jnsgd1na2vs0mg"},{"bike_id":"f76de03d-d754-4d8b-97a4-7811084bfc95","system_id":"levelo_inurba_marseille","lat":43.26495,"lon":5.39562,"is_reserved":false,"is_disabled":false,"rental_uris":{"android":"levelo://app?vid=f76de03d-d754-4d8b-97a4-7811084bfc95","ios":"levelo://app?vid=f76de03d-d754-4d8b-97a4-7811084bfc95"},"vehicle_type_id":"4","last_reported":1739696900,"current_range_meters":38000,"station_id":"ce4bhi12rcd13ifvqfq0","pricing_plan_id":"cebpf4jnsgd1na2vs0mg"},{"bike_id":"ac0d7e4b-b509-4fae-9161-5c5779da96c6","system_id":"levelo_inurba_marseille","lat":43.2971,"lon":5.37706,"is_reserved":false,"is_disabled":false,"rental_uris":{"android":"levelo://app?vid=ac0d7e4b-b509-4fae-9161-5c5779da96c6","ios":"levelo://app?vid=ac0d7e4b-b509-4fae-9161-5c5779da96c6"},"vehicle_type_id":"4","last_reported":1739696900,"current_range_meters":36800,"station_id":"ce4bgkh2rcd13ifvqbl0","pricing_plan_id":"cebpf4jnsgd1na2vs0mg"},{"bike_id":"e9e4e10c-18cc-446a-9084-4db10dfe007c","system_id":"levelo_inurba_marseille","lat":43.28103,"lon":5.37845,"is_reserved":false,"is_disabled":false,"rental_uris":{"android":"levelo://app?vid=e9e4e10c-18cc-446a-9084-4db10dfe007c","ios":"levelo://app?vid=e9e4e10c-18cc-446a-9084-4db10dfe007c"},"vehicle_type_id":"4","last_reported":1739696900,"current_range_meters":24800,"station_id":"ce4bha12rcd13ifvqee0","pricing_plan_id":"cebpf4jnsgd1na2vs0mg"},{"bike_id":"2387448a-ad1e-4d92-8739-0eed7ccd6f1a","system_id":"levelo_inurba_marseille","lat":43.32669,"lon":5.40996,"is_reserved":false,"is_disabled":false,"rental_uris":{"android":"levelo://app?vid=2387448a-ad1e-4d92-8739-0eed7ccd6f1a","ios":"levelo://app?vid=2387448a-ad1e-4d92-8739-0eed7ccd6f1a"},"vehicle_type_id":"4","last_reported":1739696900,"current_range_meters":38000,"station_id":"ce4bhpp2rcd13ifvqhgg","pricing_plan_id":"cebpf4jnsgd1na2vs0mg"},{"bike_id":"f1db9771-94dd-4030-914e-070bbe85d4cc","system_id":"levelo_inurba_marseille","lat":43.32288,"lon":5.38277,"is_reserved":false,"is_disabled":false,"rental_uris":{"android":"levelo://app?vid=f1db9771-94dd-4030-914e-070bbe85d4cc","ios":"levelo://app?vid=f1db9771-94dd-4030-914e-070bbe85d4cc"},"vehicle_type_id":"4","last_reported":1739696900,"current_range_meters":38800,"station_id":"ce4bhr12rcd13ifvqhqg","pricing_plan_id":"cebpf4jnsgd1na2vs0mg"},{"bike_id":"8621d022-da1c-42eb-90b3-f13a75064284","system_id":"levelo_inurba_marseille","lat":43.29843,"lon":5.36289,"is_reserved":false,"is_disabled":false,"rental_uris":{"android":"levelo://app?vid=8621d022-da1c-42eb-90b3-f13a75064284","ios":"levelo://app?vid=8621d022-da1c-42eb-90b3-f13a75064284"},"vehicle_type_id":"4","last_reported":1739696900,"current_range_meters":6400,"station_id":"ce4bgpp2rcd13ifvqc3g","pricing_plan_id":"cebpf4jnsgd1na2vs0mg"},{"bike_id":"56a0c045-2888-4b4e-9ed6-3ea77c30289d","system_id":"levelo_inurba_marseille","lat":43.29034,"lon":5.38627,"is_reserved":false,"is_disabled":false,"rental_uris":{"android":"levelo://app?vid=56a0c045-2888-4b4e-9ed6-3ea77c30289d","ios":"levelo://app?vid=56a0c045-2888-4b4e-9ed6-3ea77c30289d"},"vehicle_type_id":"4","last_reported":1739696900,"current_range_meters":36400,"station_id":"ce4bh4p2rcd13ifvqe0g","pricing_plan_id":"cebpf4jnsgd1na2vs0mg"},{"bike_id":"420f85fb-df53-484b-b0f5-ee8897a490a2","system_id":"levelo_inurba_marseille","lat":43.284603,"lon":5.358935,"is_reserved":false,"is_disabled":false,"rental_uris":{"android":"levelo://app?vid=420f85fb-df53-484b-b0f5-ee8897a490a2","ios":"levelo://app?vid=420f85fb-df53-484b-b0f5-ee8897a490a2"},"vehicle_type_id":"4","last_reported":1739696900,"current_range_meters":38800,"station_id":"ce4bhah2rcd13ifvqei0","pricing_plan_id":"cebpf4jnsgd1na2vs0mg"},{"bike_id":"53b5f8d9-591b-4722-8b93-d03568f78034","system_id":"levelo_inurba_marseille","lat":43.284576,"lon":5.35891,"is_reserved":false,"is_disabled":false,"rental_uris":{"android":"levelo://app?vid=53b5f8d9-591b-4722-8b93-d03568f78034","ios":"levelo://app?vid=53b5f8d9-591b-4722-8b93-d03568f78034"},"vehicle_type_id":"4","last_reported":1739696900,"current_range_meters":20800,"station_id":"ce4bhah2rcd13ifvqei0","pricing_plan_id":"cebpf4jnsgd1na2vs0mg"},{"bike_id":"d511c3fa-d5f4-4a0f-91ee-268d02b5310f","system_id":"levelo_inurba_marseille","lat":43.28636,"lon":5.35085,"is_reserved":false,"is_disabled":true,"rental_uris":{"android":"levelo://app?vid=d511c3fa-d5f4-4a0f-91ee-268d02b5310f","ios":"levelo://app?vid=d511c3fa-d5f4-4a0f-91ee-268d02b5310f"},"vehicle_type_id":"4","last_reported":1739696900,"current_range_meters":16800,"station_id":"","pricing_plan_id":"cebpf4jnsgd1na2vs0mg"},{"bike_id":"91320497-88d1-4168-9ea3-b3d9c218b8bd","system_id":"levelo_inurba_marseille","lat":43.29704,"lon":5.37301,"is_reserved":false,"is_disabled":false,"rental_uris":{"android":"levelo://app?vid=91320497-88d1-4168-9ea3-b3d9c218b8bd","ios":"levelo://app?vid=91320497-88d1-4168-9ea3-b3d9c218b8bd"},"vehicle_type_id":"4","last_reported":1739696900,"current_range_meters":37600,"station_id":"ce4bgk12rcd13ifvqbj0","pricing_plan_id":"cebpf4jnsgd1na2vs0mg"},{"bike_id":"90af0b47-23a5-44e5-be79-dd7bd3623187","system_id":"levelo_inurba_marseille","lat":43.26785,"lon":5.39415,"is_reserved":false,"is_disabled":false,"rental_uris":{"android":"levelo://app?vid=90af0b47-23a5-44e5-be79-dd7bd3623187","ios":"levelo://app?vid=90af0b47-23a5-44e5-be79-dd7bd3623187"},"vehicle_type_id":"4","last_reported":1739696900,"current_range_meters":32800,"station_id":"ce4bhh12rcd13ifvqfg0","pricing_plan_id":"cebpf4jnsgd1na2vs0mg"},{"bike_id":"ce839b1e-20f4-4e44-b0c5-1c528235bce0","system_id":"levelo_inurba_marseille","lat":43.28464,"lon":5.35898,"is_reserved":false,"is_disabled":false,"rental_uris":{"android":"levelo://app?vid=ce839b1e-20f4-4e44-b0c5-1c528235bce0","ios":"levelo://app?vid=ce839b1e-20f4-4e44-b0c5-1c528235bce0"},"vehicle_type_id":"4","last_reported":1739696900,"current_range_meters":38800,"station_id":"ce4bhah2rcd13ifvqei0","pricing_plan_id":"cebpf4jnsgd1na2vs0mg"},{"bike_id":"f00620ae-2110-4dbd-a2e7-cd7bf13fe429","system_id":"levelo_inurba_marseille","lat":43.231946,"lon":5.399922,"is_reserved":false,"is_disabled":true,"rental_uris":{"android":"levelo://app?vid=f00620ae-2110-4dbd-a2e7-cd7bf13fe429","ios":"levelo://app?vid=f00620ae-2110-4dbd-a2e7-cd7bf13fe429"},"vehicle_type_id":"4","last_reported":1739696900,"current_range_meters":37600,"station_id":"ce4bhn12rcd13ifvqgqg","pricing_plan_id":"cebpf4jnsgd1na2vs0mg"},{"bike_id":"ab4c4cd5-ed4c-4a24-adbc-1e77e06a1fbe","system_id":"levelo_inurba_marseille","lat":43.295596,"lon":5.422829,"is_reserved":false,"is_disabled":false,"rental_uris":{"android":"levelo://app?vid=ab4c4cd5-ed4c-4a24-adbc-1e77e06a1fbe","ios":"levelo://app?vid=ab4c4cd5-ed4c-4a24-adbc-1e77e06a1fbe"},"vehicle_type_id":"4","last_reported":1739696900,"current_range_meters":28000,"station_id":"ce4bhph2rcd13ifvqhdg","pricing_plan_id":"cebpf4jnsgd1na2vs0mg"},{"bike_id":"44fb5291-fc4e-4904-a870-fe6008ca4617","system_id":"levelo_inurba_marseille","lat":43.31142,"lon":5.3776,"is_reserved":false,"is_disabled":false,"rental_uris":{"android":"levelo://app?vid=44fb5291-fc4e-4904-a870-fe6008ca4617","ios":"levelo://app?vid=44fb5291-fc4e-4904-a870-fe6008ca4617"},"vehicle_type_id":"4","last_reported":1739696900,"current_range_meters":7200,"station_id":"ce4bgt92rcd13ifvqcg0","pricing_plan_id":"cebpf4jnsgd1na2vs0mg"},{"bike_id":"59b279cd-9bb0-4e91-a9ed-cd7da0f24062","system_id":"levelo_inurba_marseille","lat":43.30445,"lon":5.36927,"is_reserved":false,"is_disabled":false,"rental_uris":{"android":"levelo://app?vid=59b279cd-9bb0-4e91-a9ed-cd7da0f24062","ios":"levelo://app?vid=59b279cd-9bb0-4e91-a9ed-cd7da0f24062"},"vehicle_type_id":"4","last_reported":1739696900,"current_range_meters":16000,"station_id":"","pricing_plan_id":"cebpf4jnsgd1na2vs0mg"},{"bike_id":"ddf1d674-41d6-443f-b0f1-1da7df267862","system_id":"levelo_inurba_marseille","lat":43.230513,"lon":5.354962,"is_reserved":false,"is_disabled":false,"rental_uris":{"android":"levelo://app?vid=ddf1d674-41d6-443f-b0f1-1da7df267862","ios":"levelo://app?vid=ddf1d674-41d6-443f-b0f1-1da7df267862"},"vehicle_type_id":"4","last_reported":1739696900,"current_range_meters":16800,"station_id":"cpo3342slgdg3j2ifvpg","pricing_plan_id":"cebpf4jnsgd1na2vs0mg"},{"bike_id":"94729826-cfa5-4ed9-8abd-5e8e49cce84e","system_id":"levelo_inurba_marseille","lat":43.29084,"lon":5.43273,"is_reserved":false,"is_disabled":true,"rental_uris":{"android":"levelo://app?vid=94729826-cfa5-4ed9-8abd-5e8e49cce84e","ios":"levelo://app?vid=94729826-cfa5-4ed9-8abd-5e8e49cce84e"},"vehicle_type_id":"4","last_reported":1739696900,"current_range_meters":1200,"station_id":"","pricing_plan_id":"cebpf4jnsgd1na2vs0mg"},{"bike_id":"59897d86-c0b3-4acb-bf89-133a9364e1f4","system_id":"levelo_inurba_marseille","lat":43.23049,"lon":5.35499,"is_reserved":false,"is_disabled":true,"rental_uris":{"android":"levelo://app?vid=59897d86-c0b3-4acb-bf89-133a9364e1f4","ios":"levelo://app?vid=59897d86-c0b3-4acb-bf89-133a9364e1f4"},"vehicle_type_id":"4","last_reported":1739696900,"current_range_meters":37600,"station_id":"cpo3342slgdg3j2ifvpg","pricing_plan_id":"cebpf4jnsgd1na2vs0mg"},{"bike_id":"f32e9eb2-7345-4559-849a-c4227ef41442","system_id":"levelo_inurba_marseille","lat":43.30887,"lon":5.37197,"is_reserved":false,"is_disabled":false,"rental_uris":{"android":"levelo://app?vid=f32e9eb2-7345-4559-849a-c4227ef41442","ios":"levelo://app?vid=f32e9eb2-7345-4559-849a-c4227ef41442"},"vehicle_type_id":"4","last_reported":1739696900,"current_range_meters":30400,"station_id":"ce4bguh2rcd13ifvqckg","pricing_plan_id":"cebpf4jnsgd1na2vs0mg"},{"bike_id":"799cb367-f74c-4b90-ab8e-e13e0e89b122","system_id":"levelo_inurba_marseille","lat":43.295656,"lon":5.399804,"is_reserved":false,"is_disabled":false,"rental_uris":{"android":"levelo://app?vid=799cb367-f74c-4b90-ab8e-e13e0e89b122","ios":"levelo://app?vid=799cb367-f74c-4b90-ab8e-e13e0e89b122"},"vehicle_type_id":"4","last_reported":1739696900,"current_range_meters":38000,"station_id":"ce4bh312rcd13ifvqdj0","pricing_plan_id":"cebpf4jnsgd1na2vs0mg"},{"bike_id":"3657cb3a-8308-44c8-971b-092680d319de","system_id":"levelo_inurba_marseille","lat":43.231936,"lon":5.355473,"is_reserved":false,"is_disabled":false,"rental_uris":{"android":"levelo://app?vid=3657cb3a-8308-44c8-971b-092680d319de","ios":"levelo://app?vid=3657cb3a-8308-44c8-971b-092680d319de"},"vehicle_type_id":"4","last_reported":1739696900,"current_range_meters":9600,"station_id":"ce4bhu92rcd13ifvqi70","pricing_plan_id":"cebpf4jnsgd1na2vs0mg"},{"bike_id":"43e40dbb-9a7b-403b-91aa-f689f53435a7","system_id":"levelo_inurba_marseille","lat":43.29865,"lon":5.39738,"is_reserved":false,"is_disabled":false,"rental_uris":{"android":"levelo://app?vid=43e40dbb-9a7b-403b-91aa-f689f53435a7","ios":"levelo://app?vid=43e40dbb-9a7b-403b-91aa-f689f53435a7"},"vehicle_type_id":"4","last_reported":1739696900,"current_range_meters":37600,"station_id":"ce4bh0h2rcd13ifvqd50","pricing_plan_id":"cebpf4jnsgd1na2vs0mg"},{"bike_id":"f635a801-2671-4306-9268-68edf1b8a251","system_id":"levelo_inurba_marseille","lat":43.29886,"lon":5.39788,"is_reserved":false,"is_disabled":false,"rental_uris":{"android":"levelo://app?vid=f635a801-2671-4306-9268-68edf1b8a251","ios":"levelo://app?vid=f635a801-2671-4306-9268-68edf1b8a251"},"vehicle_type_id":"4","last_reported":1739696900,"current_range_meters":33600,"station_id":"","pricing_plan_id":"cebpf4jnsgd1na2vs0mg"},{"bike_id":"fddf9633-377f-489e-9c7d-38f1665ca695","system_id":"levelo_inurba_marseille","lat":43.29632,"lon":5.38076,"is_reserved":false,"is_disabled":true,"rental_uris":{"android":"levelo://app?vid=fddf9633-377f-489e-9c7d-38f1665ca695","ios":"levelo://app?vid=fddf9633-377f-489e-9c7d-38f1665ca695"},"vehicle_type_id":"4","last_reported":1739696900,"current_range_meters":22800,"station_id":"ce4bgl12rcd13ifvqbo0","pricing_plan_id":"cebpf4jnsgd1na2vs0mg"},{"bike_id":"40c4421e-be80-49b9-9035-ec8bd05923a2","system_id":"levelo_inurba_marseille","lat":43.288504,"lon":5.39324,"is_reserved":false,"is_disabled":true,"rental_uris":{"android":"levelo://app?vid=40c4421e-be80-49b9-9035-ec8bd05923a2","ios":"levelo://app?vid=40c4421e-be80-49b9-9035-ec8bd05923a2"},"vehicle_type_id":"4","last_reported":1739696900,"current_range_meters":19200,"station_id":"ce4bh2p2rcd13ifvqdi0","pricing_plan_id":"cebpf4jnsgd1na2vs0mg"},{"bike_id":"4bc50c17-9aeb-4487-a054-afb81c6c63dc","system_id":"levelo_inurba_marseille","lat":43.27609,"lon":5.36129,"is_reserved":false,"is_disabled":true,"rental_uris":{"android":"levelo://app?vid=4bc50c17-9aeb-4487-a054-afb81c6c63dc","ios":"levelo://app?vid=4bc50c17-9aeb-4487-a054-afb81c6c63dc"},"vehicle_type_id":"4","last_reported":1739696900,"current_range_meters":28800,"station_id":"ce4bgj92rcd13ifvqbe0","pricing_plan_id":"cebpf4jnsgd1na2vs0mg"},{"bike_id":"45a95720-e142-48f6-8e4e-58bb7608d438","system_id":"levelo_inurba_marseille","lat":43.28916,"lon":5.36665,"is_reserved":false,"is_disabled":false,"rental_uris":{"android":"levelo://app?vid=45a95720-e142-48f6-8e4e-58bb7608d438","ios":"levelo://app?vid=45a95720-e142-48f6-8e4e-58bb7608d438"},"vehicle_type_id":"4","last_reported":1739696900,"current_range_meters":36800,"station_id":"ce4bhap2rcd13ifvqek0","pricing_plan_id":"cebpf4jnsgd1na2vs0mg"},{"bike_id":"2c8b8a41-5401-4b3a-be72-574e3bbf0407","system_id":"levelo_inurba_marseille","lat":43.306266,"lon":5.366064,"is_reserved":false,"is_disabled":false,"rental_uris":{"android":"levelo://app?vid=2c8b8a41-5401-4b3a-be72-574e3bbf0407","ios":"levelo://app?vid=2c8b8a41-5401-4b3a-be72-574e3bbf0407"},"vehicle_type_id":"4","last_reported":1739696900,"current_range_meters":6000,"station_id":"","pricing_plan_id":"cebpf4jnsgd1na2vs0mg"},{"bike_id":"0f37e119-70d5-41eb-90ed-58aca4fe1023","system_id":"levelo_inurba_marseille","lat":43.305902,"lon":5.393485,"is_reserved":false,"is_disabled":false,"rental_uris":{"android":"levelo://app?vid=0f37e119-70d5-41eb-90ed-58aca4fe1023","ios":"levelo://app?vid=0f37e119-70d5-41eb-90ed-58aca4fe1023"},"vehicle_type_id":"4","last_reported":1739696900,"current_range_meters":36800,"station_id":"ce4bh0p2rcd13ifvqd80","pricing_plan_id":"cebpf4jnsgd1na2vs0mg"},{"bike_id":"6c4e18f7-9485-4121-8099-cbc5b94b4114","system_id":"levelo_inurba_marseille","lat":43.27558,"lon":5.38479,"is_reserved":false,"is_disabled":false,"rental_uris":{"android":"levelo://app?vid=6c4e18f7-9485-4121-8099-cbc5b94b4114","ios":"levelo://app?vid=6c4e18f7-9485-4121-8099-cbc5b94b4114"},"vehicle_type_id":"4","last_reported":1739696900,"current_range_meters":38800,"station_id":"ce4bhh92rcd13ifvqfi0","pricing_plan_id":"cebpf4jnsgd1na2vs0mg"},{"bike_id":"76e9689a-c738-4ae0-88ce-a636639e49f8","system_id":"levelo_inurba_marseille","lat":43.25582,"lon":5.38232,"is_reserved":false,"is_disabled":false,"rental_uris":{"android":"levelo://app?vid=76e9689a-c738-4ae0-88ce-a636639e49f8","ios":"levelo://app?vid=76e9689a-c738-4ae0-88ce-a636639e49f8"},"vehicle_type_id":"4","last_reported":1739696900,"current_range_meters":38800,"station_id":"ce4bhih2rcd13ifvqfs0","pricing_plan_id":"cebpf4jnsgd1na2vs0mg"},{"bike_id":"3625836a-8a03-4572-80d5-fadff11603e7","system_id":"levelo_inurba_marseille","lat":43.28031,"lon":5.36953,"is_reserved":false,"is_disabled":false,"rental_uris":{"android":"levelo://app?vid=3625836a-8a03-4572-80d5-fadff11603e7","ios":"levelo://app?vid=3625836a-8a03-4572-80d5-fadff11603e7"},"vehicle_type_id":"4","last_reported":1739696900,"current_range_meters":39200,"station_id":"ce4bha12rcd13ifvqef0","pricing_plan_id":"cebpf4jnsgd1na2vs0mg"},{"bike_id":"43dc5574-eed0-4b1d-9289-f32002400d84","system_id":"levelo_inurba_marseille","lat":43.24167,"lon":5.36398,"is_reserved":false,"is_disabled":false,"rental_uris":{"android":"levelo://app?vid=43dc5574-eed0-4b1d-9289-f32002400d84","ios":"levelo://app?vid=43dc5574-eed0-4b1d-9289-f32002400d84"},"vehicle_type_id":"4","last_reported":1739696900,"current_range_meters":8400,"station_id":"cpo36qri1sfpv3e86is0","pricing_plan_id":"cebpf4jnsgd1na2vs0mg"},{"bike_id":"b7675672-ea91-4212-a3c2-1e75ea117425","system_id":"levelo_inurba_marseille","lat":43.28161,"lon":5.42647,"is_reserved":false,"is_disabled":true,"rental_uris":{"android":"levelo://app?vid=b7675672-ea91-4212-a3c2-1e75ea117425","ios":"levelo://app?vid=b7675672-ea91-4212-a3c2-1e75ea117425"},"vehicle_type_id":"4","last_reported":1739696900,"current_range_meters":0,"station_id":"ce4bhnh2rcd13ifvqgug","pricing_plan_id":"cebpf4jnsgd1na2vs0mg"},{"bike_id":"c8459953-b1c3-48f2-a21c-ee768afcb163","system_id":"levelo_inurba_marseille","lat":43.2979,"lon":5.38115,"is_reserved":false,"is_disabled":false,"rental_uris":{"android":"levelo://app?vid=c8459953-b1c3-48f2-a21c-ee768afcb163","ios":"levelo://app?vid=c8459953-b1c3-48f2-a21c-ee768afcb163"},"vehicle_type_id":"4","last_reported":1739696900,"current_range_meters":39200,"station_id":"ce4bgip2rcd13ifvqbb0","pricing_plan_id":"cebpf4jnsgd1na2vs0mg"},{"bike_id":"91e27922-e676-45ea-94da-baf83d9c520d","system_id":"levelo_inurba_marseille","lat":43.28046,"lon":5.36937,"is_reserved":false,"is_disabled":true,"rental_uris":{"android":"levelo://app?vid=91e27922-e676-45ea-94da-baf83d9c520d","ios":"levelo://app?vid=91e27922-e676-45ea-94da-baf83d9c520d"},"vehicle_type_id":"4","last_reported":1739696900,"current_range_meters":35200,"station_id":"ce4bha12rcd13ifvqef0","pricing_plan_id":"cebpf4jnsgd1na2vs0mg"},{"bike_id":"7014a119-8e27-4243-b4d7-84049cd6576f","system_id":"levelo_inurba_marseille","lat":43.30595,"lon":5.3933,"is_reserved":false,"is_disabled":false,"rental_uris":{"android":"levelo://app?vid=7014a119-8e27-4243-b4d7-84049cd6576f","ios":"levelo://app?vid=7014a119-8e27-4243-b4d7-84049cd6576f"},"vehicle_type_id":"4","last_reported":1739696900,"current_range_meters":34800,"station_id":"ce4bh0p2rcd13ifvqd80","pricing_plan_id":"cebpf4jnsgd1na2vs0mg"},{"bike_id":"3267b8a7-1e4e-443c-a66a-46725243df34","system_id":"levelo_inurba_marseille","lat":43.30263,"lon":5.39716,"is_reserved":false,"is_disabled":false,"rental_uris":{"android":"levelo://app?vid=3267b8a7-1e4e-443c-a66a-46725243df34","ios":"levelo://app?vid=3267b8a7-1e4e-443c-a66a-46725243df34"},"vehicle_type_id":"4","last_reported":1739696900,"current_range_meters":36800,"station_id":"","pricing_plan_id":"cebpf4jnsgd1na2vs0mg"},{"bike_id":"39f0fa43-2961-47d0-8e28-d6ced3bcb1a4","system_id":"levelo_inurba_marseille","lat":43.268027,"lon":5.402637,"is_reserved":false,"is_disabled":true,"rental_uris":{"android":"levelo://app?vid=39f0fa43-2961-47d0-8e28-d6ced3bcb1a4","ios":"levelo://app?vid=39f0fa43-2961-47d0-8e28-d6ced3bcb1a4"},"vehicle_type_id":"4","last_reported":1739696900,"current_range_meters":30000,"station_id":"ce501612rcd8frsf0b60","pricing_plan_id":"cebpf4jnsgd1na2vs0mg"},{"bike_id":"4e814ba9-7f7f-413c-81c5-6cae18c64ff7","system_id":"levelo_inurba_marseille","lat":43.313274,"lon":5.397077,"is_reserved":false,"is_disabled":false,"rental_uris":{"android":"levelo://app?vid=4e814ba9-7f7f-413c-81c5-6cae18c64ff7","ios":"levelo://app?vid=4e814ba9-7f7f-413c-81c5-6cae18c64ff7"},"vehicle_type_id":"4","last_reported":1739696900,"current_range_meters":33600,"station_id":"ce4bgvp2rcd13ifvqcu0","pricing_plan_id":"cebpf4jnsgd1na2vs0mg"},{"bike_id":"9bcc3779-160f-4f11-a908-15bc41b1ac43","system_id":"levelo_inurba_marseille","lat":43.27983,"lon":5.40025,"is_reserved":false,"is_disabled":true,"rental_uris":{"android":"levelo://app?vid=9bcc3779-160f-4f11-a908-15bc41b1ac43","ios":"levelo://app?vid=9bcc3779-160f-4f11-a908-15bc41b1ac43"},"vehicle_type_id":"4","last_reported":1739696900,"current_range_meters":3600,"station_id":"ce4bho92rcd13ifvqh4g","pricing_plan_id":"cebpf4jnsgd1na2vs0mg"},{"bike_id":"3c64c24f-16f7-46ec-b068-15fe4ebda356","system_id":"levelo_inurba_marseille","lat":43.29493,"lon":5.36395,"is_reserved":false,"is_disabled":true,"rental_uris":{"android":"levelo://app?vid=3c64c24f-16f7-46ec-b068-15fe4ebda356","ios":"levelo://app?vid=3c64c24f-16f7-46ec-b068-15fe4ebda356"},"vehicle_type_id":"4","last_reported":1739696900,"current_range_meters":18000,"station_id":"","pricing_plan_id":"cebpf4jnsgd1na2vs0mg"},{"bike_id":"07103950-cfc8-4b51-a67a-cac3df3ef5e7","system_id":"levelo_inurba_marseille","lat":43.240668,"lon":5.37763,"is_reserved":false,"is_disabled":false,"rental_uris":{"android":"levelo://app?vid=07103950-cfc8-4b51-a67a-cac3df3ef5e7","ios":"levelo://app?vid=07103950-cfc8-4b51-a67a-cac3df3ef5e7"},"vehicle_type_id":"4","last_reported":1739696900,"current_range_meters":39200,"station_id":"ce4bhnp2rcd13ifvqgvg","pricing_plan_id":"cebpf4jnsgd1na2vs0mg"},{"bike_id":"ddade70e-450b-459c-901d-c8d7b6e39c7e","system_id":"levelo_inurba_marseille","lat":43.257047,"lon":5.411198,"is_reserved":false,"is_disabled":false,"rental_uris":{"android":"levelo://app?vid=ddade70e-450b-459c-901d-c8d7b6e39c7e","ios":"levelo://app?vid=ddade70e-450b-459c-901d-c8d7b6e39c7e"},"vehicle_type_id":"4","last_reported":1739696900,"current_range_meters":28800,"station_id":"ce4bhkp2rcd13ifvqgd0","pricing_plan_id":"cebpf4jnsgd1na2vs0mg"},{"bike_id":"c9f5446a-9650-4bf9-9f6c-ae38910b957a","system_id":"levelo_inurba_marseille","lat":43.301438,"lon":5.374116,"is_reserved":false,"is_disabled":false,"rental_uris":{"android":"levelo://app?vid=c9f5446a-9650-4bf9-9f6c-ae38910b957a","ios":"levelo://app?vid=c9f5446a-9650-4bf9-9f6c-ae38910b957a"},"vehicle_type_id":"4","last_reported":1739696900,"current_range_meters":37600,"station_id":"ce4bgs92rcd13ifvqcc0","pricing_plan_id":"cebpf4jnsgd1na2vs0mg"},{"bike_id":"cfe30082-ce4b-47a8-9136-bff6c426673d","system_id":"levelo_inurba_marseille","lat":43.30313,"lon":5.36912,"is_reserved":false,"is_disabled":false,"rental_uris":{"android":"levelo://app?vid=cfe30082-ce4b-47a8-9136-bff6c426673d","ios":"levelo://app?vid=cfe30082-ce4b-47a8-9136-bff6c426673d"},"vehicle_type_id":"4","last_reported":1739696900,"current_range_meters":29600,"station_id":"ce4bgqh2rcd13ifvqc5g","pricing_plan_id":"cebpf4jnsgd1na2vs0mg"},{"bike_id":"b84a2f3d-50f9-4b7c-8e61-95279ba45649","system_id":"levelo_inurba_marseille","lat":43.26953,"lon":5.40232,"is_reserved":false,"is_disabled":false,"rental_uris":{"android":"levelo://app?vid=b84a2f3d-50f9-4b7c-8e61-95279ba45649","ios":"levelo://app?vid=b84a2f3d-50f9-4b7c-8e61-95279ba45649"},"vehicle_type_id":"4","last_reported":1739696900,"current_range_meters":39200,"station_id":"cjm6bp8fraef2m0cb0m0","pricing_plan_id":"cebpf4jnsgd1na2vs0mg"},{"bike_id":"cb78dcef-e2c4-4b84-9065-5924714f334b","system_id":"levelo_inurba_marseille","lat":43.2591,"lon":5.4092,"is_reserved":false,"is_disabled":false,"rental_uris":{"android":"levelo://app?vid=cb78dcef-e2c4-4b84-9065-5924714f334b","ios":"levelo://app?vid=cb78dcef-e2c4-4b84-9065-5924714f334b"},"vehicle_type_id":"4","last_reported":1739696900,"current_range_meters":32800,"station_id":"ce4bhm92rcd13ifvqglg","pricing_plan_id":"cebpf4jnsgd1na2vs0mg"},{"bike_id":"39ee4101-ed11-46d5-b8b8-48ae3dde17e4","system_id":"levelo_inurba_marseille","lat":43.3087,"lon":5.39639,"is_reserved":false,"is_disabled":true,"rental_uris":{"android":"levelo://app?vid=39ee4101-ed11-46d5-b8b8-48ae3dde17e4","ios":"levelo://app?vid=39ee4101-ed11-46d5-b8b8-48ae3dde17e4"},"vehicle_type_id":"4","last_reported":1739696900,"current_range_meters":0,"station_id":"ce4bh012rcd13ifvqcv0","pricing_plan_id":"cebpf4jnsgd1na2vs0mg"},{"bike_id":"a84d6bd5-1959-4d5e-88b3-58013a825c9f","system_id":"levelo_inurba_marseille","lat":43.28942,"lon":5.36402,"is_reserved":false,"is_disabled":false,"rental_uris":{"android":"levelo://app?vid=a84d6bd5-1959-4d5e-88b3-58013a825c9f","ios":"levelo://app?vid=a84d6bd5-1959-4d5e-88b3-58013a825c9f"},"vehicle_type_id":"4","last_reported":1739696900,"current_range_meters":38800,"station_id":"ce4bhc92rcd13ifvqetg","pricing_plan_id":"cebpf4jnsgd1na2vs0mg"},{"bike_id":"89fb2ac7-e960-422a-bba7-8e61efcb53cc","system_id":"levelo_inurba_marseille","lat":43.29025,"lon":5.39948,"is_reserved":false,"is_disabled":false,"rental_uris":{"android":"levelo://app?vid=89fb2ac7-e960-422a-bba7-8e61efcb53cc","ios":"levelo://app?vid=89fb2ac7-e960-422a-bba7-8e61efcb53cc"},"vehicle_type_id":"4","last_reported":1739696900,"current_range_meters":38800,"station_id":"ce4bh392rcd13ifvqdm0","pricing_plan_id":"cebpf4jnsgd1na2vs0mg"},{"bike_id":"2dea0667-1db6-4775-857f-894e60e0a4c7","system_id":"levelo_inurba_marseille","lat":43.30401,"lon":5.39774,"is_reserved":false,"is_disabled":true,"rental_uris":{"android":"levelo://app?vid=2dea0667-1db6-4775-857f-894e60e0a4c7","ios":"levelo://app?vid=2dea0667-1db6-4775-857f-894e60e0a4c7"},"vehicle_type_id":"4","last_reported":1739696900,"current_range_meters":28400,"station_id":"ce4bh092rcd13ifvqd20","pricing_plan_id":"cebpf4jnsgd1na2vs0mg"},{"bike_id":"c2396c18-eec0-4d5b-87b2-5e8a0832017e","system_id":"levelo_inurba_marseille","lat":43.30149,"lon":5.38086,"is_reserved":false,"is_disabled":false,"rental_uris":{"android":"levelo://app?vid=c2396c18-eec0-4d5b-87b2-5e8a0832017e","ios":"levelo://app?vid=c2396c18-eec0-4d5b-87b2-5e8a0832017e"},"vehicle_type_id":"4","last_reported":1739696900,"current_range_meters":28800,"station_id":"ce4bgjp2rcd13ifvqbh0","pricing_plan_id":"cebpf4jnsgd1na2vs0mg"},{"bike_id":"8f81746e-629f-452d-8f35-b87a4c7cf21f","system_id":"levelo_inurba_marseille","lat":43.29889,"lon":5.43661,"is_reserved":false,"is_disabled":false,"rental_uris":{"android":"levelo://app?vid=8f81746e-629f-452d-8f35-b87a4c7cf21f","ios":"levelo://app?vid=8f81746e-629f-452d-8f35-b87a4c7cf21f"},"vehicle_type_id":"4","last_reported":1739696900,"current_range_meters":37600,"station_id":"ce4bhpp2rcd13ifvqhfg","pricing_plan_id":"cebpf4jnsgd1na2vs0mg"},{"bike_id":"39a15036-bb81-41d9-86e6-e3534b0305aa","system_id":"levelo_inurba_marseille","lat":43.24398,"lon":5.37054,"is_reserved":false,"is_disabled":false,"rental_uris":{"android":"levelo://app?vid=39a15036-bb81-41d9-86e6-e3534b0305aa","ios":"levelo://app?vid=39a15036-bb81-41d9-86e6-e3534b0305aa"},"vehicle_type_id":"4","last_reported":1739696900,"current_range_meters":22800,"station_id":"ce4bhhh2rcd13ifvqfk0","pricing_plan_id":"cebpf4jnsgd1na2vs0mg"},{"bike_id":"89bed97d-b574-4134-828a-13a438ea864c","system_id":"levelo_inurba_marseille","lat":43.28628,"lon":5.35108,"is_reserved":false,"is_disabled":false,"rental_uris":{"android":"levelo://app?vid=89bed97d-b574-4134-828a-13a438ea864c","ios":"levelo://app?vid=89bed97d-b574-4134-828a-13a438ea864c"},"vehicle_type_id":"4","last_reported":1739696900,"current_range_meters":28800,"station_id":"ce4bhch2rcd13ifvqeug","pricing_plan_id":"cebpf4jnsgd1na2vs0mg"},{"bike_id":"2b40dedf-ade5-44ef-a25d-6f14e48436cb","system_id":"levelo_inurba_marseille","lat":43.2318,"lon":5.39985,"is_reserved":false,"is_disabled":false,"rental_uris":{"android":"levelo://app?vid=2b40dedf-ade5-44ef-a25d-6f14e48436cb","ios":"levelo://app?vid=2b40dedf-ade5-44ef-a25d-6f14e48436cb"},"vehicle_type_id":"4","last_reported":1739696900,"current_range_meters":30000,"station_id":"ce4bhn12rcd13ifvqgqg","pricing_plan_id":"cebpf4jnsgd1na2vs0mg"},{"bike_id":"ad4af932-f51b-41b8-983b-7e431dcc24a9","system_id":"levelo_inurba_marseille","lat":43.337444,"lon":5.374475,"is_reserved":false,"is_disabled":true,"rental_uris":{"android":"levelo://app?vid=ad4af932-f51b-41b8-983b-7e431dcc24a9","ios":"levelo://app?vid=ad4af932-f51b-41b8-983b-7e431dcc24a9"},