{"last_updated":1756387286,"ttl":60,"version":"2.2","data":{"bikes":[{"bike_id":"beee9c54-f511-4d8c-968f-05cea121d31c","system_id":"levelo_inurba_marseille","lat":43.26207,"lon":5.37455,"is_reserved":false,"is_disabled":false,"rental_uris":{"android":"levelo://app?vid=beee9c54-f511-4d8c-968f-05cea121d31c","ios":"levelo://app?vid=beee9c54-f511-4d8c-968f-05cea121d31c"},"vehicle_type_id":"4","last_reported":1756387286,"current_range_meters":2800,"station_id":"ce4bhgp2rcd13ifvqfc0","pricing_plan_id":"cebpf4jnsgd1na2vs0mg"},{"bike_id":"2732b203-8d34-41ae-80bd-b4f151d77aad","system_id":"levelo_inurba_marseille","lat":43.30255,"lon":5.405368,"is_reserved":false,"is_disabled":false,"rental_uris":{"android":"levelo://app?vid=2732b203-8d34-41ae-80bd-b4f151d77aad","ios":"levelo://app?vid=2732b203-8d34-41ae-80bd-b4f151d77aad"},"vehicle_type_id":"4","last_reported":1756387286,"current_range_meters":2800,"station_id":"","pricing_plan_id":"cebpf4jnsgd1na2vs0mg"},{"bike_id":"00f2f8fd-3e8f-4fb6-bd41-58f948fcc00f","system_id":"levelo_inurba_marseille","lat":43.28973,"lon":5.37835,"is_reserved":false,"is_disabled":false,"rental_uris":{"android":"levelo://app?vid=00f2f8fd-3e8f-4fb6-bd41-58f948fcc00f","ios":"levelo://app?vid=00f2f8fd-3e8f-4fb6-bd41-58f948fcc00f"},"vehicle_type_id":"4","last_reported":1756387286,"current_range_meters":3200,"station_id":"ce4bh9p2rcd13ifvqed0","pricing_plan_id":"cebpf4jnsgd1na2vs0mg"},{"bike_id":"09775ba7-2938-4686-819b-0c103040ad4f","system_id":"levelo_inurba_marseille","lat":43.30248,"lon":5.400703,"is_reserved":false,"is_disabled":false,"rental_uris":{"android":"levelo://app?vid=09775ba7-2938-4686-819b-0c103040ad4f","ios":"levelo://app?vid=09775ba7-2938-4686-819b-0c103040ad4f"},"vehicle_type_id":"4","last_reported":1756387286,"current_range_meters":3200,"station_id":"ce4bgvh2rcd13ifvqcs0","pricing_plan_id":"cebpf4jnsgd1na2vs0mg"},{"bike_id":"0d502687-08ef-4491-8893-8a03d8688be8","system_id":"levelo_inurba_marseille","lat":43.296359,"lon":5.361186,"is_reserved":false,"is_disabled":false,"rental_uris":{"android":"levelo://app?vid=0d502687-08ef-4491-8893-8a03d8688be8","ios":"levelo://app?vid=0d502687-08ef-4491-8893-8a03d8688be8"},"vehicle_type_id":"4","last_reported":1756387286,"current_range_meters":3200,"station_id":"","pricing_plan_id":"cebpf4jnsgd1na2vs0mg"},{"bike_id":"23038a23-8213-4d5b-a784-616373105311","system_id":"levelo_inurba_marseille","lat":43.29901,"lon":5.43656,"is_reserved":false,"is_disabled":false,"rental_uris":{"android":"levelo://app?vid=23038a23-8213-4d5b-a784-616373105311","ios":"levelo://app?vid=23038a23-8213-4d5b-a784-616373105311"},"vehicle_type_id":"4","last_reported":1756387286,"current_range_meters":3200,"station_id":"ce4bhpp2rcd13ifvqhfg","pricing_plan_id":"cebpf4jnsgd1na2vs0mg"},{"bike_id":"db404101-ff4e-40ee-8708-1f8d100342b2","system_id":"levelo_inurba_marseille","lat":43.28667,"lon":5.38663,"is_reserved":false,"is_disabled":false,"rental_uris":{"android":"levelo://app?vid=db404101-ff4e-40ee-8708-1f8d100342b2","ios":"levelo://app?vid=db404101-ff4e-40ee-8708-1f8d100342b2"},"vehicle_type_id":"4","last_reported":1756387286,"current_range_meters":3200,"station_id":"ce4bh492rcd13ifvqdug","pricing_plan_id":"cebpf4jnsgd1na2vs0mg"},{"bike_id":"a1e9622a-7c2e-4748-9440-b794731ec70a","system_id":"levelo_inurba_marseille","lat":43.30546,"lon":5.36522,"is_reserved":false,"is_disabled":false,"rental_uris":{"android":"levelo://app?vid=a1e9622a-7c2e-4748-9440-b794731ec70a","ios":"levelo://app?vid=a1e9622a-7c2e-4748-9440-b794731ec70a"},"vehicle_type_id":"4","last_reported":1756387286,"current_range_meters":3600,"station_id":"ce4bgs12rcd13ifvqcag","pricing_plan_id":"cebpf4jnsgd1na2vs0mg"},{"bike_id":"3c478672-7193-43f7-90ef-406f50f967fa","system_id":"levelo_inurba_marseille","lat":43.23966,"lon":5.3663,"is_reserved":false,"is_disabled":false,"rental_uris":{"android":"levelo://app?vid=3c478672-7193-43f7-90ef-406f50f967fa","ios":"levelo://app?vid=3c478672-7193-43f7-90ef-406f50f967fa"},"vehicle_type_id":"4","last_reported":1756387286,"current_range_meters":3600,"station_id":"ce4bhi12rcd13ifvqfp0","pricing_plan_id":"cebpf4jnsgd1na2vs0mg"},{"bike_id":"c258980b-8ad4-4751-9f2b-631a14b5f1d4","system_id":"levelo_inurba_marseille","lat":43.28664,"lon":5.36347,"is_reserved":false,"is_disabled":false,"rental_uris":{"android":"levelo://app?vid=c258980b-8ad4-4751-9f2b-631a14b5f1d4","ios":"levelo://app?vid=c258980b-8ad4-4751-9f2b-631a14b5f1d4"},"vehicle_type_id":"4","last_reported":1756387286,"current_range_meters":3600,"station_id":"ce4bhah2rcd13ifvqej0","pricing_plan_id":"cebpf4jnsgd1na2vs0mg"},{"bike_id":"78a3cb14-6728-4c4c-a490-1a5a5318e8bc","system_id":"levelo_inurba_marseille","lat":43.29522,"lon":5.3904,"is_reserved":false,"is_disabled":false,"rental_uris":{"android":"levelo://app?vid=78a3cb14-6728-4c4c-a490-1a5a5318e8bc","ios":"levelo://app?vid=78a3cb14-6728-4c4c-a490-1a5a5318e8bc"},"vehicle_type_id":"4","last_reported":1756387286,"current_range_meters":4000,"station_id":"ce4bh3p2rcd13ifvqdp0","pricing_plan_id":"cebpf4jnsgd1na2vs0mg"},{"bike_id":"51842e17-ef10-4624-a23e-c8a182427991","system_id":"levelo_inurba_marseille","lat":43.31619,"lon":5.38184,"is_reserved":false,"is_disabled":false,"rental_uris":{"android":"levelo://app?vid=51842e17-ef10-4624-a23e-c8a182427991","ios":"levelo://app?vid=51842e17-ef10-4624-a23e-c8a182427991"},"vehicle_type_id":"4","last_reported":1756387286,"current_range_meters":4000,"station_id":"","pricing_plan_id":"cebpf4jnsgd1na2vs0mg"},{"bike_id":"9ebbca0f-8b0f-49e0-bbc0-5934ebb0e846","system_id":"levelo_inurba_marseille","lat":43.211762,"lon":5.35087,"is_reserved":false,"is_disabled":false,"rental_uris":{"android":"levelo://app?vid=9ebbca0f-8b0f-49e0-bbc0-5934ebb0e846","ios":"levelo://app?vid=9ebbca0f-8b0f-49e0-bbc0-5934ebb0e846"},"vehicle_type_id":"4","last_reported":1756387286,"current_range_meters":4400,"station_id":"st_cvj6sg6p6f1abm77japg","pricing_plan_id":"cebpf4jnsgd1na2vs0mg"},{"bike_id":"0a602576-b37d-4e8d-8f54-c12856db3479","system_id":"levelo_inurba_marseille","lat":43.26205,"lon":5.37452,"is_reserved":false,"is_disabled":false,"rental_uris":{"android":"levelo://app?vid=0a602576-b37d-4e8d-8f54-c12856db3479","ios":"levelo://app?vid=0a602576-b37d-4e8d-8f54-c12856db3479"},"vehicle_type_id":"4","last_reported":1756387286,"current_range_meters":4400,"station_id":"ce4bhgp2rcd13ifvqfc0","pricing_plan_id":"cebpf4jnsgd1na2vs0mg"},{"bike_id":"b7f5d4fc-8af5-442f-b471-e28f343fd67e","system_id":"levelo_inurba_marseille","lat":43.33767,"lon":5.37485,"is_reserved":false,"is_disabled":false,"rental_uris":{"android":"levelo://app?vid=b7f5d4fc-8af5-442f-b471-e28f343fd67e","ios":"levelo://app?vid=b7f5d4fc-8af5-442f-b471-e28f343fd67e"},"vehicle_type_id":"4","last_reported":1756387286,"current_range_meters":4400,"station_id":"","pricing_plan_id":"cebpf4jnsgd1na2vs0mg"},{"bike_id":"69a01144-4cb0-4f43-b8a7-d8bba1210d75","system_id":"levelo_inurba_marseille","lat":43.315866,"lon":5.374239,"is_reserved":false,"is_disabled":false,"rental_uris":{"android":"levelo://app?vid=69a01144-4cb0-4f43-b8a7-d8bba1210d75","ios":"levelo://app?vid=69a01144-4cb0-4f43-b8a7-d8bba1210d75"},"vehicle_type_id":"4","last_reported":1756387286,"current_range_meters":4800,"station_id":"","pricing_plan_id":"cebpf4jnsgd1na2vs0mg"},{"bike_id":"8ff3ebc3-b8cc-483f-9232-7e0c6220b0be","system_id":"levelo_inurba_marseille","lat":43.2996,"lon":5.41323,"is_reserved":false,"is_disabled":false,"rental_uris":{"android":"levelo://app?vid=8ff3ebc3-b8cc-483f-9232-7e0c6220b0be","ios":"levelo://app?vid=8ff3ebc3-b8cc-483f-9232-7e0c6220b0be"},"vehicle_type_id":"4","last_reported":1756387286,"current_range_meters":5600,"station_id":"ce4bhp12rcd13ifvqh9g","pricing_plan_id":"cebpf4jnsgd1na2vs0mg"},{"bike_id":"f5eb6ac4-d734-4ad9-bfbf-c537a563a1f9","system_id":"levelo_inurba_marseille","lat":43.29711,"lon":5.3661,"is_reserved":false,"is_disabled":false,"rental_uris":{"android":"levelo://app?vid=f5eb6ac4-d734-4ad9-bfbf-c537a563a1f9","ios":"levelo://app?vid=f5eb6ac4-d734-4ad9-bfbf-c537a563a1f9"},"vehicle_type_id":"4","last_reported":1756387286,"current_range_meters":5600,"station_id":"ce4bgn12rcd13ifvqbt0","pricing_plan_id":"cebpf4jnsgd1na2vs0mg"},{"bike_id":"d5fa472e-15f5-409f-b939-a86a1b08213b","system_id":"levelo_inurba_marseille","lat":43.27621,"lon":5.36109,"is_reserved":false,"is_disabled":false,"rental_uris":{"android":"levelo://app?vid=d5fa472e-15f5-409f-b939-a86a1b08213b","ios":"levelo://app?vid=d5fa472e-15f5-409f-b939-a86a1b08213b"},"vehicle_type_id":"4","last_reported":1756387286,"current_range_meters":5600,"station_id":"ce4bgj92rcd13ifvqbe0","pricing_plan_id":"cebpf4jnsgd1na2vs0mg"},{"bike_id":"d111e064-cf0c-4675-af60-a7401e59f258","system_id":"levelo_inurba_marseille","lat":43.23966,"lon":5.36633,"is_reserved":false,"is_disabled":false,"rental_uris":{"android":"levelo://app?vid=d111e064-cf0c-4675-af60-a7401e59f258","ios":"levelo://app?vid=d111e064-cf0c-4675-af60-a7401e59f258"},"vehicle_type_id":"4","last_reported":1756387286,"current_range_meters":5600,"station_id":"ce4bhi12rcd13ifvqfp0","pricing_plan_id":"cebpf4jnsgd1na2vs0mg"},{"bike_id":"5ce19ce4-8bda-44aa-a278-5ccd8a7fefea","system_id":"levelo_inurba_marseille","lat":43.24165,"lon":5.36402,"is_reserved":false,"is_disabled":false,"rental_uris":{"android":"levelo://app?vid=5ce19ce4-8bda-44aa-a278-5ccd8a7fefea","ios":"levelo://app?vid=5ce19ce4-8bda-44aa-a278-5ccd8a7fefea"},"vehicle_type_id":"4","last_reported":1756387286,"current_range_meters":5600,"station_id":"cpo36qri1sfpv3e86is0","pricing_plan_id":"cebpf4jnsgd1na2vs0mg"},{"bike_id":"2ea60cf0-74ae-435b-981a-e40ac9b5a121","system_id":"levelo_inurba_marseille","lat":43.3153,"lon":5.38039,"is_reserved":false,"is_disabled":false,"rental_uris":{"android":"levelo://app?vid=2ea60cf0-74ae-435b-981a-e40ac9b5a121","ios":"levelo://app?vid=2ea60cf0-74ae-435b-981a-e40ac9b5a121"},"vehicle_type_id":"4","last_reported":1756387286,"current_range_meters":5600,"station_id":"ce4bhsp2rcd13ifvqi50","pricing_plan_id":"cebpf4jnsgd1na2vs0mg"},{"bike_id":"b8df9f83-db4c-4d07-ab72-0da748a1f42b","system_id":"levelo_inurba_marseille","lat":43.26192,"lon":5.37448,"is_reserved":false,"is_disabled":false,"rental_uris":{"android":"levelo://app?vid=b8df9f83-db4c-4d07-ab72-0da748a1f42b","ios":"levelo://app?vid=b8df9f83-db4c-4d07-ab72-0da748a1f42b"},"vehicle_type_id":"4","last_reported":1756387286,"current_range_meters":6000,"station_id":"ce4bhgp2rcd13ifvqfc0","pricing_plan_id":"cebpf4jnsgd1na2vs0mg"},{"bike_id":"5bce688b-fc81-4596-8277-b66f54be87c1","system_id":"levelo_inurba_marseille","lat":43.337645,"lon":5.374409,"is_reserved":false,"is_disabled":false,"rental_uris":{"android":"levelo://app?vid=5bce688b-fc81-4596-8277-b66f54be87c1","ios":"levelo://app?vid=5bce688b-fc81-4596-8277-b66f54be87c1"},"vehicle_type_id":"4","last_reported":1756387286,"current_range_meters":6800,"station_id":"","pricing_plan_id":"cebpf4jnsgd1na2vs0mg"},{"bike_id":"24f5aa1f-2f94-4f26-8f26-0f5d3cb057f4","system_id":"levelo_inurba_marseille","lat":43.28716,"lon":5.42651,"is_reserved":false,"is_disabled":false,"rental_uris":{"android":"levelo://app?vid=24f5aa1f-2f94-4f26-8f26-0f5d3cb057f4","ios":"levelo://app?vid=24f5aa1f-2f94-4f26-8f26-0f5d3cb057f4"},"vehicle_type_id":"4","last_reported":1756387286,"current_range_meters":6800,"station_id":"","pricing_plan_id":"cebpf4jnsgd1na2vs0mg"},{"bike_id":"1419129e-f0de-4052-abf1-7e5e3f2a2700","system_id":"levelo_inurba_marseille","lat":43.29184,"lon":5.38098,"is_reserved":false,"is_disabled":false,"rental_uris":{"android":"levelo://app?vid=1419129e-f0de-4052-abf1-7e5e3f2a2700","ios":"levelo://app?vid=1419129e-f0de-4052-abf1-7e5e3f2a2700"},"vehicle_type_id":"4","last_reported":1756387286,"current_range_meters":6800,"station_id":"","pricing_plan_id":"cebpf4jnsgd1na2vs0mg"},{"bike_id":"91b33e4d-4828-4aef-ba4b-85fd07d306c8","system_id":"levelo_inurba_marseille","lat":43.28414,"lon":5.34992,"is_reserved":false,"is_disabled":false,"rental_uris":{"android":"levelo://app?vid=91b33e4d-4828-4aef-ba4b-85fd07d306c8","ios":"levelo://app?vid=91b33e4d-4828-4aef-ba4b-85fd07d306c8"},"vehicle_type_id":"4","last_reported":1756387286,"current_range_meters":6800,"station_id":"ce4bhbh2rcd13ifvqepg","pricing_plan_id":"cebpf4jnsgd1na2vs0mg"},{"bike_id":"bff03f0f-cee5-4cf7-8185-bebff59c8319","system_id":"levelo_inurba_marseille","lat":43.26206,"lon":5.37445,"is_reserved":false,"is_disabled":false,"rental_uris":{"android":"levelo://app?vid=bff03f0f-cee5-4cf7-8185-bebff59c8319","ios":"levelo://app?vid=bff03f0f-cee5-4cf7-8185-bebff59c8319"},"vehicle_type_id":"4","last_reported":1756387286,"current_range_meters":6800,"station_id":"ce4bhgp2rcd13ifvqfc0","pricing_plan_id":"cebpf4jnsgd1na2vs0mg"},{"bike_id":"5c36ce94-630a-4224-a187-3e597ced67cc","system_id":"levelo_inurba_marseille","lat":43.292736,"lon":5.368373,"is_reserved":false,"is_disabled":false,"rental_uris":{"android":"levelo://app?vid=5c36ce94-630a-4224-a187-3e597ced67cc","ios":"levelo://app?vid=5c36ce94-630a-4224-a187-3e597ced67cc"},"vehicle_type_id":"4","last_reported":1756387286,"current_range_meters":7200,"station_id":"ce4bhbp2rcd13ifvqesg","pricing_plan_id":"cebpf4jnsgd1na2vs0mg"},{"bike_id":"f39b4e09-2417-4d31-86bd-9861f5d9ca53","system_id":"levelo_inurba_marseille","lat":43.25497,"lon":5.37651,"is_reserved":false,"is_disabled":false,"rental_uris":{"android":"levelo://app?vid=f39b4e09-2417-4d31-86bd-9861f5d9ca53","ios":"levelo://app?vid=f39b4e09-2417-4d31-86bd-9861f5d9ca53"},"vehicle_type_id":"4","last_reported":1756387286,"current_range_meters":7200,"station_id":"ce4bhh12rcd13ifvqff0","pricing_plan_id":"cebpf4jnsgd1na2vs0mg"},{"bike_id":"e5eabf25-4e1c-476e-b130-9f83cdcfc80c","system_id":"levelo_inurba_marseille","lat":43.297989,"lon":5.41705,"is_reserved":false,"is_disabled":false,"rental_uris":{"android":"levelo://app?vid=e5eabf25-4e1c-476e-b130-9f83cdcfc80c","ios":"levelo://app?vid=e5eabf25-4e1c-476e-b130-9f83cdcfc80c"},"vehicle_type_id":"4","last_reported":1756387286,"current_range_meters":8000,"station_id":"","pricing_plan_id":"cebpf4jnsgd1na2vs0mg"},{"bike_id":"a6ef8657-5b8a-423b-993f-c3df43dec0a0","system_id":"levelo_inurba_marseille","lat":43.337595,"lon":5.374806,"is_reserved":false,"is_disabled":false,"rental_uris":{"android":"levelo://app?vid=a6ef8657-5b8a-423b-993f-c3df43dec0a0","ios":"levelo://app?vid=a6ef8657-5b8a-423b-993f-c3df43dec0a0"},"vehicle_type_id":"4","last_reported":1756387286,"current_range_meters":8000,"station_id":"","pricing_plan_id":"cebpf4jnsgd1na2vs0mg"},{"bike_id":"82d8b399-fe80-435d-a31f-c959f3cfb96f","system_id":"levelo_inurba_marseille","lat":43.26028,"lon":5.37546,"is_reserved":false,"is_disabled":false,"rental_uris":{"android":"levelo://app?vid=82d8b399-fe80-435d-a31f-c959f3cfb96f","ios":"levelo://app?vid=82d8b399-fe80-435d-a31f-c959f3cfb96f"},"vehicle_type_id":"4","last_reported":1756387286,"current_range_meters":7200,"station_id":"ce4bhgh2rcd13ifvqfa0","pricing_plan_id":"cebpf4jnsgd1na2vs0mg"},{"bike_id":"92db2c89-d173-49d5-b157-9db145019168","system_id":"levelo_inurba_marseille","lat":43.26198,"lon":5.37449,"is_reserved":false,"is_disabled":false,"rental_uris":{"android":"levelo://app?vid=92db2c89-d173-49d5-b157-9db145019168","ios":"levelo://app?vid=92db2c89-d173-49d5-b157-9db145019168"},"vehicle_type_id":"4","last_reported":1756387286,"current_range_meters":8400,"station_id":"ce4bhgp2rcd13ifvqfc0","pricing_plan_id":"cebpf4jnsgd1na2vs0mg"},{"bike_id":"cf0ca968-6cf1-4f9e-9753-ee9483b9a2cc","system_id":"levelo_inurba_marseille","lat":43.29977,"lon":5.37179,"is_reserved":false,"is_disabled":false,"rental_uris":{"android":"levelo://app?vid=cf0ca968-6cf1-4f9e-9753-ee9483b9a2cc","ios":"levelo://app?vid=cf0ca968-6cf1-4f9e-9753-ee9483b9a2cc"},"vehicle_type_id":"4","last_reported":1756387286,"current_range_meters":8400,"station_id":"ce4bgr92rcd13ifvqc7g","pricing_plan_id":"cebpf4jnsgd1na2vs0mg"},{"bike_id":"9fc3a824-f514-49fa-8a24-182c111452bf","system_id":"levelo_inurba_marseille","lat":43.27208,"lon":5.39183,"is_reserved":false,"is_disabled":false,"rental_uris":{"android":"levelo://app?vid=9fc3a824-f514-49fa-8a24-182c111452bf","ios":"levelo://app?vid=9fc3a824-f514-49fa-8a24-182c111452bf"},"vehicle_type_id":"4","last_reported":1756387286,"current_range_meters":8400,"station_id":"ce4bhhp2rcd13ifvqfm0","pricing_plan_id":"cebpf4jnsgd1na2vs0mg"},{"bike_id":"da4b594e-924c-4367-ba46-842aaa06151e","system_id":"levelo_inurba_marseille","lat":43.28439,"lon":5.34954,"is_reserved":false,"is_disabled":false,"rental_uris":{"android":"levelo://app?vid=da4b594e-924c-4367-ba46-842aaa06151e","ios":"levelo://app?vid=da4b594e-924c-4367-ba46-842aaa06151e"},"vehicle_type_id":"4","last_reported":1756387286,"current_range_meters":8400,"station_id":"ce4bhbh2rcd13ifvqepg","pricing_plan_id":"cebpf4jnsgd1na2vs0mg"},{"bike_id":"5beb6744-aef1-4745-ab0b-89402065e91c","system_id":"levelo_inurba_marseille","lat":43.25866,"lon":5.39895,"is_reserved":false,"is_disabled":false,"rental_uris":{"android":"levelo://app?vid=5beb6744-aef1-4745-ab0b-89402065e91c","ios":"levelo://app?vid=5beb6744-aef1-4745-ab0b-89402065e91c"},"vehicle_type_id":"4","last_reported":1756387286,"current_range_meters":8400,"station_id":"ce4bhl92rcd13ifvqghg","pricing_plan_id":"cebpf4jnsgd1na2vs0mg"},{"bike_id":"6e778f9c-912a-47d5-a077-a384b36e9ebd","system_id":"levelo_inurba_marseille","lat":43.27378,"lon":5.36256,"is_reserved":false,"is_disabled":false,"rental_uris":{"android":"levelo://app?vid=6e778f9c-912a-47d5-a077-a384b36e9ebd","ios":"levelo://app?vid=6e778f9c-912a-47d5-a077-a384b36e9ebd"},"vehicle_type_id":"4","last_reported":1756387286,"current_range_meters":8800,"station_id":"ce4bhbh2rcd13ifvqeo0","pricing_plan_id":"cebpf4jnsgd1na2vs0mg"},{"bike_id":"ac631280-124e-4e54-bf31-e8c590daca4d","system_id":"levelo_inurba_marseille","lat":43.298089,"lon":5.381118,"is_reserved":false,"is_disabled":false,"rental_uris":{"android":"levelo://app?vid=ac631280-124e-4e54-bf31-e8c590daca4d","ios":"levelo://app?vid=ac631280-124e-4e54-bf31-e8c590daca4d"},"vehicle_type_id":"4","last_reported":1756387286,"current_range_meters":8800,"station_id":"ce4bgip2rcd13ifvqbb0","pricing_plan_id":"cebpf4jnsgd1na2vs0mg"},{"bike_id":"4647152c-ebe3-4655-b454-f7b32d731894","system_id":"levelo_inurba_marseille","lat":43.26227,"lon":5.37479,"is_reserved":false,"is_disabled":false,"rental_uris":{"android":"levelo://app?vid=4647152c-ebe3-4655-b454-f7b32d731894","ios":"levelo://app?vid=4647152c-ebe3-4655-b454-f7b32d731894"},"vehicle_type_id":"4","last_reported":1756387286,"current_range_meters":8800,"station_id":"","pricing_plan_id":"cebpf4jnsgd1na2vs0mg"},{"bike_id":"6266d5a6-0e44-435d-85d2-dbd06e3bb64d","system_id":"levelo_inurba_marseille","lat":43.27377,"lon":5.36251,"is_reserved":false,"is_disabled":false,"rental_uris":{"android":"levelo://app?vid=6266d5a6-0e44-435d-85d2-dbd06e3bb64d","ios":"levelo://app?vid=6266d5a6-0e44-435d-85d2-dbd06e3bb64d"},"vehicle_type_id":"4","last_reported":1756387286,"current_range_meters":9200,"station_id":"ce4bhbh2rcd13ifvqeo0","pricing_plan_id":"cebpf4jnsgd1na2vs0mg"},{"bike_id":"8637e1aa-9c9a-41e1-a5d5-f0342a65118e","system_id":"levelo_inurba_marseille","lat":43.31708,"lon":5.4371,"is_reserved":false,"is_disabled":false,"rental_uris":{"android":"levelo://app?vid=8637e1aa-9c9a-41e1-a5d5-f0342a65118e","ios":"levelo://app?vid=8637e1aa-9c9a-41e1-a5d5-f0342a65118e"},"vehicle_type_id":"4","last_reported":1756387286,"current_range_meters":9200,"station_id":"ce4bhp92rcd13ifvqhcg","pricing_plan_id":"cebpf4jnsgd1na2vs0mg"},{"bike_id":"452c64c1-c18e-429f-ac02-5f3cc7af3941","system_id":"levelo_inurba_marseille","lat":43.21759,"lon":5.34611,"is_reserved":false,"is_disabled":false,"rental_uris":{"android":"levelo://app?vid=452c64c1-c18e-429f-ac02-5f3cc7af3941","ios":"levelo://app?vid=452c64c1-c18e-429f-ac02-5f3cc7af3941"},"vehicle_type_id":"4","last_reported":1756387286,"current_range_meters":9200,"station_id":"st_cvj6r9ubvosntc0bgbag","pricing_plan_id":"cebpf4jnsgd1na2vs0mg"},{"bike_id":"8cdb9ca6-7c2d-422b-923e-b6fd8b1f3c44","system_id":"levelo_inurba_marseille","lat":43.26195,"lon":5.37451,"is_reserved":false,"is_disabled":false,"rental_uris":{"android":"levelo://app?vid=8cdb9ca6-7c2d-422b-923e-b6fd8b1f3c44","ios":"levelo://app?vid=8cdb9ca6-7c2d-422b-923e-b6fd8b1f3c44"},"vehicle_type_id":"4","last_reported":1756387286,"current_range_meters":9600,"station_id":"ce4bhgp2rcd13ifvqfc0","pricing_plan_id":"cebpf4jnsgd1na2vs0mg"},{"bike_id":"e36ab571-6b83-4012-910d-c8ac275ef467","system_id":"levelo_inurba_marseille","lat":43.294562,"lon":5.374092,"is_reserved":false,"is_disabled":false,"rental_uris":{"android":"levelo://app?vid=e36ab571-6b83-4012-910d-c8ac275ef467","ios":"levelo://app?vid=e36ab571-6b83-4012-910d-c8ac275ef467"},"vehicle_type_id":"4","last_reported":1756387286,"current_range_meters":10000,"station_id":"","pricing_plan_id":"cebpf4jnsgd1na2vs0mg"},{"bike_id":"eee431b1-e4c8-46f6-b35a-ef640a0a5eea","system_id":"levelo_inurba_marseille","lat":43.30089,"lon":5.3908,"is_reserved":false,"is_disabled":false,"rental_uris":{"android":"levelo://app?vid=eee431b1-e4c8-46f6-b35a-ef640a0a5eea","ios":"levelo://app?vid=eee431b1-e4c8-46f6-b35a-ef640a0a5eea"},"vehicle_type_id":"4","last_reported":1756387286,"current_range_meters":9600,"station_id":"ce4bh192rcd13ifvqdb0","pricing_plan_id":"cebpf4jnsgd1na2vs0mg"},{"bike_id":"5c26a54e-1e97-4ad3-a16d-614ad930b130","system_id":"levelo_inurba_marseille","lat":43.32079,"lon":5.36758,"is_reserved":false,"is_disabled":false,"rental_uris":{"android":"levelo://app?vid=5c26a54e-1e97-4ad3-a16d-614ad930b130","ios":"levelo://app?vid=5c26a54e-1e97-4ad3-a16d-614ad930b130"},"vehicle_type_id":"4","last_reported":1756387286,"current_range_meters":10800,"station_id":"ce4bhrh2rcd13ifvqhug","pricing_plan_id":"cebpf4jnsgd1na2vs0mg"},{"bike_id":"07322f43-b075-4348-ad13-c60d9dc8cfc0","system_id":"levelo_inurba_marseille","lat":43.27295,"lon":5.36287,"is_reserved":false,"is_disabled":false,"rental_uris":{"android":"levelo://app?vid=07322f43-b075-4348-ad13-c60d9dc8cfc0","ios":"levelo://app?vid=07322f43-b075-4348-ad13-c60d9dc8cfc0"},"vehicle_type_id":"4","last_reported":1756387286,"current_range_meters":10800,"station_id":"","pricing_plan_id":"cebpf4jnsgd1na2vs0mg"},{"bike_id":"ac0ea835-99bd-43af-8946-31e8413cf1fb","system_id":"levelo_inurba_marseille","lat":43.32457,"lon":5.36605,"is_reserved":false,"is_disabled":false,"rental_uris":{"android":"levelo://app?vid=ac0ea835-99bd-43af-8946-31e8413cf1fb","ios":"levelo://app?vid=ac0ea835-99bd-43af-8946-31e8413cf1fb"},"vehicle_type_id":"4","last_reported":1756387286,"current_range_meters":11200,"station_id":"ce4bhs12rcd13ifvqhvg","pricing_plan_id":"cebpf4jnsgd1na2vs0mg"},{"bike_id":"3664a0b5-d8e2-4e1e-bbcc-c0420aee10a3","system_id":"levelo_inurba_marseille","lat":43.29852,"lon":5.36286,"is_reserved":false,"is_disabled":false,"rental_uris":{"android":"levelo://app?vid=3664a0b5-d8e2-4e1e-bbcc-c0420aee10a3","ios":"levelo://app?vid=3664a0b5-d8e2-4e1e-bbcc-c0420aee10a3"},"vehicle_type_id":"4","last_reported":1756387286,"current_range_meters":11200,"station_id":"ce4bgpp2rcd13ifvqc3g","pricing_plan_id":"cebpf4jnsgd1na2vs0mg"},{"bike_id":"0d17ede8-4fcc-407a-a176-b8f80618313a","system_id":"levelo_inurba_marseille","lat":43.22934,"lon":5.35376,"is_reserved":false,"is_disabled":false,"rental_uris":{"android":"levelo://app?vid=0d17ede8-4fcc-407a-a176-b8f80618313a","ios":"levelo://app?vid=0d17ede8-4fcc-407a-a176-b8f80618313a"},"vehicle_type_id":"4","last_reported":1756387286,"current_range_meters":11200,"station_id":"cpo3532slgdg3j2ikp40","pricing_plan_id":"cebpf4jnsgd1na2vs0mg"},{"bike_id":"c308a772-8fe0-42a9-b0d4-bd11d356e06f","system_id":"levelo_inurba_marseille","lat":43.26553,"lon":5.3729,"is_reserved":false,"is_disabled":false,"rental_uris":{"android":"levelo://app?vid=c308a772-8fe0-42a9-b0d4-bd11d356e06f","ios":"levelo://app?vid=c308a772-8fe0-42a9-b0d4-bd11d356e06f"},"vehicle_type_id":"4","last_reported":1756387286,"current_range_meters":11200,"station_id":"ce4bhg12rcd13ifvqf70","pricing_plan_id":"cebpf4jnsgd1na2vs0mg"},{"bike_id":"73e90243-1209-4395-8091-14986902f9a5","system_id":"levelo_inurba_marseille","lat":43.26027,"lon":5.37549,"is_reserved":false,"is_disabled":false,"rental_uris":{"android":"levelo://app?vid=73e90243-1209-4395-8091-14986902f9a5","ios":"levelo://app?vid=73e90243-1209-4395-8091-14986902f9a5"},"vehicle_type_id":"4","last_reported":1756387286,"current_range_meters":11200,"station_id":"ce4bhgh2rcd13ifvqfa0","pricing_plan_id":"cebpf4jnsgd1na2vs0mg"},{"bike_id":"c198a5f2-1d22-4193-b0ec-732bdef5cfb2","system_id":"levelo_inurba_marseille","lat":43.29705,"lon":5.36614,"is_reserved":false,"is_disabled":false,"rental_uris":{"android":"levelo://app?vid=c198a5f2-1d22-4193-b0ec-732bdef5cfb2","ios":"levelo://app?vid=c198a5f2-1d22-4193-b0ec-732bdef5cfb2"},"vehicle_type_id":"4","last_reported":1756387286,"current_range_meters":11200,"station_id":"ce4bgn12rcd13ifvqbt0","pricing_plan_id":"cebpf4jnsgd1na2vs0mg"},{"bike_id":"31eeac54-6036-4051-a7ef-f3495342975f","system_id":"levelo_inurba_marseille","lat":43.26201,"lon":5.37921,"is_reserved":false,"is_disabled":false,"rental_uris":{"android":"levelo://app?vid=31eeac54-6036-4051-a7ef-f3495342975f","ios":"levelo://app?vid=31eeac54-6036-4051-a7ef-f3495342975f"},"vehicle_type_id":"4","last_reported":1756387286,"current_range_meters":11600,"station_id":"ce4bhjp2rcd13ifvqg90","pricing_plan_id":"cebpf4jnsgd1na2vs0mg"},{"bike_id":"9e190d69-25e5-45e4-9dd0-4ccc2be1156e","system_id":"levelo_inurba_marseille","lat":43.30307,"lon":5.36885,"is_reserved":false,"is_disabled":false,"rental_uris":{"android":"levelo://app?vid=9e190d69-25e5-45e4-9dd0-4ccc2be1156e","ios":"levelo://app?vid=9e190d69-25e5-45e4-9dd0-4ccc2be1156e"},"vehicle_type_id":"4","last_reported":1756387286,"current_range_meters":11600,"station_id":"ce4bgqh2rcd13ifvqc5g","pricing_plan_id":"cebpf4jnsgd1na2vs0mg"},{"bike_id":"381ee211-9cbc-4e3b-a668-6f098f82d140","system_id":"levelo_inurba_marseille","lat":43.25504,"lon":5.37652,"is_reserved":false,"is_disabled":false,"rental_uris":{"android":"levelo://app?vid=381ee211-9cbc-4e3b-a668-6f098f82d140","ios":"levelo://app?vid=381ee211-9cbc-4e3b-a668-6f098f82d140"},"vehicle_type_id":"4","last_reported":1756387286,"current_range_meters":11600,"station_id":"ce4bhh12rcd13ifvqff0","pricing_plan_id":"cebpf4jnsgd1na2vs0mg"},{"bike_id":"398d2fd6-f3b6-427d-9864-bcff143e881a","system_id":"levelo_inurba_marseille","lat":43.25498,"lon":5.37648,"is_reserved":false,"is_disabled":false,"rental_uris":{"android":"levelo://app?vid=398d2fd6-f3b6-427d-9864-bcff143e881a","ios":"levelo://app?vid=398d2fd6-f3b6-427d-9864-bcff143e881a"},"vehicle_type_id":"4","last_reported":1756387286,"current_range_meters":11600,"station_id":"ce4bhh12rcd13ifvqff0","pricing_plan_id":"cebpf4jnsgd1na2vs0mg"},{"bike_id":"c67682e4-ad86-4b65-b4ef-e774963b7e60","system_id":"levelo_inurba_marseille","lat":43.23147,"lon":5.35409,"is_reserved":false,"is_disabled":false,"rental_uris":{"android":"levelo://app?vid=c67682e4-ad86-4b65-b4ef-e774963b7e60","ios":"levelo://app?vid=c67682e4-ad86-4b65-b4ef-e774963b7e60"},"vehicle_type_id":"4","last_reported":1756387286,"current_range_meters":12000,"station_id":"","pricing_plan_id":"cebpf4jnsgd1na2vs0mg"},{"bike_id":"c44bedcb-df6e-4aac-bc5a-92deddea45d5","system_id":"levelo_inurba_marseille","lat":43.29525,"lon":5.39039,"is_reserved":false,"is_disabled":false,"rental_uris":{"android":"levelo://app?vid=c44bedcb-df6e-4aac-bc5a-92deddea45d5","ios":"levelo://app?vid=c44bedcb-df6e-4aac-bc5a-92deddea45d5"},"vehicle_type_id":"4","last_reported":1756387286,"current_range_meters":12000,"station_id":"ce4bh3p2rcd13ifvqdp0","pricing_plan_id":"cebpf4jnsgd1na2vs0mg"},{"bike_id":"d810acf0-5bd2-4bf1-848d-31cd30d105e6","system_id":"levelo_inurba_marseille","lat":43.269831,"lon":5.392782,"is_reserved":false,"is_disabled":false,"rental_uris":{"android":"levelo://app?vid=d810acf0-5bd2-4bf1-848d-31cd30d105e6","ios":"levelo://app?vid=d810acf0-5bd2-4bf1-848d-31cd30d105e6"},"vehicle_type_id":"4","last_reported":1756387286,"current_range_meters":12000,"station_id":"","pricing_plan_id":"cebpf4jnsgd1na2vs0mg"},{"bike_id":"1de5f9ae-4385-40f0-85dc-9c7f2e7c17e0","system_id":"levelo_inurba_marseille","lat":43.2821,"lon":5.39059,"is_reserved":false,"is_disabled":false,"rental_uris":{"android":"levelo://app?vid=1de5f9ae-4385-40f0-85dc-9c7f2e7c17e0","ios":"levelo://app?vid=1de5f9ae-4385-40f0-85dc-9c7f2e7c17e0"},"vehicle_type_id":"4","last_reported":1756387286,"current_range_meters":12000,"station_id":"ce4bhn92rcd13ifvqgsg","pricing_plan_id":"cebpf4jnsgd1na2vs0mg"},{"bike_id":"d4b63031-f2e5-4031-87ef-6de39796f91e","system_id":"levelo_inurba_marseille","lat":43.31756,"lon":5.3901,"is_reserved":false,"is_disabled":false,"rental_uris":{"android":"levelo://app?vid=d4b63031-f2e5-4031-87ef-6de39796f91e","ios":"levelo://app?vid=d4b63031-f2e5-4031-87ef-6de39796f91e"},"vehicle_type_id":"4","last_reported":1756387286,"current_range_meters":12000,"station_id":"ce4bhqp2rcd13ifvqhng","pricing_plan_id":"cebpf4jnsgd1na2vs0mg"},{"bike_id":"58b0f458-6d83-41ca-9901-eee7b5b8a27a","system_id":"levelo_inurba_marseille","lat":43.26211,"lon":5.37436,"is_reserved":false,"is_disabled":false,"rental_uris":{"android":"levelo://app?vid=58b0f458-6d83-41ca-9901-eee7b5b8a27a","ios":"levelo://app?vid=58b0f458-6d83-41ca-9901-eee7b5b8a27a"},"vehicle_type_id":"4","last_reported":1756387286,"current_range_meters":12400,"station_id":"ce4bhgp2rcd13ifvqfc0","pricing_plan_id":"cebpf4jnsgd1na2vs0mg"},{"bike_id":"23ae6fed-deff-411b-8b6e-f95e32ccd4d0","system_id":"levelo_inurba_marseille","lat":43.321321,"lon":5.367685,"is_reserved":false,"is_disabled":false,"rental_uris":{"android":"levelo://app?vid=23ae6fed-deff-411b-8b6e-f95e32ccd4d0","ios":"levelo://app?vid=23ae6fed-deff-411b-8b6e-f95e32ccd4d0"},"vehicle_type_id":"4","last_reported":1756387286,"current_range_meters":12400,"station_id":"ce4bhrh2rcd13ifvqhug","pricing_plan_id":"cebpf4jnsgd1na2vs0mg"},{"bike_id":"dfbae6f4-3117-428f-9d3a-a2ca57397f21","system_id":"levelo_inurba_marseille","lat":43.29349,"lon":5.37845,"is_reserved":false,"is_disabled":false,"rental_uris":{"android":"levelo://app?vid=dfbae6f4-3117-428f-9d3a-a2ca57397f21","ios":"levelo://app?vid=dfbae6f4-3117-428f-9d3a-a2ca57397f21"},"vehicle_type_id":"4","last_reported":1756387286,"current_range_meters":12400,"station_id":"ce4bgjh2rcd13ifvqbf0","pricing_plan_id":"cebpf4jnsgd1na2vs0mg"},{"bike_id":"9f08663f-8c83-445a-8288-f6f670457f72","system_id":"levelo_inurba_marseille","lat":43.2534,"lon":5.42181,"is_reserved":false,"is_disabled":false,"rental_uris":{"android":"levelo://app?vid=9f08663f-8c83-445a-8288-f6f670457f72","ios":"levelo://app?vid=9f08663f-8c83-445a-8288-f6f670457f72"},"vehicle_type_id":"4","last_reported":1756387286,"current_range_meters":12800,"station_id":"st_d2m65c5bi1j21697t3ng","pricing_plan_id":"cebpf4jnsgd1na2vs0mg"},{"bike_id":"9f03e1e2-4e9a-43c4-963b-4baf28706312","system_id":"levelo_inurba_marseille","lat":43.30549,"lon":5.36698,"is_reserved":false,"is_disabled":false,"rental_uris":{"android":"levelo://app?vid=9f03e1e2-4e9a-43c4-963b-4baf28706312","ios":"levelo://app?vid=9f03e1e2-4e9a-43c4-963b-4baf28706312"},"vehicle_type_id":"4","last_reported":1756387286,"current_range_meters":12800,"station_id":"ce4bgrp2rcd13ifvqc9g","pricing_plan_id":"cebpf4jnsgd1na2vs0mg"},{"bike_id":"64273eba-1ac7-4651-9996-6e6010104e95","system_id":"levelo_inurba_marseille","lat":43.31329,"lon":5.39704,"is_reserved":false,"is_disabled":false,"rental_uris":{"android":"levelo://app?vid=64273eba-1ac7-4651-9996-6e6010104e95","ios":"levelo://app?vid=64273eba-1ac7-4651-9996-6e6010104e95"},"vehicle_type_id":"4","last_reported":1756387286,"current_range_meters":12800,"station_id":"ce4bgvp2rcd13ifvqcu0","pricing_plan_id":"cebpf4jnsgd1na2vs0mg"},{"bike_id":"992e48af-8b74-4ef9-afdd-f0bf1a757cbd","system_id":"levelo_inurba_marseille","lat":43.314194,"lon":5.375004,"is_reserved":false,"is_disabled":false,"rental_uris":{"android":"levelo://app?vid=992e48af-8b74-4ef9-afdd-f0bf1a757cbd","ios":"levelo://app?vid=992e48af-8b74-4ef9-afdd-f0bf1a757cbd"},"vehicle_type_id":"4","last_reported":1756387286,"current_range_meters":13600,"station_id":"ce4bgt12rcd13ifvqcd0","pricing_plan_id":"cebpf4jnsgd1na2vs0mg"},{"bike_id":"ee0050b2-f805-4fa7-b11d-49fdaa31b724","system_id":"levelo_inurba_marseille","lat":43.28448,"lon":5.39201,"is_reserved":false,"is_disabled":false,"rental_uris":{"android":"levelo://app?vid=ee0050b2-f805-4fa7-b11d-49fdaa31b724","ios":"levelo://app?vid=ee0050b2-f805-4fa7-b11d-49fdaa31b724"},"vehicle_type_id":"4","last_reported":1756387286,"current_range_meters":12800,"station_id":"ce4bhoh2rcd13ifvqh5g","pricing_plan_id":"cebpf4jnsgd1na2vs0mg"},{"bike_id":"9c401436-7aa7-494a-9cc1-967079e60b6f","system_id":"levelo_inurba_marseille","lat":43.259307,"lon":5.409026,"is_reserved":false,"is_disabled":false,"rental_uris":{"android":"levelo://app?vid=9c401436-7aa7-494a-9cc1-967079e60b6f","ios":"levelo://app?vid=9c401436-7aa7-494a-9cc1-967079e60b6f"},"vehicle_type_id":"4","last_reported":1756387286,"current_range_meters":13600,"station_id":"ce4bhm92rcd13ifvqglg","pricing_plan_id":"cebpf4jnsgd1na2vs0mg"},{"bike_id":"6b70fd3b-bde6-4ad1-a0a1-7a0df410613b","system_id":"levelo_inurba_marseille","lat":43.30816,"lon":5.381782,"is_reserved":false,"is_disabled":false,"rental_uris":{"android":"levelo://app?vid=6b70fd3b-bde6-4ad1-a0a1-7a0df410613b","ios":"levelo://app?vid=6b70fd3b-bde6-4ad1-a0a1-7a0df410613b"},"vehicle_type_id":"4","last_reported":1756387286,"current_range_meters":12800,"station_id":"","pricing_plan_id":"cebpf4jnsgd1na2vs0mg"},{"bike_id":"e2157c09-f51d-4d60-9654-c3b735f52046","system_id":"levelo_inurba_marseille","lat":43.26195,"lon":5.37449,"is_reserved":false,"is_disabled":false,"rental_uris":{"android":"levelo://app?vid=e2157c09-f51d-4d60-9654-c3b735f52046","ios":"levelo://app?vid=e2157c09-f51d-4d60-9654-c3b735f52046"},"vehicle_type_id":"4","last_reported":1756387286,"current_range_meters":13600,"station_id":"ce4bhgp2rcd13ifvqfc0","pricing_plan_id":"cebpf4jnsgd1na2vs0mg"},{"bike_id":"46d7f82c-3c8e-4a19-9e6c-56441462625d","system_id":"levelo_inurba_marseille","lat":43.26789,"lon":5.39405,"is_reserved":false,"is_disabled":false,"rental_uris":{"android":"levelo://app?vid=46d7f82c-3c8e-4a19-9e6c-56441462625d","ios":"levelo://app?vid=46d7f82c-3c8e-4a19-9e6c-56441462625d"},"vehicle_type_id":"4","last_reported":1756387286,"current_range_meters":12800,"station_id":"ce4bhh12rcd13ifvqfg0","pricing_plan_id":"cebpf4jnsgd1na2vs0mg"},{"bike_id":"8df4d72a-2534-4225-b0d0-5b48bd4c7385","system_id":"levelo_inurba_marseille","lat":43.29456,"lon":5.3975,"is_reserved":false,"is_disabled":false,"rental_uris":{"android":"levelo://app?vid=8df4d72a-2534-4225-b0d0-5b48bd4c7385","ios":"levelo://app?vid=8df4d72a-2534-4225-b0d0-5b48bd4c7385"},"vehicle_type_id":"4","last_reported":1756387286,"current_range_meters":14000,"station_id":"ce4bh3h2rcd13ifvqdo0","pricing_plan_id":"cebpf4jnsgd1na2vs0mg"},{"bike_id":"d962c9bc-30a5-4f74-9ce3-6d555625a1e0","system_id":"levelo_inurba_marseille","lat":43.23964,"lon":5.36629,"is_reserved":false,"is_disabled":false,"rental_uris":{"android":"levelo://app?vid=d962c9bc-30a5-4f74-9ce3-6d555625a1e0","ios":"levelo://app?vid=d962c9bc-30a5-4f74-9ce3-6d555625a1e0"},"vehicle_type_id":"4","last_reported":1756387286,"current_range_meters":14000,"station_id":"ce4bhi12rcd13ifvqfp0","pricing_plan_id":"cebpf4jnsgd1na2vs0mg"},{"bike_id":"1091f287-02ee-4a66-888b-59c35fd65791","system_id":"levelo_inurba_marseille","lat":43.231932,"lon":5.355537,"is_reserved":false,"is_disabled":false,"rental_uris":{"android":"levelo://app?vid=1091f287-02ee-4a66-888b-59c35fd65791","ios":"levelo://app?vid=1091f287-02ee-4a66-888b-59c35fd65791"},"vehicle_type_id":"4","last_reported":1756387286,"current_range_meters":14000,"station_id":"ce4bhu92rcd13ifvqi70","pricing_plan_id":"cebpf4jnsgd1na2vs0mg"},{"bike_id":"6772850d-2dee-4ad5-893e-2335ed13d3ef","system_id":"levelo_inurba_marseille","lat":43.31324,"lon":5.3668,"is_reserved":false,"is_disabled":false,"rental_uris":{"android":"levelo://app?vid=6772850d-2dee-4ad5-893e-2335ed13d3ef","ios":"levelo://app?vid=6772850d-2dee-4ad5-893e-2335ed13d3ef"},"vehicle_type_id":"4","last_reported":1756387286,"current_range_meters":14000,"station_id":"ce4bgr92rcd13ifvqc6g","pricing_plan_id":"cebpf4jnsgd1na2vs0mg"},{"bike_id":"e214969a-4980-491a-a7b5-21d163f890a7","system_id":"levelo_inurba_marseille","lat":43.23154,"lon":5.4372,"is_reserved":false,"is_disabled":false,"rental_uris":{"android":"levelo://app?vid=e214969a-4980-491a-a7b5-21d163f890a7","ios":"levelo://app?vid=e214969a-4980-491a-a7b5-21d163f890a7"},"vehicle_type_id":"4","last_reported":1756387286,"current_range_meters":14000,"station_id":"ce4bhmp2rcd13ifvqgog","pricing_plan_id":"cebpf4jnsgd1na2vs0mg"},{"bike_id":"5dde89c4-8ab2-4d7d-98c9-0d3b2a8d9fd6","system_id":"levelo_inurba_marseille","lat":43.26192,"lon":5.3745,"is_reserved":false,"is_disabled":false,"rental_uris":{"android":"levelo://app?vid=5dde89c4-8ab2-4d7d-98c9-0d3b2a8d9fd6","ios":"levelo://app?vid=5dde89c4-8ab2-4d7d-98c9-0d3b2a8d9fd6"},"vehicle_type_id":"4","last_reported":1756387286,"current_range_meters":14000,"station_id":"ce4bhgp2rcd13ifvqfc0","pricing_plan_id":"cebpf4jnsgd1na2vs0mg"},{"bike_id":"070848c5-3ae3-418d-ab2b-3c2af769def4","system_id":"levelo_inurba_marseille","lat":43.25914,"lon":5.40881,"is_reserved":false,"is_disabled":false,"rental_uris":{"android":"levelo://app?vid=070848c5-3ae3-418d-ab2b-3c2af769def4","ios":"levelo://app?vid=070848c5-3ae3-418d-ab2b-3c2af769def4"},"vehicle_type_id":"4","last_reported":1756387286,"current_range_meters":14000,"station_id":"ce4bhm92rcd13ifvqglg","pricing_plan_id":"cebpf4jnsgd1na2vs0mg"},{"bike_id":"29520db9-1e75-4db4-99b5-9eb9767c3933","system_id":"levelo_inurba_marseille","lat":43.26925,"lon":5.38911,"is_reserved":false,"is_disabled":false,"rental_uris":{"android":"levelo://app?vid=29520db9-1e75-4db4-99b5-9eb9767c3933","ios":"levelo://app?vid=29520db9-1e75-4db4-99b5-9eb9767c3933"},"vehicle_type_id":"4","last_reported":1756387286,"current_range_meters":14000,"station_id":"ce4bhhh2rcd13ifvqfl0","pricing_plan_id":"cebpf4jnsgd1na2vs0mg"},{"bike_id":"a5c913a9-8444-4f45-9f9e-1bc06a802d9b","system_id":"levelo_inurba_marseille","lat":43.28,"lon":5.41677,"is_reserved":false,"is_disabled":false,"rental_uris":{"android":"levelo://app?vid=a5c913a9-8444-4f45-9f9e-1bc06a802d9b","ios":"levelo://app?vid=a5c913a9-8444-4f45-9f9e-1bc06a802d9b"},"vehicle_type_id":"4","last_reported":1756387286,"current_range_meters":14400,"station_id":"ce4bho12rcd13ifvqh1g","pricing_plan_id":"cebpf4jnsgd1na2vs0mg"},{"bike_id":"625affc1-1852-40b6-9081-e34461dd6175","system_id":"levelo_inurba_marseille","lat":43.285647,"lon":5.394995,"is_reserved":false,"is_disabled":false,"rental_uris":{"android":"levelo://app?vid=625affc1-1852-40b6-9081-e34461dd6175","ios":"levelo://app?vid=625affc1-1852-40b6-9081-e34461dd6175"},"vehicle_type_id":"4","last_reported":1756387286,"current_range_meters":14000,"station_id":"ce4bh292rcd13ifvqdg0","pricing_plan_id":"cebpf4jnsgd1na2vs0mg"},{"bike_id":"18e83f87-28c4-4555-88f0-8e96364a0ea3","system_id":"levelo_inurba_marseille","lat":43.295294,"lon":5.375061,"is_reserved":false,"is_disabled":false,"rental_uris":{"android":"levelo://app?vid=18e83f87-28c4-4555-88f0-8e96364a0ea3","ios":"levelo://app?vid=18e83f87-28c4-4555-88f0-8e96364a0ea3"},"vehicle_type_id":"4","last_reported":1756387286,"current_range_meters":14800,"station_id":"","pricing_plan_id":"cebpf4jnsgd1na2vs0mg"},{"bike_id":"615f9cb4-bc08-43f1-87ef-884359fe2e39","system_id":"levelo_inurba_marseille","lat":43.323588,"lon":5.367573,"is_reserved":false,"is_disabled":false,"rental_uris":{"android":"levelo://app?vid=615f9cb4-bc08-43f1-87ef-884359fe2e39","ios":"levelo://app?vid=615f9cb4-bc08-43f1-87ef-884359fe2e39"},"vehicle_type_id":"4","last_reported":1756387286,"current_range_meters":14800,"station_id":"ce4bhsh2rcd13ifvqi2g","pricing_plan_id":"cebpf4jnsgd1na2vs0mg"},{"bike_id":"731ff345-1377-45e9-acf9-0825f15b172a","system_id":"levelo_inurba_marseille","lat":43.229191,"lon":5.353687,"is_reserved":false,"is_disabled":false,"rental_uris":{"android":"levelo://app?vid=731ff345-1377-45e9-acf9-0825f15b172a","ios":"levelo://app?vid=731ff345-1377-45e9-acf9-0825f15b172a"},"vehicle_type_id":"4","last_reported":1756387286,"current_range_meters":14800,"station_id":"cpo3532slgdg3j2ikp40","pricing_plan_id":"cebpf4jnsgd1na2vs0mg"},{"bike_id":"533686dc-e263-4240-984f-1fcd6cac7776","system_id":"levelo_inurba_marseille","lat":43.27942,"lon":5.41039,"is_reserved":false,"is_disabled":false,"rental_uris":{"android":"levelo://app?vid=533686dc-e263-4240-984f-1fcd6cac7776","ios":"levelo://app?vid=533686dc-e263-4240-984f-1fcd6cac7776"},"vehicle_type_id":"4","last_reported":1756387286,"current_range_meters":14800,"station_id":"ce4bhnp2rcd13ifvqh0g","pricing_plan_id":"cebpf4jnsgd1na2vs0mg"},{"bike_id":"6e51d5d9-9f08-4273-8911-21fb24c92111","system_id":"levelo_inurba_marseille","lat":43.31482,"lon":5.37292,"is_reserved":false,"is_disabled":false,"rental_uris":{"android":"levelo://app?vid=6e51d5d9-9f08-4273-8911-21fb24c92111","ios":"levelo://app?vid=6e51d5d9-9f08-4273-8911-21fb24c92111"},"vehicle_type_id":"4","last_reported":1756387286,"current_range_meters":14800,"station_id":"ce4bgt12rcd13ifvqcd0","pricing_plan_id":"cebpf4jnsgd1na2vs0mg"},{"bike_id":"ec0f9f0d-0796-42ac-9cf5-bb8596cdf342","system_id":"levelo_inurba_marseille","lat":43.211924,"lon":5.350776,"is_reserved":false,"is_disabled":false,"rental_uris":{"android":"levelo://app?vid=ec0f9f0d-0796-42ac-9cf5-bb8596cdf342","ios":"levelo://app?vid=ec0f9f0d-0796-42ac-9cf5-bb8596cdf342"},"vehicle_type_id":"4","last_reported":1756387286,"current_range_meters":14800,"station_id":"","pricing_plan_id":"cebpf4jnsgd1na2vs0mg"},{"bike_id":"292038bc-157a-4457-9bfb-31bfbacb63a8","system_id":"levelo_inurba_marseille","lat":43.29518,"lon":5.39047,"is_reserved":false,"is_disabled":false,"rental_uris":{"android":"levelo://app?vid=292038bc-157a-4457-9bfb-31bfbacb63a8","ios":"levelo://app?vid=292038bc-157a-4457-9bfb-31bfbacb63a8"},"vehicle_type_id":"4","last_reported":1756387286,"current_range_meters":14400,"station_id":"ce4bh3p2rcd13ifvqdp0","pricing_plan_id":"cebpf4jnsgd1na2vs0mg"},{"bike_id":"64d1f08d-2ebb-4185-9b10-07cf8bb1f749","system_id":"levelo_inurba_marseille","lat":43.30138,"lon":5.37411,"is_reserved":false,"is_disabled":false,"rental_uris":{"android":"levelo://app?vid=64d1f08d-2ebb-4185-9b10-07cf8bb1f749","ios":"levelo://app?vid=64d1f08d-2ebb-4185-9b10-07cf8bb1f749"},"vehicle_type_id":"4","last_reported":1756387286,"current_range_meters":14800,"station_id":"ce4bgs92rcd13ifvqcc0","pricing_plan_id":"cebpf4jnsgd1na2vs0mg"},{"bike_id":"412741e8-9fb1-465d-a5a9-213fbff0c486","system_id":"levelo_inurba_marseille","lat":43.239688,"lon":5.366318,"is_reserved":false,"is_disabled":false,"rental_uris":{"android":"levelo://app?vid=412741e8-9fb1-465d-a5a9-213fbff0c486","ios":"levelo://app?vid=412741e8-9fb1-465d-a5a9-213fbff0c486"},"vehicle_type_id":"4","last_reported":1756387286,"current_range_meters":14800,"station_id":"ce4bhi12rcd13ifvqfp0","pricing_plan_id":"cebpf4jnsgd1na2vs0mg"},{"bike_id":"3fe20069-09d2-438f-9cdf-662278f929de","system_id":"levelo_inurba_marseille","lat":43.29022,"lon":5.38138,"is_reserved":false,"is_disabled":false,"rental_uris":{"android":"levelo://app?vid=3fe20069-09d2-438f-9cdf-662278f929de","ios":"levelo://app?vid=3fe20069-09d2-438f-9cdf-662278f929de"},"vehicle_type_id":"4","last_reported":1756387286,"current_range_meters":15200,"station_id":"ce4bh4p2rcd13ifvqe1g","pricing_plan_id":"cebpf4jnsgd1na2vs0mg"},{"bike_id":"2b52eaa6-7e80-48f3-a4c7-5d85c89e1d00","system_id":"levelo_inurba_marseille","lat":43.27945,"lon":5.41048,"is_reserved":false,"is_disabled":false,"rental_uris":{"android":"levelo://app?vid=2b52eaa6-7e80-48f3-a4c7-5d85c89e1d00","ios":"levelo://app?vid=2b52eaa6-7e80-48f3-a4c7-5d85c89e1d00"},"vehicle_type_id":"4","last_reported":1756387286,"current_range_meters":15200,"station_id":"ce4bhnp2rcd13ifvqh0g","pricing_plan_id":"cebpf4jnsgd1na2vs0mg"},{"bike_id":"82d9cb72-f6f8-4fda-b856-2f617fc890ac","system_id":"levelo_inurba_marseille","lat":43.24178,"lon":5.39718,"is_reserved":false,"is_disabled":false,"rental_uris":{"android":"levelo://app?vid=82d9cb72-f6f8-4fda-b856-2f617fc890ac","ios":"levelo://app?vid=82d9cb72-f6f8-4fda-b856-2f617fc890ac"},"vehicle_type_id":"4","last_reported":1756387286,"current_range_meters":15200,"station_id":"ce4bhn12rcd13ifvqgpg","pricing_plan_id":"cebpf4jnsgd1na2vs0mg"},{"bike_id":"cde0902e-be2f-4d58-b0ab-04c3da8d2e49","system_id":"levelo_inurba_marseille","lat":43.30142,"lon":5.3807,"is_reserved":false,"is_disabled":false,"rental_uris":{"android":"levelo://app?vid=cde0902e-be2f-4d58-b0ab-04c3da8d2e49","ios":"levelo://app?vid=cde0902e-be2f-4d58-b0ab-04c3da8d2e49"},"vehicle_type_id":"4","last_reported":1756387286,"current_range_meters":15200,"station_id":"ce4bgjp2rcd13ifvqbh0","pricing_plan_id":"cebpf4jnsgd1na2vs0mg"},{"bike_id":"be3b8637-f483-43a7-8d1b-1510eb0452bd","system_id":"levelo_inurba_marseille","lat":43.29978,"lon":5.38486,"is_reserved":false,"is_disabled":false,"rental_uris":{"android":"levelo://app?vid=be3b8637-f483-43a7-8d1b-1510eb0452bd","ios":"levelo://app?vid=be3b8637-f483-43a7-8d1b-1510eb0452bd"},"vehicle_type_id":"4","last_reported":1756387286,"current_range_meters":15200,"station_id":"ce4bgj92rcd13ifvqbd0","pricing_plan_id":"cebpf4jnsgd1na2vs0mg"},{"bike_id":"259905c0-0b2a-48d2-8997-dcb3931ef5bd","system_id":"levelo_inurba_marseille","lat":43.28099,"lon":5.37833,"is_reserved":false,"is_disabled":false,"rental_uris":{"android":"levelo://app?vid=259905c0-0b2a-48d2-8997-dcb3931ef5bd","ios":"levelo://app?vid=259905c0-0b2a-48d2-8997-dcb3931ef5bd"},"vehicle_type_id":"4","last_reported":1756387286,"current_range_meters":15200,"station_id":"ce4bha12rcd13ifvqee0","pricing_plan_id":"cebpf4jnsgd1na2vs0mg"},{"bike_id":"29c55d68-58c5-4ef2-b442-72bb9c55ddb0","system_id":"levelo_inurba_marseille","lat":43.32288,"lon":5.36667,"is_reserved":false,"is_disabled":false,"rental_uris":{"android":"levelo://app?vid=29c55d68-58c5-4ef2-b442-72bb9c55ddb0","ios":"levelo://app?vid=29c55d68-58c5-4ef2-b442-72bb9c55ddb0"},"vehicle_type_id":"4","last_reported":1756387286,"current_range_meters":15200,"station_id":"ce4bhsh2rcd13ifvqi2g","pricing_plan_id":"cebpf4jnsgd1na2vs0mg"},{"bike_id":"d4411ce1-1269-4134-adda-1eb61c16980f","system_id":"levelo_inurba_marseille","lat":43.28101,"lon":5.37835,"is_reserved":false,"is_disabled":false,"rental_uris":{"android":"levelo://app?vid=d4411ce1-1269-4134-adda-1eb61c16980f","ios":"levelo://app?vid=d4411ce1-1269-4134-adda-1eb61c16980f"},"vehicle_type_id":"4","last_reported":1756387286,"current_range_meters":16000,"station_id":"ce4bha12rcd13ifvqee0","pricing_plan_id":"cebpf4jnsgd1na2vs0mg"},{"bike_id":"1f62479a-0856-46ae-b67f-852ed6ce6a56","system_id":"levelo_inurba_marseille","lat":43.26563,"lon":5.39,"is_reserved":false,"is_disabled":true,"rental_uris":{"android":"levelo://app?vid=1f62479a-0856-46ae-b67f-852ed6ce6a56","ios":"levelo://app?vid=1f62479a-0856-46ae-b67f-852ed6ce6a56"},"vehicle_type_id":"4","last_reported":1756387286,"current_range_meters":16000,"station_id":"ce4bhe12rcd13ifvqf30","pricing_plan_id":"cebpf4jnsgd1na2vs0mg"},{"bike_id":"627dad2b-4a71-46fe-93ec-2e28dad5285c","system_id":"levelo_inurba_marseille","lat":43.29446,"lon":5.39755,"is_reserved":false,"is_disabled":false,"rental_uris":{"android":"levelo://app?vid=627dad2b-4a71-46fe-93ec-2e28dad5285c","ios":"levelo://app?vid=627dad2b-4a71-46fe-93ec-2e28dad5285c"},"vehicle_type_id":"4","last_reported":1756387286,"current_range_meters":16000,"station_id":"ce4bh3h2rcd13ifvqdo0","pricing_plan_id":"cebpf4jnsgd1na2vs0mg"},{"bike_id":"00865bff-72de-47be-acda-9cf6ec16a836","system_id":"levelo_inurba_marseille","lat":43.32098,"lon":5.36772,"is_reserved":false,"is_disabled":false,"rental_uris":{"android":"levelo://app?vid=00865bff-72de-47be-acda-9cf6ec16a836","ios":"levelo://app?vid=00865bff-72de-47be-acda-9cf6ec16a836"},"vehicle_type_id":"4","last_reported":1756387286,"current_range_meters":16000,"station_id":"ce4bhrh2rcd13ifvqhug","pricing_plan_id":"cebpf4jnsgd1na2vs0mg"},{"bike_id":"071c92a0-4d4b-4370-8d86-7f0ac0e007f8","system_id":"levelo_inurba_marseille","lat":43.28229,"lon":5.3906,"is_reserved":false,"is_disabled":false,"rental_uris":{"android":"levelo://app?vid=071c92a0-4d4b-4370-8d86-7f0ac0e007f8","ios":"levelo://app?vid=071c92a0-4d4b-4370-8d86-7f0ac0e007f8"},"vehicle_type_id":"4","last_reported":1756387286,"current_range_meters":16000,"station_id":"ce4bhn92rcd13ifvqgsg","pricing_plan_id":"cebpf4jnsgd1na2vs0mg"},{"bike_id":"d0a92e61-7122-4ad6-a0d1-9d37d94ce062","system_id":"levelo_inurba_marseille","lat":43.297052,"lon":5.39052,"is_reserved":false,"is_disabled":false,"rental_uris":{"android":"levelo://app?vid=d0a92e61-7122-4ad6-a0d1-9d37d94ce062","ios":"levelo://app?vid=d0a92e61-7122-4ad6-a0d1-9d37d94ce062"},"vehicle_type_id":"4","last_reported":1756387286,"current_range_meters":16000,"station_id":"","pricing_plan_id":"cebpf4jnsgd1na2vs0mg"},{"bike_id":"1228df86-1f32-46eb-9e0a-1b413ae0e370","system_id":"levelo_inurba_marseille","lat":43.28265,"lon":5.35061,"is_reserved":false,"is_disabled":false,"rental_uris":{"android":"levelo://app?vid=1228df86-1f32-46eb-9e0a-1b413ae0e370","ios":"levelo://app?vid=1228df86-1f32-46eb-9e0a-1b413ae0e370"},"vehicle_type_id":"4","last_reported":1756387286,"current_range_meters":16400,"station_id":"ce4bhbp2rcd13ifvqerg","pricing_plan_id":"cebpf4jnsgd1na2vs0mg"},{"bike_id":"76853953-4750-4c5e-a02d-c060c687f7f4","system_id":"levelo_inurba_marseille","lat":43.26536,"lon":5.37294,"is_reserved":false,"is_disabled":false,"rental_uris":{"android":"levelo://app?vid=76853953-4750-4c5e-a02d-c060c687f7f4","ios":"levelo://app?vid=76853953-4750-4c5e-a02d-c060c687f7f4"},"vehicle_type_id":"4","last_reported":1756387286,"current_range_meters":16400,"station_id":"ce4bhg12rcd13ifvqf70","pricing_plan_id":"cebpf4jnsgd1na2vs0mg"},{"bike_id":"1d6d2e3d-e6be-45f3-9550-08daca30c94e","system_id":"levelo_inurba_marseille","lat":43.23144,"lon":5.4372,"is_reserved":false,"is_disabled":false,"rental_uris":{"android":"levelo://app?vid=1d6d2e3d-e6be-45f3-9550-08daca30c94e","ios":"levelo://app?vid=1d6d2e3d-e6be-45f3-9550-08daca30c94e"},"vehicle_type_id":"4","last_reported":1756387286,"current_range_meters":16400,"station_id":"ce4bhmp2rcd13ifvqgog","pricing_plan_id":"cebpf4jnsgd1na2vs0mg"},{"bike_id":"f8a9a032-65a2-4322-a5d7-fe90d6a5ec72","system_id":"levelo_inurba_marseille","lat":43.3047,"lon":5.37912,"is_reserved":false,"is_disabled":false,"rental_uris":{"android":"levelo://app?vid=f8a9a032-65a2-4322-a5d7-fe90d6a5ec72","ios":"levelo://app?vid=f8a9a032-65a2-4322-a5d7-fe90d6a5ec72"},"vehicle_type_id":"4","last_reported":1756387286,"current_range_meters":16400,"station_id":"ce4bgup2rcd13ifvqcn0","pricing_plan_id":"cebpf4jnsgd1na2vs0mg"},{"bike_id":"120fbeb5-1216-434c-b0f5-2b05feecbb95","system_id":"levelo_inurba_marseille","lat":43.262349,"lon":5.404461,"is_reserved":false,"is_disabled":false,"rental_uris":{"android":"levelo://app?vid=120fbeb5-1216-434c-b0f5-2b05feecbb95","ios":"levelo://app?vid=120fbeb5-1216-434c-b0f5-2b05feecbb95"},"vehicle_type_id":"4","last_reported":1756387286,"current_range_meters":16800,"station_id":"ce4bhmh2rcd13ifvqgmg","pricing_plan_id":"cebpf4jnsgd1na2vs0mg"},{"bike_id":"d535bf59-462f-46ae-b9fb-52bfa64316d1","system_id":"levelo_inurba_marseille","lat":43.24186,"lon":5.39721,"is_reserved":false,"is_disabled":false,"rental_uris":{"android":"levelo://app?vid=d535bf59-462f-46ae-b9fb-52bfa64316d1","ios":"levelo://app?vid=d535bf59-462f-46ae-b9fb-52bfa64316d1"},"vehicle_type_id":"4","last_reported":1756387286,"current_range_meters":16800,"station_id":"ce4bhn12rcd13ifvqgpg","pricing_plan_id":"cebpf4jnsgd1na2vs0mg"},{"bike_id":"8a3d08a4-6e22-43fc-a3af-efea32020201","system_id":"levelo_inurba_marseille","lat":43.32353,"lon":5.36721,"is_reserved":false,"is_disabled":false,"rental_uris":{"android":"levelo://app?vid=8a3d08a4-6e22-43fc-a3af-efea32020201","ios":"levelo://app?vid=8a3d08a4-6e22-43fc-a3af-efea32020201"},"vehicle_type_id":"4","last_reported":1756387286,"current_range_meters":16800,"station_id":"ce4bhsh2rcd13ifvqi2g","pricing_plan_id":"cebpf4jnsgd1na2vs0mg"},{"bike_id":"06669016-cd47-459f-9dbc-b8f7fe75d379","system_id":"levelo_inurba_marseille","lat":43.322846,"lon":5.382836,"is_reserved":false,"is_disabled":false,"rental_uris":{"android":"levelo://app?vid=06669016-cd47-459f-9dbc-b8f7fe75d379","ios":"levelo://app?vid=06669016-cd47-459f-9dbc-b8f7fe75d379"},"vehicle_type_id":"4","last_reported":1756387286,"current_range_meters":16800,"station_id":"ce4bhr12rcd13ifvqhqg","pricing_plan_id":"cebpf4jnsgd1na2vs0mg"},{"bike_id":"151f1598-2786-4837-81d9-c8202439829c","system_id":"levelo_inurba_marseille","lat":43.29916,"lon":5.38527,"is_reserved":false,"is_disabled":false,"rental_uris":{"android":"levelo://app?vid=151f1598-2786-4837-81d9-c8202439829c","ios":"levelo://app?vid=151f1598-2786-4837-81d9-c8202439829c"},"vehicle_type_id":"4","last_reported":1756387286,"current_range_meters":16800,"station_id":"","pricing_plan_id":"cebpf4jnsgd1na2vs0mg"},{"bike_id":"46eb6327-7515-47c8-ac48-8311782b1d74","system_id":"levelo_inurba_marseille","lat":43.23178,"lon":5.39989,"is_reserved":false,"is_disabled":false,"rental_uris":{"android":"levelo://app?vid=46eb6327-7515-47c8-ac48-8311782b1d74","ios":"levelo://app?vid=46eb6327-7515-47c8-ac48-8311782b1d74"},"vehicle_type_id":"4","last_reported":1756387286,"current_range_meters":16800,"station_id":"ce4bhn12rcd13ifvqgqg","pricing_plan_id":"cebpf4jnsgd1na2vs0mg"},{"bike_id":"0f11a911-f7d2-47e5-ad43-0a539f0229d5","system_id":"levelo_inurba_marseille","lat":43.29525,"lon":5.39036,"is_reserved":false,"is_disabled":false,"rental_uris":{"android":"levelo://app?vid=0f11a911-f7d2-47e5-ad43-0a539f0229d5","ios":"levelo://app?vid=0f11a911-f7d2-47e5-ad43-0a539f0229d5"},"vehicle_type_id":"4","last_reported":1756387286,"current_range_meters":16800,"station_id":"ce4bh3p2rcd13ifvqdp0","pricing_plan_id":"cebpf4jnsgd1na2vs0mg"},{"bike_id":"4c46e9e7-04fa-4db5-8ffc-abaa3e008ed7","system_id":"levelo_inurba_marseille","lat":43.30533,"lon":5.36718,"is_reserved":false,"is_disabled":false,"rental_uris":{"android":"levelo://app?vid=4c46e9e7-04fa-4db5-8ffc-abaa3e008ed7","ios":"levelo://app?vid=4c46e9e7-04fa-4db5-8ffc-abaa3e008ed7"},"vehicle_type_id":"4","last_reported":1756387286,"current_range_meters":16800,"station_id":"ce4bgrp2rcd13ifvqc9g","pricing_plan_id":"cebpf4jnsgd1na2vs0mg"},{"bike_id":"e88813c3-e63a-4665-b0f4-72e6c6c89a00","system_id":"levelo_inurba_marseille","lat":43.21168,"lon":5.35092,"is_reserved":false,"is_disabled":false,"rental_uris":{"android":"levelo://app?vid=e88813c3-e63a-4665-b0f4-72e6c6c89a00","ios":"levelo://app?vid=e88813c3-e63a-4665-b0f4-72e6c6c89a00"},"vehicle_type_id":"4","last_reported":1756387286,"current_range_meters":16800,"station_id":"st_cvj6sg6p6f1abm77japg","pricing_plan_id":"cebpf4jnsgd1na2vs0mg"},{"bike_id":"c23738f1-30fb-468b-939e-788c5e9b2fc5","system_id":"levelo_inurba_marseille","lat":43.25718,"lon":5.41117,"is_reserved":false,"is_disabled":false,"rental_uris":{"android":"levelo://app?vid=c23738f1-30fb-468b-939e-788c5e9b2fc5","ios":"levelo://app?vid=c23738f1-30fb-468b-939e-788c5e9b2fc5"},"vehicle_type_id":"4","last_reported":1756387286,"current_range_meters":16800,"station_id":"ce4bhkp2rcd13ifvqgd0","pricing_plan_id":"cebpf4jnsgd1na2vs0mg"},{"bike_id":"42515969-df58-4bc3-81b4-d2c5b3092781","system_id":"levelo_inurba_marseille","lat":43.27718,"lon":5.42022,"is_reserved":false,"is_disabled":false,"rental_uris":{"android":"levelo://app?vid=42515969-df58-4bc3-81b4-d2c5b3092781","ios":"levelo://app?vid=42515969-df58-4bc3-81b4-d2c5b3092781"},"vehicle_type_id":"4","last_reported":1756387286,"current_range_meters":17200,"station_id":"","pricing_plan_id":"cebpf4jnsgd1na2vs0mg"},{"bike_id":"21facb37-f2df-4979-a525-418747dd4e09","system_id":"levelo_inurba_marseille","lat":43.28414,"lon":5.34984,"is_reserved":false,"is_disabled":false,"rental_uris":{"android":"levelo://app?vid=21facb37-f2df-4979-a525-418747dd4e09","ios":"levelo://app?vid=21facb37-f2df-4979-a525-418747dd4e09"},"vehicle_type_id":"4","last_reported":1756387286,"current_range_meters":17200,"station_id":"ce4bhbh2rcd13ifvqepg","pricing_plan_id":"cebpf4jnsgd1na2vs0mg"},{"bike_id":"2592d48e-4f91-4661-a841-16b2ce57828c","system_id":"levelo_inurba_marseille","lat":43.24227,"lon":5.38727,"is_reserved":false,"is_disabled":false,"rental_uris":{"android":"levelo://app?vid=2592d48e-4f91-4661-a841-16b2ce57828c","ios":"levelo://app?vid=2592d48e-4f91-4661-a841-16b2ce57828c"},"vehicle_type_id":"4","last_reported":1756387286,"current_range_meters":17200,"station_id":"","pricing_plan_id":"cebpf4jnsgd1na2vs0mg"},{"bike_id":"ee6f853e-fe44-40c6-8197-71e5ebc9de78","system_id":"levelo_inurba_marseille","lat":43.23135,"lon":5.43718,"is_reserved":false,"is_disabled":false,"rental_uris":{"android":"levelo://app?vid=ee6f853e-fe44-40c6-8197-71e5ebc9de78","ios":"levelo://app?vid=ee6f853e-fe44-40c6-8197-71e5ebc9de78"},"vehicle_type_id":"4","last_reported":1756387286,"current_range_meters":17200,"station_id":"ce4bhmp2rcd13ifvqgog","pricing_plan_id":"cebpf4jnsgd1na2vs0mg"},{"bike_id":"bd3d43c4-42cb-47a1-a4a1-1bea9a4b8466","system_id":"levelo_inurba_marseille","lat":43.29573,"lon":5.37503,"is_reserved":false,"is_disabled":false,"rental_uris":{"android":"levelo://app?vid=bd3d43c4-42cb-47a1-a4a1-1bea9a4b8466","ios":"levelo://app?vid=bd3d43c4-42cb-47a1-a4a1-1bea9a4b8466"},"vehicle_type_id":"4","last_reported":1756387286,"current_range_meters":17200,"station_id":"ce4bgh92rcd13ifvqb50","pricing_plan_id":"cebpf4jnsgd1na2vs0mg"},{"bike_id":"5d2632e1-5416-4b0d-b754-3bfd3a35844a","system_id":"levelo_inurba_marseille","lat":43.26199,"lon":5.37937,"is_reserved":false,"is_disabled":false,"rental_uris":{"android":"levelo://app?vid=5d2632e1-5416-4b0d-b754-3bfd3a35844a","ios":"levelo://app?vid=5d2632e1-5416-4b0d-b754-3bfd3a35844a"},"vehicle_type_id":"4","last_reported":1756387286,"current_range_meters":16000,"station_id":"ce4bhjp2rcd13ifvqg90","pricing_plan_id":"cebpf4jnsgd1na2vs0mg"},{"bike_id":"6c585c9e-34d5-486a-b1ef-53c3ee6bf89b","system_id":"levelo_inurba_marseille","lat":43.27979,"lon":5.38744,"is_reserved":false,"is_disabled":true,"rental_uris":{"android":"levelo://app?vid=6c585c9e-34d5-486a-b1ef-53c3ee6bf89b","ios":"levelo://app?vid=6c585c9e-34d5-486a-b1ef-53c3ee6bf89b"},"vehicle_type_id":"4","last_reported":1756387286,"current_range_meters":17200,"station_id":"ce4bhg12rcd13ifvqf80","pricing_plan_id":"cebpf4jnsgd1na2vs0mg"},{"bike_id":"c8ed8afa-4750-4d5e-b29e-7da3cd8f4dc7","system_id":"levelo_inurba_marseille","lat":43.32394,"lon":5.36651,"is_reserved":false,"is_disabled":false,"rental_uris":{"android":"levelo://app?vid=c8ed8afa-4750-4d5e-b29e-7da3cd8f4dc7","ios":"levelo://app?vid=c8ed8afa-4750-4d5e-b29e-7da3cd8f4dc7"},"vehicle_type_id":"4","last_reported":1756387286,"current_range_meters":17200,"station_id":"ce4bhsh2rcd13ifvqi2g","pricing_plan_id":"cebpf4jnsgd1na2vs0mg"},{"bike_id":"2989f231-17b6-43c5-9555-b294a017aa47","system_id":"levelo_inurba_marseille","lat":43.28402,"lon":5.37515,"is_reserved":false,"is_disabled":false,"rental_uris":{"android":"levelo://app?vid=2989f231-17b6-43c5-9555-b294a017aa47","ios":"levelo://app?vid=2989f231-17b6-43c5-9555-b294a017aa47"},"vehicle_type_id":"4","last_reported":1756387286,"current_range_meters":17600,"station_id":"ce4bh412rcd13ifvqds0","pricing_plan_id":"cebpf4jnsgd1na2vs0mg"},{"bike_id":"db58782c-a9fa-464c-bd85-14ad3b6fee26","system_id":"levelo_inurba_marseille","lat":43.23967,"lon":5.36631,"is_reserved":false,"is_disabled":false,"rental_uris":{"android":"levelo://app?vid=db58782c-a9fa-464c-bd85-14ad3b6fee26","ios":"levelo://app?vid=db58782c-a9fa-464c-bd85-14ad3b6fee26"},"vehicle_type_id":"4","last_reported":1756387286,"current_range_meters":17600,"station_id":"ce4bhi12rcd13ifvqfp0","pricing_plan_id":"cebpf4jnsgd1na2vs0mg"},{"bike_id":"c2baf8fd-5c30-4e8a-849d-49d1ecd60131","system_id":"levelo_inurba_marseille","lat":43.31115,"lon":5.37763,"is_reserved":false,"is_disabled":false,"rental_uris":{"android":"levelo://app?vid=c2baf8fd-5c30-4e8a-849d-49d1ecd60131","ios":"levelo://app?vid=c2baf8fd-5c30-4e8a-849d-49d1ecd60131"},"vehicle_type_id":"4","last_reported":1756387286,"current_range_meters":17600,"station_id":"ce4bgt92rcd13ifvqcg0","pricing_plan_id":"cebpf4jnsgd1na2vs0mg"},{"bike_id":"e0e04e77-d2c9-4055-8b5b-ec1ba61e417b","system_id":"levelo_inurba_marseille","lat":43.24173,"lon":5.36396,"is_reserved":false,"is_disabled":false,"rental_uris":{"android":"levelo://app?vid=e0e04e77-d2c9-4055-8b5b-ec1ba61e417b","ios":"levelo://app?vid=e0e04e77-d2c9-4055-8b5b-ec1ba61e417b"},"vehicle_type_id":"4","last_reported":1756387286,"current_range_meters":17600,"station_id":"cpo36qri1sfpv3e86is0","pricing_plan_id":"cebpf4jnsgd1na2vs0mg"},{"bike_id":"ca808d34-9391-4691-b4c5-e9180d9c16d9","system_id":"levelo_inurba_marseille","lat":43.25336,"lon":5.42159,"is_reserved":false,"is_disabled":false,"rental_uris":{"android":"levelo://app?vid=ca808d34-9391-4691-b4c5-e9180d9c16d9","ios":"levelo://app?vid=ca808d34-9391-4691-b4c5-e9180d9c16d9"},"vehicle_type_id":"4","last_reported":1756387286,"current_range_meters":17600,"station_id":"st_d2m65c5bi1j21697t3ng","pricing_plan_id":"cebpf4jnsgd1na2vs0mg"},{"bike_id":"a3e4ee41-5175-47da-ad6e-4c5ae3eb42d9","system_id":"levelo_inurba_marseille","lat":43.21202,"lon":5.35071,"is_reserved":false,"is_disabled":false,"rental_uris":{"android":"levelo://app?vid=a3e4ee41-5175-47da-ad6e-4c5ae3eb42d9","ios":"levelo://app?vid=a3e4ee41-5175-47da-ad6e-4c5ae3eb42d9"},"vehicle_type_id":"4","last_reported":1756387286,"current_range_meters":17600,"station_id":"st_cvj6sg6p6f1abm77japg","pricing_plan_id":"cebpf4jnsgd1na2vs0mg"},{"bike_id":"fc335984-428d-4b89-8e33-02d6886b5377","system_id":"levelo_inurba_marseille","lat":43.24173,"lon":5.39719,"is_reserved":false,"is_disabled":false,"rental_uris":{"android":"levelo://app?vid=fc335984-428d-4b89-8e33-02d6886b5377","ios":"levelo://app?vid=fc335984-428d-4b89-8e33-02d6886b5377"},"vehicle_type_id":"4","last_reported":1756387286,"current_range_meters":17600,"station_id":"ce4bhn12rcd13ifvqgpg","pricing_plan_id":"cebpf4jnsgd1na2vs0mg"},{"bike_id":"c30c35cb-23d7-491f-83ea-31ff3e71f4aa","system_id":"levelo_inurba_marseille","lat":43.23149,"lon":5.43719,"is_reserved":false,"is_disabled":false,"rental_uris":{"android":"levelo://app?vid=c30c35cb-23d7-491f-83ea-31ff3e71f4aa","ios":"levelo://app?vid=c30c35cb-23d7-491f-83ea-31ff3e71f4aa"},"vehicle_type_id":"4","last_reported":1756387286,"current_range_meters":17600,"station_id":"ce4bhmp2rcd13ifvqgog","pricing_plan_id":"cebpf4jnsgd1na2vs0mg"},{"bike_id":"d1b1290c-bb4a-43b8-a1c6-41e14e9eb4de","system_id":"levelo_inurba_marseille","lat":43.25107,"lon":5.40326,"is_reserved":false,"is_disabled":false,"rental_uris":{"android":"levelo://app?vid=d1b1290c-bb4a-43b8-a1c6-41e14e9eb4de","ios":"levelo://app?vid=d1b1290c-bb4a-43b8-a1c6-41e14e9eb4de"},"vehicle_type_id":"4","last_reported":1756387286,"current_range_meters":18000,"station_id":"ce4bhlh2rcd13ifvqgig","pricing_plan_id":"cebpf4jnsgd1na2vs0mg"},{"bike_id":"f7cd213d-8b5c-44c2-9a2a-6c74fe359cab","system_id":"levelo_inurba_marseille","lat":43.26016,"lon":5.37539,"is_reserved":false,"is_disabled":false,"rental_uris":{"android":"levelo://app?vid=f7cd213d-8b5c-44c2-9a2a-6c74fe359cab","ios":"levelo://app?vid=f7cd213d-8b5c-44c2-9a2a-6c74fe359cab"},"vehicle_type_id":"4","last_reported":1756387286,"current_range_meters":18000,"station_id":"","pricing_plan_id":"cebpf4jnsgd1na2vs0mg"},{"bike_id":"679dd2c2-03ba-464f-b4ca-d253d6e39f03","system_id":"levelo_inurba_marseille","lat":43.2842,"lon":5.34977,"is_reserved":false,"is_disabled":false,"rental_uris":{"android":"levelo://app?vid=679dd2c2-03ba-464f-b4ca-d253d6e39f03","ios":"levelo://app?vid=679dd2c2-03ba-464f-b4ca-d253d6e39f03"},"vehicle_type_id":"4","last_reported":1756387286,"current_range_meters":18000,"station_id":"ce4bhbh2rcd13ifvqepg","pricing_plan_id":"cebpf4jnsgd1na2vs0mg"},{"bike_id":"8a82cea5-e5cc-4fe0-bea7-72325d321d3b","system_id":"levelo_inurba_marseille","lat":43.31702,"lon":5.43733,"is_reserved":false,"is_disabled":false,"rental_uris":{"android":"levelo://app?vid=8a82cea5-e5cc-4fe0-bea7-72325d321d3b","ios":"levelo://app?vid=8a82cea5-e5cc-4fe0-bea7-72325d321d3b"},"vehicle_type_id":"4","last_reported":1756387286,"current_range_meters":18000,"station_id":"ce4bhp92rcd13ifvqhcg","pricing_plan_id":"cebpf4jnsgd1na2vs0mg"},{"bike_id":"daa67b3d-fc97-4380-8462-22d8b5674ead","system_id":"levelo_inurba_marseille","lat":43.29266,"lon":5.3685,"is_reserved":false,"is_disabled":false,"rental_uris":{"android":"levelo://app?vid=daa67b3d-fc97-4380-8462-22d8b5674ead","ios":"levelo://app?vid=daa67b3d-fc97-4380-8462-22d8b5674ead"},"vehicle_type_id":"4","last_reported":1756387286,"current_range_meters":18800,"station_id":"ce4bhbp2rcd13ifvqesg","pricing_plan_id":"cebpf4jnsgd1na2vs0mg"},{"bike_id":"f06e5c0e-5a76-4705-aa22-932f62009ec5","system_id":"levelo_inurba_marseille","lat":43.26219,"lon":5.3744,"is_reserved":false,"is_disabled":false,"rental_uris":{"android":"levelo://app?vid=f06e5c0e-5a76-4705-aa22-932f62009ec5","ios":"levelo://app?vid=f06e5c0e-5a76-4705-aa22-932f62009ec5"},"vehicle_type_id":"4","last_reported":1756387286,"current_range_meters":18800,"station_id":"ce4bhgp2rcd13ifvqfc0","pricing_plan_id":"cebpf4jnsgd1na2vs0mg"},{"bike_id":"dee5fc92-9d8d-42ec-97e1-996d8f5266a8","system_id":"levelo_inurba_marseille","lat":43.22927,"lon":5.35389,"is_reserved":false,"is_disabled":false,"rental_uris":{"android":"levelo://app?vid=dee5fc92-9d8d-42ec-97e1-996d8f5266a8","ios":"levelo://app?vid=dee5fc92-9d8d-42ec-97e1-996d8f5266a8"},"vehicle_type_id":"4","last_reported":1756387286,"current_range_meters":18800,"station_id":"cpo3532slgdg3j2ikp40","pricing_plan_id":"cebpf4jnsgd1na2vs0mg"},{"bike_id":"529de1d8-1819-4280-9714-aac323f5bf01","system_id":"levelo_inurba_marseille","lat":43.24387,"lon":5.37069,"is_reserved":false,"is_disabled":false,"rental_uris":{"android":"levelo://app?vid=529de1d8-1819-4280-9714-aac323f5bf01","ios":"levelo://app?vid=529de1d8-1819-4280-9714-aac323f5bf01"},"vehicle_type_id":"4","last_reported":1756387286,"current_range_meters":18800,"station_id":"ce4bhhh2rcd13ifvqfk0","pricing_plan_id":"cebpf4jnsgd1na2vs0mg"},{"bike_id":"39b34fcc-dfd4-4787-ab91-39ba8799ff5b","system_id":"levelo_inurba_marseille","lat":43.29275,"lon":5.36849,"is_reserved":false,"is_disabled":false,"rental_uris":{"android":"levelo://app?vid=39b34fcc-dfd4-4787-ab91-39ba8799ff5b","ios":"levelo://app?vid=39b34fcc-dfd4-4787-ab91-39ba8799ff5b"},"vehicle_type_id":"4","last_reported":1756387286,"current_range_meters":18800,"station_id":"ce4bhbp2rcd13ifvqesg","pricing_plan_id":"cebpf4jnsgd1na2vs0mg"},{"bike_id":"af0e337f-d4cf-4e28-9020-c2f2b620012b","system_id":"levelo_inurba_marseille","lat":43.22911,"lon":5.35374,"is_reserved":false,"is_disabled":false,"rental_uris":{"android":"levelo://app?vid=af0e337f-d4cf-4e28-9020-c2f2b620012b","ios":"levelo://app?vid=af0e337f-d4cf-4e28-9020-c2f2b620012b"},"vehicle_type_id":"4","last_reported":1756387286,"current_range_meters":18800,"station_id":"cpo3532slgdg3j2ikp40","pricing_plan_id":"cebpf4jnsgd1na2vs0mg"},{"bike_id":"60863403-b289-4c9c-b2d0-3d448abf417f","system_id":"levelo_inurba_marseille","lat":43.28273,"lon":5.35059,"is_reserved":false,"is_disabled":true,"rental_uris":{"android":"levelo://app?vid=60863403-b289-4c9c-b2d0-3d448abf417f","ios":"levelo://app?vid=60863403-b289-4c9c-b2d0-3d448abf417f"},"vehicle_type_id":"4","last_reported":1756387286,"current_range_meters":18800,"station_id":"ce4bhbp2rcd13ifvqerg","pricing_plan_id":"cebpf4jnsgd1na2vs0mg"},{"bike_id":"688af5fb-6252-4eed-9501-ed7d2b2be597","system_id":"levelo_inurba_marseille","lat":43.24171,"lon":5.364,"is_reserved":false,"is_disabled":false,"rental_uris":{"android":"levelo://app?vid=688af5fb-6252-4eed-9501-ed7d2b2be597","ios":"levelo://app?vid=688af5fb-6252-4eed-9501-ed7d2b2be597"},"vehicle_type_id":"4","last_reported":1756387286,"current_range_meters":18800,"station_id":"cpo36qri1sfpv3e86is0","pricing_plan_id":"cebpf4jnsgd1na2vs0mg"},{"bike_id":"22573170-f4de-4e19-a401-e7aa113380c7","system_id":"levelo_inurba_marseille","lat":43.27373,"lon":5.36258,"is_reserved":false,"is_disabled":false,"rental_uris":{"android":"levelo://app?vid=22573170-f4de-4e19-a401-e7aa113380c7","ios":"levelo://app?vid=22573170-f4de-4e19-a401-e7aa113380c7"},"vehicle_type_id":"4","last_reported":1756387286,"current_range_meters":18800,"station_id":"ce4bhbh2rcd13ifvqeo0","pricing_plan_id":"cebpf4jnsgd1na2vs0mg"},{"bike_id":"868d6676-4e39-4d3f-b005-059e28403fd9","system_id":"levelo_inurba_marseille","lat":43.29813,"lon":5.38099,"is_reserved":false,"is_disabled":false,"rental_uris":{"android":"levelo://app?vid=868d6676-4e39-4d3f-b005-059e28403fd9","ios":"levelo://app?vid=868d6676-4e39-4d3f-b005-059e28403fd9"},"vehicle_type_id":"4","last_reported":1756387286,"current_range_meters":18800,"station_id":"ce4bgip2rcd13ifvqbb0","pricing_plan_id":"cebpf4jnsgd1na2vs0mg"},{"bike_id":"60e75bf7-2217-4506-a859-7b63a9e16841","system_id":"levelo_inurba_marseille","lat":43.30644,"lon":5.40101,"is_reserved":false,"is_disabled":false,"rental_uris":{"android":"levelo://app?vid=60e75bf7-2217-4506-a859-7b63a9e16841","ios":"levelo://app?vid=60e75bf7-2217-4506-a859-7b63a9e16841"},"vehicle_type_id":"4","last_reported":1756387286,"current_range_meters":18800,"station_id":"ce4bh112rcd13ifvqda0","pricing_plan_id":"cebpf4jnsgd1na2vs0mg"},{"bike_id":"159e778a-d20c-42da-86c4-bf4c3d4998a3","system_id":"levelo_inurba_marseille","lat":43.26214,"lon":5.37441,"is_reserved":false,"is_disabled":false,"rental_uris":{"android":"levelo://app?vid=159e778a-d20c-42da-86c4-bf4c3d4998a3","ios":"levelo://app?vid=159e778a-d20c-42da-86c4-bf4c3d4998a3"},"vehicle_type_id":"4","last_reported":1756387286,"current_range_meters":18800,"station_id":"ce4bhgp2rcd13ifvqfc0","pricing_plan_id":"cebpf4jnsgd1na2vs0mg"},{"bike_id":"9141a452-e78f-4805-abab-3d432d63c405","system_id":"levelo_inurba_marseille","lat":43.33601,"lon":5.41035,"is_reserved":false,"is_disabled":false,"rental_uris":{"android":"levelo://app?vid=9141a452-e78f-4805-abab-3d432d63c405","ios":"levelo://app?vid=9141a452-e78f-4805-abab-3d432d63c405"},"vehicle_type_id":"4","last_reported":1756387286,"current_range_meters":18000,"station_id":"ce4bhqh2rcd13ifvqhmg","pricing_plan_id":"cebpf4jnsgd1na2vs0mg"},{"bike_id":"c0d0e55a-61d0-4126-807e-343b774fd795","system_id":"levelo_inurba_marseille","lat":43.26211,"lon":5.37466,"is_reserved":false,"is_disabled":false,"rental_uris":{"android":"levelo://app?vid=c0d0e55a-61d0-4126-807e-343b774fd795","ios":"levelo://app?vid=c0d0e55a-61d0-4126-807e-343b774fd795"},"vehicle_type_id":"4","last_reported":1756387286,"current_range_meters":18800,"station_id":"ce4bhgp2rcd13ifvqfc0","pricing_plan_id":"cebpf4jnsgd1na2vs0mg"},{"bike_id":"6c3f9606-3f72-4507-bdb0-acc139c19e6d","system_id":"levelo_inurba_marseille","lat":43.26552,"lon":5.37286,"is_reserved":false,"is_disabled":false,"rental_uris":{"android":"levelo://app?vid=6c3f9606-3f72-4507-bdb0-acc139c19e6d","ios":"levelo://app?vid=6c3f9606-3f72-4507-bdb0-acc139c19e6d"},"vehicle_type_id":"4","last_reported":1756387286,"current_range_meters":18800,"station_id":"ce4bhg12rcd13ifvqf70","pricing_plan_id":"cebpf4jnsgd1na2vs0mg"},{"bike_id":"6dd0abf3-b4b3-4f6d-8320-aeaf8346e3b9","system_id":"levelo_inurba_marseille","lat":43.23148,"lon":5.43696,"is_reserved":false,"is_disabled":false,"rental_uris":{"android":"levelo://app?vid=6dd0abf3-b4b3-4f6d-8320-aeaf8346e3b9","ios":"levelo://app?vid=6dd0abf3-b4b3-4f6d-8320-aeaf8346e3b9"},"vehicle_type_id":"4","last_reported":1756387286,"current_range_meters":19200,"station_id":"ce4bhmp2rcd13ifvqgog","pricing_plan_id":"cebpf4jnsgd1na2vs0mg"},{"bike_id":"ab2b2968-2afc-4029-82d1-f9d7f0e7846c","system_id":"levelo_inurba_marseille","lat":43.292618,"lon":5.376212,"is_reserved":false,"is_disabled":false,"rental_uris":{"android":"levelo://app?vid=ab2b2968-2afc-4029-82d1-f9d7f0e7846c","ios":"levelo://app?vid=ab2b2968-2afc-4029-82d1-f9d7f0e7846c"},"vehicle_type_id":"4","last_reported":1756387286,"current_range_meters":19200,"station_id":"ce4bgi12rcd13ifvqb80","pricing_plan_id":"cebpf4jnsgd1na2vs0mg"},{"bike_id":"36e9a644-ef3b-4973-b5d0-19c6a09732bd","system_id":"levelo_inurba_marseille","lat":43.29285,"lon":5.37452,"is_reserved":false,"is_disabled":false,"rental_uris":{"android":"levelo://app?vid=36e9a644-ef3b-4973-b5d0-19c6a09732bd","ios":"levelo://app?vid=36e9a644-ef3b-4973-b5d0-19c6a09732bd"},"vehicle_type_id":"4","last_reported":1756387286,"current_range_meters":19200,"station_id":"ce4bgi12rcd13ifvqb70","pricing_plan_id":"cebpf4jnsgd1na2vs0mg"},{"bike_id":"223a3dd0-7d97-4b7e-84db-058782e23987","system_id":"levelo_inurba_marseille","lat":43.29866,"lon":5.36278,"is_reserved":false,"is_disabled":false,"rental_uris":{"android":"levelo://app?vid=223a3dd0-7d97-4b7e-84db-058782e23987","ios":"levelo://app?vid=223a3dd0-7d97-4b7e-84db-058782e23987"},"vehicle_type_id":"4","last_reported":1756387286,"current_range_meters":19200,"station_id":"ce4bgpp2rcd13ifvqc3g","pricing_plan_id":"cebpf4jnsgd1na2vs0mg"},{"bike_id":"6f0d5fc9-0fbb-4b70-855a-0e6fe62561a9","system_id":"levelo_inurba_marseille","lat":43.30591,"lon":5.39345,"is_reserved":false,"is_disabled":false,"rental_uris":{"android":"levelo://app?vid=6f0d5fc9-0fbb-4b70-855a-0e6fe62561a9","ios":"levelo://app?vid=6f0d5fc9-0fbb-4b70-855a-0e6fe62561a9"},"vehicle_type_id":"4","last_reported":1756387286,"current_range_meters":19200,"station_id":"ce4bh0p2rcd13ifvqd80","pricing_plan_id":"cebpf4jnsgd1na2vs0mg"},{"bike_id":"07761c7f-90f3-44f4-a950-f91cbca976d7","system_id":"levelo_inurba_marseille","lat":43.26222,"lon":5.37425,"is_reserved":false,"is_disabled":false,"rental_uris":{"android":"levelo://app?vid=07761c7f-90f3-44f4-a950-f91cbca976d7","ios":"levelo://app?vid=07761c7f-90f3-44f4-a950-f91cbca976d7"},"vehicle_type_id":"4","last_reported":1756387286,"current_range_meters":19200,"station_id":"ce4bhgp2rcd13ifvqfc0","pricing_plan_id":"cebpf4jnsgd1na2vs0mg"},{"bike_id":"920f8f5e-91c4-40b3-9008-3cb9c1c1ffcc","system_id":"levelo_inurba_marseille","lat":43.25936,"lon":5.40862,"is_reserved":false,"is_disabled":false,"rental_uris":{"android":"levelo://app?vid=920f8f5e-91c4-40b3-9008-3cb9c1c1ffcc","ios":"levelo://app?vid=920f8f5e-91c4-40b3-9008-3cb9c1c1ffcc"},"vehicle_type_id":"4","last_reported":1756387286,"current_range_meters":19200,"station_id":"ce4bhm92rcd13ifvqglg","pricing_plan_id":"cebpf4jnsgd1na2vs0mg"},{"bike_id":"196169a4-3222-419a-be3c-e08cc270c692","system_id":"levelo_inurba_marseille","lat":43.293202,"lon":5.373055,"is_reserved":false,"is_disabled":false,"rental_uris":{"android":"levelo://app?vid=196169a4-3222-419a-be3c-e08cc270c692","ios":"levelo://app?vid=196169a4-3222-419a-be3c-e08cc270c692"},"vehicle_type_id":"4","last_reported":1756387286,"current_range_meters":19200,"station_id":"","pricing_plan_id":"cebpf4jnsgd1na2vs0mg"},{"bike_id":"239722dc-8548-47bb-85cb-de762ab886f0","system_id":"levelo_inurba_marseille","lat":43.27489,"lon":5.42446,"is_reserved":false,"is_disabled":false,"rental_uris":{"android":"levelo://app?vid=239722dc-8548-47bb-85cb-de762ab886f0","ios":"levelo://app?vid=239722dc-8548-47bb-85cb-de762ab886f0"},"vehicle_type_id":"4","last_reported":1756387286,"current_range_meters":19200,"station_id":"ce4bhn92rcd13ifvqgrg","pricing_plan_id":"cebpf4jnsgd1na2vs0mg"},{"bike_id":"8022b2eb-d44b-41bc-9f96-2c68d3cd359b","system_id":"levelo_inurba_marseille","lat":43.321,"lon":5.36762,"is_reserved":false,"is_disabled":false,"rental_uris":{"android":"levelo://app?vid=8022b2eb-d44b-41bc-9f96-2c68d3cd359b","ios":"levelo://app?vid=8022b2eb-d44b-41bc-9f96-2c68d3cd359b"},"vehicle_type_id":"4","last_reported":1756387286,"current_range_meters":19200,"station_id":"ce4bhrh2rcd13ifvqhug","pricing_plan_id":"cebpf4jnsgd1na2vs0mg"},{"bike_id":"d1012ec4-1fc3-4e5f-a82c-9d7d73d65c20","system_id":"levelo_inurba_marseille","lat":43.260216,"lon":5.417497,"is_reserved":false,"is_disabled":false,"rental_uris":{"android":"levelo://app?vid=d1012ec4-1fc3-4e5f-a82c-9d7d73d65c20","ios":"levelo://app?vid=d1012ec4-1fc3-4e5f-a82c-9d7d73d65c20"},"vehicle_type_id":"4","last_reported":1756387286,"current_range_meters":19200,"station_id":"","pricing_plan_id":"cebpf4jnsgd1na2vs0mg"},{"bike_id":"72adf8d3-000d-462a-9b10-b49b61130129","system_id":"levelo_inurba_marseille","lat":43.2846,"lon":5.35009,"is_reserved":false,"is_disabled":false,"rental_uris":{"android":"levelo://app?vid=72adf8d3-000d-462a-9b10-b49b61130129","ios":"levelo://app?vid=72adf8d3-000d-462a-9b10-b49b61130129"},"vehicle_type_id":"4","last_reported":1756387286,"current_range_meters":19600,"station_id":"","pricing_plan_id":"cebpf4jnsgd1na2vs0mg"},{"bike_id":"3dd23926-ae78-488e-8f33-e0fe0712154d","system_id":"levelo_inurba_marseille","lat":43.312,"lon":5.37794,"is_reserved":false,"is_disabled":false,"rental_uris":{"android":"levelo://app?vid=3dd23926-ae78-488e-8f33-e0fe0712154d","ios":"levelo://app?vid=3dd23926-ae78-488e-8f33-e0fe0712154d"},"vehicle_type_id":"4","last_reported":1756387286,"current_range_meters":19600,"station_id":"","pricing_plan_id":"cebpf4jnsgd1na2vs0mg"},{"bike_id":"3d444f57-2b8b-442f-bec5-dbbf032e9e63","system_id":"levelo_inurba_marseille","lat":43.29794,"lon":5.38117,"is_reserved":false,"is_disabled":false,"rental_uris":{"android":"levelo://app?vid=3d444f57-2b8b-442f-bec5-dbbf032e9e63","ios":"levelo://app?vid=3d444f57-2b8b-442f-bec5-dbbf032e9e63"},"vehicle_type_id":"4","last_reported":1756387286,"current_range_meters":19600,"station_id":"ce4bgip2rcd13ifvqbb0","pricing_plan_id":"cebpf4jnsgd1na2vs0mg"},{"bike_id":"bedbfafb-e8f2-4d6b-9dc8-56d123a4d55c","system_id":"levelo_inurba_marseille","lat":43.26212,"lon":5.37443,"is_reserved":false,"is_disabled":false,"rental_uris":{"android":"levelo://app?vid=bedbfafb-e8f2-4d6b-9dc8-56d123a4d55c","ios":"levelo://app?vid=bedbfafb-e8f2-4d6b-9dc8-56d123a4d55c"},"vehicle_type_id":"4","last_reported":1756387286,"current_range_meters":19600,"station_id":"ce4bhgp2rcd13ifvqfc0","pricing_plan_id":"cebpf4jnsgd1na2vs0mg"},{"bike_id":"17346dce-e9f3-48b8-9a6a-34dc001fc6e7","system_id":"levelo_inurba_marseille","lat":43.29522,"lon":5.39031,"is_reserved":false,"is_disabled":false,"rental_uris":{"android":"levelo://app?vid=17346dce-e9f3-48b8-9a6a-34dc001fc6e7","ios":"levelo://app?vid=17346dce-e9f3-48b8-9a6a-34dc001fc6e7"},"vehicle_type_id":"4","last_reported":1756387286,"current_range_meters":19600,"station_id":"ce4bh3p2rcd13ifvqdp0","pricing_plan_id":"cebpf4jnsgd1na2vs0mg"},{"bike_id":"8a12d72c-0834-4acf-9f61-742344f562a3","system_id":"levelo_inurba_marseille","lat":43.31272,"lon":5.40172,"is_reserved":false,"is_disabled":false,"rental_uris":{"android":"levelo://app?vid=8a12d72c-0834-4acf-9f61-742344f562a3","ios":"levelo://app?vid=8a12d72c-0834-4acf-9f61-742344f562a3"},"vehicle_type_id":"4","last_reported":1756387286,"current_range_meters":19600,"station_id":"ce4bh092rcd13ifvqd30","pricing_plan_id":"cebpf4jnsgd1na2vs0mg"},{"bike_id":"f0766e03-2515-4697-ba57-c933c111387d","system_id":"levelo_inurba_marseille","lat":43.29917,"lon":5.37489,"is_reserved":false,"is_disabled":false,"rental_uris":{"android":"levelo://app?vid=f0766e03-2515-4697-ba57-c933c111387d","ios":"levelo://app?vid=f0766e03-2515-4697-ba57-c933c111387d"},"vehicle_type_id":"4","last_reported":1756387286,"current_range_meters":19600,"station_id":"ce4bgjh2rcd13ifvqbg0","pricing_plan_id":"cebpf4jnsgd1na2vs0mg"},{"bike_id":"3a3545ec-2031-4f7e-b74f-451754af59a3","system_id":"levelo_inurba_marseille","lat":43.29796,"lon":5.37095,"is_reserved":false,"is_disabled":false,"rental_uris":{"android":"levelo://app?vid=3a3545ec-2031-4f7e-b74f-451754af59a3","ios":"levelo://app?vid=3a3545ec-2031-4f7e-b74f-451754af59a3"},"vehicle_type_id":"4","last_reported":1756387286,"current_range_meters":20000,"station_id":"ce4bgop2rcd13ifvqc1g","pricing_plan_id":"cebpf4jnsgd1na2vs0mg"},{"bike_id":"5079e41e-d846-4350-a0fc-1e05fa795e48","system_id":"levelo_inurba_marseille","lat":43.26028,"lon":5.37546,"is_reserved":false,"is_disabled":false,"rental_uris":{"android":"levelo://app?vid=5079e41e-d846-4350-a0fc-1e05fa795e48","ios":"levelo://app?vid=5079e41e-d846-4350-a0fc-1e05fa795e48"},"vehicle_type_id":"4","last_reported":1756387286,"current_range_meters":20000,"station_id":"ce4bhgh2rcd13ifvqfa0","pricing_plan_id":"cebpf4jnsgd1na2vs0mg"},{"bike_id":"f7c72213-bc1f-4dc8-9236-f4004cdae7b1","system_id":"levelo_inurba_marseille","lat":43.21747,"lon":5.34605,"is_reserved":false,"is_disabled":false,"rental_uris":{"android":"levelo://app?vid=f7c72213-bc1f-4dc8-9236-f4004cdae7b1","ios":"levelo://app?vid=f7c72213-bc1f-4dc8-9236-f4004cdae7b1"},"vehicle_type_id":"4","last_reported":1756387286,"current_range_meters":20000,"station_id":"st_cvj6r9ubvosntc0bgbag","pricing_plan_id":"cebpf4jnsgd1na2vs0mg"},{"bike_id":"e9867b1d-5094-446b-8bd2-e1ebca39cf7c","system_id":"levelo_inurba_marseille","lat":43.29848,"lon":5.36281,"is_reserved":false,"is_disabled":false,"rental_uris":{"android":"levelo://app?vid=e9867b1d-5094-446b-8bd2-e1ebca39cf7c","ios":"levelo://app?vid=e9867b1d-5094-446b-8bd2-e1ebca39cf7c"},"vehicle_type_id":"4","last_reported":1756387286,"current_range_meters":20000,"station_id":"ce4bgpp2rcd13ifvqc3g","pricing_plan_id":"cebpf4jnsgd1na2vs0mg"},{"bike_id":"cf33ffc6-c2c0-4a29-a172-f3e736eaa6c7","system_id":"levelo_inurba_marseille","lat":43.29606,"lon":5.38096,"is_reserved":false,"is_disabled":false,"rental_uris":{"android":"levelo://app?vid=cf33ffc6-c2c0-4a29-a172-f3e736eaa6c7","ios":"levelo://app?vid=cf33ffc6-c2c0-4a29-a172-f3e736eaa6c7"},"vehicle_type_id":"4","last_reported":1756387286,"current_range_meters":20000,"station_id":"ce4bgl12rcd13ifvqbo0","pricing_plan_id":"cebpf4jnsgd1na2vs0mg"},{"bike_id":"e66b3941-edc1-47d2-a508-6af05bed5109","system_id":"levelo_inurba_marseille","lat":43.22502,"lon":5.34782,"is_reserved":false,"is_disabled":false,"rental_uris":{"android":"levelo://app?vid=e66b3941-edc1-47d2-a508-6af05bed5109","ios":"levelo://app?vid=e66b3941-edc1-47d2-a508-6af05bed5109"},"vehicle_type_id":"4","last_reported":1756387286,"current_range_meters":20000,"station_id":"st_cvj5dfep6f1abm77gieg","pricing_plan_id":"cebpf4jnsgd1na2vs0mg"},{"bike_id":"bd8a8096-85ea-4e22-9f9f-64bd89fbd1c5","system_id":"levelo_inurba_marseille","lat":43.29711,"lon":5.36619,"is_reserved":false,"is_disabled":false,"rental_uris":{"android":"levelo://app?vid=bd8a8096-85ea-4e22-9f9f-64bd89fbd1c5","ios":"levelo://app?vid=bd8a8096-85ea-4e22-9f9f-64bd89fbd1c5"},"vehicle_type_id":"4","last_reported":1756387286,"current_range_meters":20400,"station_id":"ce4bgn12rcd13ifvqbt0","pricing_plan_id":"cebpf4jnsgd1na2vs0mg"},{"bike_id":"4228ef5a-b3e5-4b1d-b5c9-e6ada1b7e112","system_id":"levelo_inurba_marseille","lat":43.29431,"lon":5.39755,"is_reserved":false,"is_disabled":false,"rental_uris":{"android":"levelo://app?vid=4228ef5a-b3e5-4b1d-b5c9-e6ada1b7e112","ios":"levelo://app?vid=4228ef5a-b3e5-4b1d-b5c9-e6ada1b7e112"},"vehicle_type_id":"4","last_reported":1756387286,"current_range_meters":20000,"station_id":"ce4bh3h2rcd13ifvqdo0","pricing_plan_id":"cebpf4jnsgd1na2vs0mg"},{"bike_id":"ef92bd80-be1c-4588-8888-0b42cadf016b","system_id":"levelo_inurba_marseille","lat":43.26565,"lon":5.37275,"is_reserved":false,"is_disabled":false,"rental_uris":{"android":"levelo://app?vid=ef92bd80-be1c-4588-8888-0b42cadf016b","ios":"levelo://app?vid=ef92bd80-be1c-4588-8888-0b42cadf016b"},"vehicle_type_id":"4","last_reported":1756387286,"current_range_meters":20400,"station_id":"ce4bhg12rcd13ifvqf70","pricing_plan_id":"cebpf4jnsgd1na2vs0mg"},{"bike_id":"84736ad0-39f1-4113-9b5c-f7765e1bea0d","system_id":"levelo_inurba_marseille","lat":43.29277,"lon":5.36847,"is_reserved":false,"is_disabled":false,"rental_uris":{"android":"levelo://app?vid=84736ad0-39f1-4113-9b5c-f7765e1bea0d","ios":"levelo://app?vid=84736ad0-39f1-4113-9b5c-f7765e1bea0d"},"vehicle_type_id":"4","last_reported":1756387286,"current_range_meters":20400,"station_id":"ce4bhbp2rcd13ifvqesg","pricing_plan_id":"cebpf4jnsgd1na2vs0mg"},{"bike_id":"48beb283-70d8-45c8-b0d3-a94e41a0daf0","system_id":"levelo_inurba_marseille","lat":43.2441,"lon":5.37084,"is_reserved":false,"is_disabled":false,"rental_uris":{"android":"levelo://app?vid=48beb283-70d8-45c8-b0d3-a94e41a0daf0","ios":"levelo://app?vid=48beb283-70d8-45c8-b0d3-a94e41a0daf0"},"vehicle_type_id":"4","last_reported":1756387286,"current_range_meters":20400,"station_id":"ce4bhhh2rcd13ifvqfk0","pricing_plan_id":"cebpf4jnsgd1na2vs0mg"},{"bike_id":"be56a579-3870-4545-85bd-dad43950a1f0","system_id":"levelo_inurba_marseille","lat":43.28144,"lon":5.42644,"is_reserved":false,"is_disabled":false,"rental_uris":{"android":"levelo://app?vid=be56a579-3870-4545-85bd-dad43950a1f0","ios":"levelo://app?vid=be56a579-3870-4545-85bd-dad43950a1f0"},"vehicle_type_id":"4","last_reported":1756387286,"current_range_meters":20400,"station_id":"ce4bhnh2rcd13ifvqgug","pricing_plan_id":"cebpf4jnsgd1na2vs0mg"},{"bike_id":"f5f2ca21-5d95-4289-978c-eadf93ad3706","system_id":"levelo_inurba_marseille","lat":43.23145,"lon":5.43723,"is_reserved":false,"is_disabled":false,"rental_uris":{"android":"levelo://app?vid=f5f2ca21-5d95-4289-978c-eadf93ad3706","ios":"levelo://app?vid=f5f2ca21-5d95-4289-978c-eadf93ad3706"},"vehicle_type_id":"4","last_reported":1756387286,"current_range_meters":20400,"station_id":"ce4bhmp2rcd13ifvqgog","pricing_plan_id":"cebpf4jnsgd1na2vs0mg"},{"bike_id":"a71a56a6-608c-49bd-a5d6-d3c81c6dcf8d","system_id":"levelo_inurba_marseille","lat":43.23965,"lon":5.36631,"is_reserved":false,"is_disabled":false,"rental_uris":{"android":"levelo://app?vid=a71a56a6-608c-49bd-a5d6-d3c81c6dcf8d","ios":"levelo://app?vid=a71a56a6-608c-49bd-a5d6-d3c81c6dcf8d"},"vehicle_type_id":"4","last_reported":1756387286,"current_range_meters":20400,"station_id":"ce4bhi12rcd13ifvqfp0","pricing_plan_id":"cebpf4jnsgd1na2vs0mg"},{"bike_id":"183f0f0d-1fac-4690-b688-cd9e99b061dc","system_id":"levelo_inurba_marseille","lat":43.33723,"lon":5.39182,"is_reserved":false,"is_disabled":false,"rental_uris":{"android":"levelo://app?vid=183f0f0d-1fac-4690-b688-cd9e99b061dc","ios":"levelo://app?vid=183f0f0d-1fac-4690-b688-cd9e99b061dc"},"vehicle_type_id":"4","last_reported":1756387286,"current_range_meters":20400,"station_id":"ce4bhr92rcd13ifvqhsg","pricing_plan_id":"cebpf4jnsgd1na2vs0mg"},{"bike_id":"9a3f96f6-81eb-4032-8ed0-b7359ee25fe2","system_id":"levelo_inurba_marseille","lat":43.25924,"lon":5.4088,"is_reserved":false,"is_disabled":false,"rental_uris":{"android":"levelo://app?vid=9a3f96f6-81eb-4032-8ed0-b7359ee25fe2","ios":"levelo://app?vid=9a3f96f6-81eb-4032-8ed0-b7359ee25fe2"},"vehicle_type_id":"4","last_reported":1756387286,"current_range_meters":20800,"station_id":"ce4bhm92rcd13ifvqglg","pricing_plan_id":"cebpf4jnsgd1na2vs0mg"},{"bike_id":"d1efc9c0-b449-4a83-8dcd-4c4473ea4d6d","system_id":"levelo_inurba_marseille","lat":43.29002,"lon":5.35614,"is_reserved":false,"is_disabled":false,"rental_uris":{"android":"levelo://app?vid=d1efc9c0-b449-4a83-8dcd-4c4473ea4d6d","ios":"levelo://app?vid=d1efc9c0-b449-4a83-8dcd-4c4473ea4d6d"},"vehicle_type_id":"4","last_reported":1756387286,"current_range_meters":20800,"station_id":"ce4bhb92rcd13ifvqen0","pricing_plan_id":"cebpf4jnsgd1na2vs0mg"},{"bike_id":"5f6505f4-9638-4b9c-8491-57d5ac60b7c4","system_id":"levelo_inurba_marseille","lat":43.26196,"lon":5.37449,"is_reserved":false,"is_disabled":false,"rental_uris":{"android":"levelo://app?vid=5f6505f4-9638-4b9c-8491-57d5ac60b7c4","ios":"levelo://app?vid=5f6505f4-9638-4b9c-8491-57d5ac60b7c4"},"vehicle_type_id":"4","last_reported":1756387286,"current_range_meters":20800,"station_id":"ce4bhgp2rcd13ifvqfc0","pricing_plan_id":"cebpf4jnsgd1na2vs0mg"},{"bike_id":"7214d5a9-9436-4b2e-afc2-46dc2dfe2f31","system_id":"levelo_inurba_marseille","lat":43.28104,"lon":5.37833,"is_reserved":false,"is_disabled":false,"rental_uris":{"android":"levelo://app?vid=7214d5a9-9436-4b2e-afc2-46dc2dfe2f31","ios":"levelo://app?vid=7214d5a9-9436-4b2e-afc2-46dc2dfe2f31"},"vehicle_type_id":"4","last_reported":1756387286,"current_range_meters":20400,"station_id":"ce4bha12rcd13ifvqee0","pricing_plan_id":"cebpf4jnsgd1na2vs0mg"},{"bike_id":"b9c6faf7-7a8d-432d-9456-0e2454eccdaa","system_id":"levelo_inurba_marseille","lat":43.299154,"lon":5.381492,"is_reserved":false,"is_disabled":false,"rental_uris":{"android":"levelo://app?vid=b9c6faf7-7a8d-432d-9456-0e2454eccdaa","ios":"levelo://app?vid=b9c6faf7-7a8d-432d-9456-0e2454eccdaa"},"vehicle_type_id":"4","last_reported":1756387286,"current_range_meters":20800,"station_id":"","pricing_plan_id":"cebpf4jnsgd1na2vs0mg"},{"bike_id":"0e16483d-7c29-42d6-90d2-d9cb7ef31592","system_id":"levelo_inurba_marseille","lat":43.323584,"lon":5.367442,"is_reserved":false,"is_disabled":false,"rental_uris":{"android":"levelo://app?vid=0e16483d-7c29-42d6-90d2-d9cb7ef31592","ios":"levelo://app?vid=0e16483d-7c29-42d6-90d2-d9cb7ef31592"},"vehicle_type_id":"4","last_reported":1756387286,"current_range_meters":21600,"station_id":"ce4bhsh2rcd13ifvqi2g","pricing_plan_id":"cebpf4jnsgd1na2vs0mg"},{"bike_id":"ab4879ea-14fc-4274-854e-6eabdbab2245","system_id":"levelo_inurba_marseille","lat":43.26213,"lon":5.374388,"is_reserved":false,"is_disabled":false,"rental_uris":{"android":"levelo://app?vid=ab4879ea-14fc-4274-854e-6eabdbab2245","ios":"levelo://app?vid=ab4879ea-14fc-4274-854e-6eabdbab2245"},"vehicle_type_id":"4","last_reported":1756387286,"current_range_meters":22000,"station_id":"ce4bhgp2rcd13ifvqfc0","pricing_plan_id":"cebpf4jnsgd1na2vs0mg"},{"bike_id":"c0881cb5-357f-468d-a3c1-b313679c3509","system_id":"levelo_inurba_marseille","lat":43.337579,"lon":5.37436,"is_reserved":false,"is_disabled":false,"rental_uris":{"android":"levelo://app?vid=c0881cb5-357f-468d-a3c1-b313679c3509","ios":"levelo://app?vid=c0881cb5-357f-468d-a3c1-b313679c3509"},"vehicle_type_id":"4","last_reported":1756387286,"current_range_meters":22400,"station_id":"","pricing_plan_id":"cebpf4jnsgd1na2vs0mg"},{"bike_id":"d5c0016f-c98f-4940-b45a-884fc5cda2dc","system_id":"levelo_inurba_marseille","lat":43.29196,"lon":5.35784,"is_reserved":false,"is_disabled":false,"rental_uris":{"android":"levelo://app?vid=d5c0016f-c98f-4940-b45a-884fc5cda2dc","ios":"levelo://app?vid=d5c0016f-c98f-4940-b45a-884fc5cda2dc"},"vehicle_type_id":"4","last_reported":1756387286,"current_range_meters":22000,"station_id":"ce4bhb12rcd13ifvqel0","pricing_plan_id":"cebpf4jnsgd1na2vs0mg"},{"bike_id":"94469496-96ae-450e-adaf-a7663bfd0e82","system_id":"levelo_inurba_marseille","lat":43.31576,"lon":5.37214,"is_reserved":false,"is_disabled":false,"rental_uris":{"android":"levelo://app?vid=94469496-96ae-450e-adaf-a7663bfd0e82","ios":"levelo://app?vid=94469496-96ae-450e-adaf-a7663bfd0e82"},"vehicle_type_id":"4","last_reported":1756387286,"current_range_meters":22000,"station_id":"","pricing_plan_id":"cebpf4jnsgd1na2vs0mg"},{"bike_id":"c04aaeec-7dd6-415e-ad30-74c3b0b53211","system_id":"levelo_inurba_marseille","lat":43.30144,"lon":5.37419,"is_reserved":false,"is_disabled":false,"rental_uris":{"android":"levelo://app?vid=c04aaeec-7dd6-415e-ad30-74c3b0b53211","ios":"levelo://app?vid=c04aaeec-7dd6-415e-ad30-74c3b0b53211"},"vehicle_type_id":"4","last_reported":1756387286,"current_range_meters":22000,"station_id":"ce4bgs92rcd13ifvqcc0","pricing_plan_id":"cebpf4jnsgd1na2vs0mg"},{"bike_id":"c4ff6e2e-7c46-4a14-90e0-391caea45a27","system_id":"levelo_inurba_marseille","lat":43.2466,"lon":5.38891,"is_reserved":false,"is_disabled":false,"rental_uris":{"android":"levelo://app?vid=c4ff6e2e-7c46-4a14-90e0-391caea45a27","ios":"levelo://app?vid=c4ff6e2e-7c46-4a14-90e0-391caea45a27"},"vehicle_type_id":"4","last_reported":1756387286,"current_range_meters":22000,"station_id":"ce4bhg12rcd13ifvqf60","pricing_plan_id":"cebpf4jnsgd1na2vs0mg"},{"bike_id":"f6ba8372-a211-441a-91d5-83fe68b3d093","system_id":"levelo_inurba_marseille","lat":43.291229,"lon":5.355792,"is_reserved":false,"is_disabled":false,"rental_uris":{"android":"levelo://app?vid=f6ba8372-a211-441a-91d5-83fe68b3d093","ios":"levelo://app?vid=f6ba8372-a211-441a-91d5-83fe68b3d093"},"vehicle_type_id":"4","last_reported":1756387286,"current_range_meters":22000,"station_id":"ce4bhb12rcd13ifvqel0","pricing_plan_id":"cebpf4jnsgd1na2vs0mg"},{"bike_id":"caf016d7-55b6-4e19-acf9-49fa62b7a459","system_id":"levelo_inurba_marseille","lat":43.29603,"lon":5.37733,"is_reserved":false,"is_disabled":false,"rental_uris":{"android":"levelo://app?vid=caf016d7-55b6-4e19-acf9-49fa62b7a459","ios":"levelo://app?vid=caf016d7-55b6-4e19-acf9-49fa62b7a459"},"vehicle_type_id":"4","last_reported":1756387286,"current_range_meters":22000,"station_id":"ce4bgi92rcd13ifvqb90","pricing_plan_id":"cebpf4jnsgd1na2vs0mg"},{"bike_id":"877d4ff2-8e4e-4dd8-9f9d-3f576d35b87a","system_id":"levelo_inurba_marseille","lat":43.293694,"lon":5.378502,"is_reserved":false,"is_disabled":true,"rental_uris":{"android":"levelo://app?vid=877d4ff2-8e4e-4dd8-9f9d-3f576d35b87a","ios":"levelo://app?vid=877d4ff2-8e4e-4dd8-9f9d-3f576d35b87a"},"vehicle_type_id":"4","last_reported":1756387286,"current_range_meters":22400,"station_id":"ce4bgjh2rcd13ifvqbf0","pricing_plan_id":"cebpf4jnsgd1na2vs0mg"},{"bike_id":"43db96cd-6006-47f2-83b2-2f2cf4cf3254","system_id":"levelo_inurba_marseille","lat":43.28275,"lon":5.35062,"is_reserved":false,"is_disabled":false,"rental_uris":{"android":"levelo://app?vid=43db96cd-6006-47f2-83b2-2f2cf4cf3254","ios":"levelo://app?vid=43db96cd-6006-47f2-83b2-2f2cf4cf3254"},"vehicle_type_id":"4","last_reported":1756387286,"current_range_meters":22400,"station_id":"ce4bhbp2rcd13ifvqerg","pricing_plan_id":"cebpf4jnsgd1na2vs0mg"},{"bike_id":"7fa84784-2dda-4198-8e8b-5a7c7ec2289f","system_id":"levelo_inurba_marseille","lat":43.32365,"lon":5.36756,"is_reserved":false,"is_disabled":false,"rental_uris":{"android":"levelo://app?vid=7fa84784-2dda-4198-8e8b-5a7c7ec2289f","ios":"levelo://app?vid=7fa84784-2dda-4198-8e8b-5a7c7ec2289f"},"vehicle_type_id":"4","last_reported":1756387286,"current_range_meters":22400,"station_id":"ce4bhsh2rcd13ifvqi2g","pricing_plan_id":"cebpf4jnsgd1na2vs0mg"},{"bike_id":"93cc04ec-00cd-4c5a-9919-841c31df513d","system_id":"levelo_inurba_marseille","lat":43.26211,"lon":5.37443,"is_reserved":false,"is_disabled":false,"rental_uris":{"android":"levelo://app?vid=93cc04ec-00cd-4c5a-9919-841c31df513d","ios":"levelo://app?vid=93cc04ec-00cd-4c5a-9919-841c31df513d"},"vehicle_type_id":"4","last_reported":1756387286,"current_range_meters":22400,"station_id":"ce4bhgp2rcd13ifvqfc0","pricing_plan_id":"cebpf4jnsgd1na2vs0mg"},{"bike_id":"6a9d9ab0-3363-4be1-a001-601c425b59a3","system_id":"levelo_inurba_marseille","lat":43.30601,"lon":5.37227,"is_reserved":false,"is_disabled":false,"rental_uris":{"android":"levelo://app?vid=6a9d9ab0-3363-4be1-a001-601c425b59a3","ios":"levelo://app?vid=6a9d9ab0-3363-4be1-a001-601c425b59a3"},"vehicle_type_id":"4","last_reported":1756387286,"current_range_meters":22400,"station_id":"ce4bgqh2rcd13ifvqc4g","pricing_plan_id":"cebpf4jnsgd1na2vs0mg"},{"bike_id":"710bf226-9d00-4d24-866a-634413ca2556","system_id":"levelo_inurba_marseille","lat":43.281015,"lon":5.378311,"is_reserved":false,"is_disabled":false,"rental_uris":{"android":"levelo://app?vid=710bf226-9d00-4d24-866a-634413ca2556","ios":"levelo://app?vid=710bf226-9d00-4d24-866a-634413ca2556"},"vehicle_type_id":"4","last_reported":1756387286,"current_range_meters":22400,"station_id":"ce4bha12rcd13ifvqee0","pricing_plan_id":"cebpf4jnsgd1na2vs0mg"},{"bike_id":"9ee36fe0-e94f-44ac-9763-e92d7fec4766","system_id":"levelo_inurba_marseille","lat":43.27805,"lon":5.40712,"is_reserved":false,"is_disabled":false,"rental_uris":{"android":"levelo://app?vid=9ee36fe0-e94f-44ac-9763-e92d7fec4766","ios":"levelo://app?vid=9ee36fe0-e94f-44ac-9763-e92d7fec4766"},"vehicle_type_id":"4","last_reported":1756387286,"current_range_meters":22400,"station_id":"ce4bhnh2rcd13ifvqgtg","pricing_plan_id":"cebpf4jnsgd1na2vs0mg"},{"bike_id":"fd4e1402-bea2-48b5-b317-8e7bf4a6b5a5","system_id":"levelo_inurba_marseille","lat":43.24387,"lon":5.37062,"is_reserved":false,"is_disabled":false,"rental_uris":{"android":"levelo://app?vid=fd4e1402-bea2-48b5-b317-8e7bf4a6b5a5","ios":"levelo://app?vid=fd4e1402-bea2-48b5-b317-8e7bf4a6b5a5"},"vehicle_type_id":"4","last_reported":1756387286,"current_range_meters":22000,"station_id":"ce4bhhh2rcd13ifvqfk0","pricing_plan_id":"cebpf4jnsgd1na2vs0mg"},{"bike_id":"a74f57f9-3bf0-4b6e-a8e9-e7c4d4459bd4","system_id":"levelo_inurba_marseille","lat":43.28412,"lon":5.34982,"is_reserved":false,"is_disabled":false,"rental_uris":{"android":"levelo://app?vid=a74f57f9-3bf0-4b6e-a8e9-e7c4d4459bd4","ios":"levelo://app?vid=a74f57f9-3bf0-4b6e-a8e9-e7c4d4459bd4"},"vehicle_type_id":"4","last_reported":1756387286,"current_range_meters":22400,"station_id":"ce4bhbh2rcd13ifvqepg","pricing_plan_id":"cebpf4jnsgd1na2vs0mg"},{"bike_id":"596d0bd3-4817-49af-9a0d-0bf16efc14c9","system_id":"levelo_inurba_marseille","lat":43.28269,"lon":5.35064,"is_reserved":false,"is_disabled":false,"rental_uris":{"android":"levelo://app?vid=596d0bd3-4817-49af-9a0d-0bf16efc14c9","ios":"levelo://app?vid=596d0bd3-4817-49af-9a0d-0bf16efc14c9"},"vehicle_type_id":"4","last_reported":1756387286,"current_range_meters":22800,"station_id":"ce4bhbp2rcd13ifvqerg","pricing_plan_id":"cebpf4jnsgd1na2vs0mg"},{"bike_id":"2a1c2c7f-2497-4b00-b389-e62fb087d28a","system_id":"levelo_inurba_marseille","lat":43.3042,"lon":5.41279,"is_reserved":false,"is_disabled":false,"rental_uris":{"android":"levelo://app?vid=2a1c2c7f-2497-4b00-b389-e62fb087d28a","ios":"levelo://app?vid=2a1c2c7f-2497-4b00-b389-e62fb087d28a"},"vehicle_type_id":"4","last_reported":1756387286,"current_range_meters":22800,"station_id":"ce4bhop2rcd13ifvqh8g","pricing_plan_id":"cebpf4jnsgd1na2vs0mg"},{"bike_id":"e9cb6436-0428-41b2-925a-cf5b31128397","system_id":"levelo_inurba_marseille","lat":43.327677,"lon":5.391302,"is_reserved":false,"is_disabled":false,"rental_uris":{"android":"levelo://app?vid=e9cb6436-0428-41b2-925a-cf5b31128397","ios":"levelo://app?vid=e9cb6436-0428-41b2-925a-cf5b31128397"},"vehicle_type_id":"4","last_reported":1756387286,"current_range_meters":22800,"station_id":"","pricing_plan_id":"cebpf4jnsgd1na2vs0mg"},{"bike_id":"dc55def7-1beb-4483-be42-0e719e7002bb","system_id":"levelo_inurba_marseille","lat":43.292698,"lon":5.368573,"is_reserved":false,"is_disabled":false,"rental_uris":{"android":"levelo://app?vid=dc55def7-1beb-4483-be42-0e719e7002bb","ios":"levelo://app?vid=dc55def7-1beb-4483-be42-0e719e7002bb"},"vehicle_type_id":"4","last_reported":1756387286,"current_range_meters":22800,"station_id":"ce4bhbp2rcd13ifvqesg","pricing_plan_id":"cebpf4jnsgd1na2vs0mg"},{"bike_id":"4bcf9dfb-bad0-4bb4-9419-4854fd57cf05","system_id":"levelo_inurba_marseille","lat":43.29936,"lon":5.36542,"is_reserved":false,"is_disabled":false,"rental_uris":{"android":"levelo://app?vid=4bcf9dfb-bad0-4bb4-9419-4854fd57cf05","ios":"levelo://app?vid=4bcf9dfb-bad0-4bb4-9419-4854fd57cf05"},"vehicle_type_id":"4","last_reported":1756387286,"current_range_meters":22800,"station_id":"ce4bgm92rcd13ifvqbr0","pricing_plan_id":"cebpf4jnsgd1na2vs0mg"},{"bike_id":"d6dcee3c-4cc4-48ae-ae7d-53e26d45b701","system_id":"levelo_inurba_marseille","lat":43.31347,"lon":5.36744,"is_reserved":false,"is_disabled":false,"rental_uris":{"android":"levelo://app?vid=d6dcee3c-4cc4-48ae-ae7d-53e26d45b701","ios":"levelo://app?vid=d6dcee3c-4cc4-48ae-ae7d-53e26d45b701"},"vehicle_type_id":"4","last_reported":1756387286,"current_range_meters":22800,"station_id":"ce4bgr92rcd13ifvqc6g","pricing_plan_id":"cebpf4jnsgd1na2vs0mg"},{"bike_id":"e23fe185-5190-4610-b4e2-63078e6f0bce","system_id":"levelo_inurba_marseille","lat":43.31327,"lon":5.36724,"is_reserved":false,"is_disabled":false,"rental_uris":{"android":"levelo://app?vid=e23fe185-5190-4610-b4e2-63078e6f0bce","ios":"levelo://app?vid=e23fe185-5190-4610-b4e2-63078e6f0bce"},"vehicle_type_id":"4","last_reported":1756387286,"current_range_meters":22800,"station_id":"ce4bgr92rcd13ifvqc6g","pricing_plan_id":"cebpf4jnsgd1na2vs0mg"},