{"last_updated":1728677377,"ttl":60,"version":"2.2","data":{"bikes":[{"bike_id":"d84fd2e3-be91-47f2-8212-5bf03a54cc56","system_id":"levelo_inurba_marseille","lat":43.25086,"lon":5.39522,"is_reserved":false,"is_disabled":false,"rental_uris":{"android":"levelo://app?vid=d84fd2e3-be91-47f2-8212-5bf03a54cc56","ios":"levelo://app?vid=d84fd2e3-be91-47f2-8212-5bf03a54cc56"},"vehicle_type_id":"4","last_reported":1728677377,"current_range_meters":40000,"station_id":"ce4bhm12rcd13ifvqgkg","pricing_plan_id":"cebpf4jnsgd1na2vs0mg"},{"bike_id":"11260d2c-c212-4336-9aec-e080b9039040","system_id":"levelo_inurba_marseille","lat":43.28001,"lon":5.4001,"is_reserved":false,"is_disabled":false,"rental_uris":{"android":"levelo://app?vid=11260d2c-c212-4336-9aec-e080b9039040","ios":"levelo://app?vid=11260d2c-c212-4336-9aec-e080b9039040"},"vehicle_type_id":"4","last_reported":1728677377,"current_range_meters":38400,"station_id":"ce4bho92rcd13ifvqh4g","pricing_plan_id":"cebpf4jnsgd1na2vs0mg"},{"bike_id":"b7ce159d-243d-43bb-adef-19759f0c5ac2","system_id":"levelo_inurba_marseille","lat":43.27988,"lon":5.40005,"is_reserved":false,"is_disabled":false,"rental_uris":{"android":"levelo://app?vid=b7ce159d-243d-43bb-adef-19759f0c5ac2","ios":"levelo://app?vid=b7ce159d-243d-43bb-adef-19759f0c5ac2"},"vehicle_type_id":"4","last_reported":1728677377,"current_range_meters":35200,"station_id":"ce4bho92rcd13ifvqh4g","pricing_plan_id":"cebpf4jnsgd1na2vs0mg"},{"bike_id":"e41b7870-fe00-4d4e-bc7f-30bce5ffe4c8","system_id":"levelo_inurba_marseille","lat":43.29845,"lon":5.36277,"is_reserved":false,"is_disabled":false,"rental_uris":{"android":"levelo://app?vid=e41b7870-fe00-4d4e-bc7f-30bce5ffe4c8","ios":"levelo://app?vid=e41b7870-fe00-4d4e-bc7f-30bce5ffe4c8"},"vehicle_type_id":"4","last_reported":1728677377,"current_range_meters":34800,"station_id":"ce4bgpp2rcd13ifvqc3g","pricing_plan_id":"cebpf4jnsgd1na2vs0mg"},{"bike_id":"51dd5005-a195-4642-bd5f-8cbea71cb3b3","system_id":"levelo_inurba_marseille","lat":43.2293,"lon":5.35372,"is_reserved":false,"is_disabled":false,"rental_uris":{"android":"levelo://app?vid=51dd5005-a195-4642-bd5f-8cbea71cb3b3","ios":"levelo://app?vid=51dd5005-a195-4642-bd5f-8cbea71cb3b3"},"vehicle_type_id":"4","last_reported":1728677377,"current_range_meters":38800,"station_id":"cpo3532slgdg3j2ikp40","pricing_plan_id":"cebpf4jnsgd1na2vs0mg"},{"bike_id":"53985809-d93c-49ed-93ad-c2277063ff3c","system_id":"levelo_inurba_marseille","lat":43.2582,"lon":5.39435,"is_reserved":false,"is_disabled":false,"rental_uris":{"android":"levelo://app?vid=53985809-d93c-49ed-93ad-c2277063ff3c","ios":"levelo://app?vid=53985809-d93c-49ed-93ad-c2277063ff3c"},"vehicle_type_id":"4","last_reported":1728677377,"current_range_meters":24800,"station_id":"ce4bhip2rcd13ifvqft0","pricing_plan_id":"cebpf4jnsgd1na2vs0mg"},{"bike_id":"03f46402-07dc-42c9-9bbb-99baa60d6dbb","system_id":"levelo_inurba_marseille","lat":43.29839,"lon":5.36267,"is_reserved":false,"is_disabled":false,"rental_uris":{"android":"levelo://app?vid=03f46402-07dc-42c9-9bbb-99baa60d6dbb","ios":"levelo://app?vid=03f46402-07dc-42c9-9bbb-99baa60d6dbb"},"vehicle_type_id":"4","last_reported":1728677377,"current_range_meters":3600,"station_id":"ce4bgpp2rcd13ifvqc3g","pricing_plan_id":"cebpf4jnsgd1na2vs0mg"},{"bike_id":"b474cc28-429d-4bf6-a453-cfd8e447da8a","system_id":"levelo_inurba_marseille","lat":43.33729,"lon":5.39182,"is_reserved":false,"is_disabled":false,"rental_uris":{"android":"levelo://app?vid=b474cc28-429d-4bf6-a453-cfd8e447da8a","ios":"levelo://app?vid=b474cc28-429d-4bf6-a453-cfd8e447da8a"},"vehicle_type_id":"4","last_reported":1728677377,"current_range_meters":38800,"station_id":"ce4bhr92rcd13ifvqhsg","pricing_plan_id":"cebpf4jnsgd1na2vs0mg"},{"bike_id":"8a3ea5a6-b0cd-48da-acf8-ccf7be6f48c6","system_id":"levelo_inurba_marseille","lat":43.32301,"lon":5.3824,"is_reserved":false,"is_disabled":false,"rental_uris":{"android":"levelo://app?vid=8a3ea5a6-b0cd-48da-acf8-ccf7be6f48c6","ios":"levelo://app?vid=8a3ea5a6-b0cd-48da-acf8-ccf7be6f48c6"},"vehicle_type_id":"4","last_reported":1728677377,"current_range_meters":8800,"station_id":"ce4bhr12rcd13ifvqhqg","pricing_plan_id":"cebpf4jnsgd1na2vs0mg"},{"bike_id":"4f1ac9db-36fd-4126-b3cc-b859636a6a29","system_id":"levelo_inurba_marseille","lat":43.2293,"lon":5.35375,"is_reserved":false,"is_disabled":false,"rental_uris":{"android":"levelo://app?vid=4f1ac9db-36fd-4126-b3cc-b859636a6a29","ios":"levelo://app?vid=4f1ac9db-36fd-4126-b3cc-b859636a6a29"},"vehicle_type_id":"4","last_reported":1728677377,"current_range_meters":38800,"station_id":"cpo3532slgdg3j2ikp40","pricing_plan_id":"cebpf4jnsgd1na2vs0mg"},{"bike_id":"ad6c39e3-1826-46cd-b05b-a2dd804d0b47","system_id":"levelo_inurba_marseille","lat":43.29513,"lon":5.37502,"is_reserved":false,"is_disabled":false,"rental_uris":{"android":"levelo://app?vid=ad6c39e3-1826-46cd-b05b-a2dd804d0b47","ios":"levelo://app?vid=ad6c39e3-1826-46cd-b05b-a2dd804d0b47"},"vehicle_type_id":"4","last_reported":1728677377,"current_range_meters":38800,"station_id":"ce4bgkp2rcd13ifvqbmg","pricing_plan_id":"cebpf4jnsgd1na2vs0mg"},{"bike_id":"98f950c9-83fc-48a3-ba3d-bcbdd8be47d2","system_id":"levelo_inurba_marseille","lat":43.27946,"lon":5.41042,"is_reserved":false,"is_disabled":false,"rental_uris":{"android":"levelo://app?vid=98f950c9-83fc-48a3-ba3d-bcbdd8be47d2","ios":"levelo://app?vid=98f950c9-83fc-48a3-ba3d-bcbdd8be47d2"},"vehicle_type_id":"4","last_reported":1728677377,"current_range_meters":30800,"station_id":"ce4bhnp2rcd13ifvqh0g","pricing_plan_id":"cebpf4jnsgd1na2vs0mg"},{"bike_id":"8a4cc7ae-50e7-4ba7-b246-e78898bc54d9","system_id":"levelo_inurba_marseille","lat":43.3088,"lon":5.39659,"is_reserved":false,"is_disabled":false,"rental_uris":{"android":"levelo://app?vid=8a4cc7ae-50e7-4ba7-b246-e78898bc54d9","ios":"levelo://app?vid=8a4cc7ae-50e7-4ba7-b246-e78898bc54d9"},"vehicle_type_id":"4","last_reported":1728677377,"current_range_meters":26000,"station_id":"ce4bh012rcd13ifvqcv0","pricing_plan_id":"cebpf4jnsgd1na2vs0mg"},{"bike_id":"98cd81cc-ef2d-4435-99e4-83365e7e7878","system_id":"levelo_inurba_marseille","lat":43.295299,"lon":5.385291,"is_reserved":false,"is_disabled":false,"rental_uris":{"android":"levelo://app?vid=98cd81cc-ef2d-4435-99e4-83365e7e7878","ios":"levelo://app?vid=98cd81cc-ef2d-4435-99e4-83365e7e7878"},"vehicle_type_id":"4","last_reported":1728677377,"current_range_meters":12400,"station_id":"ce4bh112rcd13ifvqd90","pricing_plan_id":"cebpf4jnsgd1na2vs0mg"},{"bike_id":"85530627-6b39-4aea-aaf6-1d7f7ee57f97","system_id":"levelo_inurba_marseille","lat":43.27997,"lon":5.40018,"is_reserved":false,"is_disabled":false,"rental_uris":{"android":"levelo://app?vid=85530627-6b39-4aea-aaf6-1d7f7ee57f97","ios":"levelo://app?vid=85530627-6b39-4aea-aaf6-1d7f7ee57f97"},"vehicle_type_id":"4","last_reported":1728677377,"current_range_meters":10800,"station_id":"ce4bho92rcd13ifvqh4g","pricing_plan_id":"cebpf4jnsgd1na2vs0mg"},{"bike_id":"695cd94c-53fe-4cc9-a68b-e010e57c48fc","system_id":"levelo_inurba_marseille","lat":43.31077,"lon":5.3836,"is_reserved":false,"is_disabled":false,"rental_uris":{"android":"levelo://app?vid=695cd94c-53fe-4cc9-a68b-e010e57c48fc","ios":"levelo://app?vid=695cd94c-53fe-4cc9-a68b-e010e57c48fc"},"vehicle_type_id":"4","last_reported":1728677377,"current_range_meters":11600,"station_id":"ce4bgv92rcd13ifvqcr0","pricing_plan_id":"cebpf4jnsgd1na2vs0mg"},{"bike_id":"631afeb3-ff24-4869-b570-0bf0c9ce47b0","system_id":"levelo_inurba_marseille","lat":43.32111,"lon":5.38621,"is_reserved":false,"is_disabled":false,"rental_uris":{"android":"levelo://app?vid=631afeb3-ff24-4869-b570-0bf0c9ce47b0","ios":"levelo://app?vid=631afeb3-ff24-4869-b570-0bf0c9ce47b0"},"vehicle_type_id":"4","last_reported":1728677377,"current_range_meters":19600,"station_id":"","pricing_plan_id":"cebpf4jnsgd1na2vs0mg"},{"bike_id":"a343ef2a-9dab-4dfa-aae7-81033db70aac","system_id":"levelo_inurba_marseille","lat":43.23185,"lon":5.3998,"is_reserved":false,"is_disabled":false,"rental_uris":{"android":"levelo://app?vid=a343ef2a-9dab-4dfa-aae7-81033db70aac","ios":"levelo://app?vid=a343ef2a-9dab-4dfa-aae7-81033db70aac"},"vehicle_type_id":"4","last_reported":1728677377,"current_range_meters":19600,"station_id":"ce4bhn12rcd13ifvqgqg","pricing_plan_id":"cebpf4jnsgd1na2vs0mg"},{"bike_id":"28d5be62-c6ae-44f8-b5b7-cae9087907cf","system_id":"levelo_inurba_marseille","lat":43.30931,"lon":5.36784,"is_reserved":false,"is_disabled":false,"rental_uris":{"android":"levelo://app?vid=28d5be62-c6ae-44f8-b5b7-cae9087907cf","ios":"levelo://app?vid=28d5be62-c6ae-44f8-b5b7-cae9087907cf"},"vehicle_type_id":"4","last_reported":1728677377,"current_range_meters":6400,"station_id":"","pricing_plan_id":"cebpf4jnsgd1na2vs0mg"},{"bike_id":"453164fa-bc0b-41d3-9a6c-155a28d88521","system_id":"levelo_inurba_marseille","lat":43.30463,"lon":5.379123,"is_reserved":false,"is_disabled":false,"rental_uris":{"android":"levelo://app?vid=453164fa-bc0b-41d3-9a6c-155a28d88521","ios":"levelo://app?vid=453164fa-bc0b-41d3-9a6c-155a28d88521"},"vehicle_type_id":"4","last_reported":1728677377,"current_range_meters":30000,"station_id":"ce4bgup2rcd13ifvqcn0","pricing_plan_id":"cebpf4jnsgd1na2vs0mg"},{"bike_id":"064b6e67-aa01-4c68-81ea-1fecbd187ab2","system_id":"levelo_inurba_marseille","lat":43.31072,"lon":5.38355,"is_reserved":false,"is_disabled":false,"rental_uris":{"android":"levelo://app?vid=064b6e67-aa01-4c68-81ea-1fecbd187ab2","ios":"levelo://app?vid=064b6e67-aa01-4c68-81ea-1fecbd187ab2"},"vehicle_type_id":"4","last_reported":1728677377,"current_range_meters":32800,"station_id":"ce4bgv92rcd13ifvqcr0","pricing_plan_id":"cebpf4jnsgd1na2vs0mg"},{"bike_id":"e1416cd5-45db-4fa6-9467-5c652edd6827","system_id":"levelo_inurba_marseille","lat":43.25823,"lon":5.39433,"is_reserved":false,"is_disabled":false,"rental_uris":{"android":"levelo://app?vid=e1416cd5-45db-4fa6-9467-5c652edd6827","ios":"levelo://app?vid=e1416cd5-45db-4fa6-9467-5c652edd6827"},"vehicle_type_id":"4","last_reported":1728677377,"current_range_meters":38000,"station_id":"ce4bhip2rcd13ifvqft0","pricing_plan_id":"cebpf4jnsgd1na2vs0mg"},{"bike_id":"7091d512-a0d1-4f50-af02-ae15d7d16b14","system_id":"levelo_inurba_marseille","lat":43.29622,"lon":5.37164,"is_reserved":false,"is_disabled":false,"rental_uris":{"android":"levelo://app?vid=7091d512-a0d1-4f50-af02-ae15d7d16b14","ios":"levelo://app?vid=7091d512-a0d1-4f50-af02-ae15d7d16b14"},"vehicle_type_id":"4","last_reported":1728677377,"current_range_meters":5600,"station_id":"ce4bgnh2rcd13ifvqc0g","pricing_plan_id":"cebpf4jnsgd1na2vs0mg"},{"bike_id":"a898bd77-e492-4fd4-b4ab-f63a8f124023","system_id":"levelo_inurba_marseille","lat":43.30912,"lon":5.36846,"is_reserved":false,"is_disabled":false,"rental_uris":{"android":"levelo://app?vid=a898bd77-e492-4fd4-b4ab-f63a8f124023","ios":"levelo://app?vid=a898bd77-e492-4fd4-b4ab-f63a8f124023"},"vehicle_type_id":"4","last_reported":1728677377,"current_range_meters":19200,"station_id":"ce4bgn92rcd13ifvqbvg","pricing_plan_id":"cebpf4jnsgd1na2vs0mg"},{"bike_id":"2db38f0d-d2a2-48c2-b782-9333ef2c79cf","system_id":"levelo_inurba_marseille","lat":43.29845,"lon":5.36274,"is_reserved":false,"is_disabled":false,"rental_uris":{"android":"levelo://app?vid=2db38f0d-d2a2-48c2-b782-9333ef2c79cf","ios":"levelo://app?vid=2db38f0d-d2a2-48c2-b782-9333ef2c79cf"},"vehicle_type_id":"4","last_reported":1728677377,"current_range_meters":9200,"station_id":"ce4bgpp2rcd13ifvqc3g","pricing_plan_id":"cebpf4jnsgd1na2vs0mg"},{"bike_id":"c03394dc-668f-44ae-8e58-ac4786556bb8","system_id":"levelo_inurba_marseille","lat":43.29031,"lon":5.39978,"is_reserved":false,"is_disabled":false,"rental_uris":{"android":"levelo://app?vid=c03394dc-668f-44ae-8e58-ac4786556bb8","ios":"levelo://app?vid=c03394dc-668f-44ae-8e58-ac4786556bb8"},"vehicle_type_id":"4","last_reported":1728677377,"current_range_meters":8400,"station_id":"ce4bh392rcd13ifvqdm0","pricing_plan_id":"cebpf4jnsgd1na2vs0mg"},{"bike_id":"e14f7b74-ada3-4a6d-9840-33d43fd32643","system_id":"levelo_inurba_marseille","lat":43.28154,"lon":5.42647,"is_reserved":false,"is_disabled":false,"rental_uris":{"android":"levelo://app?vid=e14f7b74-ada3-4a6d-9840-33d43fd32643","ios":"levelo://app?vid=e14f7b74-ada3-4a6d-9840-33d43fd32643"},"vehicle_type_id":"4","last_reported":1728677377,"current_range_meters":32800,"station_id":"ce4bhnh2rcd13ifvqgug","pricing_plan_id":"cebpf4jnsgd1na2vs0mg"},{"bike_id":"b27220ce-643c-4cda-b1cf-ddebfd37a8aa","system_id":"levelo_inurba_marseille","lat":43.23186,"lon":5.39986,"is_reserved":false,"is_disabled":false,"rental_uris":{"android":"levelo://app?vid=b27220ce-643c-4cda-b1cf-ddebfd37a8aa","ios":"levelo://app?vid=b27220ce-643c-4cda-b1cf-ddebfd37a8aa"},"vehicle_type_id":"4","last_reported":1728677377,"current_range_meters":39200,"station_id":"ce4bhn12rcd13ifvqgqg","pricing_plan_id":"cebpf4jnsgd1na2vs0mg"},{"bike_id":"70f98ebc-65a0-4324-a82f-94fd4918b797","system_id":"levelo_inurba_marseille","lat":43.29847,"lon":5.36286,"is_reserved":false,"is_disabled":false,"rental_uris":{"android":"levelo://app?vid=70f98ebc-65a0-4324-a82f-94fd4918b797","ios":"levelo://app?vid=70f98ebc-65a0-4324-a82f-94fd4918b797"},"vehicle_type_id":"4","last_reported":1728677377,"current_range_meters":6400,"station_id":"ce4bgpp2rcd13ifvqc3g","pricing_plan_id":"cebpf4jnsgd1na2vs0mg"},{"bike_id":"4ce6f707-ab03-4c3c-b081-5b8898fc04b6","system_id":"levelo_inurba_marseille","lat":43.31175,"lon":5.38703,"is_reserved":false,"is_disabled":false,"rental_uris":{"android":"levelo://app?vid=4ce6f707-ab03-4c3c-b081-5b8898fc04b6","ios":"levelo://app?vid=4ce6f707-ab03-4c3c-b081-5b8898fc04b6"},"vehicle_type_id":"4","last_reported":1728677377,"current_range_meters":37600,"station_id":"ce4bgv12rcd13ifvqcp0","pricing_plan_id":"cebpf4jnsgd1na2vs0mg"},{"bike_id":"470d2c94-f467-4863-9ef6-0bb60de69935","system_id":"levelo_inurba_marseille","lat":43.291656,"lon":5.371509,"is_reserved":false,"is_disabled":false,"rental_uris":{"android":"levelo://app?vid=470d2c94-f467-4863-9ef6-0bb60de69935","ios":"levelo://app?vid=470d2c94-f467-4863-9ef6-0bb60de69935"},"vehicle_type_id":"4","last_reported":1728677377,"current_range_meters":36000,"station_id":"ce4bha92rcd13ifvqeh0","pricing_plan_id":"cebpf4jnsgd1na2vs0mg"},{"bike_id":"c1fae7dd-58ed-4e5a-82f8-903b9278a44c","system_id":"levelo_inurba_marseille","lat":43.29375,"lon":5.37847,"is_reserved":false,"is_disabled":false,"rental_uris":{"android":"levelo://app?vid=c1fae7dd-58ed-4e5a-82f8-903b9278a44c","ios":"levelo://app?vid=c1fae7dd-58ed-4e5a-82f8-903b9278a44c"},"vehicle_type_id":"4","last_reported":1728677377,"current_range_meters":39200,"station_id":"ce4bgjh2rcd13ifvqbf0","pricing_plan_id":"cebpf4jnsgd1na2vs0mg"},{"bike_id":"c2709d8c-182c-4c66-9678-32143d413767","system_id":"levelo_inurba_marseille","lat":43.2293,"lon":5.35377,"is_reserved":false,"is_disabled":false,"rental_uris":{"android":"levelo://app?vid=c2709d8c-182c-4c66-9678-32143d413767","ios":"levelo://app?vid=c2709d8c-182c-4c66-9678-32143d413767"},"vehicle_type_id":"4","last_reported":1728677377,"current_range_meters":29600,"station_id":"cpo3532slgdg3j2ikp40","pricing_plan_id":"cebpf4jnsgd1na2vs0mg"},{"bike_id":"9795e3a8-775d-458a-888e-29d10d28be1a","system_id":"levelo_inurba_marseille","lat":43.28287,"lon":5.35178,"is_reserved":false,"is_disabled":false,"rental_uris":{"android":"levelo://app?vid=9795e3a8-775d-458a-888e-29d10d28be1a","ios":"levelo://app?vid=9795e3a8-775d-458a-888e-29d10d28be1a"},"vehicle_type_id":"4","last_reported":1728677377,"current_range_meters":9600,"station_id":"","pricing_plan_id":"cebpf4jnsgd1na2vs0mg"},{"bike_id":"f12644fc-a7d3-4c8f-a966-708bb04f1d54","system_id":"levelo_inurba_marseille","lat":43.2984,"lon":5.36267,"is_reserved":false,"is_disabled":false,"rental_uris":{"android":"levelo://app?vid=f12644fc-a7d3-4c8f-a966-708bb04f1d54","ios":"levelo://app?vid=f12644fc-a7d3-4c8f-a966-708bb04f1d54"},"vehicle_type_id":"4","last_reported":1728677377,"current_range_meters":23200,"station_id":"ce4bgpp2rcd13ifvqc3g","pricing_plan_id":"cebpf4jnsgd1na2vs0mg"},{"bike_id":"189bb79b-d474-42a2-8928-d5c2e5f14291","system_id":"levelo_inurba_marseille","lat":43.2987,"lon":5.38902,"is_reserved":false,"is_disabled":false,"rental_uris":{"android":"levelo://app?vid=189bb79b-d474-42a2-8928-d5c2e5f14291","ios":"levelo://app?vid=189bb79b-d474-42a2-8928-d5c2e5f14291"},"vehicle_type_id":"4","last_reported":1728677377,"current_range_meters":2800,"station_id":"ce4bh392rcd13ifvqdl0","pricing_plan_id":"cebpf4jnsgd1na2vs0mg"},{"bike_id":"57c19fb9-e976-453a-86a6-a777dfe9160f","system_id":"levelo_inurba_marseille","lat":43.28078,"lon":5.39658,"is_reserved":false,"is_disabled":false,"rental_uris":{"android":"levelo://app?vid=57c19fb9-e976-453a-86a6-a777dfe9160f","ios":"levelo://app?vid=57c19fb9-e976-453a-86a6-a777dfe9160f"},"vehicle_type_id":"4","last_reported":1728677377,"current_range_meters":38800,"station_id":"ce4bho12rcd13ifvqh2g","pricing_plan_id":"cebpf4jnsgd1na2vs0mg"},{"bike_id":"612c4907-0149-4a44-aa12-72b551c8117b","system_id":"levelo_inurba_marseille","lat":43.27998,"lon":5.4001,"is_reserved":false,"is_disabled":false,"rental_uris":{"android":"levelo://app?vid=612c4907-0149-4a44-aa12-72b551c8117b","ios":"levelo://app?vid=612c4907-0149-4a44-aa12-72b551c8117b"},"vehicle_type_id":"4","last_reported":1728677377,"current_range_meters":8000,"station_id":"ce4bho92rcd13ifvqh4g","pricing_plan_id":"cebpf4jnsgd1na2vs0mg"},{"bike_id":"f65a6cd5-c1fa-467d-aec3-9e48e0439afe","system_id":"levelo_inurba_marseille","lat":43.328302,"lon":5.387531,"is_reserved":false,"is_disabled":false,"rental_uris":{"android":"levelo://app?vid=f65a6cd5-c1fa-467d-aec3-9e48e0439afe","ios":"levelo://app?vid=f65a6cd5-c1fa-467d-aec3-9e48e0439afe"},"vehicle_type_id":"4","last_reported":1728677377,"current_range_meters":3200,"station_id":"","pricing_plan_id":"cebpf4jnsgd1na2vs0mg"},{"bike_id":"336879b1-3066-489a-96b3-234835b7466e","system_id":"levelo_inurba_marseille","lat":43.25864,"lon":5.39899,"is_reserved":false,"is_disabled":false,"rental_uris":{"android":"levelo://app?vid=336879b1-3066-489a-96b3-234835b7466e","ios":"levelo://app?vid=336879b1-3066-489a-96b3-234835b7466e"},"vehicle_type_id":"4","last_reported":1728677377,"current_range_meters":9600,"station_id":"ce4bhl92rcd13ifvqghg","pricing_plan_id":"cebpf4jnsgd1na2vs0mg"},{"bike_id":"d8f27de7-199c-451c-b8ae-82228056fa62","system_id":"levelo_inurba_marseille","lat":43.32538,"lon":5.41446,"is_reserved":false,"is_disabled":false,"rental_uris":{"android":"levelo://app?vid=d8f27de7-199c-451c-b8ae-82228056fa62","ios":"levelo://app?vid=d8f27de7-199c-451c-b8ae-82228056fa62"},"vehicle_type_id":"4","last_reported":1728677377,"current_range_meters":36400,"station_id":"ce4bhq12rcd13ifvqhhg","pricing_plan_id":"cebpf4jnsgd1na2vs0mg"},{"bike_id":"fe499ee7-6375-4ecd-b57e-a932fe0f65cf","system_id":"levelo_inurba_marseille","lat":43.33728,"lon":5.39183,"is_reserved":false,"is_disabled":false,"rental_uris":{"android":"levelo://app?vid=fe499ee7-6375-4ecd-b57e-a932fe0f65cf","ios":"levelo://app?vid=fe499ee7-6375-4ecd-b57e-a932fe0f65cf"},"vehicle_type_id":"4","last_reported":1728677377,"current_range_meters":12000,"station_id":"ce4bhr92rcd13ifvqhsg","pricing_plan_id":"cebpf4jnsgd1na2vs0mg"},{"bike_id":"fbffa957-ac49-4590-b223-7d57f26e111b","system_id":"levelo_inurba_marseille","lat":43.32265,"lon":5.38269,"is_reserved":false,"is_disabled":false,"rental_uris":{"android":"levelo://app?vid=fbffa957-ac49-4590-b223-7d57f26e111b","ios":"levelo://app?vid=fbffa957-ac49-4590-b223-7d57f26e111b"},"vehicle_type_id":"4","last_reported":1728677377,"current_range_meters":32000,"station_id":"ce4bhr12rcd13ifvqhqg","pricing_plan_id":"cebpf4jnsgd1na2vs0mg"},{"bike_id":"ac03a479-46d0-4fa1-b7d4-7d04e5c49fa6","system_id":"levelo_inurba_marseille","lat":43.2439,"lon":5.37062,"is_reserved":false,"is_disabled":false,"rental_uris":{"android":"levelo://app?vid=ac03a479-46d0-4fa1-b7d4-7d04e5c49fa6","ios":"levelo://app?vid=ac03a479-46d0-4fa1-b7d4-7d04e5c49fa6"},"vehicle_type_id":"4","last_reported":1728677377,"current_range_meters":38800,"station_id":"ce4bhhh2rcd13ifvqfk0","pricing_plan_id":"cebpf4jnsgd1na2vs0mg"},{"bike_id":"e8134384-9f2e-430f-8d41-28d909a67feb","system_id":"levelo_inurba_marseille","lat":43.300842,"lon":5.386772,"is_reserved":false,"is_disabled":false,"rental_uris":{"android":"levelo://app?vid=e8134384-9f2e-430f-8d41-28d909a67feb","ios":"levelo://app?vid=e8134384-9f2e-430f-8d41-28d909a67feb"},"vehicle_type_id":"4","last_reported":1728677377,"current_range_meters":8000,"station_id":"ce4bh112rcd13ifvqda0","pricing_plan_id":"cebpf4jnsgd1na2vs0mg"},{"bike_id":"3bd6033b-b9e1-4e43-9cda-44c3e3f9f5ad","system_id":"levelo_inurba_marseille","lat":43.32332,"lon":5.40625,"is_reserved":false,"is_disabled":false,"rental_uris":{"android":"levelo://app?vid=3bd6033b-b9e1-4e43-9cda-44c3e3f9f5ad","ios":"levelo://app?vid=3bd6033b-b9e1-4e43-9cda-44c3e3f9f5ad"},"vehicle_type_id":"4","last_reported":1728677377,"current_range_meters":24800,"station_id":"ce4bhq92rcd13ifvqhjg","pricing_plan_id":"cebpf4jnsgd1na2vs0mg"},{"bike_id":"95463a40-7a55-43e0-8d4b-14638faa31f3","system_id":"levelo_inurba_marseille","lat":43.27177,"lon":5.40996,"is_reserved":false,"is_disabled":false,"rental_uris":{"android":"levelo://app?vid=95463a40-7a55-43e0-8d4b-14638faa31f3","ios":"levelo://app?vid=95463a40-7a55-43e0-8d4b-14638faa31f3"},"vehicle_type_id":"4","last_reported":1728677377,"current_range_meters":8000,"station_id":"ce4bhl12rcd13ifvqgf0","pricing_plan_id":"cebpf4jnsgd1na2vs0mg"},{"bike_id":"39969d66-6001-4fa3-b225-36d5d389d184","system_id":"levelo_inurba_marseille","lat":43.28002,"lon":5.399953,"is_reserved":false,"is_disabled":false,"rental_uris":{"android":"levelo://app?vid=39969d66-6001-4fa3-b225-36d5d389d184","ios":"levelo://app?vid=39969d66-6001-4fa3-b225-36d5d389d184"},"vehicle_type_id":"4","last_reported":1728677377,"current_range_meters":31200,"station_id":"ce4bho92rcd13ifvqh4g","pricing_plan_id":"cebpf4jnsgd1na2vs0mg"},{"bike_id":"921d61f7-c645-4d84-a69e-2f3de1b6b8a3","system_id":"levelo_inurba_marseille","lat":43.28099,"lon":5.37816,"is_reserved":false,"is_disabled":false,"rental_uris":{"android":"levelo://app?vid=921d61f7-c645-4d84-a69e-2f3de1b6b8a3","ios":"levelo://app?vid=921d61f7-c645-4d84-a69e-2f3de1b6b8a3"},"vehicle_type_id":"4","last_reported":1728677377,"current_range_meters":30000,"station_id":"ce4bhb92rcd13ifvqen0","pricing_plan_id":"cebpf4jnsgd1na2vs0mg"},{"bike_id":"18ea30eb-9b2c-4fc7-9577-3203e96bb88d","system_id":"levelo_inurba_marseille","lat":43.280166,"lon":5.399998,"is_reserved":false,"is_disabled":false,"rental_uris":{"android":"levelo://app?vid=18ea30eb-9b2c-4fc7-9577-3203e96bb88d","ios":"levelo://app?vid=18ea30eb-9b2c-4fc7-9577-3203e96bb88d"},"vehicle_type_id":"4","last_reported":1728677377,"current_range_meters":27200,"station_id":"ce4bho92rcd13ifvqh4g","pricing_plan_id":"cebpf4jnsgd1na2vs0mg"},{"bike_id":"62523e9b-ab13-4ca8-a3d7-ee7620b0f82f","system_id":"levelo_inurba_marseille","lat":43.29418,"lon":5.38615,"is_reserved":false,"is_disabled":false,"rental_uris":{"android":"levelo://app?vid=62523e9b-ab13-4ca8-a3d7-ee7620b0f82f","ios":"levelo://app?vid=62523e9b-ab13-4ca8-a3d7-ee7620b0f82f"},"vehicle_type_id":"4","last_reported":1728677377,"current_range_meters":3200,"station_id":"ce4bh2h2rcd13ifvqdh0","pricing_plan_id":"cebpf4jnsgd1na2vs0mg"},{"bike_id":"a49f0919-36fa-4eb4-8b1e-4f56526b00f7","system_id":"levelo_inurba_marseille","lat":43.27173,"lon":5.4099,"is_reserved":false,"is_disabled":false,"rental_uris":{"android":"levelo://app?vid=a49f0919-36fa-4eb4-8b1e-4f56526b00f7","ios":"levelo://app?vid=a49f0919-36fa-4eb4-8b1e-4f56526b00f7"},"vehicle_type_id":"4","last_reported":1728677377,"current_range_meters":16400,"station_id":"ce4bhl12rcd13ifvqgf0","pricing_plan_id":"cebpf4jnsgd1na2vs0mg"},{"bike_id":"ba93cdf0-87a0-4d72-a75e-4f75b7d84654","system_id":"levelo_inurba_marseille","lat":43.29844,"lon":5.36282,"is_reserved":false,"is_disabled":false,"rental_uris":{"android":"levelo://app?vid=ba93cdf0-87a0-4d72-a75e-4f75b7d84654","ios":"levelo://app?vid=ba93cdf0-87a0-4d72-a75e-4f75b7d84654"},"vehicle_type_id":"4","last_reported":1728677377,"current_range_meters":6000,"station_id":"ce4bgpp2rcd13ifvqc3g","pricing_plan_id":"cebpf4jnsgd1na2vs0mg"},{"bike_id":"0b4c5f13-9257-46da-b634-1a308db60cb8","system_id":"levelo_inurba_marseille","lat":43.29189,"lon":5.39317,"is_reserved":false,"is_disabled":false,"rental_uris":{"android":"levelo://app?vid=0b4c5f13-9257-46da-b634-1a308db60cb8","ios":"levelo://app?vid=0b4c5f13-9257-46da-b634-1a308db60cb8"},"vehicle_type_id":"4","last_reported":1728677377,"current_range_meters":37600,"station_id":"ce4bh192rcd13ifvqdd0","pricing_plan_id":"cebpf4jnsgd1na2vs0mg"},{"bike_id":"95c50df5-9c43-45c8-b21a-4297d31f1068","system_id":"levelo_inurba_marseille","lat":43.30888,"lon":5.39644,"is_reserved":false,"is_disabled":false,"rental_uris":{"android":"levelo://app?vid=95c50df5-9c43-45c8-b21a-4297d31f1068","ios":"levelo://app?vid=95c50df5-9c43-45c8-b21a-4297d31f1068"},"vehicle_type_id":"4","last_reported":1728677377,"current_range_meters":3600,"station_id":"ce4bh012rcd13ifvqcv0","pricing_plan_id":"cebpf4jnsgd1na2vs0mg"},{"bike_id":"573ada2f-25ee-496e-b11d-86ef27bd3232","system_id":"levelo_inurba_marseille","lat":43.28035,"lon":5.36948,"is_reserved":false,"is_disabled":false,"rental_uris":{"android":"levelo://app?vid=573ada2f-25ee-496e-b11d-86ef27bd3232","ios":"levelo://app?vid=573ada2f-25ee-496e-b11d-86ef27bd3232"},"vehicle_type_id":"4","last_reported":1728677377,"current_range_meters":28400,"station_id":"ce4bha12rcd13ifvqef0","pricing_plan_id":"cebpf4jnsgd1na2vs0mg"},{"bike_id":"43c9404a-94a6-4312-ba19-34f87f21dfc7","system_id":"levelo_inurba_marseille","lat":43.28712,"lon":5.39983,"is_reserved":false,"is_disabled":false,"rental_uris":{"android":"levelo://app?vid=43c9404a-94a6-4312-ba19-34f87f21dfc7","ios":"levelo://app?vid=43c9404a-94a6-4312-ba19-34f87f21dfc7"},"vehicle_type_id":"4","last_reported":1728677377,"current_range_meters":24800,"station_id":"ce4bho92rcd13ifvqh3g","pricing_plan_id":"cebpf4jnsgd1na2vs0mg"},{"bike_id":"2d04de68-d120-472d-8fa1-487ce4100c0c","system_id":"levelo_inurba_marseille","lat":43.29848,"lon":5.36289,"is_reserved":false,"is_disabled":false,"rental_uris":{"android":"levelo://app?vid=2d04de68-d120-472d-8fa1-487ce4100c0c","ios":"levelo://app?vid=2d04de68-d120-472d-8fa1-487ce4100c0c"},"vehicle_type_id":"4","last_reported":1728677377,"current_range_meters":7200,"station_id":"ce4bgpp2rcd13ifvqc3g","pricing_plan_id":"cebpf4jnsgd1na2vs0mg"},{"bike_id":"d4cf8c25-ba43-4224-aa32-c57be9cb781c","system_id":"levelo_inurba_marseille","lat":43.30606,"lon":5.37228,"is_reserved":false,"is_disabled":false,"rental_uris":{"android":"levelo://app?vid=d4cf8c25-ba43-4224-aa32-c57be9cb781c","ios":"levelo://app?vid=d4cf8c25-ba43-4224-aa32-c57be9cb781c"},"vehicle_type_id":"4","last_reported":1728677377,"current_range_meters":24000,"station_id":"ce4bgqh2rcd13ifvqc4g","pricing_plan_id":"cebpf4jnsgd1na2vs0mg"},{"bike_id":"ff68b789-7173-415f-860f-fb58c1b9d01d","system_id":"levelo_inurba_marseille","lat":43.22929,"lon":5.3538,"is_reserved":false,"is_disabled":false,"rental_uris":{"android":"levelo://app?vid=ff68b789-7173-415f-860f-fb58c1b9d01d","ios":"levelo://app?vid=ff68b789-7173-415f-860f-fb58c1b9d01d"},"vehicle_type_id":"4","last_reported":1728677377,"current_range_meters":29600,"station_id":"cpo3532slgdg3j2ikp40","pricing_plan_id":"cebpf4jnsgd1na2vs0mg"},{"bike_id":"f481419e-c9bc-4543-bc81-8d52ba6d3ff2","system_id":"levelo_inurba_marseille","lat":43.27989,"lon":5.40007,"is_reserved":false,"is_disabled":false,"rental_uris":{"android":"levelo://app?vid=f481419e-c9bc-4543-bc81-8d52ba6d3ff2","ios":"levelo://app?vid=f481419e-c9bc-4543-bc81-8d52ba6d3ff2"},"vehicle_type_id":"4","last_reported":1728677377,"current_range_meters":26000,"station_id":"ce4bho92rcd13ifvqh4g","pricing_plan_id":"cebpf4jnsgd1na2vs0mg"},{"bike_id":"68908dc2-bd92-4c15-bc95-3abb8f14ff7a","system_id":"levelo_inurba_marseille","lat":43.29571,"lon":5.37524,"is_reserved":false,"is_disabled":false,"rental_uris":{"android":"levelo://app?vid=68908dc2-bd92-4c15-bc95-3abb8f14ff7a","ios":"levelo://app?vid=68908dc2-bd92-4c15-bc95-3abb8f14ff7a"},"vehicle_type_id":"4","last_reported":1728677377,"current_range_meters":18000,"station_id":"ce4bgh92rcd13ifvqb50","pricing_plan_id":"cebpf4jnsgd1na2vs0mg"},{"bike_id":"6cb5b02c-2401-484a-8b7d-b4d2106d6b08","system_id":"levelo_inurba_marseille","lat":43.2319,"lon":5.35558,"is_reserved":false,"is_disabled":false,"rental_uris":{"android":"levelo://app?vid=6cb5b02c-2401-484a-8b7d-b4d2106d6b08","ios":"levelo://app?vid=6cb5b02c-2401-484a-8b7d-b4d2106d6b08"},"vehicle_type_id":"4","last_reported":1728677377,"current_range_meters":35600,"station_id":"ce4bhu92rcd13ifvqi70","pricing_plan_id":"cebpf4jnsgd1na2vs0mg"},{"bike_id":"751ab8f4-b66e-4832-9b92-433be04fd785","system_id":"levelo_inurba_marseille","lat":43.33025,"lon":5.39037,"is_reserved":false,"is_disabled":false,"rental_uris":{"android":"levelo://app?vid=751ab8f4-b66e-4832-9b92-433be04fd785","ios":"levelo://app?vid=751ab8f4-b66e-4832-9b92-433be04fd785"},"vehicle_type_id":"4","last_reported":1728677377,"current_range_meters":27200,"station_id":"ce4bhr92rcd13ifvqhrg","pricing_plan_id":"cebpf4jnsgd1na2vs0mg"},{"bike_id":"461cadf8-4f61-47fd-8829-1d12d9b635b6","system_id":"levelo_inurba_marseille","lat":43.31754,"lon":5.39021,"is_reserved":false,"is_disabled":false,"rental_uris":{"android":"levelo://app?vid=461cadf8-4f61-47fd-8829-1d12d9b635b6","ios":"levelo://app?vid=461cadf8-4f61-47fd-8829-1d12d9b635b6"},"vehicle_type_id":"4","last_reported":1728677377,"current_range_meters":11600,"station_id":"ce4bhqp2rcd13ifvqhng","pricing_plan_id":"cebpf4jnsgd1na2vs0mg"},{"bike_id":"0fc14c82-4fd3-47c7-871c-f9f265e14e57","system_id":"levelo_inurba_marseille","lat":43.30121,"lon":5.39849,"is_reserved":false,"is_disabled":false,"rental_uris":{"android":"levelo://app?vid=0fc14c82-4fd3-47c7-871c-f9f265e14e57","ios":"levelo://app?vid=0fc14c82-4fd3-47c7-871c-f9f265e14e57"},"vehicle_type_id":"4","last_reported":1728677377,"current_range_meters":2800,"station_id":"ce4bh0h2rcd13ifvqd40","pricing_plan_id":"cebpf4jnsgd1na2vs0mg"},{"bike_id":"915990ee-de15-4feb-a1f7-ce4cfdb870b2","system_id":"levelo_inurba_marseille","lat":43.29849,"lon":5.36289,"is_reserved":false,"is_disabled":false,"rental_uris":{"android":"levelo://app?vid=915990ee-de15-4feb-a1f7-ce4cfdb870b2","ios":"levelo://app?vid=915990ee-de15-4feb-a1f7-ce4cfdb870b2"},"vehicle_type_id":"4","last_reported":1728677377,"current_range_meters":22000,"station_id":"ce4bgpp2rcd13ifvqc3g","pricing_plan_id":"cebpf4jnsgd1na2vs0mg"},{"bike_id":"7eba051b-1008-4c77-b9cf-ef0d0c5a6737","system_id":"levelo_inurba_marseille","lat":43.29599,"lon":5.38105,"is_reserved":false,"is_disabled":false,"rental_uris":{"android":"levelo://app?vid=7eba051b-1008-4c77-b9cf-ef0d0c5a6737","ios":"levelo://app?vid=7eba051b-1008-4c77-b9cf-ef0d0c5a6737"},"vehicle_type_id":"4","last_reported":1728677377,"current_range_meters":28000,"station_id":"ce4bgl12rcd13ifvqbo0","pricing_plan_id":"cebpf4jnsgd1na2vs0mg"},{"bike_id":"15528a77-5ac1-464a-8360-10282b7d42d4","system_id":"levelo_inurba_marseille","lat":43.28455,"lon":5.35888,"is_reserved":false,"is_disabled":false,"rental_uris":{"android":"levelo://app?vid=15528a77-5ac1-464a-8360-10282b7d42d4","ios":"levelo://app?vid=15528a77-5ac1-464a-8360-10282b7d42d4"},"vehicle_type_id":"4","last_reported":1728677377,"current_range_meters":2800,"station_id":"ce4bhah2rcd13ifvqei0","pricing_plan_id":"cebpf4jnsgd1na2vs0mg"},{"bike_id":"f80c2e75-b47f-4161-9783-8454957aba75","system_id":"levelo_inurba_marseille","lat":43.32097,"lon":5.3677,"is_reserved":false,"is_disabled":false,"rental_uris":{"android":"levelo://app?vid=f80c2e75-b47f-4161-9783-8454957aba75","ios":"levelo://app?vid=f80c2e75-b47f-4161-9783-8454957aba75"},"vehicle_type_id":"4","last_reported":1728677377,"current_range_meters":38800,"station_id":"ce4bhrh2rcd13ifvqhug","pricing_plan_id":"cebpf4jnsgd1na2vs0mg"},{"bike_id":"fb2ee3ac-f1e9-4d68-b503-6deb196a8207","system_id":"levelo_inurba_marseille","lat":43.23154,"lon":5.43712,"is_reserved":false,"is_disabled":false,"rental_uris":{"android":"levelo://app?vid=fb2ee3ac-f1e9-4d68-b503-6deb196a8207","ios":"levelo://app?vid=fb2ee3ac-f1e9-4d68-b503-6deb196a8207"},"vehicle_type_id":"4","last_reported":1728677377,"current_range_meters":26800,"station_id":"ce4bhmp2rcd13ifvqgog","pricing_plan_id":"cebpf4jnsgd1na2vs0mg"},{"bike_id":"47800cc3-b4aa-4d02-bd42-90cb5272b1a4","system_id":"levelo_inurba_marseille","lat":43.23178,"lon":5.3999,"is_reserved":false,"is_disabled":false,"rental_uris":{"android":"levelo://app?vid=47800cc3-b4aa-4d02-bd42-90cb5272b1a4","ios":"levelo://app?vid=47800cc3-b4aa-4d02-bd42-90cb5272b1a4"},"vehicle_type_id":"4","last_reported":1728677377,"current_range_meters":12400,"station_id":"ce4bhn12rcd13ifvqgqg","pricing_plan_id":"cebpf4jnsgd1na2vs0mg"},{"bike_id":"df17eff2-8021-4979-a2b0-b8b956c3dafc","system_id":"levelo_inurba_marseille","lat":43.27176,"lon":5.40986,"is_reserved":false,"is_disabled":false,"rental_uris":{"android":"levelo://app?vid=df17eff2-8021-4979-a2b0-b8b956c3dafc","ios":"levelo://app?vid=df17eff2-8021-4979-a2b0-b8b956c3dafc"},"vehicle_type_id":"4","last_reported":1728677377,"current_range_meters":6400,"station_id":"ce4bhl12rcd13ifvqgf0","pricing_plan_id":"cebpf4jnsgd1na2vs0mg"},{"bike_id":"97ac59d5-b309-4922-9555-c25d4fd9fb6f","system_id":"levelo_inurba_marseille","lat":43.27941,"lon":5.41049,"is_reserved":false,"is_disabled":false,"rental_uris":{"android":"levelo://app?vid=97ac59d5-b309-4922-9555-c25d4fd9fb6f","ios":"levelo://app?vid=97ac59d5-b309-4922-9555-c25d4fd9fb6f"},"vehicle_type_id":"4","last_reported":1728677377,"current_range_meters":9600,"station_id":"ce4bhnp2rcd13ifvqh0g","pricing_plan_id":"cebpf4jnsgd1na2vs0mg"},{"bike_id":"b0c74578-c598-4913-bba5-5a9cd08c4263","system_id":"levelo_inurba_marseille","lat":43.29849,"lon":5.36271,"is_reserved":false,"is_disabled":false,"rental_uris":{"android":"levelo://app?vid=b0c74578-c598-4913-bba5-5a9cd08c4263","ios":"levelo://app?vid=b0c74578-c598-4913-bba5-5a9cd08c4263"},"vehicle_type_id":"4","last_reported":1728677377,"current_range_meters":6000,"station_id":"ce4bgpp2rcd13ifvqc3g","pricing_plan_id":"cebpf4jnsgd1na2vs0mg"},{"bike_id":"b933402b-d1ca-49a8-bbf7-fb19281d941c","system_id":"levelo_inurba_marseille","lat":43.23191,"lon":5.35552,"is_reserved":false,"is_disabled":false,"rental_uris":{"android":"levelo://app?vid=b933402b-d1ca-49a8-bbf7-fb19281d941c","ios":"levelo://app?vid=b933402b-d1ca-49a8-bbf7-fb19281d941c"},"vehicle_type_id":"4","last_reported":1728677377,"current_range_meters":25200,"station_id":"ce4bhu92rcd13ifvqi70","pricing_plan_id":"cebpf4jnsgd1na2vs0mg"},{"bike_id":"8968d213-9203-4756-b59a-4161d66fba26","system_id":"levelo_inurba_marseille","lat":43.24645,"lon":5.38889,"is_reserved":false,"is_disabled":false,"rental_uris":{"android":"levelo://app?vid=8968d213-9203-4756-b59a-4161d66fba26","ios":"levelo://app?vid=8968d213-9203-4756-b59a-4161d66fba26"},"vehicle_type_id":"4","last_reported":1728677377,"current_range_meters":32400,"station_id":"ce4bhg12rcd13ifvqf60","pricing_plan_id":"cebpf4jnsgd1na2vs0mg"},{"bike_id":"2430d1b1-6372-4236-912c-eb95d0504eb1","system_id":"levelo_inurba_marseille","lat":43.29866,"lon":5.38917,"is_reserved":false,"is_disabled":false,"rental_uris":{"android":"levelo://app?vid=2430d1b1-6372-4236-912c-eb95d0504eb1","ios":"levelo://app?vid=2430d1b1-6372-4236-912c-eb95d0504eb1"},"vehicle_type_id":"4","last_reported":1728677377,"current_range_meters":8400,"station_id":"ce4bh392rcd13ifvqdl0","pricing_plan_id":"cebpf4jnsgd1na2vs0mg"},{"bike_id":"adc92101-8579-406c-bd4a-5a4c768356dd","system_id":"levelo_inurba_marseille","lat":43.292019,"lon":5.358071,"is_reserved":false,"is_disabled":false,"rental_uris":{"android":"levelo://app?vid=adc92101-8579-406c-bd4a-5a4c768356dd","ios":"levelo://app?vid=adc92101-8579-406c-bd4a-5a4c768356dd"},"vehicle_type_id":"4","last_reported":1728677377,"current_range_meters":28800,"station_id":"ce4bhb12rcd13ifvqel0","pricing_plan_id":"cebpf4jnsgd1na2vs0mg"},{"bike_id":"1ce7d2c0-4299-42a9-8cd8-c2f2862567f9","system_id":"levelo_inurba_marseille","lat":43.30813,"lon":5.38149,"is_reserved":false,"is_disabled":false,"rental_uris":{"android":"levelo://app?vid=1ce7d2c0-4299-42a9-8cd8-c2f2862567f9","ios":"levelo://app?vid=1ce7d2c0-4299-42a9-8cd8-c2f2862567f9"},"vehicle_type_id":"4","last_reported":1728677377,"current_range_meters":38800,"station_id":"ce4bgt12rcd13ifvqce0","pricing_plan_id":"cebpf4jnsgd1na2vs0mg"},{"bike_id":"a503c277-2ea6-4b44-a6e3-2dc43338bc87","system_id":"levelo_inurba_marseille","lat":43.297791,"lon":5.393036,"is_reserved":false,"is_disabled":false,"rental_uris":{"android":"levelo://app?vid=a503c277-2ea6-4b44-a6e3-2dc43338bc87","ios":"levelo://app?vid=a503c277-2ea6-4b44-a6e3-2dc43338bc87"},"vehicle_type_id":"4","last_reported":1728677377,"current_range_meters":27600,"station_id":"chh1huq6cuj3fo74tm60","pricing_plan_id":"cebpf4jnsgd1na2vs0mg"},{"bike_id":"97b0fb21-dfe8-49dd-93c2-fbef45df06a4","system_id":"levelo_inurba_marseille","lat":43.29854,"lon":5.36285,"is_reserved":false,"is_disabled":false,"rental_uris":{"android":"levelo://app?vid=97b0fb21-dfe8-49dd-93c2-fbef45df06a4","ios":"levelo://app?vid=97b0fb21-dfe8-49dd-93c2-fbef45df06a4"},"vehicle_type_id":"4","last_reported":1728677377,"current_range_meters":20000,"station_id":"ce4bgpp2rcd13ifvqc3g","pricing_plan_id":"cebpf4jnsgd1na2vs0mg"},{"bike_id":"e0432a0c-2e4a-415d-a094-cfaa87a24bfc","system_id":"levelo_inurba_marseille","lat":43.2649,"lon":5.39546,"is_reserved":false,"is_disabled":false,"rental_uris":{"android":"levelo://app?vid=e0432a0c-2e4a-415d-a094-cfaa87a24bfc","ios":"levelo://app?vid=e0432a0c-2e4a-415d-a094-cfaa87a24bfc"},"vehicle_type_id":"4","last_reported":1728677377,"current_range_meters":38400,"station_id":"ce4bhi12rcd13ifvqfq0","pricing_plan_id":"cebpf4jnsgd1na2vs0mg"},{"bike_id":"484a4c63-4ef1-4433-b27a-9a9ca5ad2f9a","system_id":"levelo_inurba_marseille","lat":43.22926,"lon":5.35381,"is_reserved":false,"is_disabled":false,"rental_uris":{"android":"levelo://app?vid=484a4c63-4ef1-4433-b27a-9a9ca5ad2f9a","ios":"levelo://app?vid=484a4c63-4ef1-4433-b27a-9a9ca5ad2f9a"},"vehicle_type_id":"4","last_reported":1728677377,"current_range_meters":14400,"station_id":"cpo3532slgdg3j2ikp40","pricing_plan_id":"cebpf4jnsgd1na2vs0mg"},{"bike_id":"10d96b99-0cf7-4f0c-9a30-6a757bf85829","system_id":"levelo_inurba_marseille","lat":43.27371,"lon":5.3626,"is_reserved":false,"is_disabled":false,"rental_uris":{"android":"levelo://app?vid=10d96b99-0cf7-4f0c-9a30-6a757bf85829","ios":"levelo://app?vid=10d96b99-0cf7-4f0c-9a30-6a757bf85829"},"vehicle_type_id":"4","last_reported":1728677377,"current_range_meters":24800,"station_id":"ce4bhbh2rcd13ifvqeo0","pricing_plan_id":"cebpf4jnsgd1na2vs0mg"},{"bike_id":"e6336660-e5d0-4336-aab6-9e2081b4b551","system_id":"levelo_inurba_marseille","lat":43.33721,"lon":5.39193,"is_reserved":false,"is_disabled":false,"rental_uris":{"android":"levelo://app?vid=e6336660-e5d0-4336-aab6-9e2081b4b551","ios":"levelo://app?vid=e6336660-e5d0-4336-aab6-9e2081b4b551"},"vehicle_type_id":"4","last_reported":1728677377,"current_range_meters":27600,"station_id":"ce4bhr92rcd13ifvqhsg","pricing_plan_id":"cebpf4jnsgd1na2vs0mg"},{"bike_id":"eea7b379-dd77-40f6-878f-9bf82690cfa0","system_id":"levelo_inurba_marseille","lat":43.30068,"lon":5.37045,"is_reserved":false,"is_disabled":false,"rental_uris":{"android":"levelo://app?vid=eea7b379-dd77-40f6-878f-9bf82690cfa0","ios":"levelo://app?vid=eea7b379-dd77-40f6-878f-9bf82690cfa0"},"vehicle_type_id":"4","last_reported":1728677377,"current_range_meters":27200,"station_id":"","pricing_plan_id":"cebpf4jnsgd1na2vs0mg"},{"bike_id":"39bb093e-1fb0-4fe9-a7de-f970ccf3512f","system_id":"levelo_inurba_marseille","lat":43.22932,"lon":5.35378,"is_reserved":false,"is_disabled":false,"rental_uris":{"android":"levelo://app?vid=39bb093e-1fb0-4fe9-a7de-f970ccf3512f","ios":"levelo://app?vid=39bb093e-1fb0-4fe9-a7de-f970ccf3512f"},"vehicle_type_id":"4","last_reported":1728677377,"current_range_meters":24400,"station_id":"cpo3532slgdg3j2ikp40","pricing_plan_id":"cebpf4jnsgd1na2vs0mg"},{"bike_id":"713a5c17-db23-4ce5-9fc6-7ab2b6e19f0f","system_id":"levelo_inurba_marseille","lat":43.27554,"lon":5.38432,"is_reserved":false,"is_disabled":false,"rental_uris":{"android":"levelo://app?vid=713a5c17-db23-4ce5-9fc6-7ab2b6e19f0f","ios":"levelo://app?vid=713a5c17-db23-4ce5-9fc6-7ab2b6e19f0f"},"vehicle_type_id":"4","last_reported":1728677377,"current_range_meters":20000,"station_id":"ce4bhh92rcd13ifvqfi0","pricing_plan_id":"cebpf4jnsgd1na2vs0mg"},{"bike_id":"c7932ebc-40c2-41af-92e1-9d5f28b5738a","system_id":"levelo_inurba_marseille","lat":43.23187,"lon":5.39982,"is_reserved":false,"is_disabled":false,"rental_uris":{"android":"levelo://app?vid=c7932ebc-40c2-41af-92e1-9d5f28b5738a","ios":"levelo://app?vid=c7932ebc-40c2-41af-92e1-9d5f28b5738a"},"vehicle_type_id":"4","last_reported":1728677377,"current_range_meters":8000,"station_id":"ce4bhn12rcd13ifvqgqg","pricing_plan_id":"cebpf4jnsgd1na2vs0mg"},{"bike_id":"cd66927f-2970-4f86-ae74-1552ca666b9c","system_id":"levelo_inurba_marseille","lat":43.29934,"lon":5.36549,"is_reserved":false,"is_disabled":false,"rental_uris":{"android":"levelo://app?vid=cd66927f-2970-4f86-ae74-1552ca666b9c","ios":"levelo://app?vid=cd66927f-2970-4f86-ae74-1552ca666b9c"},"vehicle_type_id":"4","last_reported":1728677377,"current_range_meters":16400,"station_id":"ce4bgm92rcd13ifvqbr0","pricing_plan_id":"cebpf4jnsgd1na2vs0mg"},{"bike_id":"de6de45c-9d5b-43b6-b9a7-ae1ad23326b0","system_id":"levelo_inurba_marseille","lat":43.28362,"lon":5.38642,"is_reserved":false,"is_disabled":false,"rental_uris":{"android":"levelo://app?vid=de6de45c-9d5b-43b6-b9a7-ae1ad23326b0","ios":"levelo://app?vid=de6de45c-9d5b-43b6-b9a7-ae1ad23326b0"},"vehicle_type_id":"4","last_reported":1728677377,"current_range_meters":2000,"station_id":"ce4bh492rcd13ifvqdvg","pricing_plan_id":"cebpf4jnsgd1na2vs0mg"},{"bike_id":"3975ffac-e01e-40e2-8450-2e6d0182eccd","system_id":"levelo_inurba_marseille","lat":43.2586,"lon":5.39901,"is_reserved":false,"is_disabled":false,"rental_uris":{"android":"levelo://app?vid=3975ffac-e01e-40e2-8450-2e6d0182eccd","ios":"levelo://app?vid=3975ffac-e01e-40e2-8450-2e6d0182eccd"},"vehicle_type_id":"4","last_reported":1728677377,"current_range_meters":23200,"station_id":"ce4bhl92rcd13ifvqghg","pricing_plan_id":"cebpf4jnsgd1na2vs0mg"},{"bike_id":"5b9f2409-af94-4530-bdcb-ef3b7e257a37","system_id":"levelo_inurba_marseille","lat":43.31998,"lon":5.3815,"is_reserved":false,"is_disabled":false,"rental_uris":{"android":"levelo://app?vid=5b9f2409-af94-4530-bdcb-ef3b7e257a37","ios":"levelo://app?vid=5b9f2409-af94-4530-bdcb-ef3b7e257a37"},"vehicle_type_id":"4","last_reported":1728677377,"current_range_meters":39200,"station_id":"ce4bhr12rcd13ifvqhpg","pricing_plan_id":"cebpf4jnsgd1na2vs0mg"},{"bike_id":"725a9cf6-2460-48a5-9563-29593dcb3044","system_id":"levelo_inurba_marseille","lat":43.29524,"lon":5.39406,"is_reserved":false,"is_disabled":false,"rental_uris":{"android":"levelo://app?vid=725a9cf6-2460-48a5-9563-29593dcb3044","ios":"levelo://app?vid=725a9cf6-2460-48a5-9563-29593dcb3044"},"vehicle_type_id":"4","last_reported":1728677377,"current_range_meters":39200,"station_id":"ce4bh292rcd13ifvqdf0","pricing_plan_id":"cebpf4jnsgd1na2vs0mg"},{"bike_id":"14d9dfec-a241-4dad-89d0-5ebad090c402","system_id":"levelo_inurba_marseille","lat":43.30119,"lon":5.39869,"is_reserved":false,"is_disabled":false,"rental_uris":{"android":"levelo://app?vid=14d9dfec-a241-4dad-89d0-5ebad090c402","ios":"levelo://app?vid=14d9dfec-a241-4dad-89d0-5ebad090c402"},"vehicle_type_id":"4","last_reported":1728677377,"current_range_meters":32000,"station_id":"ce4bh0h2rcd13ifvqd40","pricing_plan_id":"cebpf4jnsgd1na2vs0mg"},{"bike_id":"9420c6dc-b19d-4421-8c0c-72e39b809c6b","system_id":"levelo_inurba_marseille","lat":43.2293,"lon":5.35377,"is_reserved":false,"is_disabled":false,"rental_uris":{"android":"levelo://app?vid=9420c6dc-b19d-4421-8c0c-72e39b809c6b","ios":"levelo://app?vid=9420c6dc-b19d-4421-8c0c-72e39b809c6b"},"vehicle_type_id":"4","last_reported":1728677377,"current_range_meters":38800,"station_id":"cpo3532slgdg3j2ikp40","pricing_plan_id":"cebpf4jnsgd1na2vs0mg"},{"bike_id":"5a5649e8-a9bc-4d0f-be41-ed6fc56a9baf","system_id":"levelo_inurba_marseille","lat":43.22925,"lon":5.35379,"is_reserved":false,"is_disabled":false,"rental_uris":{"android":"levelo://app?vid=5a5649e8-a9bc-4d0f-be41-ed6fc56a9baf","ios":"levelo://app?vid=5a5649e8-a9bc-4d0f-be41-ed6fc56a9baf"},"vehicle_type_id":"4","last_reported":1728677377,"current_range_meters":36400,"station_id":"cpo3532slgdg3j2ikp40","pricing_plan_id":"cebpf4jnsgd1na2vs0mg"},{"bike_id":"c3c2b9ca-4849-4c73-a0f8-913d51912e85","system_id":"levelo_inurba_marseille","lat":43.28373,"lon":5.38621,"is_reserved":false,"is_disabled":false,"rental_uris":{"android":"levelo://app?vid=c3c2b9ca-4849-4c73-a0f8-913d51912e85","ios":"levelo://app?vid=c3c2b9ca-4849-4c73-a0f8-913d51912e85"},"vehicle_type_id":"4","last_reported":1728677377,"current_range_meters":6000,"station_id":"ce4bh492rcd13ifvqdvg","pricing_plan_id":"cebpf4jnsgd1na2vs0mg"},{"bike_id":"d66fdf2f-07a9-4b26-b71a-667699602f45","system_id":"levelo_inurba_marseille","lat":43.27941,"lon":5.41041,"is_reserved":false,"is_disabled":false,"rental_uris":{"android":"levelo://app?vid=d66fdf2f-07a9-4b26-b71a-667699602f45","ios":"levelo://app?vid=d66fdf2f-07a9-4b26-b71a-667699602f45"},"vehicle_type_id":"4","last_reported":1728677377,"current_range_meters":8800,"station_id":"ce4bhnp2rcd13ifvqh0g","pricing_plan_id":"cebpf4jnsgd1na2vs0mg"},{"bike_id":"e7b80a9d-8eab-4c55-afa3-0f8d67be8e22","system_id":"levelo_inurba_marseille","lat":43.24387,"lon":5.37054,"is_reserved":false,"is_disabled":false,"rental_uris":{"android":"levelo://app?vid=e7b80a9d-8eab-4c55-afa3-0f8d67be8e22","ios":"levelo://app?vid=e7b80a9d-8eab-4c55-afa3-0f8d67be8e22"},"vehicle_type_id":"4","last_reported":1728677377,"current_range_meters":11200,"station_id":"ce4bhhh2rcd13ifvqfk0","pricing_plan_id":"cebpf4jnsgd1na2vs0mg"},{"bike_id":"379d6363-9152-4e84-bd42-6ec02dd02b54","system_id":"levelo_inurba_marseille","lat":43.319934,"lon":5.381494,"is_reserved":false,"is_disabled":false,"rental_uris":{"android":"levelo://app?vid=379d6363-9152-4e84-bd42-6ec02dd02b54","ios":"levelo://app?vid=379d6363-9152-4e84-bd42-6ec02dd02b54"},"vehicle_type_id":"4","last_reported":1728677377,"current_range_meters":39200,"station_id":"ce4bhr12rcd13ifvqhpg","pricing_plan_id":"cebpf4jnsgd1na2vs0mg"},{"bike_id":"8fb2b431-bcb9-46ba-80fb-e26e84592fc5","system_id":"levelo_inurba_marseille","lat":43.23192,"lon":5.35555,"is_reserved":false,"is_disabled":false,"rental_uris":{"android":"levelo://app?vid=8fb2b431-bcb9-46ba-80fb-e26e84592fc5","ios":"levelo://app?vid=8fb2b431-bcb9-46ba-80fb-e26e84592fc5"},"vehicle_type_id":"4","last_reported":1728677377,"current_range_meters":36000,"station_id":"ce4bhu92rcd13ifvqi70","pricing_plan_id":"cebpf4jnsgd1na2vs0mg"},{"bike_id":"d25e2e0f-501d-4262-8147-167fff2c0578","system_id":"levelo_inurba_marseille","lat":43.30932,"lon":5.40138,"is_reserved":false,"is_disabled":false,"rental_uris":{"android":"levelo://app?vid=d25e2e0f-501d-4262-8147-167fff2c0578","ios":"levelo://app?vid=d25e2e0f-501d-4262-8147-167fff2c0578"},"vehicle_type_id":"4","last_reported":1728677377,"current_range_meters":13600,"station_id":"ce4bgvp2rcd13ifvqct0","pricing_plan_id":"cebpf4jnsgd1na2vs0mg"},{"bike_id":"a53b276c-67b6-4397-8369-5717d22041e1","system_id":"levelo_inurba_marseille","lat":43.30885,"lon":5.39642,"is_reserved":false,"is_disabled":false,"rental_uris":{"android":"levelo://app?vid=a53b276c-67b6-4397-8369-5717d22041e1","ios":"levelo://app?vid=a53b276c-67b6-4397-8369-5717d22041e1"},"vehicle_type_id":"4","last_reported":1728677377,"current_range_meters":8800,"station_id":"ce4bh012rcd13ifvqcv0","pricing_plan_id":"cebpf4jnsgd1na2vs0mg"},{"bike_id":"81e012b7-d7e3-4524-9915-524b1b0c3063","system_id":"levelo_inurba_marseille","lat":43.29528,"lon":5.38539,"is_reserved":false,"is_disabled":false,"rental_uris":{"android":"levelo://app?vid=81e012b7-d7e3-4524-9915-524b1b0c3063","ios":"levelo://app?vid=81e012b7-d7e3-4524-9915-524b1b0c3063"},"vehicle_type_id":"4","last_reported":1728677377,"current_range_meters":40000,"station_id":"ce4bgih2rcd13ifvqba0","pricing_plan_id":"cebpf4jnsgd1na2vs0mg"},{"bike_id":"6affd992-cdc3-4c5d-ae31-a0230168bbd0","system_id":"levelo_inurba_marseille","lat":43.29016,"lon":5.38634,"is_reserved":false,"is_disabled":false,"rental_uris":{"android":"levelo://app?vid=6affd992-cdc3-4c5d-ae31-a0230168bbd0","ios":"levelo://app?vid=6affd992-cdc3-4c5d-ae31-a0230168bbd0"},"vehicle_type_id":"4","last_reported":1728677377,"current_range_meters":37600,"station_id":"ce4bh4p2rcd13ifvqe0g","pricing_plan_id":"cebpf4jnsgd1na2vs0mg"},{"bike_id":"7e17e0a9-4fdb-4bcd-86a0-b09bd881164a","system_id":"levelo_inurba_marseille","lat":43.29844,"lon":5.36267,"is_reserved":false,"is_disabled":false,"rental_uris":{"android":"levelo://app?vid=7e17e0a9-4fdb-4bcd-86a0-b09bd881164a","ios":"levelo://app?vid=7e17e0a9-4fdb-4bcd-86a0-b09bd881164a"},"vehicle_type_id":"4","last_reported":1728677377,"current_range_meters":38800,"station_id":"ce4bgpp2rcd13ifvqc3g","pricing_plan_id":"cebpf4jnsgd1na2vs0mg"},{"bike_id":"6f584b3d-197f-4d10-af82-9db1953950a0","system_id":"levelo_inurba_marseille","lat":43.3046,"lon":5.37907,"is_reserved":false,"is_disabled":false,"rental_uris":{"android":"levelo://app?vid=6f584b3d-197f-4d10-af82-9db1953950a0","ios":"levelo://app?vid=6f584b3d-197f-4d10-af82-9db1953950a0"},"vehicle_type_id":"4","last_reported":1728677377,"current_range_meters":27600,"station_id":"ce4bgup2rcd13ifvqcn0","pricing_plan_id":"cebpf4jnsgd1na2vs0mg"},{"bike_id":"d0c0a522-65a3-4dea-a0f2-7cd670839071","system_id":"levelo_inurba_marseille","lat":43.29846,"lon":5.36294,"is_reserved":false,"is_disabled":false,"rental_uris":{"android":"levelo://app?vid=d0c0a522-65a3-4dea-a0f2-7cd670839071","ios":"levelo://app?vid=d0c0a522-65a3-4dea-a0f2-7cd670839071"},"vehicle_type_id":"4","last_reported":1728677377,"current_range_meters":10000,"station_id":"ce4bgpp2rcd13ifvqc3g","pricing_plan_id":"cebpf4jnsgd1na2vs0mg"},{"bike_id":"5f96e22d-1b81-41b7-b5a6-82504d81e5b6","system_id":"levelo_inurba_marseille","lat":43.29092,"lon":5.38124,"is_reserved":false,"is_disabled":false,"rental_uris":{"android":"levelo://app?vid=5f96e22d-1b81-41b7-b5a6-82504d81e5b6","ios":"levelo://app?vid=5f96e22d-1b81-41b7-b5a6-82504d81e5b6"},"vehicle_type_id":"4","last_reported":1728677377,"current_range_meters":8800,"station_id":"ce4bh512rcd13ifvqe2g","pricing_plan_id":"cebpf4jnsgd1na2vs0mg"},{"bike_id":"a27554a6-a50a-485f-8f1f-4487a4aa2e01","system_id":"levelo_inurba_marseille","lat":43.30595,"lon":5.38075,"is_reserved":false,"is_disabled":false,"rental_uris":{"android":"levelo://app?vid=a27554a6-a50a-485f-8f1f-4487a4aa2e01","ios":"levelo://app?vid=a27554a6-a50a-485f-8f1f-4487a4aa2e01"},"vehicle_type_id":"4","last_reported":1728677377,"current_range_meters":30000,"station_id":"","pricing_plan_id":"cebpf4jnsgd1na2vs0mg"},{"bike_id":"48bc30b5-e4af-4161-bffb-f6c86be9bf5f","system_id":"levelo_inurba_marseille","lat":43.29451,"lon":5.38674,"is_reserved":false,"is_disabled":false,"rental_uris":{"android":"levelo://app?vid=48bc30b5-e4af-4161-bffb-f6c86be9bf5f","ios":"levelo://app?vid=48bc30b5-e4af-4161-bffb-f6c86be9bf5f"},"vehicle_type_id":"4","last_reported":1728677377,"current_range_meters":28000,"station_id":"","pricing_plan_id":"cebpf4jnsgd1na2vs0mg"},{"bike_id":"549aa92d-1d57-4f68-860e-b86ca10a5955","system_id":"levelo_inurba_marseille","lat":43.32288,"lon":5.38279,"is_reserved":false,"is_disabled":false,"rental_uris":{"android":"levelo://app?vid=549aa92d-1d57-4f68-860e-b86ca10a5955","ios":"levelo://app?vid=549aa92d-1d57-4f68-860e-b86ca10a5955"},"vehicle_type_id":"4","last_reported":1728677377,"current_range_meters":33600,"station_id":"ce4bhr12rcd13ifvqhqg","pricing_plan_id":"cebpf4jnsgd1na2vs0mg"},{"bike_id":"7fc623bd-4762-4893-b6b9-579bb07b3496","system_id":"levelo_inurba_marseille","lat":43.29846,"lon":5.36273,"is_reserved":false,"is_disabled":false,"rental_uris":{"android":"levelo://app?vid=7fc623bd-4762-4893-b6b9-579bb07b3496","ios":"levelo://app?vid=7fc623bd-4762-4893-b6b9-579bb07b3496"},"vehicle_type_id":"4","last_reported":1728677377,"current_range_meters":28000,"station_id":"ce4bgpp2rcd13ifvqc3g","pricing_plan_id":"cebpf4jnsgd1na2vs0mg"},{"bike_id":"8d4fa04b-4062-460e-b516-8963625f5487","system_id":"levelo_inurba_marseille","lat":43.31081,"lon":5.42427,"is_reserved":false,"is_disabled":false,"rental_uris":{"android":"levelo://app?vid=8d4fa04b-4062-460e-b516-8963625f5487","ios":"levelo://app?vid=8d4fa04b-4062-460e-b516-8963625f5487"},"vehicle_type_id":"4","last_reported":1728677377,"current_range_meters":24400,"station_id":"ce4bhp92rcd13ifvqhag","pricing_plan_id":"cebpf4jnsgd1na2vs0mg"},{"bike_id":"e2c630b6-3b40-42ed-8ba9-670ce807433e","system_id":"levelo_inurba_marseille","lat":43.29851,"lon":5.36289,"is_reserved":false,"is_disabled":false,"rental_uris":{"android":"levelo://app?vid=e2c630b6-3b40-42ed-8ba9-670ce807433e","ios":"levelo://app?vid=e2c630b6-3b40-42ed-8ba9-670ce807433e"},"vehicle_type_id":"4","last_reported":1728677377,"current_range_meters":7200,"station_id":"ce4bgpp2rcd13ifvqc3g","pricing_plan_id":"cebpf4jnsgd1na2vs0mg"},{"bike_id":"f6dd0664-e207-4f2e-ad7f-55634896cfa2","system_id":"levelo_inurba_marseille","lat":43.29685,"lon":5.37294,"is_reserved":false,"is_disabled":false,"rental_uris":{"android":"levelo://app?vid=f6dd0664-e207-4f2e-ad7f-55634896cfa2","ios":"levelo://app?vid=f6dd0664-e207-4f2e-ad7f-55634896cfa2"},"vehicle_type_id":"4","last_reported":1728677377,"current_range_meters":38800,"station_id":"ce4bgk12rcd13ifvqbj0","pricing_plan_id":"cebpf4jnsgd1na2vs0mg"},{"bike_id":"2357662e-cfdb-4136-a0ba-9f0dde8d5fcf","system_id":"levelo_inurba_marseille","lat":43.29566,"lon":5.39965,"is_reserved":false,"is_disabled":false,"rental_uris":{"android":"levelo://app?vid=2357662e-cfdb-4136-a0ba-9f0dde8d5fcf","ios":"levelo://app?vid=2357662e-cfdb-4136-a0ba-9f0dde8d5fcf"},"vehicle_type_id":"4","last_reported":1728677377,"current_range_meters":9600,"station_id":"ce4bh312rcd13ifvqdj0","pricing_plan_id":"cebpf4jnsgd1na2vs0mg"},{"bike_id":"13134300-176b-41e8-a3a5-87d4dbc2a6bf","system_id":"levelo_inurba_marseille","lat":43.28666,"lon":5.38686,"is_reserved":false,"is_disabled":false,"rental_uris":{"android":"levelo://app?vid=13134300-176b-41e8-a3a5-87d4dbc2a6bf","ios":"levelo://app?vid=13134300-176b-41e8-a3a5-87d4dbc2a6bf"},"vehicle_type_id":"4","last_reported":1728677377,"current_range_meters":14000,"station_id":"ce4bh492rcd13ifvqdug","pricing_plan_id":"cebpf4jnsgd1na2vs0mg"},{"bike_id":"f8881785-8a38-4506-9a43-884fc2f8d071","system_id":"levelo_inurba_marseille","lat":43.28,"lon":5.40004,"is_reserved":false,"is_disabled":false,"rental_uris":{"android":"levelo://app?vid=f8881785-8a38-4506-9a43-884fc2f8d071","ios":"levelo://app?vid=f8881785-8a38-4506-9a43-884fc2f8d071"},"vehicle_type_id":"4","last_reported":1728677377,"current_range_meters":38800,"station_id":"ce4bho92rcd13ifvqh4g","pricing_plan_id":"cebpf4jnsgd1na2vs0mg"},{"bike_id":"6540a123-ccaa-4b24-9613-8783114da7df","system_id":"levelo_inurba_marseille","lat":43.29676,"lon":5.37302,"is_reserved":false,"is_disabled":false,"rental_uris":{"android":"levelo://app?vid=6540a123-ccaa-4b24-9613-8783114da7df","ios":"levelo://app?vid=6540a123-ccaa-4b24-9613-8783114da7df"},"vehicle_type_id":"4","last_reported":1728677377,"current_range_meters":38400,"station_id":"ce4bgk12rcd13ifvqbj0","pricing_plan_id":"cebpf4jnsgd1na2vs0mg"},{"bike_id":"efa141e5-cf91-42ee-ac3b-6b44dc641ab6","system_id":"levelo_inurba_marseille","lat":43.24667,"lon":5.38171,"is_reserved":false,"is_disabled":false,"rental_uris":{"android":"levelo://app?vid=efa141e5-cf91-42ee-ac3b-6b44dc641ab6","ios":"levelo://app?vid=efa141e5-cf91-42ee-ac3b-6b44dc641ab6"},"vehicle_type_id":"4","last_reported":1728677377,"current_range_meters":38800,"station_id":"ce4bhih2rcd13ifvqfr0","pricing_plan_id":"cebpf4jnsgd1na2vs0mg"},{"bike_id":"c2e79cca-368f-4087-b8d5-a2d0e523d27f","system_id":"levelo_inurba_marseille","lat":43.2861,"lon":5.35107,"is_reserved":false,"is_disabled":false,"rental_uris":{"android":"levelo://app?vid=c2e79cca-368f-4087-b8d5-a2d0e523d27f","ios":"levelo://app?vid=c2e79cca-368f-4087-b8d5-a2d0e523d27f"},"vehicle_type_id":"4","last_reported":1728677377,"current_range_meters":24400,"station_id":"ce4bhch2rcd13ifvqeug","pricing_plan_id":"cebpf4jnsgd1na2vs0mg"},{"bike_id":"b429b5fa-4876-4397-b355-fb9aebc0d665","system_id":"levelo_inurba_marseille","lat":43.30247,"lon":5.40063,"is_reserved":false,"is_disabled":false,"rental_uris":{"android":"levelo://app?vid=b429b5fa-4876-4397-b355-fb9aebc0d665","ios":"levelo://app?vid=b429b5fa-4876-4397-b355-fb9aebc0d665"},"vehicle_type_id":"4","last_reported":1728677377,"current_range_meters":14800,"station_id":"ce4bgvh2rcd13ifvqcs0","pricing_plan_id":"cebpf4jnsgd1na2vs0mg"},{"bike_id":"adc6fb73-26d8-43e9-bcdf-7f2c452796b6","system_id":"levelo_inurba_marseille","lat":43.32382,"lon":5.38917,"is_reserved":false,"is_disabled":false,"rental_uris":{"android":"levelo://app?vid=adc6fb73-26d8-43e9-bcdf-7f2c452796b6","ios":"levelo://app?vid=adc6fb73-26d8-43e9-bcdf-7f2c452796b6"},"vehicle_type_id":"4","last_reported":1728677377,"current_range_meters":4400,"station_id":"ce4bhqp2rcd13ifvqhog","pricing_plan_id":"cebpf4jnsgd1na2vs0mg"},{"bike_id":"4b9bd4d0-9572-44b5-88cf-1dc6a8233bf1","system_id":"levelo_inurba_marseille","lat":43.2987,"lon":5.38912,"is_reserved":false,"is_disabled":false,"rental_uris":{"android":"levelo://app?vid=4b9bd4d0-9572-44b5-88cf-1dc6a8233bf1","ios":"levelo://app?vid=4b9bd4d0-9572-44b5-88cf-1dc6a8233bf1"},"vehicle_type_id":"4","last_reported":1728677377,"current_range_meters":15200,"station_id":"ce4bh392rcd13ifvqdl0","pricing_plan_id":"cebpf4jnsgd1na2vs0mg"},{"bike_id":"fa788d65-ef44-407c-8d29-e3cbbca2e385","system_id":"levelo_inurba_marseille","lat":43.32298,"lon":5.38236,"is_reserved":false,"is_disabled":false,"rental_uris":{"android":"levelo://app?vid=fa788d65-ef44-407c-8d29-e3cbbca2e385","ios":"levelo://app?vid=fa788d65-ef44-407c-8d29-e3cbbca2e385"},"vehicle_type_id":"4","last_reported":1728677377,"current_range_meters":5600,"station_id":"ce4bhr12rcd13ifvqhqg","pricing_plan_id":"cebpf4jnsgd1na2vs0mg"},{"bike_id":"352b9015-2d95-4f60-b45b-ff842974749e","system_id":"levelo_inurba_marseille","lat":43.29845,"lon":5.36268,"is_reserved":false,"is_disabled":false,"rental_uris":{"android":"levelo://app?vid=352b9015-2d95-4f60-b45b-ff842974749e","ios":"levelo://app?vid=352b9015-2d95-4f60-b45b-ff842974749e"},"vehicle_type_id":"4","last_reported":1728677377,"current_range_meters":24000,"station_id":"ce4bgpp2rcd13ifvqc3g","pricing_plan_id":"cebpf4jnsgd1na2vs0mg"},{"bike_id":"894a75d0-521c-4663-8fe2-360fa961f387","system_id":"levelo_inurba_marseille","lat":43.27995,"lon":5.40009,"is_reserved":false,"is_disabled":false,"rental_uris":{"android":"levelo://app?vid=894a75d0-521c-4663-8fe2-360fa961f387","ios":"levelo://app?vid=894a75d0-521c-4663-8fe2-360fa961f387"},"vehicle_type_id":"4","last_reported":1728677377,"current_range_meters":19600,"station_id":"ce4bho92rcd13ifvqh4g","pricing_plan_id":"cebpf4jnsgd1na2vs0mg"},{"bike_id":"87c5257a-e956-4321-a659-aef4cc46035c","system_id":"levelo_inurba_marseille","lat":43.32289,"lon":5.38276,"is_reserved":false,"is_disabled":false,"rental_uris":{"android":"levelo://app?vid=87c5257a-e956-4321-a659-aef4cc46035c","ios":"levelo://app?vid=87c5257a-e956-4321-a659-aef4cc46035c"},"vehicle_type_id":"4","last_reported":1728677377,"current_range_meters":8000,"station_id":"ce4bhr12rcd13ifvqhqg","pricing_plan_id":"cebpf4jnsgd1na2vs0mg"},{"bike_id":"e1f0166a-928e-466d-bc44-bfb8f064dad7","system_id":"levelo_inurba_marseille","lat":43.28359,"lon":5.38105,"is_reserved":false,"is_disabled":false,"rental_uris":{"android":"levelo://app?vid=e1f0166a-928e-466d-bc44-bfb8f064dad7","ios":"levelo://app?vid=e1f0166a-928e-466d-bc44-bfb8f064dad7"},"vehicle_type_id":"4","last_reported":1728677377,"current_range_meters":30800,"station_id":"ce4bh412rcd13ifvqdr0","pricing_plan_id":"cebpf4jnsgd1na2vs0mg"},{"bike_id":"23365f93-295a-4982-bc56-1d5e8857e07e","system_id":"levelo_inurba_marseille","lat":43.29539,"lon":5.38544,"is_reserved":false,"is_disabled":false,"rental_uris":{"android":"levelo://app?vid=23365f93-295a-4982-bc56-1d5e8857e07e","ios":"levelo://app?vid=23365f93-295a-4982-bc56-1d5e8857e07e"},"vehicle_type_id":"4","last_reported":1728677377,"current_range_meters":38800,"station_id":"ce4bgih2rcd13ifvqba0","pricing_plan_id":"cebpf4jnsgd1na2vs0mg"},{"bike_id":"da811281-808c-4db7-a107-d527c0894e57","system_id":"levelo_inurba_marseille","lat":43.29517,"lon":5.38944,"is_reserved":false,"is_disabled":false,"rental_uris":{"android":"levelo://app?vid=da811281-808c-4db7-a107-d527c0894e57","ios":"levelo://app?vid=da811281-808c-4db7-a107-d527c0894e57"},"vehicle_type_id":"4","last_reported":1728677377,"current_range_meters":30000,"station_id":"","pricing_plan_id":"cebpf4jnsgd1na2vs0mg"},{"bike_id":"0b070ac9-0518-4a2a-9eb8-e5b09c8b0af9","system_id":"levelo_inurba_marseille","lat":43.29161,"lon":5.37161,"is_reserved":false,"is_disabled":false,"rental_uris":{"android":"levelo://app?vid=0b070ac9-0518-4a2a-9eb8-e5b09c8b0af9","ios":"levelo://app?vid=0b070ac9-0518-4a2a-9eb8-e5b09c8b0af9"},"vehicle_type_id":"4","last_reported":1728677377,"current_range_meters":38800,"station_id":"ce4bha92rcd13ifvqeh0","pricing_plan_id":"cebpf4jnsgd1na2vs0mg"},{"bike_id":"1a0ddab3-5260-40c3-a774-f2cebd63408d","system_id":"levelo_inurba_marseille","lat":43.27999,"lon":5.40008,"is_reserved":false,"is_disabled":false,"rental_uris":{"android":"levelo://app?vid=1a0ddab3-5260-40c3-a774-f2cebd63408d","ios":"levelo://app?vid=1a0ddab3-5260-40c3-a774-f2cebd63408d"},"vehicle_type_id":"4","last_reported":1728677377,"current_range_meters":17600,"station_id":"ce4bho92rcd13ifvqh4g","pricing_plan_id":"cebpf4jnsgd1na2vs0mg"},{"bike_id":"473ae646-d043-4853-9639-1e837b890635","system_id":"levelo_inurba_marseille","lat":43.27993,"lon":5.40006,"is_reserved":false,"is_disabled":false,"rental_uris":{"android":"levelo://app?vid=473ae646-d043-4853-9639-1e837b890635","ios":"levelo://app?vid=473ae646-d043-4853-9639-1e837b890635"},"vehicle_type_id":"4","last_reported":1728677377,"current_range_meters":25600,"station_id":"ce4bho92rcd13ifvqh4g","pricing_plan_id":"cebpf4jnsgd1na2vs0mg"},{"bike_id":"1a8baeb4-1c8d-4820-9350-b4438a94ce12","system_id":"levelo_inurba_marseille","lat":43.29631,"lon":5.40598,"is_reserved":false,"is_disabled":false,"rental_uris":{"android":"levelo://app?vid=1a8baeb4-1c8d-4820-9350-b4438a94ce12","ios":"levelo://app?vid=1a8baeb4-1c8d-4820-9350-b4438a94ce12"},"vehicle_type_id":"4","last_reported":1728677377,"current_range_meters":36400,"station_id":"ce4bh0h2rcd13ifvqd60","pricing_plan_id":"cebpf4jnsgd1na2vs0mg"},{"bike_id":"eb8fd73c-c6fc-4685-bf40-ff17f5553ae3","system_id":"levelo_inurba_marseille","lat":43.29519,"lon":5.39399,"is_reserved":false,"is_disabled":false,"rental_uris":{"android":"levelo://app?vid=eb8fd73c-c6fc-4685-bf40-ff17f5553ae3","ios":"levelo://app?vid=eb8fd73c-c6fc-4685-bf40-ff17f5553ae3"},"vehicle_type_id":"4","last_reported":1728677377,"current_range_meters":8800,"station_id":"ce4bh292rcd13ifvqdf0","pricing_plan_id":"cebpf4jnsgd1na2vs0mg"},{"bike_id":"b0d4400f-60cf-40d3-84ca-10e631bbb7a3","system_id":"levelo_inurba_marseille","lat":43.29784,"lon":5.37093,"is_reserved":false,"is_disabled":false,"rental_uris":{"android":"levelo://app?vid=b0d4400f-60cf-40d3-84ca-10e631bbb7a3","ios":"levelo://app?vid=b0d4400f-60cf-40d3-84ca-10e631bbb7a3"},"vehicle_type_id":"4","last_reported":1728677377,"current_range_meters":40000,"station_id":"ce4bgop2rcd13ifvqc1g","pricing_plan_id":"cebpf4jnsgd1na2vs0mg"},{"bike_id":"0dfada49-df75-45e2-9152-65c8c56d9104","system_id":"levelo_inurba_marseille","lat":43.3088,"lon":5.39659,"is_reserved":false,"is_disabled":false,"rental_uris":{"android":"levelo://app?vid=0dfada49-df75-45e2-9152-65c8c56d9104","ios":"levelo://app?vid=0dfada49-df75-45e2-9152-65c8c56d9104"},"vehicle_type_id":"4","last_reported":1728677377,"current_range_meters":40000,"station_id":"ce4bh012rcd13ifvqcv0","pricing_plan_id":"cebpf4jnsgd1na2vs0mg"},{"bike_id":"1b4c1de9-6641-49b6-b34f-61e066f9b496","system_id":"levelo_inurba_marseille","lat":43.30331,"lon":5.4044,"is_reserved":false,"is_disabled":false,"rental_uris":{"android":"levelo://app?vid=1b4c1de9-6641-49b6-b34f-61e066f9b496","ios":"levelo://app?vid=1b4c1de9-6641-49b6-b34f-61e066f9b496"},"vehicle_type_id":"4","last_reported":1728677377,"current_range_meters":28800,"station_id":"ce4bh012rcd13ifvqd10","pricing_plan_id":"cebpf4jnsgd1na2vs0mg"},{"bike_id":"8c9a5779-48c6-4a49-b87c-4b9241d4f44b","system_id":"levelo_inurba_marseille","lat":43.337444,"lon":5.374475,"is_reserved":false,"is_disabled":false,"rental_uris":{"android":"levelo://app?vid=8c9a5779-48c6-4a49-b87c-4b9241d4f44b","ios":"levelo://app?vid=8c9a5779-48c6-4a49-b87c-4b9241d4f44b"},"vehicle_type_id":"4","last_reported":1728677377,"current_range_meters":9600,"station_id":"","pricing_plan_id":"cebpf4jnsgd1na2vs0mg"},{"bike_id":"2883466d-09c6-4135-bc1e-06e0a33d5ce1","system_id":"levelo_inurba_marseille","lat":43.305575,"lon":5.374761,"is_reserved":false,"is_disabled":false,"rental_uris":{"android":"levelo://app?vid=2883466d-09c6-4135-bc1e-06e0a33d5ce1","ios":"levelo://app?vid=2883466d-09c6-4135-bc1e-06e0a33d5ce1"},"vehicle_type_id":"4","last_reported":1728677377,"current_range_meters":25200,"station_id":"ce4bgrp2rcd13ifvqc9g","pricing_plan_id":"cebpf4jnsgd1na2vs0mg"},{"bike_id":"987076c8-e06c-41b1-81e7-12d0fc65e1b0","system_id":"levelo_inurba_marseille","lat":43.29802,"lon":5.38103,"is_reserved":false,"is_disabled":false,"rental_uris":{"android":"levelo://app?vid=987076c8-e06c-41b1-81e7-12d0fc65e1b0","ios":"levelo://app?vid=987076c8-e06c-41b1-81e7-12d0fc65e1b0"},"vehicle_type_id":"4","last_reported":1728677377,"current_range_meters":4000,"station_id":"ce4bgip2rcd13ifvqbb0","pricing_plan_id":"cebpf4jnsgd1na2vs0mg"},{"bike_id":"9b99305d-23b9-47da-8af9-44ac9b663db0","system_id":"levelo_inurba_marseille","lat":43.298918,"lon":5.436738,"is_reserved":false,"is_disabled":false,"rental_uris":{"android":"levelo://app?vid=9b99305d-23b9-47da-8af9-44ac9b663db0","ios":"levelo://app?vid=9b99305d-23b9-47da-8af9-44ac9b663db0"},"vehicle_type_id":"4","last_reported":1728677377,"current_range_meters":26800,"station_id":"ce4bhpp2rcd13ifvqhfg","pricing_plan_id":"cebpf4jnsgd1na2vs0mg"},{"bike_id":"1a53a9d2-dc59-4d67-925a-323b5ce6021f","system_id":"levelo_inurba_marseille","lat":43.29853,"lon":5.36283,"is_reserved":false,"is_disabled":false,"rental_uris":{"android":"levelo://app?vid=1a53a9d2-dc59-4d67-925a-323b5ce6021f","ios":"levelo://app?vid=1a53a9d2-dc59-4d67-925a-323b5ce6021f"},"vehicle_type_id":"4","last_reported":1728677377,"current_range_meters":36800,"station_id":"ce4bgpp2rcd13ifvqc3g","pricing_plan_id":"cebpf4jnsgd1na2vs0mg"},{"bike_id":"fe8bfe5f-6b56-4544-a987-9773c5b6594d","system_id":"levelo_inurba_marseille","lat":43.337444,"lon":5.374475,"is_reserved":false,"is_disabled":false,"rental_uris":{"android":"levelo://app?vid=fe8bfe5f-6b56-4544-a987-9773c5b6594d","ios":"levelo://app?vid=fe8bfe5f-6b56-4544-a987-9773c5b6594d"},"vehicle_type_id":"4","last_reported":1728677377,"current_range_meters":35200,"station_id":"","pricing_plan_id":"cebpf4jnsgd1na2vs0mg"},{"bike_id":"fe900bb2-b4c4-426b-8892-68daffd49028","system_id":"levelo_inurba_marseille","lat":43.27995,"lon":5.4002,"is_reserved":false,"is_disabled":false,"rental_uris":{"android":"levelo://app?vid=fe900bb2-b4c4-426b-8892-68daffd49028","ios":"levelo://app?vid=fe900bb2-b4c4-426b-8892-68daffd49028"},"vehicle_type_id":"4","last_reported":1728677377,"current_range_meters":39200,"station_id":"ce4bho92rcd13ifvqh4g","pricing_plan_id":"cebpf4jnsgd1na2vs0mg"},{"bike_id":"e57c82ed-6c61-45c3-9b74-fdc51981f3ff","system_id":"levelo_inurba_marseille","lat":43.29577,"lon":5.36742,"is_reserved":false,"is_disabled":false,"rental_uris":{"android":"levelo://app?vid=e57c82ed-6c61-45c3-9b74-fdc51981f3ff","ios":"levelo://app?vid=e57c82ed-6c61-45c3-9b74-fdc51981f3ff"},"vehicle_type_id":"4","last_reported":1728677377,"current_range_meters":12400,"station_id":"ce4bgph2rcd13ifvqc2g","pricing_plan_id":"cebpf4jnsgd1na2vs0mg"},{"bike_id":"3e420923-759f-4a36-bf0c-5ad37161427b","system_id":"levelo_inurba_marseille","lat":43.29374,"lon":5.37858,"is_reserved":false,"is_disabled":false,"rental_uris":{"android":"levelo://app?vid=3e420923-759f-4a36-bf0c-5ad37161427b","ios":"levelo://app?vid=3e420923-759f-4a36-bf0c-5ad37161427b"},"vehicle_type_id":"4","last_reported":1728677377,"current_range_meters":38000,"station_id":"ce4bgjh2rcd13ifvqbf0","pricing_plan_id":"cebpf4jnsgd1na2vs0mg"},{"bike_id":"8ab3d457-1235-47d3-936c-08dead5a7a6b","system_id":"levelo_inurba_marseille","lat":43.265503,"lon":5.372866,"is_reserved":false,"is_disabled":false,"rental_uris":{"android":"levelo://app?vid=8ab3d457-1235-47d3-936c-08dead5a7a6b","ios":"levelo://app?vid=8ab3d457-1235-47d3-936c-08dead5a7a6b"},"vehicle_type_id":"4","last_reported":1728677377,"current_range_meters":16800,"station_id":"","pricing_plan_id":"cebpf4jnsgd1na2vs0mg"},{"bike_id":"cdd26d21-81eb-4333-8d7f-3457b5a7caf2","system_id":"levelo_inurba_marseille","lat":43.33025,"lon":5.39048,"is_reserved":false,"is_disabled":false,"rental_uris":{"android":"levelo://app?vid=cdd26d21-81eb-4333-8d7f-3457b5a7caf2","ios":"levelo://app?vid=cdd26d21-81eb-4333-8d7f-3457b5a7caf2"},"vehicle_type_id":"4","last_reported":1728677377,"current_range_meters":29600,"station_id":"ce4bhr92rcd13ifvqhrg","pricing_plan_id":"cebpf4jnsgd1na2vs0mg"},{"bike_id":"f5dafa58-0eac-46fc-85fa-8451a2fcc577","system_id":"levelo_inurba_marseille","lat":43.294415,"lon":5.39755,"is_reserved":false,"is_disabled":false,"rental_uris":{"android":"levelo://app?vid=f5dafa58-0eac-46fc-85fa-8451a2fcc577","ios":"levelo://app?vid=f5dafa58-0eac-46fc-85fa-8451a2fcc577"},"vehicle_type_id":"4","last_reported":1728677377,"current_range_meters":24000,"station_id":"ce4bh3h2rcd13ifvqdo0","pricing_plan_id":"cebpf4jnsgd1na2vs0mg"},{"bike_id":"99ae7392-b483-42a2-97f0-1896c3d00393","system_id":"levelo_inurba_marseille","lat":43.299069,"lon":5.381477,"is_reserved":false,"is_disabled":false,"rental_uris":{"android":"levelo://app?vid=99ae7392-b483-42a2-97f0-1896c3d00393","ios":"levelo://app?vid=99ae7392-b483-42a2-97f0-1896c3d00393"},"vehicle_type_id":"4","last_reported":1728677377,"current_range_meters":28800,"station_id":"ce4bgj12rcd13ifvqbc0","pricing_plan_id":"cebpf4jnsgd1na2vs0mg"},{"bike_id":"2815b799-7dfe-47ee-a6b1-2d5838a77212","system_id":"levelo_inurba_marseille","lat":43.24662,"lon":5.38164,"is_reserved":false,"is_disabled":false,"rental_uris":{"android":"levelo://app?vid=2815b799-7dfe-47ee-a6b1-2d5838a77212","ios":"levelo://app?vid=2815b799-7dfe-47ee-a6b1-2d5838a77212"},"vehicle_type_id":"4","last_reported":1728677377,"current_range_meters":37600,"station_id":"ce4bhih2rcd13ifvqfr0","pricing_plan_id":"cebpf4jnsgd1na2vs0mg"},{"bike_id":"2f56efb1-549f-4acb-952f-8a7efdd07df5","system_id":"levelo_inurba_marseille","lat":43.29438,"lon":5.39749,"is_reserved":false,"is_disabled":false,"rental_uris":{"android":"levelo://app?vid=2f56efb1-549f-4acb-952f-8a7efdd07df5","ios":"levelo://app?vid=2f56efb1-549f-4acb-952f-8a7efdd07df5"},"vehicle_type_id":"4","last_reported":1728677377,"current_range_meters":6800,"station_id":"ce4bh3h2rcd13ifvqdo0","pricing_plan_id":"cebpf4jnsgd1na2vs0mg"},{"bike_id":"a726face-79a2-4391-85ea-68196c7fc9a4","system_id":"levelo_inurba_marseille","lat":43.29364,"lon":5.37843,"is_reserved":false,"is_disabled":false,"rental_uris":{"android":"levelo://app?vid=a726face-79a2-4391-85ea-68196c7fc9a4","ios":"levelo://app?vid=a726face-79a2-4391-85ea-68196c7fc9a4"},"vehicle_type_id":"4","last_reported":1728677377,"current_range_meters":39200,"station_id":"ce4bgjh2rcd13ifvqbf0","pricing_plan_id":"cebpf4jnsgd1na2vs0mg"},{"bike_id":"e90dd59a-3bb3-4c19-876f-002973cf406c","system_id":"levelo_inurba_marseille","lat":43.29419,"lon":5.3863,"is_reserved":false,"is_disabled":false,"rental_uris":{"android":"levelo://app?vid=e90dd59a-3bb3-4c19-876f-002973cf406c","ios":"levelo://app?vid=e90dd59a-3bb3-4c19-876f-002973cf406c"},"vehicle_type_id":"4","last_reported":1728677377,"current_range_meters":16400,"station_id":"ce4bh2h2rcd13ifvqdh0","pricing_plan_id":"cebpf4jnsgd1na2vs0mg"},{"bike_id":"cf267305-6249-4eb8-90aa-59475429b72c","system_id":"levelo_inurba_marseille","lat":43.284363,"lon":5.380653,"is_reserved":false,"is_disabled":false,"rental_uris":{"android":"levelo://app?vid=cf267305-6249-4eb8-90aa-59475429b72c","ios":"levelo://app?vid=cf267305-6249-4eb8-90aa-59475429b72c"},"vehicle_type_id":"4","last_reported":1728677377,"current_range_meters":12400,"station_id":"ce4bh412rcd13ifvqdr0","pricing_plan_id":"cebpf4jnsgd1na2vs0mg"},{"bike_id":"2023895c-7eca-4274-ae2a-3a8271ae0b84","system_id":"levelo_inurba_marseille","lat":43.31275,"lon":5.40181,"is_reserved":false,"is_disabled":false,"rental_uris":{"android":"levelo://app?vid=2023895c-7eca-4274-ae2a-3a8271ae0b84","ios":"levelo://app?vid=2023895c-7eca-4274-ae2a-3a8271ae0b84"},"vehicle_type_id":"4","last_reported":1728677377,"current_range_meters":26000,"station_id":"ce4bh092rcd13ifvqd30","pricing_plan_id":"cebpf4jnsgd1na2vs0mg"},{"bike_id":"160f8c56-abe2-43c3-930d-e96a6b1169e0","system_id":"levelo_inurba_marseille","lat":43.2961,"lon":5.38108,"is_reserved":false,"is_disabled":false,"rental_uris":{"android":"levelo://app?vid=160f8c56-abe2-43c3-930d-e96a6b1169e0","ios":"levelo://app?vid=160f8c56-abe2-43c3-930d-e96a6b1169e0"},"vehicle_type_id":"4","last_reported":1728677377,"current_range_meters":4000,"station_id":"ce4bgl12rcd13ifvqbo0","pricing_plan_id":"cebpf4jnsgd1na2vs0mg"},{"bike_id":"281e987c-3d72-4d7e-93b1-b6ae52705f2e","system_id":"levelo_inurba_marseille","lat":43.29528,"lon":5.38538,"is_reserved":false,"is_disabled":false,"rental_uris":{"android":"levelo://app?vid=281e987c-3d72-4d7e-93b1-b6ae52705f2e","ios":"levelo://app?vid=281e987c-3d72-4d7e-93b1-b6ae52705f2e"},"vehicle_type_id":"4","last_reported":1728677377,"current_range_meters":38000,"station_id":"ce4bgih2rcd13ifvqba0","pricing_plan_id":"cebpf4jnsgd1na2vs0mg"},{"bike_id":"772817e7-3c1e-4e0a-b229-a90129b9c5b2","system_id":"levelo_inurba_marseille","lat":43.25002,"lon":5.38921,"is_reserved":false,"is_disabled":false,"rental_uris":{"android":"levelo://app?vid=772817e7-3c1e-4e0a-b229-a90129b9c5b2","ios":"levelo://app?vid=772817e7-3c1e-4e0a-b229-a90129b9c5b2"},"vehicle_type_id":"4","last_reported":1728677377,"current_range_meters":15200,"station_id":"ce4bhgp2rcd13ifvqfd0","pricing_plan_id":"cebpf4jnsgd1na2vs0mg"},{"bike_id":"d3e75cce-fa27-408c-ae2e-1ae81506d5be","system_id":"levelo_inurba_marseille","lat":43.31341,"lon":5.40236,"is_reserved":false,"is_disabled":false,"rental_uris":{"android":"levelo://app?vid=d3e75cce-fa27-408c-ae2e-1ae81506d5be","ios":"levelo://app?vid=d3e75cce-fa27-408c-ae2e-1ae81506d5be"},"vehicle_type_id":"4","last_reported":1728677377,"current_range_meters":38800,"station_id":"","pricing_plan_id":"cebpf4jnsgd1na2vs0mg"},{"bike_id":"a46673cf-4928-49cb-8c44-9f668342015a","system_id":"levelo_inurba_marseille","lat":43.33021,"lon":5.39036,"is_reserved":false,"is_disabled":false,"rental_uris":{"android":"levelo://app?vid=a46673cf-4928-49cb-8c44-9f668342015a","ios":"levelo://app?vid=a46673cf-4928-49cb-8c44-9f668342015a"},"vehicle_type_id":"4","last_reported":1728677377,"current_range_meters":39200,"station_id":"ce4bhr92rcd13ifvqhrg","pricing_plan_id":"cebpf4jnsgd1na2vs0mg"},{"bike_id":"04297339-b0e6-4e0c-ba57-2ecfb29a6f77","system_id":"levelo_inurba_marseille","lat":43.23186,"lon":5.39997,"is_reserved":false,"is_disabled":false,"rental_uris":{"android":"levelo://app?vid=04297339-b0e6-4e0c-ba57-2ecfb29a6f77","ios":"levelo://app?vid=04297339-b0e6-4e0c-ba57-2ecfb29a6f77"},"vehicle_type_id":"4","last_reported":1728677377,"current_range_meters":27600,"station_id":"ce4bhn12rcd13ifvqgqg","pricing_plan_id":"cebpf4jnsgd1na2vs0mg"},{"bike_id":"bae1b2f5-cdc1-43c9-87d8-f718f594906e","system_id":"levelo_inurba_marseille","lat":43.2917,"lon":5.37162,"is_reserved":false,"is_disabled":false,"rental_uris":{"android":"levelo://app?vid=bae1b2f5-cdc1-43c9-87d8-f718f594906e","ios":"levelo://app?vid=bae1b2f5-cdc1-43c9-87d8-f718f594906e"},"vehicle_type_id":"4","last_reported":1728677377,"current_range_meters":24000,"station_id":"ce4bha92rcd13ifvqeh0","pricing_plan_id":"cebpf4jnsgd1na2vs0mg"},{"bike_id":"3758c66e-410c-4587-ac08-a52558547f6d","system_id":"levelo_inurba_marseille","lat":43.28002,"lon":5.40022,"is_reserved":false,"is_disabled":false,"rental_uris":{"android":"levelo://app?vid=3758c66e-410c-4587-ac08-a52558547f6d","ios":"levelo://app?vid=3758c66e-410c-4587-ac08-a52558547f6d"},"vehicle_type_id":"4","last_reported":1728677377,"current_range_meters":10000,"station_id":"ce4bho92rcd13ifvqh4g","pricing_plan_id":"cebpf4jnsgd1na2vs0mg"},{"bike_id":"cc561aab-29d7-4528-b29c-c79887c6c13b","system_id":"levelo_inurba_marseille","lat":43.3229,"lon":5.38266,"is_reserved":false,"is_disabled":false,"rental_uris":{"android":"levelo://app?vid=cc561aab-29d7-4528-b29c-c79887c6c13b","ios":"levelo://app?vid=cc561aab-29d7-4528-b29c-c79887c6c13b"},"vehicle_type_id":"4","last_reported":1728677377,"current_range_meters":6000,"station_id":"ce4bhr12rcd13ifvqhqg","pricing_plan_id":"cebpf4jnsgd1na2vs0mg"},{"bike_id":"65d863d6-7add-488f-be68-08315dfb87e4","system_id":"levelo_inurba_marseille","lat":43.30884,"lon":5.39648,"is_reserved":false,"is_disabled":false,"rental_uris":{"android":"levelo://app?vid=65d863d6-7add-488f-be68-08315dfb87e4","ios":"levelo://app?vid=65d863d6-7add-488f-be68-08315dfb87e4"},"vehicle_type_id":"4","last_reported":1728677377,"current_range_meters":20400,"station_id":"ce4bh012rcd13ifvqcv0","pricing_plan_id":"cebpf4jnsgd1na2vs0mg"},{"bike_id":"4466009b-142c-4f7d-ba3b-305d45752cea","system_id":"levelo_inurba_marseille","lat":43.2689,"lon":5.40377,"is_reserved":false,"is_disabled":false,"rental_uris":{"android":"levelo://app?vid=4466009b-142c-4f7d-ba3b-305d45752cea","ios":"levelo://app?vid=4466009b-142c-4f7d-ba3b-305d45752cea"},"vehicle_type_id":"4","last_reported":1728677377,"current_range_meters":28400,"station_id":"ce4bhnh2rcd13ifvqgug","pricing_plan_id":"cebpf4jnsgd1na2vs0mg"},{"bike_id":"9d291118-9f98-4a15-875a-b13339272cec","system_id":"levelo_inurba_marseille","lat":43.30923,"lon":5.40144,"is_reserved":false,"is_disabled":false,"rental_uris":{"android":"levelo://app?vid=9d291118-9f98-4a15-875a-b13339272cec","ios":"levelo://app?vid=9d291118-9f98-4a15-875a-b13339272cec"},"vehicle_type_id":"4","last_reported":1728677377,"current_range_meters":32400,"station_id":"ce4bgr92rcd13ifvqc6g","pricing_plan_id":"cebpf4jnsgd1na2vs0mg"},{"bike_id":"8b7ab842-69d3-4ac6-aa5d-12b329fba0fd","system_id":"levelo_inurba_marseille","lat":43.29098,"lon":5.38123,"is_reserved":false,"is_disabled":false,"rental_uris":{"android":"levelo://app?vid=8b7ab842-69d3-4ac6-aa5d-12b329fba0fd","ios":"levelo://app?vid=8b7ab842-69d3-4ac6-aa5d-12b329fba0fd"},"vehicle_type_id":"4","last_reported":1728677377,"current_range_meters":32400,"station_id":"ce4bh512rcd13ifvqe2g","pricing_plan_id":"cebpf4jnsgd1na2vs0mg"},{"bike_id":"3b913273-8588-4331-bfff-b6089ce32b6c","system_id":"levelo_inurba_marseille","lat":43.295959,"lon":5.381135,"is_reserved":false,"is_disabled":false,"rental_uris":{"android":"levelo://app?vid=3b913273-8588-4331-bfff-b6089ce32b6c","ios":"levelo://app?vid=3b913273-8588-4331-bfff-b6089ce32b6c"},"vehicle_type_id":"4","last_reported":1728677377,"current_range_meters":27200,"station_id":"ce4bhs12rcd13ifvqhvg","pricing_plan_id":"cebpf4jnsgd1na2vs0mg"},{"bike_id":"9088d917-5e44-461a-af28-2eb43d158bb2","system_id":"levelo_inurba_marseille","lat":43.28029,"lon":5.36945,"is_reserved":false,"is_disabled":false,"rental_uris":{"android":"levelo://app?vid=9088d917-5e44-461a-af28-2eb43d158bb2","ios":"levelo://app?vid=9088d917-5e44-461a-af28-2eb43d158bb2"},"vehicle_type_id":"4","last_reported":1728677377,"current_range_meters":31200,"station_id":"ce4bha12rcd13ifvqef0","pricing_plan_id":"cebpf4jnsgd1na2vs0mg"},{"bike_id":"4842f991-2d99-4ea8-a23b-a6e29bba7638","system_id":"levelo_inurba_marseille","lat":43.27372,"lon":5.36263,"is_reserved":false,"is_disabled":false,"rental_uris":{"android":"levelo://app?vid=4842f991-2d99-4ea8-a23b-a6e29bba7638","ios":"levelo://app?vid=4842f991-2d99-4ea8-a23b-a6e29bba7638"},"vehicle_type_id":"4","last_reported":1728677377,"current_range_meters":30400,"station_id":"ce4bhbh2rcd13ifvqeo0","pricing_plan_id":"cebpf4jnsgd1na2vs0mg"},{"bike_id":"72c0a8f8-76f7-40ed-9bf1-ff6488ec2e9f","system_id":"levelo_inurba_marseille","lat":43.31536,"lon":5.38035,"is_reserved":false,"is_disabled":false,"rental_uris":{"android":"levelo://app?vid=72c0a8f8-76f7-40ed-9bf1-ff6488ec2e9f","ios":"levelo://app?vid=72c0a8f8-76f7-40ed-9bf1-ff6488ec2e9f"},"vehicle_type_id":"4","last_reported":1728677377,"current_range_meters":38000,"station_id":"ce4bhsp2rcd13ifvqi50","pricing_plan_id":"cebpf4jnsgd1na2vs0mg"},{"bike_id":"57a8a4e4-fb43-474f-af8c-fa1abb87ecef","system_id":"levelo_inurba_marseille","lat":43.33022,"lon":5.39039,"is_reserved":false,"is_disabled":false,"rental_uris":{"android":"levelo://app?vid=57a8a4e4-fb43-474f-af8c-fa1abb87ecef","ios":"levelo://app?vid=57a8a4e4-fb43-474f-af8c-fa1abb87ecef"},"vehicle_type_id":"4","last_reported":1728677377,"current_range_meters":38000,"station_id":"ce4bhr92rcd13ifvqhrg","pricing_plan_id":"cebpf4jnsgd1na2vs0mg"},{"bike_id":"df0f8ce5-e716-43dd-8e18-79cb8dbf2fde","system_id":"levelo_inurba_marseille","lat":43.32,"lon":5.38153,"is_reserved":false,"is_disabled":false,"rental_uris":{"android":"levelo://app?vid=df0f8ce5-e716-43dd-8e18-79cb8dbf2fde","ios":"levelo://app?vid=df0f8ce5-e716-43dd-8e18-79cb8dbf2fde"},"vehicle_type_id":"4","last_reported":1728677377,"current_range_meters":38000,"station_id":"ce4bhr12rcd13ifvqhpg","pricing_plan_id":"cebpf4jnsgd1na2vs0mg"},{"bike_id":"17a689be-8074-44f9-9192-fa01e84cdd64","system_id":"levelo_inurba_marseille","lat":43.27986,"lon":5.40008,"is_reserved":false,"is_disabled":false,"rental_uris":{"android":"levelo://app?vid=17a689be-8074-44f9-9192-fa01e84cdd64","ios":"levelo://app?vid=17a689be-8074-44f9-9192-fa01e84cdd64"},"vehicle_type_id":"4","last_reported":1728677377,"current_range_meters":14400,"station_id":"ce4bho92rcd13ifvqh4g","pricing_plan_id":"cebpf4jnsgd1na2vs0mg"},{"bike_id":"69ad88b8-19bf-40e5-b4a4-2d24965b971a","system_id":"levelo_inurba_marseille","lat":43.29844,"lon":5.36275,"is_reserved":false,"is_disabled":false,"rental_uris":{"android":"levelo://app?vid=69ad88b8-19bf-40e5-b4a4-2d24965b971a","ios":"levelo://app?vid=69ad88b8-19bf-40e5-b4a4-2d24965b971a"},"vehicle_type_id":"4","last_reported":1728677377,"current_range_meters":6800,"station_id":"ce4bgpp2rcd13ifvqc3g","pricing_plan_id":"cebpf4jnsgd1na2vs0mg"},{"bike_id":"55797a07-6395-492a-b065-82d379780959","system_id":"levelo_inurba_marseille","lat":43.29442,"lon":5.39757,"is_reserved":false,"is_disabled":false,"rental_uris":{"android":"levelo://app?vid=55797a07-6395-492a-b065-82d379780959","ios":"levelo://app?vid=55797a07-6395-492a-b065-82d379780959"},"vehicle_type_id":"4","last_reported":1728677377,"current_range_meters":2800,"station_id":"ce4bh3h2rcd13ifvqdo0","pricing_plan_id":"cebpf4jnsgd1na2vs0mg"},{"bike_id":"7e73a51d-b63f-4f09-8578-1b75adaf1184","system_id":"levelo_inurba_marseille","lat":43.29526,"lon":5.38552,"is_reserved":false,"is_disabled":false,"rental_uris":{"android":"levelo://app?vid=7e73a51d-b63f-4f09-8578-1b75adaf1184","ios":"levelo://app?vid=7e73a51d-b63f-4f09-8578-1b75adaf1184"},"vehicle_type_id":"4","last_reported":1728677377,"current_range_meters":3600,"station_id":"ce4bgih2rcd13ifvqba0","pricing_plan_id":"cebpf4jnsgd1na2vs0mg"},{"bike_id":"68faa981-278b-44c0-9226-7968a8e7efee","system_id":"levelo_inurba_marseille","lat":43.27991,"lon":5.40014,"is_reserved":false,"is_disabled":false,"rental_uris":{"android":"levelo://app?vid=68faa981-278b-44c0-9226-7968a8e7efee","ios":"levelo://app?vid=68faa981-278b-44c0-9226-7968a8e7efee"},"vehicle_type_id":"4","last_reported":1728677377,"current_range_meters":30000,"station_id":"ce4bho92rcd13ifvqh4g","pricing_plan_id":"cebpf4jnsgd1na2vs0mg"},{"bike_id":"4467a861-ba3e-4726-8de3-644e0d9126ff","system_id":"levelo_inurba_marseille","lat":43.30595,"lon":5.37213,"is_reserved":false,"is_disabled":false,"rental_uris":{"android":"levelo://app?vid=4467a861-ba3e-4726-8de3-644e0d9126ff","ios":"levelo://app?vid=4467a861-ba3e-4726-8de3-644e0d9126ff"},"vehicle_type_id":"4","last_reported":1728677377,"current_range_meters":17600,"station_id":"ce4bgqh2rcd13ifvqc4g","pricing_plan_id":"cebpf4jnsgd1na2vs0mg"},{"bike_id":"600a6ea5-5c70-4f25-9b57-c621b8210681","system_id":"levelo_inurba_marseille","lat":43.32658,"lon":5.40986,"is_reserved":false,"is_disabled":false,"rental_uris":{"android":"levelo://app?vid=600a6ea5-5c70-4f25-9b57-c621b8210681","ios":"levelo://app?vid=600a6ea5-5c70-4f25-9b57-c621b8210681"},"vehicle_type_id":"4","last_reported":1728677377,"current_range_meters":36800,"station_id":"ce4bhpp2rcd13ifvqhgg","pricing_plan_id":"cebpf4jnsgd1na2vs0mg"},{"bike_id":"8a101fcc-a915-40ba-ba7c-026aad1ac3c7","system_id":"levelo_inurba_marseille","lat":43.29414,"lon":5.38616,"is_reserved":false,"is_disabled":false,"rental_uris":{"android":"levelo://app?vid=8a101fcc-a915-40ba-ba7c-026aad1ac3c7","ios":"levelo://app?vid=8a101fcc-a915-40ba-ba7c-026aad1ac3c7"},"vehicle_type_id":"4","last_reported":1728677377,"current_range_meters":18800,"station_id":"ce4bh2h2rcd13ifvqdh0","pricing_plan_id":"cebpf4jnsgd1na2vs0mg"},{"bike_id":"619dafe7-445e-49f1-b95d-f6bc9426917e","system_id":"levelo_inurba_marseille","lat":43.27913,"lon":5.39591,"is_reserved":false,"is_disabled":false,"rental_uris":{"android":"levelo://app?vid=619dafe7-445e-49f1-b95d-f6bc9426917e","ios":"levelo://app?vid=619dafe7-445e-49f1-b95d-f6bc9426917e"},"vehicle_type_id":"4","last_reported":1728677377,"current_range_meters":12800,"station_id":"ce4bhf92rcd13ifvqf40","pricing_plan_id":"cebpf4jnsgd1na2vs0mg"},{"bike_id":"7b6baa85-f647-4dbc-bee4-af88f44a8bf2","system_id":"levelo_inurba_marseille","lat":43.22924,"lon":5.35377,"is_reserved":false,"is_disabled":false,"rental_uris":{"android":"levelo://app?vid=7b6baa85-f647-4dbc-bee4-af88f44a8bf2","ios":"levelo://app?vid=7b6baa85-f647-4dbc-bee4-af88f44a8bf2"},"vehicle_type_id":"4","last_reported":1728677377,"current_range_meters":23200,"station_id":"cpo3532slgdg3j2ikp40","pricing_plan_id":"cebpf4jnsgd1na2vs0mg"},{"bike_id":"a348a31a-1297-452b-9521-78d694a6e3f5","system_id":"levelo_inurba_marseille","lat":43.29415,"lon":5.38611,"is_reserved":false,"is_disabled":false,"rental_uris":{"android":"levelo://app?vid=a348a31a-1297-452b-9521-78d694a6e3f5","ios":"levelo://app?vid=a348a31a-1297-452b-9521-78d694a6e3f5"},"vehicle_type_id":"4","last_reported":1728677377,"current_range_meters":38800,"station_id":"ce4bh2h2rcd13ifvqdh0","pricing_plan_id":"cebpf4jnsgd1na2vs0mg"},{"bike_id":"f0a77b82-857d-4097-8bce-d7772c914601","system_id":"levelo_inurba_marseille","lat":43.27991,"lon":5.40012,"is_reserved":false,"is_disabled":false,"rental_uris":{"android":"levelo://app?vid=f0a77b82-857d-4097-8bce-d7772c914601","ios":"levelo://app?vid=f0a77b82-857d-4097-8bce-d7772c914601"},"vehicle_type_id":"4","last_reported":1728677377,"current_range_meters":25600,"station_id":"ce4bho92rcd13ifvqh4g","pricing_plan_id":"cebpf4jnsgd1na2vs0mg"},{"bike_id":"30e7d33d-e258-4432-bd01-ddafb22fd1ba","system_id":"levelo_inurba_marseille","lat":43.31995,"lon":5.38157,"is_reserved":false,"is_disabled":false,"rental_uris":{"android":"levelo://app?vid=30e7d33d-e258-4432-bd01-ddafb22fd1ba","ios":"levelo://app?vid=30e7d33d-e258-4432-bd01-ddafb22fd1ba"},"vehicle_type_id":"4","last_reported":1728677377,"current_range_meters":39200,"station_id":"ce4bhr12rcd13ifvqhpg","pricing_plan_id":"cebpf4jnsgd1na2vs0mg"},{"bike_id":"1d17c895-cef0-42d1-a377-0deb6768f522","system_id":"levelo_inurba_marseille","lat":43.29532,"lon":5.38542,"is_reserved":false,"is_disabled":false,"rental_uris":{"android":"levelo://app?vid=1d17c895-cef0-42d1-a377-0deb6768f522","ios":"levelo://app?vid=1d17c895-cef0-42d1-a377-0deb6768f522"},"vehicle_type_id":"4","last_reported":1728677377,"current_range_meters":8000,"station_id":"ce4bgih2rcd13ifvqba0","pricing_plan_id":"cebpf4jnsgd1na2vs0mg"},{"bike_id":"3c25dded-f8d5-4193-a336-9fad641c4aac","system_id":"levelo_inurba_marseille","lat":43.33766,"lon":5.37447,"is_reserved":false,"is_disabled":false,"rental_uris":{"android":"levelo://app?vid=3c25dded-f8d5-4193-a336-9fad641c4aac","ios":"levelo://app?vid=3c25dded-f8d5-4193-a336-9fad641c4aac"},"vehicle_type_id":"4","last_reported":1728677377,"current_range_meters":10800,"station_id":"","pricing_plan_id":"cebpf4jnsgd1na2vs0mg"},{"bike_id":"8e8570da-95ac-46ab-9211-ea0fd2916536","system_id":"levelo_inurba_marseille","lat":43.28699,"lon":5.39987,"is_reserved":false,"is_disabled":false,"rental_uris":{"android":"levelo://app?vid=8e8570da-95ac-46ab-9211-ea0fd2916536","ios":"levelo://app?vid=8e8570da-95ac-46ab-9211-ea0fd2916536"},"vehicle_type_id":"4","last_reported":1728677377,"current_range_meters":36400,"station_id":"ce4bho92rcd13ifvqh3g","pricing_plan_id":"cebpf4jnsgd1na2vs0mg"},{"bike_id":"f22edef2-00fd-4f8c-b1a2-09fab6675b5d","system_id":"levelo_inurba_marseille","lat":43.23187,"lon":5.3998,"is_reserved":false,"is_disabled":false,"rental_uris":{"android":"levelo://app?vid=f22edef2-00fd-4f8c-b1a2-09fab6675b5d","ios":"levelo://app?vid=f22edef2-00fd-4f8c-b1a2-09fab6675b5d"},"vehicle_type_id":"4","last_reported":1728677377,"current_range_meters":4000,"station_id":"ce4bhn12rcd13ifvqgqg","pricing_plan_id":"cebpf4jnsgd1na2vs0mg"},{"bike_id":"7975faaf-f260-41c7-87cd-147b9a3b3ebf","system_id":"levelo_inurba_marseille","lat":43.23057,"lon":5.35488,"is_reserved":false,"is_disabled":false,"rental_uris":{"android":"levelo://app?vid=7975faaf-f260-41c7-87cd-147b9a3b3ebf","ios":"levelo://app?vid=7975faaf-f260-41c7-87cd-147b9a3b3ebf"},"vehicle_type_id":"4","last_reported":1728677377,"current_range_meters":11600,"station_id":"cpo3342slgdg3j2ifvpg","pricing_plan_id":"cebpf4jnsgd1na2vs0mg"},{"bike_id":"daa9a70c-6b73-469b-b6cf-915b527dba7b","system_id":"levelo_inurba_marseille","lat":43.27996,"lon":5.40006,"is_reserved":false,"is_disabled":false,"rental_uris":{"android":"levelo://app?vid=daa9a70c-6b73-469b-b6cf-915b527dba7b","ios":"levelo://app?vid=daa9a70c-6b73-469b-b6cf-915b527dba7b"},"vehicle_type_id":"4","last_reported":1728677377,"current_range_meters":32800,"station_id":"ce4bho92rcd13ifvqh4g","pricing_plan_id":"cebpf4jnsgd1na2vs0mg"},{"bike_id":"438a9dbd-1bd2-4b15-905a-6f0a9eb8bb9b","system_id":"levelo_inurba_marseille","lat":43.30552,"lon":5.36701,"is_reserved":false,"is_disabled":false,"rental_uris":{"android":"levelo://app?vid=438a9dbd-1bd2-4b15-905a-6f0a9eb8bb9b","ios":"levelo://app?vid=438a9dbd-1bd2-4b15-905a-6f0a9eb8bb9b"},"vehicle_type_id":"4","last_reported":1728677377,"current_range_meters":37600,"station_id":"ce4bgrp2rcd13ifvqc9g","pricing_plan_id":"cebpf4jnsgd1na2vs0mg"},{"bike_id":"703d5faf-e8f5-42e8-a15c-36acb1ae64d2","system_id":"levelo_inurba_marseille","lat":43.22934,"lon":5.3538,"is_reserved":false,"is_disabled":false,"rental_uris":{"android":"levelo://app?vid=703d5faf-e8f5-42e8-a15c-36acb1ae64d2","ios":"levelo://app?vid=703d5faf-e8f5-42e8-a15c-36acb1ae64d2"},"vehicle_type_id":"4","last_reported":1728677377,"current_range_meters":37600,"station_id":"cpo3532slgdg3j2ikp40","pricing_plan_id":"cebpf4jnsgd1na2vs0mg"},{"bike_id":"2ef5a713-e4cb-4135-abad-24675da93d0d","system_id":"levelo_inurba_marseille","lat":43.29528,"lon":5.38544,"is_reserved":false,"is_disabled":false,"rental_uris":{"android":"levelo://app?vid=2ef5a713-e4cb-4135-abad-24675da93d0d","ios":"levelo://app?vid=2ef5a713-e4cb-4135-abad-24675da93d0d"},"vehicle_type_id":"4","last_reported":1728677377,"current_range_meters":38000,"station_id":"ce4bgih2rcd13ifvqba0","pricing_plan_id":"cebpf4jnsgd1na2vs0mg"},{"bike_id":"dab45887-6424-4a1d-9b88-5b2f062e1eb5","system_id":"levelo_inurba_marseille","lat":43.31322,"lon":5.39695,"is_reserved":false,"is_disabled":false,"rental_uris":{"android":"levelo://app?vid=dab45887-6424-4a1d-9b88-5b2f062e1eb5","ios":"levelo://app?vid=dab45887-6424-4a1d-9b88-5b2f062e1eb5"},"vehicle_type_id":"4","last_reported":1728677377,"current_range_meters":36800,"station_id":"ce4bgvp2rcd13ifvqcu0","pricing_plan_id":"cebpf4jnsgd1na2vs0mg"},{"bike_id":"f4dd2ff9-b3d8-48df-adcc-9f38a9d143e0","system_id":"levelo_inurba_marseille","lat":43.29562,"lon":5.39969,"is_reserved":false,"is_disabled":false,"rental_uris":{"android":"levelo://app?vid=f4dd2ff9-b3d8-48df-adcc-9f38a9d143e0","ios":"levelo://app?vid=f4dd2ff9-b3d8-48df-adcc-9f38a9d143e0"},"vehicle_type_id":"4","last_reported":1728677377,"current_range_meters":8000,"station_id":"ce4bh312rcd13ifvqdj0","pricing_plan_id":"cebpf4jnsgd1na2vs0mg"},{"bike_id":"a9dcdd16-9599-4f0d-ad5b-ba43bb072194","system_id":"levelo_inurba_marseille","lat":43.27996,"lon":5.40003,"is_reserved":false,"is_disabled":false,"rental_uris":{"android":"levelo://app?vid=a9dcdd16-9599-4f0d-ad5b-ba43bb072194","ios":"levelo://app?vid=a9dcdd16-9599-4f0d-ad5b-ba43bb072194"},"vehicle_type_id":"4","last_reported":1728677377,"current_range_meters":8000,"station_id":"ce4bho92rcd13ifvqh4g","pricing_plan_id":"cebpf4jnsgd1na2vs0mg"},{"bike_id":"0affb511-11e4-4062-b2b6-78c70f605970","system_id":"levelo_inurba_marseille","lat":43.23831,"lon":5.36561,"is_reserved":false,"is_disabled":false,"rental_uris":{"android":"levelo://app?vid=0affb511-11e4-4062-b2b6-78c70f605970","ios":"levelo://app?vid=0affb511-11e4-4062-b2b6-78c70f605970"},"vehicle_type_id":"4","last_reported":1728677377,"current_range_meters":6400,"station_id":"","pricing_plan_id":"cebpf4jnsgd1na2vs0mg"},{"bike_id":"2f850830-77c7-4f29-b3a4-8e1d998b053f","system_id":"levelo_inurba_marseille","lat":43.32292,"lon":5.38271,"is_reserved":false,"is_disabled":false,"rental_uris":{"android":"levelo://app?vid=2f850830-77c7-4f29-b3a4-8e1d998b053f","ios":"levelo://app?vid=2f850830-77c7-4f29-b3a4-8e1d998b053f"},"vehicle_type_id":"4","last_reported":1728677377,"current_range_meters":25200,"station_id":"ce4bhr12rcd13ifvqhqg","pricing_plan_id":"cebpf4jnsgd1na2vs0mg"},{"bike_id":"3db09d88-d313-4cb5-9395-e3b5b65c65a6","system_id":"levelo_inurba_marseille","lat":43.2799,"lon":5.40011,"is_reserved":false,"is_disabled":false,"rental_uris":{"android":"levelo://app?vid=3db09d88-d313-4cb5-9395-e3b5b65c65a6","ios":"levelo://app?vid=3db09d88-d313-4cb5-9395-e3b5b65c65a6"},"vehicle_type_id":"4","last_reported":1728677377,"current_range_meters":29600,"station_id":"ce4bho92rcd13ifvqh4g","pricing_plan_id":"cebpf4jnsgd1na2vs0mg"},{"bike_id":"abe37124-7501-4bfe-9c94-83acf7f7c277","system_id":"levelo_inurba_marseille","lat":43.2984,"lon":5.36266,"is_reserved":false,"is_disabled":false,"rental_uris":{"android":"levelo://app?vid=abe37124-7501-4bfe-9c94-83acf7f7c277","ios":"levelo://app?vid=abe37124-7501-4bfe-9c94-83acf7f7c277"},"vehicle_type_id":"4","last_reported":1728677377,"current_range_meters":36400,"station_id":"ce4bgpp2rcd13ifvqc3g","pricing_plan_id":"cebpf4jnsgd1na2vs0mg"},{"bike_id":"2002a9cd-0145-4f54-945f-c5006d759081","system_id":"levelo_inurba_marseille","lat":43.29786,"lon":5.37105,"is_reserved":false,"is_disabled":false,"rental_uris":{"android":"levelo://app?vid=2002a9cd-0145-4f54-945f-c5006d759081","ios":"levelo://app?vid=2002a9cd-0145-4f54-945f-c5006d759081"},"vehicle_type_id":"4","last_reported":1728677377,"current_range_meters":38000,"station_id":"ce4bgop2rcd13ifvqc1g","pricing_plan_id":"cebpf4jnsgd1na2vs0mg"},{"bike_id":"56d643c5-1233-4606-95b4-337bb127a47a","system_id":"levelo_inurba_marseille","lat":43.25862,"lon":5.39897,"is_reserved":false,"is_disabled":false,"rental_uris":{"android":"levelo://app?vid=56d643c5-1233-4606-95b4-337bb127a47a","ios":"levelo://app?vid=56d643c5-1233-4606-95b4-337bb127a47a"},"vehicle_type_id":"4","last_reported":1728677377,"current_range_meters":36800,"station_id":"ce4bhl92rcd13ifvqghg","pricing_plan_id":"cebpf4jnsgd1na2vs0mg"},{"bike_id":"4c6d104c-578b-42dd-9868-6f8ae896012a","system_id":"levelo_inurba_marseille","lat":43.24178,"lon":5.3973,"is_reserved":false,"is_disabled":false,"rental_uris":{"android":"levelo://app?vid=4c6d104c-578b-42dd-9868-6f8ae896012a","ios":"levelo://app?vid=4c6d104c-578b-42dd-9868-6f8ae896012a"},"vehicle_type_id":"4","last_reported":1728677377,"current_range_meters":39200,"station_id":"ce4bhn12rcd13ifvqgpg","pricing_plan_id":"cebpf4jnsgd1na2vs0mg"},{"bike_id":"fcd8c9aa-e8f0-4ddc-894d-94608cdef61b","system_id":"levelo_inurba_marseille","lat":43.29434,"lon":5.39753,"is_reserved":false,"is_disabled":false,"rental_uris":{"android":"levelo://app?vid=fcd8c9aa-e8f0-4ddc-894d-94608cdef61b","ios":"levelo://app?vid=fcd8c9aa-e8f0-4ddc-894d-94608cdef61b"},"vehicle_type_id":"4","last_reported":1728677377,"current_range_meters":28400,"station_id":"ce4bh3h2rcd13ifvqdo0","pricing_plan_id":"cebpf4jnsgd1na2vs0mg"},{"bike_id":"ef2dedd6-dcc0-4c88-9645-83e6ac99310c","system_id":"levelo_inurba_marseille","lat":43.26786,"lon":5.39415,"is_reserved":false,"is_disabled":false,"rental_uris":{"android":"levelo://app?vid=ef2dedd6-dcc0-4c88-9645-83e6ac99310c","ios":"levelo://app?vid=ef2dedd6-dcc0-4c88-9645-83e6ac99310c"},"vehicle_type_id":"4","last_reported":1728677377,"current_range_meters":8800,"station_id":"ce4bhh12rcd13ifvqfg0","pricing_plan_id":"cebpf4jnsgd1na2vs0mg"},{"bike_id":"08cde6e7-146c-469f-989a-6761992705ef","system_id":"levelo_inurba_marseille","lat":43.30269,"lon":5.40072,"is_reserved":false,"is_disabled":false,"rental_uris":{"android":"levelo://app?vid=08cde6e7-146c-469f-989a-6761992705ef","ios":"levelo://app?vid=08cde6e7-146c-469f-989a-6761992705ef"},"vehicle_type_id":"4","last_reported":1728677377,"current_range_meters":38800,"station_id":"ce4bgvh2rcd13ifvqcs0","pricing_plan_id":"cebpf4jnsgd1na2vs0mg"},{"bike_id":"efd9b357-4f2e-410c-a416-6a9d1cc077d8","system_id":"levelo_inurba_marseille","lat":43.23187,"lon":5.39981,"is_reserved":false,"is_disabled":false,"rental_uris":{"android":"levelo://app?vid=efd9b357-4f2e-410c-a416-6a9d1cc077d8","ios":"levelo://app?vid=efd9b357-4f2e-410c-a416-6a9d1cc077d8"},"vehicle_type_id":"4","last_reported":1728677377,"current_range_meters":19600,"station_id":"ce4bhn12rcd13ifvqgqg","pricing_plan_id":"cebpf4jnsgd1na2vs0mg"},{"bike_id":"dbef97ea-a0e6-4907-b3ec-b93c9375800e","system_id":"levelo_inurba_marseille","lat":43.29892,"lon":5.4367,"is_reserved":false,"is_disabled":false,"rental_uris":{"android":"levelo://app?vid=dbef97ea-a0e6-4907-b3ec-b93c9375800e","ios":"levelo://app?vid=dbef97ea-a0e6-4907-b3ec-b93c9375800e"},"vehicle_type_id":"4","last_reported":1728677377,"current_range_meters":14800,"station_id":"ce4bhpp2rcd13ifvqhfg","pricing_plan_id":"cebpf4jnsgd1na2vs0mg"},{"bike_id":"eb112d1e-c3a9-46d1-8ee0-d81a14c1fc7c","system_id":"levelo_inurba_marseille","lat":43.29935,"lon":5.36552,"is_reserved":false,"is_disabled":false,"rental_uris":{"android":"levelo://app?vid=eb112d1e-c3a9-46d1-8ee0-d81a14c1fc7c","ios":"levelo://app?vid=eb112d1e-c3a9-46d1-8ee0-d81a14c1fc7c"},"vehicle_type_id":"4","last_reported":1728677377,"current_range_meters":38800,"station_id":"ce4bgm92rcd13ifvqbr0","pricing_plan_id":"cebpf4jnsgd1na2vs0mg"},{"bike_id":"83da2fb7-7db3-4786-aba2-5013ffeeb7a9","system_id":"levelo_inurba_marseille","lat":43.29844,"lon":5.36274,"is_reserved":false,"is_disabled":false,"rental_uris":{"android":"levelo://app?vid=83da2fb7-7db3-4786-aba2-5013ffeeb7a9","ios":"levelo://app?vid=83da2fb7-7db3-4786-aba2-5013ffeeb7a9"},"vehicle_type_id":"4","last_reported":1728677377,"current_range_meters":22800,"station_id":"ce4bgpp2rcd13ifvqc3g","pricing_plan_id":"cebpf4jnsgd1na2vs0mg"},