{"last_updated":1735664824,"ttl":60,"version":"2.2","data":{"bikes":[{"bike_id":"e017f4bc-ffbe-406e-bc3a-41529336634b","system_id":"levelo_inurba_marseille","lat":43.28485,"lon":5.38562,"is_reserved":false,"is_disabled":false,"rental_uris":{"android":"levelo://app?vid=e017f4bc-ffbe-406e-bc3a-41529336634b","ios":"levelo://app?vid=e017f4bc-ffbe-406e-bc3a-41529336634b"},"vehicle_type_id":"4","last_reported":1735664824,"current_range_meters":30800,"station_id":"ce4bh8p2rcd13ifvqeb0","pricing_plan_id":"cebpf4jnsgd1na2vs0mg"},{"bike_id":"3d679168-c3b2-4241-8798-61c28b503184","system_id":"levelo_inurba_marseille","lat":43.26557,"lon":5.37295,"is_reserved":false,"is_disabled":false,"rental_uris":{"android":"levelo://app?vid=3d679168-c3b2-4241-8798-61c28b503184","ios":"levelo://app?vid=3d679168-c3b2-4241-8798-61c28b503184"},"vehicle_type_id":"4","last_reported":1735664824,"current_range_meters":8000,"station_id":"ce4bhg12rcd13ifvqf70","pricing_plan_id":"cebpf4jnsgd1na2vs0mg"},{"bike_id":"446d3da9-7829-402c-97cb-ca1dad65cd97","system_id":"levelo_inurba_marseille","lat":43.27169,"lon":5.409937,"is_reserved":false,"is_disabled":false,"rental_uris":{"android":"levelo://app?vid=446d3da9-7829-402c-97cb-ca1dad65cd97","ios":"levelo://app?vid=446d3da9-7829-402c-97cb-ca1dad65cd97"},"vehicle_type_id":"4","last_reported":1735664824,"current_range_meters":28800,"station_id":"ce4bhl12rcd13ifvqgf0","pricing_plan_id":"cebpf4jnsgd1na2vs0mg"},{"bike_id":"bf2ce9ab-dd92-4a5b-8da4-07f1f2f2c05d","system_id":"levelo_inurba_marseille","lat":43.25085,"lon":5.39523,"is_reserved":false,"is_disabled":false,"rental_uris":{"android":"levelo://app?vid=bf2ce9ab-dd92-4a5b-8da4-07f1f2f2c05d","ios":"levelo://app?vid=bf2ce9ab-dd92-4a5b-8da4-07f1f2f2c05d"},"vehicle_type_id":"4","last_reported":1735664824,"current_range_meters":31200,"station_id":"ce4bhm12rcd13ifvqgkg","pricing_plan_id":"cebpf4jnsgd1na2vs0mg"},{"bike_id":"30675ccc-9ef1-40b1-963e-228cee2b4741","system_id":"levelo_inurba_marseille","lat":43.27965,"lon":5.41025,"is_reserved":false,"is_disabled":true,"rental_uris":{"android":"levelo://app?vid=30675ccc-9ef1-40b1-963e-228cee2b4741","ios":"levelo://app?vid=30675ccc-9ef1-40b1-963e-228cee2b4741"},"vehicle_type_id":"4","last_reported":1735664824,"current_range_meters":24400,"station_id":"ce4bhnp2rcd13ifvqh0g","pricing_plan_id":"cebpf4jnsgd1na2vs0mg"},{"bike_id":"9f45f6aa-df3d-43dd-affd-1fb08c33b108","system_id":"levelo_inurba_marseille","lat":43.27612,"lon":5.36105,"is_reserved":false,"is_disabled":true,"rental_uris":{"android":"levelo://app?vid=9f45f6aa-df3d-43dd-affd-1fb08c33b108","ios":"levelo://app?vid=9f45f6aa-df3d-43dd-affd-1fb08c33b108"},"vehicle_type_id":"4","last_reported":1735664824,"current_range_meters":0,"station_id":"ce4bgj92rcd13ifvqbe0","pricing_plan_id":"cebpf4jnsgd1na2vs0mg"},{"bike_id":"3991aac2-ec7f-43c8-801f-23e11845f2d6","system_id":"levelo_inurba_marseille","lat":43.28156,"lon":5.42643,"is_reserved":false,"is_disabled":false,"rental_uris":{"android":"levelo://app?vid=3991aac2-ec7f-43c8-801f-23e11845f2d6","ios":"levelo://app?vid=3991aac2-ec7f-43c8-801f-23e11845f2d6"},"vehicle_type_id":"4","last_reported":1735664824,"current_range_meters":38800,"station_id":"ce4bhnh2rcd13ifvqgug","pricing_plan_id":"cebpf4jnsgd1na2vs0mg"},{"bike_id":"a84c903a-16f0-44ed-becd-c6849674ff70","system_id":"levelo_inurba_marseille","lat":43.22916,"lon":5.35371,"is_reserved":false,"is_disabled":false,"rental_uris":{"android":"levelo://app?vid=a84c903a-16f0-44ed-becd-c6849674ff70","ios":"levelo://app?vid=a84c903a-16f0-44ed-becd-c6849674ff70"},"vehicle_type_id":"4","last_reported":1735664824,"current_range_meters":8400,"station_id":"cpo3532slgdg3j2ikp40","pricing_plan_id":"cebpf4jnsgd1na2vs0mg"},{"bike_id":"76baf647-c566-4bd1-9703-dca549b73f7a","system_id":"levelo_inurba_marseille","lat":43.2836,"lon":5.3863,"is_reserved":false,"is_disabled":false,"rental_uris":{"android":"levelo://app?vid=76baf647-c566-4bd1-9703-dca549b73f7a","ios":"levelo://app?vid=76baf647-c566-4bd1-9703-dca549b73f7a"},"vehicle_type_id":"4","last_reported":1735664824,"current_range_meters":6400,"station_id":"ce4bh492rcd13ifvqdvg","pricing_plan_id":"cebpf4jnsgd1na2vs0mg"},{"bike_id":"4a606822-e9f0-4a05-b24d-aefbbf534d02","system_id":"levelo_inurba_marseille","lat":43.29047,"lon":5.35925,"is_reserved":false,"is_disabled":false,"rental_uris":{"android":"levelo://app?vid=4a606822-e9f0-4a05-b24d-aefbbf534d02","ios":"levelo://app?vid=4a606822-e9f0-4a05-b24d-aefbbf534d02"},"vehicle_type_id":"4","last_reported":1735664824,"current_range_meters":28800,"station_id":"ce4bha92rcd13ifvqeg0","pricing_plan_id":"cebpf4jnsgd1na2vs0mg"},{"bike_id":"82f13065-b493-467f-9b96-2443bd0a2c9f","system_id":"levelo_inurba_marseille","lat":43.29717,"lon":5.37703,"is_reserved":false,"is_disabled":false,"rental_uris":{"android":"levelo://app?vid=82f13065-b493-467f-9b96-2443bd0a2c9f","ios":"levelo://app?vid=82f13065-b493-467f-9b96-2443bd0a2c9f"},"vehicle_type_id":"4","last_reported":1735664824,"current_range_meters":38800,"station_id":"ce4bgkh2rcd13ifvqbl0","pricing_plan_id":"cebpf4jnsgd1na2vs0mg"},{"bike_id":"8ad09b60-3a79-4fc1-9f8d-63dc687108f3","system_id":"levelo_inurba_marseille","lat":43.337444,"lon":5.374475,"is_reserved":false,"is_disabled":false,"rental_uris":{"android":"levelo://app?vid=8ad09b60-3a79-4fc1-9f8d-63dc687108f3","ios":"levelo://app?vid=8ad09b60-3a79-4fc1-9f8d-63dc687108f3"},"vehicle_type_id":"4","last_reported":1735664824,"current_range_meters":38400,"station_id":"","pricing_plan_id":"cebpf4jnsgd1na2vs0mg"},{"bike_id":"4c628683-0a72-4994-9c4a-999d5a12f084","system_id":"levelo_inurba_marseille","lat":43.24391,"lon":5.37056,"is_reserved":false,"is_disabled":false,"rental_uris":{"android":"levelo://app?vid=4c628683-0a72-4994-9c4a-999d5a12f084","ios":"levelo://app?vid=4c628683-0a72-4994-9c4a-999d5a12f084"},"vehicle_type_id":"4","last_reported":1735664824,"current_range_meters":27600,"station_id":"ce4bhhh2rcd13ifvqfk0","pricing_plan_id":"cebpf4jnsgd1na2vs0mg"},{"bike_id":"ba4030ab-1279-4f65-ba50-3c7db62de754","system_id":"levelo_inurba_marseille","lat":43.29536,"lon":5.37501,"is_reserved":false,"is_disabled":false,"rental_uris":{"android":"levelo://app?vid=ba4030ab-1279-4f65-ba50-3c7db62de754","ios":"levelo://app?vid=ba4030ab-1279-4f65-ba50-3c7db62de754"},"vehicle_type_id":"4","last_reported":1735664824,"current_range_meters":30800,"station_id":"ce4bgkp2rcd13ifvqbmg","pricing_plan_id":"cebpf4jnsgd1na2vs0mg"},{"bike_id":"5430a545-a0f1-45ad-a500-b4193006fdcf","system_id":"levelo_inurba_marseille","lat":43.23202,"lon":5.35556,"is_reserved":false,"is_disabled":false,"rental_uris":{"android":"levelo://app?vid=5430a545-a0f1-45ad-a500-b4193006fdcf","ios":"levelo://app?vid=5430a545-a0f1-45ad-a500-b4193006fdcf"},"vehicle_type_id":"4","last_reported":1735664824,"current_range_meters":29600,"station_id":"ce4bhu92rcd13ifvqi70","pricing_plan_id":"cebpf4jnsgd1na2vs0mg"},{"bike_id":"ac9edfbd-2c81-4be2-9272-e6762f5e5829","system_id":"levelo_inurba_marseille","lat":43.29607,"lon":5.37718,"is_reserved":false,"is_disabled":false,"rental_uris":{"android":"levelo://app?vid=ac9edfbd-2c81-4be2-9272-e6762f5e5829","ios":"levelo://app?vid=ac9edfbd-2c81-4be2-9272-e6762f5e5829"},"vehicle_type_id":"4","last_reported":1735664824,"current_range_meters":35600,"station_id":"ce4bgi92rcd13ifvqb90","pricing_plan_id":"cebpf4jnsgd1na2vs0mg"},{"bike_id":"68e39612-ffc4-4e9c-a28d-8d678cad2545","system_id":"levelo_inurba_marseille","lat":43.27998,"lon":5.4167,"is_reserved":false,"is_disabled":false,"rental_uris":{"android":"levelo://app?vid=68e39612-ffc4-4e9c-a28d-8d678cad2545","ios":"levelo://app?vid=68e39612-ffc4-4e9c-a28d-8d678cad2545"},"vehicle_type_id":"4","last_reported":1735664824,"current_range_meters":10800,"station_id":"ce4bho12rcd13ifvqh1g","pricing_plan_id":"cebpf4jnsgd1na2vs0mg"},{"bike_id":"0b1ff400-6afc-4ae5-be3f-78fc6658157a","system_id":"levelo_inurba_marseille","lat":43.29268,"lon":5.38438,"is_reserved":false,"is_disabled":false,"rental_uris":{"android":"levelo://app?vid=0b1ff400-6afc-4ae5-be3f-78fc6658157a","ios":"levelo://app?vid=0b1ff400-6afc-4ae5-be3f-78fc6658157a"},"vehicle_type_id":"4","last_reported":1735664824,"current_range_meters":26800,"station_id":"ce4bh692rcd13ifvqea0","pricing_plan_id":"cebpf4jnsgd1na2vs0mg"},{"bike_id":"3f103e5d-2070-4676-a941-5ba1a2fbf7b6","system_id":"levelo_inurba_marseille","lat":43.30422,"lon":5.39751,"is_reserved":false,"is_disabled":false,"rental_uris":{"android":"levelo://app?vid=3f103e5d-2070-4676-a941-5ba1a2fbf7b6","ios":"levelo://app?vid=3f103e5d-2070-4676-a941-5ba1a2fbf7b6"},"vehicle_type_id":"4","last_reported":1735664824,"current_range_meters":31200,"station_id":"ce4bh092rcd13ifvqd20","pricing_plan_id":"cebpf4jnsgd1na2vs0mg"},{"bike_id":"b8a6ca28-4418-40df-b4c2-601df2554b3b","system_id":"levelo_inurba_marseille","lat":43.25494,"lon":5.37644,"is_reserved":false,"is_disabled":false,"rental_uris":{"android":"levelo://app?vid=b8a6ca28-4418-40df-b4c2-601df2554b3b","ios":"levelo://app?vid=b8a6ca28-4418-40df-b4c2-601df2554b3b"},"vehicle_type_id":"4","last_reported":1735664824,"current_range_meters":27200,"station_id":"ce4bhh12rcd13ifvqff0","pricing_plan_id":"cebpf4jnsgd1na2vs0mg"},{"bike_id":"d08aed72-c4aa-4b14-9e94-1554d28646fc","system_id":"levelo_inurba_marseille","lat":43.23964,"lon":5.36634,"is_reserved":false,"is_disabled":false,"rental_uris":{"android":"levelo://app?vid=d08aed72-c4aa-4b14-9e94-1554d28646fc","ios":"levelo://app?vid=d08aed72-c4aa-4b14-9e94-1554d28646fc"},"vehicle_type_id":"4","last_reported":1735664824,"current_range_meters":39200,"station_id":"ce4bhi12rcd13ifvqfp0","pricing_plan_id":"cebpf4jnsgd1na2vs0mg"},{"bike_id":"1e9e3505-f98d-4ac7-b45c-e821968c5506","system_id":"levelo_inurba_marseille","lat":43.2319,"lon":5.35544,"is_reserved":false,"is_disabled":false,"rental_uris":{"android":"levelo://app?vid=1e9e3505-f98d-4ac7-b45c-e821968c5506","ios":"levelo://app?vid=1e9e3505-f98d-4ac7-b45c-e821968c5506"},"vehicle_type_id":"4","last_reported":1735664824,"current_range_meters":16000,"station_id":"ce4bhu92rcd13ifvqi70","pricing_plan_id":"cebpf4jnsgd1na2vs0mg"},{"bike_id":"aca64c73-3970-4d23-8a6c-6e2006ffd322","system_id":"levelo_inurba_marseille","lat":43.3064,"lon":5.40081,"is_reserved":false,"is_disabled":false,"rental_uris":{"android":"levelo://app?vid=aca64c73-3970-4d23-8a6c-6e2006ffd322","ios":"levelo://app?vid=aca64c73-3970-4d23-8a6c-6e2006ffd322"},"vehicle_type_id":"4","last_reported":1735664824,"current_range_meters":19600,"station_id":"ce4bh112rcd13ifvqda0","pricing_plan_id":"cebpf4jnsgd1na2vs0mg"},{"bike_id":"29e41b02-be52-4633-b267-4292f5ed1d1a","system_id":"levelo_inurba_marseille","lat":43.25874,"lon":5.39906,"is_reserved":false,"is_disabled":false,"rental_uris":{"android":"levelo://app?vid=29e41b02-be52-4633-b267-4292f5ed1d1a","ios":"levelo://app?vid=29e41b02-be52-4633-b267-4292f5ed1d1a"},"vehicle_type_id":"4","last_reported":1735664824,"current_range_meters":8000,"station_id":"ce4bhl92rcd13ifvqghg","pricing_plan_id":"cebpf4jnsgd1na2vs0mg"},{"bike_id":"71c30a4e-3114-4009-a510-7b5e8ae70924","system_id":"levelo_inurba_marseille","lat":43.28926,"lon":5.3839,"is_reserved":false,"is_disabled":false,"rental_uris":{"android":"levelo://app?vid=71c30a4e-3114-4009-a510-7b5e8ae70924","ios":"levelo://app?vid=71c30a4e-3114-4009-a510-7b5e8ae70924"},"vehicle_type_id":"4","last_reported":1735664824,"current_range_meters":13600,"station_id":"ce4bh612rcd13ifvqe6g","pricing_plan_id":"cebpf4jnsgd1na2vs0mg"},{"bike_id":"37b5c94a-c717-42bf-b960-d5cd6c7e2be3","system_id":"levelo_inurba_marseille","lat":43.29563,"lon":5.42257,"is_reserved":false,"is_disabled":false,"rental_uris":{"android":"levelo://app?vid=37b5c94a-c717-42bf-b960-d5cd6c7e2be3","ios":"levelo://app?vid=37b5c94a-c717-42bf-b960-d5cd6c7e2be3"},"vehicle_type_id":"4","last_reported":1735664824,"current_range_meters":38000,"station_id":"ce4bhph2rcd13ifvqhdg","pricing_plan_id":"cebpf4jnsgd1na2vs0mg"},{"bike_id":"1a9b2eeb-f0a3-407f-b4e7-08b3978f6a73","system_id":"levelo_inurba_marseille","lat":43.27168,"lon":5.40993,"is_reserved":false,"is_disabled":false,"rental_uris":{"android":"levelo://app?vid=1a9b2eeb-f0a3-407f-b4e7-08b3978f6a73","ios":"levelo://app?vid=1a9b2eeb-f0a3-407f-b4e7-08b3978f6a73"},"vehicle_type_id":"4","last_reported":1735664824,"current_range_meters":38000,"station_id":"ce4bhl12rcd13ifvqgf0","pricing_plan_id":"cebpf4jnsgd1na2vs0mg"},{"bike_id":"ff49d49a-53c3-499a-b296-89a67f332a8a","system_id":"levelo_inurba_marseille","lat":43.24175,"lon":5.36391,"is_reserved":false,"is_disabled":false,"rental_uris":{"android":"levelo://app?vid=ff49d49a-53c3-499a-b296-89a67f332a8a","ios":"levelo://app?vid=ff49d49a-53c3-499a-b296-89a67f332a8a"},"vehicle_type_id":"4","last_reported":1735664824,"current_range_meters":36000,"station_id":"cpo36qri1sfpv3e86is0","pricing_plan_id":"cebpf4jnsgd1na2vs0mg"},{"bike_id":"10e4b9b4-8ec8-49cf-9335-5919fa302eb0","system_id":"levelo_inurba_marseille","lat":43.28672,"lon":5.36346,"is_reserved":false,"is_disabled":false,"rental_uris":{"android":"levelo://app?vid=10e4b9b4-8ec8-49cf-9335-5919fa302eb0","ios":"levelo://app?vid=10e4b9b4-8ec8-49cf-9335-5919fa302eb0"},"vehicle_type_id":"4","last_reported":1735664824,"current_range_meters":38000,"station_id":"ce4bhah2rcd13ifvqej0","pricing_plan_id":"cebpf4jnsgd1na2vs0mg"},{"bike_id":"d841d641-2f56-46e3-be38-87db9829533f","system_id":"levelo_inurba_marseille","lat":43.27812,"lon":5.40694,"is_reserved":false,"is_disabled":false,"rental_uris":{"android":"levelo://app?vid=d841d641-2f56-46e3-be38-87db9829533f","ios":"levelo://app?vid=d841d641-2f56-46e3-be38-87db9829533f"},"vehicle_type_id":"4","last_reported":1735664824,"current_range_meters":26800,"station_id":"ce4bhnh2rcd13ifvqgtg","pricing_plan_id":"cebpf4jnsgd1na2vs0mg"},{"bike_id":"04f419f8-ed98-45fd-bc53-7929f4826c27","system_id":"levelo_inurba_marseille","lat":43.25932,"lon":5.40912,"is_reserved":false,"is_disabled":false,"rental_uris":{"android":"levelo://app?vid=04f419f8-ed98-45fd-bc53-7929f4826c27","ios":"levelo://app?vid=04f419f8-ed98-45fd-bc53-7929f4826c27"},"vehicle_type_id":"4","last_reported":1735664824,"current_range_meters":32800,"station_id":"ce4bhm92rcd13ifvqglg","pricing_plan_id":"cebpf4jnsgd1na2vs0mg"},{"bike_id":"027085de-3c06-4c90-8099-b9537f78e863","system_id":"levelo_inurba_marseille","lat":43.231688,"lon":5.43661,"is_reserved":false,"is_disabled":false,"rental_uris":{"android":"levelo://app?vid=027085de-3c06-4c90-8099-b9537f78e863","ios":"levelo://app?vid=027085de-3c06-4c90-8099-b9537f78e863"},"vehicle_type_id":"4","last_reported":1735664824,"current_range_meters":38000,"station_id":"ce4bhmp2rcd13ifvqgog","pricing_plan_id":"cebpf4jnsgd1na2vs0mg"},{"bike_id":"649618bc-fe27-4a8c-b370-31b11abb3417","system_id":"levelo_inurba_marseille","lat":43.31485,"lon":5.373,"is_reserved":false,"is_disabled":false,"rental_uris":{"android":"levelo://app?vid=649618bc-fe27-4a8c-b370-31b11abb3417","ios":"levelo://app?vid=649618bc-fe27-4a8c-b370-31b11abb3417"},"vehicle_type_id":"4","last_reported":1735664824,"current_range_meters":8000,"station_id":"ce4bgt12rcd13ifvqcd0","pricing_plan_id":"cebpf4jnsgd1na2vs0mg"},{"bike_id":"13f84696-4405-43e0-b0f5-1a61d67abe32","system_id":"levelo_inurba_marseille","lat":43.278411,"lon":5.391998,"is_reserved":false,"is_disabled":false,"rental_uris":{"android":"levelo://app?vid=13f84696-4405-43e0-b0f5-1a61d67abe32","ios":"levelo://app?vid=13f84696-4405-43e0-b0f5-1a61d67abe32"},"vehicle_type_id":"4","last_reported":1735664824,"current_range_meters":13600,"station_id":"ce4bhjp2rcd13ifvqga0","pricing_plan_id":"cebpf4jnsgd1na2vs0mg"},{"bike_id":"d8f753da-bb1d-460e-9b5c-f17ba3b2167d","system_id":"levelo_inurba_marseille","lat":43.31323,"lon":5.39711,"is_reserved":false,"is_disabled":false,"rental_uris":{"android":"levelo://app?vid=d8f753da-bb1d-460e-9b5c-f17ba3b2167d","ios":"levelo://app?vid=d8f753da-bb1d-460e-9b5c-f17ba3b2167d"},"vehicle_type_id":"4","last_reported":1735664824,"current_range_meters":38000,"station_id":"ce4bgvp2rcd13ifvqcu0","pricing_plan_id":"cebpf4jnsgd1na2vs0mg"},{"bike_id":"6275c667-9408-4738-96cb-6278121ca45a","system_id":"levelo_inurba_marseille","lat":43.27424,"lon":5.39368,"is_reserved":false,"is_disabled":false,"rental_uris":{"android":"levelo://app?vid=6275c667-9408-4738-96cb-6278121ca45a","ios":"levelo://app?vid=6275c667-9408-4738-96cb-6278121ca45a"},"vehicle_type_id":"4","last_reported":1735664824,"current_range_meters":8400,"station_id":"ce4bhdp2rcd13ifvqf20","pricing_plan_id":"cebpf4jnsgd1na2vs0mg"},{"bike_id":"317bbece-85f5-4709-8e50-643ba25a75ff","system_id":"levelo_inurba_marseille","lat":43.33764,"lon":5.37416,"is_reserved":false,"is_disabled":false,"rental_uris":{"android":"levelo://app?vid=317bbece-85f5-4709-8e50-643ba25a75ff","ios":"levelo://app?vid=317bbece-85f5-4709-8e50-643ba25a75ff"},"vehicle_type_id":"4","last_reported":1735664824,"current_range_meters":36400,"station_id":"","pricing_plan_id":"cebpf4jnsgd1na2vs0mg"},{"bike_id":"e7774da4-c308-4bfa-aba8-31efca07b3a0","system_id":"levelo_inurba_marseille","lat":43.33741,"lon":5.37467,"is_reserved":false,"is_disabled":false,"rental_uris":{"android":"levelo://app?vid=e7774da4-c308-4bfa-aba8-31efca07b3a0","ios":"levelo://app?vid=e7774da4-c308-4bfa-aba8-31efca07b3a0"},"vehicle_type_id":"4","last_reported":1735664824,"current_range_meters":12000,"station_id":"","pricing_plan_id":"cebpf4jnsgd1na2vs0mg"},{"bike_id":"73b91e80-0533-4be2-b5bd-7b363f8b278e","system_id":"levelo_inurba_marseille","lat":43.29529,"lon":5.39049,"is_reserved":false,"is_disabled":false,"rental_uris":{"android":"levelo://app?vid=73b91e80-0533-4be2-b5bd-7b363f8b278e","ios":"levelo://app?vid=73b91e80-0533-4be2-b5bd-7b363f8b278e"},"vehicle_type_id":"4","last_reported":1735664824,"current_range_meters":30800,"station_id":"ce4bh3p2rcd13ifvqdp0","pricing_plan_id":"cebpf4jnsgd1na2vs0mg"},{"bike_id":"0b5a5674-b260-435d-b981-b7c49ed7b789","system_id":"levelo_inurba_marseille","lat":43.25721,"lon":5.41106,"is_reserved":false,"is_disabled":false,"rental_uris":{"android":"levelo://app?vid=0b5a5674-b260-435d-b981-b7c49ed7b789","ios":"levelo://app?vid=0b5a5674-b260-435d-b981-b7c49ed7b789"},"vehicle_type_id":"4","last_reported":1735664824,"current_range_meters":36800,"station_id":"ce4bhkp2rcd13ifvqgd0","pricing_plan_id":"cebpf4jnsgd1na2vs0mg"},{"bike_id":"ad09079b-2a66-443a-a13d-b1f84ab569d5","system_id":"levelo_inurba_marseille","lat":43.25006,"lon":5.38924,"is_reserved":false,"is_disabled":false,"rental_uris":{"android":"levelo://app?vid=ad09079b-2a66-443a-a13d-b1f84ab569d5","ios":"levelo://app?vid=ad09079b-2a66-443a-a13d-b1f84ab569d5"},"vehicle_type_id":"4","last_reported":1735664824,"current_range_meters":38800,"station_id":"ce4bhgp2rcd13ifvqfd0","pricing_plan_id":"cebpf4jnsgd1na2vs0mg"},{"bike_id":"55cdd24f-9e2e-41e5-9590-d69333b5dd4a","system_id":"levelo_inurba_marseille","lat":43.28836,"lon":5.35849,"is_reserved":false,"is_disabled":false,"rental_uris":{"android":"levelo://app?vid=55cdd24f-9e2e-41e5-9590-d69333b5dd4a","ios":"levelo://app?vid=55cdd24f-9e2e-41e5-9590-d69333b5dd4a"},"vehicle_type_id":"4","last_reported":1735664824,"current_range_meters":14000,"station_id":"ce4bhb12rcd13ifvqem0","pricing_plan_id":"cebpf4jnsgd1na2vs0mg"},{"bike_id":"ccb45785-32f1-487c-ad38-245373097356","system_id":"levelo_inurba_marseille","lat":43.29564,"lon":5.37501,"is_reserved":false,"is_disabled":false,"rental_uris":{"android":"levelo://app?vid=ccb45785-32f1-487c-ad38-245373097356","ios":"levelo://app?vid=ccb45785-32f1-487c-ad38-245373097356"},"vehicle_type_id":"4","last_reported":1735664824,"current_range_meters":28800,"station_id":"ce4bgh92rcd13ifvqb50","pricing_plan_id":"cebpf4jnsgd1na2vs0mg"},{"bike_id":"6d0f719e-24d6-441b-8a4c-292713b0c930","system_id":"levelo_inurba_marseille","lat":43.3064,"lon":5.40081,"is_reserved":false,"is_disabled":false,"rental_uris":{"android":"levelo://app?vid=6d0f719e-24d6-441b-8a4c-292713b0c930","ios":"levelo://app?vid=6d0f719e-24d6-441b-8a4c-292713b0c930"},"vehicle_type_id":"4","last_reported":1735664824,"current_range_meters":4000,"station_id":"ce4bh112rcd13ifvqda0","pricing_plan_id":"cebpf4jnsgd1na2vs0mg"},{"bike_id":"8aee6e51-ec03-4d1e-a7f9-0bc033449db3","system_id":"levelo_inurba_marseille","lat":43.28405,"lon":5.375,"is_reserved":false,"is_disabled":false,"rental_uris":{"android":"levelo://app?vid=8aee6e51-ec03-4d1e-a7f9-0bc033449db3","ios":"levelo://app?vid=8aee6e51-ec03-4d1e-a7f9-0bc033449db3"},"vehicle_type_id":"4","last_reported":1735664824,"current_range_meters":36400,"station_id":"ce4bh412rcd13ifvqds0","pricing_plan_id":"cebpf4jnsgd1na2vs0mg"},{"bike_id":"6421b5dc-3cd2-4005-9e20-fae3d03ba608","system_id":"levelo_inurba_marseille","lat":43.30263,"lon":5.40074,"is_reserved":false,"is_disabled":false,"rental_uris":{"android":"levelo://app?vid=6421b5dc-3cd2-4005-9e20-fae3d03ba608","ios":"levelo://app?vid=6421b5dc-3cd2-4005-9e20-fae3d03ba608"},"vehicle_type_id":"4","last_reported":1735664824,"current_range_meters":6000,"station_id":"ce4bgvh2rcd13ifvqcs0","pricing_plan_id":"cebpf4jnsgd1na2vs0mg"},{"bike_id":"da3075ee-8070-42f9-8350-58e475a60c82","system_id":"levelo_inurba_marseille","lat":43.27565,"lon":5.38426,"is_reserved":false,"is_disabled":false,"rental_uris":{"android":"levelo://app?vid=da3075ee-8070-42f9-8350-58e475a60c82","ios":"levelo://app?vid=da3075ee-8070-42f9-8350-58e475a60c82"},"vehicle_type_id":"4","last_reported":1735664824,"current_range_meters":39200,"station_id":"ce4bhh92rcd13ifvqfi0","pricing_plan_id":"cebpf4jnsgd1na2vs0mg"},{"bike_id":"07c99ec9-f027-47a4-9b93-3697bcc5f573","system_id":"levelo_inurba_marseille","lat":43.26939,"lon":5.40254,"is_reserved":false,"is_disabled":false,"rental_uris":{"android":"levelo://app?vid=07c99ec9-f027-47a4-9b93-3697bcc5f573","ios":"levelo://app?vid=07c99ec9-f027-47a4-9b93-3697bcc5f573"},"vehicle_type_id":"4","last_reported":1735664824,"current_range_meters":38800,"station_id":"cjm6bp8fraef2m0cb0m0","pricing_plan_id":"cebpf4jnsgd1na2vs0mg"},{"bike_id":"c754264e-2257-42b1-89f9-0bf9a740ba42","system_id":"levelo_inurba_marseille","lat":43.27571,"lon":5.38439,"is_reserved":false,"is_disabled":false,"rental_uris":{"android":"levelo://app?vid=c754264e-2257-42b1-89f9-0bf9a740ba42","ios":"levelo://app?vid=c754264e-2257-42b1-89f9-0bf9a740ba42"},"vehicle_type_id":"4","last_reported":1735664824,"current_range_meters":29600,"station_id":"ce4bhh92rcd13ifvqfi0","pricing_plan_id":"cebpf4jnsgd1na2vs0mg"},{"bike_id":"176079e7-a6a0-459b-a3e0-964f2267d6d3","system_id":"levelo_inurba_marseille","lat":43.30649,"lon":5.40003,"is_reserved":false,"is_disabled":false,"rental_uris":{"android":"levelo://app?vid=176079e7-a6a0-459b-a3e0-964f2267d6d3","ios":"levelo://app?vid=176079e7-a6a0-459b-a3e0-964f2267d6d3"},"vehicle_type_id":"4","last_reported":1735664824,"current_range_meters":19200,"station_id":"","pricing_plan_id":"cebpf4jnsgd1na2vs0mg"},{"bike_id":"63d3d27f-f4c2-4cfa-99f6-359012ea8eb1","system_id":"levelo_inurba_marseille","lat":43.29566,"lon":5.37504,"is_reserved":false,"is_disabled":false,"rental_uris":{"android":"levelo://app?vid=63d3d27f-f4c2-4cfa-99f6-359012ea8eb1","ios":"levelo://app?vid=63d3d27f-f4c2-4cfa-99f6-359012ea8eb1"},"vehicle_type_id":"4","last_reported":1735664824,"current_range_meters":22400,"station_id":"ce4bgh92rcd13ifvqb50","pricing_plan_id":"cebpf4jnsgd1na2vs0mg"},{"bike_id":"08103183-dbf3-4e28-ba92-ab4694840ae5","system_id":"levelo_inurba_marseille","lat":43.29267,"lon":5.38448,"is_reserved":false,"is_disabled":false,"rental_uris":{"android":"levelo://app?vid=08103183-dbf3-4e28-ba92-ab4694840ae5","ios":"levelo://app?vid=08103183-dbf3-4e28-ba92-ab4694840ae5"},"vehicle_type_id":"4","last_reported":1735664824,"current_range_meters":11600,"station_id":"ce4bh692rcd13ifvqea0","pricing_plan_id":"cebpf4jnsgd1na2vs0mg"},{"bike_id":"5769a8f9-7d01-49e0-b0ff-42e1d2f44806","system_id":"levelo_inurba_marseille","lat":43.28415,"lon":5.37519,"is_reserved":false,"is_disabled":false,"rental_uris":{"android":"levelo://app?vid=5769a8f9-7d01-49e0-b0ff-42e1d2f44806","ios":"levelo://app?vid=5769a8f9-7d01-49e0-b0ff-42e1d2f44806"},"vehicle_type_id":"4","last_reported":1735664824,"current_range_meters":17200,"station_id":"ce4bh412rcd13ifvqds0","pricing_plan_id":"cebpf4jnsgd1na2vs0mg"},{"bike_id":"0abd55ef-0df2-4f92-b48e-0cff5a285608","system_id":"levelo_inurba_marseille","lat":43.32556,"lon":5.41452,"is_reserved":false,"is_disabled":false,"rental_uris":{"android":"levelo://app?vid=0abd55ef-0df2-4f92-b48e-0cff5a285608","ios":"levelo://app?vid=0abd55ef-0df2-4f92-b48e-0cff5a285608"},"vehicle_type_id":"4","last_reported":1735664824,"current_range_meters":35600,"station_id":"ce4bhq12rcd13ifvqhhg","pricing_plan_id":"cebpf4jnsgd1na2vs0mg"},{"bike_id":"8d3677f0-9e29-464f-b813-6665f03a06b4","system_id":"levelo_inurba_marseille","lat":43.30547,"lon":5.36558,"is_reserved":false,"is_disabled":false,"rental_uris":{"android":"levelo://app?vid=8d3677f0-9e29-464f-b813-6665f03a06b4","ios":"levelo://app?vid=8d3677f0-9e29-464f-b813-6665f03a06b4"},"vehicle_type_id":"4","last_reported":1735664824,"current_range_meters":38400,"station_id":"ce4bgs12rcd13ifvqcag","pricing_plan_id":"cebpf4jnsgd1na2vs0mg"},{"bike_id":"e2b14835-24df-4581-9c9a-617d6c017ff6","system_id":"levelo_inurba_marseille","lat":43.30432,"lon":5.39745,"is_reserved":false,"is_disabled":false,"rental_uris":{"android":"levelo://app?vid=e2b14835-24df-4581-9c9a-617d6c017ff6","ios":"levelo://app?vid=e2b14835-24df-4581-9c9a-617d6c017ff6"},"vehicle_type_id":"4","last_reported":1735664824,"current_range_meters":38000,"station_id":"ce4bh092rcd13ifvqd20","pricing_plan_id":"cebpf4jnsgd1na2vs0mg"},{"bike_id":"a871e8bb-4f17-4f79-8bac-42efdc696fa0","system_id":"levelo_inurba_marseille","lat":43.28988,"lon":5.35595,"is_reserved":false,"is_disabled":false,"rental_uris":{"android":"levelo://app?vid=a871e8bb-4f17-4f79-8bac-42efdc696fa0","ios":"levelo://app?vid=a871e8bb-4f17-4f79-8bac-42efdc696fa0"},"vehicle_type_id":"4","last_reported":1735664824,"current_range_meters":38800,"station_id":"ce4bhb92rcd13ifvqen0","pricing_plan_id":"cebpf4jnsgd1na2vs0mg"},{"bike_id":"f51a7901-7b5f-4480-8e6b-99cb3fac34a9","system_id":"levelo_inurba_marseille","lat":43.29532,"lon":5.38545,"is_reserved":false,"is_disabled":false,"rental_uris":{"android":"levelo://app?vid=f51a7901-7b5f-4480-8e6b-99cb3fac34a9","ios":"levelo://app?vid=f51a7901-7b5f-4480-8e6b-99cb3fac34a9"},"vehicle_type_id":"4","last_reported":1735664824,"current_range_meters":38800,"station_id":"ce4bgih2rcd13ifvqba0","pricing_plan_id":"cebpf4jnsgd1na2vs0mg"},{"bike_id":"c1625c2b-166d-456b-8b13-74d58dbf9f03","system_id":"levelo_inurba_marseille","lat":43.30423,"lon":5.38875,"is_reserved":false,"is_disabled":false,"rental_uris":{"android":"levelo://app?vid=c1625c2b-166d-456b-8b13-74d58dbf9f03","ios":"levelo://app?vid=c1625c2b-166d-456b-8b13-74d58dbf9f03"},"vehicle_type_id":"4","last_reported":1735664824,"current_range_meters":32000,"station_id":"ce4bgk12rcd13ifvqbi0","pricing_plan_id":"cebpf4jnsgd1na2vs0mg"},{"bike_id":"58da58a9-91e7-4fe2-bb82-29e824ef7092","system_id":"levelo_inurba_marseille","lat":43.26209,"lon":5.37426,"is_reserved":false,"is_disabled":false,"rental_uris":{"android":"levelo://app?vid=58da58a9-91e7-4fe2-bb82-29e824ef7092","ios":"levelo://app?vid=58da58a9-91e7-4fe2-bb82-29e824ef7092"},"vehicle_type_id":"4","last_reported":1735664824,"current_range_meters":11600,"station_id":"ce4bhgp2rcd13ifvqfc0","pricing_plan_id":"cebpf4jnsgd1na2vs0mg"},{"bike_id":"f232324b-d77e-46de-9de7-a0d8abcbf52a","system_id":"levelo_inurba_marseille","lat":43.30888,"lon":5.37208,"is_reserved":false,"is_disabled":false,"rental_uris":{"android":"levelo://app?vid=f232324b-d77e-46de-9de7-a0d8abcbf52a","ios":"levelo://app?vid=f232324b-d77e-46de-9de7-a0d8abcbf52a"},"vehicle_type_id":"4","last_reported":1735664824,"current_range_meters":29600,"station_id":"ce4bguh2rcd13ifvqckg","pricing_plan_id":"cebpf4jnsgd1na2vs0mg"},{"bike_id":"83e30e09-e659-406b-b4b3-1c37a71ad2af","system_id":"levelo_inurba_marseille","lat":43.27498,"lon":5.42446,"is_reserved":false,"is_disabled":false,"rental_uris":{"android":"levelo://app?vid=83e30e09-e659-406b-b4b3-1c37a71ad2af","ios":"levelo://app?vid=83e30e09-e659-406b-b4b3-1c37a71ad2af"},"vehicle_type_id":"4","last_reported":1735664824,"current_range_meters":25200,"station_id":"ce4bhn92rcd13ifvqgrg","pricing_plan_id":"cebpf4jnsgd1na2vs0mg"},{"bike_id":"65595cbb-8679-460f-b0d4-ac51eb886b08","system_id":"levelo_inurba_marseille","lat":43.29191,"lon":5.39315,"is_reserved":false,"is_disabled":false,"rental_uris":{"android":"levelo://app?vid=65595cbb-8679-460f-b0d4-ac51eb886b08","ios":"levelo://app?vid=65595cbb-8679-460f-b0d4-ac51eb886b08"},"vehicle_type_id":"4","last_reported":1735664824,"current_range_meters":34000,"station_id":"ce4bh192rcd13ifvqdd0","pricing_plan_id":"cebpf4jnsgd1na2vs0mg"},{"bike_id":"892733af-3cd1-46b0-8c64-c29a2eeba768","system_id":"levelo_inurba_marseille","lat":43.340605,"lon":5.376779,"is_reserved":false,"is_disabled":false,"rental_uris":{"android":"levelo://app?vid=892733af-3cd1-46b0-8c64-c29a2eeba768","ios":"levelo://app?vid=892733af-3cd1-46b0-8c64-c29a2eeba768"},"vehicle_type_id":"4","last_reported":1735664824,"current_range_meters":37600,"station_id":"","pricing_plan_id":"cebpf4jnsgd1na2vs0mg"},{"bike_id":"a87e4111-653d-4c79-b009-b173a2dd1186","system_id":"levelo_inurba_marseille","lat":43.2902,"lon":5.38632,"is_reserved":false,"is_disabled":false,"rental_uris":{"android":"levelo://app?vid=a87e4111-653d-4c79-b009-b173a2dd1186","ios":"levelo://app?vid=a87e4111-653d-4c79-b009-b173a2dd1186"},"vehicle_type_id":"4","last_reported":1735664824,"current_range_meters":14000,"station_id":"ce4bh4p2rcd13ifvqe0g","pricing_plan_id":"cebpf4jnsgd1na2vs0mg"},{"bike_id":"57103b12-06fc-494b-9a1a-1903f8f245d5","system_id":"levelo_inurba_marseille","lat":43.27998,"lon":5.41657,"is_reserved":false,"is_disabled":false,"rental_uris":{"android":"levelo://app?vid=57103b12-06fc-494b-9a1a-1903f8f245d5","ios":"levelo://app?vid=57103b12-06fc-494b-9a1a-1903f8f245d5"},"vehicle_type_id":"4","last_reported":1735664824,"current_range_meters":7200,"station_id":"ce4bho12rcd13ifvqh1g","pricing_plan_id":"cebpf4jnsgd1na2vs0mg"},{"bike_id":"91d22dfb-dbf5-400b-8cb7-7a2ebc159a7a","system_id":"levelo_inurba_marseille","lat":43.28659,"lon":5.36358,"is_reserved":false,"is_disabled":false,"rental_uris":{"android":"levelo://app?vid=91d22dfb-dbf5-400b-8cb7-7a2ebc159a7a","ios":"levelo://app?vid=91d22dfb-dbf5-400b-8cb7-7a2ebc159a7a"},"vehicle_type_id":"4","last_reported":1735664824,"current_range_meters":32400,"station_id":"ce4bhah2rcd13ifvqej0","pricing_plan_id":"cebpf4jnsgd1na2vs0mg"},{"bike_id":"30a49652-d136-44e4-a4d9-d7c1b83f0627","system_id":"levelo_inurba_marseille","lat":43.337444,"lon":5.374475,"is_reserved":false,"is_disabled":false,"rental_uris":{"android":"levelo://app?vid=30a49652-d136-44e4-a4d9-d7c1b83f0627","ios":"levelo://app?vid=30a49652-d136-44e4-a4d9-d7c1b83f0627"},"vehicle_type_id":"4","last_reported":1735664824,"current_range_meters":18000,"station_id":"","pricing_plan_id":"cebpf4jnsgd1na2vs0mg"},{"bike_id":"4d09da81-c598-4276-bcd1-1d0971ab92b4","system_id":"levelo_inurba_marseille","lat":43.27627,"lon":5.36113,"is_reserved":false,"is_disabled":false,"rental_uris":{"android":"levelo://app?vid=4d09da81-c598-4276-bcd1-1d0971ab92b4","ios":"levelo://app?vid=4d09da81-c598-4276-bcd1-1d0971ab92b4"},"vehicle_type_id":"4","last_reported":1735664824,"current_range_meters":35200,"station_id":"ce4bgj92rcd13ifvqbe0","pricing_plan_id":"cebpf4jnsgd1na2vs0mg"},{"bike_id":"b8f199fc-2ec3-4cea-89a8-539f8a9d9d79","system_id":"levelo_inurba_marseille","lat":43.29032,"lon":5.38095,"is_reserved":false,"is_disabled":false,"rental_uris":{"android":"levelo://app?vid=b8f199fc-2ec3-4cea-89a8-539f8a9d9d79","ios":"levelo://app?vid=b8f199fc-2ec3-4cea-89a8-539f8a9d9d79"},"vehicle_type_id":"4","last_reported":1735664824,"current_range_meters":38800,"station_id":"ce4bh4p2rcd13ifvqe1g","pricing_plan_id":"cebpf4jnsgd1na2vs0mg"},{"bike_id":"523c58f2-2826-49ba-ab42-b55556e2b06f","system_id":"levelo_inurba_marseille","lat":43.28368,"lon":5.38635,"is_reserved":false,"is_disabled":false,"rental_uris":{"android":"levelo://app?vid=523c58f2-2826-49ba-ab42-b55556e2b06f","ios":"levelo://app?vid=523c58f2-2826-49ba-ab42-b55556e2b06f"},"vehicle_type_id":"4","last_reported":1735664824,"current_range_meters":19200,"station_id":"ce4bh492rcd13ifvqdvg","pricing_plan_id":"cebpf4jnsgd1na2vs0mg"},{"bike_id":"fa86ada9-ab65-40b1-961e-01868420b873","system_id":"levelo_inurba_marseille","lat":43.30593,"lon":5.39351,"is_reserved":false,"is_disabled":false,"rental_uris":{"android":"levelo://app?vid=fa86ada9-ab65-40b1-961e-01868420b873","ios":"levelo://app?vid=fa86ada9-ab65-40b1-961e-01868420b873"},"vehicle_type_id":"4","last_reported":1735664824,"current_range_meters":27600,"station_id":"ce4bh0p2rcd13ifvqd80","pricing_plan_id":"cebpf4jnsgd1na2vs0mg"},{"bike_id":"d5e6fa8e-d815-468d-9f90-63ce79d3d743","system_id":"levelo_inurba_marseille","lat":43.24386,"lon":5.3705,"is_reserved":false,"is_disabled":false,"rental_uris":{"android":"levelo://app?vid=d5e6fa8e-d815-468d-9f90-63ce79d3d743","ios":"levelo://app?vid=d5e6fa8e-d815-468d-9f90-63ce79d3d743"},"vehicle_type_id":"4","last_reported":1735664824,"current_range_meters":8000,"station_id":"ce4bhhh2rcd13ifvqfk0","pricing_plan_id":"cebpf4jnsgd1na2vs0mg"},{"bike_id":"8cc0ac48-15f2-4e2c-af72-974f66c03dcc","system_id":"levelo_inurba_marseille","lat":43.28836,"lon":5.35851,"is_reserved":false,"is_disabled":false,"rental_uris":{"android":"levelo://app?vid=8cc0ac48-15f2-4e2c-af72-974f66c03dcc","ios":"levelo://app?vid=8cc0ac48-15f2-4e2c-af72-974f66c03dcc"},"vehicle_type_id":"4","last_reported":1735664824,"current_range_meters":32400,"station_id":"ce4bhb12rcd13ifvqem0","pricing_plan_id":"cebpf4jnsgd1na2vs0mg"},{"bike_id":"1ce05690-65ba-4e15-b28c-5fd535e467f0","system_id":"levelo_inurba_marseille","lat":43.32035,"lon":5.41533,"is_reserved":false,"is_disabled":false,"rental_uris":{"android":"levelo://app?vid=1ce05690-65ba-4e15-b28c-5fd535e467f0","ios":"levelo://app?vid=1ce05690-65ba-4e15-b28c-5fd535e467f0"},"vehicle_type_id":"4","last_reported":1735664824,"current_range_meters":11600,"station_id":"ce4bhq92rcd13ifvqhkg","pricing_plan_id":"cebpf4jnsgd1na2vs0mg"},{"bike_id":"d996ebe6-a085-4671-8aef-57e91ba860dc","system_id":"levelo_inurba_marseille","lat":43.26808,"lon":5.40255,"is_reserved":false,"is_disabled":false,"rental_uris":{"android":"levelo://app?vid=d996ebe6-a085-4671-8aef-57e91ba860dc","ios":"levelo://app?vid=d996ebe6-a085-4671-8aef-57e91ba860dc"},"vehicle_type_id":"4","last_reported":1735664824,"current_range_meters":32400,"station_id":"ce501612rcd8frsf0b60","pricing_plan_id":"cebpf4jnsgd1na2vs0mg"},{"bike_id":"8840af7c-4986-40dc-b71d-feb5f594ee1c","system_id":"levelo_inurba_marseille","lat":43.3013,"lon":5.39864,"is_reserved":false,"is_disabled":false,"rental_uris":{"android":"levelo://app?vid=8840af7c-4986-40dc-b71d-feb5f594ee1c","ios":"levelo://app?vid=8840af7c-4986-40dc-b71d-feb5f594ee1c"},"vehicle_type_id":"4","last_reported":1735664824,"current_range_meters":28000,"station_id":"ce4bh0h2rcd13ifvqd40","pricing_plan_id":"cebpf4jnsgd1na2vs0mg"},{"bike_id":"a68defd1-3a21-4047-b2f0-0fac92cdc2b8","system_id":"levelo_inurba_marseille","lat":43.26669,"lon":5.3827,"is_reserved":false,"is_disabled":false,"rental_uris":{"android":"levelo://app?vid=a68defd1-3a21-4047-b2f0-0fac92cdc2b8","ios":"levelo://app?vid=a68defd1-3a21-4047-b2f0-0fac92cdc2b8"},"vehicle_type_id":"4","last_reported":1735664824,"current_range_meters":28400,"station_id":"ce4bhg92rcd13ifvqf90","pricing_plan_id":"cebpf4jnsgd1na2vs0mg"},{"bike_id":"261f84eb-7209-4691-ba89-1395784a623f","system_id":"levelo_inurba_marseille","lat":43.27566,"lon":5.38399,"is_reserved":false,"is_disabled":false,"rental_uris":{"android":"levelo://app?vid=261f84eb-7209-4691-ba89-1395784a623f","ios":"levelo://app?vid=261f84eb-7209-4691-ba89-1395784a623f"},"vehicle_type_id":"4","last_reported":1735664824,"current_range_meters":32400,"station_id":"ce4bhh92rcd13ifvqfi0","pricing_plan_id":"cebpf4jnsgd1na2vs0mg"},{"bike_id":"ee970bd2-03e3-45d8-9920-35ca0e47ef20","system_id":"levelo_inurba_marseille","lat":43.2501,"lon":5.38938,"is_reserved":false,"is_disabled":false,"rental_uris":{"android":"levelo://app?vid=ee970bd2-03e3-45d8-9920-35ca0e47ef20","ios":"levelo://app?vid=ee970bd2-03e3-45d8-9920-35ca0e47ef20"},"vehicle_type_id":"4","last_reported":1735664824,"current_range_meters":19200,"station_id":"ce4bhgp2rcd13ifvqfd0","pricing_plan_id":"cebpf4jnsgd1na2vs0mg"},{"bike_id":"e423d926-2a05-4eb2-a52d-2a064a8cdfdb","system_id":"levelo_inurba_marseille","lat":43.30191,"lon":5.3662,"is_reserved":false,"is_disabled":false,"rental_uris":{"android":"levelo://app?vid=e423d926-2a05-4eb2-a52d-2a064a8cdfdb","ios":"levelo://app?vid=e423d926-2a05-4eb2-a52d-2a064a8cdfdb"},"vehicle_type_id":"4","last_reported":1735664824,"current_range_meters":27600,"station_id":"ce4bgrh2rcd13ifvqc8g","pricing_plan_id":"cebpf4jnsgd1na2vs0mg"},{"bike_id":"ea990fc9-5f95-4acd-a2be-29105099e24e","system_id":"levelo_inurba_marseille","lat":43.23063,"lon":5.35489,"is_reserved":false,"is_disabled":false,"rental_uris":{"android":"levelo://app?vid=ea990fc9-5f95-4acd-a2be-29105099e24e","ios":"levelo://app?vid=ea990fc9-5f95-4acd-a2be-29105099e24e"},"vehicle_type_id":"4","last_reported":1735664824,"current_range_meters":34800,"station_id":"cpo3342slgdg3j2ifvpg","pricing_plan_id":"cebpf4jnsgd1na2vs0mg"},{"bike_id":"42261746-6b21-4819-ba04-350d0a7a5ea6","system_id":"levelo_inurba_marseille","lat":43.29966,"lon":5.38495,"is_reserved":false,"is_disabled":false,"rental_uris":{"android":"levelo://app?vid=42261746-6b21-4819-ba04-350d0a7a5ea6","ios":"levelo://app?vid=42261746-6b21-4819-ba04-350d0a7a5ea6"},"vehicle_type_id":"4","last_reported":1735664824,"current_range_meters":9600,"station_id":"ce4bgj92rcd13ifvqbd0","pricing_plan_id":"cebpf4jnsgd1na2vs0mg"},{"bike_id":"4334363b-02da-43d6-8b57-73a7fa20fd52","system_id":"levelo_inurba_marseille","lat":43.29966,"lon":5.38507,"is_reserved":false,"is_disabled":false,"rental_uris":{"android":"levelo://app?vid=4334363b-02da-43d6-8b57-73a7fa20fd52","ios":"levelo://app?vid=4334363b-02da-43d6-8b57-73a7fa20fd52"},"vehicle_type_id":"4","last_reported":1735664824,"current_range_meters":17200,"station_id":"ce4bgj92rcd13ifvqbd0","pricing_plan_id":"cebpf4jnsgd1na2vs0mg"},{"bike_id":"22d1fbdc-6d16-4427-8744-48349c99d500","system_id":"levelo_inurba_marseille","lat":43.30889,"lon":5.39647,"is_reserved":false,"is_disabled":false,"rental_uris":{"android":"levelo://app?vid=22d1fbdc-6d16-4427-8744-48349c99d500","ios":"levelo://app?vid=22d1fbdc-6d16-4427-8744-48349c99d500"},"vehicle_type_id":"4","last_reported":1735664824,"current_range_meters":16400,"station_id":"ce4bh012rcd13ifvqcv0","pricing_plan_id":"cebpf4jnsgd1na2vs0mg"},{"bike_id":"d13b199e-e620-4f52-ae43-9a360f46ed32","system_id":"levelo_inurba_marseille","lat":43.27995,"lon":5.40004,"is_reserved":false,"is_disabled":false,"rental_uris":{"android":"levelo://app?vid=d13b199e-e620-4f52-ae43-9a360f46ed32","ios":"levelo://app?vid=d13b199e-e620-4f52-ae43-9a360f46ed32"},"vehicle_type_id":"4","last_reported":1735664824,"current_range_meters":9200,"station_id":"ce4bho92rcd13ifvqh4g","pricing_plan_id":"cebpf4jnsgd1na2vs0mg"},{"bike_id":"2cf24409-f86b-4c9d-92e0-6e6dba4d0e1e","system_id":"levelo_inurba_marseille","lat":43.29573,"lon":5.37513,"is_reserved":false,"is_disabled":false,"rental_uris":{"android":"levelo://app?vid=2cf24409-f86b-4c9d-92e0-6e6dba4d0e1e","ios":"levelo://app?vid=2cf24409-f86b-4c9d-92e0-6e6dba4d0e1e"},"vehicle_type_id":"4","last_reported":1735664824,"current_range_meters":12400,"station_id":"ce4bgh92rcd13ifvqb50","pricing_plan_id":"cebpf4jnsgd1na2vs0mg"},{"bike_id":"3b0819cf-48f7-4c69-8e00-a6510bd124b5","system_id":"levelo_inurba_marseille","lat":43.28842,"lon":5.39313,"is_reserved":false,"is_disabled":false,"rental_uris":{"android":"levelo://app?vid=3b0819cf-48f7-4c69-8e00-a6510bd124b5","ios":"levelo://app?vid=3b0819cf-48f7-4c69-8e00-a6510bd124b5"},"vehicle_type_id":"4","last_reported":1735664824,"current_range_meters":36800,"station_id":"ce4bh2p2rcd13ifvqdi0","pricing_plan_id":"cebpf4jnsgd1na2vs0mg"},{"bike_id":"0daa5abe-f763-4c8e-ac21-73f1d15d2934","system_id":"levelo_inurba_marseille","lat":43.2962,"lon":5.37147,"is_reserved":false,"is_disabled":false,"rental_uris":{"android":"levelo://app?vid=0daa5abe-f763-4c8e-ac21-73f1d15d2934","ios":"levelo://app?vid=0daa5abe-f763-4c8e-ac21-73f1d15d2934"},"vehicle_type_id":"4","last_reported":1735664824,"current_range_meters":36400,"station_id":"ce4bgnh2rcd13ifvqc0g","pricing_plan_id":"cebpf4jnsgd1na2vs0mg"},{"bike_id":"32afc6cc-1544-4f88-ab5c-34496cc35b04","system_id":"levelo_inurba_marseille","lat":43.23062,"lon":5.35467,"is_reserved":false,"is_disabled":false,"rental_uris":{"android":"levelo://app?vid=32afc6cc-1544-4f88-ab5c-34496cc35b04","ios":"levelo://app?vid=32afc6cc-1544-4f88-ab5c-34496cc35b04"},"vehicle_type_id":"4","last_reported":1735664824,"current_range_meters":16800,"station_id":"cpo3342slgdg3j2ifvpg","pricing_plan_id":"cebpf4jnsgd1na2vs0mg"},{"bike_id":"c725a866-2b31-4e95-9efe-74d860ec5294","system_id":"levelo_inurba_marseille","lat":43.27812,"lon":5.40734,"is_reserved":false,"is_disabled":false,"rental_uris":{"android":"levelo://app?vid=c725a866-2b31-4e95-9efe-74d860ec5294","ios":"levelo://app?vid=c725a866-2b31-4e95-9efe-74d860ec5294"},"vehicle_type_id":"4","last_reported":1735664824,"current_range_meters":30400,"station_id":"ce4bhnh2rcd13ifvqgtg","pricing_plan_id":"cebpf4jnsgd1na2vs0mg"},{"bike_id":"5be1b31f-dfe5-4e9e-9157-5a3c3ea30403","system_id":"levelo_inurba_marseille","lat":43.28605,"lon":5.3707,"is_reserved":false,"is_disabled":false,"rental_uris":{"android":"levelo://app?vid=5be1b31f-dfe5-4e9e-9157-5a3c3ea30403","ios":"levelo://app?vid=5be1b31f-dfe5-4e9e-9157-5a3c3ea30403"},"vehicle_type_id":"4","last_reported":1735664824,"current_range_meters":38000,"station_id":"ce4bht12rcd13ifvqi60","pricing_plan_id":"cebpf4jnsgd1na2vs0mg"},{"bike_id":"7223ade4-bc71-4640-9b1e-21b032db95c5","system_id":"levelo_inurba_marseille","lat":43.31367,"lon":5.38489,"is_reserved":false,"is_disabled":false,"rental_uris":{"android":"levelo://app?vid=7223ade4-bc71-4640-9b1e-21b032db95c5","ios":"levelo://app?vid=7223ade4-bc71-4640-9b1e-21b032db95c5"},"vehicle_type_id":"4","last_reported":1735664824,"current_range_meters":30800,"station_id":"ce4bgt92rcd13ifvqcf0","pricing_plan_id":"cebpf4jnsgd1na2vs0mg"},{"bike_id":"e23ba3d7-11ac-4527-b656-df10f77aa271","system_id":"levelo_inurba_marseille","lat":43.28461,"lon":5.35886,"is_reserved":false,"is_disabled":false,"rental_uris":{"android":"levelo://app?vid=e23ba3d7-11ac-4527-b656-df10f77aa271","ios":"levelo://app?vid=e23ba3d7-11ac-4527-b656-df10f77aa271"},"vehicle_type_id":"4","last_reported":1735664824,"current_range_meters":30400,"station_id":"ce4bhah2rcd13ifvqei0","pricing_plan_id":"cebpf4jnsgd1na2vs0mg"},{"bike_id":"10ce9ef4-0278-4067-a42d-76f6ef2d1fb0","system_id":"levelo_inurba_marseille","lat":43.30907,"lon":5.36845,"is_reserved":false,"is_disabled":false,"rental_uris":{"android":"levelo://app?vid=10ce9ef4-0278-4067-a42d-76f6ef2d1fb0","ios":"levelo://app?vid=10ce9ef4-0278-4067-a42d-76f6ef2d1fb0"},"vehicle_type_id":"4","last_reported":1735664824,"current_range_meters":21600,"station_id":"ce4bgn92rcd13ifvqbvg","pricing_plan_id":"cebpf4jnsgd1na2vs0mg"},{"bike_id":"55e5bb48-d03c-42b0-885b-e5af4696496a","system_id":"levelo_inurba_marseille","lat":43.295678,"lon":5.375163,"is_reserved":false,"is_disabled":false,"rental_uris":{"android":"levelo://app?vid=55e5bb48-d03c-42b0-885b-e5af4696496a","ios":"levelo://app?vid=55e5bb48-d03c-42b0-885b-e5af4696496a"},"vehicle_type_id":"4","last_reported":1735664824,"current_range_meters":19200,"station_id":"ce4bgh92rcd13ifvqb50","pricing_plan_id":"cebpf4jnsgd1na2vs0mg"},{"bike_id":"d9039fb6-1526-43a5-ab47-bf6c74051347","system_id":"levelo_inurba_marseille","lat":43.2816,"lon":5.42652,"is_reserved":false,"is_disabled":false,"rental_uris":{"android":"levelo://app?vid=d9039fb6-1526-43a5-ab47-bf6c74051347","ios":"levelo://app?vid=d9039fb6-1526-43a5-ab47-bf6c74051347"},"vehicle_type_id":"4","last_reported":1735664824,"current_range_meters":10000,"station_id":"ce4bhnh2rcd13ifvqgug","pricing_plan_id":"cebpf4jnsgd1na2vs0mg"},{"bike_id":"50265068-2ebb-44b1-b22f-1e1f61d15595","system_id":"levelo_inurba_marseille","lat":43.27944,"lon":5.41049,"is_reserved":false,"is_disabled":false,"rental_uris":{"android":"levelo://app?vid=50265068-2ebb-44b1-b22f-1e1f61d15595","ios":"levelo://app?vid=50265068-2ebb-44b1-b22f-1e1f61d15595"},"vehicle_type_id":"4","last_reported":1735664824,"current_range_meters":34800,"station_id":"ce4bhnp2rcd13ifvqh0g","pricing_plan_id":"cebpf4jnsgd1na2vs0mg"},{"bike_id":"43536967-dee0-4dd2-b3a2-a2eb52dad4f7","system_id":"levelo_inurba_marseille","lat":43.30643,"lon":5.40097,"is_reserved":false,"is_disabled":false,"rental_uris":{"android":"levelo://app?vid=43536967-dee0-4dd2-b3a2-a2eb52dad4f7","ios":"levelo://app?vid=43536967-dee0-4dd2-b3a2-a2eb52dad4f7"},"vehicle_type_id":"4","last_reported":1735664824,"current_range_meters":25600,"station_id":"ce4bh112rcd13ifvqda0","pricing_plan_id":"cebpf4jnsgd1na2vs0mg"},{"bike_id":"ce872ff4-1114-4dbb-a1cd-0587f9a75e23","system_id":"levelo_inurba_marseille","lat":43.24822,"lon":5.37463,"is_reserved":false,"is_disabled":false,"rental_uris":{"android":"levelo://app?vid=ce872ff4-1114-4dbb-a1cd-0587f9a75e23","ios":"levelo://app?vid=ce872ff4-1114-4dbb-a1cd-0587f9a75e23"},"vehicle_type_id":"4","last_reported":1735664824,"current_range_meters":38800,"station_id":"ce4bhgh2rcd13ifvqfb0","pricing_plan_id":"cebpf4jnsgd1na2vs0mg"},{"bike_id":"022d826a-d31d-48ef-b07e-f8dd0ceaa746","system_id":"levelo_inurba_marseille","lat":43.24996,"lon":5.38935,"is_reserved":false,"is_disabled":false,"rental_uris":{"android":"levelo://app?vid=022d826a-d31d-48ef-b07e-f8dd0ceaa746","ios":"levelo://app?vid=022d826a-d31d-48ef-b07e-f8dd0ceaa746"},"vehicle_type_id":"4","last_reported":1735664824,"current_range_meters":36000,"station_id":"ce4bhgp2rcd13ifvqfd0","pricing_plan_id":"cebpf4jnsgd1na2vs0mg"},{"bike_id":"67eba160-cab0-412a-98c7-bc719f87f4df","system_id":"levelo_inurba_marseille","lat":43.2954,"lon":5.38532,"is_reserved":false,"is_disabled":false,"rental_uris":{"android":"levelo://app?vid=67eba160-cab0-412a-98c7-bc719f87f4df","ios":"levelo://app?vid=67eba160-cab0-412a-98c7-bc719f87f4df"},"vehicle_type_id":"4","last_reported":1735664824,"current_range_meters":12400,"station_id":"ce4bgih2rcd13ifvqba0","pricing_plan_id":"cebpf4jnsgd1na2vs0mg"},{"bike_id":"04e7867a-1371-4222-a6db-9d80083cea73","system_id":"levelo_inurba_marseille","lat":43.28836,"lon":5.35837,"is_reserved":false,"is_disabled":true,"rental_uris":{"android":"levelo://app?vid=04e7867a-1371-4222-a6db-9d80083cea73","ios":"levelo://app?vid=04e7867a-1371-4222-a6db-9d80083cea73"},"vehicle_type_id":"4","last_reported":1735664824,"current_range_meters":34000,"station_id":"ce4bhb12rcd13ifvqem0","pricing_plan_id":"cebpf4jnsgd1na2vs0mg"},{"bike_id":"97a26378-897a-4cc3-94fc-ef7846cd6637","system_id":"levelo_inurba_marseille","lat":43.31365,"lon":5.36713,"is_reserved":false,"is_disabled":true,"rental_uris":{"android":"levelo://app?vid=97a26378-897a-4cc3-94fc-ef7846cd6637","ios":"levelo://app?vid=97a26378-897a-4cc3-94fc-ef7846cd6637"},"vehicle_type_id":"4","last_reported":1735664824,"current_range_meters":0,"station_id":"ce4bgr92rcd13ifvqc6g","pricing_plan_id":"cebpf4jnsgd1na2vs0mg"},{"bike_id":"c457cfc3-83ae-4746-8353-55497d85bdfe","system_id":"levelo_inurba_marseille","lat":43.31227,"lon":5.36884,"is_reserved":false,"is_disabled":false,"rental_uris":{"android":"levelo://app?vid=c457cfc3-83ae-4746-8353-55497d85bdfe","ios":"levelo://app?vid=c457cfc3-83ae-4746-8353-55497d85bdfe"},"vehicle_type_id":"4","last_reported":1735664824,"current_range_meters":38800,"station_id":"ce4bgl92rcd13ifvqbq0","pricing_plan_id":"cebpf4jnsgd1na2vs0mg"},{"bike_id":"db0d8c09-79a1-4f66-86d6-2938b37caa69","system_id":"levelo_inurba_marseille","lat":43.31729,"lon":5.42399,"is_reserved":false,"is_disabled":false,"rental_uris":{"android":"levelo://app?vid=db0d8c09-79a1-4f66-86d6-2938b37caa69","ios":"levelo://app?vid=db0d8c09-79a1-4f66-86d6-2938b37caa69"},"vehicle_type_id":"4","last_reported":1735664824,"current_range_meters":37600,"station_id":"ce4bhp92rcd13ifvqhbg","pricing_plan_id":"cebpf4jnsgd1na2vs0mg"},{"bike_id":"97aa09f8-1ccd-47ff-8094-273a0bae9e0a","system_id":"levelo_inurba_marseille","lat":43.29621,"lon":5.37708,"is_reserved":false,"is_disabled":false,"rental_uris":{"android":"levelo://app?vid=97aa09f8-1ccd-47ff-8094-273a0bae9e0a","ios":"levelo://app?vid=97aa09f8-1ccd-47ff-8094-273a0bae9e0a"},"vehicle_type_id":"4","last_reported":1735664824,"current_range_meters":31200,"station_id":"ce4bgi92rcd13ifvqb90","pricing_plan_id":"cebpf4jnsgd1na2vs0mg"},{"bike_id":"35c2c095-e215-44a0-bbc2-feea0af9e5d1","system_id":"levelo_inurba_marseille","lat":43.26691,"lon":5.38266,"is_reserved":false,"is_disabled":false,"rental_uris":{"android":"levelo://app?vid=35c2c095-e215-44a0-bbc2-feea0af9e5d1","ios":"levelo://app?vid=35c2c095-e215-44a0-bbc2-feea0af9e5d1"},"vehicle_type_id":"4","last_reported":1735664824,"current_range_meters":38800,"station_id":"ce4bhg92rcd13ifvqf90","pricing_plan_id":"cebpf4jnsgd1na2vs0mg"},{"bike_id":"016e9495-5958-43c7-8a33-5362090be415","system_id":"levelo_inurba_marseille","lat":43.29007,"lon":5.35609,"is_reserved":false,"is_disabled":false,"rental_uris":{"android":"levelo://app?vid=016e9495-5958-43c7-8a33-5362090be415","ios":"levelo://app?vid=016e9495-5958-43c7-8a33-5362090be415"},"vehicle_type_id":"4","last_reported":1735664824,"current_range_meters":38800,"station_id":"ce4bhb92rcd13ifvqen0","pricing_plan_id":"cebpf4jnsgd1na2vs0mg"},{"bike_id":"a005e1bf-2999-4035-942d-1957469d29ca","system_id":"levelo_inurba_marseille","lat":43.24708,"lon":5.38143,"is_reserved":false,"is_disabled":true,"rental_uris":{"android":"levelo://app?vid=a005e1bf-2999-4035-942d-1957469d29ca","ios":"levelo://app?vid=a005e1bf-2999-4035-942d-1957469d29ca"},"vehicle_type_id":"4","last_reported":1735664824,"current_range_meters":36400,"station_id":"ce4bhih2rcd13ifvqfr0","pricing_plan_id":"cebpf4jnsgd1na2vs0mg"},{"bike_id":"ba48c954-cfdc-4161-9476-771c321a4ac6","system_id":"levelo_inurba_marseille","lat":43.23973,"lon":5.36627,"is_reserved":false,"is_disabled":false,"rental_uris":{"android":"levelo://app?vid=ba48c954-cfdc-4161-9476-771c321a4ac6","ios":"levelo://app?vid=ba48c954-cfdc-4161-9476-771c321a4ac6"},"vehicle_type_id":"4","last_reported":1735664824,"current_range_meters":32800,"station_id":"ce4bhi12rcd13ifvqfp0","pricing_plan_id":"cebpf4jnsgd1na2vs0mg"},{"bike_id":"f6c3569e-efa4-4a1c-b75b-94ded8df3e64","system_id":"levelo_inurba_marseille","lat":43.27961,"lon":5.38734,"is_reserved":false,"is_disabled":false,"rental_uris":{"android":"levelo://app?vid=f6c3569e-efa4-4a1c-b75b-94ded8df3e64","ios":"levelo://app?vid=f6c3569e-efa4-4a1c-b75b-94ded8df3e64"},"vehicle_type_id":"4","last_reported":1735664824,"current_range_meters":32000,"station_id":"ce4bhg12rcd13ifvqf80","pricing_plan_id":"cebpf4jnsgd1na2vs0mg"},{"bike_id":"1e9223a0-e23d-42d2-806f-4bd530fdddf4","system_id":"levelo_inurba_marseille","lat":43.28943,"lon":5.36388,"is_reserved":false,"is_disabled":false,"rental_uris":{"android":"levelo://app?vid=1e9223a0-e23d-42d2-806f-4bd530fdddf4","ios":"levelo://app?vid=1e9223a0-e23d-42d2-806f-4bd530fdddf4"},"vehicle_type_id":"4","last_reported":1735664824,"current_range_meters":38000,"station_id":"ce4bhc92rcd13ifvqetg","pricing_plan_id":"cebpf4jnsgd1na2vs0mg"},{"bike_id":"5510f670-eb3d-4a9d-951e-27e21575eef2","system_id":"levelo_inurba_marseille","lat":43.32491,"lon":5.36561,"is_reserved":false,"is_disabled":false,"rental_uris":{"android":"levelo://app?vid=5510f670-eb3d-4a9d-951e-27e21575eef2","ios":"levelo://app?vid=5510f670-eb3d-4a9d-951e-27e21575eef2"},"vehicle_type_id":"4","last_reported":1735664824,"current_range_meters":38000,"station_id":"ce4bhs12rcd13ifvqhvg","pricing_plan_id":"cebpf4jnsgd1na2vs0mg"},{"bike_id":"4c39f437-a5ef-4ec6-98f1-e0f11722d3df","system_id":"levelo_inurba_marseille","lat":43.29617,"lon":5.37719,"is_reserved":false,"is_disabled":false,"rental_uris":{"android":"levelo://app?vid=4c39f437-a5ef-4ec6-98f1-e0f11722d3df","ios":"levelo://app?vid=4c39f437-a5ef-4ec6-98f1-e0f11722d3df"},"vehicle_type_id":"4","last_reported":1735664824,"current_range_meters":12000,"station_id":"ce4bgi92rcd13ifvqb90","pricing_plan_id":"cebpf4jnsgd1na2vs0mg"},{"bike_id":"00138e32-e492-49ec-8baf-715fb2b9afd1","system_id":"levelo_inurba_marseille","lat":43.28057,"lon":5.35292,"is_reserved":false,"is_disabled":false,"rental_uris":{"android":"levelo://app?vid=00138e32-e492-49ec-8baf-715fb2b9afd1","ios":"levelo://app?vid=00138e32-e492-49ec-8baf-715fb2b9afd1"},"vehicle_type_id":"4","last_reported":1735664824,"current_range_meters":24800,"station_id":"ce4bhbh2rcd13ifvqeo0","pricing_plan_id":"cebpf4jnsgd1na2vs0mg"},{"bike_id":"3f85ce8b-2fdd-4846-86c7-195e7b202f6b","system_id":"levelo_inurba_marseille","lat":43.26688,"lon":5.38263,"is_reserved":false,"is_disabled":false,"rental_uris":{"android":"levelo://app?vid=3f85ce8b-2fdd-4846-86c7-195e7b202f6b","ios":"levelo://app?vid=3f85ce8b-2fdd-4846-86c7-195e7b202f6b"},"vehicle_type_id":"4","last_reported":1735664824,"current_range_meters":30800,"station_id":"ce4bhg92rcd13ifvqf90","pricing_plan_id":"cebpf4jnsgd1na2vs0mg"},{"bike_id":"e7f232e6-9751-45f4-a24f-005b95d10947","system_id":"levelo_inurba_marseille","lat":43.29611,"lon":5.37713,"is_reserved":false,"is_disabled":true,"rental_uris":{"android":"levelo://app?vid=e7f232e6-9751-45f4-a24f-005b95d10947","ios":"levelo://app?vid=e7f232e6-9751-45f4-a24f-005b95d10947"},"vehicle_type_id":"4","last_reported":1735664824,"current_range_meters":30400,"station_id":"ce4bgi92rcd13ifvqb90","pricing_plan_id":"cebpf4jnsgd1na2vs0mg"},{"bike_id":"12544942-7925-458c-ba5d-0c7efc7bd8a8","system_id":"levelo_inurba_marseille","lat":43.28473,"lon":5.38422,"is_reserved":false,"is_disabled":false,"rental_uris":{"android":"levelo://app?vid=12544942-7925-458c-ba5d-0c7efc7bd8a8","ios":"levelo://app?vid=12544942-7925-458c-ba5d-0c7efc7bd8a8"},"vehicle_type_id":"4","last_reported":1735664824,"current_range_meters":28400,"station_id":"ce4bh512rcd13ifvqe3g","pricing_plan_id":"cebpf4jnsgd1na2vs0mg"},{"bike_id":"07d6d774-b43c-4547-bb58-7c08434e1edf","system_id":"levelo_inurba_marseille","lat":43.32493,"lon":5.36551,"is_reserved":false,"is_disabled":false,"rental_uris":{"android":"levelo://app?vid=07d6d774-b43c-4547-bb58-7c08434e1edf","ios":"levelo://app?vid=07d6d774-b43c-4547-bb58-7c08434e1edf"},"vehicle_type_id":"4","last_reported":1735664824,"current_range_meters":27600,"station_id":"ce4bhs12rcd13ifvqhvg","pricing_plan_id":"cebpf4jnsgd1na2vs0mg"},{"bike_id":"5a88807b-2498-4017-801a-35d316e1bc1f","system_id":"levelo_inurba_marseille","lat":43.2707,"lon":5.42275,"is_reserved":false,"is_disabled":false,"rental_uris":{"android":"levelo://app?vid=5a88807b-2498-4017-801a-35d316e1bc1f","ios":"levelo://app?vid=5a88807b-2498-4017-801a-35d316e1bc1f"},"vehicle_type_id":"4","last_reported":1735664824,"current_range_meters":19600,"station_id":"ce4bhk92rcd13ifvqgb0","pricing_plan_id":"cebpf4jnsgd1na2vs0mg"},{"bike_id":"af1470c4-ef89-49d6-ba56-3e47ffd86133","system_id":"levelo_inurba_marseille","lat":43.29287,"lon":5.37425,"is_reserved":false,"is_disabled":true,"rental_uris":{"android":"levelo://app?vid=af1470c4-ef89-49d6-ba56-3e47ffd86133","ios":"levelo://app?vid=af1470c4-ef89-49d6-ba56-3e47ffd86133"},"vehicle_type_id":"4","last_reported":1735664824,"current_range_meters":25200,"station_id":"ce4bgi12rcd13ifvqb70","pricing_plan_id":"cebpf4jnsgd1na2vs0mg"},{"bike_id":"1a821a66-e0f6-4530-86b3-250338051818","system_id":"levelo_inurba_marseille","lat":43.2706,"lon":5.42273,"is_reserved":false,"is_disabled":false,"rental_uris":{"android":"levelo://app?vid=1a821a66-e0f6-4530-86b3-250338051818","ios":"levelo://app?vid=1a821a66-e0f6-4530-86b3-250338051818"},"vehicle_type_id":"4","last_reported":1735664824,"current_range_meters":38800,"station_id":"ce4bhk92rcd13ifvqgb0","pricing_plan_id":"cebpf4jnsgd1na2vs0mg"},{"bike_id":"23eb3f37-bb9a-48c0-9c4c-c1df13d774c2","system_id":"levelo_inurba_marseille","lat":43.30152,"lon":5.38086,"is_reserved":false,"is_disabled":false,"rental_uris":{"android":"levelo://app?vid=23eb3f37-bb9a-48c0-9c4c-c1df13d774c2","ios":"levelo://app?vid=23eb3f37-bb9a-48c0-9c4c-c1df13d774c2"},"vehicle_type_id":"4","last_reported":1735664824,"current_range_meters":4800,"station_id":"ce4bgjp2rcd13ifvqbh0","pricing_plan_id":"cebpf4jnsgd1na2vs0mg"},{"bike_id":"bf964ff7-d6c4-4655-aa3c-b44a133b182b","system_id":"levelo_inurba_marseille","lat":43.29,"lon":5.35613,"is_reserved":false,"is_disabled":false,"rental_uris":{"android":"levelo://app?vid=bf964ff7-d6c4-4655-aa3c-b44a133b182b","ios":"levelo://app?vid=bf964ff7-d6c4-4655-aa3c-b44a133b182b"},"vehicle_type_id":"4","last_reported":1735664824,"current_range_meters":38800,"station_id":"ce4bhb92rcd13ifvqen0","pricing_plan_id":"cebpf4jnsgd1na2vs0mg"},{"bike_id":"f5997a88-606e-48c9-933e-041b10894cea","system_id":"levelo_inurba_marseille","lat":43.2707,"lon":5.42281,"is_reserved":false,"is_disabled":false,"rental_uris":{"android":"levelo://app?vid=f5997a88-606e-48c9-933e-041b10894cea","ios":"levelo://app?vid=f5997a88-606e-48c9-933e-041b10894cea"},"vehicle_type_id":"4","last_reported":1735664824,"current_range_meters":24000,"station_id":"ce4bhk92rcd13ifvqgb0","pricing_plan_id":"cebpf4jnsgd1na2vs0mg"},{"bike_id":"9fa77daa-ce7d-4517-8404-3bf3e961ec84","system_id":"levelo_inurba_marseille","lat":43.33024,"lon":5.39062,"is_reserved":false,"is_disabled":false,"rental_uris":{"android":"levelo://app?vid=9fa77daa-ce7d-4517-8404-3bf3e961ec84","ios":"levelo://app?vid=9fa77daa-ce7d-4517-8404-3bf3e961ec84"},"vehicle_type_id":"4","last_reported":1735664824,"current_range_meters":37600,"station_id":"ce4bhr92rcd13ifvqhrg","pricing_plan_id":"cebpf4jnsgd1na2vs0mg"},{"bike_id":"97ac4149-9f70-45de-9234-d34dbf67aef9","system_id":"levelo_inurba_marseille","lat":43.30877,"lon":5.39635,"is_reserved":false,"is_disabled":true,"rental_uris":{"android":"levelo://app?vid=97ac4149-9f70-45de-9234-d34dbf67aef9","ios":"levelo://app?vid=97ac4149-9f70-45de-9234-d34dbf67aef9"},"vehicle_type_id":"4","last_reported":1735664824,"current_range_meters":1600,"station_id":"ce4bh012rcd13ifvqcv0","pricing_plan_id":"cebpf4jnsgd1na2vs0mg"},{"bike_id":"ce2aa9bd-246a-4505-94e7-95abac4f57df","system_id":"levelo_inurba_marseille","lat":43.28842,"lon":5.39323,"is_reserved":false,"is_disabled":false,"rental_uris":{"android":"levelo://app?vid=ce2aa9bd-246a-4505-94e7-95abac4f57df","ios":"levelo://app?vid=ce2aa9bd-246a-4505-94e7-95abac4f57df"},"vehicle_type_id":"4","last_reported":1735664824,"current_range_meters":9200,"station_id":"ce4bh2p2rcd13ifvqdi0","pricing_plan_id":"cebpf4jnsgd1na2vs0mg"},{"bike_id":"4ae90592-e920-400e-8a25-b327a1d3d78f","system_id":"levelo_inurba_marseille","lat":43.24665,"lon":5.3817,"is_reserved":false,"is_disabled":false,"rental_uris":{"android":"levelo://app?vid=4ae90592-e920-400e-8a25-b327a1d3d78f","ios":"levelo://app?vid=4ae90592-e920-400e-8a25-b327a1d3d78f"},"vehicle_type_id":"4","last_reported":1735664824,"current_range_meters":8400,"station_id":"ce4bhih2rcd13ifvqfr0","pricing_plan_id":"cebpf4jnsgd1na2vs0mg"},{"bike_id":"9a0eba0d-8d44-4279-a2fa-f338d6c0f174","system_id":"levelo_inurba_marseille","lat":43.28597,"lon":5.37067,"is_reserved":false,"is_disabled":false,"rental_uris":{"android":"levelo://app?vid=9a0eba0d-8d44-4279-a2fa-f338d6c0f174","ios":"levelo://app?vid=9a0eba0d-8d44-4279-a2fa-f338d6c0f174"},"vehicle_type_id":"4","last_reported":1735664824,"current_range_meters":12400,"station_id":"ce4bht12rcd13ifvqi60","pricing_plan_id":"cebpf4jnsgd1na2vs0mg"},{"bike_id":"37fe9085-3022-46a1-aafb-30ba883fe30c","system_id":"levelo_inurba_marseille","lat":43.27067,"lon":5.42285,"is_reserved":false,"is_disabled":false,"rental_uris":{"android":"levelo://app?vid=37fe9085-3022-46a1-aafb-30ba883fe30c","ios":"levelo://app?vid=37fe9085-3022-46a1-aafb-30ba883fe30c"},"vehicle_type_id":"4","last_reported":1735664824,"current_range_meters":18000,"station_id":"ce4bhk92rcd13ifvqgb0","pricing_plan_id":"cebpf4jnsgd1na2vs0mg"},{"bike_id":"9f6f2313-c1a8-4417-b604-2f0daee035fc","system_id":"levelo_inurba_marseille","lat":43.23957,"lon":5.36628,"is_reserved":false,"is_disabled":false,"rental_uris":{"android":"levelo://app?vid=9f6f2313-c1a8-4417-b604-2f0daee035fc","ios":"levelo://app?vid=9f6f2313-c1a8-4417-b604-2f0daee035fc"},"vehicle_type_id":"4","last_reported":1735664824,"current_range_meters":29600,"station_id":"ce4bhi12rcd13ifvqfp0","pricing_plan_id":"cebpf4jnsgd1na2vs0mg"},{"bike_id":"1e7e0009-7be7-499a-a4d2-a6c912d4dc6f","system_id":"levelo_inurba_marseille","lat":43.29586,"lon":5.37483,"is_reserved":false,"is_disabled":false,"rental_uris":{"android":"levelo://app?vid=1e7e0009-7be7-499a-a4d2-a6c912d4dc6f","ios":"levelo://app?vid=1e7e0009-7be7-499a-a4d2-a6c912d4dc6f"},"vehicle_type_id":"4","last_reported":1735664824,"current_range_meters":33200,"station_id":"ce4bgh92rcd13ifvqb50","pricing_plan_id":"cebpf4jnsgd1na2vs0mg"},{"bike_id":"958d515e-3b69-4ae8-91dd-c93eaed7fa8b","system_id":"levelo_inurba_marseille","lat":43.30353,"lon":5.38584,"is_reserved":false,"is_disabled":false,"rental_uris":{"android":"levelo://app?vid=958d515e-3b69-4ae8-91dd-c93eaed7fa8b","ios":"levelo://app?vid=958d515e-3b69-4ae8-91dd-c93eaed7fa8b"},"vehicle_type_id":"4","last_reported":1735664824,"current_range_meters":34000,"station_id":"ce4bgg92rcd13ifvqb30","pricing_plan_id":"cebpf4jnsgd1na2vs0mg"},{"bike_id":"e2e37fcf-bdca-4703-b57b-04e9ac7eb714","system_id":"levelo_inurba_marseille","lat":43.30899,"lon":5.37189,"is_reserved":false,"is_disabled":false,"rental_uris":{"android":"levelo://app?vid=e2e37fcf-bdca-4703-b57b-04e9ac7eb714","ios":"levelo://app?vid=e2e37fcf-bdca-4703-b57b-04e9ac7eb714"},"vehicle_type_id":"4","last_reported":1735664824,"current_range_meters":38800,"station_id":"ce4bguh2rcd13ifvqckg","pricing_plan_id":"cebpf4jnsgd1na2vs0mg"},{"bike_id":"3bab2653-c962-46e7-8d14-0cb64372ec3d","system_id":"levelo_inurba_marseille","lat":43.320492,"lon":5.415355,"is_reserved":false,"is_disabled":false,"rental_uris":{"android":"levelo://app?vid=3bab2653-c962-46e7-8d14-0cb64372ec3d","ios":"levelo://app?vid=3bab2653-c962-46e7-8d14-0cb64372ec3d"},"vehicle_type_id":"4","last_reported":1735664824,"current_range_meters":13600,"station_id":"ce4bhq92rcd13ifvqhkg","pricing_plan_id":"cebpf4jnsgd1na2vs0mg"},{"bike_id":"36a7708a-0681-47b8-9095-01fc50c810d2","system_id":"levelo_inurba_marseille","lat":43.29303,"lon":5.37455,"is_reserved":false,"is_disabled":false,"rental_uris":{"android":"levelo://app?vid=36a7708a-0681-47b8-9095-01fc50c810d2","ios":"levelo://app?vid=36a7708a-0681-47b8-9095-01fc50c810d2"},"vehicle_type_id":"4","last_reported":1735664824,"current_range_meters":26800,"station_id":"ce4bgi12rcd13ifvqb70","pricing_plan_id":"cebpf4jnsgd1na2vs0mg"},{"bike_id":"94e6dee2-3159-449e-9ee5-297188ebe26e","system_id":"levelo_inurba_marseille","lat":43.29916,"lon":5.37446,"is_reserved":false,"is_disabled":false,"rental_uris":{"android":"levelo://app?vid=94e6dee2-3159-449e-9ee5-297188ebe26e","ios":"levelo://app?vid=94e6dee2-3159-449e-9ee5-297188ebe26e"},"vehicle_type_id":"4","last_reported":1735664824,"current_range_meters":25200,"station_id":"ce4bgjh2rcd13ifvqbg0","pricing_plan_id":"cebpf4jnsgd1na2vs0mg"},{"bike_id":"53d39fa5-8481-47bc-80c2-b4a5805cc762","system_id":"levelo_inurba_marseille","lat":43.28352,"lon":5.38108,"is_reserved":false,"is_disabled":false,"rental_uris":{"android":"levelo://app?vid=53d39fa5-8481-47bc-80c2-b4a5805cc762","ios":"levelo://app?vid=53d39fa5-8481-47bc-80c2-b4a5805cc762"},"vehicle_type_id":"4","last_reported":1735664824,"current_range_meters":28800,"station_id":"ce4bh412rcd13ifvqdr0","pricing_plan_id":"cebpf4jnsgd1na2vs0mg"},{"bike_id":"8cbc8b99-428c-4040-b86c-4e2c4fffea65","system_id":"levelo_inurba_marseille","lat":43.33784,"lon":5.37425,"is_reserved":false,"is_disabled":true,"rental_uris":{"android":"levelo://app?vid=8cbc8b99-428c-4040-b86c-4e2c4fffea65","ios":"levelo://app?vid=8cbc8b99-428c-4040-b86c-4e2c4fffea65"},"vehicle_type_id":"4","last_reported":1735664824,"current_range_meters":37600,"station_id":"","pricing_plan_id":"cebpf4jnsgd1na2vs0mg"},{"bike_id":"65e47f8e-8281-4877-9957-4bbb63858c4d","system_id":"levelo_inurba_marseille","lat":43.25683,"lon":5.41145,"is_reserved":false,"is_disabled":false,"rental_uris":{"android":"levelo://app?vid=65e47f8e-8281-4877-9957-4bbb63858c4d","ios":"levelo://app?vid=65e47f8e-8281-4877-9957-4bbb63858c4d"},"vehicle_type_id":"4","last_reported":1735664824,"current_range_meters":28400,"station_id":"ce4bhkp2rcd13ifvqgd0","pricing_plan_id":"cebpf4jnsgd1na2vs0mg"},{"bike_id":"7385ef09-fc7e-49f4-8071-c7ada7d0b18c","system_id":"levelo_inurba_marseille","lat":43.31689,"lon":5.40476,"is_reserved":false,"is_disabled":true,"rental_uris":{"android":"levelo://app?vid=7385ef09-fc7e-49f4-8071-c7ada7d0b18c","ios":"levelo://app?vid=7385ef09-fc7e-49f4-8071-c7ada7d0b18c"},"vehicle_type_id":"4","last_reported":1735664824,"current_range_meters":7200,"station_id":"ce4bh012rcd13ifvqd00","pricing_plan_id":"cebpf4jnsgd1na2vs0mg"},{"bike_id":"6e154817-0009-4376-9647-48c4259014fa","system_id":"levelo_inurba_marseille","lat":43.30535,"lon":5.36559,"is_reserved":false,"is_disabled":false,"rental_uris":{"android":"levelo://app?vid=6e154817-0009-4376-9647-48c4259014fa","ios":"levelo://app?vid=6e154817-0009-4376-9647-48c4259014fa"},"vehicle_type_id":"4","last_reported":1735664824,"current_range_meters":25200,"station_id":"ce4bgs12rcd13ifvqcag","pricing_plan_id":"cebpf4jnsgd1na2vs0mg"},{"bike_id":"d7fe7b90-8e27-42ab-bc5b-95a3db9fa1b2","system_id":"levelo_inurba_marseille","lat":43.2797,"lon":5.38741,"is_reserved":false,"is_disabled":false,"rental_uris":{"android":"levelo://app?vid=d7fe7b90-8e27-42ab-bc5b-95a3db9fa1b2","ios":"levelo://app?vid=d7fe7b90-8e27-42ab-bc5b-95a3db9fa1b2"},"vehicle_type_id":"4","last_reported":1735664824,"current_range_meters":8800,"station_id":"ce4bhg12rcd13ifvqf80","pricing_plan_id":"cebpf4jnsgd1na2vs0mg"},{"bike_id":"749a2a84-3a9f-4103-a540-347a56e3c886","system_id":"levelo_inurba_marseille","lat":43.27568,"lon":5.38435,"is_reserved":false,"is_disabled":false,"rental_uris":{"android":"levelo://app?vid=749a2a84-3a9f-4103-a540-347a56e3c886","ios":"levelo://app?vid=749a2a84-3a9f-4103-a540-347a56e3c886"},"vehicle_type_id":"4","last_reported":1735664824,"current_range_meters":27200,"station_id":"ce4bhh92rcd13ifvqfi0","pricing_plan_id":"cebpf4jnsgd1na2vs0mg"},{"bike_id":"b1815487-383e-42be-8a0b-8b8db0c2ceef","system_id":"levelo_inurba_marseille","lat":43.3228,"lon":5.38255,"is_reserved":false,"is_disabled":false,"rental_uris":{"android":"levelo://app?vid=b1815487-383e-42be-8a0b-8b8db0c2ceef","ios":"levelo://app?vid=b1815487-383e-42be-8a0b-8b8db0c2ceef"},"vehicle_type_id":"4","last_reported":1735664824,"current_range_meters":39200,"station_id":"ce4bhr12rcd13ifvqhqg","pricing_plan_id":"cebpf4jnsgd1na2vs0mg"},{"bike_id":"e8bbe484-3ff7-4bb8-8508-ca897dca08ac","system_id":"levelo_inurba_marseille","lat":43.28938,"lon":5.36628,"is_reserved":false,"is_disabled":false,"rental_uris":{"android":"levelo://app?vid=e8bbe484-3ff7-4bb8-8508-ca897dca08ac","ios":"levelo://app?vid=e8bbe484-3ff7-4bb8-8508-ca897dca08ac"},"vehicle_type_id":"4","last_reported":1735664824,"current_range_meters":34800,"station_id":"ce4bhap2rcd13ifvqek0","pricing_plan_id":"cebpf4jnsgd1na2vs0mg"},{"bike_id":"74bfd52b-7e46-465d-8766-e79667dc7763","system_id":"levelo_inurba_marseille","lat":43.32077,"lon":5.41545,"is_reserved":false,"is_disabled":false,"rental_uris":{"android":"levelo://app?vid=74bfd52b-7e46-465d-8766-e79667dc7763","ios":"levelo://app?vid=74bfd52b-7e46-465d-8766-e79667dc7763"},"vehicle_type_id":"4","last_reported":1735664824,"current_range_meters":39200,"station_id":"ce4bhq92rcd13ifvqhkg","pricing_plan_id":"cebpf4jnsgd1na2vs0mg"},{"bike_id":"452ce8d1-2f64-4195-b887-acb3a8abeb76","system_id":"levelo_inurba_marseille","lat":43.30545,"lon":5.38447,"is_reserved":false,"is_disabled":false,"rental_uris":{"android":"levelo://app?vid=452ce8d1-2f64-4195-b887-acb3a8abeb76","ios":"levelo://app?vid=452ce8d1-2f64-4195-b887-acb3a8abeb76"},"vehicle_type_id":"4","last_reported":1735664824,"current_range_meters":34000,"station_id":"ce4bgg92rcd13ifvqb30","pricing_plan_id":"cebpf4jnsgd1na2vs0mg"},{"bike_id":"a9ad46d6-1750-405f-8074-9378a5ffcb62","system_id":"levelo_inurba_marseille","lat":43.29576,"lon":5.37486,"is_reserved":false,"is_disabled":false,"rental_uris":{"android":"levelo://app?vid=a9ad46d6-1750-405f-8074-9378a5ffcb62","ios":"levelo://app?vid=a9ad46d6-1750-405f-8074-9378a5ffcb62"},"vehicle_type_id":"4","last_reported":1735664824,"current_range_meters":24800,"station_id":"ce4bgh92rcd13ifvqb50","pricing_plan_id":"cebpf4jnsgd1na2vs0mg"},{"bike_id":"df334d50-4421-42a5-a762-fb7f39807cc1","system_id":"levelo_inurba_marseille","lat":43.337444,"lon":5.374475,"is_reserved":false,"is_disabled":false,"rental_uris":{"android":"levelo://app?vid=df334d50-4421-42a5-a762-fb7f39807cc1","ios":"levelo://app?vid=df334d50-4421-42a5-a762-fb7f39807cc1"},"vehicle_type_id":"4","last_reported":1735664824,"current_range_meters":38400,"station_id":"","pricing_plan_id":"cebpf4jnsgd1na2vs0mg"},{"bike_id":"06a845ee-9c64-4db7-8cf7-04ee769e84b3","system_id":"levelo_inurba_marseille","lat":43.25118,"lon":5.40316,"is_reserved":false,"is_disabled":false,"rental_uris":{"android":"levelo://app?vid=06a845ee-9c64-4db7-8cf7-04ee769e84b3","ios":"levelo://app?vid=06a845ee-9c64-4db7-8cf7-04ee769e84b3"},"vehicle_type_id":"4","last_reported":1735664824,"current_range_meters":24800,"station_id":"ce4bhlh2rcd13ifvqgig","pricing_plan_id":"cebpf4jnsgd1na2vs0mg"},{"bike_id":"35d7b981-f2f8-4e1f-bf58-6f3547d4e1f6","system_id":"levelo_inurba_marseille","lat":43.30318,"lon":5.36904,"is_reserved":false,"is_disabled":true,"rental_uris":{"android":"levelo://app?vid=35d7b981-f2f8-4e1f-bf58-6f3547d4e1f6","ios":"levelo://app?vid=35d7b981-f2f8-4e1f-bf58-6f3547d4e1f6"},"vehicle_type_id":"4","last_reported":1735664824,"current_range_meters":27200,"station_id":"ce4bgqh2rcd13ifvqc5g","pricing_plan_id":"cebpf4jnsgd1na2vs0mg"},{"bike_id":"3e2ae0bf-9cf9-4b47-bb7d-e8a9278da38e","system_id":"levelo_inurba_marseille","lat":43.30927,"lon":5.40148,"is_reserved":false,"is_disabled":false,"rental_uris":{"android":"levelo://app?vid=3e2ae0bf-9cf9-4b47-bb7d-e8a9278da38e","ios":"levelo://app?vid=3e2ae0bf-9cf9-4b47-bb7d-e8a9278da38e"},"vehicle_type_id":"4","last_reported":1735664824,"current_range_meters":36400,"station_id":"ce4bgvp2rcd13ifvqct0","pricing_plan_id":"cebpf4jnsgd1na2vs0mg"},{"bike_id":"847e09aa-0198-46d1-b907-778eecf50dd1","system_id":"levelo_inurba_marseille","lat":43.31217,"lon":5.36936,"is_reserved":false,"is_disabled":true,"rental_uris":{"android":"levelo://app?vid=847e09aa-0198-46d1-b907-778eecf50dd1","ios":"levelo://app?vid=847e09aa-0198-46d1-b907-778eecf50dd1"},"vehicle_type_id":"4","last_reported":1735664824,"current_range_meters":38800,"station_id":"ce4bgl92rcd13ifvqbq0","pricing_plan_id":"cebpf4jnsgd1na2vs0mg"},{"bike_id":"6c014656-e4a8-4595-9293-20a416106ed2","system_id":"levelo_inurba_marseille","lat":43.30643,"lon":5.4008,"is_reserved":false,"is_disabled":false,"rental_uris":{"android":"levelo://app?vid=6c014656-e4a8-4595-9293-20a416106ed2","ios":"levelo://app?vid=6c014656-e4a8-4595-9293-20a416106ed2"},"vehicle_type_id":"4","last_reported":1735664824,"current_range_meters":34800,"station_id":"ce4bh112rcd13ifvqda0","pricing_plan_id":"cebpf4jnsgd1na2vs0mg"},{"bike_id":"5367a292-5564-4681-91cd-97babb89fc00","system_id":"levelo_inurba_marseille","lat":43.22934,"lon":5.35368,"is_reserved":false,"is_disabled":false,"rental_uris":{"android":"levelo://app?vid=5367a292-5564-4681-91cd-97babb89fc00","ios":"levelo://app?vid=5367a292-5564-4681-91cd-97babb89fc00"},"vehicle_type_id":"4","last_reported":1735664824,"current_range_meters":27200,"station_id":"cpo3532slgdg3j2ikp40","pricing_plan_id":"cebpf4jnsgd1na2vs0mg"},{"bike_id":"1d5543c4-1c87-4447-ad2e-0cc64903ea75","system_id":"levelo_inurba_marseille","lat":43.25865,"lon":5.39901,"is_reserved":false,"is_disabled":false,"rental_uris":{"android":"levelo://app?vid=1d5543c4-1c87-4447-ad2e-0cc64903ea75","ios":"levelo://app?vid=1d5543c4-1c87-4447-ad2e-0cc64903ea75"},"vehicle_type_id":"4","last_reported":1735664824,"current_range_meters":17200,"station_id":"ce4bhl92rcd13ifvqghg","pricing_plan_id":"cebpf4jnsgd1na2vs0mg"},{"bike_id":"0483d5a5-12c2-4b90-8e6c-47d6d5a4b82c","system_id":"levelo_inurba_marseille","lat":43.25826,"lon":5.39441,"is_reserved":false,"is_disabled":false,"rental_uris":{"android":"levelo://app?vid=0483d5a5-12c2-4b90-8e6c-47d6d5a4b82c","ios":"levelo://app?vid=0483d5a5-12c2-4b90-8e6c-47d6d5a4b82c"},"vehicle_type_id":"4","last_reported":1735664824,"current_range_meters":38800,"station_id":"ce4bhip2rcd13ifvqft0","pricing_plan_id":"cebpf4jnsgd1na2vs0mg"},{"bike_id":"523f53b8-d5fa-4c60-a25e-8902b398e89d","system_id":"levelo_inurba_marseille","lat":43.29556,"lon":5.42283,"is_reserved":false,"is_disabled":false,"rental_uris":{"android":"levelo://app?vid=523f53b8-d5fa-4c60-a25e-8902b398e89d","ios":"levelo://app?vid=523f53b8-d5fa-4c60-a25e-8902b398e89d"},"vehicle_type_id":"4","last_reported":1735664824,"current_range_meters":38800,"station_id":"ce4bhph2rcd13ifvqhdg","pricing_plan_id":"cebpf4jnsgd1na2vs0mg"},{"bike_id":"66ad4ea9-62a7-4256-b00c-daf29a922c03","system_id":"levelo_inurba_marseille","lat":43.29292,"lon":5.37165,"is_reserved":false,"is_disabled":false,"rental_uris":{"android":"levelo://app?vid=66ad4ea9-62a7-4256-b00c-daf29a922c03","ios":"levelo://app?vid=66ad4ea9-62a7-4256-b00c-daf29a922c03"},"vehicle_type_id":"4","last_reported":1735664824,"current_range_meters":28800,"station_id":"ce4bgh92rcd13ifvqb40","pricing_plan_id":"cebpf4jnsgd1na2vs0mg"},{"bike_id":"aa153525-78e0-4122-ab1b-7135fab777c7","system_id":"levelo_inurba_marseille","lat":43.30889,"lon":5.37197,"is_reserved":false,"is_disabled":false,"rental_uris":{"android":"levelo://app?vid=aa153525-78e0-4122-ab1b-7135fab777c7","ios":"levelo://app?vid=aa153525-78e0-4122-ab1b-7135fab777c7"},"vehicle_type_id":"4","last_reported":1735664824,"current_range_meters":37600,"station_id":"ce4bguh2rcd13ifvqckg","pricing_plan_id":"cebpf4jnsgd1na2vs0mg"},{"bike_id":"90ea32f2-8b16-412b-9028-e97b2dd7bfd3","system_id":"levelo_inurba_marseille","lat":43.31682,"lon":5.4046,"is_reserved":false,"is_disabled":true,"rental_uris":{"android":"levelo://app?vid=90ea32f2-8b16-412b-9028-e97b2dd7bfd3","ios":"levelo://app?vid=90ea32f2-8b16-412b-9028-e97b2dd7bfd3"},"vehicle_type_id":"4","last_reported":1735664824,"current_range_meters":0,"station_id":"ce4bh012rcd13ifvqd00","pricing_plan_id":"cebpf4jnsgd1na2vs0mg"},{"bike_id":"f9257409-b40a-4fe0-a345-040949bcefaf","system_id":"levelo_inurba_marseille","lat":43.27978,"lon":5.38744,"is_reserved":false,"is_disabled":false,"rental_uris":{"android":"levelo://app?vid=f9257409-b40a-4fe0-a345-040949bcefaf","ios":"levelo://app?vid=f9257409-b40a-4fe0-a345-040949bcefaf"},"vehicle_type_id":"4","last_reported":1735664824,"current_range_meters":32800,"station_id":"ce4bhg12rcd13ifvqf80","pricing_plan_id":"cebpf4jnsgd1na2vs0mg"},{"bike_id":"e53a814f-c190-4153-a68e-519bc61d22d3","system_id":"levelo_inurba_marseille","lat":43.24542,"lon":5.39522,"is_reserved":false,"is_disabled":false,"rental_uris":{"android":"levelo://app?vid=e53a814f-c190-4153-a68e-519bc61d22d3","ios":"levelo://app?vid=e53a814f-c190-4153-a68e-519bc61d22d3"},"vehicle_type_id":"4","last_reported":1735664824,"current_range_meters":39200,"station_id":"ce4bhlp2rcd13ifvqgjg","pricing_plan_id":"cebpf4jnsgd1na2vs0mg"},{"bike_id":"b0f2160b-0f94-4b8d-8df8-36ca4385a146","system_id":"levelo_inurba_marseille","lat":43.29616,"lon":5.37151,"is_reserved":false,"is_disabled":false,"rental_uris":{"android":"levelo://app?vid=b0f2160b-0f94-4b8d-8df8-36ca4385a146","ios":"levelo://app?vid=b0f2160b-0f94-4b8d-8df8-36ca4385a146"},"vehicle_type_id":"4","last_reported":1735664824,"current_range_meters":6000,"station_id":"ce4bgnh2rcd13ifvqc0g","pricing_plan_id":"cebpf4jnsgd1na2vs0mg"},{"bike_id":"a922a775-406d-495e-80ac-6714d95d9eda","system_id":"levelo_inurba_marseille","lat":43.31168,"lon":5.38722,"is_reserved":false,"is_disabled":false,"rental_uris":{"android":"levelo://app?vid=a922a775-406d-495e-80ac-6714d95d9eda","ios":"levelo://app?vid=a922a775-406d-495e-80ac-6714d95d9eda"},"vehicle_type_id":"4","last_reported":1735664824,"current_range_meters":14000,"station_id":"ce4bgv12rcd13ifvqcp0","pricing_plan_id":"cebpf4jnsgd1na2vs0mg"},{"bike_id":"e7f6b94b-592f-4376-ae27-ecfe3110b335","system_id":"levelo_inurba_marseille","lat":43.29566,"lon":5.37515,"is_reserved":false,"is_disabled":false,"rental_uris":{"android":"levelo://app?vid=e7f6b94b-592f-4376-ae27-ecfe3110b335","ios":"levelo://app?vid=e7f6b94b-592f-4376-ae27-ecfe3110b335"},"vehicle_type_id":"4","last_reported":1735664824,"current_range_meters":14800,"station_id":"ce4bgh92rcd13ifvqb50","pricing_plan_id":"cebpf4jnsgd1na2vs0mg"},{"bike_id":"ca497fc6-cd22-4171-8d71-508c45bf12cf","system_id":"levelo_inurba_marseille","lat":43.29626,"lon":5.37145,"is_reserved":false,"is_disabled":true,"rental_uris":{"android":"levelo://app?vid=ca497fc6-cd22-4171-8d71-508c45bf12cf","ios":"levelo://app?vid=ca497fc6-cd22-4171-8d71-508c45bf12cf"},"vehicle_type_id":"4","last_reported":1735664824,"current_range_meters":0,"station_id":"ce4bgnh2rcd13ifvqc0g","pricing_plan_id":"cebpf4jnsgd1na2vs0mg"},{"bike_id":"fdcb93a4-8a39-475e-8a0d-caf375d10c96","system_id":"levelo_inurba_marseille","lat":43.2956,"lon":5.3751,"is_reserved":false,"is_disabled":false,"rental_uris":{"android":"levelo://app?vid=fdcb93a4-8a39-475e-8a0d-caf375d10c96","ios":"levelo://app?vid=fdcb93a4-8a39-475e-8a0d-caf375d10c96"},"vehicle_type_id":"4","last_reported":1735664824,"current_range_meters":36400,"station_id":"ce4bgh92rcd13ifvqb50","pricing_plan_id":"cebpf4jnsgd1na2vs0mg"},{"bike_id":"bbfc5010-5ad1-478a-9bf0-def17e142c1c","system_id":"levelo_inurba_marseille","lat":43.28041,"lon":5.36933,"is_reserved":false,"is_disabled":false,"rental_uris":{"android":"levelo://app?vid=bbfc5010-5ad1-478a-9bf0-def17e142c1c","ios":"levelo://app?vid=bbfc5010-5ad1-478a-9bf0-def17e142c1c"},"vehicle_type_id":"4","last_reported":1735664824,"current_range_meters":6000,"station_id":"ce4bha12rcd13ifvqef0","pricing_plan_id":"cebpf4jnsgd1na2vs0mg"},{"bike_id":"91f48556-6be7-4726-856a-0ff67d45df38","system_id":"levelo_inurba_marseille","lat":43.31172,"lon":5.387,"is_reserved":false,"is_disabled":false,"rental_uris":{"android":"levelo://app?vid=91f48556-6be7-4726-856a-0ff67d45df38","ios":"levelo://app?vid=91f48556-6be7-4726-856a-0ff67d45df38"},"vehicle_type_id":"4","last_reported":1735664824,"current_range_meters":38800,"station_id":"ce4bgv12rcd13ifvqcp0","pricing_plan_id":"cebpf4jnsgd1na2vs0mg"},{"bike_id":"a73ea911-2099-462d-892f-78a2140e3872","system_id":"levelo_inurba_marseille","lat":43.27062,"lon":5.40254,"is_reserved":false,"is_disabled":false,"rental_uris":{"android":"levelo://app?vid=a73ea911-2099-462d-892f-78a2140e3872","ios":"levelo://app?vid=a73ea911-2099-462d-892f-78a2140e3872"},"vehicle_type_id":"4","last_reported":1735664824,"current_range_meters":16000,"station_id":"ce4bhk92rcd13ifvqgc0","pricing_plan_id":"cebpf4jnsgd1na2vs0mg"},{"bike_id":"8c6775f0-8523-4aa2-9dea-60c50dd12624","system_id":"levelo_inurba_marseille","lat":43.24804,"lon":5.37453,"is_reserved":false,"is_disabled":false,"rental_uris":{"android":"levelo://app?vid=8c6775f0-8523-4aa2-9dea-60c50dd12624","ios":"levelo://app?vid=8c6775f0-8523-4aa2-9dea-60c50dd12624"},"vehicle_type_id":"4","last_reported":1735664824,"current_range_meters":32000,"station_id":"ce4bhgh2rcd13ifvqfb0","pricing_plan_id":"cebpf4jnsgd1na2vs0mg"},{"bike_id":"dac94ecf-3203-4c89-acc0-21c14e979588","system_id":"levelo_inurba_marseille","lat":43.26689,"lon":5.38265,"is_reserved":false,"is_disabled":false,"rental_uris":{"android":"levelo://app?vid=dac94ecf-3203-4c89-acc0-21c14e979588","ios":"levelo://app?vid=dac94ecf-3203-4c89-acc0-21c14e979588"},"vehicle_type_id":"4","last_reported":1735664824,"current_range_meters":14800,"station_id":"ce4bhg92rcd13ifvqf90","pricing_plan_id":"cebpf4jnsgd1na2vs0mg"},{"bike_id":"560a082e-860d-453b-bdd6-7a868105718c","system_id":"levelo_inurba_marseille","lat":43.26806,"lon":5.40282,"is_reserved":false,"is_disabled":false,"rental_uris":{"android":"levelo://app?vid=560a082e-860d-453b-bdd6-7a868105718c","ios":"levelo://app?vid=560a082e-860d-453b-bdd6-7a868105718c"},"vehicle_type_id":"4","last_reported":1735664824,"current_range_meters":10800,"station_id":"ce501612rcd8frsf0b60","pricing_plan_id":"cebpf4jnsgd1na2vs0mg"},{"bike_id":"9c42c59a-a990-48ee-91ac-32ebebcaabf5","system_id":"levelo_inurba_marseille","lat":43.2757,"lon":5.38422,"is_reserved":false,"is_disabled":false,"rental_uris":{"android":"levelo://app?vid=9c42c59a-a990-48ee-91ac-32ebebcaabf5","ios":"levelo://app?vid=9c42c59a-a990-48ee-91ac-32ebebcaabf5"},"vehicle_type_id":"4","last_reported":1735664824,"current_range_meters":39200,"station_id":"ce4bhh92rcd13ifvqfi0","pricing_plan_id":"cebpf4jnsgd1na2vs0mg"},{"bike_id":"33627164-74dc-4db2-a6ec-b1f60092e8e5","system_id":"levelo_inurba_marseille","lat":43.30314,"lon":5.36899,"is_reserved":false,"is_disabled":false,"rental_uris":{"android":"levelo://app?vid=33627164-74dc-4db2-a6ec-b1f60092e8e5","ios":"levelo://app?vid=33627164-74dc-4db2-a6ec-b1f60092e8e5"},"vehicle_type_id":"4","last_reported":1735664824,"current_range_meters":32400,"station_id":"ce4bgqh2rcd13ifvqc5g","pricing_plan_id":"cebpf4jnsgd1na2vs0mg"},{"bike_id":"574cc7c9-af0a-4b2e-a0cc-bed0c4c224e4","system_id":"levelo_inurba_marseille","lat":43.30208,"lon":5.39474,"is_reserved":false,"is_disabled":false,"rental_uris":{"android":"levelo://app?vid=574cc7c9-af0a-4b2e-a0cc-bed0c4c224e4","ios":"levelo://app?vid=574cc7c9-af0a-4b2e-a0cc-bed0c4c224e4"},"vehicle_type_id":"4","last_reported":1735664824,"current_range_meters":38000,"station_id":"ce4bh0p2rcd13ifvqd70","pricing_plan_id":"cebpf4jnsgd1na2vs0mg"},{"bike_id":"0ab29ede-7ec3-497d-83f6-42fce8449d36","system_id":"levelo_inurba_marseille","lat":43.30093,"lon":5.39071,"is_reserved":false,"is_disabled":false,"rental_uris":{"android":"levelo://app?vid=0ab29ede-7ec3-497d-83f6-42fce8449d36","ios":"levelo://app?vid=0ab29ede-7ec3-497d-83f6-42fce8449d36"},"vehicle_type_id":"4","last_reported":1735664824,"current_range_meters":15200,"station_id":"ce4bh192rcd13ifvqdb0","pricing_plan_id":"cebpf4jnsgd1na2vs0mg"},{"bike_id":"b08b44c9-4f43-459d-a0dd-d0fc0b2388a9","system_id":"levelo_inurba_marseille","lat":43.29106,"lon":5.36842,"is_reserved":false,"is_disabled":false,"rental_uris":{"android":"levelo://app?vid=b08b44c9-4f43-459d-a0dd-d0fc0b2388a9","ios":"levelo://app?vid=b08b44c9-4f43-459d-a0dd-d0fc0b2388a9"},"vehicle_type_id":"4","last_reported":1735664824,"current_range_meters":5600,"station_id":"","pricing_plan_id":"cebpf4jnsgd1na2vs0mg"},{"bike_id":"74c436f3-e3b1-4519-a595-147d6a7b84c4","system_id":"levelo_inurba_marseille","lat":43.28721,"lon":5.36089,"is_reserved":false,"is_disabled":false,"rental_uris":{"android":"levelo://app?vid=74c436f3-e3b1-4519-a595-147d6a7b84c4","ios":"levelo://app?vid=74c436f3-e3b1-4519-a595-147d6a7b84c4"},"vehicle_type_id":"4","last_reported":1735664824,"current_range_meters":16000,"station_id":"cki0cbj6b192h4jlfktg","pricing_plan_id":"cebpf4jnsgd1na2vs0mg"},{"bike_id":"653a020e-4db4-420d-8d7e-d0206fa4a06f","system_id":"levelo_inurba_marseille","lat":43.27848,"lon":5.39224,"is_reserved":false,"is_disabled":false,"rental_uris":{"android":"levelo://app?vid=653a020e-4db4-420d-8d7e-d0206fa4a06f","ios":"levelo://app?vid=653a020e-4db4-420d-8d7e-d0206fa4a06f"},"vehicle_type_id":"4","last_reported":1735664824,"current_range_meters":38400,"station_id":"ce4bhjp2rcd13ifvqga0","pricing_plan_id":"cebpf4jnsgd1na2vs0mg"},{"bike_id":"6d54cb2d-1cdf-4512-8419-54b288767fca","system_id":"levelo_inurba_marseille","lat":43.28037,"lon":5.3695,"is_reserved":false,"is_disabled":false,"rental_uris":{"android":"levelo://app?vid=6d54cb2d-1cdf-4512-8419-54b288767fca","ios":"levelo://app?vid=6d54cb2d-1cdf-4512-8419-54b288767fca"},"vehicle_type_id":"4","last_reported":1735664824,"current_range_meters":30800,"station_id":"ce4bha12rcd13ifvqef0","pricing_plan_id":"cebpf4jnsgd1na2vs0mg"},{"bike_id":"9c1ff583-8c67-46c7-9cc0-403d0e93a126","system_id":"levelo_inurba_marseille","lat":43.287267,"lon":5.36074,"is_reserved":false,"is_disabled":false,"rental_uris":{"android":"levelo://app?vid=9c1ff583-8c67-46c7-9cc0-403d0e93a126","ios":"levelo://app?vid=9c1ff583-8c67-46c7-9cc0-403d0e93a126"},"vehicle_type_id":"4","last_reported":1735664824,"current_range_meters":38800,"station_id":"cki0cbj6b192h4jlfktg","pricing_plan_id":"cebpf4jnsgd1na2vs0mg"},{"bike_id":"faab121f-b1bd-46fb-a5ac-6aff230bdb03","system_id":"levelo_inurba_marseille","lat":43.29601,"lon":5.38096,"is_reserved":false,"is_disabled":true,"rental_uris":{"android":"levelo://app?vid=faab121f-b1bd-46fb-a5ac-6aff230bdb03","ios":"levelo://app?vid=faab121f-b1bd-46fb-a5ac-6aff230bdb03"},"vehicle_type_id":"4","last_reported":1735664824,"current_range_meters":2000,"station_id":"ce4bgl12rcd13ifvqbo0","pricing_plan_id":"cebpf4jnsgd1na2vs0mg"},{"bike_id":"94c825d5-d06d-4fd4-aa27-10c8f0378f5c","system_id":"levelo_inurba_marseille","lat":43.28656,"lon":5.36349,"is_reserved":false,"is_disabled":false,"rental_uris":{"android":"levelo://app?vid=94c825d5-d06d-4fd4-aa27-10c8f0378f5c","ios":"levelo://app?vid=94c825d5-d06d-4fd4-aa27-10c8f0378f5c"},"vehicle_type_id":"4","last_reported":1735664824,"current_range_meters":36400,"station_id":"ce4bhah2rcd13ifvqej0","pricing_plan_id":"cebpf4jnsgd1na2vs0mg"},{"bike_id":"0d02c513-ca2e-4e40-9108-e87868ca0473","system_id":"levelo_inurba_marseille","lat":43.28152,"lon":5.42623,"is_reserved":false,"is_disabled":false,"rental_uris":{"android":"levelo://app?vid=0d02c513-ca2e-4e40-9108-e87868ca0473","ios":"levelo://app?vid=0d02c513-ca2e-4e40-9108-e87868ca0473"},"vehicle_type_id":"4","last_reported":1735664824,"current_range_meters":27600,"station_id":"ce4bhnh2rcd13ifvqgug","pricing_plan_id":"cebpf4jnsgd1na2vs0mg"},{"bike_id":"05844be4-ddbe-4d24-bfc9-1f7e6d35bbce","system_id":"levelo_inurba_marseille","lat":43.23189,"lon":5.3555,"is_reserved":false,"is_disabled":false,"rental_uris":{"android":"levelo://app?vid=05844be4-ddbe-4d24-bfc9-1f7e6d35bbce","ios":"levelo://app?vid=05844be4-ddbe-4d24-bfc9-1f7e6d35bbce"},"vehicle_type_id":"4","last_reported":1735664824,"current_range_meters":36400,"station_id":"ce4bhu92rcd13ifvqi70","pricing_plan_id":"cebpf4jnsgd1na2vs0mg"},{"bike_id":"d4e56912-5f8d-4b94-bc95-012be68fed61","system_id":"levelo_inurba_marseille","lat":43.27059,"lon":5.40254,"is_reserved":false,"is_disabled":false,"rental_uris":{"android":"levelo://app?vid=d4e56912-5f8d-4b94-bc95-012be68fed61","ios":"levelo://app?vid=d4e56912-5f8d-4b94-bc95-012be68fed61"},"vehicle_type_id":"4","last_reported":1735664824,"current_range_meters":36800,"station_id":"ce4bhk92rcd13ifvqgc0","pricing_plan_id":"cebpf4jnsgd1na2vs0mg"},{"bike_id":"a74c2d12-b57a-4ffa-b46f-df1bdb7d8918","system_id":"levelo_inurba_marseille","lat":43.23056,"lon":5.35486,"is_reserved":false,"is_disabled":false,"rental_uris":{"android":"levelo://app?vid=a74c2d12-b57a-4ffa-b46f-df1bdb7d8918","ios":"levelo://app?vid=a74c2d12-b57a-4ffa-b46f-df1bdb7d8918"},"vehicle_type_id":"4","last_reported":1735664824,"current_range_meters":38800,"station_id":"cpo3342slgdg3j2ifvpg","pricing_plan_id":"cebpf4jnsgd1na2vs0mg"},{"bike_id":"9491c45b-577c-4aa6-a7cc-82502b6825b0","system_id":"levelo_inurba_marseille","lat":43.297,"lon":5.37309,"is_reserved":false,"is_disabled":false,"rental_uris":{"android":"levelo://app?vid=9491c45b-577c-4aa6-a7cc-82502b6825b0","ios":"levelo://app?vid=9491c45b-577c-4aa6-a7cc-82502b6825b0"},"vehicle_type_id":"4","last_reported":1735664824,"current_range_meters":39200,"station_id":"ce4bgk12rcd13ifvqbj0","pricing_plan_id":"cebpf4jnsgd1na2vs0mg"},{"bike_id":"06e6f4bf-73d4-4c64-a08b-f60c3ad8da9c","system_id":"levelo_inurba_marseille","lat":43.30175,"lon":5.36608,"is_reserved":false,"is_disabled":false,"rental_uris":{"android":"levelo://app?vid=06e6f4bf-73d4-4c64-a08b-f60c3ad8da9c","ios":"levelo://app?vid=06e6f4bf-73d4-4c64-a08b-f60c3ad8da9c"},"vehicle_type_id":"4","last_reported":1735664824,"current_range_meters":39200,"station_id":"ce4bgrh2rcd13ifvqc8g","pricing_plan_id":"cebpf4jnsgd1na2vs0mg"},{"bike_id":"86f0ac37-f279-4f0c-b434-362c7b2f30ed","system_id":"levelo_inurba_marseille","lat":43.30143,"lon":5.38077,"is_reserved":false,"is_disabled":false,"rental_uris":{"android":"levelo://app?vid=86f0ac37-f279-4f0c-b434-362c7b2f30ed","ios":"levelo://app?vid=86f0ac37-f279-4f0c-b434-362c7b2f30ed"},"vehicle_type_id":"4","last_reported":1735664824,"current_range_meters":28800,"station_id":"ce4bgjp2rcd13ifvqbh0","pricing_plan_id":"cebpf4jnsgd1na2vs0mg"},{"bike_id":"949dc5d9-3d71-45e4-9908-cc47786976f8","system_id":"levelo_inurba_marseille","lat":43.2549,"lon":5.37653,"is_reserved":false,"is_disabled":false,"rental_uris":{"android":"levelo://app?vid=949dc5d9-3d71-45e4-9908-cc47786976f8","ios":"levelo://app?vid=949dc5d9-3d71-45e4-9908-cc47786976f8"},"vehicle_type_id":"4","last_reported":1735664824,"current_range_meters":18800,"station_id":"ce4bhh12rcd13ifvqff0","pricing_plan_id":"cebpf4jnsgd1na2vs0mg"},{"bike_id":"93f17e51-b898-41bb-ab85-e0450da0f60a","system_id":"levelo_inurba_marseille","lat":43.28921,"lon":5.3841,"is_reserved":false,"is_disabled":false,"rental_uris":{"android":"levelo://app?vid=93f17e51-b898-41bb-ab85-e0450da0f60a","ios":"levelo://app?vid=93f17e51-b898-41bb-ab85-e0450da0f60a"},"vehicle_type_id":"4","last_reported":1735664824,"current_range_meters":36400,"station_id":"ce4bh612rcd13ifvqe6g","pricing_plan_id":"cebpf4jnsgd1na2vs0mg"},{"bike_id":"a2c981a9-118a-4e0c-9c91-df48407f1dcd","system_id":"levelo_inurba_marseille","lat":43.23058,"lon":5.354873,"is_reserved":false,"is_disabled":false,"rental_uris":{"android":"levelo://app?vid=a2c981a9-118a-4e0c-9c91-df48407f1dcd","ios":"levelo://app?vid=a2c981a9-118a-4e0c-9c91-df48407f1dcd"},"vehicle_type_id":"4","last_reported":1735664824,"current_range_meters":36400,"station_id":"cpo3342slgdg3j2ifvpg","pricing_plan_id":"cebpf4jnsgd1na2vs0mg"},{"bike_id":"097578c0-8bc4-469d-9df4-611c366b17b4","system_id":"levelo_inurba_marseille","lat":43.30596,"lon":5.37215,"is_reserved":false,"is_disabled":false,"rental_uris":{"android":"levelo://app?vid=097578c0-8bc4-469d-9df4-611c366b17b4","ios":"levelo://app?vid=097578c0-8bc4-469d-9df4-611c366b17b4"},"vehicle_type_id":"4","last_reported":1735664824,"current_range_meters":25200,"station_id":"ce4bgqh2rcd13ifvqc4g","pricing_plan_id":"cebpf4jnsgd1na2vs0mg"},{"bike_id":"0b70a3fd-cd64-4597-b1e3-c9c4cb5327b0","system_id":"levelo_inurba_marseille","lat":43.25867,"lon":5.39902,"is_reserved":false,"is_disabled":false,"rental_uris":{"android":"levelo://app?vid=0b70a3fd-cd64-4597-b1e3-c9c4cb5327b0","ios":"levelo://app?vid=0b70a3fd-cd64-4597-b1e3-c9c4cb5327b0"},"vehicle_type_id":"4","last_reported":1735664824,"current_range_meters":38800,"station_id":"ce4bhl92rcd13ifvqghg","pricing_plan_id":"cebpf4jnsgd1na2vs0mg"},{"bike_id":"e6b5eb0c-b0ca-4323-beaa-86130528ab40","system_id":"levelo_inurba_marseille","lat":43.29002,"lon":5.35611,"is_reserved":false,"is_disabled":false,"rental_uris":{"android":"levelo://app?vid=e6b5eb0c-b0ca-4323-beaa-86130528ab40","ios":"levelo://app?vid=e6b5eb0c-b0ca-4323-beaa-86130528ab40"},"vehicle_type_id":"4","last_reported":1735664824,"current_range_meters":33600,"station_id":"ce4bhb92rcd13ifvqen0","pricing_plan_id":"cebpf4jnsgd1na2vs0mg"},{"bike_id":"7c2082e1-23cf-4adb-adb1-c5c4e8761dbb","system_id":"levelo_inurba_marseille","lat":43.29047,"lon":5.35911,"is_reserved":false,"is_disabled":true,"rental_uris":{"android":"levelo://app?vid=7c2082e1-23cf-4adb-adb1-c5c4e8761dbb","ios":"levelo://app?vid=7c2082e1-23cf-4adb-adb1-c5c4e8761dbb"},"vehicle_type_id":"4","last_reported":1735664824,"current_range_meters":28000,"station_id":"ce4bha92rcd13ifvqeg0","pricing_plan_id":"cebpf4jnsgd1na2vs0mg"},{"bike_id":"62a66a29-bae2-4f50-983e-6ffc57057bae","system_id":"levelo_inurba_marseille","lat":43.25869,"lon":5.39884,"is_reserved":false,"is_disabled":false,"rental_uris":{"android":"levelo://app?vid=62a66a29-bae2-4f50-983e-6ffc57057bae","ios":"levelo://app?vid=62a66a29-bae2-4f50-983e-6ffc57057bae"},"vehicle_type_id":"4","last_reported":1735664824,"current_range_meters":6400,"station_id":"ce4bhl92rcd13ifvqghg","pricing_plan_id":"cebpf4jnsgd1na2vs0mg"},{"bike_id":"3eb06b53-0495-461f-921b-d9f51438e376","system_id":"levelo_inurba_marseille","lat":43.27427,"lon":5.39395,"is_reserved":false,"is_disabled":false,"rental_uris":{"android":"levelo://app?vid=3eb06b53-0495-461f-921b-d9f51438e376","ios":"levelo://app?vid=3eb06b53-0495-461f-921b-d9f51438e376"},"vehicle_type_id":"4","last_reported":1735664824,"current_range_meters":38800,"station_id":"ce4bhdp2rcd13ifvqf20","pricing_plan_id":"cebpf4jnsgd1na2vs0mg"},{"bike_id":"6a30a305-019b-48fd-9fd7-ab558248d791","system_id":"levelo_inurba_marseille","lat":43.27975,"lon":5.38733,"is_reserved":false,"is_disabled":false,"rental_uris":{"android":"levelo://app?vid=6a30a305-019b-48fd-9fd7-ab558248d791","ios":"levelo://app?vid=6a30a305-019b-48fd-9fd7-ab558248d791"},"vehicle_type_id":"4","last_reported":1735664824,"current_range_meters":38800,"station_id":"ce4bhg12rcd13ifvqf80","pricing_plan_id":"cebpf4jnsgd1na2vs0mg"},{"bike_id":"7b5c386e-46cb-4af5-a403-383024ce3199","system_id":"levelo_inurba_marseille","lat":43.31119,"lon":5.37757,"is_reserved":false,"is_disabled":false,"rental_uris":{"android":"levelo://app?vid=7b5c386e-46cb-4af5-a403-383024ce3199","ios":"levelo://app?vid=7b5c386e-46cb-4af5-a403-383024ce3199"},"vehicle_type_id":"4","last_reported":1735664824,"current_range_meters":30000,"station_id":"ce4bgt92rcd13ifvqcg0","pricing_plan_id":"cebpf4jnsgd1na2vs0mg"},{"bike_id":"68012c00-8f6f-4261-8a09-ca735b753c7b","system_id":"levelo_inurba_marseille","lat":43.26773,"lon":5.39422,"is_reserved":false,"is_disabled":false,"rental_uris":{"android":"levelo://app?vid=68012c00-8f6f-4261-8a09-ca735b753c7b","ios":"levelo://app?vid=68012c00-8f6f-4261-8a09-ca735b753c7b"},"vehicle_type_id":"4","last_reported":1735664824,"current_range_meters":31200,"station_id":"ce4bhh12rcd13ifvqfg0","pricing_plan_id":"cebpf4jnsgd1na2vs0mg"},{"bike_id":"8a99e177-e3b0-4319-9fe0-3ee2ea0739dc","system_id":"levelo_inurba_marseille","lat":43.290063,"lon":5.3561,"is_reserved":false,"is_disabled":false,"rental_uris":{"android":"levelo://app?vid=8a99e177-e3b0-4319-9fe0-3ee2ea0739dc","ios":"levelo://app?vid=8a99e177-e3b0-4319-9fe0-3ee2ea0739dc"},"vehicle_type_id":"4","last_reported":1735664824,"current_range_meters":38000,"station_id":"ce4bhb92rcd13ifvqen0","pricing_plan_id":"cebpf4jnsgd1na2vs0mg"},{"bike_id":"78c586c7-6d21-482a-b8a1-f42a70ad2a53","system_id":"levelo_inurba_marseille","lat":43.26072,"lon":5.39361,"is_reserved":false,"is_disabled":false,"rental_uris":{"android":"levelo://app?vid=78c586c7-6d21-482a-b8a1-f42a70ad2a53","ios":"levelo://app?vid=78c586c7-6d21-482a-b8a1-f42a70ad2a53"},"vehicle_type_id":"4","last_reported":1735664824,"current_range_meters":34800,"station_id":"ce4bhh92rcd13ifvqfj0","pricing_plan_id":"cebpf4jnsgd1na2vs0mg"},{"bike_id":"22f09bf7-efd6-410f-9cfd-8c42c91ebefc","system_id":"levelo_inurba_marseille","lat":43.27953,"lon":5.41032,"is_reserved":false,"is_disabled":false,"rental_uris":{"android":"levelo://app?vid=22f09bf7-efd6-410f-9cfd-8c42c91ebefc","ios":"levelo://app?vid=22f09bf7-efd6-410f-9cfd-8c42c91ebefc"},"vehicle_type_id":"4","last_reported":1735664824,"current_range_meters":24400,"station_id":"ce4bhnp2rcd13ifvqh0g","pricing_plan_id":"cebpf4jnsgd1na2vs0mg"},{"bike_id":"4e1e1e3c-01da-446c-9499-f790335ca6fe","system_id":"levelo_inurba_marseille","lat":43.29568,"lon":5.375,"is_reserved":false,"is_disabled":false,"rental_uris":{"android":"levelo://app?vid=4e1e1e3c-01da-446c-9499-f790335ca6fe","ios":"levelo://app?vid=4e1e1e3c-01da-446c-9499-f790335ca6fe"},"vehicle_type_id":"4","last_reported":1735664824,"current_range_meters":13600,"station_id":"ce4bgh92rcd13ifvqb50","pricing_plan_id":"cebpf4jnsgd1na2vs0mg"},{"bike_id":"98724769-58de-4a29-9cd7-cf114df1082f","system_id":"levelo_inurba_marseille","lat":43.28468,"lon":5.359,"is_reserved":false,"is_disabled":false,"rental_uris":{"android":"levelo://app?vid=98724769-58de-4a29-9cd7-cf114df1082f","ios":"levelo://app?vid=98724769-58de-4a29-9cd7-cf114df1082f"},"vehicle_type_id":"4","last_reported":1735664824,"current_range_meters":38800,"station_id":"ce4bhah2rcd13ifvqei0","pricing_plan_id":"cebpf4jnsgd1na2vs0mg"},{"bike_id":"b0961265-1fde-4b0e-aed9-2fba0eb48dc9","system_id":"levelo_inurba_marseille","lat":43.29893,"lon":5.37445,"is_reserved":false,"is_disabled":false,"rental_uris":{"android":"levelo://app?vid=b0961265-1fde-4b0e-aed9-2fba0eb48dc9","ios":"levelo://app?vid=b0961265-1fde-4b0e-aed9-2fba0eb48dc9"},"vehicle_type_id":"4","last_reported":1735664824,"current_range_meters":38400,"station_id":"ce4bgjh2rcd13ifvqbg0","pricing_plan_id":"cebpf4jnsgd1na2vs0mg"},{"bike_id":"a3568aab-1d34-4bdf-8c0c-ec81886f6177","system_id":"levelo_inurba_marseille","lat":43.337444,"lon":5.374475,"is_reserved":false,"is_disabled":true,"rental_uris":{"android":"levelo://app?vid=a3568aab-1d34-4bdf-8c0c-ec81886f6177","ios":"levelo://app?vid=a3568aab-1d34-4bdf-8c0c-ec81886f6177"},"vehicle_type_id":"4","last_reported":1735664824,"current_range_meters":37600,"station_id":"","pricing_plan_id":"cebpf4jnsgd1na2vs0mg"},{"bike_id":"1318eaf1-2eb6-465a-8d01-f92a7ecd33a3","system_id":"levelo_inurba_marseille","lat":43.28107,"lon":5.37833,"is_reserved":false,"is_disabled":false,"rental_uris":{"android":"levelo://app?vid=1318eaf1-2eb6-465a-8d01-f92a7ecd33a3","ios":"levelo://app?vid=1318eaf1-2eb6-465a-8d01-f92a7ecd33a3"},"vehicle_type_id":"4","last_reported":1735664824,"current_range_meters":36800,"station_id":"ce4bha12rcd13ifvqee0","pricing_plan_id":"cebpf4jnsgd1na2vs0mg"},{"bike_id":"5e04599a-56d9-48fb-aec8-ec6b4b9061dc","system_id":"levelo_inurba_marseille","lat":43.28932,"lon":5.36619,"is_reserved":false,"is_disabled":false,"rental_uris":{"android":"levelo://app?vid=5e04599a-56d9-48fb-aec8-ec6b4b9061dc","ios":"levelo://app?vid=5e04599a-56d9-48fb-aec8-ec6b4b9061dc"},"vehicle_type_id":"4","last_reported":1735664824,"current_range_meters":37600,"station_id":"ce4bhap2rcd13ifvqek0","pricing_plan_id":"cebpf4jnsgd1na2vs0mg"},{"bike_id":"411eef14-d261-4540-bd44-16db2e113486","system_id":"levelo_inurba_marseille","lat":43.29292,"lon":5.37457,"is_reserved":false,"is_disabled":false,"rental_uris":{"android":"levelo://app?vid=411eef14-d261-4540-bd44-16db2e113486","ios":"levelo://app?vid=411eef14-d261-4540-bd44-16db2e113486"},"vehicle_type_id":"4","last_reported":1735664824,"current_range_meters":15200,"station_id":"ce4bgi12rcd13ifvqb70","pricing_plan_id":"cebpf4jnsgd1na2vs0mg"},{"bike_id":"703104dc-008a-4737-a0ad-da6d89489916","system_id":"levelo_inurba_marseille","lat":43.29019,"lon":5.38139,"is_reserved":false,"is_disabled":false,"rental_uris":{"android":"levelo://app?vid=703104dc-008a-4737-a0ad-da6d89489916","ios":"levelo://app?vid=703104dc-008a-4737-a0ad-da6d89489916"},"vehicle_type_id":"4","last_reported":1735664824,"current_range_meters":38800,"station_id":"ce4bh4p2rcd13ifvqe1g","pricing_plan_id":"cebpf4jnsgd1na2vs0mg"},{"bike_id":"fe389d87-3a14-4f73-8a51-a027ae4034b2","system_id":"levelo_inurba_marseille","lat":43.28606,"lon":5.35109,"is_reserved":false,"is_disabled":false,"rental_uris":{"android":"levelo://app?vid=fe389d87-3a14-4f73-8a51-a027ae4034b2","ios":"levelo://app?vid=fe389d87-3a14-4f73-8a51-a027ae4034b2"},"vehicle_type_id":"4","last_reported":1735664824,"current_range_meters":38800,"station_id":"ce4bhch2rcd13ifvqeug","pricing_plan_id":"cebpf4jnsgd1na2vs0mg"},