{"last_updated":1750425857,"ttl":60,"version":"2.2","data":{"bikes":[{"bike_id":"3da29fb8-fc97-44c6-b9ac-31dd456b2fd4","system_id":"levelo_inurba_marseille","lat":43.33771,"lon":5.37424,"is_reserved":false,"is_disabled":true,"rental_uris":{"android":"levelo://app?vid=3da29fb8-fc97-44c6-b9ac-31dd456b2fd4","ios":"levelo://app?vid=3da29fb8-fc97-44c6-b9ac-31dd456b2fd4"},"vehicle_type_id":"4","last_reported":1750425857,"current_range_meters":0,"station_id":"","pricing_plan_id":"cebpf4jnsgd1na2vs0mg"},{"bike_id":"01861ad8-a8d7-4be6-816e-651927c87584","system_id":"levelo_inurba_marseille","lat":43.33751,"lon":5.37456,"is_reserved":false,"is_disabled":true,"rental_uris":{"android":"levelo://app?vid=01861ad8-a8d7-4be6-816e-651927c87584","ios":"levelo://app?vid=01861ad8-a8d7-4be6-816e-651927c87584"},"vehicle_type_id":"4","last_reported":1750425857,"current_range_meters":0,"station_id":"","pricing_plan_id":"cebpf4jnsgd1na2vs0mg"},{"bike_id":"90f7519f-a693-48a7-a284-d2385dc7f49d","system_id":"levelo_inurba_marseille","lat":43.298807,"lon":5.37656,"is_reserved":false,"is_disabled":true,"rental_uris":{"android":"levelo://app?vid=90f7519f-a693-48a7-a284-d2385dc7f49d","ios":"levelo://app?vid=90f7519f-a693-48a7-a284-d2385dc7f49d"},"vehicle_type_id":"4","last_reported":1750425857,"current_range_meters":0,"station_id":"","pricing_plan_id":"cebpf4jnsgd1na2vs0mg"},{"bike_id":"d2bd57c8-6b64-48db-ad24-5398eb3fd9d6","system_id":"levelo_inurba_marseille","lat":43.337444,"lon":5.374475,"is_reserved":false,"is_disabled":true,"rental_uris":{"android":"levelo://app?vid=d2bd57c8-6b64-48db-ad24-5398eb3fd9d6","ios":"levelo://app?vid=d2bd57c8-6b64-48db-ad24-5398eb3fd9d6"},"vehicle_type_id":"4","last_reported":1750425857,"current_range_meters":0,"station_id":"","pricing_plan_id":"cebpf4jnsgd1na2vs0mg"},{"bike_id":"62a493c7-4534-4419-ad43-0582de34a72a","system_id":"levelo_inurba_marseille","lat":43.21366,"lon":5.355183,"is_reserved":false,"is_disabled":true,"rental_uris":{"android":"levelo://app?vid=62a493c7-4534-4419-ad43-0582de34a72a","ios":"levelo://app?vid=62a493c7-4534-4419-ad43-0582de34a72a"},"vehicle_type_id":"4","last_reported":1750425857,"current_range_meters":0,"station_id":"","pricing_plan_id":"cebpf4jnsgd1na2vs0mg"},{"bike_id":"faedb750-b8ea-4e5f-b7f1-2931a192c239","system_id":"levelo_inurba_marseille","lat":43.31345,"lon":5.36785,"is_reserved":false,"is_disabled":true,"rental_uris":{"android":"levelo://app?vid=faedb750-b8ea-4e5f-b7f1-2931a192c239","ios":"levelo://app?vid=faedb750-b8ea-4e5f-b7f1-2931a192c239"},"vehicle_type_id":"4","last_reported":1750425857,"current_range_meters":0,"station_id":"","pricing_plan_id":"cebpf4jnsgd1na2vs0mg"},{"bike_id":"d5a1ae9e-4421-4539-b5ac-98a00695a8d8","system_id":"levelo_inurba_marseille","lat":43.334282,"lon":5.400509,"is_reserved":false,"is_disabled":true,"rental_uris":{"android":"levelo://app?vid=d5a1ae9e-4421-4539-b5ac-98a00695a8d8","ios":"levelo://app?vid=d5a1ae9e-4421-4539-b5ac-98a00695a8d8"},"vehicle_type_id":"4","last_reported":1750425857,"current_range_meters":0,"station_id":"","pricing_plan_id":"cebpf4jnsgd1na2vs0mg"},{"bike_id":"fe47705b-434d-45dd-b262-d5a602e1b5b0","system_id":"levelo_inurba_marseille","lat":43.21192,"lon":5.35074,"is_reserved":false,"is_disabled":true,"rental_uris":{"android":"levelo://app?vid=fe47705b-434d-45dd-b262-d5a602e1b5b0","ios":"levelo://app?vid=fe47705b-434d-45dd-b262-d5a602e1b5b0"},"vehicle_type_id":"4","last_reported":1750425857,"current_range_meters":0,"station_id":"","pricing_plan_id":"cebpf4jnsgd1na2vs0mg"},{"bike_id":"d6609b4f-333b-43c1-9ebe-8726f5e76e88","system_id":"levelo_inurba_marseille","lat":43.337444,"lon":5.374475,"is_reserved":false,"is_disabled":true,"rental_uris":{"android":"levelo://app?vid=d6609b4f-333b-43c1-9ebe-8726f5e76e88","ios":"levelo://app?vid=d6609b4f-333b-43c1-9ebe-8726f5e76e88"},"vehicle_type_id":"4","last_reported":1750425857,"current_range_meters":0,"station_id":"","pricing_plan_id":"cebpf4jnsgd1na2vs0mg"},{"bike_id":"8ce40161-faa4-467e-95a1-175227ba069f","system_id":"levelo_inurba_marseille","lat":43.3133,"lon":5.39693,"is_reserved":false,"is_disabled":true,"rental_uris":{"android":"levelo://app?vid=8ce40161-faa4-467e-95a1-175227ba069f","ios":"levelo://app?vid=8ce40161-faa4-467e-95a1-175227ba069f"},"vehicle_type_id":"4","last_reported":1750425857,"current_range_meters":0,"station_id":"ce4bgvp2rcd13ifvqcu0","pricing_plan_id":"cebpf4jnsgd1na2vs0mg"},{"bike_id":"2be082ca-4467-48fd-b65c-3c02b405800f","system_id":"levelo_inurba_marseille","lat":43.23158,"lon":5.43705,"is_reserved":false,"is_disabled":true,"rental_uris":{"android":"levelo://app?vid=2be082ca-4467-48fd-b65c-3c02b405800f","ios":"levelo://app?vid=2be082ca-4467-48fd-b65c-3c02b405800f"},"vehicle_type_id":"4","last_reported":1750425857,"current_range_meters":0,"station_id":"ce4bhmp2rcd13ifvqgog","pricing_plan_id":"cebpf4jnsgd1na2vs0mg"},{"bike_id":"bd7f476a-4eb8-4511-a102-3d41416462e5","system_id":"levelo_inurba_marseille","lat":43.27818,"lon":5.40698,"is_reserved":false,"is_disabled":true,"rental_uris":{"android":"levelo://app?vid=bd7f476a-4eb8-4511-a102-3d41416462e5","ios":"levelo://app?vid=bd7f476a-4eb8-4511-a102-3d41416462e5"},"vehicle_type_id":"4","last_reported":1750425857,"current_range_meters":0,"station_id":"ce4bhnh2rcd13ifvqgtg","pricing_plan_id":"cebpf4jnsgd1na2vs0mg"},{"bike_id":"9491b791-a5aa-472a-b475-a8adbacb70fe","system_id":"levelo_inurba_marseille","lat":43.34165,"lon":5.40929,"is_reserved":false,"is_disabled":true,"rental_uris":{"android":"levelo://app?vid=9491b791-a5aa-472a-b475-a8adbacb70fe","ios":"levelo://app?vid=9491b791-a5aa-472a-b475-a8adbacb70fe"},"vehicle_type_id":"4","last_reported":1750425857,"current_range_meters":0,"station_id":"ce4bhqh2rcd13ifvqhlg","pricing_plan_id":"cebpf4jnsgd1na2vs0mg"},{"bike_id":"0080b588-b60f-492d-957d-f4bfdfe016d1","system_id":"levelo_inurba_marseille","lat":43.33607,"lon":5.41034,"is_reserved":false,"is_disabled":true,"rental_uris":{"android":"levelo://app?vid=0080b588-b60f-492d-957d-f4bfdfe016d1","ios":"levelo://app?vid=0080b588-b60f-492d-957d-f4bfdfe016d1"},"vehicle_type_id":"4","last_reported":1750425857,"current_range_meters":0,"station_id":"ce4bhqh2rcd13ifvqhmg","pricing_plan_id":"cebpf4jnsgd1na2vs0mg"},{"bike_id":"1d3c5359-5208-4100-a7e3-a6f9f6eda1fe","system_id":"levelo_inurba_marseille","lat":43.33604,"lon":5.40975,"is_reserved":false,"is_disabled":true,"rental_uris":{"android":"levelo://app?vid=1d3c5359-5208-4100-a7e3-a6f9f6eda1fe","ios":"levelo://app?vid=1d3c5359-5208-4100-a7e3-a6f9f6eda1fe"},"vehicle_type_id":"4","last_reported":1750425857,"current_range_meters":0,"station_id":"ce4bhqh2rcd13ifvqhmg","pricing_plan_id":"cebpf4jnsgd1na2vs0mg"},{"bike_id":"8f49a748-5547-4851-a01f-ec21c1b4690e","system_id":"levelo_inurba_marseille","lat":43.32504,"lon":5.36576,"is_reserved":false,"is_disabled":true,"rental_uris":{"android":"levelo://app?vid=8f49a748-5547-4851-a01f-ec21c1b4690e","ios":"levelo://app?vid=8f49a748-5547-4851-a01f-ec21c1b4690e"},"vehicle_type_id":"4","last_reported":1750425857,"current_range_meters":0,"station_id":"ce4bhs12rcd13ifvqhvg","pricing_plan_id":"cebpf4jnsgd1na2vs0mg"},{"bike_id":"077d9a7c-6be0-457d-baae-848fc82d297e","system_id":"levelo_inurba_marseille","lat":43.23198,"lon":5.35541,"is_reserved":false,"is_disabled":true,"rental_uris":{"android":"levelo://app?vid=077d9a7c-6be0-457d-baae-848fc82d297e","ios":"levelo://app?vid=077d9a7c-6be0-457d-baae-848fc82d297e"},"vehicle_type_id":"4","last_reported":1750425857,"current_range_meters":0,"station_id":"ce4bhu92rcd13ifvqi70","pricing_plan_id":"cebpf4jnsgd1na2vs0mg"},{"bike_id":"de304e80-b21e-4423-a36e-c975e57153c2","system_id":"levelo_inurba_marseille","lat":43.22939,"lon":5.35382,"is_reserved":false,"is_disabled":true,"rental_uris":{"android":"levelo://app?vid=de304e80-b21e-4423-a36e-c975e57153c2","ios":"levelo://app?vid=de304e80-b21e-4423-a36e-c975e57153c2"},"vehicle_type_id":"4","last_reported":1750425857,"current_range_meters":0,"station_id":"cpo3532slgdg3j2ikp40","pricing_plan_id":"cebpf4jnsgd1na2vs0mg"},{"bike_id":"62601cf6-4d7a-474f-a378-dfdbba984829","system_id":"levelo_inurba_marseille","lat":43.31269,"lon":5.40176,"is_reserved":false,"is_disabled":true,"rental_uris":{"android":"levelo://app?vid=62601cf6-4d7a-474f-a378-dfdbba984829","ios":"levelo://app?vid=62601cf6-4d7a-474f-a378-dfdbba984829"},"vehicle_type_id":"4","last_reported":1750425857,"current_range_meters":400,"station_id":"ce4bh092rcd13ifvqd30","pricing_plan_id":"cebpf4jnsgd1na2vs0mg"},{"bike_id":"a809a67d-7e7c-428e-b0ec-3a23de373031","system_id":"levelo_inurba_marseille","lat":43.257233,"lon":5.410949,"is_reserved":false,"is_disabled":true,"rental_uris":{"android":"levelo://app?vid=a809a67d-7e7c-428e-b0ec-3a23de373031","ios":"levelo://app?vid=a809a67d-7e7c-428e-b0ec-3a23de373031"},"vehicle_type_id":"4","last_reported":1750425857,"current_range_meters":400,"station_id":"ce4bhkp2rcd13ifvqgd0","pricing_plan_id":"cebpf4jnsgd1na2vs0mg"},{"bike_id":"07e6b418-e591-4fae-8db1-885dc4e7f5e5","system_id":"levelo_inurba_marseille","lat":43.284546,"lon":5.358873,"is_reserved":false,"is_disabled":true,"rental_uris":{"android":"levelo://app?vid=07e6b418-e591-4fae-8db1-885dc4e7f5e5","ios":"levelo://app?vid=07e6b418-e591-4fae-8db1-885dc4e7f5e5"},"vehicle_type_id":"4","last_reported":1750425857,"current_range_meters":800,"station_id":"ce4bhah2rcd13ifvqei0","pricing_plan_id":"cebpf4jnsgd1na2vs0mg"},{"bike_id":"400df282-c597-4f84-b253-7d35533c8e21","system_id":"levelo_inurba_marseille","lat":43.26679,"lon":5.38265,"is_reserved":false,"is_disabled":true,"rental_uris":{"android":"levelo://app?vid=400df282-c597-4f84-b253-7d35533c8e21","ios":"levelo://app?vid=400df282-c597-4f84-b253-7d35533c8e21"},"vehicle_type_id":"4","last_reported":1750425857,"current_range_meters":800,"station_id":"ce4bhg92rcd13ifvqf90","pricing_plan_id":"cebpf4jnsgd1na2vs0mg"},{"bike_id":"a50a6588-33f7-480b-86db-f01191577927","system_id":"levelo_inurba_marseille","lat":43.28163,"lon":5.42656,"is_reserved":false,"is_disabled":true,"rental_uris":{"android":"levelo://app?vid=a50a6588-33f7-480b-86db-f01191577927","ios":"levelo://app?vid=a50a6588-33f7-480b-86db-f01191577927"},"vehicle_type_id":"4","last_reported":1750425857,"current_range_meters":800,"station_id":"ce4bhnh2rcd13ifvqgug","pricing_plan_id":"cebpf4jnsgd1na2vs0mg"},{"bike_id":"ee272ff7-81d5-4508-9d7d-ba25e59527fd","system_id":"levelo_inurba_marseille","lat":43.31708,"lon":5.40456,"is_reserved":false,"is_disabled":true,"rental_uris":{"android":"levelo://app?vid=ee272ff7-81d5-4508-9d7d-ba25e59527fd","ios":"levelo://app?vid=ee272ff7-81d5-4508-9d7d-ba25e59527fd"},"vehicle_type_id":"4","last_reported":1750425857,"current_range_meters":1200,"station_id":"ce4bh012rcd13ifvqd00","pricing_plan_id":"cebpf4jnsgd1na2vs0mg"},{"bike_id":"2c0cfe2e-fd42-441b-b517-d4a9656e9e6a","system_id":"levelo_inurba_marseille","lat":43.29034,"lon":5.39955,"is_reserved":false,"is_disabled":true,"rental_uris":{"android":"levelo://app?vid=2c0cfe2e-fd42-441b-b517-d4a9656e9e6a","ios":"levelo://app?vid=2c0cfe2e-fd42-441b-b517-d4a9656e9e6a"},"vehicle_type_id":"4","last_reported":1750425857,"current_range_meters":1200,"station_id":"ce4bh392rcd13ifvqdm0","pricing_plan_id":"cebpf4jnsgd1na2vs0mg"},{"bike_id":"28509329-614a-4a61-a60f-e36abbe86359","system_id":"levelo_inurba_marseille","lat":43.2796,"lon":5.38739,"is_reserved":false,"is_disabled":true,"rental_uris":{"android":"levelo://app?vid=28509329-614a-4a61-a60f-e36abbe86359","ios":"levelo://app?vid=28509329-614a-4a61-a60f-e36abbe86359"},"vehicle_type_id":"4","last_reported":1750425857,"current_range_meters":1200,"station_id":"ce4bhg12rcd13ifvqf80","pricing_plan_id":"cebpf4jnsgd1na2vs0mg"},{"bike_id":"8b3c2b35-9e5e-4816-9a3c-87b85b95aec3","system_id":"levelo_inurba_marseille","lat":43.2417,"lon":5.36399,"is_reserved":false,"is_disabled":true,"rental_uris":{"android":"levelo://app?vid=8b3c2b35-9e5e-4816-9a3c-87b85b95aec3","ios":"levelo://app?vid=8b3c2b35-9e5e-4816-9a3c-87b85b95aec3"},"vehicle_type_id":"4","last_reported":1750425857,"current_range_meters":1200,"station_id":"cpo36qri1sfpv3e86is0","pricing_plan_id":"cebpf4jnsgd1na2vs0mg"},{"bike_id":"2dcab90c-1b72-4823-b1cf-628832d10d67","system_id":"levelo_inurba_marseille","lat":43.245413,"lon":5.395202,"is_reserved":false,"is_disabled":true,"rental_uris":{"android":"levelo://app?vid=2dcab90c-1b72-4823-b1cf-628832d10d67","ios":"levelo://app?vid=2dcab90c-1b72-4823-b1cf-628832d10d67"},"vehicle_type_id":"4","last_reported":1750425857,"current_range_meters":1600,"station_id":"ce4bhlp2rcd13ifvqgjg","pricing_plan_id":"cebpf4jnsgd1na2vs0mg"},{"bike_id":"4c8f7352-56b5-460c-ab01-f4fddedaaff1","system_id":"levelo_inurba_marseille","lat":43.25876,"lon":5.40862,"is_reserved":false,"is_disabled":true,"rental_uris":{"android":"levelo://app?vid=4c8f7352-56b5-460c-ab01-f4fddedaaff1","ios":"levelo://app?vid=4c8f7352-56b5-460c-ab01-f4fddedaaff1"},"vehicle_type_id":"4","last_reported":1750425857,"current_range_meters":1600,"station_id":"ce4bhm92rcd13ifvqglg","pricing_plan_id":"cebpf4jnsgd1na2vs0mg"},{"bike_id":"091fcb0c-ecce-41ae-9f81-09966ac2ef4a","system_id":"levelo_inurba_marseille","lat":43.30374,"lon":5.42483,"is_reserved":false,"is_disabled":true,"rental_uris":{"android":"levelo://app?vid=091fcb0c-ecce-41ae-9f81-09966ac2ef4a","ios":"levelo://app?vid=091fcb0c-ecce-41ae-9f81-09966ac2ef4a"},"vehicle_type_id":"4","last_reported":1750425857,"current_range_meters":1600,"station_id":"ce4bhoh2rcd13ifvqh6g","pricing_plan_id":"cebpf4jnsgd1na2vs0mg"},{"bike_id":"b1ea64e5-9981-4460-a2b3-59bf05260b31","system_id":"levelo_inurba_marseille","lat":43.3238,"lon":5.38898,"is_reserved":false,"is_disabled":true,"rental_uris":{"android":"levelo://app?vid=b1ea64e5-9981-4460-a2b3-59bf05260b31","ios":"levelo://app?vid=b1ea64e5-9981-4460-a2b3-59bf05260b31"},"vehicle_type_id":"4","last_reported":1750425857,"current_range_meters":1600,"station_id":"ce4bhqp2rcd13ifvqhog","pricing_plan_id":"cebpf4jnsgd1na2vs0mg"},{"bike_id":"3e5ae7c7-040f-420c-861e-f590a57aff13","system_id":"levelo_inurba_marseille","lat":43.26237,"lon":5.40447,"is_reserved":false,"is_disabled":true,"rental_uris":{"android":"levelo://app?vid=3e5ae7c7-040f-420c-861e-f590a57aff13","ios":"levelo://app?vid=3e5ae7c7-040f-420c-861e-f590a57aff13"},"vehicle_type_id":"4","last_reported":1750425857,"current_range_meters":2000,"station_id":"ce4bhmh2rcd13ifvqgmg","pricing_plan_id":"cebpf4jnsgd1na2vs0mg"},{"bike_id":"36bb7036-e60a-483a-994e-4baa605d5f0c","system_id":"levelo_inurba_marseille","lat":43.28685,"lon":5.38665,"is_reserved":false,"is_disabled":false,"rental_uris":{"android":"levelo://app?vid=36bb7036-e60a-483a-994e-4baa605d5f0c","ios":"levelo://app?vid=36bb7036-e60a-483a-994e-4baa605d5f0c"},"vehicle_type_id":"4","last_reported":1750425857,"current_range_meters":3200,"station_id":"ce4bh492rcd13ifvqdug","pricing_plan_id":"cebpf4jnsgd1na2vs0mg"},{"bike_id":"c53ba9e2-1f74-4201-adad-79fb708479e2","system_id":"levelo_inurba_marseille","lat":43.27065,"lon":5.40267,"is_reserved":false,"is_disabled":false,"rental_uris":{"android":"levelo://app?vid=c53ba9e2-1f74-4201-adad-79fb708479e2","ios":"levelo://app?vid=c53ba9e2-1f74-4201-adad-79fb708479e2"},"vehicle_type_id":"4","last_reported":1750425857,"current_range_meters":3200,"station_id":"ce4bhk92rcd13ifvqgc0","pricing_plan_id":"cebpf4jnsgd1na2vs0mg"},{"bike_id":"ec13b76a-1810-4beb-bbca-89520e358d3b","system_id":"levelo_inurba_marseille","lat":43.2621,"lon":5.37447,"is_reserved":false,"is_disabled":true,"rental_uris":{"android":"levelo://app?vid=ec13b76a-1810-4beb-bbca-89520e358d3b","ios":"levelo://app?vid=ec13b76a-1810-4beb-bbca-89520e358d3b"},"vehicle_type_id":"4","last_reported":1750425857,"current_range_meters":3600,"station_id":"ce4bhgp2rcd13ifvqfc0","pricing_plan_id":"cebpf4jnsgd1na2vs0mg"},{"bike_id":"c4a3c378-4557-4f87-894b-b1288f752555","system_id":"levelo_inurba_marseille","lat":43.23966,"lon":5.36639,"is_reserved":false,"is_disabled":false,"rental_uris":{"android":"levelo://app?vid=c4a3c378-4557-4f87-894b-b1288f752555","ios":"levelo://app?vid=c4a3c378-4557-4f87-894b-b1288f752555"},"vehicle_type_id":"4","last_reported":1750425857,"current_range_meters":3600,"station_id":"ce4bhi12rcd13ifvqfp0","pricing_plan_id":"cebpf4jnsgd1na2vs0mg"},{"bike_id":"e77f7304-85a5-4484-9da8-a3ccb2fcad22","system_id":"levelo_inurba_marseille","lat":43.23054,"lon":5.3549,"is_reserved":false,"is_disabled":false,"rental_uris":{"android":"levelo://app?vid=e77f7304-85a5-4484-9da8-a3ccb2fcad22","ios":"levelo://app?vid=e77f7304-85a5-4484-9da8-a3ccb2fcad22"},"vehicle_type_id":"4","last_reported":1750425857,"current_range_meters":3600,"station_id":"cpo3342slgdg3j2ifvpg","pricing_plan_id":"cebpf4jnsgd1na2vs0mg"},{"bike_id":"a032c2fb-59cd-4ac0-9e6c-cfd55cd5bb2d","system_id":"levelo_inurba_marseille","lat":43.21748,"lon":5.34603,"is_reserved":false,"is_disabled":false,"rental_uris":{"android":"levelo://app?vid=a032c2fb-59cd-4ac0-9e6c-cfd55cd5bb2d","ios":"levelo://app?vid=a032c2fb-59cd-4ac0-9e6c-cfd55cd5bb2d"},"vehicle_type_id":"4","last_reported":1750425857,"current_range_meters":3600,"station_id":"st_cvj6r9ubvosntc0bgbag","pricing_plan_id":"cebpf4jnsgd1na2vs0mg"},{"bike_id":"f32a770f-6720-4b73-a838-f1ea42880154","system_id":"levelo_inurba_marseille","lat":43.27383,"lon":5.36261,"is_reserved":false,"is_disabled":false,"rental_uris":{"android":"levelo://app?vid=f32a770f-6720-4b73-a838-f1ea42880154","ios":"levelo://app?vid=f32a770f-6720-4b73-a838-f1ea42880154"},"vehicle_type_id":"4","last_reported":1750425857,"current_range_meters":4000,"station_id":"ce4bhbh2rcd13ifvqeo0","pricing_plan_id":"cebpf4jnsgd1na2vs0mg"},{"bike_id":"024f5c2e-54f2-4e9b-96db-8a1dc242916f","system_id":"levelo_inurba_marseille","lat":43.231747,"lon":5.35493,"is_reserved":false,"is_disabled":false,"rental_uris":{"android":"levelo://app?vid=024f5c2e-54f2-4e9b-96db-8a1dc242916f","ios":"levelo://app?vid=024f5c2e-54f2-4e9b-96db-8a1dc242916f"},"vehicle_type_id":"4","last_reported":1750425857,"current_range_meters":4000,"station_id":"ce4bhu92rcd13ifvqi70","pricing_plan_id":"cebpf4jnsgd1na2vs0mg"},{"bike_id":"e43e021f-24df-4eef-a854-6861c5c60dd9","system_id":"levelo_inurba_marseille","lat":43.28421,"lon":5.34984,"is_reserved":false,"is_disabled":false,"rental_uris":{"android":"levelo://app?vid=e43e021f-24df-4eef-a854-6861c5c60dd9","ios":"levelo://app?vid=e43e021f-24df-4eef-a854-6861c5c60dd9"},"vehicle_type_id":"4","last_reported":1750425857,"current_range_meters":4400,"station_id":"ce4bhbh2rcd13ifvqepg","pricing_plan_id":"cebpf4jnsgd1na2vs0mg"},{"bike_id":"bf261cb7-73fa-4890-ab88-a16b9f7c9883","system_id":"levelo_inurba_marseille","lat":43.25718,"lon":5.41109,"is_reserved":false,"is_disabled":false,"rental_uris":{"android":"levelo://app?vid=bf261cb7-73fa-4890-ab88-a16b9f7c9883","ios":"levelo://app?vid=bf261cb7-73fa-4890-ab88-a16b9f7c9883"},"vehicle_type_id":"4","last_reported":1750425857,"current_range_meters":4400,"station_id":"ce4bhkp2rcd13ifvqgd0","pricing_plan_id":"cebpf4jnsgd1na2vs0mg"},{"bike_id":"02c8328a-1e0c-43b9-b20a-72a6553a5656","system_id":"levelo_inurba_marseille","lat":43.29907,"lon":5.43678,"is_reserved":false,"is_disabled":false,"rental_uris":{"android":"levelo://app?vid=02c8328a-1e0c-43b9-b20a-72a6553a5656","ios":"levelo://app?vid=02c8328a-1e0c-43b9-b20a-72a6553a5656"},"vehicle_type_id":"4","last_reported":1750425857,"current_range_meters":4400,"station_id":"ce4bhpp2rcd13ifvqhfg","pricing_plan_id":"cebpf4jnsgd1na2vs0mg"},{"bike_id":"f481714d-dac6-405f-9a5d-929ec9d9ade1","system_id":"levelo_inurba_marseille","lat":43.23066,"lon":5.35491,"is_reserved":false,"is_disabled":false,"rental_uris":{"android":"levelo://app?vid=f481714d-dac6-405f-9a5d-929ec9d9ade1","ios":"levelo://app?vid=f481714d-dac6-405f-9a5d-929ec9d9ade1"},"vehicle_type_id":"4","last_reported":1750425857,"current_range_meters":4400,"station_id":"cpo3342slgdg3j2ifvpg","pricing_plan_id":"cebpf4jnsgd1na2vs0mg"},{"bike_id":"97c14b47-409f-4d5d-bf6d-1694527848f1","system_id":"levelo_inurba_marseille","lat":43.29812,"lon":5.40415,"is_reserved":false,"is_disabled":false,"rental_uris":{"android":"levelo://app?vid=97c14b47-409f-4d5d-bf6d-1694527848f1","ios":"levelo://app?vid=97c14b47-409f-4d5d-bf6d-1694527848f1"},"vehicle_type_id":"4","last_reported":1750425857,"current_range_meters":4800,"station_id":"ce4bh112rcd13ifvqd90","pricing_plan_id":"cebpf4jnsgd1na2vs0mg"},{"bike_id":"0b1e53b6-bc72-4bff-b2c0-17099e7d43a1","system_id":"levelo_inurba_marseille","lat":43.31501,"lon":5.37288,"is_reserved":false,"is_disabled":false,"rental_uris":{"android":"levelo://app?vid=0b1e53b6-bc72-4bff-b2c0-17099e7d43a1","ios":"levelo://app?vid=0b1e53b6-bc72-4bff-b2c0-17099e7d43a1"},"vehicle_type_id":"4","last_reported":1750425857,"current_range_meters":5600,"station_id":"ce4bgt12rcd13ifvqcd0","pricing_plan_id":"cebpf4jnsgd1na2vs0mg"},{"bike_id":"cb68595e-bb70-4d18-a2c7-cbb66c66e5a1","system_id":"levelo_inurba_marseille","lat":43.26058,"lon":5.39397,"is_reserved":false,"is_disabled":false,"rental_uris":{"android":"levelo://app?vid=cb68595e-bb70-4d18-a2c7-cbb66c66e5a1","ios":"levelo://app?vid=cb68595e-bb70-4d18-a2c7-cbb66c66e5a1"},"vehicle_type_id":"4","last_reported":1750425857,"current_range_meters":5600,"station_id":"ce4bhh92rcd13ifvqfj0","pricing_plan_id":"cebpf4jnsgd1na2vs0mg"},{"bike_id":"0dedb6f6-6801-483b-bfb8-9cd4533d158f","system_id":"levelo_inurba_marseille","lat":43.311382,"lon":5.380913,"is_reserved":false,"is_disabled":false,"rental_uris":{"android":"levelo://app?vid=0dedb6f6-6801-483b-bfb8-9cd4533d158f","ios":"levelo://app?vid=0dedb6f6-6801-483b-bfb8-9cd4533d158f"},"vehicle_type_id":"4","last_reported":1750425857,"current_range_meters":6000,"station_id":"","pricing_plan_id":"cebpf4jnsgd1na2vs0mg"},{"bike_id":"6ea58431-9bfb-4dd4-9a78-5f95874bd77e","system_id":"levelo_inurba_marseille","lat":43.282544,"lon":5.351021,"is_reserved":false,"is_disabled":false,"rental_uris":{"android":"levelo://app?vid=6ea58431-9bfb-4dd4-9a78-5f95874bd77e","ios":"levelo://app?vid=6ea58431-9bfb-4dd4-9a78-5f95874bd77e"},"vehicle_type_id":"4","last_reported":1750425857,"current_range_meters":6000,"station_id":"ce4bhbp2rcd13ifvqerg","pricing_plan_id":"cebpf4jnsgd1na2vs0mg"},{"bike_id":"fed1d1c7-744f-4164-a550-24a8cfe1a14c","system_id":"levelo_inurba_marseille","lat":43.26552,"lon":5.37285,"is_reserved":false,"is_disabled":false,"rental_uris":{"android":"levelo://app?vid=fed1d1c7-744f-4164-a550-24a8cfe1a14c","ios":"levelo://app?vid=fed1d1c7-744f-4164-a550-24a8cfe1a14c"},"vehicle_type_id":"4","last_reported":1750425857,"current_range_meters":6000,"station_id":"ce4bhg12rcd13ifvqf70","pricing_plan_id":"cebpf4jnsgd1na2vs0mg"},{"bike_id":"726de7a8-7559-47fa-930e-01c7fe74ba14","system_id":"levelo_inurba_marseille","lat":43.26226,"lon":5.4046,"is_reserved":false,"is_disabled":false,"rental_uris":{"android":"levelo://app?vid=726de7a8-7559-47fa-930e-01c7fe74ba14","ios":"levelo://app?vid=726de7a8-7559-47fa-930e-01c7fe74ba14"},"vehicle_type_id":"4","last_reported":1750425857,"current_range_meters":6000,"station_id":"ce4bhmh2rcd13ifvqgmg","pricing_plan_id":"cebpf4jnsgd1na2vs0mg"},{"bike_id":"c1693011-d896-41aa-a93b-4bfbd4866629","system_id":"levelo_inurba_marseille","lat":43.23151,"lon":5.43712,"is_reserved":false,"is_disabled":false,"rental_uris":{"android":"levelo://app?vid=c1693011-d896-41aa-a93b-4bfbd4866629","ios":"levelo://app?vid=c1693011-d896-41aa-a93b-4bfbd4866629"},"vehicle_type_id":"4","last_reported":1750425857,"current_range_meters":6000,"station_id":"ce4bhmp2rcd13ifvqgog","pricing_plan_id":"cebpf4jnsgd1na2vs0mg"},{"bike_id":"da77d13d-a0ec-4c65-a89c-a5b824007f68","system_id":"levelo_inurba_marseille","lat":43.31755,"lon":5.39008,"is_reserved":false,"is_disabled":false,"rental_uris":{"android":"levelo://app?vid=da77d13d-a0ec-4c65-a89c-a5b824007f68","ios":"levelo://app?vid=da77d13d-a0ec-4c65-a89c-a5b824007f68"},"vehicle_type_id":"4","last_reported":1750425857,"current_range_meters":6000,"station_id":"ce4bhqp2rcd13ifvqhng","pricing_plan_id":"cebpf4jnsgd1na2vs0mg"},{"bike_id":"4979bc09-c9db-4e06-a2c0-0e545c4cca90","system_id":"levelo_inurba_marseille","lat":43.24169,"lon":5.36395,"is_reserved":false,"is_disabled":false,"rental_uris":{"android":"levelo://app?vid=4979bc09-c9db-4e06-a2c0-0e545c4cca90","ios":"levelo://app?vid=4979bc09-c9db-4e06-a2c0-0e545c4cca90"},"vehicle_type_id":"4","last_reported":1750425857,"current_range_meters":6000,"station_id":"cpo36qri1sfpv3e86is0","pricing_plan_id":"cebpf4jnsgd1na2vs0mg"},{"bike_id":"268aafb4-1331-426c-97bc-a7d6564caeb6","system_id":"levelo_inurba_marseille","lat":43.32933,"lon":5.37919,"is_reserved":false,"is_disabled":false,"rental_uris":{"android":"levelo://app?vid=268aafb4-1331-426c-97bc-a7d6564caeb6","ios":"levelo://app?vid=268aafb4-1331-426c-97bc-a7d6564caeb6"},"vehicle_type_id":"4","last_reported":1750425857,"current_range_meters":6400,"station_id":"","pricing_plan_id":"cebpf4jnsgd1na2vs0mg"},{"bike_id":"b074639f-0e3d-430b-8989-a6d2e113b27d","system_id":"levelo_inurba_marseille","lat":43.28618,"lon":5.35103,"is_reserved":false,"is_disabled":false,"rental_uris":{"android":"levelo://app?vid=b074639f-0e3d-430b-8989-a6d2e113b27d","ios":"levelo://app?vid=b074639f-0e3d-430b-8989-a6d2e113b27d"},"vehicle_type_id":"4","last_reported":1750425857,"current_range_meters":6400,"station_id":"ce4bhch2rcd13ifvqeug","pricing_plan_id":"cebpf4jnsgd1na2vs0mg"},{"bike_id":"ef21d472-619b-4672-9054-97ec3bc97065","system_id":"levelo_inurba_marseille","lat":43.29904,"lon":5.43666,"is_reserved":false,"is_disabled":false,"rental_uris":{"android":"levelo://app?vid=ef21d472-619b-4672-9054-97ec3bc97065","ios":"levelo://app?vid=ef21d472-619b-4672-9054-97ec3bc97065"},"vehicle_type_id":"4","last_reported":1750425857,"current_range_meters":6400,"station_id":"ce4bhpp2rcd13ifvqhfg","pricing_plan_id":"cebpf4jnsgd1na2vs0mg"},{"bike_id":"613bc561-de7b-4c61-8b6c-b1a0df32b2e5","system_id":"levelo_inurba_marseille","lat":43.28786,"lon":5.35241,"is_reserved":false,"is_disabled":false,"rental_uris":{"android":"levelo://app?vid=613bc561-de7b-4c61-8b6c-b1a0df32b2e5","ios":"levelo://app?vid=613bc561-de7b-4c61-8b6c-b1a0df32b2e5"},"vehicle_type_id":"4","last_reported":1750425857,"current_range_meters":6800,"station_id":"","pricing_plan_id":"cebpf4jnsgd1na2vs0mg"},{"bike_id":"0e6f13ee-ab61-4968-b3f2-7401472b0997","system_id":"levelo_inurba_marseille","lat":43.24649,"lon":5.38891,"is_reserved":false,"is_disabled":false,"rental_uris":{"android":"levelo://app?vid=0e6f13ee-ab61-4968-b3f2-7401472b0997","ios":"levelo://app?vid=0e6f13ee-ab61-4968-b3f2-7401472b0997"},"vehicle_type_id":"4","last_reported":1750425857,"current_range_meters":6800,"station_id":"ce4bhg12rcd13ifvqf60","pricing_plan_id":"cebpf4jnsgd1na2vs0mg"},{"bike_id":"daa859b6-b6a4-4176-aec7-8324d51ad96e","system_id":"levelo_inurba_marseille","lat":43.2418,"lon":5.36393,"is_reserved":false,"is_disabled":false,"rental_uris":{"android":"levelo://app?vid=daa859b6-b6a4-4176-aec7-8324d51ad96e","ios":"levelo://app?vid=daa859b6-b6a4-4176-aec7-8324d51ad96e"},"vehicle_type_id":"4","last_reported":1750425857,"current_range_meters":6800,"station_id":"cpo36qri1sfpv3e86is0","pricing_plan_id":"cebpf4jnsgd1na2vs0mg"},{"bike_id":"e7ea39a0-08e1-4f09-8f3f-e30c119e669a","system_id":"levelo_inurba_marseille","lat":43.30819,"lon":5.43749,"is_reserved":false,"is_disabled":false,"rental_uris":{"android":"levelo://app?vid=e7ea39a0-08e1-4f09-8f3f-e30c119e669a","ios":"levelo://app?vid=e7ea39a0-08e1-4f09-8f3f-e30c119e669a"},"vehicle_type_id":"4","last_reported":1750425857,"current_range_meters":7200,"station_id":"","pricing_plan_id":"cebpf4jnsgd1na2vs0mg"},{"bike_id":"dcd4f779-697c-4a2f-ba2a-b3cdd6178d8f","system_id":"levelo_inurba_marseille","lat":43.301434,"lon":5.380882,"is_reserved":false,"is_disabled":false,"rental_uris":{"android":"levelo://app?vid=dcd4f779-697c-4a2f-ba2a-b3cdd6178d8f","ios":"levelo://app?vid=dcd4f779-697c-4a2f-ba2a-b3cdd6178d8f"},"vehicle_type_id":"4","last_reported":1750425857,"current_range_meters":8000,"station_id":"ce4bgjp2rcd13ifvqbh0","pricing_plan_id":"cebpf4jnsgd1na2vs0mg"},{"bike_id":"f775844d-a1f9-459b-b0b6-2e5da8159103","system_id":"levelo_inurba_marseille","lat":43.30298,"lon":5.39202,"is_reserved":false,"is_disabled":false,"rental_uris":{"android":"levelo://app?vid=f775844d-a1f9-459b-b0b6-2e5da8159103","ios":"levelo://app?vid=f775844d-a1f9-459b-b0b6-2e5da8159103"},"vehicle_type_id":"4","last_reported":1750425857,"current_range_meters":8000,"station_id":"ce4bgkh2rcd13ifvqbk0","pricing_plan_id":"cebpf4jnsgd1na2vs0mg"},{"bike_id":"9c98e6d7-e3c7-4bd3-a18d-aeda236a3162","system_id":"levelo_inurba_marseille","lat":43.23153,"lon":5.43714,"is_reserved":false,"is_disabled":false,"rental_uris":{"android":"levelo://app?vid=9c98e6d7-e3c7-4bd3-a18d-aeda236a3162","ios":"levelo://app?vid=9c98e6d7-e3c7-4bd3-a18d-aeda236a3162"},"vehicle_type_id":"4","last_reported":1750425857,"current_range_meters":8000,"station_id":"ce4bhmp2rcd13ifvqgog","pricing_plan_id":"cebpf4jnsgd1na2vs0mg"},{"bike_id":"2ffae795-9c9c-41b1-9025-e63a457bc189","system_id":"levelo_inurba_marseille","lat":43.299147,"lon":5.436677,"is_reserved":false,"is_disabled":false,"rental_uris":{"android":"levelo://app?vid=2ffae795-9c9c-41b1-9025-e63a457bc189","ios":"levelo://app?vid=2ffae795-9c9c-41b1-9025-e63a457bc189"},"vehicle_type_id":"4","last_reported":1750425857,"current_range_meters":8000,"station_id":"ce4bhpp2rcd13ifvqhfg","pricing_plan_id":"cebpf4jnsgd1na2vs0mg"},{"bike_id":"bd0f9254-b408-4389-a8ab-1b1c6ca5b00a","system_id":"levelo_inurba_marseille","lat":43.2417,"lon":5.36394,"is_reserved":false,"is_disabled":false,"rental_uris":{"android":"levelo://app?vid=bd0f9254-b408-4389-a8ab-1b1c6ca5b00a","ios":"levelo://app?vid=bd0f9254-b408-4389-a8ab-1b1c6ca5b00a"},"vehicle_type_id":"4","last_reported":1750425857,"current_range_meters":8000,"station_id":"cpo36qri1sfpv3e86is0","pricing_plan_id":"cebpf4jnsgd1na2vs0mg"},{"bike_id":"8fa1bf23-9a16-4f08-ab35-febd0baf2ba3","system_id":"levelo_inurba_marseille","lat":43.29256,"lon":5.40905,"is_reserved":false,"is_disabled":false,"rental_uris":{"android":"levelo://app?vid=8fa1bf23-9a16-4f08-ab35-febd0baf2ba3","ios":"levelo://app?vid=8fa1bf23-9a16-4f08-ab35-febd0baf2ba3"},"vehicle_type_id":"4","last_reported":1750425857,"current_range_meters":8400,"station_id":"","pricing_plan_id":"cebpf4jnsgd1na2vs0mg"},{"bike_id":"f025e0b0-8595-426c-b214-cb9b74c5fcfd","system_id":"levelo_inurba_marseille","lat":43.32196,"lon":5.40574,"is_reserved":false,"is_disabled":false,"rental_uris":{"android":"levelo://app?vid=f025e0b0-8595-426c-b214-cb9b74c5fcfd","ios":"levelo://app?vid=f025e0b0-8595-426c-b214-cb9b74c5fcfd"},"vehicle_type_id":"4","last_reported":1750425857,"current_range_meters":8400,"station_id":"","pricing_plan_id":"cebpf4jnsgd1na2vs0mg"},{"bike_id":"9799c827-8772-4236-ba84-eb1c7ed527b5","system_id":"levelo_inurba_marseille","lat":43.30132,"lon":5.38782,"is_reserved":false,"is_disabled":false,"rental_uris":{"android":"levelo://app?vid=9799c827-8772-4236-ba84-eb1c7ed527b5","ios":"levelo://app?vid=9799c827-8772-4236-ba84-eb1c7ed527b5"},"vehicle_type_id":"4","last_reported":1750425857,"current_range_meters":8400,"station_id":"ce4bghh2rcd13ifvqb60","pricing_plan_id":"cebpf4jnsgd1na2vs0mg"},{"bike_id":"c40946bd-0669-481e-81b6-0016ba7ffe28","system_id":"levelo_inurba_marseille","lat":43.33013,"lon":5.39057,"is_reserved":false,"is_disabled":false,"rental_uris":{"android":"levelo://app?vid=c40946bd-0669-481e-81b6-0016ba7ffe28","ios":"levelo://app?vid=c40946bd-0669-481e-81b6-0016ba7ffe28"},"vehicle_type_id":"4","last_reported":1750425857,"current_range_meters":8400,"station_id":"ce4bhr92rcd13ifvqhrg","pricing_plan_id":"cebpf4jnsgd1na2vs0mg"},{"bike_id":"059a97da-c725-4fd0-bdc6-03c9754b1bda","system_id":"levelo_inurba_marseille","lat":43.22935,"lon":5.35375,"is_reserved":false,"is_disabled":false,"rental_uris":{"android":"levelo://app?vid=059a97da-c725-4fd0-bdc6-03c9754b1bda","ios":"levelo://app?vid=059a97da-c725-4fd0-bdc6-03c9754b1bda"},"vehicle_type_id":"4","last_reported":1750425857,"current_range_meters":8400,"station_id":"cpo3532slgdg3j2ikp40","pricing_plan_id":"cebpf4jnsgd1na2vs0mg"},{"bike_id":"2f78d359-aa23-4f80-8a56-07d6cf19b433","system_id":"levelo_inurba_marseille","lat":43.29695,"lon":5.36576,"is_reserved":false,"is_disabled":false,"rental_uris":{"android":"levelo://app?vid=2f78d359-aa23-4f80-8a56-07d6cf19b433","ios":"levelo://app?vid=2f78d359-aa23-4f80-8a56-07d6cf19b433"},"vehicle_type_id":"4","last_reported":1750425857,"current_range_meters":8800,"station_id":"ce4bgn12rcd13ifvqbt0","pricing_plan_id":"cebpf4jnsgd1na2vs0mg"},{"bike_id":"c4be3bfb-7158-43bd-9837-dadf98b31723","system_id":"levelo_inurba_marseille","lat":43.30142,"lon":5.3741,"is_reserved":false,"is_disabled":false,"rental_uris":{"android":"levelo://app?vid=c4be3bfb-7158-43bd-9837-dadf98b31723","ios":"levelo://app?vid=c4be3bfb-7158-43bd-9837-dadf98b31723"},"vehicle_type_id":"4","last_reported":1750425857,"current_range_meters":8800,"station_id":"ce4bgs92rcd13ifvqcc0","pricing_plan_id":"cebpf4jnsgd1na2vs0mg"},{"bike_id":"30cf11a7-a6e0-4a21-af73-15e59eb0bd0a","system_id":"levelo_inurba_marseille","lat":43.26682,"lon":5.38301,"is_reserved":false,"is_disabled":false,"rental_uris":{"android":"levelo://app?vid=30cf11a7-a6e0-4a21-af73-15e59eb0bd0a","ios":"levelo://app?vid=30cf11a7-a6e0-4a21-af73-15e59eb0bd0a"},"vehicle_type_id":"4","last_reported":1750425857,"current_range_meters":8800,"station_id":"ce4bhg92rcd13ifvqf90","pricing_plan_id":"cebpf4jnsgd1na2vs0mg"},{"bike_id":"d2d46c7c-bf70-414e-833c-8dd0942c0ef9","system_id":"levelo_inurba_marseille","lat":43.229452,"lon":5.353778,"is_reserved":false,"is_disabled":false,"rental_uris":{"android":"levelo://app?vid=d2d46c7c-bf70-414e-833c-8dd0942c0ef9","ios":"levelo://app?vid=d2d46c7c-bf70-414e-833c-8dd0942c0ef9"},"vehicle_type_id":"4","last_reported":1750425857,"current_range_meters":8800,"station_id":"cpo3532slgdg3j2ikp40","pricing_plan_id":"cebpf4jnsgd1na2vs0mg"},{"bike_id":"df735c88-ae0a-4f8e-9723-d29eb27d80b9","system_id":"levelo_inurba_marseille","lat":43.29904,"lon":5.37623,"is_reserved":false,"is_disabled":false,"rental_uris":{"android":"levelo://app?vid=df735c88-ae0a-4f8e-9723-d29eb27d80b9","ios":"levelo://app?vid=df735c88-ae0a-4f8e-9723-d29eb27d80b9"},"vehicle_type_id":"4","last_reported":1750425857,"current_range_meters":9200,"station_id":"","pricing_plan_id":"cebpf4jnsgd1na2vs0mg"},{"bike_id":"7977d4f0-faed-4505-b100-18dcd3bfa9b5","system_id":"levelo_inurba_marseille","lat":43.29836,"lon":5.3628,"is_reserved":false,"is_disabled":false,"rental_uris":{"android":"levelo://app?vid=7977d4f0-faed-4505-b100-18dcd3bfa9b5","ios":"levelo://app?vid=7977d4f0-faed-4505-b100-18dcd3bfa9b5"},"vehicle_type_id":"4","last_reported":1750425857,"current_range_meters":9200,"station_id":"ce4bgpp2rcd13ifvqc3g","pricing_plan_id":"cebpf4jnsgd1na2vs0mg"},{"bike_id":"cc604cbb-c008-487e-be1b-88cf4bb96b27","system_id":"levelo_inurba_marseille","lat":43.31497,"lon":5.37308,"is_reserved":false,"is_disabled":false,"rental_uris":{"android":"levelo://app?vid=cc604cbb-c008-487e-be1b-88cf4bb96b27","ios":"levelo://app?vid=cc604cbb-c008-487e-be1b-88cf4bb96b27"},"vehicle_type_id":"4","last_reported":1750425857,"current_range_meters":9200,"station_id":"ce4bgt12rcd13ifvqcd0","pricing_plan_id":"cebpf4jnsgd1na2vs0mg"},{"bike_id":"6542854f-d6db-4caf-bb93-da856bceca1f","system_id":"levelo_inurba_marseille","lat":43.29007,"lon":5.38121,"is_reserved":false,"is_disabled":false,"rental_uris":{"android":"levelo://app?vid=6542854f-d6db-4caf-bb93-da856bceca1f","ios":"levelo://app?vid=6542854f-d6db-4caf-bb93-da856bceca1f"},"vehicle_type_id":"4","last_reported":1750425857,"current_range_meters":9200,"station_id":"ce4bh4p2rcd13ifvqe1g","pricing_plan_id":"cebpf4jnsgd1na2vs0mg"},{"bike_id":"31e759fd-aade-4319-bfee-7db47271e466","system_id":"levelo_inurba_marseille","lat":43.281033,"lon":5.378271,"is_reserved":false,"is_disabled":false,"rental_uris":{"android":"levelo://app?vid=31e759fd-aade-4319-bfee-7db47271e466","ios":"levelo://app?vid=31e759fd-aade-4319-bfee-7db47271e466"},"vehicle_type_id":"4","last_reported":1750425857,"current_range_meters":9200,"station_id":"ce4bha12rcd13ifvqee0","pricing_plan_id":"cebpf4jnsgd1na2vs0mg"},{"bike_id":"7295aa6e-56cb-452f-bae8-c2bda663e0c7","system_id":"levelo_inurba_marseille","lat":43.24664,"lon":5.38166,"is_reserved":false,"is_disabled":false,"rental_uris":{"android":"levelo://app?vid=7295aa6e-56cb-452f-bae8-c2bda663e0c7","ios":"levelo://app?vid=7295aa6e-56cb-452f-bae8-c2bda663e0c7"},"vehicle_type_id":"4","last_reported":1750425857,"current_range_meters":9200,"station_id":"ce4bhih2rcd13ifvqfr0","pricing_plan_id":"cebpf4jnsgd1na2vs0mg"},{"bike_id":"3cad492c-cf4e-4e48-b81b-6813c9c5a616","system_id":"levelo_inurba_marseille","lat":43.21191,"lon":5.35063,"is_reserved":false,"is_disabled":false,"rental_uris":{"android":"levelo://app?vid=3cad492c-cf4e-4e48-b81b-6813c9c5a616","ios":"levelo://app?vid=3cad492c-cf4e-4e48-b81b-6813c9c5a616"},"vehicle_type_id":"4","last_reported":1750425857,"current_range_meters":9200,"station_id":"st_cvj6sg6p6f1abm77japg","pricing_plan_id":"cebpf4jnsgd1na2vs0mg"},{"bike_id":"fec72ab8-d7a6-46b8-aad3-61d01b715447","system_id":"levelo_inurba_marseille","lat":43.27501,"lon":5.37747,"is_reserved":false,"is_disabled":false,"rental_uris":{"android":"levelo://app?vid=fec72ab8-d7a6-46b8-aad3-61d01b715447","ios":"levelo://app?vid=fec72ab8-d7a6-46b8-aad3-61d01b715447"},"vehicle_type_id":"4","last_reported":1750425857,"current_range_meters":9600,"station_id":"","pricing_plan_id":"cebpf4jnsgd1na2vs0mg"},{"bike_id":"ec3530a6-ce20-4680-9663-08fb5f6622d5","system_id":"levelo_inurba_marseille","lat":43.29909,"lon":5.38144,"is_reserved":false,"is_disabled":false,"rental_uris":{"android":"levelo://app?vid=ec3530a6-ce20-4680-9663-08fb5f6622d5","ios":"levelo://app?vid=ec3530a6-ce20-4680-9663-08fb5f6622d5"},"vehicle_type_id":"4","last_reported":1750425857,"current_range_meters":9600,"station_id":"ce4bgj12rcd13ifvqbc0","pricing_plan_id":"cebpf4jnsgd1na2vs0mg"},{"bike_id":"ef89ca8a-8162-4bb0-a865-4300d1ea1593","system_id":"levelo_inurba_marseille","lat":43.3121,"lon":5.36843,"is_reserved":false,"is_disabled":false,"rental_uris":{"android":"levelo://app?vid=ef89ca8a-8162-4bb0-a865-4300d1ea1593","ios":"levelo://app?vid=ef89ca8a-8162-4bb0-a865-4300d1ea1593"},"vehicle_type_id":"4","last_reported":1750425857,"current_range_meters":9600,"station_id":"ce4bgl92rcd13ifvqbq0","pricing_plan_id":"cebpf4jnsgd1na2vs0mg"},{"bike_id":"acfeb5a8-d6e7-4ecf-b4a9-9d6965d18fdd","system_id":"levelo_inurba_marseille","lat":43.290287,"lon":5.38638,"is_reserved":false,"is_disabled":false,"rental_uris":{"android":"levelo://app?vid=acfeb5a8-d6e7-4ecf-b4a9-9d6965d18fdd","ios":"levelo://app?vid=acfeb5a8-d6e7-4ecf-b4a9-9d6965d18fdd"},"vehicle_type_id":"4","last_reported":1750425857,"current_range_meters":9600,"station_id":"ce4bh4p2rcd13ifvqe0g","pricing_plan_id":"cebpf4jnsgd1na2vs0mg"},{"bike_id":"a30a28b9-0975-41a7-b31a-3c10e0b8a59e","system_id":"levelo_inurba_marseille","lat":43.2903,"lon":5.38648,"is_reserved":false,"is_disabled":false,"rental_uris":{"android":"levelo://app?vid=a30a28b9-0975-41a7-b31a-3c10e0b8a59e","ios":"levelo://app?vid=a30a28b9-0975-41a7-b31a-3c10e0b8a59e"},"vehicle_type_id":"4","last_reported":1750425857,"current_range_meters":9600,"station_id":"ce4bh4p2rcd13ifvqe0g","pricing_plan_id":"cebpf4jnsgd1na2vs0mg"},{"bike_id":"22d33f4c-884b-457c-8671-6f41d4686c09","system_id":"levelo_inurba_marseille","lat":43.28486,"lon":5.38404,"is_reserved":false,"is_disabled":false,"rental_uris":{"android":"levelo://app?vid=22d33f4c-884b-457c-8671-6f41d4686c09","ios":"levelo://app?vid=22d33f4c-884b-457c-8671-6f41d4686c09"},"vehicle_type_id":"4","last_reported":1750425857,"current_range_meters":9600,"station_id":"ce4bh512rcd13ifvqe3g","pricing_plan_id":"cebpf4jnsgd1na2vs0mg"},{"bike_id":"791230d7-d8e7-4dee-8e0d-b4dcc6f926c1","system_id":"levelo_inurba_marseille","lat":43.23137,"lon":5.43735,"is_reserved":false,"is_disabled":false,"rental_uris":{"android":"levelo://app?vid=791230d7-d8e7-4dee-8e0d-b4dcc6f926c1","ios":"levelo://app?vid=791230d7-d8e7-4dee-8e0d-b4dcc6f926c1"},"vehicle_type_id":"4","last_reported":1750425857,"current_range_meters":9600,"station_id":"ce4bhmp2rcd13ifvqgog","pricing_plan_id":"cebpf4jnsgd1na2vs0mg"},{"bike_id":"578faedf-7b10-4d6a-a63c-fd2dc834c9fc","system_id":"levelo_inurba_marseille","lat":43.32063,"lon":5.41593,"is_reserved":false,"is_disabled":false,"rental_uris":{"android":"levelo://app?vid=578faedf-7b10-4d6a-a63c-fd2dc834c9fc","ios":"levelo://app?vid=578faedf-7b10-4d6a-a63c-fd2dc834c9fc"},"vehicle_type_id":"4","last_reported":1750425857,"current_range_meters":9600,"station_id":"ce4bhq92rcd13ifvqhkg","pricing_plan_id":"cebpf4jnsgd1na2vs0mg"},{"bike_id":"4c3b828b-ffc0-45bf-ae07-a11a54471fbd","system_id":"levelo_inurba_marseille","lat":43.28617,"lon":5.35102,"is_reserved":false,"is_disabled":false,"rental_uris":{"android":"levelo://app?vid=4c3b828b-ffc0-45bf-ae07-a11a54471fbd","ios":"levelo://app?vid=4c3b828b-ffc0-45bf-ae07-a11a54471fbd"},"vehicle_type_id":"4","last_reported":1750425857,"current_range_meters":10000,"station_id":"ce4bhch2rcd13ifvqeug","pricing_plan_id":"cebpf4jnsgd1na2vs0mg"},{"bike_id":"fc9c54e8-b6e1-462b-b393-a453863683f0","system_id":"levelo_inurba_marseille","lat":43.23192,"lon":5.3998,"is_reserved":false,"is_disabled":false,"rental_uris":{"android":"levelo://app?vid=fc9c54e8-b6e1-462b-b393-a453863683f0","ios":"levelo://app?vid=fc9c54e8-b6e1-462b-b393-a453863683f0"},"vehicle_type_id":"4","last_reported":1750425857,"current_range_meters":10000,"station_id":"ce4bhn12rcd13ifvqgqg","pricing_plan_id":"cebpf4jnsgd1na2vs0mg"},{"bike_id":"78c1ab2b-adc1-42c1-9c8c-be305b7bae7c","system_id":"levelo_inurba_marseille","lat":43.33028,"lon":5.39039,"is_reserved":false,"is_disabled":false,"rental_uris":{"android":"levelo://app?vid=78c1ab2b-adc1-42c1-9c8c-be305b7bae7c","ios":"levelo://app?vid=78c1ab2b-adc1-42c1-9c8c-be305b7bae7c"},"vehicle_type_id":"4","last_reported":1750425857,"current_range_meters":10000,"station_id":"ce4bhr92rcd13ifvqhrg","pricing_plan_id":"cebpf4jnsgd1na2vs0mg"},{"bike_id":"3f257d51-9c63-40b2-b5cc-7b08add54320","system_id":"levelo_inurba_marseille","lat":43.23053,"lon":5.35501,"is_reserved":false,"is_disabled":false,"rental_uris":{"android":"levelo://app?vid=3f257d51-9c63-40b2-b5cc-7b08add54320","ios":"levelo://app?vid=3f257d51-9c63-40b2-b5cc-7b08add54320"},"vehicle_type_id":"4","last_reported":1750425857,"current_range_meters":10000,"station_id":"cpo3342slgdg3j2ifvpg","pricing_plan_id":"cebpf4jnsgd1na2vs0mg"},{"bike_id":"97dc7944-a3f7-4f56-bf01-05ead9087acf","system_id":"levelo_inurba_marseille","lat":43.24166,"lon":5.36415,"is_reserved":false,"is_disabled":false,"rental_uris":{"android":"levelo://app?vid=97dc7944-a3f7-4f56-bf01-05ead9087acf","ios":"levelo://app?vid=97dc7944-a3f7-4f56-bf01-05ead9087acf"},"vehicle_type_id":"4","last_reported":1750425857,"current_range_meters":10000,"station_id":"cpo36qri1sfpv3e86is0","pricing_plan_id":"cebpf4jnsgd1na2vs0mg"},{"bike_id":"943d57f3-b313-44b7-ae78-a394f179e07f","system_id":"levelo_inurba_marseille","lat":43.29832,"lon":5.41644,"is_reserved":false,"is_disabled":false,"rental_uris":{"android":"levelo://app?vid=943d57f3-b313-44b7-ae78-a394f179e07f","ios":"levelo://app?vid=943d57f3-b313-44b7-ae78-a394f179e07f"},"vehicle_type_id":"4","last_reported":1750425857,"current_range_meters":10800,"station_id":"","pricing_plan_id":"cebpf4jnsgd1na2vs0mg"},{"bike_id":"2eb82d3c-7db0-466f-80a7-c6ed84d8119f","system_id":"levelo_inurba_marseille","lat":43.279075,"lon":5.380137,"is_reserved":false,"is_disabled":false,"rental_uris":{"android":"levelo://app?vid=2eb82d3c-7db0-466f-80a7-c6ed84d8119f","ios":"levelo://app?vid=2eb82d3c-7db0-466f-80a7-c6ed84d8119f"},"vehicle_type_id":"4","last_reported":1750425857,"current_range_meters":10800,"station_id":"","pricing_plan_id":"cebpf4jnsgd1na2vs0mg"},{"bike_id":"0ecc93f1-9b9c-420e-a373-75f1d4ac4456","system_id":"levelo_inurba_marseille","lat":43.30539,"lon":5.38431,"is_reserved":false,"is_disabled":false,"rental_uris":{"android":"levelo://app?vid=0ecc93f1-9b9c-420e-a373-75f1d4ac4456","ios":"levelo://app?vid=0ecc93f1-9b9c-420e-a373-75f1d4ac4456"},"vehicle_type_id":"4","last_reported":1750425857,"current_range_meters":10800,"station_id":"ce4bgg92rcd13ifvqb30","pricing_plan_id":"cebpf4jnsgd1na2vs0mg"},{"bike_id":"4bb24b23-da69-4289-935e-9dabf6826560","system_id":"levelo_inurba_marseille","lat":43.29574,"lon":5.37515,"is_reserved":false,"is_disabled":false,"rental_uris":{"android":"levelo://app?vid=4bb24b23-da69-4289-935e-9dabf6826560","ios":"levelo://app?vid=4bb24b23-da69-4289-935e-9dabf6826560"},"vehicle_type_id":"4","last_reported":1750425857,"current_range_meters":10800,"station_id":"ce4bgh92rcd13ifvqb50","pricing_plan_id":"cebpf4jnsgd1na2vs0mg"},{"bike_id":"bc818d66-0121-423f-bca6-ebc01df66a0f","system_id":"levelo_inurba_marseille","lat":43.31488,"lon":5.37268,"is_reserved":false,"is_disabled":false,"rental_uris":{"android":"levelo://app?vid=bc818d66-0121-423f-bca6-ebc01df66a0f","ios":"levelo://app?vid=bc818d66-0121-423f-bca6-ebc01df66a0f"},"vehicle_type_id":"4","last_reported":1750425857,"current_range_meters":10800,"station_id":"ce4bgt12rcd13ifvqcd0","pricing_plan_id":"cebpf4jnsgd1na2vs0mg"},{"bike_id":"ee9e43c0-6612-42d2-8e5d-ee22cfd8ab29","system_id":"levelo_inurba_marseille","lat":43.246398,"lon":5.384395,"is_reserved":false,"is_disabled":false,"rental_uris":{"android":"levelo://app?vid=ee9e43c0-6612-42d2-8e5d-ee22cfd8ab29","ios":"levelo://app?vid=ee9e43c0-6612-42d2-8e5d-ee22cfd8ab29"},"vehicle_type_id":"4","last_reported":1750425857,"current_range_meters":11200,"station_id":"ce4bhhh2rcd13ifvqfk0","pricing_plan_id":"cebpf4jnsgd1na2vs0mg"},{"bike_id":"9bd636c4-f973-49e0-9c80-c6d15b387238","system_id":"levelo_inurba_marseille","lat":43.23183,"lon":5.39972,"is_reserved":false,"is_disabled":false,"rental_uris":{"android":"levelo://app?vid=9bd636c4-f973-49e0-9c80-c6d15b387238","ios":"levelo://app?vid=9bd636c4-f973-49e0-9c80-c6d15b387238"},"vehicle_type_id":"4","last_reported":1750425857,"current_range_meters":11200,"station_id":"ce4bhn12rcd13ifvqgqg","pricing_plan_id":"cebpf4jnsgd1na2vs0mg"},{"bike_id":"ed04b747-fc68-46f4-a978-720166f03ec8","system_id":"levelo_inurba_marseille","lat":43.28692,"lon":5.39983,"is_reserved":false,"is_disabled":false,"rental_uris":{"android":"levelo://app?vid=ed04b747-fc68-46f4-a978-720166f03ec8","ios":"levelo://app?vid=ed04b747-fc68-46f4-a978-720166f03ec8"},"vehicle_type_id":"4","last_reported":1750425857,"current_range_meters":11200,"station_id":"ce4bho92rcd13ifvqh3g","pricing_plan_id":"cebpf4jnsgd1na2vs0mg"},{"bike_id":"8be46d3a-e871-4120-8118-c2bab79399a0","system_id":"levelo_inurba_marseille","lat":43.28704,"lon":5.39992,"is_reserved":false,"is_disabled":false,"rental_uris":{"android":"levelo://app?vid=8be46d3a-e871-4120-8118-c2bab79399a0","ios":"levelo://app?vid=8be46d3a-e871-4120-8118-c2bab79399a0"},"vehicle_type_id":"4","last_reported":1750425857,"current_range_meters":11200,"station_id":"ce4bho92rcd13ifvqh3g","pricing_plan_id":"cebpf4jnsgd1na2vs0mg"},{"bike_id":"4598062e-a810-4e05-ad43-ae7756886de8","system_id":"levelo_inurba_marseille","lat":43.29625,"lon":5.37154,"is_reserved":false,"is_disabled":false,"rental_uris":{"android":"levelo://app?vid=4598062e-a810-4e05-ad43-ae7756886de8","ios":"levelo://app?vid=4598062e-a810-4e05-ad43-ae7756886de8"},"vehicle_type_id":"4","last_reported":1750425857,"current_range_meters":11600,"station_id":"ce4bgnh2rcd13ifvqc0g","pricing_plan_id":"cebpf4jnsgd1na2vs0mg"},{"bike_id":"553b7e65-a1ae-4b12-a41c-7b07cd323906","system_id":"levelo_inurba_marseille","lat":43.30636,"lon":5.4009,"is_reserved":false,"is_disabled":false,"rental_uris":{"android":"levelo://app?vid=553b7e65-a1ae-4b12-a41c-7b07cd323906","ios":"levelo://app?vid=553b7e65-a1ae-4b12-a41c-7b07cd323906"},"vehicle_type_id":"4","last_reported":1750425857,"current_range_meters":11600,"station_id":"ce4bh112rcd13ifvqda0","pricing_plan_id":"cebpf4jnsgd1na2vs0mg"},{"bike_id":"9c850d12-3174-4ef6-bf90-cbf68e5180ba","system_id":"levelo_inurba_marseille","lat":43.29271,"lon":5.3684,"is_reserved":false,"is_disabled":false,"rental_uris":{"android":"levelo://app?vid=9c850d12-3174-4ef6-bf90-cbf68e5180ba","ios":"levelo://app?vid=9c850d12-3174-4ef6-bf90-cbf68e5180ba"},"vehicle_type_id":"4","last_reported":1750425857,"current_range_meters":11600,"station_id":"ce4bhbp2rcd13ifvqesg","pricing_plan_id":"cebpf4jnsgd1na2vs0mg"},{"bike_id":"27806104-c442-4ba8-945e-ab2e88ac663b","system_id":"levelo_inurba_marseille","lat":43.25485,"lon":5.37632,"is_reserved":false,"is_disabled":false,"rental_uris":{"android":"levelo://app?vid=27806104-c442-4ba8-945e-ab2e88ac663b","ios":"levelo://app?vid=27806104-c442-4ba8-945e-ab2e88ac663b"},"vehicle_type_id":"4","last_reported":1750425857,"current_range_meters":11600,"station_id":"ce4bhh12rcd13ifvqff0","pricing_plan_id":"cebpf4jnsgd1na2vs0mg"},{"bike_id":"ae1acac9-880d-4be9-95ac-9035d400f06a","system_id":"levelo_inurba_marseille","lat":43.24166,"lon":5.36392,"is_reserved":false,"is_disabled":false,"rental_uris":{"android":"levelo://app?vid=ae1acac9-880d-4be9-95ac-9035d400f06a","ios":"levelo://app?vid=ae1acac9-880d-4be9-95ac-9035d400f06a"},"vehicle_type_id":"4","last_reported":1750425857,"current_range_meters":11600,"station_id":"cpo36qri1sfpv3e86is0","pricing_plan_id":"cebpf4jnsgd1na2vs0mg"},{"bike_id":"e48da38b-c78b-404e-acf2-6b73fb47ff20","system_id":"levelo_inurba_marseille","lat":43.30191,"lon":5.36623,"is_reserved":false,"is_disabled":false,"rental_uris":{"android":"levelo://app?vid=e48da38b-c78b-404e-acf2-6b73fb47ff20","ios":"levelo://app?vid=e48da38b-c78b-404e-acf2-6b73fb47ff20"},"vehicle_type_id":"4","last_reported":1750425857,"current_range_meters":12000,"station_id":"ce4bgrh2rcd13ifvqc8g","pricing_plan_id":"cebpf4jnsgd1na2vs0mg"},{"bike_id":"5a999ffc-c5f0-4aaa-8843-7f9706ae581e","system_id":"levelo_inurba_marseille","lat":43.30646,"lon":5.40084,"is_reserved":false,"is_disabled":false,"rental_uris":{"android":"levelo://app?vid=5a999ffc-c5f0-4aaa-8843-7f9706ae581e","ios":"levelo://app?vid=5a999ffc-c5f0-4aaa-8843-7f9706ae581e"},"vehicle_type_id":"4","last_reported":1750425857,"current_range_meters":12000,"station_id":"ce4bh112rcd13ifvqda0","pricing_plan_id":"cebpf4jnsgd1na2vs0mg"},{"bike_id":"496f3967-646c-4b11-b018-4b2db8cbc554","system_id":"levelo_inurba_marseille","lat":43.28275,"lon":5.35093,"is_reserved":false,"is_disabled":false,"rental_uris":{"android":"levelo://app?vid=496f3967-646c-4b11-b018-4b2db8cbc554","ios":"levelo://app?vid=496f3967-646c-4b11-b018-4b2db8cbc554"},"vehicle_type_id":"4","last_reported":1750425857,"current_range_meters":12000,"station_id":"ce4bhbp2rcd13ifvqerg","pricing_plan_id":"cebpf4jnsgd1na2vs0mg"},{"bike_id":"a63b8b74-a94b-406b-8b41-8f46c7a02902","system_id":"levelo_inurba_marseille","lat":43.26557,"lon":5.37284,"is_reserved":false,"is_disabled":false,"rental_uris":{"android":"levelo://app?vid=a63b8b74-a94b-406b-8b41-8f46c7a02902","ios":"levelo://app?vid=a63b8b74-a94b-406b-8b41-8f46c7a02902"},"vehicle_type_id":"4","last_reported":1750425857,"current_range_meters":12000,"station_id":"ce4bhg12rcd13ifvqf70","pricing_plan_id":"cebpf4jnsgd1na2vs0mg"},{"bike_id":"6d4d653e-81cb-40a4-9817-a2ab0a6fbb77","system_id":"levelo_inurba_marseille","lat":43.286755,"lon":5.399956,"is_reserved":false,"is_disabled":false,"rental_uris":{"android":"levelo://app?vid=6d4d653e-81cb-40a4-9817-a2ab0a6fbb77","ios":"levelo://app?vid=6d4d653e-81cb-40a4-9817-a2ab0a6fbb77"},"vehicle_type_id":"4","last_reported":1750425857,"current_range_meters":12000,"station_id":"ce4bho92rcd13ifvqh3g","pricing_plan_id":"cebpf4jnsgd1na2vs0mg"},{"bike_id":"2edbbb6e-0cf9-46ce-8d41-42a112fc230d","system_id":"levelo_inurba_marseille","lat":43.30135,"lon":5.37419,"is_reserved":false,"is_disabled":false,"rental_uris":{"android":"levelo://app?vid=2edbbb6e-0cf9-46ce-8d41-42a112fc230d","ios":"levelo://app?vid=2edbbb6e-0cf9-46ce-8d41-42a112fc230d"},"vehicle_type_id":"4","last_reported":1750425857,"current_range_meters":12400,"station_id":"ce4bgs92rcd13ifvqcc0","pricing_plan_id":"cebpf4jnsgd1na2vs0mg"},{"bike_id":"e1690202-debe-40f0-9048-b0165425ea40","system_id":"levelo_inurba_marseille","lat":43.2827,"lon":5.35061,"is_reserved":false,"is_disabled":false,"rental_uris":{"android":"levelo://app?vid=e1690202-debe-40f0-9048-b0165425ea40","ios":"levelo://app?vid=e1690202-debe-40f0-9048-b0165425ea40"},"vehicle_type_id":"4","last_reported":1750425857,"current_range_meters":12400,"station_id":"ce4bhbp2rcd13ifvqerg","pricing_plan_id":"cebpf4jnsgd1na2vs0mg"},{"bike_id":"0e1e37a3-80bb-458c-8975-0c42e8d632df","system_id":"levelo_inurba_marseille","lat":43.29267,"lon":5.36847,"is_reserved":false,"is_disabled":false,"rental_uris":{"android":"levelo://app?vid=0e1e37a3-80bb-458c-8975-0c42e8d632df","ios":"levelo://app?vid=0e1e37a3-80bb-458c-8975-0c42e8d632df"},"vehicle_type_id":"4","last_reported":1750425857,"current_range_meters":12400,"station_id":"ce4bhbp2rcd13ifvqesg","pricing_plan_id":"cebpf4jnsgd1na2vs0mg"},{"bike_id":"7027e3f4-367c-443b-aa79-56ec43c7d955","system_id":"levelo_inurba_marseille","lat":43.25726,"lon":5.41108,"is_reserved":false,"is_disabled":false,"rental_uris":{"android":"levelo://app?vid=7027e3f4-367c-443b-aa79-56ec43c7d955","ios":"levelo://app?vid=7027e3f4-367c-443b-aa79-56ec43c7d955"},"vehicle_type_id":"4","last_reported":1750425857,"current_range_meters":12400,"station_id":"ce4bhkp2rcd13ifvqgd0","pricing_plan_id":"cebpf4jnsgd1na2vs0mg"},{"bike_id":"cfcc63e5-33ec-4229-a7bf-4d1c7311a7b9","system_id":"levelo_inurba_marseille","lat":43.298967,"lon":5.436633,"is_reserved":false,"is_disabled":false,"rental_uris":{"android":"levelo://app?vid=cfcc63e5-33ec-4229-a7bf-4d1c7311a7b9","ios":"levelo://app?vid=cfcc63e5-33ec-4229-a7bf-4d1c7311a7b9"},"vehicle_type_id":"4","last_reported":1750425857,"current_range_meters":12400,"station_id":"ce4bhpp2rcd13ifvqhfg","pricing_plan_id":"cebpf4jnsgd1na2vs0mg"},{"bike_id":"46f0562c-2217-40c1-93f1-37831caa6783","system_id":"levelo_inurba_marseille","lat":43.33017,"lon":5.39036,"is_reserved":false,"is_disabled":false,"rental_uris":{"android":"levelo://app?vid=46f0562c-2217-40c1-93f1-37831caa6783","ios":"levelo://app?vid=46f0562c-2217-40c1-93f1-37831caa6783"},"vehicle_type_id":"4","last_reported":1750425857,"current_range_meters":12400,"station_id":"ce4bhr92rcd13ifvqhrg","pricing_plan_id":"cebpf4jnsgd1na2vs0mg"},{"bike_id":"8300812b-c3f4-4460-a462-0c10590e5460","system_id":"levelo_inurba_marseille","lat":43.32894,"lon":5.40559,"is_reserved":false,"is_disabled":false,"rental_uris":{"android":"levelo://app?vid=8300812b-c3f4-4460-a462-0c10590e5460","ios":"levelo://app?vid=8300812b-c3f4-4460-a462-0c10590e5460"},"vehicle_type_id":"4","last_reported":1750425857,"current_range_meters":12800,"station_id":"","pricing_plan_id":"cebpf4jnsgd1na2vs0mg"},{"bike_id":"0708cf38-7a7f-4f4d-a4c6-7778c58c5a3c","system_id":"levelo_inurba_marseille","lat":43.28328,"lon":5.4109,"is_reserved":false,"is_disabled":false,"rental_uris":{"android":"levelo://app?vid=0708cf38-7a7f-4f4d-a4c6-7778c58c5a3c","ios":"levelo://app?vid=0708cf38-7a7f-4f4d-a4c6-7778c58c5a3c"},"vehicle_type_id":"4","last_reported":1750425857,"current_range_meters":12800,"station_id":"","pricing_plan_id":"cebpf4jnsgd1na2vs0mg"},{"bike_id":"199c2831-e081-4bc0-9b94-19503817091d","system_id":"levelo_inurba_marseille","lat":43.248988,"lon":5.406689,"is_reserved":false,"is_disabled":false,"rental_uris":{"android":"levelo://app?vid=199c2831-e081-4bc0-9b94-19503817091d","ios":"levelo://app?vid=199c2831-e081-4bc0-9b94-19503817091d"},"vehicle_type_id":"4","last_reported":1750425857,"current_range_meters":12800,"station_id":"","pricing_plan_id":"cebpf4jnsgd1na2vs0mg"},{"bike_id":"e998e0e5-83c0-4a39-bc24-27d9c0e90119","system_id":"levelo_inurba_marseille","lat":43.29618,"lon":5.37154,"is_reserved":false,"is_disabled":false,"rental_uris":{"android":"levelo://app?vid=e998e0e5-83c0-4a39-bc24-27d9c0e90119","ios":"levelo://app?vid=e998e0e5-83c0-4a39-bc24-27d9c0e90119"},"vehicle_type_id":"4","last_reported":1750425857,"current_range_meters":12800,"station_id":"ce4bgnh2rcd13ifvqc0g","pricing_plan_id":"cebpf4jnsgd1na2vs0mg"},{"bike_id":"9cb9a630-1aef-4aa4-b0f6-19f0e0085973","system_id":"levelo_inurba_marseille","lat":43.29632,"lon":5.40589,"is_reserved":false,"is_disabled":false,"rental_uris":{"android":"levelo://app?vid=9cb9a630-1aef-4aa4-b0f6-19f0e0085973","ios":"levelo://app?vid=9cb9a630-1aef-4aa4-b0f6-19f0e0085973"},"vehicle_type_id":"4","last_reported":1750425857,"current_range_meters":12800,"station_id":"ce4bh0h2rcd13ifvqd60","pricing_plan_id":"cebpf4jnsgd1na2vs0mg"},{"bike_id":"de00ea8b-b5af-439b-8cc5-68db20776c29","system_id":"levelo_inurba_marseille","lat":43.30648,"lon":5.40091,"is_reserved":false,"is_disabled":false,"rental_uris":{"android":"levelo://app?vid=de00ea8b-b5af-439b-8cc5-68db20776c29","ios":"levelo://app?vid=de00ea8b-b5af-439b-8cc5-68db20776c29"},"vehicle_type_id":"4","last_reported":1750425857,"current_range_meters":12800,"station_id":"ce4bh112rcd13ifvqda0","pricing_plan_id":"cebpf4jnsgd1na2vs0mg"},{"bike_id":"4d8e0bc0-2239-4c94-a448-bd874e88cbc0","system_id":"levelo_inurba_marseille","lat":43.28853,"lon":5.35843,"is_reserved":false,"is_disabled":false,"rental_uris":{"android":"levelo://app?vid=4d8e0bc0-2239-4c94-a448-bd874e88cbc0","ios":"levelo://app?vid=4d8e0bc0-2239-4c94-a448-bd874e88cbc0"},"vehicle_type_id":"4","last_reported":1750425857,"current_range_meters":12800,"station_id":"ce4bhb12rcd13ifvqem0","pricing_plan_id":"cebpf4jnsgd1na2vs0mg"},{"bike_id":"8fd94bfe-b0a3-4509-a3c9-0f6e3f8eed78","system_id":"levelo_inurba_marseille","lat":43.24169,"lon":5.36425,"is_reserved":false,"is_disabled":false,"rental_uris":{"android":"levelo://app?vid=8fd94bfe-b0a3-4509-a3c9-0f6e3f8eed78","ios":"levelo://app?vid=8fd94bfe-b0a3-4509-a3c9-0f6e3f8eed78"},"vehicle_type_id":"4","last_reported":1750425857,"current_range_meters":12800,"station_id":"cpo36qri1sfpv3e86is0","pricing_plan_id":"cebpf4jnsgd1na2vs0mg"},{"bike_id":"f30123e7-96d3-442d-9d01-6c98dc61e7c8","system_id":"levelo_inurba_marseille","lat":43.298,"lon":5.36854,"is_reserved":false,"is_disabled":false,"rental_uris":{"android":"levelo://app?vid=f30123e7-96d3-442d-9d01-6c98dc61e7c8","ios":"levelo://app?vid=f30123e7-96d3-442d-9d01-6c98dc61e7c8"},"vehicle_type_id":"4","last_reported":1750425857,"current_range_meters":13600,"station_id":"","pricing_plan_id":"cebpf4jnsgd1na2vs0mg"},{"bike_id":"92f81d5b-23a6-4c62-a074-ca628ca7a9f3","system_id":"levelo_inurba_marseille","lat":43.31206,"lon":5.36843,"is_reserved":false,"is_disabled":false,"rental_uris":{"android":"levelo://app?vid=92f81d5b-23a6-4c62-a074-ca628ca7a9f3","ios":"levelo://app?vid=92f81d5b-23a6-4c62-a074-ca628ca7a9f3"},"vehicle_type_id":"4","last_reported":1750425857,"current_range_meters":13600,"station_id":"ce4bgl92rcd13ifvqbq0","pricing_plan_id":"cebpf4jnsgd1na2vs0mg"},{"bike_id":"402dce70-6e0a-4329-9b7b-954533de52f6","system_id":"levelo_inurba_marseille","lat":43.29256,"lon":5.40896,"is_reserved":false,"is_disabled":false,"rental_uris":{"android":"levelo://app?vid=402dce70-6e0a-4329-9b7b-954533de52f6","ios":"levelo://app?vid=402dce70-6e0a-4329-9b7b-954533de52f6"},"vehicle_type_id":"4","last_reported":1750425857,"current_range_meters":13600,"station_id":"ce4bh192rcd13ifvqdc0","pricing_plan_id":"cebpf4jnsgd1na2vs0mg"},{"bike_id":"72dac951-19c6-4894-a9ab-5b31ba20cb52","system_id":"levelo_inurba_marseille","lat":43.28264,"lon":5.35069,"is_reserved":false,"is_disabled":false,"rental_uris":{"android":"levelo://app?vid=72dac951-19c6-4894-a9ab-5b31ba20cb52","ios":"levelo://app?vid=72dac951-19c6-4894-a9ab-5b31ba20cb52"},"vehicle_type_id":"4","last_reported":1750425857,"current_range_meters":13600,"station_id":"ce4bhbp2rcd13ifvqerg","pricing_plan_id":"cebpf4jnsgd1na2vs0mg"},{"bike_id":"97b85f5b-8ab4-427d-9f1d-7d54fe138dab","system_id":"levelo_inurba_marseille","lat":43.24166,"lon":5.3639,"is_reserved":false,"is_disabled":false,"rental_uris":{"android":"levelo://app?vid=97b85f5b-8ab4-427d-9f1d-7d54fe138dab","ios":"levelo://app?vid=97b85f5b-8ab4-427d-9f1d-7d54fe138dab"},"vehicle_type_id":"4","last_reported":1750425857,"current_range_meters":13600,"station_id":"cpo36qri1sfpv3e86is0","pricing_plan_id":"cebpf4jnsgd1na2vs0mg"},{"bike_id":"eb9c802a-3025-4556-b89a-043fdfeeea58","system_id":"levelo_inurba_marseille","lat":43.21186,"lon":5.35046,"is_reserved":false,"is_disabled":false,"rental_uris":{"android":"levelo://app?vid=eb9c802a-3025-4556-b89a-043fdfeeea58","ios":"levelo://app?vid=eb9c802a-3025-4556-b89a-043fdfeeea58"},"vehicle_type_id":"4","last_reported":1750425857,"current_range_meters":13600,"station_id":"st_cvj6sg6p6f1abm77japg","pricing_plan_id":"cebpf4jnsgd1na2vs0mg"},{"bike_id":"ffc20574-c96c-46fb-9cea-b2241a321332","system_id":"levelo_inurba_marseille","lat":43.30939,"lon":5.38201,"is_reserved":false,"is_disabled":false,"rental_uris":{"android":"levelo://app?vid=ffc20574-c96c-46fb-9cea-b2241a321332","ios":"levelo://app?vid=ffc20574-c96c-46fb-9cea-b2241a321332"},"vehicle_type_id":"4","last_reported":1750425857,"current_range_meters":14000,"station_id":"","pricing_plan_id":"cebpf4jnsgd1na2vs0mg"},{"bike_id":"13ef7d1f-42ab-45c6-8760-bd0b9207222f","system_id":"levelo_inurba_marseille","lat":43.21191,"lon":5.35071,"is_reserved":false,"is_disabled":false,"rental_uris":{"android":"levelo://app?vid=13ef7d1f-42ab-45c6-8760-bd0b9207222f","ios":"levelo://app?vid=13ef7d1f-42ab-45c6-8760-bd0b9207222f"},"vehicle_type_id":"4","last_reported":1750425857,"current_range_meters":14000,"station_id":"st_cvj6sg6p6f1abm77japg","pricing_plan_id":"cebpf4jnsgd1na2vs0mg"},{"bike_id":"f899a80c-3d88-4f61-bc10-7f13b2cdefd7","system_id":"levelo_inurba_marseille","lat":43.30433,"lon":5.39772,"is_reserved":false,"is_disabled":false,"rental_uris":{"android":"levelo://app?vid=f899a80c-3d88-4f61-bc10-7f13b2cdefd7","ios":"levelo://app?vid=f899a80c-3d88-4f61-bc10-7f13b2cdefd7"},"vehicle_type_id":"4","last_reported":1750425857,"current_range_meters":14400,"station_id":"ce4bh092rcd13ifvqd20","pricing_plan_id":"cebpf4jnsgd1na2vs0mg"},{"bike_id":"a15f0df6-aa8a-4b8b-8900-569b7a3d76db","system_id":"levelo_inurba_marseille","lat":43.28364,"lon":5.38643,"is_reserved":false,"is_disabled":false,"rental_uris":{"android":"levelo://app?vid=a15f0df6-aa8a-4b8b-8900-569b7a3d76db","ios":"levelo://app?vid=a15f0df6-aa8a-4b8b-8900-569b7a3d76db"},"vehicle_type_id":"4","last_reported":1750425857,"current_range_meters":14400,"station_id":"ce4bh492rcd13ifvqdvg","pricing_plan_id":"cebpf4jnsgd1na2vs0mg"},{"bike_id":"b4999c5b-5792-4ebc-9751-773b8ecbdf96","system_id":"levelo_inurba_marseille","lat":43.2407,"lon":5.37764,"is_reserved":false,"is_disabled":false,"rental_uris":{"android":"levelo://app?vid=b4999c5b-5792-4ebc-9751-773b8ecbdf96","ios":"levelo://app?vid=b4999c5b-5792-4ebc-9751-773b8ecbdf96"},"vehicle_type_id":"4","last_reported":1750425857,"current_range_meters":14400,"station_id":"ce4bhnp2rcd13ifvqgvg","pricing_plan_id":"cebpf4jnsgd1na2vs0mg"},{"bike_id":"34ca9790-73ba-429e-a759-a676cd7fe3d6","system_id":"levelo_inurba_marseille","lat":43.29626,"lon":5.40595,"is_reserved":false,"is_disabled":false,"rental_uris":{"android":"levelo://app?vid=34ca9790-73ba-429e-a759-a676cd7fe3d6","ios":"levelo://app?vid=34ca9790-73ba-429e-a759-a676cd7fe3d6"},"vehicle_type_id":"4","last_reported":1750425857,"current_range_meters":14800,"station_id":"ce4bh0h2rcd13ifvqd60","pricing_plan_id":"cebpf4jnsgd1na2vs0mg"},{"bike_id":"b8336496-052c-4f23-a0ce-6fc39236dfd5","system_id":"levelo_inurba_marseille","lat":43.27373,"lon":5.36251,"is_reserved":false,"is_disabled":false,"rental_uris":{"android":"levelo://app?vid=b8336496-052c-4f23-a0ce-6fc39236dfd5","ios":"levelo://app?vid=b8336496-052c-4f23-a0ce-6fc39236dfd5"},"vehicle_type_id":"4","last_reported":1750425857,"current_range_meters":14800,"station_id":"ce4bhbh2rcd13ifvqeo0","pricing_plan_id":"cebpf4jnsgd1na2vs0mg"},{"bike_id":"32b33686-79a4-4215-98ad-2c73dfa0a2ab","system_id":"levelo_inurba_marseille","lat":43.28618,"lon":5.35102,"is_reserved":false,"is_disabled":false,"rental_uris":{"android":"levelo://app?vid=32b33686-79a4-4215-98ad-2c73dfa0a2ab","ios":"levelo://app?vid=32b33686-79a4-4215-98ad-2c73dfa0a2ab"},"vehicle_type_id":"4","last_reported":1750425857,"current_range_meters":14800,"station_id":"ce4bhch2rcd13ifvqeug","pricing_plan_id":"cebpf4jnsgd1na2vs0mg"},{"bike_id":"504860e5-46cb-45e5-9abc-9ccc278bcdda","system_id":"levelo_inurba_marseille","lat":43.25004,"lon":5.389238,"is_reserved":false,"is_disabled":false,"rental_uris":{"android":"levelo://app?vid=504860e5-46cb-45e5-9abc-9ccc278bcdda","ios":"levelo://app?vid=504860e5-46cb-45e5-9abc-9ccc278bcdda"},"vehicle_type_id":"4","last_reported":1750425857,"current_range_meters":14800,"station_id":"ce4bhgp2rcd13ifvqfd0","pricing_plan_id":"cebpf4jnsgd1na2vs0mg"},{"bike_id":"c2c2e5c2-5f20-42a4-94c4-87978aefad96","system_id":"levelo_inurba_marseille","lat":43.27569,"lon":5.38413,"is_reserved":false,"is_disabled":false,"rental_uris":{"android":"levelo://app?vid=c2c2e5c2-5f20-42a4-94c4-87978aefad96","ios":"levelo://app?vid=c2c2e5c2-5f20-42a4-94c4-87978aefad96"},"vehicle_type_id":"4","last_reported":1750425857,"current_range_meters":14800,"station_id":"ce4bhh92rcd13ifvqfi0","pricing_plan_id":"cebpf4jnsgd1na2vs0mg"},{"bike_id":"04d972d4-625c-41a2-93b6-5337e9ca8ff0","system_id":"levelo_inurba_marseille","lat":43.321053,"lon":5.367958,"is_reserved":false,"is_disabled":false,"rental_uris":{"android":"levelo://app?vid=04d972d4-625c-41a2-93b6-5337e9ca8ff0","ios":"levelo://app?vid=04d972d4-625c-41a2-93b6-5337e9ca8ff0"},"vehicle_type_id":"4","last_reported":1750425857,"current_range_meters":14800,"station_id":"ce4bhrh2rcd13ifvqhug","pricing_plan_id":"cebpf4jnsgd1na2vs0mg"},{"bike_id":"56735059-a511-4f75-9fa1-1f0e9a363234","system_id":"levelo_inurba_marseille","lat":43.23193,"lon":5.35546,"is_reserved":false,"is_disabled":false,"rental_uris":{"android":"levelo://app?vid=56735059-a511-4f75-9fa1-1f0e9a363234","ios":"levelo://app?vid=56735059-a511-4f75-9fa1-1f0e9a363234"},"vehicle_type_id":"4","last_reported":1750425857,"current_range_meters":14800,"station_id":"ce4bhu92rcd13ifvqi70","pricing_plan_id":"cebpf4jnsgd1na2vs0mg"},{"bike_id":"9765131a-3ace-43fa-bca8-8a29ccceccbb","system_id":"levelo_inurba_marseille","lat":43.28935,"lon":5.36625,"is_reserved":false,"is_disabled":false,"rental_uris":{"android":"levelo://app?vid=9765131a-3ace-43fa-bca8-8a29ccceccbb","ios":"levelo://app?vid=9765131a-3ace-43fa-bca8-8a29ccceccbb"},"vehicle_type_id":"4","last_reported":1750425857,"current_range_meters":15200,"station_id":"ce4bhap2rcd13ifvqek0","pricing_plan_id":"cebpf4jnsgd1na2vs0mg"},{"bike_id":"027696a7-3dda-4fc7-b05b-48eaf3a44a65","system_id":"levelo_inurba_marseille","lat":43.33028,"lon":5.39044,"is_reserved":false,"is_disabled":false,"rental_uris":{"android":"levelo://app?vid=027696a7-3dda-4fc7-b05b-48eaf3a44a65","ios":"levelo://app?vid=027696a7-3dda-4fc7-b05b-48eaf3a44a65"},"vehicle_type_id":"4","last_reported":1750425857,"current_range_meters":15200,"station_id":"ce4bhr92rcd13ifvqhrg","pricing_plan_id":"cebpf4jnsgd1na2vs0mg"},{"bike_id":"26430529-ad71-4190-ab5b-acf540851571","system_id":"levelo_inurba_marseille","lat":43.21753,"lon":5.34601,"is_reserved":false,"is_disabled":false,"rental_uris":{"android":"levelo://app?vid=26430529-ad71-4190-ab5b-acf540851571","ios":"levelo://app?vid=26430529-ad71-4190-ab5b-acf540851571"},"vehicle_type_id":"4","last_reported":1750425857,"current_range_meters":15200,"station_id":"st_cvj6r9ubvosntc0bgbag","pricing_plan_id":"cebpf4jnsgd1na2vs0mg"},{"bike_id":"dd45b830-666c-4c76-b06e-9938bffa2cad","system_id":"levelo_inurba_marseille","lat":43.289213,"lon":5.35938,"is_reserved":false,"is_disabled":false,"rental_uris":{"android":"levelo://app?vid=dd45b830-666c-4c76-b06e-9938bffa2cad","ios":"levelo://app?vid=dd45b830-666c-4c76-b06e-9938bffa2cad"},"vehicle_type_id":"4","last_reported":1750425857,"current_range_meters":16000,"station_id":"","pricing_plan_id":"cebpf4jnsgd1na2vs0mg"},{"bike_id":"5c04f4e0-7a5b-4e92-8e92-8b037538170f","system_id":"levelo_inurba_marseille","lat":43.30457,"lon":5.37904,"is_reserved":false,"is_disabled":false,"rental_uris":{"android":"levelo://app?vid=5c04f4e0-7a5b-4e92-8e92-8b037538170f","ios":"levelo://app?vid=5c04f4e0-7a5b-4e92-8e92-8b037538170f"},"vehicle_type_id":"4","last_reported":1750425857,"current_range_meters":16000,"station_id":"ce4bgup2rcd13ifvqcn0","pricing_plan_id":"cebpf4jnsgd1na2vs0mg"},{"bike_id":"8f063f00-f9a0-444b-a2a3-5de8850d4b96","system_id":"levelo_inurba_marseille","lat":43.28276,"lon":5.35065,"is_reserved":false,"is_disabled":false,"rental_uris":{"android":"levelo://app?vid=8f063f00-f9a0-444b-a2a3-5de8850d4b96","ios":"levelo://app?vid=8f063f00-f9a0-444b-a2a3-5de8850d4b96"},"vehicle_type_id":"4","last_reported":1750425857,"current_range_meters":16000,"station_id":"ce4bhbp2rcd13ifvqerg","pricing_plan_id":"cebpf4jnsgd1na2vs0mg"},{"bike_id":"c3507ecf-350a-4f40-a3ec-c054291d999e","system_id":"levelo_inurba_marseille","lat":43.28275,"lon":5.35096,"is_reserved":false,"is_disabled":false,"rental_uris":{"android":"levelo://app?vid=c3507ecf-350a-4f40-a3ec-c054291d999e","ios":"levelo://app?vid=c3507ecf-350a-4f40-a3ec-c054291d999e"},"vehicle_type_id":"4","last_reported":1750425857,"current_range_meters":16000,"station_id":"ce4bhbp2rcd13ifvqerg","pricing_plan_id":"cebpf4jnsgd1na2vs0mg"},{"bike_id":"6100991a-f902-4c03-8e7b-7aea28beb8b3","system_id":"levelo_inurba_marseille","lat":43.2741,"lon":5.39378,"is_reserved":false,"is_disabled":false,"rental_uris":{"android":"levelo://app?vid=6100991a-f902-4c03-8e7b-7aea28beb8b3","ios":"levelo://app?vid=6100991a-f902-4c03-8e7b-7aea28beb8b3"},"vehicle_type_id":"4","last_reported":1750425857,"current_range_meters":16000,"station_id":"ce4bhdp2rcd13ifvqf20","pricing_plan_id":"cebpf4jnsgd1na2vs0mg"},{"bike_id":"e8dab233-74ff-42cc-9bb7-ae4bcbd41c0d","system_id":"levelo_inurba_marseille","lat":43.25824,"lon":5.3943,"is_reserved":false,"is_disabled":false,"rental_uris":{"android":"levelo://app?vid=e8dab233-74ff-42cc-9bb7-ae4bcbd41c0d","ios":"levelo://app?vid=e8dab233-74ff-42cc-9bb7-ae4bcbd41c0d"},"vehicle_type_id":"4","last_reported":1750425857,"current_range_meters":16000,"station_id":"ce4bhip2rcd13ifvqft0","pricing_plan_id":"cebpf4jnsgd1na2vs0mg"},{"bike_id":"9c9432f2-200a-4685-a0d1-4fe23879268a","system_id":"levelo_inurba_marseille","lat":43.240688,"lon":5.377558,"is_reserved":false,"is_disabled":false,"rental_uris":{"android":"levelo://app?vid=9c9432f2-200a-4685-a0d1-4fe23879268a","ios":"levelo://app?vid=9c9432f2-200a-4685-a0d1-4fe23879268a"},"vehicle_type_id":"4","last_reported":1750425857,"current_range_meters":16000,"station_id":"ce4bhnp2rcd13ifvqgvg","pricing_plan_id":"cebpf4jnsgd1na2vs0mg"},{"bike_id":"8e92feac-7d18-4ddd-8b47-3e77cf9b9c34","system_id":"levelo_inurba_marseille","lat":43.23206,"lon":5.35586,"is_reserved":false,"is_disabled":false,"rental_uris":{"android":"levelo://app?vid=8e92feac-7d18-4ddd-8b47-3e77cf9b9c34","ios":"levelo://app?vid=8e92feac-7d18-4ddd-8b47-3e77cf9b9c34"},"vehicle_type_id":"4","last_reported":1750425857,"current_range_meters":16000,"station_id":"ce4bhu92rcd13ifvqi70","pricing_plan_id":"cebpf4jnsgd1na2vs0mg"},{"bike_id":"c38216e2-5eae-4c28-8eaa-4c91f6880c1d","system_id":"levelo_inurba_marseille","lat":43.225055,"lon":5.347861,"is_reserved":false,"is_disabled":false,"rental_uris":{"android":"levelo://app?vid=c38216e2-5eae-4c28-8eaa-4c91f6880c1d","ios":"levelo://app?vid=c38216e2-5eae-4c28-8eaa-4c91f6880c1d"},"vehicle_type_id":"4","last_reported":1750425857,"current_range_meters":16000,"station_id":"st_cvj5dfep6f1abm77gieg","pricing_plan_id":"cebpf4jnsgd1na2vs0mg"},{"bike_id":"dc540ba2-fb63-45eb-b83a-1826fb3d30b7","system_id":"levelo_inurba_marseille","lat":43.24608,"lon":5.39258,"is_reserved":false,"is_disabled":false,"rental_uris":{"android":"levelo://app?vid=dc540ba2-fb63-45eb-b83a-1826fb3d30b7","ios":"levelo://app?vid=dc540ba2-fb63-45eb-b83a-1826fb3d30b7"},"vehicle_type_id":"4","last_reported":1750425857,"current_range_meters":16400,"station_id":"","pricing_plan_id":"cebpf4jnsgd1na2vs0mg"},{"bike_id":"8ef11a45-504d-45b0-a2b5-97fef9594218","system_id":"levelo_inurba_marseille","lat":43.29554,"lon":5.38145,"is_reserved":false,"is_disabled":false,"rental_uris":{"android":"levelo://app?vid=8ef11a45-504d-45b0-a2b5-97fef9594218","ios":"levelo://app?vid=8ef11a45-504d-45b0-a2b5-97fef9594218"},"vehicle_type_id":"4","last_reported":1750425857,"current_range_meters":16400,"station_id":"","pricing_plan_id":"cebpf4jnsgd1na2vs0mg"},{"bike_id":"6404f399-ba8c-4462-ba01-963a2e000cb5","system_id":"levelo_inurba_marseille","lat":43.30145,"lon":5.38067,"is_reserved":false,"is_disabled":false,"rental_uris":{"android":"levelo://app?vid=6404f399-ba8c-4462-ba01-963a2e000cb5","ios":"levelo://app?vid=6404f399-ba8c-4462-ba01-963a2e000cb5"},"vehicle_type_id":"4","last_reported":1750425857,"current_range_meters":16400,"station_id":"ce4bgjp2rcd13ifvqbh0","pricing_plan_id":"cebpf4jnsgd1na2vs0mg"},{"bike_id":"bfc4421a-ba30-4095-8161-c513f3f14387","system_id":"levelo_inurba_marseille","lat":43.31072,"lon":5.38355,"is_reserved":false,"is_disabled":false,"rental_uris":{"android":"levelo://app?vid=bfc4421a-ba30-4095-8161-c513f3f14387","ios":"levelo://app?vid=bfc4421a-ba30-4095-8161-c513f3f14387"},"vehicle_type_id":"4","last_reported":1750425857,"current_range_meters":16400,"station_id":"ce4bgv92rcd13ifvqcr0","pricing_plan_id":"cebpf4jnsgd1na2vs0mg"},{"bike_id":"9b45de83-3c2d-41e0-8e48-c13db55f7551","system_id":"levelo_inurba_marseille","lat":43.30205,"lon":5.39472,"is_reserved":false,"is_disabled":false,"rental_uris":{"android":"levelo://app?vid=9b45de83-3c2d-41e0-8e48-c13db55f7551","ios":"levelo://app?vid=9b45de83-3c2d-41e0-8e48-c13db55f7551"},"vehicle_type_id":"4","last_reported":1750425857,"current_range_meters":16400,"station_id":"ce4bh0p2rcd13ifvqd70","pricing_plan_id":"cebpf4jnsgd1na2vs0mg"},{"bike_id":"01f82335-1be4-49f0-bb9c-76bf3d817d2f","system_id":"levelo_inurba_marseille","lat":43.28943,"lon":5.36635,"is_reserved":false,"is_disabled":false,"rental_uris":{"android":"levelo://app?vid=01f82335-1be4-49f0-bb9c-76bf3d817d2f","ios":"levelo://app?vid=01f82335-1be4-49f0-bb9c-76bf3d817d2f"},"vehicle_type_id":"4","last_reported":1750425857,"current_range_meters":16400,"station_id":"ce4bhap2rcd13ifvqek0","pricing_plan_id":"cebpf4jnsgd1na2vs0mg"},{"bike_id":"f65505f7-bdc9-40cf-a641-25b38f2e8d77","system_id":"levelo_inurba_marseille","lat":43.27376,"lon":5.36256,"is_reserved":false,"is_disabled":false,"rental_uris":{"android":"levelo://app?vid=f65505f7-bdc9-40cf-a641-25b38f2e8d77","ios":"levelo://app?vid=f65505f7-bdc9-40cf-a641-25b38f2e8d77"},"vehicle_type_id":"4","last_reported":1750425857,"current_range_meters":16400,"station_id":"ce4bhbh2rcd13ifvqeo0","pricing_plan_id":"cebpf4jnsgd1na2vs0mg"},{"bike_id":"c362ff2f-b6fe-415b-8f5c-ebbe2e00934c","system_id":"levelo_inurba_marseille","lat":43.26196,"lon":5.37451,"is_reserved":false,"is_disabled":false,"rental_uris":{"android":"levelo://app?vid=c362ff2f-b6fe-415b-8f5c-ebbe2e00934c","ios":"levelo://app?vid=c362ff2f-b6fe-415b-8f5c-ebbe2e00934c"},"vehicle_type_id":"4","last_reported":1750425857,"current_range_meters":16400,"station_id":"ce4bhgp2rcd13ifvqfc0","pricing_plan_id":"cebpf4jnsgd1na2vs0mg"},{"bike_id":"3dc1a2f8-8b98-4a65-980d-b42a647d0080","system_id":"levelo_inurba_marseille","lat":43.23972,"lon":5.36653,"is_reserved":false,"is_disabled":false,"rental_uris":{"android":"levelo://app?vid=3dc1a2f8-8b98-4a65-980d-b42a647d0080","ios":"levelo://app?vid=3dc1a2f8-8b98-4a65-980d-b42a647d0080"},"vehicle_type_id":"4","last_reported":1750425857,"current_range_meters":16400,"station_id":"ce4bhi12rcd13ifvqfp0","pricing_plan_id":"cebpf4jnsgd1na2vs0mg"},{"bike_id":"35491803-a409-48ff-8bef-d51594729df9","system_id":"levelo_inurba_marseille","lat":43.25074,"lon":5.39529,"is_reserved":false,"is_disabled":false,"rental_uris":{"android":"levelo://app?vid=35491803-a409-48ff-8bef-d51594729df9","ios":"levelo://app?vid=35491803-a409-48ff-8bef-d51594729df9"},"vehicle_type_id":"4","last_reported":1750425857,"current_range_meters":16400,"station_id":"ce4bhm12rcd13ifvqgkg","pricing_plan_id":"cebpf4jnsgd1na2vs0mg"},{"bike_id":"b080a13a-ffff-4ef0-9581-04f345727159","system_id":"levelo_inurba_marseille","lat":43.27939,"lon":5.41046,"is_reserved":false,"is_disabled":false,"rental_uris":{"android":"levelo://app?vid=b080a13a-ffff-4ef0-9581-04f345727159","ios":"levelo://app?vid=b080a13a-ffff-4ef0-9581-04f345727159"},"vehicle_type_id":"4","last_reported":1750425857,"current_range_meters":16400,"station_id":"ce4bhnp2rcd13ifvqh0g","pricing_plan_id":"cebpf4jnsgd1na2vs0mg"},{"bike_id":"d40af265-11b5-43a6-9bb6-f910f57901ba","system_id":"levelo_inurba_marseille","lat":43.32908,"lon":5.38025,"is_reserved":false,"is_disabled":false,"rental_uris":{"android":"levelo://app?vid=d40af265-11b5-43a6-9bb6-f910f57901ba","ios":"levelo://app?vid=d40af265-11b5-43a6-9bb6-f910f57901ba"},"vehicle_type_id":"4","last_reported":1750425857,"current_range_meters":16800,"station_id":"","pricing_plan_id":"cebpf4jnsgd1na2vs0mg"},{"bike_id":"bd27fe72-6fbc-453f-8b77-bee10ab3b13c","system_id":"levelo_inurba_marseille","lat":43.29539,"lon":5.4237,"is_reserved":false,"is_disabled":false,"rental_uris":{"android":"levelo://app?vid=bd27fe72-6fbc-453f-8b77-bee10ab3b13c","ios":"levelo://app?vid=bd27fe72-6fbc-453f-8b77-bee10ab3b13c"},"vehicle_type_id":"4","last_reported":1750425857,"current_range_meters":16800,"station_id":"","pricing_plan_id":"cebpf4jnsgd1na2vs0mg"},{"bike_id":"e904481c-c075-4235-ab4b-c7d3ddbe3194","system_id":"levelo_inurba_marseille","lat":43.293304,"lon":5.370808,"is_reserved":false,"is_disabled":false,"rental_uris":{"android":"levelo://app?vid=e904481c-c075-4235-ab4b-c7d3ddbe3194","ios":"levelo://app?vid=e904481c-c075-4235-ab4b-c7d3ddbe3194"},"vehicle_type_id":"4","last_reported":1750425857,"current_range_meters":16800,"station_id":"","pricing_plan_id":"cebpf4jnsgd1na2vs0mg"},{"bike_id":"0d6c2da9-8b10-43ab-90ea-a8ef76396126","system_id":"levelo_inurba_marseille","lat":43.31332,"lon":5.39687,"is_reserved":false,"is_disabled":false,"rental_uris":{"android":"levelo://app?vid=0d6c2da9-8b10-43ab-90ea-a8ef76396126","ios":"levelo://app?vid=0d6c2da9-8b10-43ab-90ea-a8ef76396126"},"vehicle_type_id":"4","last_reported":1750425857,"current_range_meters":16800,"station_id":"ce4bgvp2rcd13ifvqcu0","pricing_plan_id":"cebpf4jnsgd1na2vs0mg"},{"bike_id":"ce29f053-80e1-43bf-8360-b7f0ed66b7d0","system_id":"levelo_inurba_marseille","lat":43.28402,"lon":5.37506,"is_reserved":false,"is_disabled":false,"rental_uris":{"android":"levelo://app?vid=ce29f053-80e1-43bf-8360-b7f0ed66b7d0","ios":"levelo://app?vid=ce29f053-80e1-43bf-8360-b7f0ed66b7d0"},"vehicle_type_id":"4","last_reported":1750425857,"current_range_meters":16800,"station_id":"ce4bh412rcd13ifvqds0","pricing_plan_id":"cebpf4jnsgd1na2vs0mg"},{"bike_id":"eb8c9ef2-e721-4e85-bd71-53a3788b1744","system_id":"levelo_inurba_marseille","lat":43.2743,"lon":5.39422,"is_reserved":false,"is_disabled":false,"rental_uris":{"android":"levelo://app?vid=eb8c9ef2-e721-4e85-bd71-53a3788b1744","ios":"levelo://app?vid=eb8c9ef2-e721-4e85-bd71-53a3788b1744"},"vehicle_type_id":"4","last_reported":1750425857,"current_range_meters":16800,"station_id":"ce4bhdp2rcd13ifvqf20","pricing_plan_id":"cebpf4jnsgd1na2vs0mg"},{"bike_id":"ccf4ab64-4a82-42e6-a3c9-8579eb4adb05","system_id":"levelo_inurba_marseille","lat":43.26214,"lon":5.37445,"is_reserved":false,"is_disabled":false,"rental_uris":{"android":"levelo://app?vid=ccf4ab64-4a82-42e6-a3c9-8579eb4adb05","ios":"levelo://app?vid=ccf4ab64-4a82-42e6-a3c9-8579eb4adb05"},"vehicle_type_id":"4","last_reported":1750425857,"current_range_meters":16800,"station_id":"ce4bhgp2rcd13ifvqfc0","pricing_plan_id":"cebpf4jnsgd1na2vs0mg"},{"bike_id":"318ef4d3-a783-4402-9b35-776556f88091","system_id":"levelo_inurba_marseille","lat":43.298987,"lon":5.436637,"is_reserved":false,"is_disabled":false,"rental_uris":{"android":"levelo://app?vid=318ef4d3-a783-4402-9b35-776556f88091","ios":"levelo://app?vid=318ef4d3-a783-4402-9b35-776556f88091"},"vehicle_type_id":"4","last_reported":1750425857,"current_range_meters":16800,"station_id":"ce4bhpp2rcd13ifvqhfg","pricing_plan_id":"cebpf4jnsgd1na2vs0mg"},{"bike_id":"610daf13-bcea-4a5f-b794-a1d5fae6f96b","system_id":"levelo_inurba_marseille","lat":43.22927,"lon":5.35395,"is_reserved":false,"is_disabled":false,"rental_uris":{"android":"levelo://app?vid=610daf13-bcea-4a5f-b794-a1d5fae6f96b","ios":"levelo://app?vid=610daf13-bcea-4a5f-b794-a1d5fae6f96b"},"vehicle_type_id":"4","last_reported":1750425857,"current_range_meters":16800,"station_id":"cpo3532slgdg3j2ikp40","pricing_plan_id":"cebpf4jnsgd1na2vs0mg"},{"bike_id":"a22aa312-0025-4f42-88e2-b1e95e79340f","system_id":"levelo_inurba_marseille","lat":43.317077,"lon":5.383947,"is_reserved":false,"is_disabled":false,"rental_uris":{"android":"levelo://app?vid=a22aa312-0025-4f42-88e2-b1e95e79340f","ios":"levelo://app?vid=a22aa312-0025-4f42-88e2-b1e95e79340f"},"vehicle_type_id":"4","last_reported":1750425857,"current_range_meters":17200,"station_id":"","pricing_plan_id":"cebpf4jnsgd1na2vs0mg"},{"bike_id":"a9f7e5b6-c3b9-477a-9dd1-4ff223f734c0","system_id":"levelo_inurba_marseille","lat":43.29912,"lon":5.43724,"is_reserved":false,"is_disabled":false,"rental_uris":{"android":"levelo://app?vid=a9f7e5b6-c3b9-477a-9dd1-4ff223f734c0","ios":"levelo://app?vid=a9f7e5b6-c3b9-477a-9dd1-4ff223f734c0"},"vehicle_type_id":"4","last_reported":1750425857,"current_range_meters":17200,"station_id":"","pricing_plan_id":"cebpf4jnsgd1na2vs0mg"},{"bike_id":"ffbb0c22-3f4e-4cdb-a0e5-79e3b9f3e1a2","system_id":"levelo_inurba_marseille","lat":43.33774,"lon":5.37428,"is_reserved":false,"is_disabled":false,"rental_uris":{"android":"levelo://app?vid=ffbb0c22-3f4e-4cdb-a0e5-79e3b9f3e1a2","ios":"levelo://app?vid=ffbb0c22-3f4e-4cdb-a0e5-79e3b9f3e1a2"},"vehicle_type_id":"4","last_reported":1750425857,"current_range_meters":17200,"station_id":"","pricing_plan_id":"cebpf4jnsgd1na2vs0mg"},{"bike_id":"114d1b8d-0ce7-4efe-be7f-f0ca281a757f","system_id":"levelo_inurba_marseille","lat":43.311835,"lon":5.36843,"is_reserved":false,"is_disabled":false,"rental_uris":{"android":"levelo://app?vid=114d1b8d-0ce7-4efe-be7f-f0ca281a757f","ios":"levelo://app?vid=114d1b8d-0ce7-4efe-be7f-f0ca281a757f"},"vehicle_type_id":"4","last_reported":1750425857,"current_range_meters":17200,"station_id":"ce4bgl92rcd13ifvqbq0","pricing_plan_id":"cebpf4jnsgd1na2vs0mg"},{"bike_id":"1b7fa93a-e57c-4ed1-b87f-f4b724c43740","system_id":"levelo_inurba_marseille","lat":43.30549,"lon":5.36555,"is_reserved":false,"is_disabled":false,"rental_uris":{"android":"levelo://app?vid=1b7fa93a-e57c-4ed1-b87f-f4b724c43740","ios":"levelo://app?vid=1b7fa93a-e57c-4ed1-b87f-f4b724c43740"},"vehicle_type_id":"4","last_reported":1750425857,"current_range_meters":17200,"station_id":"ce4bgs12rcd13ifvqcag","pricing_plan_id":"cebpf4jnsgd1na2vs0mg"},{"bike_id":"4427147d-3865-4d87-973e-22f648de20af","system_id":"levelo_inurba_marseille","lat":43.27372,"lon":5.36253,"is_reserved":false,"is_disabled":false,"rental_uris":{"android":"levelo://app?vid=4427147d-3865-4d87-973e-22f648de20af","ios":"levelo://app?vid=4427147d-3865-4d87-973e-22f648de20af"},"vehicle_type_id":"4","last_reported":1750425857,"current_range_meters":17200,"station_id":"ce4bhbh2rcd13ifvqeo0","pricing_plan_id":"cebpf4jnsgd1na2vs0mg"},{"bike_id":"eee77d17-53bc-4ba5-b76e-054a4d3dcceb","system_id":"levelo_inurba_marseille","lat":43.28412,"lon":5.34977,"is_reserved":false,"is_disabled":false,"rental_uris":{"android":"levelo://app?vid=eee77d17-53bc-4ba5-b76e-054a4d3dcceb","ios":"levelo://app?vid=eee77d17-53bc-4ba5-b76e-054a4d3dcceb"},"vehicle_type_id":"4","last_reported":1750425857,"current_range_meters":17200,"station_id":"ce4bhbh2rcd13ifvqepg","pricing_plan_id":"cebpf4jnsgd1na2vs0mg"},{"bike_id":"54e6762e-7179-491e-a415-8a06dd02c73b","system_id":"levelo_inurba_marseille","lat":43.28609,"lon":5.35084,"is_reserved":false,"is_disabled":false,"rental_uris":{"android":"levelo://app?vid=54e6762e-7179-491e-a415-8a06dd02c73b","ios":"levelo://app?vid=54e6762e-7179-491e-a415-8a06dd02c73b"},"vehicle_type_id":"4","last_reported":1750425857,"current_range_meters":17200,"station_id":"ce4bhch2rcd13ifvqeug","pricing_plan_id":"cebpf4jnsgd1na2vs0mg"},{"bike_id":"6a127880-0742-494d-a56a-094c67bb7bad","system_id":"levelo_inurba_marseille","lat":43.26557,"lon":5.37283,"is_reserved":false,"is_disabled":false,"rental_uris":{"android":"levelo://app?vid=6a127880-0742-494d-a56a-094c67bb7bad","ios":"levelo://app?vid=6a127880-0742-494d-a56a-094c67bb7bad"},"vehicle_type_id":"4","last_reported":1750425857,"current_range_meters":17200,"station_id":"ce4bhg12rcd13ifvqf70","pricing_plan_id":"cebpf4jnsgd1na2vs0mg"},{"bike_id":"dd91410a-7683-454a-a8e1-378103ef79c9","system_id":"levelo_inurba_marseille","lat":43.26781,"lon":5.39412,"is_reserved":false,"is_disabled":false,"rental_uris":{"android":"levelo://app?vid=dd91410a-7683-454a-a8e1-378103ef79c9","ios":"levelo://app?vid=dd91410a-7683-454a-a8e1-378103ef79c9"},"vehicle_type_id":"4","last_reported":1750425857,"current_range_meters":17200,"station_id":"ce4bhh12rcd13ifvqfg0","pricing_plan_id":"cebpf4jnsgd1na2vs0mg"},{"bike_id":"4643bc90-1bac-4c4b-98b1-e2d500830573","system_id":"levelo_inurba_marseille","lat":43.31371,"lon":5.37704,"is_reserved":false,"is_disabled":false,"rental_uris":{"android":"levelo://app?vid=4643bc90-1bac-4c4b-98b1-e2d500830573","ios":"levelo://app?vid=4643bc90-1bac-4c4b-98b1-e2d500830573"},"vehicle_type_id":"4","last_reported":1750425857,"current_range_meters":17600,"station_id":"","pricing_plan_id":"cebpf4jnsgd1na2vs0mg"},{"bike_id":"a27dfe13-84f1-4a5a-95b6-055954b50ba0","system_id":"levelo_inurba_marseille","lat":43.27368,"lon":5.36255,"is_reserved":false,"is_disabled":false,"rental_uris":{"android":"levelo://app?vid=a27dfe13-84f1-4a5a-95b6-055954b50ba0","ios":"levelo://app?vid=a27dfe13-84f1-4a5a-95b6-055954b50ba0"},"vehicle_type_id":"4","last_reported":1750425857,"current_range_meters":17600,"station_id":"ce4bhbh2rcd13ifvqeo0","pricing_plan_id":"cebpf4jnsgd1na2vs0mg"},{"bike_id":"7292142d-a01f-49a7-8bbe-828e8933a3de","system_id":"levelo_inurba_marseille","lat":43.26549,"lon":5.37306,"is_reserved":false,"is_disabled":false,"rental_uris":{"android":"levelo://app?vid=7292142d-a01f-49a7-8bbe-828e8933a3de","ios":"levelo://app?vid=7292142d-a01f-49a7-8bbe-828e8933a3de"},"vehicle_type_id":"4","last_reported":1750425857,"current_range_meters":17600,"station_id":"ce4bhg12rcd13ifvqf70","pricing_plan_id":"cebpf4jnsgd1na2vs0mg"},{"bike_id":"204afd8f-d13a-468d-a59c-e2db9671fff1","system_id":"levelo_inurba_marseille","lat":43.24408,"lon":5.37107,"is_reserved":false,"is_disabled":false,"rental_uris":{"android":"levelo://app?vid=204afd8f-d13a-468d-a59c-e2db9671fff1","ios":"levelo://app?vid=204afd8f-d13a-468d-a59c-e2db9671fff1"},"vehicle_type_id":"4","last_reported":1750425857,"current_range_meters":17600,"station_id":"ce4bhhh2rcd13ifvqfk0","pricing_plan_id":"cebpf4jnsgd1na2vs0mg"},{"bike_id":"5a5a578a-0035-4ed1-9e77-b98f332069f0","system_id":"levelo_inurba_marseille","lat":43.22931,"lon":5.35384,"is_reserved":false,"is_disabled":false,"rental_uris":{"android":"levelo://app?vid=5a5a578a-0035-4ed1-9e77-b98f332069f0","ios":"levelo://app?vid=5a5a578a-0035-4ed1-9e77-b98f332069f0"},"vehicle_type_id":"4","last_reported":1750425857,"current_range_meters":17600,"station_id":"cpo3532slgdg3j2ikp40","pricing_plan_id":"cebpf4jnsgd1na2vs0mg"},{"bike_id":"90c109b5-5cee-495e-8f11-f318c0f086b6","system_id":"levelo_inurba_marseille","lat":43.32483,"lon":5.43472,"is_reserved":false,"is_disabled":false,"rental_uris":{"android":"levelo://app?vid=90c109b5-5cee-495e-8f11-f318c0f086b6","ios":"levelo://app?vid=90c109b5-5cee-495e-8f11-f318c0f086b6"},"vehicle_type_id":"4","last_reported":1750425857,"current_range_meters":18000,"station_id":"","pricing_plan_id":"cebpf4jnsgd1na2vs0mg"},{"bike_id":"9cf96078-4405-4d2b-9371-77fba6634361","system_id":"levelo_inurba_marseille","lat":43.30556,"lon":5.36551,"is_reserved":false,"is_disabled":false,"rental_uris":{"android":"levelo://app?vid=9cf96078-4405-4d2b-9371-77fba6634361","ios":"levelo://app?vid=9cf96078-4405-4d2b-9371-77fba6634361"},"vehicle_type_id":"4","last_reported":1750425857,"current_range_meters":18000,"station_id":"ce4bgs12rcd13ifvqcag","pricing_plan_id":"cebpf4jnsgd1na2vs0mg"},{"bike_id":"8789fae4-719a-4491-ab04-6ab3fa071721","system_id":"levelo_inurba_marseille","lat":43.28272,"lon":5.35069,"is_reserved":false,"is_disabled":false,"rental_uris":{"android":"levelo://app?vid=8789fae4-719a-4491-ab04-6ab3fa071721","ios":"levelo://app?vid=8789fae4-719a-4491-ab04-6ab3fa071721"},"vehicle_type_id":"4","last_reported":1750425857,"current_range_meters":18800,"station_id":"ce4bhbp2rcd13ifvqerg","pricing_plan_id":"cebpf4jnsgd1na2vs0mg"},{"bike_id":"a9fe177d-6cf7-41a6-b924-383cb8edf7ce","system_id":"levelo_inurba_marseille","lat":43.28635,"lon":5.35104,"is_reserved":false,"is_disabled":false,"rental_uris":{"android":"levelo://app?vid=a9fe177d-6cf7-41a6-b924-383cb8edf7ce","ios":"levelo://app?vid=a9fe177d-6cf7-41a6-b924-383cb8edf7ce"},"vehicle_type_id":"4","last_reported":1750425857,"current_range_meters":18800,"station_id":"ce4bhch2rcd13ifvqeug","pricing_plan_id":"cebpf4jnsgd1na2vs0mg"},{"bike_id":"904d9165-8a4c-4d2c-8705-df7457f3b83b","system_id":"levelo_inurba_marseille","lat":43.298983,"lon":5.436643,"is_reserved":false,"is_disabled":false,"rental_uris":{"android":"levelo://app?vid=904d9165-8a4c-4d2c-8705-df7457f3b83b","ios":"levelo://app?vid=904d9165-8a4c-4d2c-8705-df7457f3b83b"},"vehicle_type_id":"4","last_reported":1750425857,"current_range_meters":18800,"station_id":"ce4bhpp2rcd13ifvqhfg","pricing_plan_id":"cebpf4jnsgd1na2vs0mg"},{"bike_id":"89d6e797-bd57-47f7-96a6-9af5d3f12bbc","system_id":"levelo_inurba_marseille","lat":43.31757,"lon":5.39015,"is_reserved":false,"is_disabled":false,"rental_uris":{"android":"levelo://app?vid=89d6e797-bd57-47f7-96a6-9af5d3f12bbc","ios":"levelo://app?vid=89d6e797-bd57-47f7-96a6-9af5d3f12bbc"},"vehicle_type_id":"4","last_reported":1750425857,"current_range_meters":18800,"station_id":"ce4bhqp2rcd13ifvqhng","pricing_plan_id":"cebpf4jnsgd1na2vs0mg"},{"bike_id":"73a224ff-f6a3-4c18-9279-d392a3f86d72","system_id":"levelo_inurba_marseille","lat":43.217471,"lon":5.345961,"is_reserved":false,"is_disabled":false,"rental_uris":{"android":"levelo://app?vid=73a224ff-f6a3-4c18-9279-d392a3f86d72","ios":"levelo://app?vid=73a224ff-f6a3-4c18-9279-d392a3f86d72"},"vehicle_type_id":"4","last_reported":1750425857,"current_range_meters":18800,"station_id":"st_cvj6r9ubvosntc0bgbag","pricing_plan_id":"cebpf4jnsgd1na2vs0mg"},{"bike_id":"0a11771e-cc24-4d24-baf4-0abfe3e65cfe","system_id":"levelo_inurba_marseille","lat":43.29625,"lon":5.37152,"is_reserved":false,"is_disabled":false,"rental_uris":{"android":"levelo://app?vid=0a11771e-cc24-4d24-baf4-0abfe3e65cfe","ios":"levelo://app?vid=0a11771e-cc24-4d24-baf4-0abfe3e65cfe"},"vehicle_type_id":"4","last_reported":1750425857,"current_range_meters":19200,"station_id":"ce4bgnh2rcd13ifvqc0g","pricing_plan_id":"cebpf4jnsgd1na2vs0mg"},{"bike_id":"4f566e17-ff24-4089-9aa8-a8bb8822a902","system_id":"levelo_inurba_marseille","lat":43.28267,"lon":5.35053,"is_reserved":false,"is_disabled":false,"rental_uris":{"android":"levelo://app?vid=4f566e17-ff24-4089-9aa8-a8bb8822a902","ios":"levelo://app?vid=4f566e17-ff24-4089-9aa8-a8bb8822a902"},"vehicle_type_id":"4","last_reported":1750425857,"current_range_meters":19200,"station_id":"ce4bhbp2rcd13ifvqerg","pricing_plan_id":"cebpf4jnsgd1na2vs0mg"},{"bike_id":"7f78c192-f8cf-4dca-a53e-fe1cdf402247","system_id":"levelo_inurba_marseille","lat":43.28263,"lon":5.35061,"is_reserved":false,"is_disabled":false,"rental_uris":{"android":"levelo://app?vid=7f78c192-f8cf-4dca-a53e-fe1cdf402247","ios":"levelo://app?vid=7f78c192-f8cf-4dca-a53e-fe1cdf402247"},"vehicle_type_id":"4","last_reported":1750425857,"current_range_meters":19200,"station_id":"ce4bhbp2rcd13ifvqerg","pricing_plan_id":"cebpf4jnsgd1na2vs0mg"},{"bike_id":"02ce434c-ff4e-4d4b-91a1-4a5a52da48c6","system_id":"levelo_inurba_marseille","lat":43.27945,"lon":5.41046,"is_reserved":false,"is_disabled":false,"rental_uris":{"android":"levelo://app?vid=02ce434c-ff4e-4d4b-91a1-4a5a52da48c6","ios":"levelo://app?vid=02ce434c-ff4e-4d4b-91a1-4a5a52da48c6"},"vehicle_type_id":"4","last_reported":1750425857,"current_range_meters":19200,"station_id":"ce4bhnp2rcd13ifvqh0g","pricing_plan_id":"cebpf4jnsgd1na2vs0mg"},{"bike_id":"64198631-29f4-47e4-896a-e3675e77b2a1","system_id":"levelo_inurba_marseille","lat":43.21192,"lon":5.3507,"is_reserved":false,"is_disabled":false,"rental_uris":{"android":"levelo://app?vid=64198631-29f4-47e4-896a-e3675e77b2a1","ios":"levelo://app?vid=64198631-29f4-47e4-896a-e3675e77b2a1"},"vehicle_type_id":"4","last_reported":1750425857,"current_range_meters":19200,"station_id":"st_cvj6sg6p6f1abm77japg","pricing_plan_id":"cebpf4jnsgd1na2vs0mg"},{"bike_id":"2d50ff45-3046-40df-b784-ee274c648ea0","system_id":"levelo_inurba_marseille","lat":43.3203,"lon":5.40817,"is_reserved":false,"is_disabled":false,"rental_uris":{"android":"levelo://app?vid=2d50ff45-3046-40df-b784-ee274c648ea0","ios":"levelo://app?vid=2d50ff45-3046-40df-b784-ee274c648ea0"},"vehicle_type_id":"4","last_reported":1750425857,"current_range_meters":19600,"station_id":"","pricing_plan_id":"cebpf4jnsgd1na2vs0mg"},{"bike_id":"be8c1372-29a1-4f7b-aab3-e91e3da2be59","system_id":"levelo_inurba_marseille","lat":43.30433,"lon":5.38887,"is_reserved":false,"is_disabled":false,"rental_uris":{"android":"levelo://app?vid=be8c1372-29a1-4f7b-aab3-e91e3da2be59","ios":"levelo://app?vid=be8c1372-29a1-4f7b-aab3-e91e3da2be59"},"vehicle_type_id":"4","last_reported":1750425857,"current_range_meters":19600,"station_id":"ce4bgk12rcd13ifvqbi0","pricing_plan_id":"cebpf4jnsgd1na2vs0mg"},{"bike_id":"6c785d94-8028-4acd-8256-9866bde0424c","system_id":"levelo_inurba_marseille","lat":43.29551,"lon":5.37513,"is_reserved":false,"is_disabled":false,"rental_uris":{"android":"levelo://app?vid=6c785d94-8028-4acd-8256-9866bde0424c","ios":"levelo://app?vid=6c785d94-8028-4acd-8256-9866bde0424c"},"vehicle_type_id":"4","last_reported":1750425857,"current_range_meters":19600,"station_id":"ce4bgkp2rcd13ifvqbmg","pricing_plan_id":"cebpf4jnsgd1na2vs0mg"},{"bike_id":"6c543eb1-92f1-4738-b01a-c5c28c3a3f58","system_id":"levelo_inurba_marseille","lat":43.30539,"lon":5.36704,"is_reserved":false,"is_disabled":false,"rental_uris":{"android":"levelo://app?vid=6c543eb1-92f1-4738-b01a-c5c28c3a3f58","ios":"levelo://app?vid=6c543eb1-92f1-4738-b01a-c5c28c3a3f58"},"vehicle_type_id":"4","last_reported":1750425857,"current_range_meters":19600,"station_id":"ce4bgrp2rcd13ifvqc9g","pricing_plan_id":"cebpf4jnsgd1na2vs0mg"},{"bike_id":"45bbd723-5d6d-43a0-aebb-6b47a8677644","system_id":"levelo_inurba_marseille","lat":43.29038,"lon":5.38651,"is_reserved":false,"is_disabled":false,"rental_uris":{"android":"levelo://app?vid=45bbd723-5d6d-43a0-aebb-6b47a8677644","ios":"levelo://app?vid=45bbd723-5d6d-43a0-aebb-6b47a8677644"},"vehicle_type_id":"4","last_reported":1750425857,"current_range_meters":19600,"station_id":"ce4bh4p2rcd13ifvqe0g","pricing_plan_id":"cebpf4jnsgd1na2vs0mg"},{"bike_id":"9853c69b-447d-4e87-98d2-9456178bcde1","system_id":"levelo_inurba_marseille","lat":43.289316,"lon":5.366398,"is_reserved":false,"is_disabled":false,"rental_uris":{"android":"levelo://app?vid=9853c69b-447d-4e87-98d2-9456178bcde1","ios":"levelo://app?vid=9853c69b-447d-4e87-98d2-9456178bcde1"},"vehicle_type_id":"4","last_reported":1750425857,"current_range_meters":19600,"station_id":"ce4bhap2rcd13ifvqek0","pricing_plan_id":"cebpf4jnsgd1na2vs0mg"},{"bike_id":"be6fd7cf-4148-482c-9efb-84c28a4bc4fa","system_id":"levelo_inurba_marseille","lat":43.28935,"lon":5.36632,"is_reserved":false,"is_disabled":false,"rental_uris":{"android":"levelo://app?vid=be6fd7cf-4148-482c-9efb-84c28a4bc4fa","ios":"levelo://app?vid=be6fd7cf-4148-482c-9efb-84c28a4bc4fa"},"vehicle_type_id":"4","last_reported":1750425857,"current_range_meters":19600,"station_id":"ce4bhap2rcd13ifvqek0","pricing_plan_id":"cebpf4jnsgd1na2vs0mg"},{"bike_id":"b9172f31-534e-4fc3-8a03-ac375b34d181","system_id":"levelo_inurba_marseille","lat":43.27371,"lon":5.36259,"is_reserved":false,"is_disabled":false,"rental_uris":{"android":"levelo://app?vid=b9172f31-534e-4fc3-8a03-ac375b34d181","ios":"levelo://app?vid=b9172f31-534e-4fc3-8a03-ac375b34d181"},"vehicle_type_id":"4","last_reported":1750425857,"current_range_meters":19600,"station_id":"ce4bhbh2rcd13ifvqeo0","pricing_plan_id":"cebpf4jnsgd1na2vs0mg"},{"bike_id":"b7a04b9f-b579-448f-8183-22169ab1145d","system_id":"levelo_inurba_marseille","lat":43.27374,"lon":5.36253,"is_reserved":false,"is_disabled":false,"rental_uris":{"android":"levelo://app?vid=b7a04b9f-b579-448f-8183-22169ab1145d","ios":"levelo://app?vid=b7a04b9f-b579-448f-8183-22169ab1145d"},"vehicle_type_id":"4","last_reported":1750425857,"current_range_meters":19600,"station_id":"ce4bhbh2rcd13ifvqeo0","pricing_plan_id":"cebpf4jnsgd1na2vs0mg"},{"bike_id":"b32c0344-9dc5-4e1d-beac-e06156a8c37a","system_id":"levelo_inurba_marseille","lat":43.28259,"lon":5.35064,"is_reserved":false,"is_disabled":false,"rental_uris":{"android":"levelo://app?vid=b32c0344-9dc5-4e1d-beac-e06156a8c37a","ios":"levelo://app?vid=b32c0344-9dc5-4e1d-beac-e06156a8c37a"},"vehicle_type_id":"4","last_reported":1750425857,"current_range_meters":19600,"station_id":"ce4bhbp2rcd13ifvqerg","pricing_plan_id":"cebpf4jnsgd1na2vs0mg"},{"bike_id":"9aabedc2-11ff-4292-bfe0-b1e8a44f44dc","system_id":"levelo_inurba_marseille","lat":43.2575,"lon":5.41129,"is_reserved":false,"is_disabled":false,"rental_uris":{"android":"levelo://app?vid=9aabedc2-11ff-4292-bfe0-b1e8a44f44dc","ios":"levelo://app?vid=9aabedc2-11ff-4292-bfe0-b1e8a44f44dc"},"vehicle_type_id":"4","last_reported":1750425857,"current_range_meters":19600,"station_id":"ce4bhkp2rcd13ifvqgd0","pricing_plan_id":"cebpf4jnsgd1na2vs0mg"},{"bike_id":"65490dbb-fb26-48b3-b1b6-17abf527e385","system_id":"levelo_inurba_marseille","lat":43.24176,"lon":5.36418,"is_reserved":false,"is_disabled":false,"rental_uris":{"android":"levelo://app?vid=65490dbb-fb26-48b3-b1b6-17abf527e385","ios":"levelo://app?vid=65490dbb-fb26-48b3-b1b6-17abf527e385"},"vehicle_type_id":"4","last_reported":1750425857,"current_range_meters":19600,"station_id":"cpo36qri1sfpv3e86is0","pricing_plan_id":"cebpf4jnsgd1na2vs0mg"},{"bike_id":"f40b14e2-3a68-45fd-9433-444c784b4081","system_id":"levelo_inurba_marseille","lat":43.21763,"lon":5.34602,"is_reserved":false,"is_disabled":false,"rental_uris":{"android":"levelo://app?vid=f40b14e2-3a68-45fd-9433-444c784b4081","ios":"levelo://app?vid=f40b14e2-3a68-45fd-9433-444c784b4081"},"vehicle_type_id":"4","last_reported":1750425857,"current_range_meters":19600,"station_id":"st_cvj6r9ubvosntc0bgbag","pricing_plan_id":"cebpf4jnsgd1na2vs0mg"},{"bike_id":"5187990f-0e38-4183-960c-3c6c679fb2e8","system_id":"levelo_inurba_marseille","lat":43.211822,"lon":5.350659,"is_reserved":false,"is_disabled":false,"rental_uris":{"android":"levelo://app?vid=5187990f-0e38-4183-960c-3c6c679fb2e8","ios":"levelo://app?vid=5187990f-0e38-4183-960c-3c6c679fb2e8"},"vehicle_type_id":"4","last_reported":1750425857,"current_range_meters":19600,"station_id":"st_cvj6sg6p6f1abm77japg","pricing_plan_id":"cebpf4jnsgd1na2vs0mg"},{"bike_id":"973db25f-144a-495b-98c4-15b4ae2dacd8","system_id":"levelo_inurba_marseille","lat":43.313227,"lon":5.375027,"is_reserved":false,"is_disabled":false,"rental_uris":{"android":"levelo://app?vid=973db25f-144a-495b-98c4-15b4ae2dacd8","ios":"levelo://app?vid=973db25f-144a-495b-98c4-15b4ae2dacd8"},"vehicle_type_id":"4","last_reported":1750425857,"current_range_meters":20000,"station_id":"","pricing_plan_id":"cebpf4jnsgd1na2vs0mg"},