{"last_updated":1732640950,"ttl":60,"version":"2.2","data":{"bikes":[{"bike_id":"867de474-7d21-4a45-b160-f59fdff81394","system_id":"levelo_inurba_marseille","lat":43.31323,"lon":5.39693,"is_reserved":false,"is_disabled":false,"rental_uris":{"android":"levelo://app?vid=867de474-7d21-4a45-b160-f59fdff81394","ios":"levelo://app?vid=867de474-7d21-4a45-b160-f59fdff81394"},"vehicle_type_id":"4","last_reported":1732640950,"current_range_meters":5600,"station_id":"ce4bgvp2rcd13ifvqcu0","pricing_plan_id":"cebpf4jnsgd1na2vs0mg"},{"bike_id":"d9c28aa4-81a4-4d13-8fc9-100bb4e3d7e2","system_id":"levelo_inurba_marseille","lat":43.27405,"lon":5.38954,"is_reserved":false,"is_disabled":true,"rental_uris":{"android":"levelo://app?vid=d9c28aa4-81a4-4d13-8fc9-100bb4e3d7e2","ios":"levelo://app?vid=d9c28aa4-81a4-4d13-8fc9-100bb4e3d7e2"},"vehicle_type_id":"4","last_reported":1732640950,"current_range_meters":0,"station_id":"","pricing_plan_id":"cebpf4jnsgd1na2vs0mg"},{"bike_id":"5ebafbd3-6d1c-424c-8a78-f7ec0a85e090","system_id":"levelo_inurba_marseille","lat":43.27375,"lon":5.36262,"is_reserved":false,"is_disabled":false,"rental_uris":{"android":"levelo://app?vid=5ebafbd3-6d1c-424c-8a78-f7ec0a85e090","ios":"levelo://app?vid=5ebafbd3-6d1c-424c-8a78-f7ec0a85e090"},"vehicle_type_id":"4","last_reported":1732640950,"current_range_meters":1600,"station_id":"ce4bhbh2rcd13ifvqeo0","pricing_plan_id":"cebpf4jnsgd1na2vs0mg"},{"bike_id":"b856c8b4-412d-4c25-bdd4-e6b29aed04cb","system_id":"levelo_inurba_marseille","lat":43.22934,"lon":5.35385,"is_reserved":false,"is_disabled":false,"rental_uris":{"android":"levelo://app?vid=b856c8b4-412d-4c25-bdd4-e6b29aed04cb","ios":"levelo://app?vid=b856c8b4-412d-4c25-bdd4-e6b29aed04cb"},"vehicle_type_id":"4","last_reported":1732640950,"current_range_meters":38800,"station_id":"cpo3532slgdg3j2ikp40","pricing_plan_id":"cebpf4jnsgd1na2vs0mg"},{"bike_id":"b51d31e3-b561-4c0d-b4c9-74c74d6a4aa9","system_id":"levelo_inurba_marseille","lat":43.33027,"lon":5.39049,"is_reserved":false,"is_disabled":false,"rental_uris":{"android":"levelo://app?vid=b51d31e3-b561-4c0d-b4c9-74c74d6a4aa9","ios":"levelo://app?vid=b51d31e3-b561-4c0d-b4c9-74c74d6a4aa9"},"vehicle_type_id":"4","last_reported":1732640950,"current_range_meters":6800,"station_id":"ce4bhr92rcd13ifvqhrg","pricing_plan_id":"cebpf4jnsgd1na2vs0mg"},{"bike_id":"b8e90378-da68-4550-977a-6e185588923c","system_id":"levelo_inurba_marseille","lat":43.30412,"lon":5.41289,"is_reserved":false,"is_disabled":false,"rental_uris":{"android":"levelo://app?vid=b8e90378-da68-4550-977a-6e185588923c","ios":"levelo://app?vid=b8e90378-da68-4550-977a-6e185588923c"},"vehicle_type_id":"4","last_reported":1732640950,"current_range_meters":32000,"station_id":"ce4bhop2rcd13ifvqh8g","pricing_plan_id":"cebpf4jnsgd1na2vs0mg"},{"bike_id":"f0347ef3-0bf2-4904-8134-c34ce91c6bae","system_id":"levelo_inurba_marseille","lat":43.30549,"lon":5.3671,"is_reserved":false,"is_disabled":true,"rental_uris":{"android":"levelo://app?vid=f0347ef3-0bf2-4904-8134-c34ce91c6bae","ios":"levelo://app?vid=f0347ef3-0bf2-4904-8134-c34ce91c6bae"},"vehicle_type_id":"4","last_reported":1732640950,"current_range_meters":13600,"station_id":"ce4bgrp2rcd13ifvqc9g","pricing_plan_id":"cebpf4jnsgd1na2vs0mg"},{"bike_id":"938efd6e-163f-4dea-98cc-4cf7852276fc","system_id":"levelo_inurba_marseille","lat":43.30567,"lon":5.40147,"is_reserved":false,"is_disabled":false,"rental_uris":{"android":"levelo://app?vid=938efd6e-163f-4dea-98cc-4cf7852276fc","ios":"levelo://app?vid=938efd6e-163f-4dea-98cc-4cf7852276fc"},"vehicle_type_id":"4","last_reported":1732640950,"current_range_meters":30000,"station_id":"","pricing_plan_id":"cebpf4jnsgd1na2vs0mg"},{"bike_id":"9a5276ca-e6f1-482f-9dca-00b9e6e6c198","system_id":"levelo_inurba_marseille","lat":43.27991,"lon":5.40026,"is_reserved":false,"is_disabled":false,"rental_uris":{"android":"levelo://app?vid=9a5276ca-e6f1-482f-9dca-00b9e6e6c198","ios":"levelo://app?vid=9a5276ca-e6f1-482f-9dca-00b9e6e6c198"},"vehicle_type_id":"4","last_reported":1732640950,"current_range_meters":40000,"station_id":"ce4bho92rcd13ifvqh4g","pricing_plan_id":"cebpf4jnsgd1na2vs0mg"},{"bike_id":"92cc6669-d3db-4e90-afe9-11a77628afaa","system_id":"levelo_inurba_marseille","lat":43.28618,"lon":5.35109,"is_reserved":false,"is_disabled":false,"rental_uris":{"android":"levelo://app?vid=92cc6669-d3db-4e90-afe9-11a77628afaa","ios":"levelo://app?vid=92cc6669-d3db-4e90-afe9-11a77628afaa"},"vehicle_type_id":"4","last_reported":1732640950,"current_range_meters":18800,"station_id":"ce4bhch2rcd13ifvqeug","pricing_plan_id":"cebpf4jnsgd1na2vs0mg"},{"bike_id":"02aab262-4411-4183-b19e-de3afdf61ffc","system_id":"levelo_inurba_marseille","lat":43.26487,"lon":5.39549,"is_reserved":false,"is_disabled":true,"rental_uris":{"android":"levelo://app?vid=02aab262-4411-4183-b19e-de3afdf61ffc","ios":"levelo://app?vid=02aab262-4411-4183-b19e-de3afdf61ffc"},"vehicle_type_id":"4","last_reported":1732640950,"current_range_meters":0,"station_id":"ce4bhi12rcd13ifvqfq0","pricing_plan_id":"cebpf4jnsgd1na2vs0mg"},{"bike_id":"01ba2f52-0221-46d5-8054-6d5e07905956","system_id":"levelo_inurba_marseille","lat":43.27382,"lon":5.36255,"is_reserved":false,"is_disabled":false,"rental_uris":{"android":"levelo://app?vid=01ba2f52-0221-46d5-8054-6d5e07905956","ios":"levelo://app?vid=01ba2f52-0221-46d5-8054-6d5e07905956"},"vehicle_type_id":"4","last_reported":1732640950,"current_range_meters":38400,"station_id":"ce4bhbh2rcd13ifvqeo0","pricing_plan_id":"cebpf4jnsgd1na2vs0mg"},{"bike_id":"37ee09df-8673-47a3-96b4-c2ef618884e5","system_id":"levelo_inurba_marseille","lat":43.337444,"lon":5.374475,"is_reserved":false,"is_disabled":false,"rental_uris":{"android":"levelo://app?vid=37ee09df-8673-47a3-96b4-c2ef618884e5","ios":"levelo://app?vid=37ee09df-8673-47a3-96b4-c2ef618884e5"},"vehicle_type_id":"4","last_reported":1732640950,"current_range_meters":35200,"station_id":"","pricing_plan_id":"cebpf4jnsgd1na2vs0mg"},{"bike_id":"3dacb398-5fb0-4684-a2bc-5f961fca4509","system_id":"levelo_inurba_marseille","lat":43.25587,"lon":5.38228,"is_reserved":false,"is_disabled":true,"rental_uris":{"android":"levelo://app?vid=3dacb398-5fb0-4684-a2bc-5f961fca4509","ios":"levelo://app?vid=3dacb398-5fb0-4684-a2bc-5f961fca4509"},"vehicle_type_id":"4","last_reported":1732640950,"current_range_meters":0,"station_id":"ce4bhih2rcd13ifvqfs0","pricing_plan_id":"cebpf4jnsgd1na2vs0mg"},{"bike_id":"c523214a-88b9-4353-bb8b-55d45b020426","system_id":"levelo_inurba_marseille","lat":43.27819,"lon":5.40723,"is_reserved":false,"is_disabled":true,"rental_uris":{"android":"levelo://app?vid=c523214a-88b9-4353-bb8b-55d45b020426","ios":"levelo://app?vid=c523214a-88b9-4353-bb8b-55d45b020426"},"vehicle_type_id":"4","last_reported":1732640950,"current_range_meters":28400,"station_id":"ce4bhnh2rcd13ifvqgtg","pricing_plan_id":"cebpf4jnsgd1na2vs0mg"},{"bike_id":"eee9f16a-89fd-4173-88c3-6db6e150ddda","system_id":"levelo_inurba_marseille","lat":43.25114,"lon":5.40323,"is_reserved":false,"is_disabled":false,"rental_uris":{"android":"levelo://app?vid=eee9f16a-89fd-4173-88c3-6db6e150ddda","ios":"levelo://app?vid=eee9f16a-89fd-4173-88c3-6db6e150ddda"},"vehicle_type_id":"4","last_reported":1732640950,"current_range_meters":33600,"station_id":"ce4bhlh2rcd13ifvqgig","pricing_plan_id":"cebpf4jnsgd1na2vs0mg"},{"bike_id":"e7d61961-f2fb-44c4-9ee3-a227626b507f","system_id":"levelo_inurba_marseille","lat":43.23068,"lon":5.35493,"is_reserved":false,"is_disabled":true,"rental_uris":{"android":"levelo://app?vid=e7d61961-f2fb-44c4-9ee3-a227626b507f","ios":"levelo://app?vid=e7d61961-f2fb-44c4-9ee3-a227626b507f"},"vehicle_type_id":"4","last_reported":1732640950,"current_range_meters":0,"station_id":"cpo3342slgdg3j2ifvpg","pricing_plan_id":"cebpf4jnsgd1na2vs0mg"},{"bike_id":"f7165f07-e923-4579-b202-89b3912a60e2","system_id":"levelo_inurba_marseille","lat":43.25875,"lon":5.39899,"is_reserved":false,"is_disabled":true,"rental_uris":{"android":"levelo://app?vid=f7165f07-e923-4579-b202-89b3912a60e2","ios":"levelo://app?vid=f7165f07-e923-4579-b202-89b3912a60e2"},"vehicle_type_id":"4","last_reported":1732640950,"current_range_meters":800,"station_id":"ce4bhl92rcd13ifvqghg","pricing_plan_id":"cebpf4jnsgd1na2vs0mg"},{"bike_id":"e7bb1c4d-8e1c-4f29-9ea9-668aa54646cc","system_id":"levelo_inurba_marseille","lat":43.23181,"lon":5.39986,"is_reserved":false,"is_disabled":false,"rental_uris":{"android":"levelo://app?vid=e7bb1c4d-8e1c-4f29-9ea9-668aa54646cc","ios":"levelo://app?vid=e7bb1c4d-8e1c-4f29-9ea9-668aa54646cc"},"vehicle_type_id":"4","last_reported":1732640950,"current_range_meters":23200,"station_id":"ce4bhn12rcd13ifvqgqg","pricing_plan_id":"cebpf4jnsgd1na2vs0mg"},{"bike_id":"0ef16ea7-6c5b-43c6-8f2b-72144078697f","system_id":"levelo_inurba_marseille","lat":43.28456,"lon":5.35877,"is_reserved":false,"is_disabled":false,"rental_uris":{"android":"levelo://app?vid=0ef16ea7-6c5b-43c6-8f2b-72144078697f","ios":"levelo://app?vid=0ef16ea7-6c5b-43c6-8f2b-72144078697f"},"vehicle_type_id":"4","last_reported":1732640950,"current_range_meters":33600,"station_id":"ce4bhah2rcd13ifvqei0","pricing_plan_id":"cebpf4jnsgd1na2vs0mg"},{"bike_id":"f98cf346-2f95-41c1-a190-288b7ed6e557","system_id":"levelo_inurba_marseille","lat":43.24084,"lon":5.37745,"is_reserved":false,"is_disabled":true,"rental_uris":{"android":"levelo://app?vid=f98cf346-2f95-41c1-a190-288b7ed6e557","ios":"levelo://app?vid=f98cf346-2f95-41c1-a190-288b7ed6e557"},"vehicle_type_id":"4","last_reported":1732640950,"current_range_meters":0,"station_id":"ce4bhnp2rcd13ifvqgvg","pricing_plan_id":"cebpf4jnsgd1na2vs0mg"},{"bike_id":"3e74510c-d86b-4186-a956-0b286b8b0c60","system_id":"levelo_inurba_marseille","lat":43.24677,"lon":5.38172,"is_reserved":false,"is_disabled":true,"rental_uris":{"android":"levelo://app?vid=3e74510c-d86b-4186-a956-0b286b8b0c60","ios":"levelo://app?vid=3e74510c-d86b-4186-a956-0b286b8b0c60"},"vehicle_type_id":"4","last_reported":1732640950,"current_range_meters":0,"station_id":"ce4bhih2rcd13ifvqfr0","pricing_plan_id":"cebpf4jnsgd1na2vs0mg"},{"bike_id":"e99b9ef1-8519-410c-b470-ca65424d37d3","system_id":"levelo_inurba_marseille","lat":43.25581,"lon":5.38228,"is_reserved":false,"is_disabled":false,"rental_uris":{"android":"levelo://app?vid=e99b9ef1-8519-410c-b470-ca65424d37d3","ios":"levelo://app?vid=e99b9ef1-8519-410c-b470-ca65424d37d3"},"vehicle_type_id":"4","last_reported":1732640950,"current_range_meters":35600,"station_id":"ce4bhih2rcd13ifvqfs0","pricing_plan_id":"cebpf4jnsgd1na2vs0mg"},{"bike_id":"b891d583-603a-49e6-afab-c922f2af192e","system_id":"levelo_inurba_marseille","lat":43.28081,"lon":5.39658,"is_reserved":false,"is_disabled":false,"rental_uris":{"android":"levelo://app?vid=b891d583-603a-49e6-afab-c922f2af192e","ios":"levelo://app?vid=b891d583-603a-49e6-afab-c922f2af192e"},"vehicle_type_id":"4","last_reported":1732640950,"current_range_meters":23200,"station_id":"ce4bho12rcd13ifvqh2g","pricing_plan_id":"cebpf4jnsgd1na2vs0mg"},{"bike_id":"8a21b35a-7b76-40c1-9882-dd8e0fbfbe85","system_id":"levelo_inurba_marseille","lat":43.28006,"lon":5.40014,"is_reserved":false,"is_disabled":false,"rental_uris":{"android":"levelo://app?vid=8a21b35a-7b76-40c1-9882-dd8e0fbfbe85","ios":"levelo://app?vid=8a21b35a-7b76-40c1-9882-dd8e0fbfbe85"},"vehicle_type_id":"4","last_reported":1732640950,"current_range_meters":24800,"station_id":"ce4bho92rcd13ifvqh4g","pricing_plan_id":"cebpf4jnsgd1na2vs0mg"},{"bike_id":"09b89554-b737-4b6e-a9e8-cc238dd55c23","system_id":"levelo_inurba_marseille","lat":43.29027,"lon":5.38138,"is_reserved":false,"is_disabled":true,"rental_uris":{"android":"levelo://app?vid=09b89554-b737-4b6e-a9e8-cc238dd55c23","ios":"levelo://app?vid=09b89554-b737-4b6e-a9e8-cc238dd55c23"},"vehicle_type_id":"4","last_reported":1732640950,"current_range_meters":38800,"station_id":"ce4bh4p2rcd13ifvqe1g","pricing_plan_id":"cebpf4jnsgd1na2vs0mg"},{"bike_id":"9b17153a-5dcc-4a10-b754-1d30e2e1f373","system_id":"levelo_inurba_marseille","lat":43.25589,"lon":5.38229,"is_reserved":false,"is_disabled":false,"rental_uris":{"android":"levelo://app?vid=9b17153a-5dcc-4a10-b754-1d30e2e1f373","ios":"levelo://app?vid=9b17153a-5dcc-4a10-b754-1d30e2e1f373"},"vehicle_type_id":"4","last_reported":1732640950,"current_range_meters":32000,"station_id":"ce4bhih2rcd13ifvqfs0","pricing_plan_id":"cebpf4jnsgd1na2vs0mg"},{"bike_id":"9604c40b-c088-4a47-9606-5669d249b2ee","system_id":"levelo_inurba_marseille","lat":43.26824,"lon":5.41115,"is_reserved":false,"is_disabled":false,"rental_uris":{"android":"levelo://app?vid=9604c40b-c088-4a47-9606-5669d249b2ee","ios":"levelo://app?vid=9604c40b-c088-4a47-9606-5669d249b2ee"},"vehicle_type_id":"4","last_reported":1732640950,"current_range_meters":31200,"station_id":"","pricing_plan_id":"cebpf4jnsgd1na2vs0mg"},{"bike_id":"f3dc35d1-dc05-4841-9f91-e61208f2a1e3","system_id":"levelo_inurba_marseille","lat":43.2903,"lon":5.38646,"is_reserved":false,"is_disabled":false,"rental_uris":{"android":"levelo://app?vid=f3dc35d1-dc05-4841-9f91-e61208f2a1e3","ios":"levelo://app?vid=f3dc35d1-dc05-4841-9f91-e61208f2a1e3"},"vehicle_type_id":"4","last_reported":1732640950,"current_range_meters":22800,"station_id":"ce4bh4p2rcd13ifvqe0g","pricing_plan_id":"cebpf4jnsgd1na2vs0mg"},{"bike_id":"d7b4e41b-5ea8-4d2c-9fe2-df65bc6478d3","system_id":"levelo_inurba_marseille","lat":43.24814,"lon":5.37454,"is_reserved":false,"is_disabled":false,"rental_uris":{"android":"levelo://app?vid=d7b4e41b-5ea8-4d2c-9fe2-df65bc6478d3","ios":"levelo://app?vid=d7b4e41b-5ea8-4d2c-9fe2-df65bc6478d3"},"vehicle_type_id":"4","last_reported":1732640950,"current_range_meters":20000,"station_id":"ce4bhgh2rcd13ifvqfb0","pricing_plan_id":"cebpf4jnsgd1na2vs0mg"},{"bike_id":"835a170b-9333-4a62-9af0-a89a87c1a309","system_id":"levelo_inurba_marseille","lat":43.24652,"lon":5.38162,"is_reserved":false,"is_disabled":false,"rental_uris":{"android":"levelo://app?vid=835a170b-9333-4a62-9af0-a89a87c1a309","ios":"levelo://app?vid=835a170b-9333-4a62-9af0-a89a87c1a309"},"vehicle_type_id":"4","last_reported":1732640950,"current_range_meters":10800,"station_id":"ce4bhih2rcd13ifvqfr0","pricing_plan_id":"cebpf4jnsgd1na2vs0mg"},{"bike_id":"4614eb9e-6c41-4066-905f-11d627f336b2","system_id":"levelo_inurba_marseille","lat":43.2997,"lon":5.38495,"is_reserved":false,"is_disabled":false,"rental_uris":{"android":"levelo://app?vid=4614eb9e-6c41-4066-905f-11d627f336b2","ios":"levelo://app?vid=4614eb9e-6c41-4066-905f-11d627f336b2"},"vehicle_type_id":"4","last_reported":1732640950,"current_range_meters":38000,"station_id":"ce4bgj92rcd13ifvqbd0","pricing_plan_id":"cebpf4jnsgd1na2vs0mg"},{"bike_id":"163794ef-f6b3-4f28-b569-8caed1ca26d6","system_id":"levelo_inurba_marseille","lat":43.30263,"lon":5.40079,"is_reserved":false,"is_disabled":false,"rental_uris":{"android":"levelo://app?vid=163794ef-f6b3-4f28-b569-8caed1ca26d6","ios":"levelo://app?vid=163794ef-f6b3-4f28-b569-8caed1ca26d6"},"vehicle_type_id":"4","last_reported":1732640950,"current_range_meters":3200,"station_id":"ce4bgvh2rcd13ifvqcs0","pricing_plan_id":"cebpf4jnsgd1na2vs0mg"},{"bike_id":"caf4734a-4cec-4f34-a39a-93be4dc22192","system_id":"levelo_inurba_marseille","lat":43.29219,"lon":5.37921,"is_reserved":false,"is_disabled":false,"rental_uris":{"android":"levelo://app?vid=caf4734a-4cec-4f34-a39a-93be4dc22192","ios":"levelo://app?vid=caf4734a-4cec-4f34-a39a-93be4dc22192"},"vehicle_type_id":"4","last_reported":1732640950,"current_range_meters":6400,"station_id":"","pricing_plan_id":"cebpf4jnsgd1na2vs0mg"},{"bike_id":"1ec2ce42-5acc-4c0b-a1aa-5fd271bb0008","system_id":"levelo_inurba_marseille","lat":43.2997,"lon":5.38495,"is_reserved":false,"is_disabled":true,"rental_uris":{"android":"levelo://app?vid=1ec2ce42-5acc-4c0b-a1aa-5fd271bb0008","ios":"levelo://app?vid=1ec2ce42-5acc-4c0b-a1aa-5fd271bb0008"},"vehicle_type_id":"4","last_reported":1732640950,"current_range_meters":0,"station_id":"ce4bgj92rcd13ifvqbd0","pricing_plan_id":"cebpf4jnsgd1na2vs0mg"},{"bike_id":"e8ce7360-fbe5-4902-9873-47157c775922","system_id":"levelo_inurba_marseille","lat":43.29035,"lon":5.39965,"is_reserved":false,"is_disabled":false,"rental_uris":{"android":"levelo://app?vid=e8ce7360-fbe5-4902-9873-47157c775922","ios":"levelo://app?vid=e8ce7360-fbe5-4902-9873-47157c775922"},"vehicle_type_id":"4","last_reported":1732640950,"current_range_meters":38800,"station_id":"ce4bh392rcd13ifvqdm0","pricing_plan_id":"cebpf4jnsgd1na2vs0mg"},{"bike_id":"0a2d70bc-b761-4725-9e3d-6717bfcaa6cc","system_id":"levelo_inurba_marseille","lat":43.337444,"lon":5.374475,"is_reserved":false,"is_disabled":false,"rental_uris":{"android":"levelo://app?vid=0a2d70bc-b761-4725-9e3d-6717bfcaa6cc","ios":"levelo://app?vid=0a2d70bc-b761-4725-9e3d-6717bfcaa6cc"},"vehicle_type_id":"4","last_reported":1732640950,"current_range_meters":37600,"station_id":"","pricing_plan_id":"cebpf4jnsgd1na2vs0mg"},{"bike_id":"63a874e3-7154-44e6-8848-c2921426d325","system_id":"levelo_inurba_marseille","lat":43.26682,"lon":5.38265,"is_reserved":false,"is_disabled":false,"rental_uris":{"android":"levelo://app?vid=63a874e3-7154-44e6-8848-c2921426d325","ios":"levelo://app?vid=63a874e3-7154-44e6-8848-c2921426d325"},"vehicle_type_id":"4","last_reported":1732640950,"current_range_meters":7200,"station_id":"ce4bhg92rcd13ifvqf90","pricing_plan_id":"cebpf4jnsgd1na2vs0mg"},{"bike_id":"c29462b2-6f03-4354-a0a3-f395b21c5128","system_id":"levelo_inurba_marseille","lat":43.27494,"lon":5.42456,"is_reserved":false,"is_disabled":true,"rental_uris":{"android":"levelo://app?vid=c29462b2-6f03-4354-a0a3-f395b21c5128","ios":"levelo://app?vid=c29462b2-6f03-4354-a0a3-f395b21c5128"},"vehicle_type_id":"4","last_reported":1732640950,"current_range_meters":0,"station_id":"ce4bhn92rcd13ifvqgrg","pricing_plan_id":"cebpf4jnsgd1na2vs0mg"},{"bike_id":"820f12a0-cf28-488c-8a74-3f1b9d2e4db5","system_id":"levelo_inurba_marseille","lat":43.23056,"lon":5.35491,"is_reserved":false,"is_disabled":false,"rental_uris":{"android":"levelo://app?vid=820f12a0-cf28-488c-8a74-3f1b9d2e4db5","ios":"levelo://app?vid=820f12a0-cf28-488c-8a74-3f1b9d2e4db5"},"vehicle_type_id":"4","last_reported":1732640950,"current_range_meters":24000,"station_id":"cpo3342slgdg3j2ifvpg","pricing_plan_id":"cebpf4jnsgd1na2vs0mg"},{"bike_id":"e1d63dd7-af57-40db-b964-6575f0f33485","system_id":"levelo_inurba_marseille","lat":43.28576,"lon":5.39491,"is_reserved":false,"is_disabled":false,"rental_uris":{"android":"levelo://app?vid=e1d63dd7-af57-40db-b964-6575f0f33485","ios":"levelo://app?vid=e1d63dd7-af57-40db-b964-6575f0f33485"},"vehicle_type_id":"4","last_reported":1732640950,"current_range_meters":38000,"station_id":"ce4bh292rcd13ifvqdg0","pricing_plan_id":"cebpf4jnsgd1na2vs0mg"},{"bike_id":"06022d24-bae2-4a0e-890d-061388f0bf7e","system_id":"levelo_inurba_marseille","lat":43.30799,"lon":5.43523,"is_reserved":false,"is_disabled":false,"rental_uris":{"android":"levelo://app?vid=06022d24-bae2-4a0e-890d-061388f0bf7e","ios":"levelo://app?vid=06022d24-bae2-4a0e-890d-061388f0bf7e"},"vehicle_type_id":"4","last_reported":1732640950,"current_range_meters":16400,"station_id":"ce4bhph2rcd13ifvqheg","pricing_plan_id":"cebpf4jnsgd1na2vs0mg"},{"bike_id":"9bd703cf-29dd-44fb-ba18-03a5deaea519","system_id":"levelo_inurba_marseille","lat":43.27842,"lon":5.3921,"is_reserved":false,"is_disabled":false,"rental_uris":{"android":"levelo://app?vid=9bd703cf-29dd-44fb-ba18-03a5deaea519","ios":"levelo://app?vid=9bd703cf-29dd-44fb-ba18-03a5deaea519"},"vehicle_type_id":"4","last_reported":1732640950,"current_range_meters":28000,"station_id":"ce4bhjp2rcd13ifvqga0","pricing_plan_id":"cebpf4jnsgd1na2vs0mg"},{"bike_id":"973df973-f038-4531-82e9-e138e6b0e84c","system_id":"levelo_inurba_marseille","lat":43.27215,"lon":5.39177,"is_reserved":false,"is_disabled":false,"rental_uris":{"android":"levelo://app?vid=973df973-f038-4531-82e9-e138e6b0e84c","ios":"levelo://app?vid=973df973-f038-4531-82e9-e138e6b0e84c"},"vehicle_type_id":"4","last_reported":1732640950,"current_range_meters":11200,"station_id":"ce4bhhp2rcd13ifvqfm0","pricing_plan_id":"cebpf4jnsgd1na2vs0mg"},{"bike_id":"1c5b66eb-88cf-41f3-a41b-454a91ddbae2","system_id":"levelo_inurba_marseille","lat":43.32477,"lon":5.36567,"is_reserved":false,"is_disabled":false,"rental_uris":{"android":"levelo://app?vid=1c5b66eb-88cf-41f3-a41b-454a91ddbae2","ios":"levelo://app?vid=1c5b66eb-88cf-41f3-a41b-454a91ddbae2"},"vehicle_type_id":"4","last_reported":1732640950,"current_range_meters":28800,"station_id":"ce4bhs12rcd13ifvqhvg","pricing_plan_id":"cebpf4jnsgd1na2vs0mg"},{"bike_id":"33b8045d-fd1a-444f-8a40-a4ebaad2413b","system_id":"levelo_inurba_marseille","lat":43.2512,"lon":5.4033,"is_reserved":false,"is_disabled":true,"rental_uris":{"android":"levelo://app?vid=33b8045d-fd1a-444f-8a40-a4ebaad2413b","ios":"levelo://app?vid=33b8045d-fd1a-444f-8a40-a4ebaad2413b"},"vehicle_type_id":"4","last_reported":1732640950,"current_range_meters":0,"station_id":"ce4bhlh2rcd13ifvqgig","pricing_plan_id":"cebpf4jnsgd1na2vs0mg"},{"bike_id":"55cf4b06-6c8d-4ec0-aaf1-2f2bfe12588f","system_id":"levelo_inurba_marseille","lat":43.30141,"lon":5.3985,"is_reserved":false,"is_disabled":false,"rental_uris":{"android":"levelo://app?vid=55cf4b06-6c8d-4ec0-aaf1-2f2bfe12588f","ios":"levelo://app?vid=55cf4b06-6c8d-4ec0-aaf1-2f2bfe12588f"},"vehicle_type_id":"4","last_reported":1732640950,"current_range_meters":26000,"station_id":"ce4bh0h2rcd13ifvqd40","pricing_plan_id":"cebpf4jnsgd1na2vs0mg"},{"bike_id":"6d03be4a-49c3-4c41-bfcb-3f4b3ee64141","system_id":"levelo_inurba_marseille","lat":43.27947,"lon":5.41052,"is_reserved":false,"is_disabled":true,"rental_uris":{"android":"levelo://app?vid=6d03be4a-49c3-4c41-bfcb-3f4b3ee64141","ios":"levelo://app?vid=6d03be4a-49c3-4c41-bfcb-3f4b3ee64141"},"vehicle_type_id":"4","last_reported":1732640950,"current_range_meters":0,"station_id":"ce4bhnp2rcd13ifvqh0g","pricing_plan_id":"cebpf4jnsgd1na2vs0mg"},{"bike_id":"556ce353-b281-43b2-aa67-86f9dd0b19ad","system_id":"levelo_inurba_marseille","lat":43.29162,"lon":5.37165,"is_reserved":false,"is_disabled":false,"rental_uris":{"android":"levelo://app?vid=556ce353-b281-43b2-aa67-86f9dd0b19ad","ios":"levelo://app?vid=556ce353-b281-43b2-aa67-86f9dd0b19ad"},"vehicle_type_id":"4","last_reported":1732640950,"current_range_meters":15200,"station_id":"ce4bha92rcd13ifvqeh0","pricing_plan_id":"cebpf4jnsgd1na2vs0mg"},{"bike_id":"0dfbf748-f8db-43a3-a12f-d8a6e2c1f4a0","system_id":"levelo_inurba_marseille","lat":43.29255,"lon":5.38445,"is_reserved":false,"is_disabled":true,"rental_uris":{"android":"levelo://app?vid=0dfbf748-f8db-43a3-a12f-d8a6e2c1f4a0","ios":"levelo://app?vid=0dfbf748-f8db-43a3-a12f-d8a6e2c1f4a0"},"vehicle_type_id":"4","last_reported":1732640950,"current_range_meters":2000,"station_id":"ce4bh692rcd13ifvqea0","pricing_plan_id":"cebpf4jnsgd1na2vs0mg"},{"bike_id":"3aad783f-893b-4e76-89b3-8590f3895262","system_id":"levelo_inurba_marseille","lat":43.293215,"lon":5.371625,"is_reserved":false,"is_disabled":false,"rental_uris":{"android":"levelo://app?vid=3aad783f-893b-4e76-89b3-8590f3895262","ios":"levelo://app?vid=3aad783f-893b-4e76-89b3-8590f3895262"},"vehicle_type_id":"4","last_reported":1732640950,"current_range_meters":38800,"station_id":"ce4bgh92rcd13ifvqb40","pricing_plan_id":"cebpf4jnsgd1na2vs0mg"},{"bike_id":"cf7c9153-0dc8-430f-83bc-b3f293869575","system_id":"levelo_inurba_marseille","lat":43.33726,"lon":5.39185,"is_reserved":false,"is_disabled":false,"rental_uris":{"android":"levelo://app?vid=cf7c9153-0dc8-430f-83bc-b3f293869575","ios":"levelo://app?vid=cf7c9153-0dc8-430f-83bc-b3f293869575"},"vehicle_type_id":"4","last_reported":1732640950,"current_range_meters":9200,"station_id":"ce4bhr92rcd13ifvqhsg","pricing_plan_id":"cebpf4jnsgd1na2vs0mg"},{"bike_id":"87bb7cbe-aefe-4e56-aa6b-d384b6df38eb","system_id":"levelo_inurba_marseille","lat":43.30415,"lon":5.41283,"is_reserved":false,"is_disabled":false,"rental_uris":{"android":"levelo://app?vid=87bb7cbe-aefe-4e56-aa6b-d384b6df38eb","ios":"levelo://app?vid=87bb7cbe-aefe-4e56-aa6b-d384b6df38eb"},"vehicle_type_id":"4","last_reported":1732640950,"current_range_meters":8800,"station_id":"ce4bhop2rcd13ifvqh8g","pricing_plan_id":"cebpf4jnsgd1na2vs0mg"},{"bike_id":"e023ff32-6c4f-4673-a7aa-5fcdbec26d0f","system_id":"levelo_inurba_marseille","lat":43.28831,"lon":5.35846,"is_reserved":false,"is_disabled":true,"rental_uris":{"android":"levelo://app?vid=e023ff32-6c4f-4673-a7aa-5fcdbec26d0f","ios":"levelo://app?vid=e023ff32-6c4f-4673-a7aa-5fcdbec26d0f"},"vehicle_type_id":"4","last_reported":1732640950,"current_range_meters":28400,"station_id":"ce4bhb12rcd13ifvqem0","pricing_plan_id":"cebpf4jnsgd1na2vs0mg"},{"bike_id":"7366c76e-46d6-409a-8eaf-0b34e372ef77","system_id":"levelo_inurba_marseille","lat":43.30778,"lon":5.37653,"is_reserved":false,"is_disabled":false,"rental_uris":{"android":"levelo://app?vid=7366c76e-46d6-409a-8eaf-0b34e372ef77","ios":"levelo://app?vid=7366c76e-46d6-409a-8eaf-0b34e372ef77"},"vehicle_type_id":"4","last_reported":1732640950,"current_range_meters":32000,"station_id":"ce4bgv92rcd13ifvqcq0","pricing_plan_id":"cebpf4jnsgd1na2vs0mg"},{"bike_id":"f9ca3389-f0b0-42e9-b890-7ec20aa8d35e","system_id":"levelo_inurba_marseille","lat":43.29268,"lon":5.36843,"is_reserved":false,"is_disabled":true,"rental_uris":{"android":"levelo://app?vid=f9ca3389-f0b0-42e9-b890-7ec20aa8d35e","ios":"levelo://app?vid=f9ca3389-f0b0-42e9-b890-7ec20aa8d35e"},"vehicle_type_id":"4","last_reported":1732640950,"current_range_meters":16400,"station_id":"ce4bhbp2rcd13ifvqesg","pricing_plan_id":"cebpf4jnsgd1na2vs0mg"},{"bike_id":"4d809776-4d2b-4bf5-8aa6-666b5b1fd18f","system_id":"levelo_inurba_marseille","lat":43.33725,"lon":5.39187,"is_reserved":false,"is_disabled":false,"rental_uris":{"android":"levelo://app?vid=4d809776-4d2b-4bf5-8aa6-666b5b1fd18f","ios":"levelo://app?vid=4d809776-4d2b-4bf5-8aa6-666b5b1fd18f"},"vehicle_type_id":"4","last_reported":1732640950,"current_range_meters":39200,"station_id":"ce4bhr92rcd13ifvqhsg","pricing_plan_id":"cebpf4jnsgd1na2vs0mg"},{"bike_id":"a9bf975a-5286-4f84-a04a-2c3b4b3310f9","system_id":"levelo_inurba_marseille","lat":43.29551,"lon":5.42281,"is_reserved":false,"is_disabled":false,"rental_uris":{"android":"levelo://app?vid=a9bf975a-5286-4f84-a04a-2c3b4b3310f9","ios":"levelo://app?vid=a9bf975a-5286-4f84-a04a-2c3b4b3310f9"},"vehicle_type_id":"4","last_reported":1732640950,"current_range_meters":31200,"station_id":"ce4bhph2rcd13ifvqhdg","pricing_plan_id":"cebpf4jnsgd1na2vs0mg"},{"bike_id":"5817161f-5d63-41b2-92c0-c94f8059d60c","system_id":"levelo_inurba_marseille","lat":43.337444,"lon":5.374475,"is_reserved":false,"is_disabled":false,"rental_uris":{"android":"levelo://app?vid=5817161f-5d63-41b2-92c0-c94f8059d60c","ios":"levelo://app?vid=5817161f-5d63-41b2-92c0-c94f8059d60c"},"vehicle_type_id":"4","last_reported":1732640950,"current_range_meters":36400,"station_id":"","pricing_plan_id":"cebpf4jnsgd1na2vs0mg"},{"bike_id":"88c80e96-32d0-4054-a0d8-e15b372ae003","system_id":"levelo_inurba_marseille","lat":43.23192,"lon":5.35568,"is_reserved":false,"is_disabled":false,"rental_uris":{"android":"levelo://app?vid=88c80e96-32d0-4054-a0d8-e15b372ae003","ios":"levelo://app?vid=88c80e96-32d0-4054-a0d8-e15b372ae003"},"vehicle_type_id":"4","last_reported":1732640950,"current_range_meters":13600,"station_id":"ce4bhu92rcd13ifvqi70","pricing_plan_id":"cebpf4jnsgd1na2vs0mg"},{"bike_id":"f96a3923-1d4e-4f83-b670-ad12c27a17fe","system_id":"levelo_inurba_marseille","lat":43.23964,"lon":5.3663,"is_reserved":false,"is_disabled":false,"rental_uris":{"android":"levelo://app?vid=f96a3923-1d4e-4f83-b670-ad12c27a17fe","ios":"levelo://app?vid=f96a3923-1d4e-4f83-b670-ad12c27a17fe"},"vehicle_type_id":"4","last_reported":1732640950,"current_range_meters":6400,"station_id":"ce4bhi12rcd13ifvqfp0","pricing_plan_id":"cebpf4jnsgd1na2vs0mg"},{"bike_id":"d1573506-526b-4520-89f7-be3e00644e2e","system_id":"levelo_inurba_marseille","lat":43.27916,"lon":5.39573,"is_reserved":false,"is_disabled":false,"rental_uris":{"android":"levelo://app?vid=d1573506-526b-4520-89f7-be3e00644e2e","ios":"levelo://app?vid=d1573506-526b-4520-89f7-be3e00644e2e"},"vehicle_type_id":"4","last_reported":1732640950,"current_range_meters":20000,"station_id":"ce4bhf92rcd13ifvqf40","pricing_plan_id":"cebpf4jnsgd1na2vs0mg"},{"bike_id":"3d662a92-7642-4205-a08b-b534b7853d0a","system_id":"levelo_inurba_marseille","lat":43.27965,"lon":5.38543,"is_reserved":false,"is_disabled":false,"rental_uris":{"android":"levelo://app?vid=3d662a92-7642-4205-a08b-b534b7853d0a","ios":"levelo://app?vid=3d662a92-7642-4205-a08b-b534b7853d0a"},"vehicle_type_id":"4","last_reported":1732640950,"current_range_meters":24000,"station_id":"","pricing_plan_id":"cebpf4jnsgd1na2vs0mg"},{"bike_id":"7201e0cf-a992-4041-bacd-04ce15cb4f7c","system_id":"levelo_inurba_marseille","lat":43.26212,"lon":5.37443,"is_reserved":false,"is_disabled":false,"rental_uris":{"android":"levelo://app?vid=7201e0cf-a992-4041-bacd-04ce15cb4f7c","ios":"levelo://app?vid=7201e0cf-a992-4041-bacd-04ce15cb4f7c"},"vehicle_type_id":"4","last_reported":1732640950,"current_range_meters":2800,"station_id":"ce4bhgp2rcd13ifvqfc0","pricing_plan_id":"cebpf4jnsgd1na2vs0mg"},{"bike_id":"0cd7fb1f-f090-4e80-a2fb-03510d2b2219","system_id":"levelo_inurba_marseille","lat":43.29571,"lon":5.37499,"is_reserved":false,"is_disabled":true,"rental_uris":{"android":"levelo://app?vid=0cd7fb1f-f090-4e80-a2fb-03510d2b2219","ios":"levelo://app?vid=0cd7fb1f-f090-4e80-a2fb-03510d2b2219"},"vehicle_type_id":"4","last_reported":1732640950,"current_range_meters":33200,"station_id":"ce4bgh92rcd13ifvqb50","pricing_plan_id":"cebpf4jnsgd1na2vs0mg"},{"bike_id":"37b4ca16-c9d5-4909-9f7b-84b31ba91b28","system_id":"levelo_inurba_marseille","lat":43.28836,"lon":5.39311,"is_reserved":false,"is_disabled":false,"rental_uris":{"android":"levelo://app?vid=37b4ca16-c9d5-4909-9f7b-84b31ba91b28","ios":"levelo://app?vid=37b4ca16-c9d5-4909-9f7b-84b31ba91b28"},"vehicle_type_id":"4","last_reported":1732640950,"current_range_meters":36800,"station_id":"ce4bh2p2rcd13ifvqdi0","pricing_plan_id":"cebpf4jnsgd1na2vs0mg"},{"bike_id":"d33a5273-2943-4fa7-881b-94fa64c3bbe9","system_id":"levelo_inurba_marseille","lat":43.23971,"lon":5.36624,"is_reserved":false,"is_disabled":false,"rental_uris":{"android":"levelo://app?vid=d33a5273-2943-4fa7-881b-94fa64c3bbe9","ios":"levelo://app?vid=d33a5273-2943-4fa7-881b-94fa64c3bbe9"},"vehicle_type_id":"4","last_reported":1732640950,"current_range_meters":38800,"station_id":"ce4bhi12rcd13ifvqfp0","pricing_plan_id":"cebpf4jnsgd1na2vs0mg"},{"bike_id":"7298403c-880b-444e-b805-d088a86663ad","system_id":"levelo_inurba_marseille","lat":43.31334,"lon":5.39691,"is_reserved":false,"is_disabled":false,"rental_uris":{"android":"levelo://app?vid=7298403c-880b-444e-b805-d088a86663ad","ios":"levelo://app?vid=7298403c-880b-444e-b805-d088a86663ad"},"vehicle_type_id":"4","last_reported":1732640950,"current_range_meters":16800,"station_id":"ce4bgvp2rcd13ifvqcu0","pricing_plan_id":"cebpf4jnsgd1na2vs0mg"},{"bike_id":"37bdaf15-432b-4656-b264-fdfd0efae531","system_id":"levelo_inurba_marseille","lat":43.30249,"lon":5.4007,"is_reserved":false,"is_disabled":false,"rental_uris":{"android":"levelo://app?vid=37bdaf15-432b-4656-b264-fdfd0efae531","ios":"levelo://app?vid=37bdaf15-432b-4656-b264-fdfd0efae531"},"vehicle_type_id":"4","last_reported":1732640950,"current_range_meters":37600,"station_id":"ce4bgvh2rcd13ifvqcs0","pricing_plan_id":"cebpf4jnsgd1na2vs0mg"},{"bike_id":"8e03139a-d4ca-4fe7-a6b0-224ac74897ea","system_id":"levelo_inurba_marseille","lat":43.25115,"lon":5.4032,"is_reserved":false,"is_disabled":true,"rental_uris":{"android":"levelo://app?vid=8e03139a-d4ca-4fe7-a6b0-224ac74897ea","ios":"levelo://app?vid=8e03139a-d4ca-4fe7-a6b0-224ac74897ea"},"vehicle_type_id":"4","last_reported":1732640950,"current_range_meters":1200,"station_id":"ce4bhlh2rcd13ifvqgig","pricing_plan_id":"cebpf4jnsgd1na2vs0mg"},{"bike_id":"6a243988-d267-4e1e-bafc-c091870de6a8","system_id":"levelo_inurba_marseille","lat":43.24167,"lon":5.36404,"is_reserved":false,"is_disabled":false,"rental_uris":{"android":"levelo://app?vid=6a243988-d267-4e1e-bafc-c091870de6a8","ios":"levelo://app?vid=6a243988-d267-4e1e-bafc-c091870de6a8"},"vehicle_type_id":"4","last_reported":1732640950,"current_range_meters":38000,"station_id":"cpo36qri1sfpv3e86is0","pricing_plan_id":"cebpf4jnsgd1na2vs0mg"},{"bike_id":"32cbe6aa-217f-475e-8d89-7b3ea1a39381","system_id":"levelo_inurba_marseille","lat":43.33024,"lon":5.39042,"is_reserved":false,"is_disabled":false,"rental_uris":{"android":"levelo://app?vid=32cbe6aa-217f-475e-8d89-7b3ea1a39381","ios":"levelo://app?vid=32cbe6aa-217f-475e-8d89-7b3ea1a39381"},"vehicle_type_id":"4","last_reported":1732640950,"current_range_meters":10800,"station_id":"ce4bhr92rcd13ifvqhrg","pricing_plan_id":"cebpf4jnsgd1na2vs0mg"},{"bike_id":"39b04c21-6a6a-40a7-a489-741c2b67c9bd","system_id":"levelo_inurba_marseille","lat":43.33723,"lon":5.39193,"is_reserved":false,"is_disabled":false,"rental_uris":{"android":"levelo://app?vid=39b04c21-6a6a-40a7-a489-741c2b67c9bd","ios":"levelo://app?vid=39b04c21-6a6a-40a7-a489-741c2b67c9bd"},"vehicle_type_id":"4","last_reported":1732640950,"current_range_meters":16000,"station_id":"ce4bhr92rcd13ifvqhsg","pricing_plan_id":"cebpf4jnsgd1na2vs0mg"},{"bike_id":"07e20dc7-4a47-4880-af36-915c29a73925","system_id":"levelo_inurba_marseille","lat":43.2997,"lon":5.38491,"is_reserved":false,"is_disabled":false,"rental_uris":{"android":"levelo://app?vid=07e20dc7-4a47-4880-af36-915c29a73925","ios":"levelo://app?vid=07e20dc7-4a47-4880-af36-915c29a73925"},"vehicle_type_id":"4","last_reported":1732640950,"current_range_meters":32400,"station_id":"ce4bgj92rcd13ifvqbd0","pricing_plan_id":"cebpf4jnsgd1na2vs0mg"},{"bike_id":"dddb19ec-e3be-4180-9b1d-b2e07e49e08c","system_id":"levelo_inurba_marseille","lat":43.30795,"lon":5.43528,"is_reserved":false,"is_disabled":false,"rental_uris":{"android":"levelo://app?vid=dddb19ec-e3be-4180-9b1d-b2e07e49e08c","ios":"levelo://app?vid=dddb19ec-e3be-4180-9b1d-b2e07e49e08c"},"vehicle_type_id":"4","last_reported":1732640950,"current_range_meters":31200,"station_id":"ce4bhph2rcd13ifvqheg","pricing_plan_id":"cebpf4jnsgd1na2vs0mg"},{"bike_id":"1e613d18-c1b8-4f02-9b27-0b1d954d1c5b","system_id":"levelo_inurba_marseille","lat":43.30814,"lon":5.43523,"is_reserved":false,"is_disabled":false,"rental_uris":{"android":"levelo://app?vid=1e613d18-c1b8-4f02-9b27-0b1d954d1c5b","ios":"levelo://app?vid=1e613d18-c1b8-4f02-9b27-0b1d954d1c5b"},"vehicle_type_id":"4","last_reported":1732640950,"current_range_meters":34000,"station_id":"ce4bhph2rcd13ifvqheg","pricing_plan_id":"cebpf4jnsgd1na2vs0mg"},{"bike_id":"df6dfede-364c-4a0e-8f22-cb21db50a29f","system_id":"levelo_inurba_marseille","lat":43.23189,"lon":5.39987,"is_reserved":false,"is_disabled":false,"rental_uris":{"android":"levelo://app?vid=df6dfede-364c-4a0e-8f22-cb21db50a29f","ios":"levelo://app?vid=df6dfede-364c-4a0e-8f22-cb21db50a29f"},"vehicle_type_id":"4","last_reported":1732640950,"current_range_meters":40000,"station_id":"ce4bhn12rcd13ifvqgqg","pricing_plan_id":"cebpf4jnsgd1na2vs0mg"},{"bike_id":"f322df79-0242-4db0-ac2e-452d61c9528e","system_id":"levelo_inurba_marseille","lat":43.25578,"lon":5.38237,"is_reserved":false,"is_disabled":false,"rental_uris":{"android":"levelo://app?vid=f322df79-0242-4db0-ac2e-452d61c9528e","ios":"levelo://app?vid=f322df79-0242-4db0-ac2e-452d61c9528e"},"vehicle_type_id":"4","last_reported":1732640950,"current_range_meters":38000,"station_id":"ce4bhih2rcd13ifvqfs0","pricing_plan_id":"cebpf4jnsgd1na2vs0mg"},{"bike_id":"f0811f8d-645f-4a33-80e4-24ebcf9900c4","system_id":"levelo_inurba_marseille","lat":43.31502,"lon":5.37302,"is_reserved":false,"is_disabled":false,"rental_uris":{"android":"levelo://app?vid=f0811f8d-645f-4a33-80e4-24ebcf9900c4","ios":"levelo://app?vid=f0811f8d-645f-4a33-80e4-24ebcf9900c4"},"vehicle_type_id":"4","last_reported":1732640950,"current_range_meters":8400,"station_id":"ce4bgt12rcd13ifvqcd0","pricing_plan_id":"cebpf4jnsgd1na2vs0mg"},{"bike_id":"125e157b-2449-49d9-963f-0e931d7d3a06","system_id":"levelo_inurba_marseille","lat":43.29213,"lon":5.37333,"is_reserved":false,"is_disabled":false,"rental_uris":{"android":"levelo://app?vid=125e157b-2449-49d9-963f-0e931d7d3a06","ios":"levelo://app?vid=125e157b-2449-49d9-963f-0e931d7d3a06"},"vehicle_type_id":"4","last_reported":1732640950,"current_range_meters":21600,"station_id":"ce4bha92rcd13ifvqeh0","pricing_plan_id":"cebpf4jnsgd1na2vs0mg"},{"bike_id":"e1e6b7b4-5dea-409b-8770-e4f412a5f8e2","system_id":"levelo_inurba_marseille","lat":43.30014,"lon":5.36658,"is_reserved":false,"is_disabled":false,"rental_uris":{"android":"levelo://app?vid=e1e6b7b4-5dea-409b-8770-e4f412a5f8e2","ios":"levelo://app?vid=e1e6b7b4-5dea-409b-8770-e4f412a5f8e2"},"vehicle_type_id":"4","last_reported":1732640950,"current_range_meters":14800,"station_id":"ce4bgn12rcd13ifvqbt0","pricing_plan_id":"cebpf4jnsgd1na2vs0mg"},{"bike_id":"72482bf5-a138-48b2-8662-bbb40cfc0d34","system_id":"levelo_inurba_marseille","lat":43.31714,"lon":5.43706,"is_reserved":false,"is_disabled":false,"rental_uris":{"android":"levelo://app?vid=72482bf5-a138-48b2-8662-bbb40cfc0d34","ios":"levelo://app?vid=72482bf5-a138-48b2-8662-bbb40cfc0d34"},"vehicle_type_id":"4","last_reported":1732640950,"current_range_meters":16400,"station_id":"ce4bhp92rcd13ifvqhcg","pricing_plan_id":"cebpf4jnsgd1na2vs0mg"},{"bike_id":"3b2ddd61-7276-4381-b067-2a88d42fe9ff","system_id":"levelo_inurba_marseille","lat":43.28259,"lon":5.35082,"is_reserved":false,"is_disabled":false,"rental_uris":{"android":"levelo://app?vid=3b2ddd61-7276-4381-b067-2a88d42fe9ff","ios":"levelo://app?vid=3b2ddd61-7276-4381-b067-2a88d42fe9ff"},"vehicle_type_id":"4","last_reported":1732640950,"current_range_meters":18800,"station_id":"ce4bhbp2rcd13ifvqerg","pricing_plan_id":"cebpf4jnsgd1na2vs0mg"},{"bike_id":"28816a41-6fa7-4142-a4c4-70b2b3875af3","system_id":"levelo_inurba_marseille","lat":43.26062,"lon":5.39395,"is_reserved":false,"is_disabled":false,"rental_uris":{"android":"levelo://app?vid=28816a41-6fa7-4142-a4c4-70b2b3875af3","ios":"levelo://app?vid=28816a41-6fa7-4142-a4c4-70b2b3875af3"},"vehicle_type_id":"4","last_reported":1732640950,"current_range_meters":4800,"station_id":"ce4bhh92rcd13ifvqfj0","pricing_plan_id":"cebpf4jnsgd1na2vs0mg"},{"bike_id":"36296f5c-0176-4be0-97c8-7930cda9c369","system_id":"levelo_inurba_marseille","lat":43.32111,"lon":5.36778,"is_reserved":false,"is_disabled":false,"rental_uris":{"android":"levelo://app?vid=36296f5c-0176-4be0-97c8-7930cda9c369","ios":"levelo://app?vid=36296f5c-0176-4be0-97c8-7930cda9c369"},"vehicle_type_id":"4","last_reported":1732640950,"current_range_meters":22000,"station_id":"ce4bhrh2rcd13ifvqhug","pricing_plan_id":"cebpf4jnsgd1na2vs0mg"},{"bike_id":"4ccae18d-9bc3-43b8-bd76-4800c8362606","system_id":"levelo_inurba_marseille","lat":43.2847,"lon":5.38415,"is_reserved":false,"is_disabled":false,"rental_uris":{"android":"levelo://app?vid=4ccae18d-9bc3-43b8-bd76-4800c8362606","ios":"levelo://app?vid=4ccae18d-9bc3-43b8-bd76-4800c8362606"},"vehicle_type_id":"4","last_reported":1732640950,"current_range_meters":39200,"station_id":"ce4bh512rcd13ifvqe3g","pricing_plan_id":"cebpf4jnsgd1na2vs0mg"},{"bike_id":"a932421d-c42f-4a5f-9080-79bd8c7f5ad1","system_id":"levelo_inurba_marseille","lat":43.299575,"lon":5.384919,"is_reserved":false,"is_disabled":true,"rental_uris":{"android":"levelo://app?vid=a932421d-c42f-4a5f-9080-79bd8c7f5ad1","ios":"levelo://app?vid=a932421d-c42f-4a5f-9080-79bd8c7f5ad1"},"vehicle_type_id":"4","last_reported":1732640950,"current_range_meters":0,"station_id":"ce4bgj92rcd13ifvqbd0","pricing_plan_id":"cebpf4jnsgd1na2vs0mg"},{"bike_id":"5a64147f-da9a-40cb-a940-153001e1f291","system_id":"levelo_inurba_marseille","lat":43.29797,"lon":5.38189,"is_reserved":false,"is_disabled":true,"rental_uris":{"android":"levelo://app?vid=5a64147f-da9a-40cb-a940-153001e1f291","ios":"levelo://app?vid=5a64147f-da9a-40cb-a940-153001e1f291"},"vehicle_type_id":"4","last_reported":1732640950,"current_range_meters":30800,"station_id":"","pricing_plan_id":"cebpf4jnsgd1na2vs0mg"},{"bike_id":"7a245a49-7c27-4c22-84f6-de2abfde4b3b","system_id":"levelo_inurba_marseille","lat":43.25866,"lon":5.39898,"is_reserved":false,"is_disabled":false,"rental_uris":{"android":"levelo://app?vid=7a245a49-7c27-4c22-84f6-de2abfde4b3b","ios":"levelo://app?vid=7a245a49-7c27-4c22-84f6-de2abfde4b3b"},"vehicle_type_id":"4","last_reported":1732640950,"current_range_meters":16000,"station_id":"ce4bhl92rcd13ifvqghg","pricing_plan_id":"cebpf4jnsgd1na2vs0mg"},{"bike_id":"2d3ac0cf-9b0a-4e1a-a923-ea0c3542ce6a","system_id":"levelo_inurba_marseille","lat":43.26027,"lon":5.37553,"is_reserved":false,"is_disabled":false,"rental_uris":{"android":"levelo://app?vid=2d3ac0cf-9b0a-4e1a-a923-ea0c3542ce6a","ios":"levelo://app?vid=2d3ac0cf-9b0a-4e1a-a923-ea0c3542ce6a"},"vehicle_type_id":"4","last_reported":1732640950,"current_range_meters":8400,"station_id":"ce4bhgh2rcd13ifvqfa0","pricing_plan_id":"cebpf4jnsgd1na2vs0mg"},{"bike_id":"1ebc2642-599e-41e5-89df-308a45bbfcfb","system_id":"levelo_inurba_marseille","lat":43.32101,"lon":5.36778,"is_reserved":false,"is_disabled":false,"rental_uris":{"android":"levelo://app?vid=1ebc2642-599e-41e5-89df-308a45bbfcfb","ios":"levelo://app?vid=1ebc2642-599e-41e5-89df-308a45bbfcfb"},"vehicle_type_id":"4","last_reported":1732640950,"current_range_meters":12800,"station_id":"ce4bhrh2rcd13ifvqhug","pricing_plan_id":"cebpf4jnsgd1na2vs0mg"},{"bike_id":"f31dd265-d349-48bb-8f7d-61cab2d84cbb","system_id":"levelo_inurba_marseille","lat":43.29912,"lon":5.38136,"is_reserved":false,"is_disabled":false,"rental_uris":{"android":"levelo://app?vid=f31dd265-d349-48bb-8f7d-61cab2d84cbb","ios":"levelo://app?vid=f31dd265-d349-48bb-8f7d-61cab2d84cbb"},"vehicle_type_id":"4","last_reported":1732640950,"current_range_meters":19200,"station_id":"ce4bgj12rcd13ifvqbc0","pricing_plan_id":"cebpf4jnsgd1na2vs0mg"},{"bike_id":"9cb3f477-d4e9-4dfc-943a-574258c3c1c4","system_id":"levelo_inurba_marseille","lat":43.29219,"lon":5.38346,"is_reserved":false,"is_disabled":false,"rental_uris":{"android":"levelo://app?vid=9cb3f477-d4e9-4dfc-943a-574258c3c1c4","ios":"levelo://app?vid=9cb3f477-d4e9-4dfc-943a-574258c3c1c4"},"vehicle_type_id":"4","last_reported":1732640950,"current_range_meters":6400,"station_id":"","pricing_plan_id":"cebpf4jnsgd1na2vs0mg"},{"bike_id":"51b398f2-b539-440c-917f-0128fd59b7e4","system_id":"levelo_inurba_marseille","lat":43.28459,"lon":5.35889,"is_reserved":false,"is_disabled":false,"rental_uris":{"android":"levelo://app?vid=51b398f2-b539-440c-917f-0128fd59b7e4","ios":"levelo://app?vid=51b398f2-b539-440c-917f-0128fd59b7e4"},"vehicle_type_id":"4","last_reported":1732640950,"current_range_meters":24000,"station_id":"ce4bhah2rcd13ifvqei0","pricing_plan_id":"cebpf4jnsgd1na2vs0mg"},{"bike_id":"1cd78e3c-eca2-430e-a00b-3450b52eb373","system_id":"levelo_inurba_marseille","lat":43.22932,"lon":5.3538,"is_reserved":false,"is_disabled":true,"rental_uris":{"android":"levelo://app?vid=1cd78e3c-eca2-430e-a00b-3450b52eb373","ios":"levelo://app?vid=1cd78e3c-eca2-430e-a00b-3450b52eb373"},"vehicle_type_id":"4","last_reported":1732640950,"current_range_meters":0,"station_id":"cpo3532slgdg3j2ikp40","pricing_plan_id":"cebpf4jnsgd1na2vs0mg"},{"bike_id":"391001e2-7361-4b92-b20f-4fb1d1376b6e","system_id":"levelo_inurba_marseille","lat":43.231798,"lon":5.399903,"is_reserved":false,"is_disabled":true,"rental_uris":{"android":"levelo://app?vid=391001e2-7361-4b92-b20f-4fb1d1376b6e","ios":"levelo://app?vid=391001e2-7361-4b92-b20f-4fb1d1376b6e"},"vehicle_type_id":"4","last_reported":1732640950,"current_range_meters":0,"station_id":"ce4bhn12rcd13ifvqgqg","pricing_plan_id":"cebpf4jnsgd1na2vs0mg"},{"bike_id":"76dc3d7f-8ec9-4d57-8b02-9d3728e06bfa","system_id":"levelo_inurba_marseille","lat":43.30213,"lon":5.39466,"is_reserved":false,"is_disabled":true,"rental_uris":{"android":"levelo://app?vid=76dc3d7f-8ec9-4d57-8b02-9d3728e06bfa","ios":"levelo://app?vid=76dc3d7f-8ec9-4d57-8b02-9d3728e06bfa"},"vehicle_type_id":"4","last_reported":1732640950,"current_range_meters":0,"station_id":"ce4bh0p2rcd13ifvqd70","pricing_plan_id":"cebpf4jnsgd1na2vs0mg"},{"bike_id":"dadde2aa-7b9d-44bb-aa71-3d1e28ae10ff","system_id":"levelo_inurba_marseille","lat":43.27945,"lon":5.41043,"is_reserved":false,"is_disabled":false,"rental_uris":{"android":"levelo://app?vid=dadde2aa-7b9d-44bb-aa71-3d1e28ae10ff","ios":"levelo://app?vid=dadde2aa-7b9d-44bb-aa71-3d1e28ae10ff"},"vehicle_type_id":"4","last_reported":1732640950,"current_range_meters":28000,"station_id":"ce4bhnp2rcd13ifvqh0g","pricing_plan_id":"cebpf4jnsgd1na2vs0mg"},{"bike_id":"230d48b4-f1a1-453a-b131-8fe2607e94bb","system_id":"levelo_inurba_marseille","lat":43.29187,"lon":5.39329,"is_reserved":false,"is_disabled":false,"rental_uris":{"android":"levelo://app?vid=230d48b4-f1a1-453a-b131-8fe2607e94bb","ios":"levelo://app?vid=230d48b4-f1a1-453a-b131-8fe2607e94bb"},"vehicle_type_id":"4","last_reported":1732640950,"current_range_meters":25200,"station_id":"ce4bh192rcd13ifvqdd0","pricing_plan_id":"cebpf4jnsgd1na2vs0mg"},{"bike_id":"6522026c-0cb4-4f80-84f7-f39e7a137623","system_id":"levelo_inurba_marseille","lat":43.26806,"lon":5.402697,"is_reserved":false,"is_disabled":false,"rental_uris":{"android":"levelo://app?vid=6522026c-0cb4-4f80-84f7-f39e7a137623","ios":"levelo://app?vid=6522026c-0cb4-4f80-84f7-f39e7a137623"},"vehicle_type_id":"4","last_reported":1732640950,"current_range_meters":17600,"station_id":"ce501612rcd8frsf0b60","pricing_plan_id":"cebpf4jnsgd1na2vs0mg"},{"bike_id":"f80c5603-100c-4ff8-a693-c6c541628d7c","system_id":"levelo_inurba_marseille","lat":43.24649,"lon":5.38891,"is_reserved":false,"is_disabled":false,"rental_uris":{"android":"levelo://app?vid=f80c5603-100c-4ff8-a693-c6c541628d7c","ios":"levelo://app?vid=f80c5603-100c-4ff8-a693-c6c541628d7c"},"vehicle_type_id":"4","last_reported":1732640950,"current_range_meters":19200,"station_id":"ce4bhg12rcd13ifvqf60","pricing_plan_id":"cebpf4jnsgd1na2vs0mg"},{"bike_id":"ad147b94-4180-4578-a0fa-c4d1998acb2d","system_id":"levelo_inurba_marseille","lat":43.29043,"lon":5.35909,"is_reserved":false,"is_disabled":true,"rental_uris":{"android":"levelo://app?vid=ad147b94-4180-4578-a0fa-c4d1998acb2d","ios":"levelo://app?vid=ad147b94-4180-4578-a0fa-c4d1998acb2d"},"vehicle_type_id":"4","last_reported":1732640950,"current_range_meters":38800,"station_id":"ce4bha92rcd13ifvqeg0","pricing_plan_id":"cebpf4jnsgd1na2vs0mg"},{"bike_id":"2e95a691-d7d8-426b-8dba-47b6b56c6a41","system_id":"levelo_inurba_marseille","lat":43.28164,"lon":5.42642,"is_reserved":false,"is_disabled":false,"rental_uris":{"android":"levelo://app?vid=2e95a691-d7d8-426b-8dba-47b6b56c6a41","ios":"levelo://app?vid=2e95a691-d7d8-426b-8dba-47b6b56c6a41"},"vehicle_type_id":"4","last_reported":1732640950,"current_range_meters":4000,"station_id":"ce4bhnh2rcd13ifvqgug","pricing_plan_id":"cebpf4jnsgd1na2vs0mg"},{"bike_id":"e1023cd0-0598-4752-bca2-87e3d8646e5a","system_id":"levelo_inurba_marseille","lat":43.27379,"lon":5.36254,"is_reserved":false,"is_disabled":true,"rental_uris":{"android":"levelo://app?vid=e1023cd0-0598-4752-bca2-87e3d8646e5a","ios":"levelo://app?vid=e1023cd0-0598-4752-bca2-87e3d8646e5a"},"vehicle_type_id":"4","last_reported":1732640950,"current_range_meters":0,"station_id":"ce4bhbh2rcd13ifvqeo0","pricing_plan_id":"cebpf4jnsgd1na2vs0mg"},{"bike_id":"d6025d49-5c93-4f49-9e85-db3ba94f4197","system_id":"levelo_inurba_marseille","lat":43.23059,"lon":5.35491,"is_reserved":false,"is_disabled":false,"rental_uris":{"android":"levelo://app?vid=d6025d49-5c93-4f49-9e85-db3ba94f4197","ios":"levelo://app?vid=d6025d49-5c93-4f49-9e85-db3ba94f4197"},"vehicle_type_id":"4","last_reported":1732640950,"current_range_meters":28400,"station_id":"cpo3342slgdg3j2ifvpg","pricing_plan_id":"cebpf4jnsgd1na2vs0mg"},{"bike_id":"2e68222f-30cf-465f-9189-69aabdbbd1e6","system_id":"levelo_inurba_marseille","lat":43.31841,"lon":5.39005,"is_reserved":false,"is_disabled":false,"rental_uris":{"android":"levelo://app?vid=2e68222f-30cf-465f-9189-69aabdbbd1e6","ios":"levelo://app?vid=2e68222f-30cf-465f-9189-69aabdbbd1e6"},"vehicle_type_id":"4","last_reported":1732640950,"current_range_meters":29600,"station_id":"","pricing_plan_id":"cebpf4jnsgd1na2vs0mg"},{"bike_id":"9e78446a-17e4-4125-85b0-cbdca24f5c2e","system_id":"levelo_inurba_marseille","lat":43.23185,"lon":5.39986,"is_reserved":false,"is_disabled":false,"rental_uris":{"android":"levelo://app?vid=9e78446a-17e4-4125-85b0-cbdca24f5c2e","ios":"levelo://app?vid=9e78446a-17e4-4125-85b0-cbdca24f5c2e"},"vehicle_type_id":"4","last_reported":1732640950,"current_range_meters":19600,"station_id":"ce4bhn12rcd13ifvqgqg","pricing_plan_id":"cebpf4jnsgd1na2vs0mg"},{"bike_id":"3c4a72dc-b262-42a9-b143-1ab8cb560762","system_id":"levelo_inurba_marseille","lat":43.23193,"lon":5.355497,"is_reserved":false,"is_disabled":false,"rental_uris":{"android":"levelo://app?vid=3c4a72dc-b262-42a9-b143-1ab8cb560762","ios":"levelo://app?vid=3c4a72dc-b262-42a9-b143-1ab8cb560762"},"vehicle_type_id":"4","last_reported":1732640950,"current_range_meters":18000,"station_id":"ce4bhu92rcd13ifvqi70","pricing_plan_id":"cebpf4jnsgd1na2vs0mg"},{"bike_id":"6ae2c7cf-fcde-45c8-8036-e77bbd62b90f","system_id":"levelo_inurba_marseille","lat":43.28374,"lon":5.38631,"is_reserved":false,"is_disabled":false,"rental_uris":{"android":"levelo://app?vid=6ae2c7cf-fcde-45c8-8036-e77bbd62b90f","ios":"levelo://app?vid=6ae2c7cf-fcde-45c8-8036-e77bbd62b90f"},"vehicle_type_id":"4","last_reported":1732640950,"current_range_meters":23200,"station_id":"ce4bh492rcd13ifvqdvg","pricing_plan_id":"cebpf4jnsgd1na2vs0mg"},{"bike_id":"858b65e1-94fc-4151-a71e-8b168cb19dcb","system_id":"levelo_inurba_marseille","lat":43.32249,"lon":5.39241,"is_reserved":false,"is_disabled":true,"rental_uris":{"android":"levelo://app?vid=858b65e1-94fc-4151-a71e-8b168cb19dcb","ios":"levelo://app?vid=858b65e1-94fc-4151-a71e-8b168cb19dcb"},"vehicle_type_id":"4","last_reported":1732640950,"current_range_meters":0,"station_id":"","pricing_plan_id":"cebpf4jnsgd1na2vs0mg"},{"bike_id":"e51b2acb-d883-446b-9ce9-347608453ece","system_id":"levelo_inurba_marseille","lat":43.22943,"lon":5.35373,"is_reserved":false,"is_disabled":false,"rental_uris":{"android":"levelo://app?vid=e51b2acb-d883-446b-9ce9-347608453ece","ios":"levelo://app?vid=e51b2acb-d883-446b-9ce9-347608453ece"},"vehicle_type_id":"4","last_reported":1732640950,"current_range_meters":40000,"station_id":"cpo3532slgdg3j2ikp40","pricing_plan_id":"cebpf4jnsgd1na2vs0mg"},{"bike_id":"508e91e8-b1b1-455b-8584-bd8178c332be","system_id":"levelo_inurba_marseille","lat":43.23184,"lon":5.39986,"is_reserved":false,"is_disabled":false,"rental_uris":{"android":"levelo://app?vid=508e91e8-b1b1-455b-8584-bd8178c332be","ios":"levelo://app?vid=508e91e8-b1b1-455b-8584-bd8178c332be"},"vehicle_type_id":"4","last_reported":1732640950,"current_range_meters":19600,"station_id":"ce4bhn12rcd13ifvqgqg","pricing_plan_id":"cebpf4jnsgd1na2vs0mg"},{"bike_id":"714e8027-83f9-497b-81b0-56457e8cfd90","system_id":"levelo_inurba_marseille","lat":43.26943,"lon":5.40248,"is_reserved":false,"is_disabled":false,"rental_uris":{"android":"levelo://app?vid=714e8027-83f9-497b-81b0-56457e8cfd90","ios":"levelo://app?vid=714e8027-83f9-497b-81b0-56457e8cfd90"},"vehicle_type_id":"4","last_reported":1732640950,"current_range_meters":22400,"station_id":"cjm6bp8fraef2m0cb0m0","pricing_plan_id":"cebpf4jnsgd1na2vs0mg"},{"bike_id":"e56684af-a751-4c04-bbbf-8c304207b3ae","system_id":"levelo_inurba_marseille","lat":43.231949,"lon":5.355608,"is_reserved":false,"is_disabled":false,"rental_uris":{"android":"levelo://app?vid=e56684af-a751-4c04-bbbf-8c304207b3ae","ios":"levelo://app?vid=e56684af-a751-4c04-bbbf-8c304207b3ae"},"vehicle_type_id":"4","last_reported":1732640950,"current_range_meters":38800,"station_id":"ce4bhu92rcd13ifvqi70","pricing_plan_id":"cebpf4jnsgd1na2vs0mg"},{"bike_id":"f7f3756c-1ec7-4782-9c87-6273f87b6774","system_id":"levelo_inurba_marseille","lat":43.337444,"lon":5.374475,"is_reserved":false,"is_disabled":true,"rental_uris":{"android":"levelo://app?vid=f7f3756c-1ec7-4782-9c87-6273f87b6774","ios":"levelo://app?vid=f7f3756c-1ec7-4782-9c87-6273f87b6774"},"vehicle_type_id":"4","last_reported":1732640950,"current_range_meters":18800,"station_id":"","pricing_plan_id":"cebpf4jnsgd1na2vs0mg"},{"bike_id":"5ac84619-8500-415b-9629-5dc640523aaa","system_id":"levelo_inurba_marseille","lat":43.29526,"lon":5.375,"is_reserved":false,"is_disabled":true,"rental_uris":{"android":"levelo://app?vid=5ac84619-8500-415b-9629-5dc640523aaa","ios":"levelo://app?vid=5ac84619-8500-415b-9629-5dc640523aaa"},"vehicle_type_id":"4","last_reported":1732640950,"current_range_meters":16800,"station_id":"ce4bgkp2rcd13ifvqbmg","pricing_plan_id":"cebpf4jnsgd1na2vs0mg"},{"bike_id":"0fc724ac-45c6-4b8d-82c9-3032057c18e3","system_id":"levelo_inurba_marseille","lat":43.2861,"lon":5.37068,"is_reserved":false,"is_disabled":false,"rental_uris":{"android":"levelo://app?vid=0fc724ac-45c6-4b8d-82c9-3032057c18e3","ios":"levelo://app?vid=0fc724ac-45c6-4b8d-82c9-3032057c18e3"},"vehicle_type_id":"4","last_reported":1732640950,"current_range_meters":38000,"station_id":"ce4bht12rcd13ifvqi60","pricing_plan_id":"cebpf4jnsgd1na2vs0mg"},{"bike_id":"b5a8002b-75aa-4fd7-ab72-c1987bb3b233","system_id":"levelo_inurba_marseille","lat":43.28566,"lon":5.39499,"is_reserved":false,"is_disabled":false,"rental_uris":{"android":"levelo://app?vid=b5a8002b-75aa-4fd7-ab72-c1987bb3b233","ios":"levelo://app?vid=b5a8002b-75aa-4fd7-ab72-c1987bb3b233"},"vehicle_type_id":"4","last_reported":1732640950,"current_range_meters":32000,"station_id":"ce4bh292rcd13ifvqdg0","pricing_plan_id":"cebpf4jnsgd1na2vs0mg"},{"bike_id":"e74072b3-a02b-4151-87ff-4a55be046050","system_id":"levelo_inurba_marseille","lat":43.25088,"lon":5.39524,"is_reserved":false,"is_disabled":true,"rental_uris":{"android":"levelo://app?vid=e74072b3-a02b-4151-87ff-4a55be046050","ios":"levelo://app?vid=e74072b3-a02b-4151-87ff-4a55be046050"},"vehicle_type_id":"4","last_reported":1732640950,"current_range_meters":1200,"station_id":"ce4bhm12rcd13ifvqgkg","pricing_plan_id":"cebpf4jnsgd1na2vs0mg"},{"bike_id":"1c89c5b4-083f-4e52-8440-fa52a965f9b3","system_id":"levelo_inurba_marseille","lat":43.30547,"lon":5.36537,"is_reserved":false,"is_disabled":true,"rental_uris":{"android":"levelo://app?vid=1c89c5b4-083f-4e52-8440-fa52a965f9b3","ios":"levelo://app?vid=1c89c5b4-083f-4e52-8440-fa52a965f9b3"},"vehicle_type_id":"4","last_reported":1732640950,"current_range_meters":36400,"station_id":"ce4bgs12rcd13ifvqcag","pricing_plan_id":"cebpf4jnsgd1na2vs0mg"},{"bike_id":"d1b454f1-92dc-4abe-b6b9-06ec3b83ba72","system_id":"levelo_inurba_marseille","lat":43.299863,"lon":5.384828,"is_reserved":false,"is_disabled":false,"rental_uris":{"android":"levelo://app?vid=d1b454f1-92dc-4abe-b6b9-06ec3b83ba72","ios":"levelo://app?vid=d1b454f1-92dc-4abe-b6b9-06ec3b83ba72"},"vehicle_type_id":"4","last_reported":1732640950,"current_range_meters":9600,"station_id":"ce4bgj92rcd13ifvqbd0","pricing_plan_id":"cebpf4jnsgd1na2vs0mg"},{"bike_id":"8bdd8610-262d-4d9d-8c3d-0a7ccacc9829","system_id":"levelo_inurba_marseille","lat":43.28558,"lon":5.3946,"is_reserved":false,"is_disabled":false,"rental_uris":{"android":"levelo://app?vid=8bdd8610-262d-4d9d-8c3d-0a7ccacc9829","ios":"levelo://app?vid=8bdd8610-262d-4d9d-8c3d-0a7ccacc9829"},"vehicle_type_id":"4","last_reported":1732640950,"current_range_meters":25200,"station_id":"ce4bh292rcd13ifvqdg0","pricing_plan_id":"cebpf4jnsgd1na2vs0mg"},{"bike_id":"33411be9-8583-420f-b647-b40e5a90aaa7","system_id":"levelo_inurba_marseille","lat":43.25587,"lon":5.3823,"is_reserved":false,"is_disabled":false,"rental_uris":{"android":"levelo://app?vid=33411be9-8583-420f-b647-b40e5a90aaa7","ios":"levelo://app?vid=33411be9-8583-420f-b647-b40e5a90aaa7"},"vehicle_type_id":"4","last_reported":1732640950,"current_range_meters":3600,"station_id":"ce4bhih2rcd13ifvqfs0","pricing_plan_id":"cebpf4jnsgd1na2vs0mg"},{"bike_id":"a1e4c6c6-2f64-4874-8633-ea7f2cf7d72d","system_id":"levelo_inurba_marseille","lat":43.31084,"lon":5.38351,"is_reserved":false,"is_disabled":false,"rental_uris":{"android":"levelo://app?vid=a1e4c6c6-2f64-4874-8633-ea7f2cf7d72d","ios":"levelo://app?vid=a1e4c6c6-2f64-4874-8633-ea7f2cf7d72d"},"vehicle_type_id":"4","last_reported":1732640950,"current_range_meters":6400,"station_id":"ce4bgv92rcd13ifvqcr0","pricing_plan_id":"cebpf4jnsgd1na2vs0mg"},{"bike_id":"a5909545-3e09-4859-9fda-9ffe4e6e4883","system_id":"levelo_inurba_marseille","lat":43.23065,"lon":5.35491,"is_reserved":false,"is_disabled":false,"rental_uris":{"android":"levelo://app?vid=a5909545-3e09-4859-9fda-9ffe4e6e4883","ios":"levelo://app?vid=a5909545-3e09-4859-9fda-9ffe4e6e4883"},"vehicle_type_id":"4","last_reported":1732640950,"current_range_meters":30800,"station_id":"cpo3342slgdg3j2ifvpg","pricing_plan_id":"cebpf4jnsgd1na2vs0mg"},{"bike_id":"e4993cd3-a7bf-4389-9c22-9a19df6a2b3c","system_id":"levelo_inurba_marseille","lat":43.321155,"lon":5.36776,"is_reserved":false,"is_disabled":false,"rental_uris":{"android":"levelo://app?vid=e4993cd3-a7bf-4389-9c22-9a19df6a2b3c","ios":"levelo://app?vid=e4993cd3-a7bf-4389-9c22-9a19df6a2b3c"},"vehicle_type_id":"4","last_reported":1732640950,"current_range_meters":23200,"station_id":"ce4bhrh2rcd13ifvqhug","pricing_plan_id":"cebpf4jnsgd1na2vs0mg"},{"bike_id":"2ae4a374-1041-4d56-8c6f-d63e017b9386","system_id":"levelo_inurba_marseille","lat":43.28444,"lon":5.39202,"is_reserved":false,"is_disabled":false,"rental_uris":{"android":"levelo://app?vid=2ae4a374-1041-4d56-8c6f-d63e017b9386","ios":"levelo://app?vid=2ae4a374-1041-4d56-8c6f-d63e017b9386"},"vehicle_type_id":"4","last_reported":1732640950,"current_range_meters":20800,"station_id":"ce4bhoh2rcd13ifvqh5g","pricing_plan_id":"cebpf4jnsgd1na2vs0mg"},{"bike_id":"183deba8-5a90-48f5-9685-31133aa2014f","system_id":"levelo_inurba_marseille","lat":43.29718,"lon":5.36607,"is_reserved":false,"is_disabled":false,"rental_uris":{"android":"levelo://app?vid=183deba8-5a90-48f5-9685-31133aa2014f","ios":"levelo://app?vid=183deba8-5a90-48f5-9685-31133aa2014f"},"vehicle_type_id":"4","last_reported":1732640950,"current_range_meters":38400,"station_id":"ce4bgn12rcd13ifvqbt0","pricing_plan_id":"cebpf4jnsgd1na2vs0mg"},{"bike_id":"e5951ee3-4a5a-4ebb-b469-096c5188dfa3","system_id":"levelo_inurba_marseille","lat":43.231882,"lon":5.355573,"is_reserved":false,"is_disabled":false,"rental_uris":{"android":"levelo://app?vid=e5951ee3-4a5a-4ebb-b469-096c5188dfa3","ios":"levelo://app?vid=e5951ee3-4a5a-4ebb-b469-096c5188dfa3"},"vehicle_type_id":"4","last_reported":1732640950,"current_range_meters":36000,"station_id":"ce4bhu92rcd13ifvqi70","pricing_plan_id":"cebpf4jnsgd1na2vs0mg"},{"bike_id":"9d82296a-110c-43f3-ba6e-dfffe6ce67ce","system_id":"levelo_inurba_marseille","lat":43.26945,"lon":5.40254,"is_reserved":false,"is_disabled":false,"rental_uris":{"android":"levelo://app?vid=9d82296a-110c-43f3-ba6e-dfffe6ce67ce","ios":"levelo://app?vid=9d82296a-110c-43f3-ba6e-dfffe6ce67ce"},"vehicle_type_id":"4","last_reported":1732640950,"current_range_meters":14000,"station_id":"cjm6bp8fraef2m0cb0m0","pricing_plan_id":"cebpf4jnsgd1na2vs0mg"},{"bike_id":"1e4fb2bd-ce0d-41e1-80eb-49ee69d283ae","system_id":"levelo_inurba_marseille","lat":43.30588,"lon":5.39345,"is_reserved":false,"is_disabled":false,"rental_uris":{"android":"levelo://app?vid=1e4fb2bd-ce0d-41e1-80eb-49ee69d283ae","ios":"levelo://app?vid=1e4fb2bd-ce0d-41e1-80eb-49ee69d283ae"},"vehicle_type_id":"4","last_reported":1732640950,"current_range_meters":3600,"station_id":"ce4bh0p2rcd13ifvqd80","pricing_plan_id":"cebpf4jnsgd1na2vs0mg"},{"bike_id":"3379f44f-c07d-4ec3-b622-4c7ff9c0b74e","system_id":"levelo_inurba_marseille","lat":43.2319,"lon":5.35548,"is_reserved":false,"is_disabled":false,"rental_uris":{"android":"levelo://app?vid=3379f44f-c07d-4ec3-b622-4c7ff9c0b74e","ios":"levelo://app?vid=3379f44f-c07d-4ec3-b622-4c7ff9c0b74e"},"vehicle_type_id":"4","last_reported":1732640950,"current_range_meters":9200,"station_id":"ce4bhu92rcd13ifvqi70","pricing_plan_id":"cebpf4jnsgd1na2vs0mg"},{"bike_id":"6c948e9c-d5b3-4fe5-a918-1bd2f7c83b02","system_id":"levelo_inurba_marseille","lat":43.321178,"lon":5.367787,"is_reserved":false,"is_disabled":false,"rental_uris":{"android":"levelo://app?vid=6c948e9c-d5b3-4fe5-a918-1bd2f7c83b02","ios":"levelo://app?vid=6c948e9c-d5b3-4fe5-a918-1bd2f7c83b02"},"vehicle_type_id":"4","last_reported":1732640950,"current_range_meters":18000,"station_id":"ce4bhrh2rcd13ifvqhug","pricing_plan_id":"cebpf4jnsgd1na2vs0mg"},{"bike_id":"9e620abf-d324-4f99-84fc-d67e71109f2a","system_id":"levelo_inurba_marseille","lat":43.31077,"lon":5.42435,"is_reserved":false,"is_disabled":true,"rental_uris":{"android":"levelo://app?vid=9e620abf-d324-4f99-84fc-d67e71109f2a","ios":"levelo://app?vid=9e620abf-d324-4f99-84fc-d67e71109f2a"},"vehicle_type_id":"4","last_reported":1732640950,"current_range_meters":0,"station_id":"ce4bhp92rcd13ifvqhag","pricing_plan_id":"cebpf4jnsgd1na2vs0mg"},{"bike_id":"311c22a9-d002-4f76-a390-2ec196f39862","system_id":"levelo_inurba_marseille","lat":43.31025,"lon":5.38342,"is_reserved":false,"is_disabled":true,"rental_uris":{"android":"levelo://app?vid=311c22a9-d002-4f76-a390-2ec196f39862","ios":"levelo://app?vid=311c22a9-d002-4f76-a390-2ec196f39862"},"vehicle_type_id":"4","last_reported":1732640950,"current_range_meters":0,"station_id":"","pricing_plan_id":"cebpf4jnsgd1na2vs0mg"},{"bike_id":"047f1f9d-58af-4872-9794-3b5fe9f3ce18","system_id":"levelo_inurba_marseille","lat":43.31329,"lon":5.39713,"is_reserved":false,"is_disabled":false,"rental_uris":{"android":"levelo://app?vid=047f1f9d-58af-4872-9794-3b5fe9f3ce18","ios":"levelo://app?vid=047f1f9d-58af-4872-9794-3b5fe9f3ce18"},"vehicle_type_id":"4","last_reported":1732640950,"current_range_meters":36800,"station_id":"ce4bgvp2rcd13ifvqcu0","pricing_plan_id":"cebpf4jnsgd1na2vs0mg"},{"bike_id":"840c4f44-99e6-40cb-96ba-18428e3df75f","system_id":"levelo_inurba_marseille","lat":43.27683,"lon":5.38864,"is_reserved":false,"is_disabled":false,"rental_uris":{"android":"levelo://app?vid=840c4f44-99e6-40cb-96ba-18428e3df75f","ios":"levelo://app?vid=840c4f44-99e6-40cb-96ba-18428e3df75f"},"vehicle_type_id":"4","last_reported":1732640950,"current_range_meters":29600,"station_id":"ce4bhi12rcd13ifvqfo0","pricing_plan_id":"cebpf4jnsgd1na2vs0mg"},{"bike_id":"991b2b27-c7f1-4024-af16-685c52b8aeac","system_id":"levelo_inurba_marseille","lat":43.27191,"lon":5.40984,"is_reserved":false,"is_disabled":false,"rental_uris":{"android":"levelo://app?vid=991b2b27-c7f1-4024-af16-685c52b8aeac","ios":"levelo://app?vid=991b2b27-c7f1-4024-af16-685c52b8aeac"},"vehicle_type_id":"4","last_reported":1732640950,"current_range_meters":39200,"station_id":"ce4bhl12rcd13ifvqgf0","pricing_plan_id":"cebpf4jnsgd1na2vs0mg"},{"bike_id":"5c53cfbd-2547-413a-b79a-f8cc3b1ca992","system_id":"levelo_inurba_marseille","lat":43.32111,"lon":5.36772,"is_reserved":false,"is_disabled":false,"rental_uris":{"android":"levelo://app?vid=5c53cfbd-2547-413a-b79a-f8cc3b1ca992","ios":"levelo://app?vid=5c53cfbd-2547-413a-b79a-f8cc3b1ca992"},"vehicle_type_id":"4","last_reported":1732640950,"current_range_meters":31200,"station_id":"ce4bhrh2rcd13ifvqhug","pricing_plan_id":"cebpf4jnsgd1na2vs0mg"},{"bike_id":"a42119cb-2889-43e2-aa4f-9707a87e3e28","system_id":"levelo_inurba_marseille","lat":43.24654,"lon":5.389,"is_reserved":false,"is_disabled":false,"rental_uris":{"android":"levelo://app?vid=a42119cb-2889-43e2-aa4f-9707a87e3e28","ios":"levelo://app?vid=a42119cb-2889-43e2-aa4f-9707a87e3e28"},"vehicle_type_id":"4","last_reported":1732640950,"current_range_meters":34800,"station_id":"ce4bhg12rcd13ifvqf60","pricing_plan_id":"cebpf4jnsgd1na2vs0mg"},{"bike_id":"ab41eea0-825b-4e8e-b96e-dcef945151f3","system_id":"levelo_inurba_marseille","lat":43.29263,"lon":5.40896,"is_reserved":false,"is_disabled":true,"rental_uris":{"android":"levelo://app?vid=ab41eea0-825b-4e8e-b96e-dcef945151f3","ios":"levelo://app?vid=ab41eea0-825b-4e8e-b96e-dcef945151f3"},"vehicle_type_id":"4","last_reported":1732640950,"current_range_meters":0,"station_id":"ce4bh192rcd13ifvqdc0","pricing_plan_id":"cebpf4jnsgd1na2vs0mg"},{"bike_id":"e3910269-0960-41ab-9a5c-2f153c15e14c","system_id":"levelo_inurba_marseille","lat":43.25583,"lon":5.38224,"is_reserved":false,"is_disabled":true,"rental_uris":{"android":"levelo://app?vid=e3910269-0960-41ab-9a5c-2f153c15e14c","ios":"levelo://app?vid=e3910269-0960-41ab-9a5c-2f153c15e14c"},"vehicle_type_id":"4","last_reported":1732640950,"current_range_meters":0,"station_id":"ce4bhih2rcd13ifvqfs0","pricing_plan_id":"cebpf4jnsgd1na2vs0mg"},{"bike_id":"d1d1d892-f61b-4f63-8f1c-2d4a3b3762af","system_id":"levelo_inurba_marseille","lat":43.23959,"lon":5.36631,"is_reserved":false,"is_disabled":false,"rental_uris":{"android":"levelo://app?vid=d1d1d892-f61b-4f63-8f1c-2d4a3b3762af","ios":"levelo://app?vid=d1d1d892-f61b-4f63-8f1c-2d4a3b3762af"},"vehicle_type_id":"4","last_reported":1732640950,"current_range_meters":4000,"station_id":"ce4bhi12rcd13ifvqfp0","pricing_plan_id":"cebpf4jnsgd1na2vs0mg"},{"bike_id":"fa144a4c-96d3-4e7c-8326-1c70016beba9","system_id":"levelo_inurba_marseille","lat":43.27966,"lon":5.38731,"is_reserved":false,"is_disabled":true,"rental_uris":{"android":"levelo://app?vid=fa144a4c-96d3-4e7c-8326-1c70016beba9","ios":"levelo://app?vid=fa144a4c-96d3-4e7c-8326-1c70016beba9"},"vehicle_type_id":"4","last_reported":1732640950,"current_range_meters":400,"station_id":"ce4bhg12rcd13ifvqf80","pricing_plan_id":"cebpf4jnsgd1na2vs0mg"},{"bike_id":"276c8eac-f26f-4d52-8494-1e5f39f12889","system_id":"levelo_inurba_marseille","lat":43.25588,"lon":5.38233,"is_reserved":false,"is_disabled":true,"rental_uris":{"android":"levelo://app?vid=276c8eac-f26f-4d52-8494-1e5f39f12889","ios":"levelo://app?vid=276c8eac-f26f-4d52-8494-1e5f39f12889"},"vehicle_type_id":"4","last_reported":1732640950,"current_range_meters":0,"station_id":"ce4bhih2rcd13ifvqfs0","pricing_plan_id":"cebpf4jnsgd1na2vs0mg"},{"bike_id":"99470580-0bed-4a27-ad6b-75995359caf8","system_id":"levelo_inurba_marseille","lat":43.27992,"lon":5.41661,"is_reserved":false,"is_disabled":false,"rental_uris":{"android":"levelo://app?vid=99470580-0bed-4a27-ad6b-75995359caf8","ios":"levelo://app?vid=99470580-0bed-4a27-ad6b-75995359caf8"},"vehicle_type_id":"4","last_reported":1732640950,"current_range_meters":28400,"station_id":"ce4bho12rcd13ifvqh1g","pricing_plan_id":"cebpf4jnsgd1na2vs0mg"},{"bike_id":"f46fe211-892a-41f9-a969-7fae781e0a4e","system_id":"levelo_inurba_marseille","lat":43.28415,"lon":5.34978,"is_reserved":false,"is_disabled":false,"rental_uris":{"android":"levelo://app?vid=f46fe211-892a-41f9-a969-7fae781e0a4e","ios":"levelo://app?vid=f46fe211-892a-41f9-a969-7fae781e0a4e"},"vehicle_type_id":"4","last_reported":1732640950,"current_range_meters":20000,"station_id":"ce4bhbh2rcd13ifvqepg","pricing_plan_id":"cebpf4jnsgd1na2vs0mg"},{"bike_id":"17700844-0f62-4cd3-bc5b-72a98e8e0a87","system_id":"levelo_inurba_marseille","lat":43.2974,"lon":5.3865,"is_reserved":false,"is_disabled":false,"rental_uris":{"android":"levelo://app?vid=17700844-0f62-4cd3-bc5b-72a98e8e0a87","ios":"levelo://app?vid=17700844-0f62-4cd3-bc5b-72a98e8e0a87"},"vehicle_type_id":"4","last_reported":1732640950,"current_range_meters":36800,"station_id":"","pricing_plan_id":"cebpf4jnsgd1na2vs0mg"},{"bike_id":"dbbc7285-a3e8-47ae-b025-e5815b98f3bd","system_id":"levelo_inurba_marseille","lat":43.26493,"lon":5.3954,"is_reserved":false,"is_disabled":false,"rental_uris":{"android":"levelo://app?vid=dbbc7285-a3e8-47ae-b025-e5815b98f3bd","ios":"levelo://app?vid=dbbc7285-a3e8-47ae-b025-e5815b98f3bd"},"vehicle_type_id":"4","last_reported":1732640950,"current_range_meters":26000,"station_id":"ce4bhi12rcd13ifvqfq0","pricing_plan_id":"cebpf4jnsgd1na2vs0mg"},{"bike_id":"43746d86-8a13-4845-9faf-ae69b548d714","system_id":"levelo_inurba_marseille","lat":43.29459,"lon":5.37917,"is_reserved":false,"is_disabled":true,"rental_uris":{"android":"levelo://app?vid=43746d86-8a13-4845-9faf-ae69b548d714","ios":"levelo://app?vid=43746d86-8a13-4845-9faf-ae69b548d714"},"vehicle_type_id":"4","last_reported":1732640950,"current_range_meters":0,"station_id":"","pricing_plan_id":"cebpf4jnsgd1na2vs0mg"},{"bike_id":"e6a98e09-efc5-4507-9fb0-a56012aa8712","system_id":"levelo_inurba_marseille","lat":43.28156,"lon":5.42639,"is_reserved":false,"is_disabled":true,"rental_uris":{"android":"levelo://app?vid=e6a98e09-efc5-4507-9fb0-a56012aa8712","ios":"levelo://app?vid=e6a98e09-efc5-4507-9fb0-a56012aa8712"},"vehicle_type_id":"4","last_reported":1732640950,"current_range_meters":0,"station_id":"ce4bhnh2rcd13ifvqgug","pricing_plan_id":"cebpf4jnsgd1na2vs0mg"},{"bike_id":"49ad9574-b0d7-498d-8456-68bdd40aec93","system_id":"levelo_inurba_marseille","lat":43.24666,"lon":5.38162,"is_reserved":false,"is_disabled":true,"rental_uris":{"android":"levelo://app?vid=49ad9574-b0d7-498d-8456-68bdd40aec93","ios":"levelo://app?vid=49ad9574-b0d7-498d-8456-68bdd40aec93"},"vehicle_type_id":"4","last_reported":1732640950,"current_range_meters":0,"station_id":"ce4bhih2rcd13ifvqfr0","pricing_plan_id":"cebpf4jnsgd1na2vs0mg"},{"bike_id":"df76b7bf-b879-4e94-9796-439ee296ef0a","system_id":"levelo_inurba_marseille","lat":43.22932,"lon":5.35379,"is_reserved":false,"is_disabled":false,"rental_uris":{"android":"levelo://app?vid=df76b7bf-b879-4e94-9796-439ee296ef0a","ios":"levelo://app?vid=df76b7bf-b879-4e94-9796-439ee296ef0a"},"vehicle_type_id":"4","last_reported":1732640950,"current_range_meters":3600,"station_id":"cpo3532slgdg3j2ikp40","pricing_plan_id":"cebpf4jnsgd1na2vs0mg"},{"bike_id":"d77d87da-0a64-45af-aa4e-d5938a80914f","system_id":"levelo_inurba_marseille","lat":43.28937,"lon":5.38381,"is_reserved":false,"is_disabled":false,"rental_uris":{"android":"levelo://app?vid=d77d87da-0a64-45af-aa4e-d5938a80914f","ios":"levelo://app?vid=d77d87da-0a64-45af-aa4e-d5938a80914f"},"vehicle_type_id":"4","last_reported":1732640950,"current_range_meters":12000,"station_id":"ce4bh612rcd13ifvqe6g","pricing_plan_id":"cebpf4jnsgd1na2vs0mg"},{"bike_id":"f971abee-70f8-43dc-afe4-4050ccc8c3f7","system_id":"levelo_inurba_marseille","lat":43.2586,"lon":5.39906,"is_reserved":false,"is_disabled":true,"rental_uris":{"android":"levelo://app?vid=f971abee-70f8-43dc-afe4-4050ccc8c3f7","ios":"levelo://app?vid=f971abee-70f8-43dc-afe4-4050ccc8c3f7"},"vehicle_type_id":"4","last_reported":1732640950,"current_range_meters":36000,"station_id":"ce4bhl92rcd13ifvqghg","pricing_plan_id":"cebpf4jnsgd1na2vs0mg"},{"bike_id":"a18f76e8-ec69-40ef-9248-f70da5f3b595","system_id":"levelo_inurba_marseille","lat":43.25874,"lon":5.39896,"is_reserved":false,"is_disabled":false,"rental_uris":{"android":"levelo://app?vid=a18f76e8-ec69-40ef-9248-f70da5f3b595","ios":"levelo://app?vid=a18f76e8-ec69-40ef-9248-f70da5f3b595"},"vehicle_type_id":"4","last_reported":1732640950,"current_range_meters":24800,"station_id":"ce4bhl92rcd13ifvqghg","pricing_plan_id":"cebpf4jnsgd1na2vs0mg"},{"bike_id":"3faf8b2f-845f-4fd3-8bc7-04d1158d9692","system_id":"levelo_inurba_marseille","lat":43.33025,"lon":5.39048,"is_reserved":false,"is_disabled":false,"rental_uris":{"android":"levelo://app?vid=3faf8b2f-845f-4fd3-8bc7-04d1158d9692","ios":"levelo://app?vid=3faf8b2f-845f-4fd3-8bc7-04d1158d9692"},"vehicle_type_id":"4","last_reported":1732640950,"current_range_meters":27200,"station_id":"ce4bhr92rcd13ifvqhrg","pricing_plan_id":"cebpf4jnsgd1na2vs0mg"},{"bike_id":"e7460022-31fd-402a-a7ef-8683c63ea026","system_id":"levelo_inurba_marseille","lat":43.30886,"lon":5.39643,"is_reserved":false,"is_disabled":false,"rental_uris":{"android":"levelo://app?vid=e7460022-31fd-402a-a7ef-8683c63ea026","ios":"levelo://app?vid=e7460022-31fd-402a-a7ef-8683c63ea026"},"vehicle_type_id":"4","last_reported":1732640950,"current_range_meters":6000,"station_id":"ce4bh012rcd13ifvqcv0","pricing_plan_id":"cebpf4jnsgd1na2vs0mg"},{"bike_id":"a077a7bd-d44b-4ca0-96c1-49693516b3b4","system_id":"levelo_inurba_marseille","lat":43.33766,"lon":5.37433,"is_reserved":false,"is_disabled":false,"rental_uris":{"android":"levelo://app?vid=a077a7bd-d44b-4ca0-96c1-49693516b3b4","ios":"levelo://app?vid=a077a7bd-d44b-4ca0-96c1-49693516b3b4"},"vehicle_type_id":"4","last_reported":1732640950,"current_range_meters":38400,"station_id":"","pricing_plan_id":"cebpf4jnsgd1na2vs0mg"},{"bike_id":"925d9d68-1b01-45a4-af19-d1a58d7476b9","system_id":"levelo_inurba_marseille","lat":43.312042,"lon":5.367348,"is_reserved":false,"is_disabled":true,"rental_uris":{"android":"levelo://app?vid=925d9d68-1b01-45a4-af19-d1a58d7476b9","ios":"levelo://app?vid=925d9d68-1b01-45a4-af19-d1a58d7476b9"},"vehicle_type_id":"4","last_reported":1732640950,"current_range_meters":0,"station_id":"","pricing_plan_id":"cebpf4jnsgd1na2vs0mg"},{"bike_id":"e3a9ff25-e192-4aec-af57-758c56bd5f8b","system_id":"levelo_inurba_marseille","lat":43.26033,"lon":5.37548,"is_reserved":false,"is_disabled":false,"rental_uris":{"android":"levelo://app?vid=e3a9ff25-e192-4aec-af57-758c56bd5f8b","ios":"levelo://app?vid=e3a9ff25-e192-4aec-af57-758c56bd5f8b"},"vehicle_type_id":"4","last_reported":1732640950,"current_range_meters":24000,"station_id":"ce4bhgh2rcd13ifvqfa0","pricing_plan_id":"cebpf4jnsgd1na2vs0mg"},{"bike_id":"5f503683-7a03-4325-a43e-a7cd20ee04ed","system_id":"levelo_inurba_marseille","lat":43.29529,"lon":5.39051,"is_reserved":false,"is_disabled":false,"rental_uris":{"android":"levelo://app?vid=5f503683-7a03-4325-a43e-a7cd20ee04ed","ios":"levelo://app?vid=5f503683-7a03-4325-a43e-a7cd20ee04ed"},"vehicle_type_id":"4","last_reported":1732640950,"current_range_meters":38800,"station_id":"ce4bh3p2rcd13ifvqdp0","pricing_plan_id":"cebpf4jnsgd1na2vs0mg"},{"bike_id":"60366b91-dfba-451c-b2f1-0c2a18308bdf","system_id":"levelo_inurba_marseille","lat":43.22929,"lon":5.35378,"is_reserved":false,"is_disabled":false,"rental_uris":{"android":"levelo://app?vid=60366b91-dfba-451c-b2f1-0c2a18308bdf","ios":"levelo://app?vid=60366b91-dfba-451c-b2f1-0c2a18308bdf"},"vehicle_type_id":"4","last_reported":1732640950,"current_range_meters":40000,"station_id":"cpo3532slgdg3j2ikp40","pricing_plan_id":"cebpf4jnsgd1na2vs0mg"},{"bike_id":"216b389a-7609-49a8-8352-d67544cc0dc6","system_id":"levelo_inurba_marseille","lat":43.3107,"lon":5.38354,"is_reserved":false,"is_disabled":false,"rental_uris":{"android":"levelo://app?vid=216b389a-7609-49a8-8352-d67544cc0dc6","ios":"levelo://app?vid=216b389a-7609-49a8-8352-d67544cc0dc6"},"vehicle_type_id":"4","last_reported":1732640950,"current_range_meters":2800,"station_id":"ce4bgv92rcd13ifvqcr0","pricing_plan_id":"cebpf4jnsgd1na2vs0mg"},{"bike_id":"b49bed6b-48eb-4e5e-952d-1abc0a8ba5fd","system_id":"levelo_inurba_marseille","lat":43.28926,"lon":5.36635,"is_reserved":false,"is_disabled":false,"rental_uris":{"android":"levelo://app?vid=b49bed6b-48eb-4e5e-952d-1abc0a8ba5fd","ios":"levelo://app?vid=b49bed6b-48eb-4e5e-952d-1abc0a8ba5fd"},"vehicle_type_id":"4","last_reported":1732640950,"current_range_meters":38400,"station_id":"ce4bhap2rcd13ifvqek0","pricing_plan_id":"cebpf4jnsgd1na2vs0mg"},{"bike_id":"d9ef5ed5-65f4-4a4b-8dbb-274b0e908852","system_id":"levelo_inurba_marseille","lat":43.2417,"lon":5.36398,"is_reserved":false,"is_disabled":false,"rental_uris":{"android":"levelo://app?vid=d9ef5ed5-65f4-4a4b-8dbb-274b0e908852","ios":"levelo://app?vid=d9ef5ed5-65f4-4a4b-8dbb-274b0e908852"},"vehicle_type_id":"4","last_reported":1732640950,"current_range_meters":28400,"station_id":"cpo36qri1sfpv3e86is0","pricing_plan_id":"cebpf4jnsgd1na2vs0mg"},{"bike_id":"5637ffac-6061-4504-94a5-bbd993e9ac58","system_id":"levelo_inurba_marseille","lat":43.232,"lon":5.35551,"is_reserved":false,"is_disabled":false,"rental_uris":{"android":"levelo://app?vid=5637ffac-6061-4504-94a5-bbd993e9ac58","ios":"levelo://app?vid=5637ffac-6061-4504-94a5-bbd993e9ac58"},"vehicle_type_id":"4","last_reported":1732640950,"current_range_meters":22800,"station_id":"ce4bhu92rcd13ifvqi70","pricing_plan_id":"cebpf4jnsgd1na2vs0mg"},{"bike_id":"cc15c746-fc06-4900-9403-b9853bb7eadb","system_id":"levelo_inurba_marseille","lat":43.26504,"lon":5.39534,"is_reserved":false,"is_disabled":false,"rental_uris":{"android":"levelo://app?vid=cc15c746-fc06-4900-9403-b9853bb7eadb","ios":"levelo://app?vid=cc15c746-fc06-4900-9403-b9853bb7eadb"},"vehicle_type_id":"4","last_reported":1732640950,"current_range_meters":30000,"station_id":"ce4bhi12rcd13ifvqfq0","pricing_plan_id":"cebpf4jnsgd1na2vs0mg"},{"bike_id":"2e811913-6ffa-4633-8b4f-ef93c000f620","system_id":"levelo_inurba_marseille","lat":43.28269,"lon":5.35063,"is_reserved":false,"is_disabled":true,"rental_uris":{"android":"levelo://app?vid=2e811913-6ffa-4633-8b4f-ef93c000f620","ios":"levelo://app?vid=2e811913-6ffa-4633-8b4f-ef93c000f620"},"vehicle_type_id":"4","last_reported":1732640950,"current_range_meters":0,"station_id":"ce4bhbp2rcd13ifvqerg","pricing_plan_id":"cebpf4jnsgd1na2vs0mg"},{"bike_id":"bd65ef63-b11f-4434-94d0-b65a0721f25b","system_id":"levelo_inurba_marseille","lat":43.30416,"lon":5.41285,"is_reserved":false,"is_disabled":false,"rental_uris":{"android":"levelo://app?vid=bd65ef63-b11f-4434-94d0-b65a0721f25b","ios":"levelo://app?vid=bd65ef63-b11f-4434-94d0-b65a0721f25b"},"vehicle_type_id":"4","last_reported":1732640950,"current_range_meters":40000,"station_id":"ce4bhop2rcd13ifvqh8g","pricing_plan_id":"cebpf4jnsgd1na2vs0mg"},{"bike_id":"3a19d45d-a757-417c-b54e-92314bcfae61","system_id":"levelo_inurba_marseille","lat":43.26948,"lon":5.38628,"is_reserved":false,"is_disabled":true,"rental_uris":{"android":"levelo://app?vid=3a19d45d-a757-417c-b54e-92314bcfae61","ios":"levelo://app?vid=3a19d45d-a757-417c-b54e-92314bcfae61"},"vehicle_type_id":"4","last_reported":1732640950,"current_range_meters":0,"station_id":"ce4bhh92rcd13ifvqfh0","pricing_plan_id":"cebpf4jnsgd1na2vs0mg"},{"bike_id":"75307887-00fc-43a9-af8b-6a034b645f94","system_id":"levelo_inurba_marseille","lat":43.26829,"lon":5.39359,"is_reserved":false,"is_disabled":true,"rental_uris":{"android":"levelo://app?vid=75307887-00fc-43a9-af8b-6a034b645f94","ios":"levelo://app?vid=75307887-00fc-43a9-af8b-6a034b645f94"},"vehicle_type_id":"4","last_reported":1732640950,"current_range_meters":0,"station_id":"ce4bhh12rcd13ifvqfg0","pricing_plan_id":"cebpf4jnsgd1na2vs0mg"},{"bike_id":"505e70eb-6051-4a94-b2ec-eb3ef0543649","system_id":"levelo_inurba_marseille","lat":43.24998,"lon":5.3893,"is_reserved":false,"is_disabled":false,"rental_uris":{"android":"levelo://app?vid=505e70eb-6051-4a94-b2ec-eb3ef0543649","ios":"levelo://app?vid=505e70eb-6051-4a94-b2ec-eb3ef0543649"},"vehicle_type_id":"4","last_reported":1732640950,"current_range_meters":24400,"station_id":"ce4bhgp2rcd13ifvqfd0","pricing_plan_id":"cebpf4jnsgd1na2vs0mg"},{"bike_id":"dbcd1629-2994-41e2-a86f-23208f8f804a","system_id":"levelo_inurba_marseille","lat":43.29548,"lon":5.42288,"is_reserved":false,"is_disabled":false,"rental_uris":{"android":"levelo://app?vid=dbcd1629-2994-41e2-a86f-23208f8f804a","ios":"levelo://app?vid=dbcd1629-2994-41e2-a86f-23208f8f804a"},"vehicle_type_id":"4","last_reported":1732640950,"current_range_meters":39200,"station_id":"ce4bhph2rcd13ifvqhdg","pricing_plan_id":"cebpf4jnsgd1na2vs0mg"},{"bike_id":"dd771d3c-1bff-451c-9d0a-985d99bb56af","system_id":"levelo_inurba_marseille","lat":43.29587,"lon":5.36996,"is_reserved":false,"is_disabled":false,"rental_uris":{"android":"levelo://app?vid=dd771d3c-1bff-451c-9d0a-985d99bb56af","ios":"levelo://app?vid=dd771d3c-1bff-451c-9d0a-985d99bb56af"},"vehicle_type_id":"4","last_reported":1732640950,"current_range_meters":9600,"station_id":"","pricing_plan_id":"cebpf4jnsgd1na2vs0mg"},{"bike_id":"c3119d11-ef1f-44cf-b2d7-09e415adb754","system_id":"levelo_inurba_marseille","lat":43.28586,"lon":5.39488,"is_reserved":false,"is_disabled":false,"rental_uris":{"android":"levelo://app?vid=c3119d11-ef1f-44cf-b2d7-09e415adb754","ios":"levelo://app?vid=c3119d11-ef1f-44cf-b2d7-09e415adb754"},"vehicle_type_id":"4","last_reported":1732640950,"current_range_meters":36800,"station_id":"ce4bh292rcd13ifvqdg0","pricing_plan_id":"cebpf4jnsgd1na2vs0mg"},{"bike_id":"d51e7c27-01a2-4b89-a037-e0b09ebe0ab5","system_id":"levelo_inurba_marseille","lat":43.30244,"lon":5.39586,"is_reserved":false,"is_disabled":false,"rental_uris":{"android":"levelo://app?vid=d51e7c27-01a2-4b89-a037-e0b09ebe0ab5","ios":"levelo://app?vid=d51e7c27-01a2-4b89-a037-e0b09ebe0ab5"},"vehicle_type_id":"4","last_reported":1732640950,"current_range_meters":8800,"station_id":"","pricing_plan_id":"cebpf4jnsgd1na2vs0mg"},{"bike_id":"5b739bbe-6641-42b7-8cd0-17d6fe1b99d1","system_id":"levelo_inurba_marseille","lat":43.2649,"lon":5.39551,"is_reserved":false,"is_disabled":true,"rental_uris":{"android":"levelo://app?vid=5b739bbe-6641-42b7-8cd0-17d6fe1b99d1","ios":"levelo://app?vid=5b739bbe-6641-42b7-8cd0-17d6fe1b99d1"},"vehicle_type_id":"4","last_reported":1732640950,"current_range_meters":0,"station_id":"ce4bhi12rcd13ifvqfq0","pricing_plan_id":"cebpf4jnsgd1na2vs0mg"},{"bike_id":"7e04bb67-c24d-44da-93e9-2e0567bf10fa","system_id":"levelo_inurba_marseille","lat":43.23152,"lon":5.43713,"is_reserved":false,"is_disabled":true,"rental_uris":{"android":"levelo://app?vid=7e04bb67-c24d-44da-93e9-2e0567bf10fa","ios":"levelo://app?vid=7e04bb67-c24d-44da-93e9-2e0567bf10fa"},"vehicle_type_id":"4","last_reported":1732640950,"current_range_meters":0,"station_id":"ce4bhmp2rcd13ifvqgog","pricing_plan_id":"cebpf4jnsgd1na2vs0mg"},{"bike_id":"33ceb568-943a-49f6-b687-a2063caed5bf","system_id":"levelo_inurba_marseille","lat":43.26796,"lon":5.40213,"is_reserved":false,"is_disabled":true,"rental_uris":{"android":"levelo://app?vid=33ceb568-943a-49f6-b687-a2063caed5bf","ios":"levelo://app?vid=33ceb568-943a-49f6-b687-a2063caed5bf"},"vehicle_type_id":"4","last_reported":1732640950,"current_range_meters":800,"station_id":"ce501612rcd8frsf0b60","pricing_plan_id":"cebpf4jnsgd1na2vs0mg"},{"bike_id":"6db206cb-0668-4eaf-890a-70aa7c08dcaa","system_id":"levelo_inurba_marseille","lat":43.23186,"lon":5.39986,"is_reserved":false,"is_disabled":false,"rental_uris":{"android":"levelo://app?vid=6db206cb-0668-4eaf-890a-70aa7c08dcaa","ios":"levelo://app?vid=6db206cb-0668-4eaf-890a-70aa7c08dcaa"},"vehicle_type_id":"4","last_reported":1732640950,"current_range_meters":39200,"station_id":"ce4bhn12rcd13ifvqgqg","pricing_plan_id":"cebpf4jnsgd1na2vs0mg"},{"bike_id":"0186de2b-c061-43f2-84f6-09b5dee78b07","system_id":"levelo_inurba_marseille","lat":43.3172,"lon":5.37746,"is_reserved":false,"is_disabled":false,"rental_uris":{"android":"levelo://app?vid=0186de2b-c061-43f2-84f6-09b5dee78b07","ios":"levelo://app?vid=0186de2b-c061-43f2-84f6-09b5dee78b07"},"vehicle_type_id":"4","last_reported":1732640950,"current_range_meters":24000,"station_id":"ce4bgth2rcd13ifvqch0","pricing_plan_id":"cebpf4jnsgd1na2vs0mg"},{"bike_id":"e4395f26-4c0b-4bec-b10e-ec01132237c1","system_id":"levelo_inurba_marseille","lat":43.27171,"lon":5.410007,"is_reserved":false,"is_disabled":true,"rental_uris":{"android":"levelo://app?vid=e4395f26-4c0b-4bec-b10e-ec01132237c1","ios":"levelo://app?vid=e4395f26-4c0b-4bec-b10e-ec01132237c1"},"vehicle_type_id":"4","last_reported":1732640950,"current_range_meters":0,"station_id":"ce4bhl12rcd13ifvqgf0","pricing_plan_id":"cebpf4jnsgd1na2vs0mg"},{"bike_id":"4a844617-b9f9-42f3-bb3f-c731c8be69d3","system_id":"levelo_inurba_marseille","lat":43.31726,"lon":5.42394,"is_reserved":false,"is_disabled":false,"rental_uris":{"android":"levelo://app?vid=4a844617-b9f9-42f3-bb3f-c731c8be69d3","ios":"levelo://app?vid=4a844617-b9f9-42f3-bb3f-c731c8be69d3"},"vehicle_type_id":"4","last_reported":1732640950,"current_range_meters":21600,"station_id":"ce4bhp92rcd13ifvqhbg","pricing_plan_id":"cebpf4jnsgd1na2vs0mg"},{"bike_id":"8a02daa2-86c1-4123-b735-e7dca7ec5c24","system_id":"levelo_inurba_marseille","lat":43.29912,"lon":5.38129,"is_reserved":false,"is_disabled":false,"rental_uris":{"android":"levelo://app?vid=8a02daa2-86c1-4123-b735-e7dca7ec5c24","ios":"levelo://app?vid=8a02daa2-86c1-4123-b735-e7dca7ec5c24"},"vehicle_type_id":"4","last_reported":1732640950,"current_range_meters":28000,"station_id":"ce4bgj12rcd13ifvqbc0","pricing_plan_id":"cebpf4jnsgd1na2vs0mg"},{"bike_id":"60129452-5d55-4e9c-b6ea-b23d83481b08","system_id":"levelo_inurba_marseille","lat":43.270385,"lon":5.402853,"is_reserved":false,"is_disabled":false,"rental_uris":{"android":"levelo://app?vid=60129452-5d55-4e9c-b6ea-b23d83481b08","ios":"levelo://app?vid=60129452-5d55-4e9c-b6ea-b23d83481b08"},"vehicle_type_id":"4","last_reported":1732640950,"current_range_meters":25200,"station_id":"ce4bhk92rcd13ifvqgc0","pricing_plan_id":"cebpf4jnsgd1na2vs0mg"},{"bike_id":"68d82bfa-6702-4f36-8cd2-8c5affef1d45","system_id":"levelo_inurba_marseille","lat":43.30809,"lon":5.43521,"is_reserved":false,"is_disabled":false,"rental_uris":{"android":"levelo://app?vid=68d82bfa-6702-4f36-8cd2-8c5affef1d45","ios":"levelo://app?vid=68d82bfa-6702-4f36-8cd2-8c5affef1d45"},"vehicle_type_id":"4","last_reported":1732640950,"current_range_meters":12400,"station_id":"ce4bhph2rcd13ifvqheg","pricing_plan_id":"cebpf4jnsgd1na2vs0mg"},{"bike_id":"63eaf67d-9cc2-4fea-9df3-e96126502a0e","system_id":"levelo_inurba_marseille","lat":43.28993,"lon":5.37829,"is_reserved":false,"is_disabled":true,"rental_uris":{"android":"levelo://app?vid=63eaf67d-9cc2-4fea-9df3-e96126502a0e","ios":"levelo://app?vid=63eaf67d-9cc2-4fea-9df3-e96126502a0e"},"vehicle_type_id":"4","last_reported":1732640950,"current_range_meters":9200,"station_id":"ce4bh9p2rcd13ifvqed0","pricing_plan_id":"cebpf4jnsgd1na2vs0mg"},{"bike_id":"02c478c8-f4e7-400e-a2bc-b6fc5965fc42","system_id":"levelo_inurba_marseille","lat":43.25494,"lon":5.37652,"is_reserved":false,"is_disabled":false,"rental_uris":{"android":"levelo://app?vid=02c478c8-f4e7-400e-a2bc-b6fc5965fc42","ios":"levelo://app?vid=02c478c8-f4e7-400e-a2bc-b6fc5965fc42"},"vehicle_type_id":"4","last_reported":1732640950,"current_range_meters":16000,"station_id":"ce4bhh12rcd13ifvqff0","pricing_plan_id":"cebpf4jnsgd1na2vs0mg"},{"bike_id":"3629a32f-a709-4a11-9106-5e7f0ff28e81","system_id":"levelo_inurba_marseille","lat":43.27035,"lon":5.4068,"is_reserved":false,"is_disabled":true,"rental_uris":{"android":"levelo://app?vid=3629a32f-a709-4a11-9106-5e7f0ff28e81","ios":"levelo://app?vid=3629a32f-a709-4a11-9106-5e7f0ff28e81"},"vehicle_type_id":"4","last_reported":1732640950,"current_range_meters":0,"station_id":"","pricing_plan_id":"cebpf4jnsgd1na2vs0mg"},{"bike_id":"cdd4f8d9-bd5a-4896-97ae-a7584cd5a3d9","system_id":"levelo_inurba_marseille","lat":43.33027,"lon":5.39044,"is_reserved":false,"is_disabled":false,"rental_uris":{"android":"levelo://app?vid=cdd4f8d9-bd5a-4896-97ae-a7584cd5a3d9","ios":"levelo://app?vid=cdd4f8d9-bd5a-4896-97ae-a7584cd5a3d9"},"vehicle_type_id":"4","last_reported":1732640950,"current_range_meters":40000,"station_id":"ce4bhr92rcd13ifvqhrg","pricing_plan_id":"cebpf4jnsgd1na2vs0mg"},{"bike_id":"a22f24be-f907-44ae-b102-ce822e19d19d","system_id":"levelo_inurba_marseille","lat":43.25866,"lon":5.39902,"is_reserved":false,"is_disabled":false,"rental_uris":{"android":"levelo://app?vid=a22f24be-f907-44ae-b102-ce822e19d19d","ios":"levelo://app?vid=a22f24be-f907-44ae-b102-ce822e19d19d"},"vehicle_type_id":"4","last_reported":1732640950,"current_range_meters":29600,"station_id":"ce4bhl92rcd13ifvqghg","pricing_plan_id":"cebpf4jnsgd1na2vs0mg"},{"bike_id":"fa6d519a-1514-4389-8f9d-a79a595a2b79","system_id":"levelo_inurba_marseille","lat":43.29963,"lon":5.41321,"is_reserved":false,"is_disabled":false,"rental_uris":{"android":"levelo://app?vid=fa6d519a-1514-4389-8f9d-a79a595a2b79","ios":"levelo://app?vid=fa6d519a-1514-4389-8f9d-a79a595a2b79"},"vehicle_type_id":"4","last_reported":1732640950,"current_range_meters":25600,"station_id":"ce4bhp12rcd13ifvqh9g","pricing_plan_id":"cebpf4jnsgd1na2vs0mg"},{"bike_id":"4e21771f-acc6-4e3d-b091-802996454a42","system_id":"levelo_inurba_marseille","lat":43.28932,"lon":5.39634,"is_reserved":false,"is_disabled":false,"rental_uris":{"android":"levelo://app?vid=4e21771f-acc6-4e3d-b091-802996454a42","ios":"levelo://app?vid=4e21771f-acc6-4e3d-b091-802996454a42"},"vehicle_type_id":"4","last_reported":1732640950,"current_range_meters":29600,"station_id":"ce4bh3h2rcd13ifvqdn0","pricing_plan_id":"cebpf4jnsgd1na2vs0mg"},{"bike_id":"dc4c4e1a-2436-4bc7-81fd-70222ebce8a8","system_id":"levelo_inurba_marseille","lat":43.3118,"lon":5.38715,"is_reserved":false,"is_disabled":true,"rental_uris":{"android":"levelo://app?vid=dc4c4e1a-2436-4bc7-81fd-70222ebce8a8","ios":"levelo://app?vid=dc4c4e1a-2436-4bc7-81fd-70222ebce8a8"},"vehicle_type_id":"4","last_reported":1732640950,"current_range_meters":32400,"station_id":"ce4bgv12rcd13ifvqcp0","pricing_plan_id":"cebpf4jnsgd1na2vs0mg"},{"bike_id":"4c586ed6-9be7-44d9-be82-96ff5190086e","system_id":"levelo_inurba_marseille","lat":43.23063,"lon":5.35495,"is_reserved":false,"is_disabled":false,"rental_uris":{"android":"levelo://app?vid=4c586ed6-9be7-44d9-be82-96ff5190086e","ios":"levelo://app?vid=4c586ed6-9be7-44d9-be82-96ff5190086e"},"vehicle_type_id":"4","last_reported":1732640950,"current_range_meters":35200,"station_id":"cpo3342slgdg3j2ifvpg","pricing_plan_id":"cebpf4jnsgd1na2vs0mg"},{"bike_id":"349d092b-efe0-4baa-a002-18d8519bcce1","system_id":"levelo_inurba_marseille","lat":43.29033,"lon":5.38646,"is_reserved":false,"is_disabled":false,"rental_uris":{"android":"levelo://app?vid=349d092b-efe0-4baa-a002-18d8519bcce1","ios":"levelo://app?vid=349d092b-efe0-4baa-a002-18d8519bcce1"},"vehicle_type_id":"4","last_reported":1732640950,"current_range_meters":37600,"station_id":"ce4bh4p2rcd13ifvqe0g","pricing_plan_id":"cebpf4jnsgd1na2vs0mg"},{"bike_id":"35248560-48e2-4fbe-bde2-cacb0aad9d71","system_id":"levelo_inurba_marseille","lat":43.27818,"lon":5.40712,"is_reserved":false,"is_disabled":false,"rental_uris":{"android":"levelo://app?vid=35248560-48e2-4fbe-bde2-cacb0aad9d71","ios":"levelo://app?vid=35248560-48e2-4fbe-bde2-cacb0aad9d71"},"vehicle_type_id":"4","last_reported":1732640950,"current_range_meters":30800,"station_id":"ce4bhnh2rcd13ifvqgtg","pricing_plan_id":"cebpf4jnsgd1na2vs0mg"},{"bike_id":"8081eb18-0ea3-4c64-b0f2-c4bc4ed2147b","system_id":"levelo_inurba_marseille","lat":43.23153,"lon":5.43721,"is_reserved":false,"is_disabled":true,"rental_uris":{"android":"levelo://app?vid=8081eb18-0ea3-4c64-b0f2-c4bc4ed2147b","ios":"levelo://app?vid=8081eb18-0ea3-4c64-b0f2-c4bc4ed2147b"},"vehicle_type_id":"4","last_reported":1732640950,"current_range_meters":17200,"station_id":"ce4bhmp2rcd13ifvqgog","pricing_plan_id":"cebpf4jnsgd1na2vs0mg"},{"bike_id":"959b130d-8bf2-4531-8fab-66bbee88eab2","system_id":"levelo_inurba_marseille","lat":43.27947,"lon":5.41045,"is_reserved":false,"is_disabled":false,"rental_uris":{"android":"levelo://app?vid=959b130d-8bf2-4531-8fab-66bbee88eab2","ios":"levelo://app?vid=959b130d-8bf2-4531-8fab-66bbee88eab2"},"vehicle_type_id":"4","last_reported":1732640950,"current_range_meters":19200,"station_id":"ce4bhnp2rcd13ifvqh0g","pricing_plan_id":"cebpf4jnsgd1na2vs0mg"},{"bike_id":"6d91d932-b16e-4c3a-8a52-faf3e23bf764","system_id":"levelo_inurba_marseille","lat":43.26196,"lon":5.37449,"is_reserved":false,"is_disabled":false,"rental_uris":{"android":"levelo://app?vid=6d91d932-b16e-4c3a-8a52-faf3e23bf764","ios":"levelo://app?vid=6d91d932-b16e-4c3a-8a52-faf3e23bf764"},"vehicle_type_id":"4","last_reported":1732640950,"current_range_meters":28800,"station_id":"ce4bhgp2rcd13ifvqfc0","pricing_plan_id":"cebpf4jnsgd1na2vs0mg"},{"bike_id":"49c3b198-df07-4ab0-9f3b-942c5ccb8ee3","system_id":"levelo_inurba_marseille","lat":43.254944,"lon":5.376487,"is_reserved":false,"is_disabled":false,"rental_uris":{"android":"levelo://app?vid=49c3b198-df07-4ab0-9f3b-942c5ccb8ee3","ios":"levelo://app?vid=49c3b198-df07-4ab0-9f3b-942c5ccb8ee3"},"vehicle_type_id":"4","last_reported":1732640950,"current_range_meters":36800,"station_id":"ce4bhh12rcd13ifvqff0","pricing_plan_id":"cebpf4jnsgd1na2vs0mg"},{"bike_id":"97ea2631-2f1a-4f9b-9fdf-4d5d3ee00670","system_id":"levelo_inurba_marseille","lat":43.2996,"lon":5.41315,"is_reserved":false,"is_disabled":false,"rental_uris":{"android":"levelo://app?vid=97ea2631-2f1a-4f9b-9fdf-4d5d3ee00670","ios":"levelo://app?vid=97ea2631-2f1a-4f9b-9fdf-4d5d3ee00670"},"vehicle_type_id":"4","last_reported":1732640950,"current_range_meters":18000,"station_id":"ce4bhp12rcd13ifvqh9g","pricing_plan_id":"cebpf4jnsgd1na2vs0mg"},{"bike_id":"0784baa3-e4bd-406e-a574-8ff5f5f20684","system_id":"levelo_inurba_marseille","lat":43.27172,"lon":5.40994,"is_reserved":false,"is_disabled":false,"rental_uris":{"android":"levelo://app?vid=0784baa3-e4bd-406e-a574-8ff5f5f20684","ios":"levelo://app?vid=0784baa3-e4bd-406e-a574-8ff5f5f20684"},"vehicle_type_id":"4","last_reported":1732640950,"current_range_meters":35600,"station_id":"ce4bhl12rcd13ifvqgf0","pricing_plan_id":"cebpf4jnsgd1na2vs0mg"},{"bike_id":"5d213868-50ed-48ca-a1e7-b618b49f9377","system_id":"levelo_inurba_marseille","lat":43.30421,"lon":5.41285,"is_reserved":false,"is_disabled":false,"rental_uris":{"android":"levelo://app?vid=5d213868-50ed-48ca-a1e7-b618b49f9377","ios":"levelo://app?vid=5d213868-50ed-48ca-a1e7-b618b49f9377"},"vehicle_type_id":"4","last_reported":1732640950,"current_range_meters":14000,"station_id":"ce4bhop2rcd13ifvqh8g","pricing_plan_id":"cebpf4jnsgd1na2vs0mg"},{"bike_id":"49ce67b8-49c9-48fe-a802-dd6cbc7e1d83","system_id":"levelo_inurba_marseille","lat":43.25573,"lon":5.38244,"is_reserved":false,"is_disabled":false,"rental_uris":{"android":"levelo://app?vid=49ce67b8-49c9-48fe-a802-dd6cbc7e1d83","ios":"levelo://app?vid=49ce67b8-49c9-48fe-a802-dd6cbc7e1d83"},"vehicle_type_id":"4","last_reported":1732640950,"current_range_meters":39200,"station_id":"ce4bhih2rcd13ifvqfs0","pricing_plan_id":"cebpf4jnsgd1na2vs0mg"},{"bike_id":"a7cbc1dc-f0f8-4875-bbb5-195f6fbe1dd8","system_id":"levelo_inurba_marseille","lat":43.33754,"lon":5.3743,"is_reserved":false,"is_disabled":false,"rental_uris":{"android":"levelo://app?vid=a7cbc1dc-f0f8-4875-bbb5-195f6fbe1dd8","ios":"levelo://app?vid=a7cbc1dc-f0f8-4875-bbb5-195f6fbe1dd8"},"vehicle_type_id":"4","last_reported":1732640950,"current_range_meters":35600,"station_id":"","pricing_plan_id":"cebpf4jnsgd1na2vs0mg"},{"bike_id":"76dcf161-3016-4fa9-8ee9-ca5aeb2b9e93","system_id":"levelo_inurba_marseille","lat":43.27071,"lon":5.42279,"is_reserved":false,"is_disabled":false,"rental_uris":{"android":"levelo://app?vid=76dcf161-3016-4fa9-8ee9-ca5aeb2b9e93","ios":"levelo://app?vid=76dcf161-3016-4fa9-8ee9-ca5aeb2b9e93"},"vehicle_type_id":"4","last_reported":1732640950,"current_range_meters":38800,"station_id":"ce4bhk92rcd13ifvqgb0","pricing_plan_id":"cebpf4jnsgd1na2vs0mg"},{"bike_id":"477dcd67-9e7a-45ba-bfa6-35242423de35","system_id":"levelo_inurba_marseille","lat":43.30779,"lon":5.37651,"is_reserved":false,"is_disabled":false,"rental_uris":{"android":"levelo://app?vid=477dcd67-9e7a-45ba-bfa6-35242423de35","ios":"levelo://app?vid=477dcd67-9e7a-45ba-bfa6-35242423de35"},"vehicle_type_id":"4","last_reported":1732640950,"current_range_meters":17200,"station_id":"ce4bgv92rcd13ifvqcq0","pricing_plan_id":"cebpf4jnsgd1na2vs0mg"},{"bike_id":"6cc74a53-cf32-4970-a640-9b8ad4971d33","system_id":"levelo_inurba_marseille","lat":43.27019,"lon":5.38806,"is_reserved":false,"is_disabled":true,"rental_uris":{"android":"levelo://app?vid=6cc74a53-cf32-4970-a640-9b8ad4971d33","ios":"levelo://app?vid=6cc74a53-cf32-4970-a640-9b8ad4971d33"},"vehicle_type_id":"4","last_reported":1732640950,"current_range_meters":0,"station_id":"","pricing_plan_id":"cebpf4jnsgd1na2vs0mg"},{"bike_id":"27f59ae8-4d09-4500-86eb-efcf3270baa0","system_id":"levelo_inurba_marseille","lat":43.27998,"lon":5.40015,"is_reserved":false,"is_disabled":false,"rental_uris":{"android":"levelo://app?vid=27f59ae8-4d09-4500-86eb-efcf3270baa0","ios":"levelo://app?vid=27f59ae8-4d09-4500-86eb-efcf3270baa0"},"vehicle_type_id":"4","last_reported":1732640950,"current_range_meters":4800,"station_id":"ce4bho92rcd13ifvqh4g","pricing_plan_id":"cebpf4jnsgd1na2vs0mg"},{"bike_id":"2418904d-941e-4ff1-a342-13924e9fc486","system_id":"levelo_inurba_marseille","lat":43.30888,"lon":5.39636,"is_reserved":false,"is_disabled":false,"rental_uris":{"android":"levelo://app?vid=2418904d-941e-4ff1-a342-13924e9fc486","ios":"levelo://app?vid=2418904d-941e-4ff1-a342-13924e9fc486"},"vehicle_type_id":"4","last_reported":1732640950,"current_range_meters":22400,"station_id":"ce4bh012rcd13ifvqcv0","pricing_plan_id":"cebpf4jnsgd1na2vs0mg"},{"bike_id":"36fe522b-bf75-4e54-9ade-5e62b69058c6","system_id":"levelo_inurba_marseille","lat":43.27207,"lon":5.39191,"is_reserved":false,"is_disabled":false,"rental_uris":{"android":"levelo://app?vid=36fe522b-bf75-4e54-9ade-5e62b69058c6","ios":"levelo://app?vid=36fe522b-bf75-4e54-9ade-5e62b69058c6"},"vehicle_type_id":"4","last_reported":1732640950,"current_range_meters":8800,"station_id":"ce4bhhp2rcd13ifvqfm0","pricing_plan_id":"cebpf4jnsgd1na2vs0mg"},{"bike_id":"d7f9afb9-30d7-4d4f-9983-58093e67c1c8","system_id":"levelo_inurba_marseille","lat":43.337444,"lon":5.374475,"is_reserved":false,"is_disabled":false,"rental_uris":{"android":"levelo://app?vid=d7f9afb9-30d7-4d4f-9983-58093e67c1c8","ios":"levelo://app?vid=d7f9afb9-30d7-4d4f-9983-58093e67c1c8"},"vehicle_type_id":"4","last_reported":1732640950,"current_range_meters":35600,"station_id":"","pricing_plan_id":"cebpf4jnsgd1na2vs0mg"},{"bike_id":"ac17dd24-896a-4f5f-9003-ca83680013d9","system_id":"levelo_inurba_marseille","lat":43.284607,"lon":5.35886,"is_reserved":false,"is_disabled":false,"rental_uris":{"android":"levelo://app?vid=ac17dd24-896a-4f5f-9003-ca83680013d9","ios":"levelo://app?vid=ac17dd24-896a-4f5f-9003-ca83680013d9"},"vehicle_type_id":"4","last_reported":1732640950,"current_range_meters":29600,"station_id":"ce4bhah2rcd13ifvqei0","pricing_plan_id":"cebpf4jnsgd1na2vs0mg"},{"bike_id":"da12b09b-dfab-4699-9170-e85c0ac9b4d4","system_id":"levelo_inurba_marseille","lat":43.31375,"lon":5.38487,"is_reserved":false,"is_disabled":false,"rental_uris":{"android":"levelo://app?vid=da12b09b-dfab-4699-9170-e85c0ac9b4d4","ios":"levelo://app?vid=da12b09b-dfab-4699-9170-e85c0ac9b4d4"},"vehicle_type_id":"4","last_reported":1732640950,"current_range_meters":22400,"station_id":"ce4bgt92rcd13ifvqcf0","pricing_plan_id":"cebpf4jnsgd1na2vs0mg"},{"bike_id":"1773d1ff-c673-4a3c-b26e-f847abb586d3","system_id":"levelo_inurba_marseille","lat":43.33771,"lon":5.37478,"is_reserved":false,"is_disabled":true,"rental_uris":{"android":"levelo://app?vid=1773d1ff-c673-4a3c-b26e-f847abb586d3","ios":"levelo://app?vid=1773d1ff-c673-4a3c-b26e-f847abb586d3"},"vehicle_type_id":"4","last_reported":1732640950,"current_range_meters":36400,"station_id":"","pricing_plan_id":"cebpf4jnsgd1na2vs0mg"},{"bike_id":"ed15932b-c606-484e-b20e-e6088c66b4ad","system_id":"levelo_inurba_marseille","lat":43.28456,"lon":5.35887,"is_reserved":false,"is_disabled":false,"rental_uris":{"android":"levelo://app?vid=ed15932b-c606-484e-b20e-e6088c66b4ad","ios":"levelo://app?vid=ed15932b-c606-484e-b20e-e6088c66b4ad"},"vehicle_type_id":"4","last_reported":1732640950,"current_range_meters":6800,"station_id":"ce4bhah2rcd13ifvqei0","pricing_plan_id":"cebpf4jnsgd1na2vs0mg"},{"bike_id":"7ed73a6f-b5ce-4205-a23d-ca394de7f3d6","system_id":"levelo_inurba_marseille","lat":43.28708,"lon":5.39994,"is_reserved":false,"is_disabled":false,"rental_uris":{"android":"levelo://app?vid=7ed73a6f-b5ce-4205-a23d-ca394de7f3d6","ios":"levelo://app?vid=7ed73a6f-b5ce-4205-a23d-ca394de7f3d6"},"vehicle_type_id":"4","last_reported":1732640950,"current_range_meters":22800,"station_id":"ce4bho92rcd13ifvqh3g","pricing_plan_id":"cebpf4jnsgd1na2vs0mg"},{"bike_id":"64e7ef63-cccc-40e6-a431-6868f1783276","system_id":"levelo_inurba_marseille","lat":43.27177,"lon":5.4099,"is_reserved":false,"is_disabled":false,"rental_uris":{"android":"levelo://app?vid=64e7ef63-cccc-40e6-a431-6868f1783276","ios":"levelo://app?vid=64e7ef63-cccc-40e6-a431-6868f1783276"},"vehicle_type_id":"4","last_reported":1732640950,"current_range_meters":38800,"station_id":"ce4bhl12rcd13ifvqgf0","pricing_plan_id":"cebpf4jnsgd1na2vs0mg"},