{"last_updated":1758118190,"ttl":60,"version":"2.2","data":{"bikes":[{"bike_id":"63c2bec2-56ae-42d4-a965-91defc1f04e9","system_id":"levelo_inurba_marseille","lat":43.29064,"lon":5.3793,"is_reserved":false,"is_disabled":false,"rental_uris":{"android":"levelo://app?vid=63c2bec2-56ae-42d4-a965-91defc1f04e9","ios":"levelo://app?vid=63c2bec2-56ae-42d4-a965-91defc1f04e9"},"vehicle_type_id":"4","last_reported":1758118190,"current_range_meters":2800,"station_id":"","pricing_plan_id":"cebpf4jnsgd1na2vs0mg"},{"bike_id":"d765e876-dc94-417e-ad8c-0ac49bf5261a","system_id":"levelo_inurba_marseille","lat":43.3343,"lon":5.36382,"is_reserved":false,"is_disabled":false,"rental_uris":{"android":"levelo://app?vid=d765e876-dc94-417e-ad8c-0ac49bf5261a","ios":"levelo://app?vid=d765e876-dc94-417e-ad8c-0ac49bf5261a"},"vehicle_type_id":"4","last_reported":1758118190,"current_range_meters":2800,"station_id":"","pricing_plan_id":"cebpf4jnsgd1na2vs0mg"},{"bike_id":"5014881f-56b2-4dbc-965e-3bd258011b45","system_id":"levelo_inurba_marseille","lat":43.21751,"lon":5.346,"is_reserved":false,"is_disabled":true,"rental_uris":{"android":"levelo://app?vid=5014881f-56b2-4dbc-965e-3bd258011b45","ios":"levelo://app?vid=5014881f-56b2-4dbc-965e-3bd258011b45"},"vehicle_type_id":"4","last_reported":1758118190,"current_range_meters":2800,"station_id":"st_cvj6r9ubvosntc0bgbag","pricing_plan_id":"cebpf4jnsgd1na2vs0mg"},{"bike_id":"09726e14-761d-46bb-9b2b-aa4ac3f92fec","system_id":"levelo_inurba_marseille","lat":43.29616,"lon":5.37873,"is_reserved":false,"is_disabled":false,"rental_uris":{"android":"levelo://app?vid=09726e14-761d-46bb-9b2b-aa4ac3f92fec","ios":"levelo://app?vid=09726e14-761d-46bb-9b2b-aa4ac3f92fec"},"vehicle_type_id":"4","last_reported":1758118190,"current_range_meters":2800,"station_id":"","pricing_plan_id":"cebpf4jnsgd1na2vs0mg"},{"bike_id":"b3e18cf8-ee7d-49db-8764-fcb743728cd4","system_id":"levelo_inurba_marseille","lat":43.30093,"lon":5.39068,"is_reserved":false,"is_disabled":false,"rental_uris":{"android":"levelo://app?vid=b3e18cf8-ee7d-49db-8764-fcb743728cd4","ios":"levelo://app?vid=b3e18cf8-ee7d-49db-8764-fcb743728cd4"},"vehicle_type_id":"4","last_reported":1758118190,"current_range_meters":2800,"station_id":"ce4bh192rcd13ifvqdb0","pricing_plan_id":"cebpf4jnsgd1na2vs0mg"},{"bike_id":"85bba2a6-ab45-4d1c-b697-61c40a01de27","system_id":"levelo_inurba_marseille","lat":43.22558,"lon":5.41626,"is_reserved":false,"is_disabled":false,"rental_uris":{"android":"levelo://app?vid=85bba2a6-ab45-4d1c-b697-61c40a01de27","ios":"levelo://app?vid=85bba2a6-ab45-4d1c-b697-61c40a01de27"},"vehicle_type_id":"4","last_reported":1758118190,"current_range_meters":3200,"station_id":"st_d2o4gvlbi1j2169b742g","pricing_plan_id":"cebpf4jnsgd1na2vs0mg"},{"bike_id":"1c47667b-6204-4d1e-b7f4-770abd409dee","system_id":"levelo_inurba_marseille","lat":43.2836,"lon":5.38629,"is_reserved":false,"is_disabled":false,"rental_uris":{"android":"levelo://app?vid=1c47667b-6204-4d1e-b7f4-770abd409dee","ios":"levelo://app?vid=1c47667b-6204-4d1e-b7f4-770abd409dee"},"vehicle_type_id":"4","last_reported":1758118190,"current_range_meters":3200,"station_id":"ce4bh492rcd13ifvqdvg","pricing_plan_id":"cebpf4jnsgd1na2vs0mg"},{"bike_id":"7e66591f-3a0d-4936-84af-b53b317cdb5c","system_id":"levelo_inurba_marseille","lat":43.30288,"lon":5.36891,"is_reserved":false,"is_disabled":false,"rental_uris":{"android":"levelo://app?vid=7e66591f-3a0d-4936-84af-b53b317cdb5c","ios":"levelo://app?vid=7e66591f-3a0d-4936-84af-b53b317cdb5c"},"vehicle_type_id":"4","last_reported":1758118190,"current_range_meters":4400,"station_id":"ce4bgqh2rcd13ifvqc5g","pricing_plan_id":"cebpf4jnsgd1na2vs0mg"},{"bike_id":"1b73ee17-0259-40db-b2f6-976bcd6e3795","system_id":"levelo_inurba_marseille","lat":43.27669,"lon":5.38868,"is_reserved":false,"is_disabled":false,"rental_uris":{"android":"levelo://app?vid=1b73ee17-0259-40db-b2f6-976bcd6e3795","ios":"levelo://app?vid=1b73ee17-0259-40db-b2f6-976bcd6e3795"},"vehicle_type_id":"4","last_reported":1758118190,"current_range_meters":3200,"station_id":"ce4bhi12rcd13ifvqfo0","pricing_plan_id":"cebpf4jnsgd1na2vs0mg"},{"bike_id":"2a0e35d1-c57a-437e-95d9-87f32f6d48c9","system_id":"levelo_inurba_marseille","lat":43.26209,"lon":5.37433,"is_reserved":false,"is_disabled":false,"rental_uris":{"android":"levelo://app?vid=2a0e35d1-c57a-437e-95d9-87f32f6d48c9","ios":"levelo://app?vid=2a0e35d1-c57a-437e-95d9-87f32f6d48c9"},"vehicle_type_id":"4","last_reported":1758118190,"current_range_meters":3600,"station_id":"ce4bhgp2rcd13ifvqfc0","pricing_plan_id":"cebpf4jnsgd1na2vs0mg"},{"bike_id":"322c1f5a-85db-4ef6-bcd4-1b5c417c8ee0","system_id":"levelo_inurba_marseille","lat":43.3377,"lon":5.37488,"is_reserved":false,"is_disabled":false,"rental_uris":{"android":"levelo://app?vid=322c1f5a-85db-4ef6-bcd4-1b5c417c8ee0","ios":"levelo://app?vid=322c1f5a-85db-4ef6-bcd4-1b5c417c8ee0"},"vehicle_type_id":"4","last_reported":1758118190,"current_range_meters":4000,"station_id":"","pricing_plan_id":"cebpf4jnsgd1na2vs0mg"},{"bike_id":"64b1deee-ef02-45e9-a66a-3e5e20b8d612","system_id":"levelo_inurba_marseille","lat":43.337444,"lon":5.374475,"is_reserved":false,"is_disabled":false,"rental_uris":{"android":"levelo://app?vid=64b1deee-ef02-45e9-a66a-3e5e20b8d612","ios":"levelo://app?vid=64b1deee-ef02-45e9-a66a-3e5e20b8d612"},"vehicle_type_id":"4","last_reported":1758118190,"current_range_meters":4000,"station_id":"","pricing_plan_id":"cebpf4jnsgd1na2vs0mg"},{"bike_id":"aaee8e0e-211f-46b0-9d07-bc8d27bbf9c1","system_id":"levelo_inurba_marseille","lat":43.29531,"lon":5.38546,"is_reserved":false,"is_disabled":false,"rental_uris":{"android":"levelo://app?vid=aaee8e0e-211f-46b0-9d07-bc8d27bbf9c1","ios":"levelo://app?vid=aaee8e0e-211f-46b0-9d07-bc8d27bbf9c1"},"vehicle_type_id":"4","last_reported":1758118190,"current_range_meters":4000,"station_id":"ce4bgih2rcd13ifvqba0","pricing_plan_id":"cebpf4jnsgd1na2vs0mg"},{"bike_id":"7cb1d546-4a86-404e-b83c-0aeabbe297fa","system_id":"levelo_inurba_marseille","lat":43.29514,"lon":5.40054,"is_reserved":false,"is_disabled":false,"rental_uris":{"android":"levelo://app?vid=7cb1d546-4a86-404e-b83c-0aeabbe297fa","ios":"levelo://app?vid=7cb1d546-4a86-404e-b83c-0aeabbe297fa"},"vehicle_type_id":"4","last_reported":1758118190,"current_range_meters":4400,"station_id":"","pricing_plan_id":"cebpf4jnsgd1na2vs0mg"},{"bike_id":"82a30655-512d-4265-a829-2b72378c76d4","system_id":"levelo_inurba_marseille","lat":43.2558,"lon":5.3823,"is_reserved":false,"is_disabled":false,"rental_uris":{"android":"levelo://app?vid=82a30655-512d-4265-a829-2b72378c76d4","ios":"levelo://app?vid=82a30655-512d-4265-a829-2b72378c76d4"},"vehicle_type_id":"4","last_reported":1758118190,"current_range_meters":4400,"station_id":"ce4bhih2rcd13ifvqfs0","pricing_plan_id":"cebpf4jnsgd1na2vs0mg"},{"bike_id":"28f8b8a1-bcc8-433b-ae08-4fe60c1bdbd1","system_id":"levelo_inurba_marseille","lat":43.29015,"lon":5.38124,"is_reserved":false,"is_disabled":false,"rental_uris":{"android":"levelo://app?vid=28f8b8a1-bcc8-433b-ae08-4fe60c1bdbd1","ios":"levelo://app?vid=28f8b8a1-bcc8-433b-ae08-4fe60c1bdbd1"},"vehicle_type_id":"4","last_reported":1758118190,"current_range_meters":4800,"station_id":"ce4bh4p2rcd13ifvqe1g","pricing_plan_id":"cebpf4jnsgd1na2vs0mg"},{"bike_id":"c3ad4594-4e4a-42f9-93e2-c25c45a735b2","system_id":"levelo_inurba_marseille","lat":43.28876,"lon":5.42516,"is_reserved":false,"is_disabled":false,"rental_uris":{"android":"levelo://app?vid=c3ad4594-4e4a-42f9-93e2-c25c45a735b2","ios":"levelo://app?vid=c3ad4594-4e4a-42f9-93e2-c25c45a735b2"},"vehicle_type_id":"4","last_reported":1758118190,"current_range_meters":4800,"station_id":"","pricing_plan_id":"cebpf4jnsgd1na2vs0mg"},{"bike_id":"8c2247e6-da22-4120-bd0a-ad8cf6a5ad4b","system_id":"levelo_inurba_marseille","lat":43.273055,"lon":5.390732,"is_reserved":false,"is_disabled":false,"rental_uris":{"android":"levelo://app?vid=8c2247e6-da22-4120-bd0a-ad8cf6a5ad4b","ios":"levelo://app?vid=8c2247e6-da22-4120-bd0a-ad8cf6a5ad4b"},"vehicle_type_id":"4","last_reported":1758118190,"current_range_meters":4800,"station_id":"ce4bhgp2rcd13ifvqfe0","pricing_plan_id":"cebpf4jnsgd1na2vs0mg"},{"bike_id":"c07e7a2d-d8a6-4efd-8723-e965be4d1a74","system_id":"levelo_inurba_marseille","lat":43.22533,"lon":5.348367,"is_reserved":false,"is_disabled":false,"rental_uris":{"android":"levelo://app?vid=c07e7a2d-d8a6-4efd-8723-e965be4d1a74","ios":"levelo://app?vid=c07e7a2d-d8a6-4efd-8723-e965be4d1a74"},"vehicle_type_id":"4","last_reported":1758118190,"current_range_meters":4800,"station_id":"","pricing_plan_id":"cebpf4jnsgd1na2vs0mg"},{"bike_id":"979ff122-7c9e-4b0a-b11f-87ce9ea6569b","system_id":"levelo_inurba_marseille","lat":43.3168,"lon":5.39934,"is_reserved":false,"is_disabled":false,"rental_uris":{"android":"levelo://app?vid=979ff122-7c9e-4b0a-b11f-87ce9ea6569b","ios":"levelo://app?vid=979ff122-7c9e-4b0a-b11f-87ce9ea6569b"},"vehicle_type_id":"4","last_reported":1758118190,"current_range_meters":4800,"station_id":"","pricing_plan_id":"cebpf4jnsgd1na2vs0mg"},{"bike_id":"b59788b5-8e09-4aa0-b26e-c04077f88dfa","system_id":"levelo_inurba_marseille","lat":43.32986,"lon":5.39438,"is_reserved":false,"is_disabled":false,"rental_uris":{"android":"levelo://app?vid=b59788b5-8e09-4aa0-b26e-c04077f88dfa","ios":"levelo://app?vid=b59788b5-8e09-4aa0-b26e-c04077f88dfa"},"vehicle_type_id":"4","last_reported":1758118190,"current_range_meters":4800,"station_id":"","pricing_plan_id":"cebpf4jnsgd1na2vs0mg"},{"bike_id":"18fe90ec-6ecd-4d8c-9dac-45a84813620a","system_id":"levelo_inurba_marseille","lat":43.23152,"lon":5.4371,"is_reserved":false,"is_disabled":false,"rental_uris":{"android":"levelo://app?vid=18fe90ec-6ecd-4d8c-9dac-45a84813620a","ios":"levelo://app?vid=18fe90ec-6ecd-4d8c-9dac-45a84813620a"},"vehicle_type_id":"4","last_reported":1758118190,"current_range_meters":5600,"station_id":"ce4bhmp2rcd13ifvqgog","pricing_plan_id":"cebpf4jnsgd1na2vs0mg"},{"bike_id":"e920d714-da46-4202-90ae-bab368d986a0","system_id":"levelo_inurba_marseille","lat":43.32042,"lon":5.41526,"is_reserved":false,"is_disabled":false,"rental_uris":{"android":"levelo://app?vid=e920d714-da46-4202-90ae-bab368d986a0","ios":"levelo://app?vid=e920d714-da46-4202-90ae-bab368d986a0"},"vehicle_type_id":"4","last_reported":1758118190,"current_range_meters":5600,"station_id":"ce4bhq92rcd13ifvqhkg","pricing_plan_id":"cebpf4jnsgd1na2vs0mg"},{"bike_id":"3a3e09c3-d152-43e5-bfff-13b23026a058","system_id":"levelo_inurba_marseille","lat":43.2952,"lon":5.37487,"is_reserved":false,"is_disabled":false,"rental_uris":{"android":"levelo://app?vid=3a3e09c3-d152-43e5-bfff-13b23026a058","ios":"levelo://app?vid=3a3e09c3-d152-43e5-bfff-13b23026a058"},"vehicle_type_id":"4","last_reported":1758118190,"current_range_meters":6400,"station_id":"","pricing_plan_id":"cebpf4jnsgd1na2vs0mg"},{"bike_id":"cd02c080-8936-4e2b-af4d-301cbe8eb8f1","system_id":"levelo_inurba_marseille","lat":43.300574,"lon":5.403484,"is_reserved":false,"is_disabled":false,"rental_uris":{"android":"levelo://app?vid=cd02c080-8936-4e2b-af4d-301cbe8eb8f1","ios":"levelo://app?vid=cd02c080-8936-4e2b-af4d-301cbe8eb8f1"},"vehicle_type_id":"4","last_reported":1758118190,"current_range_meters":6400,"station_id":"","pricing_plan_id":"cebpf4jnsgd1na2vs0mg"},{"bike_id":"064aa5e7-ae77-4983-a93c-cacbbd1db82f","system_id":"levelo_inurba_marseille","lat":43.32107,"lon":5.3677,"is_reserved":false,"is_disabled":false,"rental_uris":{"android":"levelo://app?vid=064aa5e7-ae77-4983-a93c-cacbbd1db82f","ios":"levelo://app?vid=064aa5e7-ae77-4983-a93c-cacbbd1db82f"},"vehicle_type_id":"4","last_reported":1758118190,"current_range_meters":6400,"station_id":"ce4bhrh2rcd13ifvqhug","pricing_plan_id":"cebpf4jnsgd1na2vs0mg"},{"bike_id":"77246e06-46b3-406d-9b69-b9b3e2cbdee1","system_id":"levelo_inurba_marseille","lat":43.280616,"lon":5.386367,"is_reserved":false,"is_disabled":false,"rental_uris":{"android":"levelo://app?vid=77246e06-46b3-406d-9b69-b9b3e2cbdee1","ios":"levelo://app?vid=77246e06-46b3-406d-9b69-b9b3e2cbdee1"},"vehicle_type_id":"4","last_reported":1758118190,"current_range_meters":6400,"station_id":"","pricing_plan_id":"cebpf4jnsgd1na2vs0mg"},{"bike_id":"540452b2-4815-4a01-9a8e-82db5e188e7b","system_id":"levelo_inurba_marseille","lat":43.32541,"lon":5.41447,"is_reserved":false,"is_disabled":false,"rental_uris":{"android":"levelo://app?vid=540452b2-4815-4a01-9a8e-82db5e188e7b","ios":"levelo://app?vid=540452b2-4815-4a01-9a8e-82db5e188e7b"},"vehicle_type_id":"4","last_reported":1758118190,"current_range_meters":6800,"station_id":"ce4bhq12rcd13ifvqhhg","pricing_plan_id":"cebpf4jnsgd1na2vs0mg"},{"bike_id":"d94c3eec-d648-4138-aca2-07a1eeeb5143","system_id":"levelo_inurba_marseille","lat":43.251313,"lon":5.403183,"is_reserved":false,"is_disabled":false,"rental_uris":{"android":"levelo://app?vid=d94c3eec-d648-4138-aca2-07a1eeeb5143","ios":"levelo://app?vid=d94c3eec-d648-4138-aca2-07a1eeeb5143"},"vehicle_type_id":"4","last_reported":1758118190,"current_range_meters":6800,"station_id":"ce4bhlh2rcd13ifvqgig","pricing_plan_id":"cebpf4jnsgd1na2vs0mg"},{"bike_id":"af41e703-fdaf-461e-a15a-5ba555a52e0a","system_id":"levelo_inurba_marseille","lat":43.2938,"lon":5.38708,"is_reserved":false,"is_disabled":false,"rental_uris":{"android":"levelo://app?vid=af41e703-fdaf-461e-a15a-5ba555a52e0a","ios":"levelo://app?vid=af41e703-fdaf-461e-a15a-5ba555a52e0a"},"vehicle_type_id":"4","last_reported":1758118190,"current_range_meters":7200,"station_id":"","pricing_plan_id":"cebpf4jnsgd1na2vs0mg"},{"bike_id":"a9f13996-cedb-42ef-8189-8cba3aa4b434","system_id":"levelo_inurba_marseille","lat":43.21197,"lon":5.35074,"is_reserved":false,"is_disabled":false,"rental_uris":{"android":"levelo://app?vid=a9f13996-cedb-42ef-8189-8cba3aa4b434","ios":"levelo://app?vid=a9f13996-cedb-42ef-8189-8cba3aa4b434"},"vehicle_type_id":"4","last_reported":1758118190,"current_range_meters":7200,"station_id":"st_cvj6sg6p6f1abm77japg","pricing_plan_id":"cebpf4jnsgd1na2vs0mg"},{"bike_id":"98d4f582-3f95-4c7a-8e18-ad3ecfa9ad2e","system_id":"levelo_inurba_marseille","lat":43.29513,"lon":5.37493,"is_reserved":false,"is_disabled":false,"rental_uris":{"android":"levelo://app?vid=98d4f582-3f95-4c7a-8e18-ad3ecfa9ad2e","ios":"levelo://app?vid=98d4f582-3f95-4c7a-8e18-ad3ecfa9ad2e"},"vehicle_type_id":"4","last_reported":1758118190,"current_range_meters":7200,"station_id":"ce4bgkp2rcd13ifvqbmg","pricing_plan_id":"cebpf4jnsgd1na2vs0mg"},{"bike_id":"e299b1dc-2370-4038-ac65-e3e63c876c5a","system_id":"levelo_inurba_marseille","lat":43.25118,"lon":5.40319,"is_reserved":false,"is_disabled":false,"rental_uris":{"android":"levelo://app?vid=e299b1dc-2370-4038-ac65-e3e63c876c5a","ios":"levelo://app?vid=e299b1dc-2370-4038-ac65-e3e63c876c5a"},"vehicle_type_id":"4","last_reported":1758118190,"current_range_meters":8000,"station_id":"ce4bhlh2rcd13ifvqgig","pricing_plan_id":"cebpf4jnsgd1na2vs0mg"},{"bike_id":"442f5e38-803e-49f0-9825-d0cf1c6950a7","system_id":"levelo_inurba_marseille","lat":43.25342,"lon":5.42167,"is_reserved":false,"is_disabled":false,"rental_uris":{"android":"levelo://app?vid=442f5e38-803e-49f0-9825-d0cf1c6950a7","ios":"levelo://app?vid=442f5e38-803e-49f0-9825-d0cf1c6950a7"},"vehicle_type_id":"4","last_reported":1758118190,"current_range_meters":8000,"station_id":"st_d2m65c5bi1j21697t3ng","pricing_plan_id":"cebpf4jnsgd1na2vs0mg"},{"bike_id":"c525a682-410b-4f87-ab50-5df08a21514a","system_id":"levelo_inurba_marseille","lat":43.24628,"lon":5.43143,"is_reserved":false,"is_disabled":false,"rental_uris":{"android":"levelo://app?vid=c525a682-410b-4f87-ab50-5df08a21514a","ios":"levelo://app?vid=c525a682-410b-4f87-ab50-5df08a21514a"},"vehicle_type_id":"4","last_reported":1758118190,"current_range_meters":8000,"station_id":"st_d2m6c4gdas8pm72e190g","pricing_plan_id":"cebpf4jnsgd1na2vs0mg"},{"bike_id":"1b6a995d-34ac-45d5-9528-44d2f8bbd183","system_id":"levelo_inurba_marseille","lat":43.28519,"lon":5.3591,"is_reserved":false,"is_disabled":false,"rental_uris":{"android":"levelo://app?vid=1b6a995d-34ac-45d5-9528-44d2f8bbd183","ios":"levelo://app?vid=1b6a995d-34ac-45d5-9528-44d2f8bbd183"},"vehicle_type_id":"4","last_reported":1758118190,"current_range_meters":8400,"station_id":"","pricing_plan_id":"cebpf4jnsgd1na2vs0mg"},{"bike_id":"06d8d1fb-d518-41a0-9c07-337cc45a0c41","system_id":"levelo_inurba_marseille","lat":43.298664,"lon":5.376396,"is_reserved":false,"is_disabled":false,"rental_uris":{"android":"levelo://app?vid=06d8d1fb-d518-41a0-9c07-337cc45a0c41","ios":"levelo://app?vid=06d8d1fb-d518-41a0-9c07-337cc45a0c41"},"vehicle_type_id":"4","last_reported":1758118190,"current_range_meters":8400,"station_id":"","pricing_plan_id":"cebpf4jnsgd1na2vs0mg"},{"bike_id":"e929272f-af61-4014-916b-59a57ed87eb5","system_id":"levelo_inurba_marseille","lat":43.21186,"lon":5.35073,"is_reserved":false,"is_disabled":false,"rental_uris":{"android":"levelo://app?vid=e929272f-af61-4014-916b-59a57ed87eb5","ios":"levelo://app?vid=e929272f-af61-4014-916b-59a57ed87eb5"},"vehicle_type_id":"4","last_reported":1758118190,"current_range_meters":8400,"station_id":"st_cvj6sg6p6f1abm77japg","pricing_plan_id":"cebpf4jnsgd1na2vs0mg"},{"bike_id":"bb751eb5-2f5a-4b96-b514-0f85c556228d","system_id":"levelo_inurba_marseille","lat":43.2799,"lon":5.41669,"is_reserved":false,"is_disabled":true,"rental_uris":{"android":"levelo://app?vid=bb751eb5-2f5a-4b96-b514-0f85c556228d","ios":"levelo://app?vid=bb751eb5-2f5a-4b96-b514-0f85c556228d"},"vehicle_type_id":"4","last_reported":1758118190,"current_range_meters":8400,"station_id":"ce4bho12rcd13ifvqh1g","pricing_plan_id":"cebpf4jnsgd1na2vs0mg"},{"bike_id":"892d3f7c-0945-4405-8426-4602efd8ea1c","system_id":"levelo_inurba_marseille","lat":43.29267,"lon":5.38431,"is_reserved":false,"is_disabled":false,"rental_uris":{"android":"levelo://app?vid=892d3f7c-0945-4405-8426-4602efd8ea1c","ios":"levelo://app?vid=892d3f7c-0945-4405-8426-4602efd8ea1c"},"vehicle_type_id":"4","last_reported":1758118190,"current_range_meters":8800,"station_id":"ce4bh692rcd13ifvqea0","pricing_plan_id":"cebpf4jnsgd1na2vs0mg"},{"bike_id":"764cb405-86ed-49c7-8cec-ebaac600b09a","system_id":"levelo_inurba_marseille","lat":43.26198,"lon":5.37929,"is_reserved":false,"is_disabled":false,"rental_uris":{"android":"levelo://app?vid=764cb405-86ed-49c7-8cec-ebaac600b09a","ios":"levelo://app?vid=764cb405-86ed-49c7-8cec-ebaac600b09a"},"vehicle_type_id":"4","last_reported":1758118190,"current_range_meters":8800,"station_id":"ce4bhjp2rcd13ifvqg90","pricing_plan_id":"cebpf4jnsgd1na2vs0mg"},{"bike_id":"3b26aa0d-3679-4b4c-9b55-1096f6d08a9d","system_id":"levelo_inurba_marseille","lat":43.31296,"lon":5.393871,"is_reserved":false,"is_disabled":false,"rental_uris":{"android":"levelo://app?vid=3b26aa0d-3679-4b4c-9b55-1096f6d08a9d","ios":"levelo://app?vid=3b26aa0d-3679-4b4c-9b55-1096f6d08a9d"},"vehicle_type_id":"4","last_reported":1758118190,"current_range_meters":8800,"station_id":"","pricing_plan_id":"cebpf4jnsgd1na2vs0mg"},{"bike_id":"b878969e-0167-4bb0-b49f-f2c086c9b3d9","system_id":"levelo_inurba_marseille","lat":43.26857,"lon":5.40668,"is_reserved":false,"is_disabled":false,"rental_uris":{"android":"levelo://app?vid=b878969e-0167-4bb0-b49f-f2c086c9b3d9","ios":"levelo://app?vid=b878969e-0167-4bb0-b49f-f2c086c9b3d9"},"vehicle_type_id":"4","last_reported":1758118190,"current_range_meters":8800,"station_id":"","pricing_plan_id":"cebpf4jnsgd1na2vs0mg"},{"bike_id":"858d911b-bb43-4e78-8344-dde837a47675","system_id":"levelo_inurba_marseille","lat":43.3054,"lon":5.38426,"is_reserved":false,"is_disabled":false,"rental_uris":{"android":"levelo://app?vid=858d911b-bb43-4e78-8344-dde837a47675","ios":"levelo://app?vid=858d911b-bb43-4e78-8344-dde837a47675"},"vehicle_type_id":"4","last_reported":1758118190,"current_range_meters":9200,"station_id":"ce4bgg92rcd13ifvqb30","pricing_plan_id":"cebpf4jnsgd1na2vs0mg"},{"bike_id":"36b18ce6-aea4-486f-8f86-56830afdf8d7","system_id":"levelo_inurba_marseille","lat":43.30273,"lon":5.3771,"is_reserved":false,"is_disabled":false,"rental_uris":{"android":"levelo://app?vid=36b18ce6-aea4-486f-8f86-56830afdf8d7","ios":"levelo://app?vid=36b18ce6-aea4-486f-8f86-56830afdf8d7"},"vehicle_type_id":"4","last_reported":1758118190,"current_range_meters":9200,"station_id":"ce4bguh2rcd13ifvqcj0","pricing_plan_id":"cebpf4jnsgd1na2vs0mg"},{"bike_id":"336c74d9-d9c9-46d7-a94b-134b36ad023a","system_id":"levelo_inurba_marseille","lat":43.29864,"lon":5.37819,"is_reserved":false,"is_disabled":false,"rental_uris":{"android":"levelo://app?vid=336c74d9-d9c9-46d7-a94b-134b36ad023a","ios":"levelo://app?vid=336c74d9-d9c9-46d7-a94b-134b36ad023a"},"vehicle_type_id":"4","last_reported":1758118190,"current_range_meters":9200,"station_id":"","pricing_plan_id":"cebpf4jnsgd1na2vs0mg"},{"bike_id":"b1546e3b-f9e3-4808-ab44-6d85eb104d47","system_id":"levelo_inurba_marseille","lat":43.30272,"lon":5.37694,"is_reserved":false,"is_disabled":false,"rental_uris":{"android":"levelo://app?vid=b1546e3b-f9e3-4808-ab44-6d85eb104d47","ios":"levelo://app?vid=b1546e3b-f9e3-4808-ab44-6d85eb104d47"},"vehicle_type_id":"4","last_reported":1758118190,"current_range_meters":9200,"station_id":"","pricing_plan_id":"cebpf4jnsgd1na2vs0mg"},{"bike_id":"0ede21be-37d9-4495-b672-80274a6292be","system_id":"levelo_inurba_marseille","lat":43.35079,"lon":5.340985,"is_reserved":false,"is_disabled":false,"rental_uris":{"android":"levelo://app?vid=0ede21be-37d9-4495-b672-80274a6292be","ios":"levelo://app?vid=0ede21be-37d9-4495-b672-80274a6292be"},"vehicle_type_id":"4","last_reported":1758118190,"current_range_meters":9200,"station_id":"","pricing_plan_id":"cebpf4jnsgd1na2vs0mg"},{"bike_id":"ece07351-e21d-4c48-bd8e-d6076d0d6379","system_id":"levelo_inurba_marseille","lat":43.284705,"lon":5.374929,"is_reserved":false,"is_disabled":false,"rental_uris":{"android":"levelo://app?vid=ece07351-e21d-4c48-bd8e-d6076d0d6379","ios":"levelo://app?vid=ece07351-e21d-4c48-bd8e-d6076d0d6379"},"vehicle_type_id":"4","last_reported":1758118190,"current_range_meters":9600,"station_id":"","pricing_plan_id":"cebpf4jnsgd1na2vs0mg"},{"bike_id":"3d23aaa6-72ad-4925-bc5e-75c95de3d428","system_id":"levelo_inurba_marseille","lat":43.26492,"lon":5.39551,"is_reserved":false,"is_disabled":false,"rental_uris":{"android":"levelo://app?vid=3d23aaa6-72ad-4925-bc5e-75c95de3d428","ios":"levelo://app?vid=3d23aaa6-72ad-4925-bc5e-75c95de3d428"},"vehicle_type_id":"4","last_reported":1758118190,"current_range_meters":9600,"station_id":"ce4bhi12rcd13ifvqfq0","pricing_plan_id":"cebpf4jnsgd1na2vs0mg"},{"bike_id":"41e5a42f-6e76-4802-a8a8-260cb3eafed1","system_id":"levelo_inurba_marseille","lat":43.28937,"lon":5.36633,"is_reserved":false,"is_disabled":false,"rental_uris":{"android":"levelo://app?vid=41e5a42f-6e76-4802-a8a8-260cb3eafed1","ios":"levelo://app?vid=41e5a42f-6e76-4802-a8a8-260cb3eafed1"},"vehicle_type_id":"4","last_reported":1758118190,"current_range_meters":9600,"station_id":"ce4bhap2rcd13ifvqek0","pricing_plan_id":"cebpf4jnsgd1na2vs0mg"},{"bike_id":"9ce51b39-05c4-4d63-b0b9-e3f66d0aef0a","system_id":"levelo_inurba_marseille","lat":43.212371,"lon":5.350221,"is_reserved":false,"is_disabled":false,"rental_uris":{"android":"levelo://app?vid=9ce51b39-05c4-4d63-b0b9-e3f66d0aef0a","ios":"levelo://app?vid=9ce51b39-05c4-4d63-b0b9-e3f66d0aef0a"},"vehicle_type_id":"4","last_reported":1758118190,"current_range_meters":9600,"station_id":"","pricing_plan_id":"cebpf4jnsgd1na2vs0mg"},{"bike_id":"775af279-8ac9-4585-9121-809be9b13265","system_id":"levelo_inurba_marseille","lat":43.33772,"lon":5.37414,"is_reserved":false,"is_disabled":false,"rental_uris":{"android":"levelo://app?vid=775af279-8ac9-4585-9121-809be9b13265","ios":"levelo://app?vid=775af279-8ac9-4585-9121-809be9b13265"},"vehicle_type_id":"4","last_reported":1758118190,"current_range_meters":10000,"station_id":"","pricing_plan_id":"cebpf4jnsgd1na2vs0mg"},{"bike_id":"edd8c7ec-830a-4d35-889d-a6e3243fdac0","system_id":"levelo_inurba_marseille","lat":43.29634,"lon":5.4059,"is_reserved":false,"is_disabled":false,"rental_uris":{"android":"levelo://app?vid=edd8c7ec-830a-4d35-889d-a6e3243fdac0","ios":"levelo://app?vid=edd8c7ec-830a-4d35-889d-a6e3243fdac0"},"vehicle_type_id":"4","last_reported":1758118190,"current_range_meters":10000,"station_id":"ce4bh0h2rcd13ifvqd60","pricing_plan_id":"cebpf4jnsgd1na2vs0mg"},{"bike_id":"5b9553d2-d06f-4ff3-a060-ee806698d5f3","system_id":"levelo_inurba_marseille","lat":43.32374,"lon":5.40634,"is_reserved":false,"is_disabled":false,"rental_uris":{"android":"levelo://app?vid=5b9553d2-d06f-4ff3-a060-ee806698d5f3","ios":"levelo://app?vid=5b9553d2-d06f-4ff3-a060-ee806698d5f3"},"vehicle_type_id":"4","last_reported":1758118190,"current_range_meters":10000,"station_id":"ce4bhq92rcd13ifvqhjg","pricing_plan_id":"cebpf4jnsgd1na2vs0mg"},{"bike_id":"003515e8-8117-44bb-979d-5f47e8d50fda","system_id":"levelo_inurba_marseille","lat":43.30652,"lon":5.37549,"is_reserved":false,"is_disabled":false,"rental_uris":{"android":"levelo://app?vid=003515e8-8117-44bb-979d-5f47e8d50fda","ios":"levelo://app?vid=003515e8-8117-44bb-979d-5f47e8d50fda"},"vehicle_type_id":"4","last_reported":1758118190,"current_range_meters":10800,"station_id":"","pricing_plan_id":"cebpf4jnsgd1na2vs0mg"},{"bike_id":"30e1b022-5f93-4c6a-93ab-79cdebf34f1a","system_id":"levelo_inurba_marseille","lat":43.28625,"lon":5.35098,"is_reserved":false,"is_disabled":false,"rental_uris":{"android":"levelo://app?vid=30e1b022-5f93-4c6a-93ab-79cdebf34f1a","ios":"levelo://app?vid=30e1b022-5f93-4c6a-93ab-79cdebf34f1a"},"vehicle_type_id":"4","last_reported":1758118190,"current_range_meters":10800,"station_id":"ce4bhch2rcd13ifvqeug","pricing_plan_id":"cebpf4jnsgd1na2vs0mg"},{"bike_id":"e4a2882d-33d7-4de8-a46d-46d9d158d629","system_id":"levelo_inurba_marseille","lat":43.26946,"lon":5.38634,"is_reserved":false,"is_disabled":false,"rental_uris":{"android":"levelo://app?vid=e4a2882d-33d7-4de8-a46d-46d9d158d629","ios":"levelo://app?vid=e4a2882d-33d7-4de8-a46d-46d9d158d629"},"vehicle_type_id":"4","last_reported":1758118190,"current_range_meters":10800,"station_id":"ce4bhh92rcd13ifvqfh0","pricing_plan_id":"cebpf4jnsgd1na2vs0mg"},{"bike_id":"261d2916-4ed1-4248-90c7-dbff340327e9","system_id":"levelo_inurba_marseille","lat":43.24391,"lon":5.37065,"is_reserved":false,"is_disabled":false,"rental_uris":{"android":"levelo://app?vid=261d2916-4ed1-4248-90c7-dbff340327e9","ios":"levelo://app?vid=261d2916-4ed1-4248-90c7-dbff340327e9"},"vehicle_type_id":"4","last_reported":1758118190,"current_range_meters":10800,"station_id":"ce4bhhh2rcd13ifvqfk0","pricing_plan_id":"cebpf4jnsgd1na2vs0mg"},{"bike_id":"be550be2-a2ed-43bf-b18c-646836d305c3","system_id":"levelo_inurba_marseille","lat":43.21183,"lon":5.3508,"is_reserved":false,"is_disabled":false,"rental_uris":{"android":"levelo://app?vid=be550be2-a2ed-43bf-b18c-646836d305c3","ios":"levelo://app?vid=be550be2-a2ed-43bf-b18c-646836d305c3"},"vehicle_type_id":"4","last_reported":1758118190,"current_range_meters":11200,"station_id":"st_cvj6sg6p6f1abm77japg","pricing_plan_id":"cebpf4jnsgd1na2vs0mg"},{"bike_id":"b157e61d-10b6-4b56-983d-033b3aeef3b9","system_id":"levelo_inurba_marseille","lat":43.3245,"lon":5.36575,"is_reserved":false,"is_disabled":false,"rental_uris":{"android":"levelo://app?vid=b157e61d-10b6-4b56-983d-033b3aeef3b9","ios":"levelo://app?vid=b157e61d-10b6-4b56-983d-033b3aeef3b9"},"vehicle_type_id":"4","last_reported":1758118190,"current_range_meters":11200,"station_id":"ce4bhs12rcd13ifvqhvg","pricing_plan_id":"cebpf4jnsgd1na2vs0mg"},{"bike_id":"fcd56ccc-f0ab-49ef-a538-8c498b5ecd49","system_id":"levelo_inurba_marseille","lat":43.22563,"lon":5.41624,"is_reserved":false,"is_disabled":false,"rental_uris":{"android":"levelo://app?vid=fcd56ccc-f0ab-49ef-a538-8c498b5ecd49","ios":"levelo://app?vid=fcd56ccc-f0ab-49ef-a538-8c498b5ecd49"},"vehicle_type_id":"4","last_reported":1758118190,"current_range_meters":11200,"station_id":"st_d2o4gvlbi1j2169b742g","pricing_plan_id":"cebpf4jnsgd1na2vs0mg"},{"bike_id":"e7dc83ef-183a-4b89-aa0e-727289c32397","system_id":"levelo_inurba_marseille","lat":43.29559,"lon":5.37502,"is_reserved":false,"is_disabled":false,"rental_uris":{"android":"levelo://app?vid=e7dc83ef-183a-4b89-aa0e-727289c32397","ios":"levelo://app?vid=e7dc83ef-183a-4b89-aa0e-727289c32397"},"vehicle_type_id":"4","last_reported":1758118190,"current_range_meters":11200,"station_id":"","pricing_plan_id":"cebpf4jnsgd1na2vs0mg"},{"bike_id":"00f7f628-5c4f-4dd5-8ff2-83b357370347","system_id":"levelo_inurba_marseille","lat":43.28411,"lon":5.37502,"is_reserved":false,"is_disabled":false,"rental_uris":{"android":"levelo://app?vid=00f7f628-5c4f-4dd5-8ff2-83b357370347","ios":"levelo://app?vid=00f7f628-5c4f-4dd5-8ff2-83b357370347"},"vehicle_type_id":"4","last_reported":1758118190,"current_range_meters":11200,"station_id":"ce4bh412rcd13ifvqds0","pricing_plan_id":"cebpf4jnsgd1na2vs0mg"},{"bike_id":"ce7a52ed-1f8f-442d-b260-b9a219993008","system_id":"levelo_inurba_marseille","lat":43.24179,"lon":5.397028,"is_reserved":false,"is_disabled":false,"rental_uris":{"android":"levelo://app?vid=ce7a52ed-1f8f-442d-b260-b9a219993008","ios":"levelo://app?vid=ce7a52ed-1f8f-442d-b260-b9a219993008"},"vehicle_type_id":"4","last_reported":1758118190,"current_range_meters":11600,"station_id":"ce4bhn12rcd13ifvqgpg","pricing_plan_id":"cebpf4jnsgd1na2vs0mg"},{"bike_id":"657b626d-5eeb-4547-9ab7-8104bc3d1cdb","system_id":"levelo_inurba_marseille","lat":43.24648,"lon":5.3889,"is_reserved":false,"is_disabled":false,"rental_uris":{"android":"levelo://app?vid=657b626d-5eeb-4547-9ab7-8104bc3d1cdb","ios":"levelo://app?vid=657b626d-5eeb-4547-9ab7-8104bc3d1cdb"},"vehicle_type_id":"4","last_reported":1758118190,"current_range_meters":11600,"station_id":"ce4bhg12rcd13ifvqf60","pricing_plan_id":"cebpf4jnsgd1na2vs0mg"},{"bike_id":"cd7cfaf5-24f2-48c6-92f8-521d45451362","system_id":"levelo_inurba_marseille","lat":43.27202,"lon":5.40998,"is_reserved":false,"is_disabled":false,"rental_uris":{"android":"levelo://app?vid=cd7cfaf5-24f2-48c6-92f8-521d45451362","ios":"levelo://app?vid=cd7cfaf5-24f2-48c6-92f8-521d45451362"},"vehicle_type_id":"4","last_reported":1758118190,"current_range_meters":11600,"station_id":"ce4bhl12rcd13ifvqgf0","pricing_plan_id":"cebpf4jnsgd1na2vs0mg"},{"bike_id":"8a0509f7-d10e-4e10-b32f-1ca2988bf32f","system_id":"levelo_inurba_marseille","lat":43.21193,"lon":5.35069,"is_reserved":false,"is_disabled":false,"rental_uris":{"android":"levelo://app?vid=8a0509f7-d10e-4e10-b32f-1ca2988bf32f","ios":"levelo://app?vid=8a0509f7-d10e-4e10-b32f-1ca2988bf32f"},"vehicle_type_id":"4","last_reported":1758118190,"current_range_meters":11600,"station_id":"","pricing_plan_id":"cebpf4jnsgd1na2vs0mg"},{"bike_id":"6e93ec46-5b87-44a0-ae94-b35d00c45db5","system_id":"levelo_inurba_marseille","lat":43.31881,"lon":5.40734,"is_reserved":false,"is_disabled":false,"rental_uris":{"android":"levelo://app?vid=6e93ec46-5b87-44a0-ae94-b35d00c45db5","ios":"levelo://app?vid=6e93ec46-5b87-44a0-ae94-b35d00c45db5"},"vehicle_type_id":"4","last_reported":1758118190,"current_range_meters":11600,"station_id":"ce4bhq12rcd13ifvqhig","pricing_plan_id":"cebpf4jnsgd1na2vs0mg"},{"bike_id":"7a2987ac-64ed-4900-b222-80e1e2b64897","system_id":"levelo_inurba_marseille","lat":43.24176,"lon":5.39731,"is_reserved":false,"is_disabled":false,"rental_uris":{"android":"levelo://app?vid=7a2987ac-64ed-4900-b222-80e1e2b64897","ios":"levelo://app?vid=7a2987ac-64ed-4900-b222-80e1e2b64897"},"vehicle_type_id":"4","last_reported":1758118190,"current_range_meters":11200,"station_id":"ce4bhn12rcd13ifvqgpg","pricing_plan_id":"cebpf4jnsgd1na2vs0mg"},{"bike_id":"4d428ea9-1dcb-4a75-b622-5cb7b20a1dad","system_id":"levelo_inurba_marseille","lat":43.32354,"lon":5.3675,"is_reserved":false,"is_disabled":false,"rental_uris":{"android":"levelo://app?vid=4d428ea9-1dcb-4a75-b622-5cb7b20a1dad","ios":"levelo://app?vid=4d428ea9-1dcb-4a75-b622-5cb7b20a1dad"},"vehicle_type_id":"4","last_reported":1758118190,"current_range_meters":12000,"station_id":"ce4bhsh2rcd13ifvqi2g","pricing_plan_id":"cebpf4jnsgd1na2vs0mg"},{"bike_id":"ca5a1340-d41e-49f3-95f8-599734e0a36c","system_id":"levelo_inurba_marseille","lat":43.225336,"lon":5.348339,"is_reserved":false,"is_disabled":false,"rental_uris":{"android":"levelo://app?vid=ca5a1340-d41e-49f3-95f8-599734e0a36c","ios":"levelo://app?vid=ca5a1340-d41e-49f3-95f8-599734e0a36c"},"vehicle_type_id":"4","last_reported":1758118190,"current_range_meters":12000,"station_id":"","pricing_plan_id":"cebpf4jnsgd1na2vs0mg"},{"bike_id":"a4c5d1da-b728-4a0a-a897-920fb50df0e1","system_id":"levelo_inurba_marseille","lat":43.21188,"lon":5.35066,"is_reserved":false,"is_disabled":false,"rental_uris":{"android":"levelo://app?vid=a4c5d1da-b728-4a0a-a897-920fb50df0e1","ios":"levelo://app?vid=a4c5d1da-b728-4a0a-a897-920fb50df0e1"},"vehicle_type_id":"4","last_reported":1758118190,"current_range_meters":12000,"station_id":"st_cvj6sg6p6f1abm77japg","pricing_plan_id":"cebpf4jnsgd1na2vs0mg"},{"bike_id":"5701fe9c-3e98-4b9f-a910-5eb395d4e5d3","system_id":"levelo_inurba_marseille","lat":43.305389,"lon":5.384223,"is_reserved":false,"is_disabled":false,"rental_uris":{"android":"levelo://app?vid=5701fe9c-3e98-4b9f-a910-5eb395d4e5d3","ios":"levelo://app?vid=5701fe9c-3e98-4b9f-a910-5eb395d4e5d3"},"vehicle_type_id":"4","last_reported":1758118190,"current_range_meters":12000,"station_id":"","pricing_plan_id":"cebpf4jnsgd1na2vs0mg"},{"bike_id":"8c28d726-40ee-44cb-871f-c030e17382ee","system_id":"levelo_inurba_marseille","lat":43.29303,"lon":5.37165,"is_reserved":false,"is_disabled":false,"rental_uris":{"android":"levelo://app?vid=8c28d726-40ee-44cb-871f-c030e17382ee","ios":"levelo://app?vid=8c28d726-40ee-44cb-871f-c030e17382ee"},"vehicle_type_id":"4","last_reported":1758118190,"current_range_meters":12000,"station_id":"ce4bgh92rcd13ifvqb40","pricing_plan_id":"cebpf4jnsgd1na2vs0mg"},{"bike_id":"89668589-bbb4-43de-8d13-1ae786f19b9c","system_id":"levelo_inurba_marseille","lat":43.25329,"lon":5.42169,"is_reserved":false,"is_disabled":false,"rental_uris":{"android":"levelo://app?vid=89668589-bbb4-43de-8d13-1ae786f19b9c","ios":"levelo://app?vid=89668589-bbb4-43de-8d13-1ae786f19b9c"},"vehicle_type_id":"4","last_reported":1758118190,"current_range_meters":12400,"station_id":"st_d2m65c5bi1j21697t3ng","pricing_plan_id":"cebpf4jnsgd1na2vs0mg"},{"bike_id":"15f32c2f-a3a4-4b35-b4da-8f600fce0872","system_id":"levelo_inurba_marseille","lat":43.31349,"lon":5.36692,"is_reserved":false,"is_disabled":false,"rental_uris":{"android":"levelo://app?vid=15f32c2f-a3a4-4b35-b4da-8f600fce0872","ios":"levelo://app?vid=15f32c2f-a3a4-4b35-b4da-8f600fce0872"},"vehicle_type_id":"4","last_reported":1758118190,"current_range_meters":12400,"station_id":"ce4bgr92rcd13ifvqc6g","pricing_plan_id":"cebpf4jnsgd1na2vs0mg"},{"bike_id":"117722f6-2dd9-4ed8-95b1-2dff48eeca7d","system_id":"levelo_inurba_marseille","lat":43.29625,"lon":5.37725,"is_reserved":false,"is_disabled":false,"rental_uris":{"android":"levelo://app?vid=117722f6-2dd9-4ed8-95b1-2dff48eeca7d","ios":"levelo://app?vid=117722f6-2dd9-4ed8-95b1-2dff48eeca7d"},"vehicle_type_id":"4","last_reported":1758118190,"current_range_meters":12400,"station_id":"ce4bgi92rcd13ifvqb90","pricing_plan_id":"cebpf4jnsgd1na2vs0mg"},{"bike_id":"19085c9d-fc82-4de3-8aba-78c5ecbd07ff","system_id":"levelo_inurba_marseille","lat":43.2827,"lon":5.35052,"is_reserved":false,"is_disabled":false,"rental_uris":{"android":"levelo://app?vid=19085c9d-fc82-4de3-8aba-78c5ecbd07ff","ios":"levelo://app?vid=19085c9d-fc82-4de3-8aba-78c5ecbd07ff"},"vehicle_type_id":"4","last_reported":1758118190,"current_range_meters":12400,"station_id":"ce4bhbp2rcd13ifvqerg","pricing_plan_id":"cebpf4jnsgd1na2vs0mg"},{"bike_id":"ff1775f4-2d61-4231-b471-8687387a784a","system_id":"levelo_inurba_marseille","lat":43.28419,"lon":5.34975,"is_reserved":false,"is_disabled":false,"rental_uris":{"android":"levelo://app?vid=ff1775f4-2d61-4231-b471-8687387a784a","ios":"levelo://app?vid=ff1775f4-2d61-4231-b471-8687387a784a"},"vehicle_type_id":"4","last_reported":1758118190,"current_range_meters":12400,"station_id":"ce4bhbh2rcd13ifvqepg","pricing_plan_id":"cebpf4jnsgd1na2vs0mg"},{"bike_id":"2a5e641a-ca90-4f3a-9350-63bb94d9cebf","system_id":"levelo_inurba_marseille","lat":43.25575,"lon":5.39167,"is_reserved":false,"is_disabled":false,"rental_uris":{"android":"levelo://app?vid=2a5e641a-ca90-4f3a-9350-63bb94d9cebf","ios":"levelo://app?vid=2a5e641a-ca90-4f3a-9350-63bb94d9cebf"},"vehicle_type_id":"4","last_reported":1758118190,"current_range_meters":12400,"station_id":"","pricing_plan_id":"cebpf4jnsgd1na2vs0mg"},{"bike_id":"a7870ee1-e46c-48b8-92b1-fad3f154e783","system_id":"levelo_inurba_marseille","lat":43.27618,"lon":5.36098,"is_reserved":false,"is_disabled":false,"rental_uris":{"android":"levelo://app?vid=a7870ee1-e46c-48b8-92b1-fad3f154e783","ios":"levelo://app?vid=a7870ee1-e46c-48b8-92b1-fad3f154e783"},"vehicle_type_id":"4","last_reported":1758118190,"current_range_meters":12400,"station_id":"ce4bgj92rcd13ifvqbe0","pricing_plan_id":"cebpf4jnsgd1na2vs0mg"},{"bike_id":"c8a657b5-31da-4ea6-b4bb-3e1044b0b148","system_id":"levelo_inurba_marseille","lat":43.26056,"lon":5.39396,"is_reserved":false,"is_disabled":false,"rental_uris":{"android":"levelo://app?vid=c8a657b5-31da-4ea6-b4bb-3e1044b0b148","ios":"levelo://app?vid=c8a657b5-31da-4ea6-b4bb-3e1044b0b148"},"vehicle_type_id":"4","last_reported":1758118190,"current_range_meters":12400,"station_id":"ce4bhh92rcd13ifvqfj0","pricing_plan_id":"cebpf4jnsgd1na2vs0mg"},{"bike_id":"71ffac2a-9a40-4b54-99c6-4654b26f17cf","system_id":"levelo_inurba_marseille","lat":43.27562,"lon":5.38408,"is_reserved":false,"is_disabled":false,"rental_uris":{"android":"levelo://app?vid=71ffac2a-9a40-4b54-99c6-4654b26f17cf","ios":"levelo://app?vid=71ffac2a-9a40-4b54-99c6-4654b26f17cf"},"vehicle_type_id":"4","last_reported":1758118190,"current_range_meters":12000,"station_id":"ce4bhh92rcd13ifvqfi0","pricing_plan_id":"cebpf4jnsgd1na2vs0mg"},{"bike_id":"97fac187-45a1-4e8f-be9b-a5c24559a733","system_id":"levelo_inurba_marseille","lat":43.21742,"lon":5.34609,"is_reserved":false,"is_disabled":false,"rental_uris":{"android":"levelo://app?vid=97fac187-45a1-4e8f-be9b-a5c24559a733","ios":"levelo://app?vid=97fac187-45a1-4e8f-be9b-a5c24559a733"},"vehicle_type_id":"4","last_reported":1758118190,"current_range_meters":12800,"station_id":"","pricing_plan_id":"cebpf4jnsgd1na2vs0mg"},{"bike_id":"76ec3b25-6b0f-4299-b130-9aff7942a904","system_id":"levelo_inurba_marseille","lat":43.25869,"lon":5.39891,"is_reserved":false,"is_disabled":false,"rental_uris":{"android":"levelo://app?vid=76ec3b25-6b0f-4299-b130-9aff7942a904","ios":"levelo://app?vid=76ec3b25-6b0f-4299-b130-9aff7942a904"},"vehicle_type_id":"4","last_reported":1758118190,"current_range_meters":12800,"station_id":"ce4bhl92rcd13ifvqghg","pricing_plan_id":"cebpf4jnsgd1na2vs0mg"},{"bike_id":"3bd4328c-8602-4615-9b28-d279cca560ee","system_id":"levelo_inurba_marseille","lat":43.2416,"lon":5.36403,"is_reserved":false,"is_disabled":false,"rental_uris":{"android":"levelo://app?vid=3bd4328c-8602-4615-9b28-d279cca560ee","ios":"levelo://app?vid=3bd4328c-8602-4615-9b28-d279cca560ee"},"vehicle_type_id":"4","last_reported":1758118190,"current_range_meters":12800,"station_id":"cpo36qri1sfpv3e86is0","pricing_plan_id":"cebpf4jnsgd1na2vs0mg"},{"bike_id":"a6e04ee1-2e96-43a4-9ac6-9f6f098bd658","system_id":"levelo_inurba_marseille","lat":43.29228,"lon":5.36071,"is_reserved":false,"is_disabled":false,"rental_uris":{"android":"levelo://app?vid=a6e04ee1-2e96-43a4-9ac6-9f6f098bd658","ios":"levelo://app?vid=a6e04ee1-2e96-43a4-9ac6-9f6f098bd658"},"vehicle_type_id":"4","last_reported":1758118190,"current_range_meters":12800,"station_id":"ce4bhbh2rcd13ifvqeqg","pricing_plan_id":"cebpf4jnsgd1na2vs0mg"},{"bike_id":"c73a275e-2ee2-419f-9037-185a47d60669","system_id":"levelo_inurba_marseille","lat":43.26805,"lon":5.40268,"is_reserved":false,"is_disabled":false,"rental_uris":{"android":"levelo://app?vid=c73a275e-2ee2-419f-9037-185a47d60669","ios":"levelo://app?vid=c73a275e-2ee2-419f-9037-185a47d60669"},"vehicle_type_id":"4","last_reported":1758118190,"current_range_meters":12800,"station_id":"ce501612rcd8frsf0b60","pricing_plan_id":"cebpf4jnsgd1na2vs0mg"},{"bike_id":"1ee7d58f-f9b8-4850-bdd5-8184bdafdca5","system_id":"levelo_inurba_marseille","lat":43.28409,"lon":5.34971,"is_reserved":false,"is_disabled":false,"rental_uris":{"android":"levelo://app?vid=1ee7d58f-f9b8-4850-bdd5-8184bdafdca5","ios":"levelo://app?vid=1ee7d58f-f9b8-4850-bdd5-8184bdafdca5"},"vehicle_type_id":"4","last_reported":1758118190,"current_range_meters":13600,"station_id":"ce4bhbh2rcd13ifvqepg","pricing_plan_id":"cebpf4jnsgd1na2vs0mg"},{"bike_id":"be7e6a52-5f32-4f5d-ab19-09bbc34d35a2","system_id":"levelo_inurba_marseille","lat":43.211966,"lon":5.350736,"is_reserved":false,"is_disabled":false,"rental_uris":{"android":"levelo://app?vid=be7e6a52-5f32-4f5d-ab19-09bbc34d35a2","ios":"levelo://app?vid=be7e6a52-5f32-4f5d-ab19-09bbc34d35a2"},"vehicle_type_id":"4","last_reported":1758118190,"current_range_meters":13600,"station_id":"st_cvj6sg6p6f1abm77japg","pricing_plan_id":"cebpf4jnsgd1na2vs0mg"},{"bike_id":"92cc1d49-d157-4e41-a166-f45c4ed4a9e6","system_id":"levelo_inurba_marseille","lat":43.24178,"lon":5.39721,"is_reserved":false,"is_disabled":false,"rental_uris":{"android":"levelo://app?vid=92cc1d49-d157-4e41-a166-f45c4ed4a9e6","ios":"levelo://app?vid=92cc1d49-d157-4e41-a166-f45c4ed4a9e6"},"vehicle_type_id":"4","last_reported":1758118190,"current_range_meters":13600,"station_id":"ce4bhn12rcd13ifvqgpg","pricing_plan_id":"cebpf4jnsgd1na2vs0mg"},{"bike_id":"482b62df-9f28-4c39-8b68-259cb80be92a","system_id":"levelo_inurba_marseille","lat":43.231934,"lon":5.355497,"is_reserved":false,"is_disabled":false,"rental_uris":{"android":"levelo://app?vid=482b62df-9f28-4c39-8b68-259cb80be92a","ios":"levelo://app?vid=482b62df-9f28-4c39-8b68-259cb80be92a"},"vehicle_type_id":"4","last_reported":1758118190,"current_range_meters":13600,"station_id":"ce4bhu92rcd13ifvqi70","pricing_plan_id":"cebpf4jnsgd1na2vs0mg"},{"bike_id":"8c02e5db-bd50-4f2b-8b3f-ae7899025658","system_id":"levelo_inurba_marseille","lat":43.29523,"lon":5.37485,"is_reserved":false,"is_disabled":false,"rental_uris":{"android":"levelo://app?vid=8c02e5db-bd50-4f2b-8b3f-ae7899025658","ios":"levelo://app?vid=8c02e5db-bd50-4f2b-8b3f-ae7899025658"},"vehicle_type_id":"4","last_reported":1758118190,"current_range_meters":14000,"station_id":"ce4bgkp2rcd13ifvqbmg","pricing_plan_id":"cebpf4jnsgd1na2vs0mg"},{"bike_id":"bb0ec7df-4cde-43b8-acc2-439a3422115e","system_id":"levelo_inurba_marseille","lat":43.29619,"lon":5.37154,"is_reserved":false,"is_disabled":false,"rental_uris":{"android":"levelo://app?vid=bb0ec7df-4cde-43b8-acc2-439a3422115e","ios":"levelo://app?vid=bb0ec7df-4cde-43b8-acc2-439a3422115e"},"vehicle_type_id":"4","last_reported":1758118190,"current_range_meters":14000,"station_id":"ce4bgnh2rcd13ifvqc0g","pricing_plan_id":"cebpf4jnsgd1na2vs0mg"},{"bike_id":"37ad602d-cb1a-4b1e-b770-8215fa573673","system_id":"levelo_inurba_marseille","lat":43.25014,"lon":5.38879,"is_reserved":false,"is_disabled":false,"rental_uris":{"android":"levelo://app?vid=37ad602d-cb1a-4b1e-b770-8215fa573673","ios":"levelo://app?vid=37ad602d-cb1a-4b1e-b770-8215fa573673"},"vehicle_type_id":"4","last_reported":1758118190,"current_range_meters":14000,"station_id":"ce4bhgp2rcd13ifvqfd0","pricing_plan_id":"cebpf4jnsgd1na2vs0mg"},{"bike_id":"e76ef879-317f-45ff-b2d9-c6c8304d675f","system_id":"levelo_inurba_marseille","lat":43.22933,"lon":5.35344,"is_reserved":false,"is_disabled":false,"rental_uris":{"android":"levelo://app?vid=e76ef879-317f-45ff-b2d9-c6c8304d675f","ios":"levelo://app?vid=e76ef879-317f-45ff-b2d9-c6c8304d675f"},"vehicle_type_id":"4","last_reported":1758118190,"current_range_meters":14400,"station_id":"cpo3532slgdg3j2ikp40","pricing_plan_id":"cebpf4jnsgd1na2vs0mg"},{"bike_id":"6db08a01-6423-4c0b-8332-57a8e86ce37f","system_id":"levelo_inurba_marseille","lat":43.2957,"lon":5.37506,"is_reserved":false,"is_disabled":false,"rental_uris":{"android":"levelo://app?vid=6db08a01-6423-4c0b-8332-57a8e86ce37f","ios":"levelo://app?vid=6db08a01-6423-4c0b-8332-57a8e86ce37f"},"vehicle_type_id":"4","last_reported":1758118190,"current_range_meters":14400,"station_id":"","pricing_plan_id":"cebpf4jnsgd1na2vs0mg"},{"bike_id":"85f948ed-1682-45f7-a3b6-c04b7f066b68","system_id":"levelo_inurba_marseille","lat":43.21205,"lon":5.35061,"is_reserved":false,"is_disabled":false,"rental_uris":{"android":"levelo://app?vid=85f948ed-1682-45f7-a3b6-c04b7f066b68","ios":"levelo://app?vid=85f948ed-1682-45f7-a3b6-c04b7f066b68"},"vehicle_type_id":"4","last_reported":1758118190,"current_range_meters":14400,"station_id":"st_cvj6sg6p6f1abm77japg","pricing_plan_id":"cebpf4jnsgd1na2vs0mg"},{"bike_id":"7c53e1e0-9efc-4c15-9c29-668d4dac4c59","system_id":"levelo_inurba_marseille","lat":43.2255,"lon":5.34812,"is_reserved":false,"is_disabled":false,"rental_uris":{"android":"levelo://app?vid=7c53e1e0-9efc-4c15-9c29-668d4dac4c59","ios":"levelo://app?vid=7c53e1e0-9efc-4c15-9c29-668d4dac4c59"},"vehicle_type_id":"4","last_reported":1758118190,"current_range_meters":14400,"station_id":"","pricing_plan_id":"cebpf4jnsgd1na2vs0mg"},{"bike_id":"ca7198a0-33ae-45a6-af9f-a420b6df11dc","system_id":"levelo_inurba_marseille","lat":43.29533,"lon":5.37393,"is_reserved":false,"is_disabled":false,"rental_uris":{"android":"levelo://app?vid=ca7198a0-33ae-45a6-af9f-a420b6df11dc","ios":"levelo://app?vid=ca7198a0-33ae-45a6-af9f-a420b6df11dc"},"vehicle_type_id":"4","last_reported":1758118190,"current_range_meters":14400,"station_id":"","pricing_plan_id":"cebpf4jnsgd1na2vs0mg"},{"bike_id":"73245cc3-385f-4686-a14b-bc08c986c1f6","system_id":"levelo_inurba_marseille","lat":43.28266,"lon":5.35056,"is_reserved":false,"is_disabled":false,"rental_uris":{"android":"levelo://app?vid=73245cc3-385f-4686-a14b-bc08c986c1f6","ios":"levelo://app?vid=73245cc3-385f-4686-a14b-bc08c986c1f6"},"vehicle_type_id":"4","last_reported":1758118190,"current_range_meters":14400,"station_id":"ce4bhbp2rcd13ifvqerg","pricing_plan_id":"cebpf4jnsgd1na2vs0mg"},{"bike_id":"c8d4d05f-3c7d-480a-bc5b-40df9fadaebe","system_id":"levelo_inurba_marseille","lat":43.28412,"lon":5.34976,"is_reserved":false,"is_disabled":false,"rental_uris":{"android":"levelo://app?vid=c8d4d05f-3c7d-480a-bc5b-40df9fadaebe","ios":"levelo://app?vid=c8d4d05f-3c7d-480a-bc5b-40df9fadaebe"},"vehicle_type_id":"4","last_reported":1758118190,"current_range_meters":14800,"station_id":"ce4bhbh2rcd13ifvqepg","pricing_plan_id":"cebpf4jnsgd1na2vs0mg"},{"bike_id":"55dfb17a-dc13-4669-82ac-2c676d600c2d","system_id":"levelo_inurba_marseille","lat":43.31351,"lon":5.37936,"is_reserved":false,"is_disabled":false,"rental_uris":{"android":"levelo://app?vid=55dfb17a-dc13-4669-82ac-2c676d600c2d","ios":"levelo://app?vid=55dfb17a-dc13-4669-82ac-2c676d600c2d"},"vehicle_type_id":"4","last_reported":1758118190,"current_range_meters":14800,"station_id":"","pricing_plan_id":"cebpf4jnsgd1na2vs0mg"},{"bike_id":"72de3630-030d-4acc-99f3-b57005bf420c","system_id":"levelo_inurba_marseille","lat":43.23966,"lon":5.36633,"is_reserved":false,"is_disabled":false,"rental_uris":{"android":"levelo://app?vid=72de3630-030d-4acc-99f3-b57005bf420c","ios":"levelo://app?vid=72de3630-030d-4acc-99f3-b57005bf420c"},"vehicle_type_id":"4","last_reported":1758118190,"current_range_meters":14800,"station_id":"ce4bhi12rcd13ifvqfp0","pricing_plan_id":"cebpf4jnsgd1na2vs0mg"},{"bike_id":"8820fe53-c528-49c4-b697-9c0a10bb76c8","system_id":"levelo_inurba_marseille","lat":43.317039,"lon":5.436849,"is_reserved":false,"is_disabled":false,"rental_uris":{"android":"levelo://app?vid=8820fe53-c528-49c4-b697-9c0a10bb76c8","ios":"levelo://app?vid=8820fe53-c528-49c4-b697-9c0a10bb76c8"},"vehicle_type_id":"4","last_reported":1758118190,"current_range_meters":14800,"station_id":"ce4bhp92rcd13ifvqhcg","pricing_plan_id":"cebpf4jnsgd1na2vs0mg"},{"bike_id":"394cf2a4-4550-4700-98cc-2cee23a72a5b","system_id":"levelo_inurba_marseille","lat":43.26556,"lon":5.37278,"is_reserved":false,"is_disabled":false,"rental_uris":{"android":"levelo://app?vid=394cf2a4-4550-4700-98cc-2cee23a72a5b","ios":"levelo://app?vid=394cf2a4-4550-4700-98cc-2cee23a72a5b"},"vehicle_type_id":"4","last_reported":1758118190,"current_range_meters":15200,"station_id":"ce4bhg12rcd13ifvqf70","pricing_plan_id":"cebpf4jnsgd1na2vs0mg"},{"bike_id":"75770afe-95f4-48f5-9609-79abf4cee6e4","system_id":"levelo_inurba_marseille","lat":43.301072,"lon":5.390925,"is_reserved":false,"is_disabled":false,"rental_uris":{"android":"levelo://app?vid=75770afe-95f4-48f5-9609-79abf4cee6e4","ios":"levelo://app?vid=75770afe-95f4-48f5-9609-79abf4cee6e4"},"vehicle_type_id":"4","last_reported":1758118190,"current_range_meters":15200,"station_id":"ce4bh192rcd13ifvqdb0","pricing_plan_id":"cebpf4jnsgd1na2vs0mg"},{"bike_id":"2ba0850a-8c7d-4530-bef9-78e1659bc674","system_id":"levelo_inurba_marseille","lat":43.27063,"lon":5.42289,"is_reserved":false,"is_disabled":false,"rental_uris":{"android":"levelo://app?vid=2ba0850a-8c7d-4530-bef9-78e1659bc674","ios":"levelo://app?vid=2ba0850a-8c7d-4530-bef9-78e1659bc674"},"vehicle_type_id":"4","last_reported":1758118190,"current_range_meters":15200,"station_id":"ce4bhk92rcd13ifvqgb0","pricing_plan_id":"cebpf4jnsgd1na2vs0mg"},{"bike_id":"f7254990-f51d-45fe-83e3-57aceffccbc4","system_id":"levelo_inurba_marseille","lat":43.22572,"lon":5.41632,"is_reserved":false,"is_disabled":false,"rental_uris":{"android":"levelo://app?vid=f7254990-f51d-45fe-83e3-57aceffccbc4","ios":"levelo://app?vid=f7254990-f51d-45fe-83e3-57aceffccbc4"},"vehicle_type_id":"4","last_reported":1758118190,"current_range_meters":16000,"station_id":"st_d2o4gvlbi1j2169b742g","pricing_plan_id":"cebpf4jnsgd1na2vs0mg"},{"bike_id":"1bb32f55-0b7a-4b53-8aa6-ee1d3f6931ca","system_id":"levelo_inurba_marseille","lat":43.24183,"lon":5.39734,"is_reserved":false,"is_disabled":false,"rental_uris":{"android":"levelo://app?vid=1bb32f55-0b7a-4b53-8aa6-ee1d3f6931ca","ios":"levelo://app?vid=1bb32f55-0b7a-4b53-8aa6-ee1d3f6931ca"},"vehicle_type_id":"4","last_reported":1758118190,"current_range_meters":16000,"station_id":"ce4bhn12rcd13ifvqgpg","pricing_plan_id":"cebpf4jnsgd1na2vs0mg"},{"bike_id":"22f0687d-25d3-4094-9c4a-293a61e189a6","system_id":"levelo_inurba_marseille","lat":43.24499,"lon":5.40204,"is_reserved":false,"is_disabled":false,"rental_uris":{"android":"levelo://app?vid=22f0687d-25d3-4094-9c4a-293a61e189a6","ios":"levelo://app?vid=22f0687d-25d3-4094-9c4a-293a61e189a6"},"vehicle_type_id":"4","last_reported":1758118190,"current_range_meters":16000,"station_id":"","pricing_plan_id":"cebpf4jnsgd1na2vs0mg"},{"bike_id":"55b92389-5b14-476b-9b1b-51f141b780c4","system_id":"levelo_inurba_marseille","lat":43.28409,"lon":5.34975,"is_reserved":false,"is_disabled":false,"rental_uris":{"android":"levelo://app?vid=55b92389-5b14-476b-9b1b-51f141b780c4","ios":"levelo://app?vid=55b92389-5b14-476b-9b1b-51f141b780c4"},"vehicle_type_id":"4","last_reported":1758118190,"current_range_meters":16000,"station_id":"ce4bhbh2rcd13ifvqepg","pricing_plan_id":"cebpf4jnsgd1na2vs0mg"},{"bike_id":"48731e44-1dec-4522-9a0f-5a32a9bf4649","system_id":"levelo_inurba_marseille","lat":43.29959,"lon":5.41324,"is_reserved":false,"is_disabled":false,"rental_uris":{"android":"levelo://app?vid=48731e44-1dec-4522-9a0f-5a32a9bf4649","ios":"levelo://app?vid=48731e44-1dec-4522-9a0f-5a32a9bf4649"},"vehicle_type_id":"4","last_reported":1758118190,"current_range_meters":15200,"station_id":"ce4bhp12rcd13ifvqh9g","pricing_plan_id":"cebpf4jnsgd1na2vs0mg"},{"bike_id":"3ee49f44-cb0a-4158-a8ce-ce6e24355b9d","system_id":"levelo_inurba_marseille","lat":43.315276,"lon":5.38675,"is_reserved":false,"is_disabled":false,"rental_uris":{"android":"levelo://app?vid=3ee49f44-cb0a-4158-a8ce-ce6e24355b9d","ios":"levelo://app?vid=3ee49f44-cb0a-4158-a8ce-ce6e24355b9d"},"vehicle_type_id":"4","last_reported":1758118190,"current_range_meters":16400,"station_id":"ce4bhqp2rcd13ifvqhng","pricing_plan_id":"cebpf4jnsgd1na2vs0mg"},{"bike_id":"935468b5-8538-4d9b-a91c-552ca25dbbbe","system_id":"levelo_inurba_marseille","lat":43.24167,"lon":5.39743,"is_reserved":false,"is_disabled":false,"rental_uris":{"android":"levelo://app?vid=935468b5-8538-4d9b-a91c-552ca25dbbbe","ios":"levelo://app?vid=935468b5-8538-4d9b-a91c-552ca25dbbbe"},"vehicle_type_id":"4","last_reported":1758118190,"current_range_meters":16400,"station_id":"ce4bhn12rcd13ifvqgpg","pricing_plan_id":"cebpf4jnsgd1na2vs0mg"},{"bike_id":"49230824-e0b0-4942-b254-aed72b06d282","system_id":"levelo_inurba_marseille","lat":43.26963,"lon":5.4055,"is_reserved":false,"is_disabled":false,"rental_uris":{"android":"levelo://app?vid=49230824-e0b0-4942-b254-aed72b06d282","ios":"levelo://app?vid=49230824-e0b0-4942-b254-aed72b06d282"},"vehicle_type_id":"4","last_reported":1758118190,"current_range_meters":16400,"station_id":"","pricing_plan_id":"cebpf4jnsgd1na2vs0mg"},{"bike_id":"cfb50b7d-b5e3-4945-9b4f-0d791991aab3","system_id":"levelo_inurba_marseille","lat":43.231838,"lon":5.436045,"is_reserved":false,"is_disabled":false,"rental_uris":{"android":"levelo://app?vid=cfb50b7d-b5e3-4945-9b4f-0d791991aab3","ios":"levelo://app?vid=cfb50b7d-b5e3-4945-9b4f-0d791991aab3"},"vehicle_type_id":"4","last_reported":1758118190,"current_range_meters":16400,"station_id":"","pricing_plan_id":"cebpf4jnsgd1na2vs0mg"},{"bike_id":"c30270fa-25a9-4f22-b5ca-5c0ba4922151","system_id":"levelo_inurba_marseille","lat":43.259314,"lon":5.409084,"is_reserved":false,"is_disabled":false,"rental_uris":{"android":"levelo://app?vid=c30270fa-25a9-4f22-b5ca-5c0ba4922151","ios":"levelo://app?vid=c30270fa-25a9-4f22-b5ca-5c0ba4922151"},"vehicle_type_id":"4","last_reported":1758118190,"current_range_meters":16400,"station_id":"ce4bhm92rcd13ifvqglg","pricing_plan_id":"cebpf4jnsgd1na2vs0mg"},{"bike_id":"06a0fb0b-de4b-4817-b71f-e911b6d09941","system_id":"levelo_inurba_marseille","lat":43.22559,"lon":5.41638,"is_reserved":false,"is_disabled":false,"rental_uris":{"android":"levelo://app?vid=06a0fb0b-de4b-4817-b71f-e911b6d09941","ios":"levelo://app?vid=06a0fb0b-de4b-4817-b71f-e911b6d09941"},"vehicle_type_id":"4","last_reported":1758118190,"current_range_meters":16400,"station_id":"st_d2o4gvlbi1j2169b742g","pricing_plan_id":"cebpf4jnsgd1na2vs0mg"},{"bike_id":"1f5864eb-05d8-42a3-8a9c-945a3d96fa67","system_id":"levelo_inurba_marseille","lat":43.23146,"lon":5.43721,"is_reserved":false,"is_disabled":false,"rental_uris":{"android":"levelo://app?vid=1f5864eb-05d8-42a3-8a9c-945a3d96fa67","ios":"levelo://app?vid=1f5864eb-05d8-42a3-8a9c-945a3d96fa67"},"vehicle_type_id":"4","last_reported":1758118190,"current_range_meters":16400,"station_id":"ce4bhmp2rcd13ifvqgog","pricing_plan_id":"cebpf4jnsgd1na2vs0mg"},{"bike_id":"583484f4-21cb-4d89-a9ff-694de98c218c","system_id":"levelo_inurba_marseille","lat":43.25934,"lon":5.40886,"is_reserved":false,"is_disabled":false,"rental_uris":{"android":"levelo://app?vid=583484f4-21cb-4d89-a9ff-694de98c218c","ios":"levelo://app?vid=583484f4-21cb-4d89-a9ff-694de98c218c"},"vehicle_type_id":"4","last_reported":1758118190,"current_range_meters":16400,"station_id":"ce4bhm92rcd13ifvqglg","pricing_plan_id":"cebpf4jnsgd1na2vs0mg"},{"bike_id":"717ee42f-b007-4205-b8bf-cfeafeca79fc","system_id":"levelo_inurba_marseille","lat":43.24805,"lon":5.37453,"is_reserved":false,"is_disabled":false,"rental_uris":{"android":"levelo://app?vid=717ee42f-b007-4205-b8bf-cfeafeca79fc","ios":"levelo://app?vid=717ee42f-b007-4205-b8bf-cfeafeca79fc"},"vehicle_type_id":"4","last_reported":1758118190,"current_range_meters":16800,"station_id":"ce4bhgh2rcd13ifvqfb0","pricing_plan_id":"cebpf4jnsgd1na2vs0mg"},{"bike_id":"38f16850-97fc-4456-96e9-1adbf3fb6a25","system_id":"levelo_inurba_marseille","lat":43.22939,"lon":5.35392,"is_reserved":false,"is_disabled":false,"rental_uris":{"android":"levelo://app?vid=38f16850-97fc-4456-96e9-1adbf3fb6a25","ios":"levelo://app?vid=38f16850-97fc-4456-96e9-1adbf3fb6a25"},"vehicle_type_id":"4","last_reported":1758118190,"current_range_meters":16800,"station_id":"cpo3532slgdg3j2ikp40","pricing_plan_id":"cebpf4jnsgd1na2vs0mg"},{"bike_id":"37587cb6-b90c-451a-9fcb-9d9d066f7a64","system_id":"levelo_inurba_marseille","lat":43.32284,"lon":5.37003,"is_reserved":false,"is_disabled":false,"rental_uris":{"android":"levelo://app?vid=37587cb6-b90c-451a-9fcb-9d9d066f7a64","ios":"levelo://app?vid=37587cb6-b90c-451a-9fcb-9d9d066f7a64"},"vehicle_type_id":"4","last_reported":1758118190,"current_range_meters":16800,"station_id":"","pricing_plan_id":"cebpf4jnsgd1na2vs0mg"},{"bike_id":"b8bc0a4b-65e1-42ab-8cce-4474cf9597cb","system_id":"levelo_inurba_marseille","lat":43.24175,"lon":5.3638,"is_reserved":false,"is_disabled":false,"rental_uris":{"android":"levelo://app?vid=b8bc0a4b-65e1-42ab-8cce-4474cf9597cb","ios":"levelo://app?vid=b8bc0a4b-65e1-42ab-8cce-4474cf9597cb"},"vehicle_type_id":"4","last_reported":1758118190,"current_range_meters":16800,"station_id":"cpo36qri1sfpv3e86is0","pricing_plan_id":"cebpf4jnsgd1na2vs0mg"},{"bike_id":"9ff30164-db00-4645-b5c6-a0ed58fe73fb","system_id":"levelo_inurba_marseille","lat":43.26203,"lon":5.37916,"is_reserved":false,"is_disabled":false,"rental_uris":{"android":"levelo://app?vid=9ff30164-db00-4645-b5c6-a0ed58fe73fb","ios":"levelo://app?vid=9ff30164-db00-4645-b5c6-a0ed58fe73fb"},"vehicle_type_id":"4","last_reported":1758118190,"current_range_meters":16800,"station_id":"ce4bhjp2rcd13ifvqg90","pricing_plan_id":"cebpf4jnsgd1na2vs0mg"},{"bike_id":"d1788760-0706-4b90-8999-db00a9e42210","system_id":"levelo_inurba_marseille","lat":43.32797,"lon":5.41011,"is_reserved":false,"is_disabled":false,"rental_uris":{"android":"levelo://app?vid=d1788760-0706-4b90-8999-db00a9e42210","ios":"levelo://app?vid=d1788760-0706-4b90-8999-db00a9e42210"},"vehicle_type_id":"4","last_reported":1758118190,"current_range_meters":16800,"station_id":"","pricing_plan_id":"cebpf4jnsgd1na2vs0mg"},{"bike_id":"31762937-3db5-487a-95ac-e1e41dcdfacb","system_id":"levelo_inurba_marseille","lat":43.25722,"lon":5.41083,"is_reserved":false,"is_disabled":false,"rental_uris":{"android":"levelo://app?vid=31762937-3db5-487a-95ac-e1e41dcdfacb","ios":"levelo://app?vid=31762937-3db5-487a-95ac-e1e41dcdfacb"},"vehicle_type_id":"4","last_reported":1758118190,"current_range_meters":17200,"station_id":"ce4bhkp2rcd13ifvqgd0","pricing_plan_id":"cebpf4jnsgd1na2vs0mg"},{"bike_id":"046ba709-b940-4fa3-9690-1d81db536e4b","system_id":"levelo_inurba_marseille","lat":43.22566,"lon":5.41604,"is_reserved":false,"is_disabled":false,"rental_uris":{"android":"levelo://app?vid=046ba709-b940-4fa3-9690-1d81db536e4b","ios":"levelo://app?vid=046ba709-b940-4fa3-9690-1d81db536e4b"},"vehicle_type_id":"4","last_reported":1758118190,"current_range_meters":17200,"station_id":"st_d2o4gvlbi1j2169b742g","pricing_plan_id":"cebpf4jnsgd1na2vs0mg"},{"bike_id":"c2823468-5870-4713-8e9c-be72f17246de","system_id":"levelo_inurba_marseille","lat":43.24164,"lon":5.36388,"is_reserved":false,"is_disabled":false,"rental_uris":{"android":"levelo://app?vid=c2823468-5870-4713-8e9c-be72f17246de","ios":"levelo://app?vid=c2823468-5870-4713-8e9c-be72f17246de"},"vehicle_type_id":"4","last_reported":1758118190,"current_range_meters":17200,"station_id":"cpo36qri1sfpv3e86is0","pricing_plan_id":"cebpf4jnsgd1na2vs0mg"},{"bike_id":"152b725d-6f61-44b0-bc66-f31437aa6fe9","system_id":"levelo_inurba_marseille","lat":43.22556,"lon":5.41618,"is_reserved":false,"is_disabled":false,"rental_uris":{"android":"levelo://app?vid=152b725d-6f61-44b0-bc66-f31437aa6fe9","ios":"levelo://app?vid=152b725d-6f61-44b0-bc66-f31437aa6fe9"},"vehicle_type_id":"4","last_reported":1758118190,"current_range_meters":17200,"station_id":"st_d2o4gvlbi1j2169b742g","pricing_plan_id":"cebpf4jnsgd1na2vs0mg"},{"bike_id":"387c8295-5c1a-4e62-91c6-560b703e4279","system_id":"levelo_inurba_marseille","lat":43.32425,"lon":5.4266,"is_reserved":false,"is_disabled":false,"rental_uris":{"android":"levelo://app?vid=387c8295-5c1a-4e62-91c6-560b703e4279","ios":"levelo://app?vid=387c8295-5c1a-4e62-91c6-560b703e4279"},"vehicle_type_id":"4","last_reported":1758118190,"current_range_meters":17200,"station_id":"","pricing_plan_id":"cebpf4jnsgd1na2vs0mg"},{"bike_id":"366db7eb-27a4-42de-85c2-d39508404aec","system_id":"levelo_inurba_marseille","lat":43.25929,"lon":5.40892,"is_reserved":false,"is_disabled":false,"rental_uris":{"android":"levelo://app?vid=366db7eb-27a4-42de-85c2-d39508404aec","ios":"levelo://app?vid=366db7eb-27a4-42de-85c2-d39508404aec"},"vehicle_type_id":"4","last_reported":1758118190,"current_range_meters":17200,"station_id":"ce4bhm92rcd13ifvqglg","pricing_plan_id":"cebpf4jnsgd1na2vs0mg"},{"bike_id":"cf66592a-d8fa-4c6c-9927-5d7a9fef5026","system_id":"levelo_inurba_marseille","lat":43.26272,"lon":5.39848,"is_reserved":false,"is_disabled":false,"rental_uris":{"android":"levelo://app?vid=cf66592a-d8fa-4c6c-9927-5d7a9fef5026","ios":"levelo://app?vid=cf66592a-d8fa-4c6c-9927-5d7a9fef5026"},"vehicle_type_id":"4","last_reported":1758118190,"current_range_meters":17200,"station_id":"","pricing_plan_id":"cebpf4jnsgd1na2vs0mg"},{"bike_id":"9d181f5a-58ca-49a0-bbcc-8286d3ed3228","system_id":"levelo_inurba_marseille","lat":43.31348,"lon":5.38353,"is_reserved":false,"is_disabled":false,"rental_uris":{"android":"levelo://app?vid=9d181f5a-58ca-49a0-bbcc-8286d3ed3228","ios":"levelo://app?vid=9d181f5a-58ca-49a0-bbcc-8286d3ed3228"},"vehicle_type_id":"4","last_reported":1758118190,"current_range_meters":17200,"station_id":"","pricing_plan_id":"cebpf4jnsgd1na2vs0mg"},{"bike_id":"b949afca-1819-450b-894a-0ebaff51cb5c","system_id":"levelo_inurba_marseille","lat":43.32361,"lon":5.38878,"is_reserved":false,"is_disabled":false,"rental_uris":{"android":"levelo://app?vid=b949afca-1819-450b-894a-0ebaff51cb5c","ios":"levelo://app?vid=b949afca-1819-450b-894a-0ebaff51cb5c"},"vehicle_type_id":"4","last_reported":1758118190,"current_range_meters":17200,"station_id":"ce4bhqp2rcd13ifvqhog","pricing_plan_id":"cebpf4jnsgd1na2vs0mg"},{"bike_id":"4bd21c2a-783f-4704-a71b-ef419c6d12be","system_id":"levelo_inurba_marseille","lat":43.27986,"lon":5.41665,"is_reserved":false,"is_disabled":true,"rental_uris":{"android":"levelo://app?vid=4bd21c2a-783f-4704-a71b-ef419c6d12be","ios":"levelo://app?vid=4bd21c2a-783f-4704-a71b-ef419c6d12be"},"vehicle_type_id":"4","last_reported":1758118190,"current_range_meters":17600,"station_id":"ce4bho12rcd13ifvqh1g","pricing_plan_id":"cebpf4jnsgd1na2vs0mg"},{"bike_id":"84909a53-7cee-4dda-aefc-0cfd0ab4f8b1","system_id":"levelo_inurba_marseille","lat":43.21202,"lon":5.35082,"is_reserved":false,"is_disabled":false,"rental_uris":{"android":"levelo://app?vid=84909a53-7cee-4dda-aefc-0cfd0ab4f8b1","ios":"levelo://app?vid=84909a53-7cee-4dda-aefc-0cfd0ab4f8b1"},"vehicle_type_id":"4","last_reported":1758118190,"current_range_meters":17600,"station_id":"st_cvj6sg6p6f1abm77japg","pricing_plan_id":"cebpf4jnsgd1na2vs0mg"},{"bike_id":"31058aa8-df23-4ce4-8550-1679df1c0410","system_id":"levelo_inurba_marseille","lat":43.272031,"lon":5.391876,"is_reserved":false,"is_disabled":false,"rental_uris":{"android":"levelo://app?vid=31058aa8-df23-4ce4-8550-1679df1c0410","ios":"levelo://app?vid=31058aa8-df23-4ce4-8550-1679df1c0410"},"vehicle_type_id":"4","last_reported":1758118190,"current_range_meters":17600,"station_id":"","pricing_plan_id":"cebpf4jnsgd1na2vs0mg"},{"bike_id":"0c286eba-6afc-4994-a6f8-855d96cb634e","system_id":"levelo_inurba_marseille","lat":43.306022,"lon":5.372309,"is_reserved":false,"is_disabled":false,"rental_uris":{"android":"levelo://app?vid=0c286eba-6afc-4994-a6f8-855d96cb634e","ios":"levelo://app?vid=0c286eba-6afc-4994-a6f8-855d96cb634e"},"vehicle_type_id":"4","last_reported":1758118190,"current_range_meters":17600,"station_id":"ce4bgqh2rcd13ifvqc4g","pricing_plan_id":"cebpf4jnsgd1na2vs0mg"},{"bike_id":"1517d98c-06ba-4a13-9177-ef1d1cdcc518","system_id":"levelo_inurba_marseille","lat":43.25122,"lon":5.40318,"is_reserved":false,"is_disabled":false,"rental_uris":{"android":"levelo://app?vid=1517d98c-06ba-4a13-9177-ef1d1cdcc518","ios":"levelo://app?vid=1517d98c-06ba-4a13-9177-ef1d1cdcc518"},"vehicle_type_id":"4","last_reported":1758118190,"current_range_meters":17600,"station_id":"ce4bhlh2rcd13ifvqgig","pricing_plan_id":"cebpf4jnsgd1na2vs0mg"},{"bike_id":"e014798e-626f-45a3-b43b-7dd870678c5b","system_id":"levelo_inurba_marseille","lat":43.243065,"lon":5.375261,"is_reserved":false,"is_disabled":false,"rental_uris":{"android":"levelo://app?vid=e014798e-626f-45a3-b43b-7dd870678c5b","ios":"levelo://app?vid=e014798e-626f-45a3-b43b-7dd870678c5b"},"vehicle_type_id":"4","last_reported":1758118190,"current_range_meters":17600,"station_id":"","pricing_plan_id":"cebpf4jnsgd1na2vs0mg"},{"bike_id":"deb661f2-5534-4475-be08-77112fd3621c","system_id":"levelo_inurba_marseille","lat":43.27392,"lon":5.36223,"is_reserved":false,"is_disabled":false,"rental_uris":{"android":"levelo://app?vid=deb661f2-5534-4475-be08-77112fd3621c","ios":"levelo://app?vid=deb661f2-5534-4475-be08-77112fd3621c"},"vehicle_type_id":"4","last_reported":1758118190,"current_range_meters":17600,"station_id":"ce4bhbh2rcd13ifvqeo0","pricing_plan_id":"cebpf4jnsgd1na2vs0mg"},{"bike_id":"0609b588-e68f-4395-bb7a-acadd140d875","system_id":"levelo_inurba_marseille","lat":43.211918,"lon":5.350752,"is_reserved":false,"is_disabled":false,"rental_uris":{"android":"levelo://app?vid=0609b588-e68f-4395-bb7a-acadd140d875","ios":"levelo://app?vid=0609b588-e68f-4395-bb7a-acadd140d875"},"vehicle_type_id":"4","last_reported":1758118190,"current_range_meters":17600,"station_id":"st_cvj6sg6p6f1abm77japg","pricing_plan_id":"cebpf4jnsgd1na2vs0mg"},{"bike_id":"3e05f3ed-8e5b-42af-9ba3-918515acc360","system_id":"levelo_inurba_marseille","lat":43.22932,"lon":5.35374,"is_reserved":false,"is_disabled":false,"rental_uris":{"android":"levelo://app?vid=3e05f3ed-8e5b-42af-9ba3-918515acc360","ios":"levelo://app?vid=3e05f3ed-8e5b-42af-9ba3-918515acc360"},"vehicle_type_id":"4","last_reported":1758118190,"current_range_meters":18000,"station_id":"cpo3532slgdg3j2ikp40","pricing_plan_id":"cebpf4jnsgd1na2vs0mg"},{"bike_id":"aea6f879-8755-46ac-9991-f3f25ed301b1","system_id":"levelo_inurba_marseille","lat":43.26204,"lon":5.37921,"is_reserved":false,"is_disabled":false,"rental_uris":{"android":"levelo://app?vid=aea6f879-8755-46ac-9991-f3f25ed301b1","ios":"levelo://app?vid=aea6f879-8755-46ac-9991-f3f25ed301b1"},"vehicle_type_id":"4","last_reported":1758118190,"current_range_meters":18000,"station_id":"ce4bhjp2rcd13ifvqg90","pricing_plan_id":"cebpf4jnsgd1na2vs0mg"},{"bike_id":"b60450a3-e6b6-4a11-8d79-b3bdae61a0fe","system_id":"levelo_inurba_marseille","lat":43.30092,"lon":5.39074,"is_reserved":false,"is_disabled":true,"rental_uris":{"android":"levelo://app?vid=b60450a3-e6b6-4a11-8d79-b3bdae61a0fe","ios":"levelo://app?vid=b60450a3-e6b6-4a11-8d79-b3bdae61a0fe"},"vehicle_type_id":"4","last_reported":1758118190,"current_range_meters":18000,"station_id":"ce4bh192rcd13ifvqdb0","pricing_plan_id":"cebpf4jnsgd1na2vs0mg"},{"bike_id":"f4bf3cfd-f318-44c1-ad34-31822b00af21","system_id":"levelo_inurba_marseille","lat":43.25934,"lon":5.40902,"is_reserved":false,"is_disabled":false,"rental_uris":{"android":"levelo://app?vid=f4bf3cfd-f318-44c1-ad34-31822b00af21","ios":"levelo://app?vid=f4bf3cfd-f318-44c1-ad34-31822b00af21"},"vehicle_type_id":"4","last_reported":1758118190,"current_range_meters":18000,"station_id":"ce4bhm92rcd13ifvqglg","pricing_plan_id":"cebpf4jnsgd1na2vs0mg"},{"bike_id":"39fc2247-3e24-45b0-800d-10d0633c2483","system_id":"levelo_inurba_marseille","lat":43.31273,"lon":5.4016,"is_reserved":false,"is_disabled":false,"rental_uris":{"android":"levelo://app?vid=39fc2247-3e24-45b0-800d-10d0633c2483","ios":"levelo://app?vid=39fc2247-3e24-45b0-800d-10d0633c2483"},"vehicle_type_id":"4","last_reported":1758118190,"current_range_meters":18000,"station_id":"ce4bh092rcd13ifvqd30","pricing_plan_id":"cebpf4jnsgd1na2vs0mg"},{"bike_id":"737fa7c1-62a4-41e6-a851-7ad9cedfd338","system_id":"levelo_inurba_marseille","lat":43.26348,"lon":5.41063,"is_reserved":false,"is_disabled":false,"rental_uris":{"android":"levelo://app?vid=737fa7c1-62a4-41e6-a851-7ad9cedfd338","ios":"levelo://app?vid=737fa7c1-62a4-41e6-a851-7ad9cedfd338"},"vehicle_type_id":"4","last_reported":1758118190,"current_range_meters":18000,"station_id":"","pricing_plan_id":"cebpf4jnsgd1na2vs0mg"},{"bike_id":"3ef922d5-4a5e-4de1-883a-8f2314005e6c","system_id":"levelo_inurba_marseille","lat":43.28263,"lon":5.35063,"is_reserved":false,"is_disabled":false,"rental_uris":{"android":"levelo://app?vid=3ef922d5-4a5e-4de1-883a-8f2314005e6c","ios":"levelo://app?vid=3ef922d5-4a5e-4de1-883a-8f2314005e6c"},"vehicle_type_id":"4","last_reported":1758118190,"current_range_meters":18800,"station_id":"ce4bhbp2rcd13ifvqerg","pricing_plan_id":"cebpf4jnsgd1na2vs0mg"},{"bike_id":"3a97f215-1e27-4b60-ba21-e87af509194f","system_id":"levelo_inurba_marseille","lat":43.29004,"lon":5.35607,"is_reserved":false,"is_disabled":false,"rental_uris":{"android":"levelo://app?vid=3a97f215-1e27-4b60-ba21-e87af509194f","ios":"levelo://app?vid=3a97f215-1e27-4b60-ba21-e87af509194f"},"vehicle_type_id":"4","last_reported":1758118190,"current_range_meters":18800,"station_id":"ce4bhb92rcd13ifvqen0","pricing_plan_id":"cebpf4jnsgd1na2vs0mg"},{"bike_id":"c6339b10-a5f8-4338-852a-11643df64fa8","system_id":"levelo_inurba_marseille","lat":43.31992,"lon":5.38153,"is_reserved":false,"is_disabled":false,"rental_uris":{"android":"levelo://app?vid=c6339b10-a5f8-4338-852a-11643df64fa8","ios":"levelo://app?vid=c6339b10-a5f8-4338-852a-11643df64fa8"},"vehicle_type_id":"4","last_reported":1758118190,"current_range_meters":18800,"station_id":"ce4bhr12rcd13ifvqhpg","pricing_plan_id":"cebpf4jnsgd1na2vs0mg"},{"bike_id":"22338d89-7d89-4c76-af29-4f9b83526afc","system_id":"levelo_inurba_marseille","lat":43.25936,"lon":5.40919,"is_reserved":false,"is_disabled":false,"rental_uris":{"android":"levelo://app?vid=22338d89-7d89-4c76-af29-4f9b83526afc","ios":"levelo://app?vid=22338d89-7d89-4c76-af29-4f9b83526afc"},"vehicle_type_id":"4","last_reported":1758118190,"current_range_meters":18800,"station_id":"ce4bhm92rcd13ifvqglg","pricing_plan_id":"cebpf4jnsgd1na2vs0mg"},{"bike_id":"0f576b68-ef13-4014-a118-66481bf486e8","system_id":"levelo_inurba_marseille","lat":43.21196,"lon":5.35068,"is_reserved":false,"is_disabled":false,"rental_uris":{"android":"levelo://app?vid=0f576b68-ef13-4014-a118-66481bf486e8","ios":"levelo://app?vid=0f576b68-ef13-4014-a118-66481bf486e8"},"vehicle_type_id":"4","last_reported":1758118190,"current_range_meters":18800,"station_id":"st_cvj6sg6p6f1abm77japg","pricing_plan_id":"cebpf4jnsgd1na2vs0mg"},{"bike_id":"42323a1a-489c-43cb-90ae-c675b27444d5","system_id":"levelo_inurba_marseille","lat":43.21643,"lon":5.3436,"is_reserved":false,"is_disabled":false,"rental_uris":{"android":"levelo://app?vid=42323a1a-489c-43cb-90ae-c675b27444d5","ios":"levelo://app?vid=42323a1a-489c-43cb-90ae-c675b27444d5"},"vehicle_type_id":"4","last_reported":1758118190,"current_range_meters":18800,"station_id":"","pricing_plan_id":"cebpf4jnsgd1na2vs0mg"},{"bike_id":"40495e59-b743-486e-987c-cb0c3ab2f191","system_id":"levelo_inurba_marseille","lat":43.332,"lon":5.41075,"is_reserved":false,"is_disabled":false,"rental_uris":{"android":"levelo://app?vid=40495e59-b743-486e-987c-cb0c3ab2f191","ios":"levelo://app?vid=40495e59-b743-486e-987c-cb0c3ab2f191"},"vehicle_type_id":"4","last_reported":1758118190,"current_range_meters":18800,"station_id":"","pricing_plan_id":"cebpf4jnsgd1na2vs0mg"},{"bike_id":"be9ee84b-9ec1-497c-800c-5907ad1418ae","system_id":"levelo_inurba_marseille","lat":43.225639,"lon":5.416367,"is_reserved":false,"is_disabled":false,"rental_uris":{"android":"levelo://app?vid=be9ee84b-9ec1-497c-800c-5907ad1418ae","ios":"levelo://app?vid=be9ee84b-9ec1-497c-800c-5907ad1418ae"},"vehicle_type_id":"4","last_reported":1758118190,"current_range_meters":18800,"station_id":"st_d2o4gvlbi1j2169b742g","pricing_plan_id":"cebpf4jnsgd1na2vs0mg"},{"bike_id":"0260e4c3-96da-4b78-81ca-ac2ac7f64534","system_id":"levelo_inurba_marseille","lat":43.23184,"lon":5.39981,"is_reserved":false,"is_disabled":false,"rental_uris":{"android":"levelo://app?vid=0260e4c3-96da-4b78-81ca-ac2ac7f64534","ios":"levelo://app?vid=0260e4c3-96da-4b78-81ca-ac2ac7f64534"},"vehicle_type_id":"4","last_reported":1758118190,"current_range_meters":18800,"station_id":"ce4bhn12rcd13ifvqgqg","pricing_plan_id":"cebpf4jnsgd1na2vs0mg"},{"bike_id":"7820f675-554b-4966-bb81-f799d3a2aacc","system_id":"levelo_inurba_marseille","lat":43.2826,"lon":5.35063,"is_reserved":false,"is_disabled":false,"rental_uris":{"android":"levelo://app?vid=7820f675-554b-4966-bb81-f799d3a2aacc","ios":"levelo://app?vid=7820f675-554b-4966-bb81-f799d3a2aacc"},"vehicle_type_id":"4","last_reported":1758118190,"current_range_meters":19200,"station_id":"ce4bhbp2rcd13ifvqerg","pricing_plan_id":"cebpf4jnsgd1na2vs0mg"},{"bike_id":"ee751d23-c18f-4a36-82d9-5ea349971966","system_id":"levelo_inurba_marseille","lat":43.26808,"lon":5.40269,"is_reserved":false,"is_disabled":false,"rental_uris":{"android":"levelo://app?vid=ee751d23-c18f-4a36-82d9-5ea349971966","ios":"levelo://app?vid=ee751d23-c18f-4a36-82d9-5ea349971966"},"vehicle_type_id":"4","last_reported":1758118190,"current_range_meters":19200,"station_id":"ce501612rcd8frsf0b60","pricing_plan_id":"cebpf4jnsgd1na2vs0mg"},{"bike_id":"bc698e1b-5837-4268-934e-ea78070bf189","system_id":"levelo_inurba_marseille","lat":43.23184,"lon":5.39984,"is_reserved":false,"is_disabled":false,"rental_uris":{"android":"levelo://app?vid=bc698e1b-5837-4268-934e-ea78070bf189","ios":"levelo://app?vid=bc698e1b-5837-4268-934e-ea78070bf189"},"vehicle_type_id":"4","last_reported":1758118190,"current_range_meters":19200,"station_id":"ce4bhn12rcd13ifvqgqg","pricing_plan_id":"cebpf4jnsgd1na2vs0mg"},{"bike_id":"91ae0481-7bf9-41f8-848c-1fa9be6d502a","system_id":"levelo_inurba_marseille","lat":43.28409,"lon":5.34973,"is_reserved":false,"is_disabled":false,"rental_uris":{"android":"levelo://app?vid=91ae0481-7bf9-41f8-848c-1fa9be6d502a","ios":"levelo://app?vid=91ae0481-7bf9-41f8-848c-1fa9be6d502a"},"vehicle_type_id":"4","last_reported":1758118190,"current_range_meters":19200,"station_id":"ce4bhbh2rcd13ifvqepg","pricing_plan_id":"cebpf4jnsgd1na2vs0mg"},{"bike_id":"a4faa1fd-62ee-404a-aff8-b79ea6b6b5d2","system_id":"levelo_inurba_marseille","lat":43.32986,"lon":5.39245,"is_reserved":false,"is_disabled":false,"rental_uris":{"android":"levelo://app?vid=a4faa1fd-62ee-404a-aff8-b79ea6b6b5d2","ios":"levelo://app?vid=a4faa1fd-62ee-404a-aff8-b79ea6b6b5d2"},"vehicle_type_id":"4","last_reported":1758118190,"current_range_meters":19200,"station_id":"","pricing_plan_id":"cebpf4jnsgd1na2vs0mg"},{"bike_id":"ccd6ed49-0527-41ee-9a92-2dc9469b77ec","system_id":"levelo_inurba_marseille","lat":43.31986,"lon":5.3815,"is_reserved":false,"is_disabled":false,"rental_uris":{"android":"levelo://app?vid=ccd6ed49-0527-41ee-9a92-2dc9469b77ec","ios":"levelo://app?vid=ccd6ed49-0527-41ee-9a92-2dc9469b77ec"},"vehicle_type_id":"4","last_reported":1758118190,"current_range_meters":19200,"station_id":"ce4bhr12rcd13ifvqhpg","pricing_plan_id":"cebpf4jnsgd1na2vs0mg"},{"bike_id":"6b582cdd-f75e-4795-b86f-e70192626dc5","system_id":"levelo_inurba_marseille","lat":43.25929,"lon":5.40911,"is_reserved":false,"is_disabled":false,"rental_uris":{"android":"levelo://app?vid=6b582cdd-f75e-4795-b86f-e70192626dc5","ios":"levelo://app?vid=6b582cdd-f75e-4795-b86f-e70192626dc5"},"vehicle_type_id":"4","last_reported":1758118190,"current_range_meters":19200,"station_id":"ce4bhm92rcd13ifvqglg","pricing_plan_id":"cebpf4jnsgd1na2vs0mg"},{"bike_id":"fa0847a4-8d8b-47a2-9c0d-c16fe7a48c9b","system_id":"levelo_inurba_marseille","lat":43.330285,"lon":5.390556,"is_reserved":false,"is_disabled":false,"rental_uris":{"android":"levelo://app?vid=fa0847a4-8d8b-47a2-9c0d-c16fe7a48c9b","ios":"levelo://app?vid=fa0847a4-8d8b-47a2-9c0d-c16fe7a48c9b"},"vehicle_type_id":"4","last_reported":1758118190,"current_range_meters":19200,"station_id":"","pricing_plan_id":"cebpf4jnsgd1na2vs0mg"},{"bike_id":"8e3753e3-2b04-4fbf-b652-ac3e5b69e4f7","system_id":"levelo_inurba_marseille","lat":43.31482,"lon":5.37307,"is_reserved":false,"is_disabled":false,"rental_uris":{"android":"levelo://app?vid=8e3753e3-2b04-4fbf-b652-ac3e5b69e4f7","ios":"levelo://app?vid=8e3753e3-2b04-4fbf-b652-ac3e5b69e4f7"},"vehicle_type_id":"4","last_reported":1758118190,"current_range_meters":19200,"station_id":"ce4bgt12rcd13ifvqcd0","pricing_plan_id":"cebpf4jnsgd1na2vs0mg"},{"bike_id":"6499745b-7b8b-4d81-afa4-ba9c05652a7b","system_id":"levelo_inurba_marseille","lat":43.28585,"lon":5.37759,"is_reserved":false,"is_disabled":false,"rental_uris":{"android":"levelo://app?vid=6499745b-7b8b-4d81-afa4-ba9c05652a7b","ios":"levelo://app?vid=6499745b-7b8b-4d81-afa4-ba9c05652a7b"},"vehicle_type_id":"4","last_reported":1758118190,"current_range_meters":19200,"station_id":"","pricing_plan_id":"cebpf4jnsgd1na2vs0mg"},{"bike_id":"75737fe0-fbb8-4fb7-afdf-dde45147171d","system_id":"levelo_inurba_marseille","lat":43.27987,"lon":5.41653,"is_reserved":false,"is_disabled":false,"rental_uris":{"android":"levelo://app?vid=75737fe0-fbb8-4fb7-afdf-dde45147171d","ios":"levelo://app?vid=75737fe0-fbb8-4fb7-afdf-dde45147171d"},"vehicle_type_id":"4","last_reported":1758118190,"current_range_meters":19200,"station_id":"ce4bho12rcd13ifvqh1g","pricing_plan_id":"cebpf4jnsgd1na2vs0mg"},{"bike_id":"e1f51025-1404-4cca-96b7-273119670d5f","system_id":"levelo_inurba_marseille","lat":43.25201,"lon":5.42814,"is_reserved":false,"is_disabled":false,"rental_uris":{"android":"levelo://app?vid=e1f51025-1404-4cca-96b7-273119670d5f","ios":"levelo://app?vid=e1f51025-1404-4cca-96b7-273119670d5f"},"vehicle_type_id":"4","last_reported":1758118190,"current_range_meters":19200,"station_id":"","pricing_plan_id":"cebpf4jnsgd1na2vs0mg"},{"bike_id":"cc4b3742-b663-41a0-aafc-1bcafb544912","system_id":"levelo_inurba_marseille","lat":43.32368,"lon":5.36752,"is_reserved":false,"is_disabled":false,"rental_uris":{"android":"levelo://app?vid=cc4b3742-b663-41a0-aafc-1bcafb544912","ios":"levelo://app?vid=cc4b3742-b663-41a0-aafc-1bcafb544912"},"vehicle_type_id":"4","last_reported":1758118190,"current_range_meters":19200,"station_id":"ce4bhsh2rcd13ifvqi2g","pricing_plan_id":"cebpf4jnsgd1na2vs0mg"},{"bike_id":"0b10ddb4-ee5c-455a-9c4b-632333e8f0ff","system_id":"levelo_inurba_marseille","lat":43.28854,"lon":5.42517,"is_reserved":false,"is_disabled":false,"rental_uris":{"android":"levelo://app?vid=0b10ddb4-ee5c-455a-9c4b-632333e8f0ff","ios":"levelo://app?vid=0b10ddb4-ee5c-455a-9c4b-632333e8f0ff"},"vehicle_type_id":"4","last_reported":1758118190,"current_range_meters":19600,"station_id":"","pricing_plan_id":"cebpf4jnsgd1na2vs0mg"},{"bike_id":"0a68362e-f5d3-40c2-8eb6-58b476c1e495","system_id":"levelo_inurba_marseille","lat":43.277574,"lon":5.409974,"is_reserved":false,"is_disabled":false,"rental_uris":{"android":"levelo://app?vid=0a68362e-f5d3-40c2-8eb6-58b476c1e495","ios":"levelo://app?vid=0a68362e-f5d3-40c2-8eb6-58b476c1e495"},"vehicle_type_id":"4","last_reported":1758118190,"current_range_meters":19600,"station_id":"","pricing_plan_id":"cebpf4jnsgd1na2vs0mg"},{"bike_id":"d93f6aec-282b-42a6-9be0-fe23bad38a2b","system_id":"levelo_inurba_marseille","lat":43.24632,"lon":5.43112,"is_reserved":false,"is_disabled":true,"rental_uris":{"android":"levelo://app?vid=d93f6aec-282b-42a6-9be0-fe23bad38a2b","ios":"levelo://app?vid=d93f6aec-282b-42a6-9be0-fe23bad38a2b"},"vehicle_type_id":"4","last_reported":1758118190,"current_range_meters":19600,"station_id":"st_d2m6c4gdas8pm72e190g","pricing_plan_id":"cebpf4jnsgd1na2vs0mg"},{"bike_id":"9a338b36-7936-4c0c-a8ab-16452902f68c","system_id":"levelo_inurba_marseille","lat":43.26067,"lon":5.39396,"is_reserved":false,"is_disabled":false,"rental_uris":{"android":"levelo://app?vid=9a338b36-7936-4c0c-a8ab-16452902f68c","ios":"levelo://app?vid=9a338b36-7936-4c0c-a8ab-16452902f68c"},"vehicle_type_id":"4","last_reported":1758118190,"current_range_meters":19600,"station_id":"ce4bhh92rcd13ifvqfj0","pricing_plan_id":"cebpf4jnsgd1na2vs0mg"},{"bike_id":"4412a692-8ee0-4011-921c-1fd4403f8730","system_id":"levelo_inurba_marseille","lat":43.28407,"lon":5.34968,"is_reserved":false,"is_disabled":false,"rental_uris":{"android":"levelo://app?vid=4412a692-8ee0-4011-921c-1fd4403f8730","ios":"levelo://app?vid=4412a692-8ee0-4011-921c-1fd4403f8730"},"vehicle_type_id":"4","last_reported":1758118190,"current_range_meters":19600,"station_id":"ce4bhbh2rcd13ifvqepg","pricing_plan_id":"cebpf4jnsgd1na2vs0mg"},{"bike_id":"561a7abc-35ba-4c73-82a7-e9c8ea31be20","system_id":"levelo_inurba_marseille","lat":43.29897,"lon":5.38154,"is_reserved":false,"is_disabled":false,"rental_uris":{"android":"levelo://app?vid=561a7abc-35ba-4c73-82a7-e9c8ea31be20","ios":"levelo://app?vid=561a7abc-35ba-4c73-82a7-e9c8ea31be20"},"vehicle_type_id":"4","last_reported":1758118190,"current_range_meters":19600,"station_id":"ce4bgj12rcd13ifvqbc0","pricing_plan_id":"cebpf4jnsgd1na2vs0mg"},{"bike_id":"97228428-6d71-4e00-9212-12de895192c7","system_id":"levelo_inurba_marseille","lat":43.25124,"lon":5.4032,"is_reserved":false,"is_disabled":false,"rental_uris":{"android":"levelo://app?vid=97228428-6d71-4e00-9212-12de895192c7","ios":"levelo://app?vid=97228428-6d71-4e00-9212-12de895192c7"},"vehicle_type_id":"4","last_reported":1758118190,"current_range_meters":19600,"station_id":"ce4bhlh2rcd13ifvqgig","pricing_plan_id":"cebpf4jnsgd1na2vs0mg"},{"bike_id":"fd75375c-f679-4d54-932c-65c0b0f17af8","system_id":"levelo_inurba_marseille","lat":43.28661,"lon":5.36341,"is_reserved":false,"is_disabled":false,"rental_uris":{"android":"levelo://app?vid=fd75375c-f679-4d54-932c-65c0b0f17af8","ios":"levelo://app?vid=fd75375c-f679-4d54-932c-65c0b0f17af8"},"vehicle_type_id":"4","last_reported":1758118190,"current_range_meters":19600,"station_id":"ce4bhah2rcd13ifvqej0","pricing_plan_id":"cebpf4jnsgd1na2vs0mg"},{"bike_id":"acfec73f-5435-48eb-a869-eeb3dc5252c8","system_id":"levelo_inurba_marseille","lat":43.31297,"lon":5.37867,"is_reserved":false,"is_disabled":false,"rental_uris":{"android":"levelo://app?vid=acfec73f-5435-48eb-a869-eeb3dc5252c8","ios":"levelo://app?vid=acfec73f-5435-48eb-a869-eeb3dc5252c8"},"vehicle_type_id":"4","last_reported":1758118190,"current_range_meters":19600,"station_id":"","pricing_plan_id":"cebpf4jnsgd1na2vs0mg"},{"bike_id":"62e40de5-b0d8-4461-911d-e3f311da5575","system_id":"levelo_inurba_marseille","lat":43.23159,"lon":5.43701,"is_reserved":false,"is_disabled":false,"rental_uris":{"android":"levelo://app?vid=62e40de5-b0d8-4461-911d-e3f311da5575","ios":"levelo://app?vid=62e40de5-b0d8-4461-911d-e3f311da5575"},"vehicle_type_id":"4","last_reported":1758118190,"current_range_meters":20000,"station_id":"ce4bhmp2rcd13ifvqgog","pricing_plan_id":"cebpf4jnsgd1na2vs0mg"},{"bike_id":"4a82b6b6-0b03-46e5-8a6f-6907d2297480","system_id":"levelo_inurba_marseille","lat":43.3236,"lon":5.36759,"is_reserved":false,"is_disabled":false,"rental_uris":{"android":"levelo://app?vid=4a82b6b6-0b03-46e5-8a6f-6907d2297480","ios":"levelo://app?vid=4a82b6b6-0b03-46e5-8a6f-6907d2297480"},"vehicle_type_id":"4","last_reported":1758118190,"current_range_meters":20000,"station_id":"ce4bhsh2rcd13ifvqi2g","pricing_plan_id":"cebpf4jnsgd1na2vs0mg"},{"bike_id":"bd185fbb-729f-4221-8aa9-562ca885c1f5","system_id":"levelo_inurba_marseille","lat":43.22568,"lon":5.41622,"is_reserved":false,"is_disabled":false,"rental_uris":{"android":"levelo://app?vid=bd185fbb-729f-4221-8aa9-562ca885c1f5","ios":"levelo://app?vid=bd185fbb-729f-4221-8aa9-562ca885c1f5"},"vehicle_type_id":"4","last_reported":1758118190,"current_range_meters":20000,"station_id":"st_d2o4gvlbi1j2169b742g","pricing_plan_id":"cebpf4jnsgd1na2vs0mg"},{"bike_id":"45f6ceba-3123-4bb2-a6a1-083f1e953c55","system_id":"levelo_inurba_marseille","lat":43.30803,"lon":5.43512,"is_reserved":false,"is_disabled":true,"rental_uris":{"android":"levelo://app?vid=45f6ceba-3123-4bb2-a6a1-083f1e953c55","ios":"levelo://app?vid=45f6ceba-3123-4bb2-a6a1-083f1e953c55"},"vehicle_type_id":"4","last_reported":1758118190,"current_range_meters":20400,"station_id":"ce4bhph2rcd13ifvqheg","pricing_plan_id":"cebpf4jnsgd1na2vs0mg"},{"bike_id":"02b41a35-a14a-4038-b689-2e859aa90412","system_id":"levelo_inurba_marseille","lat":43.24549,"lon":5.39515,"is_reserved":false,"is_disabled":false,"rental_uris":{"android":"levelo://app?vid=02b41a35-a14a-4038-b689-2e859aa90412","ios":"levelo://app?vid=02b41a35-a14a-4038-b689-2e859aa90412"},"vehicle_type_id":"4","last_reported":1758118190,"current_range_meters":20400,"station_id":"ce4bhlp2rcd13ifvqgjg","pricing_plan_id":"cebpf4jnsgd1na2vs0mg"},{"bike_id":"a7581e98-461d-496d-ab58-5d07e591f3fd","system_id":"levelo_inurba_marseille","lat":43.28414,"lon":5.34984,"is_reserved":false,"is_disabled":false,"rental_uris":{"android":"levelo://app?vid=a7581e98-461d-496d-ab58-5d07e591f3fd","ios":"levelo://app?vid=a7581e98-461d-496d-ab58-5d07e591f3fd"},"vehicle_type_id":"4","last_reported":1758118190,"current_range_meters":20400,"station_id":"ce4bhbh2rcd13ifvqepg","pricing_plan_id":"cebpf4jnsgd1na2vs0mg"},{"bike_id":"f9418cc9-c64d-43d9-9060-3aeedd69cdee","system_id":"levelo_inurba_marseille","lat":43.33058,"lon":5.37851,"is_reserved":false,"is_disabled":false,"rental_uris":{"android":"levelo://app?vid=f9418cc9-c64d-43d9-9060-3aeedd69cdee","ios":"levelo://app?vid=f9418cc9-c64d-43d9-9060-3aeedd69cdee"},"vehicle_type_id":"4","last_reported":1758118190,"current_range_meters":20400,"station_id":"","pricing_plan_id":"cebpf4jnsgd1na2vs0mg"},{"bike_id":"3dd99c0e-0339-45f9-9258-b270a016d2b9","system_id":"levelo_inurba_marseille","lat":43.29187,"lon":5.35754,"is_reserved":false,"is_disabled":false,"rental_uris":{"android":"levelo://app?vid=3dd99c0e-0339-45f9-9258-b270a016d2b9","ios":"levelo://app?vid=3dd99c0e-0339-45f9-9258-b270a016d2b9"},"vehicle_type_id":"4","last_reported":1758118190,"current_range_meters":20800,"station_id":"ce4bhb12rcd13ifvqel0","pricing_plan_id":"cebpf4jnsgd1na2vs0mg"},{"bike_id":"eef07bdc-2592-47ec-b693-e0c4be9c19ff","system_id":"levelo_inurba_marseille","lat":43.258198,"lon":5.39441,"is_reserved":false,"is_disabled":false,"rental_uris":{"android":"levelo://app?vid=eef07bdc-2592-47ec-b693-e0c4be9c19ff","ios":"levelo://app?vid=eef07bdc-2592-47ec-b693-e0c4be9c19ff"},"vehicle_type_id":"4","last_reported":1758118190,"current_range_meters":20800,"station_id":"","pricing_plan_id":"cebpf4jnsgd1na2vs0mg"},{"bike_id":"e942f984-8fe7-48d1-8f04-3806656b9996","system_id":"levelo_inurba_marseille","lat":43.336274,"lon":5.379138,"is_reserved":false,"is_disabled":false,"rental_uris":{"android":"levelo://app?vid=e942f984-8fe7-48d1-8f04-3806656b9996","ios":"levelo://app?vid=e942f984-8fe7-48d1-8f04-3806656b9996"},"vehicle_type_id":"4","last_reported":1758118190,"current_range_meters":20800,"station_id":"","pricing_plan_id":"cebpf4jnsgd1na2vs0mg"},{"bike_id":"69e483ca-8884-47d8-b8ad-ade253f2b5e8","system_id":"levelo_inurba_marseille","lat":43.28722,"lon":5.36081,"is_reserved":false,"is_disabled":false,"rental_uris":{"android":"levelo://app?vid=69e483ca-8884-47d8-b8ad-ade253f2b5e8","ios":"levelo://app?vid=69e483ca-8884-47d8-b8ad-ade253f2b5e8"},"vehicle_type_id":"4","last_reported":1758118190,"current_range_meters":20800,"station_id":"cki0cbj6b192h4jlfktg","pricing_plan_id":"cebpf4jnsgd1na2vs0mg"},{"bike_id":"b52f3716-1202-4012-89fd-850a270432dc","system_id":"levelo_inurba_marseille","lat":43.24176,"lon":5.39723,"is_reserved":false,"is_disabled":false,"rental_uris":{"android":"levelo://app?vid=b52f3716-1202-4012-89fd-850a270432dc","ios":"levelo://app?vid=b52f3716-1202-4012-89fd-850a270432dc"},"vehicle_type_id":"4","last_reported":1758118190,"current_range_meters":21600,"station_id":"ce4bhn12rcd13ifvqgpg","pricing_plan_id":"cebpf4jnsgd1na2vs0mg"},{"bike_id":"57ffbce0-5dfb-4899-8f26-233712dc8920","system_id":"levelo_inurba_marseille","lat":43.290995,"lon":5.381435,"is_reserved":false,"is_disabled":false,"rental_uris":{"android":"levelo://app?vid=57ffbce0-5dfb-4899-8f26-233712dc8920","ios":"levelo://app?vid=57ffbce0-5dfb-4899-8f26-233712dc8920"},"vehicle_type_id":"4","last_reported":1758118190,"current_range_meters":21600,"station_id":"","pricing_plan_id":"cebpf4jnsgd1na2vs0mg"},{"bike_id":"d779e92c-4a23-4438-89ce-88958ddb7cc7","system_id":"levelo_inurba_marseille","lat":43.239612,"lon":5.366193,"is_reserved":false,"is_disabled":false,"rental_uris":{"android":"levelo://app?vid=d779e92c-4a23-4438-89ce-88958ddb7cc7","ios":"levelo://app?vid=d779e92c-4a23-4438-89ce-88958ddb7cc7"},"vehicle_type_id":"4","last_reported":1758118190,"current_range_meters":21600,"station_id":"ce4bhi12rcd13ifvqfp0","pricing_plan_id":"cebpf4jnsgd1na2vs0mg"},{"bike_id":"04485138-e2df-4efe-84ad-580016fb5128","system_id":"levelo_inurba_marseille","lat":43.24646,"lon":5.38886,"is_reserved":false,"is_disabled":false,"rental_uris":{"android":"levelo://app?vid=04485138-e2df-4efe-84ad-580016fb5128","ios":"levelo://app?vid=04485138-e2df-4efe-84ad-580016fb5128"},"vehicle_type_id":"4","last_reported":1758118190,"current_range_meters":21600,"station_id":"ce4bhg12rcd13ifvqf60","pricing_plan_id":"cebpf4jnsgd1na2vs0mg"},{"bike_id":"084be70d-00ed-4e79-8793-0c1c861d1c0e","system_id":"levelo_inurba_marseille","lat":43.31483,"lon":5.37303,"is_reserved":false,"is_disabled":false,"rental_uris":{"android":"levelo://app?vid=084be70d-00ed-4e79-8793-0c1c861d1c0e","ios":"levelo://app?vid=084be70d-00ed-4e79-8793-0c1c861d1c0e"},"vehicle_type_id":"4","last_reported":1758118190,"current_range_meters":21600,"station_id":"ce4bgt12rcd13ifvqcd0","pricing_plan_id":"cebpf4jnsgd1na2vs0mg"},{"bike_id":"2c734c36-442f-468e-ab47-e34ad5183e32","system_id":"levelo_inurba_marseille","lat":43.271023,"lon":5.406874,"is_reserved":false,"is_disabled":false,"rental_uris":{"android":"levelo://app?vid=2c734c36-442f-468e-ab47-e34ad5183e32","ios":"levelo://app?vid=2c734c36-442f-468e-ab47-e34ad5183e32"},"vehicle_type_id":"4","last_reported":1758118190,"current_range_meters":22000,"station_id":"","pricing_plan_id":"cebpf4jnsgd1na2vs0mg"},{"bike_id":"2c5ae73c-721e-43bb-be64-a5d32493e981","system_id":"levelo_inurba_marseille","lat":43.29905,"lon":5.43681,"is_reserved":false,"is_disabled":false,"rental_uris":{"android":"levelo://app?vid=2c5ae73c-721e-43bb-be64-a5d32493e981","ios":"levelo://app?vid=2c5ae73c-721e-43bb-be64-a5d32493e981"},"vehicle_type_id":"4","last_reported":1758118190,"current_range_meters":22000,"station_id":"ce4bhpp2rcd13ifvqhfg","pricing_plan_id":"cebpf4jnsgd1na2vs0mg"},{"bike_id":"28d16c75-24bf-4d8e-9a5e-53f40e0eded3","system_id":"levelo_inurba_marseille","lat":43.26552,"lon":5.37256,"is_reserved":false,"is_disabled":false,"rental_uris":{"android":"levelo://app?vid=28d16c75-24bf-4d8e-9a5e-53f40e0eded3","ios":"levelo://app?vid=28d16c75-24bf-4d8e-9a5e-53f40e0eded3"},"vehicle_type_id":"4","last_reported":1758118190,"current_range_meters":22000,"station_id":"ce4bhg12rcd13ifvqf70","pricing_plan_id":"cebpf4jnsgd1na2vs0mg"},{"bike_id":"bf6e6d27-c09e-4725-9fbc-20073fd5a515","system_id":"levelo_inurba_marseille","lat":43.289376,"lon":5.396214,"is_reserved":false,"is_disabled":false,"rental_uris":{"android":"levelo://app?vid=bf6e6d27-c09e-4725-9fbc-20073fd5a515","ios":"levelo://app?vid=bf6e6d27-c09e-4725-9fbc-20073fd5a515"},"vehicle_type_id":"4","last_reported":1758118190,"current_range_meters":22000,"station_id":"","pricing_plan_id":"cebpf4jnsgd1na2vs0mg"},{"bike_id":"0960e3dd-c358-4474-bd10-8223758e1f6b","system_id":"levelo_inurba_marseille","lat":43.296996,"lon":5.376855,"is_reserved":false,"is_disabled":false,"rental_uris":{"android":"levelo://app?vid=0960e3dd-c358-4474-bd10-8223758e1f6b","ios":"levelo://app?vid=0960e3dd-c358-4474-bd10-8223758e1f6b"},"vehicle_type_id":"4","last_reported":1758118190,"current_range_meters":22000,"station_id":"","pricing_plan_id":"cebpf4jnsgd1na2vs0mg"},{"bike_id":"904dd341-226b-46ca-8f2d-b5b489202ba9","system_id":"levelo_inurba_marseille","lat":43.25496,"lon":5.37647,"is_reserved":false,"is_disabled":false,"rental_uris":{"android":"levelo://app?vid=904dd341-226b-46ca-8f2d-b5b489202ba9","ios":"levelo://app?vid=904dd341-226b-46ca-8f2d-b5b489202ba9"},"vehicle_type_id":"4","last_reported":1758118190,"current_range_meters":20800,"station_id":"ce4bhh12rcd13ifvqff0","pricing_plan_id":"cebpf4jnsgd1na2vs0mg"},{"bike_id":"abce551d-8ad7-4679-88fa-84904cfd668c","system_id":"levelo_inurba_marseille","lat":43.2465,"lon":5.38893,"is_reserved":false,"is_disabled":false,"rental_uris":{"android":"levelo://app?vid=abce551d-8ad7-4679-88fa-84904cfd668c","ios":"levelo://app?vid=abce551d-8ad7-4679-88fa-84904cfd668c"},"vehicle_type_id":"4","last_reported":1758118190,"current_range_meters":22400,"station_id":"ce4bhg12rcd13ifvqf60","pricing_plan_id":"cebpf4jnsgd1na2vs0mg"},{"bike_id":"03714a68-0986-45ca-9bf6-716ad2598e33","system_id":"levelo_inurba_marseille","lat":43.24075,"lon":5.3776,"is_reserved":false,"is_disabled":false,"rental_uris":{"android":"levelo://app?vid=03714a68-0986-45ca-9bf6-716ad2598e33","ios":"levelo://app?vid=03714a68-0986-45ca-9bf6-716ad2598e33"},"vehicle_type_id":"4","last_reported":1758118190,"current_range_meters":22400,"station_id":"ce4bhnp2rcd13ifvqgvg","pricing_plan_id":"cebpf4jnsgd1na2vs0mg"},{"bike_id":"062d059a-76c9-42b5-8d75-2f78135eeabc","system_id":"levelo_inurba_marseille","lat":43.28156,"lon":5.42628,"is_reserved":false,"is_disabled":false,"rental_uris":{"android":"levelo://app?vid=062d059a-76c9-42b5-8d75-2f78135eeabc","ios":"levelo://app?vid=062d059a-76c9-42b5-8d75-2f78135eeabc"},"vehicle_type_id":"4","last_reported":1758118190,"current_range_meters":22400,"station_id":"ce4bhnh2rcd13ifvqgug","pricing_plan_id":"cebpf4jnsgd1na2vs0mg"},{"bike_id":"eabe99e6-483c-4555-9c02-732d70d6ab82","system_id":"levelo_inurba_marseille","lat":43.281569,"lon":5.426479,"is_reserved":false,"is_disabled":false,"rental_uris":{"android":"levelo://app?vid=eabe99e6-483c-4555-9c02-732d70d6ab82","ios":"levelo://app?vid=eabe99e6-483c-4555-9c02-732d70d6ab82"},"vehicle_type_id":"4","last_reported":1758118190,"current_range_meters":22400,"station_id":"ce4bhnh2rcd13ifvqgug","pricing_plan_id":"cebpf4jnsgd1na2vs0mg"},{"bike_id":"b8af4056-fb36-4e39-a4f0-5cd179383459","system_id":"levelo_inurba_marseille","lat":43.32918,"lon":5.38949,"is_reserved":false,"is_disabled":false,"rental_uris":{"android":"levelo://app?vid=b8af4056-fb36-4e39-a4f0-5cd179383459","ios":"levelo://app?vid=b8af4056-fb36-4e39-a4f0-5cd179383459"},"vehicle_type_id":"4","last_reported":1758118190,"current_range_meters":22400,"station_id":"","pricing_plan_id":"cebpf4jnsgd1na2vs0mg"},{"bike_id":"553f8368-9fc7-4fab-ab6b-4ab64407d3bf","system_id":"levelo_inurba_marseille","lat":43.2887,"lon":5.42508,"is_reserved":false,"is_disabled":false,"rental_uris":{"android":"levelo://app?vid=553f8368-9fc7-4fab-ab6b-4ab64407d3bf","ios":"levelo://app?vid=553f8368-9fc7-4fab-ab6b-4ab64407d3bf"},"vehicle_type_id":"4","last_reported":1758118190,"current_range_meters":22400,"station_id":"ce4bhg12rcd13ifvqf80","pricing_plan_id":"cebpf4jnsgd1na2vs0mg"},{"bike_id":"ccad1014-8d0e-4814-9ff8-2458891fb162","system_id":"levelo_inurba_marseille","lat":43.21185,"lon":5.35071,"is_reserved":false,"is_disabled":false,"rental_uris":{"android":"levelo://app?vid=ccad1014-8d0e-4814-9ff8-2458891fb162","ios":"levelo://app?vid=ccad1014-8d0e-4814-9ff8-2458891fb162"},"vehicle_type_id":"4","last_reported":1758118190,"current_range_meters":22400,"station_id":"st_cvj6sg6p6f1abm77japg","pricing_plan_id":"cebpf4jnsgd1na2vs0mg"},{"bike_id":"69472fe6-883d-4df8-b1f8-99cd052e8939","system_id":"levelo_inurba_marseille","lat":43.21187,"lon":5.35065,"is_reserved":false,"is_disabled":false,"rental_uris":{"android":"levelo://app?vid=69472fe6-883d-4df8-b1f8-99cd052e8939","ios":"levelo://app?vid=69472fe6-883d-4df8-b1f8-99cd052e8939"},"vehicle_type_id":"4","last_reported":1758118190,"current_range_meters":22800,"station_id":"st_cvj6sg6p6f1abm77japg","pricing_plan_id":"cebpf4jnsgd1na2vs0mg"},{"bike_id":"bde0359d-a959-4200-a9c6-949bfb448617","system_id":"levelo_inurba_marseille","lat":43.27205,"lon":5.41004,"is_reserved":false,"is_disabled":false,"rental_uris":{"android":"levelo://app?vid=bde0359d-a959-4200-a9c6-949bfb448617","ios":"levelo://app?vid=bde0359d-a959-4200-a9c6-949bfb448617"},"vehicle_type_id":"4","last_reported":1758118190,"current_range_meters":22800,"station_id":"ce4bhl12rcd13ifvqgf0","pricing_plan_id":"cebpf4jnsgd1na2vs0mg"},{"bike_id":"70213f8e-31a6-4eec-80bc-ec6de4b88130","system_id":"levelo_inurba_marseille","lat":43.29227,"lon":5.36064,"is_reserved":false,"is_disabled":false,"rental_uris":{"android":"levelo://app?vid=70213f8e-31a6-4eec-80bc-ec6de4b88130","ios":"levelo://app?vid=70213f8e-31a6-4eec-80bc-ec6de4b88130"},"vehicle_type_id":"4","last_reported":1758118190,"current_range_meters":22800,"station_id":"ce4bhbh2rcd13ifvqeqg","pricing_plan_id":"cebpf4jnsgd1na2vs0mg"},{"bike_id":"4cb6774a-f732-4788-b580-425b07f14d7e","system_id":"levelo_inurba_marseille","lat":43.292335,"lon":5.360615,"is_reserved":false,"is_disabled":false,"rental_uris":{"android":"levelo://app?vid=4cb6774a-f732-4788-b580-425b07f14d7e","ios":"levelo://app?vid=4cb6774a-f732-4788-b580-425b07f14d7e"},"vehicle_type_id":"4","last_reported":1758118190,"current_range_meters":22800,"station_id":"","pricing_plan_id":"cebpf4jnsgd1na2vs0mg"},{"bike_id":"6c041fd8-c79d-4610-ad95-c003c7c3f921","system_id":"levelo_inurba_marseille","lat":43.33022,"lon":5.39046,"is_reserved":false,"is_disabled":true,"rental_uris":{"android":"levelo://app?vid=6c041fd8-c79d-4610-ad95-c003c7c3f921","ios":"levelo://app?vid=6c041fd8-c79d-4610-ad95-c003c7c3f921"},"vehicle_type_id":"4","last_reported":1758118190,"current_range_meters":22800,"station_id":"ce4bhr92rcd13ifvqhrg","pricing_plan_id":"cebpf4jnsgd1na2vs0mg"},{"bike_id":"38dd5f98-244c-4792-9c31-66567bc695bd","system_id":"levelo_inurba_marseille","lat":43.29262,"lon":5.37611,"is_reserved":false,"is_disabled":false,"rental_uris":{"android":"levelo://app?vid=38dd5f98-244c-4792-9c31-66567bc695bd","ios":"levelo://app?vid=38dd5f98-244c-4792-9c31-66567bc695bd"},"vehicle_type_id":"4","last_reported":1758118190,"current_range_meters":22800,"station_id":"ce4bgi12rcd13ifvqb80","pricing_plan_id":"cebpf4jnsgd1na2vs0mg"},{"bike_id":"422d2a98-90c1-4e88-9370-487bce8ff536","system_id":"levelo_inurba_marseille","lat":43.25085,"lon":5.39485,"is_reserved":false,"is_disabled":false,"rental_uris":{"android":"levelo://app?vid=422d2a98-90c1-4e88-9370-487bce8ff536","ios":"levelo://app?vid=422d2a98-90c1-4e88-9370-487bce8ff536"},"vehicle_type_id":"4","last_reported":1758118190,"current_range_meters":23200,"station_id":"ce4bhm12rcd13ifvqgkg","pricing_plan_id":"cebpf4jnsgd1na2vs0mg"},{"bike_id":"7b7abbed-8ac0-4849-9b0e-43eeb7d6eb80","system_id":"levelo_inurba_marseille","lat":43.29265,"lon":5.38439,"is_reserved":false,"is_disabled":false,"rental_uris":{"android":"levelo://app?vid=7b7abbed-8ac0-4849-9b0e-43eeb7d6eb80","ios":"levelo://app?vid=7b7abbed-8ac0-4849-9b0e-43eeb7d6eb80"},"vehicle_type_id":"4","last_reported":1758118190,"current_range_meters":23200,"station_id":"ce4bh692rcd13ifvqea0","pricing_plan_id":"cebpf4jnsgd1na2vs0mg"},{"bike_id":"830b9b55-b582-49a9-8acf-457ace5fb670","system_id":"levelo_inurba_marseille","lat":43.22556,"lon":5.41602,"is_reserved":false,"is_disabled":false,"rental_uris":{"android":"levelo://app?vid=830b9b55-b582-49a9-8acf-457ace5fb670","ios":"levelo://app?vid=830b9b55-b582-49a9-8acf-457ace5fb670"},"vehicle_type_id":"4","last_reported":1758118190,"current_range_meters":23200,"station_id":"st_d2o4gvlbi1j2169b742g","pricing_plan_id":"cebpf4jnsgd1na2vs0mg"},{"bike_id":"9cc995f1-e6fb-4232-8bd8-9ace1262d321","system_id":"levelo_inurba_marseille","lat":43.24995,"lon":5.38927,"is_reserved":false,"is_disabled":false,"rental_uris":{"android":"levelo://app?vid=9cc995f1-e6fb-4232-8bd8-9ace1262d321","ios":"levelo://app?vid=9cc995f1-e6fb-4232-8bd8-9ace1262d321"},"vehicle_type_id":"4","last_reported":1758118190,"current_range_meters":23200,"station_id":"ce4bhgp2rcd13ifvqfd0","pricing_plan_id":"cebpf4jnsgd1na2vs0mg"},