{"last_updated":1744474267,"ttl":60,"version":"2.2","data":{"bikes":[{"bike_id":"dd9582e4-bb32-4d32-86d5-11901d78aa16","system_id":"levelo_inurba_marseille","lat":43.31076,"lon":5.38359,"is_reserved":false,"is_disabled":false,"rental_uris":{"android":"levelo://app?vid=dd9582e4-bb32-4d32-86d5-11901d78aa16","ios":"levelo://app?vid=dd9582e4-bb32-4d32-86d5-11901d78aa16"},"vehicle_type_id":"4","last_reported":1744474267,"current_range_meters":2800,"station_id":"ce4bgv92rcd13ifvqcr0","pricing_plan_id":"cebpf4jnsgd1na2vs0mg"},{"bike_id":"9b66e780-bf51-42e3-9c55-a031dd009f68","system_id":"levelo_inurba_marseille","lat":43.284168,"lon":5.375,"is_reserved":false,"is_disabled":false,"rental_uris":{"android":"levelo://app?vid=9b66e780-bf51-42e3-9c55-a031dd009f68","ios":"levelo://app?vid=9b66e780-bf51-42e3-9c55-a031dd009f68"},"vehicle_type_id":"4","last_reported":1744474267,"current_range_meters":2800,"station_id":"ce4bh412rcd13ifvqds0","pricing_plan_id":"cebpf4jnsgd1na2vs0mg"},{"bike_id":"e2b83c80-8968-4786-a661-0a27a5358940","system_id":"levelo_inurba_marseille","lat":43.23152,"lon":5.43711,"is_reserved":false,"is_disabled":false,"rental_uris":{"android":"levelo://app?vid=e2b83c80-8968-4786-a661-0a27a5358940","ios":"levelo://app?vid=e2b83c80-8968-4786-a661-0a27a5358940"},"vehicle_type_id":"4","last_reported":1744474267,"current_range_meters":2800,"station_id":"ce4bhmp2rcd13ifvqgog","pricing_plan_id":"cebpf4jnsgd1na2vs0mg"},{"bike_id":"ba29a783-1582-4d0e-947c-92d4175c98dd","system_id":"levelo_inurba_marseille","lat":43.29978,"lon":5.3718,"is_reserved":false,"is_disabled":false,"rental_uris":{"android":"levelo://app?vid=ba29a783-1582-4d0e-947c-92d4175c98dd","ios":"levelo://app?vid=ba29a783-1582-4d0e-947c-92d4175c98dd"},"vehicle_type_id":"4","last_reported":1744474267,"current_range_meters":2000,"station_id":"ce4bgr92rcd13ifvqc7g","pricing_plan_id":"cebpf4jnsgd1na2vs0mg"},{"bike_id":"81f04a20-2dc9-4cd5-ae56-2c58a63bac15","system_id":"levelo_inurba_marseille","lat":43.25583,"lon":5.38265,"is_reserved":false,"is_disabled":false,"rental_uris":{"android":"levelo://app?vid=81f04a20-2dc9-4cd5-ae56-2c58a63bac15","ios":"levelo://app?vid=81f04a20-2dc9-4cd5-ae56-2c58a63bac15"},"vehicle_type_id":"4","last_reported":1744474267,"current_range_meters":2800,"station_id":"ce4bhih2rcd13ifvqfs0","pricing_plan_id":"cebpf4jnsgd1na2vs0mg"},{"bike_id":"11347c7b-1ef2-49db-adbf-fe11c252dae2","system_id":"levelo_inurba_marseille","lat":43.21762,"lon":5.34604,"is_reserved":false,"is_disabled":false,"rental_uris":{"android":"levelo://app?vid=11347c7b-1ef2-49db-adbf-fe11c252dae2","ios":"levelo://app?vid=11347c7b-1ef2-49db-adbf-fe11c252dae2"},"vehicle_type_id":"4","last_reported":1744474267,"current_range_meters":2800,"station_id":"","pricing_plan_id":"cebpf4jnsgd1na2vs0mg"},{"bike_id":"991047b6-a5b4-4133-96aa-97133557a989","system_id":"levelo_inurba_marseille","lat":43.30217,"lon":5.39476,"is_reserved":false,"is_disabled":false,"rental_uris":{"android":"levelo://app?vid=991047b6-a5b4-4133-96aa-97133557a989","ios":"levelo://app?vid=991047b6-a5b4-4133-96aa-97133557a989"},"vehicle_type_id":"4","last_reported":1744474267,"current_range_meters":2800,"station_id":"ce4bh0p2rcd13ifvqd70","pricing_plan_id":"cebpf4jnsgd1na2vs0mg"},{"bike_id":"db5ce9c9-e752-489c-a8f7-c10709a8d3d3","system_id":"levelo_inurba_marseille","lat":43.26795,"lon":5.3942,"is_reserved":false,"is_disabled":false,"rental_uris":{"android":"levelo://app?vid=db5ce9c9-e752-489c-a8f7-c10709a8d3d3","ios":"levelo://app?vid=db5ce9c9-e752-489c-a8f7-c10709a8d3d3"},"vehicle_type_id":"4","last_reported":1744474267,"current_range_meters":2800,"station_id":"ce4bhh12rcd13ifvqfg0","pricing_plan_id":"cebpf4jnsgd1na2vs0mg"},{"bike_id":"d31239fe-66af-42f0-9586-6db1cb21187d","system_id":"levelo_inurba_marseille","lat":43.27175,"lon":5.40993,"is_reserved":false,"is_disabled":false,"rental_uris":{"android":"levelo://app?vid=d31239fe-66af-42f0-9586-6db1cb21187d","ios":"levelo://app?vid=d31239fe-66af-42f0-9586-6db1cb21187d"},"vehicle_type_id":"4","last_reported":1744474267,"current_range_meters":2800,"station_id":"ce4bhl12rcd13ifvqgf0","pricing_plan_id":"cebpf4jnsgd1na2vs0mg"},{"bike_id":"75030fb7-5b72-4308-b54c-01920590207b","system_id":"levelo_inurba_marseille","lat":43.262,"lon":5.37933,"is_reserved":false,"is_disabled":false,"rental_uris":{"android":"levelo://app?vid=75030fb7-5b72-4308-b54c-01920590207b","ios":"levelo://app?vid=75030fb7-5b72-4308-b54c-01920590207b"},"vehicle_type_id":"4","last_reported":1744474267,"current_range_meters":2800,"station_id":"ce4bhjp2rcd13ifvqg90","pricing_plan_id":"cebpf4jnsgd1na2vs0mg"},{"bike_id":"6bc92096-811b-4a22-a679-35317d63a3be","system_id":"levelo_inurba_marseille","lat":43.31722,"lon":5.42397,"is_reserved":false,"is_disabled":false,"rental_uris":{"android":"levelo://app?vid=6bc92096-811b-4a22-a679-35317d63a3be","ios":"levelo://app?vid=6bc92096-811b-4a22-a679-35317d63a3be"},"vehicle_type_id":"4","last_reported":1744474267,"current_range_meters":2800,"station_id":"ce4bhp92rcd13ifvqhbg","pricing_plan_id":"cebpf4jnsgd1na2vs0mg"},{"bike_id":"cd5fe5d2-7ca7-4ec3-975c-9029596a3e93","system_id":"levelo_inurba_marseille","lat":43.30426,"lon":5.388983,"is_reserved":false,"is_disabled":false,"rental_uris":{"android":"levelo://app?vid=cd5fe5d2-7ca7-4ec3-975c-9029596a3e93","ios":"levelo://app?vid=cd5fe5d2-7ca7-4ec3-975c-9029596a3e93"},"vehicle_type_id":"4","last_reported":1744474267,"current_range_meters":3200,"station_id":"ce4bgk12rcd13ifvqbi0","pricing_plan_id":"cebpf4jnsgd1na2vs0mg"},{"bike_id":"52765523-0414-4aea-b507-0171281ec948","system_id":"levelo_inurba_marseille","lat":43.25492,"lon":5.37661,"is_reserved":false,"is_disabled":false,"rental_uris":{"android":"levelo://app?vid=52765523-0414-4aea-b507-0171281ec948","ios":"levelo://app?vid=52765523-0414-4aea-b507-0171281ec948"},"vehicle_type_id":"4","last_reported":1744474267,"current_range_meters":3200,"station_id":"ce4bhh12rcd13ifvqff0","pricing_plan_id":"cebpf4jnsgd1na2vs0mg"},{"bike_id":"93e1aaa1-c0cc-45ca-a3db-224ea651a95b","system_id":"levelo_inurba_marseille","lat":43.26546,"lon":5.37266,"is_reserved":false,"is_disabled":false,"rental_uris":{"android":"levelo://app?vid=93e1aaa1-c0cc-45ca-a3db-224ea651a95b","ios":"levelo://app?vid=93e1aaa1-c0cc-45ca-a3db-224ea651a95b"},"vehicle_type_id":"4","last_reported":1744474267,"current_range_meters":3200,"station_id":"ce4bhg12rcd13ifvqf70","pricing_plan_id":"cebpf4jnsgd1na2vs0mg"},{"bike_id":"42a6be2c-c314-48e1-be12-0490bd36f89b","system_id":"levelo_inurba_marseille","lat":43.26499,"lon":5.39536,"is_reserved":false,"is_disabled":false,"rental_uris":{"android":"levelo://app?vid=42a6be2c-c314-48e1-be12-0490bd36f89b","ios":"levelo://app?vid=42a6be2c-c314-48e1-be12-0490bd36f89b"},"vehicle_type_id":"4","last_reported":1744474267,"current_range_meters":8800,"station_id":"ce4bhi12rcd13ifvqfq0","pricing_plan_id":"cebpf4jnsgd1na2vs0mg"},{"bike_id":"235b8e4d-8987-40b3-9838-104f852308cd","system_id":"levelo_inurba_marseille","lat":43.26231,"lon":5.40454,"is_reserved":false,"is_disabled":false,"rental_uris":{"android":"levelo://app?vid=235b8e4d-8987-40b3-9838-104f852308cd","ios":"levelo://app?vid=235b8e4d-8987-40b3-9838-104f852308cd"},"vehicle_type_id":"4","last_reported":1744474267,"current_range_meters":3200,"station_id":"ce4bhmh2rcd13ifvqgmg","pricing_plan_id":"cebpf4jnsgd1na2vs0mg"},{"bike_id":"2a46e87f-cb9b-4452-8045-54cf93edb22f","system_id":"levelo_inurba_marseille","lat":43.31116,"lon":5.37773,"is_reserved":false,"is_disabled":false,"rental_uris":{"android":"levelo://app?vid=2a46e87f-cb9b-4452-8045-54cf93edb22f","ios":"levelo://app?vid=2a46e87f-cb9b-4452-8045-54cf93edb22f"},"vehicle_type_id":"4","last_reported":1744474267,"current_range_meters":3600,"station_id":"ce4bgt92rcd13ifvqcg0","pricing_plan_id":"cebpf4jnsgd1na2vs0mg"},{"bike_id":"984bb2aa-d82a-4281-90f1-1529bbc61000","system_id":"levelo_inurba_marseille","lat":43.299139,"lon":5.392662,"is_reserved":false,"is_disabled":false,"rental_uris":{"android":"levelo://app?vid=984bb2aa-d82a-4281-90f1-1529bbc61000","ios":"levelo://app?vid=984bb2aa-d82a-4281-90f1-1529bbc61000"},"vehicle_type_id":"4","last_reported":1744474267,"current_range_meters":3600,"station_id":"","pricing_plan_id":"cebpf4jnsgd1na2vs0mg"},{"bike_id":"42fc9c32-ef54-4eae-ad73-15cd0c92a3b8","system_id":"levelo_inurba_marseille","lat":43.30211,"lon":5.3946,"is_reserved":false,"is_disabled":false,"rental_uris":{"android":"levelo://app?vid=42fc9c32-ef54-4eae-ad73-15cd0c92a3b8","ios":"levelo://app?vid=42fc9c32-ef54-4eae-ad73-15cd0c92a3b8"},"vehicle_type_id":"4","last_reported":1744474267,"current_range_meters":3600,"station_id":"ce4bh0p2rcd13ifvqd70","pricing_plan_id":"cebpf4jnsgd1na2vs0mg"},{"bike_id":"48379ba8-e8f0-4449-90e1-c76f5ba91cdd","system_id":"levelo_inurba_marseille","lat":43.27062,"lon":5.40275,"is_reserved":false,"is_disabled":false,"rental_uris":{"android":"levelo://app?vid=48379ba8-e8f0-4449-90e1-c76f5ba91cdd","ios":"levelo://app?vid=48379ba8-e8f0-4449-90e1-c76f5ba91cdd"},"vehicle_type_id":"4","last_reported":1744474267,"current_range_meters":3600,"station_id":"ce4bhk92rcd13ifvqgc0","pricing_plan_id":"cebpf4jnsgd1na2vs0mg"},{"bike_id":"a9f344a9-b5c4-4c6f-adc4-6177f6c8159a","system_id":"levelo_inurba_marseille","lat":43.32824,"lon":5.39766,"is_reserved":false,"is_disabled":false,"rental_uris":{"android":"levelo://app?vid=a9f344a9-b5c4-4c6f-adc4-6177f6c8159a","ios":"levelo://app?vid=a9f344a9-b5c4-4c6f-adc4-6177f6c8159a"},"vehicle_type_id":"4","last_reported":1744474267,"current_range_meters":3600,"station_id":"","pricing_plan_id":"cebpf4jnsgd1na2vs0mg"},{"bike_id":"b81181f9-36a3-48b4-9912-e6bf37b01e53","system_id":"levelo_inurba_marseille","lat":43.27378,"lon":5.36243,"is_reserved":false,"is_disabled":true,"rental_uris":{"android":"levelo://app?vid=b81181f9-36a3-48b4-9912-e6bf37b01e53","ios":"levelo://app?vid=b81181f9-36a3-48b4-9912-e6bf37b01e53"},"vehicle_type_id":"4","last_reported":1744474267,"current_range_meters":3600,"station_id":"ce4bhbh2rcd13ifvqeo0","pricing_plan_id":"cebpf4jnsgd1na2vs0mg"},{"bike_id":"eab6cbfa-cb8e-47d7-b0d6-226ab7facec7","system_id":"levelo_inurba_marseille","lat":43.31727,"lon":5.4238,"is_reserved":false,"is_disabled":true,"rental_uris":{"android":"levelo://app?vid=eab6cbfa-cb8e-47d7-b0d6-226ab7facec7","ios":"levelo://app?vid=eab6cbfa-cb8e-47d7-b0d6-226ab7facec7"},"vehicle_type_id":"4","last_reported":1744474267,"current_range_meters":3600,"station_id":"ce4bhp92rcd13ifvqhbg","pricing_plan_id":"cebpf4jnsgd1na2vs0mg"},{"bike_id":"26d54eb8-c653-42de-8ef9-60e7d8ebbd50","system_id":"levelo_inurba_marseille","lat":43.29796,"lon":5.38103,"is_reserved":false,"is_disabled":false,"rental_uris":{"android":"levelo://app?vid=26d54eb8-c653-42de-8ef9-60e7d8ebbd50","ios":"levelo://app?vid=26d54eb8-c653-42de-8ef9-60e7d8ebbd50"},"vehicle_type_id":"4","last_reported":1744474267,"current_range_meters":1200,"station_id":"ce4bgip2rcd13ifvqbb0","pricing_plan_id":"cebpf4jnsgd1na2vs0mg"},{"bike_id":"4b294f18-3cc9-430d-80d7-0ba245878d04","system_id":"levelo_inurba_marseille","lat":43.27845,"lon":5.39226,"is_reserved":false,"is_disabled":false,"rental_uris":{"android":"levelo://app?vid=4b294f18-3cc9-430d-80d7-0ba245878d04","ios":"levelo://app?vid=4b294f18-3cc9-430d-80d7-0ba245878d04"},"vehicle_type_id":"4","last_reported":1744474267,"current_range_meters":3600,"station_id":"ce4bhjp2rcd13ifvqga0","pricing_plan_id":"cebpf4jnsgd1na2vs0mg"},{"bike_id":"5136dfca-d2cf-4017-9a1e-2a7e3e4d8acd","system_id":"levelo_inurba_marseille","lat":43.26202,"lon":5.37929,"is_reserved":false,"is_disabled":false,"rental_uris":{"android":"levelo://app?vid=5136dfca-d2cf-4017-9a1e-2a7e3e4d8acd","ios":"levelo://app?vid=5136dfca-d2cf-4017-9a1e-2a7e3e4d8acd"},"vehicle_type_id":"4","last_reported":1744474267,"current_range_meters":4000,"station_id":"ce4bhjp2rcd13ifvqg90","pricing_plan_id":"cebpf4jnsgd1na2vs0mg"},{"bike_id":"00bedea3-a6bb-4ebd-b510-93f9ba06b22d","system_id":"levelo_inurba_marseille","lat":43.29264,"lon":5.38439,"is_reserved":false,"is_disabled":false,"rental_uris":{"android":"levelo://app?vid=00bedea3-a6bb-4ebd-b510-93f9ba06b22d","ios":"levelo://app?vid=00bedea3-a6bb-4ebd-b510-93f9ba06b22d"},"vehicle_type_id":"4","last_reported":1744474267,"current_range_meters":4000,"station_id":"ce4bh692rcd13ifvqea0","pricing_plan_id":"cebpf4jnsgd1na2vs0mg"},{"bike_id":"60037917-8005-4e50-a591-dab1dbc816a6","system_id":"levelo_inurba_marseille","lat":43.27211,"lon":5.39181,"is_reserved":false,"is_disabled":false,"rental_uris":{"android":"levelo://app?vid=60037917-8005-4e50-a591-dab1dbc816a6","ios":"levelo://app?vid=60037917-8005-4e50-a591-dab1dbc816a6"},"vehicle_type_id":"4","last_reported":1744474267,"current_range_meters":4000,"station_id":"ce4bhhp2rcd13ifvqfm0","pricing_plan_id":"cebpf4jnsgd1na2vs0mg"},{"bike_id":"6adb538a-c43b-4ac6-9093-fd9368fcee2a","system_id":"levelo_inurba_marseille","lat":43.2836,"lon":5.38616,"is_reserved":false,"is_disabled":false,"rental_uris":{"android":"levelo://app?vid=6adb538a-c43b-4ac6-9093-fd9368fcee2a","ios":"levelo://app?vid=6adb538a-c43b-4ac6-9093-fd9368fcee2a"},"vehicle_type_id":"4","last_reported":1744474267,"current_range_meters":4000,"station_id":"ce4bh492rcd13ifvqdvg","pricing_plan_id":"cebpf4jnsgd1na2vs0mg"},{"bike_id":"7894031b-d3e6-4512-851d-7509e038a415","system_id":"levelo_inurba_marseille","lat":43.266806,"lon":5.382708,"is_reserved":false,"is_disabled":false,"rental_uris":{"android":"levelo://app?vid=7894031b-d3e6-4512-851d-7509e038a415","ios":"levelo://app?vid=7894031b-d3e6-4512-851d-7509e038a415"},"vehicle_type_id":"4","last_reported":1744474267,"current_range_meters":4000,"station_id":"ce4bhg92rcd13ifvqf90","pricing_plan_id":"cebpf4jnsgd1na2vs0mg"},{"bike_id":"d7f9e116-c5b6-4b81-b124-ce6019a2d1cb","system_id":"levelo_inurba_marseille","lat":43.21749,"lon":5.34592,"is_reserved":false,"is_disabled":true,"rental_uris":{"android":"levelo://app?vid=d7f9e116-c5b6-4b81-b124-ce6019a2d1cb","ios":"levelo://app?vid=d7f9e116-c5b6-4b81-b124-ce6019a2d1cb"},"vehicle_type_id":"4","last_reported":1744474267,"current_range_meters":4000,"station_id":"st_cvj6r9ubvosntc0bgbag","pricing_plan_id":"cebpf4jnsgd1na2vs0mg"},{"bike_id":"7a25d4c6-1d83-4f75-8601-490bb74a549e","system_id":"levelo_inurba_marseille","lat":43.22293,"lon":5.3461,"is_reserved":false,"is_disabled":false,"rental_uris":{"android":"levelo://app?vid=7a25d4c6-1d83-4f75-8601-490bb74a549e","ios":"levelo://app?vid=7a25d4c6-1d83-4f75-8601-490bb74a549e"},"vehicle_type_id":"4","last_reported":1744474267,"current_range_meters":4000,"station_id":"","pricing_plan_id":"cebpf4jnsgd1na2vs0mg"},{"bike_id":"2dee5747-83bf-47ec-a697-8deb3a7e1faf","system_id":"levelo_inurba_marseille","lat":43.30805,"lon":5.43522,"is_reserved":false,"is_disabled":false,"rental_uris":{"android":"levelo://app?vid=2dee5747-83bf-47ec-a697-8deb3a7e1faf","ios":"levelo://app?vid=2dee5747-83bf-47ec-a697-8deb3a7e1faf"},"vehicle_type_id":"4","last_reported":1744474267,"current_range_meters":4400,"station_id":"ce4bhph2rcd13ifvqheg","pricing_plan_id":"cebpf4jnsgd1na2vs0mg"},{"bike_id":"b603a23d-0475-4437-826d-b74089ef80e7","system_id":"levelo_inurba_marseille","lat":43.285827,"lon":5.386185,"is_reserved":false,"is_disabled":false,"rental_uris":{"android":"levelo://app?vid=b603a23d-0475-4437-826d-b74089ef80e7","ios":"levelo://app?vid=b603a23d-0475-4437-826d-b74089ef80e7"},"vehicle_type_id":"4","last_reported":1744474267,"current_range_meters":4000,"station_id":"ce4bh8p2rcd13ifvqeb0","pricing_plan_id":"cebpf4jnsgd1na2vs0mg"},{"bike_id":"4223f2ad-de91-45d8-8ff6-8cf220632654","system_id":"levelo_inurba_marseille","lat":43.25014,"lon":5.3892,"is_reserved":false,"is_disabled":false,"rental_uris":{"android":"levelo://app?vid=4223f2ad-de91-45d8-8ff6-8cf220632654","ios":"levelo://app?vid=4223f2ad-de91-45d8-8ff6-8cf220632654"},"vehicle_type_id":"4","last_reported":1744474267,"current_range_meters":4400,"station_id":"ce4bhgp2rcd13ifvqfd0","pricing_plan_id":"cebpf4jnsgd1na2vs0mg"},{"bike_id":"bd610b09-a8bf-4038-aa12-a8a55bdc2893","system_id":"levelo_inurba_marseille","lat":43.29311,"lon":5.37184,"is_reserved":false,"is_disabled":false,"rental_uris":{"android":"levelo://app?vid=bd610b09-a8bf-4038-aa12-a8a55bdc2893","ios":"levelo://app?vid=bd610b09-a8bf-4038-aa12-a8a55bdc2893"},"vehicle_type_id":"4","last_reported":1744474267,"current_range_meters":4400,"station_id":"ce4bgh92rcd13ifvqb40","pricing_plan_id":"cebpf4jnsgd1na2vs0mg"},{"bike_id":"361f256d-8035-4fab-9fc6-e0aba2294341","system_id":"levelo_inurba_marseille","lat":43.299817,"lon":5.37183,"is_reserved":false,"is_disabled":false,"rental_uris":{"android":"levelo://app?vid=361f256d-8035-4fab-9fc6-e0aba2294341","ios":"levelo://app?vid=361f256d-8035-4fab-9fc6-e0aba2294341"},"vehicle_type_id":"4","last_reported":1744474267,"current_range_meters":4400,"station_id":"ce4bgr92rcd13ifvqc7g","pricing_plan_id":"cebpf4jnsgd1na2vs0mg"},{"bike_id":"d5b3f483-0c68-45dd-a0c1-c63e5e9a2af1","system_id":"levelo_inurba_marseille","lat":43.27811,"lon":5.40718,"is_reserved":false,"is_disabled":false,"rental_uris":{"android":"levelo://app?vid=d5b3f483-0c68-45dd-a0c1-c63e5e9a2af1","ios":"levelo://app?vid=d5b3f483-0c68-45dd-a0c1-c63e5e9a2af1"},"vehicle_type_id":"4","last_reported":1744474267,"current_range_meters":4400,"station_id":"ce4bhnh2rcd13ifvqgtg","pricing_plan_id":"cebpf4jnsgd1na2vs0mg"},{"bike_id":"ae958ae8-c98f-4e2d-8835-51870ecfae6f","system_id":"levelo_inurba_marseille","lat":43.33015,"lon":5.3949,"is_reserved":false,"is_disabled":false,"rental_uris":{"android":"levelo://app?vid=ae958ae8-c98f-4e2d-8835-51870ecfae6f","ios":"levelo://app?vid=ae958ae8-c98f-4e2d-8835-51870ecfae6f"},"vehicle_type_id":"4","last_reported":1744474267,"current_range_meters":4800,"station_id":"","pricing_plan_id":"cebpf4jnsgd1na2vs0mg"},{"bike_id":"bfee7c49-1539-49e1-aaeb-665ee06a2b74","system_id":"levelo_inurba_marseille","lat":43.25839,"lon":5.39434,"is_reserved":false,"is_disabled":false,"rental_uris":{"android":"levelo://app?vid=bfee7c49-1539-49e1-aaeb-665ee06a2b74","ios":"levelo://app?vid=bfee7c49-1539-49e1-aaeb-665ee06a2b74"},"vehicle_type_id":"4","last_reported":1744474267,"current_range_meters":4400,"station_id":"ce4bhip2rcd13ifvqft0","pricing_plan_id":"cebpf4jnsgd1na2vs0mg"},{"bike_id":"f647242f-484f-4574-9add-aa5de4fc7a35","system_id":"levelo_inurba_marseille","lat":43.26935,"lon":5.40256,"is_reserved":false,"is_disabled":false,"rental_uris":{"android":"levelo://app?vid=f647242f-484f-4574-9add-aa5de4fc7a35","ios":"levelo://app?vid=f647242f-484f-4574-9add-aa5de4fc7a35"},"vehicle_type_id":"4","last_reported":1744474267,"current_range_meters":4800,"station_id":"cjm6bp8fraef2m0cb0m0","pricing_plan_id":"cebpf4jnsgd1na2vs0mg"},{"bike_id":"520d0323-c1ec-4e9b-b117-f15b6abcbb4c","system_id":"levelo_inurba_marseille","lat":43.29231,"lon":5.3607,"is_reserved":false,"is_disabled":false,"rental_uris":{"android":"levelo://app?vid=520d0323-c1ec-4e9b-b117-f15b6abcbb4c","ios":"levelo://app?vid=520d0323-c1ec-4e9b-b117-f15b6abcbb4c"},"vehicle_type_id":"4","last_reported":1744474267,"current_range_meters":4800,"station_id":"ce4bhbh2rcd13ifvqeqg","pricing_plan_id":"cebpf4jnsgd1na2vs0mg"},{"bike_id":"a2417265-aaaf-4846-a7cc-2faf5068e2d6","system_id":"levelo_inurba_marseille","lat":43.2817,"lon":5.42678,"is_reserved":false,"is_disabled":false,"rental_uris":{"android":"levelo://app?vid=a2417265-aaaf-4846-a7cc-2faf5068e2d6","ios":"levelo://app?vid=a2417265-aaaf-4846-a7cc-2faf5068e2d6"},"vehicle_type_id":"4","last_reported":1744474267,"current_range_meters":4800,"station_id":"ce4bhnh2rcd13ifvqgug","pricing_plan_id":"cebpf4jnsgd1na2vs0mg"},{"bike_id":"c1598af3-a1b7-4a84-89cb-fb496f6640c9","system_id":"levelo_inurba_marseille","lat":43.30217,"lon":5.39467,"is_reserved":false,"is_disabled":false,"rental_uris":{"android":"levelo://app?vid=c1598af3-a1b7-4a84-89cb-fb496f6640c9","ios":"levelo://app?vid=c1598af3-a1b7-4a84-89cb-fb496f6640c9"},"vehicle_type_id":"4","last_reported":1744474267,"current_range_meters":5600,"station_id":"ce4bh0p2rcd13ifvqd70","pricing_plan_id":"cebpf4jnsgd1na2vs0mg"},{"bike_id":"768a9686-8d4c-43dd-a6a8-9153a874cdb1","system_id":"levelo_inurba_marseille","lat":43.29004,"lon":5.35616,"is_reserved":false,"is_disabled":false,"rental_uris":{"android":"levelo://app?vid=768a9686-8d4c-43dd-a6a8-9153a874cdb1","ios":"levelo://app?vid=768a9686-8d4c-43dd-a6a8-9153a874cdb1"},"vehicle_type_id":"4","last_reported":1744474267,"current_range_meters":4800,"station_id":"ce4bhb92rcd13ifvqen0","pricing_plan_id":"cebpf4jnsgd1na2vs0mg"},{"bike_id":"91fb3bca-3223-413b-b74a-4e4b9782fdf2","system_id":"levelo_inurba_marseille","lat":43.299273,"lon":5.365398,"is_reserved":false,"is_disabled":false,"rental_uris":{"android":"levelo://app?vid=91fb3bca-3223-413b-b74a-4e4b9782fdf2","ios":"levelo://app?vid=91fb3bca-3223-413b-b74a-4e4b9782fdf2"},"vehicle_type_id":"4","last_reported":1744474267,"current_range_meters":6000,"station_id":"ce4bgm92rcd13ifvqbr0","pricing_plan_id":"cebpf4jnsgd1na2vs0mg"},{"bike_id":"49e172a2-3aa0-4290-ba76-44147206f70b","system_id":"levelo_inurba_marseille","lat":43.27211,"lon":5.3918,"is_reserved":false,"is_disabled":false,"rental_uris":{"android":"levelo://app?vid=49e172a2-3aa0-4290-ba76-44147206f70b","ios":"levelo://app?vid=49e172a2-3aa0-4290-ba76-44147206f70b"},"vehicle_type_id":"4","last_reported":1744474267,"current_range_meters":6000,"station_id":"ce4bhhp2rcd13ifvqfm0","pricing_plan_id":"cebpf4jnsgd1na2vs0mg"},{"bike_id":"3a78f664-7f09-40d3-93db-5b8c1c50313e","system_id":"levelo_inurba_marseille","lat":43.28408,"lon":5.37509,"is_reserved":false,"is_disabled":false,"rental_uris":{"android":"levelo://app?vid=3a78f664-7f09-40d3-93db-5b8c1c50313e","ios":"levelo://app?vid=3a78f664-7f09-40d3-93db-5b8c1c50313e"},"vehicle_type_id":"4","last_reported":1744474267,"current_range_meters":6000,"station_id":"ce4bh412rcd13ifvqds0","pricing_plan_id":"cebpf4jnsgd1na2vs0mg"},{"bike_id":"f49ede6c-1640-452b-be19-b538adbd8e49","system_id":"levelo_inurba_marseille","lat":43.24075,"lon":5.37761,"is_reserved":false,"is_disabled":false,"rental_uris":{"android":"levelo://app?vid=f49ede6c-1640-452b-be19-b538adbd8e49","ios":"levelo://app?vid=f49ede6c-1640-452b-be19-b538adbd8e49"},"vehicle_type_id":"4","last_reported":1744474267,"current_range_meters":6000,"station_id":"ce4bhnp2rcd13ifvqgvg","pricing_plan_id":"cebpf4jnsgd1na2vs0mg"},{"bike_id":"9c98a308-4efd-4704-bf46-fc11a3f21b95","system_id":"levelo_inurba_marseille","lat":43.26956,"lon":5.38632,"is_reserved":false,"is_disabled":false,"rental_uris":{"android":"levelo://app?vid=9c98a308-4efd-4704-bf46-fc11a3f21b95","ios":"levelo://app?vid=9c98a308-4efd-4704-bf46-fc11a3f21b95"},"vehicle_type_id":"4","last_reported":1744474267,"current_range_meters":6400,"station_id":"ce4bhh92rcd13ifvqfh0","pricing_plan_id":"cebpf4jnsgd1na2vs0mg"},{"bike_id":"aac250de-79aa-42f4-86a7-39ef2bec055b","system_id":"levelo_inurba_marseille","lat":43.26937,"lon":5.38913,"is_reserved":false,"is_disabled":false,"rental_uris":{"android":"levelo://app?vid=aac250de-79aa-42f4-86a7-39ef2bec055b","ios":"levelo://app?vid=aac250de-79aa-42f4-86a7-39ef2bec055b"},"vehicle_type_id":"4","last_reported":1744474267,"current_range_meters":6400,"station_id":"ce4bhhh2rcd13ifvqfl0","pricing_plan_id":"cebpf4jnsgd1na2vs0mg"},{"bike_id":"371f8977-07b3-4330-bd50-6546eca5608d","system_id":"levelo_inurba_marseille","lat":43.2546,"lon":5.37666,"is_reserved":false,"is_disabled":false,"rental_uris":{"android":"levelo://app?vid=371f8977-07b3-4330-bd50-6546eca5608d","ios":"levelo://app?vid=371f8977-07b3-4330-bd50-6546eca5608d"},"vehicle_type_id":"4","last_reported":1744474267,"current_range_meters":6800,"station_id":"ce4bhh12rcd13ifvqff0","pricing_plan_id":"cebpf4jnsgd1na2vs0mg"},{"bike_id":"3ac73e63-1619-4c1b-a7d0-7311424e94ef","system_id":"levelo_inurba_marseille","lat":43.28982,"lon":5.37624,"is_reserved":false,"is_disabled":false,"rental_uris":{"android":"levelo://app?vid=3ac73e63-1619-4c1b-a7d0-7311424e94ef","ios":"levelo://app?vid=3ac73e63-1619-4c1b-a7d0-7311424e94ef"},"vehicle_type_id":"4","last_reported":1744474267,"current_range_meters":6800,"station_id":"","pricing_plan_id":"cebpf4jnsgd1na2vs0mg"},{"bike_id":"fd8007a8-7843-489e-8781-44f73e01676c","system_id":"levelo_inurba_marseille","lat":43.2886,"lon":5.35831,"is_reserved":false,"is_disabled":false,"rental_uris":{"android":"levelo://app?vid=fd8007a8-7843-489e-8781-44f73e01676c","ios":"levelo://app?vid=fd8007a8-7843-489e-8781-44f73e01676c"},"vehicle_type_id":"4","last_reported":1744474267,"current_range_meters":6800,"station_id":"ce4bhb12rcd13ifvqem0","pricing_plan_id":"cebpf4jnsgd1na2vs0mg"},{"bike_id":"79ba5f06-75b8-461c-b5ee-624d8af03be6","system_id":"levelo_inurba_marseille","lat":43.301,"lon":5.39088,"is_reserved":false,"is_disabled":false,"rental_uris":{"android":"levelo://app?vid=79ba5f06-75b8-461c-b5ee-624d8af03be6","ios":"levelo://app?vid=79ba5f06-75b8-461c-b5ee-624d8af03be6"},"vehicle_type_id":"4","last_reported":1744474267,"current_range_meters":6400,"station_id":"ce4bh192rcd13ifvqdb0","pricing_plan_id":"cebpf4jnsgd1na2vs0mg"},{"bike_id":"70b79363-26ad-44f4-ae07-e85ad4456aba","system_id":"levelo_inurba_marseille","lat":43.27617,"lon":5.36166,"is_reserved":false,"is_disabled":false,"rental_uris":{"android":"levelo://app?vid=70b79363-26ad-44f4-ae07-e85ad4456aba","ios":"levelo://app?vid=70b79363-26ad-44f4-ae07-e85ad4456aba"},"vehicle_type_id":"4","last_reported":1744474267,"current_range_meters":6800,"station_id":"","pricing_plan_id":"cebpf4jnsgd1na2vs0mg"},{"bike_id":"94455896-0f19-4fae-bd72-9879f01fcd6e","system_id":"levelo_inurba_marseille","lat":43.29562,"lon":5.42324,"is_reserved":false,"is_disabled":true,"rental_uris":{"android":"levelo://app?vid=94455896-0f19-4fae-bd72-9879f01fcd6e","ios":"levelo://app?vid=94455896-0f19-4fae-bd72-9879f01fcd6e"},"vehicle_type_id":"4","last_reported":1744474267,"current_range_meters":6800,"station_id":"ce4bhph2rcd13ifvqhdg","pricing_plan_id":"cebpf4jnsgd1na2vs0mg"},{"bike_id":"faf7b1b8-3526-4d70-bbb9-ec955dc6767c","system_id":"levelo_inurba_marseille","lat":43.25498,"lon":5.37649,"is_reserved":false,"is_disabled":false,"rental_uris":{"android":"levelo://app?vid=faf7b1b8-3526-4d70-bbb9-ec955dc6767c","ios":"levelo://app?vid=faf7b1b8-3526-4d70-bbb9-ec955dc6767c"},"vehicle_type_id":"4","last_reported":1744474267,"current_range_meters":6800,"station_id":"ce4bhh12rcd13ifvqff0","pricing_plan_id":"cebpf4jnsgd1na2vs0mg"},{"bike_id":"8b463b3b-7a14-4f37-b228-97c50d8a27f5","system_id":"levelo_inurba_marseille","lat":43.27382,"lon":5.3627,"is_reserved":false,"is_disabled":false,"rental_uris":{"android":"levelo://app?vid=8b463b3b-7a14-4f37-b228-97c50d8a27f5","ios":"levelo://app?vid=8b463b3b-7a14-4f37-b228-97c50d8a27f5"},"vehicle_type_id":"4","last_reported":1744474267,"current_range_meters":6800,"station_id":"ce4bhbh2rcd13ifvqeo0","pricing_plan_id":"cebpf4jnsgd1na2vs0mg"},{"bike_id":"5763ee71-4e67-46bc-b3c9-44f5e5899e97","system_id":"levelo_inurba_marseille","lat":43.32371,"lon":5.38888,"is_reserved":false,"is_disabled":false,"rental_uris":{"android":"levelo://app?vid=5763ee71-4e67-46bc-b3c9-44f5e5899e97","ios":"levelo://app?vid=5763ee71-4e67-46bc-b3c9-44f5e5899e97"},"vehicle_type_id":"4","last_reported":1744474267,"current_range_meters":6800,"station_id":"ce4bhqp2rcd13ifvqhog","pricing_plan_id":"cebpf4jnsgd1na2vs0mg"},{"bike_id":"94a2d289-6a01-4914-95dd-c0bbac3ace54","system_id":"levelo_inurba_marseille","lat":43.29602,"lon":5.42264,"is_reserved":false,"is_disabled":false,"rental_uris":{"android":"levelo://app?vid=94a2d289-6a01-4914-95dd-c0bbac3ace54","ios":"levelo://app?vid=94a2d289-6a01-4914-95dd-c0bbac3ace54"},"vehicle_type_id":"4","last_reported":1744474267,"current_range_meters":7200,"station_id":"","pricing_plan_id":"cebpf4jnsgd1na2vs0mg"},{"bike_id":"68de7c8e-0a7c-4def-bc8f-72f753f07918","system_id":"levelo_inurba_marseille","lat":43.2738,"lon":5.36248,"is_reserved":false,"is_disabled":false,"rental_uris":{"android":"levelo://app?vid=68de7c8e-0a7c-4def-bc8f-72f753f07918","ios":"levelo://app?vid=68de7c8e-0a7c-4def-bc8f-72f753f07918"},"vehicle_type_id":"4","last_reported":1744474267,"current_range_meters":7200,"station_id":"ce4bhbh2rcd13ifvqeo0","pricing_plan_id":"cebpf4jnsgd1na2vs0mg"},{"bike_id":"6aa3c5cc-b464-454e-ab27-2bcc9c9e58f3","system_id":"levelo_inurba_marseille","lat":43.29369,"lon":5.37844,"is_reserved":false,"is_disabled":false,"rental_uris":{"android":"levelo://app?vid=6aa3c5cc-b464-454e-ab27-2bcc9c9e58f3","ios":"levelo://app?vid=6aa3c5cc-b464-454e-ab27-2bcc9c9e58f3"},"vehicle_type_id":"4","last_reported":1744474267,"current_range_meters":7200,"station_id":"ce4bgjh2rcd13ifvqbf0","pricing_plan_id":"cebpf4jnsgd1na2vs0mg"},{"bike_id":"e82bb0d6-e5e9-40a4-a043-2a0ac76b7f5a","system_id":"levelo_inurba_marseille","lat":43.29273,"lon":5.38439,"is_reserved":false,"is_disabled":false,"rental_uris":{"android":"levelo://app?vid=e82bb0d6-e5e9-40a4-a043-2a0ac76b7f5a","ios":"levelo://app?vid=e82bb0d6-e5e9-40a4-a043-2a0ac76b7f5a"},"vehicle_type_id":"4","last_reported":1744474267,"current_range_meters":7200,"station_id":"ce4bh692rcd13ifvqea0","pricing_plan_id":"cebpf4jnsgd1na2vs0mg"},{"bike_id":"df332e33-9582-44da-b2df-3720491d85fc","system_id":"levelo_inurba_marseille","lat":43.31225,"lon":5.3686,"is_reserved":false,"is_disabled":false,"rental_uris":{"android":"levelo://app?vid=df332e33-9582-44da-b2df-3720491d85fc","ios":"levelo://app?vid=df332e33-9582-44da-b2df-3720491d85fc"},"vehicle_type_id":"4","last_reported":1744474267,"current_range_meters":7200,"station_id":"ce4bgl92rcd13ifvqbq0","pricing_plan_id":"cebpf4jnsgd1na2vs0mg"},{"bike_id":"61087c9c-58a2-45af-89fa-c020f9313355","system_id":"levelo_inurba_marseille","lat":43.21774,"lon":5.34619,"is_reserved":false,"is_disabled":true,"rental_uris":{"android":"levelo://app?vid=61087c9c-58a2-45af-89fa-c020f9313355","ios":"levelo://app?vid=61087c9c-58a2-45af-89fa-c020f9313355"},"vehicle_type_id":"4","last_reported":1744474267,"current_range_meters":7200,"station_id":"st_cvj6r9ubvosntc0bgbag","pricing_plan_id":"cebpf4jnsgd1na2vs0mg"},{"bike_id":"5a68b6bf-2d6e-4964-9fe2-47d3c0b943ff","system_id":"levelo_inurba_marseille","lat":43.255,"lon":5.37652,"is_reserved":false,"is_disabled":false,"rental_uris":{"android":"levelo://app?vid=5a68b6bf-2d6e-4964-9fe2-47d3c0b943ff","ios":"levelo://app?vid=5a68b6bf-2d6e-4964-9fe2-47d3c0b943ff"},"vehicle_type_id":"4","last_reported":1744474267,"current_range_meters":7200,"station_id":"ce4bhh12rcd13ifvqff0","pricing_plan_id":"cebpf4jnsgd1na2vs0mg"},{"bike_id":"1140a972-920d-4823-ad69-40bf09c0fc6a","system_id":"levelo_inurba_marseille","lat":43.24669,"lon":5.3816,"is_reserved":false,"is_disabled":false,"rental_uris":{"android":"levelo://app?vid=1140a972-920d-4823-ad69-40bf09c0fc6a","ios":"levelo://app?vid=1140a972-920d-4823-ad69-40bf09c0fc6a"},"vehicle_type_id":"4","last_reported":1744474267,"current_range_meters":7200,"station_id":"ce4bhih2rcd13ifvqfr0","pricing_plan_id":"cebpf4jnsgd1na2vs0mg"},{"bike_id":"3f08cc69-711e-4264-b923-68891203ffa4","system_id":"levelo_inurba_marseille","lat":43.32285,"lon":5.38243,"is_reserved":false,"is_disabled":false,"rental_uris":{"android":"levelo://app?vid=3f08cc69-711e-4264-b923-68891203ffa4","ios":"levelo://app?vid=3f08cc69-711e-4264-b923-68891203ffa4"},"vehicle_type_id":"4","last_reported":1744474267,"current_range_meters":7200,"station_id":"ce4bhr12rcd13ifvqhqg","pricing_plan_id":"cebpf4jnsgd1na2vs0mg"},{"bike_id":"0eb69e1a-2a0a-4225-98d1-a87579923991","system_id":"levelo_inurba_marseille","lat":43.30441,"lon":5.38884,"is_reserved":false,"is_disabled":false,"rental_uris":{"android":"levelo://app?vid=0eb69e1a-2a0a-4225-98d1-a87579923991","ios":"levelo://app?vid=0eb69e1a-2a0a-4225-98d1-a87579923991"},"vehicle_type_id":"4","last_reported":1744474267,"current_range_meters":2800,"station_id":"ce4bgk12rcd13ifvqbi0","pricing_plan_id":"cebpf4jnsgd1na2vs0mg"},{"bike_id":"c0b5b79a-9bb2-4b5d-a2d8-d1e64b13f405","system_id":"levelo_inurba_marseille","lat":43.26201,"lon":5.37928,"is_reserved":false,"is_disabled":false,"rental_uris":{"android":"levelo://app?vid=c0b5b79a-9bb2-4b5d-a2d8-d1e64b13f405","ios":"levelo://app?vid=c0b5b79a-9bb2-4b5d-a2d8-d1e64b13f405"},"vehicle_type_id":"4","last_reported":1744474267,"current_range_meters":8000,"station_id":"ce4bhjp2rcd13ifvqg90","pricing_plan_id":"cebpf4jnsgd1na2vs0mg"},{"bike_id":"cc83a7aa-57a1-4769-9137-8531613b4691","system_id":"levelo_inurba_marseille","lat":43.312494,"lon":5.37303,"is_reserved":false,"is_disabled":false,"rental_uris":{"android":"levelo://app?vid=cc83a7aa-57a1-4769-9137-8531613b4691","ios":"levelo://app?vid=cc83a7aa-57a1-4769-9137-8531613b4691"},"vehicle_type_id":"4","last_reported":1744474267,"current_range_meters":8000,"station_id":"","pricing_plan_id":"cebpf4jnsgd1na2vs0mg"},{"bike_id":"2bb9b2e7-6cd1-4ba2-a100-18404a9f1bb6","system_id":"levelo_inurba_marseille","lat":43.29536,"lon":5.38549,"is_reserved":false,"is_disabled":false,"rental_uris":{"android":"levelo://app?vid=2bb9b2e7-6cd1-4ba2-a100-18404a9f1bb6","ios":"levelo://app?vid=2bb9b2e7-6cd1-4ba2-a100-18404a9f1bb6"},"vehicle_type_id":"4","last_reported":1744474267,"current_range_meters":8000,"station_id":"ce4bgih2rcd13ifvqba0","pricing_plan_id":"cebpf4jnsgd1na2vs0mg"},{"bike_id":"e9e8e27e-9aca-499d-ab8f-96c2afa7d289","system_id":"levelo_inurba_marseille","lat":43.27064,"lon":5.40281,"is_reserved":false,"is_disabled":false,"rental_uris":{"android":"levelo://app?vid=e9e8e27e-9aca-499d-ab8f-96c2afa7d289","ios":"levelo://app?vid=e9e8e27e-9aca-499d-ab8f-96c2afa7d289"},"vehicle_type_id":"4","last_reported":1744474267,"current_range_meters":8000,"station_id":"ce4bhk92rcd13ifvqgc0","pricing_plan_id":"cebpf4jnsgd1na2vs0mg"},{"bike_id":"f1e00540-c2d1-4f3b-ba05-711232888e6e","system_id":"levelo_inurba_marseille","lat":43.21754,"lon":5.34616,"is_reserved":false,"is_disabled":true,"rental_uris":{"android":"levelo://app?vid=f1e00540-c2d1-4f3b-ba05-711232888e6e","ios":"levelo://app?vid=f1e00540-c2d1-4f3b-ba05-711232888e6e"},"vehicle_type_id":"4","last_reported":1744474267,"current_range_meters":8000,"station_id":"st_cvj6r9ubvosntc0bgbag","pricing_plan_id":"cebpf4jnsgd1na2vs0mg"},{"bike_id":"c314f552-804d-45f1-bb8e-c33d0374fdc4","system_id":"levelo_inurba_marseille","lat":43.28408,"lon":5.37515,"is_reserved":false,"is_disabled":false,"rental_uris":{"android":"levelo://app?vid=c314f552-804d-45f1-bb8e-c33d0374fdc4","ios":"levelo://app?vid=c314f552-804d-45f1-bb8e-c33d0374fdc4"},"vehicle_type_id":"4","last_reported":1744474267,"current_range_meters":8000,"station_id":"ce4bh412rcd13ifvqds0","pricing_plan_id":"cebpf4jnsgd1na2vs0mg"},{"bike_id":"fd989452-0b9b-4112-9178-47c837f10ba4","system_id":"levelo_inurba_marseille","lat":43.2721,"lon":5.39171,"is_reserved":false,"is_disabled":false,"rental_uris":{"android":"levelo://app?vid=fd989452-0b9b-4112-9178-47c837f10ba4","ios":"levelo://app?vid=fd989452-0b9b-4112-9178-47c837f10ba4"},"vehicle_type_id":"4","last_reported":1744474267,"current_range_meters":8000,"station_id":"ce4bhhp2rcd13ifvqfm0","pricing_plan_id":"cebpf4jnsgd1na2vs0mg"},{"bike_id":"9ddcb90d-aab9-43ef-99a2-a88bc469736f","system_id":"levelo_inurba_marseille","lat":43.27215,"lon":5.39181,"is_reserved":false,"is_disabled":false,"rental_uris":{"android":"levelo://app?vid=9ddcb90d-aab9-43ef-99a2-a88bc469736f","ios":"levelo://app?vid=9ddcb90d-aab9-43ef-99a2-a88bc469736f"},"vehicle_type_id":"4","last_reported":1744474267,"current_range_meters":8000,"station_id":"ce4bhhp2rcd13ifvqfm0","pricing_plan_id":"cebpf4jnsgd1na2vs0mg"},{"bike_id":"cd56e7bc-9bae-4d3f-8afb-5deb3862f8ce","system_id":"levelo_inurba_marseille","lat":43.27379,"lon":5.36277,"is_reserved":false,"is_disabled":false,"rental_uris":{"android":"levelo://app?vid=cd56e7bc-9bae-4d3f-8afb-5deb3862f8ce","ios":"levelo://app?vid=cd56e7bc-9bae-4d3f-8afb-5deb3862f8ce"},"vehicle_type_id":"4","last_reported":1744474267,"current_range_meters":8000,"station_id":"ce4bhbh2rcd13ifvqeo0","pricing_plan_id":"cebpf4jnsgd1na2vs0mg"},{"bike_id":"b0009982-e2ea-4cf4-9d23-78377f157545","system_id":"levelo_inurba_marseille","lat":43.30213,"lon":5.39468,"is_reserved":false,"is_disabled":false,"rental_uris":{"android":"levelo://app?vid=b0009982-e2ea-4cf4-9d23-78377f157545","ios":"levelo://app?vid=b0009982-e2ea-4cf4-9d23-78377f157545"},"vehicle_type_id":"4","last_reported":1744474267,"current_range_meters":8400,"station_id":"ce4bh0p2rcd13ifvqd70","pricing_plan_id":"cebpf4jnsgd1na2vs0mg"},{"bike_id":"9a3790fb-d782-48fa-8e62-50c18cda44da","system_id":"levelo_inurba_marseille","lat":43.295752,"lon":5.375317,"is_reserved":false,"is_disabled":false,"rental_uris":{"android":"levelo://app?vid=9a3790fb-d782-48fa-8e62-50c18cda44da","ios":"levelo://app?vid=9a3790fb-d782-48fa-8e62-50c18cda44da"},"vehicle_type_id":"4","last_reported":1744474267,"current_range_meters":8400,"station_id":"ce4bguh2rcd13ifvqcj0","pricing_plan_id":"cebpf4jnsgd1na2vs0mg"},{"bike_id":"2980ffa7-7783-4a57-b9dc-66b0f5b0cadd","system_id":"levelo_inurba_marseille","lat":43.25504,"lon":5.37654,"is_reserved":false,"is_disabled":false,"rental_uris":{"android":"levelo://app?vid=2980ffa7-7783-4a57-b9dc-66b0f5b0cadd","ios":"levelo://app?vid=2980ffa7-7783-4a57-b9dc-66b0f5b0cadd"},"vehicle_type_id":"4","last_reported":1744474267,"current_range_meters":8400,"station_id":"ce4bhh12rcd13ifvqff0","pricing_plan_id":"cebpf4jnsgd1na2vs0mg"},{"bike_id":"4c56221a-0f46-4530-955a-7184a07c8a88","system_id":"levelo_inurba_marseille","lat":43.23198,"lon":5.35553,"is_reserved":false,"is_disabled":true,"rental_uris":{"android":"levelo://app?vid=4c56221a-0f46-4530-955a-7184a07c8a88","ios":"levelo://app?vid=4c56221a-0f46-4530-955a-7184a07c8a88"},"vehicle_type_id":"4","last_reported":1744474267,"current_range_meters":8400,"station_id":"ce4bhu92rcd13ifvqi70","pricing_plan_id":"cebpf4jnsgd1na2vs0mg"},{"bike_id":"72adaa87-94dc-4774-aca0-5147bc57bd16","system_id":"levelo_inurba_marseille","lat":43.26023,"lon":5.41748,"is_reserved":false,"is_disabled":false,"rental_uris":{"android":"levelo://app?vid=72adaa87-94dc-4774-aca0-5147bc57bd16","ios":"levelo://app?vid=72adaa87-94dc-4774-aca0-5147bc57bd16"},"vehicle_type_id":"4","last_reported":1744474267,"current_range_meters":8400,"station_id":"","pricing_plan_id":"cebpf4jnsgd1na2vs0mg"},{"bike_id":"0d28cf4f-43da-473d-8dd8-6caca8b081c3","system_id":"levelo_inurba_marseille","lat":43.25502,"lon":5.37647,"is_reserved":false,"is_disabled":false,"rental_uris":{"android":"levelo://app?vid=0d28cf4f-43da-473d-8dd8-6caca8b081c3","ios":"levelo://app?vid=0d28cf4f-43da-473d-8dd8-6caca8b081c3"},"vehicle_type_id":"4","last_reported":1744474267,"current_range_meters":8400,"station_id":"ce4bhh12rcd13ifvqff0","pricing_plan_id":"cebpf4jnsgd1na2vs0mg"},{"bike_id":"09510d68-d38f-404c-a966-d687702ddbd1","system_id":"levelo_inurba_marseille","lat":43.29576,"lon":5.37518,"is_reserved":false,"is_disabled":false,"rental_uris":{"android":"levelo://app?vid=09510d68-d38f-404c-a966-d687702ddbd1","ios":"levelo://app?vid=09510d68-d38f-404c-a966-d687702ddbd1"},"vehicle_type_id":"4","last_reported":1744474267,"current_range_meters":8800,"station_id":"ce4bgjp2rcd13ifvqbh0","pricing_plan_id":"cebpf4jnsgd1na2vs0mg"},{"bike_id":"696bdfb4-e078-4180-8eb1-cf6196d6bf97","system_id":"levelo_inurba_marseille","lat":43.29905,"lon":5.43678,"is_reserved":false,"is_disabled":false,"rental_uris":{"android":"levelo://app?vid=696bdfb4-e078-4180-8eb1-cf6196d6bf97","ios":"levelo://app?vid=696bdfb4-e078-4180-8eb1-cf6196d6bf97"},"vehicle_type_id":"4","last_reported":1744474267,"current_range_meters":8800,"station_id":"ce4bhpp2rcd13ifvqhfg","pricing_plan_id":"cebpf4jnsgd1na2vs0mg"},{"bike_id":"c61e7799-bbe5-4b5e-a5ed-5545790f6e95","system_id":"levelo_inurba_marseille","lat":43.262159,"lon":5.374418,"is_reserved":false,"is_disabled":false,"rental_uris":{"android":"levelo://app?vid=c61e7799-bbe5-4b5e-a5ed-5545790f6e95","ios":"levelo://app?vid=c61e7799-bbe5-4b5e-a5ed-5545790f6e95"},"vehicle_type_id":"4","last_reported":1744474267,"current_range_meters":8800,"station_id":"","pricing_plan_id":"cebpf4jnsgd1na2vs0mg"},{"bike_id":"411f282c-b696-41a4-888f-752e1134c529","system_id":"levelo_inurba_marseille","lat":43.26197,"lon":5.37475,"is_reserved":false,"is_disabled":false,"rental_uris":{"android":"levelo://app?vid=411f282c-b696-41a4-888f-752e1134c529","ios":"levelo://app?vid=411f282c-b696-41a4-888f-752e1134c529"},"vehicle_type_id":"4","last_reported":1744474267,"current_range_meters":8800,"station_id":"ce4bhgp2rcd13ifvqfc0","pricing_plan_id":"cebpf4jnsgd1na2vs0mg"},{"bike_id":"70a7366b-d0de-48d6-9c1c-9b233fdd4e0e","system_id":"levelo_inurba_marseille","lat":43.21756,"lon":5.34605,"is_reserved":false,"is_disabled":false,"rental_uris":{"android":"levelo://app?vid=70a7366b-d0de-48d6-9c1c-9b233fdd4e0e","ios":"levelo://app?vid=70a7366b-d0de-48d6-9c1c-9b233fdd4e0e"},"vehicle_type_id":"4","last_reported":1744474267,"current_range_meters":8800,"station_id":"ce4bhu92rcd13ifvqi70","pricing_plan_id":"cebpf4jnsgd1na2vs0mg"},{"bike_id":"8c58f2fa-99e1-41f8-bf90-9c1648b679b1","system_id":"levelo_inurba_marseille","lat":43.27326,"lon":5.41471,"is_reserved":false,"is_disabled":false,"rental_uris":{"android":"levelo://app?vid=8c58f2fa-99e1-41f8-bf90-9c1648b679b1","ios":"levelo://app?vid=8c58f2fa-99e1-41f8-bf90-9c1648b679b1"},"vehicle_type_id":"4","last_reported":1744474267,"current_range_meters":8800,"station_id":"","pricing_plan_id":"cebpf4jnsgd1na2vs0mg"},{"bike_id":"37864421-51e4-4d5e-801c-7ac32e01e722","system_id":"levelo_inurba_marseille","lat":43.31274,"lon":5.37833,"is_reserved":false,"is_disabled":false,"rental_uris":{"android":"levelo://app?vid=37864421-51e4-4d5e-801c-7ac32e01e722","ios":"levelo://app?vid=37864421-51e4-4d5e-801c-7ac32e01e722"},"vehicle_type_id":"4","last_reported":1744474267,"current_range_meters":8800,"station_id":"","pricing_plan_id":"cebpf4jnsgd1na2vs0mg"},{"bike_id":"08603b5b-e122-4e97-ad09-97a084252b62","system_id":"levelo_inurba_marseille","lat":43.29303,"lon":5.37157,"is_reserved":false,"is_disabled":false,"rental_uris":{"android":"levelo://app?vid=08603b5b-e122-4e97-ad09-97a084252b62","ios":"levelo://app?vid=08603b5b-e122-4e97-ad09-97a084252b62"},"vehicle_type_id":"4","last_reported":1744474267,"current_range_meters":9200,"station_id":"ce4bgh92rcd13ifvqb40","pricing_plan_id":"cebpf4jnsgd1na2vs0mg"},{"bike_id":"fba14dc4-f065-46f4-a67b-b47ee9a5123b","system_id":"levelo_inurba_marseille","lat":43.29337,"lon":5.37178,"is_reserved":false,"is_disabled":true,"rental_uris":{"android":"levelo://app?vid=fba14dc4-f065-46f4-a67b-b47ee9a5123b","ios":"levelo://app?vid=fba14dc4-f065-46f4-a67b-b47ee9a5123b"},"vehicle_type_id":"4","last_reported":1744474267,"current_range_meters":9200,"station_id":"ce4bgh92rcd13ifvqb40","pricing_plan_id":"cebpf4jnsgd1na2vs0mg"},{"bike_id":"bc01aaa0-c76a-4df7-8419-91dfd48fc445","system_id":"levelo_inurba_marseille","lat":43.30952,"lon":5.39025,"is_reserved":false,"is_disabled":false,"rental_uris":{"android":"levelo://app?vid=bc01aaa0-c76a-4df7-8419-91dfd48fc445","ios":"levelo://app?vid=bc01aaa0-c76a-4df7-8419-91dfd48fc445"},"vehicle_type_id":"4","last_reported":1744474267,"current_range_meters":9200,"station_id":"ce4bgup2rcd13ifvqco0","pricing_plan_id":"cebpf4jnsgd1na2vs0mg"},{"bike_id":"40d8c1d8-5765-4f2a-92d6-a443fd0acaca","system_id":"levelo_inurba_marseille","lat":43.30541,"lon":5.38429,"is_reserved":false,"is_disabled":false,"rental_uris":{"android":"levelo://app?vid=40d8c1d8-5765-4f2a-92d6-a443fd0acaca","ios":"levelo://app?vid=40d8c1d8-5765-4f2a-92d6-a443fd0acaca"},"vehicle_type_id":"4","last_reported":1744474267,"current_range_meters":9200,"station_id":"ce4bgg92rcd13ifvqb30","pricing_plan_id":"cebpf4jnsgd1na2vs0mg"},{"bike_id":"4cedd733-2587-4eb1-87b3-3ab69e1574bc","system_id":"levelo_inurba_marseille","lat":43.28975,"lon":5.36653,"is_reserved":false,"is_disabled":false,"rental_uris":{"android":"levelo://app?vid=4cedd733-2587-4eb1-87b3-3ab69e1574bc","ios":"levelo://app?vid=4cedd733-2587-4eb1-87b3-3ab69e1574bc"},"vehicle_type_id":"4","last_reported":1744474267,"current_range_meters":9200,"station_id":"","pricing_plan_id":"cebpf4jnsgd1na2vs0mg"},{"bike_id":"51b7b30a-795b-4ca2-bf5a-c55dd1649c3b","system_id":"levelo_inurba_marseille","lat":43.24393,"lon":5.37064,"is_reserved":false,"is_disabled":false,"rental_uris":{"android":"levelo://app?vid=51b7b30a-795b-4ca2-bf5a-c55dd1649c3b","ios":"levelo://app?vid=51b7b30a-795b-4ca2-bf5a-c55dd1649c3b"},"vehicle_type_id":"4","last_reported":1744474267,"current_range_meters":9200,"station_id":"ce4bhhh2rcd13ifvqfk0","pricing_plan_id":"cebpf4jnsgd1na2vs0mg"},{"bike_id":"4c893399-b4ed-40ed-a49f-713da320f269","system_id":"levelo_inurba_marseille","lat":43.29861,"lon":5.37841,"is_reserved":false,"is_disabled":false,"rental_uris":{"android":"levelo://app?vid=4c893399-b4ed-40ed-a49f-713da320f269","ios":"levelo://app?vid=4c893399-b4ed-40ed-a49f-713da320f269"},"vehicle_type_id":"4","last_reported":1744474267,"current_range_meters":9200,"station_id":"","pricing_plan_id":"cebpf4jnsgd1na2vs0mg"},{"bike_id":"7fcae990-9517-4de3-8b6e-635488333323","system_id":"levelo_inurba_marseille","lat":43.29042,"lon":5.37566,"is_reserved":false,"is_disabled":false,"rental_uris":{"android":"levelo://app?vid=7fcae990-9517-4de3-8b6e-635488333323","ios":"levelo://app?vid=7fcae990-9517-4de3-8b6e-635488333323"},"vehicle_type_id":"4","last_reported":1744474267,"current_range_meters":9200,"station_id":"ce4bh692rcd13ifvqe90","pricing_plan_id":"cebpf4jnsgd1na2vs0mg"},{"bike_id":"b78aa84d-7c44-4fdf-82f4-d3850ce95feb","system_id":"levelo_inurba_marseille","lat":43.24387,"lon":5.37065,"is_reserved":false,"is_disabled":false,"rental_uris":{"android":"levelo://app?vid=b78aa84d-7c44-4fdf-82f4-d3850ce95feb","ios":"levelo://app?vid=b78aa84d-7c44-4fdf-82f4-d3850ce95feb"},"vehicle_type_id":"4","last_reported":1744474267,"current_range_meters":9200,"station_id":"ce4bhhh2rcd13ifvqfk0","pricing_plan_id":"cebpf4jnsgd1na2vs0mg"},{"bike_id":"d183226c-2074-45e8-9ba4-12aa58eb8217","system_id":"levelo_inurba_marseille","lat":43.2872,"lon":5.37931,"is_reserved":false,"is_disabled":false,"rental_uris":{"android":"levelo://app?vid=d183226c-2074-45e8-9ba4-12aa58eb8217","ios":"levelo://app?vid=d183226c-2074-45e8-9ba4-12aa58eb8217"},"vehicle_type_id":"4","last_reported":1744474267,"current_range_meters":9200,"station_id":"ce4bh9p2rcd13ifvqec0","pricing_plan_id":"cebpf4jnsgd1na2vs0mg"},{"bike_id":"5fe772a5-eba6-41d7-9aaf-4d8c5fed1e60","system_id":"levelo_inurba_marseille","lat":43.2549,"lon":5.37669,"is_reserved":false,"is_disabled":false,"rental_uris":{"android":"levelo://app?vid=5fe772a5-eba6-41d7-9aaf-4d8c5fed1e60","ios":"levelo://app?vid=5fe772a5-eba6-41d7-9aaf-4d8c5fed1e60"},"vehicle_type_id":"4","last_reported":1744474267,"current_range_meters":9200,"station_id":"ce4bhh12rcd13ifvqff0","pricing_plan_id":"cebpf4jnsgd1na2vs0mg"},{"bike_id":"851458ab-edc8-40f8-bcf6-0566009d4329","system_id":"levelo_inurba_marseille","lat":43.265,"lon":5.395341,"is_reserved":false,"is_disabled":false,"rental_uris":{"android":"levelo://app?vid=851458ab-edc8-40f8-bcf6-0566009d4329","ios":"levelo://app?vid=851458ab-edc8-40f8-bcf6-0566009d4329"},"vehicle_type_id":"4","last_reported":1744474267,"current_range_meters":9200,"station_id":"ce4bhi12rcd13ifvqfq0","pricing_plan_id":"cebpf4jnsgd1na2vs0mg"},{"bike_id":"068faf6e-a1ed-4a39-a0e0-563ea5f9b5b5","system_id":"levelo_inurba_marseille","lat":43.24183,"lon":5.39743,"is_reserved":false,"is_disabled":false,"rental_uris":{"android":"levelo://app?vid=068faf6e-a1ed-4a39-a0e0-563ea5f9b5b5","ios":"levelo://app?vid=068faf6e-a1ed-4a39-a0e0-563ea5f9b5b5"},"vehicle_type_id":"4","last_reported":1744474267,"current_range_meters":9200,"station_id":"ce4bhn12rcd13ifvqgpg","pricing_plan_id":"cebpf4jnsgd1na2vs0mg"},{"bike_id":"2d364b4a-f8ab-429e-9da4-9740ec309395","system_id":"levelo_inurba_marseille","lat":43.29282,"lon":5.40119,"is_reserved":false,"is_disabled":false,"rental_uris":{"android":"levelo://app?vid=2d364b4a-f8ab-429e-9da4-9740ec309395","ios":"levelo://app?vid=2d364b4a-f8ab-429e-9da4-9740ec309395"},"vehicle_type_id":"4","last_reported":1744474267,"current_range_meters":9200,"station_id":"ce4bh312rcd13ifvqdk0","pricing_plan_id":"cebpf4jnsgd1na2vs0mg"},{"bike_id":"03ba5e27-0551-419a-a313-877757fbd25e","system_id":"levelo_inurba_marseille","lat":43.29575,"lon":5.375,"is_reserved":false,"is_disabled":false,"rental_uris":{"android":"levelo://app?vid=03ba5e27-0551-419a-a313-877757fbd25e","ios":"levelo://app?vid=03ba5e27-0551-419a-a313-877757fbd25e"},"vehicle_type_id":"4","last_reported":1744474267,"current_range_meters":9600,"station_id":"ce4bgjp2rcd13ifvqbh0","pricing_plan_id":"cebpf4jnsgd1na2vs0mg"},{"bike_id":"c400e4b7-268d-4ac5-8f7a-3d44d49bb742","system_id":"levelo_inurba_marseille","lat":43.27417,"lon":5.36331,"is_reserved":false,"is_disabled":false,"rental_uris":{"android":"levelo://app?vid=c400e4b7-268d-4ac5-8f7a-3d44d49bb742","ios":"levelo://app?vid=c400e4b7-268d-4ac5-8f7a-3d44d49bb742"},"vehicle_type_id":"4","last_reported":1744474267,"current_range_meters":9600,"station_id":"","pricing_plan_id":"cebpf4jnsgd1na2vs0mg"},{"bike_id":"6a1e608e-3332-472e-a4d9-365d6ebe778d","system_id":"levelo_inurba_marseille","lat":43.29268,"lon":5.37626,"is_reserved":false,"is_disabled":false,"rental_uris":{"android":"levelo://app?vid=6a1e608e-3332-472e-a4d9-365d6ebe778d","ios":"levelo://app?vid=6a1e608e-3332-472e-a4d9-365d6ebe778d"},"vehicle_type_id":"4","last_reported":1744474267,"current_range_meters":9600,"station_id":"ce4bgi12rcd13ifvqb80","pricing_plan_id":"cebpf4jnsgd1na2vs0mg"},{"bike_id":"c77c6b8b-5260-405f-adea-b01028946c68","system_id":"levelo_inurba_marseille","lat":43.28432,"lon":5.37512,"is_reserved":false,"is_disabled":false,"rental_uris":{"android":"levelo://app?vid=c77c6b8b-5260-405f-adea-b01028946c68","ios":"levelo://app?vid=c77c6b8b-5260-405f-adea-b01028946c68"},"vehicle_type_id":"4","last_reported":1744474267,"current_range_meters":9600,"station_id":"ce4bh412rcd13ifvqds0","pricing_plan_id":"cebpf4jnsgd1na2vs0mg"},{"bike_id":"6221198d-85b6-49d8-94d5-fdfa46ea7ccf","system_id":"levelo_inurba_marseille","lat":43.27377,"lon":5.36253,"is_reserved":false,"is_disabled":false,"rental_uris":{"android":"levelo://app?vid=6221198d-85b6-49d8-94d5-fdfa46ea7ccf","ios":"levelo://app?vid=6221198d-85b6-49d8-94d5-fdfa46ea7ccf"},"vehicle_type_id":"4","last_reported":1744474267,"current_range_meters":9600,"station_id":"ce4bhbh2rcd13ifvqeo0","pricing_plan_id":"cebpf4jnsgd1na2vs0mg"},{"bike_id":"c8aad4c9-8bfa-40d3-bfd3-41fa300a75fe","system_id":"levelo_inurba_marseille","lat":43.25582,"lon":5.3827,"is_reserved":false,"is_disabled":false,"rental_uris":{"android":"levelo://app?vid=c8aad4c9-8bfa-40d3-bfd3-41fa300a75fe","ios":"levelo://app?vid=c8aad4c9-8bfa-40d3-bfd3-41fa300a75fe"},"vehicle_type_id":"4","last_reported":1744474267,"current_range_meters":9600,"station_id":"ce4bhih2rcd13ifvqfs0","pricing_plan_id":"cebpf4jnsgd1na2vs0mg"},{"bike_id":"15f2f842-473d-46eb-ad17-e8c16644eb2c","system_id":"levelo_inurba_marseille","lat":43.317258,"lon":5.423917,"is_reserved":false,"is_disabled":false,"rental_uris":{"android":"levelo://app?vid=15f2f842-473d-46eb-ad17-e8c16644eb2c","ios":"levelo://app?vid=15f2f842-473d-46eb-ad17-e8c16644eb2c"},"vehicle_type_id":"4","last_reported":1744474267,"current_range_meters":9600,"station_id":"ce4bhp92rcd13ifvqhbg","pricing_plan_id":"cebpf4jnsgd1na2vs0mg"},{"bike_id":"42a8ec23-9c1c-4a24-967a-7165997f5176","system_id":"levelo_inurba_marseille","lat":43.29296,"lon":5.37463,"is_reserved":false,"is_disabled":false,"rental_uris":{"android":"levelo://app?vid=42a8ec23-9c1c-4a24-967a-7165997f5176","ios":"levelo://app?vid=42a8ec23-9c1c-4a24-967a-7165997f5176"},"vehicle_type_id":"4","last_reported":1744474267,"current_range_meters":9600,"station_id":"ce4bgi12rcd13ifvqb70","pricing_plan_id":"cebpf4jnsgd1na2vs0mg"},{"bike_id":"ec6f7006-3321-4db1-bf0c-14b3f92e978a","system_id":"levelo_inurba_marseille","lat":43.270597,"lon":5.402639,"is_reserved":false,"is_disabled":false,"rental_uris":{"android":"levelo://app?vid=ec6f7006-3321-4db1-bf0c-14b3f92e978a","ios":"levelo://app?vid=ec6f7006-3321-4db1-bf0c-14b3f92e978a"},"vehicle_type_id":"4","last_reported":1744474267,"current_range_meters":9600,"station_id":"ce4bhk92rcd13ifvqgc0","pricing_plan_id":"cebpf4jnsgd1na2vs0mg"},{"bike_id":"cfbcab03-e55d-4773-af8b-18bf4756c9be","system_id":"levelo_inurba_marseille","lat":43.25488,"lon":5.37673,"is_reserved":false,"is_disabled":false,"rental_uris":{"android":"levelo://app?vid=cfbcab03-e55d-4773-af8b-18bf4756c9be","ios":"levelo://app?vid=cfbcab03-e55d-4773-af8b-18bf4756c9be"},"vehicle_type_id":"4","last_reported":1744474267,"current_range_meters":10000,"station_id":"ce4bhh12rcd13ifvqff0","pricing_plan_id":"cebpf4jnsgd1na2vs0mg"},{"bike_id":"c013d600-5e08-48f0-830e-8c965978436b","system_id":"levelo_inurba_marseille","lat":43.30441,"lon":5.38911,"is_reserved":false,"is_disabled":true,"rental_uris":{"android":"levelo://app?vid=c013d600-5e08-48f0-830e-8c965978436b","ios":"levelo://app?vid=c013d600-5e08-48f0-830e-8c965978436b"},"vehicle_type_id":"4","last_reported":1744474267,"current_range_meters":10000,"station_id":"ce4bgk12rcd13ifvqbi0","pricing_plan_id":"cebpf4jnsgd1na2vs0mg"},{"bike_id":"f6389565-ad61-4e90-9442-76e818068889","system_id":"levelo_inurba_marseille","lat":43.28939,"lon":5.36389,"is_reserved":false,"is_disabled":false,"rental_uris":{"android":"levelo://app?vid=f6389565-ad61-4e90-9442-76e818068889","ios":"levelo://app?vid=f6389565-ad61-4e90-9442-76e818068889"},"vehicle_type_id":"4","last_reported":1744474267,"current_range_meters":10000,"station_id":"ce4bhc92rcd13ifvqetg","pricing_plan_id":"cebpf4jnsgd1na2vs0mg"},{"bike_id":"a6ddee11-e1be-4252-9994-d84950956289","system_id":"levelo_inurba_marseille","lat":43.26938,"lon":5.4027,"is_reserved":false,"is_disabled":false,"rental_uris":{"android":"levelo://app?vid=a6ddee11-e1be-4252-9994-d84950956289","ios":"levelo://app?vid=a6ddee11-e1be-4252-9994-d84950956289"},"vehicle_type_id":"4","last_reported":1744474267,"current_range_meters":10000,"station_id":"cjm6bp8fraef2m0cb0m0","pricing_plan_id":"cebpf4jnsgd1na2vs0mg"},{"bike_id":"4a0973b0-92a0-41e8-9b0d-a99e944bafe0","system_id":"levelo_inurba_marseille","lat":43.344885,"lon":5.412939,"is_reserved":false,"is_disabled":false,"rental_uris":{"android":"levelo://app?vid=4a0973b0-92a0-41e8-9b0d-a99e944bafe0","ios":"levelo://app?vid=4a0973b0-92a0-41e8-9b0d-a99e944bafe0"},"vehicle_type_id":"4","last_reported":1744474267,"current_range_meters":10000,"station_id":"","pricing_plan_id":"cebpf4jnsgd1na2vs0mg"},{"bike_id":"88802da1-90f2-4aff-90a1-c3598e933096","system_id":"levelo_inurba_marseille","lat":43.30338,"lon":5.39319,"is_reserved":false,"is_disabled":false,"rental_uris":{"android":"levelo://app?vid=88802da1-90f2-4aff-90a1-c3598e933096","ios":"levelo://app?vid=88802da1-90f2-4aff-90a1-c3598e933096"},"vehicle_type_id":"4","last_reported":1744474267,"current_range_meters":10000,"station_id":"","pricing_plan_id":"cebpf4jnsgd1na2vs0mg"},{"bike_id":"9913dd08-a38e-4acc-b630-59cb358289c9","system_id":"levelo_inurba_marseille","lat":43.29312,"lon":5.37173,"is_reserved":false,"is_disabled":false,"rental_uris":{"android":"levelo://app?vid=9913dd08-a38e-4acc-b630-59cb358289c9","ios":"levelo://app?vid=9913dd08-a38e-4acc-b630-59cb358289c9"},"vehicle_type_id":"4","last_reported":1744474267,"current_range_meters":10800,"station_id":"ce4bgh92rcd13ifvqb40","pricing_plan_id":"cebpf4jnsgd1na2vs0mg"},{"bike_id":"d53356ed-34e7-4ce0-8d94-e073954cdd85","system_id":"levelo_inurba_marseille","lat":43.27047,"lon":5.40276,"is_reserved":false,"is_disabled":true,"rental_uris":{"android":"levelo://app?vid=d53356ed-34e7-4ce0-8d94-e073954cdd85","ios":"levelo://app?vid=d53356ed-34e7-4ce0-8d94-e073954cdd85"},"vehicle_type_id":"4","last_reported":1744474267,"current_range_meters":10800,"station_id":"ce4bhk92rcd13ifvqgc0","pricing_plan_id":"cebpf4jnsgd1na2vs0mg"},{"bike_id":"1583f2f6-73b9-4e73-958b-e49d9708f9c4","system_id":"levelo_inurba_marseille","lat":43.27838,"lon":5.39203,"is_reserved":false,"is_disabled":false,"rental_uris":{"android":"levelo://app?vid=1583f2f6-73b9-4e73-958b-e49d9708f9c4","ios":"levelo://app?vid=1583f2f6-73b9-4e73-958b-e49d9708f9c4"},"vehicle_type_id":"4","last_reported":1744474267,"current_range_meters":10800,"station_id":"ce4bhjp2rcd13ifvqga0","pricing_plan_id":"cebpf4jnsgd1na2vs0mg"},{"bike_id":"86e3fd62-ce53-4f21-93c1-2fb7456de3cf","system_id":"levelo_inurba_marseille","lat":43.23061,"lon":5.35495,"is_reserved":false,"is_disabled":false,"rental_uris":{"android":"levelo://app?vid=86e3fd62-ce53-4f21-93c1-2fb7456de3cf","ios":"levelo://app?vid=86e3fd62-ce53-4f21-93c1-2fb7456de3cf"},"vehicle_type_id":"4","last_reported":1744474267,"current_range_meters":10800,"station_id":"cpo3342slgdg3j2ifvpg","pricing_plan_id":"cebpf4jnsgd1na2vs0mg"},{"bike_id":"79850b3e-4954-4a4c-85a8-61a67c810baf","system_id":"levelo_inurba_marseille","lat":43.29197,"lon":5.35805,"is_reserved":false,"is_disabled":false,"rental_uris":{"android":"levelo://app?vid=79850b3e-4954-4a4c-85a8-61a67c810baf","ios":"levelo://app?vid=79850b3e-4954-4a4c-85a8-61a67c810baf"},"vehicle_type_id":"4","last_reported":1744474267,"current_range_meters":10800,"station_id":"ce4bhb12rcd13ifvqel0","pricing_plan_id":"cebpf4jnsgd1na2vs0mg"},{"bike_id":"ef291804-1477-432e-b153-82ea15725418","system_id":"levelo_inurba_marseille","lat":43.33742,"lon":5.37454,"is_reserved":false,"is_disabled":false,"rental_uris":{"android":"levelo://app?vid=ef291804-1477-432e-b153-82ea15725418","ios":"levelo://app?vid=ef291804-1477-432e-b153-82ea15725418"},"vehicle_type_id":"4","last_reported":1744474267,"current_range_meters":10800,"station_id":"","pricing_plan_id":"cebpf4jnsgd1na2vs0mg"},{"bike_id":"25f2a4bb-d5a8-47d3-9461-a02575c784b8","system_id":"levelo_inurba_marseille","lat":43.25585,"lon":5.3821,"is_reserved":false,"is_disabled":false,"rental_uris":{"android":"levelo://app?vid=25f2a4bb-d5a8-47d3-9461-a02575c784b8","ios":"levelo://app?vid=25f2a4bb-d5a8-47d3-9461-a02575c784b8"},"vehicle_type_id":"4","last_reported":1744474267,"current_range_meters":10800,"station_id":"ce4bhih2rcd13ifvqfs0","pricing_plan_id":"cebpf4jnsgd1na2vs0mg"},{"bike_id":"52beda89-b7a5-4ced-b5f7-e8e0308fb12e","system_id":"levelo_inurba_marseille","lat":43.30893,"lon":5.37201,"is_reserved":false,"is_disabled":false,"rental_uris":{"android":"levelo://app?vid=52beda89-b7a5-4ced-b5f7-e8e0308fb12e","ios":"levelo://app?vid=52beda89-b7a5-4ced-b5f7-e8e0308fb12e"},"vehicle_type_id":"4","last_reported":1744474267,"current_range_meters":10800,"station_id":"ce4bguh2rcd13ifvqckg","pricing_plan_id":"cebpf4jnsgd1na2vs0mg"},{"bike_id":"fa7200cf-d860-491e-87e0-1d11dd680a9e","system_id":"levelo_inurba_marseille","lat":43.27945,"lon":5.41046,"is_reserved":false,"is_disabled":false,"rental_uris":{"android":"levelo://app?vid=fa7200cf-d860-491e-87e0-1d11dd680a9e","ios":"levelo://app?vid=fa7200cf-d860-491e-87e0-1d11dd680a9e"},"vehicle_type_id":"4","last_reported":1744474267,"current_range_meters":10800,"station_id":"ce4bhnp2rcd13ifvqh0g","pricing_plan_id":"cebpf4jnsgd1na2vs0mg"},{"bike_id":"9fa8cd42-b175-4b81-9f4c-b00fb61ebb32","system_id":"levelo_inurba_marseille","lat":43.30334,"lon":5.40432,"is_reserved":false,"is_disabled":false,"rental_uris":{"android":"levelo://app?vid=9fa8cd42-b175-4b81-9f4c-b00fb61ebb32","ios":"levelo://app?vid=9fa8cd42-b175-4b81-9f4c-b00fb61ebb32"},"vehicle_type_id":"4","last_reported":1744474267,"current_range_meters":11200,"station_id":"ce4bh012rcd13ifvqd10","pricing_plan_id":"cebpf4jnsgd1na2vs0mg"},{"bike_id":"f7d1eee0-1715-419d-beac-1b98ec9e62ed","system_id":"levelo_inurba_marseille","lat":43.30968,"lon":5.39033,"is_reserved":false,"is_disabled":true,"rental_uris":{"android":"levelo://app?vid=f7d1eee0-1715-419d-beac-1b98ec9e62ed","ios":"levelo://app?vid=f7d1eee0-1715-419d-beac-1b98ec9e62ed"},"vehicle_type_id":"4","last_reported":1744474267,"current_range_meters":11200,"station_id":"ce4bgup2rcd13ifvqco0","pricing_plan_id":"cebpf4jnsgd1na2vs0mg"},{"bike_id":"9ef6151d-da8c-42ca-897e-75ccb4cadee5","system_id":"levelo_inurba_marseille","lat":43.30952,"lon":5.39065,"is_reserved":false,"is_disabled":false,"rental_uris":{"android":"levelo://app?vid=9ef6151d-da8c-42ca-897e-75ccb4cadee5","ios":"levelo://app?vid=9ef6151d-da8c-42ca-897e-75ccb4cadee5"},"vehicle_type_id":"4","last_reported":1744474267,"current_range_meters":10800,"station_id":"ce4bgup2rcd13ifvqco0","pricing_plan_id":"cebpf4jnsgd1na2vs0mg"},{"bike_id":"13d1f54d-b268-488b-a7b7-5ee3988b2c41","system_id":"levelo_inurba_marseille","lat":43.27673,"lon":5.38885,"is_reserved":false,"is_disabled":false,"rental_uris":{"android":"levelo://app?vid=13d1f54d-b268-488b-a7b7-5ee3988b2c41","ios":"levelo://app?vid=13d1f54d-b268-488b-a7b7-5ee3988b2c41"},"vehicle_type_id":"4","last_reported":1744474267,"current_range_meters":11200,"station_id":"ce4bhi12rcd13ifvqfo0","pricing_plan_id":"cebpf4jnsgd1na2vs0mg"},{"bike_id":"f79cee2a-ba1a-47b9-bce8-2cdfead39509","system_id":"levelo_inurba_marseille","lat":43.26032,"lon":5.37551,"is_reserved":false,"is_disabled":false,"rental_uris":{"android":"levelo://app?vid=f79cee2a-ba1a-47b9-bce8-2cdfead39509","ios":"levelo://app?vid=f79cee2a-ba1a-47b9-bce8-2cdfead39509"},"vehicle_type_id":"4","last_reported":1744474267,"current_range_meters":11200,"station_id":"ce4bhgh2rcd13ifvqfa0","pricing_plan_id":"cebpf4jnsgd1na2vs0mg"},{"bike_id":"1e53f36f-dd75-48ad-b3d2-12eb9aa1f99a","system_id":"levelo_inurba_marseille","lat":43.25502,"lon":5.37649,"is_reserved":false,"is_disabled":false,"rental_uris":{"android":"levelo://app?vid=1e53f36f-dd75-48ad-b3d2-12eb9aa1f99a","ios":"levelo://app?vid=1e53f36f-dd75-48ad-b3d2-12eb9aa1f99a"},"vehicle_type_id":"4","last_reported":1744474267,"current_range_meters":11200,"station_id":"ce4bhh12rcd13ifvqff0","pricing_plan_id":"cebpf4jnsgd1na2vs0mg"},{"bike_id":"38c0a90c-3b44-4d21-a39b-fd16d4c0a4a7","system_id":"levelo_inurba_marseille","lat":43.27496,"lon":5.42454,"is_reserved":false,"is_disabled":false,"rental_uris":{"android":"levelo://app?vid=38c0a90c-3b44-4d21-a39b-fd16d4c0a4a7","ios":"levelo://app?vid=38c0a90c-3b44-4d21-a39b-fd16d4c0a4a7"},"vehicle_type_id":"4","last_reported":1744474267,"current_range_meters":11200,"station_id":"ce4bhn92rcd13ifvqgrg","pricing_plan_id":"cebpf4jnsgd1na2vs0mg"},{"bike_id":"4895311a-30d1-4351-9828-aa9b98ff5c7b","system_id":"levelo_inurba_marseille","lat":43.29588,"lon":5.37496,"is_reserved":false,"is_disabled":false,"rental_uris":{"android":"levelo://app?vid=4895311a-30d1-4351-9828-aa9b98ff5c7b","ios":"levelo://app?vid=4895311a-30d1-4351-9828-aa9b98ff5c7b"},"vehicle_type_id":"4","last_reported":1744474267,"current_range_meters":11200,"station_id":"ce4bgh92rcd13ifvqb50","pricing_plan_id":"cebpf4jnsgd1na2vs0mg"},{"bike_id":"67e9b03f-85a9-4793-a22e-abdf77b12562","system_id":"levelo_inurba_marseille","lat":43.23154,"lon":5.43724,"is_reserved":false,"is_disabled":false,"rental_uris":{"android":"levelo://app?vid=67e9b03f-85a9-4793-a22e-abdf77b12562","ios":"levelo://app?vid=67e9b03f-85a9-4793-a22e-abdf77b12562"},"vehicle_type_id":"4","last_reported":1744474267,"current_range_meters":11200,"station_id":"ce4bhmp2rcd13ifvqgog","pricing_plan_id":"cebpf4jnsgd1na2vs0mg"},{"bike_id":"723114bc-e2d3-4dfc-b6e3-458fa4ed1f85","system_id":"levelo_inurba_marseille","lat":43.30794,"lon":5.43528,"is_reserved":false,"is_disabled":false,"rental_uris":{"android":"levelo://app?vid=723114bc-e2d3-4dfc-b6e3-458fa4ed1f85","ios":"levelo://app?vid=723114bc-e2d3-4dfc-b6e3-458fa4ed1f85"},"vehicle_type_id":"4","last_reported":1744474267,"current_range_meters":11200,"station_id":"ce4bhph2rcd13ifvqheg","pricing_plan_id":"cebpf4jnsgd1na2vs0mg"},{"bike_id":"b56ce312-2fa5-4729-bef6-d60e4feb4331","system_id":"levelo_inurba_marseille","lat":43.27567,"lon":5.38413,"is_reserved":false,"is_disabled":false,"rental_uris":{"android":"levelo://app?vid=b56ce312-2fa5-4729-bef6-d60e4feb4331","ios":"levelo://app?vid=b56ce312-2fa5-4729-bef6-d60e4feb4331"},"vehicle_type_id":"4","last_reported":1744474267,"current_range_meters":10800,"station_id":"ce4bhh92rcd13ifvqfi0","pricing_plan_id":"cebpf4jnsgd1na2vs0mg"},{"bike_id":"4d8c60a0-95a9-4ce4-9cc8-cc31b8d095fd","system_id":"levelo_inurba_marseille","lat":43.284089,"lon":5.375075,"is_reserved":false,"is_disabled":false,"rental_uris":{"android":"levelo://app?vid=4d8c60a0-95a9-4ce4-9cc8-cc31b8d095fd","ios":"levelo://app?vid=4d8c60a0-95a9-4ce4-9cc8-cc31b8d095fd"},"vehicle_type_id":"4","last_reported":1744474267,"current_range_meters":11200,"station_id":"ce4bh412rcd13ifvqds0","pricing_plan_id":"cebpf4jnsgd1na2vs0mg"},{"bike_id":"0e7bf4ae-5aed-4055-a1f8-96debbb9847e","system_id":"levelo_inurba_marseille","lat":43.24171,"lon":5.36412,"is_reserved":false,"is_disabled":false,"rental_uris":{"android":"levelo://app?vid=0e7bf4ae-5aed-4055-a1f8-96debbb9847e","ios":"levelo://app?vid=0e7bf4ae-5aed-4055-a1f8-96debbb9847e"},"vehicle_type_id":"4","last_reported":1744474267,"current_range_meters":11200,"station_id":"cpo36qri1sfpv3e86is0","pricing_plan_id":"cebpf4jnsgd1na2vs0mg"},{"bike_id":"8609ec5b-db31-4682-89f6-95794d251c5e","system_id":"levelo_inurba_marseille","lat":43.23158,"lon":5.43717,"is_reserved":false,"is_disabled":false,"rental_uris":{"android":"levelo://app?vid=8609ec5b-db31-4682-89f6-95794d251c5e","ios":"levelo://app?vid=8609ec5b-db31-4682-89f6-95794d251c5e"},"vehicle_type_id":"4","last_reported":1744474267,"current_range_meters":11200,"station_id":"ce4bhmp2rcd13ifvqgog","pricing_plan_id":"cebpf4jnsgd1na2vs0mg"},{"bike_id":"d8f603cd-3b83-4148-bab8-3a185ad2a59f","system_id":"levelo_inurba_marseille","lat":43.32416,"lon":5.3913,"is_reserved":false,"is_disabled":false,"rental_uris":{"android":"levelo://app?vid=d8f603cd-3b83-4148-bab8-3a185ad2a59f","ios":"levelo://app?vid=d8f603cd-3b83-4148-bab8-3a185ad2a59f"},"vehicle_type_id":"4","last_reported":1744474267,"current_range_meters":11600,"station_id":"","pricing_plan_id":"cebpf4jnsgd1na2vs0mg"},{"bike_id":"2f53bbf7-95d0-4407-a0aa-a1c2ebdb62f2","system_id":"levelo_inurba_marseille","lat":43.25589,"lon":5.38251,"is_reserved":false,"is_disabled":false,"rental_uris":{"android":"levelo://app?vid=2f53bbf7-95d0-4407-a0aa-a1c2ebdb62f2","ios":"levelo://app?vid=2f53bbf7-95d0-4407-a0aa-a1c2ebdb62f2"},"vehicle_type_id":"4","last_reported":1744474267,"current_range_meters":11600,"station_id":"ce4bhih2rcd13ifvqfs0","pricing_plan_id":"cebpf4jnsgd1na2vs0mg"},{"bike_id":"450de126-a945-4b15-b34f-6ffd5c99e1ff","system_id":"levelo_inurba_marseille","lat":43.27366,"lon":5.36242,"is_reserved":false,"is_disabled":false,"rental_uris":{"android":"levelo://app?vid=450de126-a945-4b15-b34f-6ffd5c99e1ff","ios":"levelo://app?vid=450de126-a945-4b15-b34f-6ffd5c99e1ff"},"vehicle_type_id":"4","last_reported":1744474267,"current_range_meters":11600,"station_id":"ce4bhbh2rcd13ifvqeo0","pricing_plan_id":"cebpf4jnsgd1na2vs0mg"},{"bike_id":"4a786d25-0752-436e-93ab-c2dec0e9e9ab","system_id":"levelo_inurba_marseille","lat":43.29093,"lon":5.38175,"is_reserved":false,"is_disabled":false,"rental_uris":{"android":"levelo://app?vid=4a786d25-0752-436e-93ab-c2dec0e9e9ab","ios":"levelo://app?vid=4a786d25-0752-436e-93ab-c2dec0e9e9ab"},"vehicle_type_id":"4","last_reported":1744474267,"current_range_meters":11600,"station_id":"ce4bh512rcd13ifvqe2g","pricing_plan_id":"cebpf4jnsgd1na2vs0mg"},{"bike_id":"e1b07c12-812e-4cc4-bf0c-43c4afc26b8e","system_id":"levelo_inurba_marseille","lat":43.269529,"lon":5.389591,"is_reserved":false,"is_disabled":false,"rental_uris":{"android":"levelo://app?vid=e1b07c12-812e-4cc4-bf0c-43c4afc26b8e","ios":"levelo://app?vid=e1b07c12-812e-4cc4-bf0c-43c4afc26b8e"},"vehicle_type_id":"4","last_reported":1744474267,"current_range_meters":11200,"station_id":"ce4bhhh2rcd13ifvqfl0","pricing_plan_id":"cebpf4jnsgd1na2vs0mg"},{"bike_id":"685e9e52-31cb-467e-a892-d10b045100c4","system_id":"levelo_inurba_marseille","lat":43.289377,"lon":5.366598,"is_reserved":false,"is_disabled":false,"rental_uris":{"android":"levelo://app?vid=685e9e52-31cb-467e-a892-d10b045100c4","ios":"levelo://app?vid=685e9e52-31cb-467e-a892-d10b045100c4"},"vehicle_type_id":"4","last_reported":1744474267,"current_range_meters":11600,"station_id":"cki0cbj6b192h4jlfktg","pricing_plan_id":"cebpf4jnsgd1na2vs0mg"},{"bike_id":"8476ceca-cdeb-4613-b22e-769e8c6c0862","system_id":"levelo_inurba_marseille","lat":43.30811,"lon":5.43524,"is_reserved":false,"is_disabled":false,"rental_uris":{"android":"levelo://app?vid=8476ceca-cdeb-4613-b22e-769e8c6c0862","ios":"levelo://app?vid=8476ceca-cdeb-4613-b22e-769e8c6c0862"},"vehicle_type_id":"4","last_reported":1744474267,"current_range_meters":11600,"station_id":"ce4bhph2rcd13ifvqheg","pricing_plan_id":"cebpf4jnsgd1na2vs0mg"},{"bike_id":"5b77a833-8185-45c2-9fe3-07eb40df54ca","system_id":"levelo_inurba_marseille","lat":43.33995,"lon":5.38057,"is_reserved":false,"is_disabled":false,"rental_uris":{"android":"levelo://app?vid=5b77a833-8185-45c2-9fe3-07eb40df54ca","ios":"levelo://app?vid=5b77a833-8185-45c2-9fe3-07eb40df54ca"},"vehicle_type_id":"4","last_reported":1744474267,"current_range_meters":11600,"station_id":"","pricing_plan_id":"cebpf4jnsgd1na2vs0mg"},{"bike_id":"85157d92-d3cd-4ab9-aef7-ff297fa13d42","system_id":"levelo_inurba_marseille","lat":43.27382,"lon":5.36245,"is_reserved":false,"is_disabled":false,"rental_uris":{"android":"levelo://app?vid=85157d92-d3cd-4ab9-aef7-ff297fa13d42","ios":"levelo://app?vid=85157d92-d3cd-4ab9-aef7-ff297fa13d42"},"vehicle_type_id":"4","last_reported":1744474267,"current_range_meters":12000,"station_id":"ce4bhbh2rcd13ifvqeo0","pricing_plan_id":"cebpf4jnsgd1na2vs0mg"},{"bike_id":"0e55d5ac-5cfb-4593-88a0-4c256df9632f","system_id":"levelo_inurba_marseille","lat":43.29377,"lon":5.37847,"is_reserved":false,"is_disabled":false,"rental_uris":{"android":"levelo://app?vid=0e55d5ac-5cfb-4593-88a0-4c256df9632f","ios":"levelo://app?vid=0e55d5ac-5cfb-4593-88a0-4c256df9632f"},"vehicle_type_id":"4","last_reported":1744474267,"current_range_meters":12000,"station_id":"ce4bgjh2rcd13ifvqbf0","pricing_plan_id":"cebpf4jnsgd1na2vs0mg"},{"bike_id":"4ac15233-0b55-49d0-af61-4cab496dd69a","system_id":"levelo_inurba_marseille","lat":43.28167,"lon":5.42646,"is_reserved":false,"is_disabled":false,"rental_uris":{"android":"levelo://app?vid=4ac15233-0b55-49d0-af61-4cab496dd69a","ios":"levelo://app?vid=4ac15233-0b55-49d0-af61-4cab496dd69a"},"vehicle_type_id":"4","last_reported":1744474267,"current_range_meters":12000,"station_id":"ce4bhnh2rcd13ifvqgug","pricing_plan_id":"cebpf4jnsgd1na2vs0mg"},{"bike_id":"8751d9e5-38b9-4ab4-8f7b-efb6ad83bc90","system_id":"levelo_inurba_marseille","lat":43.28855,"lon":5.35875,"is_reserved":false,"is_disabled":false,"rental_uris":{"android":"levelo://app?vid=8751d9e5-38b9-4ab4-8f7b-efb6ad83bc90","ios":"levelo://app?vid=8751d9e5-38b9-4ab4-8f7b-efb6ad83bc90"},"vehicle_type_id":"4","last_reported":1744474267,"current_range_meters":12000,"station_id":"ce4bhb12rcd13ifvqem0","pricing_plan_id":"cebpf4jnsgd1na2vs0mg"},{"bike_id":"830e37d4-eb09-4d7b-a94d-834793f80f87","system_id":"levelo_inurba_marseille","lat":43.25499,"lon":5.3765,"is_reserved":false,"is_disabled":false,"rental_uris":{"android":"levelo://app?vid=830e37d4-eb09-4d7b-a94d-834793f80f87","ios":"levelo://app?vid=830e37d4-eb09-4d7b-a94d-834793f80f87"},"vehicle_type_id":"4","last_reported":1744474267,"current_range_meters":12000,"station_id":"ce4bhh12rcd13ifvqff0","pricing_plan_id":"cebpf4jnsgd1na2vs0mg"},{"bike_id":"fd7c381a-8f0e-47a9-b11e-4b26e720a40f","system_id":"levelo_inurba_marseille","lat":43.30932,"lon":5.40147,"is_reserved":false,"is_disabled":false,"rental_uris":{"android":"levelo://app?vid=fd7c381a-8f0e-47a9-b11e-4b26e720a40f","ios":"levelo://app?vid=fd7c381a-8f0e-47a9-b11e-4b26e720a40f"},"vehicle_type_id":"4","last_reported":1744474267,"current_range_meters":12000,"station_id":"ce4bgvp2rcd13ifvqct0","pricing_plan_id":"cebpf4jnsgd1na2vs0mg"},{"bike_id":"190aab55-514e-4d21-9131-4fae7dd2a8fd","system_id":"levelo_inurba_marseille","lat":43.25501,"lon":5.37652,"is_reserved":false,"is_disabled":false,"rental_uris":{"android":"levelo://app?vid=190aab55-514e-4d21-9131-4fae7dd2a8fd","ios":"levelo://app?vid=190aab55-514e-4d21-9131-4fae7dd2a8fd"},"vehicle_type_id":"4","last_reported":1744474267,"current_range_meters":12000,"station_id":"ce4bhh12rcd13ifvqff0","pricing_plan_id":"cebpf4jnsgd1na2vs0mg"},{"bike_id":"8621e295-3526-4464-be82-74c49f48a833","system_id":"levelo_inurba_marseille","lat":43.21753,"lon":5.34615,"is_reserved":false,"is_disabled":false,"rental_uris":{"android":"levelo://app?vid=8621e295-3526-4464-be82-74c49f48a833","ios":"levelo://app?vid=8621e295-3526-4464-be82-74c49f48a833"},"vehicle_type_id":"4","last_reported":1744474267,"current_range_meters":12400,"station_id":"","pricing_plan_id":"cebpf4jnsgd1na2vs0mg"},{"bike_id":"851735dc-4e0a-47e9-b6a9-b62735e6d41b","system_id":"levelo_inurba_marseille","lat":43.27368,"lon":5.36248,"is_reserved":false,"is_disabled":false,"rental_uris":{"android":"levelo://app?vid=851735dc-4e0a-47e9-b6a9-b62735e6d41b","ios":"levelo://app?vid=851735dc-4e0a-47e9-b6a9-b62735e6d41b"},"vehicle_type_id":"4","last_reported":1744474267,"current_range_meters":12400,"station_id":"ce4bhbh2rcd13ifvqeo0","pricing_plan_id":"cebpf4jnsgd1na2vs0mg"},{"bike_id":"2d805325-804a-49cd-b2be-4139528cdb0c","system_id":"levelo_inurba_marseille","lat":43.24184,"lon":5.3973,"is_reserved":false,"is_disabled":false,"rental_uris":{"android":"levelo://app?vid=2d805325-804a-49cd-b2be-4139528cdb0c","ios":"levelo://app?vid=2d805325-804a-49cd-b2be-4139528cdb0c"},"vehicle_type_id":"4","last_reported":1744474267,"current_range_meters":12400,"station_id":"ce4bhn12rcd13ifvqgpg","pricing_plan_id":"cebpf4jnsgd1na2vs0mg"},{"bike_id":"5c847dd4-c3ba-4d75-a224-d9022b88260a","system_id":"levelo_inurba_marseille","lat":43.2762,"lon":5.36116,"is_reserved":false,"is_disabled":false,"rental_uris":{"android":"levelo://app?vid=5c847dd4-c3ba-4d75-a224-d9022b88260a","ios":"levelo://app?vid=5c847dd4-c3ba-4d75-a224-d9022b88260a"},"vehicle_type_id":"4","last_reported":1744474267,"current_range_meters":12400,"station_id":"ce4bgj92rcd13ifvqbe0","pricing_plan_id":"cebpf4jnsgd1na2vs0mg"},{"bike_id":"700e0dda-1a12-4e10-b193-c7453ac35641","system_id":"levelo_inurba_marseille","lat":43.34145,"lon":5.40907,"is_reserved":false,"is_disabled":false,"rental_uris":{"android":"levelo://app?vid=700e0dda-1a12-4e10-b193-c7453ac35641","ios":"levelo://app?vid=700e0dda-1a12-4e10-b193-c7453ac35641"},"vehicle_type_id":"4","last_reported":1744474267,"current_range_meters":12000,"station_id":"ce4bhqh2rcd13ifvqhlg","pricing_plan_id":"cebpf4jnsgd1na2vs0mg"},{"bike_id":"493cde9e-7859-4c26-a2e6-f744ee5d8553","system_id":"levelo_inurba_marseille","lat":43.31787,"lon":5.36835,"is_reserved":false,"is_disabled":false,"rental_uris":{"android":"levelo://app?vid=493cde9e-7859-4c26-a2e6-f744ee5d8553","ios":"levelo://app?vid=493cde9e-7859-4c26-a2e6-f744ee5d8553"},"vehicle_type_id":"4","last_reported":1744474267,"current_range_meters":12400,"station_id":"","pricing_plan_id":"cebpf4jnsgd1na2vs0mg"},{"bike_id":"6fc563b8-5ae9-4845-a511-9cfe7f68ae8e","system_id":"levelo_inurba_marseille","lat":43.26938,"lon":5.4026,"is_reserved":false,"is_disabled":false,"rental_uris":{"android":"levelo://app?vid=6fc563b8-5ae9-4845-a511-9cfe7f68ae8e","ios":"levelo://app?vid=6fc563b8-5ae9-4845-a511-9cfe7f68ae8e"},"vehicle_type_id":"4","last_reported":1744474267,"current_range_meters":12400,"station_id":"cjm6bp8fraef2m0cb0m0","pricing_plan_id":"cebpf4jnsgd1na2vs0mg"},{"bike_id":"eff10d2b-6c06-40b4-bf8f-9d7439165899","system_id":"levelo_inurba_marseille","lat":43.23195,"lon":5.35555,"is_reserved":false,"is_disabled":false,"rental_uris":{"android":"levelo://app?vid=eff10d2b-6c06-40b4-bf8f-9d7439165899","ios":"levelo://app?vid=eff10d2b-6c06-40b4-bf8f-9d7439165899"},"vehicle_type_id":"4","last_reported":1744474267,"current_range_meters":12400,"station_id":"ce4bhu92rcd13ifvqi70","pricing_plan_id":"cebpf4jnsgd1na2vs0mg"},{"bike_id":"d76b9732-6ab4-446c-a144-95e62ea4d588","system_id":"levelo_inurba_marseille","lat":43.24808,"lon":5.37462,"is_reserved":false,"is_disabled":false,"rental_uris":{"android":"levelo://app?vid=d76b9732-6ab4-446c-a144-95e62ea4d588","ios":"levelo://app?vid=d76b9732-6ab4-446c-a144-95e62ea4d588"},"vehicle_type_id":"4","last_reported":1744474267,"current_range_meters":12800,"station_id":"ce4bhgh2rcd13ifvqfb0","pricing_plan_id":"cebpf4jnsgd1na2vs0mg"},{"bike_id":"8b1f0438-cf91-47bd-9ef8-d61c5a4ec16e","system_id":"levelo_inurba_marseille","lat":43.32479,"lon":5.36566,"is_reserved":false,"is_disabled":false,"rental_uris":{"android":"levelo://app?vid=8b1f0438-cf91-47bd-9ef8-d61c5a4ec16e","ios":"levelo://app?vid=8b1f0438-cf91-47bd-9ef8-d61c5a4ec16e"},"vehicle_type_id":"4","last_reported":1744474267,"current_range_meters":12400,"station_id":"ce4bhs12rcd13ifvqhvg","pricing_plan_id":"cebpf4jnsgd1na2vs0mg"},{"bike_id":"9883f241-cfaf-4768-b572-134e87c2f639","system_id":"levelo_inurba_marseille","lat":43.2885,"lon":5.3585,"is_reserved":false,"is_disabled":false,"rental_uris":{"android":"levelo://app?vid=9883f241-cfaf-4768-b572-134e87c2f639","ios":"levelo://app?vid=9883f241-cfaf-4768-b572-134e87c2f639"},"vehicle_type_id":"4","last_reported":1744474267,"current_range_meters":12800,"station_id":"ce4bhb12rcd13ifvqem0","pricing_plan_id":"cebpf4jnsgd1na2vs0mg"},{"bike_id":"2f5bc015-0a98-4a0d-a50f-f7181e1d6abe","system_id":"levelo_inurba_marseille","lat":43.23423,"lon":5.41297,"is_reserved":false,"is_disabled":false,"rental_uris":{"android":"levelo://app?vid=2f5bc015-0a98-4a0d-a50f-f7181e1d6abe","ios":"levelo://app?vid=2f5bc015-0a98-4a0d-a50f-f7181e1d6abe"},"vehicle_type_id":"4","last_reported":1744474267,"current_range_meters":12800,"station_id":"","pricing_plan_id":"cebpf4jnsgd1na2vs0mg"},{"bike_id":"c63b0b96-c3b1-4c37-a89e-4371451db857","system_id":"levelo_inurba_marseille","lat":43.28422,"lon":5.34979,"is_reserved":false,"is_disabled":false,"rental_uris":{"android":"levelo://app?vid=c63b0b96-c3b1-4c37-a89e-4371451db857","ios":"levelo://app?vid=c63b0b96-c3b1-4c37-a89e-4371451db857"},"vehicle_type_id":"4","last_reported":1744474267,"current_range_meters":12800,"station_id":"ce4bhbh2rcd13ifvqepg","pricing_plan_id":"cebpf4jnsgd1na2vs0mg"},{"bike_id":"d20966d0-b8c9-41e5-ad38-e3d612a47902","system_id":"levelo_inurba_marseille","lat":43.28614,"lon":5.351,"is_reserved":false,"is_disabled":false,"rental_uris":{"android":"levelo://app?vid=d20966d0-b8c9-41e5-ad38-e3d612a47902","ios":"levelo://app?vid=d20966d0-b8c9-41e5-ad38-e3d612a47902"},"vehicle_type_id":"4","last_reported":1744474267,"current_range_meters":12800,"station_id":"ce4bhch2rcd13ifvqeug","pricing_plan_id":"cebpf4jnsgd1na2vs0mg"},{"bike_id":"f7843f46-58aa-4cf6-a1d0-1b94b16f71c2","system_id":"levelo_inurba_marseille","lat":43.29862,"lon":5.39674,"is_reserved":false,"is_disabled":false,"rental_uris":{"android":"levelo://app?vid=f7843f46-58aa-4cf6-a1d0-1b94b16f71c2","ios":"levelo://app?vid=f7843f46-58aa-4cf6-a1d0-1b94b16f71c2"},"vehicle_type_id":"4","last_reported":1744474267,"current_range_meters":13600,"station_id":"ce4bh0h2rcd13ifvqd50","pricing_plan_id":"cebpf4jnsgd1na2vs0mg"},{"bike_id":"26168fa8-a36c-45e2-973b-769d29028eb0","system_id":"levelo_inurba_marseille","lat":43.24396,"lon":5.37058,"is_reserved":false,"is_disabled":false,"rental_uris":{"android":"levelo://app?vid=26168fa8-a36c-45e2-973b-769d29028eb0","ios":"levelo://app?vid=26168fa8-a36c-45e2-973b-769d29028eb0"},"vehicle_type_id":"4","last_reported":1744474267,"current_range_meters":13600,"station_id":"ce4bhhh2rcd13ifvqfk0","pricing_plan_id":"cebpf4jnsgd1na2vs0mg"},{"bike_id":"22251aa4-5d82-4e50-8962-8c771f2b50c3","system_id":"levelo_inurba_marseille","lat":43.31228,"lon":5.36827,"is_reserved":false,"is_disabled":false,"rental_uris":{"android":"levelo://app?vid=22251aa4-5d82-4e50-8962-8c771f2b50c3","ios":"levelo://app?vid=22251aa4-5d82-4e50-8962-8c771f2b50c3"},"vehicle_type_id":"4","last_reported":1744474267,"current_range_meters":13600,"station_id":"ce4bgl92rcd13ifvqbq0","pricing_plan_id":"cebpf4jnsgd1na2vs0mg"},{"bike_id":"cb1d7dcb-1a5f-46b1-a754-306ee54358d4","system_id":"levelo_inurba_marseille","lat":43.284376,"lon":5.391597,"is_reserved":false,"is_disabled":false,"rental_uris":{"android":"levelo://app?vid=cb1d7dcb-1a5f-46b1-a754-306ee54358d4","ios":"levelo://app?vid=cb1d7dcb-1a5f-46b1-a754-306ee54358d4"},"vehicle_type_id":"4","last_reported":1744474267,"current_range_meters":13600,"station_id":"ce4bho12rcd13ifvqh2g","pricing_plan_id":"cebpf4jnsgd1na2vs0mg"},{"bike_id":"61bc6256-8380-4638-bd27-1e2c56ecc87d","system_id":"levelo_inurba_marseille","lat":43.29719,"lon":5.37684,"is_reserved":false,"is_disabled":false,"rental_uris":{"android":"levelo://app?vid=61bc6256-8380-4638-bd27-1e2c56ecc87d","ios":"levelo://app?vid=61bc6256-8380-4638-bd27-1e2c56ecc87d"},"vehicle_type_id":"4","last_reported":1744474267,"current_range_meters":13600,"station_id":"ce4bgkh2rcd13ifvqbl0","pricing_plan_id":"cebpf4jnsgd1na2vs0mg"},{"bike_id":"c5de9f04-a68c-4314-9995-789e3d717983","system_id":"levelo_inurba_marseille","lat":43.24393,"lon":5.37065,"is_reserved":false,"is_disabled":true,"rental_uris":{"android":"levelo://app?vid=c5de9f04-a68c-4314-9995-789e3d717983","ios":"levelo://app?vid=c5de9f04-a68c-4314-9995-789e3d717983"},"vehicle_type_id":"4","last_reported":1744474267,"current_range_meters":14000,"station_id":"ce4bhhh2rcd13ifvqfk0","pricing_plan_id":"cebpf4jnsgd1na2vs0mg"},{"bike_id":"4548d366-1695-4148-af3d-caef97638711","system_id":"levelo_inurba_marseille","lat":43.24655,"lon":5.38897,"is_reserved":false,"is_disabled":false,"rental_uris":{"android":"levelo://app?vid=4548d366-1695-4148-af3d-caef97638711","ios":"levelo://app?vid=4548d366-1695-4148-af3d-caef97638711"},"vehicle_type_id":"4","last_reported":1744474267,"current_range_meters":14000,"station_id":"ce4bhg12rcd13ifvqf60","pricing_plan_id":"cebpf4jnsgd1na2vs0mg"},{"bike_id":"6cb4b5a4-bf84-4d84-a7d9-7d83a9130bad","system_id":"levelo_inurba_marseille","lat":43.28417,"lon":5.34979,"is_reserved":false,"is_disabled":false,"rental_uris":{"android":"levelo://app?vid=6cb4b5a4-bf84-4d84-a7d9-7d83a9130bad","ios":"levelo://app?vid=6cb4b5a4-bf84-4d84-a7d9-7d83a9130bad"},"vehicle_type_id":"4","last_reported":1744474267,"current_range_meters":14000,"station_id":"ce4bhbh2rcd13ifvqepg","pricing_plan_id":"cebpf4jnsgd1na2vs0mg"},{"bike_id":"16457a25-ae14-4409-bfb1-e4e69201eabd","system_id":"levelo_inurba_marseille","lat":43.30311,"lon":5.3923,"is_reserved":false,"is_disabled":false,"rental_uris":{"android":"levelo://app?vid=16457a25-ae14-4409-bfb1-e4e69201eabd","ios":"levelo://app?vid=16457a25-ae14-4409-bfb1-e4e69201eabd"},"vehicle_type_id":"4","last_reported":1744474267,"current_range_meters":14000,"station_id":"ce4bgkh2rcd13ifvqbk0","pricing_plan_id":"cebpf4jnsgd1na2vs0mg"},{"bike_id":"50e87622-3d3d-4c1e-840a-02d35a97d4d4","system_id":"levelo_inurba_marseille","lat":43.27377,"lon":5.36251,"is_reserved":false,"is_disabled":false,"rental_uris":{"android":"levelo://app?vid=50e87622-3d3d-4c1e-840a-02d35a97d4d4","ios":"levelo://app?vid=50e87622-3d3d-4c1e-840a-02d35a97d4d4"},"vehicle_type_id":"4","last_reported":1744474267,"current_range_meters":14000,"station_id":"ce4bhbh2rcd13ifvqeo0","pricing_plan_id":"cebpf4jnsgd1na2vs0mg"},{"bike_id":"806bd1b2-508b-4e46-9dfd-37914d2522d0","system_id":"levelo_inurba_marseille","lat":43.28273,"lon":5.35071,"is_reserved":false,"is_disabled":false,"rental_uris":{"android":"levelo://app?vid=806bd1b2-508b-4e46-9dfd-37914d2522d0","ios":"levelo://app?vid=806bd1b2-508b-4e46-9dfd-37914d2522d0"},"vehicle_type_id":"4","last_reported":1744474267,"current_range_meters":14000,"station_id":"ce4bhbp2rcd13ifvqerg","pricing_plan_id":"cebpf4jnsgd1na2vs0mg"},{"bike_id":"c3565c59-479a-4ab4-94ec-1cd0a96daaf5","system_id":"levelo_inurba_marseille","lat":43.29094,"lon":5.38138,"is_reserved":false,"is_disabled":false,"rental_uris":{"android":"levelo://app?vid=c3565c59-479a-4ab4-94ec-1cd0a96daaf5","ios":"levelo://app?vid=c3565c59-479a-4ab4-94ec-1cd0a96daaf5"},"vehicle_type_id":"4","last_reported":1744474267,"current_range_meters":14000,"station_id":"ce4bh512rcd13ifvqe2g","pricing_plan_id":"cebpf4jnsgd1na2vs0mg"},{"bike_id":"72c6aab6-3a44-430e-a84d-843d2a93e616","system_id":"levelo_inurba_marseille","lat":43.21191,"lon":5.35076,"is_reserved":false,"is_disabled":true,"rental_uris":{"android":"levelo://app?vid=72c6aab6-3a44-430e-a84d-843d2a93e616","ios":"levelo://app?vid=72c6aab6-3a44-430e-a84d-843d2a93e616"},"vehicle_type_id":"4","last_reported":1744474267,"current_range_meters":14400,"station_id":"st_cvj6sg6p6f1abm77japg","pricing_plan_id":"cebpf4jnsgd1na2vs0mg"},{"bike_id":"d6b44d48-fd22-41d9-a31b-16de5be1795f","system_id":"levelo_inurba_marseille","lat":43.24811,"lon":5.3746,"is_reserved":false,"is_disabled":false,"rental_uris":{"android":"levelo://app?vid=d6b44d48-fd22-41d9-a31b-16de5be1795f","ios":"levelo://app?vid=d6b44d48-fd22-41d9-a31b-16de5be1795f"},"vehicle_type_id":"4","last_reported":1744474267,"current_range_meters":14400,"station_id":"ce4bhgh2rcd13ifvqfb0","pricing_plan_id":"cebpf4jnsgd1na2vs0mg"},{"bike_id":"1efbc875-f991-4cb9-8cf7-709d6f2e27b2","system_id":"levelo_inurba_marseille","lat":43.265655,"lon":5.372931,"is_reserved":false,"is_disabled":false,"rental_uris":{"android":"levelo://app?vid=1efbc875-f991-4cb9-8cf7-709d6f2e27b2","ios":"levelo://app?vid=1efbc875-f991-4cb9-8cf7-709d6f2e27b2"},"vehicle_type_id":"4","last_reported":1744474267,"current_range_meters":14400,"station_id":"ce4bhg12rcd13ifvqf70","pricing_plan_id":"cebpf4jnsgd1na2vs0mg"},{"bike_id":"cdd522b6-86b1-4594-af6e-035b955d1e3b","system_id":"levelo_inurba_marseille","lat":43.29545,"lon":5.38578,"is_reserved":false,"is_disabled":false,"rental_uris":{"android":"levelo://app?vid=cdd522b6-86b1-4594-af6e-035b955d1e3b","ios":"levelo://app?vid=cdd522b6-86b1-4594-af6e-035b955d1e3b"},"vehicle_type_id":"4","last_reported":1744474267,"current_range_meters":14400,"station_id":"","pricing_plan_id":"cebpf4jnsgd1na2vs0mg"},{"bike_id":"c327684d-40fb-4834-9040-4a0c09b890ed","system_id":"levelo_inurba_marseille","lat":43.2587,"lon":5.39905,"is_reserved":false,"is_disabled":false,"rental_uris":{"android":"levelo://app?vid=c327684d-40fb-4834-9040-4a0c09b890ed","ios":"levelo://app?vid=c327684d-40fb-4834-9040-4a0c09b890ed"},"vehicle_type_id":"4","last_reported":1744474267,"current_range_meters":14400,"station_id":"ce4bhl92rcd13ifvqghg","pricing_plan_id":"cebpf4jnsgd1na2vs0mg"},{"bike_id":"b3e5d88d-e4f9-4c4b-b7b3-2f37c88f8e05","system_id":"levelo_inurba_marseille","lat":43.23151,"lon":5.43725,"is_reserved":false,"is_disabled":false,"rental_uris":{"android":"levelo://app?vid=b3e5d88d-e4f9-4c4b-b7b3-2f37c88f8e05","ios":"levelo://app?vid=b3e5d88d-e4f9-4c4b-b7b3-2f37c88f8e05"},"vehicle_type_id":"4","last_reported":1744474267,"current_range_meters":14400,"station_id":"ce4bhmp2rcd13ifvqgog","pricing_plan_id":"cebpf4jnsgd1na2vs0mg"},{"bike_id":"0a362abe-f863-41d1-aad8-905b26f63884","system_id":"levelo_inurba_marseille","lat":43.32279,"lon":5.38267,"is_reserved":false,"is_disabled":false,"rental_uris":{"android":"levelo://app?vid=0a362abe-f863-41d1-aad8-905b26f63884","ios":"levelo://app?vid=0a362abe-f863-41d1-aad8-905b26f63884"},"vehicle_type_id":"4","last_reported":1744474267,"current_range_meters":14000,"station_id":"ce4bhr12rcd13ifvqhqg","pricing_plan_id":"cebpf4jnsgd1na2vs0mg"},{"bike_id":"51ae49fe-93e7-484b-b925-a3fee3cec470","system_id":"levelo_inurba_marseille","lat":43.23079,"lon":5.35529,"is_reserved":false,"is_disabled":false,"rental_uris":{"android":"levelo://app?vid=51ae49fe-93e7-484b-b925-a3fee3cec470","ios":"levelo://app?vid=51ae49fe-93e7-484b-b925-a3fee3cec470"},"vehicle_type_id":"4","last_reported":1744474267,"current_range_meters":14400,"station_id":"cpo3342slgdg3j2ifvpg","pricing_plan_id":"cebpf4jnsgd1na2vs0mg"},{"bike_id":"5471fa28-bbe1-4297-8bac-3c3b92cc752c","system_id":"levelo_inurba_marseille","lat":43.292526,"lon":5.370749,"is_reserved":false,"is_disabled":false,"rental_uris":{"android":"levelo://app?vid=5471fa28-bbe1-4297-8bac-3c3b92cc752c","ios":"levelo://app?vid=5471fa28-bbe1-4297-8bac-3c3b92cc752c"},"vehicle_type_id":"4","last_reported":1744474267,"current_range_meters":14400,"station_id":"ce4bhu92rcd13ifvqi70","pricing_plan_id":"cebpf4jnsgd1na2vs0mg"},{"bike_id":"8043ed93-c0e0-4b20-a22a-1ce703744524","system_id":"levelo_inurba_marseille","lat":43.28951,"lon":5.36652,"is_reserved":false,"is_disabled":true,"rental_uris":{"android":"levelo://app?vid=8043ed93-c0e0-4b20-a22a-1ce703744524","ios":"levelo://app?vid=8043ed93-c0e0-4b20-a22a-1ce703744524"},"vehicle_type_id":"4","last_reported":1744474267,"current_range_meters":14400,"station_id":"ce4bhap2rcd13ifvqek0","pricing_plan_id":"cebpf4jnsgd1na2vs0mg"},{"bike_id":"1f902e70-8424-4368-8d14-f667dae49164","system_id":"levelo_inurba_marseille","lat":43.29041,"lon":5.35923,"is_reserved":false,"is_disabled":false,"rental_uris":{"android":"levelo://app?vid=1f902e70-8424-4368-8d14-f667dae49164","ios":"levelo://app?vid=1f902e70-8424-4368-8d14-f667dae49164"},"vehicle_type_id":"4","last_reported":1744474267,"current_range_meters":14800,"station_id":"ce4bha92rcd13ifvqeg0","pricing_plan_id":"cebpf4jnsgd1na2vs0mg"},{"bike_id":"781d9e52-9fb7-4bd6-8211-7ca4c77189fc","system_id":"levelo_inurba_marseille","lat":43.2721,"lon":5.39182,"is_reserved":false,"is_disabled":false,"rental_uris":{"android":"levelo://app?vid=781d9e52-9fb7-4bd6-8211-7ca4c77189fc","ios":"levelo://app?vid=781d9e52-9fb7-4bd6-8211-7ca4c77189fc"},"vehicle_type_id":"4","last_reported":1744474267,"current_range_meters":14400,"station_id":"ce4bhhp2rcd13ifvqfm0","pricing_plan_id":"cebpf4jnsgd1na2vs0mg"},{"bike_id":"d51a8c93-4a62-49ae-82cb-4bd383d80bde","system_id":"levelo_inurba_marseille","lat":43.28195,"lon":5.42622,"is_reserved":false,"is_disabled":false,"rental_uris":{"android":"levelo://app?vid=d51a8c93-4a62-49ae-82cb-4bd383d80bde","ios":"levelo://app?vid=d51a8c93-4a62-49ae-82cb-4bd383d80bde"},"vehicle_type_id":"4","last_reported":1744474267,"current_range_meters":14800,"station_id":"ce4bhnh2rcd13ifvqgug","pricing_plan_id":"cebpf4jnsgd1na2vs0mg"},{"bike_id":"f8b050de-4269-4016-b860-ff720258fd89","system_id":"levelo_inurba_marseille","lat":43.3089,"lon":5.37188,"is_reserved":false,"is_disabled":false,"rental_uris":{"android":"levelo://app?vid=f8b050de-4269-4016-b860-ff720258fd89","ios":"levelo://app?vid=f8b050de-4269-4016-b860-ff720258fd89"},"vehicle_type_id":"4","last_reported":1744474267,"current_range_meters":14800,"station_id":"ce4bguh2rcd13ifvqckg","pricing_plan_id":"cebpf4jnsgd1na2vs0mg"},{"bike_id":"260b07e5-e1c0-4812-99c3-e4f9bbb90688","system_id":"levelo_inurba_marseille","lat":43.22503,"lon":5.34793,"is_reserved":false,"is_disabled":false,"rental_uris":{"android":"levelo://app?vid=260b07e5-e1c0-4812-99c3-e4f9bbb90688","ios":"levelo://app?vid=260b07e5-e1c0-4812-99c3-e4f9bbb90688"},"vehicle_type_id":"4","last_reported":1744474267,"current_range_meters":14800,"station_id":"st_cvj5dfep6f1abm77gieg","pricing_plan_id":"cebpf4jnsgd1na2vs0mg"},{"bike_id":"02323474-493f-4c58-9c1c-bedc06258233","system_id":"levelo_inurba_marseille","lat":43.29435,"lon":5.38637,"is_reserved":false,"is_disabled":false,"rental_uris":{"android":"levelo://app?vid=02323474-493f-4c58-9c1c-bedc06258233","ios":"levelo://app?vid=02323474-493f-4c58-9c1c-bedc06258233"},"vehicle_type_id":"4","last_reported":1744474267,"current_range_meters":15200,"station_id":"ce4bh2h2rcd13ifvqdh0","pricing_plan_id":"cebpf4jnsgd1na2vs0mg"},{"bike_id":"db9cdcec-b5ee-409b-adf3-2fb9b83088c4","system_id":"levelo_inurba_marseille","lat":43.309392,"lon":5.373545,"is_reserved":false,"is_disabled":false,"rental_uris":{"android":"levelo://app?vid=db9cdcec-b5ee-409b-adf3-2fb9b83088c4","ios":"levelo://app?vid=db9cdcec-b5ee-409b-adf3-2fb9b83088c4"},"vehicle_type_id":"4","last_reported":1744474267,"current_range_meters":15200,"station_id":"","pricing_plan_id":"cebpf4jnsgd1na2vs0mg"},{"bike_id":"8d66f6fb-d1ab-4161-8f2c-8cc6095b04b2","system_id":"levelo_inurba_marseille","lat":43.29008,"lon":5.35608,"is_reserved":false,"is_disabled":false,"rental_uris":{"android":"levelo://app?vid=8d66f6fb-d1ab-4161-8f2c-8cc6095b04b2","ios":"levelo://app?vid=8d66f6fb-d1ab-4161-8f2c-8cc6095b04b2"},"vehicle_type_id":"4","last_reported":1744474267,"current_range_meters":15200,"station_id":"ce4bhb92rcd13ifvqen0","pricing_plan_id":"cebpf4jnsgd1na2vs0mg"},{"bike_id":"ddce5fed-f759-4864-b8f6-4fa2c8c332bc","system_id":"levelo_inurba_marseille","lat":43.31271,"lon":5.40179,"is_reserved":false,"is_disabled":false,"rental_uris":{"android":"levelo://app?vid=ddce5fed-f759-4864-b8f6-4fa2c8c332bc","ios":"levelo://app?vid=ddce5fed-f759-4864-b8f6-4fa2c8c332bc"},"vehicle_type_id":"4","last_reported":1744474267,"current_range_meters":15200,"station_id":"ce4bh092rcd13ifvqd30","pricing_plan_id":"cebpf4jnsgd1na2vs0mg"},{"bike_id":"37a17253-3d16-4b72-9b0b-4b36f84289f9","system_id":"levelo_inurba_marseille","lat":43.25528,"lon":5.37678,"is_reserved":false,"is_disabled":false,"rental_uris":{"android":"levelo://app?vid=37a17253-3d16-4b72-9b0b-4b36f84289f9","ios":"levelo://app?vid=37a17253-3d16-4b72-9b0b-4b36f84289f9"},"vehicle_type_id":"4","last_reported":1744474267,"current_range_meters":15200,"station_id":"ce4bhh12rcd13ifvqff0","pricing_plan_id":"cebpf4jnsgd1na2vs0mg"},{"bike_id":"f7a3a6e5-2044-44a7-97e8-091704d5c5ad","system_id":"levelo_inurba_marseille","lat":43.2943,"lon":5.38612,"is_reserved":false,"is_disabled":false,"rental_uris":{"android":"levelo://app?vid=f7a3a6e5-2044-44a7-97e8-091704d5c5ad","ios":"levelo://app?vid=f7a3a6e5-2044-44a7-97e8-091704d5c5ad"},"vehicle_type_id":"4","last_reported":1744474267,"current_range_meters":15200,"station_id":"ce4bh2h2rcd13ifvqdh0","pricing_plan_id":"cebpf4jnsgd1na2vs0mg"},{"bike_id":"4bbe6e48-9bfa-4dec-aab0-5597477f7da1","system_id":"levelo_inurba_marseille","lat":43.32412,"lon":5.39141,"is_reserved":false,"is_disabled":false,"rental_uris":{"android":"levelo://app?vid=4bbe6e48-9bfa-4dec-aab0-5597477f7da1","ios":"levelo://app?vid=4bbe6e48-9bfa-4dec-aab0-5597477f7da1"},"vehicle_type_id":"4","last_reported":1744474267,"current_range_meters":15200,"station_id":"","pricing_plan_id":"cebpf4jnsgd1na2vs0mg"},{"bike_id":"e7398dba-b2e4-421f-916a-25cb653b80c0","system_id":"levelo_inurba_marseille","lat":43.309026,"lon":5.368405,"is_reserved":false,"is_disabled":false,"rental_uris":{"android":"levelo://app?vid=e7398dba-b2e4-421f-916a-25cb653b80c0","ios":"levelo://app?vid=e7398dba-b2e4-421f-916a-25cb653b80c0"},"vehicle_type_id":"4","last_reported":1744474267,"current_range_meters":16000,"station_id":"ce4bgn92rcd13ifvqbvg","pricing_plan_id":"cebpf4jnsgd1na2vs0mg"},{"bike_id":"57b6b8e3-6c89-4661-a95d-d431ad8b982b","system_id":"levelo_inurba_marseille","lat":43.29306,"lon":5.37467,"is_reserved":false,"is_disabled":false,"rental_uris":{"android":"levelo://app?vid=57b6b8e3-6c89-4661-a95d-d431ad8b982b","ios":"levelo://app?vid=57b6b8e3-6c89-4661-a95d-d431ad8b982b"},"vehicle_type_id":"4","last_reported":1744474267,"current_range_meters":16000,"station_id":"ce4bgi12rcd13ifvqb70","pricing_plan_id":"cebpf4jnsgd1na2vs0mg"},{"bike_id":"020e9999-d552-48d0-ae5f-b725af0dbea2","system_id":"levelo_inurba_marseille","lat":43.29907,"lon":5.43789,"is_reserved":false,"is_disabled":false,"rental_uris":{"android":"levelo://app?vid=020e9999-d552-48d0-ae5f-b725af0dbea2","ios":"levelo://app?vid=020e9999-d552-48d0-ae5f-b725af0dbea2"},"vehicle_type_id":"4","last_reported":1744474267,"current_range_meters":16000,"station_id":"","pricing_plan_id":"cebpf4jnsgd1na2vs0mg"},{"bike_id":"a3bf51d9-08b7-458c-9b6d-ef5680cc95d6","system_id":"levelo_inurba_marseille","lat":43.2176,"lon":5.3461,"is_reserved":false,"is_disabled":true,"rental_uris":{"android":"levelo://app?vid=a3bf51d9-08b7-458c-9b6d-ef5680cc95d6","ios":"levelo://app?vid=a3bf51d9-08b7-458c-9b6d-ef5680cc95d6"},"vehicle_type_id":"4","last_reported":1744474267,"current_range_meters":16000,"station_id":"cpo36qri1sfpv3e86is0","pricing_plan_id":"cebpf4jnsgd1na2vs0mg"},{"bike_id":"82d38bd3-c046-4f55-aec8-4eb686f05e29","system_id":"levelo_inurba_marseille","lat":43.2296,"lon":5.35369,"is_reserved":false,"is_disabled":true,"rental_uris":{"android":"levelo://app?vid=82d38bd3-c046-4f55-aec8-4eb686f05e29","ios":"levelo://app?vid=82d38bd3-c046-4f55-aec8-4eb686f05e29"},"vehicle_type_id":"4","last_reported":1744474267,"current_range_meters":16000,"station_id":"cpo3532slgdg3j2ikp40","pricing_plan_id":"cebpf4jnsgd1na2vs0mg"},{"bike_id":"3a335a39-19e6-4df3-a141-d417c333ceb6","system_id":"levelo_inurba_marseille","lat":43.28411,"lon":5.34992,"is_reserved":false,"is_disabled":false,"rental_uris":{"android":"levelo://app?vid=3a335a39-19e6-4df3-a141-d417c333ceb6","ios":"levelo://app?vid=3a335a39-19e6-4df3-a141-d417c333ceb6"},"vehicle_type_id":"4","last_reported":1744474267,"current_range_meters":16000,"station_id":"ce4bhbh2rcd13ifvqepg","pricing_plan_id":"cebpf4jnsgd1na2vs0mg"},{"bike_id":"efd328ca-f8bf-4550-bd94-c2fd75978f3c","system_id":"levelo_inurba_marseille","lat":43.33045,"lon":5.38081,"is_reserved":false,"is_disabled":false,"rental_uris":{"android":"levelo://app?vid=efd328ca-f8bf-4550-bd94-c2fd75978f3c","ios":"levelo://app?vid=efd328ca-f8bf-4550-bd94-c2fd75978f3c"},"vehicle_type_id":"4","last_reported":1744474267,"current_range_meters":16000,"station_id":"","pricing_plan_id":"cebpf4jnsgd1na2vs0mg"},{"bike_id":"f58849d6-3e44-43ba-83e4-a2d3b24247ea","system_id":"levelo_inurba_marseille","lat":43.24182,"lon":5.39727,"is_reserved":false,"is_disabled":false,"rental_uris":{"android":"levelo://app?vid=f58849d6-3e44-43ba-83e4-a2d3b24247ea","ios":"levelo://app?vid=f58849d6-3e44-43ba-83e4-a2d3b24247ea"},"vehicle_type_id":"4","last_reported":1744474267,"current_range_meters":16000,"station_id":"ce4bhn12rcd13ifvqgpg","pricing_plan_id":"cebpf4jnsgd1na2vs0mg"},{"bike_id":"87634ec5-f558-42da-ad57-1423dc42b956","system_id":"levelo_inurba_marseille","lat":43.29937,"lon":5.36551,"is_reserved":false,"is_disabled":false,"rental_uris":{"android":"levelo://app?vid=87634ec5-f558-42da-ad57-1423dc42b956","ios":"levelo://app?vid=87634ec5-f558-42da-ad57-1423dc42b956"},"vehicle_type_id":"4","last_reported":1744474267,"current_range_meters":16000,"station_id":"ce4bgm92rcd13ifvqbr0","pricing_plan_id":"cebpf4jnsgd1na2vs0mg"},{"bike_id":"19c99cc6-e15c-49dc-a0a4-a4099d0e31c0","system_id":"levelo_inurba_marseille","lat":43.29307,"lon":5.37161,"is_reserved":false,"is_disabled":false,"rental_uris":{"android":"levelo://app?vid=19c99cc6-e15c-49dc-a0a4-a4099d0e31c0","ios":"levelo://app?vid=19c99cc6-e15c-49dc-a0a4-a4099d0e31c0"},"vehicle_type_id":"4","last_reported":1744474267,"current_range_meters":16400,"station_id":"ce4bgh92rcd13ifvqb40","pricing_plan_id":"cebpf4jnsgd1na2vs0mg"},{"bike_id":"4ed873b9-18c1-47fd-9ad5-1db9bf2335ae","system_id":"levelo_inurba_marseille","lat":43.27977,"lon":5.38727,"is_reserved":false,"is_disabled":false,"rental_uris":{"android":"levelo://app?vid=4ed873b9-18c1-47fd-9ad5-1db9bf2335ae","ios":"levelo://app?vid=4ed873b9-18c1-47fd-9ad5-1db9bf2335ae"},"vehicle_type_id":"4","last_reported":1744474267,"current_range_meters":16400,"station_id":"ce4bhg12rcd13ifvqf80","pricing_plan_id":"cebpf4jnsgd1na2vs0mg"},{"bike_id":"b55dd5e7-54b2-4035-b945-7b626dd7afc7","system_id":"levelo_inurba_marseille","lat":43.27552,"lon":5.40936,"is_reserved":false,"is_disabled":false,"rental_uris":{"android":"levelo://app?vid=b55dd5e7-54b2-4035-b945-7b626dd7afc7","ios":"levelo://app?vid=b55dd5e7-54b2-4035-b945-7b626dd7afc7"},"vehicle_type_id":"4","last_reported":1744474267,"current_range_meters":16400,"station_id":"","pricing_plan_id":"cebpf4jnsgd1na2vs0mg"},{"bike_id":"0eceb99a-0069-41ae-adf2-70785bb6a0d7","system_id":"levelo_inurba_marseille","lat":43.26556,"lon":5.37294,"is_reserved":false,"is_disabled":false,"rental_uris":{"android":"levelo://app?vid=0eceb99a-0069-41ae-adf2-70785bb6a0d7","ios":"levelo://app?vid=0eceb99a-0069-41ae-adf2-70785bb6a0d7"},"vehicle_type_id":"4","last_reported":1744474267,"current_range_meters":16400,"station_id":"ce4bhg12rcd13ifvqf70","pricing_plan_id":"cebpf4jnsgd1na2vs0mg"},