{"last_updated":1734563343,"ttl":60,"version":"2.2","data":{"bikes":[{"bike_id":"56e8407d-b2a4-4e17-a371-e7cad630d22c","system_id":"levelo_inurba_marseille","lat":43.265579,"lon":5.372835,"is_reserved":false,"is_disabled":false,"rental_uris":{"android":"levelo://app?vid=56e8407d-b2a4-4e17-a371-e7cad630d22c","ios":"levelo://app?vid=56e8407d-b2a4-4e17-a371-e7cad630d22c"},"vehicle_type_id":"4","last_reported":1734563343,"current_range_meters":25200,"station_id":"ce4bhg12rcd13ifvqf70","pricing_plan_id":"cebpf4jnsgd1na2vs0mg"},{"bike_id":"7b355ec4-6be3-46ae-a8a5-f873759aa942","system_id":"levelo_inurba_marseille","lat":43.30225,"lon":5.40048,"is_reserved":false,"is_disabled":false,"rental_uris":{"android":"levelo://app?vid=7b355ec4-6be3-46ae-a8a5-f873759aa942","ios":"levelo://app?vid=7b355ec4-6be3-46ae-a8a5-f873759aa942"},"vehicle_type_id":"4","last_reported":1734563343,"current_range_meters":16800,"station_id":"ce4bgvh2rcd13ifvqcs0","pricing_plan_id":"cebpf4jnsgd1na2vs0mg"},{"bike_id":"8587d6fa-7593-4abb-b330-b21f797dc306","system_id":"levelo_inurba_marseille","lat":43.28458,"lon":5.35875,"is_reserved":false,"is_disabled":false,"rental_uris":{"android":"levelo://app?vid=8587d6fa-7593-4abb-b330-b21f797dc306","ios":"levelo://app?vid=8587d6fa-7593-4abb-b330-b21f797dc306"},"vehicle_type_id":"4","last_reported":1734563343,"current_range_meters":5600,"station_id":"ce4bhah2rcd13ifvqei0","pricing_plan_id":"cebpf4jnsgd1na2vs0mg"},{"bike_id":"d6c5a21c-8319-4530-8253-5e2f5c741994","system_id":"levelo_inurba_marseille","lat":43.23965,"lon":5.36632,"is_reserved":false,"is_disabled":false,"rental_uris":{"android":"levelo://app?vid=d6c5a21c-8319-4530-8253-5e2f5c741994","ios":"levelo://app?vid=d6c5a21c-8319-4530-8253-5e2f5c741994"},"vehicle_type_id":"4","last_reported":1734563343,"current_range_meters":36400,"station_id":"ce4bhi12rcd13ifvqfp0","pricing_plan_id":"cebpf4jnsgd1na2vs0mg"},{"bike_id":"d11baf8e-015c-40b5-a1e6-f2929fc6cc45","system_id":"levelo_inurba_marseille","lat":43.23188,"lon":5.3998,"is_reserved":false,"is_disabled":false,"rental_uris":{"android":"levelo://app?vid=d11baf8e-015c-40b5-a1e6-f2929fc6cc45","ios":"levelo://app?vid=d11baf8e-015c-40b5-a1e6-f2929fc6cc45"},"vehicle_type_id":"4","last_reported":1734563343,"current_range_meters":38800,"station_id":"ce4bhn12rcd13ifvqgqg","pricing_plan_id":"cebpf4jnsgd1na2vs0mg"},{"bike_id":"adc013f9-0576-4610-9b99-b3b9fcc6fdbf","system_id":"levelo_inurba_marseille","lat":43.28155,"lon":5.42636,"is_reserved":false,"is_disabled":false,"rental_uris":{"android":"levelo://app?vid=adc013f9-0576-4610-9b99-b3b9fcc6fdbf","ios":"levelo://app?vid=adc013f9-0576-4610-9b99-b3b9fcc6fdbf"},"vehicle_type_id":"4","last_reported":1734563343,"current_range_meters":38800,"station_id":"ce4bhnh2rcd13ifvqgug","pricing_plan_id":"cebpf4jnsgd1na2vs0mg"},{"bike_id":"03e99c21-e0c7-4691-a693-5f0c23ffd6a9","system_id":"levelo_inurba_marseille","lat":43.25722,"lon":5.41112,"is_reserved":false,"is_disabled":false,"rental_uris":{"android":"levelo://app?vid=03e99c21-e0c7-4691-a693-5f0c23ffd6a9","ios":"levelo://app?vid=03e99c21-e0c7-4691-a693-5f0c23ffd6a9"},"vehicle_type_id":"4","last_reported":1734563343,"current_range_meters":37600,"station_id":"ce4bhkp2rcd13ifvqgd0","pricing_plan_id":"cebpf4jnsgd1na2vs0mg"},{"bike_id":"0b3c962c-40d1-4375-b60d-644d72aaacf1","system_id":"levelo_inurba_marseille","lat":43.28009,"lon":5.40399,"is_reserved":false,"is_disabled":true,"rental_uris":{"android":"levelo://app?vid=0b3c962c-40d1-4375-b60d-644d72aaacf1","ios":"levelo://app?vid=0b3c962c-40d1-4375-b60d-644d72aaacf1"},"vehicle_type_id":"4","last_reported":1734563343,"current_range_meters":0,"station_id":"","pricing_plan_id":"cebpf4jnsgd1na2vs0mg"},{"bike_id":"7afa6fc7-0793-473c-a73c-8cca81382408","system_id":"levelo_inurba_marseille","lat":43.27999,"lon":5.41644,"is_reserved":false,"is_disabled":false,"rental_uris":{"android":"levelo://app?vid=7afa6fc7-0793-473c-a73c-8cca81382408","ios":"levelo://app?vid=7afa6fc7-0793-473c-a73c-8cca81382408"},"vehicle_type_id":"4","last_reported":1734563343,"current_range_meters":14000,"station_id":"ce4bho12rcd13ifvqh1g","pricing_plan_id":"cebpf4jnsgd1na2vs0mg"},{"bike_id":"d35b4df8-c862-4b5d-a4c4-a4666e519999","system_id":"levelo_inurba_marseille","lat":43.30224,"lon":5.39461,"is_reserved":false,"is_disabled":false,"rental_uris":{"android":"levelo://app?vid=d35b4df8-c862-4b5d-a4c4-a4666e519999","ios":"levelo://app?vid=d35b4df8-c862-4b5d-a4c4-a4666e519999"},"vehicle_type_id":"4","last_reported":1734563343,"current_range_meters":6400,"station_id":"ce4bh0p2rcd13ifvqd70","pricing_plan_id":"cebpf4jnsgd1na2vs0mg"},{"bike_id":"5d163693-98e2-4b50-b65b-5dc7dc63d35a","system_id":"levelo_inurba_marseille","lat":43.25117,"lon":5.4032,"is_reserved":false,"is_disabled":false,"rental_uris":{"android":"levelo://app?vid=5d163693-98e2-4b50-b65b-5dc7dc63d35a","ios":"levelo://app?vid=5d163693-98e2-4b50-b65b-5dc7dc63d35a"},"vehicle_type_id":"4","last_reported":1734563343,"current_range_meters":12400,"station_id":"ce4bhlh2rcd13ifvqgig","pricing_plan_id":"cebpf4jnsgd1na2vs0mg"},{"bike_id":"6337cbbb-4f8c-4b42-8870-6aafc8566df4","system_id":"levelo_inurba_marseille","lat":43.27182,"lon":5.4099,"is_reserved":false,"is_disabled":false,"rental_uris":{"android":"levelo://app?vid=6337cbbb-4f8c-4b42-8870-6aafc8566df4","ios":"levelo://app?vid=6337cbbb-4f8c-4b42-8870-6aafc8566df4"},"vehicle_type_id":"4","last_reported":1734563343,"current_range_meters":38800,"station_id":"ce4bhl12rcd13ifvqgf0","pricing_plan_id":"cebpf4jnsgd1na2vs0mg"},{"bike_id":"b1d0e7dd-d508-4ab3-aee9-a56f312146c5","system_id":"levelo_inurba_marseille","lat":43.31177,"lon":5.38714,"is_reserved":false,"is_disabled":false,"rental_uris":{"android":"levelo://app?vid=b1d0e7dd-d508-4ab3-aee9-a56f312146c5","ios":"levelo://app?vid=b1d0e7dd-d508-4ab3-aee9-a56f312146c5"},"vehicle_type_id":"4","last_reported":1734563343,"current_range_meters":36800,"station_id":"ce4bgv12rcd13ifvqcp0","pricing_plan_id":"cebpf4jnsgd1na2vs0mg"},{"bike_id":"d53a1503-74ca-4cb0-a5fc-eab919ae17a8","system_id":"levelo_inurba_marseille","lat":43.32246,"lon":5.38948,"is_reserved":false,"is_disabled":false,"rental_uris":{"android":"levelo://app?vid=d53a1503-74ca-4cb0-a5fc-eab919ae17a8","ios":"levelo://app?vid=d53a1503-74ca-4cb0-a5fc-eab919ae17a8"},"vehicle_type_id":"4","last_reported":1734563343,"current_range_meters":29600,"station_id":"ce4bhqp2rcd13ifvqhog","pricing_plan_id":"cebpf4jnsgd1na2vs0mg"},{"bike_id":"919748ab-2c25-417d-a1a3-01157b02a54e","system_id":"levelo_inurba_marseille","lat":43.29256,"lon":5.40919,"is_reserved":false,"is_disabled":false,"rental_uris":{"android":"levelo://app?vid=919748ab-2c25-417d-a1a3-01157b02a54e","ios":"levelo://app?vid=919748ab-2c25-417d-a1a3-01157b02a54e"},"vehicle_type_id":"4","last_reported":1734563343,"current_range_meters":17600,"station_id":"ce4bh192rcd13ifvqdc0","pricing_plan_id":"cebpf4jnsgd1na2vs0mg"},{"bike_id":"559cfcac-8801-4974-b261-7bab8f98273b","system_id":"levelo_inurba_marseille","lat":43.28456,"lon":5.39177,"is_reserved":false,"is_disabled":true,"rental_uris":{"android":"levelo://app?vid=559cfcac-8801-4974-b261-7bab8f98273b","ios":"levelo://app?vid=559cfcac-8801-4974-b261-7bab8f98273b"},"vehicle_type_id":"4","last_reported":1734563343,"current_range_meters":33200,"station_id":"ce4bhoh2rcd13ifvqh5g","pricing_plan_id":"cebpf4jnsgd1na2vs0mg"},{"bike_id":"77b4b836-da10-400d-aec7-37272c4aaf7a","system_id":"levelo_inurba_marseille","lat":43.31181,"lon":5.38715,"is_reserved":false,"is_disabled":false,"rental_uris":{"android":"levelo://app?vid=77b4b836-da10-400d-aec7-37272c4aaf7a","ios":"levelo://app?vid=77b4b836-da10-400d-aec7-37272c4aaf7a"},"vehicle_type_id":"4","last_reported":1734563343,"current_range_meters":26800,"station_id":"ce4bgv12rcd13ifvqcp0","pricing_plan_id":"cebpf4jnsgd1na2vs0mg"},{"bike_id":"a5bab296-af15-45a1-81e9-5b6f00bc7788","system_id":"levelo_inurba_marseille","lat":43.26899,"lon":5.40272,"is_reserved":false,"is_disabled":false,"rental_uris":{"android":"levelo://app?vid=a5bab296-af15-45a1-81e9-5b6f00bc7788","ios":"levelo://app?vid=a5bab296-af15-45a1-81e9-5b6f00bc7788"},"vehicle_type_id":"4","last_reported":1734563343,"current_range_meters":32800,"station_id":"","pricing_plan_id":"cebpf4jnsgd1na2vs0mg"},{"bike_id":"24fb0a77-0e82-4a3b-8075-30dbdf04b833","system_id":"levelo_inurba_marseille","lat":43.31267,"lon":5.4015,"is_reserved":false,"is_disabled":false,"rental_uris":{"android":"levelo://app?vid=24fb0a77-0e82-4a3b-8075-30dbdf04b833","ios":"levelo://app?vid=24fb0a77-0e82-4a3b-8075-30dbdf04b833"},"vehicle_type_id":"4","last_reported":1734563343,"current_range_meters":37600,"station_id":"ce4bh092rcd13ifvqd30","pricing_plan_id":"cebpf4jnsgd1na2vs0mg"},{"bike_id":"2befb655-f8ae-49dd-9a25-e288c2d6d793","system_id":"levelo_inurba_marseille","lat":43.3108,"lon":5.42429,"is_reserved":false,"is_disabled":false,"rental_uris":{"android":"levelo://app?vid=2befb655-f8ae-49dd-9a25-e288c2d6d793","ios":"levelo://app?vid=2befb655-f8ae-49dd-9a25-e288c2d6d793"},"vehicle_type_id":"4","last_reported":1734563343,"current_range_meters":18800,"station_id":"ce4bhp92rcd13ifvqhag","pricing_plan_id":"cebpf4jnsgd1na2vs0mg"},{"bike_id":"b4017ea7-3b2f-4b6a-8885-c0d832047e7b","system_id":"levelo_inurba_marseille","lat":43.27901,"lon":5.3801,"is_reserved":false,"is_disabled":false,"rental_uris":{"android":"levelo://app?vid=b4017ea7-3b2f-4b6a-8885-c0d832047e7b","ios":"levelo://app?vid=b4017ea7-3b2f-4b6a-8885-c0d832047e7b"},"vehicle_type_id":"4","last_reported":1734563343,"current_range_meters":19600,"station_id":"ce4bhf92rcd13ifvqf50","pricing_plan_id":"cebpf4jnsgd1na2vs0mg"},{"bike_id":"66161499-6387-4384-a855-61ee1fb4b2d3","system_id":"levelo_inurba_marseille","lat":43.296875,"lon":5.366464,"is_reserved":false,"is_disabled":false,"rental_uris":{"android":"levelo://app?vid=66161499-6387-4384-a855-61ee1fb4b2d3","ios":"levelo://app?vid=66161499-6387-4384-a855-61ee1fb4b2d3"},"vehicle_type_id":"4","last_reported":1734563343,"current_range_meters":38800,"station_id":"ce4bgn12rcd13ifvqbt0","pricing_plan_id":"cebpf4jnsgd1na2vs0mg"},{"bike_id":"863a10df-d815-4c58-adbd-a85639a033d8","system_id":"levelo_inurba_marseille","lat":43.30868,"lon":5.3964,"is_reserved":false,"is_disabled":false,"rental_uris":{"android":"levelo://app?vid=863a10df-d815-4c58-adbd-a85639a033d8","ios":"levelo://app?vid=863a10df-d815-4c58-adbd-a85639a033d8"},"vehicle_type_id":"4","last_reported":1734563343,"current_range_meters":18800,"station_id":"ce4bh012rcd13ifvqcv0","pricing_plan_id":"cebpf4jnsgd1na2vs0mg"},{"bike_id":"7d1ce590-bd9f-4425-849d-97b60ac5c099","system_id":"levelo_inurba_marseille","lat":43.31715,"lon":5.42393,"is_reserved":false,"is_disabled":false,"rental_uris":{"android":"levelo://app?vid=7d1ce590-bd9f-4425-849d-97b60ac5c099","ios":"levelo://app?vid=7d1ce590-bd9f-4425-849d-97b60ac5c099"},"vehicle_type_id":"4","last_reported":1734563343,"current_range_meters":24000,"station_id":"ce4bhp92rcd13ifvqhbg","pricing_plan_id":"cebpf4jnsgd1na2vs0mg"},{"bike_id":"e58cbb69-1d2a-4a63-9aaa-8b9167478fa7","system_id":"levelo_inurba_marseille","lat":43.28732,"lon":5.3608,"is_reserved":false,"is_disabled":false,"rental_uris":{"android":"levelo://app?vid=e58cbb69-1d2a-4a63-9aaa-8b9167478fa7","ios":"levelo://app?vid=e58cbb69-1d2a-4a63-9aaa-8b9167478fa7"},"vehicle_type_id":"4","last_reported":1734563343,"current_range_meters":38800,"station_id":"cki0cbj6b192h4jlfktg","pricing_plan_id":"cebpf4jnsgd1na2vs0mg"},{"bike_id":"21061e30-3409-4ad3-9bcc-3222c4bc66a6","system_id":"levelo_inurba_marseille","lat":43.30884,"lon":5.39646,"is_reserved":false,"is_disabled":false,"rental_uris":{"android":"levelo://app?vid=21061e30-3409-4ad3-9bcc-3222c4bc66a6","ios":"levelo://app?vid=21061e30-3409-4ad3-9bcc-3222c4bc66a6"},"vehicle_type_id":"4","last_reported":1734563343,"current_range_meters":21600,"station_id":"ce4bh012rcd13ifvqcv0","pricing_plan_id":"cebpf4jnsgd1na2vs0mg"},{"bike_id":"277519f5-d25e-46cc-83cb-95d36aa49ee0","system_id":"levelo_inurba_marseille","lat":43.26559,"lon":5.38998,"is_reserved":false,"is_disabled":false,"rental_uris":{"android":"levelo://app?vid=277519f5-d25e-46cc-83cb-95d36aa49ee0","ios":"levelo://app?vid=277519f5-d25e-46cc-83cb-95d36aa49ee0"},"vehicle_type_id":"4","last_reported":1734563343,"current_range_meters":28000,"station_id":"ce4bhe12rcd13ifvqf30","pricing_plan_id":"cebpf4jnsgd1na2vs0mg"},{"bike_id":"1f834613-72c8-4bef-a54d-6ea138016033","system_id":"levelo_inurba_marseille","lat":43.23196,"lon":5.35556,"is_reserved":false,"is_disabled":false,"rental_uris":{"android":"levelo://app?vid=1f834613-72c8-4bef-a54d-6ea138016033","ios":"levelo://app?vid=1f834613-72c8-4bef-a54d-6ea138016033"},"vehicle_type_id":"4","last_reported":1734563343,"current_range_meters":38800,"station_id":"ce4bhu92rcd13ifvqi70","pricing_plan_id":"cebpf4jnsgd1na2vs0mg"},{"bike_id":"3b1ac175-91d1-4b9c-85e2-6fe97104d7c4","system_id":"levelo_inurba_marseille","lat":43.31071,"lon":5.38348,"is_reserved":false,"is_disabled":false,"rental_uris":{"android":"levelo://app?vid=3b1ac175-91d1-4b9c-85e2-6fe97104d7c4","ios":"levelo://app?vid=3b1ac175-91d1-4b9c-85e2-6fe97104d7c4"},"vehicle_type_id":"4","last_reported":1734563343,"current_range_meters":38400,"station_id":"ce4bgv92rcd13ifvqcr0","pricing_plan_id":"cebpf4jnsgd1na2vs0mg"},{"bike_id":"04d776b8-63de-4dae-8334-97161869cbf6","system_id":"levelo_inurba_marseille","lat":43.28866,"lon":5.35846,"is_reserved":false,"is_disabled":false,"rental_uris":{"android":"levelo://app?vid=04d776b8-63de-4dae-8334-97161869cbf6","ios":"levelo://app?vid=04d776b8-63de-4dae-8334-97161869cbf6"},"vehicle_type_id":"4","last_reported":1734563343,"current_range_meters":7200,"station_id":"ce4bhb12rcd13ifvqem0","pricing_plan_id":"cebpf4jnsgd1na2vs0mg"},{"bike_id":"f23c72e0-53e6-497e-a874-03021934ba2b","system_id":"levelo_inurba_marseille","lat":43.31335,"lon":5.39691,"is_reserved":false,"is_disabled":false,"rental_uris":{"android":"levelo://app?vid=f23c72e0-53e6-497e-a874-03021934ba2b","ios":"levelo://app?vid=f23c72e0-53e6-497e-a874-03021934ba2b"},"vehicle_type_id":"4","last_reported":1734563343,"current_range_meters":38800,"station_id":"ce4bgvp2rcd13ifvqcu0","pricing_plan_id":"cebpf4jnsgd1na2vs0mg"},{"bike_id":"124e6c05-4926-4207-84f5-da69a7334d60","system_id":"levelo_inurba_marseille","lat":43.290156,"lon":5.381156,"is_reserved":false,"is_disabled":true,"rental_uris":{"android":"levelo://app?vid=124e6c05-4926-4207-84f5-da69a7334d60","ios":"levelo://app?vid=124e6c05-4926-4207-84f5-da69a7334d60"},"vehicle_type_id":"4","last_reported":1734563343,"current_range_meters":32000,"station_id":"ce4bh4p2rcd13ifvqe1g","pricing_plan_id":"cebpf4jnsgd1na2vs0mg"},{"bike_id":"cece21bd-76d6-4f19-b3ff-0220eec8a48b","system_id":"levelo_inurba_marseille","lat":43.29183,"lon":5.35791,"is_reserved":false,"is_disabled":false,"rental_uris":{"android":"levelo://app?vid=cece21bd-76d6-4f19-b3ff-0220eec8a48b","ios":"levelo://app?vid=cece21bd-76d6-4f19-b3ff-0220eec8a48b"},"vehicle_type_id":"4","last_reported":1734563343,"current_range_meters":38800,"station_id":"ce4bhb12rcd13ifvqel0","pricing_plan_id":"cebpf4jnsgd1na2vs0mg"},{"bike_id":"3dcf6971-fee8-4e33-8303-92a3db38f7c2","system_id":"levelo_inurba_marseille","lat":43.32661,"lon":5.40989,"is_reserved":false,"is_disabled":true,"rental_uris":{"android":"levelo://app?vid=3dcf6971-fee8-4e33-8303-92a3db38f7c2","ios":"levelo://app?vid=3dcf6971-fee8-4e33-8303-92a3db38f7c2"},"vehicle_type_id":"4","last_reported":1734563343,"current_range_meters":8400,"station_id":"ce4bhpp2rcd13ifvqhgg","pricing_plan_id":"cebpf4jnsgd1na2vs0mg"},{"bike_id":"8053e015-991c-4910-88bd-a36827ef7539","system_id":"levelo_inurba_marseille","lat":43.24809,"lon":5.37457,"is_reserved":false,"is_disabled":false,"rental_uris":{"android":"levelo://app?vid=8053e015-991c-4910-88bd-a36827ef7539","ios":"levelo://app?vid=8053e015-991c-4910-88bd-a36827ef7539"},"vehicle_type_id":"4","last_reported":1734563343,"current_range_meters":38400,"station_id":"ce4bhgh2rcd13ifvqfb0","pricing_plan_id":"cebpf4jnsgd1na2vs0mg"},{"bike_id":"ef0ddfae-8964-4351-aa76-8487b220c22f","system_id":"levelo_inurba_marseille","lat":43.27802,"lon":5.40719,"is_reserved":false,"is_disabled":false,"rental_uris":{"android":"levelo://app?vid=ef0ddfae-8964-4351-aa76-8487b220c22f","ios":"levelo://app?vid=ef0ddfae-8964-4351-aa76-8487b220c22f"},"vehicle_type_id":"4","last_reported":1734563343,"current_range_meters":38800,"station_id":"ce4bhnh2rcd13ifvqgtg","pricing_plan_id":"cebpf4jnsgd1na2vs0mg"},{"bike_id":"e86bd369-44ea-4790-9323-8eeafa5dbcf2","system_id":"levelo_inurba_marseille","lat":43.28694,"lon":5.37895,"is_reserved":false,"is_disabled":false,"rental_uris":{"android":"levelo://app?vid=e86bd369-44ea-4790-9323-8eeafa5dbcf2","ios":"levelo://app?vid=e86bd369-44ea-4790-9323-8eeafa5dbcf2"},"vehicle_type_id":"4","last_reported":1734563343,"current_range_meters":38000,"station_id":"ce4bh9p2rcd13ifvqec0","pricing_plan_id":"cebpf4jnsgd1na2vs0mg"},{"bike_id":"38cdacc2-c251-4094-8e60-0da0d4a8d81b","system_id":"levelo_inurba_marseille","lat":43.29043,"lon":5.35902,"is_reserved":false,"is_disabled":false,"rental_uris":{"android":"levelo://app?vid=38cdacc2-c251-4094-8e60-0da0d4a8d81b","ios":"levelo://app?vid=38cdacc2-c251-4094-8e60-0da0d4a8d81b"},"vehicle_type_id":"4","last_reported":1734563343,"current_range_meters":38800,"station_id":"ce4bha92rcd13ifvqeg0","pricing_plan_id":"cebpf4jnsgd1na2vs0mg"},{"bike_id":"2491c714-f3f7-493b-9790-9992e16c8fb6","system_id":"levelo_inurba_marseille","lat":43.34144,"lon":5.40893,"is_reserved":false,"is_disabled":true,"rental_uris":{"android":"levelo://app?vid=2491c714-f3f7-493b-9790-9992e16c8fb6","ios":"levelo://app?vid=2491c714-f3f7-493b-9790-9992e16c8fb6"},"vehicle_type_id":"4","last_reported":1734563343,"current_range_meters":38800,"station_id":"ce4bhqh2rcd13ifvqhlg","pricing_plan_id":"cebpf4jnsgd1na2vs0mg"},{"bike_id":"067a33a2-2207-4251-a8f2-939cdc678233","system_id":"levelo_inurba_marseille","lat":43.249971,"lon":5.389238,"is_reserved":false,"is_disabled":false,"rental_uris":{"android":"levelo://app?vid=067a33a2-2207-4251-a8f2-939cdc678233","ios":"levelo://app?vid=067a33a2-2207-4251-a8f2-939cdc678233"},"vehicle_type_id":"4","last_reported":1734563343,"current_range_meters":28800,"station_id":"ce4bhgp2rcd13ifvqfd0","pricing_plan_id":"cebpf4jnsgd1na2vs0mg"},{"bike_id":"ea1ee0a0-f240-4d25-84d9-e6fb6fc7a18c","system_id":"levelo_inurba_marseille","lat":43.338127,"lon":5.420976,"is_reserved":false,"is_disabled":true,"rental_uris":{"android":"levelo://app?vid=ea1ee0a0-f240-4d25-84d9-e6fb6fc7a18c","ios":"levelo://app?vid=ea1ee0a0-f240-4d25-84d9-e6fb6fc7a18c"},"vehicle_type_id":"4","last_reported":1734563343,"current_range_meters":0,"station_id":"","pricing_plan_id":"cebpf4jnsgd1na2vs0mg"},{"bike_id":"b0459987-7e58-4ca7-8efd-0c30cb3e65f0","system_id":"levelo_inurba_marseille","lat":43.29008,"lon":5.356142,"is_reserved":false,"is_disabled":false,"rental_uris":{"android":"levelo://app?vid=b0459987-7e58-4ca7-8efd-0c30cb3e65f0","ios":"levelo://app?vid=b0459987-7e58-4ca7-8efd-0c30cb3e65f0"},"vehicle_type_id":"4","last_reported":1734563343,"current_range_meters":36000,"station_id":"ce4bhb92rcd13ifvqen0","pricing_plan_id":"cebpf4jnsgd1na2vs0mg"},{"bike_id":"4d508899-9fc2-4eac-a5b9-ed1393037b5f","system_id":"levelo_inurba_marseille","lat":43.27891,"lon":5.37984,"is_reserved":false,"is_disabled":false,"rental_uris":{"android":"levelo://app?vid=4d508899-9fc2-4eac-a5b9-ed1393037b5f","ios":"levelo://app?vid=4d508899-9fc2-4eac-a5b9-ed1393037b5f"},"vehicle_type_id":"4","last_reported":1734563343,"current_range_meters":38800,"station_id":"ce4bhf92rcd13ifvqf50","pricing_plan_id":"cebpf4jnsgd1na2vs0mg"},{"bike_id":"8c5a3c33-11ba-465a-93d6-f3de740724a4","system_id":"levelo_inurba_marseille","lat":43.29452,"lon":5.3975,"is_reserved":false,"is_disabled":false,"rental_uris":{"android":"levelo://app?vid=8c5a3c33-11ba-465a-93d6-f3de740724a4","ios":"levelo://app?vid=8c5a3c33-11ba-465a-93d6-f3de740724a4"},"vehicle_type_id":"4","last_reported":1734563343,"current_range_meters":38800,"station_id":"ce4bh3h2rcd13ifvqdo0","pricing_plan_id":"cebpf4jnsgd1na2vs0mg"},{"bike_id":"9568e117-a9ab-4765-8dba-42e3c7531b62","system_id":"levelo_inurba_marseille","lat":43.2784,"lon":5.39197,"is_reserved":false,"is_disabled":false,"rental_uris":{"android":"levelo://app?vid=9568e117-a9ab-4765-8dba-42e3c7531b62","ios":"levelo://app?vid=9568e117-a9ab-4765-8dba-42e3c7531b62"},"vehicle_type_id":"4","last_reported":1734563343,"current_range_meters":12000,"station_id":"ce4bhjp2rcd13ifvqga0","pricing_plan_id":"cebpf4jnsgd1na2vs0mg"},{"bike_id":"5212268e-6e4b-47d6-857c-507f53100727","system_id":"levelo_inurba_marseille","lat":43.28424,"lon":5.39174,"is_reserved":false,"is_disabled":false,"rental_uris":{"android":"levelo://app?vid=5212268e-6e4b-47d6-857c-507f53100727","ios":"levelo://app?vid=5212268e-6e4b-47d6-857c-507f53100727"},"vehicle_type_id":"4","last_reported":1734563343,"current_range_meters":12400,"station_id":"ce4bhoh2rcd13ifvqh5g","pricing_plan_id":"cebpf4jnsgd1na2vs0mg"},{"bike_id":"776c8978-cbcb-44e4-80c4-8516e8e53dde","system_id":"levelo_inurba_marseille","lat":43.30931,"lon":5.40149,"is_reserved":false,"is_disabled":false,"rental_uris":{"android":"levelo://app?vid=776c8978-cbcb-44e4-80c4-8516e8e53dde","ios":"levelo://app?vid=776c8978-cbcb-44e4-80c4-8516e8e53dde"},"vehicle_type_id":"4","last_reported":1734563343,"current_range_meters":28000,"station_id":"ce4bgvp2rcd13ifvqct0","pricing_plan_id":"cebpf4jnsgd1na2vs0mg"},{"bike_id":"66361be3-5f90-4340-8a15-53abb8a72aa7","system_id":"levelo_inurba_marseille","lat":43.30928,"lon":5.40158,"is_reserved":false,"is_disabled":false,"rental_uris":{"android":"levelo://app?vid=66361be3-5f90-4340-8a15-53abb8a72aa7","ios":"levelo://app?vid=66361be3-5f90-4340-8a15-53abb8a72aa7"},"vehicle_type_id":"4","last_reported":1734563343,"current_range_meters":38000,"station_id":"ce4bgvp2rcd13ifvqct0","pricing_plan_id":"cebpf4jnsgd1na2vs0mg"},{"bike_id":"d3830b09-782b-4794-b0dd-6d7f90cf2831","system_id":"levelo_inurba_marseille","lat":43.30633,"lon":5.40065,"is_reserved":false,"is_disabled":false,"rental_uris":{"android":"levelo://app?vid=d3830b09-782b-4794-b0dd-6d7f90cf2831","ios":"levelo://app?vid=d3830b09-782b-4794-b0dd-6d7f90cf2831"},"vehicle_type_id":"4","last_reported":1734563343,"current_range_meters":30000,"station_id":"ce4bh112rcd13ifvqda0","pricing_plan_id":"cebpf4jnsgd1na2vs0mg"},{"bike_id":"3551be41-7101-4e0b-974c-43abe71c6bc1","system_id":"levelo_inurba_marseille","lat":43.31321,"lon":5.39699,"is_reserved":false,"is_disabled":false,"rental_uris":{"android":"levelo://app?vid=3551be41-7101-4e0b-974c-43abe71c6bc1","ios":"levelo://app?vid=3551be41-7101-4e0b-974c-43abe71c6bc1"},"vehicle_type_id":"4","last_reported":1734563343,"current_range_meters":38800,"station_id":"ce4bgvp2rcd13ifvqcu0","pricing_plan_id":"cebpf4jnsgd1na2vs0mg"},{"bike_id":"5c2f5473-e6f3-4436-9342-78ef969e3034","system_id":"levelo_inurba_marseille","lat":43.2857,"lon":5.39499,"is_reserved":false,"is_disabled":false,"rental_uris":{"android":"levelo://app?vid=5c2f5473-e6f3-4436-9342-78ef969e3034","ios":"levelo://app?vid=5c2f5473-e6f3-4436-9342-78ef969e3034"},"vehicle_type_id":"4","last_reported":1734563343,"current_range_meters":38800,"station_id":"ce4bh292rcd13ifvqdg0","pricing_plan_id":"cebpf4jnsgd1na2vs0mg"},{"bike_id":"8bfac80e-1fb6-4c29-8a7a-e5d1d210dc81","system_id":"levelo_inurba_marseille","lat":43.31017,"lon":5.38061,"is_reserved":false,"is_disabled":false,"rental_uris":{"android":"levelo://app?vid=8bfac80e-1fb6-4c29-8a7a-e5d1d210dc81","ios":"levelo://app?vid=8bfac80e-1fb6-4c29-8a7a-e5d1d210dc81"},"vehicle_type_id":"4","last_reported":1734563343,"current_range_meters":21600,"station_id":"","pricing_plan_id":"cebpf4jnsgd1na2vs0mg"},{"bike_id":"b72fe934-73a3-474f-8e68-3fb6782c272e","system_id":"levelo_inurba_marseille","lat":43.30806,"lon":5.38162,"is_reserved":false,"is_disabled":false,"rental_uris":{"android":"levelo://app?vid=b72fe934-73a3-474f-8e68-3fb6782c272e","ios":"levelo://app?vid=b72fe934-73a3-474f-8e68-3fb6782c272e"},"vehicle_type_id":"4","last_reported":1734563343,"current_range_meters":14400,"station_id":"ce4bgt12rcd13ifvqce0","pricing_plan_id":"cebpf4jnsgd1na2vs0mg"},{"bike_id":"769ff8b1-22da-4a0e-a380-c52f675199dc","system_id":"levelo_inurba_marseille","lat":43.23957,"lon":5.36623,"is_reserved":false,"is_disabled":false,"rental_uris":{"android":"levelo://app?vid=769ff8b1-22da-4a0e-a380-c52f675199dc","ios":"levelo://app?vid=769ff8b1-22da-4a0e-a380-c52f675199dc"},"vehicle_type_id":"4","last_reported":1734563343,"current_range_meters":38800,"station_id":"ce4bhi12rcd13ifvqfp0","pricing_plan_id":"cebpf4jnsgd1na2vs0mg"},{"bike_id":"00c31b9e-650b-4373-9018-9866a8aa6f29","system_id":"levelo_inurba_marseille","lat":43.31334,"lon":5.39705,"is_reserved":false,"is_disabled":false,"rental_uris":{"android":"levelo://app?vid=00c31b9e-650b-4373-9018-9866a8aa6f29","ios":"levelo://app?vid=00c31b9e-650b-4373-9018-9866a8aa6f29"},"vehicle_type_id":"4","last_reported":1734563343,"current_range_meters":16400,"station_id":"ce4bgvp2rcd13ifvqcu0","pricing_plan_id":"cebpf4jnsgd1na2vs0mg"},{"bike_id":"9406c979-4657-4cdf-b556-ff3e32308f87","system_id":"levelo_inurba_marseille","lat":43.28854,"lon":5.39306,"is_reserved":false,"is_disabled":false,"rental_uris":{"android":"levelo://app?vid=9406c979-4657-4cdf-b556-ff3e32308f87","ios":"levelo://app?vid=9406c979-4657-4cdf-b556-ff3e32308f87"},"vehicle_type_id":"4","last_reported":1734563343,"current_range_meters":29600,"station_id":"ce4bh2p2rcd13ifvqdi0","pricing_plan_id":"cebpf4jnsgd1na2vs0mg"},{"bike_id":"d6e6fabb-c5a1-406f-944f-673abae03840","system_id":"levelo_inurba_marseille","lat":43.30646,"lon":5.40096,"is_reserved":false,"is_disabled":false,"rental_uris":{"android":"levelo://app?vid=d6e6fabb-c5a1-406f-944f-673abae03840","ios":"levelo://app?vid=d6e6fabb-c5a1-406f-944f-673abae03840"},"vehicle_type_id":"4","last_reported":1734563343,"current_range_meters":36400,"station_id":"ce4bh112rcd13ifvqda0","pricing_plan_id":"cebpf4jnsgd1na2vs0mg"},{"bike_id":"2c746c44-ff25-4f38-b289-7cd7c811831c","system_id":"levelo_inurba_marseille","lat":43.30878,"lon":5.39631,"is_reserved":false,"is_disabled":false,"rental_uris":{"android":"levelo://app?vid=2c746c44-ff25-4f38-b289-7cd7c811831c","ios":"levelo://app?vid=2c746c44-ff25-4f38-b289-7cd7c811831c"},"vehicle_type_id":"4","last_reported":1734563343,"current_range_meters":36800,"station_id":"ce4bh012rcd13ifvqcv0","pricing_plan_id":"cebpf4jnsgd1na2vs0mg"},{"bike_id":"7aba6ab7-3a8f-473e-bf7c-28c559dcf003","system_id":"levelo_inurba_marseille","lat":43.27935,"lon":5.38704,"is_reserved":false,"is_disabled":true,"rental_uris":{"android":"levelo://app?vid=7aba6ab7-3a8f-473e-bf7c-28c559dcf003","ios":"levelo://app?vid=7aba6ab7-3a8f-473e-bf7c-28c559dcf003"},"vehicle_type_id":"4","last_reported":1734563343,"current_range_meters":38000,"station_id":"ce4bhg12rcd13ifvqf80","pricing_plan_id":"cebpf4jnsgd1na2vs0mg"},{"bike_id":"04160c74-0c14-43dc-a1ea-014ddd2d56b6","system_id":"levelo_inurba_marseille","lat":43.29561,"lon":5.42276,"is_reserved":false,"is_disabled":false,"rental_uris":{"android":"levelo://app?vid=04160c74-0c14-43dc-a1ea-014ddd2d56b6","ios":"levelo://app?vid=04160c74-0c14-43dc-a1ea-014ddd2d56b6"},"vehicle_type_id":"4","last_reported":1734563343,"current_range_meters":32800,"station_id":"ce4bhph2rcd13ifvqhdg","pricing_plan_id":"cebpf4jnsgd1na2vs0mg"},{"bike_id":"fc2b8ae5-b790-49dc-86dd-44f14bd9edf7","system_id":"levelo_inurba_marseille","lat":43.28403,"lon":5.37515,"is_reserved":false,"is_disabled":true,"rental_uris":{"android":"levelo://app?vid=fc2b8ae5-b790-49dc-86dd-44f14bd9edf7","ios":"levelo://app?vid=fc2b8ae5-b790-49dc-86dd-44f14bd9edf7"},"vehicle_type_id":"4","last_reported":1734563343,"current_range_meters":2000,"station_id":"ce4bh412rcd13ifvqds0","pricing_plan_id":"cebpf4jnsgd1na2vs0mg"},{"bike_id":"9774ee21-eed8-4330-a2e2-8e47d4e6d1bd","system_id":"levelo_inurba_marseille","lat":43.30417,"lon":5.41282,"is_reserved":false,"is_disabled":false,"rental_uris":{"android":"levelo://app?vid=9774ee21-eed8-4330-a2e2-8e47d4e6d1bd","ios":"levelo://app?vid=9774ee21-eed8-4330-a2e2-8e47d4e6d1bd"},"vehicle_type_id":"4","last_reported":1734563343,"current_range_meters":30400,"station_id":"ce4bhop2rcd13ifvqh8g","pricing_plan_id":"cebpf4jnsgd1na2vs0mg"},{"bike_id":"dc1f4e02-fcff-4945-882d-c1fc5c0b241d","system_id":"levelo_inurba_marseille","lat":43.27919,"lon":5.39585,"is_reserved":false,"is_disabled":false,"rental_uris":{"android":"levelo://app?vid=dc1f4e02-fcff-4945-882d-c1fc5c0b241d","ios":"levelo://app?vid=dc1f4e02-fcff-4945-882d-c1fc5c0b241d"},"vehicle_type_id":"4","last_reported":1734563343,"current_range_meters":36800,"station_id":"ce4bhf92rcd13ifvqf40","pricing_plan_id":"cebpf4jnsgd1na2vs0mg"},{"bike_id":"0d4cf357-cd32-43d3-8971-89a7a2f06824","system_id":"levelo_inurba_marseille","lat":43.25577,"lon":5.38243,"is_reserved":false,"is_disabled":false,"rental_uris":{"android":"levelo://app?vid=0d4cf357-cd32-43d3-8971-89a7a2f06824","ios":"levelo://app?vid=0d4cf357-cd32-43d3-8971-89a7a2f06824"},"vehicle_type_id":"4","last_reported":1734563343,"current_range_meters":38800,"station_id":"ce4bhih2rcd13ifvqfs0","pricing_plan_id":"cebpf4jnsgd1na2vs0mg"},{"bike_id":"91a78d7a-00d1-439e-81f3-a87be5d8bbf3","system_id":"levelo_inurba_marseille","lat":43.32649,"lon":5.4098,"is_reserved":false,"is_disabled":false,"rental_uris":{"android":"levelo://app?vid=91a78d7a-00d1-439e-81f3-a87be5d8bbf3","ios":"levelo://app?vid=91a78d7a-00d1-439e-81f3-a87be5d8bbf3"},"vehicle_type_id":"4","last_reported":1734563343,"current_range_meters":38800,"station_id":"ce4bhpp2rcd13ifvqhgg","pricing_plan_id":"cebpf4jnsgd1na2vs0mg"},{"bike_id":"b11dec3c-37ae-4e5f-a182-7db8571c22d2","system_id":"levelo_inurba_marseille","lat":43.29888,"lon":5.43635,"is_reserved":false,"is_disabled":false,"rental_uris":{"android":"levelo://app?vid=b11dec3c-37ae-4e5f-a182-7db8571c22d2","ios":"levelo://app?vid=b11dec3c-37ae-4e5f-a182-7db8571c22d2"},"vehicle_type_id":"4","last_reported":1734563343,"current_range_meters":38800,"station_id":"ce4bhpp2rcd13ifvqhfg","pricing_plan_id":"cebpf4jnsgd1na2vs0mg"},{"bike_id":"3fa68d7b-99f2-4b3e-a477-87ac1d8f415c","system_id":"levelo_inurba_marseille","lat":43.29257,"lon":5.38428,"is_reserved":false,"is_disabled":true,"rental_uris":{"android":"levelo://app?vid=3fa68d7b-99f2-4b3e-a477-87ac1d8f415c","ios":"levelo://app?vid=3fa68d7b-99f2-4b3e-a477-87ac1d8f415c"},"vehicle_type_id":"4","last_reported":1734563343,"current_range_meters":28400,"station_id":"ce4bh692rcd13ifvqea0","pricing_plan_id":"cebpf4jnsgd1na2vs0mg"},{"bike_id":"c1a4aa5b-7a4f-45bd-a927-1dedffacf049","system_id":"levelo_inurba_marseille","lat":43.27371,"lon":5.36265,"is_reserved":false,"is_disabled":false,"rental_uris":{"android":"levelo://app?vid=c1a4aa5b-7a4f-45bd-a927-1dedffacf049","ios":"levelo://app?vid=c1a4aa5b-7a4f-45bd-a927-1dedffacf049"},"vehicle_type_id":"4","last_reported":1734563343,"current_range_meters":8000,"station_id":"ce4bhbh2rcd13ifvqeo0","pricing_plan_id":"cebpf4jnsgd1na2vs0mg"},{"bike_id":"72492ff3-d3e5-4b81-822b-1d3357339451","system_id":"levelo_inurba_marseille","lat":43.29071,"lon":5.3989,"is_reserved":false,"is_disabled":true,"rental_uris":{"android":"levelo://app?vid=72492ff3-d3e5-4b81-822b-1d3357339451","ios":"levelo://app?vid=72492ff3-d3e5-4b81-822b-1d3357339451"},"vehicle_type_id":"4","last_reported":1734563343,"current_range_meters":36800,"station_id":"","pricing_plan_id":"cebpf4jnsgd1na2vs0mg"},{"bike_id":"c9aecb48-1552-47ad-af23-8b6bab0d2fdf","system_id":"levelo_inurba_marseille","lat":43.250859,"lon":5.395079,"is_reserved":false,"is_disabled":false,"rental_uris":{"android":"levelo://app?vid=c9aecb48-1552-47ad-af23-8b6bab0d2fdf","ios":"levelo://app?vid=c9aecb48-1552-47ad-af23-8b6bab0d2fdf"},"vehicle_type_id":"4","last_reported":1734563343,"current_range_meters":38800,"station_id":"ce4bhm12rcd13ifvqgkg","pricing_plan_id":"cebpf4jnsgd1na2vs0mg"},{"bike_id":"921bbff8-28d4-4d0d-80af-4b13aeca41c1","system_id":"levelo_inurba_marseille","lat":43.26919,"lon":5.40854,"is_reserved":false,"is_disabled":false,"rental_uris":{"android":"levelo://app?vid=921bbff8-28d4-4d0d-80af-4b13aeca41c1","ios":"levelo://app?vid=921bbff8-28d4-4d0d-80af-4b13aeca41c1"},"vehicle_type_id":"4","last_reported":1734563343,"current_range_meters":26000,"station_id":"","pricing_plan_id":"cebpf4jnsgd1na2vs0mg"},{"bike_id":"72440999-b4ec-4805-80a8-0595d5eb9838","system_id":"levelo_inurba_marseille","lat":43.26516,"lon":5.37262,"is_reserved":false,"is_disabled":false,"rental_uris":{"android":"levelo://app?vid=72440999-b4ec-4805-80a8-0595d5eb9838","ios":"levelo://app?vid=72440999-b4ec-4805-80a8-0595d5eb9838"},"vehicle_type_id":"4","last_reported":1734563343,"current_range_meters":9600,"station_id":"","pricing_plan_id":"cebpf4jnsgd1na2vs0mg"},{"bike_id":"92cb5a1c-7fd8-41f2-8ea7-0075d1f8677f","system_id":"levelo_inurba_marseille","lat":43.2668,"lon":5.38267,"is_reserved":false,"is_disabled":true,"rental_uris":{"android":"levelo://app?vid=92cb5a1c-7fd8-41f2-8ea7-0075d1f8677f","ios":"levelo://app?vid=92cb5a1c-7fd8-41f2-8ea7-0075d1f8677f"},"vehicle_type_id":"4","last_reported":1734563343,"current_range_meters":0,"station_id":"ce4bhg92rcd13ifvqf90","pricing_plan_id":"cebpf4jnsgd1na2vs0mg"},{"bike_id":"d89d4721-4fde-43a0-928d-191fb6ee1fa9","system_id":"levelo_inurba_marseille","lat":43.28271,"lon":5.35073,"is_reserved":false,"is_disabled":false,"rental_uris":{"android":"levelo://app?vid=d89d4721-4fde-43a0-928d-191fb6ee1fa9","ios":"levelo://app?vid=d89d4721-4fde-43a0-928d-191fb6ee1fa9"},"vehicle_type_id":"4","last_reported":1734563343,"current_range_meters":38800,"station_id":"ce4bhbp2rcd13ifvqerg","pricing_plan_id":"cebpf4jnsgd1na2vs0mg"},{"bike_id":"29edcf61-fccc-4236-b5ba-28cb6e78943a","system_id":"levelo_inurba_marseille","lat":43.31706,"lon":5.37742,"is_reserved":false,"is_disabled":false,"rental_uris":{"android":"levelo://app?vid=29edcf61-fccc-4236-b5ba-28cb6e78943a","ios":"levelo://app?vid=29edcf61-fccc-4236-b5ba-28cb6e78943a"},"vehicle_type_id":"4","last_reported":1734563343,"current_range_meters":20800,"station_id":"ce4bgth2rcd13ifvqch0","pricing_plan_id":"cebpf4jnsgd1na2vs0mg"},{"bike_id":"6890205f-15dc-4093-8d0f-7b8011c9389c","system_id":"levelo_inurba_marseille","lat":43.286683,"lon":5.386534,"is_reserved":false,"is_disabled":false,"rental_uris":{"android":"levelo://app?vid=6890205f-15dc-4093-8d0f-7b8011c9389c","ios":"levelo://app?vid=6890205f-15dc-4093-8d0f-7b8011c9389c"},"vehicle_type_id":"4","last_reported":1734563343,"current_range_meters":20400,"station_id":"ce4bh492rcd13ifvqdug","pricing_plan_id":"cebpf4jnsgd1na2vs0mg"},{"bike_id":"8166c4b5-8a23-4644-93c9-5c7137a7e89f","system_id":"levelo_inurba_marseille","lat":43.30355,"lon":5.41884,"is_reserved":false,"is_disabled":false,"rental_uris":{"android":"levelo://app?vid=8166c4b5-8a23-4644-93c9-5c7137a7e89f","ios":"levelo://app?vid=8166c4b5-8a23-4644-93c9-5c7137a7e89f"},"vehicle_type_id":"4","last_reported":1734563343,"current_range_meters":38800,"station_id":"ce4bhop2rcd13ifvqh7g","pricing_plan_id":"cebpf4jnsgd1na2vs0mg"},{"bike_id":"ce5df149-3064-48f7-87cc-2a61b10ecf4e","system_id":"levelo_inurba_marseille","lat":43.2396,"lon":5.36638,"is_reserved":false,"is_disabled":false,"rental_uris":{"android":"levelo://app?vid=ce5df149-3064-48f7-87cc-2a61b10ecf4e","ios":"levelo://app?vid=ce5df149-3064-48f7-87cc-2a61b10ecf4e"},"vehicle_type_id":"4","last_reported":1734563343,"current_range_meters":38800,"station_id":"ce4bhi12rcd13ifvqfp0","pricing_plan_id":"cebpf4jnsgd1na2vs0mg"},{"bike_id":"3e1d0fc6-d668-4df4-9650-63e151d1989a","system_id":"levelo_inurba_marseille","lat":43.33603,"lon":5.40996,"is_reserved":false,"is_disabled":false,"rental_uris":{"android":"levelo://app?vid=3e1d0fc6-d668-4df4-9650-63e151d1989a","ios":"levelo://app?vid=3e1d0fc6-d668-4df4-9650-63e151d1989a"},"vehicle_type_id":"4","last_reported":1734563343,"current_range_meters":24000,"station_id":"ce4bhqh2rcd13ifvqhmg","pricing_plan_id":"cebpf4jnsgd1na2vs0mg"},{"bike_id":"782bcbf2-b7de-4b04-bebc-aaa0329dd90c","system_id":"levelo_inurba_marseille","lat":43.23196,"lon":5.35548,"is_reserved":false,"is_disabled":false,"rental_uris":{"android":"levelo://app?vid=782bcbf2-b7de-4b04-bebc-aaa0329dd90c","ios":"levelo://app?vid=782bcbf2-b7de-4b04-bebc-aaa0329dd90c"},"vehicle_type_id":"4","last_reported":1734563343,"current_range_meters":38800,"station_id":"ce4bhu92rcd13ifvqi70","pricing_plan_id":"cebpf4jnsgd1na2vs0mg"},{"bike_id":"79a3422c-3b77-49e9-a0df-47cae2a491a1","system_id":"levelo_inurba_marseille","lat":43.29261,"lon":5.40894,"is_reserved":false,"is_disabled":false,"rental_uris":{"android":"levelo://app?vid=79a3422c-3b77-49e9-a0df-47cae2a491a1","ios":"levelo://app?vid=79a3422c-3b77-49e9-a0df-47cae2a491a1"},"vehicle_type_id":"4","last_reported":1734563343,"current_range_meters":28000,"station_id":"ce4bh192rcd13ifvqdc0","pricing_plan_id":"cebpf4jnsgd1na2vs0mg"},{"bike_id":"5fa909d7-7637-4147-a543-8849a3e9c7b9","system_id":"levelo_inurba_marseille","lat":43.31175,"lon":5.38718,"is_reserved":false,"is_disabled":false,"rental_uris":{"android":"levelo://app?vid=5fa909d7-7637-4147-a543-8849a3e9c7b9","ios":"levelo://app?vid=5fa909d7-7637-4147-a543-8849a3e9c7b9"},"vehicle_type_id":"4","last_reported":1734563343,"current_range_meters":38800,"station_id":"ce4bgv12rcd13ifvqcp0","pricing_plan_id":"cebpf4jnsgd1na2vs0mg"},{"bike_id":"96ff88dc-8cf7-4b0f-a345-fa00220da932","system_id":"levelo_inurba_marseille","lat":43.27416,"lon":5.42392,"is_reserved":false,"is_disabled":true,"rental_uris":{"android":"levelo://app?vid=96ff88dc-8cf7-4b0f-a345-fa00220da932","ios":"levelo://app?vid=96ff88dc-8cf7-4b0f-a345-fa00220da932"},"vehicle_type_id":"4","last_reported":1734563343,"current_range_meters":0,"station_id":"","pricing_plan_id":"cebpf4jnsgd1na2vs0mg"},{"bike_id":"d033e481-cf2c-436a-88d8-e136b48caeda","system_id":"levelo_inurba_marseille","lat":43.24393,"lon":5.37067,"is_reserved":false,"is_disabled":false,"rental_uris":{"android":"levelo://app?vid=d033e481-cf2c-436a-88d8-e136b48caeda","ios":"levelo://app?vid=d033e481-cf2c-436a-88d8-e136b48caeda"},"vehicle_type_id":"4","last_reported":1734563343,"current_range_meters":17200,"station_id":"ce4bhhh2rcd13ifvqfk0","pricing_plan_id":"cebpf4jnsgd1na2vs0mg"},{"bike_id":"fd83aa66-9619-4c27-813f-b038970150ea","system_id":"levelo_inurba_marseille","lat":43.27676,"lon":5.38867,"is_reserved":false,"is_disabled":false,"rental_uris":{"android":"levelo://app?vid=fd83aa66-9619-4c27-813f-b038970150ea","ios":"levelo://app?vid=fd83aa66-9619-4c27-813f-b038970150ea"},"vehicle_type_id":"4","last_reported":1734563343,"current_range_meters":16000,"station_id":"ce4bhi12rcd13ifvqfo0","pricing_plan_id":"cebpf4jnsgd1na2vs0mg"},{"bike_id":"8751067f-dc1a-4482-8f90-1ea6c5c78790","system_id":"levelo_inurba_marseille","lat":43.30887,"lon":5.39653,"is_reserved":false,"is_disabled":false,"rental_uris":{"android":"levelo://app?vid=8751067f-dc1a-4482-8f90-1ea6c5c78790","ios":"levelo://app?vid=8751067f-dc1a-4482-8f90-1ea6c5c78790"},"vehicle_type_id":"4","last_reported":1734563343,"current_range_meters":33600,"station_id":"ce4bh012rcd13ifvqcv0","pricing_plan_id":"cebpf4jnsgd1na2vs0mg"},{"bike_id":"ed6eafff-d07e-45ed-ad6a-7b2f7765189b","system_id":"levelo_inurba_marseille","lat":43.28432,"lon":5.39187,"is_reserved":false,"is_disabled":false,"rental_uris":{"android":"levelo://app?vid=ed6eafff-d07e-45ed-ad6a-7b2f7765189b","ios":"levelo://app?vid=ed6eafff-d07e-45ed-ad6a-7b2f7765189b"},"vehicle_type_id":"4","last_reported":1734563343,"current_range_meters":38800,"station_id":"ce4bhoh2rcd13ifvqh5g","pricing_plan_id":"cebpf4jnsgd1na2vs0mg"},{"bike_id":"d8f444b6-976e-48fe-8536-ca4151c3cac0","system_id":"levelo_inurba_marseille","lat":43.30802,"lon":5.38157,"is_reserved":false,"is_disabled":false,"rental_uris":{"android":"levelo://app?vid=d8f444b6-976e-48fe-8536-ca4151c3cac0","ios":"levelo://app?vid=d8f444b6-976e-48fe-8536-ca4151c3cac0"},"vehicle_type_id":"4","last_reported":1734563343,"current_range_meters":36400,"station_id":"ce4bgt12rcd13ifvqce0","pricing_plan_id":"cebpf4jnsgd1na2vs0mg"},{"bike_id":"8d22bae6-db5b-4219-9bf6-3f87beca267e","system_id":"levelo_inurba_marseille","lat":43.29376,"lon":5.37851,"is_reserved":false,"is_disabled":true,"rental_uris":{"android":"levelo://app?vid=8d22bae6-db5b-4219-9bf6-3f87beca267e","ios":"levelo://app?vid=8d22bae6-db5b-4219-9bf6-3f87beca267e"},"vehicle_type_id":"4","last_reported":1734563343,"current_range_meters":18000,"station_id":"ce4bgjh2rcd13ifvqbf0","pricing_plan_id":"cebpf4jnsgd1na2vs0mg"},{"bike_id":"7724f48c-b921-4b38-8258-a12be5d8bff5","system_id":"levelo_inurba_marseille","lat":43.28593,"lon":5.39488,"is_reserved":false,"is_disabled":false,"rental_uris":{"android":"levelo://app?vid=7724f48c-b921-4b38-8258-a12be5d8bff5","ios":"levelo://app?vid=7724f48c-b921-4b38-8258-a12be5d8bff5"},"vehicle_type_id":"4","last_reported":1734563343,"current_range_meters":24400,"station_id":"ce4bh292rcd13ifvqdg0","pricing_plan_id":"cebpf4jnsgd1na2vs0mg"},{"bike_id":"37bd84cb-d9a8-4c4a-aff9-de84f44b516a","system_id":"levelo_inurba_marseille","lat":43.28726,"lon":5.36082,"is_reserved":false,"is_disabled":false,"rental_uris":{"android":"levelo://app?vid=37bd84cb-d9a8-4c4a-aff9-de84f44b516a","ios":"levelo://app?vid=37bd84cb-d9a8-4c4a-aff9-de84f44b516a"},"vehicle_type_id":"4","last_reported":1734563343,"current_range_meters":8800,"station_id":"cki0cbj6b192h4jlfktg","pricing_plan_id":"cebpf4jnsgd1na2vs0mg"},{"bike_id":"d4e6ee57-0d8c-453f-993d-b9d2be75347a","system_id":"levelo_inurba_marseille","lat":43.30928,"lon":5.40148,"is_reserved":false,"is_disabled":false,"rental_uris":{"android":"levelo://app?vid=d4e6ee57-0d8c-453f-993d-b9d2be75347a","ios":"levelo://app?vid=d4e6ee57-0d8c-453f-993d-b9d2be75347a"},"vehicle_type_id":"4","last_reported":1734563343,"current_range_meters":30400,"station_id":"ce4bgvp2rcd13ifvqct0","pricing_plan_id":"cebpf4jnsgd1na2vs0mg"},{"bike_id":"24eb95e4-26aa-43bc-9693-9ef8344c2f0a","system_id":"levelo_inurba_marseille","lat":43.30604,"lon":5.3936,"is_reserved":false,"is_disabled":true,"rental_uris":{"android":"levelo://app?vid=24eb95e4-26aa-43bc-9693-9ef8344c2f0a","ios":"levelo://app?vid=24eb95e4-26aa-43bc-9693-9ef8344c2f0a"},"vehicle_type_id":"4","last_reported":1734563343,"current_range_meters":10000,"station_id":"ce4bh0p2rcd13ifvqd80","pricing_plan_id":"cebpf4jnsgd1na2vs0mg"},{"bike_id":"44127e4e-8e84-4a38-89f7-8f4efb63f7a5","system_id":"levelo_inurba_marseille","lat":43.31189,"lon":5.36752,"is_reserved":false,"is_disabled":false,"rental_uris":{"android":"levelo://app?vid=44127e4e-8e84-4a38-89f7-8f4efb63f7a5","ios":"levelo://app?vid=44127e4e-8e84-4a38-89f7-8f4efb63f7a5"},"vehicle_type_id":"4","last_reported":1734563343,"current_range_meters":4800,"station_id":"","pricing_plan_id":"cebpf4jnsgd1na2vs0mg"},{"bike_id":"2228c431-6a44-4614-b8de-b37b4447afaa","system_id":"levelo_inurba_marseille","lat":43.27813,"lon":5.40712,"is_reserved":false,"is_disabled":false,"rental_uris":{"android":"levelo://app?vid=2228c431-6a44-4614-b8de-b37b4447afaa","ios":"levelo://app?vid=2228c431-6a44-4614-b8de-b37b4447afaa"},"vehicle_type_id":"4","last_reported":1734563343,"current_range_meters":38400,"station_id":"ce4bhnh2rcd13ifvqgtg","pricing_plan_id":"cebpf4jnsgd1na2vs0mg"},{"bike_id":"88510cc1-d9fe-438a-a531-0fa1e89c9e0b","system_id":"levelo_inurba_marseille","lat":43.23163,"lon":5.39971,"is_reserved":false,"is_disabled":false,"rental_uris":{"android":"levelo://app?vid=88510cc1-d9fe-438a-a531-0fa1e89c9e0b","ios":"levelo://app?vid=88510cc1-d9fe-438a-a531-0fa1e89c9e0b"},"vehicle_type_id":"4","last_reported":1734563343,"current_range_meters":38800,"station_id":"ce4bhn12rcd13ifvqgqg","pricing_plan_id":"cebpf4jnsgd1na2vs0mg"},{"bike_id":"160dd173-290d-4f22-b4a4-66a984b34214","system_id":"levelo_inurba_marseille","lat":43.29579,"lon":5.385862,"is_reserved":false,"is_disabled":false,"rental_uris":{"android":"levelo://app?vid=160dd173-290d-4f22-b4a4-66a984b34214","ios":"levelo://app?vid=160dd173-290d-4f22-b4a4-66a984b34214"},"vehicle_type_id":"4","last_reported":1734563343,"current_range_meters":38800,"station_id":"","pricing_plan_id":"cebpf4jnsgd1na2vs0mg"},{"bike_id":"cadc9fad-9ef2-4cb9-abaf-fba1b86e4947","system_id":"levelo_inurba_marseille","lat":43.32376,"lon":5.3887,"is_reserved":false,"is_disabled":false,"rental_uris":{"android":"levelo://app?vid=cadc9fad-9ef2-4cb9-abaf-fba1b86e4947","ios":"levelo://app?vid=cadc9fad-9ef2-4cb9-abaf-fba1b86e4947"},"vehicle_type_id":"4","last_reported":1734563343,"current_range_meters":38800,"station_id":"ce4bhqp2rcd13ifvqhog","pricing_plan_id":"cebpf4jnsgd1na2vs0mg"},{"bike_id":"6f0ce49e-ebe5-42fe-b7d1-98f07cbdb9c6","system_id":"levelo_inurba_marseille","lat":43.2997,"lon":5.38498,"is_reserved":false,"is_disabled":true,"rental_uris":{"android":"levelo://app?vid=6f0ce49e-ebe5-42fe-b7d1-98f07cbdb9c6","ios":"levelo://app?vid=6f0ce49e-ebe5-42fe-b7d1-98f07cbdb9c6"},"vehicle_type_id":"4","last_reported":1734563343,"current_range_meters":0,"station_id":"ce4bgj92rcd13ifvqbd0","pricing_plan_id":"cebpf4jnsgd1na2vs0mg"},{"bike_id":"665ec254-0800-463e-9409-4b0d0a5c681c","system_id":"levelo_inurba_marseille","lat":43.28434,"lon":5.39185,"is_reserved":false,"is_disabled":false,"rental_uris":{"android":"levelo://app?vid=665ec254-0800-463e-9409-4b0d0a5c681c","ios":"levelo://app?vid=665ec254-0800-463e-9409-4b0d0a5c681c"},"vehicle_type_id":"4","last_reported":1734563343,"current_range_meters":23200,"station_id":"ce4bhoh2rcd13ifvqh5g","pricing_plan_id":"cebpf4jnsgd1na2vs0mg"},{"bike_id":"cd278f59-3175-4196-ac7f-db5d93276340","system_id":"levelo_inurba_marseille","lat":43.28349,"lon":5.38093,"is_reserved":false,"is_disabled":false,"rental_uris":{"android":"levelo://app?vid=cd278f59-3175-4196-ac7f-db5d93276340","ios":"levelo://app?vid=cd278f59-3175-4196-ac7f-db5d93276340"},"vehicle_type_id":"4","last_reported":1734563343,"current_range_meters":36800,"station_id":"ce4bh412rcd13ifvqdr0","pricing_plan_id":"cebpf4jnsgd1na2vs0mg"},{"bike_id":"4eca2884-c3ea-4c2c-b07d-cf86bea8c536","system_id":"levelo_inurba_marseille","lat":43.30884,"lon":5.39654,"is_reserved":false,"is_disabled":false,"rental_uris":{"android":"levelo://app?vid=4eca2884-c3ea-4c2c-b07d-cf86bea8c536","ios":"levelo://app?vid=4eca2884-c3ea-4c2c-b07d-cf86bea8c536"},"vehicle_type_id":"4","last_reported":1734563343,"current_range_meters":36800,"station_id":"ce4bh012rcd13ifvqcv0","pricing_plan_id":"cebpf4jnsgd1na2vs0mg"},{"bike_id":"7dab445a-4774-428a-be21-2676ef2ce2f1","system_id":"levelo_inurba_marseille","lat":43.29187,"lon":5.35803,"is_reserved":false,"is_disabled":false,"rental_uris":{"android":"levelo://app?vid=7dab445a-4774-428a-be21-2676ef2ce2f1","ios":"levelo://app?vid=7dab445a-4774-428a-be21-2676ef2ce2f1"},"vehicle_type_id":"4","last_reported":1734563343,"current_range_meters":38000,"station_id":"ce4bhb12rcd13ifvqel0","pricing_plan_id":"cebpf4jnsgd1na2vs0mg"},{"bike_id":"c12c2fd5-e93c-42b4-a320-1f4dd169dbbe","system_id":"levelo_inurba_marseille","lat":43.28568,"lon":5.39496,"is_reserved":false,"is_disabled":false,"rental_uris":{"android":"levelo://app?vid=c12c2fd5-e93c-42b4-a320-1f4dd169dbbe","ios":"levelo://app?vid=c12c2fd5-e93c-42b4-a320-1f4dd169dbbe"},"vehicle_type_id":"4","last_reported":1734563343,"current_range_meters":26800,"station_id":"ce4bh292rcd13ifvqdg0","pricing_plan_id":"cebpf4jnsgd1na2vs0mg"},{"bike_id":"c3127a9a-fb65-45fe-9791-ed63052e9c94","system_id":"levelo_inurba_marseille","lat":43.30881,"lon":5.39638,"is_reserved":false,"is_disabled":false,"rental_uris":{"android":"levelo://app?vid=c3127a9a-fb65-45fe-9791-ed63052e9c94","ios":"levelo://app?vid=c3127a9a-fb65-45fe-9791-ed63052e9c94"},"vehicle_type_id":"4","last_reported":1734563343,"current_range_meters":33200,"station_id":"ce4bh012rcd13ifvqcv0","pricing_plan_id":"cebpf4jnsgd1na2vs0mg"},{"bike_id":"860b12b0-5d39-41cd-a6b2-0a1f113b6cdd","system_id":"levelo_inurba_marseille","lat":43.28463,"lon":5.35877,"is_reserved":false,"is_disabled":false,"rental_uris":{"android":"levelo://app?vid=860b12b0-5d39-41cd-a6b2-0a1f113b6cdd","ios":"levelo://app?vid=860b12b0-5d39-41cd-a6b2-0a1f113b6cdd"},"vehicle_type_id":"4","last_reported":1734563343,"current_range_meters":13600,"station_id":"ce4bhah2rcd13ifvqei0","pricing_plan_id":"cebpf4jnsgd1na2vs0mg"},{"bike_id":"ba60245e-88fd-4aa5-9df5-baee3ef1d4e4","system_id":"levelo_inurba_marseille","lat":43.28713,"lon":5.37935,"is_reserved":false,"is_disabled":true,"rental_uris":{"android":"levelo://app?vid=ba60245e-88fd-4aa5-9df5-baee3ef1d4e4","ios":"levelo://app?vid=ba60245e-88fd-4aa5-9df5-baee3ef1d4e4"},"vehicle_type_id":"4","last_reported":1734563343,"current_range_meters":24000,"station_id":"ce4bh9p2rcd13ifvqec0","pricing_plan_id":"cebpf4jnsgd1na2vs0mg"},{"bike_id":"2706d02d-aaff-40a5-9926-c7426882c786","system_id":"levelo_inurba_marseille","lat":43.30787,"lon":5.43525,"is_reserved":false,"is_disabled":false,"rental_uris":{"android":"levelo://app?vid=2706d02d-aaff-40a5-9926-c7426882c786","ios":"levelo://app?vid=2706d02d-aaff-40a5-9926-c7426882c786"},"vehicle_type_id":"4","last_reported":1734563343,"current_range_meters":9600,"station_id":"ce4bhph2rcd13ifvqheg","pricing_plan_id":"cebpf4jnsgd1na2vs0mg"},{"bike_id":"3b6e506a-c500-4ef6-a1d0-ef4f6dd889b9","system_id":"levelo_inurba_marseille","lat":43.29845,"lon":5.36273,"is_reserved":false,"is_disabled":false,"rental_uris":{"android":"levelo://app?vid=3b6e506a-c500-4ef6-a1d0-ef4f6dd889b9","ios":"levelo://app?vid=3b6e506a-c500-4ef6-a1d0-ef4f6dd889b9"},"vehicle_type_id":"4","last_reported":1734563343,"current_range_meters":38400,"station_id":"ce4bgpp2rcd13ifvqc3g","pricing_plan_id":"cebpf4jnsgd1na2vs0mg"},{"bike_id":"4c8b14c1-a279-4e3d-b684-d6545dbf4d61","system_id":"levelo_inurba_marseille","lat":43.31076,"lon":5.37559,"is_reserved":false,"is_disabled":false,"rental_uris":{"android":"levelo://app?vid=4c8b14c1-a279-4e3d-b684-d6545dbf4d61","ios":"levelo://app?vid=4c8b14c1-a279-4e3d-b684-d6545dbf4d61"},"vehicle_type_id":"4","last_reported":1734563343,"current_range_meters":31200,"station_id":"","pricing_plan_id":"cebpf4jnsgd1na2vs0mg"},{"bike_id":"f2483da1-7624-4a5c-8d23-479c821bfc0e","system_id":"levelo_inurba_marseille","lat":43.29789,"lon":5.39341,"is_reserved":false,"is_disabled":false,"rental_uris":{"android":"levelo://app?vid=f2483da1-7624-4a5c-8d23-479c821bfc0e","ios":"levelo://app?vid=f2483da1-7624-4a5c-8d23-479c821bfc0e"},"vehicle_type_id":"4","last_reported":1734563343,"current_range_meters":38800,"station_id":"chh1huq6cuj3fo74tm60","pricing_plan_id":"cebpf4jnsgd1na2vs0mg"},{"bike_id":"e0c2eddf-4ba9-4754-b0b5-efd80badee74","system_id":"levelo_inurba_marseille","lat":43.25879,"lon":5.39416,"is_reserved":false,"is_disabled":true,"rental_uris":{"android":"levelo://app?vid=e0c2eddf-4ba9-4754-b0b5-efd80badee74","ios":"levelo://app?vid=e0c2eddf-4ba9-4754-b0b5-efd80badee74"},"vehicle_type_id":"4","last_reported":1734563343,"current_range_meters":0,"station_id":"","pricing_plan_id":"cebpf4jnsgd1na2vs0mg"},{"bike_id":"adfd92f7-1568-49e8-8b85-314c27b2155c","system_id":"levelo_inurba_marseille","lat":43.3067,"lon":5.40078,"is_reserved":false,"is_disabled":false,"rental_uris":{"android":"levelo://app?vid=adfd92f7-1568-49e8-8b85-314c27b2155c","ios":"levelo://app?vid=adfd92f7-1568-49e8-8b85-314c27b2155c"},"vehicle_type_id":"4","last_reported":1734563343,"current_range_meters":14800,"station_id":"ce4bh112rcd13ifvqda0","pricing_plan_id":"cebpf4jnsgd1na2vs0mg"},{"bike_id":"b01c270d-7693-46a1-aba1-2ee8b375b6a8","system_id":"levelo_inurba_marseille","lat":43.29254,"lon":5.40909,"is_reserved":false,"is_disabled":false,"rental_uris":{"android":"levelo://app?vid=b01c270d-7693-46a1-aba1-2ee8b375b6a8","ios":"levelo://app?vid=b01c270d-7693-46a1-aba1-2ee8b375b6a8"},"vehicle_type_id":"4","last_reported":1734563343,"current_range_meters":38000,"station_id":"ce4bh192rcd13ifvqdc0","pricing_plan_id":"cebpf4jnsgd1na2vs0mg"},{"bike_id":"ff6c6cb2-193d-4cda-989d-8ff0aca58427","system_id":"levelo_inurba_marseille","lat":43.30598,"lon":5.37158,"is_reserved":false,"is_disabled":true,"rental_uris":{"android":"levelo://app?vid=ff6c6cb2-193d-4cda-989d-8ff0aca58427","ios":"levelo://app?vid=ff6c6cb2-193d-4cda-989d-8ff0aca58427"},"vehicle_type_id":"4","last_reported":1734563343,"current_range_meters":0,"station_id":"","pricing_plan_id":"cebpf4jnsgd1na2vs0mg"},{"bike_id":"68907ca0-038a-4705-886b-af6c122ac485","system_id":"levelo_inurba_marseille","lat":43.23192,"lon":5.39979,"is_reserved":false,"is_disabled":false,"rental_uris":{"android":"levelo://app?vid=68907ca0-038a-4705-886b-af6c122ac485","ios":"levelo://app?vid=68907ca0-038a-4705-886b-af6c122ac485"},"vehicle_type_id":"4","last_reported":1734563343,"current_range_meters":39200,"station_id":"ce4bhn12rcd13ifvqgqg","pricing_plan_id":"cebpf4jnsgd1na2vs0mg"},{"bike_id":"9e523466-8b3e-4b26-a0d6-bfa12e80e7d8","system_id":"levelo_inurba_marseille","lat":43.29895,"lon":5.43661,"is_reserved":false,"is_disabled":false,"rental_uris":{"android":"levelo://app?vid=9e523466-8b3e-4b26-a0d6-bfa12e80e7d8","ios":"levelo://app?vid=9e523466-8b3e-4b26-a0d6-bfa12e80e7d8"},"vehicle_type_id":"4","last_reported":1734563343,"current_range_meters":38800,"station_id":"ce4bhpp2rcd13ifvqhfg","pricing_plan_id":"cebpf4jnsgd1na2vs0mg"},{"bike_id":"f208fd4c-46e2-4df1-a8fe-0c92147325cb","system_id":"levelo_inurba_marseille","lat":43.27807,"lon":5.40705,"is_reserved":false,"is_disabled":false,"rental_uris":{"android":"levelo://app?vid=f208fd4c-46e2-4df1-a8fe-0c92147325cb","ios":"levelo://app?vid=f208fd4c-46e2-4df1-a8fe-0c92147325cb"},"vehicle_type_id":"4","last_reported":1734563343,"current_range_meters":16000,"station_id":"ce4bhnh2rcd13ifvqgtg","pricing_plan_id":"cebpf4jnsgd1na2vs0mg"},{"bike_id":"c57fa1e8-4ee4-4065-98bd-cb2d1399fff9","system_id":"levelo_inurba_marseille","lat":43.33607,"lon":5.41031,"is_reserved":false,"is_disabled":false,"rental_uris":{"android":"levelo://app?vid=c57fa1e8-4ee4-4065-98bd-cb2d1399fff9","ios":"levelo://app?vid=c57fa1e8-4ee4-4065-98bd-cb2d1399fff9"},"vehicle_type_id":"4","last_reported":1734563343,"current_range_meters":30000,"station_id":"ce4bhqh2rcd13ifvqhmg","pricing_plan_id":"cebpf4jnsgd1na2vs0mg"},{"bike_id":"c8bece24-3386-47ca-955f-bedef14b9929","system_id":"levelo_inurba_marseille","lat":43.28344,"lon":5.38635,"is_reserved":false,"is_disabled":false,"rental_uris":{"android":"levelo://app?vid=c8bece24-3386-47ca-955f-bedef14b9929","ios":"levelo://app?vid=c8bece24-3386-47ca-955f-bedef14b9929"},"vehicle_type_id":"4","last_reported":1734563343,"current_range_meters":35200,"station_id":"ce4bh492rcd13ifvqdvg","pricing_plan_id":"cebpf4jnsgd1na2vs0mg"},{"bike_id":"41afa7a8-5fa4-4d1b-bbc9-fd39a358e8bc","system_id":"levelo_inurba_marseille","lat":43.2606,"lon":5.39392,"is_reserved":false,"is_disabled":false,"rental_uris":{"android":"levelo://app?vid=41afa7a8-5fa4-4d1b-bbc9-fd39a358e8bc","ios":"levelo://app?vid=41afa7a8-5fa4-4d1b-bbc9-fd39a358e8bc"},"vehicle_type_id":"4","last_reported":1734563343,"current_range_meters":38400,"station_id":"ce4bhh92rcd13ifvqfj0","pricing_plan_id":"cebpf4jnsgd1na2vs0mg"},{"bike_id":"61e6d331-4c07-46de-b56b-700173a7d833","system_id":"levelo_inurba_marseille","lat":43.28665,"lon":5.36347,"is_reserved":false,"is_disabled":false,"rental_uris":{"android":"levelo://app?vid=61e6d331-4c07-46de-b56b-700173a7d833","ios":"levelo://app?vid=61e6d331-4c07-46de-b56b-700173a7d833"},"vehicle_type_id":"4","last_reported":1734563343,"current_range_meters":37600,"station_id":"ce4bhah2rcd13ifvqej0","pricing_plan_id":"cebpf4jnsgd1na2vs0mg"},{"bike_id":"bb337245-7c41-4671-900b-a4d92ae562c6","system_id":"levelo_inurba_marseille","lat":43.29532,"lon":5.39014,"is_reserved":false,"is_disabled":true,"rental_uris":{"android":"levelo://app?vid=bb337245-7c41-4671-900b-a4d92ae562c6","ios":"levelo://app?vid=bb337245-7c41-4671-900b-a4d92ae562c6"},"vehicle_type_id":"4","last_reported":1734563343,"current_range_meters":0,"station_id":"ce4bh3p2rcd13ifvqdp0","pricing_plan_id":"cebpf4jnsgd1na2vs0mg"},{"bike_id":"ed00d771-b4d9-423b-8bab-4c9862534f67","system_id":"levelo_inurba_marseille","lat":43.3088,"lon":5.37179,"is_reserved":false,"is_disabled":false,"rental_uris":{"android":"levelo://app?vid=ed00d771-b4d9-423b-8bab-4c9862534f67","ios":"levelo://app?vid=ed00d771-b4d9-423b-8bab-4c9862534f67"},"vehicle_type_id":"4","last_reported":1734563343,"current_range_meters":10800,"station_id":"ce4bguh2rcd13ifvqckg","pricing_plan_id":"cebpf4jnsgd1na2vs0mg"},{"bike_id":"f182025d-4a5e-4abe-af1d-9a7f25663078","system_id":"levelo_inurba_marseille","lat":43.336,"lon":5.41003,"is_reserved":false,"is_disabled":false,"rental_uris":{"android":"levelo://app?vid=f182025d-4a5e-4abe-af1d-9a7f25663078","ios":"levelo://app?vid=f182025d-4a5e-4abe-af1d-9a7f25663078"},"vehicle_type_id":"4","last_reported":1734563343,"current_range_meters":30800,"station_id":"ce4bhqh2rcd13ifvqhmg","pricing_plan_id":"cebpf4jnsgd1na2vs0mg"},{"bike_id":"8fb8d1a4-2bd8-4d43-bec9-f7bb0c4b228c","system_id":"levelo_inurba_marseille","lat":43.2799,"lon":5.41653,"is_reserved":false,"is_disabled":false,"rental_uris":{"android":"levelo://app?vid=8fb8d1a4-2bd8-4d43-bec9-f7bb0c4b228c","ios":"levelo://app?vid=8fb8d1a4-2bd8-4d43-bec9-f7bb0c4b228c"},"vehicle_type_id":"4","last_reported":1734563343,"current_range_meters":10000,"station_id":"ce4bho12rcd13ifvqh1g","pricing_plan_id":"cebpf4jnsgd1na2vs0mg"},{"bike_id":"a7308225-8057-4a50-a58b-9a9bfef23663","system_id":"levelo_inurba_marseille","lat":43.30882,"lon":5.39641,"is_reserved":false,"is_disabled":false,"rental_uris":{"android":"levelo://app?vid=a7308225-8057-4a50-a58b-9a9bfef23663","ios":"levelo://app?vid=a7308225-8057-4a50-a58b-9a9bfef23663"},"vehicle_type_id":"4","last_reported":1734563343,"current_range_meters":30400,"station_id":"ce4bh012rcd13ifvqcv0","pricing_plan_id":"cebpf4jnsgd1na2vs0mg"},{"bike_id":"c1ad53e6-167a-496f-8bdd-4fe61d5929f8","system_id":"levelo_inurba_marseille","lat":43.29909,"lon":5.38144,"is_reserved":false,"is_disabled":false,"rental_uris":{"android":"levelo://app?vid=c1ad53e6-167a-496f-8bdd-4fe61d5929f8","ios":"levelo://app?vid=c1ad53e6-167a-496f-8bdd-4fe61d5929f8"},"vehicle_type_id":"4","last_reported":1734563343,"current_range_meters":34000,"station_id":"ce4bgj12rcd13ifvqbc0","pricing_plan_id":"cebpf4jnsgd1na2vs0mg"},{"bike_id":"346b15b6-c328-4626-b5e9-41e8c75c3f77","system_id":"levelo_inurba_marseille","lat":43.28605,"lon":5.35238,"is_reserved":false,"is_disabled":false,"rental_uris":{"android":"levelo://app?vid=346b15b6-c328-4626-b5e9-41e8c75c3f77","ios":"levelo://app?vid=346b15b6-c328-4626-b5e9-41e8c75c3f77"},"vehicle_type_id":"4","last_reported":1734563343,"current_range_meters":9600,"station_id":"ce4bhch2rcd13ifvqeug","pricing_plan_id":"cebpf4jnsgd1na2vs0mg"},{"bike_id":"3bc7e65e-db25-43f1-84f9-8bb379b5bba6","system_id":"levelo_inurba_marseille","lat":43.28939,"lon":5.36636,"is_reserved":false,"is_disabled":true,"rental_uris":{"android":"levelo://app?vid=3bc7e65e-db25-43f1-84f9-8bb379b5bba6","ios":"levelo://app?vid=3bc7e65e-db25-43f1-84f9-8bb379b5bba6"},"vehicle_type_id":"4","last_reported":1734563343,"current_range_meters":38800,"station_id":"ce4bhap2rcd13ifvqek0","pricing_plan_id":"cebpf4jnsgd1na2vs0mg"},{"bike_id":"3bec605b-2ea4-40c6-8567-2dcb62a17266","system_id":"levelo_inurba_marseille","lat":43.29277,"lon":5.36836,"is_reserved":false,"is_disabled":true,"rental_uris":{"android":"levelo://app?vid=3bec605b-2ea4-40c6-8567-2dcb62a17266","ios":"levelo://app?vid=3bec605b-2ea4-40c6-8567-2dcb62a17266"},"vehicle_type_id":"4","last_reported":1734563343,"current_range_meters":34000,"station_id":"ce4bhbp2rcd13ifvqesg","pricing_plan_id":"cebpf4jnsgd1na2vs0mg"},{"bike_id":"3d57051a-d4b8-4b78-8650-e94604f54095","system_id":"levelo_inurba_marseille","lat":43.28436,"lon":5.39176,"is_reserved":false,"is_disabled":false,"rental_uris":{"android":"levelo://app?vid=3d57051a-d4b8-4b78-8650-e94604f54095","ios":"levelo://app?vid=3d57051a-d4b8-4b78-8650-e94604f54095"},"vehicle_type_id":"4","last_reported":1734563343,"current_range_meters":39200,"station_id":"ce4bhoh2rcd13ifvqh5g","pricing_plan_id":"cebpf4jnsgd1na2vs0mg"},{"bike_id":"17b2d2b0-9855-46b4-a478-0bd9c7277056","system_id":"levelo_inurba_marseille","lat":43.30916,"lon":5.37839,"is_reserved":false,"is_disabled":true,"rental_uris":{"android":"levelo://app?vid=17b2d2b0-9855-46b4-a478-0bd9c7277056","ios":"levelo://app?vid=17b2d2b0-9855-46b4-a478-0bd9c7277056"},"vehicle_type_id":"4","last_reported":1734563343,"current_range_meters":0,"station_id":"","pricing_plan_id":"cebpf4jnsgd1na2vs0mg"},{"bike_id":"231fe9c6-38f2-4f95-9cde-ed43c8ff9263","system_id":"levelo_inurba_marseille","lat":43.28468,"lon":5.35886,"is_reserved":false,"is_disabled":false,"rental_uris":{"android":"levelo://app?vid=231fe9c6-38f2-4f95-9cde-ed43c8ff9263","ios":"levelo://app?vid=231fe9c6-38f2-4f95-9cde-ed43c8ff9263"},"vehicle_type_id":"4","last_reported":1734563343,"current_range_meters":16400,"station_id":"ce4bhah2rcd13ifvqei0","pricing_plan_id":"cebpf4jnsgd1na2vs0mg"},{"bike_id":"a72b05a0-553d-4606-89ed-559596aa6693","system_id":"levelo_inurba_marseille","lat":43.31494,"lon":5.37305,"is_reserved":false,"is_disabled":false,"rental_uris":{"android":"levelo://app?vid=a72b05a0-553d-4606-89ed-559596aa6693","ios":"levelo://app?vid=a72b05a0-553d-4606-89ed-559596aa6693"},"vehicle_type_id":"4","last_reported":1734563343,"current_range_meters":10800,"station_id":"ce4bgt12rcd13ifvqcd0","pricing_plan_id":"cebpf4jnsgd1na2vs0mg"},{"bike_id":"a762c04b-37ca-4bfb-884a-e4dc66cc2207","system_id":"levelo_inurba_marseille","lat":43.28851,"lon":5.35853,"is_reserved":false,"is_disabled":false,"rental_uris":{"android":"levelo://app?vid=a762c04b-37ca-4bfb-884a-e4dc66cc2207","ios":"levelo://app?vid=a762c04b-37ca-4bfb-884a-e4dc66cc2207"},"vehicle_type_id":"4","last_reported":1734563343,"current_range_meters":38400,"station_id":"ce4bhb12rcd13ifvqem0","pricing_plan_id":"cebpf4jnsgd1na2vs0mg"},{"bike_id":"9f97f512-1b19-443a-b67f-86de027e5577","system_id":"levelo_inurba_marseille","lat":43.34549,"lon":5.37605,"is_reserved":false,"is_disabled":false,"rental_uris":{"android":"levelo://app?vid=9f97f512-1b19-443a-b67f-86de027e5577","ios":"levelo://app?vid=9f97f512-1b19-443a-b67f-86de027e5577"},"vehicle_type_id":"4","last_reported":1734563343,"current_range_meters":25200,"station_id":"","pricing_plan_id":"cebpf4jnsgd1na2vs0mg"},{"bike_id":"590947b3-055a-44f9-be2a-846212eec52a","system_id":"levelo_inurba_marseille","lat":43.27616,"lon":5.36112,"is_reserved":false,"is_disabled":false,"rental_uris":{"android":"levelo://app?vid=590947b3-055a-44f9-be2a-846212eec52a","ios":"levelo://app?vid=590947b3-055a-44f9-be2a-846212eec52a"},"vehicle_type_id":"4","last_reported":1734563343,"current_range_meters":36800,"station_id":"ce4bgj92rcd13ifvqbe0","pricing_plan_id":"cebpf4jnsgd1na2vs0mg"},{"bike_id":"627a2eef-d824-470e-acf9-d4da89ab5c56","system_id":"levelo_inurba_marseille","lat":43.31758,"lon":5.39003,"is_reserved":false,"is_disabled":false,"rental_uris":{"android":"levelo://app?vid=627a2eef-d824-470e-acf9-d4da89ab5c56","ios":"levelo://app?vid=627a2eef-d824-470e-acf9-d4da89ab5c56"},"vehicle_type_id":"4","last_reported":1734563343,"current_range_meters":36400,"station_id":"ce4bhqp2rcd13ifvqhng","pricing_plan_id":"cebpf4jnsgd1na2vs0mg"},{"bike_id":"b5c48c17-c683-48e3-826e-cd03d1f9b50e","system_id":"levelo_inurba_marseille","lat":43.25699,"lon":5.411,"is_reserved":false,"is_disabled":false,"rental_uris":{"android":"levelo://app?vid=b5c48c17-c683-48e3-826e-cd03d1f9b50e","ios":"levelo://app?vid=b5c48c17-c683-48e3-826e-cd03d1f9b50e"},"vehicle_type_id":"4","last_reported":1734563343,"current_range_meters":38800,"station_id":"ce4bhkp2rcd13ifvqgd0","pricing_plan_id":"cebpf4jnsgd1na2vs0mg"},{"bike_id":"03e6636d-b067-47bc-a043-131bfdda918e","system_id":"levelo_inurba_marseille","lat":43.30428,"lon":5.39753,"is_reserved":false,"is_disabled":false,"rental_uris":{"android":"levelo://app?vid=03e6636d-b067-47bc-a043-131bfdda918e","ios":"levelo://app?vid=03e6636d-b067-47bc-a043-131bfdda918e"},"vehicle_type_id":"4","last_reported":1734563343,"current_range_meters":28800,"station_id":"ce4bh092rcd13ifvqd20","pricing_plan_id":"cebpf4jnsgd1na2vs0mg"},{"bike_id":"dd983f0d-e62b-4e34-8e6e-45d4d37aa766","system_id":"levelo_inurba_marseille","lat":43.31071,"lon":5.38338,"is_reserved":false,"is_disabled":false,"rental_uris":{"android":"levelo://app?vid=dd983f0d-e62b-4e34-8e6e-45d4d37aa766","ios":"levelo://app?vid=dd983f0d-e62b-4e34-8e6e-45d4d37aa766"},"vehicle_type_id":"4","last_reported":1734563343,"current_range_meters":9600,"station_id":"ce4bgv92rcd13ifvqcr0","pricing_plan_id":"cebpf4jnsgd1na2vs0mg"},{"bike_id":"1ccd8895-23f4-4b8e-846b-7ad7871abb63","system_id":"levelo_inurba_marseille","lat":43.28695,"lon":5.37391,"is_reserved":false,"is_disabled":false,"rental_uris":{"android":"levelo://app?vid=1ccd8895-23f4-4b8e-846b-7ad7871abb63","ios":"levelo://app?vid=1ccd8895-23f4-4b8e-846b-7ad7871abb63"},"vehicle_type_id":"4","last_reported":1734563343,"current_range_meters":24400,"station_id":"ce4bh3p2rcd13ifvqdq0","pricing_plan_id":"cebpf4jnsgd1na2vs0mg"},{"bike_id":"6d90c9d4-0b5c-43bf-b682-e7561e654b2c","system_id":"levelo_inurba_marseille","lat":43.295137,"lon":5.39397,"is_reserved":false,"is_disabled":true,"rental_uris":{"android":"levelo://app?vid=6d90c9d4-0b5c-43bf-b682-e7561e654b2c","ios":"levelo://app?vid=6d90c9d4-0b5c-43bf-b682-e7561e654b2c"},"vehicle_type_id":"4","last_reported":1734563343,"current_range_meters":6400,"station_id":"ce4bh292rcd13ifvqdf0","pricing_plan_id":"cebpf4jnsgd1na2vs0mg"},{"bike_id":"da708de4-c602-4244-8495-8ce716405c97","system_id":"levelo_inurba_marseille","lat":43.324456,"lon":5.406605,"is_reserved":false,"is_disabled":true,"rental_uris":{"android":"levelo://app?vid=da708de4-c602-4244-8495-8ce716405c97","ios":"levelo://app?vid=da708de4-c602-4244-8495-8ce716405c97"},"vehicle_type_id":"4","last_reported":1734563343,"current_range_meters":0,"station_id":"ce4bhq92rcd13ifvqhjg","pricing_plan_id":"cebpf4jnsgd1na2vs0mg"},{"bike_id":"a1d72b17-42d2-44f3-ab46-899fc4498c28","system_id":"levelo_inurba_marseille","lat":43.25819,"lon":5.39432,"is_reserved":false,"is_disabled":false,"rental_uris":{"android":"levelo://app?vid=a1d72b17-42d2-44f3-ab46-899fc4498c28","ios":"levelo://app?vid=a1d72b17-42d2-44f3-ab46-899fc4498c28"},"vehicle_type_id":"4","last_reported":1734563343,"current_range_meters":6000,"station_id":"ce4bhip2rcd13ifvqft0","pricing_plan_id":"cebpf4jnsgd1na2vs0mg"},{"bike_id":"4ffeaa4b-ed3c-4488-811c-b2a41661f88a","system_id":"levelo_inurba_marseille","lat":43.27828,"lon":5.39205,"is_reserved":false,"is_disabled":false,"rental_uris":{"android":"levelo://app?vid=4ffeaa4b-ed3c-4488-811c-b2a41661f88a","ios":"levelo://app?vid=4ffeaa4b-ed3c-4488-811c-b2a41661f88a"},"vehicle_type_id":"4","last_reported":1734563343,"current_range_meters":33600,"station_id":"ce4bhjp2rcd13ifvqga0","pricing_plan_id":"cebpf4jnsgd1na2vs0mg"},{"bike_id":"63ac9ec0-94d0-4b1e-8838-1ee7b4295fda","system_id":"levelo_inurba_marseille","lat":43.32105,"lon":5.36766,"is_reserved":false,"is_disabled":false,"rental_uris":{"android":"levelo://app?vid=63ac9ec0-94d0-4b1e-8838-1ee7b4295fda","ios":"levelo://app?vid=63ac9ec0-94d0-4b1e-8838-1ee7b4295fda"},"vehicle_type_id":"4","last_reported":1734563343,"current_range_meters":38000,"station_id":"ce4bhrh2rcd13ifvqhug","pricing_plan_id":"cebpf4jnsgd1na2vs0mg"},{"bike_id":"4282c519-1a62-4503-8250-9a8fe4f41c6c","system_id":"levelo_inurba_marseille","lat":43.28104,"lon":5.37837,"is_reserved":false,"is_disabled":false,"rental_uris":{"android":"levelo://app?vid=4282c519-1a62-4503-8250-9a8fe4f41c6c","ios":"levelo://app?vid=4282c519-1a62-4503-8250-9a8fe4f41c6c"},"vehicle_type_id":"4","last_reported":1734563343,"current_range_meters":33200,"station_id":"ce4bha12rcd13ifvqee0","pricing_plan_id":"cebpf4jnsgd1na2vs0mg"},{"bike_id":"8a816599-72c6-468e-8303-859f735b9523","system_id":"levelo_inurba_marseille","lat":43.28673,"lon":5.36351,"is_reserved":false,"is_disabled":false,"rental_uris":{"android":"levelo://app?vid=8a816599-72c6-468e-8303-859f735b9523","ios":"levelo://app?vid=8a816599-72c6-468e-8303-859f735b9523"},"vehicle_type_id":"4","last_reported":1734563343,"current_range_meters":30000,"station_id":"ce4bhah2rcd13ifvqej0","pricing_plan_id":"cebpf4jnsgd1na2vs0mg"},{"bike_id":"ca667192-6c2c-4493-9a45-c2eb06193b12","system_id":"levelo_inurba_marseille","lat":43.26566,"lon":5.39025,"is_reserved":false,"is_disabled":false,"rental_uris":{"android":"levelo://app?vid=ca667192-6c2c-4493-9a45-c2eb06193b12","ios":"levelo://app?vid=ca667192-6c2c-4493-9a45-c2eb06193b12"},"vehicle_type_id":"4","last_reported":1734563343,"current_range_meters":9600,"station_id":"ce4bhe12rcd13ifvqf30","pricing_plan_id":"cebpf4jnsgd1na2vs0mg"},{"bike_id":"e49249f7-67ae-4467-9089-d0be452ea2b0","system_id":"levelo_inurba_marseille","lat":43.27179,"lon":5.40989,"is_reserved":false,"is_disabled":false,"rental_uris":{"android":"levelo://app?vid=e49249f7-67ae-4467-9089-d0be452ea2b0","ios":"levelo://app?vid=e49249f7-67ae-4467-9089-d0be452ea2b0"},"vehicle_type_id":"4","last_reported":1734563343,"current_range_meters":37600,"station_id":"ce4bhl12rcd13ifvqgf0","pricing_plan_id":"cebpf4jnsgd1na2vs0mg"},{"bike_id":"375c964c-ed28-419a-9b34-a747a7df7726","system_id":"levelo_inurba_marseille","lat":43.30212,"lon":5.39472,"is_reserved":false,"is_disabled":false,"rental_uris":{"android":"levelo://app?vid=375c964c-ed28-419a-9b34-a747a7df7726","ios":"levelo://app?vid=375c964c-ed28-419a-9b34-a747a7df7726"},"vehicle_type_id":"4","last_reported":1734563343,"current_range_meters":4800,"station_id":"ce4bh0p2rcd13ifvqd70","pricing_plan_id":"cebpf4jnsgd1na2vs0mg"},{"bike_id":"f4f9f46d-64c4-4204-8cdd-ded468bce410","system_id":"levelo_inurba_marseille","lat":43.28474,"lon":5.38561,"is_reserved":false,"is_disabled":false,"rental_uris":{"android":"levelo://app?vid=f4f9f46d-64c4-4204-8cdd-ded468bce410","ios":"levelo://app?vid=f4f9f46d-64c4-4204-8cdd-ded468bce410"},"vehicle_type_id":"4","last_reported":1734563343,"current_range_meters":38800,"station_id":"ce4bh8p2rcd13ifvqeb0","pricing_plan_id":"cebpf4jnsgd1na2vs0mg"},{"bike_id":"8f47caf5-39de-4bf3-ac18-4171c646141f","system_id":"levelo_inurba_marseille","lat":43.29009,"lon":5.38631,"is_reserved":false,"is_disabled":false,"rental_uris":{"android":"levelo://app?vid=8f47caf5-39de-4bf3-ac18-4171c646141f","ios":"levelo://app?vid=8f47caf5-39de-4bf3-ac18-4171c646141f"},"vehicle_type_id":"4","last_reported":1734563343,"current_range_meters":38400,"station_id":"ce4bh4p2rcd13ifvqe0g","pricing_plan_id":"cebpf4jnsgd1na2vs0mg"},{"bike_id":"7e876e85-730f-4bb1-8e78-bc65c4d6fe75","system_id":"levelo_inurba_marseille","lat":43.2904,"lon":5.359143,"is_reserved":false,"is_disabled":false,"rental_uris":{"android":"levelo://app?vid=7e876e85-730f-4bb1-8e78-bc65c4d6fe75","ios":"levelo://app?vid=7e876e85-730f-4bb1-8e78-bc65c4d6fe75"},"vehicle_type_id":"4","last_reported":1734563343,"current_range_meters":24800,"station_id":"ce4bha92rcd13ifvqeg0","pricing_plan_id":"cebpf4jnsgd1na2vs0mg"},{"bike_id":"6f5955f2-f150-4390-9828-ed9fb50a410b","system_id":"levelo_inurba_marseille","lat":43.29546,"lon":5.42282,"is_reserved":false,"is_disabled":false,"rental_uris":{"android":"levelo://app?vid=6f5955f2-f150-4390-9828-ed9fb50a410b","ios":"levelo://app?vid=6f5955f2-f150-4390-9828-ed9fb50a410b"},"vehicle_type_id":"4","last_reported":1734563343,"current_range_meters":22400,"station_id":"ce4bhph2rcd13ifvqhdg","pricing_plan_id":"cebpf4jnsgd1na2vs0mg"},{"bike_id":"54dd1844-9769-4519-87b0-53e52d46f36d","system_id":"levelo_inurba_marseille","lat":43.29273,"lon":5.38252,"is_reserved":false,"is_disabled":false,"rental_uris":{"android":"levelo://app?vid=54dd1844-9769-4519-87b0-53e52d46f36d","ios":"levelo://app?vid=54dd1844-9769-4519-87b0-53e52d46f36d"},"vehicle_type_id":"4","last_reported":1734563343,"current_range_meters":25200,"station_id":"","pricing_plan_id":"cebpf4jnsgd1na2vs0mg"},{"bike_id":"0b3ddc2e-3989-4de3-adc7-7cabf8f2f293","system_id":"levelo_inurba_marseille","lat":43.31188,"lon":5.38708,"is_reserved":false,"is_disabled":false,"rental_uris":{"android":"levelo://app?vid=0b3ddc2e-3989-4de3-adc7-7cabf8f2f293","ios":"levelo://app?vid=0b3ddc2e-3989-4de3-adc7-7cabf8f2f293"},"vehicle_type_id":"4","last_reported":1734563343,"current_range_meters":38800,"station_id":"ce4bgv12rcd13ifvqcp0","pricing_plan_id":"cebpf4jnsgd1na2vs0mg"},{"bike_id":"3e8c14b0-a952-4417-9640-11e6a4d5ad30","system_id":"levelo_inurba_marseille","lat":43.280014,"lon":5.399999,"is_reserved":false,"is_disabled":false,"rental_uris":{"android":"levelo://app?vid=3e8c14b0-a952-4417-9640-11e6a4d5ad30","ios":"levelo://app?vid=3e8c14b0-a952-4417-9640-11e6a4d5ad30"},"vehicle_type_id":"4","last_reported":1734563343,"current_range_meters":38800,"station_id":"ce4bho92rcd13ifvqh4g","pricing_plan_id":"cebpf4jnsgd1na2vs0mg"},{"bike_id":"0ba2cc58-146e-4791-af13-2a3524842812","system_id":"levelo_inurba_marseille","lat":43.27892,"lon":5.37994,"is_reserved":false,"is_disabled":false,"rental_uris":{"android":"levelo://app?vid=0ba2cc58-146e-4791-af13-2a3524842812","ios":"levelo://app?vid=0ba2cc58-146e-4791-af13-2a3524842812"},"vehicle_type_id":"4","last_reported":1734563343,"current_range_meters":39200,"station_id":"ce4bhf92rcd13ifvqf50","pricing_plan_id":"cebpf4jnsgd1na2vs0mg"},{"bike_id":"4f67d4d6-7455-4245-862f-940c45578ff5","system_id":"levelo_inurba_marseille","lat":43.26478,"lon":5.39543,"is_reserved":false,"is_disabled":false,"rental_uris":{"android":"levelo://app?vid=4f67d4d6-7455-4245-862f-940c45578ff5","ios":"levelo://app?vid=4f67d4d6-7455-4245-862f-940c45578ff5"},"vehicle_type_id":"4","last_reported":1734563343,"current_range_meters":38800,"station_id":"ce4bhi12rcd13ifvqfq0","pricing_plan_id":"cebpf4jnsgd1na2vs0mg"},{"bike_id":"66a1c2cd-a67b-4bac-bd72-4e9e23bab466","system_id":"levelo_inurba_marseille","lat":43.29812,"lon":5.40404,"is_reserved":false,"is_disabled":false,"rental_uris":{"android":"levelo://app?vid=66a1c2cd-a67b-4bac-bd72-4e9e23bab466","ios":"levelo://app?vid=66a1c2cd-a67b-4bac-bd72-4e9e23bab466"},"vehicle_type_id":"4","last_reported":1734563343,"current_range_meters":24400,"station_id":"ce4bh112rcd13ifvqd90","pricing_plan_id":"cebpf4jnsgd1na2vs0mg"},{"bike_id":"c431149a-b068-41e5-aa64-ee97ee29529a","system_id":"levelo_inurba_marseille","lat":43.30809,"lon":5.38152,"is_reserved":false,"is_disabled":false,"rental_uris":{"android":"levelo://app?vid=c431149a-b068-41e5-aa64-ee97ee29529a","ios":"levelo://app?vid=c431149a-b068-41e5-aa64-ee97ee29529a"},"vehicle_type_id":"4","last_reported":1734563343,"current_range_meters":38400,"station_id":"ce4bgt12rcd13ifvqce0","pricing_plan_id":"cebpf4jnsgd1na2vs0mg"},{"bike_id":"c70e008c-57eb-477b-9bcc-daa4473655c3","system_id":"levelo_inurba_marseille","lat":43.33605,"lon":5.41,"is_reserved":false,"is_disabled":false,"rental_uris":{"android":"levelo://app?vid=c70e008c-57eb-477b-9bcc-daa4473655c3","ios":"levelo://app?vid=c70e008c-57eb-477b-9bcc-daa4473655c3"},"vehicle_type_id":"4","last_reported":1734563343,"current_range_meters":12400,"station_id":"ce4bhqh2rcd13ifvqhmg","pricing_plan_id":"cebpf4jnsgd1na2vs0mg"},{"bike_id":"fd365b9b-fc2c-41ff-b4b4-86b61460d247","system_id":"levelo_inurba_marseille","lat":43.29028,"lon":5.38648,"is_reserved":false,"is_disabled":false,"rental_uris":{"android":"levelo://app?vid=fd365b9b-fc2c-41ff-b4b4-86b61460d247","ios":"levelo://app?vid=fd365b9b-fc2c-41ff-b4b4-86b61460d247"},"vehicle_type_id":"4","last_reported":1734563343,"current_range_meters":28000,"station_id":"ce4bh4p2rcd13ifvqe0g","pricing_plan_id":"cebpf4jnsgd1na2vs0mg"},{"bike_id":"e2380218-9284-464e-beda-826823a8842b","system_id":"levelo_inurba_marseille","lat":43.28926,"lon":5.38395,"is_reserved":false,"is_disabled":false,"rental_uris":{"android":"levelo://app?vid=e2380218-9284-464e-beda-826823a8842b","ios":"levelo://app?vid=e2380218-9284-464e-beda-826823a8842b"},"vehicle_type_id":"4","last_reported":1734563343,"current_range_meters":38800,"station_id":"ce4bh612rcd13ifvqe6g","pricing_plan_id":"cebpf4jnsgd1na2vs0mg"},{"bike_id":"b3571202-74d9-44ef-85b2-590febb4035f","system_id":"levelo_inurba_marseille","lat":43.29881,"lon":5.38914,"is_reserved":false,"is_disabled":false,"rental_uris":{"android":"levelo://app?vid=b3571202-74d9-44ef-85b2-590febb4035f","ios":"levelo://app?vid=b3571202-74d9-44ef-85b2-590febb4035f"},"vehicle_type_id":"4","last_reported":1734563343,"current_range_meters":38800,"station_id":"ce4bh392rcd13ifvqdl0","pricing_plan_id":"cebpf4jnsgd1na2vs0mg"},{"bike_id":"e6569672-2f1f-4a90-9d6b-d6ad7bcd1e4c","system_id":"levelo_inurba_marseille","lat":43.2656,"lon":5.39006,"is_reserved":false,"is_disabled":false,"rental_uris":{"android":"levelo://app?vid=e6569672-2f1f-4a90-9d6b-d6ad7bcd1e4c","ios":"levelo://app?vid=e6569672-2f1f-4a90-9d6b-d6ad7bcd1e4c"},"vehicle_type_id":"4","last_reported":1734563343,"current_range_meters":25600,"station_id":"ce4bhe12rcd13ifvqf30","pricing_plan_id":"cebpf4jnsgd1na2vs0mg"},{"bike_id":"e433bf1f-7ea0-4011-b520-f914e36843b5","system_id":"levelo_inurba_marseille","lat":43.31331,"lon":5.39726,"is_reserved":false,"is_disabled":false,"rental_uris":{"android":"levelo://app?vid=e433bf1f-7ea0-4011-b520-f914e36843b5","ios":"levelo://app?vid=e433bf1f-7ea0-4011-b520-f914e36843b5"},"vehicle_type_id":"4","last_reported":1734563343,"current_range_meters":38800,"station_id":"ce4bgvp2rcd13ifvqcu0","pricing_plan_id":"cebpf4jnsgd1na2vs0mg"},{"bike_id":"53586763-e6eb-40b6-bde6-7786af1effe6","system_id":"levelo_inurba_marseille","lat":43.31145,"lon":5.36785,"is_reserved":false,"is_disabled":true,"rental_uris":{"android":"levelo://app?vid=53586763-e6eb-40b6-bde6-7786af1effe6","ios":"levelo://app?vid=53586763-e6eb-40b6-bde6-7786af1effe6"},"vehicle_type_id":"4","last_reported":1734563343,"current_range_meters":25600,"station_id":"","pricing_plan_id":"cebpf4jnsgd1na2vs0mg"},{"bike_id":"03b5bb1c-ac0e-4dd6-a4a1-798486b2d286","system_id":"levelo_inurba_marseille","lat":43.30652,"lon":5.40072,"is_reserved":false,"is_disabled":false,"rental_uris":{"android":"levelo://app?vid=03b5bb1c-ac0e-4dd6-a4a1-798486b2d286","ios":"levelo://app?vid=03b5bb1c-ac0e-4dd6-a4a1-798486b2d286"},"vehicle_type_id":"4","last_reported":1734563343,"current_range_meters":38800,"station_id":"ce4bh112rcd13ifvqda0","pricing_plan_id":"cebpf4jnsgd1na2vs0mg"},{"bike_id":"53b6fdb6-8e05-4d97-b84b-15b53f447307","system_id":"levelo_inurba_marseille","lat":43.30931,"lon":5.40147,"is_reserved":false,"is_disabled":false,"rental_uris":{"android":"levelo://app?vid=53b6fdb6-8e05-4d97-b84b-15b53f447307","ios":"levelo://app?vid=53b6fdb6-8e05-4d97-b84b-15b53f447307"},"vehicle_type_id":"4","last_reported":1734563343,"current_range_meters":36400,"station_id":"ce4bgvp2rcd13ifvqct0","pricing_plan_id":"cebpf4jnsgd1na2vs0mg"},{"bike_id":"5d229ec1-843c-42dd-b2d5-c6bbdc4852c3","system_id":"levelo_inurba_marseille","lat":43.33602,"lon":5.41022,"is_reserved":false,"is_disabled":false,"rental_uris":{"android":"levelo://app?vid=5d229ec1-843c-42dd-b2d5-c6bbdc4852c3","ios":"levelo://app?vid=5d229ec1-843c-42dd-b2d5-c6bbdc4852c3"},"vehicle_type_id":"4","last_reported":1734563343,"current_range_meters":27200,"station_id":"ce4bhqh2rcd13ifvqhmg","pricing_plan_id":"cebpf4jnsgd1na2vs0mg"},{"bike_id":"dd8c5b4c-64c3-4fbb-8df7-3b1a11a1b585","system_id":"levelo_inurba_marseille","lat":43.27612,"lon":5.36104,"is_reserved":false,"is_disabled":false,"rental_uris":{"android":"levelo://app?vid=dd8c5b4c-64c3-4fbb-8df7-3b1a11a1b585","ios":"levelo://app?vid=dd8c5b4c-64c3-4fbb-8df7-3b1a11a1b585"},"vehicle_type_id":"4","last_reported":1734563343,"current_range_meters":37600,"station_id":"ce4bgj92rcd13ifvqbe0","pricing_plan_id":"cebpf4jnsgd1na2vs0mg"},{"bike_id":"e94fde94-4b7c-4e2e-ae5a-1c4fb5ad834f","system_id":"levelo_inurba_marseille","lat":43.2885,"lon":5.35864,"is_reserved":false,"is_disabled":false,"rental_uris":{"android":"levelo://app?vid=e94fde94-4b7c-4e2e-ae5a-1c4fb5ad834f","ios":"levelo://app?vid=e94fde94-4b7c-4e2e-ae5a-1c4fb5ad834f"},"vehicle_type_id":"4","last_reported":1734563343,"current_range_meters":20800,"station_id":"ce4bhb12rcd13ifvqem0","pricing_plan_id":"cebpf4jnsgd1na2vs0mg"},{"bike_id":"4fc49ccf-ae82-4f74-8dd1-abbdc41ba09b","system_id":"levelo_inurba_marseille","lat":43.24803,"lon":5.37449,"is_reserved":false,"is_disabled":false,"rental_uris":{"android":"levelo://app?vid=4fc49ccf-ae82-4f74-8dd1-abbdc41ba09b","ios":"levelo://app?vid=4fc49ccf-ae82-4f74-8dd1-abbdc41ba09b"},"vehicle_type_id":"4","last_reported":1734563343,"current_range_meters":19200,"station_id":"ce4bhgh2rcd13ifvqfb0","pricing_plan_id":"cebpf4jnsgd1na2vs0mg"},{"bike_id":"9294b7c4-f950-43f8-8e30-fdbb56a51003","system_id":"levelo_inurba_marseille","lat":43.31476,"lon":5.36875,"is_reserved":false,"is_disabled":false,"rental_uris":{"android":"levelo://app?vid=9294b7c4-f950-43f8-8e30-fdbb56a51003","ios":"levelo://app?vid=9294b7c4-f950-43f8-8e30-fdbb56a51003"},"vehicle_type_id":"4","last_reported":1734563343,"current_range_meters":8400,"station_id":"","pricing_plan_id":"cebpf4jnsgd1na2vs0mg"},{"bike_id":"9c3c4f69-18fd-4344-a816-55321137a2a1","system_id":"levelo_inurba_marseille","lat":43.28944,"lon":5.39633,"is_reserved":false,"is_disabled":false,"rental_uris":{"android":"levelo://app?vid=9c3c4f69-18fd-4344-a816-55321137a2a1","ios":"levelo://app?vid=9c3c4f69-18fd-4344-a816-55321137a2a1"},"vehicle_type_id":"4","last_reported":1734563343,"current_range_meters":36800,"station_id":"ce4bh3h2rcd13ifvqdn0","pricing_plan_id":"cebpf4jnsgd1na2vs0mg"},{"bike_id":"01ea8666-ec64-4c34-b7b1-7d0789619c0d","system_id":"levelo_inurba_marseille","lat":43.311305,"lon":5.377708,"is_reserved":false,"is_disabled":false,"rental_uris":{"android":"levelo://app?vid=01ea8666-ec64-4c34-b7b1-7d0789619c0d","ios":"levelo://app?vid=01ea8666-ec64-4c34-b7b1-7d0789619c0d"},"vehicle_type_id":"4","last_reported":1734563343,"current_range_meters":38800,"station_id":"ce4bgt92rcd13ifvqcg0","pricing_plan_id":"cebpf4jnsgd1na2vs0mg"},{"bike_id":"503a6266-3d6a-4fff-9701-d2ffcaadbb47","system_id":"levelo_inurba_marseille","lat":43.23191,"lon":5.39977,"is_reserved":false,"is_disabled":false,"rental_uris":{"android":"levelo://app?vid=503a6266-3d6a-4fff-9701-d2ffcaadbb47","ios":"levelo://app?vid=503a6266-3d6a-4fff-9701-d2ffcaadbb47"},"vehicle_type_id":"4","last_reported":1734563343,"current_range_meters":30000,"station_id":"ce4bhn12rcd13ifvqgqg","pricing_plan_id":"cebpf4jnsgd1na2vs0mg"},{"bike_id":"a4c253e8-8d80-49fc-bd11-a2e8817ea7bc","system_id":"levelo_inurba_marseille","lat":43.29188,"lon":5.35798,"is_reserved":false,"is_disabled":false,"rental_uris":{"android":"levelo://app?vid=a4c253e8-8d80-49fc-bd11-a2e8817ea7bc","ios":"levelo://app?vid=a4c253e8-8d80-49fc-bd11-a2e8817ea7bc"},"vehicle_type_id":"4","last_reported":1734563343,"current_range_meters":38400,"station_id":"ce4bhb12rcd13ifvqel0","pricing_plan_id":"cebpf4jnsgd1na2vs0mg"},{"bike_id":"e57d7f02-3c7c-49ad-b24d-2290b7f781a7","system_id":"levelo_inurba_marseille","lat":43.2656,"lon":5.37293,"is_reserved":false,"is_disabled":false,"rental_uris":{"android":"levelo://app?vid=e57d7f02-3c7c-49ad-b24d-2290b7f781a7","ios":"levelo://app?vid=e57d7f02-3c7c-49ad-b24d-2290b7f781a7"},"vehicle_type_id":"4","last_reported":1734563343,"current_range_meters":31200,"station_id":"ce4bhg12rcd13ifvqf70","pricing_plan_id":"cebpf4jnsgd1na2vs0mg"},{"bike_id":"a3232108-6d4d-45f4-ac66-cd85d6391bc7","system_id":"levelo_inurba_marseille","lat":43.23058,"lon":5.35492,"is_reserved":false,"is_disabled":false,"rental_uris":{"android":"levelo://app?vid=a3232108-6d4d-45f4-ac66-cd85d6391bc7","ios":"levelo://app?vid=a3232108-6d4d-45f4-ac66-cd85d6391bc7"},"vehicle_type_id":"4","last_reported":1734563343,"current_range_meters":36800,"station_id":"cpo3342slgdg3j2ifvpg","pricing_plan_id":"cebpf4jnsgd1na2vs0mg"},{"bike_id":"32c98ab6-fe20-4209-aaad-3325b93af7bf","system_id":"levelo_inurba_marseille","lat":43.29184,"lon":5.35793,"is_reserved":false,"is_disabled":false,"rental_uris":{"android":"levelo://app?vid=32c98ab6-fe20-4209-aaad-3325b93af7bf","ios":"levelo://app?vid=32c98ab6-fe20-4209-aaad-3325b93af7bf"},"vehicle_type_id":"4","last_reported":1734563343,"current_range_meters":30400,"station_id":"ce4bhb12rcd13ifvqel0","pricing_plan_id":"cebpf4jnsgd1na2vs0mg"},{"bike_id":"5f268945-074c-44ed-9099-05e8aa15f651","system_id":"levelo_inurba_marseille","lat":43.26067,"lon":5.3939,"is_reserved":false,"is_disabled":false,"rental_uris":{"android":"levelo://app?vid=5f268945-074c-44ed-9099-05e8aa15f651","ios":"levelo://app?vid=5f268945-074c-44ed-9099-05e8aa15f651"},"vehicle_type_id":"4","last_reported":1734563343,"current_range_meters":34000,"station_id":"ce4bhh92rcd13ifvqfj0","pricing_plan_id":"cebpf4jnsgd1na2vs0mg"},{"bike_id":"1f85f844-031e-4abc-a842-f34e73f3cb0b","system_id":"levelo_inurba_marseille","lat":43.28105,"lon":5.37806,"is_reserved":false,"is_disabled":false,"rental_uris":{"android":"levelo://app?vid=1f85f844-031e-4abc-a842-f34e73f3cb0b","ios":"levelo://app?vid=1f85f844-031e-4abc-a842-f34e73f3cb0b"},"vehicle_type_id":"4","last_reported":1734563343,"current_range_meters":38800,"station_id":"ce4bha12rcd13ifvqee0","pricing_plan_id":"cebpf4jnsgd1na2vs0mg"},{"bike_id":"7cb7408a-88a1-4f20-8f17-e882eae05690","system_id":"levelo_inurba_marseille","lat":43.28431,"lon":5.34995,"is_reserved":false,"is_disabled":false,"rental_uris":{"android":"levelo://app?vid=7cb7408a-88a1-4f20-8f17-e882eae05690","ios":"levelo://app?vid=7cb7408a-88a1-4f20-8f17-e882eae05690"},"vehicle_type_id":"4","last_reported":1734563343,"current_range_meters":10000,"station_id":"ce4bhbh2rcd13ifvqepg","pricing_plan_id":"cebpf4jnsgd1na2vs0mg"},{"bike_id":"718c3abd-cdd2-40af-b157-1e463f84594c","system_id":"levelo_inurba_marseille","lat":43.30807,"lon":5.38154,"is_reserved":false,"is_disabled":false,"rental_uris":{"android":"levelo://app?vid=718c3abd-cdd2-40af-b157-1e463f84594c","ios":"levelo://app?vid=718c3abd-cdd2-40af-b157-1e463f84594c"},"vehicle_type_id":"4","last_reported":1734563343,"current_range_meters":25200,"station_id":"ce4bgt12rcd13ifvqce0","pricing_plan_id":"cebpf4jnsgd1na2vs0mg"},{"bike_id":"0ce6ea9a-4dfa-4e12-ad96-40c463df8d34","system_id":"levelo_inurba_marseille","lat":43.29542,"lon":5.37524,"is_reserved":false,"is_disabled":false,"rental_uris":{"android":"levelo://app?vid=0ce6ea9a-4dfa-4e12-ad96-40c463df8d34","ios":"levelo://app?vid=0ce6ea9a-4dfa-4e12-ad96-40c463df8d34"},"vehicle_type_id":"4","last_reported":1734563343,"current_range_meters":38800,"station_id":"ce4bgh92rcd13ifvqb50","pricing_plan_id":"cebpf4jnsgd1na2vs0mg"},{"bike_id":"cc714d77-98c3-4d9b-bcf4-aabc7bcc80b2","system_id":"levelo_inurba_marseille","lat":43.28626,"lon":5.35109,"is_reserved":false,"is_disabled":false,"rental_uris":{"android":"levelo://app?vid=cc714d77-98c3-4d9b-bcf4-aabc7bcc80b2","ios":"levelo://app?vid=cc714d77-98c3-4d9b-bcf4-aabc7bcc80b2"},"vehicle_type_id":"4","last_reported":1734563343,"current_range_meters":37600,"station_id":"ce4bhch2rcd13ifvqeug","pricing_plan_id":"cebpf4jnsgd1na2vs0mg"},{"bike_id":"bf433ee3-7a4b-4603-85d4-f3081c798265","system_id":"levelo_inurba_marseille","lat":43.2658,"lon":5.39029,"is_reserved":false,"is_disabled":false,"rental_uris":{"android":"levelo://app?vid=bf433ee3-7a4b-4603-85d4-f3081c798265","ios":"levelo://app?vid=bf433ee3-7a4b-4603-85d4-f3081c798265"},"vehicle_type_id":"4","last_reported":1734563343,"current_range_meters":14000,"station_id":"ce4bhe12rcd13ifvqf30","pricing_plan_id":"cebpf4jnsgd1na2vs0mg"},{"bike_id":"fb7b786c-e75a-4614-a95b-936a50736623","system_id":"levelo_inurba_marseille","lat":43.25573,"lon":5.38243,"is_reserved":false,"is_disabled":false,"rental_uris":{"android":"levelo://app?vid=fb7b786c-e75a-4614-a95b-936a50736623","ios":"levelo://app?vid=fb7b786c-e75a-4614-a95b-936a50736623"},"vehicle_type_id":"4","last_reported":1734563343,"current_range_meters":27600,"station_id":"ce4bhih2rcd13ifvqfs0","pricing_plan_id":"cebpf4jnsgd1na2vs0mg"},{"bike_id":"614ca12a-3413-46a7-8fd1-4e5043baf841","system_id":"levelo_inurba_marseille","lat":43.23188,"lon":5.39985,"is_reserved":false,"is_disabled":false,"rental_uris":{"android":"levelo://app?vid=614ca12a-3413-46a7-8fd1-4e5043baf841","ios":"levelo://app?vid=614ca12a-3413-46a7-8fd1-4e5043baf841"},"vehicle_type_id":"4","last_reported":1734563343,"current_range_meters":38800,"station_id":"ce4bhn12rcd13ifvqgqg","pricing_plan_id":"cebpf4jnsgd1na2vs0mg"},{"bike_id":"f1274513-2262-436f-9439-d4b463e1145d","system_id":"levelo_inurba_marseille","lat":43.311233,"lon":5.377812,"is_reserved":false,"is_disabled":false,"rental_uris":{"android":"levelo://app?vid=f1274513-2262-436f-9439-d4b463e1145d","ios":"levelo://app?vid=f1274513-2262-436f-9439-d4b463e1145d"},"vehicle_type_id":"4","last_reported":1734563343,"current_range_meters":8400,"station_id":"ce4bgt92rcd13ifvqcg0","pricing_plan_id":"cebpf4jnsgd1na2vs0mg"},{"bike_id":"c6fc1f35-949d-4dc4-925e-046f798f5cdb","system_id":"levelo_inurba_marseille","lat":43.30421,"lon":5.41287,"is_reserved":false,"is_disabled":false,"rental_uris":{"android":"levelo://app?vid=c6fc1f35-949d-4dc4-925e-046f798f5cdb","ios":"levelo://app?vid=c6fc1f35-949d-4dc4-925e-046f798f5cdb"},"vehicle_type_id":"4","last_reported":1734563343,"current_range_meters":27200,"station_id":"ce4bhop2rcd13ifvqh8g","pricing_plan_id":"cebpf4jnsgd1na2vs0mg"},{"bike_id":"507520f1-7828-401f-995b-0a7dd6c54633","system_id":"levelo_inurba_marseille","lat":43.28431,"lon":5.39175,"is_reserved":false,"is_disabled":false,"rental_uris":{"android":"levelo://app?vid=507520f1-7828-401f-995b-0a7dd6c54633","ios":"levelo://app?vid=507520f1-7828-401f-995b-0a7dd6c54633"},"vehicle_type_id":"4","last_reported":1734563343,"current_range_meters":36800,"station_id":"ce4bhoh2rcd13ifvqh5g","pricing_plan_id":"cebpf4jnsgd1na2vs0mg"},{"bike_id":"8816c9c1-e7d2-4a3b-8e5d-a954b3be0214","system_id":"levelo_inurba_marseille","lat":43.30805,"lon":5.43521,"is_reserved":false,"is_disabled":false,"rental_uris":{"android":"levelo://app?vid=8816c9c1-e7d2-4a3b-8e5d-a954b3be0214","ios":"levelo://app?vid=8816c9c1-e7d2-4a3b-8e5d-a954b3be0214"},"vehicle_type_id":"4","last_reported":1734563343,"current_range_meters":22000,"station_id":"ce4bhph2rcd13ifvqheg","pricing_plan_id":"cebpf4jnsgd1na2vs0mg"},{"bike_id":"c8399855-72d4-4f25-aa5a-52a18924a7b8","system_id":"levelo_inurba_marseille","lat":43.24164,"lon":5.36396,"is_reserved":false,"is_disabled":false,"rental_uris":{"android":"levelo://app?vid=c8399855-72d4-4f25-aa5a-52a18924a7b8","ios":"levelo://app?vid=c8399855-72d4-4f25-aa5a-52a18924a7b8"},"vehicle_type_id":"4","last_reported":1734563343,"current_range_meters":38800,"station_id":"cpo36qri1sfpv3e86is0","pricing_plan_id":"cebpf4jnsgd1na2vs0mg"},{"bike_id":"8c3881b2-83b9-49b7-b34c-7dada9b9af2d","system_id":"levelo_inurba_marseille","lat":43.30621,"lon":5.37188,"is_reserved":false,"is_disabled":false,"rental_uris":{"android":"levelo://app?vid=8c3881b2-83b9-49b7-b34c-7dada9b9af2d","ios":"levelo://app?vid=8c3881b2-83b9-49b7-b34c-7dada9b9af2d"},"vehicle_type_id":"4","last_reported":1734563343,"current_range_meters":38800,"station_id":"ce4bgqh2rcd13ifvqc4g","pricing_plan_id":"cebpf4jnsgd1na2vs0mg"},{"bike_id":"2ff1ceb7-5734-4bfd-ae65-4391f8ba9285","system_id":"levelo_inurba_marseille","lat":43.28667,"lon":5.36349,"is_reserved":false,"is_disabled":false,"rental_uris":{"android":"levelo://app?vid=2ff1ceb7-5734-4bfd-ae65-4391f8ba9285","ios":"levelo://app?vid=2ff1ceb7-5734-4bfd-ae65-4391f8ba9285"},"vehicle_type_id":"4","last_reported":1734563343,"current_range_meters":31200,"station_id":"ce4bhah2rcd13ifvqej0","pricing_plan_id":"cebpf4jnsgd1na2vs0mg"},{"bike_id":"ce227b36-292b-4d08-86a1-392affe1a046","system_id":"levelo_inurba_marseille","lat":43.29257,"lon":5.38435,"is_reserved":false,"is_disabled":true,"rental_uris":{"android":"levelo://app?vid=ce227b36-292b-4d08-86a1-392affe1a046","ios":"levelo://app?vid=ce227b36-292b-4d08-86a1-392affe1a046"},"vehicle_type_id":"4","last_reported":1734563343,"current_range_meters":6800,"station_id":"ce4bh692rcd13ifvqea0","pricing_plan_id":"cebpf4jnsgd1na2vs0mg"},{"bike_id":"c5aa0bd6-1618-41ab-a575-402eeb1785be","system_id":"levelo_inurba_marseille","lat":43.30289,"lon":5.39194,"is_reserved":false,"is_disabled":true,"rental_uris":{"android":"levelo://app?vid=c5aa0bd6-1618-41ab-a575-402eeb1785be","ios":"levelo://app?vid=c5aa0bd6-1618-41ab-a575-402eeb1785be"},"vehicle_type_id":"4","last_reported":1734563343,"current_range_meters":38400,"station_id":"ce4bgkh2rcd13ifvqbk0","pricing_plan_id":"cebpf4jnsgd1na2vs0mg"},{"bike_id":"9595912f-5a00-4b71-b5cd-7bfd1643509b","system_id":"levelo_inurba_marseille","lat":43.3025,"lon":5.40071,"is_reserved":false,"is_disabled":false,"rental_uris":{"android":"levelo://app?vid=9595912f-5a00-4b71-b5cd-7bfd1643509b","ios":"levelo://app?vid=9595912f-5a00-4b71-b5cd-7bfd1643509b"},"vehicle_type_id":"4","last_reported":1734563343,"current_range_meters":8000,"station_id":"ce4bgvh2rcd13ifvqcs0","pricing_plan_id":"cebpf4jnsgd1na2vs0mg"},{"bike_id":"149f6e59-92f2-4391-ad8d-a3c211e76bb2","system_id":"levelo_inurba_marseille","lat":43.23191,"lon":5.35536,"is_reserved":false,"is_disabled":false,"rental_uris":{"android":"levelo://app?vid=149f6e59-92f2-4391-ad8d-a3c211e76bb2","ios":"levelo://app?vid=149f6e59-92f2-4391-ad8d-a3c211e76bb2"},"vehicle_type_id":"4","last_reported":1734563343,"current_range_meters":38800,"station_id":"ce4bhu92rcd13ifvqi70","pricing_plan_id":"cebpf4jnsgd1na2vs0mg"},{"bike_id":"a4e960ac-517b-4b66-b9b3-f4cddd65e283","system_id":"levelo_inurba_marseille","lat":43.29005,"lon":5.3562,"is_reserved":false,"is_disabled":false,"rental_uris":{"android":"levelo://app?vid=a4e960ac-517b-4b66-b9b3-f4cddd65e283","ios":"levelo://app?vid=a4e960ac-517b-4b66-b9b3-f4cddd65e283"},"vehicle_type_id":"4","last_reported":1734563343,"current_range_meters":10000,"station_id":"ce4bhb92rcd13ifvqen0","pricing_plan_id":"cebpf4jnsgd1na2vs0mg"},{"bike_id":"c1da412c-fcd1-46b8-b01a-9fcfc90d5063","system_id":"levelo_inurba_marseille","lat":43.29436,"lon":5.39751,"is_reserved":false,"is_disabled":false,"rental_uris":{"android":"levelo://app?vid=c1da412c-fcd1-46b8-b01a-9fcfc90d5063","ios":"levelo://app?vid=c1da412c-fcd1-46b8-b01a-9fcfc90d5063"},"vehicle_type_id":"4","last_reported":1734563343,"current_range_meters":24800,"station_id":"ce4bh3h2rcd13ifvqdo0","pricing_plan_id":"cebpf4jnsgd1na2vs0mg"},{"bike_id":"254ea2fb-d253-4a79-8caf-9e8924646c83","system_id":"levelo_inurba_marseille","lat":43.2902,"lon":5.38626,"is_reserved":false,"is_disabled":false,"rental_uris":{"android":"levelo://app?vid=254ea2fb-d253-4a79-8caf-9e8924646c83","ios":"levelo://app?vid=254ea2fb-d253-4a79-8caf-9e8924646c83"},"vehicle_type_id":"4","last_reported":1734563343,"current_range_meters":35600,"station_id":"ce4bh4p2rcd13ifvqe0g","pricing_plan_id":"cebpf4jnsgd1na2vs0mg"},{"bike_id":"0964a333-009c-43df-a369-e7b7f1f82c22","system_id":"levelo_inurba_marseille","lat":43.30551,"lon":5.36723,"is_reserved":false,"is_disabled":true,"rental_uris":{"android":"levelo://app?vid=0964a333-009c-43df-a369-e7b7f1f82c22","ios":"levelo://app?vid=0964a333-009c-43df-a369-e7b7f1f82c22"},"vehicle_type_id":"4","last_reported":1734563343,"current_range_meters":27600,"station_id":"","pricing_plan_id":"cebpf4jnsgd1na2vs0mg"},{"bike_id":"4279e840-6b68-4a03-8fe9-c297fa18efdc","system_id":"levelo_inurba_marseille","lat":43.28927,"lon":5.36628,"is_reserved":false,"is_disabled":false,"rental_uris":{"android":"levelo://app?vid=4279e840-6b68-4a03-8fe9-c297fa18efdc","ios":"levelo://app?vid=4279e840-6b68-4a03-8fe9-c297fa18efdc"},"vehicle_type_id":"4","last_reported":1734563343,"current_range_meters":38800,"station_id":"ce4bhap2rcd13ifvqek0","pricing_plan_id":"cebpf4jnsgd1na2vs0mg"},{"bike_id":"25fbff89-a5d7-4935-bafe-3a7a2f605c5a","system_id":"levelo_inurba_marseille","lat":43.31187,"lon":5.38706,"is_reserved":false,"is_disabled":true,"rental_uris":{"android":"levelo://app?vid=25fbff89-a5d7-4935-bafe-3a7a2f605c5a","ios":"levelo://app?vid=25fbff89-a5d7-4935-bafe-3a7a2f605c5a"},"vehicle_type_id":"4","last_reported":1734563343,"current_range_meters":6400,"station_id":"ce4bgv12rcd13ifvqcp0","pricing_plan_id":"cebpf4jnsgd1na2vs0mg"},{"bike_id":"9d2aefec-f4a3-4a23-a13a-c09b46ffe2e4","system_id":"levelo_inurba_marseille","lat":43.31141,"lon":5.36704,"is_reserved":false,"is_disabled":false,"rental_uris":{"android":"levelo://app?vid=9d2aefec-f4a3-4a23-a13a-c09b46ffe2e4","ios":"levelo://app?vid=9d2aefec-f4a3-4a23-a13a-c09b46ffe2e4"},"vehicle_type_id":"4","last_reported":1734563343,"current_range_meters":35600,"station_id":"","pricing_plan_id":"cebpf4jnsgd1na2vs0mg"},{"bike_id":"8170dcc0-a284-4193-a71b-26ed32e95b55","system_id":"levelo_inurba_marseille","lat":43.2582,"lon":5.39426,"is_reserved":false,"is_disabled":false,"rental_uris":{"android":"levelo://app?vid=8170dcc0-a284-4193-a71b-26ed32e95b55","ios":"levelo://app?vid=8170dcc0-a284-4193-a71b-26ed32e95b55"},"vehicle_type_id":"4","last_reported":1734563343,"current_range_meters":23200,"station_id":"ce4bhip2rcd13ifvqft0","pricing_plan_id":"cebpf4jnsgd1na2vs0mg"},{"bike_id":"aa91cb57-ace7-4545-90f7-7e850bb96c2d","system_id":"levelo_inurba_marseille","lat":43.28614,"lon":5.37056,"is_reserved":false,"is_disabled":false,"rental_uris":{"android":"levelo://app?vid=aa91cb57-ace7-4545-90f7-7e850bb96c2d","ios":"levelo://app?vid=aa91cb57-ace7-4545-90f7-7e850bb96c2d"},"vehicle_type_id":"4","last_reported":1734563343,"current_range_meters":15200,"station_id":"ce4bht12rcd13ifvqi60","pricing_plan_id":"cebpf4jnsgd1na2vs0mg"},{"bike_id":"64a08bc4-6d19-4f85-ae2e-2d31dc10b485","system_id":"levelo_inurba_marseille","lat":43.28718,"lon":5.37945,"is_reserved":false,"is_disabled":false,"rental_uris":{"android":"levelo://app?vid=64a08bc4-6d19-4f85-ae2e-2d31dc10b485","ios":"levelo://app?vid=64a08bc4-6d19-4f85-ae2e-2d31dc10b485"},"vehicle_type_id":"4","last_reported":1734563343,"current_range_meters":36400,"station_id":"ce4bh9p2rcd13ifvqec0","pricing_plan_id":"cebpf4jnsgd1na2vs0mg"},{"bike_id":"41360683-0f69-4c62-8b87-4868ce57f8d5","system_id":"levelo_inurba_marseille","lat":43.31494,"lon":5.37302,"is_reserved":false,"is_disabled":false,"rental_uris":{"android":"levelo://app?vid=41360683-0f69-4c62-8b87-4868ce57f8d5","ios":"levelo://app?vid=41360683-0f69-4c62-8b87-4868ce57f8d5"},"vehicle_type_id":"4","last_reported":1734563343,"current_range_meters":8400,"station_id":"ce4bgt12rcd13ifvqcd0","pricing_plan_id":"cebpf4jnsgd1na2vs0mg"},{"bike_id":"c8ff0633-c7c0-4b79-9a35-09b7f45ed4c4","system_id":"levelo_inurba_marseille","lat":43.25575,"lon":5.38242,"is_reserved":false,"is_disabled":false,"rental_uris":{"android":"levelo://app?vid=c8ff0633-c7c0-4b79-9a35-09b7f45ed4c4","ios":"levelo://app?vid=c8ff0633-c7c0-4b79-9a35-09b7f45ed4c4"},"vehicle_type_id":"4","last_reported":1734563343,"current_range_meters":25200,"station_id":"ce4bhih2rcd13ifvqfs0","pricing_plan_id":"cebpf4jnsgd1na2vs0mg"},{"bike_id":"26312ccf-8c7f-4cef-9746-9e32e9db571f","system_id":"levelo_inurba_marseille","lat":43.33606,"lon":5.41014,"is_reserved":false,"is_disabled":false,"rental_uris":{"android":"levelo://app?vid=26312ccf-8c7f-4cef-9746-9e32e9db571f","ios":"levelo://app?vid=26312ccf-8c7f-4cef-9746-9e32e9db571f"},"vehicle_type_id":"4","last_reported":1734563343,"current_range_meters":11200,"station_id":"ce4bhqh2rcd13ifvqhmg","pricing_plan_id":"cebpf4jnsgd1na2vs0mg"},{"bike_id":"2f8de738-9cbb-45b9-9473-332b080b948c","system_id":"levelo_inurba_marseille","lat":43.28425,"lon":5.34988,"is_reserved":false,"is_disabled":false,"rental_uris":{"android":"levelo://app?vid=2f8de738-9cbb-45b9-9473-332b080b948c","ios":"levelo://app?vid=2f8de738-9cbb-45b9-9473-332b080b948c"},"vehicle_type_id":"4","last_reported":1734563343,"current_range_meters":38000,"station_id":"ce4bhbh2rcd13ifvqepg","pricing_plan_id":"cebpf4jnsgd1na2vs0mg"},{"bike_id":"07269333-f8a8-49c3-a816-e4a526f65b69","system_id":"levelo_inurba_marseille","lat":43.28857,"lon":5.35859,"is_reserved":false,"is_disabled":false,"rental_uris":{"android":"levelo://app?vid=07269333-f8a8-49c3-a816-e4a526f65b69","ios":"levelo://app?vid=07269333-f8a8-49c3-a816-e4a526f65b69"},