{"last_updated":1743412275,"ttl":60,"version":"2.2","data":{"bikes":[{"bike_id":"764a2c6e-9dc9-432c-8929-d3f563068ccf","system_id":"levelo_inurba_marseille","lat":43.26682,"lon":5.38267,"is_reserved":false,"is_disabled":false,"rental_uris":{"android":"levelo://app?vid=764a2c6e-9dc9-432c-8929-d3f563068ccf","ios":"levelo://app?vid=764a2c6e-9dc9-432c-8929-d3f563068ccf"},"vehicle_type_id":"4","last_reported":1743412275,"current_range_meters":2800,"station_id":"ce4bhg92rcd13ifvqf90","pricing_plan_id":"cebpf4jnsgd1na2vs0mg"},{"bike_id":"eff5a3c1-b8e0-4672-824c-1a6198385ba5","system_id":"levelo_inurba_marseille","lat":43.29591,"lon":5.38107,"is_reserved":false,"is_disabled":false,"rental_uris":{"android":"levelo://app?vid=eff5a3c1-b8e0-4672-824c-1a6198385ba5","ios":"levelo://app?vid=eff5a3c1-b8e0-4672-824c-1a6198385ba5"},"vehicle_type_id":"4","last_reported":1743412275,"current_range_meters":2800,"station_id":"ce4bgl12rcd13ifvqbo0","pricing_plan_id":"cebpf4jnsgd1na2vs0mg"},{"bike_id":"062d5019-b501-420c-b60c-adc32131aba5","system_id":"levelo_inurba_marseille","lat":43.30478,"lon":5.37901,"is_reserved":false,"is_disabled":false,"rental_uris":{"android":"levelo://app?vid=062d5019-b501-420c-b60c-adc32131aba5","ios":"levelo://app?vid=062d5019-b501-420c-b60c-adc32131aba5"},"vehicle_type_id":"4","last_reported":1743412275,"current_range_meters":2800,"station_id":"ce4bgup2rcd13ifvqcn0","pricing_plan_id":"cebpf4jnsgd1na2vs0mg"},{"bike_id":"8153698e-4899-4d9e-a83d-14196635a939","system_id":"levelo_inurba_marseille","lat":43.26776,"lon":5.39419,"is_reserved":false,"is_disabled":false,"rental_uris":{"android":"levelo://app?vid=8153698e-4899-4d9e-a83d-14196635a939","ios":"levelo://app?vid=8153698e-4899-4d9e-a83d-14196635a939"},"vehicle_type_id":"4","last_reported":1743412275,"current_range_meters":2800,"station_id":"ce4bhh12rcd13ifvqfg0","pricing_plan_id":"cebpf4jnsgd1na2vs0mg"},{"bike_id":"5a3307a6-54ca-44bc-a5fd-ab80751e6464","system_id":"levelo_inurba_marseille","lat":43.23197,"lon":5.40005,"is_reserved":false,"is_disabled":false,"rental_uris":{"android":"levelo://app?vid=5a3307a6-54ca-44bc-a5fd-ab80751e6464","ios":"levelo://app?vid=5a3307a6-54ca-44bc-a5fd-ab80751e6464"},"vehicle_type_id":"4","last_reported":1743412275,"current_range_meters":2800,"station_id":"ce4bhn12rcd13ifvqgqg","pricing_plan_id":"cebpf4jnsgd1na2vs0mg"},{"bike_id":"c0483858-f4d9-4fdd-8aee-dec0f230c9f3","system_id":"levelo_inurba_marseille","lat":43.27203,"lon":5.39185,"is_reserved":false,"is_disabled":false,"rental_uris":{"android":"levelo://app?vid=c0483858-f4d9-4fdd-8aee-dec0f230c9f3","ios":"levelo://app?vid=c0483858-f4d9-4fdd-8aee-dec0f230c9f3"},"vehicle_type_id":"4","last_reported":1743412275,"current_range_meters":2800,"station_id":"ce4bhhp2rcd13ifvqfm0","pricing_plan_id":"cebpf4jnsgd1na2vs0mg"},{"bike_id":"0c598790-15a5-4ca0-a4e2-b1b95dee2cab","system_id":"levelo_inurba_marseille","lat":43.30144,"lon":5.37418,"is_reserved":false,"is_disabled":false,"rental_uris":{"android":"levelo://app?vid=0c598790-15a5-4ca0-a4e2-b1b95dee2cab","ios":"levelo://app?vid=0c598790-15a5-4ca0-a4e2-b1b95dee2cab"},"vehicle_type_id":"4","last_reported":1743412275,"current_range_meters":2800,"station_id":"ce4bgs92rcd13ifvqcc0","pricing_plan_id":"cebpf4jnsgd1na2vs0mg"},{"bike_id":"32d5226d-1edd-4c38-971c-3282234764e7","system_id":"levelo_inurba_marseille","lat":43.284424,"lon":5.37487,"is_reserved":false,"is_disabled":false,"rental_uris":{"android":"levelo://app?vid=32d5226d-1edd-4c38-971c-3282234764e7","ios":"levelo://app?vid=32d5226d-1edd-4c38-971c-3282234764e7"},"vehicle_type_id":"4","last_reported":1743412275,"current_range_meters":3200,"station_id":"ce4bha92rcd13ifvqeh0","pricing_plan_id":"cebpf4jnsgd1na2vs0mg"},{"bike_id":"61431284-c02c-4dec-bde7-e2d1ed2f4fbb","system_id":"levelo_inurba_marseille","lat":43.29903,"lon":5.38135,"is_reserved":false,"is_disabled":false,"rental_uris":{"android":"levelo://app?vid=61431284-c02c-4dec-bde7-e2d1ed2f4fbb","ios":"levelo://app?vid=61431284-c02c-4dec-bde7-e2d1ed2f4fbb"},"vehicle_type_id":"4","last_reported":1743412275,"current_range_meters":3200,"station_id":"ce4bgj12rcd13ifvqbc0","pricing_plan_id":"cebpf4jnsgd1na2vs0mg"},{"bike_id":"c96086bb-0076-49bc-8b8a-4c7cd00f38c8","system_id":"levelo_inurba_marseille","lat":43.29854,"lon":5.36286,"is_reserved":false,"is_disabled":false,"rental_uris":{"android":"levelo://app?vid=c96086bb-0076-49bc-8b8a-4c7cd00f38c8","ios":"levelo://app?vid=c96086bb-0076-49bc-8b8a-4c7cd00f38c8"},"vehicle_type_id":"4","last_reported":1743412275,"current_range_meters":3200,"station_id":"ce4bgpp2rcd13ifvqc3g","pricing_plan_id":"cebpf4jnsgd1na2vs0mg"},{"bike_id":"b881150d-c4a2-4fcb-bf96-453847878523","system_id":"levelo_inurba_marseille","lat":43.30253,"lon":5.4003,"is_reserved":false,"is_disabled":false,"rental_uris":{"android":"levelo://app?vid=b881150d-c4a2-4fcb-bf96-453847878523","ios":"levelo://app?vid=b881150d-c4a2-4fcb-bf96-453847878523"},"vehicle_type_id":"4","last_reported":1743412275,"current_range_meters":3200,"station_id":"ce4bgvh2rcd13ifvqcs0","pricing_plan_id":"cebpf4jnsgd1na2vs0mg"},{"bike_id":"969d048d-388b-4fc5-852f-ea9c4e12999d","system_id":"levelo_inurba_marseille","lat":43.29867,"lon":5.39725,"is_reserved":false,"is_disabled":false,"rental_uris":{"android":"levelo://app?vid=969d048d-388b-4fc5-852f-ea9c4e12999d","ios":"levelo://app?vid=969d048d-388b-4fc5-852f-ea9c4e12999d"},"vehicle_type_id":"4","last_reported":1743412275,"current_range_meters":3200,"station_id":"ce4bh0h2rcd13ifvqd50","pricing_plan_id":"cebpf4jnsgd1na2vs0mg"},{"bike_id":"ea786065-4ef5-493c-9091-ea4c0c30465b","system_id":"levelo_inurba_marseille","lat":43.24169,"lon":5.36399,"is_reserved":false,"is_disabled":false,"rental_uris":{"android":"levelo://app?vid=ea786065-4ef5-493c-9091-ea4c0c30465b","ios":"levelo://app?vid=ea786065-4ef5-493c-9091-ea4c0c30465b"},"vehicle_type_id":"4","last_reported":1743412275,"current_range_meters":3200,"station_id":"cpo36qri1sfpv3e86is0","pricing_plan_id":"cebpf4jnsgd1na2vs0mg"},{"bike_id":"6888bb73-fddc-4bb3-93a5-c7f3f806af36","system_id":"levelo_inurba_marseille","lat":43.26948,"lon":5.38646,"is_reserved":false,"is_disabled":false,"rental_uris":{"android":"levelo://app?vid=6888bb73-fddc-4bb3-93a5-c7f3f806af36","ios":"levelo://app?vid=6888bb73-fddc-4bb3-93a5-c7f3f806af36"},"vehicle_type_id":"4","last_reported":1743412275,"current_range_meters":3200,"station_id":"ce4bhh92rcd13ifvqfh0","pricing_plan_id":"cebpf4jnsgd1na2vs0mg"},{"bike_id":"0495aac0-4dc9-4278-bcb6-7440702196aa","system_id":"levelo_inurba_marseille","lat":43.24171,"lon":5.39723,"is_reserved":false,"is_disabled":false,"rental_uris":{"android":"levelo://app?vid=0495aac0-4dc9-4278-bcb6-7440702196aa","ios":"levelo://app?vid=0495aac0-4dc9-4278-bcb6-7440702196aa"},"vehicle_type_id":"4","last_reported":1743412275,"current_range_meters":3600,"station_id":"ce4bhn12rcd13ifvqgpg","pricing_plan_id":"cebpf4jnsgd1na2vs0mg"},{"bike_id":"600d1793-7ae8-4551-912a-e06aff246332","system_id":"levelo_inurba_marseille","lat":43.31267,"lon":5.40161,"is_reserved":false,"is_disabled":false,"rental_uris":{"android":"levelo://app?vid=600d1793-7ae8-4551-912a-e06aff246332","ios":"levelo://app?vid=600d1793-7ae8-4551-912a-e06aff246332"},"vehicle_type_id":"4","last_reported":1743412275,"current_range_meters":3600,"station_id":"ce4bh092rcd13ifvqd30","pricing_plan_id":"cebpf4jnsgd1na2vs0mg"},{"bike_id":"96ac20e8-5840-4579-b371-184ec6253952","system_id":"levelo_inurba_marseille","lat":43.27491,"lon":5.41137,"is_reserved":false,"is_disabled":false,"rental_uris":{"android":"levelo://app?vid=96ac20e8-5840-4579-b371-184ec6253952","ios":"levelo://app?vid=96ac20e8-5840-4579-b371-184ec6253952"},"vehicle_type_id":"4","last_reported":1743412275,"current_range_meters":4000,"station_id":"","pricing_plan_id":"cebpf4jnsgd1na2vs0mg"},{"bike_id":"37f41d5f-3983-4db2-8781-c345307ed7b9","system_id":"levelo_inurba_marseille","lat":43.27488,"lon":5.42445,"is_reserved":false,"is_disabled":true,"rental_uris":{"android":"levelo://app?vid=37f41d5f-3983-4db2-8781-c345307ed7b9","ios":"levelo://app?vid=37f41d5f-3983-4db2-8781-c345307ed7b9"},"vehicle_type_id":"4","last_reported":1743412275,"current_range_meters":4000,"station_id":"ce4bhn92rcd13ifvqgrg","pricing_plan_id":"cebpf4jnsgd1na2vs0mg"},{"bike_id":"fa66c603-f3a5-4976-bdd6-c59e6696fe23","system_id":"levelo_inurba_marseille","lat":43.30159,"lon":5.38096,"is_reserved":false,"is_disabled":true,"rental_uris":{"android":"levelo://app?vid=fa66c603-f3a5-4976-bdd6-c59e6696fe23","ios":"levelo://app?vid=fa66c603-f3a5-4976-bdd6-c59e6696fe23"},"vehicle_type_id":"4","last_reported":1743412275,"current_range_meters":4400,"station_id":"ce4bgjp2rcd13ifvqbh0","pricing_plan_id":"cebpf4jnsgd1na2vs0mg"},{"bike_id":"7ceaae97-1621-40ef-94e7-1152c40c5f98","system_id":"levelo_inurba_marseille","lat":43.28002,"lon":5.38789,"is_reserved":false,"is_disabled":false,"rental_uris":{"android":"levelo://app?vid=7ceaae97-1621-40ef-94e7-1152c40c5f98","ios":"levelo://app?vid=7ceaae97-1621-40ef-94e7-1152c40c5f98"},"vehicle_type_id":"4","last_reported":1743412275,"current_range_meters":4400,"station_id":"ce4bhg12rcd13ifvqf80","pricing_plan_id":"cebpf4jnsgd1na2vs0mg"},{"bike_id":"e37745d3-0454-4e90-a100-c016315534d5","system_id":"levelo_inurba_marseille","lat":43.24081,"lon":5.37729,"is_reserved":false,"is_disabled":true,"rental_uris":{"android":"levelo://app?vid=e37745d3-0454-4e90-a100-c016315534d5","ios":"levelo://app?vid=e37745d3-0454-4e90-a100-c016315534d5"},"vehicle_type_id":"4","last_reported":1743412275,"current_range_meters":4400,"station_id":"ce4bhnp2rcd13ifvqgvg","pricing_plan_id":"cebpf4jnsgd1na2vs0mg"},{"bike_id":"488767ae-a52a-41d7-8f9a-e947164469f3","system_id":"levelo_inurba_marseille","lat":43.31624,"lon":5.41652,"is_reserved":false,"is_disabled":true,"rental_uris":{"android":"levelo://app?vid=488767ae-a52a-41d7-8f9a-e947164469f3","ios":"levelo://app?vid=488767ae-a52a-41d7-8f9a-e947164469f3"},"vehicle_type_id":"4","last_reported":1743412275,"current_range_meters":4400,"station_id":"","pricing_plan_id":"cebpf4jnsgd1na2vs0mg"},{"bike_id":"2347dd45-7dbc-492b-9fef-21927ca890d6","system_id":"levelo_inurba_marseille","lat":43.24064,"lon":5.37756,"is_reserved":false,"is_disabled":false,"rental_uris":{"android":"levelo://app?vid=2347dd45-7dbc-492b-9fef-21927ca890d6","ios":"levelo://app?vid=2347dd45-7dbc-492b-9fef-21927ca890d6"},"vehicle_type_id":"4","last_reported":1743412275,"current_range_meters":4400,"station_id":"ce4bhnp2rcd13ifvqgvg","pricing_plan_id":"cebpf4jnsgd1na2vs0mg"},{"bike_id":"42bc7b23-0e2f-4d72-b583-40bcdabb28c7","system_id":"levelo_inurba_marseille","lat":43.29543,"lon":5.3738,"is_reserved":false,"is_disabled":true,"rental_uris":{"android":"levelo://app?vid=42bc7b23-0e2f-4d72-b583-40bcdabb28c7","ios":"levelo://app?vid=42bc7b23-0e2f-4d72-b583-40bcdabb28c7"},"vehicle_type_id":"4","last_reported":1743412275,"current_range_meters":4800,"station_id":"","pricing_plan_id":"cebpf4jnsgd1na2vs0mg"},{"bike_id":"74bffd4c-1aa6-4724-b360-27d8378b7452","system_id":"levelo_inurba_marseille","lat":43.23148,"lon":5.43718,"is_reserved":false,"is_disabled":false,"rental_uris":{"android":"levelo://app?vid=74bffd4c-1aa6-4724-b360-27d8378b7452","ios":"levelo://app?vid=74bffd4c-1aa6-4724-b360-27d8378b7452"},"vehicle_type_id":"4","last_reported":1743412275,"current_range_meters":4800,"station_id":"ce4bhmp2rcd13ifvqgog","pricing_plan_id":"cebpf4jnsgd1na2vs0mg"},{"bike_id":"9c1dfc0b-3761-45a0-8fb7-0c92b782b422","system_id":"levelo_inurba_marseille","lat":43.30798,"lon":5.3814,"is_reserved":false,"is_disabled":false,"rental_uris":{"android":"levelo://app?vid=9c1dfc0b-3761-45a0-8fb7-0c92b782b422","ios":"levelo://app?vid=9c1dfc0b-3761-45a0-8fb7-0c92b782b422"},"vehicle_type_id":"4","last_reported":1743412275,"current_range_meters":4800,"station_id":"ce4bgt12rcd13ifvqce0","pricing_plan_id":"cebpf4jnsgd1na2vs0mg"},{"bike_id":"d0ed36b4-3c5a-4da6-8fb4-955c321dd03a","system_id":"levelo_inurba_marseille","lat":43.2753,"lon":5.41012,"is_reserved":false,"is_disabled":false,"rental_uris":{"android":"levelo://app?vid=d0ed36b4-3c5a-4da6-8fb4-955c321dd03a","ios":"levelo://app?vid=d0ed36b4-3c5a-4da6-8fb4-955c321dd03a"},"vehicle_type_id":"4","last_reported":1743412275,"current_range_meters":5600,"station_id":"","pricing_plan_id":"cebpf4jnsgd1na2vs0mg"},{"bike_id":"d30569fb-0935-4b72-9c30-dd645a8607ea","system_id":"levelo_inurba_marseille","lat":43.28436,"lon":5.34975,"is_reserved":false,"is_disabled":true,"rental_uris":{"android":"levelo://app?vid=d30569fb-0935-4b72-9c30-dd645a8607ea","ios":"levelo://app?vid=d30569fb-0935-4b72-9c30-dd645a8607ea"},"vehicle_type_id":"4","last_reported":1743412275,"current_range_meters":5600,"station_id":"ce4bhbh2rcd13ifvqepg","pricing_plan_id":"cebpf4jnsgd1na2vs0mg"},{"bike_id":"2ed823ea-56ec-4fcc-a476-724ccb8998c8","system_id":"levelo_inurba_marseille","lat":43.27323,"lon":5.39084,"is_reserved":false,"is_disabled":false,"rental_uris":{"android":"levelo://app?vid=2ed823ea-56ec-4fcc-a476-724ccb8998c8","ios":"levelo://app?vid=2ed823ea-56ec-4fcc-a476-724ccb8998c8"},"vehicle_type_id":"4","last_reported":1743412275,"current_range_meters":5600,"station_id":"ce4bhgp2rcd13ifvqfe0","pricing_plan_id":"cebpf4jnsgd1na2vs0mg"},{"bike_id":"09652dc6-223f-491a-a1ce-7f1a323d102e","system_id":"levelo_inurba_marseille","lat":43.30548,"lon":5.36521,"is_reserved":false,"is_disabled":false,"rental_uris":{"android":"levelo://app?vid=09652dc6-223f-491a-a1ce-7f1a323d102e","ios":"levelo://app?vid=09652dc6-223f-491a-a1ce-7f1a323d102e"},"vehicle_type_id":"4","last_reported":1743412275,"current_range_meters":6000,"station_id":"ce4bgs12rcd13ifvqcag","pricing_plan_id":"cebpf4jnsgd1na2vs0mg"},{"bike_id":"3d559752-4124-4304-bce2-0b863e5a6dbe","system_id":"levelo_inurba_marseille","lat":43.25718,"lon":5.41101,"is_reserved":false,"is_disabled":false,"rental_uris":{"android":"levelo://app?vid=3d559752-4124-4304-bce2-0b863e5a6dbe","ios":"levelo://app?vid=3d559752-4124-4304-bce2-0b863e5a6dbe"},"vehicle_type_id":"4","last_reported":1743412275,"current_range_meters":6000,"station_id":"ce4bhkp2rcd13ifvqgd0","pricing_plan_id":"cebpf4jnsgd1na2vs0mg"},{"bike_id":"a35cb2c7-6538-407a-9bde-301eaef9ca65","system_id":"levelo_inurba_marseille","lat":43.30303,"lon":5.39212,"is_reserved":false,"is_disabled":false,"rental_uris":{"android":"levelo://app?vid=a35cb2c7-6538-407a-9bde-301eaef9ca65","ios":"levelo://app?vid=a35cb2c7-6538-407a-9bde-301eaef9ca65"},"vehicle_type_id":"4","last_reported":1743412275,"current_range_meters":6000,"station_id":"ce4bgkh2rcd13ifvqbk0","pricing_plan_id":"cebpf4jnsgd1na2vs0mg"},{"bike_id":"8c01b583-3164-4f82-8804-8c5644c3dc71","system_id":"levelo_inurba_marseille","lat":43.29032,"lon":5.375565,"is_reserved":false,"is_disabled":false,"rental_uris":{"android":"levelo://app?vid=8c01b583-3164-4f82-8804-8c5644c3dc71","ios":"levelo://app?vid=8c01b583-3164-4f82-8804-8c5644c3dc71"},"vehicle_type_id":"4","last_reported":1743412275,"current_range_meters":6400,"station_id":"ce4bh692rcd13ifvqe90","pricing_plan_id":"cebpf4jnsgd1na2vs0mg"},{"bike_id":"36438f87-de35-42e6-84d1-312e6a8359ec","system_id":"levelo_inurba_marseille","lat":43.24189,"lon":5.39714,"is_reserved":false,"is_disabled":false,"rental_uris":{"android":"levelo://app?vid=36438f87-de35-42e6-84d1-312e6a8359ec","ios":"levelo://app?vid=36438f87-de35-42e6-84d1-312e6a8359ec"},"vehicle_type_id":"4","last_reported":1743412275,"current_range_meters":6400,"station_id":"ce4bhn12rcd13ifvqgpg","pricing_plan_id":"cebpf4jnsgd1na2vs0mg"},{"bike_id":"cd47a532-ac9d-4425-938c-86f1480a3bdf","system_id":"levelo_inurba_marseille","lat":43.29518,"lon":5.39039,"is_reserved":false,"is_disabled":false,"rental_uris":{"android":"levelo://app?vid=cd47a532-ac9d-4425-938c-86f1480a3bdf","ios":"levelo://app?vid=cd47a532-ac9d-4425-938c-86f1480a3bdf"},"vehicle_type_id":"4","last_reported":1743412275,"current_range_meters":6400,"station_id":"ce4bh3p2rcd13ifvqdp0","pricing_plan_id":"cebpf4jnsgd1na2vs0mg"},{"bike_id":"81ca7ad4-111c-41a1-8523-4f9c68c95487","system_id":"levelo_inurba_marseille","lat":43.27976,"lon":5.41047,"is_reserved":false,"is_disabled":true,"rental_uris":{"android":"levelo://app?vid=81ca7ad4-111c-41a1-8523-4f9c68c95487","ios":"levelo://app?vid=81ca7ad4-111c-41a1-8523-4f9c68c95487"},"vehicle_type_id":"4","last_reported":1743412275,"current_range_meters":6400,"station_id":"ce4bhnp2rcd13ifvqh0g","pricing_plan_id":"cebpf4jnsgd1na2vs0mg"},{"bike_id":"bc1ef0c2-17d8-427e-a10c-9b9658a85853","system_id":"levelo_inurba_marseille","lat":43.24177,"lon":5.39721,"is_reserved":false,"is_disabled":true,"rental_uris":{"android":"levelo://app?vid=bc1ef0c2-17d8-427e-a10c-9b9658a85853","ios":"levelo://app?vid=bc1ef0c2-17d8-427e-a10c-9b9658a85853"},"vehicle_type_id":"4","last_reported":1743412275,"current_range_meters":6400,"station_id":"ce4bhn12rcd13ifvqgpg","pricing_plan_id":"cebpf4jnsgd1na2vs0mg"},{"bike_id":"62811a8c-a5ee-4b0e-992d-ff97db10838b","system_id":"levelo_inurba_marseille","lat":43.30149,"lon":5.3808,"is_reserved":false,"is_disabled":false,"rental_uris":{"android":"levelo://app?vid=62811a8c-a5ee-4b0e-992d-ff97db10838b","ios":"levelo://app?vid=62811a8c-a5ee-4b0e-992d-ff97db10838b"},"vehicle_type_id":"4","last_reported":1743412275,"current_range_meters":6400,"station_id":"ce4bgjp2rcd13ifvqbh0","pricing_plan_id":"cebpf4jnsgd1na2vs0mg"},{"bike_id":"93b55f3d-b1dd-4f3f-b1f6-f78029e736da","system_id":"levelo_inurba_marseille","lat":43.2316,"lon":5.43698,"is_reserved":false,"is_disabled":false,"rental_uris":{"android":"levelo://app?vid=93b55f3d-b1dd-4f3f-b1f6-f78029e736da","ios":"levelo://app?vid=93b55f3d-b1dd-4f3f-b1f6-f78029e736da"},"vehicle_type_id":"4","last_reported":1743412275,"current_range_meters":6800,"station_id":"ce4bhmp2rcd13ifvqgog","pricing_plan_id":"cebpf4jnsgd1na2vs0mg"},{"bike_id":"e9439579-aacc-4f58-8255-700d7c43a25a","system_id":"levelo_inurba_marseille","lat":43.304667,"lon":5.379063,"is_reserved":false,"is_disabled":false,"rental_uris":{"android":"levelo://app?vid=e9439579-aacc-4f58-8255-700d7c43a25a","ios":"levelo://app?vid=e9439579-aacc-4f58-8255-700d7c43a25a"},"vehicle_type_id":"4","last_reported":1743412275,"current_range_meters":6800,"station_id":"ce4bgup2rcd13ifvqcn0","pricing_plan_id":"cebpf4jnsgd1na2vs0mg"},{"bike_id":"76d4ed16-8625-4a14-a5f1-d28ac2574c13","system_id":"levelo_inurba_marseille","lat":43.24534,"lon":5.39529,"is_reserved":false,"is_disabled":false,"rental_uris":{"android":"levelo://app?vid=76d4ed16-8625-4a14-a5f1-d28ac2574c13","ios":"levelo://app?vid=76d4ed16-8625-4a14-a5f1-d28ac2574c13"},"vehicle_type_id":"4","last_reported":1743412275,"current_range_meters":6800,"station_id":"ce4bhlp2rcd13ifvqgjg","pricing_plan_id":"cebpf4jnsgd1na2vs0mg"},{"bike_id":"6abfcf76-b46b-48ec-9741-222295465860","system_id":"levelo_inurba_marseille","lat":43.28605,"lon":5.37068,"is_reserved":false,"is_disabled":false,"rental_uris":{"android":"levelo://app?vid=6abfcf76-b46b-48ec-9741-222295465860","ios":"levelo://app?vid=6abfcf76-b46b-48ec-9741-222295465860"},"vehicle_type_id":"4","last_reported":1743412275,"current_range_meters":6800,"station_id":"ce4bh312rcd13ifvqdj0","pricing_plan_id":"cebpf4jnsgd1na2vs0mg"},{"bike_id":"d9099e9a-b19d-4175-a73e-dd7958ed92e0","system_id":"levelo_inurba_marseille","lat":43.2306,"lon":5.35505,"is_reserved":false,"is_disabled":false,"rental_uris":{"android":"levelo://app?vid=d9099e9a-b19d-4175-a73e-dd7958ed92e0","ios":"levelo://app?vid=d9099e9a-b19d-4175-a73e-dd7958ed92e0"},"vehicle_type_id":"4","last_reported":1743412275,"current_range_meters":6800,"station_id":"cpo3342slgdg3j2ifvpg","pricing_plan_id":"cebpf4jnsgd1na2vs0mg"},{"bike_id":"8485fb1d-2487-4474-b5db-e8965014aab2","system_id":"levelo_inurba_marseille","lat":43.25014,"lon":5.38981,"is_reserved":false,"is_disabled":false,"rental_uris":{"android":"levelo://app?vid=8485fb1d-2487-4474-b5db-e8965014aab2","ios":"levelo://app?vid=8485fb1d-2487-4474-b5db-e8965014aab2"},"vehicle_type_id":"4","last_reported":1743412275,"current_range_meters":6800,"station_id":"","pricing_plan_id":"cebpf4jnsgd1na2vs0mg"},{"bike_id":"fb5a3640-c2bd-4d5a-a532-631ac7449c3d","system_id":"levelo_inurba_marseille","lat":43.27993,"lon":5.40923,"is_reserved":false,"is_disabled":false,"rental_uris":{"android":"levelo://app?vid=fb5a3640-c2bd-4d5a-a532-631ac7449c3d","ios":"levelo://app?vid=fb5a3640-c2bd-4d5a-a532-631ac7449c3d"},"vehicle_type_id":"4","last_reported":1743412275,"current_range_meters":6800,"station_id":"","pricing_plan_id":"cebpf4jnsgd1na2vs0mg"},{"bike_id":"26febead-b7d3-4531-87e0-18f41eca5408","system_id":"levelo_inurba_marseille","lat":43.29851,"lon":5.36275,"is_reserved":false,"is_disabled":false,"rental_uris":{"android":"levelo://app?vid=26febead-b7d3-4531-87e0-18f41eca5408","ios":"levelo://app?vid=26febead-b7d3-4531-87e0-18f41eca5408"},"vehicle_type_id":"4","last_reported":1743412275,"current_range_meters":6800,"station_id":"ce4bgpp2rcd13ifvqc3g","pricing_plan_id":"cebpf4jnsgd1na2vs0mg"},{"bike_id":"82d8e203-da64-466b-9b1d-e9f0a9bfebfe","system_id":"levelo_inurba_marseille","lat":43.32537,"lon":5.41445,"is_reserved":false,"is_disabled":true,"rental_uris":{"android":"levelo://app?vid=82d8e203-da64-466b-9b1d-e9f0a9bfebfe","ios":"levelo://app?vid=82d8e203-da64-466b-9b1d-e9f0a9bfebfe"},"vehicle_type_id":"4","last_reported":1743412275,"current_range_meters":7200,"station_id":"ce4bhq12rcd13ifvqhhg","pricing_plan_id":"cebpf4jnsgd1na2vs0mg"},{"bike_id":"e3766b0a-8ec0-4957-abb0-cf2b6ccb6a9c","system_id":"levelo_inurba_marseille","lat":43.29525,"lon":5.39049,"is_reserved":false,"is_disabled":false,"rental_uris":{"android":"levelo://app?vid=e3766b0a-8ec0-4957-abb0-cf2b6ccb6a9c","ios":"levelo://app?vid=e3766b0a-8ec0-4957-abb0-cf2b6ccb6a9c"},"vehicle_type_id":"4","last_reported":1743412275,"current_range_meters":7200,"station_id":"ce4bh3p2rcd13ifvqdp0","pricing_plan_id":"cebpf4jnsgd1na2vs0mg"},{"bike_id":"93944404-6abd-41a8-a24d-27485090d68c","system_id":"levelo_inurba_marseille","lat":43.25728,"lon":5.4111,"is_reserved":false,"is_disabled":false,"rental_uris":{"android":"levelo://app?vid=93944404-6abd-41a8-a24d-27485090d68c","ios":"levelo://app?vid=93944404-6abd-41a8-a24d-27485090d68c"},"vehicle_type_id":"4","last_reported":1743412275,"current_range_meters":7200,"station_id":"ce4bhkp2rcd13ifvqgd0","pricing_plan_id":"cebpf4jnsgd1na2vs0mg"},{"bike_id":"54c84428-af22-4e0d-9bea-3095a198f30e","system_id":"levelo_inurba_marseille","lat":43.30322,"lon":5.37688,"is_reserved":false,"is_disabled":false,"rental_uris":{"android":"levelo://app?vid=54c84428-af22-4e0d-9bea-3095a198f30e","ios":"levelo://app?vid=54c84428-af22-4e0d-9bea-3095a198f30e"},"vehicle_type_id":"4","last_reported":1743412275,"current_range_meters":7200,"station_id":"ce4bguh2rcd13ifvqcj0","pricing_plan_id":"cebpf4jnsgd1na2vs0mg"},{"bike_id":"491c4556-3e22-4f40-92ff-c55e9dcf07bb","system_id":"levelo_inurba_marseille","lat":43.30556,"lon":5.36543,"is_reserved":false,"is_disabled":false,"rental_uris":{"android":"levelo://app?vid=491c4556-3e22-4f40-92ff-c55e9dcf07bb","ios":"levelo://app?vid=491c4556-3e22-4f40-92ff-c55e9dcf07bb"},"vehicle_type_id":"4","last_reported":1743412275,"current_range_meters":7200,"station_id":"ce4bgs12rcd13ifvqcag","pricing_plan_id":"cebpf4jnsgd1na2vs0mg"},{"bike_id":"33a2857d-fc02-4112-94e5-d394d3d364f0","system_id":"levelo_inurba_marseille","lat":43.31248,"lon":5.36886,"is_reserved":false,"is_disabled":false,"rental_uris":{"android":"levelo://app?vid=33a2857d-fc02-4112-94e5-d394d3d364f0","ios":"levelo://app?vid=33a2857d-fc02-4112-94e5-d394d3d364f0"},"vehicle_type_id":"4","last_reported":1743412275,"current_range_meters":7200,"station_id":"ce4bgl92rcd13ifvqbq0","pricing_plan_id":"cebpf4jnsgd1na2vs0mg"},{"bike_id":"2201fb24-281b-488f-b78d-a2cece1a8ca9","system_id":"levelo_inurba_marseille","lat":43.30527,"lon":5.36493,"is_reserved":false,"is_disabled":false,"rental_uris":{"android":"levelo://app?vid=2201fb24-281b-488f-b78d-a2cece1a8ca9","ios":"levelo://app?vid=2201fb24-281b-488f-b78d-a2cece1a8ca9"},"vehicle_type_id":"4","last_reported":1743412275,"current_range_meters":7200,"station_id":"ce4bgs12rcd13ifvqcag","pricing_plan_id":"cebpf4jnsgd1na2vs0mg"},{"bike_id":"a784eb99-6d00-4af8-9248-060a6dea3440","system_id":"levelo_inurba_marseille","lat":43.24091,"lon":5.37793,"is_reserved":false,"is_disabled":false,"rental_uris":{"android":"levelo://app?vid=a784eb99-6d00-4af8-9248-060a6dea3440","ios":"levelo://app?vid=a784eb99-6d00-4af8-9248-060a6dea3440"},"vehicle_type_id":"4","last_reported":1743412275,"current_range_meters":7200,"station_id":"ce4bhnp2rcd13ifvqgvg","pricing_plan_id":"cebpf4jnsgd1na2vs0mg"},{"bike_id":"3273acfd-4654-40df-a5d8-8f5e02cd99fe","system_id":"levelo_inurba_marseille","lat":43.25727,"lon":5.41108,"is_reserved":false,"is_disabled":false,"rental_uris":{"android":"levelo://app?vid=3273acfd-4654-40df-a5d8-8f5e02cd99fe","ios":"levelo://app?vid=3273acfd-4654-40df-a5d8-8f5e02cd99fe"},"vehicle_type_id":"4","last_reported":1743412275,"current_range_meters":7200,"station_id":"ce4bhkp2rcd13ifvqgd0","pricing_plan_id":"cebpf4jnsgd1na2vs0mg"},{"bike_id":"4dd45f49-d275-4d2d-b375-f5f9b3521828","system_id":"levelo_inurba_marseille","lat":43.292653,"lon":5.376223,"is_reserved":false,"is_disabled":false,"rental_uris":{"android":"levelo://app?vid=4dd45f49-d275-4d2d-b375-f5f9b3521828","ios":"levelo://app?vid=4dd45f49-d275-4d2d-b375-f5f9b3521828"},"vehicle_type_id":"4","last_reported":1743412275,"current_range_meters":7200,"station_id":"ce4bgi12rcd13ifvqb80","pricing_plan_id":"cebpf4jnsgd1na2vs0mg"},{"bike_id":"0a1ae682-1f0e-4453-a6f1-f229b4054c7e","system_id":"levelo_inurba_marseille","lat":43.27494,"lon":5.42452,"is_reserved":false,"is_disabled":false,"rental_uris":{"android":"levelo://app?vid=0a1ae682-1f0e-4453-a6f1-f229b4054c7e","ios":"levelo://app?vid=0a1ae682-1f0e-4453-a6f1-f229b4054c7e"},"vehicle_type_id":"4","last_reported":1743412275,"current_range_meters":7200,"station_id":"ce4bhn92rcd13ifvqgrg","pricing_plan_id":"cebpf4jnsgd1na2vs0mg"},{"bike_id":"509fb611-063c-4fc4-aff2-e584985b7674","system_id":"levelo_inurba_marseille","lat":43.29043,"lon":5.40035,"is_reserved":false,"is_disabled":false,"rental_uris":{"android":"levelo://app?vid=509fb611-063c-4fc4-aff2-e584985b7674","ios":"levelo://app?vid=509fb611-063c-4fc4-aff2-e584985b7674"},"vehicle_type_id":"4","last_reported":1743412275,"current_range_meters":7200,"station_id":"ce4bh392rcd13ifvqdm0","pricing_plan_id":"cebpf4jnsgd1na2vs0mg"},{"bike_id":"fbcf06f7-867c-44b2-a761-bc1b7493e569","system_id":"levelo_inurba_marseille","lat":43.28486,"lon":5.38414,"is_reserved":false,"is_disabled":false,"rental_uris":{"android":"levelo://app?vid=fbcf06f7-867c-44b2-a761-bc1b7493e569","ios":"levelo://app?vid=fbcf06f7-867c-44b2-a761-bc1b7493e569"},"vehicle_type_id":"4","last_reported":1743412275,"current_range_meters":8000,"station_id":"ce4bh512rcd13ifvqe3g","pricing_plan_id":"cebpf4jnsgd1na2vs0mg"},{"bike_id":"ad69a03a-aff8-4dc6-9147-0b8ba3258643","system_id":"levelo_inurba_marseille","lat":43.26569,"lon":5.39004,"is_reserved":false,"is_disabled":false,"rental_uris":{"android":"levelo://app?vid=ad69a03a-aff8-4dc6-9147-0b8ba3258643","ios":"levelo://app?vid=ad69a03a-aff8-4dc6-9147-0b8ba3258643"},"vehicle_type_id":"4","last_reported":1743412275,"current_range_meters":8000,"station_id":"ce4bhe12rcd13ifvqf30","pricing_plan_id":"cebpf4jnsgd1na2vs0mg"},{"bike_id":"0b5abddd-5097-49db-978a-f9f5a1d42236","system_id":"levelo_inurba_marseille","lat":43.30927,"lon":5.36872,"is_reserved":false,"is_disabled":false,"rental_uris":{"android":"levelo://app?vid=0b5abddd-5097-49db-978a-f9f5a1d42236","ios":"levelo://app?vid=0b5abddd-5097-49db-978a-f9f5a1d42236"},"vehicle_type_id":"4","last_reported":1743412275,"current_range_meters":8000,"station_id":"ce4bgn92rcd13ifvqbvg","pricing_plan_id":"cebpf4jnsgd1na2vs0mg"},{"bike_id":"602e77af-f6b1-4336-9777-c64792b0b9dd","system_id":"levelo_inurba_marseille","lat":43.22923,"lon":5.35339,"is_reserved":false,"is_disabled":false,"rental_uris":{"android":"levelo://app?vid=602e77af-f6b1-4336-9777-c64792b0b9dd","ios":"levelo://app?vid=602e77af-f6b1-4336-9777-c64792b0b9dd"},"vehicle_type_id":"4","last_reported":1743412275,"current_range_meters":8000,"station_id":"cpo3532slgdg3j2ikp40","pricing_plan_id":"cebpf4jnsgd1na2vs0mg"},{"bike_id":"6247c28d-0a34-41c7-9471-bb04478d2bc9","system_id":"levelo_inurba_marseille","lat":43.29268,"lon":5.3763,"is_reserved":false,"is_disabled":false,"rental_uris":{"android":"levelo://app?vid=6247c28d-0a34-41c7-9471-bb04478d2bc9","ios":"levelo://app?vid=6247c28d-0a34-41c7-9471-bb04478d2bc9"},"vehicle_type_id":"4","last_reported":1743412275,"current_range_meters":8000,"station_id":"ce4bgi12rcd13ifvqb80","pricing_plan_id":"cebpf4jnsgd1na2vs0mg"},{"bike_id":"cb8c9ca5-9083-4e86-9e9f-2bc245af5095","system_id":"levelo_inurba_marseille","lat":43.28395,"lon":5.37539,"is_reserved":false,"is_disabled":true,"rental_uris":{"android":"levelo://app?vid=cb8c9ca5-9083-4e86-9e9f-2bc245af5095","ios":"levelo://app?vid=cb8c9ca5-9083-4e86-9e9f-2bc245af5095"},"vehicle_type_id":"4","last_reported":1743412275,"current_range_meters":8000,"station_id":"ce4bh412rcd13ifvqds0","pricing_plan_id":"cebpf4jnsgd1na2vs0mg"},{"bike_id":"dd30cc6b-f2bb-479b-8ee4-07ac8d36df64","system_id":"levelo_inurba_marseille","lat":43.30495,"lon":5.37877,"is_reserved":false,"is_disabled":false,"rental_uris":{"android":"levelo://app?vid=dd30cc6b-f2bb-479b-8ee4-07ac8d36df64","ios":"levelo://app?vid=dd30cc6b-f2bb-479b-8ee4-07ac8d36df64"},"vehicle_type_id":"4","last_reported":1743412275,"current_range_meters":8000,"station_id":"ce4bgup2rcd13ifvqcn0","pricing_plan_id":"cebpf4jnsgd1na2vs0mg"},{"bike_id":"871f3035-10bb-4a28-afa0-18619600e1a6","system_id":"levelo_inurba_marseille","lat":43.29936,"lon":5.36445,"is_reserved":false,"is_disabled":false,"rental_uris":{"android":"levelo://app?vid=871f3035-10bb-4a28-afa0-18619600e1a6","ios":"levelo://app?vid=871f3035-10bb-4a28-afa0-18619600e1a6"},"vehicle_type_id":"4","last_reported":1743412275,"current_range_meters":8400,"station_id":"","pricing_plan_id":"cebpf4jnsgd1na2vs0mg"},{"bike_id":"e0d6a280-1870-4e7f-b704-74999d675c20","system_id":"levelo_inurba_marseille","lat":43.30544,"lon":5.36555,"is_reserved":false,"is_disabled":false,"rental_uris":{"android":"levelo://app?vid=e0d6a280-1870-4e7f-b704-74999d675c20","ios":"levelo://app?vid=e0d6a280-1870-4e7f-b704-74999d675c20"},"vehicle_type_id":"4","last_reported":1743412275,"current_range_meters":8400,"station_id":"ce4bgs12rcd13ifvqcag","pricing_plan_id":"cebpf4jnsgd1na2vs0mg"},{"bike_id":"26491ca7-548d-4e79-bb88-d6aba04dfcf8","system_id":"levelo_inurba_marseille","lat":43.25112,"lon":5.39518,"is_reserved":false,"is_disabled":false,"rental_uris":{"android":"levelo://app?vid=26491ca7-548d-4e79-bb88-d6aba04dfcf8","ios":"levelo://app?vid=26491ca7-548d-4e79-bb88-d6aba04dfcf8"},"vehicle_type_id":"4","last_reported":1743412275,"current_range_meters":8400,"station_id":"ce4bhm12rcd13ifvqgkg","pricing_plan_id":"cebpf4jnsgd1na2vs0mg"},{"bike_id":"439f4368-0067-4ae0-9bbe-8fb21e09235c","system_id":"levelo_inurba_marseille","lat":43.29598,"lon":5.38098,"is_reserved":false,"is_disabled":false,"rental_uris":{"android":"levelo://app?vid=439f4368-0067-4ae0-9bbe-8fb21e09235c","ios":"levelo://app?vid=439f4368-0067-4ae0-9bbe-8fb21e09235c"},"vehicle_type_id":"4","last_reported":1743412275,"current_range_meters":8400,"station_id":"ce4bgl12rcd13ifvqbo0","pricing_plan_id":"cebpf4jnsgd1na2vs0mg"},{"bike_id":"533dde56-3c6f-4b30-a6d4-69433b869256","system_id":"levelo_inurba_marseille","lat":43.28706,"lon":5.39977,"is_reserved":false,"is_disabled":false,"rental_uris":{"android":"levelo://app?vid=533dde56-3c6f-4b30-a6d4-69433b869256","ios":"levelo://app?vid=533dde56-3c6f-4b30-a6d4-69433b869256"},"vehicle_type_id":"4","last_reported":1743412275,"current_range_meters":8400,"station_id":"ce4bho92rcd13ifvqh3g","pricing_plan_id":"cebpf4jnsgd1na2vs0mg"},{"bike_id":"fcc742e0-4a68-45c1-a6a8-614596259f49","system_id":"levelo_inurba_marseille","lat":43.32003,"lon":5.38131,"is_reserved":false,"is_disabled":false,"rental_uris":{"android":"levelo://app?vid=fcc742e0-4a68-45c1-a6a8-614596259f49","ios":"levelo://app?vid=fcc742e0-4a68-45c1-a6a8-614596259f49"},"vehicle_type_id":"4","last_reported":1743412275,"current_range_meters":8400,"station_id":"ce4bhr12rcd13ifvqhpg","pricing_plan_id":"cebpf4jnsgd1na2vs0mg"},{"bike_id":"95aec07b-8260-4490-b7bc-d03e5ff902cd","system_id":"levelo_inurba_marseille","lat":43.2318,"lon":5.39987,"is_reserved":false,"is_disabled":false,"rental_uris":{"android":"levelo://app?vid=95aec07b-8260-4490-b7bc-d03e5ff902cd","ios":"levelo://app?vid=95aec07b-8260-4490-b7bc-d03e5ff902cd"},"vehicle_type_id":"4","last_reported":1743412275,"current_range_meters":8400,"station_id":"ce4bhn12rcd13ifvqgqg","pricing_plan_id":"cebpf4jnsgd1na2vs0mg"},{"bike_id":"452ee7ed-aed5-4f3a-80c1-b63ab3953967","system_id":"levelo_inurba_marseille","lat":43.27968,"lon":5.41022,"is_reserved":false,"is_disabled":false,"rental_uris":{"android":"levelo://app?vid=452ee7ed-aed5-4f3a-80c1-b63ab3953967","ios":"levelo://app?vid=452ee7ed-aed5-4f3a-80c1-b63ab3953967"},"vehicle_type_id":"4","last_reported":1743412275,"current_range_meters":8400,"station_id":"ce4bhnp2rcd13ifvqh0g","pricing_plan_id":"cebpf4jnsgd1na2vs0mg"},{"bike_id":"3166b99c-56ba-4dc7-a436-b01ab0995a3b","system_id":"levelo_inurba_marseille","lat":43.24185,"lon":5.39721,"is_reserved":false,"is_disabled":false,"rental_uris":{"android":"levelo://app?vid=3166b99c-56ba-4dc7-a436-b01ab0995a3b","ios":"levelo://app?vid=3166b99c-56ba-4dc7-a436-b01ab0995a3b"},"vehicle_type_id":"4","last_reported":1743412275,"current_range_meters":8400,"station_id":"ce4bhn12rcd13ifvqgpg","pricing_plan_id":"cebpf4jnsgd1na2vs0mg"},{"bike_id":"b4951ea6-9d4a-482a-9a29-5cb0fe6a6ed5","system_id":"levelo_inurba_marseille","lat":43.26951,"lon":5.38634,"is_reserved":false,"is_disabled":false,"rental_uris":{"android":"levelo://app?vid=b4951ea6-9d4a-482a-9a29-5cb0fe6a6ed5","ios":"levelo://app?vid=b4951ea6-9d4a-482a-9a29-5cb0fe6a6ed5"},"vehicle_type_id":"4","last_reported":1743412275,"current_range_meters":8400,"station_id":"ce4bhh92rcd13ifvqfh0","pricing_plan_id":"cebpf4jnsgd1na2vs0mg"},{"bike_id":"776ed259-a920-4c85-a859-6f451da5be38","system_id":"levelo_inurba_marseille","lat":43.27048,"lon":5.40263,"is_reserved":false,"is_disabled":false,"rental_uris":{"android":"levelo://app?vid=776ed259-a920-4c85-a859-6f451da5be38","ios":"levelo://app?vid=776ed259-a920-4c85-a859-6f451da5be38"},"vehicle_type_id":"4","last_reported":1743412275,"current_range_meters":8400,"station_id":"ce4bhk92rcd13ifvqgc0","pricing_plan_id":"cebpf4jnsgd1na2vs0mg"},{"bike_id":"407b633a-987e-4722-b77a-993eaa06a6b7","system_id":"levelo_inurba_marseille","lat":43.31567,"lon":5.38836,"is_reserved":false,"is_disabled":false,"rental_uris":{"android":"levelo://app?vid=407b633a-987e-4722-b77a-993eaa06a6b7","ios":"levelo://app?vid=407b633a-987e-4722-b77a-993eaa06a6b7"},"vehicle_type_id":"4","last_reported":1743412275,"current_range_meters":8800,"station_id":"","pricing_plan_id":"cebpf4jnsgd1na2vs0mg"},{"bike_id":"19c4d38c-721f-4a6d-8de0-ad162aee3dc3","system_id":"levelo_inurba_marseille","lat":43.29867,"lon":5.38906,"is_reserved":false,"is_disabled":true,"rental_uris":{"android":"levelo://app?vid=19c4d38c-721f-4a6d-8de0-ad162aee3dc3","ios":"levelo://app?vid=19c4d38c-721f-4a6d-8de0-ad162aee3dc3"},"vehicle_type_id":"4","last_reported":1743412275,"current_range_meters":8800,"station_id":"ce4bh392rcd13ifvqdl0","pricing_plan_id":"cebpf4jnsgd1na2vs0mg"},{"bike_id":"6165c5e1-15f4-4779-ba2f-91df8ba3f8c0","system_id":"levelo_inurba_marseille","lat":43.28914,"lon":5.42989,"is_reserved":false,"is_disabled":false,"rental_uris":{"android":"levelo://app?vid=6165c5e1-15f4-4779-ba2f-91df8ba3f8c0","ios":"levelo://app?vid=6165c5e1-15f4-4779-ba2f-91df8ba3f8c0"},"vehicle_type_id":"4","last_reported":1743412275,"current_range_meters":8800,"station_id":"","pricing_plan_id":"cebpf4jnsgd1na2vs0mg"},{"bike_id":"04c03c59-66b8-4329-8b01-046b32e7853f","system_id":"levelo_inurba_marseille","lat":43.24075,"lon":5.37738,"is_reserved":false,"is_disabled":false,"rental_uris":{"android":"levelo://app?vid=04c03c59-66b8-4329-8b01-046b32e7853f","ios":"levelo://app?vid=04c03c59-66b8-4329-8b01-046b32e7853f"},"vehicle_type_id":"4","last_reported":1743412275,"current_range_meters":8800,"station_id":"ce4bhnp2rcd13ifvqgvg","pricing_plan_id":"cebpf4jnsgd1na2vs0mg"},{"bike_id":"5113d0eb-a868-4590-8906-1ea3f27c87ca","system_id":"levelo_inurba_marseille","lat":43.28372,"lon":5.38635,"is_reserved":false,"is_disabled":false,"rental_uris":{"android":"levelo://app?vid=5113d0eb-a868-4590-8906-1ea3f27c87ca","ios":"levelo://app?vid=5113d0eb-a868-4590-8906-1ea3f27c87ca"},"vehicle_type_id":"4","last_reported":1743412275,"current_range_meters":8800,"station_id":"ce4bh492rcd13ifvqdvg","pricing_plan_id":"cebpf4jnsgd1na2vs0mg"},{"bike_id":"99e7d147-e2b6-4982-8a11-f600737d5497","system_id":"levelo_inurba_marseille","lat":43.31786,"lon":5.36806,"is_reserved":false,"is_disabled":false,"rental_uris":{"android":"levelo://app?vid=99e7d147-e2b6-4982-8a11-f600737d5497","ios":"levelo://app?vid=99e7d147-e2b6-4982-8a11-f600737d5497"},"vehicle_type_id":"4","last_reported":1743412275,"current_range_meters":9200,"station_id":"","pricing_plan_id":"cebpf4jnsgd1na2vs0mg"},{"bike_id":"bee19a7e-3e37-449e-8fe8-1c38b2d2a6f2","system_id":"levelo_inurba_marseille","lat":43.29037,"lon":5.39996,"is_reserved":false,"is_disabled":false,"rental_uris":{"android":"levelo://app?vid=bee19a7e-3e37-449e-8fe8-1c38b2d2a6f2","ios":"levelo://app?vid=bee19a7e-3e37-449e-8fe8-1c38b2d2a6f2"},"vehicle_type_id":"4","last_reported":1743412275,"current_range_meters":9200,"station_id":"ce4bh392rcd13ifvqdm0","pricing_plan_id":"cebpf4jnsgd1na2vs0mg"},{"bike_id":"0aa5d244-d05c-4693-b730-cb7287eaecdf","system_id":"levelo_inurba_marseille","lat":43.28646,"lon":5.35087,"is_reserved":false,"is_disabled":true,"rental_uris":{"android":"levelo://app?vid=0aa5d244-d05c-4693-b730-cb7287eaecdf","ios":"levelo://app?vid=0aa5d244-d05c-4693-b730-cb7287eaecdf"},"vehicle_type_id":"4","last_reported":1743412275,"current_range_meters":9200,"station_id":"ce4bhch2rcd13ifvqeug","pricing_plan_id":"cebpf4jnsgd1na2vs0mg"},{"bike_id":"fb0e2782-64d8-47c2-8a78-bad86b5dcc20","system_id":"levelo_inurba_marseille","lat":43.321098,"lon":5.367647,"is_reserved":false,"is_disabled":true,"rental_uris":{"android":"levelo://app?vid=fb0e2782-64d8-47c2-8a78-bad86b5dcc20","ios":"levelo://app?vid=fb0e2782-64d8-47c2-8a78-bad86b5dcc20"},"vehicle_type_id":"4","last_reported":1743412275,"current_range_meters":9200,"station_id":"","pricing_plan_id":"cebpf4jnsgd1na2vs0mg"},{"bike_id":"8ea1dd0a-792a-4fd5-98a0-6f0cff6b3daf","system_id":"levelo_inurba_marseille","lat":43.284374,"lon":5.391969,"is_reserved":false,"is_disabled":false,"rental_uris":{"android":"levelo://app?vid=8ea1dd0a-792a-4fd5-98a0-6f0cff6b3daf","ios":"levelo://app?vid=8ea1dd0a-792a-4fd5-98a0-6f0cff6b3daf"},"vehicle_type_id":"4","last_reported":1743412275,"current_range_meters":9200,"station_id":"ce4bhoh2rcd13ifvqh5g","pricing_plan_id":"cebpf4jnsgd1na2vs0mg"},{"bike_id":"204ecd7d-d79a-4494-8305-7c83c69add7d","system_id":"levelo_inurba_marseille","lat":43.25676,"lon":5.41967,"is_reserved":false,"is_disabled":false,"rental_uris":{"android":"levelo://app?vid=204ecd7d-d79a-4494-8305-7c83c69add7d","ios":"levelo://app?vid=204ecd7d-d79a-4494-8305-7c83c69add7d"},"vehicle_type_id":"4","last_reported":1743412275,"current_range_meters":9200,"station_id":"","pricing_plan_id":"cebpf4jnsgd1na2vs0mg"},{"bike_id":"13fb059c-d9d1-44d8-9622-37a0a44d382a","system_id":"levelo_inurba_marseille","lat":43.30314,"lon":5.36893,"is_reserved":false,"is_disabled":false,"rental_uris":{"android":"levelo://app?vid=13fb059c-d9d1-44d8-9622-37a0a44d382a","ios":"levelo://app?vid=13fb059c-d9d1-44d8-9622-37a0a44d382a"},"vehicle_type_id":"4","last_reported":1743412275,"current_range_meters":9200,"station_id":"ce4bgqh2rcd13ifvqc5g","pricing_plan_id":"cebpf4jnsgd1na2vs0mg"},{"bike_id":"fe6f98fb-7de5-4a80-9354-b1e5ec085047","system_id":"levelo_inurba_marseille","lat":43.29054,"lon":5.39965,"is_reserved":false,"is_disabled":false,"rental_uris":{"android":"levelo://app?vid=fe6f98fb-7de5-4a80-9354-b1e5ec085047","ios":"levelo://app?vid=fe6f98fb-7de5-4a80-9354-b1e5ec085047"},"vehicle_type_id":"4","last_reported":1743412275,"current_range_meters":9600,"station_id":"ce4bh392rcd13ifvqdm0","pricing_plan_id":"cebpf4jnsgd1na2vs0mg"},{"bike_id":"3965927f-81e7-43a9-ab0a-114ea99095bc","system_id":"levelo_inurba_marseille","lat":43.2667,"lon":5.38269,"is_reserved":false,"is_disabled":false,"rental_uris":{"android":"levelo://app?vid=3965927f-81e7-43a9-ab0a-114ea99095bc","ios":"levelo://app?vid=3965927f-81e7-43a9-ab0a-114ea99095bc"},"vehicle_type_id":"4","last_reported":1743412275,"current_range_meters":9600,"station_id":"ce4bhg92rcd13ifvqf90","pricing_plan_id":"cebpf4jnsgd1na2vs0mg"},{"bike_id":"b3e97410-c1b2-4369-b878-0aa5bbd817bc","system_id":"levelo_inurba_marseille","lat":43.28454,"lon":5.35902,"is_reserved":false,"is_disabled":true,"rental_uris":{"android":"levelo://app?vid=b3e97410-c1b2-4369-b878-0aa5bbd817bc","ios":"levelo://app?vid=b3e97410-c1b2-4369-b878-0aa5bbd817bc"},"vehicle_type_id":"4","last_reported":1743412275,"current_range_meters":9600,"station_id":"ce4bhah2rcd13ifvqei0","pricing_plan_id":"cebpf4jnsgd1na2vs0mg"},{"bike_id":"da6ec528-7b7b-41a6-8fa9-76e8405d2485","system_id":"levelo_inurba_marseille","lat":43.28485,"lon":5.3841,"is_reserved":false,"is_disabled":false,"rental_uris":{"android":"levelo://app?vid=da6ec528-7b7b-41a6-8fa9-76e8405d2485","ios":"levelo://app?vid=da6ec528-7b7b-41a6-8fa9-76e8405d2485"},"vehicle_type_id":"4","last_reported":1743412275,"current_range_meters":9600,"station_id":"ce4bh512rcd13ifvqe3g","pricing_plan_id":"cebpf4jnsgd1na2vs0mg"},{"bike_id":"1ca654ae-dc4d-4362-acdb-676b4062b92d","system_id":"levelo_inurba_marseille","lat":43.30272,"lon":5.36868,"is_reserved":false,"is_disabled":false,"rental_uris":{"android":"levelo://app?vid=1ca654ae-dc4d-4362-acdb-676b4062b92d","ios":"levelo://app?vid=1ca654ae-dc4d-4362-acdb-676b4062b92d"},"vehicle_type_id":"4","last_reported":1743412275,"current_range_meters":9600,"station_id":"ce4bgqh2rcd13ifvqc5g","pricing_plan_id":"cebpf4jnsgd1na2vs0mg"},{"bike_id":"f2a56113-b575-48a0-9729-f6dce5639030","system_id":"levelo_inurba_marseille","lat":43.29844,"lon":5.36277,"is_reserved":false,"is_disabled":false,"rental_uris":{"android":"levelo://app?vid=f2a56113-b575-48a0-9729-f6dce5639030","ios":"levelo://app?vid=f2a56113-b575-48a0-9729-f6dce5639030"},"vehicle_type_id":"4","last_reported":1743412275,"current_range_meters":9600,"station_id":"ce4bgpp2rcd13ifvqc3g","pricing_plan_id":"cebpf4jnsgd1na2vs0mg"},{"bike_id":"b7fd714f-9e42-444f-b394-b6dda2cac0dc","system_id":"levelo_inurba_marseille","lat":43.23162,"lon":5.43704,"is_reserved":false,"is_disabled":false,"rental_uris":{"android":"levelo://app?vid=b7fd714f-9e42-444f-b394-b6dda2cac0dc","ios":"levelo://app?vid=b7fd714f-9e42-444f-b394-b6dda2cac0dc"},"vehicle_type_id":"4","last_reported":1743412275,"current_range_meters":9600,"station_id":"ce4bhmp2rcd13ifvqgog","pricing_plan_id":"cebpf4jnsgd1na2vs0mg"},{"bike_id":"98b892af-cbde-4675-aa9a-1de5c1a9a362","system_id":"levelo_inurba_marseille","lat":43.30456,"lon":5.37915,"is_reserved":false,"is_disabled":false,"rental_uris":{"android":"levelo://app?vid=98b892af-cbde-4675-aa9a-1de5c1a9a362","ios":"levelo://app?vid=98b892af-cbde-4675-aa9a-1de5c1a9a362"},"vehicle_type_id":"4","last_reported":1743412275,"current_range_meters":9600,"station_id":"ce4bgup2rcd13ifvqcn0","pricing_plan_id":"cebpf4jnsgd1na2vs0mg"},{"bike_id":"7012eb5d-dd3b-4432-b30c-5ebf338b771a","system_id":"levelo_inurba_marseille","lat":43.24076,"lon":5.37756,"is_reserved":false,"is_disabled":false,"rental_uris":{"android":"levelo://app?vid=7012eb5d-dd3b-4432-b30c-5ebf338b771a","ios":"levelo://app?vid=7012eb5d-dd3b-4432-b30c-5ebf338b771a"},"vehicle_type_id":"4","last_reported":1743412275,"current_range_meters":9600,"station_id":"ce4bhnp2rcd13ifvqgvg","pricing_plan_id":"cebpf4jnsgd1na2vs0mg"},{"bike_id":"ba1107aa-9b1f-4710-bb75-05314e757fc6","system_id":"levelo_inurba_marseille","lat":43.31655,"lon":5.37244,"is_reserved":false,"is_disabled":false,"rental_uris":{"android":"levelo://app?vid=ba1107aa-9b1f-4710-bb75-05314e757fc6","ios":"levelo://app?vid=ba1107aa-9b1f-4710-bb75-05314e757fc6"},"vehicle_type_id":"4","last_reported":1743412275,"current_range_meters":9600,"station_id":"","pricing_plan_id":"cebpf4jnsgd1na2vs0mg"},{"bike_id":"970d4a28-2e4b-453e-912d-59e6f284b811","system_id":"levelo_inurba_marseille","lat":43.32372,"lon":5.38888,"is_reserved":false,"is_disabled":true,"rental_uris":{"android":"levelo://app?vid=970d4a28-2e4b-453e-912d-59e6f284b811","ios":"levelo://app?vid=970d4a28-2e4b-453e-912d-59e6f284b811"},"vehicle_type_id":"4","last_reported":1743412275,"current_range_meters":10000,"station_id":"ce4bhqp2rcd13ifvqhog","pricing_plan_id":"cebpf4jnsgd1na2vs0mg"},{"bike_id":"121010d1-d0ea-475b-97a6-f9054736109c","system_id":"levelo_inurba_marseille","lat":43.23181,"lon":5.39983,"is_reserved":false,"is_disabled":false,"rental_uris":{"android":"levelo://app?vid=121010d1-d0ea-475b-97a6-f9054736109c","ios":"levelo://app?vid=121010d1-d0ea-475b-97a6-f9054736109c"},"vehicle_type_id":"4","last_reported":1743412275,"current_range_meters":10000,"station_id":"ce4bhn12rcd13ifvqgqg","pricing_plan_id":"cebpf4jnsgd1na2vs0mg"},{"bike_id":"83dd7646-aa4b-440f-a571-2d33c4bdfbfb","system_id":"levelo_inurba_marseille","lat":43.30967,"lon":5.3905,"is_reserved":false,"is_disabled":false,"rental_uris":{"android":"levelo://app?vid=83dd7646-aa4b-440f-a571-2d33c4bdfbfb","ios":"levelo://app?vid=83dd7646-aa4b-440f-a571-2d33c4bdfbfb"},"vehicle_type_id":"4","last_reported":1743412275,"current_range_meters":10000,"station_id":"ce4bgup2rcd13ifvqco0","pricing_plan_id":"cebpf4jnsgd1na2vs0mg"},{"bike_id":"1f4c9d66-1641-4637-9c3a-8a939c3f359c","system_id":"levelo_inurba_marseille","lat":43.240723,"lon":5.377339,"is_reserved":false,"is_disabled":true,"rental_uris":{"android":"levelo://app?vid=1f4c9d66-1641-4637-9c3a-8a939c3f359c","ios":"levelo://app?vid=1f4c9d66-1641-4637-9c3a-8a939c3f359c"},"vehicle_type_id":"4","last_reported":1743412275,"current_range_meters":10000,"station_id":"ce4bhnp2rcd13ifvqgvg","pricing_plan_id":"cebpf4jnsgd1na2vs0mg"},{"bike_id":"17883c73-0f61-452e-9f07-988d5933a738","system_id":"levelo_inurba_marseille","lat":43.27104,"lon":5.42285,"is_reserved":false,"is_disabled":false,"rental_uris":{"android":"levelo://app?vid=17883c73-0f61-452e-9f07-988d5933a738","ios":"levelo://app?vid=17883c73-0f61-452e-9f07-988d5933a738"},"vehicle_type_id":"4","last_reported":1743412275,"current_range_meters":10000,"station_id":"ce4bhk92rcd13ifvqgb0","pricing_plan_id":"cebpf4jnsgd1na2vs0mg"},{"bike_id":"f4f7c930-7d3d-4cd7-9610-0bfacd99eb72","system_id":"levelo_inurba_marseille","lat":43.28457,"lon":5.358924,"is_reserved":false,"is_disabled":false,"rental_uris":{"android":"levelo://app?vid=f4f7c930-7d3d-4cd7-9610-0bfacd99eb72","ios":"levelo://app?vid=f4f7c930-7d3d-4cd7-9610-0bfacd99eb72"},"vehicle_type_id":"4","last_reported":1743412275,"current_range_meters":10000,"station_id":"ce4bhah2rcd13ifvqei0","pricing_plan_id":"cebpf4jnsgd1na2vs0mg"},{"bike_id":"4966eb0c-ab43-4658-bd97-127c031a4fc7","system_id":"levelo_inurba_marseille","lat":43.29862,"lon":5.39728,"is_reserved":false,"is_disabled":false,"rental_uris":{"android":"levelo://app?vid=4966eb0c-ab43-4658-bd97-127c031a4fc7","ios":"levelo://app?vid=4966eb0c-ab43-4658-bd97-127c031a4fc7"},"vehicle_type_id":"4","last_reported":1743412275,"current_range_meters":10000,"station_id":"ce4bh0h2rcd13ifvqd50","pricing_plan_id":"cebpf4jnsgd1na2vs0mg"},{"bike_id":"f5467d01-0417-4b7f-a5df-1cb76ab7cbcf","system_id":"levelo_inurba_marseille","lat":43.3361,"lon":5.40989,"is_reserved":false,"is_disabled":false,"rental_uris":{"android":"levelo://app?vid=f5467d01-0417-4b7f-a5df-1cb76ab7cbcf","ios":"levelo://app?vid=f5467d01-0417-4b7f-a5df-1cb76ab7cbcf"},"vehicle_type_id":"4","last_reported":1743412275,"current_range_meters":10000,"station_id":"ce4bhqh2rcd13ifvqhmg","pricing_plan_id":"cebpf4jnsgd1na2vs0mg"},{"bike_id":"81a0b184-8ce0-4d8f-8ffc-54543a8d534f","system_id":"levelo_inurba_marseille","lat":43.29036,"lon":5.40005,"is_reserved":false,"is_disabled":false,"rental_uris":{"android":"levelo://app?vid=81a0b184-8ce0-4d8f-8ffc-54543a8d534f","ios":"levelo://app?vid=81a0b184-8ce0-4d8f-8ffc-54543a8d534f"},"vehicle_type_id":"4","last_reported":1743412275,"current_range_meters":10000,"station_id":"ce4bh392rcd13ifvqdm0","pricing_plan_id":"cebpf4jnsgd1na2vs0mg"},{"bike_id":"470d93aa-cce9-4a6f-90f3-04bc0fe051af","system_id":"levelo_inurba_marseille","lat":43.25591,"lon":5.38241,"is_reserved":false,"is_disabled":false,"rental_uris":{"android":"levelo://app?vid=470d93aa-cce9-4a6f-90f3-04bc0fe051af","ios":"levelo://app?vid=470d93aa-cce9-4a6f-90f3-04bc0fe051af"},"vehicle_type_id":"4","last_reported":1743412275,"current_range_meters":10000,"station_id":"ce4bhih2rcd13ifvqfs0","pricing_plan_id":"cebpf4jnsgd1na2vs0mg"},{"bike_id":"3550a36d-3c45-4392-b638-e4bfcd519444","system_id":"levelo_inurba_marseille","lat":43.29903,"lon":5.38129,"is_reserved":false,"is_disabled":true,"rental_uris":{"android":"levelo://app?vid=3550a36d-3c45-4392-b638-e4bfcd519444","ios":"levelo://app?vid=3550a36d-3c45-4392-b638-e4bfcd519444"},"vehicle_type_id":"4","last_reported":1743412275,"current_range_meters":10000,"station_id":"ce4bgj12rcd13ifvqbc0","pricing_plan_id":"cebpf4jnsgd1na2vs0mg"},{"bike_id":"5f4b6dec-c8cd-4fba-a769-4892a6dbdf94","system_id":"levelo_inurba_marseille","lat":43.28118,"lon":5.39861,"is_reserved":false,"is_disabled":false,"rental_uris":{"android":"levelo://app?vid=5f4b6dec-c8cd-4fba-a769-4892a6dbdf94","ios":"levelo://app?vid=5f4b6dec-c8cd-4fba-a769-4892a6dbdf94"},"vehicle_type_id":"4","last_reported":1743412275,"current_range_meters":10000,"station_id":"","pricing_plan_id":"cebpf4jnsgd1na2vs0mg"},{"bike_id":"3510f364-9b24-465b-b8ed-9136aea48c22","system_id":"levelo_inurba_marseille","lat":43.27059,"lon":5.40239,"is_reserved":false,"is_disabled":false,"rental_uris":{"android":"levelo://app?vid=3510f364-9b24-465b-b8ed-9136aea48c22","ios":"levelo://app?vid=3510f364-9b24-465b-b8ed-9136aea48c22"},"vehicle_type_id":"4","last_reported":1743412275,"current_range_meters":9600,"station_id":"ce4bhk92rcd13ifvqgc0","pricing_plan_id":"cebpf4jnsgd1na2vs0mg"},{"bike_id":"d2f2ddd5-8dd4-436f-ba30-fd70dfe59da3","system_id":"levelo_inurba_marseille","lat":43.32109,"lon":5.36768,"is_reserved":false,"is_disabled":false,"rental_uris":{"android":"levelo://app?vid=d2f2ddd5-8dd4-436f-ba30-fd70dfe59da3","ios":"levelo://app?vid=d2f2ddd5-8dd4-436f-ba30-fd70dfe59da3"},"vehicle_type_id":"4","last_reported":1743412275,"current_range_meters":10800,"station_id":"ce4bhrh2rcd13ifvqhug","pricing_plan_id":"cebpf4jnsgd1na2vs0mg"},{"bike_id":"abe50da3-d276-4e2d-89dc-4ba535cd6c8e","system_id":"levelo_inurba_marseille","lat":43.30912,"lon":5.36881,"is_reserved":false,"is_disabled":false,"rental_uris":{"android":"levelo://app?vid=abe50da3-d276-4e2d-89dc-4ba535cd6c8e","ios":"levelo://app?vid=abe50da3-d276-4e2d-89dc-4ba535cd6c8e"},"vehicle_type_id":"4","last_reported":1743412275,"current_range_meters":10800,"station_id":"ce4bgn92rcd13ifvqbvg","pricing_plan_id":"cebpf4jnsgd1na2vs0mg"},{"bike_id":"1815bc9f-b345-46dc-96b0-67774e07d813","system_id":"levelo_inurba_marseille","lat":43.27998,"lon":5.40019,"is_reserved":false,"is_disabled":false,"rental_uris":{"android":"levelo://app?vid=1815bc9f-b345-46dc-96b0-67774e07d813","ios":"levelo://app?vid=1815bc9f-b345-46dc-96b0-67774e07d813"},"vehicle_type_id":"4","last_reported":1743412275,"current_range_meters":10800,"station_id":"ce4bho92rcd13ifvqh4g","pricing_plan_id":"cebpf4jnsgd1na2vs0mg"},{"bike_id":"97707c1d-7495-47ff-969b-5fe8a9b7efe1","system_id":"levelo_inurba_marseille","lat":43.30466,"lon":5.37911,"is_reserved":false,"is_disabled":false,"rental_uris":{"android":"levelo://app?vid=97707c1d-7495-47ff-969b-5fe8a9b7efe1","ios":"levelo://app?vid=97707c1d-7495-47ff-969b-5fe8a9b7efe1"},"vehicle_type_id":"4","last_reported":1743412275,"current_range_meters":10800,"station_id":"ce4bgup2rcd13ifvqcn0","pricing_plan_id":"cebpf4jnsgd1na2vs0mg"},{"bike_id":"362750b3-6733-46ac-a34d-f586b50f6397","system_id":"levelo_inurba_marseille","lat":43.26194,"lon":5.37445,"is_reserved":false,"is_disabled":false,"rental_uris":{"android":"levelo://app?vid=362750b3-6733-46ac-a34d-f586b50f6397","ios":"levelo://app?vid=362750b3-6733-46ac-a34d-f586b50f6397"},"vehicle_type_id":"4","last_reported":1743412275,"current_range_meters":10800,"station_id":"ce4bhgp2rcd13ifvqfc0","pricing_plan_id":"cebpf4jnsgd1na2vs0mg"},{"bike_id":"e70f18fb-c882-4069-a8de-99569f6d72b4","system_id":"levelo_inurba_marseille","lat":43.29517,"lon":5.39403,"is_reserved":false,"is_disabled":true,"rental_uris":{"android":"levelo://app?vid=e70f18fb-c882-4069-a8de-99569f6d72b4","ios":"levelo://app?vid=e70f18fb-c882-4069-a8de-99569f6d72b4"},"vehicle_type_id":"4","last_reported":1743412275,"current_range_meters":10800,"station_id":"ce4bh292rcd13ifvqdf0","pricing_plan_id":"cebpf4jnsgd1na2vs0mg"},{"bike_id":"4a020662-b1af-43ec-b601-fbebc1f5f691","system_id":"levelo_inurba_marseille","lat":43.2838,"lon":5.38606,"is_reserved":false,"is_disabled":false,"rental_uris":{"android":"levelo://app?vid=4a020662-b1af-43ec-b601-fbebc1f5f691","ios":"levelo://app?vid=4a020662-b1af-43ec-b601-fbebc1f5f691"},"vehicle_type_id":"4","last_reported":1743412275,"current_range_meters":10800,"station_id":"ce4bh492rcd13ifvqdvg","pricing_plan_id":"cebpf4jnsgd1na2vs0mg"},{"bike_id":"8198fa64-041c-4e7f-9ed7-f79f714bb30e","system_id":"levelo_inurba_marseille","lat":43.28982,"lon":5.3782,"is_reserved":false,"is_disabled":false,"rental_uris":{"android":"levelo://app?vid=8198fa64-041c-4e7f-9ed7-f79f714bb30e","ios":"levelo://app?vid=8198fa64-041c-4e7f-9ed7-f79f714bb30e"},"vehicle_type_id":"4","last_reported":1743412275,"current_range_meters":10000,"station_id":"ce4bh9p2rcd13ifvqed0","pricing_plan_id":"cebpf4jnsgd1na2vs0mg"},{"bike_id":"e13c02a6-998a-4702-bbd8-f95e2e6ca5f3","system_id":"levelo_inurba_marseille","lat":43.268621,"lon":5.385762,"is_reserved":false,"is_disabled":false,"rental_uris":{"android":"levelo://app?vid=e13c02a6-998a-4702-bbd8-f95e2e6ca5f3","ios":"levelo://app?vid=e13c02a6-998a-4702-bbd8-f95e2e6ca5f3"},"vehicle_type_id":"4","last_reported":1743412275,"current_range_meters":15200,"station_id":"ce4bhh92rcd13ifvqfi0","pricing_plan_id":"cebpf4jnsgd1na2vs0mg"},{"bike_id":"55ef2532-64d8-4ba5-9c7f-6b9644e664d1","system_id":"levelo_inurba_marseille","lat":43.26961,"lon":5.38624,"is_reserved":false,"is_disabled":false,"rental_uris":{"android":"levelo://app?vid=55ef2532-64d8-4ba5-9c7f-6b9644e664d1","ios":"levelo://app?vid=55ef2532-64d8-4ba5-9c7f-6b9644e664d1"},"vehicle_type_id":"4","last_reported":1743412275,"current_range_meters":11200,"station_id":"ce4bhh92rcd13ifvqfh0","pricing_plan_id":"cebpf4jnsgd1na2vs0mg"},{"bike_id":"4833ed40-4ec5-41ab-9522-eb4906b09b62","system_id":"levelo_inurba_marseille","lat":43.29573,"lon":5.3748,"is_reserved":false,"is_disabled":true,"rental_uris":{"android":"levelo://app?vid=4833ed40-4ec5-41ab-9522-eb4906b09b62","ios":"levelo://app?vid=4833ed40-4ec5-41ab-9522-eb4906b09b62"},"vehicle_type_id":"4","last_reported":1743412275,"current_range_meters":11200,"station_id":"ce4bgh92rcd13ifvqb50","pricing_plan_id":"cebpf4jnsgd1na2vs0mg"},{"bike_id":"0f8f638f-6c59-4dfb-ab4f-882d40e453aa","system_id":"levelo_inurba_marseille","lat":43.29296,"lon":5.42777,"is_reserved":false,"is_disabled":false,"rental_uris":{"android":"levelo://app?vid=0f8f638f-6c59-4dfb-ab4f-882d40e453aa","ios":"levelo://app?vid=0f8f638f-6c59-4dfb-ab4f-882d40e453aa"},"vehicle_type_id":"4","last_reported":1743412275,"current_range_meters":11200,"station_id":"","pricing_plan_id":"cebpf4jnsgd1na2vs0mg"},{"bike_id":"1a130b3a-a65d-435d-a5a2-838d45f8e81b","system_id":"levelo_inurba_marseille","lat":43.24177,"lon":5.39726,"is_reserved":false,"is_disabled":false,"rental_uris":{"android":"levelo://app?vid=1a130b3a-a65d-435d-a5a2-838d45f8e81b","ios":"levelo://app?vid=1a130b3a-a65d-435d-a5a2-838d45f8e81b"},"vehicle_type_id":"4","last_reported":1743412275,"current_range_meters":11200,"station_id":"ce4bhn12rcd13ifvqgpg","pricing_plan_id":"cebpf4jnsgd1na2vs0mg"},{"bike_id":"2bf31f9f-c5c0-434c-ab3b-b017d7dc966d","system_id":"levelo_inurba_marseille","lat":43.23051,"lon":5.35492,"is_reserved":false,"is_disabled":false,"rental_uris":{"android":"levelo://app?vid=2bf31f9f-c5c0-434c-ab3b-b017d7dc966d","ios":"levelo://app?vid=2bf31f9f-c5c0-434c-ab3b-b017d7dc966d"},"vehicle_type_id":"4","last_reported":1743412275,"current_range_meters":11200,"station_id":"cpo3342slgdg3j2ifvpg","pricing_plan_id":"cebpf4jnsgd1na2vs0mg"},{"bike_id":"56f1aa27-3a8f-47e8-a014-a18543ea2236","system_id":"levelo_inurba_marseille","lat":43.29425,"lon":5.38622,"is_reserved":false,"is_disabled":false,"rental_uris":{"android":"levelo://app?vid=56f1aa27-3a8f-47e8-a014-a18543ea2236","ios":"levelo://app?vid=56f1aa27-3a8f-47e8-a014-a18543ea2236"},"vehicle_type_id":"4","last_reported":1743412275,"current_range_meters":11200,"station_id":"ce4bh2h2rcd13ifvqdh0","pricing_plan_id":"cebpf4jnsgd1na2vs0mg"},{"bike_id":"24367617-ae77-4a7a-99db-f94053242e50","system_id":"levelo_inurba_marseille","lat":43.2455,"lon":5.39529,"is_reserved":false,"is_disabled":false,"rental_uris":{"android":"levelo://app?vid=24367617-ae77-4a7a-99db-f94053242e50","ios":"levelo://app?vid=24367617-ae77-4a7a-99db-f94053242e50"},"vehicle_type_id":"4","last_reported":1743412275,"current_range_meters":11600,"station_id":"ce4bhlp2rcd13ifvqgjg","pricing_plan_id":"cebpf4jnsgd1na2vs0mg"},{"bike_id":"8c0baf83-fe6e-4887-8907-067a84dce884","system_id":"levelo_inurba_marseille","lat":43.28423,"lon":5.34983,"is_reserved":false,"is_disabled":true,"rental_uris":{"android":"levelo://app?vid=8c0baf83-fe6e-4887-8907-067a84dce884","ios":"levelo://app?vid=8c0baf83-fe6e-4887-8907-067a84dce884"},"vehicle_type_id":"4","last_reported":1743412275,"current_range_meters":11600,"station_id":"ce4bhbh2rcd13ifvqepg","pricing_plan_id":"cebpf4jnsgd1na2vs0mg"},{"bike_id":"03428933-f654-4911-8e5b-283f35475d09","system_id":"levelo_inurba_marseille","lat":43.240817,"lon":5.377555,"is_reserved":false,"is_disabled":false,"rental_uris":{"android":"levelo://app?vid=03428933-f654-4911-8e5b-283f35475d09","ios":"levelo://app?vid=03428933-f654-4911-8e5b-283f35475d09"},"vehicle_type_id":"4","last_reported":1743412275,"current_range_meters":11600,"station_id":"ce4bhnp2rcd13ifvqgvg","pricing_plan_id":"cebpf4jnsgd1na2vs0mg"},{"bike_id":"50266541-b174-4963-ad6c-c34aa0b329fc","system_id":"levelo_inurba_marseille","lat":43.31371,"lon":5.38495,"is_reserved":false,"is_disabled":false,"rental_uris":{"android":"levelo://app?vid=50266541-b174-4963-ad6c-c34aa0b329fc","ios":"levelo://app?vid=50266541-b174-4963-ad6c-c34aa0b329fc"},"vehicle_type_id":"4","last_reported":1743412275,"current_range_meters":11200,"station_id":"ce4bgt92rcd13ifvqcf0","pricing_plan_id":"cebpf4jnsgd1na2vs0mg"},{"bike_id":"51978973-8141-43c4-9a6c-b50852994e60","system_id":"levelo_inurba_marseille","lat":43.32357,"lon":5.38888,"is_reserved":false,"is_disabled":false,"rental_uris":{"android":"levelo://app?vid=51978973-8141-43c4-9a6c-b50852994e60","ios":"levelo://app?vid=51978973-8141-43c4-9a6c-b50852994e60"},"vehicle_type_id":"4","last_reported":1743412275,"current_range_meters":11600,"station_id":"ce4bhqp2rcd13ifvqhog","pricing_plan_id":"cebpf4jnsgd1na2vs0mg"},{"bike_id":"7f5191d9-db2b-4106-8912-1164024dbc56","system_id":"levelo_inurba_marseille","lat":43.27963,"lon":5.38737,"is_reserved":false,"is_disabled":false,"rental_uris":{"android":"levelo://app?vid=7f5191d9-db2b-4106-8912-1164024dbc56","ios":"levelo://app?vid=7f5191d9-db2b-4106-8912-1164024dbc56"},"vehicle_type_id":"4","last_reported":1743412275,"current_range_meters":11600,"station_id":"ce4bhg12rcd13ifvqf80","pricing_plan_id":"cebpf4jnsgd1na2vs0mg"},{"bike_id":"af4f17f1-87e6-478a-84d3-2995975b855c","system_id":"levelo_inurba_marseille","lat":43.30315,"lon":5.36911,"is_reserved":false,"is_disabled":false,"rental_uris":{"android":"levelo://app?vid=af4f17f1-87e6-478a-84d3-2995975b855c","ios":"levelo://app?vid=af4f17f1-87e6-478a-84d3-2995975b855c"},"vehicle_type_id":"4","last_reported":1743412275,"current_range_meters":11600,"station_id":"ce4bgqh2rcd13ifvqc5g","pricing_plan_id":"cebpf4jnsgd1na2vs0mg"},{"bike_id":"8fa5fb11-10c8-4bed-b75c-83f4c72259ad","system_id":"levelo_inurba_marseille","lat":43.32343,"lon":5.36684,"is_reserved":false,"is_disabled":false,"rental_uris":{"android":"levelo://app?vid=8fa5fb11-10c8-4bed-b75c-83f4c72259ad","ios":"levelo://app?vid=8fa5fb11-10c8-4bed-b75c-83f4c72259ad"},"vehicle_type_id":"4","last_reported":1743412275,"current_range_meters":11600,"station_id":"ce4bhsh2rcd13ifvqi2g","pricing_plan_id":"cebpf4jnsgd1na2vs0mg"},{"bike_id":"76b10453-3356-4c3f-885c-645add713499","system_id":"levelo_inurba_marseille","lat":43.3015,"lon":5.37418,"is_reserved":false,"is_disabled":false,"rental_uris":{"android":"levelo://app?vid=76b10453-3356-4c3f-885c-645add713499","ios":"levelo://app?vid=76b10453-3356-4c3f-885c-645add713499"},"vehicle_type_id":"4","last_reported":1743412275,"current_range_meters":11600,"station_id":"ce4bgs92rcd13ifvqcc0","pricing_plan_id":"cebpf4jnsgd1na2vs0mg"},{"bike_id":"668c01cb-7bea-48c9-8f15-6bcc0c19c832","system_id":"levelo_inurba_marseille","lat":43.2621,"lon":5.3793,"is_reserved":false,"is_disabled":true,"rental_uris":{"android":"levelo://app?vid=668c01cb-7bea-48c9-8f15-6bcc0c19c832","ios":"levelo://app?vid=668c01cb-7bea-48c9-8f15-6bcc0c19c832"},"vehicle_type_id":"4","last_reported":1743412275,"current_range_meters":12000,"station_id":"ce4bhjp2rcd13ifvqg90","pricing_plan_id":"cebpf4jnsgd1na2vs0mg"},{"bike_id":"6cdbb536-49f2-47d2-beb4-5e7f7bcf5ad7","system_id":"levelo_inurba_marseille","lat":43.26202,"lon":5.37916,"is_reserved":false,"is_disabled":false,"rental_uris":{"android":"levelo://app?vid=6cdbb536-49f2-47d2-beb4-5e7f7bcf5ad7","ios":"levelo://app?vid=6cdbb536-49f2-47d2-beb4-5e7f7bcf5ad7"},"vehicle_type_id":"4","last_reported":1743412275,"current_range_meters":12000,"station_id":"ce4bhjp2rcd13ifvqg90","pricing_plan_id":"cebpf4jnsgd1na2vs0mg"},{"bike_id":"17a6c01e-86c5-44cf-af58-45135c759a59","system_id":"levelo_inurba_marseille","lat":43.24059,"lon":5.37756,"is_reserved":false,"is_disabled":false,"rental_uris":{"android":"levelo://app?vid=17a6c01e-86c5-44cf-af58-45135c759a59","ios":"levelo://app?vid=17a6c01e-86c5-44cf-af58-45135c759a59"},"vehicle_type_id":"4","last_reported":1743412275,"current_range_meters":12000,"station_id":"ce4bhnp2rcd13ifvqgvg","pricing_plan_id":"cebpf4jnsgd1na2vs0mg"},{"bike_id":"29b98b91-cfc6-456c-a210-3a3c39264800","system_id":"levelo_inurba_marseille","lat":43.27829,"lon":5.40709,"is_reserved":false,"is_disabled":false,"rental_uris":{"android":"levelo://app?vid=29b98b91-cfc6-456c-a210-3a3c39264800","ios":"levelo://app?vid=29b98b91-cfc6-456c-a210-3a3c39264800"},"vehicle_type_id":"4","last_reported":1743412275,"current_range_meters":12000,"station_id":"ce4bhnh2rcd13ifvqgtg","pricing_plan_id":"cebpf4jnsgd1na2vs0mg"},{"bike_id":"9a1d8ac4-43dd-4c96-b2f0-582a6e426845","system_id":"levelo_inurba_marseille","lat":43.279985,"lon":5.416665,"is_reserved":false,"is_disabled":false,"rental_uris":{"android":"levelo://app?vid=9a1d8ac4-43dd-4c96-b2f0-582a6e426845","ios":"levelo://app?vid=9a1d8ac4-43dd-4c96-b2f0-582a6e426845"},"vehicle_type_id":"4","last_reported":1743412275,"current_range_meters":12400,"station_id":"ce4bh9p2rcd13ifvqec0","pricing_plan_id":"cebpf4jnsgd1na2vs0mg"},{"bike_id":"5c3018c4-48f7-427d-8307-01678e49a333","system_id":"levelo_inurba_marseille","lat":43.2926,"lon":5.38435,"is_reserved":false,"is_disabled":false,"rental_uris":{"android":"levelo://app?vid=5c3018c4-48f7-427d-8307-01678e49a333","ios":"levelo://app?vid=5c3018c4-48f7-427d-8307-01678e49a333"},"vehicle_type_id":"4","last_reported":1743412275,"current_range_meters":12400,"station_id":"ce4bh692rcd13ifvqea0","pricing_plan_id":"cebpf4jnsgd1na2vs0mg"},{"bike_id":"24a26cc1-e86a-4373-bbfa-fe2533da907a","system_id":"levelo_inurba_marseille","lat":43.30565,"lon":5.36697,"is_reserved":false,"is_disabled":false,"rental_uris":{"android":"levelo://app?vid=24a26cc1-e86a-4373-bbfa-fe2533da907a","ios":"levelo://app?vid=24a26cc1-e86a-4373-bbfa-fe2533da907a"},"vehicle_type_id":"4","last_reported":1743412275,"current_range_meters":12400,"station_id":"ce4bgrp2rcd13ifvqc9g","pricing_plan_id":"cebpf4jnsgd1na2vs0mg"},{"bike_id":"362d96d4-24ac-4dbd-8d16-e9872ea0fb63","system_id":"levelo_inurba_marseille","lat":43.30327,"lon":5.40433,"is_reserved":false,"is_disabled":false,"rental_uris":{"android":"levelo://app?vid=362d96d4-24ac-4dbd-8d16-e9872ea0fb63","ios":"levelo://app?vid=362d96d4-24ac-4dbd-8d16-e9872ea0fb63"},"vehicle_type_id":"4","last_reported":1743412275,"current_range_meters":12400,"station_id":"ce4bh012rcd13ifvqd10","pricing_plan_id":"cebpf4jnsgd1na2vs0mg"},{"bike_id":"cc307718-8248-4a1c-9ee9-f23984243416","system_id":"levelo_inurba_marseille","lat":43.31802,"lon":5.390716,"is_reserved":false,"is_disabled":false,"rental_uris":{"android":"levelo://app?vid=cc307718-8248-4a1c-9ee9-f23984243416","ios":"levelo://app?vid=cc307718-8248-4a1c-9ee9-f23984243416"},"vehicle_type_id":"4","last_reported":1743412275,"current_range_meters":12400,"station_id":"","pricing_plan_id":"cebpf4jnsgd1na2vs0mg"},{"bike_id":"34c70963-3230-4cbc-8478-6d3fe10dcd94","system_id":"levelo_inurba_marseille","lat":43.25589,"lon":5.38235,"is_reserved":false,"is_disabled":false,"rental_uris":{"android":"levelo://app?vid=34c70963-3230-4cbc-8478-6d3fe10dcd94","ios":"levelo://app?vid=34c70963-3230-4cbc-8478-6d3fe10dcd94"},"vehicle_type_id":"4","last_reported":1743412275,"current_range_meters":12400,"station_id":"ce4bhih2rcd13ifvqfs0","pricing_plan_id":"cebpf4jnsgd1na2vs0mg"},{"bike_id":"f5d6a402-5ce8-4bba-abe7-49a5f1cdc714","system_id":"levelo_inurba_marseille","lat":43.27504,"lon":5.4246,"is_reserved":false,"is_disabled":false,"rental_uris":{"android":"levelo://app?vid=f5d6a402-5ce8-4bba-abe7-49a5f1cdc714","ios":"levelo://app?vid=f5d6a402-5ce8-4bba-abe7-49a5f1cdc714"},"vehicle_type_id":"4","last_reported":1743412275,"current_range_meters":12400,"station_id":"ce4bhn92rcd13ifvqgrg","pricing_plan_id":"cebpf4jnsgd1na2vs0mg"},{"bike_id":"39afc43b-4d3f-4ed0-9aec-9c0e6bb6946e","system_id":"levelo_inurba_marseille","lat":43.24075,"lon":5.37755,"is_reserved":false,"is_disabled":true,"rental_uris":{"android":"levelo://app?vid=39afc43b-4d3f-4ed0-9aec-9c0e6bb6946e","ios":"levelo://app?vid=39afc43b-4d3f-4ed0-9aec-9c0e6bb6946e"},"vehicle_type_id":"4","last_reported":1743412275,"current_range_meters":12400,"station_id":"ce4bhnp2rcd13ifvqgvg","pricing_plan_id":"cebpf4jnsgd1na2vs0mg"},{"bike_id":"0ffdefb8-aa1c-4d1c-8e3e-95c51af2518e","system_id":"levelo_inurba_marseille","lat":43.31368,"lon":5.38486,"is_reserved":false,"is_disabled":false,"rental_uris":{"android":"levelo://app?vid=0ffdefb8-aa1c-4d1c-8e3e-95c51af2518e","ios":"levelo://app?vid=0ffdefb8-aa1c-4d1c-8e3e-95c51af2518e"},"vehicle_type_id":"4","last_reported":1743412275,"current_range_meters":12800,"station_id":"ce4bgt92rcd13ifvqcf0","pricing_plan_id":"cebpf4jnsgd1na2vs0mg"},{"bike_id":"29a7a33a-ba92-4de5-96dc-53f67156e633","system_id":"levelo_inurba_marseille","lat":43.30468,"lon":5.37903,"is_reserved":false,"is_disabled":false,"rental_uris":{"android":"levelo://app?vid=29a7a33a-ba92-4de5-96dc-53f67156e633","ios":"levelo://app?vid=29a7a33a-ba92-4de5-96dc-53f67156e633"},"vehicle_type_id":"4","last_reported":1743412275,"current_range_meters":12800,"station_id":"ce4bgup2rcd13ifvqcn0","pricing_plan_id":"cebpf4jnsgd1na2vs0mg"},{"bike_id":"33ac7997-e875-45e5-a20f-760ee6b4a597","system_id":"levelo_inurba_marseille","lat":43.25938,"lon":5.40895,"is_reserved":false,"is_disabled":false,"rental_uris":{"android":"levelo://app?vid=33ac7997-e875-45e5-a20f-760ee6b4a597","ios":"levelo://app?vid=33ac7997-e875-45e5-a20f-760ee6b4a597"},"vehicle_type_id":"4","last_reported":1743412275,"current_range_meters":12800,"station_id":"ce4bhm92rcd13ifvqglg","pricing_plan_id":"cebpf4jnsgd1na2vs0mg"},{"bike_id":"2b480e4b-b8a7-4f29-8488-c72025a00414","system_id":"levelo_inurba_marseille","lat":43.30475,"lon":5.37896,"is_reserved":false,"is_disabled":false,"rental_uris":{"android":"levelo://app?vid=2b480e4b-b8a7-4f29-8488-c72025a00414","ios":"levelo://app?vid=2b480e4b-b8a7-4f29-8488-c72025a00414"},"vehicle_type_id":"4","last_reported":1743412275,"current_range_meters":12800,"station_id":"ce4bgup2rcd13ifvqcn0","pricing_plan_id":"cebpf4jnsgd1na2vs0mg"},{"bike_id":"988bd479-e1d5-43ae-8066-aa5b42a0fae0","system_id":"levelo_inurba_marseille","lat":43.30329,"lon":5.36907,"is_reserved":false,"is_disabled":false,"rental_uris":{"android":"levelo://app?vid=988bd479-e1d5-43ae-8066-aa5b42a0fae0","ios":"levelo://app?vid=988bd479-e1d5-43ae-8066-aa5b42a0fae0"},"vehicle_type_id":"4","last_reported":1743412275,"current_range_meters":12800,"station_id":"ce4bgqh2rcd13ifvqc5g","pricing_plan_id":"cebpf4jnsgd1na2vs0mg"},{"bike_id":"6722f85c-5cc6-440c-913d-79255823cb26","system_id":"levelo_inurba_marseille","lat":43.25924,"lon":5.40882,"is_reserved":false,"is_disabled":false,"rental_uris":{"android":"levelo://app?vid=6722f85c-5cc6-440c-913d-79255823cb26","ios":"levelo://app?vid=6722f85c-5cc6-440c-913d-79255823cb26"},"vehicle_type_id":"4","last_reported":1743412275,"current_range_meters":12800,"station_id":"ce4bhm92rcd13ifvqglg","pricing_plan_id":"cebpf4jnsgd1na2vs0mg"},{"bike_id":"e3ed6a7b-116d-4bce-98f8-0c4519635233","system_id":"levelo_inurba_marseille","lat":43.31954,"lon":5.37429,"is_reserved":false,"is_disabled":false,"rental_uris":{"android":"levelo://app?vid=e3ed6a7b-116d-4bce-98f8-0c4519635233","ios":"levelo://app?vid=e3ed6a7b-116d-4bce-98f8-0c4519635233"},"vehicle_type_id":"4","last_reported":1743412275,"current_range_meters":12800,"station_id":"","pricing_plan_id":"cebpf4jnsgd1na2vs0mg"},{"bike_id":"32f3c4e3-b84b-4792-8838-baa4924b693a","system_id":"levelo_inurba_marseille","lat":43.28038,"lon":5.36946,"is_reserved":false,"is_disabled":false,"rental_uris":{"android":"levelo://app?vid=32f3c4e3-b84b-4792-8838-baa4924b693a","ios":"levelo://app?vid=32f3c4e3-b84b-4792-8838-baa4924b693a"},"vehicle_type_id":"4","last_reported":1743412275,"current_range_meters":13600,"station_id":"ce4bha12rcd13ifvqef0","pricing_plan_id":"cebpf4jnsgd1na2vs0mg"},{"bike_id":"7600e00f-345b-474f-bf8f-5d0482aa16fc","system_id":"levelo_inurba_marseille","lat":43.2696,"lon":5.38633,"is_reserved":false,"is_disabled":false,"rental_uris":{"android":"levelo://app?vid=7600e00f-345b-474f-bf8f-5d0482aa16fc","ios":"levelo://app?vid=7600e00f-345b-474f-bf8f-5d0482aa16fc"},"vehicle_type_id":"4","last_reported":1743412275,"current_range_meters":13600,"station_id":"ce4bhh92rcd13ifvqfh0","pricing_plan_id":"cebpf4jnsgd1na2vs0mg"},{"bike_id":"fd63be84-051e-408d-b006-77fc7d83d3c7","system_id":"levelo_inurba_marseille","lat":43.32253,"lon":5.39411,"is_reserved":false,"is_disabled":false,"rental_uris":{"android":"levelo://app?vid=fd63be84-051e-408d-b006-77fc7d83d3c7","ios":"levelo://app?vid=fd63be84-051e-408d-b006-77fc7d83d3c7"},"vehicle_type_id":"4","last_reported":1743412275,"current_range_meters":13600,"station_id":"","pricing_plan_id":"cebpf4jnsgd1na2vs0mg"},{"bike_id":"5778b92a-5200-4800-a4cb-08db6f9fffcd","system_id":"levelo_inurba_marseille","lat":43.30954,"lon":5.39044,"is_reserved":false,"is_disabled":false,"rental_uris":{"android":"levelo://app?vid=5778b92a-5200-4800-a4cb-08db6f9fffcd","ios":"levelo://app?vid=5778b92a-5200-4800-a4cb-08db6f9fffcd"},"vehicle_type_id":"4","last_reported":1743412275,"current_range_meters":13600,"station_id":"ce4bgup2rcd13ifvqco0","pricing_plan_id":"cebpf4jnsgd1na2vs0mg"},{"bike_id":"8cb32e80-fcf6-4d45-b5c0-2e6affb3effb","system_id":"levelo_inurba_marseille","lat":43.27206,"lon":5.39187,"is_reserved":false,"is_disabled":false,"rental_uris":{"android":"levelo://app?vid=8cb32e80-fcf6-4d45-b5c0-2e6affb3effb","ios":"levelo://app?vid=8cb32e80-fcf6-4d45-b5c0-2e6affb3effb"},"vehicle_type_id":"4","last_reported":1743412275,"current_range_meters":13600,"station_id":"ce4bhhp2rcd13ifvqfm0","pricing_plan_id":"cebpf4jnsgd1na2vs0mg"},{"bike_id":"c1f25ed0-e6af-41f0-84aa-89be873ba8eb","system_id":"levelo_inurba_marseille","lat":43.28837,"lon":5.39316,"is_reserved":false,"is_disabled":false,"rental_uris":{"android":"levelo://app?vid=c1f25ed0-e6af-41f0-84aa-89be873ba8eb","ios":"levelo://app?vid=c1f25ed0-e6af-41f0-84aa-89be873ba8eb"},"vehicle_type_id":"4","last_reported":1743412275,"current_range_meters":14000,"station_id":"ce4bh2p2rcd13ifvqdi0","pricing_plan_id":"cebpf4jnsgd1na2vs0mg"},{"bike_id":"c4e2d18e-f633-4d39-b4c4-87cadf014f6b","system_id":"levelo_inurba_marseille","lat":43.25502,"lon":5.37651,"is_reserved":false,"is_disabled":false,"rental_uris":{"android":"levelo://app?vid=c4e2d18e-f633-4d39-b4c4-87cadf014f6b","ios":"levelo://app?vid=c4e2d18e-f633-4d39-b4c4-87cadf014f6b"},"vehicle_type_id":"4","last_reported":1743412275,"current_range_meters":14000,"station_id":"ce4bhh12rcd13ifvqff0","pricing_plan_id":"cebpf4jnsgd1na2vs0mg"},{"bike_id":"038b527a-e308-42ff-9e81-b00006d08dda","system_id":"levelo_inurba_marseille","lat":43.28939,"lon":5.39591,"is_reserved":false,"is_disabled":false,"rental_uris":{"android":"levelo://app?vid=038b527a-e308-42ff-9e81-b00006d08dda","ios":"levelo://app?vid=038b527a-e308-42ff-9e81-b00006d08dda"},"vehicle_type_id":"4","last_reported":1743412275,"current_range_meters":14000,"station_id":"ce4bh3h2rcd13ifvqdn0","pricing_plan_id":"cebpf4jnsgd1na2vs0mg"},{"bike_id":"0024be55-709e-4a0b-bbec-508ead006bac","system_id":"levelo_inurba_marseille","lat":43.28419,"lon":5.34986,"is_reserved":false,"is_disabled":false,"rental_uris":{"android":"levelo://app?vid=0024be55-709e-4a0b-bbec-508ead006bac","ios":"levelo://app?vid=0024be55-709e-4a0b-bbec-508ead006bac"},"vehicle_type_id":"4","last_reported":1743412275,"current_range_meters":14000,"station_id":"ce4bhbh2rcd13ifvqepg","pricing_plan_id":"cebpf4jnsgd1na2vs0mg"},{"bike_id":"3800d769-17c9-4494-95dc-dead0e353753","system_id":"levelo_inurba_marseille","lat":43.26947,"lon":5.38636,"is_reserved":false,"is_disabled":false,"rental_uris":{"android":"levelo://app?vid=3800d769-17c9-4494-95dc-dead0e353753","ios":"levelo://app?vid=3800d769-17c9-4494-95dc-dead0e353753"},"vehicle_type_id":"4","last_reported":1743412275,"current_range_meters":14400,"station_id":"ce4bhh92rcd13ifvqfh0","pricing_plan_id":"cebpf4jnsgd1na2vs0mg"},{"bike_id":"b3ca73e5-57bf-4da6-9ac6-6c30babe9b6c","system_id":"levelo_inurba_marseille","lat":43.29689,"lon":5.37285,"is_reserved":false,"is_disabled":false,"rental_uris":{"android":"levelo://app?vid=b3ca73e5-57bf-4da6-9ac6-6c30babe9b6c","ios":"levelo://app?vid=b3ca73e5-57bf-4da6-9ac6-6c30babe9b6c"},"vehicle_type_id":"4","last_reported":1743412275,"current_range_meters":14400,"station_id":"ce4bgk12rcd13ifvqbj0","pricing_plan_id":"cebpf4jnsgd1na2vs0mg"},{"bike_id":"8f4145c4-1bd6-401b-a227-c2c77bf7d7af","system_id":"levelo_inurba_marseille","lat":43.30249,"lon":5.40044,"is_reserved":false,"is_disabled":true,"rental_uris":{"android":"levelo://app?vid=8f4145c4-1bd6-401b-a227-c2c77bf7d7af","ios":"levelo://app?vid=8f4145c4-1bd6-401b-a227-c2c77bf7d7af"},"vehicle_type_id":"4","last_reported":1743412275,"current_range_meters":14400,"station_id":"ce4bgvh2rcd13ifvqcs0","pricing_plan_id":"cebpf4jnsgd1na2vs0mg"},{"bike_id":"2256a5a9-cce1-418d-8e93-736359c5f021","system_id":"levelo_inurba_marseille","lat":43.2315,"lon":5.43712,"is_reserved":false,"is_disabled":false,"rental_uris":{"android":"levelo://app?vid=2256a5a9-cce1-418d-8e93-736359c5f021","ios":"levelo://app?vid=2256a5a9-cce1-418d-8e93-736359c5f021"},"vehicle_type_id":"4","last_reported":1743412275,"current_range_meters":14400,"station_id":"ce4bhmp2rcd13ifvqgog","pricing_plan_id":"cebpf4jnsgd1na2vs0mg"},{"bike_id":"7372121a-b32c-414a-ba97-a711a799cd88","system_id":"levelo_inurba_marseille","lat":43.28573,"lon":5.39487,"is_reserved":false,"is_disabled":false,"rental_uris":{"android":"levelo://app?vid=7372121a-b32c-414a-ba97-a711a799cd88","ios":"levelo://app?vid=7372121a-b32c-414a-ba97-a711a799cd88"},"vehicle_type_id":"4","last_reported":1743412275,"current_range_meters":14400,"station_id":"ce4bh292rcd13ifvqdg0","pricing_plan_id":"cebpf4jnsgd1na2vs0mg"},{"bike_id":"a0898642-6ad4-4221-86d8-24418c54e8fc","system_id":"levelo_inurba_marseille","lat":43.27209,"lon":5.39175,"is_reserved":false,"is_disabled":false,"rental_uris":{"android":"levelo://app?vid=a0898642-6ad4-4221-86d8-24418c54e8fc","ios":"levelo://app?vid=a0898642-6ad4-4221-86d8-24418c54e8fc"},"vehicle_type_id":"4","last_reported":1743412275,"current_range_meters":14400,"station_id":"ce4bhhp2rcd13ifvqfm0","pricing_plan_id":"cebpf4jnsgd1na2vs0mg"},{"bike_id":"4d141094-037b-47ff-8aca-51fe3ecb919e","system_id":"levelo_inurba_marseille","lat":43.3014,"lon":5.3742,"is_reserved":false,"is_disabled":false,"rental_uris":{"android":"levelo://app?vid=4d141094-037b-47ff-8aca-51fe3ecb919e","ios":"levelo://app?vid=4d141094-037b-47ff-8aca-51fe3ecb919e"},"vehicle_type_id":"4","last_reported":1743412275,"current_range_meters":14800,"station_id":"ce4bgs92rcd13ifvqcc0","pricing_plan_id":"cebpf4jnsgd1na2vs0mg"},{"bike_id":"11616f39-29f1-4fc8-9d80-72b992e1abaf","system_id":"levelo_inurba_marseille","lat":43.2407,"lon":5.37697,"is_reserved":false,"is_disabled":false,"rental_uris":{"android":"levelo://app?vid=11616f39-29f1-4fc8-9d80-72b992e1abaf","ios":"levelo://app?vid=11616f39-29f1-4fc8-9d80-72b992e1abaf"},"vehicle_type_id":"4","last_reported":1743412275,"current_range_meters":14800,"station_id":"ce4bhnp2rcd13ifvqgvg","pricing_plan_id":"cebpf4jnsgd1na2vs0mg"},{"bike_id":"7a894edd-a4a4-40de-8b70-ca9fb3d5e3fd","system_id":"levelo_inurba_marseille","lat":43.31083,"lon":5.42431,"is_reserved":false,"is_disabled":false,"rental_uris":{"android":"levelo://app?vid=7a894edd-a4a4-40de-8b70-ca9fb3d5e3fd","ios":"levelo://app?vid=7a894edd-a4a4-40de-8b70-ca9fb3d5e3fd"},"vehicle_type_id":"4","last_reported":1743412275,"current_range_meters":15200,"station_id":"ce4bhp92rcd13ifvqhag","pricing_plan_id":"cebpf4jnsgd1na2vs0mg"},{"bike_id":"3ae5d4eb-c8ae-4388-b6fc-f0d3778b5b81","system_id":"levelo_inurba_marseille","lat":43.28477,"lon":5.38415,"is_reserved":false,"is_disabled":false,"rental_uris":{"android":"levelo://app?vid=3ae5d4eb-c8ae-4388-b6fc-f0d3778b5b81","ios":"levelo://app?vid=3ae5d4eb-c8ae-4388-b6fc-f0d3778b5b81"},"vehicle_type_id":"4","last_reported":1743412275,"current_range_meters":15200,"station_id":"ce4bh512rcd13ifvqe3g","pricing_plan_id":"cebpf4jnsgd1na2vs0mg"},{"bike_id":"6df0e861-e6fd-4074-b758-f7a411e79493","system_id":"levelo_inurba_marseille","lat":43.26956,"lon":5.38639,"is_reserved":false,"is_disabled":false,"rental_uris":{"android":"levelo://app?vid=6df0e861-e6fd-4074-b758-f7a411e79493","ios":"levelo://app?vid=6df0e861-e6fd-4074-b758-f7a411e79493"},"vehicle_type_id":"4","last_reported":1743412275,"current_range_meters":15200,"station_id":"ce4bhh92rcd13ifvqfh0","pricing_plan_id":"cebpf4jnsgd1na2vs0mg"},{"bike_id":"3d291240-df1b-412b-906b-3c8500f0489c","system_id":"levelo_inurba_marseille","lat":43.30152,"lon":5.38077,"is_reserved":false,"is_disabled":false,"rental_uris":{"android":"levelo://app?vid=3d291240-df1b-412b-906b-3c8500f0489c","ios":"levelo://app?vid=3d291240-df1b-412b-906b-3c8500f0489c"},"vehicle_type_id":"4","last_reported":1743412275,"current_range_meters":15200,"station_id":"ce4bgjp2rcd13ifvqbh0","pricing_plan_id":"cebpf4jnsgd1na2vs0mg"},{"bike_id":"666b44e7-b710-4f18-81e8-6a0f6cb4fe3b","system_id":"levelo_inurba_marseille","lat":43.3149,"lon":5.37291,"is_reserved":false,"is_disabled":false,"rental_uris":{"android":"levelo://app?vid=666b44e7-b710-4f18-81e8-6a0f6cb4fe3b","ios":"levelo://app?vid=666b44e7-b710-4f18-81e8-6a0f6cb4fe3b"},"vehicle_type_id":"4","last_reported":1743412275,"current_range_meters":15200,"station_id":"ce4bgt12rcd13ifvqcd0","pricing_plan_id":"cebpf4jnsgd1na2vs0mg"},{"bike_id":"c0df8ce0-b306-461c-9ebc-778c2050dfa4","system_id":"levelo_inurba_marseille","lat":43.30301,"lon":5.36911,"is_reserved":false,"is_disabled":false,"rental_uris":{"android":"levelo://app?vid=c0df8ce0-b306-461c-9ebc-778c2050dfa4","ios":"levelo://app?vid=c0df8ce0-b306-461c-9ebc-778c2050dfa4"},"vehicle_type_id":"4","last_reported":1743412275,"current_range_meters":16000,"station_id":"ce4bgqh2rcd13ifvqc5g","pricing_plan_id":"cebpf4jnsgd1na2vs0mg"},{"bike_id":"a324c80d-1449-4680-91a6-510ada448acb","system_id":"levelo_inurba_marseille","lat":43.32544,"lon":5.41473,"is_reserved":false,"is_disabled":false,"rental_uris":{"android":"levelo://app?vid=a324c80d-1449-4680-91a6-510ada448acb","ios":"levelo://app?vid=a324c80d-1449-4680-91a6-510ada448acb"},"vehicle_type_id":"4","last_reported":1743412275,"current_range_meters":16000,"station_id":"ce4bhq12rcd13ifvqhhg","pricing_plan_id":"cebpf4jnsgd1na2vs0mg"},{"bike_id":"bd368eb1-94ca-403e-a36f-40b278b7713b","system_id":"levelo_inurba_marseille","lat":43.30133,"lon":5.3877,"is_reserved":false,"is_disabled":true,"rental_uris":{"android":"levelo://app?vid=bd368eb1-94ca-403e-a36f-40b278b7713b","ios":"levelo://app?vid=bd368eb1-94ca-403e-a36f-40b278b7713b"},"vehicle_type_id":"4","last_reported":1743412275,"current_range_meters":16000,"station_id":"ce4bghh2rcd13ifvqb60","pricing_plan_id":"cebpf4jnsgd1na2vs0mg"},{"bike_id":"9076cba5-1376-4918-a6a1-9514e129d8a0","system_id":"levelo_inurba_marseille","lat":43.25939,"lon":5.40904,"is_reserved":false,"is_disabled":false,"rental_uris":{"android":"levelo://app?vid=9076cba5-1376-4918-a6a1-9514e129d8a0","ios":"levelo://app?vid=9076cba5-1376-4918-a6a1-9514e129d8a0"},"vehicle_type_id":"4","last_reported":1743412275,"current_range_meters":16000,"station_id":"ce4bhm92rcd13ifvqglg","pricing_plan_id":"cebpf4jnsgd1na2vs0mg"},{"bike_id":"bfa92972-9a31-4f10-8d6a-fcc07613edf8","system_id":"levelo_inurba_marseille","lat":43.27424,"lon":5.39407,"is_reserved":false,"is_disabled":false,"rental_uris":{"android":"levelo://app?vid=bfa92972-9a31-4f10-8d6a-fcc07613edf8","ios":"levelo://app?vid=bfa92972-9a31-4f10-8d6a-fcc07613edf8"},"vehicle_type_id":"4","last_reported":1743412275,"current_range_meters":16000,"station_id":"ce4bhdp2rcd13ifvqf20","pricing_plan_id":"cebpf4jnsgd1na2vs0mg"},{"bike_id":"8299abb6-46e2-4513-9a4e-564d17dd03a4","system_id":"levelo_inurba_marseille","lat":43.24065,"lon":5.37727,"is_reserved":false,"is_disabled":false,"rental_uris":{"android":"levelo://app?vid=8299abb6-46e2-4513-9a4e-564d17dd03a4","ios":"levelo://app?vid=8299abb6-46e2-4513-9a4e-564d17dd03a4"},"vehicle_type_id":"4","last_reported":1743412275,"current_range_meters":16000,"station_id":"ce4bhnp2rcd13ifvqgvg","pricing_plan_id":"cebpf4jnsgd1na2vs0mg"},{"bike_id":"563f1298-5e80-43d7-bd83-8b78e60378b3","system_id":"levelo_inurba_marseille","lat":43.30539,"lon":5.36525,"is_reserved":false,"is_disabled":false,"rental_uris":{"android":"levelo://app?vid=563f1298-5e80-43d7-bd83-8b78e60378b3","ios":"levelo://app?vid=563f1298-5e80-43d7-bd83-8b78e60378b3"},"vehicle_type_id":"4","last_reported":1743412275,"current_range_meters":16000,"station_id":"ce4bgs12rcd13ifvqcag","pricing_plan_id":"cebpf4jnsgd1na2vs0mg"},{"bike_id":"da56271d-f817-4d2a-b8ba-5220152f7401","system_id":"levelo_inurba_marseille","lat":43.30916,"lon":5.36861,"is_reserved":false,"is_disabled":false,"rental_uris":{"android":"levelo://app?vid=da56271d-f817-4d2a-b8ba-5220152f7401","ios":"levelo://app?vid=da56271d-f817-4d2a-b8ba-5220152f7401"},"vehicle_type_id":"4","last_reported":1743412275,"current_range_meters":16000,"station_id":"ce4bgn92rcd13ifvqbvg","pricing_plan_id":"cebpf4jnsgd1na2vs0mg"},{"bike_id":"5250d671-0de4-4b59-9123-3fcfe4aff0c7","system_id":"levelo_inurba_marseille","lat":43.24075,"lon":5.37763,"is_reserved":false,"is_disabled":false,"rental_uris":{"android":"levelo://app?vid=5250d671-0de4-4b59-9123-3fcfe4aff0c7","ios":"levelo://app?vid=5250d671-0de4-4b59-9123-3fcfe4aff0c7"},"vehicle_type_id":"4","last_reported":1743412275,"current_range_meters":16000,"station_id":"ce4bhnp2rcd13ifvqgvg","pricing_plan_id":"cebpf4jnsgd1na2vs0mg"},{"bike_id":"ef9d5cd2-85fe-4908-be3c-e150690cbc6b","system_id":"levelo_inurba_marseille","lat":43.27501,"lon":5.42463,"is_reserved":false,"is_disabled":false,"rental_uris":{"android":"levelo://app?vid=ef9d5cd2-85fe-4908-be3c-e150690cbc6b","ios":"levelo://app?vid=ef9d5cd2-85fe-4908-be3c-e150690cbc6b"},"vehicle_type_id":"4","last_reported":1743412275,"current_range_meters":16400,"station_id":"ce4bhn92rcd13ifvqgrg","pricing_plan_id":"cebpf4jnsgd1na2vs0mg"},{"bike_id":"3681230b-7c13-403f-bcb8-b8766b082d15","system_id":"levelo_inurba_marseille","lat":43.29586,"lon":5.38107,"is_reserved":false,"is_disabled":true,"rental_uris":{"android":"levelo://app?vid=3681230b-7c13-403f-bcb8-b8766b082d15","ios":"levelo://app?vid=3681230b-7c13-403f-bcb8-b8766b082d15"},"vehicle_type_id":"4","last_reported":1743412275,"current_range_meters":16400,"station_id":"ce4bgl12rcd13ifvqbo0","pricing_plan_id":"cebpf4jnsgd1na2vs0mg"},{"bike_id":"a9a1ec5e-e242-4104-8651-9b1cbd5d867f","system_id":"levelo_inurba_marseille","lat":43.29597,"lon":5.37701,"is_reserved":false,"is_disabled":true,"rental_uris":{"android":"levelo://app?vid=a9a1ec5e-e242-4104-8651-9b1cbd5d867f","ios":"levelo://app?vid=a9a1ec5e-e242-4104-8651-9b1cbd5d867f"},"vehicle_type_id":"4","last_reported":1743412275,"current_range_meters":16400,"station_id":"ce4bgi92rcd13ifvqb90","pricing_plan_id":"cebpf4jnsgd1na2vs0mg"},{"bike_id":"bcadf075-1982-4185-b43a-f20e04fedca6","system_id":"levelo_inurba_marseille","lat":43.29271,"lon":5.3685,"is_reserved":false,"is_disabled":true,"rental_uris":{"android":"levelo://app?vid=bcadf075-1982-4185-b43a-f20e04fedca6","ios":"levelo://app?vid=bcadf075-1982-4185-b43a-f20e04fedca6"},"vehicle_type_id":"4","last_reported":1743412275,"current_range_meters":16400,"station_id":"ce4bhbp2rcd13ifvqesg","pricing_plan_id":"cebpf4jnsgd1na2vs0mg"},{"bike_id":"1d750dbe-fff1-4da4-a93a-0b35f881efa1","system_id":"levelo_inurba_marseille","lat":43.28923,"lon":5.39644,"is_reserved":false,"is_disabled":false,"rental_uris":{"android":"levelo://app?vid=1d750dbe-fff1-4da4-a93a-0b35f881efa1","ios":"levelo://app?vid=1d750dbe-fff1-4da4-a93a-0b35f881efa1"},"vehicle_type_id":"4","last_reported":1743412275,"current_range_meters":16400,"station_id":"ce4bh3h2rcd13ifvqdn0","pricing_plan_id":"cebpf4jnsgd1na2vs0mg"},{"bike_id":"fde46fbb-d710-4201-a9d8-18dcf0d20d0b","system_id":"levelo_inurba_marseille","lat":43.30306,"lon":5.36917,"is_reserved":false,"is_disabled":true,"rental_uris":{"android":"levelo://app?vid=fde46fbb-d710-4201-a9d8-18dcf0d20d0b","ios":"levelo://app?vid=fde46fbb-d710-4201-a9d8-18dcf0d20d0b"},"vehicle_type_id":"4","last_reported":1743412275,"current_range_meters":16400,"station_id":"ce4bgqh2rcd13ifvqc5g","pricing_plan_id":"cebpf4jnsgd1na2vs0mg"},{"bike_id":"e094805d-be1b-4c50-b302-8f8eaa06ec56","system_id":"levelo_inurba_marseille","lat":43.26572,"lon":5.38998,"is_reserved":false,"is_disabled":false,"rental_uris":{"android":"levelo://app?vid=e094805d-be1b-4c50-b302-8f8eaa06ec56","ios":"levelo://app?vid=e094805d-be1b-4c50-b302-8f8eaa06ec56"},"vehicle_type_id":"4","last_reported":1743412275,"current_range_meters":16400,"station_id":"ce4bhe12rcd13ifvqf30","pricing_plan_id":"cebpf4jnsgd1na2vs0mg"},{"bike_id":"9f26f6b4-6f8c-41bd-9823-94cef41b22be","system_id":"levelo_inurba_marseille","lat":43.23188,"lon":5.39984,"is_reserved":false,"is_disabled":false,"rental_uris":{"android":"levelo://app?vid=9f26f6b4-6f8c-41bd-9823-94cef41b22be","ios":"levelo://app?vid=9f26f6b4-6f8c-41bd-9823-94cef41b22be"},"vehicle_type_id":"4","last_reported":1743412275,"current_range_meters":16400,"station_id":"ce4bhn12rcd13ifvqgqg","pricing_plan_id":"cebpf4jnsgd1na2vs0mg"},{"bike_id":"126fede5-c663-4b73-94e2-be521f89faab","system_id":"levelo_inurba_marseille","lat":43.284037,"lon":5.375161,"is_reserved":false,"is_disabled":false,"rental_uris":{"android":"levelo://app?vid=126fede5-c663-4b73-94e2-be521f89faab","ios":"levelo://app?vid=126fede5-c663-4b73-94e2-be521f89faab"},"vehicle_type_id":"4","last_reported":1743412275,"current_range_meters":16400,"station_id":"ce4bh412rcd13ifvqds0","pricing_plan_id":"cebpf4jnsgd1na2vs0mg"},{"bike_id":"af2ced9f-24bc-4884-8056-c026360e470c","system_id":"levelo_inurba_marseille","lat":43.30553,"lon":5.36718,"is_reserved":false,"is_disabled":false,"rental_uris":{"android":"levelo://app?vid=af2ced9f-24bc-4884-8056-c026360e470c","ios":"levelo://app?vid=af2ced9f-24bc-4884-8056-c026360e470c"},"vehicle_type_id":"4","last_reported":1743412275,"current_range_meters":16800,"station_id":"ce4bgrp2rcd13ifvqc9g","pricing_plan_id":"cebpf4jnsgd1na2vs0mg"},{"bike_id":"293a5c20-f3ad-4092-8137-f8d20f9a3d01","system_id":"levelo_inurba_marseille","lat":43.29024,"lon":5.37553,"is_reserved":false,"is_disabled":false,"rental_uris":{"android":"levelo://app?vid=293a5c20-f3ad-4092-8137-f8d20f9a3d01","ios":"levelo://app?vid=293a5c20-f3ad-4092-8137-f8d20f9a3d01"},"vehicle_type_id":"4","last_reported":1743412275,"current_range_meters":16800,"station_id":"ce4bh692rcd13ifvqe90","pricing_plan_id":"cebpf4jnsgd1na2vs0mg"},{"bike_id":"a53ecd45-d5f1-483d-86a4-c4d8d179d11b","system_id":"levelo_inurba_marseille","lat":43.26496,"lon":5.39548,"is_reserved":false,"is_disabled":false,"rental_uris":{"android":"levelo://app?vid=a53ecd45-d5f1-483d-86a4-c4d8d179d11b","ios":"levelo://app?vid=a53ecd45-d5f1-483d-86a4-c4d8d179d11b"},"vehicle_type_id":"4","last_reported":1743412275,"current_range_meters":16800,"station_id":"ce4bhi12rcd13ifvqfq0","pricing_plan_id":"cebpf4jnsgd1na2vs0mg"},{"bike_id":"4f8b10ea-275e-4d55-9947-438c3f762fef","system_id":"levelo_inurba_marseille","lat":43.29573,"lon":5.37521,"is_reserved":false,"is_disabled":false,"rental_uris":{"android":"levelo://app?vid=4f8b10ea-275e-4d55-9947-438c3f762fef","ios":"levelo://app?vid=4f8b10ea-275e-4d55-9947-438c3f762fef"},"vehicle_type_id":"4","last_reported":1743412275,"current_range_meters":16800,"station_id":"ce4bgh92rcd13ifvqb50","pricing_plan_id":"cebpf4jnsgd1na2vs0mg"},{"bike_id":"184186c1-2d2d-4067-9b33-c0de11a89d5f","system_id":"levelo_inurba_marseille","lat":43.30255,"lon":5.40077,"is_reserved":false,"is_disabled":false,"rental_uris":{"android":"levelo://app?vid=184186c1-2d2d-4067-9b33-c0de11a89d5f","ios":"levelo://app?vid=184186c1-2d2d-4067-9b33-c0de11a89d5f"},"vehicle_type_id":"4","last_reported":1743412275,"current_range_meters":16800,"station_id":"ce4bgvh2rcd13ifvqcs0","pricing_plan_id":"cebpf4jnsgd1na2vs0mg"},{"bike_id":"ab248eb0-2ce5-4769-ab48-8ff13a38c437","system_id":"levelo_inurba_marseille","lat":43.27502,"lon":5.42444,"is_reserved":false,"is_disabled":false,"rental_uris":{"android":"levelo://app?vid=ab248eb0-2ce5-4769-ab48-8ff13a38c437","ios":"levelo://app?vid=ab248eb0-2ce5-4769-ab48-8ff13a38c437"},"vehicle_type_id":"4","last_reported":1743412275,"current_range_meters":16800,"station_id":"ce4bhn92rcd13ifvqgrg","pricing_plan_id":"cebpf4jnsgd1na2vs0mg"},{"bike_id":"b38cf2fd-0618-4da8-925a-2313d2fb7755","system_id":"levelo_inurba_marseille","lat":43.298518,"lon":5.362811,"is_reserved":false,"is_disabled":false,"rental_uris":{"android":"levelo://app?vid=b38cf2fd-0618-4da8-925a-2313d2fb7755","ios":"levelo://app?vid=b38cf2fd-0618-4da8-925a-2313d2fb7755"},"vehicle_type_id":"4","last_reported":1743412275,"current_range_meters":16800,"station_id":"ce4bgpp2rcd13ifvqc3g","pricing_plan_id":"cebpf4jnsgd1na2vs0mg"},{"bike_id":"163042f9-7d1d-473a-af46-b9e77211e2ce","system_id":"levelo_inurba_marseille","lat":43.27502,"lon":5.42512,"is_reserved":false,"is_disabled":true,"rental_uris":{"android":"levelo://app?vid=163042f9-7d1d-473a-af46-b9e77211e2ce","ios":"levelo://app?vid=163042f9-7d1d-473a-af46-b9e77211e2ce"},"vehicle_type_id":"4","last_reported":1743412275,"current_range_meters":16800,"station_id":"ce4bhn92rcd13ifvqgrg","pricing_plan_id":"cebpf4jnsgd1na2vs0mg"},{"bike_id":"1ebfe4cd-2aa6-4da0-986a-d783c44b44a1","system_id":"levelo_inurba_marseille","lat":43.29002,"lon":5.35616,"is_reserved":false,"is_disabled":true,"rental_uris":{"android":"levelo://app?vid=1ebfe4cd-2aa6-4da0-986a-d783c44b44a1","ios":"levelo://app?vid=1ebfe4cd-2aa6-4da0-986a-d783c44b44a1"},"vehicle_type_id":"4","last_reported":1743412275,"current_range_meters":16800,"station_id":"ce4bhb92rcd13ifvqen0","pricing_plan_id":"cebpf4jnsgd1na2vs0mg"},{"bike_id":"a4890f61-e4fc-4de1-8069-0728a7798ada","system_id":"levelo_inurba_marseille","lat":43.30492,"lon":5.36578,"is_reserved":false,"is_disabled":false,"rental_uris":{"android":"levelo://app?vid=a4890f61-e4fc-4de1-8069-0728a7798ada","ios":"levelo://app?vid=a4890f61-e4fc-4de1-8069-0728a7798ada"},"vehicle_type_id":"4","last_reported":1743412275,"current_range_meters":17200,"station_id":"","pricing_plan_id":"cebpf4jnsgd1na2vs0mg"},{"bike_id":"97b10035-4fd4-42bf-96a0-00e43267393b","system_id":"levelo_inurba_marseille","lat":43.29857,"lon":5.36282,"is_reserved":false,"is_disabled":false,"rental_uris":{"android":"levelo://app?vid=97b10035-4fd4-42bf-96a0-00e43267393b","ios":"levelo://app?vid=97b10035-4fd4-42bf-96a0-00e43267393b"},"vehicle_type_id":"4","last_reported":1743412275,"current_range_meters":17200,"station_id":"ce4bgpp2rcd13ifvqc3g","pricing_plan_id":"cebpf4jnsgd1na2vs0mg"},{"bike_id":"4871b1d7-5636-4402-9245-441a9a36f4a5","system_id":"levelo_inurba_marseille","lat":43.29529,"lon":5.38552,"is_reserved":false,"is_disabled":true,"rental_uris":{"android":"levelo://app?vid=4871b1d7-5636-4402-9245-441a9a36f4a5","ios":"levelo://app?vid=4871b1d7-5636-4402-9245-441a9a36f4a5"},"vehicle_type_id":"4","last_reported":1743412275,"current_range_meters":17200,"station_id":"ce4bgih2rcd13ifvqba0","pricing_plan_id":"cebpf4jnsgd1na2vs0mg"},{"bike_id":"e96b24b9-5928-47a9-a3af-1ab7a754a0d9","system_id":"levelo_inurba_marseille","lat":43.25952,"lon":5.40895,"is_reserved":false,"is_disabled":false,"rental_uris":{"android":"levelo://app?vid=e96b24b9-5928-47a9-a3af-1ab7a754a0d9","ios":"levelo://app?vid=e96b24b9-5928-47a9-a3af-1ab7a754a0d9"},"vehicle_type_id":"4","last_reported":1743412275,"current_range_meters":17200,"station_id":"ce4bhm92rcd13ifvqglg","pricing_plan_id":"cebpf4jnsgd1na2vs0mg"},{"bike_id":"50fb14eb-dcad-48dc-89d6-d608bd10d81c","system_id":"levelo_inurba_marseille","lat":43.29093,"lon":5.38114,"is_reserved":false,"is_disabled":false,"rental_uris":{"android":"levelo://app?vid=50fb14eb-dcad-48dc-89d6-d608bd10d81c","ios":"levelo://app?vid=50fb14eb-dcad-48dc-89d6-d608bd10d81c"},"vehicle_type_id":"4","last_reported":1743412275,"current_range_meters":17200,"station_id":"ce4bh512rcd13ifvqe2g","pricing_plan_id":"cebpf4jnsgd1na2vs0mg"},{"bike_id":"9d8b51bf-fd65-426c-9799-839498b24ee9","system_id":"levelo_inurba_marseille","lat":43.30667,"lon":5.36625,"is_reserved":false,"is_disabled":true,"rental_uris":{"android":"levelo://app?vid=9d8b51bf-fd65-426c-9799-839498b24ee9","ios":"levelo://app?vid=9d8b51bf-fd65-426c-9799-839498b24ee9"},"vehicle_type_id":"4","last_reported":1743412275,"current_range_meters":17200,"station_id":"","pricing_plan_id":"cebpf4jnsgd1na2vs0mg"},{"bike_id":"62709315-aa4b-4b05-9df9-eb8eef4cc98d","system_id":"levelo_inurba_marseille","lat":43.28458,"lon":5.35886,"is_reserved":false,"is_disabled":false,"rental_uris":{"android":"levelo://app?vid=62709315-aa4b-4b05-9df9-eb8eef4cc98d","ios":"levelo://app?vid=62709315-aa4b-4b05-9df9-eb8eef4cc98d"},"vehicle_type_id":"4","last_reported":1743412275,"current_range_meters":17200,"station_id":"ce4bhah2rcd13ifvqei0","pricing_plan_id":"cebpf4jnsgd1na2vs0mg"},{"bike_id":"86dc83d2-803f-4099-b079-7f6d977bb526","system_id":"levelo_inurba_marseille","lat":43.28938,"lon":5.3961,"is_reserved":false,"is_disabled":false,"rental_uris":{"android":"levelo://app?vid=86dc83d2-803f-4099-b079-7f6d977bb526","ios":"levelo://app?vid=86dc83d2-803f-4099-b079-7f6d977bb526"},"vehicle_type_id":"4","last_reported":1743412275,"current_range_meters":17200,"station_id":"ce4bh3h2rcd13ifvqdn0","pricing_plan_id":"cebpf4jnsgd1na2vs0mg"},{"bike_id":"c99fe5f8-e66d-4696-a715-aa5ff6733a94","system_id":"levelo_inurba_marseille","lat":43.26812,"lon":5.40276,"is_reserved":false,"is_disabled":true,"rental_uris":{"android":"levelo://app?vid=c99fe5f8-e66d-4696-a715-aa5ff6733a94","ios":"levelo://app?vid=c99fe5f8-e66d-4696-a715-aa5ff6733a94"},"vehicle_type_id":"4","last_reported":1743412275,"current_range_meters":17200,"station_id":"ce501612rcd8frsf0b60","pricing_plan_id":"cebpf4jnsgd1na2vs0mg"},{"bike_id":"1b63ccb2-1298-4d96-b7f3-6ad6cace00e9","system_id":"levelo_inurba_marseille","lat":43.26116,"lon":5.40085,"is_reserved":false,"is_disabled":false,"rental_uris":{"android":"levelo://app?vid=1b63ccb2-1298-4d96-b7f3-6ad6cace00e9","ios":"levelo://app?vid=1b63ccb2-1298-4d96-b7f3-6ad6cace00e9"},"vehicle_type_id":"4","last_reported":1743412275,"current_range_meters":17200,"station_id":"","pricing_plan_id":"cebpf4jnsgd1na2vs0mg"},{"bike_id":"0a861bce-e43b-4e0f-88cb-e1f4c36e3623","system_id":"levelo_inurba_marseille","lat":43.26678,"lon":5.38269,"is_reserved":false,"is_disabled":false,"rental_uris":{"android":"levelo://app?vid=0a861bce-e43b-4e0f-88cb-e1f4c36e3623","ios":"levelo://app?vid=0a861bce-e43b-4e0f-88cb-e1f4c36e3623"},"vehicle_type_id":"4","last_reported":1743412275,"current_range_meters":17200,"station_id":"ce4bhg92rcd13ifvqf90","pricing_plan_id":"cebpf4jnsgd1na2vs0mg"},{"bike_id":"1b080efe-9aa1-4362-a76b-5badf837911e","system_id":"levelo_inurba_marseille","lat":43.30141,"lon":5.37421,"is_reserved":false,"is_disabled":false,"rental_uris":{"android":"levelo://app?vid=1b080efe-9aa1-4362-a76b-5badf837911e","ios":"levelo://app?vid=1b080efe-9aa1-4362-a76b-5badf837911e"},"vehicle_type_id":"4","last_reported":1743412275,"current_range_meters":17200,"station_id":"ce4bgs92rcd13ifvqcc0","pricing_plan_id":"cebpf4jnsgd1na2vs0mg"},{"bike_id":"f9a2a5f0-9c98-43ac-84ca-a9b38b605fa6","system_id":"levelo_inurba_marseille","lat":43.30545,"lon":5.366863,"is_reserved":false,"is_disabled":false,"rental_uris":{"android":"levelo://app?vid=f9a2a5f0-9c98-43ac-84ca-a9b38b605fa6","ios":"levelo://app?vid=f9a2a5f0-9c98-43ac-84ca-a9b38b605fa6"},"vehicle_type_id":"4","last_reported":1743412275,"current_range_meters":17200,"station_id":"ce4bgrp2rcd13ifvqc9g","pricing_plan_id":"cebpf4jnsgd1na2vs0mg"},{"bike_id":"9f4ff802-7775-42cb-a98a-e3a9c65a1f54","system_id":"levelo_inurba_marseille","lat":43.29046,"lon":5.39961,"is_reserved":false,"is_disabled":true,"rental_uris":{"android":"levelo://app?vid=9f4ff802-7775-42cb-a98a-e3a9c65a1f54","ios":"levelo://app?vid=9f4ff802-7775-42cb-a98a-e3a9c65a1f54"},"vehicle_type_id":"4","last_reported":1743412275,"current_range_meters":17200,"station_id":"ce4bh392rcd13ifvqdm0","pricing_plan_id":"cebpf4jnsgd1na2vs0mg"},{"bike_id":"e47bc61d-df2d-41b3-b26b-dd94e6e5e301","system_id":"levelo_inurba_marseille","lat":43.26248,"lon":5.42119,"is_reserved":false,"is_disabled":false,"rental_uris":{"android":"levelo://app?vid=e47bc61d-df2d-41b3-b26b-dd94e6e5e301","ios":"levelo://app?vid=e47bc61d-df2d-41b3-b26b-dd94e6e5e301"},"vehicle_type_id":"4","last_reported":1743412275,"current_range_meters":17200,"station_id":"","pricing_plan_id":"cebpf4jnsgd1na2vs0mg"},{"bike_id":"f74ab59f-be69-4dbf-bb7a-b8d19bcdb4f1","system_id":"levelo_inurba_marseille","lat":43.26147,"lon":5.37934,"is_reserved":false,"is_disabled":true,"rental_uris":{"android":"levelo://app?vid=f74ab59f-be69-4dbf-bb7a-b8d19bcdb4f1","ios":"levelo://app?vid=f74ab59f-be69-4dbf-bb7a-b8d19bcdb4f1"},"vehicle_type_id":"4","last_reported":1743412275,"current_range_meters":17200,"station_id":"","pricing_plan_id":"cebpf4jnsgd1na2vs0mg"},{"bike_id":"27773214-4312-4127-aa54-e74cba3d6d07","system_id":"levelo_inurba_marseille","lat":43.27812,"lon":5.40712,"is_reserved":false,"is_disabled":false,"rental_uris":{"android":"levelo://app?vid=27773214-4312-4127-aa54-e74cba3d6d07","ios":"levelo://app?vid=27773214-4312-4127-aa54-e74cba3d6d07"},