{"last_updated":1752448301,"ttl":60,"version":"2.2","data":{"bikes":[{"bike_id":"ca0eac11-53fa-490f-b485-1fc2981beea7","system_id":"levelo_inurba_marseille","lat":43.30552,"lon":5.38427,"is_reserved":false,"is_disabled":false,"rental_uris":{"android":"levelo://app?vid=ca0eac11-53fa-490f-b485-1fc2981beea7","ios":"levelo://app?vid=ca0eac11-53fa-490f-b485-1fc2981beea7"},"vehicle_type_id":"4","last_reported":1752448301,"current_range_meters":2800,"station_id":"ce4bgg92rcd13ifvqb30","pricing_plan_id":"cebpf4jnsgd1na2vs0mg"},{"bike_id":"2f0ba75c-aff3-43f4-857b-fc7c66f4e426","system_id":"levelo_inurba_marseille","lat":43.309739,"lon":5.390434,"is_reserved":false,"is_disabled":true,"rental_uris":{"android":"levelo://app?vid=2f0ba75c-aff3-43f4-857b-fc7c66f4e426","ios":"levelo://app?vid=2f0ba75c-aff3-43f4-857b-fc7c66f4e426"},"vehicle_type_id":"4","last_reported":1752448301,"current_range_meters":2800,"station_id":"ce4bgup2rcd13ifvqco0","pricing_plan_id":"cebpf4jnsgd1na2vs0mg"},{"bike_id":"4f25b010-bb0b-4e2d-aff7-d4f5558e0651","system_id":"levelo_inurba_marseille","lat":43.26215,"lon":5.37464,"is_reserved":false,"is_disabled":true,"rental_uris":{"android":"levelo://app?vid=4f25b010-bb0b-4e2d-aff7-d4f5558e0651","ios":"levelo://app?vid=4f25b010-bb0b-4e2d-aff7-d4f5558e0651"},"vehicle_type_id":"4","last_reported":1752448301,"current_range_meters":2800,"station_id":"ce4bhgp2rcd13ifvqfc0","pricing_plan_id":"cebpf4jnsgd1na2vs0mg"},{"bike_id":"7b202aa3-0b61-4790-aafb-38b79425e5f2","system_id":"levelo_inurba_marseille","lat":43.3031,"lon":5.39205,"is_reserved":false,"is_disabled":false,"rental_uris":{"android":"levelo://app?vid=7b202aa3-0b61-4790-aafb-38b79425e5f2","ios":"levelo://app?vid=7b202aa3-0b61-4790-aafb-38b79425e5f2"},"vehicle_type_id":"4","last_reported":1752448301,"current_range_meters":3600,"station_id":"ce4bgkh2rcd13ifvqbk0","pricing_plan_id":"cebpf4jnsgd1na2vs0mg"},{"bike_id":"69a98ef8-9b4f-490a-b1e7-11ae49fc387b","system_id":"levelo_inurba_marseille","lat":43.211911,"lon":5.350669,"is_reserved":false,"is_disabled":false,"rental_uris":{"android":"levelo://app?vid=69a98ef8-9b4f-490a-b1e7-11ae49fc387b","ios":"levelo://app?vid=69a98ef8-9b4f-490a-b1e7-11ae49fc387b"},"vehicle_type_id":"4","last_reported":1752448301,"current_range_meters":3600,"station_id":"st_cvj6sg6p6f1abm77japg","pricing_plan_id":"cebpf4jnsgd1na2vs0mg"},{"bike_id":"c448c1fd-79d9-481b-8824-11cea0b8f0a7","system_id":"levelo_inurba_marseille","lat":43.29404,"lon":5.38802,"is_reserved":false,"is_disabled":false,"rental_uris":{"android":"levelo://app?vid=c448c1fd-79d9-481b-8824-11cea0b8f0a7","ios":"levelo://app?vid=c448c1fd-79d9-481b-8824-11cea0b8f0a7"},"vehicle_type_id":"4","last_reported":1752448301,"current_range_meters":3600,"station_id":"","pricing_plan_id":"cebpf4jnsgd1na2vs0mg"},{"bike_id":"e3a75ee9-c614-467b-8cc2-f813bcef2ab1","system_id":"levelo_inurba_marseille","lat":43.33743,"lon":5.3919,"is_reserved":false,"is_disabled":true,"rental_uris":{"android":"levelo://app?vid=e3a75ee9-c614-467b-8cc2-f813bcef2ab1","ios":"levelo://app?vid=e3a75ee9-c614-467b-8cc2-f813bcef2ab1"},"vehicle_type_id":"4","last_reported":1752448301,"current_range_meters":3600,"station_id":"ce4bhr92rcd13ifvqhsg","pricing_plan_id":"cebpf4jnsgd1na2vs0mg"},{"bike_id":"c9f30f31-5f36-407f-bd57-53abe880eb5b","system_id":"levelo_inurba_marseille","lat":43.28454,"lon":5.35886,"is_reserved":false,"is_disabled":false,"rental_uris":{"android":"levelo://app?vid=c9f30f31-5f36-407f-bd57-53abe880eb5b","ios":"levelo://app?vid=c9f30f31-5f36-407f-bd57-53abe880eb5b"},"vehicle_type_id":"4","last_reported":1752448301,"current_range_meters":4000,"station_id":"ce4bhah2rcd13ifvqei0","pricing_plan_id":"cebpf4jnsgd1na2vs0mg"},{"bike_id":"36cb2f1d-db21-4eae-8417-fa1e874e8c92","system_id":"levelo_inurba_marseille","lat":43.309326,"lon":5.382311,"is_reserved":false,"is_disabled":false,"rental_uris":{"android":"levelo://app?vid=36cb2f1d-db21-4eae-8417-fa1e874e8c92","ios":"levelo://app?vid=36cb2f1d-db21-4eae-8417-fa1e874e8c92"},"vehicle_type_id":"4","last_reported":1752448301,"current_range_meters":4400,"station_id":"","pricing_plan_id":"cebpf4jnsgd1na2vs0mg"},{"bike_id":"e5538033-a4b5-4f83-8325-2f09963bd86f","system_id":"levelo_inurba_marseille","lat":43.29709,"lon":5.36593,"is_reserved":false,"is_disabled":false,"rental_uris":{"android":"levelo://app?vid=e5538033-a4b5-4f83-8325-2f09963bd86f","ios":"levelo://app?vid=e5538033-a4b5-4f83-8325-2f09963bd86f"},"vehicle_type_id":"4","last_reported":1752448301,"current_range_meters":10800,"station_id":"ce4bgn12rcd13ifvqbt0","pricing_plan_id":"cebpf4jnsgd1na2vs0mg"},{"bike_id":"df61839a-7a72-4634-9960-e8ea0d9a8d35","system_id":"levelo_inurba_marseille","lat":43.239474,"lon":5.366089,"is_reserved":false,"is_disabled":true,"rental_uris":{"android":"levelo://app?vid=df61839a-7a72-4634-9960-e8ea0d9a8d35","ios":"levelo://app?vid=df61839a-7a72-4634-9960-e8ea0d9a8d35"},"vehicle_type_id":"4","last_reported":1752448301,"current_range_meters":4400,"station_id":"","pricing_plan_id":"cebpf4jnsgd1na2vs0mg"},{"bike_id":"d49b02ab-b160-4c5d-a715-7bc574eb21e6","system_id":"levelo_inurba_marseille","lat":43.30865,"lon":5.397074,"is_reserved":false,"is_disabled":false,"rental_uris":{"android":"levelo://app?vid=d49b02ab-b160-4c5d-a715-7bc574eb21e6","ios":"levelo://app?vid=d49b02ab-b160-4c5d-a715-7bc574eb21e6"},"vehicle_type_id":"4","last_reported":1752448301,"current_range_meters":4400,"station_id":"ce4bh012rcd13ifvqcv0","pricing_plan_id":"cebpf4jnsgd1na2vs0mg"},{"bike_id":"8735e370-966f-4201-a551-c21b229dd31b","system_id":"levelo_inurba_marseille","lat":43.29875,"lon":5.39731,"is_reserved":false,"is_disabled":false,"rental_uris":{"android":"levelo://app?vid=8735e370-966f-4201-a551-c21b229dd31b","ios":"levelo://app?vid=8735e370-966f-4201-a551-c21b229dd31b"},"vehicle_type_id":"4","last_reported":1752448301,"current_range_meters":4400,"station_id":"ce4bh0h2rcd13ifvqd50","pricing_plan_id":"cebpf4jnsgd1na2vs0mg"},{"bike_id":"87991947-21b8-4b64-b6d4-5bae920498b7","system_id":"levelo_inurba_marseille","lat":43.30945,"lon":5.3902,"is_reserved":false,"is_disabled":true,"rental_uris":{"android":"levelo://app?vid=87991947-21b8-4b64-b6d4-5bae920498b7","ios":"levelo://app?vid=87991947-21b8-4b64-b6d4-5bae920498b7"},"vehicle_type_id":"4","last_reported":1752448301,"current_range_meters":4800,"station_id":"ce4bgup2rcd13ifvqco0","pricing_plan_id":"cebpf4jnsgd1na2vs0mg"},{"bike_id":"8929c1bf-fd4d-44e4-aa66-b3eb6538c998","system_id":"levelo_inurba_marseille","lat":43.28567,"lon":5.42942,"is_reserved":false,"is_disabled":false,"rental_uris":{"android":"levelo://app?vid=8929c1bf-fd4d-44e4-aa66-b3eb6538c998","ios":"levelo://app?vid=8929c1bf-fd4d-44e4-aa66-b3eb6538c998"},"vehicle_type_id":"4","last_reported":1752448301,"current_range_meters":5600,"station_id":"","pricing_plan_id":"cebpf4jnsgd1na2vs0mg"},{"bike_id":"152ce229-a886-4fd8-9ef5-6177c053fc0d","system_id":"levelo_inurba_marseille","lat":43.31375,"lon":5.385,"is_reserved":false,"is_disabled":false,"rental_uris":{"android":"levelo://app?vid=152ce229-a886-4fd8-9ef5-6177c053fc0d","ios":"levelo://app?vid=152ce229-a886-4fd8-9ef5-6177c053fc0d"},"vehicle_type_id":"4","last_reported":1752448301,"current_range_meters":5600,"station_id":"ce4bgt92rcd13ifvqcf0","pricing_plan_id":"cebpf4jnsgd1na2vs0mg"},{"bike_id":"3440e539-2a25-45a6-91a1-9c3e29b7b1e2","system_id":"levelo_inurba_marseille","lat":43.31368,"lon":5.38504,"is_reserved":false,"is_disabled":true,"rental_uris":{"android":"levelo://app?vid=3440e539-2a25-45a6-91a1-9c3e29b7b1e2","ios":"levelo://app?vid=3440e539-2a25-45a6-91a1-9c3e29b7b1e2"},"vehicle_type_id":"4","last_reported":1752448301,"current_range_meters":5600,"station_id":"ce4bgt92rcd13ifvqcf0","pricing_plan_id":"cebpf4jnsgd1na2vs0mg"},{"bike_id":"7d979f4d-837d-4923-bea4-9309987ed4f7","system_id":"levelo_inurba_marseille","lat":43.27906,"lon":5.396,"is_reserved":false,"is_disabled":true,"rental_uris":{"android":"levelo://app?vid=7d979f4d-837d-4923-bea4-9309987ed4f7","ios":"levelo://app?vid=7d979f4d-837d-4923-bea4-9309987ed4f7"},"vehicle_type_id":"4","last_reported":1752448301,"current_range_meters":5600,"station_id":"ce4bhf92rcd13ifvqf40","pricing_plan_id":"cebpf4jnsgd1na2vs0mg"},{"bike_id":"37b1337c-282e-48b8-aa69-48191bbf952a","system_id":"levelo_inurba_marseille","lat":43.2707,"lon":5.42282,"is_reserved":false,"is_disabled":false,"rental_uris":{"android":"levelo://app?vid=37b1337c-282e-48b8-aa69-48191bbf952a","ios":"levelo://app?vid=37b1337c-282e-48b8-aa69-48191bbf952a"},"vehicle_type_id":"4","last_reported":1752448301,"current_range_meters":5600,"station_id":"ce4bhk92rcd13ifvqgb0","pricing_plan_id":"cebpf4jnsgd1na2vs0mg"},{"bike_id":"7b01c54a-1435-4269-9be3-6a000260f3d9","system_id":"levelo_inurba_marseille","lat":43.3032,"lon":5.40446,"is_reserved":false,"is_disabled":false,"rental_uris":{"android":"levelo://app?vid=7b01c54a-1435-4269-9be3-6a000260f3d9","ios":"levelo://app?vid=7b01c54a-1435-4269-9be3-6a000260f3d9"},"vehicle_type_id":"4","last_reported":1752448301,"current_range_meters":6000,"station_id":"ce4bh012rcd13ifvqd10","pricing_plan_id":"cebpf4jnsgd1na2vs0mg"},{"bike_id":"422ac485-bc7b-4361-b00c-af28364f94e4","system_id":"levelo_inurba_marseille","lat":43.228102,"lon":5.349677,"is_reserved":false,"is_disabled":false,"rental_uris":{"android":"levelo://app?vid=422ac485-bc7b-4361-b00c-af28364f94e4","ios":"levelo://app?vid=422ac485-bc7b-4361-b00c-af28364f94e4"},"vehicle_type_id":"4","last_reported":1752448301,"current_range_meters":6000,"station_id":"","pricing_plan_id":"cebpf4jnsgd1na2vs0mg"},{"bike_id":"718c5c30-99ff-4049-b8c6-489de4df2e5b","system_id":"levelo_inurba_marseille","lat":43.248052,"lon":5.374574,"is_reserved":false,"is_disabled":false,"rental_uris":{"android":"levelo://app?vid=718c5c30-99ff-4049-b8c6-489de4df2e5b","ios":"levelo://app?vid=718c5c30-99ff-4049-b8c6-489de4df2e5b"},"vehicle_type_id":"4","last_reported":1752448301,"current_range_meters":6000,"station_id":"ce4bhgh2rcd13ifvqfb0","pricing_plan_id":"cebpf4jnsgd1na2vs0mg"},{"bike_id":"dbba3321-20c7-4989-a7b5-ea9ab2c4b3e8","system_id":"levelo_inurba_marseille","lat":43.261935,"lon":5.374477,"is_reserved":false,"is_disabled":true,"rental_uris":{"android":"levelo://app?vid=dbba3321-20c7-4989-a7b5-ea9ab2c4b3e8","ios":"levelo://app?vid=dbba3321-20c7-4989-a7b5-ea9ab2c4b3e8"},"vehicle_type_id":"4","last_reported":1752448301,"current_range_meters":6000,"station_id":"ce4bhgp2rcd13ifvqfc0","pricing_plan_id":"cebpf4jnsgd1na2vs0mg"},{"bike_id":"ae6b9bb3-31c8-4302-91c6-0e6b059eb0f3","system_id":"levelo_inurba_marseille","lat":43.33807,"lon":5.37399,"is_reserved":false,"is_disabled":true,"rental_uris":{"android":"levelo://app?vid=ae6b9bb3-31c8-4302-91c6-0e6b059eb0f3","ios":"levelo://app?vid=ae6b9bb3-31c8-4302-91c6-0e6b059eb0f3"},"vehicle_type_id":"4","last_reported":1752448301,"current_range_meters":6400,"station_id":"","pricing_plan_id":"cebpf4jnsgd1na2vs0mg"},{"bike_id":"5a71ab42-51f6-4d74-8942-e5c8339f2255","system_id":"levelo_inurba_marseille","lat":43.3173,"lon":5.39054,"is_reserved":false,"is_disabled":true,"rental_uris":{"android":"levelo://app?vid=5a71ab42-51f6-4d74-8942-e5c8339f2255","ios":"levelo://app?vid=5a71ab42-51f6-4d74-8942-e5c8339f2255"},"vehicle_type_id":"4","last_reported":1752448301,"current_range_meters":6400,"station_id":"ce4bhqp2rcd13ifvqhng","pricing_plan_id":"cebpf4jnsgd1na2vs0mg"},{"bike_id":"c245a8b9-ee0f-431f-84a3-71c2fd8a236c","system_id":"levelo_inurba_marseille","lat":43.29885,"lon":5.39759,"is_reserved":false,"is_disabled":false,"rental_uris":{"android":"levelo://app?vid=c245a8b9-ee0f-431f-84a3-71c2fd8a236c","ios":"levelo://app?vid=c245a8b9-ee0f-431f-84a3-71c2fd8a236c"},"vehicle_type_id":"4","last_reported":1752448301,"current_range_meters":6400,"station_id":"ce4bh0h2rcd13ifvqd50","pricing_plan_id":"cebpf4jnsgd1na2vs0mg"},{"bike_id":"99d474df-68da-40b1-b16d-b1f1439bfdf5","system_id":"levelo_inurba_marseille","lat":43.32662,"lon":5.40994,"is_reserved":false,"is_disabled":false,"rental_uris":{"android":"levelo://app?vid=99d474df-68da-40b1-b16d-b1f1439bfdf5","ios":"levelo://app?vid=99d474df-68da-40b1-b16d-b1f1439bfdf5"},"vehicle_type_id":"4","last_reported":1752448301,"current_range_meters":6400,"station_id":"ce4bhpp2rcd13ifvqhgg","pricing_plan_id":"cebpf4jnsgd1na2vs0mg"},{"bike_id":"7b624790-b21b-46d1-a9ca-774e836eea2b","system_id":"levelo_inurba_marseille","lat":43.29701,"lon":5.36603,"is_reserved":false,"is_disabled":true,"rental_uris":{"android":"levelo://app?vid=7b624790-b21b-46d1-a9ca-774e836eea2b","ios":"levelo://app?vid=7b624790-b21b-46d1-a9ca-774e836eea2b"},"vehicle_type_id":"4","last_reported":1752448301,"current_range_meters":6400,"station_id":"ce4bgn12rcd13ifvqbt0","pricing_plan_id":"cebpf4jnsgd1na2vs0mg"},{"bike_id":"b8f51c20-df7e-43e0-8cd1-5c52bdb6ed2b","system_id":"levelo_inurba_marseille","lat":43.24167,"lon":5.36393,"is_reserved":false,"is_disabled":false,"rental_uris":{"android":"levelo://app?vid=b8f51c20-df7e-43e0-8cd1-5c52bdb6ed2b","ios":"levelo://app?vid=b8f51c20-df7e-43e0-8cd1-5c52bdb6ed2b"},"vehicle_type_id":"4","last_reported":1752448301,"current_range_meters":6400,"station_id":"cpo36qri1sfpv3e86is0","pricing_plan_id":"cebpf4jnsgd1na2vs0mg"},{"bike_id":"4e18f6a0-cf0a-4e54-823e-14d073e25d70","system_id":"levelo_inurba_marseille","lat":43.28042,"lon":5.36931,"is_reserved":false,"is_disabled":true,"rental_uris":{"android":"levelo://app?vid=4e18f6a0-cf0a-4e54-823e-14d073e25d70","ios":"levelo://app?vid=4e18f6a0-cf0a-4e54-823e-14d073e25d70"},"vehicle_type_id":"4","last_reported":1752448301,"current_range_meters":6800,"station_id":"ce4bha12rcd13ifvqef0","pricing_plan_id":"cebpf4jnsgd1na2vs0mg"},{"bike_id":"02883b92-225f-428d-a8a6-4844ec1f2d26","system_id":"levelo_inurba_marseille","lat":43.30654,"lon":5.37449,"is_reserved":false,"is_disabled":true,"rental_uris":{"android":"levelo://app?vid=02883b92-225f-428d-a8a6-4844ec1f2d26","ios":"levelo://app?vid=02883b92-225f-428d-a8a6-4844ec1f2d26"},"vehicle_type_id":"4","last_reported":1752448301,"current_range_meters":6800,"station_id":"","pricing_plan_id":"cebpf4jnsgd1na2vs0mg"},{"bike_id":"acf96f63-b9b5-4fa6-96a7-b60d8e3a91ed","system_id":"levelo_inurba_marseille","lat":43.29632,"lon":5.40594,"is_reserved":false,"is_disabled":false,"rental_uris":{"android":"levelo://app?vid=acf96f63-b9b5-4fa6-96a7-b60d8e3a91ed","ios":"levelo://app?vid=acf96f63-b9b5-4fa6-96a7-b60d8e3a91ed"},"vehicle_type_id":"4","last_reported":1752448301,"current_range_meters":7200,"station_id":"ce4bh0h2rcd13ifvqd60","pricing_plan_id":"cebpf4jnsgd1na2vs0mg"},{"bike_id":"e08ab3f9-a585-45a2-b1f6-585bd943727c","system_id":"levelo_inurba_marseille","lat":43.2844,"lon":5.39203,"is_reserved":false,"is_disabled":false,"rental_uris":{"android":"levelo://app?vid=e08ab3f9-a585-45a2-b1f6-585bd943727c","ios":"levelo://app?vid=e08ab3f9-a585-45a2-b1f6-585bd943727c"},"vehicle_type_id":"4","last_reported":1752448301,"current_range_meters":7200,"station_id":"ce4bhoh2rcd13ifvqh5g","pricing_plan_id":"cebpf4jnsgd1na2vs0mg"},{"bike_id":"696aca5a-f985-42f2-b5f7-74ca3a442dcb","system_id":"levelo_inurba_marseille","lat":43.30989,"lon":5.37562,"is_reserved":false,"is_disabled":false,"rental_uris":{"android":"levelo://app?vid=696aca5a-f985-42f2-b5f7-74ca3a442dcb","ios":"levelo://app?vid=696aca5a-f985-42f2-b5f7-74ca3a442dcb"},"vehicle_type_id":"4","last_reported":1752448301,"current_range_meters":7200,"station_id":"","pricing_plan_id":"cebpf4jnsgd1na2vs0mg"},{"bike_id":"8650facc-58e4-47db-8da4-d3936b919632","system_id":"levelo_inurba_marseille","lat":43.306152,"lon":5.393508,"is_reserved":false,"is_disabled":true,"rental_uris":{"android":"levelo://app?vid=8650facc-58e4-47db-8da4-d3936b919632","ios":"levelo://app?vid=8650facc-58e4-47db-8da4-d3936b919632"},"vehicle_type_id":"4","last_reported":1752448301,"current_range_meters":7200,"station_id":"ce4bh0p2rcd13ifvqd80","pricing_plan_id":"cebpf4jnsgd1na2vs0mg"},{"bike_id":"c943f36c-53e9-4486-b306-d9d59d955d5c","system_id":"levelo_inurba_marseille","lat":43.30394,"lon":5.39775,"is_reserved":false,"is_disabled":false,"rental_uris":{"android":"levelo://app?vid=c943f36c-53e9-4486-b306-d9d59d955d5c","ios":"levelo://app?vid=c943f36c-53e9-4486-b306-d9d59d955d5c"},"vehicle_type_id":"4","last_reported":1752448301,"current_range_meters":7200,"station_id":"ce4bh092rcd13ifvqd20","pricing_plan_id":"cebpf4jnsgd1na2vs0mg"},{"bike_id":"2a2d61dc-f6b8-4fbe-a93d-8141ea73f0dd","system_id":"levelo_inurba_marseille","lat":43.31399,"lon":5.38495,"is_reserved":false,"is_disabled":false,"rental_uris":{"android":"levelo://app?vid=2a2d61dc-f6b8-4fbe-a93d-8141ea73f0dd","ios":"levelo://app?vid=2a2d61dc-f6b8-4fbe-a93d-8141ea73f0dd"},"vehicle_type_id":"4","last_reported":1752448301,"current_range_meters":8000,"station_id":"ce4bgt92rcd13ifvqcf0","pricing_plan_id":"cebpf4jnsgd1na2vs0mg"},{"bike_id":"44dd919c-32df-4fe9-8b1c-c9988fb68d5b","system_id":"levelo_inurba_marseille","lat":43.2696,"lon":5.40272,"is_reserved":false,"is_disabled":true,"rental_uris":{"android":"levelo://app?vid=44dd919c-32df-4fe9-8b1c-c9988fb68d5b","ios":"levelo://app?vid=44dd919c-32df-4fe9-8b1c-c9988fb68d5b"},"vehicle_type_id":"4","last_reported":1752448301,"current_range_meters":8400,"station_id":"cjm6bp8fraef2m0cb0m0","pricing_plan_id":"cebpf4jnsgd1na2vs0mg"},{"bike_id":"988407eb-f287-4ddc-bcab-367922ef6fc0","system_id":"levelo_inurba_marseille","lat":43.29766,"lon":5.38972,"is_reserved":false,"is_disabled":false,"rental_uris":{"android":"levelo://app?vid=988407eb-f287-4ddc-bcab-367922ef6fc0","ios":"levelo://app?vid=988407eb-f287-4ddc-bcab-367922ef6fc0"},"vehicle_type_id":"4","last_reported":1752448301,"current_range_meters":8400,"station_id":"","pricing_plan_id":"cebpf4jnsgd1na2vs0mg"},{"bike_id":"96d54fdb-5835-4cd8-9827-093c0b08e4ca","system_id":"levelo_inurba_marseille","lat":43.21254,"lon":5.35087,"is_reserved":false,"is_disabled":false,"rental_uris":{"android":"levelo://app?vid=96d54fdb-5835-4cd8-9827-093c0b08e4ca","ios":"levelo://app?vid=96d54fdb-5835-4cd8-9827-093c0b08e4ca"},"vehicle_type_id":"4","last_reported":1752448301,"current_range_meters":8400,"station_id":"","pricing_plan_id":"cebpf4jnsgd1na2vs0mg"},{"bike_id":"ec97ad84-b959-4406-80e1-07b34e250fac","system_id":"levelo_inurba_marseille","lat":43.30961,"lon":5.39034,"is_reserved":false,"is_disabled":false,"rental_uris":{"android":"levelo://app?vid=ec97ad84-b959-4406-80e1-07b34e250fac","ios":"levelo://app?vid=ec97ad84-b959-4406-80e1-07b34e250fac"},"vehicle_type_id":"4","last_reported":1752448301,"current_range_meters":8400,"station_id":"ce4bgup2rcd13ifvqco0","pricing_plan_id":"cebpf4jnsgd1na2vs0mg"},{"bike_id":"77f25772-7624-4eeb-9279-c5dceab45101","system_id":"levelo_inurba_marseille","lat":43.31486,"lon":5.3731,"is_reserved":false,"is_disabled":false,"rental_uris":{"android":"levelo://app?vid=77f25772-7624-4eeb-9279-c5dceab45101","ios":"levelo://app?vid=77f25772-7624-4eeb-9279-c5dceab45101"},"vehicle_type_id":"4","last_reported":1752448301,"current_range_meters":8400,"station_id":"ce4bgt12rcd13ifvqcd0","pricing_plan_id":"cebpf4jnsgd1na2vs0mg"},{"bike_id":"281fc462-9282-4cc4-92df-23ba287db8d2","system_id":"levelo_inurba_marseille","lat":43.3014,"lon":5.39861,"is_reserved":false,"is_disabled":false,"rental_uris":{"android":"levelo://app?vid=281fc462-9282-4cc4-92df-23ba287db8d2","ios":"levelo://app?vid=281fc462-9282-4cc4-92df-23ba287db8d2"},"vehicle_type_id":"4","last_reported":1752448301,"current_range_meters":8400,"station_id":"ce4bh0h2rcd13ifvqd40","pricing_plan_id":"cebpf4jnsgd1na2vs0mg"},{"bike_id":"31983777-8f2e-4731-9c64-65a88973ccfc","system_id":"levelo_inurba_marseille","lat":43.29279,"lon":5.40884,"is_reserved":false,"is_disabled":false,"rental_uris":{"android":"levelo://app?vid=31983777-8f2e-4731-9c64-65a88973ccfc","ios":"levelo://app?vid=31983777-8f2e-4731-9c64-65a88973ccfc"},"vehicle_type_id":"4","last_reported":1752448301,"current_range_meters":8400,"station_id":"ce4bh192rcd13ifvqdc0","pricing_plan_id":"cebpf4jnsgd1na2vs0mg"},{"bike_id":"470d1e9d-8c05-40b8-a6b2-039f183b9f6a","system_id":"levelo_inurba_marseille","lat":43.2319,"lon":5.35555,"is_reserved":false,"is_disabled":true,"rental_uris":{"android":"levelo://app?vid=470d1e9d-8c05-40b8-a6b2-039f183b9f6a","ios":"levelo://app?vid=470d1e9d-8c05-40b8-a6b2-039f183b9f6a"},"vehicle_type_id":"4","last_reported":1752448301,"current_range_meters":8400,"station_id":"ce4bhu92rcd13ifvqi70","pricing_plan_id":"cebpf4jnsgd1na2vs0mg"},{"bike_id":"6070c3be-7535-4c90-8ef1-277f2efabd61","system_id":"levelo_inurba_marseille","lat":43.292384,"lon":5.400684,"is_reserved":false,"is_disabled":false,"rental_uris":{"android":"levelo://app?vid=6070c3be-7535-4c90-8ef1-277f2efabd61","ios":"levelo://app?vid=6070c3be-7535-4c90-8ef1-277f2efabd61"},"vehicle_type_id":"4","last_reported":1752448301,"current_range_meters":8400,"station_id":"ce4bh312rcd13ifvqdk0","pricing_plan_id":"cebpf4jnsgd1na2vs0mg"},{"bike_id":"afb3e3b0-3b35-40a1-a3d9-2a416ca6d8c0","system_id":"levelo_inurba_marseille","lat":43.27376,"lon":5.36257,"is_reserved":false,"is_disabled":true,"rental_uris":{"android":"levelo://app?vid=afb3e3b0-3b35-40a1-a3d9-2a416ca6d8c0","ios":"levelo://app?vid=afb3e3b0-3b35-40a1-a3d9-2a416ca6d8c0"},"vehicle_type_id":"4","last_reported":1752448301,"current_range_meters":8800,"station_id":"ce4bhbh2rcd13ifvqeo0","pricing_plan_id":"cebpf4jnsgd1na2vs0mg"},{"bike_id":"65883a7b-bd5c-4b24-ae39-eddf40b41674","system_id":"levelo_inurba_marseille","lat":43.31373,"lon":5.38492,"is_reserved":false,"is_disabled":false,"rental_uris":{"android":"levelo://app?vid=65883a7b-bd5c-4b24-ae39-eddf40b41674","ios":"levelo://app?vid=65883a7b-bd5c-4b24-ae39-eddf40b41674"},"vehicle_type_id":"4","last_reported":1752448301,"current_range_meters":8800,"station_id":"ce4bgt92rcd13ifvqcf0","pricing_plan_id":"cebpf4jnsgd1na2vs0mg"},{"bike_id":"64b9adf6-2ad7-44ee-bada-74fa9bf7262f","system_id":"levelo_inurba_marseille","lat":43.30321,"lon":5.38614,"is_reserved":false,"is_disabled":false,"rental_uris":{"android":"levelo://app?vid=64b9adf6-2ad7-44ee-bada-74fa9bf7262f","ios":"levelo://app?vid=64b9adf6-2ad7-44ee-bada-74fa9bf7262f"},"vehicle_type_id":"4","last_reported":1752448301,"current_range_meters":8800,"station_id":"","pricing_plan_id":"cebpf4jnsgd1na2vs0mg"},{"bike_id":"3969163a-ce84-4f86-970d-59b31b264b1c","system_id":"levelo_inurba_marseille","lat":43.28716,"lon":5.39955,"is_reserved":false,"is_disabled":false,"rental_uris":{"android":"levelo://app?vid=3969163a-ce84-4f86-970d-59b31b264b1c","ios":"levelo://app?vid=3969163a-ce84-4f86-970d-59b31b264b1c"},"vehicle_type_id":"4","last_reported":1752448301,"current_range_meters":8800,"station_id":"ce4bho92rcd13ifvqh3g","pricing_plan_id":"cebpf4jnsgd1na2vs0mg"},{"bike_id":"0b0f1962-1ccb-4bc3-895b-70f8484b3602","system_id":"levelo_inurba_marseille","lat":43.28714,"lon":5.36113,"is_reserved":false,"is_disabled":true,"rental_uris":{"android":"levelo://app?vid=0b0f1962-1ccb-4bc3-895b-70f8484b3602","ios":"levelo://app?vid=0b0f1962-1ccb-4bc3-895b-70f8484b3602"},"vehicle_type_id":"4","last_reported":1752448301,"current_range_meters":8800,"station_id":"cki0cbj6b192h4jlfktg","pricing_plan_id":"cebpf4jnsgd1na2vs0mg"},{"bike_id":"4d4f14cc-ac6a-4446-8502-f487e7d660d3","system_id":"levelo_inurba_marseille","lat":43.30539,"lon":5.36531,"is_reserved":false,"is_disabled":false,"rental_uris":{"android":"levelo://app?vid=4d4f14cc-ac6a-4446-8502-f487e7d660d3","ios":"levelo://app?vid=4d4f14cc-ac6a-4446-8502-f487e7d660d3"},"vehicle_type_id":"4","last_reported":1752448301,"current_range_meters":9200,"station_id":"ce4bgs12rcd13ifvqcag","pricing_plan_id":"cebpf4jnsgd1na2vs0mg"},{"bike_id":"7a888645-4b0c-4379-98d8-380a5347b74c","system_id":"levelo_inurba_marseille","lat":43.27375,"lon":5.36259,"is_reserved":false,"is_disabled":true,"rental_uris":{"android":"levelo://app?vid=7a888645-4b0c-4379-98d8-380a5347b74c","ios":"levelo://app?vid=7a888645-4b0c-4379-98d8-380a5347b74c"},"vehicle_type_id":"4","last_reported":1752448301,"current_range_meters":9200,"station_id":"ce4bhbh2rcd13ifvqeo0","pricing_plan_id":"cebpf4jnsgd1na2vs0mg"},{"bike_id":"089f1cc1-5510-4a1f-b746-0cbb6ac94a21","system_id":"levelo_inurba_marseille","lat":43.30882,"lon":5.39633,"is_reserved":false,"is_disabled":false,"rental_uris":{"android":"levelo://app?vid=089f1cc1-5510-4a1f-b746-0cbb6ac94a21","ios":"levelo://app?vid=089f1cc1-5510-4a1f-b746-0cbb6ac94a21"},"vehicle_type_id":"4","last_reported":1752448301,"current_range_meters":8800,"station_id":"ce4bh012rcd13ifvqcv0","pricing_plan_id":"cebpf4jnsgd1na2vs0mg"},{"bike_id":"5d522e77-ec27-4fd6-a510-ea7d6f16223a","system_id":"levelo_inurba_marseille","lat":43.275963,"lon":5.37091,"is_reserved":false,"is_disabled":false,"rental_uris":{"android":"levelo://app?vid=5d522e77-ec27-4fd6-a510-ea7d6f16223a","ios":"levelo://app?vid=5d522e77-ec27-4fd6-a510-ea7d6f16223a"},"vehicle_type_id":"4","last_reported":1752448301,"current_range_meters":9200,"station_id":"","pricing_plan_id":"cebpf4jnsgd1na2vs0mg"},{"bike_id":"1bfa1b76-fa6d-4cdd-aff5-612b86c512c4","system_id":"levelo_inurba_marseille","lat":43.265767,"lon":5.389895,"is_reserved":false,"is_disabled":true,"rental_uris":{"android":"levelo://app?vid=1bfa1b76-fa6d-4cdd-aff5-612b86c512c4","ios":"levelo://app?vid=1bfa1b76-fa6d-4cdd-aff5-612b86c512c4"},"vehicle_type_id":"4","last_reported":1752448301,"current_range_meters":9200,"station_id":"ce4bhe12rcd13ifvqf30","pricing_plan_id":"cebpf4jnsgd1na2vs0mg"},{"bike_id":"86d9a854-5b0a-4a4e-ac8f-1467e9e497ab","system_id":"levelo_inurba_marseille","lat":43.28696,"lon":5.37384,"is_reserved":false,"is_disabled":false,"rental_uris":{"android":"levelo://app?vid=86d9a854-5b0a-4a4e-ac8f-1467e9e497ab","ios":"levelo://app?vid=86d9a854-5b0a-4a4e-ac8f-1467e9e497ab"},"vehicle_type_id":"4","last_reported":1752448301,"current_range_meters":9200,"station_id":"ce4bh3p2rcd13ifvqdq0","pricing_plan_id":"cebpf4jnsgd1na2vs0mg"},{"bike_id":"31f76825-7b9f-439a-a66c-521eb63e58c1","system_id":"levelo_inurba_marseille","lat":43.294618,"lon":5.438495,"is_reserved":false,"is_disabled":false,"rental_uris":{"android":"levelo://app?vid=31f76825-7b9f-439a-a66c-521eb63e58c1","ios":"levelo://app?vid=31f76825-7b9f-439a-a66c-521eb63e58c1"},"vehicle_type_id":"4","last_reported":1752448301,"current_range_meters":9200,"station_id":"","pricing_plan_id":"cebpf4jnsgd1na2vs0mg"},{"bike_id":"f79a201f-2376-4565-8a84-7d95cbfcc4ee","system_id":"levelo_inurba_marseille","lat":43.30313,"lon":5.40449,"is_reserved":false,"is_disabled":false,"rental_uris":{"android":"levelo://app?vid=f79a201f-2376-4565-8a84-7d95cbfcc4ee","ios":"levelo://app?vid=f79a201f-2376-4565-8a84-7d95cbfcc4ee"},"vehicle_type_id":"4","last_reported":1752448301,"current_range_meters":11200,"station_id":"ce4bh012rcd13ifvqd10","pricing_plan_id":"cebpf4jnsgd1na2vs0mg"},{"bike_id":"9a8b0931-f754-41b1-83c6-b9eee7982ee0","system_id":"levelo_inurba_marseille","lat":43.30354,"lon":5.41888,"is_reserved":false,"is_disabled":true,"rental_uris":{"android":"levelo://app?vid=9a8b0931-f754-41b1-83c6-b9eee7982ee0","ios":"levelo://app?vid=9a8b0931-f754-41b1-83c6-b9eee7982ee0"},"vehicle_type_id":"4","last_reported":1752448301,"current_range_meters":9600,"station_id":"ce4bhop2rcd13ifvqh7g","pricing_plan_id":"cebpf4jnsgd1na2vs0mg"},{"bike_id":"a8c7cffa-a31e-4b6a-a255-e85d4b604a43","system_id":"levelo_inurba_marseille","lat":43.24172,"lon":5.36397,"is_reserved":false,"is_disabled":false,"rental_uris":{"android":"levelo://app?vid=a8c7cffa-a31e-4b6a-a255-e85d4b604a43","ios":"levelo://app?vid=a8c7cffa-a31e-4b6a-a255-e85d4b604a43"},"vehicle_type_id":"4","last_reported":1752448301,"current_range_meters":9600,"station_id":"cpo36qri1sfpv3e86is0","pricing_plan_id":"cebpf4jnsgd1na2vs0mg"},{"bike_id":"1e68cf7f-f679-49ec-9fa4-c8fe322ba3d2","system_id":"levelo_inurba_marseille","lat":43.292753,"lon":5.401257,"is_reserved":false,"is_disabled":false,"rental_uris":{"android":"levelo://app?vid=1e68cf7f-f679-49ec-9fa4-c8fe322ba3d2","ios":"levelo://app?vid=1e68cf7f-f679-49ec-9fa4-c8fe322ba3d2"},"vehicle_type_id":"4","last_reported":1752448301,"current_range_meters":9600,"station_id":"ce4bh312rcd13ifvqdk0","pricing_plan_id":"cebpf4jnsgd1na2vs0mg"},{"bike_id":"279fb5e8-e5bd-4894-8a04-966bfcafc260","system_id":"levelo_inurba_marseille","lat":43.28715,"lon":5.39968,"is_reserved":false,"is_disabled":false,"rental_uris":{"android":"levelo://app?vid=279fb5e8-e5bd-4894-8a04-966bfcafc260","ios":"levelo://app?vid=279fb5e8-e5bd-4894-8a04-966bfcafc260"},"vehicle_type_id":"4","last_reported":1752448301,"current_range_meters":9600,"station_id":"ce4bho92rcd13ifvqh3g","pricing_plan_id":"cebpf4jnsgd1na2vs0mg"},{"bike_id":"49801dc2-618a-44b8-84ae-416cd87fdbe9","system_id":"levelo_inurba_marseille","lat":43.33786,"lon":5.37481,"is_reserved":false,"is_disabled":false,"rental_uris":{"android":"levelo://app?vid=49801dc2-618a-44b8-84ae-416cd87fdbe9","ios":"levelo://app?vid=49801dc2-618a-44b8-84ae-416cd87fdbe9"},"vehicle_type_id":"4","last_reported":1752448301,"current_range_meters":9600,"station_id":"","pricing_plan_id":"cebpf4jnsgd1na2vs0mg"},{"bike_id":"d8b6ec65-5113-45dc-8fcb-8ac205bb5e85","system_id":"levelo_inurba_marseille","lat":43.273289,"lon":5.390598,"is_reserved":false,"is_disabled":false,"rental_uris":{"android":"levelo://app?vid=d8b6ec65-5113-45dc-8fcb-8ac205bb5e85","ios":"levelo://app?vid=d8b6ec65-5113-45dc-8fcb-8ac205bb5e85"},"vehicle_type_id":"4","last_reported":1752448301,"current_range_meters":9600,"station_id":"ce4bhi12rcd13ifvqfq0","pricing_plan_id":"cebpf4jnsgd1na2vs0mg"},{"bike_id":"9eeeb173-3a73-4b2c-b660-ded64c8451a0","system_id":"levelo_inurba_marseille","lat":43.28709,"lon":5.37368,"is_reserved":false,"is_disabled":false,"rental_uris":{"android":"levelo://app?vid=9eeeb173-3a73-4b2c-b660-ded64c8451a0","ios":"levelo://app?vid=9eeeb173-3a73-4b2c-b660-ded64c8451a0"},"vehicle_type_id":"4","last_reported":1752448301,"current_range_meters":10000,"station_id":"ce4bh3p2rcd13ifvqdq0","pricing_plan_id":"cebpf4jnsgd1na2vs0mg"},{"bike_id":"23192353-e18f-43dd-a564-3fe03bf4eaf7","system_id":"levelo_inurba_marseille","lat":43.31686,"lon":5.40474,"is_reserved":false,"is_disabled":false,"rental_uris":{"android":"levelo://app?vid=23192353-e18f-43dd-a564-3fe03bf4eaf7","ios":"levelo://app?vid=23192353-e18f-43dd-a564-3fe03bf4eaf7"},"vehicle_type_id":"4","last_reported":1752448301,"current_range_meters":10000,"station_id":"ce4bh012rcd13ifvqd00","pricing_plan_id":"cebpf4jnsgd1na2vs0mg"},{"bike_id":"a645d6c0-dcdf-402b-b506-c70f20c3f081","system_id":"levelo_inurba_marseille","lat":43.31404,"lon":5.38485,"is_reserved":false,"is_disabled":true,"rental_uris":{"android":"levelo://app?vid=a645d6c0-dcdf-402b-b506-c70f20c3f081","ios":"levelo://app?vid=a645d6c0-dcdf-402b-b506-c70f20c3f081"},"vehicle_type_id":"4","last_reported":1752448301,"current_range_meters":10800,"station_id":"","pricing_plan_id":"cebpf4jnsgd1na2vs0mg"},{"bike_id":"bd1431e6-d85e-4e07-a132-6569384efa06","system_id":"levelo_inurba_marseille","lat":43.310685,"lon":5.383481,"is_reserved":false,"is_disabled":false,"rental_uris":{"android":"levelo://app?vid=bd1431e6-d85e-4e07-a132-6569384efa06","ios":"levelo://app?vid=bd1431e6-d85e-4e07-a132-6569384efa06"},"vehicle_type_id":"4","last_reported":1752448301,"current_range_meters":10800,"station_id":"ce4bgv92rcd13ifvqcr0","pricing_plan_id":"cebpf4jnsgd1na2vs0mg"},{"bike_id":"8b37f03f-f226-4bbc-8648-b109da7ba145","system_id":"levelo_inurba_marseille","lat":43.30536,"lon":5.366999,"is_reserved":false,"is_disabled":false,"rental_uris":{"android":"levelo://app?vid=8b37f03f-f226-4bbc-8648-b109da7ba145","ios":"levelo://app?vid=8b37f03f-f226-4bbc-8648-b109da7ba145"},"vehicle_type_id":"4","last_reported":1752448301,"current_range_meters":10800,"station_id":"","pricing_plan_id":"cebpf4jnsgd1na2vs0mg"},{"bike_id":"f23760ff-ab61-4853-aa67-28aac93822c1","system_id":"levelo_inurba_marseille","lat":43.337444,"lon":5.374475,"is_reserved":false,"is_disabled":false,"rental_uris":{"android":"levelo://app?vid=f23760ff-ab61-4853-aa67-28aac93822c1","ios":"levelo://app?vid=f23760ff-ab61-4853-aa67-28aac93822c1"},"vehicle_type_id":"4","last_reported":1752448301,"current_range_meters":10800,"station_id":"","pricing_plan_id":"cebpf4jnsgd1na2vs0mg"},{"bike_id":"0bf49351-11d6-442e-a7c4-c49646b03453","system_id":"levelo_inurba_marseille","lat":43.25124,"lon":5.40315,"is_reserved":false,"is_disabled":false,"rental_uris":{"android":"levelo://app?vid=0bf49351-11d6-442e-a7c4-c49646b03453","ios":"levelo://app?vid=0bf49351-11d6-442e-a7c4-c49646b03453"},"vehicle_type_id":"4","last_reported":1752448301,"current_range_meters":11200,"station_id":"ce4bhlh2rcd13ifvqgig","pricing_plan_id":"cebpf4jnsgd1na2vs0mg"},{"bike_id":"51378491-c452-4b69-ae2c-0fff777f9f92","system_id":"levelo_inurba_marseille","lat":43.30093,"lon":5.39078,"is_reserved":false,"is_disabled":false,"rental_uris":{"android":"levelo://app?vid=51378491-c452-4b69-ae2c-0fff777f9f92","ios":"levelo://app?vid=51378491-c452-4b69-ae2c-0fff777f9f92"},"vehicle_type_id":"4","last_reported":1752448301,"current_range_meters":11200,"station_id":"ce4bh192rcd13ifvqdb0","pricing_plan_id":"cebpf4jnsgd1na2vs0mg"},{"bike_id":"f63da923-3bbf-442d-8686-70b882874b09","system_id":"levelo_inurba_marseille","lat":43.26859,"lon":5.38853,"is_reserved":false,"is_disabled":false,"rental_uris":{"android":"levelo://app?vid=f63da923-3bbf-442d-8686-70b882874b09","ios":"levelo://app?vid=f63da923-3bbf-442d-8686-70b882874b09"},"vehicle_type_id":"4","last_reported":1752448301,"current_range_meters":12000,"station_id":"","pricing_plan_id":"cebpf4jnsgd1na2vs0mg"},{"bike_id":"f3a4af3d-24a3-40b1-84d2-6466ea893cd2","system_id":"levelo_inurba_marseille","lat":43.28823,"lon":5.39284,"is_reserved":false,"is_disabled":false,"rental_uris":{"android":"levelo://app?vid=f3a4af3d-24a3-40b1-84d2-6466ea893cd2","ios":"levelo://app?vid=f3a4af3d-24a3-40b1-84d2-6466ea893cd2"},"vehicle_type_id":"4","last_reported":1752448301,"current_range_meters":11200,"station_id":"ce4bh2p2rcd13ifvqdi0","pricing_plan_id":"cebpf4jnsgd1na2vs0mg"},{"bike_id":"da970016-921a-459c-8ab5-665b3f95f5da","system_id":"levelo_inurba_marseille","lat":43.31333,"lon":5.39691,"is_reserved":false,"is_disabled":false,"rental_uris":{"android":"levelo://app?vid=da970016-921a-459c-8ab5-665b3f95f5da","ios":"levelo://app?vid=da970016-921a-459c-8ab5-665b3f95f5da"},"vehicle_type_id":"4","last_reported":1752448301,"current_range_meters":11600,"station_id":"ce4bgvp2rcd13ifvqcu0","pricing_plan_id":"cebpf4jnsgd1na2vs0mg"},{"bike_id":"62fac614-47b6-4ccf-9920-6cea6ff3d419","system_id":"levelo_inurba_marseille","lat":43.2305,"lon":5.35499,"is_reserved":false,"is_disabled":true,"rental_uris":{"android":"levelo://app?vid=62fac614-47b6-4ccf-9920-6cea6ff3d419","ios":"levelo://app?vid=62fac614-47b6-4ccf-9920-6cea6ff3d419"},"vehicle_type_id":"4","last_reported":1752448301,"current_range_meters":11600,"station_id":"cpo3342slgdg3j2ifvpg","pricing_plan_id":"cebpf4jnsgd1na2vs0mg"},{"bike_id":"59bd944e-8158-4d03-98d6-e97af0707782","system_id":"levelo_inurba_marseille","lat":43.21189,"lon":5.35066,"is_reserved":false,"is_disabled":false,"rental_uris":{"android":"levelo://app?vid=59bd944e-8158-4d03-98d6-e97af0707782","ios":"levelo://app?vid=59bd944e-8158-4d03-98d6-e97af0707782"},"vehicle_type_id":"4","last_reported":1752448301,"current_range_meters":11600,"station_id":"st_cvj6sg6p6f1abm77japg","pricing_plan_id":"cebpf4jnsgd1na2vs0mg"},{"bike_id":"3eb11630-449c-463f-b819-e0b639186e64","system_id":"levelo_inurba_marseille","lat":43.30319,"lon":5.40445,"is_reserved":false,"is_disabled":false,"rental_uris":{"android":"levelo://app?vid=3eb11630-449c-463f-b819-e0b639186e64","ios":"levelo://app?vid=3eb11630-449c-463f-b819-e0b639186e64"},"vehicle_type_id":"4","last_reported":1752448301,"current_range_meters":11600,"station_id":"ce4bh012rcd13ifvqd10","pricing_plan_id":"cebpf4jnsgd1na2vs0mg"},{"bike_id":"90aa84a6-0427-4abb-8b3c-6c42a992ad92","system_id":"levelo_inurba_marseille","lat":43.264156,"lon":5.392292,"is_reserved":false,"is_disabled":false,"rental_uris":{"android":"levelo://app?vid=90aa84a6-0427-4abb-8b3c-6c42a992ad92","ios":"levelo://app?vid=90aa84a6-0427-4abb-8b3c-6c42a992ad92"},"vehicle_type_id":"4","last_reported":1752448301,"current_range_meters":12000,"station_id":"","pricing_plan_id":"cebpf4jnsgd1na2vs0mg"},{"bike_id":"601412b0-6528-47af-965e-1711a93589ae","system_id":"levelo_inurba_marseille","lat":43.29558,"lon":5.42283,"is_reserved":false,"is_disabled":false,"rental_uris":{"android":"levelo://app?vid=601412b0-6528-47af-965e-1711a93589ae","ios":"levelo://app?vid=601412b0-6528-47af-965e-1711a93589ae"},"vehicle_type_id":"4","last_reported":1752448301,"current_range_meters":12000,"station_id":"ce4bhph2rcd13ifvqhdg","pricing_plan_id":"cebpf4jnsgd1na2vs0mg"},{"bike_id":"755f5a2b-ffe3-41e3-b53b-f76d7bf8470a","system_id":"levelo_inurba_marseille","lat":43.27942,"lon":5.41042,"is_reserved":false,"is_disabled":false,"rental_uris":{"android":"levelo://app?vid=755f5a2b-ffe3-41e3-b53b-f76d7bf8470a","ios":"levelo://app?vid=755f5a2b-ffe3-41e3-b53b-f76d7bf8470a"},"vehicle_type_id":"4","last_reported":1752448301,"current_range_meters":12000,"station_id":"ce4bhnp2rcd13ifvqh0g","pricing_plan_id":"cebpf4jnsgd1na2vs0mg"},{"bike_id":"08d804b1-df6f-4e13-8de0-b91da5966c34","system_id":"levelo_inurba_marseille","lat":43.32342,"lon":5.40618,"is_reserved":false,"is_disabled":false,"rental_uris":{"android":"levelo://app?vid=08d804b1-df6f-4e13-8de0-b91da5966c34","ios":"levelo://app?vid=08d804b1-df6f-4e13-8de0-b91da5966c34"},"vehicle_type_id":"4","last_reported":1752448301,"current_range_meters":12000,"station_id":"ce4bhq92rcd13ifvqhjg","pricing_plan_id":"cebpf4jnsgd1na2vs0mg"},{"bike_id":"d623ecbd-19d7-4dfa-8766-56387ca8d9c1","system_id":"levelo_inurba_marseille","lat":43.26801,"lon":5.40269,"is_reserved":false,"is_disabled":false,"rental_uris":{"android":"levelo://app?vid=d623ecbd-19d7-4dfa-8766-56387ca8d9c1","ios":"levelo://app?vid=d623ecbd-19d7-4dfa-8766-56387ca8d9c1"},"vehicle_type_id":"4","last_reported":1752448301,"current_range_meters":12000,"station_id":"ce501612rcd8frsf0b60","pricing_plan_id":"cebpf4jnsgd1na2vs0mg"},{"bike_id":"e2ce6e8a-ef9f-4211-8776-042780e4931d","system_id":"levelo_inurba_marseille","lat":43.2859,"lon":5.35391,"is_reserved":false,"is_disabled":true,"rental_uris":{"android":"levelo://app?vid=e2ce6e8a-ef9f-4211-8776-042780e4931d","ios":"levelo://app?vid=e2ce6e8a-ef9f-4211-8776-042780e4931d"},"vehicle_type_id":"4","last_reported":1752448301,"current_range_meters":12000,"station_id":"ce4bhbh2rcd13ifvqepg","pricing_plan_id":"cebpf4jnsgd1na2vs0mg"},{"bike_id":"7048b274-bb73-4f78-bd84-2dffe4927289","system_id":"levelo_inurba_marseille","lat":43.29799,"lon":5.39354,"is_reserved":false,"is_disabled":true,"rental_uris":{"android":"levelo://app?vid=7048b274-bb73-4f78-bd84-2dffe4927289","ios":"levelo://app?vid=7048b274-bb73-4f78-bd84-2dffe4927289"},"vehicle_type_id":"4","last_reported":1752448301,"current_range_meters":12000,"station_id":"chh1huq6cuj3fo74tm60","pricing_plan_id":"cebpf4jnsgd1na2vs0mg"},{"bike_id":"82480575-d0db-4ceb-a82d-aed2e3f90cb8","system_id":"levelo_inurba_marseille","lat":43.30783,"lon":5.37636,"is_reserved":false,"is_disabled":false,"rental_uris":{"android":"levelo://app?vid=82480575-d0db-4ceb-a82d-aed2e3f90cb8","ios":"levelo://app?vid=82480575-d0db-4ceb-a82d-aed2e3f90cb8"},"vehicle_type_id":"4","last_reported":1752448301,"current_range_meters":12000,"station_id":"ce4bgv92rcd13ifvqcq0","pricing_plan_id":"cebpf4jnsgd1na2vs0mg"},{"bike_id":"0eadb807-73f6-424a-bcd7-3b07bd18ff50","system_id":"levelo_inurba_marseille","lat":43.32084,"lon":5.36844,"is_reserved":false,"is_disabled":false,"rental_uris":{"android":"levelo://app?vid=0eadb807-73f6-424a-bcd7-3b07bd18ff50","ios":"levelo://app?vid=0eadb807-73f6-424a-bcd7-3b07bd18ff50"},"vehicle_type_id":"4","last_reported":1752448301,"current_range_meters":12000,"station_id":"ce4bhrh2rcd13ifvqhug","pricing_plan_id":"cebpf4jnsgd1na2vs0mg"},{"bike_id":"bd6600f4-1058-4041-b41e-b1fea56f6cb4","system_id":"levelo_inurba_marseille","lat":43.284161,"lon":5.375179,"is_reserved":false,"is_disabled":false,"rental_uris":{"android":"levelo://app?vid=bd6600f4-1058-4041-b41e-b1fea56f6cb4","ios":"levelo://app?vid=bd6600f4-1058-4041-b41e-b1fea56f6cb4"},"vehicle_type_id":"4","last_reported":1752448301,"current_range_meters":12000,"station_id":"ce4bh412rcd13ifvqds0","pricing_plan_id":"cebpf4jnsgd1na2vs0mg"},{"bike_id":"b05aa32e-7099-49f9-ac6e-e5ce1f60d62e","system_id":"levelo_inurba_marseille","lat":43.295317,"lon":5.385437,"is_reserved":false,"is_disabled":false,"rental_uris":{"android":"levelo://app?vid=b05aa32e-7099-49f9-ac6e-e5ce1f60d62e","ios":"levelo://app?vid=b05aa32e-7099-49f9-ac6e-e5ce1f60d62e"},"vehicle_type_id":"4","last_reported":1752448301,"current_range_meters":12400,"station_id":"ce4bgih2rcd13ifvqba0","pricing_plan_id":"cebpf4jnsgd1na2vs0mg"},{"bike_id":"b43b2136-b460-4889-aedd-7488171725a4","system_id":"levelo_inurba_marseille","lat":43.29534,"lon":5.38547,"is_reserved":false,"is_disabled":false,"rental_uris":{"android":"levelo://app?vid=b43b2136-b460-4889-aedd-7488171725a4","ios":"levelo://app?vid=b43b2136-b460-4889-aedd-7488171725a4"},"vehicle_type_id":"4","last_reported":1752448301,"current_range_meters":12400,"station_id":"ce4bgih2rcd13ifvqba0","pricing_plan_id":"cebpf4jnsgd1na2vs0mg"},{"bike_id":"1366d683-1ebd-44a1-9e66-5d68d4b85ee8","system_id":"levelo_inurba_marseille","lat":43.257288,"lon":5.411024,"is_reserved":false,"is_disabled":false,"rental_uris":{"android":"levelo://app?vid=1366d683-1ebd-44a1-9e66-5d68d4b85ee8","ios":"levelo://app?vid=1366d683-1ebd-44a1-9e66-5d68d4b85ee8"},"vehicle_type_id":"4","last_reported":1752448301,"current_range_meters":12400,"station_id":"ce4bhkp2rcd13ifvqgd0","pricing_plan_id":"cebpf4jnsgd1na2vs0mg"},{"bike_id":"4e668ccc-52b2-4670-93cb-9c8695885132","system_id":"levelo_inurba_marseille","lat":43.32362,"lon":5.38888,"is_reserved":false,"is_disabled":false,"rental_uris":{"android":"levelo://app?vid=4e668ccc-52b2-4670-93cb-9c8695885132","ios":"levelo://app?vid=4e668ccc-52b2-4670-93cb-9c8695885132"},"vehicle_type_id":"4","last_reported":1752448301,"current_range_meters":12400,"station_id":"ce4bhqp2rcd13ifvqhog","pricing_plan_id":"cebpf4jnsgd1na2vs0mg"},{"bike_id":"a44f68aa-b920-4eb6-845e-df1183944a6b","system_id":"levelo_inurba_marseille","lat":43.285812,"lon":5.350628,"is_reserved":false,"is_disabled":true,"rental_uris":{"android":"levelo://app?vid=a44f68aa-b920-4eb6-845e-df1183944a6b","ios":"levelo://app?vid=a44f68aa-b920-4eb6-845e-df1183944a6b"},"vehicle_type_id":"4","last_reported":1752448301,"current_range_meters":12400,"station_id":"","pricing_plan_id":"cebpf4jnsgd1na2vs0mg"},{"bike_id":"ca701af1-cb6b-4470-82c5-aae260dfc630","system_id":"levelo_inurba_marseille","lat":43.29278,"lon":5.40122,"is_reserved":false,"is_disabled":false,"rental_uris":{"android":"levelo://app?vid=ca701af1-cb6b-4470-82c5-aae260dfc630","ios":"levelo://app?vid=ca701af1-cb6b-4470-82c5-aae260dfc630"},"vehicle_type_id":"4","last_reported":1752448301,"current_range_meters":12800,"station_id":"ce4bh312rcd13ifvqdk0","pricing_plan_id":"cebpf4jnsgd1na2vs0mg"},{"bike_id":"c6831e47-16b3-420c-b036-b32c6f9f7658","system_id":"levelo_inurba_marseille","lat":43.24154,"lon":5.39412,"is_reserved":false,"is_disabled":false,"rental_uris":{"android":"levelo://app?vid=c6831e47-16b3-420c-b036-b32c6f9f7658","ios":"levelo://app?vid=c6831e47-16b3-420c-b036-b32c6f9f7658"},"vehicle_type_id":"4","last_reported":1752448301,"current_range_meters":12800,"station_id":"","pricing_plan_id":"cebpf4jnsgd1na2vs0mg"},{"bike_id":"9a46b9ab-a60b-45fc-88a3-caad63ae5b94","system_id":"levelo_inurba_marseille","lat":43.337732,"lon":5.374765,"is_reserved":false,"is_disabled":true,"rental_uris":{"android":"levelo://app?vid=9a46b9ab-a60b-45fc-88a3-caad63ae5b94","ios":"levelo://app?vid=9a46b9ab-a60b-45fc-88a3-caad63ae5b94"},"vehicle_type_id":"4","last_reported":1752448301,"current_range_meters":12800,"station_id":"","pricing_plan_id":"cebpf4jnsgd1na2vs0mg"},{"bike_id":"2d439a49-79a1-49b5-8b1c-dfacb71d3390","system_id":"levelo_inurba_marseille","lat":43.3096,"lon":5.39046,"is_reserved":false,"is_disabled":false,"rental_uris":{"android":"levelo://app?vid=2d439a49-79a1-49b5-8b1c-dfacb71d3390","ios":"levelo://app?vid=2d439a49-79a1-49b5-8b1c-dfacb71d3390"},"vehicle_type_id":"4","last_reported":1752448301,"current_range_meters":12800,"station_id":"ce4bgup2rcd13ifvqco0","pricing_plan_id":"cebpf4jnsgd1na2vs0mg"},{"bike_id":"0075684b-a504-453b-9132-a72c307964f4","system_id":"levelo_inurba_marseille","lat":43.29605,"lon":5.36989,"is_reserved":false,"is_disabled":false,"rental_uris":{"android":"levelo://app?vid=0075684b-a504-453b-9132-a72c307964f4","ios":"levelo://app?vid=0075684b-a504-453b-9132-a72c307964f4"},"vehicle_type_id":"4","last_reported":1752448301,"current_range_meters":12800,"station_id":"","pricing_plan_id":"cebpf4jnsgd1na2vs0mg"},{"bike_id":"79c3059b-23ae-4eba-a288-c035e60ff0fd","system_id":"levelo_inurba_marseille","lat":43.28687,"lon":5.39981,"is_reserved":false,"is_disabled":false,"rental_uris":{"android":"levelo://app?vid=79c3059b-23ae-4eba-a288-c035e60ff0fd","ios":"levelo://app?vid=79c3059b-23ae-4eba-a288-c035e60ff0fd"},"vehicle_type_id":"4","last_reported":1752448301,"current_range_meters":12800,"station_id":"ce4bho92rcd13ifvqh3g","pricing_plan_id":"cebpf4jnsgd1na2vs0mg"},{"bike_id":"6dac0c5e-7db4-4c42-81e9-46077c30dbbc","system_id":"levelo_inurba_marseille","lat":43.28696,"lon":5.37396,"is_reserved":false,"is_disabled":false,"rental_uris":{"android":"levelo://app?vid=6dac0c5e-7db4-4c42-81e9-46077c30dbbc","ios":"levelo://app?vid=6dac0c5e-7db4-4c42-81e9-46077c30dbbc"},"vehicle_type_id":"4","last_reported":1752448301,"current_range_meters":13600,"station_id":"ce4bh3p2rcd13ifvqdq0","pricing_plan_id":"cebpf4jnsgd1na2vs0mg"},{"bike_id":"eb3fc7e1-f44d-4380-819b-160aef6ef53e","system_id":"levelo_inurba_marseille","lat":43.31095,"lon":5.38333,"is_reserved":false,"is_disabled":false,"rental_uris":{"android":"levelo://app?vid=eb3fc7e1-f44d-4380-819b-160aef6ef53e","ios":"levelo://app?vid=eb3fc7e1-f44d-4380-819b-160aef6ef53e"},"vehicle_type_id":"4","last_reported":1752448301,"current_range_meters":13600,"station_id":"ce4bgv92rcd13ifvqcr0","pricing_plan_id":"cebpf4jnsgd1na2vs0mg"},{"bike_id":"3b85b6df-0193-4939-879f-3669d22f40a9","system_id":"levelo_inurba_marseille","lat":43.3058,"lon":5.37231,"is_reserved":false,"is_disabled":false,"rental_uris":{"android":"levelo://app?vid=3b85b6df-0193-4939-879f-3669d22f40a9","ios":"levelo://app?vid=3b85b6df-0193-4939-879f-3669d22f40a9"},"vehicle_type_id":"4","last_reported":1752448301,"current_range_meters":13600,"station_id":"ce4bgqh2rcd13ifvqc4g","pricing_plan_id":"cebpf4jnsgd1na2vs0mg"},{"bike_id":"53e8ee49-75a8-49a0-804e-0d617abbb6a0","system_id":"levelo_inurba_marseille","lat":43.28694,"lon":5.37386,"is_reserved":false,"is_disabled":false,"rental_uris":{"android":"levelo://app?vid=53e8ee49-75a8-49a0-804e-0d617abbb6a0","ios":"levelo://app?vid=53e8ee49-75a8-49a0-804e-0d617abbb6a0"},"vehicle_type_id":"4","last_reported":1752448301,"current_range_meters":14000,"station_id":"ce4bh3p2rcd13ifvqdq0","pricing_plan_id":"cebpf4jnsgd1na2vs0mg"},{"bike_id":"1a469edf-5352-481f-91e3-cfaef6ee1547","system_id":"levelo_inurba_marseille","lat":43.21106,"lon":5.35131,"is_reserved":false,"is_disabled":false,"rental_uris":{"android":"levelo://app?vid=1a469edf-5352-481f-91e3-cfaef6ee1547","ios":"levelo://app?vid=1a469edf-5352-481f-91e3-cfaef6ee1547"},"vehicle_type_id":"4","last_reported":1752448301,"current_range_meters":14000,"station_id":"","pricing_plan_id":"cebpf4jnsgd1na2vs0mg"},{"bike_id":"4a363f4c-7fdb-40d4-a5e1-7ce76340cec0","system_id":"levelo_inurba_marseille","lat":43.29235,"lon":5.40942,"is_reserved":false,"is_disabled":false,"rental_uris":{"android":"levelo://app?vid=4a363f4c-7fdb-40d4-a5e1-7ce76340cec0","ios":"levelo://app?vid=4a363f4c-7fdb-40d4-a5e1-7ce76340cec0"},"vehicle_type_id":"4","last_reported":1752448301,"current_range_meters":14000,"station_id":"ce4bh192rcd13ifvqdc0","pricing_plan_id":"cebpf4jnsgd1na2vs0mg"},{"bike_id":"1fc7943e-d748-4371-8d27-16bb473fa194","system_id":"levelo_inurba_marseille","lat":43.310783,"lon":5.383543,"is_reserved":false,"is_disabled":false,"rental_uris":{"android":"levelo://app?vid=1fc7943e-d748-4371-8d27-16bb473fa194","ios":"levelo://app?vid=1fc7943e-d748-4371-8d27-16bb473fa194"},"vehicle_type_id":"4","last_reported":1752448301,"current_range_meters":14000,"station_id":"ce4bgv92rcd13ifvqcr0","pricing_plan_id":"cebpf4jnsgd1na2vs0mg"},{"bike_id":"0d710596-8d18-43aa-a20c-128362b2daba","system_id":"levelo_inurba_marseille","lat":43.3079,"lon":5.3764,"is_reserved":false,"is_disabled":false,"rental_uris":{"android":"levelo://app?vid=0d710596-8d18-43aa-a20c-128362b2daba","ios":"levelo://app?vid=0d710596-8d18-43aa-a20c-128362b2daba"},"vehicle_type_id":"4","last_reported":1752448301,"current_range_meters":14000,"station_id":"ce4bgv92rcd13ifvqcq0","pricing_plan_id":"cebpf4jnsgd1na2vs0mg"},{"bike_id":"5d506469-9b9b-47b1-b1d6-01c830ef0a24","system_id":"levelo_inurba_marseille","lat":43.28704,"lon":5.39987,"is_reserved":false,"is_disabled":false,"rental_uris":{"android":"levelo://app?vid=5d506469-9b9b-47b1-b1d6-01c830ef0a24","ios":"levelo://app?vid=5d506469-9b9b-47b1-b1d6-01c830ef0a24"},"vehicle_type_id":"4","last_reported":1752448301,"current_range_meters":14000,"station_id":"ce4bho92rcd13ifvqh3g","pricing_plan_id":"cebpf4jnsgd1na2vs0mg"},{"bike_id":"bfa12c31-1a7d-4ff9-9e9a-e56395392d12","system_id":"levelo_inurba_marseille","lat":43.23204,"lon":5.35561,"is_reserved":false,"is_disabled":true,"rental_uris":{"android":"levelo://app?vid=bfa12c31-1a7d-4ff9-9e9a-e56395392d12","ios":"levelo://app?vid=bfa12c31-1a7d-4ff9-9e9a-e56395392d12"},"vehicle_type_id":"4","last_reported":1752448301,"current_range_meters":14000,"station_id":"ce4bhu92rcd13ifvqi70","pricing_plan_id":"cebpf4jnsgd1na2vs0mg"},{"bike_id":"4c7b8b0f-88b0-4aff-9ba3-6dc72c40a219","system_id":"levelo_inurba_marseille","lat":43.256738,"lon":5.410729,"is_reserved":false,"is_disabled":false,"rental_uris":{"android":"levelo://app?vid=4c7b8b0f-88b0-4aff-9ba3-6dc72c40a219","ios":"levelo://app?vid=4c7b8b0f-88b0-4aff-9ba3-6dc72c40a219"},"vehicle_type_id":"4","last_reported":1752448301,"current_range_meters":14400,"station_id":"ce4bhch2rcd13ifvqeug","pricing_plan_id":"cebpf4jnsgd1na2vs0mg"},{"bike_id":"2182925a-4225-44fe-b725-01c4bbe69c50","system_id":"levelo_inurba_marseille","lat":43.31379,"lon":5.384953,"is_reserved":false,"is_disabled":false,"rental_uris":{"android":"levelo://app?vid=2182925a-4225-44fe-b725-01c4bbe69c50","ios":"levelo://app?vid=2182925a-4225-44fe-b725-01c4bbe69c50"},"vehicle_type_id":"4","last_reported":1752448301,"current_range_meters":14400,"station_id":"ce4bgt92rcd13ifvqcf0","pricing_plan_id":"cebpf4jnsgd1na2vs0mg"},{"bike_id":"58375fde-ca97-4dab-be52-59caf98323d3","system_id":"levelo_inurba_marseille","lat":43.26559,"lon":5.373,"is_reserved":false,"is_disabled":true,"rental_uris":{"android":"levelo://app?vid=58375fde-ca97-4dab-be52-59caf98323d3","ios":"levelo://app?vid=58375fde-ca97-4dab-be52-59caf98323d3"},"vehicle_type_id":"4","last_reported":1752448301,"current_range_meters":14400,"station_id":"ce4bhg12rcd13ifvqf70","pricing_plan_id":"cebpf4jnsgd1na2vs0mg"},{"bike_id":"046e0d6b-1e25-4f6c-aef8-100476379207","system_id":"levelo_inurba_marseille","lat":43.30323,"lon":5.40444,"is_reserved":false,"is_disabled":false,"rental_uris":{"android":"levelo://app?vid=046e0d6b-1e25-4f6c-aef8-100476379207","ios":"levelo://app?vid=046e0d6b-1e25-4f6c-aef8-100476379207"},"vehicle_type_id":"4","last_reported":1752448301,"current_range_meters":14400,"station_id":"ce4bh012rcd13ifvqd10","pricing_plan_id":"cebpf4jnsgd1na2vs0mg"},{"bike_id":"79ac9d5c-87ca-42a3-a25e-34606432c125","system_id":"levelo_inurba_marseille","lat":43.211894,"lon":5.35076,"is_reserved":false,"is_disabled":false,"rental_uris":{"android":"levelo://app?vid=79ac9d5c-87ca-42a3-a25e-34606432c125","ios":"levelo://app?vid=79ac9d5c-87ca-42a3-a25e-34606432c125"},"vehicle_type_id":"4","last_reported":1752448301,"current_range_meters":14400,"station_id":"st_cvj6sg6p6f1abm77japg","pricing_plan_id":"cebpf4jnsgd1na2vs0mg"},{"bike_id":"f7f3f179-db57-479b-84b0-b81ef8fb39c4","system_id":"levelo_inurba_marseille","lat":43.29542,"lon":5.3851,"is_reserved":false,"is_disabled":false,"rental_uris":{"android":"levelo://app?vid=f7f3f179-db57-479b-84b0-b81ef8fb39c4","ios":"levelo://app?vid=f7f3f179-db57-479b-84b0-b81ef8fb39c4"},"vehicle_type_id":"4","last_reported":1752448301,"current_range_meters":14800,"station_id":"ce4bgih2rcd13ifvqba0","pricing_plan_id":"cebpf4jnsgd1na2vs0mg"},{"bike_id":"c4367cc4-6603-4d3f-ab4a-2e53d10582fd","system_id":"levelo_inurba_marseille","lat":43.2872,"lon":5.37931,"is_reserved":false,"is_disabled":false,"rental_uris":{"android":"levelo://app?vid=c4367cc4-6603-4d3f-ab4a-2e53d10582fd","ios":"levelo://app?vid=c4367cc4-6603-4d3f-ab4a-2e53d10582fd"},"vehicle_type_id":"4","last_reported":1752448301,"current_range_meters":14800,"station_id":"ce4bh9p2rcd13ifvqec0","pricing_plan_id":"cebpf4jnsgd1na2vs0mg"},{"bike_id":"1700fcd6-30ad-4b74-a158-50e5dcb60b9b","system_id":"levelo_inurba_marseille","lat":43.28957,"lon":5.36604,"is_reserved":false,"is_disabled":true,"rental_uris":{"android":"levelo://app?vid=1700fcd6-30ad-4b74-a158-50e5dcb60b9b","ios":"levelo://app?vid=1700fcd6-30ad-4b74-a158-50e5dcb60b9b"},"vehicle_type_id":"4","last_reported":1752448301,"current_range_meters":14800,"station_id":"ce4bhap2rcd13ifvqek0","pricing_plan_id":"cebpf4jnsgd1na2vs0mg"},{"bike_id":"422024fe-b184-4d74-a589-d0d1077c580c","system_id":"levelo_inurba_marseille","lat":43.287019,"lon":5.373959,"is_reserved":false,"is_disabled":false,"rental_uris":{"android":"levelo://app?vid=422024fe-b184-4d74-a589-d0d1077c580c","ios":"levelo://app?vid=422024fe-b184-4d74-a589-d0d1077c580c"},"vehicle_type_id":"4","last_reported":1752448301,"current_range_meters":14800,"station_id":"ce4bh3p2rcd13ifvqdq0","pricing_plan_id":"cebpf4jnsgd1na2vs0mg"},{"bike_id":"7b60e2b3-fe60-4caf-8d3e-4c917054d448","system_id":"levelo_inurba_marseille","lat":43.28422,"lon":5.34991,"is_reserved":false,"is_disabled":true,"rental_uris":{"android":"levelo://app?vid=7b60e2b3-fe60-4caf-8d3e-4c917054d448","ios":"levelo://app?vid=7b60e2b3-fe60-4caf-8d3e-4c917054d448"},"vehicle_type_id":"4","last_reported":1752448301,"current_range_meters":15200,"station_id":"ce4bhbh2rcd13ifvqepg","pricing_plan_id":"cebpf4jnsgd1na2vs0mg"},{"bike_id":"8ae2a639-0705-4456-ae13-646dc8a85de2","system_id":"levelo_inurba_marseille","lat":43.309495,"lon":5.401363,"is_reserved":false,"is_disabled":false,"rental_uris":{"android":"levelo://app?vid=8ae2a639-0705-4456-ae13-646dc8a85de2","ios":"levelo://app?vid=8ae2a639-0705-4456-ae13-646dc8a85de2"},"vehicle_type_id":"4","last_reported":1752448301,"current_range_meters":15200,"station_id":"ce4bgvp2rcd13ifvqct0","pricing_plan_id":"cebpf4jnsgd1na2vs0mg"},{"bike_id":"005b8e1e-28e8-441f-b36d-e2ba0c951899","system_id":"levelo_inurba_marseille","lat":43.317169,"lon":5.437072,"is_reserved":false,"is_disabled":false,"rental_uris":{"android":"levelo://app?vid=005b8e1e-28e8-441f-b36d-e2ba0c951899","ios":"levelo://app?vid=005b8e1e-28e8-441f-b36d-e2ba0c951899"},"vehicle_type_id":"4","last_reported":1752448301,"current_range_meters":15200,"station_id":"ce4bhp92rcd13ifvqhcg","pricing_plan_id":"cebpf4jnsgd1na2vs0mg"},{"bike_id":"684d7cc6-ed0a-4e68-8df1-5d6203895bf9","system_id":"levelo_inurba_marseille","lat":43.27499,"lon":5.43449,"is_reserved":false,"is_disabled":false,"rental_uris":{"android":"levelo://app?vid=684d7cc6-ed0a-4e68-8df1-5d6203895bf9","ios":"levelo://app?vid=684d7cc6-ed0a-4e68-8df1-5d6203895bf9"},"vehicle_type_id":"4","last_reported":1752448301,"current_range_meters":15200,"station_id":"","pricing_plan_id":"cebpf4jnsgd1na2vs0mg"},{"bike_id":"53a7c5a0-bf42-4a71-a975-ed65973eff06","system_id":"levelo_inurba_marseille","lat":43.30236,"lon":5.40089,"is_reserved":false,"is_disabled":false,"rental_uris":{"android":"levelo://app?vid=53a7c5a0-bf42-4a71-a975-ed65973eff06","ios":"levelo://app?vid=53a7c5a0-bf42-4a71-a975-ed65973eff06"},"vehicle_type_id":"4","last_reported":1752448301,"current_range_meters":15200,"station_id":"ce4bgvh2rcd13ifvqcs0","pricing_plan_id":"cebpf4jnsgd1na2vs0mg"},{"bike_id":"79724c7a-8951-4858-8e03-5dd8592df824","system_id":"levelo_inurba_marseille","lat":43.30339,"lon":5.36899,"is_reserved":false,"is_disabled":true,"rental_uris":{"android":"levelo://app?vid=79724c7a-8951-4858-8e03-5dd8592df824","ios":"levelo://app?vid=79724c7a-8951-4858-8e03-5dd8592df824"},"vehicle_type_id":"4","last_reported":1752448301,"current_range_meters":16000,"station_id":"ce4bgqh2rcd13ifvqc5g","pricing_plan_id":"cebpf4jnsgd1na2vs0mg"},{"bike_id":"06e00a01-4f23-4c90-b62e-2da95259207d","system_id":"levelo_inurba_marseille","lat":43.31332,"lon":5.39689,"is_reserved":false,"is_disabled":false,"rental_uris":{"android":"levelo://app?vid=06e00a01-4f23-4c90-b62e-2da95259207d","ios":"levelo://app?vid=06e00a01-4f23-4c90-b62e-2da95259207d"},"vehicle_type_id":"4","last_reported":1752448301,"current_range_meters":16000,"station_id":"ce4bgvp2rcd13ifvqcu0","pricing_plan_id":"cebpf4jnsgd1na2vs0mg"},{"bike_id":"28f6661f-fa05-4b8f-8f5e-cb4158aac2c7","system_id":"levelo_inurba_marseille","lat":43.29338,"lon":5.37981,"is_reserved":false,"is_disabled":true,"rental_uris":{"android":"levelo://app?vid=28f6661f-fa05-4b8f-8f5e-cb4158aac2c7","ios":"levelo://app?vid=28f6661f-fa05-4b8f-8f5e-cb4158aac2c7"},"vehicle_type_id":"4","last_reported":1752448301,"current_range_meters":16000,"station_id":"ce4bgjh2rcd13ifvqbf0","pricing_plan_id":"cebpf4jnsgd1na2vs0mg"},{"bike_id":"31c710b8-59c4-4592-9629-b8ad795fae60","system_id":"levelo_inurba_marseille","lat":43.30212,"lon":5.40341,"is_reserved":false,"is_disabled":true,"rental_uris":{"android":"levelo://app?vid=31c710b8-59c4-4592-9629-b8ad795fae60","ios":"levelo://app?vid=31c710b8-59c4-4592-9629-b8ad795fae60"},"vehicle_type_id":"4","last_reported":1752448301,"current_range_meters":16000,"station_id":"","pricing_plan_id":"cebpf4jnsgd1na2vs0mg"},{"bike_id":"a18169ac-e65a-49b0-b67b-60034da00a8e","system_id":"levelo_inurba_marseille","lat":43.27816,"lon":5.40715,"is_reserved":false,"is_disabled":false,"rental_uris":{"android":"levelo://app?vid=a18169ac-e65a-49b0-b67b-60034da00a8e","ios":"levelo://app?vid=a18169ac-e65a-49b0-b67b-60034da00a8e"},"vehicle_type_id":"4","last_reported":1752448301,"current_range_meters":16000,"station_id":"ce4bhnh2rcd13ifvqgtg","pricing_plan_id":"cebpf4jnsgd1na2vs0mg"},{"bike_id":"f5a47db5-6fb2-46bd-a2de-efa4ad13bf60","system_id":"levelo_inurba_marseille","lat":43.21205,"lon":5.35076,"is_reserved":false,"is_disabled":false,"rental_uris":{"android":"levelo://app?vid=f5a47db5-6fb2-46bd-a2de-efa4ad13bf60","ios":"levelo://app?vid=f5a47db5-6fb2-46bd-a2de-efa4ad13bf60"},"vehicle_type_id":"4","last_reported":1752448301,"current_range_meters":16000,"station_id":"st_cvj6sg6p6f1abm77japg","pricing_plan_id":"cebpf4jnsgd1na2vs0mg"},{"bike_id":"7269d02a-d339-42f2-9268-579d2d090d90","system_id":"levelo_inurba_marseille","lat":43.28108,"lon":5.4383,"is_reserved":false,"is_disabled":false,"rental_uris":{"android":"levelo://app?vid=7269d02a-d339-42f2-9268-579d2d090d90","ios":"levelo://app?vid=7269d02a-d339-42f2-9268-579d2d090d90"},"vehicle_type_id":"4","last_reported":1752448301,"current_range_meters":16000,"station_id":"","pricing_plan_id":"cebpf4jnsgd1na2vs0mg"},{"bike_id":"b053f929-7efb-49cd-9959-74ef096980bb","system_id":"levelo_inurba_marseille","lat":43.337777,"lon":5.374723,"is_reserved":false,"is_disabled":true,"rental_uris":{"android":"levelo://app?vid=b053f929-7efb-49cd-9959-74ef096980bb","ios":"levelo://app?vid=b053f929-7efb-49cd-9959-74ef096980bb"},"vehicle_type_id":"4","last_reported":1752448301,"current_range_meters":16000,"station_id":"","pricing_plan_id":"cebpf4jnsgd1na2vs0mg"},{"bike_id":"1aedaa42-1f03-48cc-8e38-d983e72f730b","system_id":"levelo_inurba_marseille","lat":43.270756,"lon":5.422855,"is_reserved":false,"is_disabled":false,"rental_uris":{"android":"levelo://app?vid=1aedaa42-1f03-48cc-8e38-d983e72f730b","ios":"levelo://app?vid=1aedaa42-1f03-48cc-8e38-d983e72f730b"},"vehicle_type_id":"4","last_reported":1752448301,"current_range_meters":16000,"station_id":"ce4bhk92rcd13ifvqgb0","pricing_plan_id":"cebpf4jnsgd1na2vs0mg"},{"bike_id":"42c970b8-526e-4a38-b59c-65adacac7d63","system_id":"levelo_inurba_marseille","lat":43.3032,"lon":5.40443,"is_reserved":false,"is_disabled":false,"rental_uris":{"android":"levelo://app?vid=42c970b8-526e-4a38-b59c-65adacac7d63","ios":"levelo://app?vid=42c970b8-526e-4a38-b59c-65adacac7d63"},"vehicle_type_id":"4","last_reported":1752448301,"current_range_meters":16000,"station_id":"ce4bh012rcd13ifvqd10","pricing_plan_id":"cebpf4jnsgd1na2vs0mg"},{"bike_id":"b6771d12-4d0b-4004-8d85-15a22b02cf35","system_id":"levelo_inurba_marseille","lat":43.25572,"lon":5.38226,"is_reserved":false,"is_disabled":false,"rental_uris":{"android":"levelo://app?vid=b6771d12-4d0b-4004-8d85-15a22b02cf35","ios":"levelo://app?vid=b6771d12-4d0b-4004-8d85-15a22b02cf35"},"vehicle_type_id":"4","last_reported":1752448301,"current_range_meters":16000,"station_id":"ce4bhih2rcd13ifvqfs0","pricing_plan_id":"cebpf4jnsgd1na2vs0mg"},{"bike_id":"95263674-6383-4f36-b819-d255b1977ec6","system_id":"levelo_inurba_marseille","lat":43.23193,"lon":5.35549,"is_reserved":false,"is_disabled":false,"rental_uris":{"android":"levelo://app?vid=95263674-6383-4f36-b819-d255b1977ec6","ios":"levelo://app?vid=95263674-6383-4f36-b819-d255b1977ec6"},"vehicle_type_id":"4","last_reported":1752448301,"current_range_meters":16000,"station_id":"ce4bhu92rcd13ifvqi70","pricing_plan_id":"cebpf4jnsgd1na2vs0mg"},{"bike_id":"2ec427da-b403-4a7e-86be-3f48ba535d18","system_id":"levelo_inurba_marseille","lat":43.212005,"lon":5.350766,"is_reserved":false,"is_disabled":false,"rental_uris":{"android":"levelo://app?vid=2ec427da-b403-4a7e-86be-3f48ba535d18","ios":"levelo://app?vid=2ec427da-b403-4a7e-86be-3f48ba535d18"},"vehicle_type_id":"4","last_reported":1752448301,"current_range_meters":16400,"station_id":"st_cvj6sg6p6f1abm77japg","pricing_plan_id":"cebpf4jnsgd1na2vs0mg"},{"bike_id":"9a5ca845-9e90-4ceb-a400-7f8d93349560","system_id":"levelo_inurba_marseille","lat":43.297028,"lon":5.366176,"is_reserved":false,"is_disabled":false,"rental_uris":{"android":"levelo://app?vid=9a5ca845-9e90-4ceb-a400-7f8d93349560","ios":"levelo://app?vid=9a5ca845-9e90-4ceb-a400-7f8d93349560"},"vehicle_type_id":"4","last_reported":1752448301,"current_range_meters":16400,"station_id":"ce4bgn12rcd13ifvqbt0","pricing_plan_id":"cebpf4jnsgd1na2vs0mg"},{"bike_id":"350baf57-19b6-4304-9c57-75c381c047e9","system_id":"levelo_inurba_marseille","lat":43.30301,"lon":5.36889,"is_reserved":false,"is_disabled":false,"rental_uris":{"android":"levelo://app?vid=350baf57-19b6-4304-9c57-75c381c047e9","ios":"levelo://app?vid=350baf57-19b6-4304-9c57-75c381c047e9"},"vehicle_type_id":"4","last_reported":1752448301,"current_range_meters":16400,"station_id":"ce4bgqh2rcd13ifvqc5g","pricing_plan_id":"cebpf4jnsgd1na2vs0mg"},{"bike_id":"91e36618-f857-45af-ac89-91d909da2db3","system_id":"levelo_inurba_marseille","lat":43.29416,"lon":5.38604,"is_reserved":false,"is_disabled":true,"rental_uris":{"android":"levelo://app?vid=91e36618-f857-45af-ac89-91d909da2db3","ios":"levelo://app?vid=91e36618-f857-45af-ac89-91d909da2db3"},"vehicle_type_id":"4","last_reported":1752448301,"current_range_meters":16400,"station_id":"ce4bh2h2rcd13ifvqdh0","pricing_plan_id":"cebpf4jnsgd1na2vs0mg"},{"bike_id":"e91ced2f-2041-4b38-8446-0d5d97adec95","system_id":"levelo_inurba_marseille","lat":43.255808,"lon":5.382242,"is_reserved":false,"is_disabled":true,"rental_uris":{"android":"levelo://app?vid=e91ced2f-2041-4b38-8446-0d5d97adec95","ios":"levelo://app?vid=e91ced2f-2041-4b38-8446-0d5d97adec95"},"vehicle_type_id":"4","last_reported":1752448301,"current_range_meters":16400,"station_id":"ce4bhih2rcd13ifvqfs0","pricing_plan_id":"cebpf4jnsgd1na2vs0mg"},{"bike_id":"58190236-b64b-450c-b598-ade36de34510","system_id":"levelo_inurba_marseille","lat":43.30798,"lon":5.43527,"is_reserved":false,"is_disabled":false,"rental_uris":{"android":"levelo://app?vid=58190236-b64b-450c-b598-ade36de34510","ios":"levelo://app?vid=58190236-b64b-450c-b598-ade36de34510"},"vehicle_type_id":"4","last_reported":1752448301,"current_range_meters":16400,"station_id":"ce4bhph2rcd13ifvqheg","pricing_plan_id":"cebpf4jnsgd1na2vs0mg"},{"bike_id":"822fcf79-ea0c-4e5e-a5c4-014b3c33bd74","system_id":"levelo_inurba_marseille","lat":43.29528,"lon":5.38529,"is_reserved":false,"is_disabled":false,"rental_uris":{"android":"levelo://app?vid=822fcf79-ea0c-4e5e-a5c4-014b3c33bd74","ios":"levelo://app?vid=822fcf79-ea0c-4e5e-a5c4-014b3c33bd74"},"vehicle_type_id":"4","last_reported":1752448301,"current_range_meters":16400,"station_id":"ce4bgih2rcd13ifvqba0","pricing_plan_id":"cebpf4jnsgd1na2vs0mg"},{"bike_id":"6e4696eb-2f08-479d-86c9-95b434deaa02","system_id":"levelo_inurba_marseille","lat":43.3199,"lon":5.38159,"is_reserved":false,"is_disabled":true,"rental_uris":{"android":"levelo://app?vid=6e4696eb-2f08-479d-86c9-95b434deaa02","ios":"levelo://app?vid=6e4696eb-2f08-479d-86c9-95b434deaa02"},"vehicle_type_id":"4","last_reported":1752448301,"current_range_meters":16400,"station_id":"ce4bhr12rcd13ifvqhpg","pricing_plan_id":"cebpf4jnsgd1na2vs0mg"},{"bike_id":"40392a3b-1d10-4dd5-b1d6-6477ad9a4c60","system_id":"levelo_inurba_marseille","lat":43.29054,"lon":5.38125,"is_reserved":false,"is_disabled":false,"rental_uris":{"android":"levelo://app?vid=40392a3b-1d10-4dd5-b1d6-6477ad9a4c60","ios":"levelo://app?vid=40392a3b-1d10-4dd5-b1d6-6477ad9a4c60"},"vehicle_type_id":"4","last_reported":1752448301,"current_range_meters":16400,"station_id":"ce4bh4p2rcd13ifvqe1g","pricing_plan_id":"cebpf4jnsgd1na2vs0mg"},{"bike_id":"e83439d2-4642-48a2-8689-7a894582417f","system_id":"levelo_inurba_marseille","lat":43.21192,"lon":5.3507,"is_reserved":false,"is_disabled":false,"rental_uris":{"android":"levelo://app?vid=e83439d2-4642-48a2-8689-7a894582417f","ios":"levelo://app?vid=e83439d2-4642-48a2-8689-7a894582417f"},"vehicle_type_id":"4","last_reported":1752448301,"current_range_meters":16400,"station_id":"st_cvj6sg6p6f1abm77japg","pricing_plan_id":"cebpf4jnsgd1na2vs0mg"},{"bike_id":"c8c4de1a-846f-4f5b-aace-9fb14bf7ad52","system_id":"levelo_inurba_marseille","lat":43.21192,"lon":5.35083,"is_reserved":false,"is_disabled":false,"rental_uris":{"android":"levelo://app?vid=c8c4de1a-846f-4f5b-aace-9fb14bf7ad52","ios":"levelo://app?vid=c8c4de1a-846f-4f5b-aace-9fb14bf7ad52"},"vehicle_type_id":"4","last_reported":1752448301,"current_range_meters":16400,"station_id":"st_cvj6sg6p6f1abm77japg","pricing_plan_id":"cebpf4jnsgd1na2vs0mg"},{"bike_id":"45583b9b-98ff-4d18-a778-0d792c89bae3","system_id":"levelo_inurba_marseille","lat":43.28546,"lon":5.39493,"is_reserved":false,"is_disabled":true,"rental_uris":{"android":"levelo://app?vid=45583b9b-98ff-4d18-a778-0d792c89bae3","ios":"levelo://app?vid=45583b9b-98ff-4d18-a778-0d792c89bae3"},"vehicle_type_id":"4","last_reported":1752448301,"current_range_meters":16800,"station_id":"ce4bh292rcd13ifvqdg0","pricing_plan_id":"cebpf4jnsgd1na2vs0mg"},{"bike_id":"b1f565f2-83c4-4631-9b4d-1d683a0261ef","system_id":"levelo_inurba_marseille","lat":43.21191,"lon":5.35095,"is_reserved":false,"is_disabled":false,"rental_uris":{"android":"levelo://app?vid=b1f565f2-83c4-4631-9b4d-1d683a0261ef","ios":"levelo://app?vid=b1f565f2-83c4-4631-9b4d-1d683a0261ef"},"vehicle_type_id":"4","last_reported":1752448301,"current_range_meters":16800,"station_id":"st_cvj6sg6p6f1abm77japg","pricing_plan_id":"cebpf4jnsgd1na2vs0mg"},{"bike_id":"837e95e1-4302-4a1e-8676-cdc5622585e8","system_id":"levelo_inurba_marseille","lat":43.24168,"lon":5.36391,"is_reserved":false,"is_disabled":false,"rental_uris":{"android":"levelo://app?vid=837e95e1-4302-4a1e-8676-cdc5622585e8","ios":"levelo://app?vid=837e95e1-4302-4a1e-8676-cdc5622585e8"},"vehicle_type_id":"4","last_reported":1752448301,"current_range_meters":16800,"station_id":"cpo36qri1sfpv3e86is0","pricing_plan_id":"cebpf4jnsgd1na2vs0mg"},{"bike_id":"a941771f-cfb3-4879-a7b5-191fddad7aaa","system_id":"levelo_inurba_marseille","lat":43.29846,"lon":5.39787,"is_reserved":false,"is_disabled":false,"rental_uris":{"android":"levelo://app?vid=a941771f-cfb3-4879-a7b5-191fddad7aaa","ios":"levelo://app?vid=a941771f-cfb3-4879-a7b5-191fddad7aaa"},"vehicle_type_id":"4","last_reported":1752448301,"current_range_meters":16400,"station_id":"ce4bh0h2rcd13ifvqd50","pricing_plan_id":"cebpf4jnsgd1na2vs0mg"},{"bike_id":"f7cf9aab-0ed3-4931-a48c-8d0743d0c0b9","system_id":"levelo_inurba_marseille","lat":43.229231,"lon":5.353804,"is_reserved":false,"is_disabled":true,"rental_uris":{"android":"levelo://app?vid=f7cf9aab-0ed3-4931-a48c-8d0743d0c0b9","ios":"levelo://app?vid=f7cf9aab-0ed3-4931-a48c-8d0743d0c0b9"},"vehicle_type_id":"4","last_reported":1752448301,"current_range_meters":16800,"station_id":"cpo3532slgdg3j2ikp40","pricing_plan_id":"cebpf4jnsgd1na2vs0mg"},{"bike_id":"bf67854a-fc75-4bbe-84b3-70a770694533","system_id":"levelo_inurba_marseille","lat":43.28942,"lon":5.3965,"is_reserved":false,"is_disabled":true,"rental_uris":{"android":"levelo://app?vid=bf67854a-fc75-4bbe-84b3-70a770694533","ios":"levelo://app?vid=bf67854a-fc75-4bbe-84b3-70a770694533"},"vehicle_type_id":"4","last_reported":1752448301,"current_range_meters":16800,"station_id":"ce4bh3h2rcd13ifvqdn0","pricing_plan_id":"cebpf4jnsgd1na2vs0mg"},{"bike_id":"0327ba3d-56c5-40a2-9b87-fb20780bb2cf","system_id":"levelo_inurba_marseille","lat":43.2847,"lon":5.3845,"is_reserved":false,"is_disabled":true,"rental_uris":{"android":"levelo://app?vid=0327ba3d-56c5-40a2-9b87-fb20780bb2cf","ios":"levelo://app?vid=0327ba3d-56c5-40a2-9b87-fb20780bb2cf"},"vehicle_type_id":"4","last_reported":1752448301,"current_range_meters":17200,"station_id":"ce4bh512rcd13ifvqe3g","pricing_plan_id":"cebpf4jnsgd1na2vs0mg"},{"bike_id":"8a01e88a-8371-4085-9838-47ae11897cd3","system_id":"levelo_inurba_marseille","lat":43.2815,"lon":5.42637,"is_reserved":false,"is_disabled":true,"rental_uris":{"android":"levelo://app?vid=8a01e88a-8371-4085-9838-47ae11897cd3","ios":"levelo://app?vid=8a01e88a-8371-4085-9838-47ae11897cd3"},"vehicle_type_id":"4","last_reported":1752448301,"current_range_meters":16800,"station_id":"ce4bhnh2rcd13ifvqgug","pricing_plan_id":"cebpf4jnsgd1na2vs0mg"},{"bike_id":"3b13cfd5-12f7-42bf-9953-7edf0f317910","system_id":"levelo_inurba_marseille","lat":43.32361,"lon":5.38899,"is_reserved":false,"is_disabled":false,"rental_uris":{"android":"levelo://app?vid=3b13cfd5-12f7-42bf-9953-7edf0f317910","ios":"levelo://app?vid=3b13cfd5-12f7-42bf-9953-7edf0f317910"},"vehicle_type_id":"4","last_reported":1752448301,"current_range_meters":16800,"station_id":"ce4bhqp2rcd13ifvqhog","pricing_plan_id":"cebpf4jnsgd1na2vs0mg"},{"bike_id":"088e6b1d-8a81-47e0-9ad0-36233ed399c0","system_id":"levelo_inurba_marseille","lat":43.2792,"lon":5.39567,"is_reserved":false,"is_disabled":true,"rental_uris":{"android":"levelo://app?vid=088e6b1d-8a81-47e0-9ad0-36233ed399c0","ios":"levelo://app?vid=088e6b1d-8a81-47e0-9ad0-36233ed399c0"},"vehicle_type_id":"4","last_reported":1752448301,"current_range_meters":16800,"station_id":"ce4bhf92rcd13ifvqf40","pricing_plan_id":"cebpf4jnsgd1na2vs0mg"},{"bike_id":"697d5fc4-b988-4a4e-8323-c1ce5ed61a61","system_id":"levelo_inurba_marseille","lat":43.21193,"lon":5.35071,"is_reserved":false,"is_disabled":false,"rental_uris":{"android":"levelo://app?vid=697d5fc4-b988-4a4e-8323-c1ce5ed61a61","ios":"levelo://app?vid=697d5fc4-b988-4a4e-8323-c1ce5ed61a61"},"vehicle_type_id":"4","last_reported":1752448301,"current_range_meters":17200,"station_id":"st_cvj6sg6p6f1abm77japg","pricing_plan_id":"cebpf4jnsgd1na2vs0mg"},{"bike_id":"aec80234-51ca-4bd6-9031-59818391974a","system_id":"levelo_inurba_marseille","lat":43.24165,"lon":5.364,"is_reserved":false,"is_disabled":false,"rental_uris":{"android":"levelo://app?vid=aec80234-51ca-4bd6-9031-59818391974a","ios":"levelo://app?vid=aec80234-51ca-4bd6-9031-59818391974a"},"vehicle_type_id":"4","last_reported":1752448301,"current_range_meters":17200,"station_id":"cpo36qri1sfpv3e86is0","pricing_plan_id":"cebpf4jnsgd1na2vs0mg"},{"bike_id":"0cc32517-570d-49bd-9586-e076a44371e2","system_id":"levelo_inurba_marseille","lat":43.3133,"lon":5.39703,"is_reserved":false,"is_disabled":false,"rental_uris":{"android":"levelo://app?vid=0cc32517-570d-49bd-9586-e076a44371e2","ios":"levelo://app?vid=0cc32517-570d-49bd-9586-e076a44371e2"},"vehicle_type_id":"4","last_reported":1752448301,"current_range_meters":17200,"station_id":"ce4bgvp2rcd13ifvqcu0","pricing_plan_id":"cebpf4jnsgd1na2vs0mg"},{"bike_id":"e1928b01-bff5-4cea-b60c-f8d9223daef3","system_id":"levelo_inurba_marseille","lat":43.270756,"lon":5.422724,"is_reserved":false,"is_disabled":false,"rental_uris":{"android":"levelo://app?vid=e1928b01-bff5-4cea-b60c-f8d9223daef3","ios":"levelo://app?vid=e1928b01-bff5-4cea-b60c-f8d9223daef3"},"vehicle_type_id":"4","last_reported":1752448301,"current_range_meters":17200,"station_id":"ce4bhk92rcd13ifvqgb0","pricing_plan_id":"cebpf4jnsgd1na2vs0mg"},{"bike_id":"23a0fc67-4c39-4b74-8a86-2903d79b1606","system_id":"levelo_inurba_marseille","lat":43.23185,"lon":5.35557,"is_reserved":false,"is_disabled":true,"rental_uris":{"android":"levelo://app?vid=23a0fc67-4c39-4b74-8a86-2903d79b1606","ios":"levelo://app?vid=23a0fc67-4c39-4b74-8a86-2903d79b1606"},"vehicle_type_id":"4","last_reported":1752448301,"current_range_meters":17200,"station_id":"ce4bhu92rcd13ifvqi70","pricing_plan_id":"cebpf4jnsgd1na2vs0mg"},{"bike_id":"a4d07f45-19f9-4df9-9728-be6623530a64","system_id":"levelo_inurba_marseille","lat":43.23704,"lon":5.3884,"is_reserved":false,"is_disabled":false,"rental_uris":{"android":"levelo://app?vid=a4d07f45-19f9-4df9-9728-be6623530a64","ios":"levelo://app?vid=a4d07f45-19f9-4df9-9728-be6623530a64"},"vehicle_type_id":"4","last_reported":1752448301,"current_range_meters":17200,"station_id":"","pricing_plan_id":"cebpf4jnsgd1na2vs0mg"},{"bike_id":"f79d9d1f-bff9-43cf-ab5b-7db46b4335b5","system_id":"levelo_inurba_marseille","lat":43.28445,"lon":5.39205,"is_reserved":false,"is_disabled":false,"rental_uris":{"android":"levelo://app?vid=f79d9d1f-bff9-43cf-ab5b-7db46b4335b5","ios":"levelo://app?vid=f79d9d1f-bff9-43cf-ab5b-7db46b4335b5"},"vehicle_type_id":"4","last_reported":1752448301,"current_range_meters":17200,"station_id":"ce4bhoh2rcd13ifvqh5g","pricing_plan_id":"cebpf4jnsgd1na2vs0mg"},{"bike_id":"12d48e4d-a291-49bb-ab45-967804b53d7b","system_id":"levelo_inurba_marseille","lat":43.27578,"lon":5.36161,"is_reserved":false,"is_disabled":true,"rental_uris":{"android":"levelo://app?vid=12d48e4d-a291-49bb-ab45-967804b53d7b","ios":"levelo://app?vid=12d48e4d-a291-49bb-ab45-967804b53d7b"},"vehicle_type_id":"4","last_reported":1752448301,"current_range_meters":17600,"station_id":"","pricing_plan_id":"cebpf4jnsgd1na2vs0mg"},{"bike_id":"e1442ff3-c767-4bb3-901d-e5f60873ad13","system_id":"levelo_inurba_marseille","lat":43.23189,"lon":5.39996,"is_reserved":false,"is_disabled":false,"rental_uris":{"android":"levelo://app?vid=e1442ff3-c767-4bb3-901d-e5f60873ad13","ios":"levelo://app?vid=e1442ff3-c767-4bb3-901d-e5f60873ad13"},"vehicle_type_id":"4","last_reported":1752448301,"current_range_meters":17600,"station_id":"ce4bhn12rcd13ifvqgqg","pricing_plan_id":"cebpf4jnsgd1na2vs0mg"},{"bike_id":"6ac174d4-75c5-4a9c-9699-97cd631c6e65","system_id":"levelo_inurba_marseille","lat":43.25497,"lon":5.39922,"is_reserved":false,"is_disabled":false,"rental_uris":{"android":"levelo://app?vid=6ac174d4-75c5-4a9c-9699-97cd631c6e65","ios":"levelo://app?vid=6ac174d4-75c5-4a9c-9699-97cd631c6e65"},"vehicle_type_id":"4","last_reported":1752448301,"current_range_meters":17600,"station_id":"","pricing_plan_id":"cebpf4jnsgd1na2vs0mg"},{"bike_id":"5f48d587-f9d0-43e5-b0b2-bf2fb17b1a3c","system_id":"levelo_inurba_marseille","lat":43.29414,"lon":5.38614,"is_reserved":false,"is_disabled":true,"rental_uris":{"android":"levelo://app?vid=5f48d587-f9d0-43e5-b0b2-bf2fb17b1a3c","ios":"levelo://app?vid=5f48d587-f9d0-43e5-b0b2-bf2fb17b1a3c"},"vehicle_type_id":"4","last_reported":1752448301,"current_range_meters":17600,"station_id":"ce4bh2h2rcd13ifvqdh0","pricing_plan_id":"cebpf4jnsgd1na2vs0mg"},{"bike_id":"23e828c3-95f1-4916-be07-8c0e94b61ccb","system_id":"levelo_inurba_marseille","lat":43.30939,"lon":5.40141,"is_reserved":false,"is_disabled":false,"rental_uris":{"android":"levelo://app?vid=23e828c3-95f1-4916-be07-8c0e94b61ccb","ios":"levelo://app?vid=23e828c3-95f1-4916-be07-8c0e94b61ccb"},"vehicle_type_id":"4","last_reported":1752448301,"current_range_meters":17600,"station_id":"ce4bgvp2rcd13ifvqct0","pricing_plan_id":"cebpf4jnsgd1na2vs0mg"},{"bike_id":"2c81c752-b139-48bc-a4ee-7fa7f8526278","system_id":"levelo_inurba_marseille","lat":43.21874,"lon":5.34532,"is_reserved":false,"is_disabled":true,"rental_uris":{"android":"levelo://app?vid=2c81c752-b139-48bc-a4ee-7fa7f8526278","ios":"levelo://app?vid=2c81c752-b139-48bc-a4ee-7fa7f8526278"},"vehicle_type_id":"4","last_reported":1752448301,"current_range_meters":18000,"station_id":"","pricing_plan_id":"cebpf4jnsgd1na2vs0mg"},{"bike_id":"db6eccc3-ad3b-4cd6-a13b-0ee6b4c8dab6","system_id":"levelo_inurba_marseille","lat":43.30955,"lon":5.39029,"is_reserved":false,"is_disabled":false,"rental_uris":{"android":"levelo://app?vid=db6eccc3-ad3b-4cd6-a13b-0ee6b4c8dab6","ios":"levelo://app?vid=db6eccc3-ad3b-4cd6-a13b-0ee6b4c8dab6"},"vehicle_type_id":"4","last_reported":1752448301,"current_range_meters":18000,"station_id":"ce4bgup2rcd13ifvqco0","pricing_plan_id":"cebpf4jnsgd1na2vs0mg"},{"bike_id":"1578a68a-cc35-4839-ba7b-f3c58a0a0b0f","system_id":"levelo_inurba_marseille","lat":43.25119,"lon":5.40318,"is_reserved":false,"is_disabled":false,"rental_uris":{"android":"levelo://app?vid=1578a68a-cc35-4839-ba7b-f3c58a0a0b0f","ios":"levelo://app?vid=1578a68a-cc35-4839-ba7b-f3c58a0a0b0f"},"vehicle_type_id":"4","last_reported":1752448301,"current_range_meters":18000,"station_id":"ce4bhlh2rcd13ifvqgig","pricing_plan_id":"cebpf4jnsgd1na2vs0mg"},{"bike_id":"6c6d4d9a-6141-481c-9c1a-8e61054bdc43","system_id":"levelo_inurba_marseille","lat":43.24788,"lon":5.4173,"is_reserved":false,"is_disabled":false,"rental_uris":{"android":"levelo://app?vid=6c6d4d9a-6141-481c-9c1a-8e61054bdc43","ios":"levelo://app?vid=6c6d4d9a-6141-481c-9c1a-8e61054bdc43"},"vehicle_type_id":"4","last_reported":1752448301,"current_range_meters":18000,"station_id":"","pricing_plan_id":"cebpf4jnsgd1na2vs0mg"},{"bike_id":"d4d09814-bfb5-45f2-8280-ce5d7b12bead","system_id":"levelo_inurba_marseille","lat":43.2794,"lon":5.41045,"is_reserved":false,"is_disabled":false,"rental_uris":{"android":"levelo://app?vid=d4d09814-bfb5-45f2-8280-ce5d7b12bead","ios":"levelo://app?vid=d4d09814-bfb5-45f2-8280-ce5d7b12bead"},"vehicle_type_id":"4","last_reported":1752448301,"current_range_meters":18000,"station_id":"ce4bhnp2rcd13ifvqh0g","pricing_plan_id":"cebpf4jnsgd1na2vs0mg"},{"bike_id":"aa260077-cb0d-43c9-8e67-329c1b69779f","system_id":"levelo_inurba_marseille","lat":43.21193,"lon":5.35076,"is_reserved":false,"is_disabled":false,"rental_uris":{"android":"levelo://app?vid=aa260077-cb0d-43c9-8e67-329c1b69779f","ios":"levelo://app?vid=aa260077-cb0d-43c9-8e67-329c1b69779f"},"vehicle_type_id":"4","last_reported":1752448301,"current_range_meters":18000,"station_id":"st_cvj6sg6p6f1abm77japg","pricing_plan_id":"cebpf4jnsgd1na2vs0mg"},{"bike_id":"3fb04514-ae9e-4e32-9c2c-443c01388200","system_id":"levelo_inurba_marseille","lat":43.28404,"lon":5.37531,"is_reserved":false,"is_disabled":false,"rental_uris":{"android":"levelo://app?vid=3fb04514-ae9e-4e32-9c2c-443c01388200","ios":"levelo://app?vid=3fb04514-ae9e-4e32-9c2c-443c01388200"},"vehicle_type_id":"4","last_reported":1752448301,"current_range_meters":18000,"station_id":"ce4bh412rcd13ifvqds0","pricing_plan_id":"cebpf4jnsgd1na2vs0mg"},{"bike_id":"08e67338-a2ff-42fc-a939-92ad435f118e","system_id":"levelo_inurba_marseille","lat":43.27674,"lon":5.35714,"is_reserved":false,"is_disabled":false,"rental_uris":{"android":"levelo://app?vid=08e67338-a2ff-42fc-a939-92ad435f118e","ios":"levelo://app?vid=08e67338-a2ff-42fc-a939-92ad435f118e"},"vehicle_type_id":"4","last_reported":1752448301,"current_range_meters":18000,"station_id":"","pricing_plan_id":"cebpf4jnsgd1na2vs0mg"},{"bike_id":"ce070e0a-4461-4abc-88f6-c42cf23ccdae","system_id":"levelo_inurba_marseille","lat":43.28684,"lon":5.38649,"is_reserved":false,"is_disabled":false,"rental_uris":{"android":"levelo://app?vid=ce070e0a-4461-4abc-88f6-c42cf23ccdae","ios":"levelo://app?vid=ce070e0a-4461-4abc-88f6-c42cf23ccdae"},"vehicle_type_id":"4","last_reported":1752448301,"current_range_meters":18000,"station_id":"ce4bh492rcd13ifvqdug","pricing_plan_id":"cebpf4jnsgd1na2vs0mg"},{"bike_id":"fdf41f87-deb0-46b3-9de1-6dd73b263487","system_id":"levelo_inurba_marseille","lat":43.25498,"lon":5.37652,"is_reserved":false,"is_disabled":true,"rental_uris":{"android":"levelo://app?vid=fdf41f87-deb0-46b3-9de1-6dd73b263487","ios":"levelo://app?vid=fdf41f87-deb0-46b3-9de1-6dd73b263487"},"vehicle_type_id":"4","last_reported":1752448301,"current_range_meters":18800,"station_id":"ce4bhh12rcd13ifvqff0","pricing_plan_id":"cebpf4jnsgd1na2vs0mg"},{"bike_id":"2efb7021-4b12-4c60-9b9e-255aa9eaf858","system_id":"levelo_inurba_marseille","lat":43.31113,"lon":5.37767,"is_reserved":false,"is_disabled":false,"rental_uris":{"android":"levelo://app?vid=2efb7021-4b12-4c60-9b9e-255aa9eaf858","ios":"levelo://app?vid=2efb7021-4b12-4c60-9b9e-255aa9eaf858"},"vehicle_type_id":"4","last_reported":1752448301,"current_range_meters":18800,"station_id":"ce4bgt92rcd13ifvqcg0","pricing_plan_id":"cebpf4jnsgd1na2vs0mg"},{"bike_id":"a7d18bb4-2d77-4bbd-a977-caa2f9d3d378","system_id":"levelo_inurba_marseille","lat":43.26199,"lon":5.37931,"is_reserved":false,"is_disabled":false,"rental_uris":{"android":"levelo://app?vid=a7d18bb4-2d77-4bbd-a977-caa2f9d3d378","ios":"levelo://app?vid=a7d18bb4-2d77-4bbd-a977-caa2f9d3d378"},"vehicle_type_id":"4","last_reported":1752448301,"current_range_meters":18800,"station_id":"ce4bhjp2rcd13ifvqg90","pricing_plan_id":"cebpf4jnsgd1na2vs0mg"},{"bike_id":"9b59b22f-5f4b-432f-be59-c16459c4633a","system_id":"levelo_inurba_marseille","lat":43.28032,"lon":5.3695,"is_reserved":false,"is_disabled":false,"rental_uris":{"android":"levelo://app?vid=9b59b22f-5f4b-432f-be59-c16459c4633a","ios":"levelo://app?vid=9b59b22f-5f4b-432f-be59-c16459c4633a"},"vehicle_type_id":"4","last_reported":1752448301,"current_range_meters":18800,"station_id":"ce4bha12rcd13ifvqef0","pricing_plan_id":"cebpf4jnsgd1na2vs0mg"},{"bike_id":"b49aa560-ac16-42bc-a988-d169d5913d5d","system_id":"levelo_inurba_marseille","lat":43.29523,"lon":5.38526,"is_reserved":false,"is_disabled":false,"rental_uris":{"android":"levelo://app?vid=b49aa560-ac16-42bc-a988-d169d5913d5d","ios":"levelo://app?vid=b49aa560-ac16-42bc-a988-d169d5913d5d"},"vehicle_type_id":"4","last_reported":1752448301,"current_range_meters":18800,"station_id":"ce4bgih2rcd13ifvqba0","pricing_plan_id":"cebpf4jnsgd1na2vs0mg"},{"bike_id":"7dfdc2c3-57a0-4a69-ae23-de970b88e6dd","system_id":"levelo_inurba_marseille","lat":43.25745,"lon":5.41099,"is_reserved":false,"is_disabled":false,"rental_uris":{"android":"levelo://app?vid=7dfdc2c3-57a0-4a69-ae23-de970b88e6dd","ios":"levelo://app?vid=7dfdc2c3-57a0-4a69-ae23-de970b88e6dd"},"vehicle_type_id":"4","last_reported":1752448301,"current_range_meters":18800,"station_id":"ce4bhkp2rcd13ifvqgd0","pricing_plan_id":"cebpf4jnsgd1na2vs0mg"},{"bike_id":"0be8b6ff-89df-4994-876a-5f9632d04ae6","system_id":"levelo_inurba_marseille","lat":43.25114,"lon":5.40335,"is_reserved":false,"is_disabled":false,"rental_uris":{"android":"levelo://app?vid=0be8b6ff-89df-4994-876a-5f9632d04ae6","ios":"levelo://app?vid=0be8b6ff-89df-4994-876a-5f9632d04ae6"},"vehicle_type_id":"4","last_reported":1752448301,"current_range_meters":18800,"station_id":"ce4bhlh2rcd13ifvqgig","pricing_plan_id":"cebpf4jnsgd1na2vs0mg"},{"bike_id":"7ce50aa9-fb46-499f-bf35-1bc8f67c6be2","system_id":"levelo_inurba_marseille","lat":43.270047,"lon":5.402537,"is_reserved":false,"is_disabled":false,"rental_uris":{"android":"levelo://app?vid=7ce50aa9-fb46-499f-bf35-1bc8f67c6be2","ios":"levelo://app?vid=7ce50aa9-fb46-499f-bf35-1bc8f67c6be2"},"vehicle_type_id":"4","last_reported":1752448301,"current_range_meters":18800,"station_id":"cjm6bp8fraef2m0cb0m0","pricing_plan_id":"cebpf4jnsgd1na2vs0mg"},{"bike_id":"ff273063-b26e-410d-a8db-735ccf894b50","system_id":"levelo_inurba_marseille","lat":43.240784,"lon":5.377693,"is_reserved":false,"is_disabled":false,"rental_uris":{"android":"levelo://app?vid=ff273063-b26e-410d-a8db-735ccf894b50","ios":"levelo://app?vid=ff273063-b26e-410d-a8db-735ccf894b50"},"vehicle_type_id":"4","last_reported":1752448301,"current_range_meters":18800,"station_id":"ce4bhnp2rcd13ifvqgvg","pricing_plan_id":"cebpf4jnsgd1na2vs0mg"},{"bike_id":"2c5a0a8d-b80f-43a1-91ae-93c8cb7cac46","system_id":"levelo_inurba_marseille","lat":43.290249,"lon":5.381227,"is_reserved":false,"is_disabled":false,"rental_uris":{"android":"levelo://app?vid=2c5a0a8d-b80f-43a1-91ae-93c8cb7cac46","ios":"levelo://app?vid=2c5a0a8d-b80f-43a1-91ae-93c8cb7cac46"},"vehicle_type_id":"4","last_reported":1752448301,"current_range_meters":18800,"station_id":"","pricing_plan_id":"cebpf4jnsgd1na2vs0mg"},{"bike_id":"a82956e3-13ee-4163-b589-f0b4d0c54da9","system_id":"levelo_inurba_marseille","lat":43.25109,"lon":5.40321,"is_reserved":false,"is_disabled":false,"rental_uris":{"android":"levelo://app?vid=a82956e3-13ee-4163-b589-f0b4d0c54da9","ios":"levelo://app?vid=a82956e3-13ee-4163-b589-f0b4d0c54da9"},"vehicle_type_id":"4","last_reported":1752448301,"current_range_meters":18800,"station_id":"ce4bhlh2rcd13ifvqgig","pricing_plan_id":"cebpf4jnsgd1na2vs0mg"},{"bike_id":"c2857b8a-2544-48ae-936c-90bab1dd6ab6","system_id":"levelo_inurba_marseille","lat":43.212077,"lon":5.350801,"is_reserved":false,"is_disabled":false,"rental_uris":{"android":"levelo://app?vid=c2857b8a-2544-48ae-936c-90bab1dd6ab6","ios":"levelo://app?vid=c2857b8a-2544-48ae-936c-90bab1dd6ab6"},"vehicle_type_id":"4","last_reported":1752448301,"current_range_meters":18800,"station_id":"st_cvj6sg6p6f1abm77japg","pricing_plan_id":"cebpf4jnsgd1na2vs0mg"},{"bike_id":"bbbd7405-0e12-4512-b62c-d8d1cbbecf09","system_id":"levelo_inurba_marseille","lat":43.29947,"lon":5.38588,"is_reserved":false,"is_disabled":true,"rental_uris":{"android":"levelo://app?vid=bbbd7405-0e12-4512-b62c-d8d1cbbecf09","ios":"levelo://app?vid=bbbd7405-0e12-4512-b62c-d8d1cbbecf09"},"vehicle_type_id":"4","last_reported":1752448301,"current_range_meters":18800,"station_id":"","pricing_plan_id":"cebpf4jnsgd1na2vs0mg"},{"bike_id":"fd45ce6f-4b8c-407a-91aa-8c33650e607a","system_id":"levelo_inurba_marseille","lat":43.279919,"lon":5.416613,"is_reserved":false,"is_disabled":false,"rental_uris":{"android":"levelo://app?vid=fd45ce6f-4b8c-407a-91aa-8c33650e607a","ios":"levelo://app?vid=fd45ce6f-4b8c-407a-91aa-8c33650e607a"},"vehicle_type_id":"4","last_reported":1752448301,"current_range_meters":19200,"station_id":"ce4bho12rcd13ifvqh1g","pricing_plan_id":"cebpf4jnsgd1na2vs0mg"},{"bike_id":"71e479f4-838c-44c9-a19e-d1950cd099a6","system_id":"levelo_inurba_marseille","lat":43.27637,"lon":5.42376,"is_reserved":false,"is_disabled":false,"rental_uris":{"android":"levelo://app?vid=71e479f4-838c-44c9-a19e-d1950cd099a6","ios":"levelo://app?vid=71e479f4-838c-44c9-a19e-d1950cd099a6"},"vehicle_type_id":"4","last_reported":1752448301,"current_range_meters":19200,"station_id":"","pricing_plan_id":"cebpf4jnsgd1na2vs0mg"},{"bike_id":"a6a93a4a-5697-4374-a5d3-20a4e4aa6310","system_id":"levelo_inurba_marseille","lat":43.26234,"lon":5.4045,"is_reserved":false,"is_disabled":false,"rental_uris":{"android":"levelo://app?vid=a6a93a4a-5697-4374-a5d3-20a4e4aa6310","ios":"levelo://app?vid=a6a93a4a-5697-4374-a5d3-20a4e4aa6310"},"vehicle_type_id":"4","last_reported":1752448301,"current_range_meters":19200,"station_id":"ce4bhmh2rcd13ifvqgmg","pricing_plan_id":"cebpf4jnsgd1na2vs0mg"},{"bike_id":"44e10618-e1b8-4569-bc24-980853c4bf04","system_id":"levelo_inurba_marseille","lat":43.22889,"lon":5.35451,"is_reserved":false,"is_disabled":true,"rental_uris":{"android":"levelo://app?vid=44e10618-e1b8-4569-bc24-980853c4bf04","ios":"levelo://app?vid=44e10618-e1b8-4569-bc24-980853c4bf04"},"vehicle_type_id":"4","last_reported":1752448301,"current_range_meters":19200,"station_id":"cpo3532slgdg3j2ikp40","pricing_plan_id":"cebpf4jnsgd1na2vs0mg"},{"bike_id":"b557b223-dad6-4fea-8f09-4a3a9f8b1c3a","system_id":"levelo_inurba_marseille","lat":43.303075,"lon":5.392064,"is_reserved":false,"is_disabled":true,"rental_uris":{"android":"levelo://app?vid=b557b223-dad6-4fea-8f09-4a3a9f8b1c3a","ios":"levelo://app?vid=b557b223-dad6-4fea-8f09-4a3a9f8b1c3a"},"vehicle_type_id":"4","last_reported":1752448301,"current_range_meters":19200,"station_id":"ce4bgkh2rcd13ifvqbk0","pricing_plan_id":"cebpf4jnsgd1na2vs0mg"},{"bike_id":"3705f2d6-d610-4848-8b39-bbf5ffa61db7","system_id":"levelo_inurba_marseille","lat":43.3088,"lon":5.3965,"is_reserved":false,"is_disabled":false,"rental_uris":{"android":"levelo://app?vid=3705f2d6-d610-4848-8b39-bbf5ffa61db7","ios":"levelo://app?vid=3705f2d6-d610-4848-8b39-bbf5ffa61db7"},"vehicle_type_id":"4","last_reported":1752448301,"current_range_meters":19200,"station_id":"ce4bh012rcd13ifvqcv0","pricing_plan_id":"cebpf4jnsgd1na2vs0mg"},{"bike_id":"44afe9cd-3774-4da6-a01b-8c8a79575d2d","system_id":"levelo_inurba_marseille","lat":43.295227,"lon":5.385393,"is_reserved":false,"is_disabled":false,"rental_uris":{"android":"levelo://app?vid=44afe9cd-3774-4da6-a01b-8c8a79575d2d","ios":"levelo://app?vid=44afe9cd-3774-4da6-a01b-8c8a79575d2d"},"vehicle_type_id":"4","last_reported":1752448301,"current_range_meters":19200,"station_id":"ce4bgih2rcd13ifvqba0","pricing_plan_id":"cebpf4jnsgd1na2vs0mg"},{"bike_id":"6b709f20-8c1b-467d-911c-16baafb0e489","system_id":"levelo_inurba_marseille","lat":43.29252,"lon":5.3844,"is_reserved":false,"is_disabled":false,"rental_uris":{"android":"levelo://app?vid=6b709f20-8c1b-467d-911c-16baafb0e489","ios":"levelo://app?vid=6b709f20-8c1b-467d-911c-16baafb0e489"},"vehicle_type_id":"4","last_reported":1752448301,"current_range_meters":19200,"station_id":"ce4bh692rcd13ifvqea0","pricing_plan_id":"cebpf4jnsgd1na2vs0mg"},{"bike_id":"f10941ce-d19a-4475-b0ba-1c38d332727e","system_id":"levelo_inurba_marseille","lat":43.3215,"lon":5.3872,"is_reserved":false,"is_disabled":false,"rental_uris":{"android":"levelo://app?vid=f10941ce-d19a-4475-b0ba-1c38d332727e","ios":"levelo://app?vid=f10941ce-d19a-4475-b0ba-1c38d332727e"},"vehicle_type_id":"4","last_reported":1752448301,"current_range_meters":19200,"station_id":"","pricing_plan_id":"cebpf4jnsgd1na2vs0mg"},{"bike_id":"ce7e0f9d-fa84-4dc1-9d84-21a2c2d40a27","system_id":"levelo_inurba_marseille","lat":43.240685,"lon":5.377677,"is_reserved":false,"is_disabled":false,"rental_uris":{"android":"levelo://app?vid=ce7e0f9d-fa84-4dc1-9d84-21a2c2d40a27","ios":"levelo://app?vid=ce7e0f9d-fa84-4dc1-9d84-21a2c2d40a27"},"vehicle_type_id":"4","last_reported":1752448301,"current_range_meters":19200,"station_id":"ce4bhnp2rcd13ifvqgvg","pricing_plan_id":"cebpf4jnsgd1na2vs0mg"},{"bike_id":"55fe728a-cb2a-4476-b458-293f494c1795","system_id":"levelo_inurba_marseille","lat":43.28037,"lon":5.36944,"is_reserved":false,"is_disabled":false,"rental_uris":{"android":"levelo://app?vid=55fe728a-cb2a-4476-b458-293f494c1795","ios":"levelo://app?vid=55fe728a-cb2a-4476-b458-293f494c1795"},"vehicle_type_id":"4","last_reported":1752448301,"current_range_meters":16400,"station_id":"ce4bha12rcd13ifvqef0","pricing_plan_id":"cebpf4jnsgd1na2vs0mg"},{"bike_id":"947f6994-5216-4191-afd1-9c7412197203","system_id":"levelo_inurba_marseille","lat":43.28428,"lon":5.37512,"is_reserved":false,"is_disabled":false,"rental_uris":{"android":"levelo://app?vid=947f6994-5216-4191-afd1-9c7412197203","ios":"levelo://app?vid=947f6994-5216-4191-afd1-9c7412197203"},"vehicle_type_id":"4","last_reported":1752448301,"current_range_meters":19600,"station_id":"ce4bh412rcd13ifvqds0","pricing_plan_id":"cebpf4jnsgd1na2vs0mg"},{"bike_id":"dc214cbe-44e7-41d0-abbf-23227b370da2","system_id":"levelo_inurba_marseille","lat":43.27837,"lon":5.40689,"is_reserved":false,"is_disabled":false,"rental_uris":{"android":"levelo://app?vid=dc214cbe-44e7-41d0-abbf-23227b370da2","ios":"levelo://app?vid=dc214cbe-44e7-41d0-abbf-23227b370da2"},"vehicle_type_id":"4","last_reported":1752448301,"current_range_meters":19600,"station_id":"ce4bhnh2rcd13ifvqgtg","pricing_plan_id":"cebpf4jnsgd1na2vs0mg"},{"bike_id":"0f446b86-1d01-41ea-938d-d85073a06fb4","system_id":"levelo_inurba_marseille","lat":43.26809,"lon":5.40269,"is_reserved":false,"is_disabled":false,"rental_uris":{"android":"levelo://app?vid=0f446b86-1d01-41ea-938d-d85073a06fb4","ios":"levelo://app?vid=0f446b86-1d01-41ea-938d-d85073a06fb4"},"vehicle_type_id":"4","last_reported":1752448301,"current_range_meters":19600,"station_id":"ce501612rcd8frsf0b60","pricing_plan_id":"cebpf4jnsgd1na2vs0mg"},{"bike_id":"40e21a4b-d2f2-4611-bf63-2c9dc91abf1e","system_id":"levelo_inurba_marseille","lat":43.2898,"lon":5.37833,"is_reserved":false,"is_disabled":false,"rental_uris":{"android":"levelo://app?vid=40e21a4b-d2f2-4611-bf63-2c9dc91abf1e","ios":"levelo://app?vid=40e21a4b-d2f2-4611-bf63-2c9dc91abf1e"},"vehicle_type_id":"4","last_reported":1752448301,"current_range_meters":19600,"station_id":"ce4bh9p2rcd13ifvqed0","pricing_plan_id":"cebpf4jnsgd1na2vs0mg"},{"bike_id":"d0f90c24-dd03-411b-9731-55305f76b7c8","system_id":"levelo_inurba_marseille","lat":43.21192,"lon":5.350731,"is_reserved":false,"is_disabled":false,"rental_uris":{"android":"levelo://app?vid=d0f90c24-dd03-411b-9731-55305f76b7c8","ios":"levelo://app?vid=d0f90c24-dd03-411b-9731-55305f76b7c8"},"vehicle_type_id":"4","last_reported":1752448301,"current_range_meters":19600,"station_id":"st_cvj6sg6p6f1abm77japg","pricing_plan_id":"cebpf4jnsgd1na2vs0mg"},{"bike_id":"c76c8ff0-43c0-40a7-9b84-84c2c1d54c8e","system_id":"levelo_inurba_marseille","lat":43.294787,"lon":5.385398,"is_reserved":false,"is_disabled":false,"rental_uris":{"android":"levelo://app?vid=c76c8ff0-43c0-40a7-9b84-84c2c1d54c8e","ios":"levelo://app?vid=c76c8ff0-43c0-40a7-9b84-84c2c1d54c8e"},"vehicle_type_id":"4","last_reported":1752448301,"current_range_meters":19600,"station_id":"","pricing_plan_id":"cebpf4jnsgd1na2vs0mg"},{"bike_id":"1f6d9580-9465-47ca-bde4-9f3c8ccc3907","system_id":"levelo_inurba_marseille","lat":43.290283,"lon":5.386394,"is_reserved":false,"is_disabled":false,"rental_uris":{"android":"levelo://app?vid=1f6d9580-9465-47ca-bde4-9f3c8ccc3907","ios":"levelo://app?vid=1f6d9580-9465-47ca-bde4-9f3c8ccc3907"},"vehicle_type_id":"4","last_reported":1752448301,"current_range_meters":19600,"station_id":"ce4bh4p2rcd13ifvqe0g","pricing_plan_id":"cebpf4jnsgd1na2vs0mg"},{"bike_id":"6ad77e3e-b64b-46c5-aacd-f441bffa9a51","system_id":"levelo_inurba_marseille","lat":43.25104,"lon":5.40339,"is_reserved":false,"is_disabled":false,"rental_uris":{"android":"levelo://app?vid=6ad77e3e-b64b-46c5-aacd-f441bffa9a51","ios":"levelo://app?vid=6ad77e3e-b64b-46c5-aacd-f441bffa9a51"},"vehicle_type_id":"4","last_reported":1752448301,"current_range_meters":19600,"station_id":"ce4bhlh2rcd13ifvqgig","pricing_plan_id":"cebpf4jnsgd1na2vs0mg"},{"bike_id":"a70299b8-e8fc-4969-90af-38b17edba5cc","system_id":"levelo_inurba_marseille","lat":43.24171,"lon":5.36397,"is_reserved":false,"is_disabled":false,"rental_uris":{"android":"levelo://app?vid=a70299b8-e8fc-4969-90af-38b17edba5cc","ios":"levelo://app?vid=a70299b8-e8fc-4969-90af-38b17edba5cc"},"vehicle_type_id":"4","last_reported":1752448301,"current_range_meters":19600,"station_id":"cpo36qri1sfpv3e86is0","pricing_plan_id":"cebpf4jnsgd1na2vs0mg"},{"bike_id":"e0b88937-0cb8-4374-8110-357b6a1974b9","system_id":"levelo_inurba_marseille","lat":43.240713,"lon":5.377617,"is_reserved":false,"is_disabled":false,"rental_uris":{"android":"levelo://app?vid=e0b88937-0cb8-4374-8110-357b6a1974b9","ios":"levelo://app?vid=e0b88937-0cb8-4374-8110-357b6a1974b9"},"vehicle_type_id":"4","last_reported":1752448301,"current_range_meters":19600,"station_id":"ce4bhnp2rcd13ifvqgvg","pricing_plan_id":"cebpf4jnsgd1na2vs0mg"},{"bike_id":"0f7eaadb-99c8-4fb0-9e59-0cfd4013c82b","system_id":"levelo_inurba_marseille","lat":43.295323,"lon":5.38549,"is_reserved":false,"is_disabled":false,"rental_uris":{"android":"levelo://app?vid=0f7eaadb-99c8-4fb0-9e59-0cfd4013c82b","ios":"levelo://app?vid=0f7eaadb-99c8-4fb0-9e59-0cfd4013c82b"},"vehicle_type_id":"4","last_reported":1752448301,"current_range_meters":19600,"station_id":"ce4bgih2rcd13ifvqba0","pricing_plan_id":"cebpf4jnsgd1na2vs0mg"},{"bike_id":"29912b0d-96bb-43c0-90ab-168b4f4dfd4d","system_id":"levelo_inurba_marseille","lat":43.31363,"lon":5.38502,"is_reserved":false,"is_disabled":false,"rental_uris":{"android":"levelo://app?vid=29912b0d-96bb-43c0-90ab-168b4f4dfd4d","ios":"levelo://app?vid=29912b0d-96bb-43c0-90ab-168b4f4dfd4d"},"vehicle_type_id":"4","last_reported":1752448301,"current_range_meters":19600,"station_id":"ce4bgt92rcd13ifvqcf0","pricing_plan_id":"cebpf4jnsgd1na2vs0mg"},{"bike_id":"00fc1402-4dd5-4160-81c9-e4ee05f4960b","system_id":"levelo_inurba_marseille","lat":43.22512,"lon":5.34796,"is_reserved":false,"is_disabled":false,"rental_uris":{"android":"levelo://app?vid=00fc1402-4dd5-4160-81c9-e4ee05f4960b","ios":"levelo://app?vid=00fc1402-4dd5-4160-81c9-e4ee05f4960b"},"vehicle_type_id":"4","last_reported":1752448301,"current_range_meters":19600,"station_id":"st_cvj5dfep6f1abm77gieg","pricing_plan_id":"cebpf4jnsgd1na2vs0mg"},{"bike_id":"1fb0b862-1be2-44fe-a0e8-b2ea72b5cee4","system_id":"levelo_inurba_marseille","lat":43.30909,"lon":5.368525,"is_reserved":false,"is_disabled":false,"rental_uris":{"android":"levelo://app?vid=1fb0b862-1be2-44fe-a0e8-b2ea72b5cee4","ios":"levelo://app?vid=1fb0b862-1be2-44fe-a0e8-b2ea72b5cee4"},"vehicle_type_id":"4","last_reported":1752448301,"current_range_meters":19600,"station_id":"ce4bgn92rcd13ifvqbvg","pricing_plan_id":"cebpf4jnsgd1na2vs0mg"},{"bike_id":"55314e5a-d559-4611-a322-312db3d6f466","system_id":"levelo_inurba_marseille","lat":43.26681,"lon":5.38278,"is_reserved":false,"is_disabled":false,"rental_uris":{"android":"levelo://app?vid=55314e5a-d559-4611-a322-312db3d6f466","ios":"levelo://app?vid=55314e5a-d559-4611-a322-312db3d6f466"},"vehicle_type_id":"4","last_reported":1752448301,"current_range_meters":19600,"station_id":"ce4bhg92rcd13ifvqf90","pricing_plan_id":"cebpf4jnsgd1na2vs0mg"},{"bike_id":"2d043b8b-5274-491b-9633-42d6a5148d06","system_id":"levelo_inurba_marseille","lat":43.3361,"lon":5.41029,"is_reserved":false,"is_disabled":false,"rental_uris":{"android":"levelo://app?vid=2d043b8b-5274-491b-9633-42d6a5148d06","ios":"levelo://app?vid=2d043b8b-5274-491b-9633-42d6a5148d06"},"vehicle_type_id":"4","last_reported":1752448301,"current_range_meters":19600,"station_id":"ce4bhqh2rcd13ifvqhmg","pricing_plan_id":"cebpf4jnsgd1na2vs0mg"},{"bike_id":"3064d7db-7a51-4e85-bef4-6def601894cd","system_id":"levelo_inurba_marseille","lat":43.30956,"lon":5.39046,"is_reserved":false,"is_disabled":true,"rental_uris":{"android":"levelo://app?vid=3064d7db-7a51-4e85-bef4-6def601894cd","ios":"levelo://app?vid=3064d7db-7a51-4e85-bef4-6def601894cd"},"vehicle_type_id":"4","last_reported":1752448301,"current_range_meters":20400,"station_id":"ce4bgup2rcd13ifvqco0","pricing_plan_id":"cebpf4jnsgd1na2vs0mg"},{"bike_id":"8b726028-c03f-4fa3-b49a-613ec73070c9","system_id":"levelo_inurba_marseille","lat":43.231888,"lon":5.35554,"is_reserved":false,"is_disabled":true,"rental_uris":{"android":"levelo://app?vid=8b726028-c03f-4fa3-b49a-613ec73070c9","ios":"levelo://app?vid=8b726028-c03f-4fa3-b49a-613ec73070c9"},"vehicle_type_id":"4","last_reported":1752448301,"current_range_meters":20000,"station_id":"ce4bhu92rcd13ifvqi70","pricing_plan_id":"cebpf4jnsgd1na2vs0mg"},