{"last_updated":1731521497,"ttl":60,"version":"2.2","data":{"bikes":[{"bike_id":"f1eae47f-b4af-4027-b220-a489b4a35389","system_id":"levelo_inurba_marseille","lat":43.26929,"lon":5.38917,"is_reserved":false,"is_disabled":false,"rental_uris":{"android":"levelo://app?vid=f1eae47f-b4af-4027-b220-a489b4a35389","ios":"levelo://app?vid=f1eae47f-b4af-4027-b220-a489b4a35389"},"vehicle_type_id":"4","last_reported":1731521498,"current_range_meters":39200,"station_id":"ce4bhhh2rcd13ifvqfl0","pricing_plan_id":"cebpf4jnsgd1na2vs0mg"},{"bike_id":"2328abb6-dc11-44ad-aae8-1ed3f44677d3","system_id":"levelo_inurba_marseille","lat":43.31171,"lon":5.38726,"is_reserved":false,"is_disabled":false,"rental_uris":{"android":"levelo://app?vid=2328abb6-dc11-44ad-aae8-1ed3f44677d3","ios":"levelo://app?vid=2328abb6-dc11-44ad-aae8-1ed3f44677d3"},"vehicle_type_id":"4","last_reported":1731521498,"current_range_meters":6800,"station_id":"ce4bgv12rcd13ifvqcp0","pricing_plan_id":"cebpf4jnsgd1na2vs0mg"},{"bike_id":"737c6267-43ff-4520-b696-2d5686bf5349","system_id":"levelo_inurba_marseille","lat":43.28664,"lon":5.36358,"is_reserved":false,"is_disabled":false,"rental_uris":{"android":"levelo://app?vid=737c6267-43ff-4520-b696-2d5686bf5349","ios":"levelo://app?vid=737c6267-43ff-4520-b696-2d5686bf5349"},"vehicle_type_id":"4","last_reported":1731521498,"current_range_meters":39200,"station_id":"ce4bhah2rcd13ifvqej0","pricing_plan_id":"cebpf4jnsgd1na2vs0mg"},{"bike_id":"7f9f099f-f739-4b1c-8edb-bab92b710fc8","system_id":"levelo_inurba_marseille","lat":43.25724,"lon":5.41112,"is_reserved":false,"is_disabled":false,"rental_uris":{"android":"levelo://app?vid=7f9f099f-f739-4b1c-8edb-bab92b710fc8","ios":"levelo://app?vid=7f9f099f-f739-4b1c-8edb-bab92b710fc8"},"vehicle_type_id":"4","last_reported":1731521498,"current_range_meters":2800,"station_id":"ce4bhkp2rcd13ifvqgd0","pricing_plan_id":"cebpf4jnsgd1na2vs0mg"},{"bike_id":"fe0cd583-5729-4c04-9c80-24d408aad4ec","system_id":"levelo_inurba_marseille","lat":43.28248,"lon":5.35087,"is_reserved":false,"is_disabled":false,"rental_uris":{"android":"levelo://app?vid=fe0cd583-5729-4c04-9c80-24d408aad4ec","ios":"levelo://app?vid=fe0cd583-5729-4c04-9c80-24d408aad4ec"},"vehicle_type_id":"4","last_reported":1731521498,"current_range_meters":38800,"station_id":"ce4bhbp2rcd13ifvqerg","pricing_plan_id":"cebpf4jnsgd1na2vs0mg"},{"bike_id":"b5cfcd00-1872-4d20-ad0d-347c04f5677a","system_id":"levelo_inurba_marseille","lat":43.26805,"lon":5.40274,"is_reserved":false,"is_disabled":false,"rental_uris":{"android":"levelo://app?vid=b5cfcd00-1872-4d20-ad0d-347c04f5677a","ios":"levelo://app?vid=b5cfcd00-1872-4d20-ad0d-347c04f5677a"},"vehicle_type_id":"4","last_reported":1731521498,"current_range_meters":13600,"station_id":"ce501612rcd8frsf0b60","pricing_plan_id":"cebpf4jnsgd1na2vs0mg"},{"bike_id":"eb66c83e-9c22-451e-9a96-11fcf0b6a22c","system_id":"levelo_inurba_marseille","lat":43.3179,"lon":5.3901,"is_reserved":false,"is_disabled":false,"rental_uris":{"android":"levelo://app?vid=eb66c83e-9c22-451e-9a96-11fcf0b6a22c","ios":"levelo://app?vid=eb66c83e-9c22-451e-9a96-11fcf0b6a22c"},"vehicle_type_id":"4","last_reported":1731521498,"current_range_meters":38800,"station_id":"ce4bhqp2rcd13ifvqhng","pricing_plan_id":"cebpf4jnsgd1na2vs0mg"},{"bike_id":"052f9b93-6cd6-4b1f-acb9-36b85dbc4923","system_id":"levelo_inurba_marseille","lat":43.2846,"lon":5.35896,"is_reserved":false,"is_disabled":false,"rental_uris":{"android":"levelo://app?vid=052f9b93-6cd6-4b1f-acb9-36b85dbc4923","ios":"levelo://app?vid=052f9b93-6cd6-4b1f-acb9-36b85dbc4923"},"vehicle_type_id":"4","last_reported":1731521498,"current_range_meters":11200,"station_id":"ce4bhah2rcd13ifvqei0","pricing_plan_id":"cebpf4jnsgd1na2vs0mg"},{"bike_id":"ae292185-8e91-4db6-a612-c3563674c7fa","system_id":"levelo_inurba_marseille","lat":43.31755,"lon":5.39027,"is_reserved":false,"is_disabled":false,"rental_uris":{"android":"levelo://app?vid=ae292185-8e91-4db6-a612-c3563674c7fa","ios":"levelo://app?vid=ae292185-8e91-4db6-a612-c3563674c7fa"},"vehicle_type_id":"4","last_reported":1731521498,"current_range_meters":24800,"station_id":"ce4bhqp2rcd13ifvqhng","pricing_plan_id":"cebpf4jnsgd1na2vs0mg"},{"bike_id":"fe11df25-fc08-4d80-b150-6cce44849492","system_id":"levelo_inurba_marseille","lat":43.28461,"lon":5.35892,"is_reserved":false,"is_disabled":false,"rental_uris":{"android":"levelo://app?vid=fe11df25-fc08-4d80-b150-6cce44849492","ios":"levelo://app?vid=fe11df25-fc08-4d80-b150-6cce44849492"},"vehicle_type_id":"4","last_reported":1731521498,"current_range_meters":39200,"station_id":"ce4bhah2rcd13ifvqei0","pricing_plan_id":"cebpf4jnsgd1na2vs0mg"},{"bike_id":"9719777a-d03a-4e92-bf9c-4c762990eea0","system_id":"levelo_inurba_marseille","lat":43.29001,"lon":5.35621,"is_reserved":false,"is_disabled":false,"rental_uris":{"android":"levelo://app?vid=9719777a-d03a-4e92-bf9c-4c762990eea0","ios":"levelo://app?vid=9719777a-d03a-4e92-bf9c-4c762990eea0"},"vehicle_type_id":"4","last_reported":1731521498,"current_range_meters":27600,"station_id":"ce4bhb92rcd13ifvqen0","pricing_plan_id":"cebpf4jnsgd1na2vs0mg"},{"bike_id":"16d68338-3bea-4b18-9455-46789c192100","system_id":"levelo_inurba_marseille","lat":43.276154,"lon":5.361054,"is_reserved":false,"is_disabled":false,"rental_uris":{"android":"levelo://app?vid=16d68338-3bea-4b18-9455-46789c192100","ios":"levelo://app?vid=16d68338-3bea-4b18-9455-46789c192100"},"vehicle_type_id":"4","last_reported":1731521498,"current_range_meters":7200,"station_id":"ce4bgj92rcd13ifvqbe0","pricing_plan_id":"cebpf4jnsgd1na2vs0mg"},{"bike_id":"308de8fa-d5c7-4df8-bae8-d82ab8eba1bd","system_id":"levelo_inurba_marseille","lat":43.24807,"lon":5.37461,"is_reserved":false,"is_disabled":false,"rental_uris":{"android":"levelo://app?vid=308de8fa-d5c7-4df8-bae8-d82ab8eba1bd","ios":"levelo://app?vid=308de8fa-d5c7-4df8-bae8-d82ab8eba1bd"},"vehicle_type_id":"4","last_reported":1731521498,"current_range_meters":20000,"station_id":"ce4bhgh2rcd13ifvqfb0","pricing_plan_id":"cebpf4jnsgd1na2vs0mg"},{"bike_id":"82956a80-2676-40f9-bdca-fb192f1fe7f5","system_id":"levelo_inurba_marseille","lat":43.29255,"lon":5.38449,"is_reserved":false,"is_disabled":false,"rental_uris":{"android":"levelo://app?vid=82956a80-2676-40f9-bdca-fb192f1fe7f5","ios":"levelo://app?vid=82956a80-2676-40f9-bdca-fb192f1fe7f5"},"vehicle_type_id":"4","last_reported":1731521498,"current_range_meters":4800,"station_id":"ce4bh692rcd13ifvqea0","pricing_plan_id":"cebpf4jnsgd1na2vs0mg"},{"bike_id":"915b3322-673b-4f0d-87cb-c2e1aa7da644","system_id":"levelo_inurba_marseille","lat":43.26802,"lon":5.40269,"is_reserved":false,"is_disabled":false,"rental_uris":{"android":"levelo://app?vid=915b3322-673b-4f0d-87cb-c2e1aa7da644","ios":"levelo://app?vid=915b3322-673b-4f0d-87cb-c2e1aa7da644"},"vehicle_type_id":"4","last_reported":1731521498,"current_range_meters":8000,"station_id":"ce501612rcd8frsf0b60","pricing_plan_id":"cebpf4jnsgd1na2vs0mg"},{"bike_id":"a69f4d7b-3e5e-4cdf-a3a5-2686fa0be77b","system_id":"levelo_inurba_marseille","lat":43.33022,"lon":5.39044,"is_reserved":false,"is_disabled":false,"rental_uris":{"android":"levelo://app?vid=a69f4d7b-3e5e-4cdf-a3a5-2686fa0be77b","ios":"levelo://app?vid=a69f4d7b-3e5e-4cdf-a3a5-2686fa0be77b"},"vehicle_type_id":"4","last_reported":1731521498,"current_range_meters":28400,"station_id":"ce4bhr92rcd13ifvqhrg","pricing_plan_id":"cebpf4jnsgd1na2vs0mg"},{"bike_id":"a9b214d3-40d0-4198-aeee-e001b8da751f","system_id":"levelo_inurba_marseille","lat":43.26941,"lon":5.40248,"is_reserved":false,"is_disabled":false,"rental_uris":{"android":"levelo://app?vid=a9b214d3-40d0-4198-aeee-e001b8da751f","ios":"levelo://app?vid=a9b214d3-40d0-4198-aeee-e001b8da751f"},"vehicle_type_id":"4","last_reported":1731521498,"current_range_meters":27600,"station_id":"cjm6bp8fraef2m0cb0m0","pricing_plan_id":"cebpf4jnsgd1na2vs0mg"},{"bike_id":"f76dce19-8d17-4b50-90e5-b02d9b3fa026","system_id":"levelo_inurba_marseille","lat":43.28567,"lon":5.39263,"is_reserved":false,"is_disabled":false,"rental_uris":{"android":"levelo://app?vid=f76dce19-8d17-4b50-90e5-b02d9b3fa026","ios":"levelo://app?vid=f76dce19-8d17-4b50-90e5-b02d9b3fa026"},"vehicle_type_id":"4","last_reported":1731521498,"current_range_meters":32000,"station_id":"ce4bh4p2rcd13ifvqe0g","pricing_plan_id":"cebpf4jnsgd1na2vs0mg"},{"bike_id":"cbc19349-e630-4dd8-baac-6335f6904726","system_id":"levelo_inurba_marseille","lat":43.27627,"lon":5.3613,"is_reserved":false,"is_disabled":false,"rental_uris":{"android":"levelo://app?vid=cbc19349-e630-4dd8-baac-6335f6904726","ios":"levelo://app?vid=cbc19349-e630-4dd8-baac-6335f6904726"},"vehicle_type_id":"4","last_reported":1731521498,"current_range_meters":26800,"station_id":"ce4bgj92rcd13ifvqbe0","pricing_plan_id":"cebpf4jnsgd1na2vs0mg"},{"bike_id":"281fbaa2-25ce-4272-b523-c987388ef83c","system_id":"levelo_inurba_marseille","lat":43.27906,"lon":5.3801,"is_reserved":false,"is_disabled":false,"rental_uris":{"android":"levelo://app?vid=281fbaa2-25ce-4272-b523-c987388ef83c","ios":"levelo://app?vid=281fbaa2-25ce-4272-b523-c987388ef83c"},"vehicle_type_id":"4","last_reported":1731521498,"current_range_meters":28000,"station_id":"ce4bhf92rcd13ifvqf50","pricing_plan_id":"cebpf4jnsgd1na2vs0mg"},{"bike_id":"46488ce4-bf9b-4d84-82ab-dfeeeeb1c0ec","system_id":"levelo_inurba_marseille","lat":43.287162,"lon":5.380314,"is_reserved":false,"is_disabled":false,"rental_uris":{"android":"levelo://app?vid=46488ce4-bf9b-4d84-82ab-dfeeeeb1c0ec","ios":"levelo://app?vid=46488ce4-bf9b-4d84-82ab-dfeeeeb1c0ec"},"vehicle_type_id":"4","last_reported":1731521498,"current_range_meters":14000,"station_id":"ce4bgt12rcd13ifvqcd0","pricing_plan_id":"cebpf4jnsgd1na2vs0mg"},{"bike_id":"4a74f469-1d99-48ee-a8ca-9199898c00a4","system_id":"levelo_inurba_marseille","lat":43.23197,"lon":5.35553,"is_reserved":false,"is_disabled":false,"rental_uris":{"android":"levelo://app?vid=4a74f469-1d99-48ee-a8ca-9199898c00a4","ios":"levelo://app?vid=4a74f469-1d99-48ee-a8ca-9199898c00a4"},"vehicle_type_id":"4","last_reported":1731521498,"current_range_meters":25600,"station_id":"ce4bhu92rcd13ifvqi70","pricing_plan_id":"cebpf4jnsgd1na2vs0mg"},{"bike_id":"77849bd5-5bfe-4445-8191-82da714d15fa","system_id":"levelo_inurba_marseille","lat":43.27808,"lon":5.4072,"is_reserved":false,"is_disabled":false,"rental_uris":{"android":"levelo://app?vid=77849bd5-5bfe-4445-8191-82da714d15fa","ios":"levelo://app?vid=77849bd5-5bfe-4445-8191-82da714d15fa"},"vehicle_type_id":"4","last_reported":1731521498,"current_range_meters":36800,"station_id":"ce4bhnh2rcd13ifvqgtg","pricing_plan_id":"cebpf4jnsgd1na2vs0mg"},{"bike_id":"baeed238-b5b4-482c-9e5c-2accf4da025a","system_id":"levelo_inurba_marseille","lat":43.2803,"lon":5.36944,"is_reserved":false,"is_disabled":false,"rental_uris":{"android":"levelo://app?vid=baeed238-b5b4-482c-9e5c-2accf4da025a","ios":"levelo://app?vid=baeed238-b5b4-482c-9e5c-2accf4da025a"},"vehicle_type_id":"4","last_reported":1731521498,"current_range_meters":28000,"station_id":"ce4bha12rcd13ifvqef0","pricing_plan_id":"cebpf4jnsgd1na2vs0mg"},{"bike_id":"1eb63e0f-09e5-44f5-aebc-d51410bf21fd","system_id":"levelo_inurba_marseille","lat":43.29572,"lon":5.39967,"is_reserved":false,"is_disabled":false,"rental_uris":{"android":"levelo://app?vid=1eb63e0f-09e5-44f5-aebc-d51410bf21fd","ios":"levelo://app?vid=1eb63e0f-09e5-44f5-aebc-d51410bf21fd"},"vehicle_type_id":"4","last_reported":1731521498,"current_range_meters":39200,"station_id":"ce4bh312rcd13ifvqdj0","pricing_plan_id":"cebpf4jnsgd1na2vs0mg"},{"bike_id":"d90d861b-f246-48e4-b5c6-8f100bd8f91c","system_id":"levelo_inurba_marseille","lat":43.25092,"lon":5.39525,"is_reserved":false,"is_disabled":false,"rental_uris":{"android":"levelo://app?vid=d90d861b-f246-48e4-b5c6-8f100bd8f91c","ios":"levelo://app?vid=d90d861b-f246-48e4-b5c6-8f100bd8f91c"},"vehicle_type_id":"4","last_reported":1731521498,"current_range_meters":25200,"station_id":"ce4bhm12rcd13ifvqgkg","pricing_plan_id":"cebpf4jnsgd1na2vs0mg"},{"bike_id":"6d9fa2c1-aecd-42bf-931d-7b7abdc4d35e","system_id":"levelo_inurba_marseille","lat":43.25,"lon":5.38943,"is_reserved":false,"is_disabled":false,"rental_uris":{"android":"levelo://app?vid=6d9fa2c1-aecd-42bf-931d-7b7abdc4d35e","ios":"levelo://app?vid=6d9fa2c1-aecd-42bf-931d-7b7abdc4d35e"},"vehicle_type_id":"4","last_reported":1731521498,"current_range_meters":8400,"station_id":"ce4bhgp2rcd13ifvqfd0","pricing_plan_id":"cebpf4jnsgd1na2vs0mg"},{"bike_id":"c96527a5-6885-4ab1-8faa-b1c176d8afe6","system_id":"levelo_inurba_marseille","lat":43.29961,"lon":5.41315,"is_reserved":false,"is_disabled":false,"rental_uris":{"android":"levelo://app?vid=c96527a5-6885-4ab1-8faa-b1c176d8afe6","ios":"levelo://app?vid=c96527a5-6885-4ab1-8faa-b1c176d8afe6"},"vehicle_type_id":"4","last_reported":1731521498,"current_range_meters":4800,"station_id":"ce4bhp12rcd13ifvqh9g","pricing_plan_id":"cebpf4jnsgd1na2vs0mg"},{"bike_id":"5b6735dc-da0f-4bd7-8502-f63ae65feac0","system_id":"levelo_inurba_marseille","lat":43.326609,"lon":5.409929,"is_reserved":false,"is_disabled":false,"rental_uris":{"android":"levelo://app?vid=5b6735dc-da0f-4bd7-8502-f63ae65feac0","ios":"levelo://app?vid=5b6735dc-da0f-4bd7-8502-f63ae65feac0"},"vehicle_type_id":"4","last_reported":1731521498,"current_range_meters":32000,"station_id":"ce4bhpp2rcd13ifvqhgg","pricing_plan_id":"cebpf4jnsgd1na2vs0mg"},{"bike_id":"04e3a95a-502e-4d5c-8e2f-cc62e6d708a4","system_id":"levelo_inurba_marseille","lat":43.24386,"lon":5.37064,"is_reserved":false,"is_disabled":false,"rental_uris":{"android":"levelo://app?vid=04e3a95a-502e-4d5c-8e2f-cc62e6d708a4","ios":"levelo://app?vid=04e3a95a-502e-4d5c-8e2f-cc62e6d708a4"},"vehicle_type_id":"4","last_reported":1731521498,"current_range_meters":36400,"station_id":"ce4bhhh2rcd13ifvqfk0","pricing_plan_id":"cebpf4jnsgd1na2vs0mg"},{"bike_id":"ddfd6333-9536-44c5-9621-3fc3a750ffb4","system_id":"levelo_inurba_marseille","lat":43.30144,"lon":5.39872,"is_reserved":false,"is_disabled":false,"rental_uris":{"android":"levelo://app?vid=ddfd6333-9536-44c5-9621-3fc3a750ffb4","ios":"levelo://app?vid=ddfd6333-9536-44c5-9621-3fc3a750ffb4"},"vehicle_type_id":"4","last_reported":1731521498,"current_range_meters":14800,"station_id":"ce4bh0h2rcd13ifvqd40","pricing_plan_id":"cebpf4jnsgd1na2vs0mg"},{"bike_id":"318f7889-35ee-4ad0-8a2a-57588b09f79a","system_id":"levelo_inurba_marseille","lat":43.33021,"lon":5.39036,"is_reserved":false,"is_disabled":false,"rental_uris":{"android":"levelo://app?vid=318f7889-35ee-4ad0-8a2a-57588b09f79a","ios":"levelo://app?vid=318f7889-35ee-4ad0-8a2a-57588b09f79a"},"vehicle_type_id":"4","last_reported":1731521498,"current_range_meters":6800,"station_id":"ce4bhr92rcd13ifvqhrg","pricing_plan_id":"cebpf4jnsgd1na2vs0mg"},{"bike_id":"ceaf1c85-1d4c-4daa-b4b7-bbb91b330960","system_id":"levelo_inurba_marseille","lat":43.28651,"lon":5.36356,"is_reserved":false,"is_disabled":false,"rental_uris":{"android":"levelo://app?vid=ceaf1c85-1d4c-4daa-b4b7-bbb91b330960","ios":"levelo://app?vid=ceaf1c85-1d4c-4daa-b4b7-bbb91b330960"},"vehicle_type_id":"4","last_reported":1731521498,"current_range_meters":9200,"station_id":"ce4bhah2rcd13ifvqej0","pricing_plan_id":"cebpf4jnsgd1na2vs0mg"},{"bike_id":"a88271db-6418-45d1-ad66-967b61858f37","system_id":"levelo_inurba_marseille","lat":43.29422,"lon":5.38628,"is_reserved":false,"is_disabled":false,"rental_uris":{"android":"levelo://app?vid=a88271db-6418-45d1-ad66-967b61858f37","ios":"levelo://app?vid=a88271db-6418-45d1-ad66-967b61858f37"},"vehicle_type_id":"4","last_reported":1731521498,"current_range_meters":11200,"station_id":"ce4bh2h2rcd13ifvqdh0","pricing_plan_id":"cebpf4jnsgd1na2vs0mg"},{"bike_id":"7e219753-ac6c-4bd9-b4d2-823cdf590572","system_id":"levelo_inurba_marseille","lat":43.29048,"lon":5.3591,"is_reserved":false,"is_disabled":false,"rental_uris":{"android":"levelo://app?vid=7e219753-ac6c-4bd9-b4d2-823cdf590572","ios":"levelo://app?vid=7e219753-ac6c-4bd9-b4d2-823cdf590572"},"vehicle_type_id":"4","last_reported":1731521498,"current_range_meters":10800,"station_id":"ce4bha92rcd13ifvqeg0","pricing_plan_id":"cebpf4jnsgd1na2vs0mg"},{"bike_id":"6be89154-076b-4472-9fd7-35b22177dc35","system_id":"levelo_inurba_marseille","lat":43.27903,"lon":5.38009,"is_reserved":false,"is_disabled":false,"rental_uris":{"android":"levelo://app?vid=6be89154-076b-4472-9fd7-35b22177dc35","ios":"levelo://app?vid=6be89154-076b-4472-9fd7-35b22177dc35"},"vehicle_type_id":"4","last_reported":1731521498,"current_range_meters":14000,"station_id":"ce4bhf92rcd13ifvqf50","pricing_plan_id":"cebpf4jnsgd1na2vs0mg"},{"bike_id":"b5c48233-4f2d-4568-a512-177511afea67","system_id":"levelo_inurba_marseille","lat":43.29046,"lon":5.35908,"is_reserved":false,"is_disabled":false,"rental_uris":{"android":"levelo://app?vid=b5c48233-4f2d-4568-a512-177511afea67","ios":"levelo://app?vid=b5c48233-4f2d-4568-a512-177511afea67"},"vehicle_type_id":"4","last_reported":1731521498,"current_range_meters":17200,"station_id":"ce4bha92rcd13ifvqeg0","pricing_plan_id":"cebpf4jnsgd1na2vs0mg"},{"bike_id":"918880d3-8e92-4d4f-9944-565af202044d","system_id":"levelo_inurba_marseille","lat":43.29227,"lon":5.36073,"is_reserved":false,"is_disabled":false,"rental_uris":{"android":"levelo://app?vid=918880d3-8e92-4d4f-9944-565af202044d","ios":"levelo://app?vid=918880d3-8e92-4d4f-9944-565af202044d"},"vehicle_type_id":"4","last_reported":1731521498,"current_range_meters":34000,"station_id":"ce4bhbh2rcd13ifvqeqg","pricing_plan_id":"cebpf4jnsgd1na2vs0mg"},{"bike_id":"e90972ed-88dd-4bee-9901-f0b7c0102f7f","system_id":"levelo_inurba_marseille","lat":43.26954,"lon":5.38634,"is_reserved":false,"is_disabled":false,"rental_uris":{"android":"levelo://app?vid=e90972ed-88dd-4bee-9901-f0b7c0102f7f","ios":"levelo://app?vid=e90972ed-88dd-4bee-9901-f0b7c0102f7f"},"vehicle_type_id":"4","last_reported":1731521498,"current_range_meters":9600,"station_id":"ce4bhh92rcd13ifvqfh0","pricing_plan_id":"cebpf4jnsgd1na2vs0mg"},{"bike_id":"d99bff46-e3e0-4c25-9719-3fa3dd9a1a6e","system_id":"levelo_inurba_marseille","lat":43.31418,"lon":5.37412,"is_reserved":false,"is_disabled":false,"rental_uris":{"android":"levelo://app?vid=d99bff46-e3e0-4c25-9719-3fa3dd9a1a6e","ios":"levelo://app?vid=d99bff46-e3e0-4c25-9719-3fa3dd9a1a6e"},"vehicle_type_id":"4","last_reported":1731521498,"current_range_meters":22400,"station_id":"","pricing_plan_id":"cebpf4jnsgd1na2vs0mg"},{"bike_id":"8e034435-97e6-4f6e-b61d-930d5226d990","system_id":"levelo_inurba_marseille","lat":43.33738,"lon":5.39186,"is_reserved":false,"is_disabled":false,"rental_uris":{"android":"levelo://app?vid=8e034435-97e6-4f6e-b61d-930d5226d990","ios":"levelo://app?vid=8e034435-97e6-4f6e-b61d-930d5226d990"},"vehicle_type_id":"4","last_reported":1731521498,"current_range_meters":8000,"station_id":"ce4bhr92rcd13ifvqhsg","pricing_plan_id":"cebpf4jnsgd1na2vs0mg"},{"bike_id":"07df449b-4274-4142-8432-30fbab1e34c7","system_id":"levelo_inurba_marseille","lat":43.316925,"lon":5.423986,"is_reserved":false,"is_disabled":false,"rental_uris":{"android":"levelo://app?vid=07df449b-4274-4142-8432-30fbab1e34c7","ios":"levelo://app?vid=07df449b-4274-4142-8432-30fbab1e34c7"},"vehicle_type_id":"4","last_reported":1731521498,"current_range_meters":8800,"station_id":"ce4bhp92rcd13ifvqhbg","pricing_plan_id":"cebpf4jnsgd1na2vs0mg"},{"bike_id":"06062387-ba9b-44f5-a130-ff06f219aa7e","system_id":"levelo_inurba_marseille","lat":43.28348,"lon":5.38113,"is_reserved":false,"is_disabled":false,"rental_uris":{"android":"levelo://app?vid=06062387-ba9b-44f5-a130-ff06f219aa7e","ios":"levelo://app?vid=06062387-ba9b-44f5-a130-ff06f219aa7e"},"vehicle_type_id":"4","last_reported":1731521498,"current_range_meters":25200,"station_id":"ce4bh412rcd13ifvqdr0","pricing_plan_id":"cebpf4jnsgd1na2vs0mg"},{"bike_id":"6e2dac49-3b08-40b4-92db-f8e15c5aa41d","system_id":"levelo_inurba_marseille","lat":43.31224,"lon":5.36858,"is_reserved":false,"is_disabled":false,"rental_uris":{"android":"levelo://app?vid=6e2dac49-3b08-40b4-92db-f8e15c5aa41d","ios":"levelo://app?vid=6e2dac49-3b08-40b4-92db-f8e15c5aa41d"},"vehicle_type_id":"4","last_reported":1731521498,"current_range_meters":38000,"station_id":"ce4bgl92rcd13ifvqbq0","pricing_plan_id":"cebpf4jnsgd1na2vs0mg"},{"bike_id":"87950918-e819-45af-a5da-178e4026cacc","system_id":"levelo_inurba_marseille","lat":43.26755,"lon":5.39427,"is_reserved":false,"is_disabled":false,"rental_uris":{"android":"levelo://app?vid=87950918-e819-45af-a5da-178e4026cacc","ios":"levelo://app?vid=87950918-e819-45af-a5da-178e4026cacc"},"vehicle_type_id":"4","last_reported":1731521498,"current_range_meters":38800,"station_id":"","pricing_plan_id":"cebpf4jnsgd1na2vs0mg"},{"bike_id":"407b6b2b-ca33-4f02-b673-a96fbb18b78f","system_id":"levelo_inurba_marseille","lat":43.29419,"lon":5.38625,"is_reserved":false,"is_disabled":false,"rental_uris":{"android":"levelo://app?vid=407b6b2b-ca33-4f02-b673-a96fbb18b78f","ios":"levelo://app?vid=407b6b2b-ca33-4f02-b673-a96fbb18b78f"},"vehicle_type_id":"4","last_reported":1731521498,"current_range_meters":26000,"station_id":"ce4bh2h2rcd13ifvqdh0","pricing_plan_id":"cebpf4jnsgd1na2vs0mg"},{"bike_id":"11849828-e817-46d6-ba97-f976267371cb","system_id":"levelo_inurba_marseille","lat":43.29046,"lon":5.3591,"is_reserved":false,"is_disabled":false,"rental_uris":{"android":"levelo://app?vid=11849828-e817-46d6-ba97-f976267371cb","ios":"levelo://app?vid=11849828-e817-46d6-ba97-f976267371cb"},"vehicle_type_id":"4","last_reported":1731521498,"current_range_meters":2000,"station_id":"ce4bha92rcd13ifvqeg0","pricing_plan_id":"cebpf4jnsgd1na2vs0mg"},{"bike_id":"c922eb02-035c-4fd0-a78f-29ec8348d4e8","system_id":"levelo_inurba_marseille","lat":43.29204,"lon":5.39328,"is_reserved":false,"is_disabled":false,"rental_uris":{"android":"levelo://app?vid=c922eb02-035c-4fd0-a78f-29ec8348d4e8","ios":"levelo://app?vid=c922eb02-035c-4fd0-a78f-29ec8348d4e8"},"vehicle_type_id":"4","last_reported":1731521498,"current_range_meters":12000,"station_id":"ce4bh192rcd13ifvqdd0","pricing_plan_id":"cebpf4jnsgd1na2vs0mg"},{"bike_id":"76d3a0cb-8de9-4d01-967c-d99f3c6864dd","system_id":"levelo_inurba_marseille","lat":43.27942,"lon":5.41043,"is_reserved":false,"is_disabled":false,"rental_uris":{"android":"levelo://app?vid=76d3a0cb-8de9-4d01-967c-d99f3c6864dd","ios":"levelo://app?vid=76d3a0cb-8de9-4d01-967c-d99f3c6864dd"},"vehicle_type_id":"4","last_reported":1731521498,"current_range_meters":19600,"station_id":"ce4bhnp2rcd13ifvqh0g","pricing_plan_id":"cebpf4jnsgd1na2vs0mg"},{"bike_id":"7db349e8-ad42-4134-bddb-be5dc2fe4958","system_id":"levelo_inurba_marseille","lat":43.29957,"lon":5.41318,"is_reserved":false,"is_disabled":false,"rental_uris":{"android":"levelo://app?vid=7db349e8-ad42-4134-bddb-be5dc2fe4958","ios":"levelo://app?vid=7db349e8-ad42-4134-bddb-be5dc2fe4958"},"vehicle_type_id":"4","last_reported":1731521498,"current_range_meters":37600,"station_id":"ce4bhp12rcd13ifvqh9g","pricing_plan_id":"cebpf4jnsgd1na2vs0mg"},{"bike_id":"4d588559-87d9-4b67-ac55-1a3523c0923d","system_id":"levelo_inurba_marseille","lat":43.29894,"lon":5.43673,"is_reserved":false,"is_disabled":false,"rental_uris":{"android":"levelo://app?vid=4d588559-87d9-4b67-ac55-1a3523c0923d","ios":"levelo://app?vid=4d588559-87d9-4b67-ac55-1a3523c0923d"},"vehicle_type_id":"4","last_reported":1731521498,"current_range_meters":18000,"station_id":"ce4bhpp2rcd13ifvqhfg","pricing_plan_id":"cebpf4jnsgd1na2vs0mg"},{"bike_id":"c4cd912c-a38b-4bea-8dd2-1adccd444902","system_id":"levelo_inurba_marseille","lat":43.32299,"lon":5.38263,"is_reserved":false,"is_disabled":false,"rental_uris":{"android":"levelo://app?vid=c4cd912c-a38b-4bea-8dd2-1adccd444902","ios":"levelo://app?vid=c4cd912c-a38b-4bea-8dd2-1adccd444902"},"vehicle_type_id":"4","last_reported":1731521498,"current_range_meters":6400,"station_id":"ce4bhr12rcd13ifvqhqg","pricing_plan_id":"cebpf4jnsgd1na2vs0mg"},{"bike_id":"084922af-8022-4224-9788-dd22ab60e3e2","system_id":"levelo_inurba_marseille","lat":43.29867,"lon":5.39731,"is_reserved":false,"is_disabled":false,"rental_uris":{"android":"levelo://app?vid=084922af-8022-4224-9788-dd22ab60e3e2","ios":"levelo://app?vid=084922af-8022-4224-9788-dd22ab60e3e2"},"vehicle_type_id":"4","last_reported":1731521498,"current_range_meters":18800,"station_id":"ce4bh0h2rcd13ifvqd50","pricing_plan_id":"cebpf4jnsgd1na2vs0mg"},{"bike_id":"a80446f1-402f-499f-8fb3-7d862e830eae","system_id":"levelo_inurba_marseille","lat":43.30261,"lon":5.40091,"is_reserved":false,"is_disabled":false,"rental_uris":{"android":"levelo://app?vid=a80446f1-402f-499f-8fb3-7d862e830eae","ios":"levelo://app?vid=a80446f1-402f-499f-8fb3-7d862e830eae"},"vehicle_type_id":"4","last_reported":1731521498,"current_range_meters":18000,"station_id":"ce4bgvh2rcd13ifvqcs0","pricing_plan_id":"cebpf4jnsgd1na2vs0mg"},{"bike_id":"8963f262-bdcb-43f5-9e37-237198779ba8","system_id":"levelo_inurba_marseille","lat":43.33773,"lon":5.37442,"is_reserved":false,"is_disabled":false,"rental_uris":{"android":"levelo://app?vid=8963f262-bdcb-43f5-9e37-237198779ba8","ios":"levelo://app?vid=8963f262-bdcb-43f5-9e37-237198779ba8"},"vehicle_type_id":"4","last_reported":1731521498,"current_range_meters":36800,"station_id":"","pricing_plan_id":"cebpf4jnsgd1na2vs0mg"},{"bike_id":"9e206ec4-3bc2-4292-bb12-90ccf987d885","system_id":"levelo_inurba_marseille","lat":43.337444,"lon":5.374475,"is_reserved":false,"is_disabled":false,"rental_uris":{"android":"levelo://app?vid=9e206ec4-3bc2-4292-bb12-90ccf987d885","ios":"levelo://app?vid=9e206ec4-3bc2-4292-bb12-90ccf987d885"},"vehicle_type_id":"4","last_reported":1731521498,"current_range_meters":36400,"station_id":"","pricing_plan_id":"cebpf4jnsgd1na2vs0mg"},{"bike_id":"398b47b3-a042-4cec-b1dd-254773a78263","system_id":"levelo_inurba_marseille","lat":43.27405,"lon":5.38955,"is_reserved":false,"is_disabled":false,"rental_uris":{"android":"levelo://app?vid=398b47b3-a042-4cec-b1dd-254773a78263","ios":"levelo://app?vid=398b47b3-a042-4cec-b1dd-254773a78263"},"vehicle_type_id":"4","last_reported":1731521498,"current_range_meters":8400,"station_id":"","pricing_plan_id":"cebpf4jnsgd1na2vs0mg"},{"bike_id":"44d4aeee-f0c2-4734-b402-fb62f0186632","system_id":"levelo_inurba_marseille","lat":43.243835,"lon":5.370574,"is_reserved":false,"is_disabled":false,"rental_uris":{"android":"levelo://app?vid=44d4aeee-f0c2-4734-b402-fb62f0186632","ios":"levelo://app?vid=44d4aeee-f0c2-4734-b402-fb62f0186632"},"vehicle_type_id":"4","last_reported":1731521498,"current_range_meters":29600,"station_id":"ce4bhhh2rcd13ifvqfk0","pricing_plan_id":"cebpf4jnsgd1na2vs0mg"},{"bike_id":"92e3ad17-17c9-4714-a148-ef9436ad6113","system_id":"levelo_inurba_marseille","lat":43.22933,"lon":5.35383,"is_reserved":false,"is_disabled":false,"rental_uris":{"android":"levelo://app?vid=92e3ad17-17c9-4714-a148-ef9436ad6113","ios":"levelo://app?vid=92e3ad17-17c9-4714-a148-ef9436ad6113"},"vehicle_type_id":"4","last_reported":1731521498,"current_range_meters":39200,"station_id":"cpo3532slgdg3j2ikp40","pricing_plan_id":"cebpf4jnsgd1na2vs0mg"},{"bike_id":"6d3b6101-e514-4fa7-8db1-6dc1e101fc47","system_id":"levelo_inurba_marseille","lat":43.29201,"lon":5.39335,"is_reserved":false,"is_disabled":false,"rental_uris":{"android":"levelo://app?vid=6d3b6101-e514-4fa7-8db1-6dc1e101fc47","ios":"levelo://app?vid=6d3b6101-e514-4fa7-8db1-6dc1e101fc47"},"vehicle_type_id":"4","last_reported":1731521498,"current_range_meters":38800,"station_id":"ce4bh192rcd13ifvqdd0","pricing_plan_id":"cebpf4jnsgd1na2vs0mg"},{"bike_id":"37cd69ea-28ea-4899-b781-9d6267d6bc5c","system_id":"levelo_inurba_marseille","lat":43.29026,"lon":5.38652,"is_reserved":false,"is_disabled":false,"rental_uris":{"android":"levelo://app?vid=37cd69ea-28ea-4899-b781-9d6267d6bc5c","ios":"levelo://app?vid=37cd69ea-28ea-4899-b781-9d6267d6bc5c"},"vehicle_type_id":"4","last_reported":1731521498,"current_range_meters":36000,"station_id":"ce4bh4p2rcd13ifvqe0g","pricing_plan_id":"cebpf4jnsgd1na2vs0mg"},{"bike_id":"beb7b9bd-a544-4d0c-b0ee-a6204f3f5108","system_id":"levelo_inurba_marseille","lat":43.291962,"lon":5.385193,"is_reserved":false,"is_disabled":false,"rental_uris":{"android":"levelo://app?vid=beb7b9bd-a544-4d0c-b0ee-a6204f3f5108","ios":"levelo://app?vid=beb7b9bd-a544-4d0c-b0ee-a6204f3f5108"},"vehicle_type_id":"4","last_reported":1731521498,"current_range_meters":28000,"station_id":"","pricing_plan_id":"cebpf4jnsgd1na2vs0mg"},{"bike_id":"82f309e6-c4ae-421f-89cb-1d64a8e0ef10","system_id":"levelo_inurba_marseille","lat":43.337444,"lon":5.374475,"is_reserved":false,"is_disabled":false,"rental_uris":{"android":"levelo://app?vid=82f309e6-c4ae-421f-89cb-1d64a8e0ef10","ios":"levelo://app?vid=82f309e6-c4ae-421f-89cb-1d64a8e0ef10"},"vehicle_type_id":"4","last_reported":1731521498,"current_range_meters":36000,"station_id":"","pricing_plan_id":"cebpf4jnsgd1na2vs0mg"},{"bike_id":"5419d154-3ce9-4c40-9294-d16b9d2b3431","system_id":"levelo_inurba_marseille","lat":43.337444,"lon":5.374475,"is_reserved":false,"is_disabled":false,"rental_uris":{"android":"levelo://app?vid=5419d154-3ce9-4c40-9294-d16b9d2b3431","ios":"levelo://app?vid=5419d154-3ce9-4c40-9294-d16b9d2b3431"},"vehicle_type_id":"4","last_reported":1731521498,"current_range_meters":36000,"station_id":"","pricing_plan_id":"cebpf4jnsgd1na2vs0mg"},{"bike_id":"6e4ab7d2-c1df-4ea4-bb4b-2f5c43ed5717","system_id":"levelo_inurba_marseille","lat":43.33768,"lon":5.37439,"is_reserved":false,"is_disabled":false,"rental_uris":{"android":"levelo://app?vid=6e4ab7d2-c1df-4ea4-bb4b-2f5c43ed5717","ios":"levelo://app?vid=6e4ab7d2-c1df-4ea4-bb4b-2f5c43ed5717"},"vehicle_type_id":"4","last_reported":1731521498,"current_range_meters":36000,"station_id":"","pricing_plan_id":"cebpf4jnsgd1na2vs0mg"},{"bike_id":"b1f50a4e-bf80-417b-be95-adf7b4bc4b3b","system_id":"levelo_inurba_marseille","lat":43.30389,"lon":5.37005,"is_reserved":false,"is_disabled":false,"rental_uris":{"android":"levelo://app?vid=b1f50a4e-bf80-417b-be95-adf7b4bc4b3b","ios":"levelo://app?vid=b1f50a4e-bf80-417b-be95-adf7b4bc4b3b"},"vehicle_type_id":"4","last_reported":1731521498,"current_range_meters":33600,"station_id":"","pricing_plan_id":"cebpf4jnsgd1na2vs0mg"},{"bike_id":"459dc872-316e-4c78-9bdd-ade3ce7a9d65","system_id":"levelo_inurba_marseille","lat":43.29179,"lon":5.39308,"is_reserved":false,"is_disabled":false,"rental_uris":{"android":"levelo://app?vid=459dc872-316e-4c78-9bdd-ade3ce7a9d65","ios":"levelo://app?vid=459dc872-316e-4c78-9bdd-ade3ce7a9d65"},"vehicle_type_id":"4","last_reported":1731521498,"current_range_meters":7200,"station_id":"ce4bh192rcd13ifvqdd0","pricing_plan_id":"cebpf4jnsgd1na2vs0mg"},{"bike_id":"6d6e8bdf-c179-4bf4-afde-f253419c1741","system_id":"levelo_inurba_marseille","lat":43.31174,"lon":5.38709,"is_reserved":false,"is_disabled":false,"rental_uris":{"android":"levelo://app?vid=6d6e8bdf-c179-4bf4-afde-f253419c1741","ios":"levelo://app?vid=6d6e8bdf-c179-4bf4-afde-f253419c1741"},"vehicle_type_id":"4","last_reported":1731521498,"current_range_meters":9600,"station_id":"ce4bgv12rcd13ifvqcp0","pricing_plan_id":"cebpf4jnsgd1na2vs0mg"},{"bike_id":"9722550f-1a69-4d6e-8160-2610e45f09a4","system_id":"levelo_inurba_marseille","lat":43.28025,"lon":5.36944,"is_reserved":false,"is_disabled":false,"rental_uris":{"android":"levelo://app?vid=9722550f-1a69-4d6e-8160-2610e45f09a4","ios":"levelo://app?vid=9722550f-1a69-4d6e-8160-2610e45f09a4"},"vehicle_type_id":"4","last_reported":1731521498,"current_range_meters":36000,"station_id":"ce4bha12rcd13ifvqef0","pricing_plan_id":"cebpf4jnsgd1na2vs0mg"},{"bike_id":"42744b5d-4b77-4c92-808c-ebf462138a5f","system_id":"levelo_inurba_marseille","lat":43.31553,"lon":5.38633,"is_reserved":false,"is_disabled":false,"rental_uris":{"android":"levelo://app?vid=42744b5d-4b77-4c92-808c-ebf462138a5f","ios":"levelo://app?vid=42744b5d-4b77-4c92-808c-ebf462138a5f"},"vehicle_type_id":"4","last_reported":1731521498,"current_range_meters":27200,"station_id":"","pricing_plan_id":"cebpf4jnsgd1na2vs0mg"},{"bike_id":"c9d041c0-acec-4cf4-bba2-e01a92441368","system_id":"levelo_inurba_marseille","lat":43.337444,"lon":5.374475,"is_reserved":false,"is_disabled":false,"rental_uris":{"android":"levelo://app?vid=c9d041c0-acec-4cf4-bba2-e01a92441368","ios":"levelo://app?vid=c9d041c0-acec-4cf4-bba2-e01a92441368"},"vehicle_type_id":"4","last_reported":1731521498,"current_range_meters":35200,"station_id":"","pricing_plan_id":"cebpf4jnsgd1na2vs0mg"},{"bike_id":"5a600399-cbab-43fc-9acb-5cd7182a2aeb","system_id":"levelo_inurba_marseille","lat":43.33021,"lon":5.39046,"is_reserved":false,"is_disabled":false,"rental_uris":{"android":"levelo://app?vid=5a600399-cbab-43fc-9acb-5cd7182a2aeb","ios":"levelo://app?vid=5a600399-cbab-43fc-9acb-5cd7182a2aeb"},"vehicle_type_id":"4","last_reported":1731521498,"current_range_meters":28000,"station_id":"ce4bhr92rcd13ifvqhrg","pricing_plan_id":"cebpf4jnsgd1na2vs0mg"},{"bike_id":"6dacf645-4e1f-4db3-a875-abd7072f2138","system_id":"levelo_inurba_marseille","lat":43.28461,"lon":5.35883,"is_reserved":false,"is_disabled":false,"rental_uris":{"android":"levelo://app?vid=6dacf645-4e1f-4db3-a875-abd7072f2138","ios":"levelo://app?vid=6dacf645-4e1f-4db3-a875-abd7072f2138"},"vehicle_type_id":"4","last_reported":1731521498,"current_range_meters":38800,"station_id":"ce4bhah2rcd13ifvqei0","pricing_plan_id":"cebpf4jnsgd1na2vs0mg"},{"bike_id":"7da6dc45-4eda-41ec-aa6b-414ef02d12a7","system_id":"levelo_inurba_marseille","lat":43.29531,"lon":5.39399,"is_reserved":false,"is_disabled":false,"rental_uris":{"android":"levelo://app?vid=7da6dc45-4eda-41ec-aa6b-414ef02d12a7","ios":"levelo://app?vid=7da6dc45-4eda-41ec-aa6b-414ef02d12a7"},"vehicle_type_id":"4","last_reported":1731521498,"current_range_meters":10800,"station_id":"ce4bh292rcd13ifvqdf0","pricing_plan_id":"cebpf4jnsgd1na2vs0mg"},{"bike_id":"885b603d-c57f-4bf2-98e5-9b06c233beac","system_id":"levelo_inurba_marseille","lat":43.27906,"lon":5.38019,"is_reserved":false,"is_disabled":false,"rental_uris":{"android":"levelo://app?vid=885b603d-c57f-4bf2-98e5-9b06c233beac","ios":"levelo://app?vid=885b603d-c57f-4bf2-98e5-9b06c233beac"},"vehicle_type_id":"4","last_reported":1731521498,"current_range_meters":34000,"station_id":"ce4bhf92rcd13ifvqf50","pricing_plan_id":"cebpf4jnsgd1na2vs0mg"},{"bike_id":"b21e94aa-0488-4367-bdaa-58d28285537a","system_id":"levelo_inurba_marseille","lat":43.30638,"lon":5.40071,"is_reserved":false,"is_disabled":false,"rental_uris":{"android":"levelo://app?vid=b21e94aa-0488-4367-bdaa-58d28285537a","ios":"levelo://app?vid=b21e94aa-0488-4367-bdaa-58d28285537a"},"vehicle_type_id":"4","last_reported":1731521498,"current_range_meters":33200,"station_id":"ce4bh112rcd13ifvqda0","pricing_plan_id":"cebpf4jnsgd1na2vs0mg"},{"bike_id":"eabfeac2-5915-4cbb-bc5f-5decab191295","system_id":"levelo_inurba_marseille","lat":43.260636,"lon":5.394031,"is_reserved":false,"is_disabled":false,"rental_uris":{"android":"levelo://app?vid=eabfeac2-5915-4cbb-bc5f-5decab191295","ios":"levelo://app?vid=eabfeac2-5915-4cbb-bc5f-5decab191295"},"vehicle_type_id":"4","last_reported":1731521498,"current_range_meters":38400,"station_id":"ce4bhh92rcd13ifvqfj0","pricing_plan_id":"cebpf4jnsgd1na2vs0mg"},{"bike_id":"91641e8a-a624-4c60-8313-473e18d4ef21","system_id":"levelo_inurba_marseille","lat":43.29492,"lon":5.39417,"is_reserved":false,"is_disabled":false,"rental_uris":{"android":"levelo://app?vid=91641e8a-a624-4c60-8313-473e18d4ef21","ios":"levelo://app?vid=91641e8a-a624-4c60-8313-473e18d4ef21"},"vehicle_type_id":"4","last_reported":1731521498,"current_range_meters":38800,"station_id":"ce4bh292rcd13ifvqdf0","pricing_plan_id":"cebpf4jnsgd1na2vs0mg"},{"bike_id":"c814c331-6011-4f68-92fe-c085d7ad080a","system_id":"levelo_inurba_marseille","lat":43.29283,"lon":5.40905,"is_reserved":false,"is_disabled":false,"rental_uris":{"android":"levelo://app?vid=c814c331-6011-4f68-92fe-c085d7ad080a","ios":"levelo://app?vid=c814c331-6011-4f68-92fe-c085d7ad080a"},"vehicle_type_id":"4","last_reported":1731521498,"current_range_meters":10000,"station_id":"ce4bh192rcd13ifvqdc0","pricing_plan_id":"cebpf4jnsgd1na2vs0mg"},{"bike_id":"f5e287c4-ef9b-461c-94d8-c5757b5a68bb","system_id":"levelo_inurba_marseille","lat":43.29225,"lon":5.36079,"is_reserved":false,"is_disabled":false,"rental_uris":{"android":"levelo://app?vid=f5e287c4-ef9b-461c-94d8-c5757b5a68bb","ios":"levelo://app?vid=f5e287c4-ef9b-461c-94d8-c5757b5a68bb"},"vehicle_type_id":"4","last_reported":1731521498,"current_range_meters":18000,"station_id":"ce4bhbh2rcd13ifvqeqg","pricing_plan_id":"cebpf4jnsgd1na2vs0mg"},{"bike_id":"d28dd773-ba82-4472-8b83-275c0a09ee3a","system_id":"levelo_inurba_marseille","lat":43.249698,"lon":5.389637,"is_reserved":false,"is_disabled":false,"rental_uris":{"android":"levelo://app?vid=d28dd773-ba82-4472-8b83-275c0a09ee3a","ios":"levelo://app?vid=d28dd773-ba82-4472-8b83-275c0a09ee3a"},"vehicle_type_id":"4","last_reported":1731521498,"current_range_meters":20800,"station_id":"ce4bhgp2rcd13ifvqfd0","pricing_plan_id":"cebpf4jnsgd1na2vs0mg"},{"bike_id":"56f48a38-02c0-431a-91b1-eebaa27f847d","system_id":"levelo_inurba_marseille","lat":43.2572,"lon":5.41118,"is_reserved":false,"is_disabled":false,"rental_uris":{"android":"levelo://app?vid=56f48a38-02c0-431a-91b1-eebaa27f847d","ios":"levelo://app?vid=56f48a38-02c0-431a-91b1-eebaa27f847d"},"vehicle_type_id":"4","last_reported":1731521498,"current_range_meters":8800,"station_id":"ce4bhkp2rcd13ifvqgd0","pricing_plan_id":"cebpf4jnsgd1na2vs0mg"},{"bike_id":"bebff17e-956e-4d2e-8ca9-b18fb55c411b","system_id":"levelo_inurba_marseille","lat":43.3107,"lon":5.38353,"is_reserved":false,"is_disabled":false,"rental_uris":{"android":"levelo://app?vid=bebff17e-956e-4d2e-8ca9-b18fb55c411b","ios":"levelo://app?vid=bebff17e-956e-4d2e-8ca9-b18fb55c411b"},"vehicle_type_id":"4","last_reported":1731521498,"current_range_meters":33600,"station_id":"ce4bgv92rcd13ifvqcr0","pricing_plan_id":"cebpf4jnsgd1na2vs0mg"},{"bike_id":"46eec00b-6d60-4e1c-b516-9851dc5f2948","system_id":"levelo_inurba_marseille","lat":43.30259,"lon":5.40076,"is_reserved":false,"is_disabled":false,"rental_uris":{"android":"levelo://app?vid=46eec00b-6d60-4e1c-b516-9851dc5f2948","ios":"levelo://app?vid=46eec00b-6d60-4e1c-b516-9851dc5f2948"},"vehicle_type_id":"4","last_reported":1731521498,"current_range_meters":35200,"station_id":"ce4bgvh2rcd13ifvqcs0","pricing_plan_id":"cebpf4jnsgd1na2vs0mg"},{"bike_id":"cf5db6d0-77bd-4333-b999-1ee30458c3fd","system_id":"levelo_inurba_marseille","lat":43.294142,"lon":5.386182,"is_reserved":false,"is_disabled":false,"rental_uris":{"android":"levelo://app?vid=cf5db6d0-77bd-4333-b999-1ee30458c3fd","ios":"levelo://app?vid=cf5db6d0-77bd-4333-b999-1ee30458c3fd"},"vehicle_type_id":"4","last_reported":1731521498,"current_range_meters":4000,"station_id":"ce4bh512rcd13ifvqe2g","pricing_plan_id":"cebpf4jnsgd1na2vs0mg"},{"bike_id":"1f4c41e7-2734-423e-b6df-4608756c8d07","system_id":"levelo_inurba_marseille","lat":43.29269,"lon":5.38453,"is_reserved":false,"is_disabled":false,"rental_uris":{"android":"levelo://app?vid=1f4c41e7-2734-423e-b6df-4608756c8d07","ios":"levelo://app?vid=1f4c41e7-2734-423e-b6df-4608756c8d07"},"vehicle_type_id":"4","last_reported":1731521498,"current_range_meters":12000,"station_id":"ce4bh692rcd13ifvqea0","pricing_plan_id":"cebpf4jnsgd1na2vs0mg"},{"bike_id":"e02b0975-ae1b-4af2-be02-28ad794684c1","system_id":"levelo_inurba_marseille","lat":43.30255,"lon":5.40076,"is_reserved":false,"is_disabled":false,"rental_uris":{"android":"levelo://app?vid=e02b0975-ae1b-4af2-be02-28ad794684c1","ios":"levelo://app?vid=e02b0975-ae1b-4af2-be02-28ad794684c1"},"vehicle_type_id":"4","last_reported":1731521498,"current_range_meters":30000,"station_id":"ce4bgvh2rcd13ifvqcs0","pricing_plan_id":"cebpf4jnsgd1na2vs0mg"},{"bike_id":"5b41e762-1614-46f6-92e6-bba5e7d3cb79","system_id":"levelo_inurba_marseille","lat":43.28456,"lon":5.35889,"is_reserved":false,"is_disabled":false,"rental_uris":{"android":"levelo://app?vid=5b41e762-1614-46f6-92e6-bba5e7d3cb79","ios":"levelo://app?vid=5b41e762-1614-46f6-92e6-bba5e7d3cb79"},"vehicle_type_id":"4","last_reported":1731521498,"current_range_meters":12800,"station_id":"ce4bhah2rcd13ifvqei0","pricing_plan_id":"cebpf4jnsgd1na2vs0mg"},{"bike_id":"35b76e3f-81b1-42ec-ad46-45c327443918","system_id":"levelo_inurba_marseille","lat":43.28372,"lon":5.38619,"is_reserved":false,"is_disabled":false,"rental_uris":{"android":"levelo://app?vid=35b76e3f-81b1-42ec-ad46-45c327443918","ios":"levelo://app?vid=35b76e3f-81b1-42ec-ad46-45c327443918"},"vehicle_type_id":"4","last_reported":1731521498,"current_range_meters":20800,"station_id":"ce4bh492rcd13ifvqdvg","pricing_plan_id":"cebpf4jnsgd1na2vs0mg"},{"bike_id":"6069cec4-89f2-476f-b94a-537dbf875ea0","system_id":"levelo_inurba_marseille","lat":43.28672,"lon":5.38679,"is_reserved":false,"is_disabled":false,"rental_uris":{"android":"levelo://app?vid=6069cec4-89f2-476f-b94a-537dbf875ea0","ios":"levelo://app?vid=6069cec4-89f2-476f-b94a-537dbf875ea0"},"vehicle_type_id":"4","last_reported":1731521498,"current_range_meters":38800,"station_id":"ce4bh492rcd13ifvqdug","pricing_plan_id":"cebpf4jnsgd1na2vs0mg"},{"bike_id":"0a0f301d-9c96-4376-9656-97bb9c518103","system_id":"levelo_inurba_marseille","lat":43.29194,"lon":5.39335,"is_reserved":false,"is_disabled":false,"rental_uris":{"android":"levelo://app?vid=0a0f301d-9c96-4376-9656-97bb9c518103","ios":"levelo://app?vid=0a0f301d-9c96-4376-9656-97bb9c518103"},"vehicle_type_id":"4","last_reported":1731521498,"current_range_meters":30400,"station_id":"ce4bh192rcd13ifvqdd0","pricing_plan_id":"cebpf4jnsgd1na2vs0mg"},{"bike_id":"15286c34-153c-47dd-90bb-d79e8e9676f4","system_id":"levelo_inurba_marseille","lat":43.29031,"lon":5.38643,"is_reserved":false,"is_disabled":false,"rental_uris":{"android":"levelo://app?vid=15286c34-153c-47dd-90bb-d79e8e9676f4","ios":"levelo://app?vid=15286c34-153c-47dd-90bb-d79e8e9676f4"},"vehicle_type_id":"4","last_reported":1731521498,"current_range_meters":24800,"station_id":"ce4bh4p2rcd13ifvqe0g","pricing_plan_id":"cebpf4jnsgd1na2vs0mg"},{"bike_id":"7c9b8995-ac96-4708-b4eb-b4b17631b9d8","system_id":"levelo_inurba_marseille","lat":43.337444,"lon":5.374475,"is_reserved":false,"is_disabled":false,"rental_uris":{"android":"levelo://app?vid=7c9b8995-ac96-4708-b4eb-b4b17631b9d8","ios":"levelo://app?vid=7c9b8995-ac96-4708-b4eb-b4b17631b9d8"},"vehicle_type_id":"4","last_reported":1731521498,"current_range_meters":36400,"station_id":"","pricing_plan_id":"cebpf4jnsgd1na2vs0mg"},{"bike_id":"bfa998e5-f39d-4565-8083-ac8883bcdd82","system_id":"levelo_inurba_marseille","lat":43.28658,"lon":5.36364,"is_reserved":false,"is_disabled":false,"rental_uris":{"android":"levelo://app?vid=bfa998e5-f39d-4565-8083-ac8883bcdd82","ios":"levelo://app?vid=bfa998e5-f39d-4565-8083-ac8883bcdd82"},"vehicle_type_id":"4","last_reported":1731521498,"current_range_meters":15200,"station_id":"ce4bhah2rcd13ifvqej0","pricing_plan_id":"cebpf4jnsgd1na2vs0mg"},{"bike_id":"88628b42-407d-4095-a51c-4f8a45bb3272","system_id":"levelo_inurba_marseille","lat":43.24179,"lon":5.39729,"is_reserved":false,"is_disabled":false,"rental_uris":{"android":"levelo://app?vid=88628b42-407d-4095-a51c-4f8a45bb3272","ios":"levelo://app?vid=88628b42-407d-4095-a51c-4f8a45bb3272"},"vehicle_type_id":"4","last_reported":1731521498,"current_range_meters":38800,"station_id":"ce4bhn12rcd13ifvqgpg","pricing_plan_id":"cebpf4jnsgd1na2vs0mg"},{"bike_id":"dfc2c6e5-a3ab-41cf-8a44-64c7966822e3","system_id":"levelo_inurba_marseille","lat":43.289736,"lon":5.397325,"is_reserved":false,"is_disabled":false,"rental_uris":{"android":"levelo://app?vid=dfc2c6e5-a3ab-41cf-8a44-64c7966822e3","ios":"levelo://app?vid=dfc2c6e5-a3ab-41cf-8a44-64c7966822e3"},"vehicle_type_id":"4","last_reported":1731521498,"current_range_meters":39200,"station_id":"ce4bh3h2rcd13ifvqdn0","pricing_plan_id":"cebpf4jnsgd1na2vs0mg"},{"bike_id":"49ff9034-d201-457a-87db-4fd19e1fca70","system_id":"levelo_inurba_marseille","lat":43.29571,"lon":5.39974,"is_reserved":false,"is_disabled":false,"rental_uris":{"android":"levelo://app?vid=49ff9034-d201-457a-87db-4fd19e1fca70","ios":"levelo://app?vid=49ff9034-d201-457a-87db-4fd19e1fca70"},"vehicle_type_id":"4","last_reported":1731521498,"current_range_meters":16000,"station_id":"ce4bh312rcd13ifvqdj0","pricing_plan_id":"cebpf4jnsgd1na2vs0mg"},{"bike_id":"e0c4a8bc-8877-448d-8360-298f6b955edc","system_id":"levelo_inurba_marseille","lat":43.30893,"lon":5.37196,"is_reserved":false,"is_disabled":false,"rental_uris":{"android":"levelo://app?vid=e0c4a8bc-8877-448d-8360-298f6b955edc","ios":"levelo://app?vid=e0c4a8bc-8877-448d-8360-298f6b955edc"},"vehicle_type_id":"4","last_reported":1731521498,"current_range_meters":6800,"station_id":"ce4bguh2rcd13ifvqckg","pricing_plan_id":"cebpf4jnsgd1na2vs0mg"},{"bike_id":"6c01e7bc-e973-4564-b2a5-ba745ae03938","system_id":"levelo_inurba_marseille","lat":43.3025,"lon":5.40079,"is_reserved":false,"is_disabled":false,"rental_uris":{"android":"levelo://app?vid=6c01e7bc-e973-4564-b2a5-ba745ae03938","ios":"levelo://app?vid=6c01e7bc-e973-4564-b2a5-ba745ae03938"},"vehicle_type_id":"4","last_reported":1731521498,"current_range_meters":24800,"station_id":"ce4bgvh2rcd13ifvqcs0","pricing_plan_id":"cebpf4jnsgd1na2vs0mg"},{"bike_id":"3ec09cfd-3d89-4794-b2d2-9eb4150b7fa4","system_id":"levelo_inurba_marseille","lat":43.314939,"lon":5.373096,"is_reserved":false,"is_disabled":false,"rental_uris":{"android":"levelo://app?vid=3ec09cfd-3d89-4794-b2d2-9eb4150b7fa4","ios":"levelo://app?vid=3ec09cfd-3d89-4794-b2d2-9eb4150b7fa4"},"vehicle_type_id":"4","last_reported":1731521498,"current_range_meters":38800,"station_id":"ce4bgt12rcd13ifvqcd0","pricing_plan_id":"cebpf4jnsgd1na2vs0mg"},{"bike_id":"7986818c-28b5-46d7-b7d7-a91a6d1aa0d2","system_id":"levelo_inurba_marseille","lat":43.33021,"lon":5.39041,"is_reserved":false,"is_disabled":false,"rental_uris":{"android":"levelo://app?vid=7986818c-28b5-46d7-b7d7-a91a6d1aa0d2","ios":"levelo://app?vid=7986818c-28b5-46d7-b7d7-a91a6d1aa0d2"},"vehicle_type_id":"4","last_reported":1731521498,"current_range_meters":17200,"station_id":"ce4bhr92rcd13ifvqhrg","pricing_plan_id":"cebpf4jnsgd1na2vs0mg"},{"bike_id":"36d094b0-e04d-47a6-a7b6-331edee81ed7","system_id":"levelo_inurba_marseille","lat":43.27688,"lon":5.38895,"is_reserved":false,"is_disabled":false,"rental_uris":{"android":"levelo://app?vid=36d094b0-e04d-47a6-a7b6-331edee81ed7","ios":"levelo://app?vid=36d094b0-e04d-47a6-a7b6-331edee81ed7"},"vehicle_type_id":"4","last_reported":1731521498,"current_range_meters":36800,"station_id":"ce4bhi12rcd13ifvqfo0","pricing_plan_id":"cebpf4jnsgd1na2vs0mg"},{"bike_id":"60aca8d4-caec-4001-b805-20e359a47f40","system_id":"levelo_inurba_marseille","lat":43.3045,"lon":5.36753,"is_reserved":false,"is_disabled":false,"rental_uris":{"android":"levelo://app?vid=60aca8d4-caec-4001-b805-20e359a47f40","ios":"levelo://app?vid=60aca8d4-caec-4001-b805-20e359a47f40"},"vehicle_type_id":"4","last_reported":1731521498,"current_range_meters":36000,"station_id":"","pricing_plan_id":"cebpf4jnsgd1na2vs0mg"},{"bike_id":"847f71cb-3b81-4e77-a9ee-3aa17331886c","system_id":"levelo_inurba_marseille","lat":43.28932,"lon":5.36641,"is_reserved":false,"is_disabled":false,"rental_uris":{"android":"levelo://app?vid=847f71cb-3b81-4e77-a9ee-3aa17331886c","ios":"levelo://app?vid=847f71cb-3b81-4e77-a9ee-3aa17331886c"},"vehicle_type_id":"4","last_reported":1731521498,"current_range_meters":3600,"station_id":"ce4bhap2rcd13ifvqek0","pricing_plan_id":"cebpf4jnsgd1na2vs0mg"},{"bike_id":"7bca8f6f-4c1b-4bc9-80a9-76767d881ea1","system_id":"levelo_inurba_marseille","lat":43.30931,"lon":5.40144,"is_reserved":false,"is_disabled":false,"rental_uris":{"android":"levelo://app?vid=7bca8f6f-4c1b-4bc9-80a9-76767d881ea1","ios":"levelo://app?vid=7bca8f6f-4c1b-4bc9-80a9-76767d881ea1"},"vehicle_type_id":"4","last_reported":1731521498,"current_range_meters":30000,"station_id":"ce4bgvp2rcd13ifvqct0","pricing_plan_id":"cebpf4jnsgd1na2vs0mg"},{"bike_id":"c9a5e35c-a429-42d5-85ec-ebf700fb9cb7","system_id":"levelo_inurba_marseille","lat":43.34139,"lon":5.40911,"is_reserved":false,"is_disabled":false,"rental_uris":{"android":"levelo://app?vid=c9a5e35c-a429-42d5-85ec-ebf700fb9cb7","ios":"levelo://app?vid=c9a5e35c-a429-42d5-85ec-ebf700fb9cb7"},"vehicle_type_id":"4","last_reported":1731521498,"current_range_meters":19200,"station_id":"ce4bhqh2rcd13ifvqhlg","pricing_plan_id":"cebpf4jnsgd1na2vs0mg"},{"bike_id":"f00d6768-b6d6-484c-b44f-1cc6d8e6d1bc","system_id":"levelo_inurba_marseille","lat":43.31365,"lon":5.38503,"is_reserved":false,"is_disabled":false,"rental_uris":{"android":"levelo://app?vid=f00d6768-b6d6-484c-b44f-1cc6d8e6d1bc","ios":"levelo://app?vid=f00d6768-b6d6-484c-b44f-1cc6d8e6d1bc"},"vehicle_type_id":"4","last_reported":1731521498,"current_range_meters":19600,"station_id":"ce4bgt92rcd13ifvqcf0","pricing_plan_id":"cebpf4jnsgd1na2vs0mg"},{"bike_id":"c12646d0-e58d-4524-aa0d-ff3ca15cdb73","system_id":"levelo_inurba_marseille","lat":43.24652,"lon":5.38893,"is_reserved":false,"is_disabled":false,"rental_uris":{"android":"levelo://app?vid=c12646d0-e58d-4524-aa0d-ff3ca15cdb73","ios":"levelo://app?vid=c12646d0-e58d-4524-aa0d-ff3ca15cdb73"},"vehicle_type_id":"4","last_reported":1731521498,"current_range_meters":20000,"station_id":"ce4bhg12rcd13ifvqf60","pricing_plan_id":"cebpf4jnsgd1na2vs0mg"},{"bike_id":"0cf154f2-0d4f-4529-b865-320e22262d57","system_id":"levelo_inurba_marseille","lat":43.2816,"lon":5.42651,"is_reserved":false,"is_disabled":false,"rental_uris":{"android":"levelo://app?vid=0cf154f2-0d4f-4529-b865-320e22262d57","ios":"levelo://app?vid=0cf154f2-0d4f-4529-b865-320e22262d57"},"vehicle_type_id":"4","last_reported":1731521498,"current_range_meters":20400,"station_id":"ce4bhnh2rcd13ifvqgug","pricing_plan_id":"cebpf4jnsgd1na2vs0mg"},{"bike_id":"461a879f-07ee-457a-871d-c1fd4be1bb3c","system_id":"levelo_inurba_marseille","lat":43.26786,"lon":5.39416,"is_reserved":false,"is_disabled":false,"rental_uris":{"android":"levelo://app?vid=461a879f-07ee-457a-871d-c1fd4be1bb3c","ios":"levelo://app?vid=461a879f-07ee-457a-871d-c1fd4be1bb3c"},"vehicle_type_id":"4","last_reported":1731521498,"current_range_meters":8400,"station_id":"ce4bhh12rcd13ifvqfg0","pricing_plan_id":"cebpf4jnsgd1na2vs0mg"},{"bike_id":"427fc9b0-c2cf-48f5-8a14-e6e8f505494f","system_id":"levelo_inurba_marseille","lat":43.29255,"lon":5.40918,"is_reserved":false,"is_disabled":false,"rental_uris":{"android":"levelo://app?vid=427fc9b0-c2cf-48f5-8a14-e6e8f505494f","ios":"levelo://app?vid=427fc9b0-c2cf-48f5-8a14-e6e8f505494f"},"vehicle_type_id":"4","last_reported":1731521498,"current_range_meters":16400,"station_id":"ce4bh192rcd13ifvqdc0","pricing_plan_id":"cebpf4jnsgd1na2vs0mg"},{"bike_id":"118de573-b99a-4124-9c5d-e52856589887","system_id":"levelo_inurba_marseille","lat":43.297058,"lon":5.366176,"is_reserved":false,"is_disabled":false,"rental_uris":{"android":"levelo://app?vid=118de573-b99a-4124-9c5d-e52856589887","ios":"levelo://app?vid=118de573-b99a-4124-9c5d-e52856589887"},"vehicle_type_id":"4","last_reported":1731521498,"current_range_meters":24800,"station_id":"ce4bgn12rcd13ifvqbt0","pricing_plan_id":"cebpf4jnsgd1na2vs0mg"},{"bike_id":"7891995d-7c39-4fa5-ab0a-02ee601a522d","system_id":"levelo_inurba_marseille","lat":43.31966,"lon":5.38272,"is_reserved":false,"is_disabled":false,"rental_uris":{"android":"levelo://app?vid=7891995d-7c39-4fa5-ab0a-02ee601a522d","ios":"levelo://app?vid=7891995d-7c39-4fa5-ab0a-02ee601a522d"},"vehicle_type_id":"4","last_reported":1731521498,"current_range_meters":38400,"station_id":"ce4bhr12rcd13ifvqhpg","pricing_plan_id":"cebpf4jnsgd1na2vs0mg"},{"bike_id":"a7a3c2b1-8fae-47c9-969f-c96bfb497049","system_id":"levelo_inurba_marseille","lat":43.30641,"lon":5.40086,"is_reserved":false,"is_disabled":false,"rental_uris":{"android":"levelo://app?vid=a7a3c2b1-8fae-47c9-969f-c96bfb497049","ios":"levelo://app?vid=a7a3c2b1-8fae-47c9-969f-c96bfb497049"},"vehicle_type_id":"4","last_reported":1731521498,"current_range_meters":25600,"station_id":"ce4bh112rcd13ifvqda0","pricing_plan_id":"cebpf4jnsgd1na2vs0mg"},{"bike_id":"f2c0c674-a5e7-4997-8a27-413af9bcc481","system_id":"levelo_inurba_marseille","lat":43.28617,"lon":5.35108,"is_reserved":false,"is_disabled":false,"rental_uris":{"android":"levelo://app?vid=f2c0c674-a5e7-4997-8a27-413af9bcc481","ios":"levelo://app?vid=f2c0c674-a5e7-4997-8a27-413af9bcc481"},"vehicle_type_id":"4","last_reported":1731521498,"current_range_meters":16400,"station_id":"ce4bhch2rcd13ifvqeug","pricing_plan_id":"cebpf4jnsgd1na2vs0mg"},{"bike_id":"0aa3d992-2432-412a-b28c-f3882d365601","system_id":"levelo_inurba_marseille","lat":43.30321,"lon":5.37925,"is_reserved":false,"is_disabled":false,"rental_uris":{"android":"levelo://app?vid=0aa3d992-2432-412a-b28c-f3882d365601","ios":"levelo://app?vid=0aa3d992-2432-412a-b28c-f3882d365601"},"vehicle_type_id":"4","last_reported":1731521498,"current_range_meters":2800,"station_id":"","pricing_plan_id":"cebpf4jnsgd1na2vs0mg"},{"bike_id":"62a6bafe-d54e-4479-896e-f1f58a539660","system_id":"levelo_inurba_marseille","lat":43.29436,"lon":5.39762,"is_reserved":false,"is_disabled":false,"rental_uris":{"android":"levelo://app?vid=62a6bafe-d54e-4479-896e-f1f58a539660","ios":"levelo://app?vid=62a6bafe-d54e-4479-896e-f1f58a539660"},"vehicle_type_id":"4","last_reported":1731521498,"current_range_meters":1600,"station_id":"ce4bh3h2rcd13ifvqdo0","pricing_plan_id":"cebpf4jnsgd1na2vs0mg"},{"bike_id":"828cbcfe-6c6b-4507-8ddf-f4d69c2d8108","system_id":"levelo_inurba_marseille","lat":43.24085,"lon":5.37756,"is_reserved":false,"is_disabled":false,"rental_uris":{"android":"levelo://app?vid=828cbcfe-6c6b-4507-8ddf-f4d69c2d8108","ios":"levelo://app?vid=828cbcfe-6c6b-4507-8ddf-f4d69c2d8108"},"vehicle_type_id":"4","last_reported":1731521498,"current_range_meters":17600,"station_id":"ce4bhnp2rcd13ifvqgvg","pricing_plan_id":"cebpf4jnsgd1na2vs0mg"},{"bike_id":"1311c692-6e9d-4afb-b7b0-20686564fe7a","system_id":"levelo_inurba_marseille","lat":43.337444,"lon":5.374475,"is_reserved":false,"is_disabled":false,"rental_uris":{"android":"levelo://app?vid=1311c692-6e9d-4afb-b7b0-20686564fe7a","ios":"levelo://app?vid=1311c692-6e9d-4afb-b7b0-20686564fe7a"},"vehicle_type_id":"4","last_reported":1731521498,"current_range_meters":36400,"station_id":"","pricing_plan_id":"cebpf4jnsgd1na2vs0mg"},{"bike_id":"84f24dd4-ecd4-45c8-a56e-093089472d36","system_id":"levelo_inurba_marseille","lat":43.27942,"lon":5.41054,"is_reserved":false,"is_disabled":false,"rental_uris":{"android":"levelo://app?vid=84f24dd4-ecd4-45c8-a56e-093089472d36","ios":"levelo://app?vid=84f24dd4-ecd4-45c8-a56e-093089472d36"},"vehicle_type_id":"4","last_reported":1731521498,"current_range_meters":23200,"station_id":"ce4bhnp2rcd13ifvqh0g","pricing_plan_id":"cebpf4jnsgd1na2vs0mg"},{"bike_id":"07a4be1c-5cf0-4f3e-8c27-4c3e24078daa","system_id":"levelo_inurba_marseille","lat":43.2481,"lon":5.37464,"is_reserved":false,"is_disabled":false,"rental_uris":{"android":"levelo://app?vid=07a4be1c-5cf0-4f3e-8c27-4c3e24078daa","ios":"levelo://app?vid=07a4be1c-5cf0-4f3e-8c27-4c3e24078daa"},"vehicle_type_id":"4","last_reported":1731521498,"current_range_meters":19200,"station_id":"ce4bhgh2rcd13ifvqfb0","pricing_plan_id":"cebpf4jnsgd1na2vs0mg"},{"bike_id":"5699c783-2e55-4255-b7be-8bce1caeb3b3","system_id":"levelo_inurba_marseille","lat":43.29263,"lon":5.38434,"is_reserved":false,"is_disabled":false,"rental_uris":{"android":"levelo://app?vid=5699c783-2e55-4255-b7be-8bce1caeb3b3","ios":"levelo://app?vid=5699c783-2e55-4255-b7be-8bce1caeb3b3"},"vehicle_type_id":"4","last_reported":1731521498,"current_range_meters":10800,"station_id":"ce4bh692rcd13ifvqea0","pricing_plan_id":"cebpf4jnsgd1na2vs0mg"},{"bike_id":"75f71ef1-6e08-415a-bb8b-dfb0f44294ba","system_id":"levelo_inurba_marseille","lat":43.27989,"lon":5.41661,"is_reserved":false,"is_disabled":false,"rental_uris":{"android":"levelo://app?vid=75f71ef1-6e08-415a-bb8b-dfb0f44294ba","ios":"levelo://app?vid=75f71ef1-6e08-415a-bb8b-dfb0f44294ba"},"vehicle_type_id":"4","last_reported":1731521498,"current_range_meters":8800,"station_id":"ce4bho12rcd13ifvqh1g","pricing_plan_id":"cebpf4jnsgd1na2vs0mg"},{"bike_id":"a365b508-1ef5-4939-b750-e9d43b113938","system_id":"levelo_inurba_marseille","lat":43.31754,"lon":5.39019,"is_reserved":false,"is_disabled":false,"rental_uris":{"android":"levelo://app?vid=a365b508-1ef5-4939-b750-e9d43b113938","ios":"levelo://app?vid=a365b508-1ef5-4939-b750-e9d43b113938"},"vehicle_type_id":"4","last_reported":1731521498,"current_range_meters":38000,"station_id":"ce4bhqp2rcd13ifvqhng","pricing_plan_id":"cebpf4jnsgd1na2vs0mg"},{"bike_id":"f2b9c5a2-24e0-49fe-9045-464dbe94e542","system_id":"levelo_inurba_marseille","lat":43.28371,"lon":5.38627,"is_reserved":false,"is_disabled":false,"rental_uris":{"android":"levelo://app?vid=f2b9c5a2-24e0-49fe-9045-464dbe94e542","ios":"levelo://app?vid=f2b9c5a2-24e0-49fe-9045-464dbe94e542"},"vehicle_type_id":"4","last_reported":1731521498,"current_range_meters":27200,"station_id":"ce4bh492rcd13ifvqdvg","pricing_plan_id":"cebpf4jnsgd1na2vs0mg"},{"bike_id":"27f78857-e5dc-4f2f-ad6a-80857a9065cd","system_id":"levelo_inurba_marseille","lat":43.29792,"lon":5.38095,"is_reserved":false,"is_disabled":false,"rental_uris":{"android":"levelo://app?vid=27f78857-e5dc-4f2f-ad6a-80857a9065cd","ios":"levelo://app?vid=27f78857-e5dc-4f2f-ad6a-80857a9065cd"},"vehicle_type_id":"4","last_reported":1731521498,"current_range_meters":7200,"station_id":"ce4bgip2rcd13ifvqbb0","pricing_plan_id":"cebpf4jnsgd1na2vs0mg"},{"bike_id":"a563844c-6be3-4713-84ff-9720321245ac","system_id":"levelo_inurba_marseille","lat":43.29051,"lon":5.35911,"is_reserved":false,"is_disabled":false,"rental_uris":{"android":"levelo://app?vid=a563844c-6be3-4713-84ff-9720321245ac","ios":"levelo://app?vid=a563844c-6be3-4713-84ff-9720321245ac"},"vehicle_type_id":"4","last_reported":1731521498,"current_range_meters":32000,"station_id":"ce4bha92rcd13ifvqeg0","pricing_plan_id":"cebpf4jnsgd1na2vs0mg"},{"bike_id":"711813e8-7a2c-413a-b55a-16630910465a","system_id":"levelo_inurba_marseille","lat":43.30333,"lon":5.40434,"is_reserved":false,"is_disabled":false,"rental_uris":{"android":"levelo://app?vid=711813e8-7a2c-413a-b55a-16630910465a","ios":"levelo://app?vid=711813e8-7a2c-413a-b55a-16630910465a"},"vehicle_type_id":"4","last_reported":1731521498,"current_range_meters":6800,"station_id":"ce4bh012rcd13ifvqd10","pricing_plan_id":"cebpf4jnsgd1na2vs0mg"},{"bike_id":"169821e0-3218-4d15-95a7-f13222e4f30d","system_id":"levelo_inurba_marseille","lat":43.26783,"lon":5.39415,"is_reserved":false,"is_disabled":false,"rental_uris":{"android":"levelo://app?vid=169821e0-3218-4d15-95a7-f13222e4f30d","ios":"levelo://app?vid=169821e0-3218-4d15-95a7-f13222e4f30d"},"vehicle_type_id":"4","last_reported":1731521498,"current_range_meters":12000,"station_id":"ce4bhh12rcd13ifvqfg0","pricing_plan_id":"cebpf4jnsgd1na2vs0mg"},{"bike_id":"a7ee4c22-7295-4ca1-b855-db17582f0467","system_id":"levelo_inurba_marseille","lat":43.278086,"lon":5.407114,"is_reserved":false,"is_disabled":false,"rental_uris":{"android":"levelo://app?vid=a7ee4c22-7295-4ca1-b855-db17582f0467","ios":"levelo://app?vid=a7ee4c22-7295-4ca1-b855-db17582f0467"},"vehicle_type_id":"4","last_reported":1731521498,"current_range_meters":3200,"station_id":"ce4bhjp2rcd13ifvqga0","pricing_plan_id":"cebpf4jnsgd1na2vs0mg"},{"bike_id":"3da22c96-18a6-4d3a-a579-0c04984c3537","system_id":"levelo_inurba_marseille","lat":43.26215,"lon":5.37445,"is_reserved":false,"is_disabled":false,"rental_uris":{"android":"levelo://app?vid=3da22c96-18a6-4d3a-a579-0c04984c3537","ios":"levelo://app?vid=3da22c96-18a6-4d3a-a579-0c04984c3537"},"vehicle_type_id":"4","last_reported":1731521498,"current_range_meters":20800,"station_id":"ce4bhgp2rcd13ifvqfc0","pricing_plan_id":"cebpf4jnsgd1na2vs0mg"},{"bike_id":"b3ea8930-b854-4b60-965d-72726bf02580","system_id":"levelo_inurba_marseille","lat":43.27947,"lon":5.41046,"is_reserved":false,"is_disabled":false,"rental_uris":{"android":"levelo://app?vid=b3ea8930-b854-4b60-965d-72726bf02580","ios":"levelo://app?vid=b3ea8930-b854-4b60-965d-72726bf02580"},"vehicle_type_id":"4","last_reported":1731521498,"current_range_meters":14800,"station_id":"ce4bhnp2rcd13ifvqh0g","pricing_plan_id":"cebpf4jnsgd1na2vs0mg"},{"bike_id":"46a08a12-af4e-4e6f-a02b-6d653871b2a0","system_id":"levelo_inurba_marseille","lat":43.29437,"lon":5.39762,"is_reserved":false,"is_disabled":false,"rental_uris":{"android":"levelo://app?vid=46a08a12-af4e-4e6f-a02b-6d653871b2a0","ios":"levelo://app?vid=46a08a12-af4e-4e6f-a02b-6d653871b2a0"},"vehicle_type_id":"4","last_reported":1731521498,"current_range_meters":12000,"station_id":"ce4bh3h2rcd13ifvqdo0","pricing_plan_id":"cebpf4jnsgd1na2vs0mg"},{"bike_id":"c65f7c60-f437-4dd8-9b47-d52e55dff638","system_id":"levelo_inurba_marseille","lat":43.3132,"lon":5.397,"is_reserved":false,"is_disabled":false,"rental_uris":{"android":"levelo://app?vid=c65f7c60-f437-4dd8-9b47-d52e55dff638","ios":"levelo://app?vid=c65f7c60-f437-4dd8-9b47-d52e55dff638"},"vehicle_type_id":"4","last_reported":1731521498,"current_range_meters":9200,"station_id":"ce4bgvp2rcd13ifvqcu0","pricing_plan_id":"cebpf4jnsgd1na2vs0mg"},{"bike_id":"511ade13-b218-40d8-8533-df3404802a16","system_id":"levelo_inurba_marseille","lat":43.29169,"lon":5.37167,"is_reserved":false,"is_disabled":false,"rental_uris":{"android":"levelo://app?vid=511ade13-b218-40d8-8533-df3404802a16","ios":"levelo://app?vid=511ade13-b218-40d8-8533-df3404802a16"},"vehicle_type_id":"4","last_reported":1731521498,"current_range_meters":21600,"station_id":"ce4bha92rcd13ifvqeh0","pricing_plan_id":"cebpf4jnsgd1na2vs0mg"},{"bike_id":"87669288-81fe-4bf6-bbe5-837313a37f3d","system_id":"levelo_inurba_marseille","lat":43.28852,"lon":5.39305,"is_reserved":false,"is_disabled":false,"rental_uris":{"android":"levelo://app?vid=87669288-81fe-4bf6-bbe5-837313a37f3d","ios":"levelo://app?vid=87669288-81fe-4bf6-bbe5-837313a37f3d"},"vehicle_type_id":"4","last_reported":1731521498,"current_range_meters":13600,"station_id":"ce4bh2p2rcd13ifvqdi0","pricing_plan_id":"cebpf4jnsgd1na2vs0mg"},{"bike_id":"fc985e08-0713-431d-9da6-70000a590043","system_id":"levelo_inurba_marseille","lat":43.251,"lon":5.40335,"is_reserved":false,"is_disabled":false,"rental_uris":{"android":"levelo://app?vid=fc985e08-0713-431d-9da6-70000a590043","ios":"levelo://app?vid=fc985e08-0713-431d-9da6-70000a590043"},"vehicle_type_id":"4","last_reported":1731521498,"current_range_meters":38800,"station_id":"ce4bhlh2rcd13ifvqgig","pricing_plan_id":"cebpf4jnsgd1na2vs0mg"},{"bike_id":"76110796-169f-49ba-b1d1-fbedc3d7287f","system_id":"levelo_inurba_marseille","lat":43.29964,"lon":5.41326,"is_reserved":false,"is_disabled":false,"rental_uris":{"android":"levelo://app?vid=76110796-169f-49ba-b1d1-fbedc3d7287f","ios":"levelo://app?vid=76110796-169f-49ba-b1d1-fbedc3d7287f"},"vehicle_type_id":"4","last_reported":1731521498,"current_range_meters":38000,"station_id":"ce4bhp12rcd13ifvqh9g","pricing_plan_id":"cebpf4jnsgd1na2vs0mg"},{"bike_id":"ae4ec350-2ac5-435a-9307-f2c6fa829fbf","system_id":"levelo_inurba_marseille","lat":43.28851,"lon":5.39325,"is_reserved":false,"is_disabled":false,"rental_uris":{"android":"levelo://app?vid=ae4ec350-2ac5-435a-9307-f2c6fa829fbf","ios":"levelo://app?vid=ae4ec350-2ac5-435a-9307-f2c6fa829fbf"},"vehicle_type_id":"4","last_reported":1731521498,"current_range_meters":38000,"station_id":"ce4bh2p2rcd13ifvqdi0","pricing_plan_id":"cebpf4jnsgd1na2vs0mg"},{"bike_id":"77eeae7b-ed74-47f2-944f-eb4b80aa21b8","system_id":"levelo_inurba_marseille","lat":43.27369,"lon":5.36253,"is_reserved":false,"is_disabled":false,"rental_uris":{"android":"levelo://app?vid=77eeae7b-ed74-47f2-944f-eb4b80aa21b8","ios":"levelo://app?vid=77eeae7b-ed74-47f2-944f-eb4b80aa21b8"},"vehicle_type_id":"4","last_reported":1731521498,"current_range_meters":38800,"station_id":"ce4bhbh2rcd13ifvqeo0","pricing_plan_id":"cebpf4jnsgd1na2vs0mg"},{"bike_id":"b448c76e-6a85-4e4e-8af8-7d9249501502","system_id":"levelo_inurba_marseille","lat":43.337444,"lon":5.374475,"is_reserved":false,"is_disabled":false,"rental_uris":{"android":"levelo://app?vid=b448c76e-6a85-4e4e-8af8-7d9249501502","ios":"levelo://app?vid=b448c76e-6a85-4e4e-8af8-7d9249501502"},"vehicle_type_id":"4","last_reported":1731521498,"current_range_meters":36400,"station_id":"","pricing_plan_id":"cebpf4jnsgd1na2vs0mg"},{"bike_id":"e2292830-417b-443f-b8a9-3e61673a9fdf","system_id":"levelo_inurba_marseille","lat":43.30608,"lon":5.37222,"is_reserved":false,"is_disabled":false,"rental_uris":{"android":"levelo://app?vid=e2292830-417b-443f-b8a9-3e61673a9fdf","ios":"levelo://app?vid=e2292830-417b-443f-b8a9-3e61673a9fdf"},"vehicle_type_id":"4","last_reported":1731521498,"current_range_meters":6000,"station_id":"ce4bgqh2rcd13ifvqc4g","pricing_plan_id":"cebpf4jnsgd1na2vs0mg"},{"bike_id":"3837b05f-67c8-4d02-9aa9-54642194c0fb","system_id":"levelo_inurba_marseille","lat":43.28613,"lon":5.3511,"is_reserved":false,"is_disabled":false,"rental_uris":{"android":"levelo://app?vid=3837b05f-67c8-4d02-9aa9-54642194c0fb","ios":"levelo://app?vid=3837b05f-67c8-4d02-9aa9-54642194c0fb"},"vehicle_type_id":"4","last_reported":1731521498,"current_range_meters":28000,"station_id":"ce4bhch2rcd13ifvqeug","pricing_plan_id":"cebpf4jnsgd1na2vs0mg"},{"bike_id":"69779afd-2552-4b02-9cff-9f7fc1dc8ece","system_id":"levelo_inurba_marseille","lat":43.28409,"lon":5.37518,"is_reserved":false,"is_disabled":false,"rental_uris":{"android":"levelo://app?vid=69779afd-2552-4b02-9cff-9f7fc1dc8ece","ios":"levelo://app?vid=69779afd-2552-4b02-9cff-9f7fc1dc8ece"},"vehicle_type_id":"4","last_reported":1731521498,"current_range_meters":10800,"station_id":"ce4bh412rcd13ifvqds0","pricing_plan_id":"cebpf4jnsgd1na2vs0mg"},{"bike_id":"d52e00c0-4aeb-417f-919d-4b2222cdcf0f","system_id":"levelo_inurba_marseille","lat":43.24548,"lon":5.39532,"is_reserved":false,"is_disabled":false,"rental_uris":{"android":"levelo://app?vid=d52e00c0-4aeb-417f-919d-4b2222cdcf0f","ios":"levelo://app?vid=d52e00c0-4aeb-417f-919d-4b2222cdcf0f"},"vehicle_type_id":"4","last_reported":1731521498,"current_range_meters":15200,"station_id":"ce4bhlp2rcd13ifvqgjg","pricing_plan_id":"cebpf4jnsgd1na2vs0mg"},{"bike_id":"7abc592d-1262-440a-aab4-f25745ffffb1","system_id":"levelo_inurba_marseille","lat":43.27183,"lon":5.40992,"is_reserved":false,"is_disabled":false,"rental_uris":{"android":"levelo://app?vid=7abc592d-1262-440a-aab4-f25745ffffb1","ios":"levelo://app?vid=7abc592d-1262-440a-aab4-f25745ffffb1"},"vehicle_type_id":"4","last_reported":1731521498,"current_range_meters":5600,"station_id":"ce4bhl12rcd13ifvqgf0","pricing_plan_id":"cebpf4jnsgd1na2vs0mg"},{"bike_id":"2087c599-a4ee-4f53-b3d3-702615e4000f","system_id":"levelo_inurba_marseille","lat":43.26926,"lon":5.38913,"is_reserved":false,"is_disabled":false,"rental_uris":{"android":"levelo://app?vid=2087c599-a4ee-4f53-b3d3-702615e4000f","ios":"levelo://app?vid=2087c599-a4ee-4f53-b3d3-702615e4000f"},"vehicle_type_id":"4","last_reported":1731521498,"current_range_meters":39200,"station_id":"ce4bhhh2rcd13ifvqfl0","pricing_plan_id":"cebpf4jnsgd1na2vs0mg"},{"bike_id":"375e44e0-6702-4f31-b0f6-c97f4e4fc864","system_id":"levelo_inurba_marseille","lat":43.28107,"lon":5.37844,"is_reserved":false,"is_disabled":false,"rental_uris":{"android":"levelo://app?vid=375e44e0-6702-4f31-b0f6-c97f4e4fc864","ios":"levelo://app?vid=375e44e0-6702-4f31-b0f6-c97f4e4fc864"},"vehicle_type_id":"4","last_reported":1731521498,"current_range_meters":3200,"station_id":"ce4bha12rcd13ifvqee0","pricing_plan_id":"cebpf4jnsgd1na2vs0mg"},{"bike_id":"b6c48676-dc1e-44c1-82cf-6d606f6f2302","system_id":"levelo_inurba_marseille","lat":43.29269,"lon":5.40022,"is_reserved":false,"is_disabled":false,"rental_uris":{"android":"levelo://app?vid=b6c48676-dc1e-44c1-82cf-6d606f6f2302","ios":"levelo://app?vid=b6c48676-dc1e-44c1-82cf-6d606f6f2302"},"vehicle_type_id":"4","last_reported":1731521498,"current_range_meters":33600,"station_id":"ce4bgup2rcd13ifvqco0","pricing_plan_id":"cebpf4jnsgd1na2vs0mg"},{"bike_id":"4018447b-2886-4c23-942b-201819b3bc28","system_id":"levelo_inurba_marseille","lat":43.337444,"lon":5.374475,"is_reserved":false,"is_disabled":false,"rental_uris":{"android":"levelo://app?vid=4018447b-2886-4c23-942b-201819b3bc28","ios":"levelo://app?vid=4018447b-2886-4c23-942b-201819b3bc28"},"vehicle_type_id":"4","last_reported":1731521498,"current_range_meters":36400,"station_id":"","pricing_plan_id":"cebpf4jnsgd1na2vs0mg"},{"bike_id":"482a70ad-fc80-4388-a5dd-fc1a3d013c39","system_id":"levelo_inurba_marseille","lat":43.29509,"lon":5.39406,"is_reserved":false,"is_disabled":false,"rental_uris":{"android":"levelo://app?vid=482a70ad-fc80-4388-a5dd-fc1a3d013c39","ios":"levelo://app?vid=482a70ad-fc80-4388-a5dd-fc1a3d013c39"},"vehicle_type_id":"4","last_reported":1731521498,"current_range_meters":9200,"station_id":"ce4bh292rcd13ifvqdf0","pricing_plan_id":"cebpf4jnsgd1na2vs0mg"},{"bike_id":"8363accd-fb3e-4197-b76c-de8d47411466","system_id":"levelo_inurba_marseille","lat":43.28859,"lon":5.35844,"is_reserved":false,"is_disabled":false,"rental_uris":{"android":"levelo://app?vid=8363accd-fb3e-4197-b76c-de8d47411466","ios":"levelo://app?vid=8363accd-fb3e-4197-b76c-de8d47411466"},"vehicle_type_id":"4","last_reported":1731521498,"current_range_meters":8000,"station_id":"ce4bhb12rcd13ifvqem0","pricing_plan_id":"cebpf4jnsgd1na2vs0mg"},{"bike_id":"1f9ad8d1-43c8-43b8-b8ac-e4921fa125f8","system_id":"levelo_inurba_marseille","lat":43.29093,"lon":5.38134,"is_reserved":false,"is_disabled":false,"rental_uris":{"android":"levelo://app?vid=1f9ad8d1-43c8-43b8-b8ac-e4921fa125f8","ios":"levelo://app?vid=1f9ad8d1-43c8-43b8-b8ac-e4921fa125f8"},"vehicle_type_id":"4","last_reported":1731521498,"current_range_meters":24000,"station_id":"ce4bh512rcd13ifvqe2g","pricing_plan_id":"cebpf4jnsgd1na2vs0mg"},{"bike_id":"e59b82bd-8856-4a0c-8c2b-7979fbdbe05d","system_id":"levelo_inurba_marseille","lat":43.30876,"lon":5.3719,"is_reserved":false,"is_disabled":false,"rental_uris":{"android":"levelo://app?vid=e59b82bd-8856-4a0c-8c2b-7979fbdbe05d","ios":"levelo://app?vid=e59b82bd-8856-4a0c-8c2b-7979fbdbe05d"},"vehicle_type_id":"4","last_reported":1731521498,"current_range_meters":16400,"station_id":"ce4bguh2rcd13ifvqckg","pricing_plan_id":"cebpf4jnsgd1na2vs0mg"},{"bike_id":"8ff3daf9-97e9-480f-95f9-4d1d61792a54","system_id":"levelo_inurba_marseille","lat":43.33758,"lon":5.37471,"is_reserved":false,"is_disabled":false,"rental_uris":{"android":"levelo://app?vid=8ff3daf9-97e9-480f-95f9-4d1d61792a54","ios":"levelo://app?vid=8ff3daf9-97e9-480f-95f9-4d1d61792a54"},"vehicle_type_id":"4","last_reported":1731521498,"current_range_meters":34000,"station_id":"","pricing_plan_id":"cebpf4jnsgd1na2vs0mg"},{"bike_id":"94207d35-0d6f-4322-8901-dc31ef64ff04","system_id":"levelo_inurba_marseille","lat":43.27826,"lon":5.3921,"is_reserved":false,"is_disabled":false,"rental_uris":{"android":"levelo://app?vid=94207d35-0d6f-4322-8901-dc31ef64ff04","ios":"levelo://app?vid=94207d35-0d6f-4322-8901-dc31ef64ff04"},"vehicle_type_id":"4","last_reported":1731521498,"current_range_meters":38000,"station_id":"ce4bhjp2rcd13ifvqga0","pricing_plan_id":"cebpf4jnsgd1na2vs0mg"},{"bike_id":"8085655b-1b3a-4024-ae9f-d9f19de635de","system_id":"levelo_inurba_marseille","lat":43.306563,"lon":5.4009,"is_reserved":false,"is_disabled":false,"rental_uris":{"android":"levelo://app?vid=8085655b-1b3a-4024-ae9f-d9f19de635de","ios":"levelo://app?vid=8085655b-1b3a-4024-ae9f-d9f19de635de"},"vehicle_type_id":"4","last_reported":1731521498,"current_range_meters":39200,"station_id":"ce4bh112rcd13ifvqda0","pricing_plan_id":"cebpf4jnsgd1na2vs0mg"},{"bike_id":"2d5dfb2a-158f-4946-9842-bcc4ebebe068","system_id":"levelo_inurba_marseille","lat":43.24548,"lon":5.39526,"is_reserved":false,"is_disabled":false,"rental_uris":{"android":"levelo://app?vid=2d5dfb2a-158f-4946-9842-bcc4ebebe068","ios":"levelo://app?vid=2d5dfb2a-158f-4946-9842-bcc4ebebe068"},"vehicle_type_id":"4","last_reported":1731521498,"current_range_meters":39200,"station_id":"ce4bhlp2rcd13ifvqgjg","pricing_plan_id":"cebpf4jnsgd1na2vs0mg"},{"bike_id":"dd7d9016-feda-4fb9-833e-5c856731139b","system_id":"levelo_inurba_marseille","lat":43.27996,"lon":5.41666,"is_reserved":false,"is_disabled":false,"rental_uris":{"android":"levelo://app?vid=dd7d9016-feda-4fb9-833e-5c856731139b","ios":"levelo://app?vid=dd7d9016-feda-4fb9-833e-5c856731139b"},"vehicle_type_id":"4","last_reported":1731521498,"current_range_meters":24000,"station_id":"ce4bho12rcd13ifvqh1g","pricing_plan_id":"cebpf4jnsgd1na2vs0mg"},{"bike_id":"b925c860-215d-492c-8059-4fde20a27b05","system_id":"levelo_inurba_marseille","lat":43.290161,"lon":5.381378,"is_reserved":false,"is_disabled":false,"rental_uris":{"android":"levelo://app?vid=b925c860-215d-492c-8059-4fde20a27b05","ios":"levelo://app?vid=b925c860-215d-492c-8059-4fde20a27b05"},"vehicle_type_id":"4","last_reported":1731521498,"current_range_meters":28400,"station_id":"ce4bh4p2rcd13ifvqe1g","pricing_plan_id":"cebpf4jnsgd1na2vs0mg"},{"bike_id":"d2ee9c56-520b-4c97-a85b-7575c6d26bcd","system_id":"levelo_inurba_marseille","lat":43.30645,"lon":5.40081,"is_reserved":false,"is_disabled":false,"rental_uris":{"android":"levelo://app?vid=d2ee9c56-520b-4c97-a85b-7575c6d26bcd","ios":"levelo://app?vid=d2ee9c56-520b-4c97-a85b-7575c6d26bcd"},"vehicle_type_id":"4","last_reported":1731521498,"current_range_meters":7200,"station_id":"ce4bh112rcd13ifvqda0","pricing_plan_id":"cebpf4jnsgd1na2vs0mg"},{"bike_id":"d09a69b4-a6cd-4352-9b70-237c7ec2c287","system_id":"levelo_inurba_marseille","lat":43.29682,"lon":5.37674,"is_reserved":false,"is_disabled":false,"rental_uris":{"android":"levelo://app?vid=d09a69b4-a6cd-4352-9b70-237c7ec2c287","ios":"levelo://app?vid=d09a69b4-a6cd-4352-9b70-237c7ec2c287"},"vehicle_type_id":"4","last_reported":1731521498,"current_range_meters":25200,"station_id":"ce4bgkh2rcd13ifvqbl0","pricing_plan_id":"cebpf4jnsgd1na2vs0mg"},{"bike_id":"ca502d75-f3ed-4841-9c03-2278864d924d","system_id":"levelo_inurba_marseille","lat":43.31757,"lon":5.39016,"is_reserved":false,"is_disabled":false,"rental_uris":{"android":"levelo://app?vid=ca502d75-f3ed-4841-9c03-2278864d924d","ios":"levelo://app?vid=ca502d75-f3ed-4841-9c03-2278864d924d"},"vehicle_type_id":"4","last_reported":1731521498,"current_range_meters":32400,"station_id":"ce4bhqp2rcd13ifvqhng","pricing_plan_id":"cebpf4jnsgd1na2vs0mg"},{"bike_id":"810005d6-7788-49f9-839e-11f35f04d84d","system_id":"levelo_inurba_marseille","lat":43.29568,"lon":5.3996,"is_reserved":false,"is_disabled":false,"rental_uris":{"android":"levelo://app?vid=810005d6-7788-49f9-839e-11f35f04d84d","ios":"levelo://app?vid=810005d6-7788-49f9-839e-11f35f04d84d"},"vehicle_type_id":"4","last_reported":1731521498,"current_range_meters":8400,"station_id":"ce4bh312rcd13ifvqdj0","pricing_plan_id":"cebpf4jnsgd1na2vs0mg"},{"bike_id":"298f7b0e-f74b-470c-bc7f-e5659e780787","system_id":"levelo_inurba_marseille","lat":43.29194,"lon":5.39324,"is_reserved":false,"is_disabled":false,"rental_uris":{"android":"levelo://app?vid=298f7b0e-f74b-470c-bc7f-e5659e780787","ios":"levelo://app?vid=298f7b0e-f74b-470c-bc7f-e5659e780787"},"vehicle_type_id":"4","last_reported":1731521498,"current_range_meters":11600,"station_id":"ce4bh192rcd13ifvqdd0","pricing_plan_id":"cebpf4jnsgd1na2vs0mg"},{"bike_id":"bd7d9a2b-c8cd-4434-b735-bd7cd47d3319","system_id":"levelo_inurba_marseille","lat":43.296163,"lon":5.377081,"is_reserved":false,"is_disabled":false,"rental_uris":{"android":"levelo://app?vid=bd7d9a2b-c8cd-4434-b735-bd7cd47d3319","ios":"levelo://app?vid=bd7d9a2b-c8cd-4434-b735-bd7cd47d3319"},"vehicle_type_id":"4","last_reported":1731521498,"current_range_meters":36000,"station_id":"ce4bgi92rcd13ifvqb90","pricing_plan_id":"cebpf4jnsgd1na2vs0mg"},{"bike_id":"6277ad66-fef2-4974-8d33-a9129f5c4127","system_id":"levelo_inurba_marseille","lat":43.33023,"lon":5.39046,"is_reserved":false,"is_disabled":false,"rental_uris":{"android":"levelo://app?vid=6277ad66-fef2-4974-8d33-a9129f5c4127","ios":"levelo://app?vid=6277ad66-fef2-4974-8d33-a9129f5c4127"},"vehicle_type_id":"4","last_reported":1731521498,"current_range_meters":36800,"station_id":"ce4bhr92rcd13ifvqhrg","pricing_plan_id":"cebpf4jnsgd1na2vs0mg"},{"bike_id":"2cb81d03-e85e-4df4-8247-66a307cb2180","system_id":"levelo_inurba_marseille","lat":43.3065,"lon":5.40087,"is_reserved":false,"is_disabled":false,"rental_uris":{"android":"levelo://app?vid=2cb81d03-e85e-4df4-8247-66a307cb2180","ios":"levelo://app?vid=2cb81d03-e85e-4df4-8247-66a307cb2180"},"vehicle_type_id":"4","last_reported":1731521498,"current_range_meters":38800,"station_id":"ce4bh112rcd13ifvqda0","pricing_plan_id":"cebpf4jnsgd1na2vs0mg"},{"bike_id":"adf61425-64f8-4d2e-9114-4e4c419b01c9","system_id":"levelo_inurba_marseille","lat":43.29255,"lon":5.38445,"is_reserved":false,"is_disabled":false,"rental_uris":{"android":"levelo://app?vid=adf61425-64f8-4d2e-9114-4e4c419b01c9","ios":"levelo://app?vid=adf61425-64f8-4d2e-9114-4e4c419b01c9"},"vehicle_type_id":"4","last_reported":1731521498,"current_range_meters":22400,"station_id":"ce4bh692rcd13ifvqea0","pricing_plan_id":"cebpf4jnsgd1na2vs0mg"},{"bike_id":"e6878984-a1dd-4992-8913-0fc51d54781e","system_id":"levelo_inurba_marseille","lat":43.30556,"lon":5.37257,"is_reserved":false,"is_disabled":false,"rental_uris":{"android":"levelo://app?vid=e6878984-a1dd-4992-8913-0fc51d54781e","ios":"levelo://app?vid=e6878984-a1dd-4992-8913-0fc51d54781e"},"vehicle_type_id":"4","last_reported":1731521498,"current_range_meters":26000,"station_id":"","pricing_plan_id":"cebpf4jnsgd1na2vs0mg"},{"bike_id":"a7e9865b-c259-49f3-ad42-c770159f46ec","system_id":"levelo_inurba_marseille","lat":43.33785,"lon":5.37431,"is_reserved":false,"is_disabled":false,"rental_uris":{"android":"levelo://app?vid=a7e9865b-c259-49f3-ad42-c770159f46ec","ios":"levelo://app?vid=a7e9865b-c259-49f3-ad42-c770159f46ec"},"vehicle_type_id":"4","last_reported":1731521498,"current_range_meters":36400,"station_id":"","pricing_plan_id":"cebpf4jnsgd1na2vs0mg"},{"bike_id":"9e07f9af-e6eb-414b-9dc8-16d063e4cdaa","system_id":"levelo_inurba_marseille","lat":43.31331,"lon":5.39702,"is_reserved":false,"is_disabled":false,"rental_uris":{"android":"levelo://app?vid=9e07f9af-e6eb-414b-9dc8-16d063e4cdaa","ios":"levelo://app?vid=9e07f9af-e6eb-414b-9dc8-16d063e4cdaa"},"vehicle_type_id":"4","last_reported":1731521498,"current_range_meters":29600,"station_id":"ce4bgvp2rcd13ifvqcu0","pricing_plan_id":"cebpf4jnsgd1na2vs0mg"},{"bike_id":"98a7c18a-1bf6-44a1-b4c7-dc624f37171d","system_id":"levelo_inurba_marseille","lat":43.26204,"lon":5.37442,"is_reserved":false,"is_disabled":false,"rental_uris":{"android":"levelo://app?vid=98a7c18a-1bf6-44a1-b4c7-dc624f37171d","ios":"levelo://app?vid=98a7c18a-1bf6-44a1-b4c7-dc624f37171d"},"vehicle_type_id":"4","last_reported":1731521498,"current_range_meters":28000,"station_id":"ce4bhgp2rcd13ifvqfc0","pricing_plan_id":"cebpf4jnsgd1na2vs0mg"},{"bike_id":"62cb0fed-0642-4f66-a592-a5e3660e06b6","system_id":"levelo_inurba_marseille","lat":43.30611,"lon":5.37221,"is_reserved":false,"is_disabled":false,"rental_uris":{"android":"levelo://app?vid=62cb0fed-0642-4f66-a592-a5e3660e06b6","ios":"levelo://app?vid=62cb0fed-0642-4f66-a592-a5e3660e06b6"},"vehicle_type_id":"4","last_reported":1731521498,"current_range_meters":6400,"station_id":"ce4bgqh2rcd13ifvqc4g","pricing_plan_id":"cebpf4jnsgd1na2vs0mg"},{"bike_id":"93bb9ea9-4131-44d2-9b06-e0c5ecb4ebde","system_id":"levelo_inurba_marseille","lat":43.28462,"lon":5.35891,"is_reserved":false,"is_disabled":false,"rental_uris":{"android":"levelo://app?vid=93bb9ea9-4131-44d2-9b06-e0c5ecb4ebde","ios":"levelo://app?vid=93bb9ea9-4131-44d2-9b06-e0c5ecb4ebde"},"vehicle_type_id":"4","last_reported":1731521498,"current_range_meters":6400,"station_id":"ce4bhah2rcd13ifvqei0","pricing_plan_id":"cebpf4jnsgd1na2vs0mg"},{"bike_id":"0ad2258b-a639-43f4-a13f-9b89f302c1bf","system_id":"levelo_inurba_marseille","lat":43.29008,"lon":5.35614,"is_reserved":false,"is_disabled":false,"rental_uris":{"android":"levelo://app?vid=0ad2258b-a639-43f4-a13f-9b89f302c1bf","ios":"levelo://app?vid=0ad2258b-a639-43f4-a13f-9b89f302c1bf"},"vehicle_type_id":"4","last_reported":1731521498,"current_range_meters":39200,"station_id":"ce4bhb92rcd13ifvqen0","pricing_plan_id":"cebpf4jnsgd1na2vs0mg"},{"bike_id":"c755cdc6-67b5-4e3f-93d2-ba7ef5f1ef31","system_id":"levelo_inurba_marseille","lat":43.31745,"lon":5.39019,"is_reserved":false,"is_disabled":false,"rental_uris":{"android":"levelo://app?vid=c755cdc6-67b5-4e3f-93d2-ba7ef5f1ef31","ios":"levelo://app?vid=c755cdc6-67b5-4e3f-93d2-ba7ef5f1ef31"},"vehicle_type_id":"4","last_reported":1731521498,"current_range_meters":23200,"station_id":"ce4bhqp2rcd13ifvqhng","pricing_plan_id":"cebpf4jnsgd1na2vs0mg"},{"bike_id":"5330f6db-3f6a-4cea-a96b-80b79626ee20","system_id":"levelo_inurba_marseille","lat":43.31755,"lon":5.39022,"is_reserved":false,"is_disabled":false,"rental_uris":{"android":"levelo://app?vid=5330f6db-3f6a-4cea-a96b-80b79626ee20","ios":"levelo://app?vid=5330f6db-3f6a-4cea-a96b-80b79626ee20"},"vehicle_type_id":"4","last_reported":1731521498,"current_range_meters":6400,"station_id":"ce4bhqp2rcd13ifvqhng","pricing_plan_id":"cebpf4jnsgd1na2vs0mg"},{"bike_id":"9ebce43b-8cc3-4831-aacd-fc4d47643afe","system_id":"levelo_inurba_marseille","lat":43.28153,"lon":5.42645,"is_reserved":false,"is_disabled":false,"rental_uris":{"android":"levelo://app?vid=9ebce43b-8cc3-4831-aacd-fc4d47643afe","ios":"levelo://app?vid=9ebce43b-8cc3-4831-aacd-fc4d47643afe"},"vehicle_type_id":"4","last_reported":1731521498,"current_range_meters":1600,"station_id":"ce4bhnh2rcd13ifvqgug","pricing_plan_id":"cebpf4jnsgd1na2vs0mg"},{"bike_id":"f393d0a3-88bc-4cf3-ad88-414c02a7b8fc","system_id":"levelo_inurba_marseille","lat":43.29002,"lon":5.35624,"is_reserved":false,"is_disabled":false,"rental_uris":{"android":"levelo://app?vid=f393d0a3-88bc-4cf3-ad88-414c02a7b8fc","ios":"levelo://app?vid=f393d0a3-88bc-4cf3-ad88-414c02a7b8fc"},"vehicle_type_id":"4","last_reported":1731521498,"current_range_meters":20800,"station_id":"ce4bhb92rcd13ifvqen0","pricing_plan_id":"cebpf4jnsgd1na2vs0mg"},{"bike_id":"6d552d48-4daa-4b8d-abc4-4f90c5576a7e","system_id":"levelo_inurba_marseille","lat":43.29533,"lon":5.38545,"is_reserved":false,"is_disabled":false,"rental_uris":{"android":"levelo://app?vid=6d552d48-4daa-4b8d-abc4-4f90c5576a7e","ios":"levelo://app?vid=6d552d48-4daa-4b8d-abc4-4f90c5576a7e"},"vehicle_type_id":"4","last_reported":1731521498,"current_range_meters":38400,"station_id":"ce4bgih2rcd13ifvqba0","pricing_plan_id":"cebpf4jnsgd1na2vs0mg"},{"bike_id":"1bda35db-e5f4-4a05-82fb-ccbbba01f888","system_id":"levelo_inurba_marseille","lat":43.31684,"lon":5.40479,"is_reserved":false,"is_disabled":false,"rental_uris":{"android":"levelo://app?vid=1bda35db-e5f4-4a05-82fb-ccbbba01f888","ios":"levelo://app?vid=1bda35db-e5f4-4a05-82fb-ccbbba01f888"},"vehicle_type_id":"4","last_reported":1731521498,"current_range_meters":6800,"station_id":"ce4bh012rcd13ifvqd00","pricing_plan_id":"cebpf4jnsgd1na2vs0mg"},{"bike_id":"bb8e75ea-d59b-43c4-a93f-ace38c8e2a1e","system_id":"levelo_inurba_marseille","lat":43.292,"lon":5.39325,"is_reserved":false,"is_disabled":false,"rental_uris":{"android":"levelo://app?vid=bb8e75ea-d59b-43c4-a93f-ace38c8e2a1e","ios":"levelo://app?vid=bb8e75ea-d59b-43c4-a93f-ace38c8e2a1e"},"vehicle_type_id":"4","last_reported":1731521498,"current_range_meters":24800,"station_id":"ce4bh192rcd13ifvqdd0","pricing_plan_id":"cebpf4jnsgd1na2vs0mg"},{"bike_id":"11e81eb1-c937-45f7-a253-7bd53290afa7","system_id":"levelo_inurba_marseille","lat":43.31754,"lon":5.39019,"is_reserved":false,"is_disabled":false,"rental_uris":{"android":"levelo://app?vid=11e81eb1-c937-45f7-a253-7bd53290afa7","ios":"levelo://app?vid=11e81eb1-c937-45f7-a253-7bd53290afa7"},"vehicle_type_id":"4","last_reported":1731521498,"current_range_meters":20400,"station_id":"ce4bhqp2rcd13ifvqhng","pricing_plan_id":"cebpf4jnsgd1na2vs0mg"},{"bike_id":"3f832310-57c2-400d-b5f5-6088c26b2560","system_id":"levelo_inurba_marseille","lat":43.3107,"lon":5.38366,"is_reserved":false,"is_disabled":false,"rental_uris":{"android":"levelo://app?vid=3f832310-57c2-400d-b5f5-6088c26b2560","ios":"levelo://app?vid=3f832310-57c2-400d-b5f5-6088c26b2560"},"vehicle_type_id":"4","last_reported":1731521498,"current_range_meters":8400,"station_id":"ce4bgv92rcd13ifvqcr0","pricing_plan_id":"cebpf4jnsgd1na2vs0mg"},{"bike_id":"667f7807-047c-47ad-a1e5-4dbe9a70fbcc","system_id":"levelo_inurba_marseille","lat":43.2694,"lon":5.38627,"is_reserved":false,"is_disabled":false,"rental_uris":{"android":"levelo://app?vid=667f7807-047c-47ad-a1e5-4dbe9a70fbcc","ios":"levelo://app?vid=667f7807-047c-47ad-a1e5-4dbe9a70fbcc"},"vehicle_type_id":"4","last_reported":1731521498,"current_range_meters":29600,"station_id":"ce4bhh92rcd13ifvqfh0","pricing_plan_id":"cebpf4jnsgd1na2vs0mg"},{"bike_id":"2be27382-171b-4705-8065-2e92692f9f93","system_id":"levelo_inurba_marseille","lat":43.24382,"lon":5.37062,"is_reserved":false,"is_disabled":false,"rental_uris":{"android":"levelo://app?vid=2be27382-171b-4705-8065-2e92692f9f93","ios":"levelo://app?vid=2be27382-171b-4705-8065-2e92692f9f93"},"vehicle_type_id":"4","last_reported":1731521498,"current_range_meters":28400,"station_id":"ce4bhhh2rcd13ifvqfk0","pricing_plan_id":"cebpf4jnsgd1na2vs0mg"},{"bike_id":"68f4b5fd-66ad-4436-9242-c8ad38e517cc","system_id":"levelo_inurba_marseille","lat":43.337444,"lon":5.374475,"is_reserved":false,"is_disabled":false,"rental_uris":{"android":"levelo://app?vid=68f4b5fd-66ad-4436-9242-c8ad38e517cc","ios":"levelo://app?vid=68f4b5fd-66ad-4436-9242-c8ad38e517cc"},"vehicle_type_id":"4","last_reported":1731521498,"current_range_meters":20000,"station_id":"","pricing_plan_id":"cebpf4jnsgd1na2vs0mg"},{"bike_id":"a50ae7be-1a9f-477e-9137-a5af5b7becd7","system_id":"levelo_inurba_marseille","lat":43.337444,"lon":5.374475,"is_reserved":false,"is_disabled":false,"rental_uris":{"android":"levelo://app?vid=a50ae7be-1a9f-477e-9137-a5af5b7becd7","ios":"levelo://app?vid=a50ae7be-1a9f-477e-9137-a5af5b7becd7"},"vehicle_type_id":"4","last_reported":1731521498,"current_range_meters":31200,"station_id":"","pricing_plan_id":"cebpf4jnsgd1na2vs0mg"},{"bike_id":"63d271b8-cb8a-4f2f-b0c1-284b5386b0c8","system_id":"levelo_inurba_marseille","lat":43.28454,"lon":5.35888,"is_reserved":false,"is_disabled":false,"rental_uris":{"android":"levelo://app?vid=63d271b8-cb8a-4f2f-b0c1-284b5386b0c8","ios":"levelo://app?vid=63d271b8-cb8a-4f2f-b0c1-284b5386b0c8"},"vehicle_type_id":"4","last_reported":1731521498,"current_range_meters":32000,"station_id":"ce4bhah2rcd13ifvqei0","pricing_plan_id":"cebpf4jnsgd1na2vs0mg"},{"bike_id":"c64ae82b-9a80-4c51-a4d3-e8c84a7edb1f","system_id":"levelo_inurba_marseille","lat":43.24181,"lon":5.39726,"is_reserved":false,"is_disabled":false,"rental_uris":{"android":"levelo://app?vid=c64ae82b-9a80-4c51-a4d3-e8c84a7edb1f","ios":"levelo://app?vid=c64ae82b-9a80-4c51-a4d3-e8c84a7edb1f"},"vehicle_type_id":"4","last_reported":1731521498,"current_range_meters":34800,"station_id":"ce4bhn12rcd13ifvqgpg","pricing_plan_id":"cebpf4jnsgd1na2vs0mg"},{"bike_id":"b27dce29-131d-4418-b96a-3f3326e6a6ac","system_id":"levelo_inurba_marseille","lat":43.30299,"lon":5.36895,"is_reserved":false,"is_disabled":false,"rental_uris":{"android":"levelo://app?vid=b27dce29-131d-4418-b96a-3f3326e6a6ac","ios":"levelo://app?vid=b27dce29-131d-4418-b96a-3f3326e6a6ac"},"vehicle_type_id":"4","last_reported":1731521498,"current_range_meters":12000,"station_id":"ce4bgqh2rcd13ifvqc5g","pricing_plan_id":"cebpf4jnsgd1na2vs0mg"},{"bike_id":"08861e0e-15b5-43f1-85e8-7669bedd1f0b","system_id":"levelo_inurba_marseille","lat":43.28699,"lon":5.39988,"is_reserved":false,"is_disabled":false,"rental_uris":{"android":"levelo://app?vid=08861e0e-15b5-43f1-85e8-7669bedd1f0b","ios":"levelo://app?vid=08861e0e-15b5-43f1-85e8-7669bedd1f0b"},"vehicle_type_id":"4","last_reported":1731521498,"current_range_meters":4000,"station_id":"ce4bho92rcd13ifvqh3g","pricing_plan_id":"cebpf4jnsgd1na2vs0mg"},{"bike_id":"ed092a5a-e2d0-489d-8157-302ef1f1f558","system_id":"levelo_inurba_marseille","lat":43.26027,"lon":5.37553,"is_reserved":false,"is_disabled":false,"rental_uris":{"android":"levelo://app?vid=ed092a5a-e2d0-489d-8157-302ef1f1f558","ios":"levelo://app?vid=ed092a5a-e2d0-489d-8157-302ef1f1f558"},"vehicle_type_id":"4","last_reported":1731521498,"current_range_meters":21600,"station_id":"ce4bhgh2rcd13ifvqfa0","pricing_plan_id":"cebpf4jnsgd1na2vs0mg"},{"bike_id":"cda4fb24-2cf4-4560-895f-1b77d878ac8b","system_id":"levelo_inurba_marseille","lat":43.28908,"lon":5.38436,"is_reserved":false,"is_disabled":false,"rental_uris":{"android":"levelo://app?vid=cda4fb24-2cf4-4560-895f-1b77d878ac8b","ios":"levelo://app?vid=cda4fb24-2cf4-4560-895f-1b77d878ac8b"},"vehicle_type_id":"4","last_reported":1731521498,"current_range_meters":16000,"station_id":"ce4bhg12rcd13ifvqf80","pricing_plan_id":"cebpf4jnsgd1na2vs0mg"},{"bike_id":"d33fe29b-f6d7-4a84-bb4c-21bcbacb277b","system_id":"levelo_inurba_marseille","lat":43.30131,"lon":5.3878,"is_reserved":false,"is_disabled":false,"rental_uris":{"android":"levelo://app?vid=d33fe29b-f6d7-4a84-bb4c-21bcbacb277b","ios":"levelo://app?vid=d33fe29b-f6d7-4a84-bb4c-21bcbacb277b"},"vehicle_type_id":"4","last_reported":1731521498,"current_range_meters":18000,"station_id":"ce4bghh2rcd13ifvqb60","pricing_plan_id":"cebpf4jnsgd1na2vs0mg"},{"bike_id":"97a68d8f-5c47-48e4-b5ee-80e98f552c6b","system_id":"levelo_inurba_marseille","lat":43.26206,"lon":5.37446,"is_reserved":false,"is_disabled":false,"rental_uris":{"android":"levelo://app?vid=97a68d8f-5c47-48e4-b5ee-80e98f552c6b","ios":"levelo://app?vid=97a68d8f-5c47-48e4-b5ee-80e98f552c6b"},"vehicle_type_id":"4","last_reported":1731521498,"current_range_meters":38800,"station_id":"ce4bhgp2rcd13ifvqfc0","pricing_plan_id":"cebpf4jnsgd1na2vs0mg"},{"bike_id":"013ec96e-37bd-4815-8f6b-cffd9258f196","system_id":"levelo_inurba_marseille","lat":43.248169,"lon":5.374839,"is_reserved":false,"is_disabled":false,"rental_uris":{"android":"levelo://app?vid=013ec96e-37bd-4815-8f6b-cffd9258f196","ios":"levelo://app?vid=013ec96e-37bd-4815-8f6b-cffd9258f196"},"vehicle_type_id":"4","last_reported":1731521498,"current_range_meters":36400,"station_id":"ce4bhgh2rcd13ifvqfb0","pricing_plan_id":"cebpf4jnsgd1na2vs0mg"},{"bike_id":"fce98055-e610-4b9a-854b-ed09f3f4f232","system_id":"levelo_inurba_marseille","lat":43.251,"lon":5.4033,"is_reserved":false,"is_disabled":false,"rental_uris":{"android":"levelo://app?vid=fce98055-e610-4b9a-854b-ed09f3f4f232","ios":"levelo://app?vid=fce98055-e610-4b9a-854b-ed09f3f4f232"},"vehicle_type_id":"4","last_reported":1731521498,"current_range_meters":38800,"station_id":"ce4bhlh2rcd13ifvqgig","pricing_plan_id":"cebpf4jnsgd1na2vs0mg"},{"bike_id":"18f15833-aaab-4b74-b56e-3c6694d89434","system_id":"levelo_inurba_marseille","lat":43.3013,"lon":5.39859,"is_reserved":false,"is_disabled":false,"rental_uris":{"android":"levelo://app?vid=18f15833-aaab-4b74-b56e-3c6694d89434","ios":"levelo://app?vid=18f15833-aaab-4b74-b56e-3c6694d89434"},"vehicle_type_id":"4","last_reported":1731521498,"current_range_meters":4400,"station_id":"ce4bh0h2rcd13ifvqd40","pricing_plan_id":"cebpf4jnsgd1na2vs0mg"},{"bike_id":"c3dec0fd-4155-435f-9433-1f143ead7e60","system_id":"levelo_inurba_marseille","lat":43.30256,"lon":5.40082,"is_reserved":false,"is_disabled":false,"rental_uris":{"android":"levelo://app?vid=c3dec0fd-4155-435f-9433-1f143ead7e60","ios":"levelo://app?vid=c3dec0fd-4155-435f-9433-1f143ead7e60"},"vehicle_type_id":"4","last_reported":1731521498,"current_range_meters":8400,"station_id":"ce4bgvh2rcd13ifvqcs0","pricing_plan_id":"cebpf4jnsgd1na2vs0mg"},{"bike_id":"502ef5c3-1b4f-463c-9a43-f6d6c60d641c","system_id":"levelo_inurba_marseille","lat":43.29914,"lon":5.37464,"is_reserved":false,"is_disabled":false,"rental_uris":{"android":"levelo://app?vid=502ef5c3-1b4f-463c-9a43-f6d6c60d641c","ios":"levelo://app?vid=502ef5c3-1b4f-463c-9a43-f6d6c60d641c"},"vehicle_type_id":"4","last_reported":1731521498,"current_range_meters":37600,"station_id":"ce4bgjh2rcd13ifvqbg0","pricing_plan_id":"cebpf4jnsgd1na2vs0mg"},{"bike_id":"5d0334c1-1052-4058-9831-2f7e60a411d3","system_id":"levelo_inurba_marseille","lat":43.26793,"lon":5.3941,"is_reserved":false,"is_disabled":false,"rental_uris":{"android":"levelo://app?vid=5d0334c1-1052-4058-9831-2f7e60a411d3","ios":"levelo://app?vid=5d0334c1-1052-4058-9831-2f7e60a411d3"},"vehicle_type_id":"4","last_reported":1731521498,"current_range_meters":38800,"station_id":"ce4bhh12rcd13ifvqfg0","pricing_plan_id":"cebpf4jnsgd1na2vs0mg"},{"bike_id":"10e870da-c716-4326-9dbd-5aae03a3b7e4","system_id":"levelo_inurba_marseille","lat":43.26194,"lon":5.37941,"is_reserved":false,"is_disabled":false,"rental_uris":{"android":"levelo://app?vid=10e870da-c716-4326-9dbd-5aae03a3b7e4","ios":"levelo://app?vid=10e870da-c716-4326-9dbd-5aae03a3b7e4"},"vehicle_type_id":"4","last_reported":1731521498,"current_range_meters":17200,"station_id":"ce4bhjp2rcd13ifvqg90","pricing_plan_id":"cebpf4jnsgd1na2vs0mg"},{"bike_id":"d6412bd8-f444-4f83-8d14-a7a4ed585bc7","system_id":"levelo_inurba_marseille","lat":43.29523,"lon":5.39405,"is_reserved":false,"is_disabled":false,"rental_uris":{"android":"levelo://app?vid=d6412bd8-f444-4f83-8d14-a7a4ed585bc7","ios":"levelo://app?vid=d6412bd8-f444-4f83-8d14-a7a4ed585bc7"},"vehicle_type_id":"4","last_reported":1731521498,"current_range_meters":8400,"station_id":"ce4bh292rcd13ifvqdf0","pricing_plan_id":"cebpf4jnsgd1na2vs0mg"},{"bike_id":"c391d180-4a48-4529-b1c1-96ee5e433301","system_id":"levelo_inurba_marseille","lat":43.28073,"lon":5.39663,"is_reserved":false,"is_disabled":false,"rental_uris":{"android":"levelo://app?vid=c391d180-4a48-4529-b1c1-96ee5e433301","ios":"levelo://app?vid=c391d180-4a48-4529-b1c1-96ee5e433301"},"vehicle_type_id":"4","last_reported":1731521498,"current_range_meters":35600,"station_id":"ce4bho12rcd13ifvqh2g","pricing_plan_id":"cebpf4jnsgd1na2vs0mg"},{"bike_id":"512afec1-5426-43d5-b62d-75982947a438","system_id":"levelo_inurba_marseille","lat":43.31756,"lon":5.39014,"is_reserved":false,"is_disabled":false,"rental_uris":{"android":"levelo://app?vid=512afec1-5426-43d5-b62d-75982947a438","ios":"levelo://app?vid=512afec1-5426-43d5-b62d-75982947a438"},"vehicle_type_id":"4","last_reported":1731521498,"current_range_meters":14800,"station_id":"ce4bhqp2rcd13ifvqhng","pricing_plan_id":"cebpf4jnsgd1na2vs0mg"},{"bike_id":"24ccb570-4a8b-4999-9f7d-8cc9638c7c2c","system_id":"levelo_inurba_marseille","lat":43.23181,"lon":5.39989,"is_reserved":false,"is_disabled":false,"rental_uris":{"android":"levelo://app?vid=24ccb570-4a8b-4999-9f7d-8cc9638c7c2c","ios":"levelo://app?vid=24ccb570-4a8b-4999-9f7d-8cc9638c7c2c"},"vehicle_type_id":"4","last_reported":1731521498,"current_range_meters":29600,"station_id":"ce4bhn12rcd13ifvqgqg","pricing_plan_id":"cebpf4jnsgd1na2vs0mg"},{"bike_id":"9ba818fd-83bb-443f-bf91-578daf65c0c5","system_id":"levelo_inurba_marseille","lat":43.32655,"lon":5.40997,"is_reserved":false,"is_disabled":false,"rental_uris":{"android":"levelo://app?vid=9ba818fd-83bb-443f-bf91-578daf65c0c5","ios":"levelo://app?vid=9ba818fd-83bb-443f-bf91-578daf65c0c5"},"vehicle_type_id":"4","last_reported":1731521498,"current_range_meters":36400,"station_id":"ce4bhpp2rcd13ifvqhgg","pricing_plan_id":"cebpf4jnsgd1na2vs0mg"},{"bike_id":"ab731707-e86b-4178-935a-131037b19815","system_id":"levelo_inurba_marseille","lat":43.2925,"lon":5.40916,"is_reserved":false,"is_disabled":false,"rental_uris":{"android":"levelo://app?vid=ab731707-e86b-4178-935a-131037b19815","ios":"levelo://app?vid=ab731707-e86b-4178-935a-131037b19815"},"vehicle_type_id":"4","last_reported":1731521498,"current_range_meters":30400,"station_id":"ce4bh192rcd13ifvqdc0","pricing_plan_id":"cebpf4jnsgd1na2vs0mg"},{"bike_id":"1fe61937-b910-47a6-b239-27852967fc66","system_id":"levelo_inurba_marseille","lat":43.24169,"lon":5.36396,"is_reserved":false,"is_disabled":false,"rental_uris":{"android":"levelo://app?vid=1fe61937-b910-47a6-b239-27852967fc66","ios":"levelo://app?vid=1fe61937-b910-47a6-b239-27852967fc66"},"vehicle_type_id":"4","last_reported":1731521498,"current_range_meters":30000,"station_id":"cpo36qri1sfpv3e86is0","pricing_plan_id":"cebpf4jnsgd1na2vs0mg"},{"bike_id":"8ea3845c-89f1-4808-82c9-46fe1c5c7e59","system_id":"levelo_inurba_marseille","lat":43.309,"lon":5.37193,"is_reserved":false,"is_disabled":false,"rental_uris":{"android":"levelo://app?vid=8ea3845c-89f1-4808-82c9-46fe1c5c7e59","ios":"levelo://app?vid=8ea3845c-89f1-4808-82c9-46fe1c5c7e59"},"vehicle_type_id":"4","last_reported":1731521498,"current_range_meters":36000,"station_id":"ce4bguh2rcd13ifvqckg","pricing_plan_id":"cebpf4jnsgd1na2vs0mg"},{"bike_id":"28969b2b-1ccf-40c6-8576-3d54fea10a8d","system_id":"levelo_inurba_marseille","lat":43.2926,"lon":5.38448,"is_reserved":false,"is_disabled":false,"rental_uris":{"android":"levelo://app?vid=28969b2b-1ccf-40c6-8576-3d54fea10a8d","ios":"levelo://app?vid=28969b2b-1ccf-40c6-8576-3d54fea10a8d"},"vehicle_type_id":"4","last_reported":1731521498,"current_range_meters":37600,"station_id":"ce4bh692rcd13ifvqea0","pricing_plan_id":"cebpf4jnsgd1na2vs0mg"},{"bike_id":"28bfeaf1-3512-48c5-87d3-34d562274384","system_id":"levelo_inurba_marseille","lat":43.30136,"lon":5.39847,"is_reserved":false,"is_disabled":false,"rental_uris":{"android":"levelo://app?vid=28bfeaf1-3512-48c5-87d3-34d562274384","ios":"levelo://app?vid=28bfeaf1-3512-48c5-87d3-34d562274384"},"vehicle_type_id":"4","last_reported":1731521498,"current_range_meters":30000,"station_id":"ce4bh0h2rcd13ifvqd40","pricing_plan_id":"cebpf4jnsgd1na2vs0mg"},{"bike_id":"435fd4f7-ba7b-448b-8d23-c875e77b09fd","system_id":"levelo_inurba_marseille","lat":43.29362,"lon":5.37857,"is_reserved":false,"is_disabled":false,"rental_uris":{"android":"levelo://app?vid=435fd4f7-ba7b-448b-8d23-c875e77b09fd","ios":"levelo://app?vid=435fd4f7-ba7b-448b-8d23-c875e77b09fd"},"vehicle_type_id":"4","last_reported":1731521498,"current_range_meters":16000,"station_id":"ce4bgjh2rcd13ifvqbf0","pricing_plan_id":"cebpf4jnsgd1na2vs0mg"},{"bike_id":"b8f54bf8-9a68-49bc-8ff7-07eb6cf6801b","system_id":"levelo_inurba_marseille","lat":43.24173,"lon":5.39733,"is_reserved":false,"is_disabled":false,"rental_uris":{"android":"levelo://app?vid=b8f54bf8-9a68-49bc-8ff7-07eb6cf6801b","ios":"levelo://app?vid=b8f54bf8-9a68-49bc-8ff7-07eb6cf6801b"},"vehicle_type_id":"4","last_reported":1731521498,"current_range_meters":20800,"station_id":"ce4bhn12rcd13ifvqgpg","pricing_plan_id":"cebpf4jnsgd1na2vs0mg"},{"bike_id":"f4af2bb1-603d-4376-b697-6f64d0c6ba5e","system_id":"levelo_inurba_marseille","lat":43.280023,"lon":5.400147,"is_reserved":false,"is_disabled":false,"rental_uris":{"android":"levelo://app?vid=f4af2bb1-603d-4376-b697-6f64d0c6ba5e","ios":"levelo://app?vid=f4af2bb1-603d-4376-b697-6f64d0c6ba5e"},"vehicle_type_id":"4","last_reported":1731521498,"current_range_meters":19600,"station_id":"ce4bho92rcd13ifvqh4g","pricing_plan_id":"cebpf4jnsgd1na2vs0mg"},{"bike_id":"e0f6135e-2ebc-4bed-8f21-12358680bb73","system_id":"levelo_inurba_marseille","lat":43.28415,"lon":5.3752,"is_reserved":false,"is_disabled":false,"rental_uris":{"android":"levelo://app?vid=e0f6135e-2ebc-4bed-8f21-12358680bb73","ios":"levelo://app?vid=e0f6135e-2ebc-4bed-8f21-12358680bb73"},"vehicle_type_id":"4","last_reported":1731521498,"current_range_meters":9600,"station_id":"ce4bh412rcd13ifvqds0","pricing_plan_id":"cebpf4jnsgd1na2vs0mg"},{"bike_id":"0646cff7-cb6a-4066-9efb-6d6e03d0f7ea","system_id":"levelo_inurba_marseille","lat":43.28853,"lon":5.35849,"is_reserved":false,"is_disabled":false,"rental_uris":{"android":"levelo://app?vid=0646cff7-cb6a-4066-9efb-6d6e03d0f7ea","ios":"levelo://app?vid=0646cff7-cb6a-4066-9efb-6d6e03d0f7ea"},"vehicle_type_id":"4","last_reported":1731521498,"current_range_meters":17200,"station_id":"ce4bhb12rcd13ifvqem0","pricing_plan_id":"cebpf4jnsgd1na2vs0mg"},{"bike_id":"a550c511-7016-4e40-8267-77215a3ec7e0","system_id":"levelo_inurba_marseille","lat":43.29517,"lon":5.39419,"is_reserved":false,"is_disabled":false,"rental_uris":{"android":"levelo://app?vid=a550c511-7016-4e40-8267-77215a3ec7e0","ios":"levelo://app?vid=a550c511-7016-4e40-8267-77215a3ec7e0"},