{"last_updated":1717607225,"ttl":30,"version":"2.2","data":{"bikes":[{"bike_id":"3a6cf906-3370-40a0-a84a-d5b0f68d65a8","system_id":"levelo_inurba_marseille","lat":43.314811,"lon":5.373104,"is_reserved":false,"is_disabled":false,"rental_uris":{"android":"levelo://app?vid=3a6cf906-3370-40a0-a84a-d5b0f68d65a8","ios":"levelo://app?vid=3a6cf906-3370-40a0-a84a-d5b0f68d65a8"},"vehicle_type_id":"4","last_reported":1717607225,"current_range_meters":2800,"station_id":"ce4bgt12rcd13ifvqcd0","pricing_plan_id":"cebpf4jnsgd1na2vs0mg"},{"bike_id":"5fb46926-1c24-44fe-98bb-0c53e285fa7b","system_id":"levelo_inurba_marseille","lat":43.309039,"lon":5.371797,"is_reserved":false,"is_disabled":false,"rental_uris":{"android":"levelo://app?vid=5fb46926-1c24-44fe-98bb-0c53e285fa7b","ios":"levelo://app?vid=5fb46926-1c24-44fe-98bb-0c53e285fa7b"},"vehicle_type_id":"4","last_reported":1717607225,"current_range_meters":13200,"station_id":"ce4bguh2rcd13ifvqckg","pricing_plan_id":"cebpf4jnsgd1na2vs0mg"},{"bike_id":"bac96751-9319-4c74-8c45-333571f3f614","system_id":"levelo_inurba_marseille","lat":43.308844,"lon":5.371957,"is_reserved":false,"is_disabled":false,"rental_uris":{"android":"levelo://app?vid=bac96751-9319-4c74-8c45-333571f3f614","ios":"levelo://app?vid=bac96751-9319-4c74-8c45-333571f3f614"},"vehicle_type_id":"4","last_reported":1717607225,"current_range_meters":0,"station_id":"ce4bguh2rcd13ifvqckg","pricing_plan_id":"cebpf4jnsgd1na2vs0mg"},{"bike_id":"75750beb-3ff0-4de7-a080-31f36c92beb6","system_id":"levelo_inurba_marseille","lat":43.309034,"lon":5.371783,"is_reserved":false,"is_disabled":false,"rental_uris":{"android":"levelo://app?vid=75750beb-3ff0-4de7-a080-31f36c92beb6","ios":"levelo://app?vid=75750beb-3ff0-4de7-a080-31f36c92beb6"},"vehicle_type_id":"4","last_reported":1717607225,"current_range_meters":15200,"station_id":"ce4bguh2rcd13ifvqckg","pricing_plan_id":"cebpf4jnsgd1na2vs0mg"},{"bike_id":"0bdc1c69-f302-4616-bfed-42fd7ce1c054","system_id":"levelo_inurba_marseille","lat":43.305499,"lon":5.367297,"is_reserved":false,"is_disabled":false,"rental_uris":{"android":"levelo://app?vid=0bdc1c69-f302-4616-bfed-42fd7ce1c054","ios":"levelo://app?vid=0bdc1c69-f302-4616-bfed-42fd7ce1c054"},"vehicle_type_id":"4","last_reported":1717607225,"current_range_meters":0,"station_id":"ce4bgrp2rcd13ifvqc9g","pricing_plan_id":"cebpf4jnsgd1na2vs0mg"},{"bike_id":"61a2c9ab-1493-48cd-916c-5b8742d8409d","system_id":"levelo_inurba_marseille","lat":43.305714,"lon":5.365633,"is_reserved":false,"is_disabled":false,"rental_uris":{"android":"levelo://app?vid=61a2c9ab-1493-48cd-916c-5b8742d8409d","ios":"levelo://app?vid=61a2c9ab-1493-48cd-916c-5b8742d8409d"},"vehicle_type_id":"4","last_reported":1717607225,"current_range_meters":1200,"station_id":"ce4bgs12rcd13ifvqcag","pricing_plan_id":"cebpf4jnsgd1na2vs0mg"},{"bike_id":"a291983c-eee8-49e5-a529-8601f764c298","system_id":"levelo_inurba_marseille","lat":43.305706,"lon":5.365654,"is_reserved":false,"is_disabled":false,"rental_uris":{"android":"levelo://app?vid=a291983c-eee8-49e5-a529-8601f764c298","ios":"levelo://app?vid=a291983c-eee8-49e5-a529-8601f764c298"},"vehicle_type_id":"4","last_reported":1717607225,"current_range_meters":17200,"station_id":"ce4bgs12rcd13ifvqcag","pricing_plan_id":"cebpf4jnsgd1na2vs0mg"},{"bike_id":"5019e2e6-9fe1-47ae-bc1f-f023b3507283","system_id":"levelo_inurba_marseille","lat":43.305989,"lon":5.37225,"is_reserved":false,"is_disabled":false,"rental_uris":{"android":"levelo://app?vid=5019e2e6-9fe1-47ae-bc1f-f023b3507283","ios":"levelo://app?vid=5019e2e6-9fe1-47ae-bc1f-f023b3507283"},"vehicle_type_id":"4","last_reported":1717607225,"current_range_meters":12000,"station_id":"ce4bgqh2rcd13ifvqc4g","pricing_plan_id":"cebpf4jnsgd1na2vs0mg"},{"bike_id":"e64943fe-1446-4648-860d-7019f30a331c","system_id":"levelo_inurba_marseille","lat":43.311125,"lon":5.377624,"is_reserved":false,"is_disabled":false,"rental_uris":{"android":"levelo://app?vid=e64943fe-1446-4648-860d-7019f30a331c","ios":"levelo://app?vid=e64943fe-1446-4648-860d-7019f30a331c"},"vehicle_type_id":"4","last_reported":1717607225,"current_range_meters":29200,"station_id":"ce4bgt92rcd13ifvqcg0","pricing_plan_id":"cebpf4jnsgd1na2vs0mg"},{"bike_id":"96e9bdc5-2b02-42ea-bae7-d7e54bdaa671","system_id":"levelo_inurba_marseille","lat":43.307945,"lon":5.376487,"is_reserved":false,"is_disabled":false,"rental_uris":{"android":"levelo://app?vid=96e9bdc5-2b02-42ea-bae7-d7e54bdaa671","ios":"levelo://app?vid=96e9bdc5-2b02-42ea-bae7-d7e54bdaa671"},"vehicle_type_id":"4","last_reported":1717607225,"current_range_meters":5600,"station_id":"ce4bgv92rcd13ifvqcq0","pricing_plan_id":"cebpf4jnsgd1na2vs0mg"},{"bike_id":"fea67f3f-9590-4c19-ba48-4d90f15e7341","system_id":"levelo_inurba_marseille","lat":43.317172,"lon":5.377022,"is_reserved":false,"is_disabled":false,"rental_uris":{"android":"levelo://app?vid=fea67f3f-9590-4c19-ba48-4d90f15e7341","ios":"levelo://app?vid=fea67f3f-9590-4c19-ba48-4d90f15e7341"},"vehicle_type_id":"4","last_reported":1717607225,"current_range_meters":0,"station_id":"ce4bgth2rcd13ifvqch0","pricing_plan_id":"cebpf4jnsgd1na2vs0mg"},{"bike_id":"ca3ea081-93f4-4f9a-bc17-469caa14c85d","system_id":"levelo_inurba_marseille","lat":43.305225,"lon":5.373454,"is_reserved":false,"is_disabled":false,"rental_uris":{"android":"levelo://app?vid=ca3ea081-93f4-4f9a-bc17-469caa14c85d","ios":"levelo://app?vid=ca3ea081-93f4-4f9a-bc17-469caa14c85d"},"vehicle_type_id":"4","last_reported":1717607225,"current_range_meters":0,"station_id":"","pricing_plan_id":"cebpf4jnsgd1na2vs0mg"},{"bike_id":"354261a4-8ee1-454c-a8b4-d2ee342f4b15","system_id":"levelo_inurba_marseille","lat":43.317075,"lon":5.377367,"is_reserved":false,"is_disabled":false,"rental_uris":{"android":"levelo://app?vid=354261a4-8ee1-454c-a8b4-d2ee342f4b15","ios":"levelo://app?vid=354261a4-8ee1-454c-a8b4-d2ee342f4b15"},"vehicle_type_id":"4","last_reported":1717607225,"current_range_meters":31600,"station_id":"ce4bgth2rcd13ifvqch0","pricing_plan_id":"cebpf4jnsgd1na2vs0mg"},{"bike_id":"c2dd7a7c-6a2f-47d6-95b6-720ecf438b39","system_id":"levelo_inurba_marseille","lat":43.301939,"lon":5.366286,"is_reserved":false,"is_disabled":false,"rental_uris":{"android":"levelo://app?vid=c2dd7a7c-6a2f-47d6-95b6-720ecf438b39","ios":"levelo://app?vid=c2dd7a7c-6a2f-47d6-95b6-720ecf438b39"},"vehicle_type_id":"4","last_reported":1717607225,"current_range_meters":1200,"station_id":"ce4bgrh2rcd13ifvqc8g","pricing_plan_id":"cebpf4jnsgd1na2vs0mg"},{"bike_id":"500d9b06-4027-4eb7-aa28-17c3879fc64e","system_id":"levelo_inurba_marseille","lat":43.308012,"lon":5.381511,"is_reserved":false,"is_disabled":false,"rental_uris":{"android":"levelo://app?vid=500d9b06-4027-4eb7-aa28-17c3879fc64e","ios":"levelo://app?vid=500d9b06-4027-4eb7-aa28-17c3879fc64e"},"vehicle_type_id":"4","last_reported":1717607225,"current_range_meters":2400,"station_id":"ce4bgt12rcd13ifvqce0","pricing_plan_id":"cebpf4jnsgd1na2vs0mg"},{"bike_id":"b64f2804-5349-451c-abbb-eac3296b05ff","system_id":"levelo_inurba_marseille","lat":43.308012,"lon":5.381511,"is_reserved":false,"is_disabled":false,"rental_uris":{"android":"levelo://app?vid=b64f2804-5349-451c-abbb-eac3296b05ff","ios":"levelo://app?vid=b64f2804-5349-451c-abbb-eac3296b05ff"},"vehicle_type_id":"4","last_reported":1717607225,"current_range_meters":0,"station_id":"ce4bgt12rcd13ifvqce0","pricing_plan_id":"cebpf4jnsgd1na2vs0mg"},{"bike_id":"f8369afd-e0f6-4710-a6e8-96e7f95d2efc","system_id":"levelo_inurba_marseille","lat":43.304606,"lon":5.379026,"is_reserved":false,"is_disabled":false,"rental_uris":{"android":"levelo://app?vid=f8369afd-e0f6-4710-a6e8-96e7f95d2efc","ios":"levelo://app?vid=f8369afd-e0f6-4710-a6e8-96e7f95d2efc"},"vehicle_type_id":"4","last_reported":1717607225,"current_range_meters":12000,"station_id":"ce4bgup2rcd13ifvqcn0","pricing_plan_id":"cebpf4jnsgd1na2vs0mg"},{"bike_id":"1379e1f1-53db-45c1-91c0-bc9cf9f49bcf","system_id":"levelo_inurba_marseille","lat":43.324771,"lon":5.36557,"is_reserved":false,"is_disabled":false,"rental_uris":{"android":"levelo://app?vid=1379e1f1-53db-45c1-91c0-bc9cf9f49bcf","ios":"levelo://app?vid=1379e1f1-53db-45c1-91c0-bc9cf9f49bcf"},"vehicle_type_id":"4","last_reported":1717607225,"current_range_meters":4800,"station_id":"ce4bhs12rcd13ifvqhvg","pricing_plan_id":"cebpf4jnsgd1na2vs0mg"},{"bike_id":"2b17ee5f-957f-412a-8df7-98c904592a7c","system_id":"levelo_inurba_marseille","lat":43.302809,"lon":5.376926,"is_reserved":false,"is_disabled":false,"rental_uris":{"android":"levelo://app?vid=2b17ee5f-957f-412a-8df7-98c904592a7c","ios":"levelo://app?vid=2b17ee5f-957f-412a-8df7-98c904592a7c"},"vehicle_type_id":"4","last_reported":1717607225,"current_range_meters":0,"station_id":"ce4bguh2rcd13ifvqcj0","pricing_plan_id":"cebpf4jnsgd1na2vs0mg"},{"bike_id":"2918ad57-19cd-42e3-8dbe-8e933ff7d4ff","system_id":"levelo_inurba_marseille","lat":43.302784,"lon":5.377158,"is_reserved":false,"is_disabled":false,"rental_uris":{"android":"levelo://app?vid=2918ad57-19cd-42e3-8dbe-8e933ff7d4ff","ios":"levelo://app?vid=2918ad57-19cd-42e3-8dbe-8e933ff7d4ff"},"vehicle_type_id":"4","last_reported":1717607225,"current_range_meters":18400,"station_id":"ce4bguh2rcd13ifvqcj0","pricing_plan_id":"cebpf4jnsgd1na2vs0mg"},{"bike_id":"656fbbde-4a45-46ce-b609-e763b25cf39e","system_id":"levelo_inurba_marseille","lat":43.301429,"lon":5.37413,"is_reserved":false,"is_disabled":false,"rental_uris":{"android":"levelo://app?vid=656fbbde-4a45-46ce-b609-e763b25cf39e","ios":"levelo://app?vid=656fbbde-4a45-46ce-b609-e763b25cf39e"},"vehicle_type_id":"4","last_reported":1717607225,"current_range_meters":400,"station_id":"ce4bgs92rcd13ifvqcc0","pricing_plan_id":"cebpf4jnsgd1na2vs0mg"},{"bike_id":"0d379623-ad55-46b3-9fc3-54315698c6e6","system_id":"levelo_inurba_marseille","lat":43.301429,"lon":5.37413,"is_reserved":false,"is_disabled":false,"rental_uris":{"android":"levelo://app?vid=0d379623-ad55-46b3-9fc3-54315698c6e6","ios":"levelo://app?vid=0d379623-ad55-46b3-9fc3-54315698c6e6"},"vehicle_type_id":"4","last_reported":1717607225,"current_range_meters":13600,"station_id":"ce4bgs92rcd13ifvqcc0","pricing_plan_id":"cebpf4jnsgd1na2vs0mg"},{"bike_id":"d3353ce1-a68e-403c-b23d-22c20c8e94a0","system_id":"levelo_inurba_marseille","lat":43.31357,"lon":5.38502,"is_reserved":false,"is_disabled":false,"rental_uris":{"android":"levelo://app?vid=d3353ce1-a68e-403c-b23d-22c20c8e94a0","ios":"levelo://app?vid=d3353ce1-a68e-403c-b23d-22c20c8e94a0"},"vehicle_type_id":"4","last_reported":1717607225,"current_range_meters":0,"station_id":"ce4bgt92rcd13ifvqcf0","pricing_plan_id":"cebpf4jnsgd1na2vs0mg"},{"bike_id":"d1353359-bc78-4881-a8c7-c240a1612a4a","system_id":"levelo_inurba_marseille","lat":43.2994,"lon":5.36555,"is_reserved":false,"is_disabled":false,"rental_uris":{"android":"levelo://app?vid=d1353359-bc78-4881-a8c7-c240a1612a4a","ios":"levelo://app?vid=d1353359-bc78-4881-a8c7-c240a1612a4a"},"vehicle_type_id":"4","last_reported":1717607225,"current_range_meters":12000,"station_id":"ce4bgm92rcd13ifvqbr0","pricing_plan_id":"cebpf4jnsgd1na2vs0mg"},{"bike_id":"ccd7e34c-961c-4435-a303-5765bb43d8b9","system_id":"levelo_inurba_marseille","lat":43.299222,"lon":5.365554,"is_reserved":false,"is_disabled":false,"rental_uris":{"android":"levelo://app?vid=ccd7e34c-961c-4435-a303-5765bb43d8b9","ios":"levelo://app?vid=ccd7e34c-961c-4435-a303-5765bb43d8b9"},"vehicle_type_id":"4","last_reported":1717607225,"current_range_meters":9200,"station_id":"ce4bgm92rcd13ifvqbr0","pricing_plan_id":"cebpf4jnsgd1na2vs0mg"},{"bike_id":"bd9e9ddd-f784-437a-8535-da4e0042a9d4","system_id":"levelo_inurba_marseille","lat":43.298433,"lon":5.362774,"is_reserved":false,"is_disabled":false,"rental_uris":{"android":"levelo://app?vid=bd9e9ddd-f784-437a-8535-da4e0042a9d4","ios":"levelo://app?vid=bd9e9ddd-f784-437a-8535-da4e0042a9d4"},"vehicle_type_id":"4","last_reported":1717607225,"current_range_meters":7200,"station_id":"ce4bgpp2rcd13ifvqc3g","pricing_plan_id":"cebpf4jnsgd1na2vs0mg"},{"bike_id":"1f743ae9-6425-41ef-abc4-2eef755b2394","system_id":"levelo_inurba_marseille","lat":43.298433,"lon":5.362774,"is_reserved":false,"is_disabled":false,"rental_uris":{"android":"levelo://app?vid=1f743ae9-6425-41ef-abc4-2eef755b2394","ios":"levelo://app?vid=1f743ae9-6425-41ef-abc4-2eef755b2394"},"vehicle_type_id":"4","last_reported":1717607225,"current_range_meters":1600,"station_id":"ce4bgpp2rcd13ifvqc3g","pricing_plan_id":"cebpf4jnsgd1na2vs0mg"},{"bike_id":"37a872c4-7001-4233-bad5-e734a908237d","system_id":"levelo_inurba_marseille","lat":43.298433,"lon":5.362774,"is_reserved":false,"is_disabled":false,"rental_uris":{"android":"levelo://app?vid=37a872c4-7001-4233-bad5-e734a908237d","ios":"levelo://app?vid=37a872c4-7001-4233-bad5-e734a908237d"},"vehicle_type_id":"4","last_reported":1717607225,"current_range_meters":1600,"station_id":"ce4bgpp2rcd13ifvqc3g","pricing_plan_id":"cebpf4jnsgd1na2vs0mg"},{"bike_id":"bc93c577-7323-425a-93dc-f8b1bc059725","system_id":"levelo_inurba_marseille","lat":43.297163,"lon":5.365866,"is_reserved":false,"is_disabled":false,"rental_uris":{"android":"levelo://app?vid=bc93c577-7323-425a-93dc-f8b1bc059725","ios":"levelo://app?vid=bc93c577-7323-425a-93dc-f8b1bc059725"},"vehicle_type_id":"4","last_reported":1717607225,"current_range_meters":0,"station_id":"ce4bgn12rcd13ifvqbt0","pricing_plan_id":"cebpf4jnsgd1na2vs0mg"},{"bike_id":"a9fddae9-f849-45ea-85f6-61d4b4494ce7","system_id":"levelo_inurba_marseille","lat":43.31175,"lon":5.38715,"is_reserved":false,"is_disabled":false,"rental_uris":{"android":"levelo://app?vid=a9fddae9-f849-45ea-85f6-61d4b4494ce7","ios":"levelo://app?vid=a9fddae9-f849-45ea-85f6-61d4b4494ce7"},"vehicle_type_id":"4","last_reported":1717607225,"current_range_meters":0,"station_id":"ce4bgv12rcd13ifvqcp0","pricing_plan_id":"cebpf4jnsgd1na2vs0mg"},{"bike_id":"846b7d58-7913-4ae4-9acd-6c5f4fdbf711","system_id":"levelo_inurba_marseille","lat":43.313571,"lon":5.384829,"is_reserved":false,"is_disabled":false,"rental_uris":{"android":"levelo://app?vid=846b7d58-7913-4ae4-9acd-6c5f4fdbf711","ios":"levelo://app?vid=846b7d58-7913-4ae4-9acd-6c5f4fdbf711"},"vehicle_type_id":"4","last_reported":1717607225,"current_range_meters":26400,"station_id":"ce4bgt92rcd13ifvqcf0","pricing_plan_id":"cebpf4jnsgd1na2vs0mg"},{"bike_id":"86441c14-511f-4209-a2ef-2ac1cc75eff0","system_id":"levelo_inurba_marseille","lat":43.299243,"lon":5.37481,"is_reserved":false,"is_disabled":false,"rental_uris":{"android":"levelo://app?vid=86441c14-511f-4209-a2ef-2ac1cc75eff0","ios":"levelo://app?vid=86441c14-511f-4209-a2ef-2ac1cc75eff0"},"vehicle_type_id":"4","last_reported":1717607225,"current_range_meters":2000,"station_id":"ce4bgjh2rcd13ifvqbg0","pricing_plan_id":"cebpf4jnsgd1na2vs0mg"},{"bike_id":"ebbe1b0f-1a70-45d5-a850-cacca5bb4fe7","system_id":"levelo_inurba_marseille","lat":43.301213,"lon":5.380489,"is_reserved":false,"is_disabled":false,"rental_uris":{"android":"levelo://app?vid=ebbe1b0f-1a70-45d5-a850-cacca5bb4fe7","ios":"levelo://app?vid=ebbe1b0f-1a70-45d5-a850-cacca5bb4fe7"},"vehicle_type_id":"4","last_reported":1717607225,"current_range_meters":11600,"station_id":"","pricing_plan_id":"cebpf4jnsgd1na2vs0mg"},{"bike_id":"0c29bb83-bd86-460d-aca6-3050fddd6e11","system_id":"levelo_inurba_marseille","lat":43.297877,"lon":5.371151,"is_reserved":false,"is_disabled":false,"rental_uris":{"android":"levelo://app?vid=0c29bb83-bd86-460d-aca6-3050fddd6e11","ios":"levelo://app?vid=0c29bb83-bd86-460d-aca6-3050fddd6e11"},"vehicle_type_id":"4","last_reported":1717607225,"current_range_meters":2000,"station_id":"ce4bgop2rcd13ifvqc1g","pricing_plan_id":"cebpf4jnsgd1na2vs0mg"},{"bike_id":"e5f7a510-1433-43d7-b3dc-e49a942ad5bd","system_id":"levelo_inurba_marseille","lat":43.297739,"lon":5.371072,"is_reserved":false,"is_disabled":false,"rental_uris":{"android":"levelo://app?vid=e5f7a510-1433-43d7-b3dc-e49a942ad5bd","ios":"levelo://app?vid=e5f7a510-1433-43d7-b3dc-e49a942ad5bd"},"vehicle_type_id":"4","last_reported":1717607225,"current_range_meters":0,"station_id":"ce4bgop2rcd13ifvqc1g","pricing_plan_id":"cebpf4jnsgd1na2vs0mg"},{"bike_id":"e6dddc69-4948-4ee4-bd7b-8cdf19305176","system_id":"levelo_inurba_marseille","lat":43.322872,"lon":5.382756,"is_reserved":false,"is_disabled":false,"rental_uris":{"android":"levelo://app?vid=e6dddc69-4948-4ee4-bd7b-8cdf19305176","ios":"levelo://app?vid=e6dddc69-4948-4ee4-bd7b-8cdf19305176"},"vehicle_type_id":"4","last_reported":1717607225,"current_range_meters":5200,"station_id":"ce4bhr12rcd13ifvqhqg","pricing_plan_id":"cebpf4jnsgd1na2vs0mg"},{"bike_id":"b872c82b-d408-4690-b2d0-9ee8a6f55c32","system_id":"levelo_inurba_marseille","lat":43.296893,"lon":5.36629,"is_reserved":false,"is_disabled":false,"rental_uris":{"android":"levelo://app?vid=b872c82b-d408-4690-b2d0-9ee8a6f55c32","ios":"levelo://app?vid=b872c82b-d408-4690-b2d0-9ee8a6f55c32"},"vehicle_type_id":"4","last_reported":1717607225,"current_range_meters":0,"station_id":"ce4bgn12rcd13ifvqbt0","pricing_plan_id":"cebpf4jnsgd1na2vs0mg"},{"bike_id":"0630808b-b6d9-4138-8f3d-e0a6375eb3c1","system_id":"levelo_inurba_marseille","lat":43.32131,"lon":5.38679,"is_reserved":false,"is_disabled":false,"rental_uris":{"android":"levelo://app?vid=0630808b-b6d9-4138-8f3d-e0a6375eb3c1","ios":"levelo://app?vid=0630808b-b6d9-4138-8f3d-e0a6375eb3c1"},"vehicle_type_id":"4","last_reported":1717607225,"current_range_meters":6800,"station_id":"","pricing_plan_id":"cebpf4jnsgd1na2vs0mg"},{"bike_id":"ecf2266e-f343-4691-b33d-758de37bb516","system_id":"levelo_inurba_marseille","lat":43.296129,"lon":5.370777,"is_reserved":false,"is_disabled":false,"rental_uris":{"android":"levelo://app?vid=ecf2266e-f343-4691-b33d-758de37bb516","ios":"levelo://app?vid=ecf2266e-f343-4691-b33d-758de37bb516"},"vehicle_type_id":"4","last_reported":1717607225,"current_range_meters":25600,"station_id":"ce4bgnh2rcd13ifvqc0g","pricing_plan_id":"cebpf4jnsgd1na2vs0mg"},{"bike_id":"09c7ee68-6267-4315-8079-373c584a5046","system_id":"levelo_inurba_marseille","lat":43.29573,"lon":5.367355,"is_reserved":false,"is_disabled":false,"rental_uris":{"android":"levelo://app?vid=09c7ee68-6267-4315-8079-373c584a5046","ios":"levelo://app?vid=09c7ee68-6267-4315-8079-373c584a5046"},"vehicle_type_id":"4","last_reported":1717607225,"current_range_meters":0,"station_id":"ce4bgph2rcd13ifvqc2g","pricing_plan_id":"cebpf4jnsgd1na2vs0mg"},{"bike_id":"a6906285-2754-4f41-a789-6160095b2d4c","system_id":"levelo_inurba_marseille","lat":43.309293,"lon":5.390388,"is_reserved":false,"is_disabled":false,"rental_uris":{"android":"levelo://app?vid=a6906285-2754-4f41-a789-6160095b2d4c","ios":"levelo://app?vid=a6906285-2754-4f41-a789-6160095b2d4c"},"vehicle_type_id":"4","last_reported":1717607225,"current_range_meters":0,"station_id":"ce4bgup2rcd13ifvqco0","pricing_plan_id":"cebpf4jnsgd1na2vs0mg"},{"bike_id":"42a8d46f-2623-4804-b57f-79ceba262a3e","system_id":"levelo_inurba_marseille","lat":43.317569,"lon":5.390178,"is_reserved":false,"is_disabled":false,"rental_uris":{"android":"levelo://app?vid=42a8d46f-2623-4804-b57f-79ceba262a3e","ios":"levelo://app?vid=42a8d46f-2623-4804-b57f-79ceba262a3e"},"vehicle_type_id":"4","last_reported":1717607225,"current_range_meters":13200,"station_id":"ce4bhqp2rcd13ifvqhng","pricing_plan_id":"cebpf4jnsgd1na2vs0mg"},{"bike_id":"1303649a-b9d0-480b-9d23-869200162d11","system_id":"levelo_inurba_marseille","lat":43.296972,"lon":5.37767,"is_reserved":false,"is_disabled":false,"rental_uris":{"android":"levelo://app?vid=1303649a-b9d0-480b-9d23-869200162d11","ios":"levelo://app?vid=1303649a-b9d0-480b-9d23-869200162d11"},"vehicle_type_id":"4","last_reported":1717607225,"current_range_meters":0,"station_id":"","pricing_plan_id":"cebpf4jnsgd1na2vs0mg"},{"bike_id":"15872b41-2c68-4062-91d3-9cbfae0d7c27","system_id":"levelo_inurba_marseille","lat":43.304274,"lon":5.388873,"is_reserved":false,"is_disabled":false,"rental_uris":{"android":"levelo://app?vid=15872b41-2c68-4062-91d3-9cbfae0d7c27","ios":"levelo://app?vid=15872b41-2c68-4062-91d3-9cbfae0d7c27"},"vehicle_type_id":"4","last_reported":1717607225,"current_range_meters":16400,"station_id":"ce4bgk12rcd13ifvqbi0","pricing_plan_id":"cebpf4jnsgd1na2vs0mg"},{"bike_id":"6d30a66e-87af-4bf0-ae9d-634838ae5764","system_id":"levelo_inurba_marseille","lat":43.295748,"lon":5.37522,"is_reserved":false,"is_disabled":false,"rental_uris":{"android":"levelo://app?vid=6d30a66e-87af-4bf0-ae9d-634838ae5764","ios":"levelo://app?vid=6d30a66e-87af-4bf0-ae9d-634838ae5764"},"vehicle_type_id":"4","last_reported":1717607225,"current_range_meters":1600,"station_id":"ce4bgh92rcd13ifvqb50","pricing_plan_id":"cebpf4jnsgd1na2vs0mg"},{"bike_id":"04ba9770-5991-4bce-ad37-9ce22e1d574c","system_id":"levelo_inurba_marseille","lat":43.295979,"lon":5.376336,"is_reserved":false,"is_disabled":false,"rental_uris":{"android":"levelo://app?vid=04ba9770-5991-4bce-ad37-9ce22e1d574c","ios":"levelo://app?vid=04ba9770-5991-4bce-ad37-9ce22e1d574c"},"vehicle_type_id":"4","last_reported":1717607225,"current_range_meters":18000,"station_id":"","pricing_plan_id":"cebpf4jnsgd1na2vs0mg"},{"bike_id":"e8609f74-b459-47da-aacd-2c8b14b24067","system_id":"levelo_inurba_marseille","lat":43.2961,"lon":5.37726,"is_reserved":false,"is_disabled":false,"rental_uris":{"android":"levelo://app?vid=e8609f74-b459-47da-aacd-2c8b14b24067","ios":"levelo://app?vid=e8609f74-b459-47da-aacd-2c8b14b24067"},"vehicle_type_id":"4","last_reported":1717607225,"current_range_meters":0,"station_id":"ce4bgi92rcd13ifvqb90","pricing_plan_id":"cebpf4jnsgd1na2vs0mg"},{"bike_id":"0fece3b2-5a15-46e9-8616-52a2ba9a5df8","system_id":"levelo_inurba_marseille","lat":43.295279,"lon":5.375048,"is_reserved":false,"is_disabled":false,"rental_uris":{"android":"levelo://app?vid=0fece3b2-5a15-46e9-8616-52a2ba9a5df8","ios":"levelo://app?vid=0fece3b2-5a15-46e9-8616-52a2ba9a5df8"},"vehicle_type_id":"4","last_reported":1717607225,"current_range_meters":19200,"station_id":"ce4bgkp2rcd13ifvqbmg","pricing_plan_id":"cebpf4jnsgd1na2vs0mg"},{"bike_id":"5784ec7d-5411-4785-83f0-65fa850a7c4d","system_id":"levelo_inurba_marseille","lat":43.298037,"lon":5.381066,"is_reserved":false,"is_disabled":false,"rental_uris":{"android":"levelo://app?vid=5784ec7d-5411-4785-83f0-65fa850a7c4d","ios":"levelo://app?vid=5784ec7d-5411-4785-83f0-65fa850a7c4d"},"vehicle_type_id":"4","last_reported":1717607225,"current_range_meters":0,"station_id":"ce4bgip2rcd13ifvqbb0","pricing_plan_id":"cebpf4jnsgd1na2vs0mg"},{"bike_id":"a45bf744-7879-4112-82f4-3bbe79651654","system_id":"levelo_inurba_marseille","lat":43.299724,"lon":5.384848,"is_reserved":false,"is_disabled":false,"rental_uris":{"android":"levelo://app?vid=a45bf744-7879-4112-82f4-3bbe79651654","ios":"levelo://app?vid=a45bf744-7879-4112-82f4-3bbe79651654"},"vehicle_type_id":"4","last_reported":1717607225,"current_range_meters":4400,"station_id":"ce4bgj92rcd13ifvqbd0","pricing_plan_id":"cebpf4jnsgd1na2vs0mg"},{"bike_id":"0c0cc8fc-710b-422f-b89c-9b91decd30a5","system_id":"levelo_inurba_marseille","lat":43.302992,"lon":5.392136,"is_reserved":false,"is_disabled":false,"rental_uris":{"android":"levelo://app?vid=0c0cc8fc-710b-422f-b89c-9b91decd30a5","ios":"levelo://app?vid=0c0cc8fc-710b-422f-b89c-9b91decd30a5"},"vehicle_type_id":"4","last_reported":1717607225,"current_range_meters":10400,"station_id":"ce4bgkh2rcd13ifvqbk0","pricing_plan_id":"cebpf4jnsgd1na2vs0mg"},{"bike_id":"4c7951c2-9e30-4244-afe8-d6ee28722787","system_id":"levelo_inurba_marseille","lat":43.29969,"lon":5.38631,"is_reserved":false,"is_disabled":false,"rental_uris":{"android":"levelo://app?vid=4c7951c2-9e30-4244-afe8-d6ee28722787","ios":"levelo://app?vid=4c7951c2-9e30-4244-afe8-d6ee28722787"},"vehicle_type_id":"4","last_reported":1717607225,"current_range_meters":6800,"station_id":"","pricing_plan_id":"cebpf4jnsgd1na2vs0mg"},{"bike_id":"af59b842-f0bd-44c9-9ed3-34894edaf7c8","system_id":"levelo_inurba_marseille","lat":43.32367,"lon":5.388836,"is_reserved":false,"is_disabled":false,"rental_uris":{"android":"levelo://app?vid=af59b842-f0bd-44c9-9ed3-34894edaf7c8","ios":"levelo://app?vid=af59b842-f0bd-44c9-9ed3-34894edaf7c8"},"vehicle_type_id":"4","last_reported":1717607225,"current_range_meters":10800,"station_id":"ce4bhqp2rcd13ifvqhog","pricing_plan_id":"cebpf4jnsgd1na2vs0mg"},{"bike_id":"cd2599f1-b31d-4cdf-be17-3e6fa3d6a23e","system_id":"levelo_inurba_marseille","lat":43.323651,"lon":5.388865,"is_reserved":false,"is_disabled":false,"rental_uris":{"android":"levelo://app?vid=cd2599f1-b31d-4cdf-be17-3e6fa3d6a23e","ios":"levelo://app?vid=cd2599f1-b31d-4cdf-be17-3e6fa3d6a23e"},"vehicle_type_id":"4","last_reported":1717607225,"current_range_meters":2400,"station_id":"ce4bhqp2rcd13ifvqhog","pricing_plan_id":"cebpf4jnsgd1na2vs0mg"},{"bike_id":"dfcc4822-5cfa-471e-aae1-0365fb810715","system_id":"levelo_inurba_marseille","lat":43.32368,"lon":5.38885,"is_reserved":false,"is_disabled":false,"rental_uris":{"android":"levelo://app?vid=dfcc4822-5cfa-471e-aae1-0365fb810715","ios":"levelo://app?vid=dfcc4822-5cfa-471e-aae1-0365fb810715"},"vehicle_type_id":"4","last_reported":1717607225,"current_range_meters":1600,"station_id":"ce4bhqp2rcd13ifvqhog","pricing_plan_id":"cebpf4jnsgd1na2vs0mg"},{"bike_id":"6af6f914-cdb3-42c4-90f9-57cc8c892b49","system_id":"levelo_inurba_marseille","lat":43.32367,"lon":5.388836,"is_reserved":false,"is_disabled":false,"rental_uris":{"android":"levelo://app?vid=6af6f914-cdb3-42c4-90f9-57cc8c892b49","ios":"levelo://app?vid=6af6f914-cdb3-42c4-90f9-57cc8c892b49"},"vehicle_type_id":"4","last_reported":1717607225,"current_range_meters":9200,"station_id":"ce4bhqp2rcd13ifvqhog","pricing_plan_id":"cebpf4jnsgd1na2vs0mg"},{"bike_id":"ade68a43-b5be-4e1a-94e2-1f256a9e65b8","system_id":"levelo_inurba_marseille","lat":43.29603,"lon":5.38103,"is_reserved":false,"is_disabled":false,"rental_uris":{"android":"levelo://app?vid=ade68a43-b5be-4e1a-94e2-1f256a9e65b8","ios":"levelo://app?vid=ade68a43-b5be-4e1a-94e2-1f256a9e65b8"},"vehicle_type_id":"4","last_reported":1717607225,"current_range_meters":0,"station_id":"ce4bgl12rcd13ifvqbo0","pricing_plan_id":"cebpf4jnsgd1na2vs0mg"},{"bike_id":"babf990e-b17a-490e-ad2c-18f4c017200e","system_id":"levelo_inurba_marseille","lat":43.293259,"lon":5.371586,"is_reserved":false,"is_disabled":false,"rental_uris":{"android":"levelo://app?vid=babf990e-b17a-490e-ad2c-18f4c017200e","ios":"levelo://app?vid=babf990e-b17a-490e-ad2c-18f4c017200e"},"vehicle_type_id":"4","last_reported":1717607225,"current_range_meters":23200,"station_id":"ce4bgh92rcd13ifvqb40","pricing_plan_id":"cebpf4jnsgd1na2vs0mg"},{"bike_id":"da471334-d0a7-4350-a763-de89b8e35807","system_id":"levelo_inurba_marseille","lat":43.292782,"lon":5.368303,"is_reserved":false,"is_disabled":false,"rental_uris":{"android":"levelo://app?vid=da471334-d0a7-4350-a763-de89b8e35807","ios":"levelo://app?vid=da471334-d0a7-4350-a763-de89b8e35807"},"vehicle_type_id":"4","last_reported":1717607225,"current_range_meters":0,"station_id":"ce4bhbp2rcd13ifvqesg","pricing_plan_id":"cebpf4jnsgd1na2vs0mg"},{"bike_id":"b9f36b4c-4229-4d3d-9392-d62eabae5c89","system_id":"levelo_inurba_marseille","lat":43.293259,"lon":5.371586,"is_reserved":false,"is_disabled":false,"rental_uris":{"android":"levelo://app?vid=b9f36b4c-4229-4d3d-9392-d62eabae5c89","ios":"levelo://app?vid=b9f36b4c-4229-4d3d-9392-d62eabae5c89"},"vehicle_type_id":"4","last_reported":1717607225,"current_range_meters":0,"station_id":"ce4bgh92rcd13ifvqb40","pricing_plan_id":"cebpf4jnsgd1na2vs0mg"},{"bike_id":"23afc97b-955d-4cbb-a5f4-cf18f75d5c4d","system_id":"levelo_inurba_marseille","lat":43.293249,"lon":5.371578,"is_reserved":false,"is_disabled":false,"rental_uris":{"android":"levelo://app?vid=23afc97b-955d-4cbb-a5f4-cf18f75d5c4d","ios":"levelo://app?vid=23afc97b-955d-4cbb-a5f4-cf18f75d5c4d"},"vehicle_type_id":"4","last_reported":1717607225,"current_range_meters":2000,"station_id":"ce4bgh92rcd13ifvqb40","pricing_plan_id":"cebpf4jnsgd1na2vs0mg"},{"bike_id":"25898116-c843-404d-a8cb-afc36b3a94f4","system_id":"levelo_inurba_marseille","lat":43.292749,"lon":5.368402,"is_reserved":false,"is_disabled":false,"rental_uris":{"android":"levelo://app?vid=25898116-c843-404d-a8cb-afc36b3a94f4","ios":"levelo://app?vid=25898116-c843-404d-a8cb-afc36b3a94f4"},"vehicle_type_id":"4","last_reported":1717607225,"current_range_meters":29200,"station_id":"ce4bhbp2rcd13ifvqesg","pricing_plan_id":"cebpf4jnsgd1na2vs0mg"},{"bike_id":"38f261ec-8873-4b5a-84e9-2eff1fa4f7f1","system_id":"levelo_inurba_marseille","lat":43.292749,"lon":5.368402,"is_reserved":false,"is_disabled":false,"rental_uris":{"android":"levelo://app?vid=38f261ec-8873-4b5a-84e9-2eff1fa4f7f1","ios":"levelo://app?vid=38f261ec-8873-4b5a-84e9-2eff1fa4f7f1"},"vehicle_type_id":"4","last_reported":1717607225,"current_range_meters":0,"station_id":"ce4bhbp2rcd13ifvqesg","pricing_plan_id":"cebpf4jnsgd1na2vs0mg"},{"bike_id":"ed491945-bab9-47d7-bd32-0e56cfd6d2fd","system_id":"levelo_inurba_marseille","lat":43.293259,"lon":5.371586,"is_reserved":false,"is_disabled":false,"rental_uris":{"android":"levelo://app?vid=ed491945-bab9-47d7-bd32-0e56cfd6d2fd","ios":"levelo://app?vid=ed491945-bab9-47d7-bd32-0e56cfd6d2fd"},"vehicle_type_id":"4","last_reported":1717607225,"current_range_meters":0,"station_id":"ce4bgh92rcd13ifvqb40","pricing_plan_id":"cebpf4jnsgd1na2vs0mg"},{"bike_id":"04010f4f-8ed3-4e9b-8b9a-5b7b9af762d5","system_id":"levelo_inurba_marseille","lat":43.29306,"lon":5.37455,"is_reserved":false,"is_disabled":false,"rental_uris":{"android":"levelo://app?vid=04010f4f-8ed3-4e9b-8b9a-5b7b9af762d5","ios":"levelo://app?vid=04010f4f-8ed3-4e9b-8b9a-5b7b9af762d5"},"vehicle_type_id":"4","last_reported":1717607225,"current_range_meters":29200,"station_id":"ce4bgi12rcd13ifvqb70","pricing_plan_id":"cebpf4jnsgd1na2vs0mg"},{"bike_id":"f2c2a2e3-17a8-4527-9827-fedcbda8b4a5","system_id":"levelo_inurba_marseille","lat":43.302992,"lon":5.392136,"is_reserved":false,"is_disabled":false,"rental_uris":{"android":"levelo://app?vid=f2c2a2e3-17a8-4527-9827-fedcbda8b4a5","ios":"levelo://app?vid=f2c2a2e3-17a8-4527-9827-fedcbda8b4a5"},"vehicle_type_id":"4","last_reported":1717607225,"current_range_meters":10000,"station_id":"ce4bgkh2rcd13ifvqbk0","pricing_plan_id":"cebpf4jnsgd1na2vs0mg"},{"bike_id":"c5e1e991-443d-4a01-834b-789063d80e0d","system_id":"levelo_inurba_marseille","lat":43.2936,"lon":5.37835,"is_reserved":false,"is_disabled":false,"rental_uris":{"android":"levelo://app?vid=c5e1e991-443d-4a01-834b-789063d80e0d","ios":"levelo://app?vid=c5e1e991-443d-4a01-834b-789063d80e0d"},"vehicle_type_id":"4","last_reported":1717607225,"current_range_meters":0,"station_id":"ce4bgjh2rcd13ifvqbf0","pricing_plan_id":"cebpf4jnsgd1na2vs0mg"},{"bike_id":"9b3cc1b0-f102-4872-978c-d010c8010d7d","system_id":"levelo_inurba_marseille","lat":43.292267,"lon":5.361691,"is_reserved":false,"is_disabled":false,"rental_uris":{"android":"levelo://app?vid=9b3cc1b0-f102-4872-978c-d010c8010d7d","ios":"levelo://app?vid=9b3cc1b0-f102-4872-978c-d010c8010d7d"},"vehicle_type_id":"4","last_reported":1717607225,"current_range_meters":10400,"station_id":"","pricing_plan_id":"cebpf4jnsgd1na2vs0mg"},{"bike_id":"84489e72-85e8-47cd-8767-bfd3ce74f872","system_id":"levelo_inurba_marseille","lat":43.30337,"lon":5.39252,"is_reserved":false,"is_disabled":false,"rental_uris":{"android":"levelo://app?vid=84489e72-85e8-47cd-8767-bfd3ce74f872","ios":"levelo://app?vid=84489e72-85e8-47cd-8767-bfd3ce74f872"},"vehicle_type_id":"4","last_reported":1717607225,"current_range_meters":1200,"station_id":"","pricing_plan_id":"cebpf4jnsgd1na2vs0mg"},{"bike_id":"80699f07-4cc2-4edb-8507-f626bdada1d0","system_id":"levelo_inurba_marseille","lat":43.302992,"lon":5.392136,"is_reserved":false,"is_disabled":false,"rental_uris":{"android":"levelo://app?vid=80699f07-4cc2-4edb-8507-f626bdada1d0","ios":"levelo://app?vid=80699f07-4cc2-4edb-8507-f626bdada1d0"},"vehicle_type_id":"4","last_reported":1717607225,"current_range_meters":10800,"station_id":"ce4bgkh2rcd13ifvqbk0","pricing_plan_id":"cebpf4jnsgd1na2vs0mg"},{"bike_id":"e50d7105-6f85-45a0-80e1-eece4b5cdcac","system_id":"levelo_inurba_marseille","lat":43.292311,"lon":5.360731,"is_reserved":false,"is_disabled":false,"rental_uris":{"android":"levelo://app?vid=e50d7105-6f85-45a0-80e1-eece4b5cdcac","ios":"levelo://app?vid=e50d7105-6f85-45a0-80e1-eece4b5cdcac"},"vehicle_type_id":"4","last_reported":1717607225,"current_range_meters":1600,"station_id":"ce4bhbh2rcd13ifvqeqg","pricing_plan_id":"cebpf4jnsgd1na2vs0mg"},{"bike_id":"984dd890-7cfd-4253-9567-13570bea3f84","system_id":"levelo_inurba_marseille","lat":43.292311,"lon":5.360731,"is_reserved":false,"is_disabled":false,"rental_uris":{"android":"levelo://app?vid=984dd890-7cfd-4253-9567-13570bea3f84","ios":"levelo://app?vid=984dd890-7cfd-4253-9567-13570bea3f84"},"vehicle_type_id":"4","last_reported":1717607225,"current_range_meters":0,"station_id":"ce4bhbh2rcd13ifvqeqg","pricing_plan_id":"cebpf4jnsgd1na2vs0mg"},{"bike_id":"e887a5c8-2cb9-4f25-bf43-1a045ced2465","system_id":"levelo_inurba_marseille","lat":43.292311,"lon":5.360731,"is_reserved":false,"is_disabled":false,"rental_uris":{"android":"levelo://app?vid=e887a5c8-2cb9-4f25-bf43-1a045ced2465","ios":"levelo://app?vid=e887a5c8-2cb9-4f25-bf43-1a045ced2465"},"vehicle_type_id":"4","last_reported":1717607225,"current_range_meters":6800,"station_id":"ce4bhbh2rcd13ifvqeqg","pricing_plan_id":"cebpf4jnsgd1na2vs0mg"},{"bike_id":"f3d9466b-64b5-4dca-820f-43fe042b340a","system_id":"levelo_inurba_marseille","lat":43.292311,"lon":5.360731,"is_reserved":false,"is_disabled":false,"rental_uris":{"android":"levelo://app?vid=f3d9466b-64b5-4dca-820f-43fe042b340a","ios":"levelo://app?vid=f3d9466b-64b5-4dca-820f-43fe042b340a"},"vehicle_type_id":"4","last_reported":1717607225,"current_range_meters":15200,"station_id":"ce4bhbh2rcd13ifvqeqg","pricing_plan_id":"cebpf4jnsgd1na2vs0mg"},{"bike_id":"6bbb7534-31b1-4c84-b14b-c856676881ae","system_id":"levelo_inurba_marseille","lat":43.29224,"lon":5.36084,"is_reserved":false,"is_disabled":false,"rental_uris":{"android":"levelo://app?vid=6bbb7534-31b1-4c84-b14b-c856676881ae","ios":"levelo://app?vid=6bbb7534-31b1-4c84-b14b-c856676881ae"},"vehicle_type_id":"4","last_reported":1717607225,"current_range_meters":0,"station_id":"ce4bgj92rcd13ifvqbe0","pricing_plan_id":"cebpf4jnsgd1na2vs0mg"},{"bike_id":"737d9841-db46-4133-8675-71638e5416de","system_id":"levelo_inurba_marseille","lat":43.303434,"lon":5.392826,"is_reserved":false,"is_disabled":false,"rental_uris":{"android":"levelo://app?vid=737d9841-db46-4133-8675-71638e5416de","ios":"levelo://app?vid=737d9841-db46-4133-8675-71638e5416de"},"vehicle_type_id":"4","last_reported":1717607225,"current_range_meters":0,"station_id":"","pricing_plan_id":"cebpf4jnsgd1na2vs0mg"},{"bike_id":"55cbef4b-2f63-4efc-8eec-a7c35ed8bb29","system_id":"levelo_inurba_marseille","lat":43.29223,"lon":5.36057,"is_reserved":false,"is_disabled":false,"rental_uris":{"android":"levelo://app?vid=55cbef4b-2f63-4efc-8eec-a7c35ed8bb29","ios":"levelo://app?vid=55cbef4b-2f63-4efc-8eec-a7c35ed8bb29"},"vehicle_type_id":"4","last_reported":1717607225,"current_range_meters":0,"station_id":"ce4bhbh2rcd13ifvqeqg","pricing_plan_id":"cebpf4jnsgd1na2vs0mg"},{"bike_id":"bb2ae5ad-4a4c-446f-ab54-df7fa393e034","system_id":"levelo_inurba_marseille","lat":43.30085,"lon":5.390856,"is_reserved":false,"is_disabled":false,"rental_uris":{"android":"levelo://app?vid=bb2ae5ad-4a4c-446f-ab54-df7fa393e034","ios":"levelo://app?vid=bb2ae5ad-4a4c-446f-ab54-df7fa393e034"},"vehicle_type_id":"4","last_reported":1717607225,"current_range_meters":29200,"station_id":"ce4bh192rcd13ifvqdb0","pricing_plan_id":"cebpf4jnsgd1na2vs0mg"},{"bike_id":"44c0c06d-b85d-4fe0-9e82-64c34ffdff02","system_id":"levelo_inurba_marseille","lat":43.30085,"lon":5.390856,"is_reserved":false,"is_disabled":false,"rental_uris":{"android":"levelo://app?vid=44c0c06d-b85d-4fe0-9e82-64c34ffdff02","ios":"levelo://app?vid=44c0c06d-b85d-4fe0-9e82-64c34ffdff02"},"vehicle_type_id":"4","last_reported":1717607225,"current_range_meters":12000,"station_id":"ce4bh192rcd13ifvqdb0","pricing_plan_id":"cebpf4jnsgd1na2vs0mg"},{"bike_id":"bac93e3e-f07e-4162-a058-3196c2a82b8e","system_id":"levelo_inurba_marseille","lat":43.302992,"lon":5.392136,"is_reserved":false,"is_disabled":false,"rental_uris":{"android":"levelo://app?vid=bac93e3e-f07e-4162-a058-3196c2a82b8e","ios":"levelo://app?vid=bac93e3e-f07e-4162-a058-3196c2a82b8e"},"vehicle_type_id":"4","last_reported":1717607225,"current_range_meters":31200,"station_id":"ce4bgkh2rcd13ifvqbk0","pricing_plan_id":"cebpf4jnsgd1na2vs0mg"},{"bike_id":"4ee9fba3-ff09-40aa-97d2-244d5e2b4b3a","system_id":"levelo_inurba_marseille","lat":43.29269,"lon":5.37638,"is_reserved":false,"is_disabled":false,"rental_uris":{"android":"levelo://app?vid=4ee9fba3-ff09-40aa-97d2-244d5e2b4b3a","ios":"levelo://app?vid=4ee9fba3-ff09-40aa-97d2-244d5e2b4b3a"},"vehicle_type_id":"4","last_reported":1717607225,"current_range_meters":14800,"station_id":"","pricing_plan_id":"cebpf4jnsgd1na2vs0mg"},{"bike_id":"2a8a1d34-53d1-4023-939a-f8011a4459af","system_id":"levelo_inurba_marseille","lat":43.291671,"lon":5.371575,"is_reserved":false,"is_disabled":false,"rental_uris":{"android":"levelo://app?vid=2a8a1d34-53d1-4023-939a-f8011a4459af","ios":"levelo://app?vid=2a8a1d34-53d1-4023-939a-f8011a4459af"},"vehicle_type_id":"4","last_reported":1717607225,"current_range_meters":25200,"station_id":"ce4bha92rcd13ifvqeh0","pricing_plan_id":"cebpf4jnsgd1na2vs0mg"},{"bike_id":"041d6000-7563-4bff-84fb-e0bdb5a09769","system_id":"levelo_inurba_marseille","lat":43.298764,"lon":5.388973,"is_reserved":false,"is_disabled":false,"rental_uris":{"android":"levelo://app?vid=041d6000-7563-4bff-84fb-e0bdb5a09769","ios":"levelo://app?vid=041d6000-7563-4bff-84fb-e0bdb5a09769"},"vehicle_type_id":"4","last_reported":1717607225,"current_range_meters":0,"station_id":"ce4bh392rcd13ifvqdl0","pricing_plan_id":"cebpf4jnsgd1na2vs0mg"},{"bike_id":"6260dd2e-3a28-4450-bf85-95d1cef5b0d2","system_id":"levelo_inurba_marseille","lat":43.291671,"lon":5.371575,"is_reserved":false,"is_disabled":false,"rental_uris":{"android":"levelo://app?vid=6260dd2e-3a28-4450-bf85-95d1cef5b0d2","ios":"levelo://app?vid=6260dd2e-3a28-4450-bf85-95d1cef5b0d2"},"vehicle_type_id":"4","last_reported":1717607225,"current_range_meters":8000,"station_id":"ce4bha92rcd13ifvqeh0","pricing_plan_id":"cebpf4jnsgd1na2vs0mg"},{"bike_id":"f8938e2f-12aa-4836-8a08-69ab88c44885","system_id":"levelo_inurba_marseille","lat":43.291671,"lon":5.371575,"is_reserved":false,"is_disabled":false,"rental_uris":{"android":"levelo://app?vid=f8938e2f-12aa-4836-8a08-69ab88c44885","ios":"levelo://app?vid=f8938e2f-12aa-4836-8a08-69ab88c44885"},"vehicle_type_id":"4","last_reported":1717607225,"current_range_meters":0,"station_id":"ce4bha92rcd13ifvqeh0","pricing_plan_id":"cebpf4jnsgd1na2vs0mg"},{"bike_id":"fa062cb2-1464-4ce3-b214-c8ff730b3e06","system_id":"levelo_inurba_marseille","lat":43.291981,"lon":5.358017,"is_reserved":false,"is_disabled":false,"rental_uris":{"android":"levelo://app?vid=fa062cb2-1464-4ce3-b214-c8ff730b3e06","ios":"levelo://app?vid=fa062cb2-1464-4ce3-b214-c8ff730b3e06"},"vehicle_type_id":"4","last_reported":1717607225,"current_range_meters":0,"station_id":"ce4bhb12rcd13ifvqel0","pricing_plan_id":"cebpf4jnsgd1na2vs0mg"},{"bike_id":"39b83802-9548-4688-a0ab-0407f6366028","system_id":"levelo_inurba_marseille","lat":43.291959,"lon":5.358058,"is_reserved":false,"is_disabled":false,"rental_uris":{"android":"levelo://app?vid=39b83802-9548-4688-a0ab-0407f6366028","ios":"levelo://app?vid=39b83802-9548-4688-a0ab-0407f6366028"},"vehicle_type_id":"4","last_reported":1717607225,"current_range_meters":22400,"station_id":"ce4bhbh2rcd13ifvqeqg","pricing_plan_id":"cebpf4jnsgd1na2vs0mg"},{"bike_id":"b4bc8c07-4d27-4765-bd64-1c60a20ff2a8","system_id":"levelo_inurba_marseille","lat":43.291994,"lon":5.357886,"is_reserved":false,"is_disabled":false,"rental_uris":{"android":"levelo://app?vid=b4bc8c07-4d27-4765-bd64-1c60a20ff2a8","ios":"levelo://app?vid=b4bc8c07-4d27-4765-bd64-1c60a20ff2a8"},"vehicle_type_id":"4","last_reported":1717607225,"current_range_meters":0,"station_id":"ce4bhb12rcd13ifvqel0","pricing_plan_id":"cebpf4jnsgd1na2vs0mg"},{"bike_id":"0b504bf2-6dea-4f65-86a3-8a3eabb69ca0","system_id":"levelo_inurba_marseille","lat":43.313256,"lon":5.396899,"is_reserved":false,"is_disabled":false,"rental_uris":{"android":"levelo://app?vid=0b504bf2-6dea-4f65-86a3-8a3eabb69ca0","ios":"levelo://app?vid=0b504bf2-6dea-4f65-86a3-8a3eabb69ca0"},"vehicle_type_id":"4","last_reported":1717607225,"current_range_meters":0,"station_id":"ce4bgvp2rcd13ifvqcu0","pricing_plan_id":"cebpf4jnsgd1na2vs0mg"},{"bike_id":"80088de8-5b1b-4dd2-bd41-ea0dd7708736","system_id":"levelo_inurba_marseille","lat":43.31326,"lon":5.396901,"is_reserved":false,"is_disabled":false,"rental_uris":{"android":"levelo://app?vid=80088de8-5b1b-4dd2-bd41-ea0dd7708736","ios":"levelo://app?vid=80088de8-5b1b-4dd2-bd41-ea0dd7708736"},"vehicle_type_id":"4","last_reported":1717607225,"current_range_meters":5200,"station_id":"ce4bgvp2rcd13ifvqcu0","pricing_plan_id":"cebpf4jnsgd1na2vs0mg"},{"bike_id":"97043b84-6386-46ff-a4c5-d85502e279ff","system_id":"levelo_inurba_marseille","lat":43.292005,"lon":5.357875,"is_reserved":false,"is_disabled":false,"rental_uris":{"android":"levelo://app?vid=97043b84-6386-46ff-a4c5-d85502e279ff","ios":"levelo://app?vid=97043b84-6386-46ff-a4c5-d85502e279ff"},"vehicle_type_id":"4","last_reported":1717607225,"current_range_meters":30000,"station_id":"ce4bhb12rcd13ifvqel0","pricing_plan_id":"cebpf4jnsgd1na2vs0mg"},{"bike_id":"f3413c1f-8267-40b2-acf0-e0b95994815e","system_id":"levelo_inurba_marseille","lat":43.313291,"lon":5.396838,"is_reserved":false,"is_disabled":false,"rental_uris":{"android":"levelo://app?vid=f3413c1f-8267-40b2-acf0-e0b95994815e","ios":"levelo://app?vid=f3413c1f-8267-40b2-acf0-e0b95994815e"},"vehicle_type_id":"4","last_reported":1717607225,"current_range_meters":8000,"station_id":"ce4bgvp2rcd13ifvqcu0","pricing_plan_id":"cebpf4jnsgd1na2vs0mg"},{"bike_id":"4d3c82a3-c6c6-4d5c-a61a-301f82f9bcdc","system_id":"levelo_inurba_marseille","lat":43.313291,"lon":5.396838,"is_reserved":false,"is_disabled":false,"rental_uris":{"android":"levelo://app?vid=4d3c82a3-c6c6-4d5c-a61a-301f82f9bcdc","ios":"levelo://app?vid=4d3c82a3-c6c6-4d5c-a61a-301f82f9bcdc"},"vehicle_type_id":"4","last_reported":1717607225,"current_range_meters":28400,"station_id":"ce4bgvp2rcd13ifvqcu0","pricing_plan_id":"cebpf4jnsgd1na2vs0mg"},{"bike_id":"31212bac-0c33-4387-83f3-4410db84ec93","system_id":"levelo_inurba_marseille","lat":43.31326,"lon":5.39696,"is_reserved":false,"is_disabled":false,"rental_uris":{"android":"levelo://app?vid=31212bac-0c33-4387-83f3-4410db84ec93","ios":"levelo://app?vid=31212bac-0c33-4387-83f3-4410db84ec93"},"vehicle_type_id":"4","last_reported":1717607225,"current_range_meters":12400,"station_id":"ce4bgvp2rcd13ifvqcu0","pricing_plan_id":"cebpf4jnsgd1na2vs0mg"},{"bike_id":"f2e3a1a9-44e9-4a63-910e-5cbb6a58f717","system_id":"levelo_inurba_marseille","lat":43.313291,"lon":5.396838,"is_reserved":false,"is_disabled":false,"rental_uris":{"android":"levelo://app?vid=f2e3a1a9-44e9-4a63-910e-5cbb6a58f717","ios":"levelo://app?vid=f2e3a1a9-44e9-4a63-910e-5cbb6a58f717"},"vehicle_type_id":"4","last_reported":1717607225,"current_range_meters":5200,"station_id":"ce4bgvp2rcd13ifvqcu0","pricing_plan_id":"cebpf4jnsgd1na2vs0mg"},{"bike_id":"ed7b3ba3-f86b-440e-89fe-38d16a0d59ae","system_id":"levelo_inurba_marseille","lat":43.313232,"lon":5.396972,"is_reserved":false,"is_disabled":false,"rental_uris":{"android":"levelo://app?vid=ed7b3ba3-f86b-440e-89fe-38d16a0d59ae","ios":"levelo://app?vid=ed7b3ba3-f86b-440e-89fe-38d16a0d59ae"},"vehicle_type_id":"4","last_reported":1717607225,"current_range_meters":5200,"station_id":"ce4bgvp2rcd13ifvqcu0","pricing_plan_id":"cebpf4jnsgd1na2vs0mg"},{"bike_id":"8519fce8-cb52-43ff-8bd6-f591f19909f3","system_id":"levelo_inurba_marseille","lat":43.309047,"lon":5.396551,"is_reserved":false,"is_disabled":false,"rental_uris":{"android":"levelo://app?vid=8519fce8-cb52-43ff-8bd6-f591f19909f3","ios":"levelo://app?vid=8519fce8-cb52-43ff-8bd6-f591f19909f3"},"vehicle_type_id":"4","last_reported":1717607225,"current_range_meters":800,"station_id":"ce4bh012rcd13ifvqcv0","pricing_plan_id":"cebpf4jnsgd1na2vs0mg"},{"bike_id":"d2e0dea5-6310-4378-9eda-42829820233b","system_id":"levelo_inurba_marseille","lat":43.309038,"lon":5.396546,"is_reserved":false,"is_disabled":false,"rental_uris":{"android":"levelo://app?vid=d2e0dea5-6310-4378-9eda-42829820233b","ios":"levelo://app?vid=d2e0dea5-6310-4378-9eda-42829820233b"},"vehicle_type_id":"4","last_reported":1717607225,"current_range_meters":10000,"station_id":"ce4bh012rcd13ifvqcv0","pricing_plan_id":"cebpf4jnsgd1na2vs0mg"},{"bike_id":"02687933-f36a-400b-94f0-e183789667d2","system_id":"levelo_inurba_marseille","lat":43.309038,"lon":5.396546,"is_reserved":false,"is_disabled":false,"rental_uris":{"android":"levelo://app?vid=02687933-f36a-400b-94f0-e183789667d2","ios":"levelo://app?vid=02687933-f36a-400b-94f0-e183789667d2"},"vehicle_type_id":"4","last_reported":1717607225,"current_range_meters":8800,"station_id":"ce4bh012rcd13ifvqcv0","pricing_plan_id":"cebpf4jnsgd1na2vs0mg"},{"bike_id":"23f3f9ab-a929-4007-acc4-e9949fcc4936","system_id":"levelo_inurba_marseille","lat":43.29529,"lon":5.385581,"is_reserved":false,"is_disabled":false,"rental_uris":{"android":"levelo://app?vid=23f3f9ab-a929-4007-acc4-e9949fcc4936","ios":"levelo://app?vid=23f3f9ab-a929-4007-acc4-e9949fcc4936"},"vehicle_type_id":"4","last_reported":1717607225,"current_range_meters":4000,"station_id":"ce4bgih2rcd13ifvqba0","pricing_plan_id":"cebpf4jnsgd1na2vs0mg"},{"bike_id":"0f94f24f-769b-4389-b5a2-109899964aa1","system_id":"levelo_inurba_marseille","lat":43.291719,"lon":5.356919,"is_reserved":false,"is_disabled":false,"rental_uris":{"android":"levelo://app?vid=0f94f24f-769b-4389-b5a2-109899964aa1","ios":"levelo://app?vid=0f94f24f-769b-4389-b5a2-109899964aa1"},"vehicle_type_id":"4","last_reported":1717607225,"current_range_meters":27600,"station_id":"ce4bhb12rcd13ifvqel0","pricing_plan_id":"cebpf4jnsgd1na2vs0mg"},{"bike_id":"644ba4e6-1d70-47a0-aba1-c39349514ef5","system_id":"levelo_inurba_marseille","lat":43.290311,"lon":5.370757,"is_reserved":false,"is_disabled":false,"rental_uris":{"android":"levelo://app?vid=644ba4e6-1d70-47a0-aba1-c39349514ef5","ios":"levelo://app?vid=644ba4e6-1d70-47a0-aba1-c39349514ef5"},"vehicle_type_id":"4","last_reported":1717607225,"current_range_meters":0,"station_id":"ce4bhah2rcd13ifvqej0","pricing_plan_id":"cebpf4jnsgd1na2vs0mg"},{"bike_id":"8c4336ba-9ee9-4f7d-a645-431fed053753","system_id":"levelo_inurba_marseille","lat":43.302008,"lon":5.394694,"is_reserved":false,"is_disabled":false,"rental_uris":{"android":"levelo://app?vid=8c4336ba-9ee9-4f7d-a645-431fed053753","ios":"levelo://app?vid=8c4336ba-9ee9-4f7d-a645-431fed053753"},"vehicle_type_id":"4","last_reported":1717607225,"current_range_meters":24800,"station_id":"ce4bh0p2rcd13ifvqd70","pricing_plan_id":"cebpf4jnsgd1na2vs0mg"},{"bike_id":"8255b416-a941-4bf3-b5b6-54e4db46cd4c","system_id":"levelo_inurba_marseille","lat":43.28983,"lon":5.36672,"is_reserved":false,"is_disabled":false,"rental_uris":{"android":"levelo://app?vid=8255b416-a941-4bf3-b5b6-54e4db46cd4c","ios":"levelo://app?vid=8255b416-a941-4bf3-b5b6-54e4db46cd4c"},"vehicle_type_id":"4","last_reported":1717607225,"current_range_meters":14400,"station_id":"","pricing_plan_id":"cebpf4jnsgd1na2vs0mg"},{"bike_id":"e0631210-4fae-4d33-8786-f61f81593ae5","system_id":"levelo_inurba_marseille","lat":43.290624,"lon":5.359245,"is_reserved":false,"is_disabled":false,"rental_uris":{"android":"levelo://app?vid=e0631210-4fae-4d33-8786-f61f81593ae5","ios":"levelo://app?vid=e0631210-4fae-4d33-8786-f61f81593ae5"},"vehicle_type_id":"4","last_reported":1717607225,"current_range_meters":28400,"station_id":"ce4bha92rcd13ifvqeg0","pricing_plan_id":"cebpf4jnsgd1na2vs0mg"},{"bike_id":"05a7449d-9809-4a88-a071-3571d6fe0405","system_id":"levelo_inurba_marseille","lat":43.290336,"lon":5.386425,"is_reserved":false,"is_disabled":false,"rental_uris":{"android":"levelo://app?vid=05a7449d-9809-4a88-a071-3571d6fe0405","ios":"levelo://app?vid=05a7449d-9809-4a88-a071-3571d6fe0405"},"vehicle_type_id":"4","last_reported":1717607225,"current_range_meters":1600,"station_id":"ce4bh4p2rcd13ifvqe0g","pricing_plan_id":"cebpf4jnsgd1na2vs0mg"},{"bike_id":"39596863-f292-46cf-a3b2-a60172992cff","system_id":"levelo_inurba_marseille","lat":43.294242,"lon":5.386138,"is_reserved":false,"is_disabled":false,"rental_uris":{"android":"levelo://app?vid=39596863-f292-46cf-a3b2-a60172992cff","ios":"levelo://app?vid=39596863-f292-46cf-a3b2-a60172992cff"},"vehicle_type_id":"4","last_reported":1717607225,"current_range_meters":0,"station_id":"ce4bh2h2rcd13ifvqdh0","pricing_plan_id":"cebpf4jnsgd1na2vs0mg"},{"bike_id":"a96cf4c5-c286-4f2b-8a4e-7adbc7e818b3","system_id":"levelo_inurba_marseille","lat":43.290327,"lon":5.375711,"is_reserved":false,"is_disabled":false,"rental_uris":{"android":"levelo://app?vid=a96cf4c5-c286-4f2b-8a4e-7adbc7e818b3","ios":"levelo://app?vid=a96cf4c5-c286-4f2b-8a4e-7adbc7e818b3"},"vehicle_type_id":"4","last_reported":1717607225,"current_range_meters":0,"station_id":"ce4bh692rcd13ifvqe90","pricing_plan_id":"cebpf4jnsgd1na2vs0mg"},{"bike_id":"eb252734-e9ea-4980-8fb5-6169215b1aa9","system_id":"levelo_inurba_marseille","lat":43.294237,"lon":5.386288,"is_reserved":false,"is_disabled":false,"rental_uris":{"android":"levelo://app?vid=eb252734-e9ea-4980-8fb5-6169215b1aa9","ios":"levelo://app?vid=eb252734-e9ea-4980-8fb5-6169215b1aa9"},"vehicle_type_id":"4","last_reported":1717607225,"current_range_meters":0,"station_id":"ce4bh2h2rcd13ifvqdh0","pricing_plan_id":"cebpf4jnsgd1na2vs0mg"},{"bike_id":"9ba53910-47fe-4147-ad9f-3fde024146bc","system_id":"levelo_inurba_marseille","lat":43.294153,"lon":5.386305,"is_reserved":false,"is_disabled":false,"rental_uris":{"android":"levelo://app?vid=9ba53910-47fe-4147-ad9f-3fde024146bc","ios":"levelo://app?vid=9ba53910-47fe-4147-ad9f-3fde024146bc"},"vehicle_type_id":"4","last_reported":1717607225,"current_range_meters":0,"station_id":"ce4bh2h2rcd13ifvqdh0","pricing_plan_id":"cebpf4jnsgd1na2vs0mg"},{"bike_id":"d957c011-f7a4-454d-8ef2-299f8e27e22b","system_id":"levelo_inurba_marseille","lat":43.294162,"lon":5.386292,"is_reserved":false,"is_disabled":false,"rental_uris":{"android":"levelo://app?vid=d957c011-f7a4-454d-8ef2-299f8e27e22b","ios":"levelo://app?vid=d957c011-f7a4-454d-8ef2-299f8e27e22b"},"vehicle_type_id":"4","last_reported":1717607225,"current_range_meters":0,"station_id":"ce4bh2h2rcd13ifvqdh0","pricing_plan_id":"cebpf4jnsgd1na2vs0mg"},{"bike_id":"1a8f6341-469a-4ec7-b82b-8c8c4a093eb6","system_id":"levelo_inurba_marseille","lat":43.28938,"lon":5.36639,"is_reserved":false,"is_disabled":false,"rental_uris":{"android":"levelo://app?vid=1a8f6341-469a-4ec7-b82b-8c8c4a093eb6","ios":"levelo://app?vid=1a8f6341-469a-4ec7-b82b-8c8c4a093eb6"},"vehicle_type_id":"4","last_reported":1717607225,"current_range_meters":0,"station_id":"ce4bhap2rcd13ifvqek0","pricing_plan_id":"cebpf4jnsgd1na2vs0mg"},{"bike_id":"d89673b7-304c-4c86-b7ae-05f9f0f8d036","system_id":"levelo_inurba_marseille","lat":43.294272,"lon":5.386657,"is_reserved":false,"is_disabled":false,"rental_uris":{"android":"levelo://app?vid=d89673b7-304c-4c86-b7ae-05f9f0f8d036","ios":"levelo://app?vid=d89673b7-304c-4c86-b7ae-05f9f0f8d036"},"vehicle_type_id":"4","last_reported":1717607225,"current_range_meters":0,"station_id":"ce4bh2h2rcd13ifvqdh0","pricing_plan_id":"cebpf4jnsgd1na2vs0mg"},{"bike_id":"8097273f-a5ff-4625-8478-f4e4f1d7cf04","system_id":"levelo_inurba_marseille","lat":43.28933,"lon":5.36635,"is_reserved":false,"is_disabled":false,"rental_uris":{"android":"levelo://app?vid=8097273f-a5ff-4625-8478-f4e4f1d7cf04","ios":"levelo://app?vid=8097273f-a5ff-4625-8478-f4e4f1d7cf04"},"vehicle_type_id":"4","last_reported":1717607225,"current_range_meters":0,"station_id":"ce4bhap2rcd13ifvqek0","pricing_plan_id":"cebpf4jnsgd1na2vs0mg"},{"bike_id":"c7528819-c188-4f9a-a0f3-63a91fda3732","system_id":"levelo_inurba_marseille","lat":43.29245,"lon":5.38321,"is_reserved":false,"is_disabled":false,"rental_uris":{"android":"levelo://app?vid=c7528819-c188-4f9a-a0f3-63a91fda3732","ios":"levelo://app?vid=c7528819-c188-4f9a-a0f3-63a91fda3732"},"vehicle_type_id":"4","last_reported":1717607225,"current_range_meters":0,"station_id":"","pricing_plan_id":"cebpf4jnsgd1na2vs0mg"},{"bike_id":"b125fd60-4cdb-4cfd-9d82-e11c7fb014b2","system_id":"levelo_inurba_marseille","lat":43.290319,"lon":5.375732,"is_reserved":false,"is_disabled":false,"rental_uris":{"android":"levelo://app?vid=b125fd60-4cdb-4cfd-9d82-e11c7fb014b2","ios":"levelo://app?vid=b125fd60-4cdb-4cfd-9d82-e11c7fb014b2"},"vehicle_type_id":"4","last_reported":1717607225,"current_range_meters":1200,"station_id":"ce4bh692rcd13ifvqe90","pricing_plan_id":"cebpf4jnsgd1na2vs0mg"},{"bike_id":"39a4d2c4-2aa3-4ccf-9710-77b35ea3b009","system_id":"levelo_inurba_marseille","lat":43.289468,"lon":5.363719,"is_reserved":false,"is_disabled":false,"rental_uris":{"android":"levelo://app?vid=39a4d2c4-2aa3-4ccf-9710-77b35ea3b009","ios":"levelo://app?vid=39a4d2c4-2aa3-4ccf-9710-77b35ea3b009"},"vehicle_type_id":"4","last_reported":1717607225,"current_range_meters":7600,"station_id":"ce4bhc92rcd13ifvqetg","pricing_plan_id":"cebpf4jnsgd1na2vs0mg"},{"bike_id":"aadaa516-6f5b-4b91-a730-13b02bac24a4","system_id":"levelo_inurba_marseille","lat":43.292794,"lon":5.384574,"is_reserved":false,"is_disabled":false,"rental_uris":{"android":"levelo://app?vid=aadaa516-6f5b-4b91-a730-13b02bac24a4","ios":"levelo://app?vid=aadaa516-6f5b-4b91-a730-13b02bac24a4"},"vehicle_type_id":"4","last_reported":1717607225,"current_range_meters":0,"station_id":"ce4bh692rcd13ifvqea0","pricing_plan_id":"cebpf4jnsgd1na2vs0mg"},{"bike_id":"9659c6a0-e2c1-436c-be66-eeb7c12002d2","system_id":"levelo_inurba_marseille","lat":43.292642,"lon":5.384254,"is_reserved":false,"is_disabled":false,"rental_uris":{"android":"levelo://app?vid=9659c6a0-e2c1-436c-be66-eeb7c12002d2","ios":"levelo://app?vid=9659c6a0-e2c1-436c-be66-eeb7c12002d2"},"vehicle_type_id":"4","last_reported":1717607225,"current_range_meters":4400,"station_id":"ce4bh692rcd13ifvqea0","pricing_plan_id":"cebpf4jnsgd1na2vs0mg"},{"bike_id":"8bd701b6-f77b-43d0-9422-0337b8f48407","system_id":"levelo_inurba_marseille","lat":43.292623,"lon":5.384428,"is_reserved":false,"is_disabled":false,"rental_uris":{"android":"levelo://app?vid=8bd701b6-f77b-43d0-9422-0337b8f48407","ios":"levelo://app?vid=8bd701b6-f77b-43d0-9422-0337b8f48407"},"vehicle_type_id":"4","last_reported":1717607225,"current_range_meters":0,"station_id":"ce4bh692rcd13ifvqea0","pricing_plan_id":"cebpf4jnsgd1na2vs0mg"},{"bike_id":"34340ec6-d00b-4294-bf01-58d7df221cd7","system_id":"levelo_inurba_marseille","lat":43.29255,"lon":5.38447,"is_reserved":false,"is_disabled":false,"rental_uris":{"android":"levelo://app?vid=34340ec6-d00b-4294-bf01-58d7df221cd7","ios":"levelo://app?vid=34340ec6-d00b-4294-bf01-58d7df221cd7"},"vehicle_type_id":"4","last_reported":1717607225,"current_range_meters":0,"station_id":"ce4bh692rcd13ifvqea0","pricing_plan_id":"cebpf4jnsgd1na2vs0mg"},{"bike_id":"7fc8583a-042d-4c03-a602-ad169cfd4b4b","system_id":"levelo_inurba_marseille","lat":43.290103,"lon":5.356114,"is_reserved":false,"is_disabled":false,"rental_uris":{"android":"levelo://app?vid=7fc8583a-042d-4c03-a602-ad169cfd4b4b","ios":"levelo://app?vid=7fc8583a-042d-4c03-a602-ad169cfd4b4b"},"vehicle_type_id":"4","last_reported":1717607225,"current_range_meters":12000,"station_id":"ce4bhb92rcd13ifvqen0","pricing_plan_id":"cebpf4jnsgd1na2vs0mg"},{"bike_id":"84d4d52d-e0cc-42f3-8904-6589d8bd228c","system_id":"levelo_inurba_marseille","lat":43.290104,"lon":5.356111,"is_reserved":false,"is_disabled":false,"rental_uris":{"android":"levelo://app?vid=84d4d52d-e0cc-42f3-8904-6589d8bd228c","ios":"levelo://app?vid=84d4d52d-e0cc-42f3-8904-6589d8bd228c"},"vehicle_type_id":"4","last_reported":1717607225,"current_range_meters":3600,"station_id":"ce4bhb92rcd13ifvqen0","pricing_plan_id":"cebpf4jnsgd1na2vs0mg"},{"bike_id":"204bee13-73bb-4c58-ba8d-526b07d17c6d","system_id":"levelo_inurba_marseille","lat":43.29007,"lon":5.35608,"is_reserved":false,"is_disabled":false,"rental_uris":{"android":"levelo://app?vid=204bee13-73bb-4c58-ba8d-526b07d17c6d","ios":"levelo://app?vid=204bee13-73bb-4c58-ba8d-526b07d17c6d"},"vehicle_type_id":"4","last_reported":1717607225,"current_range_meters":6400,"station_id":"ce4bhb92rcd13ifvqen0","pricing_plan_id":"cebpf4jnsgd1na2vs0mg"},{"bike_id":"ce6f7589-057f-42a4-ba33-cab65dc0ec64","system_id":"levelo_inurba_marseille","lat":43.29006,"lon":5.3561,"is_reserved":false,"is_disabled":false,"rental_uris":{"android":"levelo://app?vid=ce6f7589-057f-42a4-ba33-cab65dc0ec64","ios":"levelo://app?vid=ce6f7589-057f-42a4-ba33-cab65dc0ec64"},"vehicle_type_id":"4","last_reported":1717607225,"current_range_meters":6000,"station_id":"ce4bhb92rcd13ifvqen0","pricing_plan_id":"cebpf4jnsgd1na2vs0mg"},{"bike_id":"5ade77b7-9944-415d-a301-fe02cbf4c458","system_id":"levelo_inurba_marseille","lat":43.29006,"lon":5.3561,"is_reserved":false,"is_disabled":false,"rental_uris":{"android":"levelo://app?vid=5ade77b7-9944-415d-a301-fe02cbf4c458","ios":"levelo://app?vid=5ade77b7-9944-415d-a301-fe02cbf4c458"},"vehicle_type_id":"4","last_reported":1717607225,"current_range_meters":0,"station_id":"ce4bhb92rcd13ifvqen0","pricing_plan_id":"cebpf4jnsgd1na2vs0mg"},{"bike_id":"da0a5264-138f-4008-b247-28e379459796","system_id":"levelo_inurba_marseille","lat":43.290104,"lon":5.356111,"is_reserved":false,"is_disabled":false,"rental_uris":{"android":"levelo://app?vid=da0a5264-138f-4008-b247-28e379459796","ios":"levelo://app?vid=da0a5264-138f-4008-b247-28e379459796"},"vehicle_type_id":"4","last_reported":1717607225,"current_range_meters":7200,"station_id":"ce4bhb92rcd13ifvqen0","pricing_plan_id":"cebpf4jnsgd1na2vs0mg"},{"bike_id":"563d0810-97da-4558-ba5f-2590476f3a1a","system_id":"levelo_inurba_marseille","lat":43.290103,"lon":5.356114,"is_reserved":false,"is_disabled":false,"rental_uris":{"android":"levelo://app?vid=563d0810-97da-4558-ba5f-2590476f3a1a","ios":"levelo://app?vid=563d0810-97da-4558-ba5f-2590476f3a1a"},"vehicle_type_id":"4","last_reported":1717607225,"current_range_meters":2000,"station_id":"ce4bhb92rcd13ifvqen0","pricing_plan_id":"cebpf4jnsgd1na2vs0mg"},{"bike_id":"412e86a3-68d1-4d52-9f03-ad97bf8338c4","system_id":"levelo_inurba_marseille","lat":43.29003,"lon":5.35609,"is_reserved":false,"is_disabled":false,"rental_uris":{"android":"levelo://app?vid=412e86a3-68d1-4d52-9f03-ad97bf8338c4","ios":"levelo://app?vid=412e86a3-68d1-4d52-9f03-ad97bf8338c4"},"vehicle_type_id":"4","last_reported":1717607225,"current_range_meters":5600,"station_id":"ce4bhb92rcd13ifvqen0","pricing_plan_id":"cebpf4jnsgd1na2vs0mg"},{"bike_id":"d8b889c4-3145-483d-8772-f239a8562540","system_id":"levelo_inurba_marseille","lat":43.290104,"lon":5.356111,"is_reserved":false,"is_disabled":false,"rental_uris":{"android":"levelo://app?vid=d8b889c4-3145-483d-8772-f239a8562540","ios":"levelo://app?vid=d8b889c4-3145-483d-8772-f239a8562540"},"vehicle_type_id":"4","last_reported":1717607225,"current_range_meters":13200,"station_id":"ce4bhb92rcd13ifvqen0","pricing_plan_id":"cebpf4jnsgd1na2vs0mg"},{"bike_id":"1d63a9bc-691e-447c-85b0-8daf53c12029","system_id":"levelo_inurba_marseille","lat":43.290104,"lon":5.356111,"is_reserved":false,"is_disabled":false,"rental_uris":{"android":"levelo://app?vid=1d63a9bc-691e-447c-85b0-8daf53c12029","ios":"levelo://app?vid=1d63a9bc-691e-447c-85b0-8daf53c12029"},"vehicle_type_id":"4","last_reported":1717607225,"current_range_meters":28000,"station_id":"ce4bhb92rcd13ifvqen0","pricing_plan_id":"cebpf4jnsgd1na2vs0mg"},{"bike_id":"2177f94b-2094-473e-9ad0-a3085775fb2b","system_id":"levelo_inurba_marseille","lat":43.290104,"lon":5.356111,"is_reserved":false,"is_disabled":false,"rental_uris":{"android":"levelo://app?vid=2177f94b-2094-473e-9ad0-a3085775fb2b","ios":"levelo://app?vid=2177f94b-2094-473e-9ad0-a3085775fb2b"},"vehicle_type_id":"4","last_reported":1717607225,"current_range_meters":18800,"station_id":"ce4bhb92rcd13ifvqen0","pricing_plan_id":"cebpf4jnsgd1na2vs0mg"},{"bike_id":"abab8b9c-0ec7-4534-9c4c-3ab005b0aded","system_id":"levelo_inurba_marseille","lat":43.290103,"lon":5.356114,"is_reserved":false,"is_disabled":false,"rental_uris":{"android":"levelo://app?vid=abab8b9c-0ec7-4534-9c4c-3ab005b0aded","ios":"levelo://app?vid=abab8b9c-0ec7-4534-9c4c-3ab005b0aded"},"vehicle_type_id":"4","last_reported":1717607225,"current_range_meters":0,"station_id":"ce4bhb92rcd13ifvqen0","pricing_plan_id":"cebpf4jnsgd1na2vs0mg"},{"bike_id":"3e9e1988-60ed-405c-9535-8528bf4b7e89","system_id":"levelo_inurba_marseille","lat":43.290103,"lon":5.356114,"is_reserved":false,"is_disabled":false,"rental_uris":{"android":"levelo://app?vid=3e9e1988-60ed-405c-9535-8528bf4b7e89","ios":"levelo://app?vid=3e9e1988-60ed-405c-9535-8528bf4b7e89"},"vehicle_type_id":"4","last_reported":1717607225,"current_range_meters":3200,"station_id":"ce4bhb92rcd13ifvqen0","pricing_plan_id":"cebpf4jnsgd1na2vs0mg"},{"bike_id":"2ed38854-f494-4330-99c1-13cdeff52c7c","system_id":"levelo_inurba_marseille","lat":43.290995,"lon":5.381361,"is_reserved":false,"is_disabled":false,"rental_uris":{"android":"levelo://app?vid=2ed38854-f494-4330-99c1-13cdeff52c7c","ios":"levelo://app?vid=2ed38854-f494-4330-99c1-13cdeff52c7c"},"vehicle_type_id":"4","last_reported":1717607225,"current_range_meters":17200,"station_id":"ce4bh512rcd13ifvqe2g","pricing_plan_id":"cebpf4jnsgd1na2vs0mg"},{"bike_id":"4cd27647-95fd-4d97-97db-e27078cf49e9","system_id":"levelo_inurba_marseille","lat":43.304292,"lon":5.398262,"is_reserved":false,"is_disabled":false,"rental_uris":{"android":"levelo://app?vid=4cd27647-95fd-4d97-97db-e27078cf49e9","ios":"levelo://app?vid=4cd27647-95fd-4d97-97db-e27078cf49e9"},"vehicle_type_id":"4","last_reported":1717607225,"current_range_meters":12400,"station_id":"","pricing_plan_id":"cebpf4jnsgd1na2vs0mg"},{"bike_id":"7c2700a7-a325-48aa-a951-e2fb671985de","system_id":"levelo_inurba_marseille","lat":43.295238,"lon":5.39027,"is_reserved":false,"is_disabled":false,"rental_uris":{"android":"levelo://app?vid=7c2700a7-a325-48aa-a951-e2fb671985de","ios":"levelo://app?vid=7c2700a7-a325-48aa-a951-e2fb671985de"},"vehicle_type_id":"4","last_reported":1717607225,"current_range_meters":0,"station_id":"ce4bh3p2rcd13ifvqdp0","pricing_plan_id":"cebpf4jnsgd1na2vs0mg"},{"bike_id":"177a6991-ade4-4d23-9081-24c756f4159d","system_id":"levelo_inurba_marseille","lat":43.295169,"lon":5.390426,"is_reserved":false,"is_disabled":false,"rental_uris":{"android":"levelo://app?vid=177a6991-ade4-4d23-9081-24c756f4159d","ios":"levelo://app?vid=177a6991-ade4-4d23-9081-24c756f4159d"},"vehicle_type_id":"4","last_reported":1717607225,"current_range_meters":400,"station_id":"ce4bh3p2rcd13ifvqdp0","pricing_plan_id":"cebpf4jnsgd1na2vs0mg"},{"bike_id":"cc1666be-3bf0-44cc-ac6e-4d455b89bcb2","system_id":"levelo_inurba_marseille","lat":43.330442,"lon":5.389148,"is_reserved":false,"is_disabled":false,"rental_uris":{"android":"levelo://app?vid=cc1666be-3bf0-44cc-ac6e-4d455b89bcb2","ios":"levelo://app?vid=cc1666be-3bf0-44cc-ac6e-4d455b89bcb2"},"vehicle_type_id":"4","last_reported":1717607225,"current_range_meters":9200,"station_id":"ce4bhr92rcd13ifvqhrg","pricing_plan_id":"cebpf4jnsgd1na2vs0mg"},{"bike_id":"6639c2f5-8f9b-4932-9b00-0149331981ce","system_id":"levelo_inurba_marseille","lat":43.28856,"lon":5.358371,"is_reserved":false,"is_disabled":false,"rental_uris":{"android":"levelo://app?vid=6639c2f5-8f9b-4932-9b00-0149331981ce","ios":"levelo://app?vid=6639c2f5-8f9b-4932-9b00-0149331981ce"},"vehicle_type_id":"4","last_reported":1717607225,"current_range_meters":8800,"station_id":"ce4bhb12rcd13ifvqem0","pricing_plan_id":"cebpf4jnsgd1na2vs0mg"},{"bike_id":"4737ceb4-e491-4898-afba-89da1fd8ec29","system_id":"levelo_inurba_marseille","lat":43.337338,"lon":5.374599,"is_reserved":false,"is_disabled":false,"rental_uris":{"android":"levelo://app?vid=4737ceb4-e491-4898-afba-89da1fd8ec29","ios":"levelo://app?vid=4737ceb4-e491-4898-afba-89da1fd8ec29"},"vehicle_type_id":"4","last_reported":1717607225,"current_range_meters":19200,"station_id":"","pricing_plan_id":"cebpf4jnsgd1na2vs0mg"},{"bike_id":"ed10c4e4-d3ba-48d3-9097-538e65a623f5","system_id":"levelo_inurba_marseille","lat":43.33731,"lon":5.37482,"is_reserved":false,"is_disabled":false,"rental_uris":{"android":"levelo://app?vid=ed10c4e4-d3ba-48d3-9097-538e65a623f5","ios":"levelo://app?vid=ed10c4e4-d3ba-48d3-9097-538e65a623f5"},"vehicle_type_id":"4","last_reported":1717607225,"current_range_meters":28800,"station_id":"","pricing_plan_id":"cebpf4jnsgd1na2vs0mg"},{"bike_id":"472bf191-d295-4388-8607-d6f8058bd035","system_id":"levelo_inurba_marseille","lat":43.3374,"lon":5.37437,"is_reserved":false,"is_disabled":false,"rental_uris":{"android":"levelo://app?vid=472bf191-d295-4388-8607-d6f8058bd035","ios":"levelo://app?vid=472bf191-d295-4388-8607-d6f8058bd035"},"vehicle_type_id":"4","last_reported":1717607225,"current_range_meters":29600,"station_id":"","pricing_plan_id":"cebpf4jnsgd1na2vs0mg"},{"bike_id":"8fa5a9b8-2cc5-4ab5-9126-4106e10e01d4","system_id":"levelo_inurba_marseille","lat":43.312609,"lon":5.401662,"is_reserved":false,"is_disabled":false,"rental_uris":{"android":"levelo://app?vid=8fa5a9b8-2cc5-4ab5-9126-4106e10e01d4","ios":"levelo://app?vid=8fa5a9b8-2cc5-4ab5-9126-4106e10e01d4"},"vehicle_type_id":"4","last_reported":1717607225,"current_range_meters":0,"station_id":"ce4bh092rcd13ifvqd30","pricing_plan_id":"cebpf4jnsgd1na2vs0mg"},{"bike_id":"92e4a081-4f49-4ae8-9ef4-d80b768a61e9","system_id":"levelo_inurba_marseille","lat":43.309371,"lon":5.401449,"is_reserved":false,"is_disabled":false,"rental_uris":{"android":"levelo://app?vid=92e4a081-4f49-4ae8-9ef4-d80b768a61e9","ios":"levelo://app?vid=92e4a081-4f49-4ae8-9ef4-d80b768a61e9"},"vehicle_type_id":"4","last_reported":1717607225,"current_range_meters":31200,"station_id":"ce4bgvp2rcd13ifvqct0","pricing_plan_id":"cebpf4jnsgd1na2vs0mg"},{"bike_id":"2efef50a-e39a-48e7-a8aa-94f92e5efccf","system_id":"levelo_inurba_marseille","lat":43.309242,"lon":5.401475,"is_reserved":false,"is_disabled":false,"rental_uris":{"android":"levelo://app?vid=2efef50a-e39a-48e7-a8aa-94f92e5efccf","ios":"levelo://app?vid=2efef50a-e39a-48e7-a8aa-94f92e5efccf"},"vehicle_type_id":"4","last_reported":1717607225,"current_range_meters":0,"station_id":"ce4bgvp2rcd13ifvqct0","pricing_plan_id":"cebpf4jnsgd1na2vs0mg"},{"bike_id":"e779f2fd-b29b-42f2-b4b4-1989168150a6","system_id":"levelo_inurba_marseille","lat":43.312609,"lon":5.401662,"is_reserved":false,"is_disabled":false,"rental_uris":{"android":"levelo://app?vid=e779f2fd-b29b-42f2-b4b4-1989168150a6","ios":"levelo://app?vid=e779f2fd-b29b-42f2-b4b4-1989168150a6"},"vehicle_type_id":"4","last_reported":1717607225,"current_range_meters":14400,"station_id":"ce4bh092rcd13ifvqd30","pricing_plan_id":"cebpf4jnsgd1na2vs0mg"},{"bike_id":"c2c07dbd-db2e-421f-a5da-4c730f4778b1","system_id":"levelo_inurba_marseille","lat":43.30651,"lon":5.400872,"is_reserved":false,"is_disabled":false,"rental_uris":{"android":"levelo://app?vid=c2c07dbd-db2e-421f-a5da-4c730f4778b1","ios":"levelo://app?vid=c2c07dbd-db2e-421f-a5da-4c730f4778b1"},"vehicle_type_id":"4","last_reported":1717607225,"current_range_meters":16000,"station_id":"","pricing_plan_id":"cebpf4jnsgd1na2vs0mg"},{"bike_id":"2c7b6b28-c029-4170-9dd2-4d16d50d5ecc","system_id":"levelo_inurba_marseille","lat":43.33762,"lon":5.3745,"is_reserved":false,"is_disabled":false,"rental_uris":{"android":"levelo://app?vid=2c7b6b28-c029-4170-9dd2-4d16d50d5ecc","ios":"levelo://app?vid=2c7b6b28-c029-4170-9dd2-4d16d50d5ecc"},"vehicle_type_id":"4","last_reported":1717607225,"current_range_meters":19200,"station_id":"","pricing_plan_id":"cebpf4jnsgd1na2vs0mg"},{"bike_id":"685828a6-6926-4a0b-acc7-ff389062fdbf","system_id":"levelo_inurba_marseille","lat":43.337671,"lon":5.374612,"is_reserved":false,"is_disabled":false,"rental_uris":{"android":"levelo://app?vid=685828a6-6926-4a0b-acc7-ff389062fdbf","ios":"levelo://app?vid=685828a6-6926-4a0b-acc7-ff389062fdbf"},"vehicle_type_id":"4","last_reported":1717607225,"current_range_meters":19600,"station_id":"","pricing_plan_id":"cebpf4jnsgd1na2vs0mg"},{"bike_id":"d79e97b8-49c1-4ed7-b85e-a6dc100970ba","system_id":"levelo_inurba_marseille","lat":43.301117,"lon":5.398795,"is_reserved":false,"is_disabled":false,"rental_uris":{"android":"levelo://app?vid=d79e97b8-49c1-4ed7-b85e-a6dc100970ba","ios":"levelo://app?vid=d79e97b8-49c1-4ed7-b85e-a6dc100970ba"},"vehicle_type_id":"4","last_reported":1717607225,"current_range_meters":0,"station_id":"ce4bh0h2rcd13ifvqd40","pricing_plan_id":"cebpf4jnsgd1na2vs0mg"},{"bike_id":"30031872-ab76-43cc-b8b6-57028929d2c4","system_id":"levelo_inurba_marseille","lat":43.309129,"lon":5.401908,"is_reserved":false,"is_disabled":false,"rental_uris":{"android":"levelo://app?vid=30031872-ab76-43cc-b8b6-57028929d2c4","ios":"levelo://app?vid=30031872-ab76-43cc-b8b6-57028929d2c4"},"vehicle_type_id":"4","last_reported":1717607225,"current_range_meters":0,"station_id":"ce4bgvp2rcd13ifvqct0","pricing_plan_id":"cebpf4jnsgd1na2vs0mg"},{"bike_id":"fbeaaaef-f52a-483f-940d-e05fae7e7943","system_id":"levelo_inurba_marseille","lat":43.28727,"lon":5.36078,"is_reserved":false,"is_disabled":false,"rental_uris":{"android":"levelo://app?vid=fbeaaaef-f52a-483f-940d-e05fae7e7943","ios":"levelo://app?vid=fbeaaaef-f52a-483f-940d-e05fae7e7943"},"vehicle_type_id":"4","last_reported":1717607225,"current_range_meters":0,"station_id":"cki0cbj6b192h4jlfktg","pricing_plan_id":"cebpf4jnsgd1na2vs0mg"},{"bike_id":"954c62d9-dc3e-4ef5-a868-80e15e8b5ad8","system_id":"levelo_inurba_marseille","lat":43.301117,"lon":5.398795,"is_reserved":false,"is_disabled":false,"rental_uris":{"android":"levelo://app?vid=954c62d9-dc3e-4ef5-a868-80e15e8b5ad8","ios":"levelo://app?vid=954c62d9-dc3e-4ef5-a868-80e15e8b5ad8"},"vehicle_type_id":"4","last_reported":1717607225,"current_range_meters":31200,"station_id":"ce4bh0h2rcd13ifvqd40","pricing_plan_id":"cebpf4jnsgd1na2vs0mg"},{"bike_id":"541395c4-418e-4aa1-b61d-e7b1d18aaaed","system_id":"levelo_inurba_marseille","lat":43.28726,"lon":5.36091,"is_reserved":false,"is_disabled":false,"rental_uris":{"android":"levelo://app?vid=541395c4-418e-4aa1-b61d-e7b1d18aaaed","ios":"levelo://app?vid=541395c4-418e-4aa1-b61d-e7b1d18aaaed"},"vehicle_type_id":"4","last_reported":1717607225,"current_range_meters":23600,"station_id":"cki0cbj6b192h4jlfktg","pricing_plan_id":"cebpf4jnsgd1na2vs0mg"},{"bike_id":"a8b3629b-28c5-4ddf-987c-2adf324a85ff","system_id":"levelo_inurba_marseille","lat":43.2867,"lon":5.36347,"is_reserved":false,"is_disabled":false,"rental_uris":{"android":"levelo://app?vid=a8b3629b-28c5-4ddf-987c-2adf324a85ff","ios":"levelo://app?vid=a8b3629b-28c5-4ddf-987c-2adf324a85ff"},"vehicle_type_id":"4","last_reported":1717607225,"current_range_meters":0,"station_id":"ce4bhah2rcd13ifvqej0","pricing_plan_id":"cebpf4jnsgd1na2vs0mg"},{"bike_id":"0922acd5-4d3e-4b54-b4fe-911199c4ec23","system_id":"levelo_inurba_marseille","lat":43.29875,"lon":5.39735,"is_reserved":false,"is_disabled":false,"rental_uris":{"android":"levelo://app?vid=0922acd5-4d3e-4b54-b4fe-911199c4ec23","ios":"levelo://app?vid=0922acd5-4d3e-4b54-b4fe-911199c4ec23"},"vehicle_type_id":"4","last_reported":1717607225,"current_range_meters":0,"station_id":"ce4bh0h2rcd13ifvqd50","pricing_plan_id":"cebpf4jnsgd1na2vs0mg"},{"bike_id":"6d185b3d-deff-46d5-a096-cff230e056a8","system_id":"levelo_inurba_marseille","lat":43.286979,"lon":5.373906,"is_reserved":false,"is_disabled":false,"rental_uris":{"android":"levelo://app?vid=6d185b3d-deff-46d5-a096-cff230e056a8","ios":"levelo://app?vid=6d185b3d-deff-46d5-a096-cff230e056a8"},"vehicle_type_id":"4","last_reported":1717607225,"current_range_meters":0,"station_id":"ce4bh3p2rcd13ifvqdq0","pricing_plan_id":"cebpf4jnsgd1na2vs0mg"},{"bike_id":"a37e4a8e-8279-420a-bce7-9ecd6f4f2f4e","system_id":"levelo_inurba_marseille","lat":43.286593,"lon":5.363346,"is_reserved":false,"is_disabled":false,"rental_uris":{"android":"levelo://app?vid=a37e4a8e-8279-420a-bce7-9ecd6f4f2f4e","ios":"levelo://app?vid=a37e4a8e-8279-420a-bce7-9ecd6f4f2f4e"},"vehicle_type_id":"4","last_reported":1717607225,"current_range_meters":0,"station_id":"ce4bhah2rcd13ifvqej0","pricing_plan_id":"cebpf4jnsgd1na2vs0mg"},{"bike_id":"bf5f5276-8a81-477c-82e9-8e1c0ee59610","system_id":"levelo_inurba_marseille","lat":43.286961,"lon":5.373785,"is_reserved":false,"is_disabled":false,"rental_uris":{"android":"levelo://app?vid=bf5f5276-8a81-477c-82e9-8e1c0ee59610","ios":"levelo://app?vid=bf5f5276-8a81-477c-82e9-8e1c0ee59610"},"vehicle_type_id":"4","last_reported":1717607225,"current_range_meters":12800,"station_id":"ce4bh3p2rcd13ifvqdq0","pricing_plan_id":"cebpf4jnsgd1na2vs0mg"},{"bike_id":"4659de30-306f-467c-90e5-6f04fa32ade0","system_id":"levelo_inurba_marseille","lat":43.286536,"lon":5.363528,"is_reserved":false,"is_disabled":false,"rental_uris":{"android":"levelo://app?vid=4659de30-306f-467c-90e5-6f04fa32ade0","ios":"levelo://app?vid=4659de30-306f-467c-90e5-6f04fa32ade0"},"vehicle_type_id":"4","last_reported":1717607225,"current_range_meters":0,"station_id":"ce4bhah2rcd13ifvqej0","pricing_plan_id":"cebpf4jnsgd1na2vs0mg"},{"bike_id":"52146299-4ef0-4744-866a-bec5def170a1","system_id":"levelo_inurba_marseille","lat":43.286961,"lon":5.373785,"is_reserved":false,"is_disabled":false,"rental_uris":{"android":"levelo://app?vid=52146299-4ef0-4744-866a-bec5def170a1","ios":"levelo://app?vid=52146299-4ef0-4744-866a-bec5def170a1"},"vehicle_type_id":"4","last_reported":1717607225,"current_range_meters":0,"station_id":"ce4bh3p2rcd13ifvqdq0","pricing_plan_id":"cebpf4jnsgd1na2vs0mg"},{"bike_id":"a376dc49-2d7b-4c50-ba2c-77f70011c086","system_id":"levelo_inurba_marseille","lat":43.286961,"lon":5.373785,"is_reserved":false,"is_disabled":false,"rental_uris":{"android":"levelo://app?vid=a376dc49-2d7b-4c50-ba2c-77f70011c086","ios":"levelo://app?vid=a376dc49-2d7b-4c50-ba2c-77f70011c086"},"vehicle_type_id":"4","last_reported":1717607225,"current_range_meters":13600,"station_id":"ce4bh3p2rcd13ifvqdq0","pricing_plan_id":"cebpf4jnsgd1na2vs0mg"},{"bike_id":"c2144615-f08d-4150-a461-b3fbe73a1f85","system_id":"levelo_inurba_marseille","lat":43.295054,"lon":5.39409,"is_reserved":false,"is_disabled":false,"rental_uris":{"android":"levelo://app?vid=c2144615-f08d-4150-a461-b3fbe73a1f85","ios":"levelo://app?vid=c2144615-f08d-4150-a461-b3fbe73a1f85"},"vehicle_type_id":"4","last_reported":1717607225,"current_range_meters":0,"station_id":"ce4bh292rcd13ifvqdf0","pricing_plan_id":"cebpf4jnsgd1na2vs0mg"},{"bike_id":"186efde3-b676-475d-8648-5dc276a420fa","system_id":"levelo_inurba_marseille","lat":43.290336,"lon":5.386425,"is_reserved":false,"is_disabled":false,"rental_uris":{"android":"levelo://app?vid=186efde3-b676-475d-8648-5dc276a420fa","ios":"levelo://app?vid=186efde3-b676-475d-8648-5dc276a420fa"},"vehicle_type_id":"4","last_reported":1717607225,"current_range_meters":12400,"station_id":"ce4bh4p2rcd13ifvqe0g","pricing_plan_id":"cebpf4jnsgd1na2vs0mg"},{"bike_id":"0b7c4ae3-5c66-4232-8c3e-9c0005d549bf","system_id":"levelo_inurba_marseille","lat":43.286039,"lon":5.370679,"is_reserved":false,"is_disabled":false,"rental_uris":{"android":"levelo://app?vid=0b7c4ae3-5c66-4232-8c3e-9c0005d549bf","ios":"levelo://app?vid=0b7c4ae3-5c66-4232-8c3e-9c0005d549bf"},"vehicle_type_id":"4","last_reported":1717607225,"current_range_meters":0,"station_id":"ce4bht12rcd13ifvqi60","pricing_plan_id":"cebpf4jnsgd1na2vs0mg"},{"bike_id":"7be926eb-97aa-4c0c-8797-8039e965fd12","system_id":"levelo_inurba_marseille","lat":43.301504,"lon":5.400568,"is_reserved":false,"is_disabled":false,"rental_uris":{"android":"levelo://app?vid=7be926eb-97aa-4c0c-8797-8039e965fd12","ios":"levelo://app?vid=7be926eb-97aa-4c0c-8797-8039e965fd12"},"vehicle_type_id":"4","last_reported":1717607225,"current_range_meters":28400,"station_id":"","pricing_plan_id":"cebpf4jnsgd1na2vs0mg"},{"bike_id":"cda40bc5-0eda-46e0-b55e-0b8b70b05bab","system_id":"levelo_inurba_marseille","lat":43.287184,"lon":5.37937,"is_reserved":false,"is_disabled":false,"rental_uris":{"android":"levelo://app?vid=cda40bc5-0eda-46e0-b55e-0b8b70b05bab","ios":"levelo://app?vid=cda40bc5-0eda-46e0-b55e-0b8b70b05bab"},"vehicle_type_id":"4","last_reported":1717607225,"current_range_meters":0,"station_id":"ce4bh9p2rcd13ifvqec0","pricing_plan_id":"cebpf4jnsgd1na2vs0mg"},{"bike_id":"cefd98dd-fc78-4c1e-97af-f2d1610bf9d3","system_id":"levelo_inurba_marseille","lat":43.319179,"lon":5.407725,"is_reserved":false,"is_disabled":false,"rental_uris":{"android":"levelo://app?vid=cefd98dd-fc78-4c1e-97af-f2d1610bf9d3","ios":"levelo://app?vid=cefd98dd-fc78-4c1e-97af-f2d1610bf9d3"},"vehicle_type_id":"4","last_reported":1717607225,"current_range_meters":4800,"station_id":"ce4bhq12rcd13ifvqhig","pricing_plan_id":"cebpf4jnsgd1na2vs0mg"},{"bike_id":"126d271a-f86a-4031-866c-ae73e0a038f2","system_id":"levelo_inurba_marseille","lat":43.29201,"lon":5.39306,"is_reserved":false,"is_disabled":false,"rental_uris":{"android":"levelo://app?vid=126d271a-f86a-4031-866c-ae73e0a038f2","ios":"levelo://app?vid=126d271a-f86a-4031-866c-ae73e0a038f2"},"vehicle_type_id":"4","last_reported":1717607225,"current_range_meters":0,"station_id":"ce4bh192rcd13ifvqdd0","pricing_plan_id":"cebpf4jnsgd1na2vs0mg"},{"bike_id":"19d91229-05e7-4e02-ace4-7c7621ecc49c","system_id":"levelo_inurba_marseille","lat":43.313563,"lon":5.405918,"is_reserved":false,"is_disabled":false,"rental_uris":{"android":"levelo://app?vid=19d91229-05e7-4e02-ace4-7c7621ecc49c","ios":"levelo://app?vid=19d91229-05e7-4e02-ace4-7c7621ecc49c"},"vehicle_type_id":"4","last_reported":1717607225,"current_range_meters":6000,"station_id":"","pricing_plan_id":"cebpf4jnsgd1na2vs0mg"},{"bike_id":"4dd81d28-d5d6-4324-b33c-72a5bdd5cca3","system_id":"levelo_inurba_marseille","lat":43.284538,"lon":5.358657,"is_reserved":false,"is_disabled":false,"rental_uris":{"android":"levelo://app?vid=4dd81d28-d5d6-4324-b33c-72a5bdd5cca3","ios":"levelo://app?vid=4dd81d28-d5d6-4324-b33c-72a5bdd5cca3"},"vehicle_type_id":"4","last_reported":1717607225,"current_range_meters":19200,"station_id":"ce4bhah2rcd13ifvqei0","pricing_plan_id":"cebpf4jnsgd1na2vs0mg"},{"bike_id":"b41cebe4-9b86-42fc-81f9-6495f0275d8d","system_id":"levelo_inurba_marseille","lat":43.284534,"lon":5.358662,"is_reserved":false,"is_disabled":false,"rental_uris":{"android":"levelo://app?vid=b41cebe4-9b86-42fc-81f9-6495f0275d8d","ios":"levelo://app?vid=b41cebe4-9b86-42fc-81f9-6495f0275d8d"},"vehicle_type_id":"4","last_reported":1717607225,"current_range_meters":6800,"station_id":"ce4bhah2rcd13ifvqei0","pricing_plan_id":"cebpf4jnsgd1na2vs0mg"},{"bike_id":"e50217af-ac97-4a95-9c37-5a1e541ec80d","system_id":"levelo_inurba_marseille","lat":43.286336,"lon":5.351232,"is_reserved":false,"is_disabled":false,"rental_uris":{"android":"levelo://app?vid=e50217af-ac97-4a95-9c37-5a1e541ec80d","ios":"levelo://app?vid=e50217af-ac97-4a95-9c37-5a1e541ec80d"},"vehicle_type_id":"4","last_reported":1717607225,"current_range_meters":0,"station_id":"ce4bhb12rcd13ifvqel0","pricing_plan_id":"cebpf4jnsgd1na2vs0mg"},{"bike_id":"9cfe766d-2c41-4521-8304-5d0d062c8b9b","system_id":"levelo_inurba_marseille","lat":43.284538,"lon":5.358657,"is_reserved":false,"is_disabled":false,"rental_uris":{"android":"levelo://app?vid=9cfe766d-2c41-4521-8304-5d0d062c8b9b","ios":"levelo://app?vid=9cfe766d-2c41-4521-8304-5d0d062c8b9b"},"vehicle_type_id":"4","last_reported":1717607225,"current_range_meters":0,"station_id":"ce4bhah2rcd13ifvqei0","pricing_plan_id":"cebpf4jnsgd1na2vs0mg"},{"bike_id":"038d9b7e-6017-496b-bca2-384f88e70ba8","system_id":"levelo_inurba_marseille","lat":43.284538,"lon":5.358657,"is_reserved":false,"is_disabled":false,"rental_uris":{"android":"levelo://app?vid=038d9b7e-6017-496b-bca2-384f88e70ba8","ios":"levelo://app?vid=038d9b7e-6017-496b-bca2-384f88e70ba8"},"vehicle_type_id":"4","last_reported":1717607225,"current_range_meters":5600,"station_id":"ce4bhah2rcd13ifvqei0","pricing_plan_id":"cebpf4jnsgd1na2vs0mg"},{"bike_id":"df66da15-127f-4bc3-88bc-1c12a7f4f348","system_id":"levelo_inurba_marseille","lat":43.284534,"lon":5.358662,"is_reserved":false,"is_disabled":false,"rental_uris":{"android":"levelo://app?vid=df66da15-127f-4bc3-88bc-1c12a7f4f348","ios":"levelo://app?vid=df66da15-127f-4bc3-88bc-1c12a7f4f348"},"vehicle_type_id":"4","last_reported":1717607225,"current_range_meters":18400,"station_id":"ce4bhah2rcd13ifvqei0","pricing_plan_id":"cebpf4jnsgd1na2vs0mg"},{"bike_id":"a786b11e-53ab-41f5-84fe-3d4ff2db8eb6","system_id":"levelo_inurba_marseille","lat":43.286148,"lon":5.351119,"is_reserved":false,"is_disabled":false,"rental_uris":{"android":"levelo://app?vid=a786b11e-53ab-41f5-84fe-3d4ff2db8eb6","ios":"levelo://app?vid=a786b11e-53ab-41f5-84fe-3d4ff2db8eb6"},"vehicle_type_id":"4","last_reported":1717607225,"current_range_meters":0,"station_id":"ce4bhch2rcd13ifvqeug","pricing_plan_id":"cebpf4jnsgd1na2vs0mg"},{"bike_id":"27765284-fe66-4538-97e0-884f257e3744","system_id":"levelo_inurba_marseille","lat":43.286381,"lon":5.383519,"is_reserved":false,"is_disabled":false,"rental_uris":{"android":"levelo://app?vid=27765284-fe66-4538-97e0-884f257e3744","ios":"levelo://app?vid=27765284-fe66-4538-97e0-884f257e3744"},"vehicle_type_id":"4","last_reported":1717607225,"current_range_meters":2800,"station_id":"","pricing_plan_id":"cebpf4jnsgd1na2vs0mg"},{"bike_id":"c03842e5-1a9b-43ce-8fc4-aabbe61937eb","system_id":"levelo_inurba_marseille","lat":43.28612,"lon":5.35104,"is_reserved":false,"is_disabled":false,"rental_uris":{"android":"levelo://app?vid=c03842e5-1a9b-43ce-8fc4-aabbe61937eb","ios":"levelo://app?vid=c03842e5-1a9b-43ce-8fc4-aabbe61937eb"},"vehicle_type_id":"4","last_reported":1717607225,"current_range_meters":0,"station_id":"ce4bhch2rcd13ifvqeug","pricing_plan_id":"cebpf4jnsgd1na2vs0mg"},{"bike_id":"cd6a10a9-7252-42b0-8b1a-b97878c8f0fa","system_id":"levelo_inurba_marseille","lat":43.285856,"lon":5.350771,"is_reserved":false,"is_disabled":false,"rental_uris":{"android":"levelo://app?vid=cd6a10a9-7252-42b0-8b1a-b97878c8f0fa","ios":"levelo://app?vid=cd6a10a9-7252-42b0-8b1a-b97878c8f0fa"},"vehicle_type_id":"4","last_reported":1717607225,"current_range_meters":8000,"station_id":"ce4bhch2rcd13ifvqeug","pricing_plan_id":"cebpf4jnsgd1na2vs0mg"},{"bike_id":"eb0bbe66-37f6-4d98-9b25-ebeecf7fce8e","system_id":"levelo_inurba_marseille","lat":43.285848,"lon":5.350787,"is_reserved":false,"is_disabled":false,"rental_uris":{"android":"levelo://app?vid=eb0bbe66-37f6-4d98-9b25-ebeecf7fce8e","ios":"levelo://app?vid=eb0bbe66-37f6-4d98-9b25-ebeecf7fce8e"},"vehicle_type_id":"4","last_reported":1717607225,"current_range_meters":800,"station_id":"ce4bhch2rcd13ifvqeug","pricing_plan_id":"cebpf4jnsgd1na2vs0mg"},{"bike_id":"c41a8318-60d9-45b1-8eec-da137545cbae","system_id":"levelo_inurba_marseille","lat":43.284149,"lon":5.375026,"is_reserved":false,"is_disabled":false,"rental_uris":{"android":"levelo://app?vid=c41a8318-60d9-45b1-8eec-da137545cbae","ios":"levelo://app?vid=c41a8318-60d9-45b1-8eec-da137545cbae"},"vehicle_type_id":"4","last_reported":1717607225,"current_range_meters":0,"station_id":"","pricing_plan_id":"cebpf4jnsgd1na2vs0mg"},{"bike_id":"6f0e9917-1f73-4dcc-9edb-7b6d7087a596","system_id":"levelo_inurba_marseille","lat":43.284,"lon":5.37521,"is_reserved":false,"is_disabled":false,"rental_uris":{"android":"levelo://app?vid=6f0e9917-1f73-4dcc-9edb-7b6d7087a596","ios":"levelo://app?vid=6f0e9917-1f73-4dcc-9edb-7b6d7087a596"},"vehicle_type_id":"4","last_reported":1717607225,"current_range_meters":24400,"station_id":"ce4bh412rcd13ifvqds0","pricing_plan_id":"cebpf4jnsgd1na2vs0mg"},{"bike_id":"68feb073-f2bc-46b2-ba6d-e82e2865e730","system_id":"levelo_inurba_marseille","lat":43.28397,"lon":5.37514,"is_reserved":false,"is_disabled":false,"rental_uris":{"android":"levelo://app?vid=68feb073-f2bc-46b2-ba6d-e82e2865e730","ios":"levelo://app?vid=68feb073-f2bc-46b2-ba6d-e82e2865e730"},"vehicle_type_id":"4","last_reported":1717607225,"current_range_meters":22000,"station_id":"ce4bh412rcd13ifvqds0","pricing_plan_id":"cebpf4jnsgd1na2vs0mg"},{"bike_id":"16db665f-cad5-4dc5-8335-4db2bf8d2df6","system_id":"levelo_inurba_marseille","lat":43.28398,"lon":5.37525,"is_reserved":false,"is_disabled":false,"rental_uris":{"android":"levelo://app?vid=16db665f-cad5-4dc5-8335-4db2bf8d2df6","ios":"levelo://app?vid=16db665f-cad5-4dc5-8335-4db2bf8d2df6"},"vehicle_type_id":"4","last_reported":1717607225,"current_range_meters":20000,"station_id":"ce4bh412rcd13ifvqds0","pricing_plan_id":"cebpf4jnsgd1na2vs0mg"},{"bike_id":"a0ccfba5-742b-4646-bb48-5c661478d234","system_id":"levelo_inurba_marseille","lat":43.295713,"lon":5.399639,"is_reserved":false,"is_disabled":false,"rental_uris":{"android":"levelo://app?vid=a0ccfba5-742b-4646-bb48-5c661478d234","ios":"levelo://app?vid=a0ccfba5-742b-4646-bb48-5c661478d234"},"vehicle_type_id":"4","last_reported":1717607225,"current_range_meters":0,"station_id":"ce4bh312rcd13ifvqdj0","pricing_plan_id":"cebpf4jnsgd1na2vs0mg"},{"bike_id":"6c55c3be-c99e-4ca3-bddb-219b92001164","system_id":"levelo_inurba_marseille","lat":43.296263,"lon":5.40601,"is_reserved":false,"is_disabled":false,"rental_uris":{"android":"levelo://app?vid=6c55c3be-c99e-4ca3-bddb-219b92001164","ios":"levelo://app?vid=6c55c3be-c99e-4ca3-bddb-219b92001164"},"vehicle_type_id":"4","last_reported":1717607225,"current_range_meters":1600,"station_id":"ce4bh0h2rcd13ifvqd60","pricing_plan_id":"cebpf4jnsgd1na2vs0mg"},{"bike_id":"b60a3d52-eff8-45bf-a0ca-be940b43611e","system_id":"levelo_inurba_marseille","lat":43.33717,"lon":5.391857,"is_reserved":false,"is_disabled":false,"rental_uris":{"android":"levelo://app?vid=b60a3d52-eff8-45bf-a0ca-be940b43611e","ios":"levelo://app?vid=b60a3d52-eff8-45bf-a0ca-be940b43611e"},"vehicle_type_id":"4","last_reported":1717607225,"current_range_meters":27200,"station_id":"ce4bhr92rcd13ifvqhsg","pricing_plan_id":"cebpf4jnsgd1na2vs0mg"},{"bike_id":"93bf9cd1-4c58-4625-a6bd-f262e27a8c18","system_id":"levelo_inurba_marseille","lat":43.31893,"lon":5.407487,"is_reserved":false,"is_disabled":false,"rental_uris":{"android":"levelo://app?vid=93bf9cd1-4c58-4625-a6bd-f262e27a8c18","ios":"levelo://app?vid=93bf9cd1-4c58-4625-a6bd-f262e27a8c18"},"vehicle_type_id":"4","last_reported":1717607225,"current_range_meters":0,"station_id":"ce4bhq12rcd13ifvqhig","pricing_plan_id":"cebpf4jnsgd1na2vs0mg"},{"bike_id":"7e50e871-3a42-4dcc-8599-ba521c810285","system_id":"levelo_inurba_marseille","lat":43.33717,"lon":5.391857,"is_reserved":false,"is_disabled":false,"rental_uris":{"android":"levelo://app?vid=7e50e871-3a42-4dcc-8599-ba521c810285","ios":"levelo://app?vid=7e50e871-3a42-4dcc-8599-ba521c810285"},"vehicle_type_id":"4","last_reported":1717607225,"current_range_meters":18400,"station_id":"ce4bhr92rcd13ifvqhsg","pricing_plan_id":"cebpf4jnsgd1na2vs0mg"},{"bike_id":"ceb32121-dd57-49ef-b6dc-548c3d449772","system_id":"levelo_inurba_marseille","lat":43.337168,"lon":5.391825,"is_reserved":false,"is_disabled":false,"rental_uris":{"android":"levelo://app?vid=ceb32121-dd57-49ef-b6dc-548c3d449772","ios":"levelo://app?vid=ceb32121-dd57-49ef-b6dc-548c3d449772"},"vehicle_type_id":"4","last_reported":1717607225,"current_range_meters":12400,"station_id":"ce4bhr92rcd13ifvqhsg","pricing_plan_id":"cebpf4jnsgd1na2vs0mg"},{"bike_id":"c73240e0-0003-489f-8194-a018d94b303b","system_id":"levelo_inurba_marseille","lat":43.323464,"lon":5.406297,"is_reserved":false,"is_disabled":false,"rental_uris":{"android":"levelo://app?vid=c73240e0-0003-489f-8194-a018d94b303b","ios":"levelo://app?vid=c73240e0-0003-489f-8194-a018d94b303b"},"vehicle_type_id":"4","last_reported":1717607225,"current_range_meters":6400,"station_id":"ce4bhq92rcd13ifvqhjg","pricing_plan_id":"cebpf4jnsgd1na2vs0mg"},{"bike_id":"86d62ca0-ee9d-4531-b2eb-ac19833bf8ab","system_id":"levelo_inurba_marseille","lat":43.323464,"lon":5.406297,"is_reserved":false,"is_disabled":false,"rental_uris":{"android":"levelo://app?vid=86d62ca0-ee9d-4531-b2eb-ac19833bf8ab","ios":"levelo://app?vid=86d62ca0-ee9d-4531-b2eb-ac19833bf8ab"},"vehicle_type_id":"4","last_reported":1717607225,"current_range_meters":23600,"station_id":"ce4bhq92rcd13ifvqhjg","pricing_plan_id":"cebpf4jnsgd1na2vs0mg"},{"bike_id":"3d26c4e8-2d5c-4e13-9bfa-39c07f1e47e5","system_id":"levelo_inurba_marseille","lat":43.284787,"lon":5.384116,"is_reserved":false,"is_disabled":false,"rental_uris":{"android":"levelo://app?vid=3d26c4e8-2d5c-4e13-9bfa-39c07f1e47e5","ios":"levelo://app?vid=3d26c4e8-2d5c-4e13-9bfa-39c07f1e47e5"},"vehicle_type_id":"4","last_reported":1717607225,"current_range_meters":400,"station_id":"ce4bh512rcd13ifvqe3g","pricing_plan_id":"cebpf4jnsgd1na2vs0mg"},{"bike_id":"eeb10f8f-5edf-4a66-9cd0-9f904231b6f9","system_id":"levelo_inurba_marseille","lat":43.284787,"lon":5.384116,"is_reserved":false,"is_disabled":false,"rental_uris":{"android":"levelo://app?vid=eeb10f8f-5edf-4a66-9cd0-9f904231b6f9","ios":"levelo://app?vid=eeb10f8f-5edf-4a66-9cd0-9f904231b6f9"},"vehicle_type_id":"4","last_reported":1717607225,"current_range_meters":1600,"station_id":"ce4bh512rcd13ifvqe3g","pricing_plan_id":"cebpf4jnsgd1na2vs0mg"},{"bike_id":"b213bd03-a533-4a04-8775-63e192010fd1","system_id":"levelo_inurba_marseille","lat":43.284787,"lon":5.384116,"is_reserved":false,"is_disabled":false,"rental_uris":{"android":"levelo://app?vid=b213bd03-a533-4a04-8775-63e192010fd1","ios":"levelo://app?vid=b213bd03-a533-4a04-8775-63e192010fd1"},"vehicle_type_id":"4","last_reported":1717607225,"current_range_meters":3200,"station_id":"ce4bh512rcd13ifvqe3g","pricing_plan_id":"cebpf4jnsgd1na2vs0mg"},{"bike_id":"048375be-9c1b-4e68-bc0f-288b65766610","system_id":"levelo_inurba_marseille","lat":43.284787,"lon":5.384116,"is_reserved":false,"is_disabled":false,"rental_uris":{"android":"levelo://app?vid=048375be-9c1b-4e68-bc0f-288b65766610","ios":"levelo://app?vid=048375be-9c1b-4e68-bc0f-288b65766610"},"vehicle_type_id":"4","last_reported":1717607225,"current_range_meters":0,"station_id":"ce4bh512rcd13ifvqe3g","pricing_plan_id":"cebpf4jnsgd1na2vs0mg"},{"bike_id":"16b2c598-c794-49eb-83cb-2b13dd2f752a","system_id":"levelo_inurba_marseille","lat":43.297946,"lon":5.404063,"is_reserved":false,"is_disabled":false,"rental_uris":{"android":"levelo://app?vid=16b2c598-c794-49eb-83cb-2b13dd2f752a","ios":"levelo://app?vid=16b2c598-c794-49eb-83cb-2b13dd2f752a"},"vehicle_type_id":"4","last_reported":1717607225,"current_range_meters":19200,"station_id":"ce4bh112rcd13ifvqd90","pricing_plan_id":"cebpf4jnsgd1na2vs0mg"},{"bike_id":"8d0227d8-2c3d-4ee2-9712-a3d72ccb5cf1","system_id":"levelo_inurba_marseille","lat":43.288497,"lon":5.393089,"is_reserved":false,"is_disabled":false,"rental_uris":{"android":"levelo://app?vid=8d0227d8-2c3d-4ee2-9712-a3d72ccb5cf1","ios":"levelo://app?vid=8d0227d8-2c3d-4ee2-9712-a3d72ccb5cf1"},"vehicle_type_id":"4","last_reported":1717607225,"current_range_meters":0,"station_id":"ce4bh2p2rcd13ifvqdi0","pricing_plan_id":"cebpf4jnsgd1na2vs0mg"},{"bike_id":"c39aa82a-4de0-42a6-a236-06cebd2f1266","system_id":"levelo_inurba_marseille","lat":43.288564,"lon":5.393199,"is_reserved":false,"is_disabled":false,"rental_uris":{"android":"levelo://app?vid=c39aa82a-4de0-42a6-a236-06cebd2f1266","ios":"levelo://app?vid=c39aa82a-4de0-42a6-a236-06cebd2f1266"},"vehicle_type_id":"4","last_reported":1717607225,"current_range_meters":0,"station_id":"ce4bh2p2rcd13ifvqdi0","pricing_plan_id":"cebpf4jnsgd1na2vs0mg"},{"bike_id":"85e6ce36-5ad0-4da8-bdda-a984141b9a2d","system_id":"levelo_inurba_marseille","lat":43.28462,"lon":5.3844,"is_reserved":false,"is_disabled":false,"rental_uris":{"android":"levelo://app?vid=85e6ce36-5ad0-4da8-bdda-a984141b9a2d","ios":"levelo://app?vid=85e6ce36-5ad0-4da8-bdda-a984141b9a2d"},"vehicle_type_id":"4","last_reported":1717607225,"current_range_meters":8800,"station_id":"ce4bhn12rcd13ifvqgqg","pricing_plan_id":"cebpf4jnsgd1na2vs0mg"},{"bike_id":"add35a82-cb42-4d8f-a537-5f0f5260d6af","system_id":"levelo_inurba_marseille","lat":43.288497,"lon":5.393089,"is_reserved":false,"is_disabled":false,"rental_uris":{"android":"levelo://app?vid=add35a82-cb42-4d8f-a537-5f0f5260d6af","ios":"levelo://app?vid=add35a82-cb42-4d8f-a537-5f0f5260d6af"},"vehicle_type_id":"4","last_reported":1717607225,"current_range_meters":0,"station_id":"ce4bh2p2rcd13ifvqdi0","pricing_plan_id":"cebpf4jnsgd1na2vs0mg"},{"bike_id":"53aa52dd-b059-4f7c-bb72-83007331b716","system_id":"levelo_inurba_marseille","lat":43.284776,"lon":5.385603,"is_reserved":false,"is_disabled":false,"rental_uris":{"android":"levelo://app?vid=53aa52dd-b059-4f7c-bb72-83007331b716","ios":"levelo://app?vid=53aa52dd-b059-4f7c-bb72-83007331b716"},"vehicle_type_id":"4","last_reported":1717607225,"current_range_meters":0,"station_id":"ce4bh8p2rcd13ifvqeb0","pricing_plan_id":"cebpf4jnsgd1na2vs0mg"},{"bike_id":"b8a07aba-c02b-42ed-b889-b11c9f0f94a0","system_id":"levelo_inurba_marseille","lat":43.283494,"lon":5.380945,"is_reserved":false,"is_disabled":false,"rental_uris":{"android":"levelo://app?vid=b8a07aba-c02b-42ed-b889-b11c9f0f94a0","ios":"levelo://app?vid=b8a07aba-c02b-42ed-b889-b11c9f0f94a0"},"vehicle_type_id":"4","last_reported":1717607225,"current_range_meters":0,"station_id":"ce4bh412rcd13ifvqdr0","pricing_plan_id":"cebpf4jnsgd1na2vs0mg"},{"bike_id":"601984a5-7321-4910-abae-14e4ad305025","system_id":"levelo_inurba_marseille","lat":43.283443,"lon":5.381036,"is_reserved":false,"is_disabled":false,"rental_uris":{"android":"levelo://app?vid=601984a5-7321-4910-abae-14e4ad305025","ios":"levelo://app?vid=601984a5-7321-4910-abae-14e4ad305025"},"vehicle_type_id":"4","last_reported":1717607225,"current_range_meters":0,"station_id":"ce4bh412rcd13ifvqdr0","pricing_plan_id":"cebpf4jnsgd1na2vs0mg"},{"bike_id":"919e2538-a109-49cd-8f5d-d32eddd37980","system_id":"levelo_inurba_marseille","lat":43.283498,"lon":5.380948,"is_reserved":false,"is_disabled":false,"rental_uris":{"android":"levelo://app?vid=919e2538-a109-49cd-8f5d-d32eddd37980","ios":"levelo://app?vid=919e2538-a109-49cd-8f5d-d32eddd37980"},"vehicle_type_id":"4","last_reported":1717607225,"current_range_meters":0,"station_id":"ce4bh412rcd13ifvqdr0","pricing_plan_id":"cebpf4jnsgd1na2vs0mg"},{"bike_id":"b8e75bc4-b6a9-46c0-bed3-1149594144f8","system_id":"levelo_inurba_marseille","lat":43.28414,"lon":5.34995,"is_reserved":false,"is_disabled":false,"rental_uris":{"android":"levelo://app?vid=b8e75bc4-b6a9-46c0-bed3-1149594144f8","ios":"levelo://app?vid=b8e75bc4-b6a9-46c0-bed3-1149594144f8"},"vehicle_type_id":"4","last_reported":1717607225,"current_range_meters":0,"station_id":"ce4bhbh2rcd13ifvqepg","pricing_plan_id":"cebpf4jnsgd1na2vs0mg"},{"bike_id":"41354743-025d-4014-a162-89cb692d443e","system_id":"levelo_inurba_marseille","lat":43.284126,"lon":5.349968,"is_reserved":false,"is_disabled":false,"rental_uris":{"android":"levelo://app?vid=41354743-025d-4014-a162-89cb692d443e","ios":"levelo://app?vid=41354743-025d-4014-a162-89cb692d443e"},"vehicle_type_id":"4","last_reported":1717607225,"current_range_meters":12800,"station_id":"ce4bhbh2rcd13ifvqepg","pricing_plan_id":"cebpf4jnsgd1na2vs0mg"},{"bike_id":"385f8639-5bad-4952-be38-f2272e6c8048","system_id":"levelo_inurba_marseille","lat":43.284217,"lon":5.349697,"is_reserved":false,"is_disabled":false,"rental_uris":{"android":"levelo://app?vid=385f8639-5bad-4952-be38-f2272e6c8048","ios":"levelo://app?vid=385f8639-5bad-4952-be38-f2272e6c8048"},"vehicle_type_id":"4","last_reported":1717607225,"current_range_meters":0,"station_id":"ce4bhbh2rcd13ifvqepg","pricing_plan_id":"cebpf4jnsgd1na2vs0mg"},{"bike_id":"34410bf7-d9d3-406e-9d7b-6d9db0bed06c","system_id":"levelo_inurba_marseille","lat":43.284217,"lon":5.349697,"is_reserved":false,"is_disabled":false,"rental_uris":{"android":"levelo://app?vid=34410bf7-d9d3-406e-9d7b-6d9db0bed06c","ios":"levelo://app?vid=34410bf7-d9d3-406e-9d7b-6d9db0bed06c"},"vehicle_type_id":"4","last_reported":1717607225,"current_range_meters":23200,"station_id":"ce4bhbh2rcd13ifvqepg","pricing_plan_id":"cebpf4jnsgd1na2vs0mg"},{"bike_id":"fe775af5-7c26-46e1-ad8b-9634cc8c158c","system_id":"levelo_inurba_marseille","lat":43.283359,"lon":5.381387,"is_reserved":false,"is_disabled":false,"rental_uris":{"android":"levelo://app?vid=fe775af5-7c26-46e1-ad8b-9634cc8c158c","ios":"levelo://app?vid=fe775af5-7c26-46e1-ad8b-9634cc8c158c"},"vehicle_type_id":"4","last_reported":1717607225,"current_range_meters":12800,"station_id":"ce4bh412rcd13ifvqdr0","pricing_plan_id":"cebpf4jnsgd1na2vs0mg"},{"bike_id":"8cdce6cc-73f1-489b-8887-06f69f72139e","system_id":"levelo_inurba_marseille","lat":43.284793,"lon":5.384119,"is_reserved":false,"is_disabled":false,"rental_uris":{"android":"levelo://app?vid=8cdce6cc-73f1-489b-8887-06f69f72139e","ios":"levelo://app?vid=8cdce6cc-73f1-489b-8887-06f69f72139e"},"vehicle_type_id":"4","last_reported":1717607225,"current_range_meters":800,"station_id":"ce4bh512rcd13ifvqe3g","pricing_plan_id":"cebpf4jnsgd1na2vs0mg"},{"bike_id":"e7f248ee-88f7-470c-98a9-9c3ffe18afd5","system_id":"levelo_inurba_marseille","lat":43.283502,"lon":5.386471,"is_reserved":false,"is_disabled":false,"rental_uris":{"android":"levelo://app?vid=e7f248ee-88f7-470c-98a9-9c3ffe18afd5","ios":"levelo://app?vid=e7f248ee-88f7-470c-98a9-9c3ffe18afd5"},"vehicle_type_id":"4","last_reported":1717607225,"current_range_meters":20400,"station_id":"ce4bh492rcd13ifvqdvg","pricing_plan_id":"cebpf4jnsgd1na2vs0mg"},{"bike_id":"ee68b0b3-eeec-40e5-86b3-242cce8316e6","system_id":"levelo_inurba_marseille","lat":43.293768,"lon":5.401609,"is_reserved":false,"is_disabled":false,"rental_uris":{"android":"levelo://app?vid=ee68b0b3-eeec-40e5-86b3-242cce8316e6","ios":"levelo://app?vid=ee68b0b3-eeec-40e5-86b3-242cce8316e6"},"vehicle_type_id":"4","last_reported":1717607225,"current_range_meters":0,"station_id":"","pricing_plan_id":"cebpf4jnsgd1na2vs0mg"},{"bike_id":"d0a3bcd0-bfa1-4476-ad10-5e5404c3bcb4","system_id":"levelo_inurba_marseille","lat":43.289363,"lon":5.396322,"is_reserved":false,"is_disabled":false,"rental_uris":{"android":"levelo://app?vid=d0a3bcd0-bfa1-4476-ad10-5e5404c3bcb4","ios":"levelo://app?vid=d0a3bcd0-bfa1-4476-ad10-5e5404c3bcb4"},"vehicle_type_id":"4","last_reported":1717607225,"current_range_meters":400,"station_id":"ce4bh3h2rcd13ifvqdn0","pricing_plan_id":"cebpf4jnsgd1na2vs0mg"},{"bike_id":"c4672728-7538-4e0c-9caa-8e2ba707b52c","system_id":"levelo_inurba_marseille","lat":43.297794,"lon":5.370888,"is_reserved":false,"is_disabled":false,"rental_uris":{"android":"levelo://app?vid=c4672728-7538-4e0c-9caa-8e2ba707b52c","ios":"levelo://app?vid=c4672728-7538-4e0c-9caa-8e2ba707b52c"},"vehicle_type_id":"4","last_reported":1717607225,"current_range_meters":6800,"station_id":"ce4bgop2rcd13ifvqc1g","pricing_plan_id":"cebpf4jnsgd1na2vs0mg"},{"bike_id":"39a12adc-f8c8-496b-b6a2-17e3a805201e","system_id":"levelo_inurba_marseille","lat":43.283502,"lon":5.386471,"is_reserved":false,"is_disabled":false,"rental_uris":{"android":"levelo://app?vid=39a12adc-f8c8-496b-b6a2-17e3a805201e","ios":"levelo://app?vid=39a12adc-f8c8-496b-b6a2-17e3a805201e"},"vehicle_type_id":"4","last_reported":1717607225,"current_range_meters":15600,"station_id":"ce4bh492rcd13ifvqdvg","pricing_plan_id":"cebpf4jnsgd1na2vs0mg"},{"bike_id":"ce6132e9-5c01-464f-8d47-1666ddfc2846","system_id":"levelo_inurba_marseille","lat":43.282727,"lon":5.35077,"is_reserved":false,"is_disabled":false,"rental_uris":{"android":"levelo://app?vid=ce6132e9-5c01-464f-8d47-1666ddfc2846","ios":"levelo://app?vid=ce6132e9-5c01-464f-8d47-1666ddfc2846"},"vehicle_type_id":"4","last_reported":1717607225,"current_range_meters":0,"station_id":"ce4bhbp2rcd13ifvqerg","pricing_plan_id":"cebpf4jnsgd1na2vs0mg"},{"bike_id":"8708678c-586a-42d1-bbb7-91d4e4d05f0e","system_id":"levelo_inurba_marseille","lat":43.283502,"lon":5.386471,"is_reserved":false,"is_disabled":false,"rental_uris":{"android":"levelo://app?vid=8708678c-586a-42d1-bbb7-91d4e4d05f0e","ios":"levelo://app?vid=8708678c-586a-42d1-bbb7-91d4e4d05f0e"},