{"last_updated":1742418530,"ttl":60,"version":"2.2","data":{"bikes":[{"bike_id":"b546d303-3346-4344-a961-85eeb38b652f","system_id":"levelo_inurba_marseille","lat":43.32108,"lon":5.36802,"is_reserved":false,"is_disabled":false,"rental_uris":{"android":"levelo://app?vid=b546d303-3346-4344-a961-85eeb38b652f","ios":"levelo://app?vid=b546d303-3346-4344-a961-85eeb38b652f"},"vehicle_type_id":"4","last_reported":1742418530,"current_range_meters":2800,"station_id":"ce4bhrh2rcd13ifvqhug","pricing_plan_id":"cebpf4jnsgd1na2vs0mg"},{"bike_id":"866b1980-f074-4f66-8572-cdc0b341a864","system_id":"levelo_inurba_marseille","lat":43.29549,"lon":5.42289,"is_reserved":false,"is_disabled":false,"rental_uris":{"android":"levelo://app?vid=866b1980-f074-4f66-8572-cdc0b341a864","ios":"levelo://app?vid=866b1980-f074-4f66-8572-cdc0b341a864"},"vehicle_type_id":"4","last_reported":1742418530,"current_range_meters":2800,"station_id":"ce4bhph2rcd13ifvqhdg","pricing_plan_id":"cebpf4jnsgd1na2vs0mg"},{"bike_id":"4f6d11f4-8d23-4e35-8c59-e818e64ce7ab","system_id":"levelo_inurba_marseille","lat":43.29528,"lon":5.43899,"is_reserved":false,"is_disabled":false,"rental_uris":{"android":"levelo://app?vid=4f6d11f4-8d23-4e35-8c59-e818e64ce7ab","ios":"levelo://app?vid=4f6d11f4-8d23-4e35-8c59-e818e64ce7ab"},"vehicle_type_id":"4","last_reported":1742418530,"current_range_meters":2800,"station_id":"","pricing_plan_id":"cebpf4jnsgd1na2vs0mg"},{"bike_id":"e582d1fe-4879-4f27-8671-77ca2ba0d27e","system_id":"levelo_inurba_marseille","lat":43.2476,"lon":5.37444,"is_reserved":false,"is_disabled":true,"rental_uris":{"android":"levelo://app?vid=e582d1fe-4879-4f27-8671-77ca2ba0d27e","ios":"levelo://app?vid=e582d1fe-4879-4f27-8671-77ca2ba0d27e"},"vehicle_type_id":"4","last_reported":1742418530,"current_range_meters":3200,"station_id":"ce4bhgh2rcd13ifvqfb0","pricing_plan_id":"cebpf4jnsgd1na2vs0mg"},{"bike_id":"7be357ca-49f9-45d6-a962-754132a73fd4","system_id":"levelo_inurba_marseille","lat":43.30432,"lon":5.41257,"is_reserved":false,"is_disabled":false,"rental_uris":{"android":"levelo://app?vid=7be357ca-49f9-45d6-a962-754132a73fd4","ios":"levelo://app?vid=7be357ca-49f9-45d6-a962-754132a73fd4"},"vehicle_type_id":"4","last_reported":1742418530,"current_range_meters":3200,"station_id":"ce4bhop2rcd13ifvqh8g","pricing_plan_id":"cebpf4jnsgd1na2vs0mg"},{"bike_id":"d835339a-815c-4f2d-bc5f-06df97638758","system_id":"levelo_inurba_marseille","lat":43.31382,"lon":5.38575,"is_reserved":false,"is_disabled":false,"rental_uris":{"android":"levelo://app?vid=d835339a-815c-4f2d-bc5f-06df97638758","ios":"levelo://app?vid=d835339a-815c-4f2d-bc5f-06df97638758"},"vehicle_type_id":"4","last_reported":1742418530,"current_range_meters":3200,"station_id":"","pricing_plan_id":"cebpf4jnsgd1na2vs0mg"},{"bike_id":"bc192b8e-3136-483c-b8ba-221b1b263b3f","system_id":"levelo_inurba_marseille","lat":43.29365,"lon":5.37848,"is_reserved":false,"is_disabled":false,"rental_uris":{"android":"levelo://app?vid=bc192b8e-3136-483c-b8ba-221b1b263b3f","ios":"levelo://app?vid=bc192b8e-3136-483c-b8ba-221b1b263b3f"},"vehicle_type_id":"4","last_reported":1742418530,"current_range_meters":3200,"station_id":"ce4bgjh2rcd13ifvqbf0","pricing_plan_id":"cebpf4jnsgd1na2vs0mg"},{"bike_id":"6368f354-6da7-4884-a394-062f1a963ed6","system_id":"levelo_inurba_marseille","lat":43.29298,"lon":5.42807,"is_reserved":false,"is_disabled":false,"rental_uris":{"android":"levelo://app?vid=6368f354-6da7-4884-a394-062f1a963ed6","ios":"levelo://app?vid=6368f354-6da7-4884-a394-062f1a963ed6"},"vehicle_type_id":"4","last_reported":1742418530,"current_range_meters":3200,"station_id":"","pricing_plan_id":"cebpf4jnsgd1na2vs0mg"},{"bike_id":"d5ec9a1b-fda0-47e2-8154-7e7fec7e7d0c","system_id":"levelo_inurba_marseille","lat":43.297073,"lon":5.376942,"is_reserved":false,"is_disabled":false,"rental_uris":{"android":"levelo://app?vid=d5ec9a1b-fda0-47e2-8154-7e7fec7e7d0c","ios":"levelo://app?vid=d5ec9a1b-fda0-47e2-8154-7e7fec7e7d0c"},"vehicle_type_id":"4","last_reported":1742418530,"current_range_meters":3600,"station_id":"ce4bh092rcd13ifvqd20","pricing_plan_id":"cebpf4jnsgd1na2vs0mg"},{"bike_id":"97820cc4-93f7-472f-a6a3-bb0b3708ecd1","system_id":"levelo_inurba_marseille","lat":43.26565,"lon":5.37303,"is_reserved":false,"is_disabled":true,"rental_uris":{"android":"levelo://app?vid=97820cc4-93f7-472f-a6a3-bb0b3708ecd1","ios":"levelo://app?vid=97820cc4-93f7-472f-a6a3-bb0b3708ecd1"},"vehicle_type_id":"4","last_reported":1742418530,"current_range_meters":3600,"station_id":"ce4bhg12rcd13ifvqf70","pricing_plan_id":"cebpf4jnsgd1na2vs0mg"},{"bike_id":"65f2e387-3d15-4850-beb7-26b206f9b3c5","system_id":"levelo_inurba_marseille","lat":43.29016,"lon":5.38139,"is_reserved":false,"is_disabled":false,"rental_uris":{"android":"levelo://app?vid=65f2e387-3d15-4850-beb7-26b206f9b3c5","ios":"levelo://app?vid=65f2e387-3d15-4850-beb7-26b206f9b3c5"},"vehicle_type_id":"4","last_reported":1742418530,"current_range_meters":3600,"station_id":"ce4bh4p2rcd13ifvqe1g","pricing_plan_id":"cebpf4jnsgd1na2vs0mg"},{"bike_id":"a6848ecf-f524-428b-a6b1-b97c5d84425e","system_id":"levelo_inurba_marseille","lat":43.29594,"lon":5.38103,"is_reserved":false,"is_disabled":false,"rental_uris":{"android":"levelo://app?vid=a6848ecf-f524-428b-a6b1-b97c5d84425e","ios":"levelo://app?vid=a6848ecf-f524-428b-a6b1-b97c5d84425e"},"vehicle_type_id":"4","last_reported":1742418530,"current_range_meters":3600,"station_id":"ce4bgl12rcd13ifvqbo0","pricing_plan_id":"cebpf4jnsgd1na2vs0mg"},{"bike_id":"d36999e5-1ec8-4299-a4fc-068061d2f0c7","system_id":"levelo_inurba_marseille","lat":43.31295,"lon":5.40165,"is_reserved":false,"is_disabled":false,"rental_uris":{"android":"levelo://app?vid=d36999e5-1ec8-4299-a4fc-068061d2f0c7","ios":"levelo://app?vid=d36999e5-1ec8-4299-a4fc-068061d2f0c7"},"vehicle_type_id":"4","last_reported":1742418530,"current_range_meters":3600,"station_id":"ce4bh092rcd13ifvqd30","pricing_plan_id":"cebpf4jnsgd1na2vs0mg"},{"bike_id":"034cbda5-a269-406e-ac7d-9962861bb824","system_id":"levelo_inurba_marseille","lat":43.31771,"lon":5.39,"is_reserved":false,"is_disabled":false,"rental_uris":{"android":"levelo://app?vid=034cbda5-a269-406e-ac7d-9962861bb824","ios":"levelo://app?vid=034cbda5-a269-406e-ac7d-9962861bb824"},"vehicle_type_id":"4","last_reported":1742418530,"current_range_meters":4000,"station_id":"","pricing_plan_id":"cebpf4jnsgd1na2vs0mg"},{"bike_id":"8168e555-e617-42c3-b56a-13243fda4113","system_id":"levelo_inurba_marseille","lat":43.27942,"lon":5.41052,"is_reserved":false,"is_disabled":false,"rental_uris":{"android":"levelo://app?vid=8168e555-e617-42c3-b56a-13243fda4113","ios":"levelo://app?vid=8168e555-e617-42c3-b56a-13243fda4113"},"vehicle_type_id":"4","last_reported":1742418530,"current_range_meters":4000,"station_id":"ce4bhnp2rcd13ifvqh0g","pricing_plan_id":"cebpf4jnsgd1na2vs0mg"},{"bike_id":"0ee37656-cd08-498c-96fe-b71f2b7cc963","system_id":"levelo_inurba_marseille","lat":43.295211,"lon":5.394086,"is_reserved":false,"is_disabled":false,"rental_uris":{"android":"levelo://app?vid=0ee37656-cd08-498c-96fe-b71f2b7cc963","ios":"levelo://app?vid=0ee37656-cd08-498c-96fe-b71f2b7cc963"},"vehicle_type_id":"4","last_reported":1742418530,"current_range_meters":4000,"station_id":"ce4bh2h2rcd13ifvqdh0","pricing_plan_id":"cebpf4jnsgd1na2vs0mg"},{"bike_id":"72fa9928-6f34-4e20-a699-21c02d9b6490","system_id":"levelo_inurba_marseille","lat":43.27925,"lon":5.41235,"is_reserved":false,"is_disabled":false,"rental_uris":{"android":"levelo://app?vid=72fa9928-6f34-4e20-a699-21c02d9b6490","ios":"levelo://app?vid=72fa9928-6f34-4e20-a699-21c02d9b6490"},"vehicle_type_id":"4","last_reported":1742418530,"current_range_meters":4000,"station_id":"","pricing_plan_id":"cebpf4jnsgd1na2vs0mg"},{"bike_id":"55e8ed10-daa2-413a-980d-6a6eb45a229d","system_id":"levelo_inurba_marseille","lat":43.28397,"lon":5.38671,"is_reserved":false,"is_disabled":false,"rental_uris":{"android":"levelo://app?vid=55e8ed10-daa2-413a-980d-6a6eb45a229d","ios":"levelo://app?vid=55e8ed10-daa2-413a-980d-6a6eb45a229d"},"vehicle_type_id":"4","last_reported":1742418530,"current_range_meters":4400,"station_id":"","pricing_plan_id":"cebpf4jnsgd1na2vs0mg"},{"bike_id":"dd8419bd-cf17-4608-999b-08aad10dc248","system_id":"levelo_inurba_marseille","lat":43.27828,"lon":5.39194,"is_reserved":false,"is_disabled":false,"rental_uris":{"android":"levelo://app?vid=dd8419bd-cf17-4608-999b-08aad10dc248","ios":"levelo://app?vid=dd8419bd-cf17-4608-999b-08aad10dc248"},"vehicle_type_id":"4","last_reported":1742418530,"current_range_meters":4400,"station_id":"ce4bhjp2rcd13ifvqga0","pricing_plan_id":"cebpf4jnsgd1na2vs0mg"},{"bike_id":"a2a6db60-0906-4bdf-872c-8533f7fe0239","system_id":"levelo_inurba_marseille","lat":43.2623,"lon":5.40452,"is_reserved":false,"is_disabled":false,"rental_uris":{"android":"levelo://app?vid=a2a6db60-0906-4bdf-872c-8533f7fe0239","ios":"levelo://app?vid=a2a6db60-0906-4bdf-872c-8533f7fe0239"},"vehicle_type_id":"4","last_reported":1742418530,"current_range_meters":4400,"station_id":"ce4bhmh2rcd13ifvqgmg","pricing_plan_id":"cebpf4jnsgd1na2vs0mg"},{"bike_id":"4ab60c3c-0e31-4a02-9d5f-acb594ff22ad","system_id":"levelo_inurba_marseille","lat":43.2993,"lon":5.37444,"is_reserved":false,"is_disabled":true,"rental_uris":{"android":"levelo://app?vid=4ab60c3c-0e31-4a02-9d5f-acb594ff22ad","ios":"levelo://app?vid=4ab60c3c-0e31-4a02-9d5f-acb594ff22ad"},"vehicle_type_id":"4","last_reported":1742418530,"current_range_meters":4800,"station_id":"ce4bgjh2rcd13ifvqbg0","pricing_plan_id":"cebpf4jnsgd1na2vs0mg"},{"bike_id":"b5d8798f-11b4-47f7-9092-5c9090ff3fc0","system_id":"levelo_inurba_marseille","lat":43.28458,"lon":5.35879,"is_reserved":false,"is_disabled":false,"rental_uris":{"android":"levelo://app?vid=b5d8798f-11b4-47f7-9092-5c9090ff3fc0","ios":"levelo://app?vid=b5d8798f-11b4-47f7-9092-5c9090ff3fc0"},"vehicle_type_id":"4","last_reported":1742418530,"current_range_meters":4800,"station_id":"ce4bhah2rcd13ifvqei0","pricing_plan_id":"cebpf4jnsgd1na2vs0mg"},{"bike_id":"b345e4c6-bd73-4954-baa9-9ec5ebb82952","system_id":"levelo_inurba_marseille","lat":43.27498,"lon":5.424473,"is_reserved":false,"is_disabled":false,"rental_uris":{"android":"levelo://app?vid=b345e4c6-bd73-4954-baa9-9ec5ebb82952","ios":"levelo://app?vid=b345e4c6-bd73-4954-baa9-9ec5ebb82952"},"vehicle_type_id":"4","last_reported":1742418530,"current_range_meters":4800,"station_id":"ce4bhnh2rcd13ifvqgtg","pricing_plan_id":"cebpf4jnsgd1na2vs0mg"},{"bike_id":"dd2ed7bd-b7fd-4968-a45f-8f49550d4b0d","system_id":"levelo_inurba_marseille","lat":43.28446,"lon":5.39219,"is_reserved":false,"is_disabled":false,"rental_uris":{"android":"levelo://app?vid=dd2ed7bd-b7fd-4968-a45f-8f49550d4b0d","ios":"levelo://app?vid=dd2ed7bd-b7fd-4968-a45f-8f49550d4b0d"},"vehicle_type_id":"4","last_reported":1742418530,"current_range_meters":4800,"station_id":"ce4bhoh2rcd13ifvqh5g","pricing_plan_id":"cebpf4jnsgd1na2vs0mg"},{"bike_id":"8bd6d068-8b73-4fa0-abc0-b06f99a393a1","system_id":"levelo_inurba_marseille","lat":43.30928,"lon":5.40142,"is_reserved":false,"is_disabled":false,"rental_uris":{"android":"levelo://app?vid=8bd6d068-8b73-4fa0-abc0-b06f99a393a1","ios":"levelo://app?vid=8bd6d068-8b73-4fa0-abc0-b06f99a393a1"},"vehicle_type_id":"4","last_reported":1742418530,"current_range_meters":4800,"station_id":"ce4bgvp2rcd13ifvqct0","pricing_plan_id":"cebpf4jnsgd1na2vs0mg"},{"bike_id":"6ae6f76c-6a01-4d75-9d3f-dfa610803a78","system_id":"levelo_inurba_marseille","lat":43.23057,"lon":5.35497,"is_reserved":false,"is_disabled":false,"rental_uris":{"android":"levelo://app?vid=6ae6f76c-6a01-4d75-9d3f-dfa610803a78","ios":"levelo://app?vid=6ae6f76c-6a01-4d75-9d3f-dfa610803a78"},"vehicle_type_id":"4","last_reported":1742418530,"current_range_meters":5600,"station_id":"cpo3342slgdg3j2ifvpg","pricing_plan_id":"cebpf4jnsgd1na2vs0mg"},{"bike_id":"c849e512-8241-40ea-82b7-ef1c1b5cdc02","system_id":"levelo_inurba_marseille","lat":43.26059,"lon":5.39399,"is_reserved":false,"is_disabled":false,"rental_uris":{"android":"levelo://app?vid=c849e512-8241-40ea-82b7-ef1c1b5cdc02","ios":"levelo://app?vid=c849e512-8241-40ea-82b7-ef1c1b5cdc02"},"vehicle_type_id":"4","last_reported":1742418530,"current_range_meters":5600,"station_id":"ce4bhh92rcd13ifvqfj0","pricing_plan_id":"cebpf4jnsgd1na2vs0mg"},{"bike_id":"93b2091f-b2f1-4836-a0f1-18627058ed3f","system_id":"levelo_inurba_marseille","lat":43.29621,"lon":5.37162,"is_reserved":false,"is_disabled":false,"rental_uris":{"android":"levelo://app?vid=93b2091f-b2f1-4836-a0f1-18627058ed3f","ios":"levelo://app?vid=93b2091f-b2f1-4836-a0f1-18627058ed3f"},"vehicle_type_id":"4","last_reported":1742418530,"current_range_meters":5600,"station_id":"ce4bgnh2rcd13ifvqc0g","pricing_plan_id":"cebpf4jnsgd1na2vs0mg"},{"bike_id":"36398751-62bc-42f9-97fc-ed7aa66a199a","system_id":"levelo_inurba_marseille","lat":43.24805,"lon":5.37453,"is_reserved":false,"is_disabled":false,"rental_uris":{"android":"levelo://app?vid=36398751-62bc-42f9-97fc-ed7aa66a199a","ios":"levelo://app?vid=36398751-62bc-42f9-97fc-ed7aa66a199a"},"vehicle_type_id":"4","last_reported":1742418530,"current_range_meters":5600,"station_id":"ce4bhgh2rcd13ifvqfb0","pricing_plan_id":"cebpf4jnsgd1na2vs0mg"},{"bike_id":"0b60e72b-d8b1-4266-9b63-b94b87c1ad4b","system_id":"levelo_inurba_marseille","lat":43.23184,"lon":5.39997,"is_reserved":false,"is_disabled":false,"rental_uris":{"android":"levelo://app?vid=0b60e72b-d8b1-4266-9b63-b94b87c1ad4b","ios":"levelo://app?vid=0b60e72b-d8b1-4266-9b63-b94b87c1ad4b"},"vehicle_type_id":"4","last_reported":1742418530,"current_range_meters":6000,"station_id":"ce4bhn12rcd13ifvqgqg","pricing_plan_id":"cebpf4jnsgd1na2vs0mg"},{"bike_id":"41ccd72c-504a-4b33-907d-e3b6bd114bcb","system_id":"levelo_inurba_marseille","lat":43.23191,"lon":5.3555,"is_reserved":false,"is_disabled":false,"rental_uris":{"android":"levelo://app?vid=41ccd72c-504a-4b33-907d-e3b6bd114bcb","ios":"levelo://app?vid=41ccd72c-504a-4b33-907d-e3b6bd114bcb"},"vehicle_type_id":"4","last_reported":1742418530,"current_range_meters":6000,"station_id":"ce4bhu92rcd13ifvqi70","pricing_plan_id":"cebpf4jnsgd1na2vs0mg"},{"bike_id":"ff40212a-8f7d-43a8-822c-31c34c2bf0d5","system_id":"levelo_inurba_marseille","lat":43.24978,"lon":5.3888,"is_reserved":false,"is_disabled":false,"rental_uris":{"android":"levelo://app?vid=ff40212a-8f7d-43a8-822c-31c34c2bf0d5","ios":"levelo://app?vid=ff40212a-8f7d-43a8-822c-31c34c2bf0d5"},"vehicle_type_id":"4","last_reported":1742418530,"current_range_meters":6000,"station_id":"ce4bhgp2rcd13ifvqfd0","pricing_plan_id":"cebpf4jnsgd1na2vs0mg"},{"bike_id":"2035527b-b6ce-4eef-a5ec-3d5450657558","system_id":"levelo_inurba_marseille","lat":43.27068,"lon":5.42277,"is_reserved":false,"is_disabled":false,"rental_uris":{"android":"levelo://app?vid=2035527b-b6ce-4eef-a5ec-3d5450657558","ios":"levelo://app?vid=2035527b-b6ce-4eef-a5ec-3d5450657558"},"vehicle_type_id":"4","last_reported":1742418530,"current_range_meters":6000,"station_id":"ce4bhk92rcd13ifvqgb0","pricing_plan_id":"cebpf4jnsgd1na2vs0mg"},{"bike_id":"d0f8fd34-84ff-4859-8903-7aee9c800007","system_id":"levelo_inurba_marseille","lat":43.2836,"lon":5.38647,"is_reserved":false,"is_disabled":false,"rental_uris":{"android":"levelo://app?vid=d0f8fd34-84ff-4859-8903-7aee9c800007","ios":"levelo://app?vid=d0f8fd34-84ff-4859-8903-7aee9c800007"},"vehicle_type_id":"4","last_reported":1742418530,"current_range_meters":6400,"station_id":"ce4bh492rcd13ifvqdvg","pricing_plan_id":"cebpf4jnsgd1na2vs0mg"},{"bike_id":"41fc730b-aaed-484a-b95c-e85e51b6a6cd","system_id":"levelo_inurba_marseille","lat":43.28451,"lon":5.39192,"is_reserved":false,"is_disabled":false,"rental_uris":{"android":"levelo://app?vid=41fc730b-aaed-484a-b95c-e85e51b6a6cd","ios":"levelo://app?vid=41fc730b-aaed-484a-b95c-e85e51b6a6cd"},"vehicle_type_id":"4","last_reported":1742418530,"current_range_meters":6400,"station_id":"ce4bhoh2rcd13ifvqh5g","pricing_plan_id":"cebpf4jnsgd1na2vs0mg"},{"bike_id":"19803d82-a97f-4917-bf3a-11df39355ffb","system_id":"levelo_inurba_marseille","lat":43.31081,"lon":5.42427,"is_reserved":false,"is_disabled":false,"rental_uris":{"android":"levelo://app?vid=19803d82-a97f-4917-bf3a-11df39355ffb","ios":"levelo://app?vid=19803d82-a97f-4917-bf3a-11df39355ffb"},"vehicle_type_id":"4","last_reported":1742418530,"current_range_meters":6400,"station_id":"ce4bhp92rcd13ifvqhag","pricing_plan_id":"cebpf4jnsgd1na2vs0mg"},{"bike_id":"c1ccf0a5-89fe-4d49-a5d7-808fb720c652","system_id":"levelo_inurba_marseille","lat":43.26025,"lon":5.41736,"is_reserved":false,"is_disabled":false,"rental_uris":{"android":"levelo://app?vid=c1ccf0a5-89fe-4d49-a5d7-808fb720c652","ios":"levelo://app?vid=c1ccf0a5-89fe-4d49-a5d7-808fb720c652"},"vehicle_type_id":"4","last_reported":1742418530,"current_range_meters":6400,"station_id":"","pricing_plan_id":"cebpf4jnsgd1na2vs0mg"},{"bike_id":"ca1c0a28-8faf-435f-9d8b-370c3a07ff34","system_id":"levelo_inurba_marseille","lat":43.24168,"lon":5.36398,"is_reserved":false,"is_disabled":false,"rental_uris":{"android":"levelo://app?vid=ca1c0a28-8faf-435f-9d8b-370c3a07ff34","ios":"levelo://app?vid=ca1c0a28-8faf-435f-9d8b-370c3a07ff34"},"vehicle_type_id":"4","last_reported":1742418530,"current_range_meters":6400,"station_id":"cpo36qri1sfpv3e86is0","pricing_plan_id":"cebpf4jnsgd1na2vs0mg"},{"bike_id":"d5fe0273-3fe3-4ec3-9cb6-6899c6117981","system_id":"levelo_inurba_marseille","lat":43.30263,"lon":5.40057,"is_reserved":false,"is_disabled":false,"rental_uris":{"android":"levelo://app?vid=d5fe0273-3fe3-4ec3-9cb6-6899c6117981","ios":"levelo://app?vid=d5fe0273-3fe3-4ec3-9cb6-6899c6117981"},"vehicle_type_id":"4","last_reported":1742418530,"current_range_meters":6400,"station_id":"ce4bgvh2rcd13ifvqcs0","pricing_plan_id":"cebpf4jnsgd1na2vs0mg"},{"bike_id":"5492c9f5-0c72-481c-98bb-fd4a8c27476f","system_id":"levelo_inurba_marseille","lat":43.29261,"lon":5.40903,"is_reserved":false,"is_disabled":false,"rental_uris":{"android":"levelo://app?vid=5492c9f5-0c72-481c-98bb-fd4a8c27476f","ios":"levelo://app?vid=5492c9f5-0c72-481c-98bb-fd4a8c27476f"},"vehicle_type_id":"4","last_reported":1742418530,"current_range_meters":6400,"station_id":"ce4bh192rcd13ifvqdc0","pricing_plan_id":"cebpf4jnsgd1na2vs0mg"},{"bike_id":"5edb3c9d-ffdb-4b2a-b674-17f6a28418bf","system_id":"levelo_inurba_marseille","lat":43.3228,"lon":5.38285,"is_reserved":false,"is_disabled":false,"rental_uris":{"android":"levelo://app?vid=5edb3c9d-ffdb-4b2a-b674-17f6a28418bf","ios":"levelo://app?vid=5edb3c9d-ffdb-4b2a-b674-17f6a28418bf"},"vehicle_type_id":"4","last_reported":1742418530,"current_range_meters":6400,"station_id":"ce4bhr12rcd13ifvqhqg","pricing_plan_id":"cebpf4jnsgd1na2vs0mg"},{"bike_id":"6c1383c4-ce25-49bd-9e8f-5404db35746c","system_id":"levelo_inurba_marseille","lat":43.23631,"lon":5.39138,"is_reserved":false,"is_disabled":false,"rental_uris":{"android":"levelo://app?vid=6c1383c4-ce25-49bd-9e8f-5404db35746c","ios":"levelo://app?vid=6c1383c4-ce25-49bd-9e8f-5404db35746c"},"vehicle_type_id":"4","last_reported":1742418530,"current_range_meters":6400,"station_id":"","pricing_plan_id":"cebpf4jnsgd1na2vs0mg"},{"bike_id":"d27a5e18-2196-4f86-939b-320a6afb5d8b","system_id":"levelo_inurba_marseille","lat":43.28576,"lon":5.395,"is_reserved":false,"is_disabled":false,"rental_uris":{"android":"levelo://app?vid=d27a5e18-2196-4f86-939b-320a6afb5d8b","ios":"levelo://app?vid=d27a5e18-2196-4f86-939b-320a6afb5d8b"},"vehicle_type_id":"4","last_reported":1742418530,"current_range_meters":6400,"station_id":"ce4bh292rcd13ifvqdg0","pricing_plan_id":"cebpf4jnsgd1na2vs0mg"},{"bike_id":"3971f77a-b88d-4f35-bb02-cd0729f773be","system_id":"levelo_inurba_marseille","lat":43.25824,"lon":5.39433,"is_reserved":false,"is_disabled":false,"rental_uris":{"android":"levelo://app?vid=3971f77a-b88d-4f35-bb02-cd0729f773be","ios":"levelo://app?vid=3971f77a-b88d-4f35-bb02-cd0729f773be"},"vehicle_type_id":"4","last_reported":1742418530,"current_range_meters":6400,"station_id":"ce4bhip2rcd13ifvqft0","pricing_plan_id":"cebpf4jnsgd1na2vs0mg"},{"bike_id":"b4de28f4-8a25-4498-9ea9-5ae001331785","system_id":"levelo_inurba_marseille","lat":43.24675,"lon":5.3814,"is_reserved":false,"is_disabled":false,"rental_uris":{"android":"levelo://app?vid=b4de28f4-8a25-4498-9ea9-5ae001331785","ios":"levelo://app?vid=b4de28f4-8a25-4498-9ea9-5ae001331785"},"vehicle_type_id":"4","last_reported":1742418530,"current_range_meters":6400,"station_id":"ce4bhih2rcd13ifvqfr0","pricing_plan_id":"cebpf4jnsgd1na2vs0mg"},{"bike_id":"b36b5f2d-4147-490f-82d4-b7caf91b5ae2","system_id":"levelo_inurba_marseille","lat":43.29264,"lon":5.37626,"is_reserved":false,"is_disabled":false,"rental_uris":{"android":"levelo://app?vid=b36b5f2d-4147-490f-82d4-b7caf91b5ae2","ios":"levelo://app?vid=b36b5f2d-4147-490f-82d4-b7caf91b5ae2"},"vehicle_type_id":"4","last_reported":1742418530,"current_range_meters":6400,"station_id":"ce4bgi12rcd13ifvqb80","pricing_plan_id":"cebpf4jnsgd1na2vs0mg"},{"bike_id":"93c8459b-99b3-44b8-ba99-136ecf8bee55","system_id":"levelo_inurba_marseille","lat":43.248,"lon":5.37461,"is_reserved":false,"is_disabled":false,"rental_uris":{"android":"levelo://app?vid=93c8459b-99b3-44b8-ba99-136ecf8bee55","ios":"levelo://app?vid=93c8459b-99b3-44b8-ba99-136ecf8bee55"},"vehicle_type_id":"4","last_reported":1742418530,"current_range_meters":6800,"station_id":"ce4bhgh2rcd13ifvqfb0","pricing_plan_id":"cebpf4jnsgd1na2vs0mg"},{"bike_id":"a342afa1-fe1b-4de5-8f98-f3f81167fac6","system_id":"levelo_inurba_marseille","lat":43.22943,"lon":5.35368,"is_reserved":false,"is_disabled":false,"rental_uris":{"android":"levelo://app?vid=a342afa1-fe1b-4de5-8f98-f3f81167fac6","ios":"levelo://app?vid=a342afa1-fe1b-4de5-8f98-f3f81167fac6"},"vehicle_type_id":"4","last_reported":1742418530,"current_range_meters":6800,"station_id":"cpo3532slgdg3j2ikp40","pricing_plan_id":"cebpf4jnsgd1na2vs0mg"},{"bike_id":"65dada9a-7123-44f0-a60e-83a1f94fca2c","system_id":"levelo_inurba_marseille","lat":43.29275,"lon":5.38415,"is_reserved":false,"is_disabled":false,"rental_uris":{"android":"levelo://app?vid=65dada9a-7123-44f0-a60e-83a1f94fca2c","ios":"levelo://app?vid=65dada9a-7123-44f0-a60e-83a1f94fca2c"},"vehicle_type_id":"4","last_reported":1742418530,"current_range_meters":6800,"station_id":"ce4bh692rcd13ifvqea0","pricing_plan_id":"cebpf4jnsgd1na2vs0mg"},{"bike_id":"8a2aee9f-027f-415a-9d5c-83912e4bbe0d","system_id":"levelo_inurba_marseille","lat":43.3175,"lon":5.39026,"is_reserved":false,"is_disabled":false,"rental_uris":{"android":"levelo://app?vid=8a2aee9f-027f-415a-9d5c-83912e4bbe0d","ios":"levelo://app?vid=8a2aee9f-027f-415a-9d5c-83912e4bbe0d"},"vehicle_type_id":"4","last_reported":1742418530,"current_range_meters":6800,"station_id":"ce4bhqp2rcd13ifvqhng","pricing_plan_id":"cebpf4jnsgd1na2vs0mg"},{"bike_id":"61515760-6e6a-49fe-8e6d-03d046204a7d","system_id":"levelo_inurba_marseille","lat":43.30243,"lon":5.40055,"is_reserved":false,"is_disabled":false,"rental_uris":{"android":"levelo://app?vid=61515760-6e6a-49fe-8e6d-03d046204a7d","ios":"levelo://app?vid=61515760-6e6a-49fe-8e6d-03d046204a7d"},"vehicle_type_id":"4","last_reported":1742418530,"current_range_meters":6800,"station_id":"ce4bgvh2rcd13ifvqcs0","pricing_plan_id":"cebpf4jnsgd1na2vs0mg"},{"bike_id":"66ebd736-d0e1-4909-b91a-8b8e170e1ed9","system_id":"levelo_inurba_marseille","lat":43.24075,"lon":5.37758,"is_reserved":false,"is_disabled":false,"rental_uris":{"android":"levelo://app?vid=66ebd736-d0e1-4909-b91a-8b8e170e1ed9","ios":"levelo://app?vid=66ebd736-d0e1-4909-b91a-8b8e170e1ed9"},"vehicle_type_id":"4","last_reported":1742418530,"current_range_meters":6800,"station_id":"ce4bhnp2rcd13ifvqgvg","pricing_plan_id":"cebpf4jnsgd1na2vs0mg"},{"bike_id":"4156866b-a0ed-4dcf-b9d2-e7765ca102e2","system_id":"levelo_inurba_marseille","lat":43.30558,"lon":5.36693,"is_reserved":false,"is_disabled":true,"rental_uris":{"android":"levelo://app?vid=4156866b-a0ed-4dcf-b9d2-e7765ca102e2","ios":"levelo://app?vid=4156866b-a0ed-4dcf-b9d2-e7765ca102e2"},"vehicle_type_id":"4","last_reported":1742418530,"current_range_meters":6800,"station_id":"ce4bgrp2rcd13ifvqc9g","pricing_plan_id":"cebpf4jnsgd1na2vs0mg"},{"bike_id":"13c50ce8-ac37-403c-9a91-fd3d918d2a4f","system_id":"levelo_inurba_marseille","lat":43.27803,"lon":5.40705,"is_reserved":false,"is_disabled":false,"rental_uris":{"android":"levelo://app?vid=13c50ce8-ac37-403c-9a91-fd3d918d2a4f","ios":"levelo://app?vid=13c50ce8-ac37-403c-9a91-fd3d918d2a4f"},"vehicle_type_id":"4","last_reported":1742418530,"current_range_meters":6800,"station_id":"ce4bhnh2rcd13ifvqgtg","pricing_plan_id":"cebpf4jnsgd1na2vs0mg"},{"bike_id":"ce0cc948-e467-4b5b-b77b-bc6fc312ce93","system_id":"levelo_inurba_marseille","lat":43.29876,"lon":5.39733,"is_reserved":false,"is_disabled":false,"rental_uris":{"android":"levelo://app?vid=ce0cc948-e467-4b5b-b77b-bc6fc312ce93","ios":"levelo://app?vid=ce0cc948-e467-4b5b-b77b-bc6fc312ce93"},"vehicle_type_id":"4","last_reported":1742418530,"current_range_meters":6800,"station_id":"ce4bh0h2rcd13ifvqd50","pricing_plan_id":"cebpf4jnsgd1na2vs0mg"},{"bike_id":"b4b33c05-bb25-4248-837c-6ccfa12285f5","system_id":"levelo_inurba_marseille","lat":43.28482,"lon":5.38424,"is_reserved":false,"is_disabled":false,"rental_uris":{"android":"levelo://app?vid=b4b33c05-bb25-4248-837c-6ccfa12285f5","ios":"levelo://app?vid=b4b33c05-bb25-4248-837c-6ccfa12285f5"},"vehicle_type_id":"4","last_reported":1742418530,"current_range_meters":6800,"station_id":"ce4bh512rcd13ifvqe3g","pricing_plan_id":"cebpf4jnsgd1na2vs0mg"},{"bike_id":"d3aee935-e07d-4388-bbdb-0f36c5d2addd","system_id":"levelo_inurba_marseille","lat":43.28696,"lon":5.37365,"is_reserved":false,"is_disabled":false,"rental_uris":{"android":"levelo://app?vid=d3aee935-e07d-4388-bbdb-0f36c5d2addd","ios":"levelo://app?vid=d3aee935-e07d-4388-bbdb-0f36c5d2addd"},"vehicle_type_id":"4","last_reported":1742418530,"current_range_meters":7200,"station_id":"ce4bh3p2rcd13ifvqdq0","pricing_plan_id":"cebpf4jnsgd1na2vs0mg"},{"bike_id":"361822fa-663c-449d-9c8f-b3dec5b6d89a","system_id":"levelo_inurba_marseille","lat":43.27493,"lon":5.42452,"is_reserved":false,"is_disabled":false,"rental_uris":{"android":"levelo://app?vid=361822fa-663c-449d-9c8f-b3dec5b6d89a","ios":"levelo://app?vid=361822fa-663c-449d-9c8f-b3dec5b6d89a"},"vehicle_type_id":"4","last_reported":1742418530,"current_range_meters":7200,"station_id":"ce4bhn92rcd13ifvqgrg","pricing_plan_id":"cebpf4jnsgd1na2vs0mg"},{"bike_id":"f6ab5706-aa19-447f-bbcb-333c7534d072","system_id":"levelo_inurba_marseille","lat":43.30882,"lon":5.39653,"is_reserved":false,"is_disabled":false,"rental_uris":{"android":"levelo://app?vid=f6ab5706-aa19-447f-bbcb-333c7534d072","ios":"levelo://app?vid=f6ab5706-aa19-447f-bbcb-333c7534d072"},"vehicle_type_id":"4","last_reported":1742418530,"current_range_meters":7200,"station_id":"ce4bh012rcd13ifvqcv0","pricing_plan_id":"cebpf4jnsgd1na2vs0mg"},{"bike_id":"3c0f86bf-2134-4462-a7ab-79aaede557c9","system_id":"levelo_inurba_marseille","lat":43.31714,"lon":5.437,"is_reserved":false,"is_disabled":false,"rental_uris":{"android":"levelo://app?vid=3c0f86bf-2134-4462-a7ab-79aaede557c9","ios":"levelo://app?vid=3c0f86bf-2134-4462-a7ab-79aaede557c9"},"vehicle_type_id":"4","last_reported":1742418530,"current_range_meters":7200,"station_id":"ce4bhp92rcd13ifvqhcg","pricing_plan_id":"cebpf4jnsgd1na2vs0mg"},{"bike_id":"d43599d8-c16c-4842-b6dc-ca6752aebd6f","system_id":"levelo_inurba_marseille","lat":43.287019,"lon":5.399836,"is_reserved":false,"is_disabled":false,"rental_uris":{"android":"levelo://app?vid=d43599d8-c16c-4842-b6dc-ca6752aebd6f","ios":"levelo://app?vid=d43599d8-c16c-4842-b6dc-ca6752aebd6f"},"vehicle_type_id":"4","last_reported":1742418530,"current_range_meters":7200,"station_id":"ce4bho92rcd13ifvqh4g","pricing_plan_id":"cebpf4jnsgd1na2vs0mg"},{"bike_id":"4f70ebff-4208-422e-8c95-09d5bebf9c84","system_id":"levelo_inurba_marseille","lat":43.27904,"lon":5.39592,"is_reserved":false,"is_disabled":false,"rental_uris":{"android":"levelo://app?vid=4f70ebff-4208-422e-8c95-09d5bebf9c84","ios":"levelo://app?vid=4f70ebff-4208-422e-8c95-09d5bebf9c84"},"vehicle_type_id":"4","last_reported":1742418530,"current_range_meters":7200,"station_id":"ce4bhf92rcd13ifvqf40","pricing_plan_id":"cebpf4jnsgd1na2vs0mg"},{"bike_id":"bd25a329-7d73-43e8-adee-cc2e8fcad7d9","system_id":"levelo_inurba_marseille","lat":43.255798,"lon":5.382198,"is_reserved":false,"is_disabled":false,"rental_uris":{"android":"levelo://app?vid=bd25a329-7d73-43e8-adee-cc2e8fcad7d9","ios":"levelo://app?vid=bd25a329-7d73-43e8-adee-cc2e8fcad7d9"},"vehicle_type_id":"4","last_reported":1742418530,"current_range_meters":7200,"station_id":"ce4bhih2rcd13ifvqfs0","pricing_plan_id":"cebpf4jnsgd1na2vs0mg"},{"bike_id":"c632951f-97ff-4417-a231-2f19dfc211bb","system_id":"levelo_inurba_marseille","lat":43.27832,"lon":5.40698,"is_reserved":false,"is_disabled":false,"rental_uris":{"android":"levelo://app?vid=c632951f-97ff-4417-a231-2f19dfc211bb","ios":"levelo://app?vid=c632951f-97ff-4417-a231-2f19dfc211bb"},"vehicle_type_id":"4","last_reported":1742418530,"current_range_meters":8000,"station_id":"ce4bhnh2rcd13ifvqgtg","pricing_plan_id":"cebpf4jnsgd1na2vs0mg"},{"bike_id":"4d88e6a5-06b6-482a-9f32-a384960efa8d","system_id":"levelo_inurba_marseille","lat":43.28455,"lon":5.35876,"is_reserved":false,"is_disabled":false,"rental_uris":{"android":"levelo://app?vid=4d88e6a5-06b6-482a-9f32-a384960efa8d","ios":"levelo://app?vid=4d88e6a5-06b6-482a-9f32-a384960efa8d"},"vehicle_type_id":"4","last_reported":1742418530,"current_range_meters":7200,"station_id":"ce4bhah2rcd13ifvqei0","pricing_plan_id":"cebpf4jnsgd1na2vs0mg"},{"bike_id":"693926d2-fd1b-4d98-a528-fed8b223a2c0","system_id":"levelo_inurba_marseille","lat":43.28029,"lon":5.36941,"is_reserved":false,"is_disabled":false,"rental_uris":{"android":"levelo://app?vid=693926d2-fd1b-4d98-a528-fed8b223a2c0","ios":"levelo://app?vid=693926d2-fd1b-4d98-a528-fed8b223a2c0"},"vehicle_type_id":"4","last_reported":1742418530,"current_range_meters":7200,"station_id":"ce4bha12rcd13ifvqef0","pricing_plan_id":"cebpf4jnsgd1na2vs0mg"},{"bike_id":"20df28b8-63d2-4593-9af7-4b359afeb27a","system_id":"levelo_inurba_marseille","lat":43.27569,"lon":5.38408,"is_reserved":false,"is_disabled":false,"rental_uris":{"android":"levelo://app?vid=20df28b8-63d2-4593-9af7-4b359afeb27a","ios":"levelo://app?vid=20df28b8-63d2-4593-9af7-4b359afeb27a"},"vehicle_type_id":"4","last_reported":1742418530,"current_range_meters":7200,"station_id":"ce4bhh92rcd13ifvqfi0","pricing_plan_id":"cebpf4jnsgd1na2vs0mg"},{"bike_id":"6a02b16b-6b01-401c-9ecc-2a4df284b787","system_id":"levelo_inurba_marseille","lat":43.29774,"lon":5.38126,"is_reserved":false,"is_disabled":false,"rental_uris":{"android":"levelo://app?vid=6a02b16b-6b01-401c-9ecc-2a4df284b787","ios":"levelo://app?vid=6a02b16b-6b01-401c-9ecc-2a4df284b787"},"vehicle_type_id":"4","last_reported":1742418530,"current_range_meters":7200,"station_id":"ce4bgip2rcd13ifvqbb0","pricing_plan_id":"cebpf4jnsgd1na2vs0mg"},{"bike_id":"cd3f6418-d471-43bd-a8af-c4289f0429a3","system_id":"levelo_inurba_marseille","lat":43.24187,"lon":5.39717,"is_reserved":false,"is_disabled":false,"rental_uris":{"android":"levelo://app?vid=cd3f6418-d471-43bd-a8af-c4289f0429a3","ios":"levelo://app?vid=cd3f6418-d471-43bd-a8af-c4289f0429a3"},"vehicle_type_id":"4","last_reported":1742418530,"current_range_meters":8000,"station_id":"ce4bhn12rcd13ifvqgpg","pricing_plan_id":"cebpf4jnsgd1na2vs0mg"},{"bike_id":"1fe8cbb2-e61f-4748-8f3f-eff906305549","system_id":"levelo_inurba_marseille","lat":43.23051,"lon":5.35494,"is_reserved":false,"is_disabled":false,"rental_uris":{"android":"levelo://app?vid=1fe8cbb2-e61f-4748-8f3f-eff906305549","ios":"levelo://app?vid=1fe8cbb2-e61f-4748-8f3f-eff906305549"},"vehicle_type_id":"4","last_reported":1742418530,"current_range_meters":8000,"station_id":"cpo3342slgdg3j2ifvpg","pricing_plan_id":"cebpf4jnsgd1na2vs0mg"},{"bike_id":"10eed6fd-0341-4510-a4a6-4c8769f4a4be","system_id":"levelo_inurba_marseille","lat":43.2672,"lon":5.38255,"is_reserved":false,"is_disabled":false,"rental_uris":{"android":"levelo://app?vid=10eed6fd-0341-4510-a4a6-4c8769f4a4be","ios":"levelo://app?vid=10eed6fd-0341-4510-a4a6-4c8769f4a4be"},"vehicle_type_id":"4","last_reported":1742418530,"current_range_meters":8000,"station_id":"ce4bhg92rcd13ifvqf90","pricing_plan_id":"cebpf4jnsgd1na2vs0mg"},{"bike_id":"ad0e3bf3-bd98-4189-88dd-fcf644312688","system_id":"levelo_inurba_marseille","lat":43.27651,"lon":5.38945,"is_reserved":false,"is_disabled":false,"rental_uris":{"android":"levelo://app?vid=ad0e3bf3-bd98-4189-88dd-fcf644312688","ios":"levelo://app?vid=ad0e3bf3-bd98-4189-88dd-fcf644312688"},"vehicle_type_id":"4","last_reported":1742418530,"current_range_meters":8000,"station_id":"ce4bhah2rcd13ifvqei0","pricing_plan_id":"cebpf4jnsgd1na2vs0mg"},{"bike_id":"ed32af05-a93a-40af-b3e3-3171404acc80","system_id":"levelo_inurba_marseille","lat":43.2738,"lon":5.36253,"is_reserved":false,"is_disabled":false,"rental_uris":{"android":"levelo://app?vid=ed32af05-a93a-40af-b3e3-3171404acc80","ios":"levelo://app?vid=ed32af05-a93a-40af-b3e3-3171404acc80"},"vehicle_type_id":"4","last_reported":1742418530,"current_range_meters":8000,"station_id":"ce4bhbh2rcd13ifvqeo0","pricing_plan_id":"cebpf4jnsgd1na2vs0mg"},{"bike_id":"478ecfc4-5241-4dbc-9c90-9e831269f219","system_id":"levelo_inurba_marseille","lat":43.29,"lon":5.38635,"is_reserved":false,"is_disabled":true,"rental_uris":{"android":"levelo://app?vid=478ecfc4-5241-4dbc-9c90-9e831269f219","ios":"levelo://app?vid=478ecfc4-5241-4dbc-9c90-9e831269f219"},"vehicle_type_id":"4","last_reported":1742418530,"current_range_meters":8000,"station_id":"ce4bh4p2rcd13ifvqe0g","pricing_plan_id":"cebpf4jnsgd1na2vs0mg"},{"bike_id":"4858167e-edc8-4792-9d1c-05670cc1275f","system_id":"levelo_inurba_marseille","lat":43.29295,"lon":5.42752,"is_reserved":false,"is_disabled":false,"rental_uris":{"android":"levelo://app?vid=4858167e-edc8-4792-9d1c-05670cc1275f","ios":"levelo://app?vid=4858167e-edc8-4792-9d1c-05670cc1275f"},"vehicle_type_id":"4","last_reported":1742418530,"current_range_meters":8000,"station_id":"","pricing_plan_id":"cebpf4jnsgd1na2vs0mg"},{"bike_id":"e9d156ea-d1f0-412f-b0c8-f57dadc5a7c4","system_id":"levelo_inurba_marseille","lat":43.3079,"lon":5.3816,"is_reserved":false,"is_disabled":false,"rental_uris":{"android":"levelo://app?vid=e9d156ea-d1f0-412f-b0c8-f57dadc5a7c4","ios":"levelo://app?vid=e9d156ea-d1f0-412f-b0c8-f57dadc5a7c4"},"vehicle_type_id":"4","last_reported":1742418530,"current_range_meters":8000,"station_id":"ce4bgt12rcd13ifvqce0","pricing_plan_id":"cebpf4jnsgd1na2vs0mg"},{"bike_id":"4fa0322d-b201-409d-9218-57726b4a4ca2","system_id":"levelo_inurba_marseille","lat":43.30655,"lon":5.40045,"is_reserved":false,"is_disabled":false,"rental_uris":{"android":"levelo://app?vid=4fa0322d-b201-409d-9218-57726b4a4ca2","ios":"levelo://app?vid=4fa0322d-b201-409d-9218-57726b4a4ca2"},"vehicle_type_id":"4","last_reported":1742418530,"current_range_meters":8000,"station_id":"ce4bh112rcd13ifvqda0","pricing_plan_id":"cebpf4jnsgd1na2vs0mg"},{"bike_id":"dfcc8bbb-6cc0-487f-9f53-6c4f09735ec3","system_id":"levelo_inurba_marseille","lat":43.27492,"lon":5.42453,"is_reserved":false,"is_disabled":true,"rental_uris":{"android":"levelo://app?vid=dfcc8bbb-6cc0-487f-9f53-6c4f09735ec3","ios":"levelo://app?vid=dfcc8bbb-6cc0-487f-9f53-6c4f09735ec3"},"vehicle_type_id":"4","last_reported":1742418530,"current_range_meters":8000,"station_id":"ce4bhn92rcd13ifvqgrg","pricing_plan_id":"cebpf4jnsgd1na2vs0mg"},{"bike_id":"704bac85-0999-494b-ab70-f77e05470586","system_id":"levelo_inurba_marseille","lat":43.27955,"lon":5.41042,"is_reserved":false,"is_disabled":false,"rental_uris":{"android":"levelo://app?vid=704bac85-0999-494b-ab70-f77e05470586","ios":"levelo://app?vid=704bac85-0999-494b-ab70-f77e05470586"},"vehicle_type_id":"4","last_reported":1742418530,"current_range_meters":8000,"station_id":"ce4bhnp2rcd13ifvqh0g","pricing_plan_id":"cebpf4jnsgd1na2vs0mg"},{"bike_id":"25793b0d-d8a7-4fb7-bbd3-bb61178801a0","system_id":"levelo_inurba_marseille","lat":43.30979,"lon":5.37011,"is_reserved":false,"is_disabled":false,"rental_uris":{"android":"levelo://app?vid=25793b0d-d8a7-4fb7-bbd3-bb61178801a0","ios":"levelo://app?vid=25793b0d-d8a7-4fb7-bbd3-bb61178801a0"},"vehicle_type_id":"4","last_reported":1742418530,"current_range_meters":8400,"station_id":"","pricing_plan_id":"cebpf4jnsgd1na2vs0mg"},{"bike_id":"5da21120-765c-493a-addc-469da6f3f383","system_id":"levelo_inurba_marseille","lat":43.30824,"lon":5.37519,"is_reserved":false,"is_disabled":false,"rental_uris":{"android":"levelo://app?vid=5da21120-765c-493a-addc-469da6f3f383","ios":"levelo://app?vid=5da21120-765c-493a-addc-469da6f3f383"},"vehicle_type_id":"4","last_reported":1742418530,"current_range_meters":8400,"station_id":"","pricing_plan_id":"cebpf4jnsgd1na2vs0mg"},{"bike_id":"287397f1-301a-46cd-a566-760697ced275","system_id":"levelo_inurba_marseille","lat":43.28153,"lon":5.4265,"is_reserved":false,"is_disabled":false,"rental_uris":{"android":"levelo://app?vid=287397f1-301a-46cd-a566-760697ced275","ios":"levelo://app?vid=287397f1-301a-46cd-a566-760697ced275"},"vehicle_type_id":"4","last_reported":1742418530,"current_range_meters":8400,"station_id":"ce4bhnh2rcd13ifvqgug","pricing_plan_id":"cebpf4jnsgd1na2vs0mg"},{"bike_id":"08237779-599e-4992-b808-7399e77eca0e","system_id":"levelo_inurba_marseille","lat":43.31273,"lon":5.40169,"is_reserved":false,"is_disabled":false,"rental_uris":{"android":"levelo://app?vid=08237779-599e-4992-b808-7399e77eca0e","ios":"levelo://app?vid=08237779-599e-4992-b808-7399e77eca0e"},"vehicle_type_id":"4","last_reported":1742418530,"current_range_meters":8400,"station_id":"ce4bh092rcd13ifvqd30","pricing_plan_id":"cebpf4jnsgd1na2vs0mg"},{"bike_id":"9b2f24ef-c4c1-4f88-9395-de474006ed45","system_id":"levelo_inurba_marseille","lat":43.29884,"lon":5.38898,"is_reserved":false,"is_disabled":false,"rental_uris":{"android":"levelo://app?vid=9b2f24ef-c4c1-4f88-9395-de474006ed45","ios":"levelo://app?vid=9b2f24ef-c4c1-4f88-9395-de474006ed45"},"vehicle_type_id":"4","last_reported":1742418530,"current_range_meters":8400,"station_id":"ce4bh392rcd13ifvqdl0","pricing_plan_id":"cebpf4jnsgd1na2vs0mg"},{"bike_id":"d36dd5c9-f023-4afa-aa74-4c7e9499d0cd","system_id":"levelo_inurba_marseille","lat":43.27378,"lon":5.36262,"is_reserved":false,"is_disabled":false,"rental_uris":{"android":"levelo://app?vid=d36dd5c9-f023-4afa-aa74-4c7e9499d0cd","ios":"levelo://app?vid=d36dd5c9-f023-4afa-aa74-4c7e9499d0cd"},"vehicle_type_id":"4","last_reported":1742418530,"current_range_meters":8400,"station_id":"ce4bhbh2rcd13ifvqeo0","pricing_plan_id":"cebpf4jnsgd1na2vs0mg"},{"bike_id":"9d32c503-5f1f-4b14-8d26-4a233bb720e6","system_id":"levelo_inurba_marseille","lat":43.3078,"lon":5.37656,"is_reserved":false,"is_disabled":false,"rental_uris":{"android":"levelo://app?vid=9d32c503-5f1f-4b14-8d26-4a233bb720e6","ios":"levelo://app?vid=9d32c503-5f1f-4b14-8d26-4a233bb720e6"},"vehicle_type_id":"4","last_reported":1742418530,"current_range_meters":8400,"station_id":"ce4bgv92rcd13ifvqcq0","pricing_plan_id":"cebpf4jnsgd1na2vs0mg"},{"bike_id":"f900da6c-7e5c-4ec1-bb80-501e71312a52","system_id":"levelo_inurba_marseille","lat":43.27377,"lon":5.36257,"is_reserved":false,"is_disabled":false,"rental_uris":{"android":"levelo://app?vid=f900da6c-7e5c-4ec1-bb80-501e71312a52","ios":"levelo://app?vid=f900da6c-7e5c-4ec1-bb80-501e71312a52"},"vehicle_type_id":"4","last_reported":1742418530,"current_range_meters":8400,"station_id":"ce4bhbh2rcd13ifvqeo0","pricing_plan_id":"cebpf4jnsgd1na2vs0mg"},{"bike_id":"054b79e5-3c6c-4562-a1d6-d64bd099ac6b","system_id":"levelo_inurba_marseille","lat":43.24678,"lon":5.38144,"is_reserved":false,"is_disabled":false,"rental_uris":{"android":"levelo://app?vid=054b79e5-3c6c-4562-a1d6-d64bd099ac6b","ios":"levelo://app?vid=054b79e5-3c6c-4562-a1d6-d64bd099ac6b"},"vehicle_type_id":"4","last_reported":1742418530,"current_range_meters":8800,"station_id":"ce4bhih2rcd13ifvqfr0","pricing_plan_id":"cebpf4jnsgd1na2vs0mg"},{"bike_id":"a2ad3ef3-40b0-40fc-8ad0-893f4e20ab03","system_id":"levelo_inurba_marseille","lat":43.24806,"lon":5.37454,"is_reserved":false,"is_disabled":false,"rental_uris":{"android":"levelo://app?vid=a2ad3ef3-40b0-40fc-8ad0-893f4e20ab03","ios":"levelo://app?vid=a2ad3ef3-40b0-40fc-8ad0-893f4e20ab03"},"vehicle_type_id":"4","last_reported":1742418530,"current_range_meters":8400,"station_id":"ce4bhgh2rcd13ifvqfb0","pricing_plan_id":"cebpf4jnsgd1na2vs0mg"},{"bike_id":"227ea19f-289e-4a92-895e-218ec5d5c552","system_id":"levelo_inurba_marseille","lat":43.27499,"lon":5.42445,"is_reserved":false,"is_disabled":false,"rental_uris":{"android":"levelo://app?vid=227ea19f-289e-4a92-895e-218ec5d5c552","ios":"levelo://app?vid=227ea19f-289e-4a92-895e-218ec5d5c552"},"vehicle_type_id":"4","last_reported":1742418530,"current_range_meters":8400,"station_id":"ce4bhn92rcd13ifvqgrg","pricing_plan_id":"cebpf4jnsgd1na2vs0mg"},{"bike_id":"a47335de-0737-4795-bf96-99d5c34cb3e9","system_id":"levelo_inurba_marseille","lat":43.29282,"lon":5.40116,"is_reserved":false,"is_disabled":false,"rental_uris":{"android":"levelo://app?vid=a47335de-0737-4795-bf96-99d5c34cb3e9","ios":"levelo://app?vid=a47335de-0737-4795-bf96-99d5c34cb3e9"},"vehicle_type_id":"4","last_reported":1742418530,"current_range_meters":8800,"station_id":"ce4bh312rcd13ifvqdk0","pricing_plan_id":"cebpf4jnsgd1na2vs0mg"},{"bike_id":"ebd45e7b-1c45-4b94-a31a-e5fdc9535d41","system_id":"levelo_inurba_marseille","lat":43.23966,"lon":5.36626,"is_reserved":false,"is_disabled":false,"rental_uris":{"android":"levelo://app?vid=ebd45e7b-1c45-4b94-a31a-e5fdc9535d41","ios":"levelo://app?vid=ebd45e7b-1c45-4b94-a31a-e5fdc9535d41"},"vehicle_type_id":"4","last_reported":1742418530,"current_range_meters":8800,"station_id":"ce4bhi12rcd13ifvqfp0","pricing_plan_id":"cebpf4jnsgd1na2vs0mg"},{"bike_id":"3058eb37-35b9-4277-898b-f9025638e045","system_id":"levelo_inurba_marseille","lat":43.25937,"lon":5.40878,"is_reserved":false,"is_disabled":false,"rental_uris":{"android":"levelo://app?vid=3058eb37-35b9-4277-898b-f9025638e045","ios":"levelo://app?vid=3058eb37-35b9-4277-898b-f9025638e045"},"vehicle_type_id":"4","last_reported":1742418530,"current_range_meters":8800,"station_id":"ce4bhm92rcd13ifvqglg","pricing_plan_id":"cebpf4jnsgd1na2vs0mg"},{"bike_id":"3455258b-4135-46b9-9a26-10bf95160e40","system_id":"levelo_inurba_marseille","lat":43.23188,"lon":5.35552,"is_reserved":false,"is_disabled":false,"rental_uris":{"android":"levelo://app?vid=3455258b-4135-46b9-9a26-10bf95160e40","ios":"levelo://app?vid=3455258b-4135-46b9-9a26-10bf95160e40"},"vehicle_type_id":"4","last_reported":1742418530,"current_range_meters":8800,"station_id":"ce4bhu92rcd13ifvqi70","pricing_plan_id":"cebpf4jnsgd1na2vs0mg"},{"bike_id":"87dbed1b-ca5f-4559-b4e0-6657c214f315","system_id":"levelo_inurba_marseille","lat":43.2396,"lon":5.36626,"is_reserved":false,"is_disabled":false,"rental_uris":{"android":"levelo://app?vid=87dbed1b-ca5f-4559-b4e0-6657c214f315","ios":"levelo://app?vid=87dbed1b-ca5f-4559-b4e0-6657c214f315"},"vehicle_type_id":"4","last_reported":1742418530,"current_range_meters":8800,"station_id":"ce4bhi12rcd13ifvqfp0","pricing_plan_id":"cebpf4jnsgd1na2vs0mg"},{"bike_id":"dff22bde-84fd-490a-8837-d6c39b979395","system_id":"levelo_inurba_marseille","lat":43.28608,"lon":5.37051,"is_reserved":false,"is_disabled":false,"rental_uris":{"android":"levelo://app?vid=dff22bde-84fd-490a-8837-d6c39b979395","ios":"levelo://app?vid=dff22bde-84fd-490a-8837-d6c39b979395"},"vehicle_type_id":"4","last_reported":1742418530,"current_range_meters":8800,"station_id":"ce4bht12rcd13ifvqi60","pricing_plan_id":"cebpf4jnsgd1na2vs0mg"},{"bike_id":"fe43f2e2-68ef-4fcd-bb23-84fd515f2ed0","system_id":"levelo_inurba_marseille","lat":43.31272,"lon":5.40172,"is_reserved":false,"is_disabled":false,"rental_uris":{"android":"levelo://app?vid=fe43f2e2-68ef-4fcd-bb23-84fd515f2ed0","ios":"levelo://app?vid=fe43f2e2-68ef-4fcd-bb23-84fd515f2ed0"},"vehicle_type_id":"4","last_reported":1742418530,"current_range_meters":8800,"station_id":"ce4bh092rcd13ifvqd30","pricing_plan_id":"cebpf4jnsgd1na2vs0mg"},{"bike_id":"6e7e8b00-1117-4636-bae2-4c73737061e7","system_id":"levelo_inurba_marseille","lat":43.32482,"lon":5.36561,"is_reserved":false,"is_disabled":false,"rental_uris":{"android":"levelo://app?vid=6e7e8b00-1117-4636-bae2-4c73737061e7","ios":"levelo://app?vid=6e7e8b00-1117-4636-bae2-4c73737061e7"},"vehicle_type_id":"4","last_reported":1742418530,"current_range_meters":8800,"station_id":"ce4bhs12rcd13ifvqhvg","pricing_plan_id":"cebpf4jnsgd1na2vs0mg"},{"bike_id":"deb6031e-91bc-49d4-8f41-f252f523b2c5","system_id":"levelo_inurba_marseille","lat":43.27948,"lon":5.41044,"is_reserved":false,"is_disabled":false,"rental_uris":{"android":"levelo://app?vid=deb6031e-91bc-49d4-8f41-f252f523b2c5","ios":"levelo://app?vid=deb6031e-91bc-49d4-8f41-f252f523b2c5"},"vehicle_type_id":"4","last_reported":1742418530,"current_range_meters":9200,"station_id":"ce4bhnp2rcd13ifvqh0g","pricing_plan_id":"cebpf4jnsgd1na2vs0mg"},{"bike_id":"d45aa902-4bcb-471b-8a0f-8cdc3416ec8c","system_id":"levelo_inurba_marseille","lat":43.27595,"lon":5.36118,"is_reserved":false,"is_disabled":false,"rental_uris":{"android":"levelo://app?vid=d45aa902-4bcb-471b-8a0f-8cdc3416ec8c","ios":"levelo://app?vid=d45aa902-4bcb-471b-8a0f-8cdc3416ec8c"},"vehicle_type_id":"4","last_reported":1742418530,"current_range_meters":9200,"station_id":"ce4bgj92rcd13ifvqbe0","pricing_plan_id":"cebpf4jnsgd1na2vs0mg"},{"bike_id":"0cf839ab-e587-4ab8-b08d-84e42ef6ef98","system_id":"levelo_inurba_marseille","lat":43.23932,"lon":5.36663,"is_reserved":false,"is_disabled":false,"rental_uris":{"android":"levelo://app?vid=0cf839ab-e587-4ab8-b08d-84e42ef6ef98","ios":"levelo://app?vid=0cf839ab-e587-4ab8-b08d-84e42ef6ef98"},"vehicle_type_id":"4","last_reported":1742418530,"current_range_meters":9200,"station_id":"ce4bhi12rcd13ifvqfp0","pricing_plan_id":"cebpf4jnsgd1na2vs0mg"},{"bike_id":"3da64548-8b6a-42d6-898f-dc427d7ab309","system_id":"levelo_inurba_marseille","lat":43.27965,"lon":5.41049,"is_reserved":false,"is_disabled":false,"rental_uris":{"android":"levelo://app?vid=3da64548-8b6a-42d6-898f-dc427d7ab309","ios":"levelo://app?vid=3da64548-8b6a-42d6-898f-dc427d7ab309"},"vehicle_type_id":"4","last_reported":1742418530,"current_range_meters":9200,"station_id":"ce4bhnp2rcd13ifvqh0g","pricing_plan_id":"cebpf4jnsgd1na2vs0mg"},{"bike_id":"7c62291a-b09b-4907-af3f-97c7035e40d0","system_id":"levelo_inurba_marseille","lat":43.28349,"lon":5.38109,"is_reserved":false,"is_disabled":false,"rental_uris":{"android":"levelo://app?vid=7c62291a-b09b-4907-af3f-97c7035e40d0","ios":"levelo://app?vid=7c62291a-b09b-4907-af3f-97c7035e40d0"},"vehicle_type_id":"4","last_reported":1742418530,"current_range_meters":9200,"station_id":"ce4bh412rcd13ifvqdr0","pricing_plan_id":"cebpf4jnsgd1na2vs0mg"},{"bike_id":"f1fcaa64-8777-41b7-8701-8233132e1bca","system_id":"levelo_inurba_marseille","lat":43.2796,"lon":5.41052,"is_reserved":false,"is_disabled":false,"rental_uris":{"android":"levelo://app?vid=f1fcaa64-8777-41b7-8701-8233132e1bca","ios":"levelo://app?vid=f1fcaa64-8777-41b7-8701-8233132e1bca"},"vehicle_type_id":"4","last_reported":1742418530,"current_range_meters":9200,"station_id":"ce4bhnp2rcd13ifvqh0g","pricing_plan_id":"cebpf4jnsgd1na2vs0mg"},{"bike_id":"693793d1-c8bb-44e3-9066-4b9a88811b29","system_id":"levelo_inurba_marseille","lat":43.29552,"lon":5.42296,"is_reserved":false,"is_disabled":false,"rental_uris":{"android":"levelo://app?vid=693793d1-c8bb-44e3-9066-4b9a88811b29","ios":"levelo://app?vid=693793d1-c8bb-44e3-9066-4b9a88811b29"},"vehicle_type_id":"4","last_reported":1742418530,"current_range_meters":9200,"station_id":"ce4bhph2rcd13ifvqhdg","pricing_plan_id":"cebpf4jnsgd1na2vs0mg"},{"bike_id":"1fea0b3c-94ab-41af-b18e-d9bbaa7dda49","system_id":"levelo_inurba_marseille","lat":43.31708,"lon":5.43678,"is_reserved":false,"is_disabled":false,"rental_uris":{"android":"levelo://app?vid=1fea0b3c-94ab-41af-b18e-d9bbaa7dda49","ios":"levelo://app?vid=1fea0b3c-94ab-41af-b18e-d9bbaa7dda49"},"vehicle_type_id":"4","last_reported":1742418530,"current_range_meters":9200,"station_id":"ce4bhp92rcd13ifvqhcg","pricing_plan_id":"cebpf4jnsgd1na2vs0mg"},{"bike_id":"50052a34-cd4d-455e-89a2-d030d8c6c1ad","system_id":"levelo_inurba_marseille","lat":43.24134,"lon":5.38908,"is_reserved":false,"is_disabled":false,"rental_uris":{"android":"levelo://app?vid=50052a34-cd4d-455e-89a2-d030d8c6c1ad","ios":"levelo://app?vid=50052a34-cd4d-455e-89a2-d030d8c6c1ad"},"vehicle_type_id":"4","last_reported":1742418530,"current_range_meters":9600,"station_id":"","pricing_plan_id":"cebpf4jnsgd1na2vs0mg"},{"bike_id":"2b988328-c16b-481a-8f53-6b6628ce27f1","system_id":"levelo_inurba_marseille","lat":43.28853,"lon":5.39319,"is_reserved":false,"is_disabled":false,"rental_uris":{"android":"levelo://app?vid=2b988328-c16b-481a-8f53-6b6628ce27f1","ios":"levelo://app?vid=2b988328-c16b-481a-8f53-6b6628ce27f1"},"vehicle_type_id":"4","last_reported":1742418530,"current_range_meters":9600,"station_id":"ce4bh2p2rcd13ifvqdi0","pricing_plan_id":"cebpf4jnsgd1na2vs0mg"},{"bike_id":"53c52c3d-ed26-42c7-8d0d-8214d01bc438","system_id":"levelo_inurba_marseille","lat":43.31414,"lon":5.3937,"is_reserved":false,"is_disabled":false,"rental_uris":{"android":"levelo://app?vid=53c52c3d-ed26-42c7-8d0d-8214d01bc438","ios":"levelo://app?vid=53c52c3d-ed26-42c7-8d0d-8214d01bc438"},"vehicle_type_id":"4","last_reported":1742418530,"current_range_meters":9600,"station_id":"","pricing_plan_id":"cebpf4jnsgd1na2vs0mg"},{"bike_id":"86da5b62-d19c-41eb-9417-15eac028c300","system_id":"levelo_inurba_marseille","lat":43.29777,"lon":5.39336,"is_reserved":false,"is_disabled":false,"rental_uris":{"android":"levelo://app?vid=86da5b62-d19c-41eb-9417-15eac028c300","ios":"levelo://app?vid=86da5b62-d19c-41eb-9417-15eac028c300"},"vehicle_type_id":"4","last_reported":1742418530,"current_range_meters":9600,"station_id":"chh1huq6cuj3fo74tm60","pricing_plan_id":"cebpf4jnsgd1na2vs0mg"},{"bike_id":"71f2cd9d-ef15-44a1-a9cf-33002d842832","system_id":"levelo_inurba_marseille","lat":43.24668,"lon":5.3814,"is_reserved":false,"is_disabled":false,"rental_uris":{"android":"levelo://app?vid=71f2cd9d-ef15-44a1-a9cf-33002d842832","ios":"levelo://app?vid=71f2cd9d-ef15-44a1-a9cf-33002d842832"},"vehicle_type_id":"4","last_reported":1742418530,"current_range_meters":9600,"station_id":"ce4bhih2rcd13ifvqfr0","pricing_plan_id":"cebpf4jnsgd1na2vs0mg"},{"bike_id":"bfd67b10-fd7c-4b25-bc6e-0830b23c1f4b","system_id":"levelo_inurba_marseille","lat":43.25831,"lon":5.39417,"is_reserved":false,"is_disabled":false,"rental_uris":{"android":"levelo://app?vid=bfd67b10-fd7c-4b25-bc6e-0830b23c1f4b","ios":"levelo://app?vid=bfd67b10-fd7c-4b25-bc6e-0830b23c1f4b"},"vehicle_type_id":"4","last_reported":1742418530,"current_range_meters":9600,"station_id":"ce4bhip2rcd13ifvqft0","pricing_plan_id":"cebpf4jnsgd1na2vs0mg"},{"bike_id":"78b95c41-f57f-46b7-8807-c311e5a77278","system_id":"levelo_inurba_marseille","lat":43.23963,"lon":5.36629,"is_reserved":false,"is_disabled":false,"rental_uris":{"android":"levelo://app?vid=78b95c41-f57f-46b7-8807-c311e5a77278","ios":"levelo://app?vid=78b95c41-f57f-46b7-8807-c311e5a77278"},"vehicle_type_id":"4","last_reported":1742418530,"current_range_meters":9600,"station_id":"ce4bhi12rcd13ifvqfp0","pricing_plan_id":"cebpf4jnsgd1na2vs0mg"},{"bike_id":"d3269e03-9275-4322-bf89-882128b5d35e","system_id":"levelo_inurba_marseille","lat":43.31276,"lon":5.40167,"is_reserved":false,"is_disabled":false,"rental_uris":{"android":"levelo://app?vid=d3269e03-9275-4322-bf89-882128b5d35e","ios":"levelo://app?vid=d3269e03-9275-4322-bf89-882128b5d35e"},"vehicle_type_id":"4","last_reported":1742418530,"current_range_meters":9600,"station_id":"ce4bh092rcd13ifvqd30","pricing_plan_id":"cebpf4jnsgd1na2vs0mg"},{"bike_id":"398e1717-a4fe-498e-a043-65270bc50644","system_id":"levelo_inurba_marseille","lat":43.29251,"lon":5.38438,"is_reserved":false,"is_disabled":false,"rental_uris":{"android":"levelo://app?vid=398e1717-a4fe-498e-a043-65270bc50644","ios":"levelo://app?vid=398e1717-a4fe-498e-a043-65270bc50644"},"vehicle_type_id":"4","last_reported":1742418530,"current_range_meters":9600,"station_id":"ce4bh692rcd13ifvqea0","pricing_plan_id":"cebpf4jnsgd1na2vs0mg"},{"bike_id":"1254f4f7-3d3a-4cff-851d-2ec6924cc15c","system_id":"levelo_inurba_marseille","lat":43.28363,"lon":5.381,"is_reserved":false,"is_disabled":false,"rental_uris":{"android":"levelo://app?vid=1254f4f7-3d3a-4cff-851d-2ec6924cc15c","ios":"levelo://app?vid=1254f4f7-3d3a-4cff-851d-2ec6924cc15c"},"vehicle_type_id":"4","last_reported":1742418530,"current_range_meters":9600,"station_id":"ce4bh412rcd13ifvqdr0","pricing_plan_id":"cebpf4jnsgd1na2vs0mg"},{"bike_id":"963a17fa-4222-4f93-b414-09c4cce8d25a","system_id":"levelo_inurba_marseille","lat":43.28393,"lon":5.38466,"is_reserved":false,"is_disabled":false,"rental_uris":{"android":"levelo://app?vid=963a17fa-4222-4f93-b414-09c4cce8d25a","ios":"levelo://app?vid=963a17fa-4222-4f93-b414-09c4cce8d25a"},"vehicle_type_id":"4","last_reported":1742418530,"current_range_meters":9600,"station_id":"","pricing_plan_id":"cebpf4jnsgd1na2vs0mg"},{"bike_id":"ea28acd0-36df-4e22-930e-210ae842664e","system_id":"levelo_inurba_marseille","lat":43.24648,"lon":5.38918,"is_reserved":false,"is_disabled":false,"rental_uris":{"android":"levelo://app?vid=ea28acd0-36df-4e22-930e-210ae842664e","ios":"levelo://app?vid=ea28acd0-36df-4e22-930e-210ae842664e"},"vehicle_type_id":"4","last_reported":1742418530,"current_range_meters":9600,"station_id":"ce4bhg12rcd13ifvqf60","pricing_plan_id":"cebpf4jnsgd1na2vs0mg"},{"bike_id":"4190958f-3dab-482a-94a8-57626ebcdefa","system_id":"levelo_inurba_marseille","lat":43.26557,"lon":5.37282,"is_reserved":false,"is_disabled":false,"rental_uris":{"android":"levelo://app?vid=4190958f-3dab-482a-94a8-57626ebcdefa","ios":"levelo://app?vid=4190958f-3dab-482a-94a8-57626ebcdefa"},"vehicle_type_id":"4","last_reported":1742418530,"current_range_meters":10000,"station_id":"ce4bhg12rcd13ifvqf70","pricing_plan_id":"cebpf4jnsgd1na2vs0mg"},{"bike_id":"c8a5c5c1-331e-4477-bcc8-5f636ea1891c","system_id":"levelo_inurba_marseille","lat":43.31188,"lon":5.38713,"is_reserved":false,"is_disabled":false,"rental_uris":{"android":"levelo://app?vid=c8a5c5c1-331e-4477-bcc8-5f636ea1891c","ios":"levelo://app?vid=c8a5c5c1-331e-4477-bcc8-5f636ea1891c"},"vehicle_type_id":"4","last_reported":1742418530,"current_range_meters":10000,"station_id":"ce4bgv12rcd13ifvqcp0","pricing_plan_id":"cebpf4jnsgd1na2vs0mg"},{"bike_id":"a8b8dae1-87ef-4f8a-a2c8-fe9fd9bf0f77","system_id":"levelo_inurba_marseille","lat":43.23517,"lon":5.37757,"is_reserved":false,"is_disabled":false,"rental_uris":{"android":"levelo://app?vid=a8b8dae1-87ef-4f8a-a2c8-fe9fd9bf0f77","ios":"levelo://app?vid=a8b8dae1-87ef-4f8a-a2c8-fe9fd9bf0f77"},"vehicle_type_id":"4","last_reported":1742418530,"current_range_meters":10000,"station_id":"","pricing_plan_id":"cebpf4jnsgd1na2vs0mg"},{"bike_id":"d666a6ad-a0a4-4127-8c39-8ef5817c6721","system_id":"levelo_inurba_marseille","lat":43.24674,"lon":5.3814,"is_reserved":false,"is_disabled":false,"rental_uris":{"android":"levelo://app?vid=d666a6ad-a0a4-4127-8c39-8ef5817c6721","ios":"levelo://app?vid=d666a6ad-a0a4-4127-8c39-8ef5817c6721"},"vehicle_type_id":"4","last_reported":1742418530,"current_range_meters":10000,"station_id":"ce4bhih2rcd13ifvqfr0","pricing_plan_id":"cebpf4jnsgd1na2vs0mg"},{"bike_id":"f830c3ea-789a-4fab-8908-95b2ddb579a5","system_id":"levelo_inurba_marseille","lat":43.29271,"lon":5.3843,"is_reserved":false,"is_disabled":false,"rental_uris":{"android":"levelo://app?vid=f830c3ea-789a-4fab-8908-95b2ddb579a5","ios":"levelo://app?vid=f830c3ea-789a-4fab-8908-95b2ddb579a5"},"vehicle_type_id":"4","last_reported":1742418530,"current_range_meters":10000,"station_id":"ce4bh692rcd13ifvqea0","pricing_plan_id":"cebpf4jnsgd1na2vs0mg"},{"bike_id":"6892f77e-7bc8-4ddc-8321-6c587433d837","system_id":"levelo_inurba_marseille","lat":43.29791,"lon":5.37085,"is_reserved":false,"is_disabled":false,"rental_uris":{"android":"levelo://app?vid=6892f77e-7bc8-4ddc-8321-6c587433d837","ios":"levelo://app?vid=6892f77e-7bc8-4ddc-8321-6c587433d837"},"vehicle_type_id":"4","last_reported":1742418530,"current_range_meters":10000,"station_id":"ce4bgop2rcd13ifvqc1g","pricing_plan_id":"cebpf4jnsgd1na2vs0mg"},{"bike_id":"ee0f687c-08bb-4e36-98a2-e3de6b954481","system_id":"levelo_inurba_marseille","lat":43.24177,"lon":5.39729,"is_reserved":false,"is_disabled":false,"rental_uris":{"android":"levelo://app?vid=ee0f687c-08bb-4e36-98a2-e3de6b954481","ios":"levelo://app?vid=ee0f687c-08bb-4e36-98a2-e3de6b954481"},"vehicle_type_id":"4","last_reported":1742418530,"current_range_meters":10000,"station_id":"ce4bhn12rcd13ifvqgpg","pricing_plan_id":"cebpf4jnsgd1na2vs0mg"},{"bike_id":"b9a8203a-77ef-49cf-b822-c4850d7eca95","system_id":"levelo_inurba_marseille","lat":43.24797,"lon":5.37457,"is_reserved":false,"is_disabled":false,"rental_uris":{"android":"levelo://app?vid=b9a8203a-77ef-49cf-b822-c4850d7eca95","ios":"levelo://app?vid=b9a8203a-77ef-49cf-b822-c4850d7eca95"},"vehicle_type_id":"4","last_reported":1742418530,"current_range_meters":10000,"station_id":"ce4bhgh2rcd13ifvqfb0","pricing_plan_id":"cebpf4jnsgd1na2vs0mg"},{"bike_id":"11a593f9-e28a-4d60-9990-7d92ced3ba47","system_id":"levelo_inurba_marseille","lat":43.28858,"lon":5.3585,"is_reserved":false,"is_disabled":false,"rental_uris":{"android":"levelo://app?vid=11a593f9-e28a-4d60-9990-7d92ced3ba47","ios":"levelo://app?vid=11a593f9-e28a-4d60-9990-7d92ced3ba47"},"vehicle_type_id":"4","last_reported":1742418530,"current_range_meters":10000,"station_id":"ce4bhb12rcd13ifvqem0","pricing_plan_id":"cebpf4jnsgd1na2vs0mg"},{"bike_id":"3341571f-bd27-401c-8b47-8fe3403f266a","system_id":"levelo_inurba_marseille","lat":43.28695,"lon":5.374,"is_reserved":false,"is_disabled":false,"rental_uris":{"android":"levelo://app?vid=3341571f-bd27-401c-8b47-8fe3403f266a","ios":"levelo://app?vid=3341571f-bd27-401c-8b47-8fe3403f266a"},"vehicle_type_id":"4","last_reported":1742418530,"current_range_meters":10000,"station_id":"ce4bh3p2rcd13ifvqdq0","pricing_plan_id":"cebpf4jnsgd1na2vs0mg"},{"bike_id":"02f43b01-3b74-45fa-a40e-2df823c84cda","system_id":"levelo_inurba_marseille","lat":43.2419,"lon":5.3969,"is_reserved":false,"is_disabled":false,"rental_uris":{"android":"levelo://app?vid=02f43b01-3b74-45fa-a40e-2df823c84cda","ios":"levelo://app?vid=02f43b01-3b74-45fa-a40e-2df823c84cda"},"vehicle_type_id":"4","last_reported":1742418530,"current_range_meters":10000,"station_id":"ce4bhn12rcd13ifvqgpg","pricing_plan_id":"cebpf4jnsgd1na2vs0mg"},{"bike_id":"149a7237-4b0c-4c09-b5e1-e29dc8e198e1","system_id":"levelo_inurba_marseille","lat":43.31275,"lon":5.40159,"is_reserved":false,"is_disabled":false,"rental_uris":{"android":"levelo://app?vid=149a7237-4b0c-4c09-b5e1-e29dc8e198e1","ios":"levelo://app?vid=149a7237-4b0c-4c09-b5e1-e29dc8e198e1"},"vehicle_type_id":"4","last_reported":1742418530,"current_range_meters":10000,"station_id":"ce4bh092rcd13ifvqd30","pricing_plan_id":"cebpf4jnsgd1na2vs0mg"},{"bike_id":"9d26c008-8ec1-4269-9cd2-f45774f03ccb","system_id":"levelo_inurba_marseille","lat":43.27924,"lon":5.37933,"is_reserved":false,"is_disabled":false,"rental_uris":{"android":"levelo://app?vid=9d26c008-8ec1-4269-9cd2-f45774f03ccb","ios":"levelo://app?vid=9d26c008-8ec1-4269-9cd2-f45774f03ccb"},"vehicle_type_id":"4","last_reported":1742418530,"current_range_meters":10000,"station_id":"","pricing_plan_id":"cebpf4jnsgd1na2vs0mg"},{"bike_id":"4b06f18b-5061-4ad4-b910-26260aea2104","system_id":"levelo_inurba_marseille","lat":43.26551,"lon":5.37322,"is_reserved":false,"is_disabled":false,"rental_uris":{"android":"levelo://app?vid=4b06f18b-5061-4ad4-b910-26260aea2104","ios":"levelo://app?vid=4b06f18b-5061-4ad4-b910-26260aea2104"},"vehicle_type_id":"4","last_reported":1742418530,"current_range_meters":10000,"station_id":"ce4bhg12rcd13ifvqf70","pricing_plan_id":"cebpf4jnsgd1na2vs0mg"},{"bike_id":"6b467574-69f1-40a2-a88f-6859ed54971d","system_id":"levelo_inurba_marseille","lat":43.33405,"lon":5.40076,"is_reserved":false,"is_disabled":false,"rental_uris":{"android":"levelo://app?vid=6b467574-69f1-40a2-a88f-6859ed54971d","ios":"levelo://app?vid=6b467574-69f1-40a2-a88f-6859ed54971d"},"vehicle_type_id":"4","last_reported":1742418530,"current_range_meters":10000,"station_id":"","pricing_plan_id":"cebpf4jnsgd1na2vs0mg"},{"bike_id":"a3175949-f9d6-40da-9481-3578df78d3a4","system_id":"levelo_inurba_marseille","lat":43.24996,"lon":5.38924,"is_reserved":false,"is_disabled":false,"rental_uris":{"android":"levelo://app?vid=a3175949-f9d6-40da-9481-3578df78d3a4","ios":"levelo://app?vid=a3175949-f9d6-40da-9481-3578df78d3a4"},"vehicle_type_id":"4","last_reported":1742418530,"current_range_meters":10800,"station_id":"ce4bhgp2rcd13ifvqfd0","pricing_plan_id":"cebpf4jnsgd1na2vs0mg"},{"bike_id":"6eb98e18-92f8-411c-92c0-82d5569fb85c","system_id":"levelo_inurba_marseille","lat":43.32366,"lon":5.36763,"is_reserved":false,"is_disabled":false,"rental_uris":{"android":"levelo://app?vid=6eb98e18-92f8-411c-92c0-82d5569fb85c","ios":"levelo://app?vid=6eb98e18-92f8-411c-92c0-82d5569fb85c"},"vehicle_type_id":"4","last_reported":1742418530,"current_range_meters":10800,"station_id":"ce4bhsh2rcd13ifvqi2g","pricing_plan_id":"cebpf4jnsgd1na2vs0mg"},{"bike_id":"cf55e014-b557-4944-91b9-d3753116f4a7","system_id":"levelo_inurba_marseille","lat":43.29537,"lon":5.38533,"is_reserved":false,"is_disabled":false,"rental_uris":{"android":"levelo://app?vid=cf55e014-b557-4944-91b9-d3753116f4a7","ios":"levelo://app?vid=cf55e014-b557-4944-91b9-d3753116f4a7"},"vehicle_type_id":"4","last_reported":1742418530,"current_range_meters":10800,"station_id":"ce4bgih2rcd13ifvqba0","pricing_plan_id":"cebpf4jnsgd1na2vs0mg"},{"bike_id":"4de03db8-98f0-4442-9f47-5d0a4ef807b1","system_id":"levelo_inurba_marseille","lat":43.28734,"lon":5.3607,"is_reserved":false,"is_disabled":false,"rental_uris":{"android":"levelo://app?vid=4de03db8-98f0-4442-9f47-5d0a4ef807b1","ios":"levelo://app?vid=4de03db8-98f0-4442-9f47-5d0a4ef807b1"},"vehicle_type_id":"4","last_reported":1742418530,"current_range_meters":10800,"station_id":"cki0cbj6b192h4jlfktg","pricing_plan_id":"cebpf4jnsgd1na2vs0mg"},{"bike_id":"8c184f5b-3521-4ed9-9d15-f5fd78415707","system_id":"levelo_inurba_marseille","lat":43.3106,"lon":5.38345,"is_reserved":false,"is_disabled":false,"rental_uris":{"android":"levelo://app?vid=8c184f5b-3521-4ed9-9d15-f5fd78415707","ios":"levelo://app?vid=8c184f5b-3521-4ed9-9d15-f5fd78415707"},"vehicle_type_id":"4","last_reported":1742418530,"current_range_meters":10800,"station_id":"ce4bgv92rcd13ifvqcr0","pricing_plan_id":"cebpf4jnsgd1na2vs0mg"},{"bike_id":"89f67afe-9814-4dbc-961c-2a3a01fe3a0e","system_id":"levelo_inurba_marseille","lat":43.25714,"lon":5.41115,"is_reserved":false,"is_disabled":false,"rental_uris":{"android":"levelo://app?vid=89f67afe-9814-4dbc-961c-2a3a01fe3a0e","ios":"levelo://app?vid=89f67afe-9814-4dbc-961c-2a3a01fe3a0e"},"vehicle_type_id":"4","last_reported":1742418530,"current_range_meters":10800,"station_id":"ce4bhkp2rcd13ifvqgd0","pricing_plan_id":"cebpf4jnsgd1na2vs0mg"},{"bike_id":"f4c4bf6d-48a4-4198-942b-eda89b945e41","system_id":"levelo_inurba_marseille","lat":43.27368,"lon":5.36254,"is_reserved":false,"is_disabled":false,"rental_uris":{"android":"levelo://app?vid=f4c4bf6d-48a4-4198-942b-eda89b945e41","ios":"levelo://app?vid=f4c4bf6d-48a4-4198-942b-eda89b945e41"},"vehicle_type_id":"4","last_reported":1742418530,"current_range_meters":10800,"station_id":"ce4bhbh2rcd13ifvqeo0","pricing_plan_id":"cebpf4jnsgd1na2vs0mg"},{"bike_id":"e6c8473b-6f16-40c7-9d09-903e0bcd4e87","system_id":"levelo_inurba_marseille","lat":43.32565,"lon":5.41947,"is_reserved":false,"is_disabled":false,"rental_uris":{"android":"levelo://app?vid=e6c8473b-6f16-40c7-9d09-903e0bcd4e87","ios":"levelo://app?vid=e6c8473b-6f16-40c7-9d09-903e0bcd4e87"},"vehicle_type_id":"4","last_reported":1742418530,"current_range_meters":10800,"station_id":"","pricing_plan_id":"cebpf4jnsgd1na2vs0mg"},{"bike_id":"38700e88-0eed-4189-a7cd-49878612c994","system_id":"levelo_inurba_marseille","lat":43.31586,"lon":5.38894,"is_reserved":false,"is_disabled":false,"rental_uris":{"android":"levelo://app?vid=38700e88-0eed-4189-a7cd-49878612c994","ios":"levelo://app?vid=38700e88-0eed-4189-a7cd-49878612c994"},"vehicle_type_id":"4","last_reported":1742418530,"current_range_meters":10800,"station_id":"","pricing_plan_id":"cebpf4jnsgd1na2vs0mg"},{"bike_id":"c6cc606a-35a6-4223-87eb-6e98e5eb5040","system_id":"levelo_inurba_marseille","lat":43.28398,"lon":5.3752,"is_reserved":false,"is_disabled":false,"rental_uris":{"android":"levelo://app?vid=c6cc606a-35a6-4223-87eb-6e98e5eb5040","ios":"levelo://app?vid=c6cc606a-35a6-4223-87eb-6e98e5eb5040"},"vehicle_type_id":"4","last_reported":1742418530,"current_range_meters":10800,"station_id":"ce4bh412rcd13ifvqds0","pricing_plan_id":"cebpf4jnsgd1na2vs0mg"},{"bike_id":"09202724-fb16-47b4-8abc-ddba2c95ece7","system_id":"levelo_inurba_marseille","lat":43.2407,"lon":5.37758,"is_reserved":false,"is_disabled":false,"rental_uris":{"android":"levelo://app?vid=09202724-fb16-47b4-8abc-ddba2c95ece7","ios":"levelo://app?vid=09202724-fb16-47b4-8abc-ddba2c95ece7"},"vehicle_type_id":"4","last_reported":1742418530,"current_range_meters":10800,"station_id":"ce4bhnp2rcd13ifvqgvg","pricing_plan_id":"cebpf4jnsgd1na2vs0mg"},{"bike_id":"f24ccfec-25c8-4b53-b963-2ee48fab5364","system_id":"levelo_inurba_marseille","lat":43.29559,"lon":5.39978,"is_reserved":false,"is_disabled":false,"rental_uris":{"android":"levelo://app?vid=f24ccfec-25c8-4b53-b963-2ee48fab5364","ios":"levelo://app?vid=f24ccfec-25c8-4b53-b963-2ee48fab5364"},"vehicle_type_id":"4","last_reported":1742418530,"current_range_meters":11200,"station_id":"ce4bh312rcd13ifvqdj0","pricing_plan_id":"cebpf4jnsgd1na2vs0mg"},{"bike_id":"7487c017-9012-4d7c-970a-b99461f7c155","system_id":"levelo_inurba_marseille","lat":43.32338,"lon":5.40622,"is_reserved":false,"is_disabled":false,"rental_uris":{"android":"levelo://app?vid=7487c017-9012-4d7c-970a-b99461f7c155","ios":"levelo://app?vid=7487c017-9012-4d7c-970a-b99461f7c155"},"vehicle_type_id":"4","last_reported":1742418530,"current_range_meters":11200,"station_id":"ce4bhq92rcd13ifvqhjg","pricing_plan_id":"cebpf4jnsgd1na2vs0mg"},{"bike_id":"f1d0a3f3-b96d-4c28-b31a-5ab53cc8a8a1","system_id":"levelo_inurba_marseille","lat":43.29457,"lon":5.39722,"is_reserved":false,"is_disabled":false,"rental_uris":{"android":"levelo://app?vid=f1d0a3f3-b96d-4c28-b31a-5ab53cc8a8a1","ios":"levelo://app?vid=f1d0a3f3-b96d-4c28-b31a-5ab53cc8a8a1"},"vehicle_type_id":"4","last_reported":1742418530,"current_range_meters":11200,"station_id":"ce4bh3h2rcd13ifvqdo0","pricing_plan_id":"cebpf4jnsgd1na2vs0mg"},{"bike_id":"e9da6b18-70b6-4014-941e-17037560f1f8","system_id":"levelo_inurba_marseille","lat":43.28569,"lon":5.3949,"is_reserved":false,"is_disabled":false,"rental_uris":{"android":"levelo://app?vid=e9da6b18-70b6-4014-941e-17037560f1f8","ios":"levelo://app?vid=e9da6b18-70b6-4014-941e-17037560f1f8"},"vehicle_type_id":"4","last_reported":1742418530,"current_range_meters":11200,"station_id":"ce4bh292rcd13ifvqdg0","pricing_plan_id":"cebpf4jnsgd1na2vs0mg"},{"bike_id":"ef52c551-eb67-486d-85cc-ce2612d4cc9c","system_id":"levelo_inurba_marseille","lat":43.3033,"lon":5.40424,"is_reserved":false,"is_disabled":false,"rental_uris":{"android":"levelo://app?vid=ef52c551-eb67-486d-85cc-ce2612d4cc9c","ios":"levelo://app?vid=ef52c551-eb67-486d-85cc-ce2612d4cc9c"},"vehicle_type_id":"4","last_reported":1742418530,"current_range_meters":11200,"station_id":"ce4bh012rcd13ifvqd10","pricing_plan_id":"cebpf4jnsgd1na2vs0mg"},{"bike_id":"b5595a29-5d0c-4171-ac65-321b693af490","system_id":"levelo_inurba_marseille","lat":43.27945,"lon":5.41047,"is_reserved":false,"is_disabled":false,"rental_uris":{"android":"levelo://app?vid=b5595a29-5d0c-4171-ac65-321b693af490","ios":"levelo://app?vid=b5595a29-5d0c-4171-ac65-321b693af490"},"vehicle_type_id":"4","last_reported":1742418530,"current_range_meters":11200,"station_id":"ce4bhnp2rcd13ifvqh0g","pricing_plan_id":"cebpf4jnsgd1na2vs0mg"},{"bike_id":"94ffa62a-c0a8-48b0-83e4-7237e17e0e07","system_id":"levelo_inurba_marseille","lat":43.27937,"lon":5.41059,"is_reserved":false,"is_disabled":false,"rental_uris":{"android":"levelo://app?vid=94ffa62a-c0a8-48b0-83e4-7237e17e0e07","ios":"levelo://app?vid=94ffa62a-c0a8-48b0-83e4-7237e17e0e07"},"vehicle_type_id":"4","last_reported":1742418530,"current_range_meters":11200,"station_id":"ce4bhnp2rcd13ifvqh0g","pricing_plan_id":"cebpf4jnsgd1na2vs0mg"},{"bike_id":"1f1a83ec-b3ca-495d-b418-f9452f1366e5","system_id":"levelo_inurba_marseille","lat":43.24642,"lon":5.38897,"is_reserved":false,"is_disabled":false,"rental_uris":{"android":"levelo://app?vid=1f1a83ec-b3ca-495d-b418-f9452f1366e5","ios":"levelo://app?vid=1f1a83ec-b3ca-495d-b418-f9452f1366e5"},"vehicle_type_id":"4","last_reported":1742418530,"current_range_meters":11200,"station_id":"ce4bhg12rcd13ifvqf60","pricing_plan_id":"cebpf4jnsgd1na2vs0mg"},{"bike_id":"7c23dcb0-31a4-457d-8cd5-05a913c017d4","system_id":"levelo_inurba_marseille","lat":43.33034,"lon":5.39026,"is_reserved":false,"is_disabled":false,"rental_uris":{"android":"levelo://app?vid=7c23dcb0-31a4-457d-8cd5-05a913c017d4","ios":"levelo://app?vid=7c23dcb0-31a4-457d-8cd5-05a913c017d4"},"vehicle_type_id":"4","last_reported":1742418530,"current_range_meters":11200,"station_id":"ce4bhr92rcd13ifvqhrg","pricing_plan_id":"cebpf4jnsgd1na2vs0mg"},{"bike_id":"9a407e55-d314-42fc-8c32-c5b5dcba6239","system_id":"levelo_inurba_marseille","lat":43.26254,"lon":5.40461,"is_reserved":false,"is_disabled":false,"rental_uris":{"android":"levelo://app?vid=9a407e55-d314-42fc-8c32-c5b5dcba6239","ios":"levelo://app?vid=9a407e55-d314-42fc-8c32-c5b5dcba6239"},"vehicle_type_id":"4","last_reported":1742418530,"current_range_meters":11600,"station_id":"ce4bhmh2rcd13ifvqgmg","pricing_plan_id":"cebpf4jnsgd1na2vs0mg"},{"bike_id":"bb736146-059f-4c2f-9c74-6d87493614d5","system_id":"levelo_inurba_marseille","lat":43.286498,"lon":5.385663,"is_reserved":false,"is_disabled":false,"rental_uris":{"android":"levelo://app?vid=bb736146-059f-4c2f-9c74-6d87493614d5","ios":"levelo://app?vid=bb736146-059f-4c2f-9c74-6d87493614d5"},"vehicle_type_id":"4","last_reported":1742418530,"current_range_meters":11600,"station_id":"ce4bh492rcd13ifvqdug","pricing_plan_id":"cebpf4jnsgd1na2vs0mg"},{"bike_id":"f7629e3d-4aa5-4911-a5a4-b65ca5ee571a","system_id":"levelo_inurba_marseille","lat":43.28344,"lon":5.38105,"is_reserved":false,"is_disabled":false,"rental_uris":{"android":"levelo://app?vid=f7629e3d-4aa5-4911-a5a4-b65ca5ee571a","ios":"levelo://app?vid=f7629e3d-4aa5-4911-a5a4-b65ca5ee571a"},"vehicle_type_id":"4","last_reported":1742418530,"current_range_meters":11600,"station_id":"ce4bh412rcd13ifvqdr0","pricing_plan_id":"cebpf4jnsgd1na2vs0mg"},{"bike_id":"59a22b34-d138-48ff-9fd7-c78750b1a2ad","system_id":"levelo_inurba_marseille","lat":43.29542,"lon":5.3938,"is_reserved":false,"is_disabled":false,"rental_uris":{"android":"levelo://app?vid=59a22b34-d138-48ff-9fd7-c78750b1a2ad","ios":"levelo://app?vid=59a22b34-d138-48ff-9fd7-c78750b1a2ad"},"vehicle_type_id":"4","last_reported":1742418530,"current_range_meters":11600,"station_id":"ce4bh292rcd13ifvqdf0","pricing_plan_id":"cebpf4jnsgd1na2vs0mg"},{"bike_id":"3d6e5bb2-49a5-4ae9-ac7c-7c3250491a49","system_id":"levelo_inurba_marseille","lat":43.28836,"lon":5.3592,"is_reserved":false,"is_disabled":false,"rental_uris":{"android":"levelo://app?vid=3d6e5bb2-49a5-4ae9-ac7c-7c3250491a49","ios":"levelo://app?vid=3d6e5bb2-49a5-4ae9-ac7c-7c3250491a49"},"vehicle_type_id":"4","last_reported":1742418530,"current_range_meters":11600,"station_id":"","pricing_plan_id":"cebpf4jnsgd1na2vs0mg"},{"bike_id":"671210b1-9e8f-4893-953f-985ab8b97e34","system_id":"levelo_inurba_marseille","lat":43.32108,"lon":5.36765,"is_reserved":false,"is_disabled":false,"rental_uris":{"android":"levelo://app?vid=671210b1-9e8f-4893-953f-985ab8b97e34","ios":"levelo://app?vid=671210b1-9e8f-4893-953f-985ab8b97e34"},"vehicle_type_id":"4","last_reported":1742418530,"current_range_meters":11600,"station_id":"ce4bhrh2rcd13ifvqhug","pricing_plan_id":"cebpf4jnsgd1na2vs0mg"},{"bike_id":"477b3b7f-28c2-49ea-8f4e-2b4d1861b94d","system_id":"levelo_inurba_marseille","lat":43.25586,"lon":5.38182,"is_reserved":false,"is_disabled":false,"rental_uris":{"android":"levelo://app?vid=477b3b7f-28c2-49ea-8f4e-2b4d1861b94d","ios":"levelo://app?vid=477b3b7f-28c2-49ea-8f4e-2b4d1861b94d"},"vehicle_type_id":"4","last_reported":1742418530,"current_range_meters":11600,"station_id":"ce4bhih2rcd13ifvqfs0","pricing_plan_id":"cebpf4jnsgd1na2vs0mg"},{"bike_id":"6e952fa5-263e-4f1f-948d-9723520deb68","system_id":"levelo_inurba_marseille","lat":43.29082,"lon":5.38149,"is_reserved":false,"is_disabled":false,"rental_uris":{"android":"levelo://app?vid=6e952fa5-263e-4f1f-948d-9723520deb68","ios":"levelo://app?vid=6e952fa5-263e-4f1f-948d-9723520deb68"},"vehicle_type_id":"4","last_reported":1742418530,"current_range_meters":11600,"station_id":"ce4bh512rcd13ifvqe2g","pricing_plan_id":"cebpf4jnsgd1na2vs0mg"},{"bike_id":"c8ff11b7-7aea-4a41-939c-2f48b7c2a632","system_id":"levelo_inurba_marseille","lat":43.29524,"lon":5.38537,"is_reserved":false,"is_disabled":false,"rental_uris":{"android":"levelo://app?vid=c8ff11b7-7aea-4a41-939c-2f48b7c2a632","ios":"levelo://app?vid=c8ff11b7-7aea-4a41-939c-2f48b7c2a632"},"vehicle_type_id":"4","last_reported":1742418530,"current_range_meters":11600,"station_id":"ce4bgih2rcd13ifvqba0","pricing_plan_id":"cebpf4jnsgd1na2vs0mg"},{"bike_id":"5f474075-5c97-4d14-b6ed-363bf61d51c6","system_id":"levelo_inurba_marseille","lat":43.30252,"lon":5.40055,"is_reserved":false,"is_disabled":false,"rental_uris":{"android":"levelo://app?vid=5f474075-5c97-4d14-b6ed-363bf61d51c6","ios":"levelo://app?vid=5f474075-5c97-4d14-b6ed-363bf61d51c6"},"vehicle_type_id":"4","last_reported":1742418530,"current_range_meters":11600,"station_id":"ce4bgvh2rcd13ifvqcs0","pricing_plan_id":"cebpf4jnsgd1na2vs0mg"},{"bike_id":"f1645a4b-a4f8-4d65-9e70-33df978114e1","system_id":"levelo_inurba_marseille","lat":43.28937,"lon":5.36396,"is_reserved":false,"is_disabled":false,"rental_uris":{"android":"levelo://app?vid=f1645a4b-a4f8-4d65-9e70-33df978114e1","ios":"levelo://app?vid=f1645a4b-a4f8-4d65-9e70-33df978114e1"},"vehicle_type_id":"4","last_reported":1742418530,"current_range_meters":11600,"station_id":"ce4bhc92rcd13ifvqetg","pricing_plan_id":"cebpf4jnsgd1na2vs0mg"},{"bike_id":"0d8c18c5-5cfd-4162-b0e4-b3a8618dd2f9","system_id":"levelo_inurba_marseille","lat":43.29418,"lon":5.38628,"is_reserved":false,"is_disabled":false,"rental_uris":{"android":"levelo://app?vid=0d8c18c5-5cfd-4162-b0e4-b3a8618dd2f9","ios":"levelo://app?vid=0d8c18c5-5cfd-4162-b0e4-b3a8618dd2f9"},"vehicle_type_id":"4","last_reported":1742418530,"current_range_meters":11600,"station_id":"ce4bh2h2rcd13ifvqdh0","pricing_plan_id":"cebpf4jnsgd1na2vs0mg"},{"bike_id":"176d2e0b-da43-4b98-b92e-b45d4ab12b2f","system_id":"levelo_inurba_marseille","lat":43.3022,"lon":5.38472,"is_reserved":false,"is_disabled":false,"rental_uris":{"android":"levelo://app?vid=176d2e0b-da43-4b98-b92e-b45d4ab12b2f","ios":"levelo://app?vid=176d2e0b-da43-4b98-b92e-b45d4ab12b2f"},"vehicle_type_id":"4","last_reported":1742418530,"current_range_meters":11600,"station_id":"","pricing_plan_id":"cebpf4jnsgd1na2vs0mg"},{"bike_id":"9c1039ea-2b24-4566-81b6-aabce7765fa8","system_id":"levelo_inurba_marseille","lat":43.25106,"lon":5.40322,"is_reserved":false,"is_disabled":false,"rental_uris":{"android":"levelo://app?vid=9c1039ea-2b24-4566-81b6-aabce7765fa8","ios":"levelo://app?vid=9c1039ea-2b24-4566-81b6-aabce7765fa8"},"vehicle_type_id":"4","last_reported":1742418530,"current_range_meters":12000,"station_id":"ce4bhlh2rcd13ifvqgig","pricing_plan_id":"cebpf4jnsgd1na2vs0mg"},{"bike_id":"f0ecc41c-3e76-4973-9ac5-ce0caabd5642","system_id":"levelo_inurba_marseille","lat":43.2988,"lon":5.3972,"is_reserved":false,"is_disabled":false,"rental_uris":{"android":"levelo://app?vid=f0ecc41c-3e76-4973-9ac5-ce0caabd5642","ios":"levelo://app?vid=f0ecc41c-3e76-4973-9ac5-ce0caabd5642"},"vehicle_type_id":"4","last_reported":1742418530,"current_range_meters":12000,"station_id":"ce4bh0h2rcd13ifvqd50","pricing_plan_id":"cebpf4jnsgd1na2vs0mg"},{"bike_id":"e8854283-5005-44ed-875a-857dba5682a2","system_id":"levelo_inurba_marseille","lat":43.27493,"lon":5.42445,"is_reserved":false,"is_disabled":false,"rental_uris":{"android":"levelo://app?vid=e8854283-5005-44ed-875a-857dba5682a2","ios":"levelo://app?vid=e8854283-5005-44ed-875a-857dba5682a2"},"vehicle_type_id":"4","last_reported":1742418530,"current_range_meters":12000,"station_id":"ce4bhn92rcd13ifvqgrg","pricing_plan_id":"cebpf4jnsgd1na2vs0mg"},{"bike_id":"ca15f5ed-35c3-4d4a-916b-8006f690ad60","system_id":"levelo_inurba_marseille","lat":43.30256,"lon":5.40084,"is_reserved":false,"is_disabled":false,"rental_uris":{"android":"levelo://app?vid=ca15f5ed-35c3-4d4a-916b-8006f690ad60","ios":"levelo://app?vid=ca15f5ed-35c3-4d4a-916b-8006f690ad60"},"vehicle_type_id":"4","last_reported":1742418530,"current_range_meters":12000,"station_id":"ce4bgvh2rcd13ifvqcs0","pricing_plan_id":"cebpf4jnsgd1na2vs0mg"},{"bike_id":"4933b022-53dd-4477-8485-7928076fc246","system_id":"levelo_inurba_marseille","lat":43.28569,"lon":5.3949,"is_reserved":false,"is_disabled":false,"rental_uris":{"android":"levelo://app?vid=4933b022-53dd-4477-8485-7928076fc246","ios":"levelo://app?vid=4933b022-53dd-4477-8485-7928076fc246"},"vehicle_type_id":"4","last_reported":1742418530,"current_range_meters":12000,"station_id":"ce4bh292rcd13ifvqdg0","pricing_plan_id":"cebpf4jnsgd1na2vs0mg"},{"bike_id":"0af285be-0294-4c23-9728-cedd0c1ca6b2","system_id":"levelo_inurba_marseille","lat":43.23195,"lon":5.39976,"is_reserved":false,"is_disabled":false,"rental_uris":{"android":"levelo://app?vid=0af285be-0294-4c23-9728-cedd0c1ca6b2","ios":"levelo://app?vid=0af285be-0294-4c23-9728-cedd0c1ca6b2"},"vehicle_type_id":"4","last_reported":1742418530,"current_range_meters":12000,"station_id":"ce4bhn12rcd13ifvqgqg","pricing_plan_id":"cebpf4jnsgd1na2vs0mg"},{"bike_id":"388b2c9e-8968-4a3e-a8a4-55924819e862","system_id":"levelo_inurba_marseille","lat":43.28348,"lon":5.38105,"is_reserved":false,"is_disabled":false,"rental_uris":{"android":"levelo://app?vid=388b2c9e-8968-4a3e-a8a4-55924819e862","ios":"levelo://app?vid=388b2c9e-8968-4a3e-a8a4-55924819e862"},"vehicle_type_id":"4","last_reported":1742418530,"current_range_meters":12000,"station_id":"ce4bh412rcd13ifvqdr0","pricing_plan_id":"cebpf4jnsgd1na2vs0mg"},{"bike_id":"d7fb3117-8b22-47f2-81e8-30ae0a3c4279","system_id":"levelo_inurba_marseille","lat":43.3148,"lon":5.37312,"is_reserved":false,"is_disabled":false,"rental_uris":{"android":"levelo://app?vid=d7fb3117-8b22-47f2-81e8-30ae0a3c4279","ios":"levelo://app?vid=d7fb3117-8b22-47f2-81e8-30ae0a3c4279"},"vehicle_type_id":"4","last_reported":1742418530,"current_range_meters":12000,"station_id":"ce4bgt12rcd13ifvqcd0","pricing_plan_id":"cebpf4jnsgd1na2vs0mg"},{"bike_id":"1689fa84-13f6-46a5-be92-d2be23b25286","system_id":"levelo_inurba_marseille","lat":43.31433,"lon":5.37584,"is_reserved":false,"is_disabled":false,"rental_uris":{"android":"levelo://app?vid=1689fa84-13f6-46a5-be92-d2be23b25286","ios":"levelo://app?vid=1689fa84-13f6-46a5-be92-d2be23b25286"},"vehicle_type_id":"4","last_reported":1742418530,"current_range_meters":12000,"station_id":"","pricing_plan_id":"cebpf4jnsgd1na2vs0mg"},{"bike_id":"6c7e51d2-e2f9-4032-b4ac-95afc513e72e","system_id":"levelo_inurba_marseille","lat":43.27361,"lon":5.36256,"is_reserved":false,"is_disabled":false,"rental_uris":{"android":"levelo://app?vid=6c7e51d2-e2f9-4032-b4ac-95afc513e72e","ios":"levelo://app?vid=6c7e51d2-e2f9-4032-b4ac-95afc513e72e"},"vehicle_type_id":"4","last_reported":1742418530,"current_range_meters":12400,"station_id":"ce4bhbh2rcd13ifvqeo0","pricing_plan_id":"cebpf4jnsgd1na2vs0mg"},{"bike_id":"cb6062cd-3cfa-4917-b79b-5707b99e3c03","system_id":"levelo_inurba_marseille","lat":43.321185,"lon":5.367534,"is_reserved":false,"is_disabled":false,"rental_uris":{"android":"levelo://app?vid=cb6062cd-3cfa-4917-b79b-5707b99e3c03","ios":"levelo://app?vid=cb6062cd-3cfa-4917-b79b-5707b99e3c03"},"vehicle_type_id":"4","last_reported":1742418530,"current_range_meters":12400,"station_id":"ce4bho92rcd13ifvqh3g","pricing_plan_id":"cebpf4jnsgd1na2vs0mg"},{"bike_id":"4a889701-e921-4ae5-8bc1-273e45c3973b","system_id":"levelo_inurba_marseille","lat":43.29416,"lon":5.38622,"is_reserved":false,"is_disabled":false,"rental_uris":{"android":"levelo://app?vid=4a889701-e921-4ae5-8bc1-273e45c3973b","ios":"levelo://app?vid=4a889701-e921-4ae5-8bc1-273e45c3973b"},"vehicle_type_id":"4","last_reported":1742418530,"current_range_meters":12400,"station_id":"ce4bh2h2rcd13ifvqdh0","pricing_plan_id":"cebpf4jnsgd1na2vs0mg"},{"bike_id":"c3171a6d-07dd-4c33-a5ee-bcaedbbad7d7","system_id":"levelo_inurba_marseille","lat":43.30804,"lon":5.43517,"is_reserved":false,"is_disabled":false,"rental_uris":{"android":"levelo://app?vid=c3171a6d-07dd-4c33-a5ee-bcaedbbad7d7","ios":"levelo://app?vid=c3171a6d-07dd-4c33-a5ee-bcaedbbad7d7"},"vehicle_type_id":"4","last_reported":1742418530,"current_range_meters":12400,"station_id":"ce4bhph2rcd13ifvqheg","pricing_plan_id":"cebpf4jnsgd1na2vs0mg"},{"bike_id":"471b8c1a-1a85-4080-b533-fb41f3dbfd81","system_id":"levelo_inurba_marseille","lat":43.23184,"lon":5.35568,"is_reserved":false,"is_disabled":false,"rental_uris":{"android":"levelo://app?vid=471b8c1a-1a85-4080-b533-fb41f3dbfd81","ios":"levelo://app?vid=471b8c1a-1a85-4080-b533-fb41f3dbfd81"},"vehicle_type_id":"4","last_reported":1742418530,"current_range_meters":12400,"station_id":"ce4bhu92rcd13ifvqi70","pricing_plan_id":"cebpf4jnsgd1na2vs0mg"},{"bike_id":"a6c26f49-f3e7-46f4-ac2a-6068f61eda81","system_id":"levelo_inurba_marseille","lat":43.29387,"lon":5.37864,"is_reserved":false,"is_disabled":true,"rental_uris":{"android":"levelo://app?vid=a6c26f49-f3e7-46f4-ac2a-6068f61eda81","ios":"levelo://app?vid=a6c26f49-f3e7-46f4-ac2a-6068f61eda81"},"vehicle_type_id":"4","last_reported":1742418530,"current_range_meters":12400,"station_id":"ce4bgjh2rcd13ifvqbf0","pricing_plan_id":"cebpf4jnsgd1na2vs0mg"},{"bike_id":"815d7014-c6fe-4564-82ce-d8b51f90d2f6","system_id":"levelo_inurba_marseille","lat":43.33717,"lon":5.39174,"is_reserved":false,"is_disabled":false,"rental_uris":{"android":"levelo://app?vid=815d7014-c6fe-4564-82ce-d8b51f90d2f6","ios":"levelo://app?vid=815d7014-c6fe-4564-82ce-d8b51f90d2f6"},"vehicle_type_id":"4","last_reported":1742418530,"current_range_meters":12400,"station_id":"ce4bhr92rcd13ifvqhsg","pricing_plan_id":"cebpf4jnsgd1na2vs0mg"},{"bike_id":"eca24668-5a1d-44e2-a2b2-ff33a9dd09d8","system_id":"levelo_inurba_marseille","lat":43.24819,"lon":5.3745,"is_reserved":false,"is_disabled":false,"rental_uris":{"android":"levelo://app?vid=eca24668-5a1d-44e2-a2b2-ff33a9dd09d8","ios":"levelo://app?vid=eca24668-5a1d-44e2-a2b2-ff33a9dd09d8"},"vehicle_type_id":"4","last_reported":1742418530,"current_range_meters":12400,"station_id":"ce4bhgh2rcd13ifvqfb0","pricing_plan_id":"cebpf4jnsgd1na2vs0mg"},{"bike_id":"d68386ef-2417-4911-a7d1-e6373bd5a83e","system_id":"levelo_inurba_marseille","lat":43.29529,"lon":5.39014,"is_reserved":false,"is_disabled":false,"rental_uris":{"android":"levelo://app?vid=d68386ef-2417-4911-a7d1-e6373bd5a83e","ios":"levelo://app?vid=d68386ef-2417-4911-a7d1-e6373bd5a83e"},"vehicle_type_id":"4","last_reported":1742418530,"current_range_meters":12400,"station_id":"ce4bh3p2rcd13ifvqdp0","pricing_plan_id":"cebpf4jnsgd1na2vs0mg"},{"bike_id":"d7645557-54c5-44ed-8c44-41e433a350da","system_id":"levelo_inurba_marseille","lat":43.29465,"lon":5.35572,"is_reserved":false,"is_disabled":false,"rental_uris":{"android":"levelo://app?vid=d7645557-54c5-44ed-8c44-41e433a350da","ios":"levelo://app?vid=d7645557-54c5-44ed-8c44-41e433a350da"},"vehicle_type_id":"4","last_reported":1742418530,"current_range_meters":12400,"station_id":"","pricing_plan_id":"cebpf4jnsgd1na2vs0mg"},{"bike_id":"7e751eb6-23b1-49b1-8aba-bdb140bcae0a","system_id":"levelo_inurba_marseille","lat":43.30329,"lon":5.40425,"is_reserved":false,"is_disabled":false,"rental_uris":{"android":"levelo://app?vid=7e751eb6-23b1-49b1-8aba-bdb140bcae0a","ios":"levelo://app?vid=7e751eb6-23b1-49b1-8aba-bdb140bcae0a"},"vehicle_type_id":"4","last_reported":1742418530,"current_range_meters":12800,"station_id":"ce4bh012rcd13ifvqd10","pricing_plan_id":"cebpf4jnsgd1na2vs0mg"},{"bike_id":"08f5fdec-a33c-49db-864f-89f0718e881a","system_id":"levelo_inurba_marseille","lat":43.3126,"lon":5.40151,"is_reserved":false,"is_disabled":false,"rental_uris":{"android":"levelo://app?vid=08f5fdec-a33c-49db-864f-89f0718e881a","ios":"levelo://app?vid=08f5fdec-a33c-49db-864f-89f0718e881a"},"vehicle_type_id":"4","last_reported":1742418530,"current_range_meters":12800,"station_id":"ce4bh092rcd13ifvqd30","pricing_plan_id":"cebpf4jnsgd1na2vs0mg"},{"bike_id":"070be52c-122e-4773-91b8-df422f2ea40e","system_id":"levelo_inurba_marseille","lat":43.303,"lon":5.36878,"is_reserved":false,"is_disabled":false,"rental_uris":{"android":"levelo://app?vid=070be52c-122e-4773-91b8-df422f2ea40e","ios":"levelo://app?vid=070be52c-122e-4773-91b8-df422f2ea40e"},"vehicle_type_id":"4","last_reported":1742418530,"current_range_meters":12800,"station_id":"ce4bgqh2rcd13ifvqc5g","pricing_plan_id":"cebpf4jnsgd1na2vs0mg"},{"bike_id":"8e5e5412-e54f-44bf-8d68-16cfa4451e50","system_id":"levelo_inurba_marseille","lat":43.28353,"lon":5.38657,"is_reserved":false,"is_disabled":false,"rental_uris":{"android":"levelo://app?vid=8e5e5412-e54f-44bf-8d68-16cfa4451e50","ios":"levelo://app?vid=8e5e5412-e54f-44bf-8d68-16cfa4451e50"},"vehicle_type_id":"4","last_reported":1742418530,"current_range_meters":12800,"station_id":"ce4bh492rcd13ifvqdvg","pricing_plan_id":"cebpf4jnsgd1na2vs0mg"},{"bike_id":"a0deeb6c-62a7-4efb-834c-1bec837aaba6","system_id":"levelo_inurba_marseille","lat":43.33684,"lon":5.3782,"is_reserved":false,"is_disabled":false,"rental_uris":{"android":"levelo://app?vid=a0deeb6c-62a7-4efb-834c-1bec837aaba6","ios":"levelo://app?vid=a0deeb6c-62a7-4efb-834c-1bec837aaba6"},"vehicle_type_id":"4","last_reported":1742418530,"current_range_meters":12800,"station_id":"","pricing_plan_id":"cebpf4jnsgd1na2vs0mg"},{"bike_id":"18731a0d-3f5a-4741-bc4f-48cab07325c9","system_id":"levelo_inurba_marseille","lat":43.29535,"lon":5.38539,"is_reserved":false,"is_disabled":false,"rental_uris":{"android":"levelo://app?vid=18731a0d-3f5a-4741-bc4f-48cab07325c9","ios":"levelo://app?vid=18731a0d-3f5a-4741-bc4f-48cab07325c9"},"vehicle_type_id":"4","last_reported":1742418530,"current_range_meters":12800,"station_id":"ce4bgih2rcd13ifvqba0","pricing_plan_id":"cebpf4jnsgd1na2vs0mg"},{"bike_id":"211ee8ec-5df5-49d9-862c-6084256cf9d2","system_id":"levelo_inurba_marseille","lat":43.31903,"lon":5.40741,"is_reserved":false,"is_disabled":false,"rental_uris":{"android":"levelo://app?vid=211ee8ec-5df5-49d9-862c-6084256cf9d2","ios":"levelo://app?vid=211ee8ec-5df5-49d9-862c-6084256cf9d2"},"vehicle_type_id":"4","last_reported":1742418530,"current_range_meters":12800,"station_id":"ce4bhq12rcd13ifvqhig","pricing_plan_id":"cebpf4jnsgd1na2vs0mg"},{"bike_id":"632e5433-7e6f-4a14-bbd5-c3217609d196","system_id":"levelo_inurba_marseille","lat":43.29526,"lon":5.39026,"is_reserved":false,"is_disabled":false,"rental_uris":{"android":"levelo://app?vid=632e5433-7e6f-4a14-bbd5-c3217609d196","ios":"levelo://app?vid=632e5433-7e6f-4a14-bbd5-c3217609d196"},"vehicle_type_id":"4","last_reported":1742418530,"current_range_meters":12800,"station_id":"ce4bh3p2rcd13ifvqdp0","pricing_plan_id":"cebpf4jnsgd1na2vs0mg"},{"bike_id":"c9647eb6-bafe-434e-86f1-79017f496748","system_id":"levelo_inurba_marseille","lat":43.29616,"lon":5.40664,"is_reserved":false,"is_disabled":false,"rental_uris":{"android":"levelo://app?vid=c9647eb6-bafe-434e-86f1-79017f496748","ios":"levelo://app?vid=c9647eb6-bafe-434e-86f1-79017f496748"},"vehicle_type_id":"4","last_reported":1742418530,"current_range_meters":12800,"station_id":"","pricing_plan_id":"cebpf4jnsgd1na2vs0mg"},{"bike_id":"11bd8d6d-27dc-4740-9c7d-3b5375e8c83b","system_id":"levelo_inurba_marseille","lat":43.31702,"lon":5.39687,"is_reserved":false,"is_disabled":false,"rental_uris":{"android":"levelo://app?vid=11bd8d6d-27dc-4740-9c7d-3b5375e8c83b","ios":"levelo://app?vid=11bd8d6d-27dc-4740-9c7d-3b5375e8c83b"},"vehicle_type_id":"4","last_reported":1742418530,"current_range_meters":13600,"station_id":"","pricing_plan_id":"cebpf4jnsgd1na2vs0mg"},{"bike_id":"878242bf-ab60-4c3c-9dce-de7845ab9acb","system_id":"levelo_inurba_marseille","lat":43.2319,"lon":5.39989,"is_reserved":false,"is_disabled":false,"rental_uris":{"android":"levelo://app?vid=878242bf-ab60-4c3c-9dce-de7845ab9acb","ios":"levelo://app?vid=878242bf-ab60-4c3c-9dce-de7845ab9acb"},"vehicle_type_id":"4","last_reported":1742418530,"current_range_meters":13600,"station_id":"ce4bhn12rcd13ifvqgqg","pricing_plan_id":"cebpf4jnsgd1na2vs0mg"},{"bike_id":"e84d075b-25a6-4b86-8454-449d0c7277c1","system_id":"levelo_inurba_marseille","lat":43.30305,"lon":5.39245,"is_reserved":false,"is_disabled":false,"rental_uris":{"android":"levelo://app?vid=e84d075b-25a6-4b86-8454-449d0c7277c1","ios":"levelo://app?vid=e84d075b-25a6-4b86-8454-449d0c7277c1"},"vehicle_type_id":"4","last_reported":1742418530,"current_range_meters":13600,"station_id":"ce4bgkh2rcd13ifvqbk0","pricing_plan_id":"cebpf4jnsgd1na2vs0mg"},{"bike_id":"8e503168-2a2f-4739-aed6-a74f965c4e63","system_id":"levelo_inurba_marseille","lat":43.25715,"lon":5.4111,"is_reserved":false,"is_disabled":false,"rental_uris":{"android":"levelo://app?vid=8e503168-2a2f-4739-aed6-a74f965c4e63","ios":"levelo://app?vid=8e503168-2a2f-4739-aed6-a74f965c4e63"},"vehicle_type_id":"4","last_reported":1742418530,"current_range_meters":14000,"station_id":"ce4bhkp2rcd13ifvqgd0","pricing_plan_id":"cebpf4jnsgd1na2vs0mg"},{"bike_id":"37cca924-49fd-4498-bd3a-5adb1c013198","system_id":"levelo_inurba_marseille","lat":43.286976,"lon":5.39979,"is_reserved":false,"is_disabled":false,"rental_uris":{"android":"levelo://app?vid=37cca924-49fd-4498-bd3a-5adb1c013198","ios":"levelo://app?vid=37cca924-49fd-4498-bd3a-5adb1c013198"},"vehicle_type_id":"4","last_reported":1742418530,"current_range_meters":14000,"station_id":"ce4bho92rcd13ifvqh3g","pricing_plan_id":"cebpf4jnsgd1na2vs0mg"},{"bike_id":"460936cc-33f4-4b12-b18c-67a0291924a5","system_id":"levelo_inurba_marseille","lat":43.34142,"lon":5.409,"is_reserved":false,"is_disabled":false,"rental_uris":{"android":"levelo://app?vid=460936cc-33f4-4b12-b18c-67a0291924a5","ios":"levelo://app?vid=460936cc-33f4-4b12-b18c-67a0291924a5"},"vehicle_type_id":"4","last_reported":1742418530,"current_range_meters":14000,"station_id":"ce4bhqh2rcd13ifvqhlg","pricing_plan_id":"cebpf4jnsgd1na2vs0mg"},{"bike_id":"5c3de4d1-0190-4153-b1cc-dd1e04aac0ec","system_id":"levelo_inurba_marseille","lat":43.29588,"lon":5.38111,"is_reserved":false,"is_disabled":false,"rental_uris":{"android":"levelo://app?vid=5c3de4d1-0190-4153-b1cc-dd1e04aac0ec","ios":"levelo://app?vid=5c3de4d1-0190-4153-b1cc-dd1e04aac0ec"},"vehicle_type_id":"4","last_reported":1742418530,"current_range_meters":14000,"station_id":"ce4bgl12rcd13ifvqbo0","pricing_plan_id":"cebpf4jnsgd1na2vs0mg"},{"bike_id":"78de8420-610c-4e7e-aabe-183adf2a5c6d","system_id":"levelo_inurba_marseille","lat":43.29622,"lon":5.40588,"is_reserved":false,"is_disabled":false,"rental_uris":{"android":"levelo://app?vid=78de8420-610c-4e7e-aabe-183adf2a5c6d","ios":"levelo://app?vid=78de8420-610c-4e7e-aabe-183adf2a5c6d"},"vehicle_type_id":"4","last_reported":1742418530,"current_range_meters":14000,"station_id":"ce4bh0h2rcd13ifvqd60","pricing_plan_id":"cebpf4jnsgd1na2vs0mg"},{"bike_id":"7721c1d1-8e22-4af6-b461-42e564891d17","system_id":"levelo_inurba_marseille","lat":43.30129,"lon":5.39883,"is_reserved":false,"is_disabled":true,"rental_uris":{"android":"levelo://app?vid=7721c1d1-8e22-4af6-b461-42e564891d17","ios":"levelo://app?vid=7721c1d1-8e22-4af6-b461-42e564891d17"},"vehicle_type_id":"4","last_reported":1742418530,"current_range_meters":14000,"station_id":"ce4bh0h2rcd13ifvqd40","pricing_plan_id":"cebpf4jnsgd1na2vs0mg"},{"bike_id":"dcfce11f-23fd-43b3-ac6a-2331b19f3e91","system_id":"levelo_inurba_marseille","lat":43.30877,"lon":5.39658,"is_reserved":false,"is_disabled":false,"rental_uris":{"android":"levelo://app?vid=dcfce11f-23fd-43b3-ac6a-2331b19f3e91","ios":"levelo://app?vid=dcfce11f-23fd-43b3-ac6a-2331b19f3e91"},"vehicle_type_id":"4","last_reported":1742418530,"current_range_meters":14000,"station_id":"ce4bh012rcd13ifvqcv0","pricing_plan_id":"cebpf4jnsgd1na2vs0mg"},{"bike_id":"a80bfe04-b810-460f-a38c-85945e8d49d0","system_id":"levelo_inurba_marseille","lat":43.23595,"lon":5.4034,"is_reserved":false,"is_disabled":false,"rental_uris":{"android":"levelo://app?vid=a80bfe04-b810-460f-a38c-85945e8d49d0","ios":"levelo://app?vid=a80bfe04-b810-460f-a38c-85945e8d49d0"},"vehicle_type_id":"4","last_reported":1742418530,"current_range_meters":14000,"station_id":"","pricing_plan_id":"cebpf4jnsgd1na2vs0mg"},{"bike_id":"6883c811-8746-429a-bd41-848ecf4dd19e","system_id":"levelo_inurba_marseille","lat":43.2353,"lon":5.37743,"is_reserved":false,"is_disabled":false,"rental_uris":{"android":"levelo://app?vid=6883c811-8746-429a-bd41-848ecf4dd19e","ios":"levelo://app?vid=6883c811-8746-429a-bd41-848ecf4dd19e"},"vehicle_type_id":"4","last_reported":1742418530,"current_range_meters":14000,"station_id":"","pricing_plan_id":"cebpf4jnsgd1na2vs0mg"},{"bike_id":"3541b254-27bb-462a-9b76-258b8d38b3e8","system_id":"levelo_inurba_marseille","lat":43.31056,"lon":5.38349,"is_reserved":false,"is_disabled":false,"rental_uris":{"android":"levelo://app?vid=3541b254-27bb-462a-9b76-258b8d38b3e8","ios":"levelo://app?vid=3541b254-27bb-462a-9b76-258b8d38b3e8"},"vehicle_type_id":"4","last_reported":1742418530,"current_range_meters":14000,"station_id":"ce4bgv92rcd13ifvqcr0","pricing_plan_id":"cebpf4jnsgd1na2vs0mg"},{"bike_id":"181b1742-09ee-46ab-8712-67d8396af664","system_id":"levelo_inurba_marseille","lat":43.24168,"lon":5.39729,"is_reserved":false,"is_disabled":false,"rental_uris":{"android":"levelo://app?vid=181b1742-09ee-46ab-8712-67d8396af664","ios":"levelo://app?vid=181b1742-09ee-46ab-8712-67d8396af664"},"vehicle_type_id":"4","last_reported":1742418530,"current_range_meters":14000,"station_id":"ce4bhn12rcd13ifvqgpg","pricing_plan_id":"cebpf4jnsgd1na2vs0mg"},{"bike_id":"bc1594f0-f23b-46fa-bccc-f3ff1c68a71d","system_id":"levelo_inurba_marseille","lat":43.258215,"lon":5.394405,"is_reserved":false,"is_disabled":false,"rental_uris":{"android":"levelo://app?vid=bc1594f0-f23b-46fa-bccc-f3ff1c68a71d","ios":"levelo://app?vid=bc1594f0-f23b-46fa-bccc-f3ff1c68a71d"},"vehicle_type_id":"4","last_reported":1742418530,"current_range_meters":14400,"station_id":"ce4bhip2rcd13ifvqft0","pricing_plan_id":"cebpf4jnsgd1na2vs0mg"},{"bike_id":"ffbee1c9-ab8d-45ee-b606-c546ab78c5f2","system_id":"levelo_inurba_marseille","lat":43.29728,"lon":5.37777,"is_reserved":false,"is_disabled":false,"rental_uris":{"android":"levelo://app?vid=ffbee1c9-ab8d-45ee-b606-c546ab78c5f2","ios":"levelo://app?vid=ffbee1c9-ab8d-45ee-b606-c546ab78c5f2"},"vehicle_type_id":"4","last_reported":1742418530,"current_range_meters":14400,"station_id":"","pricing_plan_id":"cebpf4jnsgd1na2vs0mg"},{"bike_id":"39a69217-5beb-4b90-9aec-4a4defd7fd6e","system_id":"levelo_inurba_marseille","lat":43.3118,"lon":5.3871,"is_reserved":false,"is_disabled":false,"rental_uris":{"android":"levelo://app?vid=39a69217-5beb-4b90-9aec-4a4defd7fd6e","ios":"levelo://app?vid=39a69217-5beb-4b90-9aec-4a4defd7fd6e"},"vehicle_type_id":"4","last_reported":1742418530,"current_range_meters":14400,"station_id":"ce4bgv12rcd13ifvqcp0","pricing_plan_id":"cebpf4jnsgd1na2vs0mg"},{"bike_id":"71cee084-4971-41dd-8931-6915b0a1225e","system_id":"levelo_inurba_marseille","lat":43.27837,"lon":5.40693,"is_reserved":false,"is_disabled":false,"rental_uris":{"android":"levelo://app?vid=71cee084-4971-41dd-8931-6915b0a1225e","ios":"levelo://app?vid=71cee084-4971-41dd-8931-6915b0a1225e"},"vehicle_type_id":"4","last_reported":1742418530,"current_range_meters":14400,"station_id":"ce4bhnh2rcd13ifvqgtg","pricing_plan_id":"cebpf4jnsgd1na2vs0mg"},{"bike_id":"8da6906f-a13a-4aef-85cb-cb9873b339ae","system_id":"levelo_inurba_marseille","lat":43.308,"lon":5.3763,"is_reserved":false,"is_disabled":false,"rental_uris":{"android":"levelo://app?vid=8da6906f-a13a-4aef-85cb-cb9873b339ae","ios":"levelo://app?vid=8da6906f-a13a-4aef-85cb-cb9873b339ae"},"vehicle_type_id":"4","last_reported":1742418530,"current_range_meters":14400,"station_id":"ce4bgv92rcd13ifvqcq0","pricing_plan_id":"cebpf4jnsgd1na2vs0mg"},{"bike_id":"4fcd06ae-4851-4c19-aff2-bf420ac261fc","system_id":"levelo_inurba_marseille","lat":43.28353,"lon":5.3864,"is_reserved":false,"is_disabled":true,"rental_uris":{"android":"levelo://app?vid=4fcd06ae-4851-4c19-aff2-bf420ac261fc","ios":"levelo://app?vid=4fcd06ae-4851-4c19-aff2-bf420ac261fc"},"vehicle_type_id":"4","last_reported":1742418530,"current_range_meters":14400,"station_id":"ce4bh492rcd13ifvqdvg","pricing_plan_id":"cebpf4jnsgd1na2vs0mg"},{"bike_id":"76f0a242-d0ee-4b33-969e-248778f81ac7","system_id":"levelo_inurba_marseille","lat":43.28937,"lon":5.36625,"is_reserved":false,"is_disabled":false,"rental_uris":{"android":"levelo://app?vid=76f0a242-d0ee-4b33-969e-248778f81ac7","ios":"levelo://app?vid=76f0a242-d0ee-4b33-969e-248778f81ac7"},"vehicle_type_id":"4","last_reported":1742418530,"current_range_meters":14400,"station_id":"ce4bhap2rcd13ifvqek0","pricing_plan_id":"cebpf4jnsgd1na2vs0mg"},{"bike_id":"c5bb5dca-1dc9-450e-9a3d-9fa737cf345d","system_id":"levelo_inurba_marseille","lat":43.24645,"lon":5.38883,"is_reserved":false,"is_disabled":false,"rental_uris":{"android":"levelo://app?vid=c5bb5dca-1dc9-450e-9a3d-9fa737cf345d","ios":"levelo://app?vid=c5bb5dca-1dc9-450e-9a3d-9fa737cf345d"},"vehicle_type_id":"4","last_reported":1742418530,"current_range_meters":14400,"station_id":"ce4bhg12rcd13ifvqf60","pricing_plan_id":"cebpf4jnsgd1na2vs0mg"},{"bike_id":"8879e25f-e10f-420b-a3cf-17b5a4037281","system_id":"levelo_inurba_marseille","lat":43.25815,"lon":5.39431,"is_reserved":false,"is_disabled":false,"rental_uris":{"android":"levelo://app?vid=8879e25f-e10f-420b-a3cf-17b5a4037281","ios":"levelo://app?vid=8879e25f-e10f-420b-a3cf-17b5a4037281"},"vehicle_type_id":"4","last_reported":1742418530,"current_range_meters":14400,"station_id":"ce4bhip2rcd13ifvqft0","pricing_plan_id":"cebpf4jnsgd1na2vs0mg"},{"bike_id":"13cc78a0-eee8-44bf-ba66-2bb5c4a0d700","system_id":"levelo_inurba_marseille","lat":43.31885,"lon":5.40727,"is_reserved":false,"is_disabled":false,"rental_uris":{"android":"levelo://app?vid=13cc78a0-eee8-44bf-ba66-2bb5c4a0d700","ios":"levelo://app?vid=13cc78a0-eee8-44bf-ba66-2bb5c4a0d700"},"vehicle_type_id":"4","last_reported":1742418530,"current_range_meters":14800,"station_id":"ce4bhq12rcd13ifvqhig","pricing_plan_id":"cebpf4jnsgd1na2vs0mg"},{"bike_id":"5b3d9267-984e-4cde-81d9-f6988e2f0858","system_id":"levelo_inurba_marseille","lat":43.29231,"lon":5.38445,"is_reserved":false,"is_disabled":false,"rental_uris":{"android":"levelo://app?vid=5b3d9267-984e-4cde-81d9-f6988e2f0858","ios":"levelo://app?vid=5b3d9267-984e-4cde-81d9-f6988e2f0858"},"vehicle_type_id":"4","last_reported":1742418530,"current_range_meters":14800,"station_id":"ce4bh692rcd13ifvqea0","pricing_plan_id":"cebpf4jnsgd1na2vs0mg"},{"bike_id":"f239c964-fe5d-448c-8524-569ed1071734","system_id":"levelo_inurba_marseille","lat":43.25811,"lon":5.39443,"is_reserved":false,"is_disabled":false,"rental_uris":{"android":"levelo://app?vid=f239c964-fe5d-448c-8524-569ed1071734","ios":"levelo://app?vid=f239c964-fe5d-448c-8524-569ed1071734"},"vehicle_type_id":"4","last_reported":1742418530,"current_range_meters":14800,"station_id":"ce4bhip2rcd13ifvqft0","pricing_plan_id":"cebpf4jnsgd1na2vs0mg"},