{"last_updated":1783263847,"ttl":60,"version":"2.2","data":{"bikes":[{"bike_id":"ba0c28b1-8732-48e2-8079-f25b2b3fbc3c","system_id":"levelo_inurba_marseille","lat":43.337444,"lon":5.374475,"is_reserved":false,"is_disabled":false,"rental_uris":{"android":"levelo://app?vid=ba0c28b1-8732-48e2-8079-f25b2b3fbc3c","ios":"levelo://app?vid=ba0c28b1-8732-48e2-8079-f25b2b3fbc3c"},"vehicle_type_id":"4","last_reported":1783263848,"current_range_meters":0,"station_id":"","pricing_plan_id":"cebpf4jnsgd1na2vs0mg"},{"bike_id":"e8f1d259-f751-4c63-921c-a2c5c7ed57f9","system_id":"levelo_inurba_marseille","lat":43.29971,"lon":5.38498,"is_reserved":false,"is_disabled":false,"rental_uris":{"android":"levelo://app?vid=e8f1d259-f751-4c63-921c-a2c5c7ed57f9","ios":"levelo://app?vid=e8f1d259-f751-4c63-921c-a2c5c7ed57f9"},"vehicle_type_id":"4","last_reported":1783263848,"current_range_meters":2800,"station_id":"ce4bgj92rcd13ifvqbd0","pricing_plan_id":"cebpf4jnsgd1na2vs0mg"},{"bike_id":"8c8721ce-64c8-4c26-a9c0-278705b647e3","system_id":"levelo_inurba_marseille","lat":43.29919,"lon":5.37482,"is_reserved":false,"is_disabled":false,"rental_uris":{"android":"levelo://app?vid=8c8721ce-64c8-4c26-a9c0-278705b647e3","ios":"levelo://app?vid=8c8721ce-64c8-4c26-a9c0-278705b647e3"},"vehicle_type_id":"4","last_reported":1783263848,"current_range_meters":2800,"station_id":"ce4bgjh2rcd13ifvqbg0","pricing_plan_id":"cebpf4jnsgd1na2vs0mg"},{"bike_id":"6398d7ac-f7c1-4c54-8bf2-1eba82c15c52","system_id":"levelo_inurba_marseille","lat":43.29789,"lon":5.38107,"is_reserved":false,"is_disabled":false,"rental_uris":{"android":"levelo://app?vid=6398d7ac-f7c1-4c54-8bf2-1eba82c15c52","ios":"levelo://app?vid=6398d7ac-f7c1-4c54-8bf2-1eba82c15c52"},"vehicle_type_id":"4","last_reported":1783263848,"current_range_meters":2800,"station_id":"ce4bgip2rcd13ifvqbb0","pricing_plan_id":"cebpf4jnsgd1na2vs0mg"},{"bike_id":"7dcdb77e-5520-404c-a8e4-5410b21ff636","system_id":"levelo_inurba_marseille","lat":43.29616,"lon":5.42383,"is_reserved":false,"is_disabled":false,"rental_uris":{"android":"levelo://app?vid=7dcdb77e-5520-404c-a8e4-5410b21ff636","ios":"levelo://app?vid=7dcdb77e-5520-404c-a8e4-5410b21ff636"},"vehicle_type_id":"4","last_reported":1783263848,"current_range_meters":2800,"station_id":"","pricing_plan_id":"cebpf4jnsgd1na2vs0mg"},{"bike_id":"0258c125-282f-4adb-84e3-d806703dc533","system_id":"levelo_inurba_marseille","lat":43.31265,"lon":5.39399,"is_reserved":false,"is_disabled":false,"rental_uris":{"android":"levelo://app?vid=0258c125-282f-4adb-84e3-d806703dc533","ios":"levelo://app?vid=0258c125-282f-4adb-84e3-d806703dc533"},"vehicle_type_id":"4","last_reported":1783263848,"current_range_meters":2800,"station_id":"","pricing_plan_id":"cebpf4jnsgd1na2vs0mg"},{"bike_id":"a26d6667-9566-450e-bf34-c3f9925c4982","system_id":"levelo_inurba_marseille","lat":43.26535,"lon":5.39047,"is_reserved":false,"is_disabled":false,"rental_uris":{"android":"levelo://app?vid=a26d6667-9566-450e-bf34-c3f9925c4982","ios":"levelo://app?vid=a26d6667-9566-450e-bf34-c3f9925c4982"},"vehicle_type_id":"4","last_reported":1783263848,"current_range_meters":2800,"station_id":"ce4bhe12rcd13ifvqf30","pricing_plan_id":"cebpf4jnsgd1na2vs0mg"},{"bike_id":"6f37e172-e521-4e45-91cc-413b9ad92298","system_id":"levelo_inurba_marseille","lat":43.29348,"lon":5.37601,"is_reserved":false,"is_disabled":true,"rental_uris":{"android":"levelo://app?vid=6f37e172-e521-4e45-91cc-413b9ad92298","ios":"levelo://app?vid=6f37e172-e521-4e45-91cc-413b9ad92298"},"vehicle_type_id":"4","last_reported":1783263848,"current_range_meters":2800,"station_id":"","pricing_plan_id":"cebpf4jnsgd1na2vs0mg"},{"bike_id":"fcd4b9ed-406c-48f5-b03f-b07145ac41f5","system_id":"levelo_inurba_marseille","lat":43.24172,"lon":5.3886,"is_reserved":false,"is_disabled":false,"rental_uris":{"android":"levelo://app?vid=fcd4b9ed-406c-48f5-b03f-b07145ac41f5","ios":"levelo://app?vid=fcd4b9ed-406c-48f5-b03f-b07145ac41f5"},"vehicle_type_id":"4","last_reported":1783263848,"current_range_meters":2800,"station_id":"","pricing_plan_id":"cebpf4jnsgd1na2vs0mg"},{"bike_id":"080bf7ff-8704-4900-aef6-c296136ada18","system_id":"levelo_inurba_marseille","lat":43.27359,"lon":5.36249,"is_reserved":false,"is_disabled":false,"rental_uris":{"android":"levelo://app?vid=080bf7ff-8704-4900-aef6-c296136ada18","ios":"levelo://app?vid=080bf7ff-8704-4900-aef6-c296136ada18"},"vehicle_type_id":"4","last_reported":1783263848,"current_range_meters":2800,"station_id":"ce4bhbh2rcd13ifvqeo0","pricing_plan_id":"cebpf4jnsgd1na2vs0mg"},{"bike_id":"abf1c1fa-1405-476f-bd73-54723798211b","system_id":"levelo_inurba_marseille","lat":43.23711,"lon":5.40205,"is_reserved":false,"is_disabled":false,"rental_uris":{"android":"levelo://app?vid=abf1c1fa-1405-476f-bd73-54723798211b","ios":"levelo://app?vid=abf1c1fa-1405-476f-bd73-54723798211b"},"vehicle_type_id":"4","last_reported":1783263848,"current_range_meters":2800,"station_id":"","pricing_plan_id":"cebpf4jnsgd1na2vs0mg"},{"bike_id":"adf781d1-b3dc-4123-b375-519d6858951a","system_id":"levelo_inurba_marseille","lat":43.26205,"lon":5.37929,"is_reserved":false,"is_disabled":false,"rental_uris":{"android":"levelo://app?vid=adf781d1-b3dc-4123-b375-519d6858951a","ios":"levelo://app?vid=adf781d1-b3dc-4123-b375-519d6858951a"},"vehicle_type_id":"4","last_reported":1783263848,"current_range_meters":2800,"station_id":"ce4bhjp2rcd13ifvqg90","pricing_plan_id":"cebpf4jnsgd1na2vs0mg"},{"bike_id":"2d8d1841-e6b1-4280-b763-57f7e9c5dec2","system_id":"levelo_inurba_marseille","lat":43.27215,"lon":5.39172,"is_reserved":false,"is_disabled":false,"rental_uris":{"android":"levelo://app?vid=2d8d1841-e6b1-4280-b763-57f7e9c5dec2","ios":"levelo://app?vid=2d8d1841-e6b1-4280-b763-57f7e9c5dec2"},"vehicle_type_id":"4","last_reported":1783263848,"current_range_meters":2800,"station_id":"ce4bhhp2rcd13ifvqfm0","pricing_plan_id":"cebpf4jnsgd1na2vs0mg"},{"bike_id":"5b8e4314-110f-4a01-bbba-98c9594e6c07","system_id":"levelo_inurba_marseille","lat":43.284184,"lon":5.34977,"is_reserved":false,"is_disabled":false,"rental_uris":{"android":"levelo://app?vid=5b8e4314-110f-4a01-bbba-98c9594e6c07","ios":"levelo://app?vid=5b8e4314-110f-4a01-bbba-98c9594e6c07"},"vehicle_type_id":"4","last_reported":1783263848,"current_range_meters":2800,"station_id":"ce4bhbh2rcd13ifvqepg","pricing_plan_id":"cebpf4jnsgd1na2vs0mg"},{"bike_id":"0ea8c6db-7f77-4d94-b2c3-f2ede03818f2","system_id":"levelo_inurba_marseille","lat":43.305563,"lon":5.365703,"is_reserved":false,"is_disabled":false,"rental_uris":{"android":"levelo://app?vid=0ea8c6db-7f77-4d94-b2c3-f2ede03818f2","ios":"levelo://app?vid=0ea8c6db-7f77-4d94-b2c3-f2ede03818f2"},"vehicle_type_id":"4","last_reported":1783263848,"current_range_meters":2800,"station_id":"ce4bgs12rcd13ifvqcag","pricing_plan_id":"cebpf4jnsgd1na2vs0mg"},{"bike_id":"bf4e3ec7-1fda-4f06-9aed-28b9517289a7","system_id":"levelo_inurba_marseille","lat":43.24814,"lon":5.37437,"is_reserved":false,"is_disabled":false,"rental_uris":{"android":"levelo://app?vid=bf4e3ec7-1fda-4f06-9aed-28b9517289a7","ios":"levelo://app?vid=bf4e3ec7-1fda-4f06-9aed-28b9517289a7"},"vehicle_type_id":"4","last_reported":1783263848,"current_range_meters":3200,"station_id":"ce4bhgh2rcd13ifvqfb0","pricing_plan_id":"cebpf4jnsgd1na2vs0mg"},{"bike_id":"50aa6815-cb65-48bd-999a-1d2dfbbe24c7","system_id":"levelo_inurba_marseille","lat":43.28472,"lon":5.484,"is_reserved":false,"is_disabled":false,"rental_uris":{"android":"levelo://app?vid=50aa6815-cb65-48bd-999a-1d2dfbbe24c7","ios":"levelo://app?vid=50aa6815-cb65-48bd-999a-1d2dfbbe24c7"},"vehicle_type_id":"4","last_reported":1783263848,"current_range_meters":3200,"station_id":"st_d3svhcjqgbts73a3dn0g","pricing_plan_id":"cebpf4jnsgd1na2vs0mg"},{"bike_id":"3edad406-7310-4441-b103-43aa843ff572","system_id":"levelo_inurba_marseille","lat":43.27934,"lon":5.37219,"is_reserved":false,"is_disabled":false,"rental_uris":{"android":"levelo://app?vid=3edad406-7310-4441-b103-43aa843ff572","ios":"levelo://app?vid=3edad406-7310-4441-b103-43aa843ff572"},"vehicle_type_id":"4","last_reported":1783263848,"current_range_meters":3200,"station_id":"","pricing_plan_id":"cebpf4jnsgd1na2vs0mg"},{"bike_id":"0d076770-4891-41e7-b94e-7ffce9747f5d","system_id":"levelo_inurba_marseille","lat":43.290177,"lon":5.386493,"is_reserved":false,"is_disabled":false,"rental_uris":{"android":"levelo://app?vid=0d076770-4891-41e7-b94e-7ffce9747f5d","ios":"levelo://app?vid=0d076770-4891-41e7-b94e-7ffce9747f5d"},"vehicle_type_id":"4","last_reported":1783263848,"current_range_meters":3200,"station_id":"ce4bh4p2rcd13ifvqe0g","pricing_plan_id":"cebpf4jnsgd1na2vs0mg"},{"bike_id":"19bbcdde-95c5-47bb-84e4-f60c87ce1731","system_id":"levelo_inurba_marseille","lat":43.2841,"lon":5.34984,"is_reserved":false,"is_disabled":false,"rental_uris":{"android":"levelo://app?vid=19bbcdde-95c5-47bb-84e4-f60c87ce1731","ios":"levelo://app?vid=19bbcdde-95c5-47bb-84e4-f60c87ce1731"},"vehicle_type_id":"4","last_reported":1783263848,"current_range_meters":3200,"station_id":"ce4bhbh2rcd13ifvqepg","pricing_plan_id":"cebpf4jnsgd1na2vs0mg"},{"bike_id":"47c959d0-db89-49fb-a730-37e0297ef951","system_id":"levelo_inurba_marseille","lat":43.24397,"lon":5.37075,"is_reserved":false,"is_disabled":false,"rental_uris":{"android":"levelo://app?vid=47c959d0-db89-49fb-a730-37e0297ef951","ios":"levelo://app?vid=47c959d0-db89-49fb-a730-37e0297ef951"},"vehicle_type_id":"4","last_reported":1783263848,"current_range_meters":3200,"station_id":"ce4bhhh2rcd13ifvqfk0","pricing_plan_id":"cebpf4jnsgd1na2vs0mg"},{"bike_id":"a37e0d1f-adff-4516-9781-d4d8275d3d63","system_id":"levelo_inurba_marseille","lat":43.27207,"lon":5.39185,"is_reserved":false,"is_disabled":false,"rental_uris":{"android":"levelo://app?vid=a37e0d1f-adff-4516-9781-d4d8275d3d63","ios":"levelo://app?vid=a37e0d1f-adff-4516-9781-d4d8275d3d63"},"vehicle_type_id":"4","last_reported":1783263848,"current_range_meters":3200,"station_id":"ce4bhhp2rcd13ifvqfm0","pricing_plan_id":"cebpf4jnsgd1na2vs0mg"},{"bike_id":"0fdbc3ef-7188-40c6-a067-aca72c198ee6","system_id":"levelo_inurba_marseille","lat":43.23195,"lon":5.35537,"is_reserved":false,"is_disabled":false,"rental_uris":{"android":"levelo://app?vid=0fdbc3ef-7188-40c6-a067-aca72c198ee6","ios":"levelo://app?vid=0fdbc3ef-7188-40c6-a067-aca72c198ee6"},"vehicle_type_id":"4","last_reported":1783263848,"current_range_meters":3200,"station_id":"ce4bhu92rcd13ifvqi70","pricing_plan_id":"cebpf4jnsgd1na2vs0mg"},{"bike_id":"231ef817-fa92-4c52-a98f-e59a3df1b0ff","system_id":"levelo_inurba_marseille","lat":43.239408,"lon":5.36626,"is_reserved":false,"is_disabled":false,"rental_uris":{"android":"levelo://app?vid=231ef817-fa92-4c52-a98f-e59a3df1b0ff","ios":"levelo://app?vid=231ef817-fa92-4c52-a98f-e59a3df1b0ff"},"vehicle_type_id":"4","last_reported":1783263848,"current_range_meters":3200,"station_id":"ce4bhi12rcd13ifvqfp0","pricing_plan_id":"cebpf4jnsgd1na2vs0mg"},{"bike_id":"2c52e4bc-365b-40fb-ace9-a63bc2aa685a","system_id":"levelo_inurba_marseille","lat":43.33079,"lon":5.38568,"is_reserved":false,"is_disabled":false,"rental_uris":{"android":"levelo://app?vid=2c52e4bc-365b-40fb-ace9-a63bc2aa685a","ios":"levelo://app?vid=2c52e4bc-365b-40fb-ace9-a63bc2aa685a"},"vehicle_type_id":"4","last_reported":1783263848,"current_range_meters":3200,"station_id":"","pricing_plan_id":"cebpf4jnsgd1na2vs0mg"},{"bike_id":"41cb16d3-5635-416c-9c6f-766eb26010f2","system_id":"levelo_inurba_marseille","lat":43.25508,"lon":5.37648,"is_reserved":false,"is_disabled":false,"rental_uris":{"android":"levelo://app?vid=41cb16d3-5635-416c-9c6f-766eb26010f2","ios":"levelo://app?vid=41cb16d3-5635-416c-9c6f-766eb26010f2"},"vehicle_type_id":"4","last_reported":1783263848,"current_range_meters":3200,"station_id":"ce4bhh12rcd13ifvqff0","pricing_plan_id":"cebpf4jnsgd1na2vs0mg"},{"bike_id":"be14d72b-ec18-44f3-b0c0-3b262635bc8f","system_id":"levelo_inurba_marseille","lat":43.29698,"lon":5.36601,"is_reserved":false,"is_disabled":true,"rental_uris":{"android":"levelo://app?vid=be14d72b-ec18-44f3-b0c0-3b262635bc8f","ios":"levelo://app?vid=be14d72b-ec18-44f3-b0c0-3b262635bc8f"},"vehicle_type_id":"4","last_reported":1783263848,"current_range_meters":3200,"station_id":"ce4bgn12rcd13ifvqbt0","pricing_plan_id":"cebpf4jnsgd1na2vs0mg"},{"bike_id":"afc26b3c-afb3-4f24-a125-d0aec1cd5a1e","system_id":"levelo_inurba_marseille","lat":43.29843,"lon":5.36267,"is_reserved":false,"is_disabled":false,"rental_uris":{"android":"levelo://app?vid=afc26b3c-afb3-4f24-a125-d0aec1cd5a1e","ios":"levelo://app?vid=afc26b3c-afb3-4f24-a125-d0aec1cd5a1e"},"vehicle_type_id":"4","last_reported":1783263848,"current_range_meters":3200,"station_id":"ce4bgpp2rcd13ifvqc3g","pricing_plan_id":"cebpf4jnsgd1na2vs0mg"},{"bike_id":"003e7a48-55b8-418f-afb3-c083870fe863","system_id":"levelo_inurba_marseille","lat":43.29918,"lon":5.37486,"is_reserved":false,"is_disabled":false,"rental_uris":{"android":"levelo://app?vid=003e7a48-55b8-418f-afb3-c083870fe863","ios":"levelo://app?vid=003e7a48-55b8-418f-afb3-c083870fe863"},"vehicle_type_id":"4","last_reported":1783263848,"current_range_meters":3200,"station_id":"ce4bgjh2rcd13ifvqbg0","pricing_plan_id":"cebpf4jnsgd1na2vs0mg"},{"bike_id":"61cd84df-f76f-41ad-9da2-1b4df883e51c","system_id":"levelo_inurba_marseille","lat":43.26236,"lon":5.38956,"is_reserved":false,"is_disabled":false,"rental_uris":{"android":"levelo://app?vid=61cd84df-f76f-41ad-9da2-1b4df883e51c","ios":"levelo://app?vid=61cd84df-f76f-41ad-9da2-1b4df883e51c"},"vehicle_type_id":"4","last_reported":1783263848,"current_range_meters":3200,"station_id":"","pricing_plan_id":"cebpf4jnsgd1na2vs0mg"},{"bike_id":"07f6ac1f-24e2-4697-9599-7b52daaf2e08","system_id":"levelo_inurba_marseille","lat":43.29851,"lon":5.36259,"is_reserved":false,"is_disabled":false,"rental_uris":{"android":"levelo://app?vid=07f6ac1f-24e2-4697-9599-7b52daaf2e08","ios":"levelo://app?vid=07f6ac1f-24e2-4697-9599-7b52daaf2e08"},"vehicle_type_id":"4","last_reported":1783263848,"current_range_meters":3200,"station_id":"ce4bgpp2rcd13ifvqc3g","pricing_plan_id":"cebpf4jnsgd1na2vs0mg"},{"bike_id":"367e2c77-1840-403a-b532-0336e7732bd2","system_id":"levelo_inurba_marseille","lat":43.25583,"lon":5.38215,"is_reserved":false,"is_disabled":true,"rental_uris":{"android":"levelo://app?vid=367e2c77-1840-403a-b532-0336e7732bd2","ios":"levelo://app?vid=367e2c77-1840-403a-b532-0336e7732bd2"},"vehicle_type_id":"4","last_reported":1783263848,"current_range_meters":3600,"station_id":"ce4bhih2rcd13ifvqfs0","pricing_plan_id":"cebpf4jnsgd1na2vs0mg"},{"bike_id":"3b94f357-cce7-4ff8-b576-3a0f82c8d79a","system_id":"levelo_inurba_marseille","lat":43.25501,"lon":5.3765,"is_reserved":false,"is_disabled":false,"rental_uris":{"android":"levelo://app?vid=3b94f357-cce7-4ff8-b576-3a0f82c8d79a","ios":"levelo://app?vid=3b94f357-cce7-4ff8-b576-3a0f82c8d79a"},"vehicle_type_id":"4","last_reported":1783263848,"current_range_meters":3600,"station_id":"ce4bhh12rcd13ifvqff0","pricing_plan_id":"cebpf4jnsgd1na2vs0mg"},{"bike_id":"b7c7c1e8-84e9-49fb-a54d-fbe5086cd61a","system_id":"levelo_inurba_marseille","lat":43.27827,"lon":5.40703,"is_reserved":false,"is_disabled":true,"rental_uris":{"android":"levelo://app?vid=b7c7c1e8-84e9-49fb-a54d-fbe5086cd61a","ios":"levelo://app?vid=b7c7c1e8-84e9-49fb-a54d-fbe5086cd61a"},"vehicle_type_id":"4","last_reported":1783263848,"current_range_meters":3600,"station_id":"ce4bhnh2rcd13ifvqgtg","pricing_plan_id":"cebpf4jnsgd1na2vs0mg"},{"bike_id":"aac6d6f5-5414-4268-950d-e95baa8a24a9","system_id":"levelo_inurba_marseille","lat":43.32488,"lon":5.36605,"is_reserved":false,"is_disabled":false,"rental_uris":{"android":"levelo://app?vid=aac6d6f5-5414-4268-950d-e95baa8a24a9","ios":"levelo://app?vid=aac6d6f5-5414-4268-950d-e95baa8a24a9"},"vehicle_type_id":"4","last_reported":1783263848,"current_range_meters":3600,"station_id":"ce4bhs12rcd13ifvqhvg","pricing_plan_id":"cebpf4jnsgd1na2vs0mg"},{"bike_id":"4c907ce7-e11d-49a7-8a2b-f8e6d28203bb","system_id":"levelo_inurba_marseille","lat":43.28868,"lon":5.42513,"is_reserved":false,"is_disabled":false,"rental_uris":{"android":"levelo://app?vid=4c907ce7-e11d-49a7-8a2b-f8e6d28203bb","ios":"levelo://app?vid=4c907ce7-e11d-49a7-8a2b-f8e6d28203bb"},"vehicle_type_id":"4","last_reported":1783263848,"current_range_meters":3600,"station_id":"st_d3b462108ojc7389ooeg","pricing_plan_id":"cebpf4jnsgd1na2vs0mg"},{"bike_id":"693afbfa-e70f-40d9-9271-5aba390db9b6","system_id":"levelo_inurba_marseille","lat":43.24103,"lon":5.36285,"is_reserved":false,"is_disabled":false,"rental_uris":{"android":"levelo://app?vid=693afbfa-e70f-40d9-9271-5aba390db9b6","ios":"levelo://app?vid=693afbfa-e70f-40d9-9271-5aba390db9b6"},"vehicle_type_id":"4","last_reported":1783263848,"current_range_meters":3600,"station_id":"","pricing_plan_id":"cebpf4jnsgd1na2vs0mg"},{"bike_id":"40fdd1cf-c3bf-484e-8ffd-9f5f22190a77","system_id":"levelo_inurba_marseille","lat":43.32105,"lon":5.3677,"is_reserved":false,"is_disabled":false,"rental_uris":{"android":"levelo://app?vid=40fdd1cf-c3bf-484e-8ffd-9f5f22190a77","ios":"levelo://app?vid=40fdd1cf-c3bf-484e-8ffd-9f5f22190a77"},"vehicle_type_id":"4","last_reported":1783263848,"current_range_meters":3600,"station_id":"ce4bhrh2rcd13ifvqhug","pricing_plan_id":"cebpf4jnsgd1na2vs0mg"},{"bike_id":"2a639ca3-0d2b-4495-9fe5-a928a7d74751","system_id":"levelo_inurba_marseille","lat":43.2826,"lon":5.35077,"is_reserved":false,"is_disabled":false,"rental_uris":{"android":"levelo://app?vid=2a639ca3-0d2b-4495-9fe5-a928a7d74751","ios":"levelo://app?vid=2a639ca3-0d2b-4495-9fe5-a928a7d74751"},"vehicle_type_id":"4","last_reported":1783263848,"current_range_meters":3600,"station_id":"ce4bhbp2rcd13ifvqerg","pricing_plan_id":"cebpf4jnsgd1na2vs0mg"},{"bike_id":"0a9ebcff-1b56-45db-9b33-1cda38943cf9","system_id":"levelo_inurba_marseille","lat":43.24493,"lon":5.40734,"is_reserved":false,"is_disabled":false,"rental_uris":{"android":"levelo://app?vid=0a9ebcff-1b56-45db-9b33-1cda38943cf9","ios":"levelo://app?vid=0a9ebcff-1b56-45db-9b33-1cda38943cf9"},"vehicle_type_id":"4","last_reported":1783263848,"current_range_meters":3600,"station_id":"","pricing_plan_id":"cebpf4jnsgd1na2vs0mg"},{"bike_id":"ae809432-b293-4611-afc5-8e839257e4b8","system_id":"levelo_inurba_marseille","lat":43.305369,"lon":5.367181,"is_reserved":false,"is_disabled":false,"rental_uris":{"android":"levelo://app?vid=ae809432-b293-4611-afc5-8e839257e4b8","ios":"levelo://app?vid=ae809432-b293-4611-afc5-8e839257e4b8"},"vehicle_type_id":"4","last_reported":1783263848,"current_range_meters":3600,"station_id":"ce4bgrp2rcd13ifvqc9g","pricing_plan_id":"cebpf4jnsgd1na2vs0mg"},{"bike_id":"5e3315f3-6d66-4a72-b9ce-dfac908d8bdd","system_id":"levelo_inurba_marseille","lat":43.26949,"lon":5.38639,"is_reserved":false,"is_disabled":false,"rental_uris":{"android":"levelo://app?vid=5e3315f3-6d66-4a72-b9ce-dfac908d8bdd","ios":"levelo://app?vid=5e3315f3-6d66-4a72-b9ce-dfac908d8bdd"},"vehicle_type_id":"4","last_reported":1783263848,"current_range_meters":3600,"station_id":"","pricing_plan_id":"cebpf4jnsgd1na2vs0mg"},{"bike_id":"5658cfe3-ed59-45e9-8a44-0561163fcd3f","system_id":"levelo_inurba_marseille","lat":43.30849,"lon":5.40501,"is_reserved":false,"is_disabled":false,"rental_uris":{"android":"levelo://app?vid=5658cfe3-ed59-45e9-8a44-0561163fcd3f","ios":"levelo://app?vid=5658cfe3-ed59-45e9-8a44-0561163fcd3f"},"vehicle_type_id":"4","last_reported":1783263848,"current_range_meters":3600,"station_id":"","pricing_plan_id":"cebpf4jnsgd1na2vs0mg"},{"bike_id":"8b8f9cee-7067-4e1a-a29b-7c5cb3e632a9","system_id":"levelo_inurba_marseille","lat":43.25082,"lon":5.39513,"is_reserved":false,"is_disabled":false,"rental_uris":{"android":"levelo://app?vid=8b8f9cee-7067-4e1a-a29b-7c5cb3e632a9","ios":"levelo://app?vid=8b8f9cee-7067-4e1a-a29b-7c5cb3e632a9"},"vehicle_type_id":"4","last_reported":1783263848,"current_range_meters":3600,"station_id":"ce4bhm12rcd13ifvqgkg","pricing_plan_id":"cebpf4jnsgd1na2vs0mg"},{"bike_id":"cdb96f67-4069-4baa-a896-228f7764dacd","system_id":"levelo_inurba_marseille","lat":43.29556,"lon":5.37885,"is_reserved":false,"is_disabled":false,"rental_uris":{"android":"levelo://app?vid=cdb96f67-4069-4baa-a896-228f7764dacd","ios":"levelo://app?vid=cdb96f67-4069-4baa-a896-228f7764dacd"},"vehicle_type_id":"4","last_reported":1783263848,"current_range_meters":4000,"station_id":"","pricing_plan_id":"cebpf4jnsgd1na2vs0mg"},{"bike_id":"3bc6d12d-59c0-4162-9cda-07f3d37dc2e0","system_id":"levelo_inurba_marseille","lat":43.24437,"lon":5.40293,"is_reserved":false,"is_disabled":false,"rental_uris":{"android":"levelo://app?vid=3bc6d12d-59c0-4162-9cda-07f3d37dc2e0","ios":"levelo://app?vid=3bc6d12d-59c0-4162-9cda-07f3d37dc2e0"},"vehicle_type_id":"4","last_reported":1783263848,"current_range_meters":4000,"station_id":"","pricing_plan_id":"cebpf4jnsgd1na2vs0mg"},{"bike_id":"b2206209-3ca9-41e2-80e2-68b97279a6f4","system_id":"levelo_inurba_marseille","lat":43.24678,"lon":5.38175,"is_reserved":false,"is_disabled":false,"rental_uris":{"android":"levelo://app?vid=b2206209-3ca9-41e2-80e2-68b97279a6f4","ios":"levelo://app?vid=b2206209-3ca9-41e2-80e2-68b97279a6f4"},"vehicle_type_id":"4","last_reported":1783263848,"current_range_meters":4000,"station_id":"ce4bhih2rcd13ifvqfr0","pricing_plan_id":"cebpf4jnsgd1na2vs0mg"},{"bike_id":"c16fdd47-be92-47e0-abeb-e32be9ea84e7","system_id":"levelo_inurba_marseille","lat":43.26562,"lon":5.40324,"is_reserved":false,"is_disabled":false,"rental_uris":{"android":"levelo://app?vid=c16fdd47-be92-47e0-abeb-e32be9ea84e7","ios":"levelo://app?vid=c16fdd47-be92-47e0-abeb-e32be9ea84e7"},"vehicle_type_id":"4","last_reported":1783263848,"current_range_meters":4000,"station_id":"ce4bhmp2rcd13ifvqgng","pricing_plan_id":"cebpf4jnsgd1na2vs0mg"},{"bike_id":"f99b0c7f-6d88-45d6-9e71-2770773b178e","system_id":"levelo_inurba_marseille","lat":43.28482,"lon":5.38422,"is_reserved":false,"is_disabled":false,"rental_uris":{"android":"levelo://app?vid=f99b0c7f-6d88-45d6-9e71-2770773b178e","ios":"levelo://app?vid=f99b0c7f-6d88-45d6-9e71-2770773b178e"},"vehicle_type_id":"4","last_reported":1783263848,"current_range_meters":4000,"station_id":"ce4bh512rcd13ifvqe3g","pricing_plan_id":"cebpf4jnsgd1na2vs0mg"},{"bike_id":"0df3073c-4d91-4aad-99ca-3266164a2dbe","system_id":"levelo_inurba_marseille","lat":43.28403,"lon":5.37529,"is_reserved":false,"is_disabled":true,"rental_uris":{"android":"levelo://app?vid=0df3073c-4d91-4aad-99ca-3266164a2dbe","ios":"levelo://app?vid=0df3073c-4d91-4aad-99ca-3266164a2dbe"},"vehicle_type_id":"4","last_reported":1783263848,"current_range_meters":4000,"station_id":"ce4bh412rcd13ifvqds0","pricing_plan_id":"cebpf4jnsgd1na2vs0mg"},{"bike_id":"891524c8-0a6f-496e-b9fc-7f8e08792d17","system_id":"levelo_inurba_marseille","lat":43.28267,"lon":5.35063,"is_reserved":false,"is_disabled":false,"rental_uris":{"android":"levelo://app?vid=891524c8-0a6f-496e-b9fc-7f8e08792d17","ios":"levelo://app?vid=891524c8-0a6f-496e-b9fc-7f8e08792d17"},"vehicle_type_id":"4","last_reported":1783263848,"current_range_meters":4000,"station_id":"ce4bhbp2rcd13ifvqerg","pricing_plan_id":"cebpf4jnsgd1na2vs0mg"},{"bike_id":"f4c490b5-dc48-483a-b891-cbc3d779a738","system_id":"levelo_inurba_marseille","lat":43.31598,"lon":5.38813,"is_reserved":false,"is_disabled":false,"rental_uris":{"android":"levelo://app?vid=f4c490b5-dc48-483a-b891-cbc3d779a738","ios":"levelo://app?vid=f4c490b5-dc48-483a-b891-cbc3d779a738"},"vehicle_type_id":"4","last_reported":1783263848,"current_range_meters":4000,"station_id":"","pricing_plan_id":"cebpf4jnsgd1na2vs0mg"},{"bike_id":"99e93820-d80d-42e1-9f2c-86076952350c","system_id":"levelo_inurba_marseille","lat":43.29271,"lon":5.4087,"is_reserved":false,"is_disabled":false,"rental_uris":{"android":"levelo://app?vid=99e93820-d80d-42e1-9f2c-86076952350c","ios":"levelo://app?vid=99e93820-d80d-42e1-9f2c-86076952350c"},"vehicle_type_id":"4","last_reported":1783263848,"current_range_meters":4000,"station_id":"ce4bh192rcd13ifvqdc0","pricing_plan_id":"cebpf4jnsgd1na2vs0mg"},{"bike_id":"9721af8c-8419-4a7c-ac70-241e4be05937","system_id":"levelo_inurba_marseille","lat":43.24617,"lon":5.43142,"is_reserved":false,"is_disabled":false,"rental_uris":{"android":"levelo://app?vid=9721af8c-8419-4a7c-ac70-241e4be05937","ios":"levelo://app?vid=9721af8c-8419-4a7c-ac70-241e4be05937"},"vehicle_type_id":"4","last_reported":1783263848,"current_range_meters":4000,"station_id":"st_d2m6c4gdas8pm72e190g","pricing_plan_id":"cebpf4jnsgd1na2vs0mg"},{"bike_id":"0a189b3e-ccc3-472f-9ea9-d2e6fe963d20","system_id":"levelo_inurba_marseille","lat":43.2619,"lon":5.37449,"is_reserved":false,"is_disabled":false,"rental_uris":{"android":"levelo://app?vid=0a189b3e-ccc3-472f-9ea9-d2e6fe963d20","ios":"levelo://app?vid=0a189b3e-ccc3-472f-9ea9-d2e6fe963d20"},"vehicle_type_id":"4","last_reported":1783263848,"current_range_meters":4000,"station_id":"ce4bhgp2rcd13ifvqfc0","pricing_plan_id":"cebpf4jnsgd1na2vs0mg"},{"bike_id":"053ac7f0-2661-4959-8f04-39a48999ab79","system_id":"levelo_inurba_marseille","lat":43.24659,"lon":5.38161,"is_reserved":false,"is_disabled":false,"rental_uris":{"android":"levelo://app?vid=053ac7f0-2661-4959-8f04-39a48999ab79","ios":"levelo://app?vid=053ac7f0-2661-4959-8f04-39a48999ab79"},"vehicle_type_id":"4","last_reported":1783263848,"current_range_meters":4000,"station_id":"ce4bhih2rcd13ifvqfr0","pricing_plan_id":"cebpf4jnsgd1na2vs0mg"},{"bike_id":"190f53f5-1748-48a1-9fe2-500cc8cefa8e","system_id":"levelo_inurba_marseille","lat":43.3254,"lon":5.36566,"is_reserved":false,"is_disabled":false,"rental_uris":{"android":"levelo://app?vid=190f53f5-1748-48a1-9fe2-500cc8cefa8e","ios":"levelo://app?vid=190f53f5-1748-48a1-9fe2-500cc8cefa8e"},"vehicle_type_id":"4","last_reported":1783263848,"current_range_meters":4000,"station_id":"","pricing_plan_id":"cebpf4jnsgd1na2vs0mg"},{"bike_id":"696dc738-3c86-46fd-93b8-7bc1359ff003","system_id":"levelo_inurba_marseille","lat":43.25722,"lon":5.41062,"is_reserved":false,"is_disabled":false,"rental_uris":{"android":"levelo://app?vid=696dc738-3c86-46fd-93b8-7bc1359ff003","ios":"levelo://app?vid=696dc738-3c86-46fd-93b8-7bc1359ff003"},"vehicle_type_id":"4","last_reported":1783263848,"current_range_meters":4000,"station_id":"ce4bhkp2rcd13ifvqgd0","pricing_plan_id":"cebpf4jnsgd1na2vs0mg"},{"bike_id":"6b053270-d48a-4110-99c5-c83190578331","system_id":"levelo_inurba_marseille","lat":43.30431,"lon":5.39746,"is_reserved":false,"is_disabled":false,"rental_uris":{"android":"levelo://app?vid=6b053270-d48a-4110-99c5-c83190578331","ios":"levelo://app?vid=6b053270-d48a-4110-99c5-c83190578331"},"vehicle_type_id":"4","last_reported":1783263848,"current_range_meters":4400,"station_id":"ce4bh092rcd13ifvqd20","pricing_plan_id":"cebpf4jnsgd1na2vs0mg"},{"bike_id":"1afd20d6-d483-4adf-95ab-4266ebd462f5","system_id":"levelo_inurba_marseille","lat":43.28694,"lon":5.36391,"is_reserved":false,"is_disabled":false,"rental_uris":{"android":"levelo://app?vid=1afd20d6-d483-4adf-95ab-4266ebd462f5","ios":"levelo://app?vid=1afd20d6-d483-4adf-95ab-4266ebd462f5"},"vehicle_type_id":"4","last_reported":1783263848,"current_range_meters":4400,"station_id":"","pricing_plan_id":"cebpf4jnsgd1na2vs0mg"},{"bike_id":"f32649e7-7632-4652-b17b-3ae6b603dcc2","system_id":"levelo_inurba_marseille","lat":43.32069,"lon":5.36821,"is_reserved":false,"is_disabled":false,"rental_uris":{"android":"levelo://app?vid=f32649e7-7632-4652-b17b-3ae6b603dcc2","ios":"levelo://app?vid=f32649e7-7632-4652-b17b-3ae6b603dcc2"},"vehicle_type_id":"4","last_reported":1783263848,"current_range_meters":4400,"station_id":"ce4bhrh2rcd13ifvqhug","pricing_plan_id":"cebpf4jnsgd1na2vs0mg"},{"bike_id":"523d281e-1cbb-4b90-9eb4-bcac6ebf3025","system_id":"levelo_inurba_marseille","lat":43.27561,"lon":5.38432,"is_reserved":false,"is_disabled":false,"rental_uris":{"android":"levelo://app?vid=523d281e-1cbb-4b90-9eb4-bcac6ebf3025","ios":"levelo://app?vid=523d281e-1cbb-4b90-9eb4-bcac6ebf3025"},"vehicle_type_id":"4","last_reported":1783263848,"current_range_meters":4400,"station_id":"ce4bhh92rcd13ifvqfi0","pricing_plan_id":"cebpf4jnsgd1na2vs0mg"},{"bike_id":"f782e206-ac61-4081-9547-26099862fe5d","system_id":"levelo_inurba_marseille","lat":43.29181,"lon":5.36023,"is_reserved":false,"is_disabled":false,"rental_uris":{"android":"levelo://app?vid=f782e206-ac61-4081-9547-26099862fe5d","ios":"levelo://app?vid=f782e206-ac61-4081-9547-26099862fe5d"},"vehicle_type_id":"4","last_reported":1783263848,"current_range_meters":4400,"station_id":"","pricing_plan_id":"cebpf4jnsgd1na2vs0mg"},{"bike_id":"55a7774b-a8b8-4d45-96aa-b4dda3a05647","system_id":"levelo_inurba_marseille","lat":43.2843,"lon":5.3497,"is_reserved":false,"is_disabled":false,"rental_uris":{"android":"levelo://app?vid=55a7774b-a8b8-4d45-96aa-b4dda3a05647","ios":"levelo://app?vid=55a7774b-a8b8-4d45-96aa-b4dda3a05647"},"vehicle_type_id":"4","last_reported":1783263848,"current_range_meters":4400,"station_id":"ce4bhbh2rcd13ifvqepg","pricing_plan_id":"cebpf4jnsgd1na2vs0mg"},{"bike_id":"ea41095c-aef1-44e5-8f63-5d4d6fae0a9d","system_id":"levelo_inurba_marseille","lat":43.29235,"lon":5.36057,"is_reserved":false,"is_disabled":false,"rental_uris":{"android":"levelo://app?vid=ea41095c-aef1-44e5-8f63-5d4d6fae0a9d","ios":"levelo://app?vid=ea41095c-aef1-44e5-8f63-5d4d6fae0a9d"},"vehicle_type_id":"4","last_reported":1783263848,"current_range_meters":4400,"station_id":"ce4bhbh2rcd13ifvqeqg","pricing_plan_id":"cebpf4jnsgd1na2vs0mg"},{"bike_id":"bde4fe8f-be40-4b5e-85e0-e4fdf22fb694","system_id":"levelo_inurba_marseille","lat":43.292754,"lon":5.368434,"is_reserved":false,"is_disabled":true,"rental_uris":{"android":"levelo://app?vid=bde4fe8f-be40-4b5e-85e0-e4fdf22fb694","ios":"levelo://app?vid=bde4fe8f-be40-4b5e-85e0-e4fdf22fb694"},"vehicle_type_id":"4","last_reported":1783263848,"current_range_meters":4400,"station_id":"ce4bhbp2rcd13ifvqesg","pricing_plan_id":"cebpf4jnsgd1na2vs0mg"},{"bike_id":"e2770b29-2b53-4a1b-b237-7b8799569b06","system_id":"levelo_inurba_marseille","lat":43.29518,"lon":5.39389,"is_reserved":false,"is_disabled":true,"rental_uris":{"android":"levelo://app?vid=e2770b29-2b53-4a1b-b237-7b8799569b06","ios":"levelo://app?vid=e2770b29-2b53-4a1b-b237-7b8799569b06"},"vehicle_type_id":"4","last_reported":1783263848,"current_range_meters":4400,"station_id":"ce4bh292rcd13ifvqdf0","pricing_plan_id":"cebpf4jnsgd1na2vs0mg"},{"bike_id":"fa6fe44a-24ea-4ea8-9881-615ca36bdd66","system_id":"levelo_inurba_marseille","lat":43.27556,"lon":5.3843,"is_reserved":false,"is_disabled":false,"rental_uris":{"android":"levelo://app?vid=fa6fe44a-24ea-4ea8-9881-615ca36bdd66","ios":"levelo://app?vid=fa6fe44a-24ea-4ea8-9881-615ca36bdd66"},"vehicle_type_id":"4","last_reported":1783263848,"current_range_meters":4400,"station_id":"ce4bhh92rcd13ifvqfi0","pricing_plan_id":"cebpf4jnsgd1na2vs0mg"},{"bike_id":"8c51c550-068e-4ee8-9e6b-2b6156bd353f","system_id":"levelo_inurba_marseille","lat":43.30219,"lon":5.36584,"is_reserved":false,"is_disabled":true,"rental_uris":{"android":"levelo://app?vid=8c51c550-068e-4ee8-9e6b-2b6156bd353f","ios":"levelo://app?vid=8c51c550-068e-4ee8-9e6b-2b6156bd353f"},"vehicle_type_id":"4","last_reported":1783263848,"current_range_meters":4400,"station_id":"ce4bgrh2rcd13ifvqc8g","pricing_plan_id":"cebpf4jnsgd1na2vs0mg"},{"bike_id":"910a0e56-3842-458a-b929-4deeebc2ab76","system_id":"levelo_inurba_marseille","lat":43.2119,"lon":5.35074,"is_reserved":false,"is_disabled":false,"rental_uris":{"android":"levelo://app?vid=910a0e56-3842-458a-b929-4deeebc2ab76","ios":"levelo://app?vid=910a0e56-3842-458a-b929-4deeebc2ab76"},"vehicle_type_id":"4","last_reported":1783263848,"current_range_meters":4400,"station_id":"st_cvj6sg6p6f1abm77japg","pricing_plan_id":"cebpf4jnsgd1na2vs0mg"},{"bike_id":"d1cdcfbb-a242-478a-9f0c-9ee2c708daa5","system_id":"levelo_inurba_marseille","lat":43.33018,"lon":5.39051,"is_reserved":false,"is_disabled":false,"rental_uris":{"android":"levelo://app?vid=d1cdcfbb-a242-478a-9f0c-9ee2c708daa5","ios":"levelo://app?vid=d1cdcfbb-a242-478a-9f0c-9ee2c708daa5"},"vehicle_type_id":"4","last_reported":1783263848,"current_range_meters":4400,"station_id":"ce4bhr92rcd13ifvqhrg","pricing_plan_id":"cebpf4jnsgd1na2vs0mg"},{"bike_id":"d6788e7d-6ca0-41b0-9b54-a846cce64917","system_id":"levelo_inurba_marseille","lat":43.26581,"lon":5.39004,"is_reserved":false,"is_disabled":false,"rental_uris":{"android":"levelo://app?vid=d6788e7d-6ca0-41b0-9b54-a846cce64917","ios":"levelo://app?vid=d6788e7d-6ca0-41b0-9b54-a846cce64917"},"vehicle_type_id":"4","last_reported":1783263848,"current_range_meters":4400,"station_id":"ce4bhe12rcd13ifvqf30","pricing_plan_id":"cebpf4jnsgd1na2vs0mg"},{"bike_id":"3af208fb-ed62-4f29-bcd1-b301d13a9628","system_id":"levelo_inurba_marseille","lat":43.28396,"lon":5.36463,"is_reserved":false,"is_disabled":false,"rental_uris":{"android":"levelo://app?vid=3af208fb-ed62-4f29-bcd1-b301d13a9628","ios":"levelo://app?vid=3af208fb-ed62-4f29-bcd1-b301d13a9628"},"vehicle_type_id":"4","last_reported":1783263848,"current_range_meters":4400,"station_id":"","pricing_plan_id":"cebpf4jnsgd1na2vs0mg"},{"bike_id":"f367a146-893d-4746-88b5-c0671d9ab2f6","system_id":"levelo_inurba_marseille","lat":43.2572,"lon":5.41108,"is_reserved":false,"is_disabled":false,"rental_uris":{"android":"levelo://app?vid=f367a146-893d-4746-88b5-c0671d9ab2f6","ios":"levelo://app?vid=f367a146-893d-4746-88b5-c0671d9ab2f6"},"vehicle_type_id":"4","last_reported":1783263848,"current_range_meters":4400,"station_id":"ce4bhkp2rcd13ifvqgd0","pricing_plan_id":"cebpf4jnsgd1na2vs0mg"},{"bike_id":"25801e0a-e313-4f6c-8662-d1791b0082b9","system_id":"levelo_inurba_marseille","lat":43.25099,"lon":5.4032,"is_reserved":false,"is_disabled":false,"rental_uris":{"android":"levelo://app?vid=25801e0a-e313-4f6c-8662-d1791b0082b9","ios":"levelo://app?vid=25801e0a-e313-4f6c-8662-d1791b0082b9"},"vehicle_type_id":"4","last_reported":1783263848,"current_range_meters":4800,"station_id":"ce4bhlh2rcd13ifvqgig","pricing_plan_id":"cebpf4jnsgd1na2vs0mg"},{"bike_id":"1d842c92-56ff-4472-aa67-7f55f03d5725","system_id":"levelo_inurba_marseille","lat":43.28615,"lon":5.39853,"is_reserved":false,"is_disabled":false,"rental_uris":{"android":"levelo://app?vid=1d842c92-56ff-4472-aa67-7f55f03d5725","ios":"levelo://app?vid=1d842c92-56ff-4472-aa67-7f55f03d5725"},"vehicle_type_id":"4","last_reported":1783263848,"current_range_meters":4800,"station_id":"st_d4a7ka997mjs738ck50g","pricing_plan_id":"cebpf4jnsgd1na2vs0mg"},{"bike_id":"de6914c1-a127-4bad-9192-c1a2795bb81d","system_id":"levelo_inurba_marseille","lat":43.21189,"lon":5.35081,"is_reserved":false,"is_disabled":false,"rental_uris":{"android":"levelo://app?vid=de6914c1-a127-4bad-9192-c1a2795bb81d","ios":"levelo://app?vid=de6914c1-a127-4bad-9192-c1a2795bb81d"},"vehicle_type_id":"4","last_reported":1783263848,"current_range_meters":4800,"station_id":"st_cvj6sg6p6f1abm77japg","pricing_plan_id":"cebpf4jnsgd1na2vs0mg"},{"bike_id":"40c60d26-7793-4225-aaf2-3a67b9faf4fc","system_id":"levelo_inurba_marseille","lat":43.23488,"lon":5.38084,"is_reserved":false,"is_disabled":false,"rental_uris":{"android":"levelo://app?vid=40c60d26-7793-4225-aaf2-3a67b9faf4fc","ios":"levelo://app?vid=40c60d26-7793-4225-aaf2-3a67b9faf4fc"},"vehicle_type_id":"4","last_reported":1783263848,"current_range_meters":4800,"station_id":"","pricing_plan_id":"cebpf4jnsgd1na2vs0mg"},{"bike_id":"abaf61ae-3293-4ea8-b207-7a41230a04f3","system_id":"levelo_inurba_marseille","lat":43.23193,"lon":5.35575,"is_reserved":false,"is_disabled":false,"rental_uris":{"android":"levelo://app?vid=abaf61ae-3293-4ea8-b207-7a41230a04f3","ios":"levelo://app?vid=abaf61ae-3293-4ea8-b207-7a41230a04f3"},"vehicle_type_id":"4","last_reported":1783263848,"current_range_meters":4800,"station_id":"ce4bhu92rcd13ifvqi70","pricing_plan_id":"cebpf4jnsgd1na2vs0mg"},{"bike_id":"6a472569-ea0b-4b50-b2fe-fdaab7df609c","system_id":"levelo_inurba_marseille","lat":43.26935,"lon":5.38616,"is_reserved":false,"is_disabled":false,"rental_uris":{"android":"levelo://app?vid=6a472569-ea0b-4b50-b2fe-fdaab7df609c","ios":"levelo://app?vid=6a472569-ea0b-4b50-b2fe-fdaab7df609c"},"vehicle_type_id":"4","last_reported":1783263848,"current_range_meters":4800,"station_id":"ce4bhh92rcd13ifvqfh0","pricing_plan_id":"cebpf4jnsgd1na2vs0mg"},{"bike_id":"718c826c-5424-4765-ba8f-db3ba26fcb0e","system_id":"levelo_inurba_marseille","lat":43.26216,"lon":5.37457,"is_reserved":false,"is_disabled":true,"rental_uris":{"android":"levelo://app?vid=718c826c-5424-4765-ba8f-db3ba26fcb0e","ios":"levelo://app?vid=718c826c-5424-4765-ba8f-db3ba26fcb0e"},"vehicle_type_id":"4","last_reported":1783263848,"current_range_meters":4800,"station_id":"ce4bhgp2rcd13ifvqfc0","pricing_plan_id":"cebpf4jnsgd1na2vs0mg"},{"bike_id":"558cffce-bef5-4f7b-b636-7f88d54a4bba","system_id":"levelo_inurba_marseille","lat":43.21181,"lon":5.35079,"is_reserved":false,"is_disabled":false,"rental_uris":{"android":"levelo://app?vid=558cffce-bef5-4f7b-b636-7f88d54a4bba","ios":"levelo://app?vid=558cffce-bef5-4f7b-b636-7f88d54a4bba"},"vehicle_type_id":"4","last_reported":1783263848,"current_range_meters":4800,"station_id":"st_cvj6sg6p6f1abm77japg","pricing_plan_id":"cebpf4jnsgd1na2vs0mg"},{"bike_id":"5ab82837-1d01-4558-ad59-37c5ee8c5917","system_id":"levelo_inurba_marseille","lat":43.28621,"lon":5.3511,"is_reserved":false,"is_disabled":false,"rental_uris":{"android":"levelo://app?vid=5ab82837-1d01-4558-ad59-37c5ee8c5917","ios":"levelo://app?vid=5ab82837-1d01-4558-ad59-37c5ee8c5917"},"vehicle_type_id":"4","last_reported":1783263848,"current_range_meters":4800,"station_id":"ce4bhch2rcd13ifvqeug","pricing_plan_id":"cebpf4jnsgd1na2vs0mg"},{"bike_id":"a5ec9e1c-2bb9-4fc8-9fad-6f1a5d35bb6b","system_id":"levelo_inurba_marseille","lat":43.29812,"lon":5.37907,"is_reserved":false,"is_disabled":false,"rental_uris":{"android":"levelo://app?vid=a5ec9e1c-2bb9-4fc8-9fad-6f1a5d35bb6b","ios":"levelo://app?vid=a5ec9e1c-2bb9-4fc8-9fad-6f1a5d35bb6b"},"vehicle_type_id":"4","last_reported":1783263848,"current_range_meters":4800,"station_id":"","pricing_plan_id":"cebpf4jnsgd1na2vs0mg"},{"bike_id":"87598ed7-b27b-4140-aaea-c015765247bb","system_id":"levelo_inurba_marseille","lat":43.21185,"lon":5.35063,"is_reserved":false,"is_disabled":false,"rental_uris":{"android":"levelo://app?vid=87598ed7-b27b-4140-aaea-c015765247bb","ios":"levelo://app?vid=87598ed7-b27b-4140-aaea-c015765247bb"},"vehicle_type_id":"4","last_reported":1783263848,"current_range_meters":4800,"station_id":"st_cvj6sg6p6f1abm77japg","pricing_plan_id":"cebpf4jnsgd1na2vs0mg"},{"bike_id":"7a71c416-c3b5-4289-ad0e-531bcb18f06d","system_id":"levelo_inurba_marseille","lat":43.33154,"lon":5.37705,"is_reserved":false,"is_disabled":false,"rental_uris":{"android":"levelo://app?vid=7a71c416-c3b5-4289-ad0e-531bcb18f06d","ios":"levelo://app?vid=7a71c416-c3b5-4289-ad0e-531bcb18f06d"},"vehicle_type_id":"4","last_reported":1783263848,"current_range_meters":4800,"station_id":"st_d46cu089ee8s73dldbu0","pricing_plan_id":"cebpf4jnsgd1na2vs0mg"},{"bike_id":"637ca6f2-621c-4ae1-adb4-7b5112bde475","system_id":"levelo_inurba_marseille","lat":43.28664,"lon":5.36356,"is_reserved":false,"is_disabled":true,"rental_uris":{"android":"levelo://app?vid=637ca6f2-621c-4ae1-adb4-7b5112bde475","ios":"levelo://app?vid=637ca6f2-621c-4ae1-adb4-7b5112bde475"},"vehicle_type_id":"4","last_reported":1783263848,"current_range_meters":4800,"station_id":"ce4bhah2rcd13ifvqej0","pricing_plan_id":"cebpf4jnsgd1na2vs0mg"},{"bike_id":"f6f19c39-2d31-41c2-8901-2a864852152e","system_id":"levelo_inurba_marseille","lat":43.30564,"lon":5.36519,"is_reserved":false,"is_disabled":false,"rental_uris":{"android":"levelo://app?vid=f6f19c39-2d31-41c2-8901-2a864852152e","ios":"levelo://app?vid=f6f19c39-2d31-41c2-8901-2a864852152e"},"vehicle_type_id":"4","last_reported":1783263848,"current_range_meters":4800,"station_id":"ce4bgs12rcd13ifvqcag","pricing_plan_id":"cebpf4jnsgd1na2vs0mg"},{"bike_id":"7fcca41e-2146-47b2-bf38-372ba8763a88","system_id":"levelo_inurba_marseille","lat":43.27994,"lon":5.4167,"is_reserved":false,"is_disabled":false,"rental_uris":{"android":"levelo://app?vid=7fcca41e-2146-47b2-bf38-372ba8763a88","ios":"levelo://app?vid=7fcca41e-2146-47b2-bf38-372ba8763a88"},"vehicle_type_id":"4","last_reported":1783263848,"current_range_meters":4800,"station_id":"ce4bho12rcd13ifvqh1g","pricing_plan_id":"cebpf4jnsgd1na2vs0mg"},{"bike_id":"9efeb665-6ac9-4e70-ba70-20bf3b204b4c","system_id":"levelo_inurba_marseille","lat":43.299059,"lon":5.381578,"is_reserved":false,"is_disabled":false,"rental_uris":{"android":"levelo://app?vid=9efeb665-6ac9-4e70-ba70-20bf3b204b4c","ios":"levelo://app?vid=9efeb665-6ac9-4e70-ba70-20bf3b204b4c"},"vehicle_type_id":"4","last_reported":1783263848,"current_range_meters":4800,"station_id":"ce4bgip2rcd13ifvqbb0","pricing_plan_id":"cebpf4jnsgd1na2vs0mg"},{"bike_id":"69e417ad-b027-4e19-ab2c-a27b60962176","system_id":"levelo_inurba_marseille","lat":43.33544,"lon":5.3744,"is_reserved":false,"is_disabled":false,"rental_uris":{"android":"levelo://app?vid=69e417ad-b027-4e19-ab2c-a27b60962176","ios":"levelo://app?vid=69e417ad-b027-4e19-ab2c-a27b60962176"},"vehicle_type_id":"4","last_reported":1783263848,"current_range_meters":4800,"station_id":"st_d46tts09ee8s73dlu43g","pricing_plan_id":"cebpf4jnsgd1na2vs0mg"},{"bike_id":"4229672c-e819-468a-9c2f-b3f09bb53859","system_id":"levelo_inurba_marseille","lat":43.266692,"lon":5.382724,"is_reserved":false,"is_disabled":false,"rental_uris":{"android":"levelo://app?vid=4229672c-e819-468a-9c2f-b3f09bb53859","ios":"levelo://app?vid=4229672c-e819-468a-9c2f-b3f09bb53859"},"vehicle_type_id":"4","last_reported":1783263848,"current_range_meters":4800,"station_id":"ce4bhg92rcd13ifvqf90","pricing_plan_id":"cebpf4jnsgd1na2vs0mg"},{"bike_id":"e4ee63c7-9eff-4911-8f46-91d4a1859e49","system_id":"levelo_inurba_marseille","lat":43.21186,"lon":5.35076,"is_reserved":false,"is_disabled":false,"rental_uris":{"android":"levelo://app?vid=e4ee63c7-9eff-4911-8f46-91d4a1859e49","ios":"levelo://app?vid=e4ee63c7-9eff-4911-8f46-91d4a1859e49"},"vehicle_type_id":"4","last_reported":1783263848,"current_range_meters":4800,"station_id":"st_cvj6sg6p6f1abm77japg","pricing_plan_id":"cebpf4jnsgd1na2vs0mg"},{"bike_id":"0e329229-8565-4a9d-b593-532bd3ccbaef","system_id":"levelo_inurba_marseille","lat":43.31234,"lon":5.38772,"is_reserved":false,"is_disabled":false,"rental_uris":{"android":"levelo://app?vid=0e329229-8565-4a9d-b593-532bd3ccbaef","ios":"levelo://app?vid=0e329229-8565-4a9d-b593-532bd3ccbaef"},"vehicle_type_id":"4","last_reported":1783263848,"current_range_meters":5600,"station_id":"","pricing_plan_id":"cebpf4jnsgd1na2vs0mg"},{"bike_id":"2f1e7c27-cdbb-4552-bcb6-438088afd41d","system_id":"levelo_inurba_marseille","lat":43.297995,"lon":5.381091,"is_reserved":false,"is_disabled":false,"rental_uris":{"android":"levelo://app?vid=2f1e7c27-cdbb-4552-bcb6-438088afd41d","ios":"levelo://app?vid=2f1e7c27-cdbb-4552-bcb6-438088afd41d"},"vehicle_type_id":"4","last_reported":1783263848,"current_range_meters":5600,"station_id":"ce4bgl12rcd13ifvqbo0","pricing_plan_id":"cebpf4jnsgd1na2vs0mg"},{"bike_id":"90956858-67b4-4bbd-82de-736588e9511e","system_id":"levelo_inurba_marseille","lat":43.22552,"lon":5.41628,"is_reserved":false,"is_disabled":false,"rental_uris":{"android":"levelo://app?vid=90956858-67b4-4bbd-82de-736588e9511e","ios":"levelo://app?vid=90956858-67b4-4bbd-82de-736588e9511e"},"vehicle_type_id":"4","last_reported":1783263848,"current_range_meters":5600,"station_id":"st_d2o4gvlbi1j2169b742g","pricing_plan_id":"cebpf4jnsgd1na2vs0mg"},{"bike_id":"6bfed8b6-c2f0-4dd2-afe2-1ed7b81e9669","system_id":"levelo_inurba_marseille","lat":43.23957,"lon":5.36637,"is_reserved":false,"is_disabled":false,"rental_uris":{"android":"levelo://app?vid=6bfed8b6-c2f0-4dd2-afe2-1ed7b81e9669","ios":"levelo://app?vid=6bfed8b6-c2f0-4dd2-afe2-1ed7b81e9669"},"vehicle_type_id":"4","last_reported":1783263848,"current_range_meters":5600,"station_id":"ce4bhi12rcd13ifvqfp0","pricing_plan_id":"cebpf4jnsgd1na2vs0mg"},{"bike_id":"88634da4-5d5a-4c95-95d4-0e111a943869","system_id":"levelo_inurba_marseille","lat":43.32276,"lon":5.38286,"is_reserved":false,"is_disabled":false,"rental_uris":{"android":"levelo://app?vid=88634da4-5d5a-4c95-95d4-0e111a943869","ios":"levelo://app?vid=88634da4-5d5a-4c95-95d4-0e111a943869"},"vehicle_type_id":"4","last_reported":1783263848,"current_range_meters":5600,"station_id":"ce4bhr12rcd13ifvqhqg","pricing_plan_id":"cebpf4jnsgd1na2vs0mg"},{"bike_id":"6b6aa8a9-3e0f-4319-ab11-dd9de241ba42","system_id":"levelo_inurba_marseille","lat":43.31353,"lon":5.38491,"is_reserved":false,"is_disabled":false,"rental_uris":{"android":"levelo://app?vid=6b6aa8a9-3e0f-4319-ab11-dd9de241ba42","ios":"levelo://app?vid=6b6aa8a9-3e0f-4319-ab11-dd9de241ba42"},"vehicle_type_id":"4","last_reported":1783263848,"current_range_meters":5600,"station_id":"ce4bgt92rcd13ifvqcf0","pricing_plan_id":"cebpf4jnsgd1na2vs0mg"},{"bike_id":"9d2eadd5-f5c0-4915-bb50-65d143b9507c","system_id":"levelo_inurba_marseille","lat":43.28533,"lon":5.44096,"is_reserved":false,"is_disabled":false,"rental_uris":{"android":"levelo://app?vid=9d2eadd5-f5c0-4915-bb50-65d143b9507c","ios":"levelo://app?vid=9d2eadd5-f5c0-4915-bb50-65d143b9507c"},"vehicle_type_id":"4","last_reported":1783263848,"current_range_meters":5600,"station_id":"st_d3j3df2ikq2c7380ej80","pricing_plan_id":"cebpf4jnsgd1na2vs0mg"},{"bike_id":"dc4dc184-e860-4e3b-818b-3e5a82379a6d","system_id":"levelo_inurba_marseille","lat":43.27203,"lon":5.39188,"is_reserved":false,"is_disabled":false,"rental_uris":{"android":"levelo://app?vid=dc4dc184-e860-4e3b-818b-3e5a82379a6d","ios":"levelo://app?vid=dc4dc184-e860-4e3b-818b-3e5a82379a6d"},"vehicle_type_id":"4","last_reported":1783263848,"current_range_meters":5600,"station_id":"ce4bhhp2rcd13ifvqfm0","pricing_plan_id":"cebpf4jnsgd1na2vs0mg"},{"bike_id":"f803775f-8fe2-4d7e-82f4-f1c4f606bb2a","system_id":"levelo_inurba_marseille","lat":43.28156,"lon":5.42632,"is_reserved":false,"is_disabled":false,"rental_uris":{"android":"levelo://app?vid=f803775f-8fe2-4d7e-82f4-f1c4f606bb2a","ios":"levelo://app?vid=f803775f-8fe2-4d7e-82f4-f1c4f606bb2a"},"vehicle_type_id":"4","last_reported":1783263848,"current_range_meters":5600,"station_id":"ce4bhnh2rcd13ifvqgug","pricing_plan_id":"cebpf4jnsgd1na2vs0mg"},{"bike_id":"c43c8964-d4f1-44d2-b5c2-3a0ee2967c54","system_id":"levelo_inurba_marseille","lat":43.29846,"lon":5.36278,"is_reserved":false,"is_disabled":false,"rental_uris":{"android":"levelo://app?vid=c43c8964-d4f1-44d2-b5c2-3a0ee2967c54","ios":"levelo://app?vid=c43c8964-d4f1-44d2-b5c2-3a0ee2967c54"},"vehicle_type_id":"4","last_reported":1783263848,"current_range_meters":5600,"station_id":"ce4bgpp2rcd13ifvqc3g","pricing_plan_id":"cebpf4jnsgd1na2vs0mg"},{"bike_id":"25cf02f4-854c-40a9-a332-b5226533965b","system_id":"levelo_inurba_marseille","lat":43.2985,"lon":5.36274,"is_reserved":false,"is_disabled":false,"rental_uris":{"android":"levelo://app?vid=25cf02f4-854c-40a9-a332-b5226533965b","ios":"levelo://app?vid=25cf02f4-854c-40a9-a332-b5226533965b"},"vehicle_type_id":"4","last_reported":1783263848,"current_range_meters":5600,"station_id":"ce4bgpp2rcd13ifvqc3g","pricing_plan_id":"cebpf4jnsgd1na2vs0mg"},{"bike_id":"1d212c47-5ec5-4f79-a18e-819227bc1d1b","system_id":"levelo_inurba_marseille","lat":43.29846,"lon":5.36272,"is_reserved":false,"is_disabled":false,"rental_uris":{"android":"levelo://app?vid=1d212c47-5ec5-4f79-a18e-819227bc1d1b","ios":"levelo://app?vid=1d212c47-5ec5-4f79-a18e-819227bc1d1b"},"vehicle_type_id":"4","last_reported":1783263848,"current_range_meters":5600,"station_id":"ce4bgpp2rcd13ifvqc3g","pricing_plan_id":"cebpf4jnsgd1na2vs0mg"},{"bike_id":"04909e4d-fd9a-4db5-acd1-6dd906aa9d85","system_id":"levelo_inurba_marseille","lat":43.29022,"lon":5.3593,"is_reserved":false,"is_disabled":true,"rental_uris":{"android":"levelo://app?vid=04909e4d-fd9a-4db5-acd1-6dd906aa9d85","ios":"levelo://app?vid=04909e4d-fd9a-4db5-acd1-6dd906aa9d85"},"vehicle_type_id":"4","last_reported":1783263848,"current_range_meters":5600,"station_id":"ce4bha92rcd13ifvqeg0","pricing_plan_id":"cebpf4jnsgd1na2vs0mg"},{"bike_id":"8a148493-1589-4e0e-9883-889f307f7c27","system_id":"levelo_inurba_marseille","lat":43.28414,"lon":5.34981,"is_reserved":false,"is_disabled":false,"rental_uris":{"android":"levelo://app?vid=8a148493-1589-4e0e-9883-889f307f7c27","ios":"levelo://app?vid=8a148493-1589-4e0e-9883-889f307f7c27"},"vehicle_type_id":"4","last_reported":1783263848,"current_range_meters":5600,"station_id":"ce4bhbh2rcd13ifvqepg","pricing_plan_id":"cebpf4jnsgd1na2vs0mg"},{"bike_id":"9972642f-35aa-4c20-918a-dcbc07e9e004","system_id":"levelo_inurba_marseille","lat":43.29585,"lon":5.36726,"is_reserved":false,"is_disabled":true,"rental_uris":{"android":"levelo://app?vid=9972642f-35aa-4c20-918a-dcbc07e9e004","ios":"levelo://app?vid=9972642f-35aa-4c20-918a-dcbc07e9e004"},"vehicle_type_id":"4","last_reported":1783263848,"current_range_meters":5600,"station_id":"ce4bgph2rcd13ifvqc2g","pricing_plan_id":"cebpf4jnsgd1na2vs0mg"},{"bike_id":"98e6e248-2a70-4fe6-9a5d-a0124df80d02","system_id":"levelo_inurba_marseille","lat":43.26208,"lon":5.37437,"is_reserved":false,"is_disabled":false,"rental_uris":{"android":"levelo://app?vid=98e6e248-2a70-4fe6-9a5d-a0124df80d02","ios":"levelo://app?vid=98e6e248-2a70-4fe6-9a5d-a0124df80d02"},"vehicle_type_id":"4","last_reported":1783263848,"current_range_meters":5600,"station_id":"ce4bhgp2rcd13ifvqfc0","pricing_plan_id":"cebpf4jnsgd1na2vs0mg"},{"bike_id":"d155bda2-0aa2-4669-8c45-f717eae474d4","system_id":"levelo_inurba_marseille","lat":43.29619,"lon":5.37709,"is_reserved":false,"is_disabled":false,"rental_uris":{"android":"levelo://app?vid=d155bda2-0aa2-4669-8c45-f717eae474d4","ios":"levelo://app?vid=d155bda2-0aa2-4669-8c45-f717eae474d4"},"vehicle_type_id":"4","last_reported":1783263848,"current_range_meters":5600,"station_id":"ce4bgi92rcd13ifvqb90","pricing_plan_id":"cebpf4jnsgd1na2vs0mg"},{"bike_id":"d455396b-25c8-4bf4-aa48-4df15ad83f7e","system_id":"levelo_inurba_marseille","lat":43.33863,"lon":5.34776,"is_reserved":false,"is_disabled":false,"rental_uris":{"android":"levelo://app?vid=d455396b-25c8-4bf4-aa48-4df15ad83f7e","ios":"levelo://app?vid=d455396b-25c8-4bf4-aa48-4df15ad83f7e"},"vehicle_type_id":"4","last_reported":1783263848,"current_range_meters":5600,"station_id":"","pricing_plan_id":"cebpf4jnsgd1na2vs0mg"},{"bike_id":"026d743f-b269-4b26-9a04-b0be72b26db1","system_id":"levelo_inurba_marseille","lat":43.30509,"lon":5.3652,"is_reserved":false,"is_disabled":false,"rental_uris":{"android":"levelo://app?vid=026d743f-b269-4b26-9a04-b0be72b26db1","ios":"levelo://app?vid=026d743f-b269-4b26-9a04-b0be72b26db1"},"vehicle_type_id":"4","last_reported":1783263848,"current_range_meters":6000,"station_id":"","pricing_plan_id":"cebpf4jnsgd1na2vs0mg"},{"bike_id":"ff112ff9-feed-4dda-9d33-a900b5381762","system_id":"levelo_inurba_marseille","lat":43.29582,"lon":5.36729,"is_reserved":false,"is_disabled":false,"rental_uris":{"android":"levelo://app?vid=ff112ff9-feed-4dda-9d33-a900b5381762","ios":"levelo://app?vid=ff112ff9-feed-4dda-9d33-a900b5381762"},"vehicle_type_id":"4","last_reported":1783263848,"current_range_meters":6000,"station_id":"ce4bgph2rcd13ifvqc2g","pricing_plan_id":"cebpf4jnsgd1na2vs0mg"},{"bike_id":"d832a3d0-79c6-4ba7-ac9f-b53b8986b84b","system_id":"levelo_inurba_marseille","lat":43.293733,"lon":5.378506,"is_reserved":false,"is_disabled":false,"rental_uris":{"android":"levelo://app?vid=d832a3d0-79c6-4ba7-ac9f-b53b8986b84b","ios":"levelo://app?vid=d832a3d0-79c6-4ba7-ac9f-b53b8986b84b"},"vehicle_type_id":"4","last_reported":1783263848,"current_range_meters":6000,"station_id":"ce4bhch2rcd13ifvqeug","pricing_plan_id":"cebpf4jnsgd1na2vs0mg"},{"bike_id":"a351dbfd-b396-4fee-bbf9-64048b7d5b49","system_id":"levelo_inurba_marseille","lat":43.26776,"lon":5.39431,"is_reserved":false,"is_disabled":false,"rental_uris":{"android":"levelo://app?vid=a351dbfd-b396-4fee-bbf9-64048b7d5b49","ios":"levelo://app?vid=a351dbfd-b396-4fee-bbf9-64048b7d5b49"},"vehicle_type_id":"4","last_reported":1783263848,"current_range_meters":6000,"station_id":"ce4bhh12rcd13ifvqfg0","pricing_plan_id":"cebpf4jnsgd1na2vs0mg"},{"bike_id":"0280cae0-08d7-4f06-a94a-abe8e009ab51","system_id":"levelo_inurba_marseille","lat":43.24873,"lon":5.39419,"is_reserved":false,"is_disabled":false,"rental_uris":{"android":"levelo://app?vid=0280cae0-08d7-4f06-a94a-abe8e009ab51","ios":"levelo://app?vid=0280cae0-08d7-4f06-a94a-abe8e009ab51"},"vehicle_type_id":"4","last_reported":1783263848,"current_range_meters":6000,"station_id":"","pricing_plan_id":"cebpf4jnsgd1na2vs0mg"},{"bike_id":"defe664f-116a-400b-aa68-5aba6647b941","system_id":"levelo_inurba_marseille","lat":43.2931,"lon":5.44568,"is_reserved":false,"is_disabled":false,"rental_uris":{"android":"levelo://app?vid=defe664f-116a-400b-aa68-5aba6647b941","ios":"levelo://app?vid=defe664f-116a-400b-aa68-5aba6647b941"},"vehicle_type_id":"4","last_reported":1783263848,"current_range_meters":6000,"station_id":"","pricing_plan_id":"cebpf4jnsgd1na2vs0mg"},{"bike_id":"68dee502-1b7b-4809-8c63-90d4c597f680","system_id":"levelo_inurba_marseille","lat":43.28606,"lon":5.39885,"is_reserved":false,"is_disabled":false,"rental_uris":{"android":"levelo://app?vid=68dee502-1b7b-4809-8c63-90d4c597f680","ios":"levelo://app?vid=68dee502-1b7b-4809-8c63-90d4c597f680"},"vehicle_type_id":"4","last_reported":1783263848,"current_range_meters":6000,"station_id":"st_d4a7ka997mjs738ck50g","pricing_plan_id":"cebpf4jnsgd1na2vs0mg"},{"bike_id":"74f8cf15-3e70-4973-8fc9-8593a5616b35","system_id":"levelo_inurba_marseille","lat":43.262,"lon":5.37441,"is_reserved":false,"is_disabled":false,"rental_uris":{"android":"levelo://app?vid=74f8cf15-3e70-4973-8fc9-8593a5616b35","ios":"levelo://app?vid=74f8cf15-3e70-4973-8fc9-8593a5616b35"},"vehicle_type_id":"4","last_reported":1783263848,"current_range_meters":6000,"station_id":"ce4bhgp2rcd13ifvqfc0","pricing_plan_id":"cebpf4jnsgd1na2vs0mg"},{"bike_id":"4db1a738-7f04-42e5-a031-6eb9900c6581","system_id":"levelo_inurba_marseille","lat":43.26207,"lon":5.37446,"is_reserved":false,"is_disabled":false,"rental_uris":{"android":"levelo://app?vid=4db1a738-7f04-42e5-a031-6eb9900c6581","ios":"levelo://app?vid=4db1a738-7f04-42e5-a031-6eb9900c6581"},"vehicle_type_id":"4","last_reported":1783263848,"current_range_meters":6000,"station_id":"ce4bhgp2rcd13ifvqfc0","pricing_plan_id":"cebpf4jnsgd1na2vs0mg"},{"bike_id":"67ff903d-b2b0-4196-be8d-ce9048cbff4d","system_id":"levelo_inurba_marseille","lat":43.22982,"lon":5.44466,"is_reserved":false,"is_disabled":false,"rental_uris":{"android":"levelo://app?vid=67ff903d-b2b0-4196-be8d-ce9048cbff4d","ios":"levelo://app?vid=67ff903d-b2b0-4196-be8d-ce9048cbff4d"},"vehicle_type_id":"4","last_reported":1783263848,"current_range_meters":6000,"station_id":"","pricing_plan_id":"cebpf4jnsgd1na2vs0mg"},{"bike_id":"f5d895ef-c089-403e-ab80-fa5c68c05b11","system_id":"levelo_inurba_marseille","lat":43.29992,"lon":5.37171,"is_reserved":false,"is_disabled":false,"rental_uris":{"android":"levelo://app?vid=f5d895ef-c089-403e-ab80-fa5c68c05b11","ios":"levelo://app?vid=f5d895ef-c089-403e-ab80-fa5c68c05b11"},"vehicle_type_id":"4","last_reported":1783263848,"current_range_meters":6400,"station_id":"ce4bgr92rcd13ifvqc7g","pricing_plan_id":"cebpf4jnsgd1na2vs0mg"},{"bike_id":"2a71f608-e66c-4949-a6d9-73ba6a6fd887","system_id":"levelo_inurba_marseille","lat":43.24824,"lon":5.37438,"is_reserved":false,"is_disabled":false,"rental_uris":{"android":"levelo://app?vid=2a71f608-e66c-4949-a6d9-73ba6a6fd887","ios":"levelo://app?vid=2a71f608-e66c-4949-a6d9-73ba6a6fd887"},"vehicle_type_id":"4","last_reported":1783263848,"current_range_meters":6400,"station_id":"ce4bhgh2rcd13ifvqfb0","pricing_plan_id":"cebpf4jnsgd1na2vs0mg"},{"bike_id":"5cf8ff3f-002e-4490-b36d-5909b772d854","system_id":"levelo_inurba_marseille","lat":43.22544,"lon":5.34842,"is_reserved":false,"is_disabled":true,"rental_uris":{"android":"levelo://app?vid=5cf8ff3f-002e-4490-b36d-5909b772d854","ios":"levelo://app?vid=5cf8ff3f-002e-4490-b36d-5909b772d854"},"vehicle_type_id":"4","last_reported":1783263848,"current_range_meters":6400,"station_id":"st_cvj5dfep6f1abm77gieg","pricing_plan_id":"cebpf4jnsgd1na2vs0mg"},{"bike_id":"097703ec-cc97-424c-9bee-1ad2d40222d4","system_id":"levelo_inurba_marseille","lat":43.24812,"lon":5.3745,"is_reserved":false,"is_disabled":false,"rental_uris":{"android":"levelo://app?vid=097703ec-cc97-424c-9bee-1ad2d40222d4","ios":"levelo://app?vid=097703ec-cc97-424c-9bee-1ad2d40222d4"},"vehicle_type_id":"4","last_reported":1783263848,"current_range_meters":6400,"station_id":"ce4bhgh2rcd13ifvqfb0","pricing_plan_id":"cebpf4jnsgd1na2vs0mg"},{"bike_id":"98d9ab63-952f-49d0-8775-50ac81ca5fd7","system_id":"levelo_inurba_marseille","lat":43.30924,"lon":5.37497,"is_reserved":false,"is_disabled":false,"rental_uris":{"android":"levelo://app?vid=98d9ab63-952f-49d0-8775-50ac81ca5fd7","ios":"levelo://app?vid=98d9ab63-952f-49d0-8775-50ac81ca5fd7"},"vehicle_type_id":"4","last_reported":1783263848,"current_range_meters":6400,"station_id":"","pricing_plan_id":"cebpf4jnsgd1na2vs0mg"},{"bike_id":"6b4bd43f-9d60-40f8-96cc-0292b478f552","system_id":"levelo_inurba_marseille","lat":43.28779,"lon":5.4662,"is_reserved":false,"is_disabled":false,"rental_uris":{"android":"levelo://app?vid=6b4bd43f-9d60-40f8-96cc-0292b478f552","ios":"levelo://app?vid=6b4bd43f-9d60-40f8-96cc-0292b478f552"},"vehicle_type_id":"4","last_reported":1783263848,"current_range_meters":6400,"station_id":"","pricing_plan_id":"cebpf4jnsgd1na2vs0mg"},{"bike_id":"38360f99-2bce-4f28-bc36-3bc8367dcc77","system_id":"levelo_inurba_marseille","lat":43.302907,"lon":5.377195,"is_reserved":false,"is_disabled":false,"rental_uris":{"android":"levelo://app?vid=38360f99-2bce-4f28-bc36-3bc8367dcc77","ios":"levelo://app?vid=38360f99-2bce-4f28-bc36-3bc8367dcc77"},"vehicle_type_id":"4","last_reported":1783263848,"current_range_meters":6400,"station_id":"ce4bgqh2rcd13ifvqc5g","pricing_plan_id":"cebpf4jnsgd1na2vs0mg"},{"bike_id":"4d52a61b-5c30-41df-a6ac-71b42f016aed","system_id":"levelo_inurba_marseille","lat":43.25869,"lon":5.39885,"is_reserved":false,"is_disabled":true,"rental_uris":{"android":"levelo://app?vid=4d52a61b-5c30-41df-a6ac-71b42f016aed","ios":"levelo://app?vid=4d52a61b-5c30-41df-a6ac-71b42f016aed"},"vehicle_type_id":"4","last_reported":1783263848,"current_range_meters":6400,"station_id":"ce4bhl92rcd13ifvqghg","pricing_plan_id":"cebpf4jnsgd1na2vs0mg"},{"bike_id":"77aeea66-5e4b-44c1-80cd-ad8f12bd72d6","system_id":"levelo_inurba_marseille","lat":43.23194,"lon":5.35554,"is_reserved":false,"is_disabled":false,"rental_uris":{"android":"levelo://app?vid=77aeea66-5e4b-44c1-80cd-ad8f12bd72d6","ios":"levelo://app?vid=77aeea66-5e4b-44c1-80cd-ad8f12bd72d6"},"vehicle_type_id":"4","last_reported":1783263848,"current_range_meters":6400,"station_id":"ce4bhu92rcd13ifvqi70","pricing_plan_id":"cebpf4jnsgd1na2vs0mg"},{"bike_id":"6f74e72f-4daa-466c-8061-7f39615bd85c","system_id":"levelo_inurba_marseille","lat":43.29235,"lon":5.36057,"is_reserved":false,"is_disabled":false,"rental_uris":{"android":"levelo://app?vid=6f74e72f-4daa-466c-8061-7f39615bd85c","ios":"levelo://app?vid=6f74e72f-4daa-466c-8061-7f39615bd85c"},"vehicle_type_id":"4","last_reported":1783263848,"current_range_meters":6400,"station_id":"ce4bhbh2rcd13ifvqeqg","pricing_plan_id":"cebpf4jnsgd1na2vs0mg"},{"bike_id":"c64fd8b2-f458-4a6e-88eb-895f5a6985c2","system_id":"levelo_inurba_marseille","lat":43.31418,"lon":5.39362,"is_reserved":false,"is_disabled":true,"rental_uris":{"android":"levelo://app?vid=c64fd8b2-f458-4a6e-88eb-895f5a6985c2","ios":"levelo://app?vid=c64fd8b2-f458-4a6e-88eb-895f5a6985c2"},"vehicle_type_id":"4","last_reported":1783263848,"current_range_meters":6400,"station_id":"","pricing_plan_id":"cebpf4jnsgd1na2vs0mg"},{"bike_id":"3a2aa0e5-83dd-4816-a0ed-1c36fdb23ee8","system_id":"levelo_inurba_marseille","lat":43.27897,"lon":5.38012,"is_reserved":false,"is_disabled":false,"rental_uris":{"android":"levelo://app?vid=3a2aa0e5-83dd-4816-a0ed-1c36fdb23ee8","ios":"levelo://app?vid=3a2aa0e5-83dd-4816-a0ed-1c36fdb23ee8"},"vehicle_type_id":"4","last_reported":1783263848,"current_range_meters":6400,"station_id":"ce4bhf92rcd13ifvqf50","pricing_plan_id":"cebpf4jnsgd1na2vs0mg"},{"bike_id":"2a8f592d-3ebd-4853-bf23-1a2cca68a093","system_id":"levelo_inurba_marseille","lat":43.27043,"lon":5.38554,"is_reserved":false,"is_disabled":false,"rental_uris":{"android":"levelo://app?vid=2a8f592d-3ebd-4853-bf23-1a2cca68a093","ios":"levelo://app?vid=2a8f592d-3ebd-4853-bf23-1a2cca68a093"},"vehicle_type_id":"4","last_reported":1783263848,"current_range_meters":6400,"station_id":"","pricing_plan_id":"cebpf4jnsgd1na2vs0mg"},{"bike_id":"ce96bab4-bfc4-4150-8d40-74272b92e348","system_id":"levelo_inurba_marseille","lat":43.23191,"lon":5.35554,"is_reserved":false,"is_disabled":false,"rental_uris":{"android":"levelo://app?vid=ce96bab4-bfc4-4150-8d40-74272b92e348","ios":"levelo://app?vid=ce96bab4-bfc4-4150-8d40-74272b92e348"},"vehicle_type_id":"4","last_reported":1783263848,"current_range_meters":6400,"station_id":"ce4bhu92rcd13ifvqi70","pricing_plan_id":"cebpf4jnsgd1na2vs0mg"},{"bike_id":"74c027a4-4b67-40ff-a2fc-35f79d498796","system_id":"levelo_inurba_marseille","lat":43.29222,"lon":5.36058,"is_reserved":false,"is_disabled":true,"rental_uris":{"android":"levelo://app?vid=74c027a4-4b67-40ff-a2fc-35f79d498796","ios":"levelo://app?vid=74c027a4-4b67-40ff-a2fc-35f79d498796"},"vehicle_type_id":"4","last_reported":1783263848,"current_range_meters":6400,"station_id":"ce4bhbh2rcd13ifvqeqg","pricing_plan_id":"cebpf4jnsgd1na2vs0mg"},{"bike_id":"a12a4f83-c050-4064-a9cd-bf7775a31f2f","system_id":"levelo_inurba_marseille","lat":43.24652,"lon":5.38201,"is_reserved":false,"is_disabled":true,"rental_uris":{"android":"levelo://app?vid=a12a4f83-c050-4064-a9cd-bf7775a31f2f","ios":"levelo://app?vid=a12a4f83-c050-4064-a9cd-bf7775a31f2f"},"vehicle_type_id":"4","last_reported":1783263848,"current_range_meters":6400,"station_id":"ce4bhih2rcd13ifvqfr0","pricing_plan_id":"cebpf4jnsgd1na2vs0mg"},{"bike_id":"988f6eb2-476b-4395-993c-77c42e0c0e6a","system_id":"levelo_inurba_marseille","lat":43.2623,"lon":5.38762,"is_reserved":false,"is_disabled":false,"rental_uris":{"android":"levelo://app?vid=988f6eb2-476b-4395-993c-77c42e0c0e6a","ios":"levelo://app?vid=988f6eb2-476b-4395-993c-77c42e0c0e6a"},"vehicle_type_id":"4","last_reported":1783263848,"current_range_meters":6400,"station_id":"st_d8gjfg747rts73coq3b0","pricing_plan_id":"cebpf4jnsgd1na2vs0mg"},{"bike_id":"95e2c5d3-ee09-417b-93c0-7f04fa895ada","system_id":"levelo_inurba_marseille","lat":43.31992,"lon":5.37478,"is_reserved":false,"is_disabled":false,"rental_uris":{"android":"levelo://app?vid=95e2c5d3-ee09-417b-93c0-7f04fa895ada","ios":"levelo://app?vid=95e2c5d3-ee09-417b-93c0-7f04fa895ada"},"vehicle_type_id":"4","last_reported":1783263848,"current_range_meters":6400,"station_id":"","pricing_plan_id":"cebpf4jnsgd1na2vs0mg"},{"bike_id":"cb338039-0693-4c2b-a7d0-1bc68e36513e","system_id":"levelo_inurba_marseille","lat":43.29829,"lon":5.36265,"is_reserved":false,"is_disabled":false,"rental_uris":{"android":"levelo://app?vid=cb338039-0693-4c2b-a7d0-1bc68e36513e","ios":"levelo://app?vid=cb338039-0693-4c2b-a7d0-1bc68e36513e"},"vehicle_type_id":"4","last_reported":1783263848,"current_range_meters":6400,"station_id":"ce4bgpp2rcd13ifvqc3g","pricing_plan_id":"cebpf4jnsgd1na2vs0mg"},{"bike_id":"1ef77d10-3808-4032-a625-bdc5532d78f3","system_id":"levelo_inurba_marseille","lat":43.28976,"lon":5.37831,"is_reserved":false,"is_disabled":true,"rental_uris":{"android":"levelo://app?vid=1ef77d10-3808-4032-a625-bdc5532d78f3","ios":"levelo://app?vid=1ef77d10-3808-4032-a625-bdc5532d78f3"},"vehicle_type_id":"4","last_reported":1783263848,"current_range_meters":6400,"station_id":"ce4bh9p2rcd13ifvqed0","pricing_plan_id":"cebpf4jnsgd1na2vs0mg"},{"bike_id":"be97f77b-683a-44ce-8240-f5ff6433cfe3","system_id":"levelo_inurba_marseille","lat":43.232,"lon":5.35549,"is_reserved":false,"is_disabled":true,"rental_uris":{"android":"levelo://app?vid=be97f77b-683a-44ce-8240-f5ff6433cfe3","ios":"levelo://app?vid=be97f77b-683a-44ce-8240-f5ff6433cfe3"},"vehicle_type_id":"4","last_reported":1783263848,"current_range_meters":6400,"station_id":"ce4bhu92rcd13ifvqi70","pricing_plan_id":"cebpf4jnsgd1na2vs0mg"},{"bike_id":"7c427d21-5ba3-47e9-b621-2ca7d29df3d2","system_id":"levelo_inurba_marseille","lat":43.28465,"lon":5.43718,"is_reserved":false,"is_disabled":false,"rental_uris":{"android":"levelo://app?vid=7c427d21-5ba3-47e9-b621-2ca7d29df3d2","ios":"levelo://app?vid=7c427d21-5ba3-47e9-b621-2ca7d29df3d2"},"vehicle_type_id":"4","last_reported":1783263848,"current_range_meters":6400,"station_id":"","pricing_plan_id":"cebpf4jnsgd1na2vs0mg"},{"bike_id":"7f12e5a2-955f-42a0-87a4-54480f18e191","system_id":"levelo_inurba_marseille","lat":43.289465,"lon":5.363946,"is_reserved":false,"is_disabled":false,"rental_uris":{"android":"levelo://app?vid=7f12e5a2-955f-42a0-87a4-54480f18e191","ios":"levelo://app?vid=7f12e5a2-955f-42a0-87a4-54480f18e191"},"vehicle_type_id":"4","last_reported":1783263848,"current_range_meters":6400,"station_id":"","pricing_plan_id":"cebpf4jnsgd1na2vs0mg"},{"bike_id":"08aa9e82-acd5-4c73-9542-29caeaf3b759","system_id":"levelo_inurba_marseille","lat":43.29963,"lon":5.37193,"is_reserved":false,"is_disabled":false,"rental_uris":{"android":"levelo://app?vid=08aa9e82-acd5-4c73-9542-29caeaf3b759","ios":"levelo://app?vid=08aa9e82-acd5-4c73-9542-29caeaf3b759"},"vehicle_type_id":"4","last_reported":1783263848,"current_range_meters":6800,"station_id":"ce4bgr92rcd13ifvqc7g","pricing_plan_id":"cebpf4jnsgd1na2vs0mg"},{"bike_id":"8add3d14-7583-4bbe-a39a-8070d5f4d47a","system_id":"levelo_inurba_marseille","lat":43.32511,"lon":5.38257,"is_reserved":false,"is_disabled":false,"rental_uris":{"android":"levelo://app?vid=8add3d14-7583-4bbe-a39a-8070d5f4d47a","ios":"levelo://app?vid=8add3d14-7583-4bbe-a39a-8070d5f4d47a"},"vehicle_type_id":"4","last_reported":1783263848,"current_range_meters":6800,"station_id":"st_d4asgbiv49dc73anf9m0","pricing_plan_id":"cebpf4jnsgd1na2vs0mg"},{"bike_id":"e212048e-36e5-4dea-a4dc-4f4603b01b54","system_id":"levelo_inurba_marseille","lat":43.30157,"lon":5.38096,"is_reserved":false,"is_disabled":true,"rental_uris":{"android":"levelo://app?vid=e212048e-36e5-4dea-a4dc-4f4603b01b54","ios":"levelo://app?vid=e212048e-36e5-4dea-a4dc-4f4603b01b54"},"vehicle_type_id":"4","last_reported":1783263848,"current_range_meters":6800,"station_id":"ce4bgjp2rcd13ifvqbh0","pricing_plan_id":"cebpf4jnsgd1na2vs0mg"},{"bike_id":"6c7d5a78-1f86-4434-8657-c9238039d869","system_id":"levelo_inurba_marseille","lat":43.3112,"lon":5.37749,"is_reserved":false,"is_disabled":false,"rental_uris":{"android":"levelo://app?vid=6c7d5a78-1f86-4434-8657-c9238039d869","ios":"levelo://app?vid=6c7d5a78-1f86-4434-8657-c9238039d869"},"vehicle_type_id":"4","last_reported":1783263848,"current_range_meters":6800,"station_id":"ce4bgt92rcd13ifvqcg0","pricing_plan_id":"cebpf4jnsgd1na2vs0mg"},{"bike_id":"6bb17165-afae-49c7-b7b8-e6ef846cb00b","system_id":"levelo_inurba_marseille","lat":43.28419,"lon":5.34997,"is_reserved":false,"is_disabled":false,"rental_uris":{"android":"levelo://app?vid=6bb17165-afae-49c7-b7b8-e6ef846cb00b","ios":"levelo://app?vid=6bb17165-afae-49c7-b7b8-e6ef846cb00b"},"vehicle_type_id":"4","last_reported":1783263848,"current_range_meters":6800,"station_id":"ce4bhbh2rcd13ifvqepg","pricing_plan_id":"cebpf4jnsgd1na2vs0mg"},{"bike_id":"8220ecc2-6bf9-4e7d-8a35-6858c0daf5f4","system_id":"levelo_inurba_marseille","lat":43.21195,"lon":5.35079,"is_reserved":false,"is_disabled":false,"rental_uris":{"android":"levelo://app?vid=8220ecc2-6bf9-4e7d-8a35-6858c0daf5f4","ios":"levelo://app?vid=8220ecc2-6bf9-4e7d-8a35-6858c0daf5f4"},"vehicle_type_id":"4","last_reported":1783263848,"current_range_meters":6800,"station_id":"st_cvj6sg6p6f1abm77japg","pricing_plan_id":"cebpf4jnsgd1na2vs0mg"},{"bike_id":"b99fa2fa-6caa-4e97-a941-8427d6ff2309","system_id":"levelo_inurba_marseille","lat":43.26235,"lon":5.38776,"is_reserved":false,"is_disabled":true,"rental_uris":{"android":"levelo://app?vid=b99fa2fa-6caa-4e97-a941-8427d6ff2309","ios":"levelo://app?vid=b99fa2fa-6caa-4e97-a941-8427d6ff2309"},"vehicle_type_id":"4","last_reported":1783263848,"current_range_meters":6800,"station_id":"st_d8gjfg747rts73coq3b0","pricing_plan_id":"cebpf4jnsgd1na2vs0mg"},{"bike_id":"e517c8bd-a325-4d78-a3f0-21340f6009c0","system_id":"levelo_inurba_marseille","lat":43.21736,"lon":5.34616,"is_reserved":false,"is_disabled":false,"rental_uris":{"android":"levelo://app?vid=e517c8bd-a325-4d78-a3f0-21340f6009c0","ios":"levelo://app?vid=e517c8bd-a325-4d78-a3f0-21340f6009c0"},"vehicle_type_id":"4","last_reported":1783263848,"current_range_meters":6800,"station_id":"st_cvj6r9ubvosntc0bgbag","pricing_plan_id":"cebpf4jnsgd1na2vs0mg"},{"bike_id":"3892050e-cb6a-457e-90e6-5def440715fd","system_id":"levelo_inurba_marseille","lat":43.28702,"lon":5.46684,"is_reserved":false,"is_disabled":false,"rental_uris":{"android":"levelo://app?vid=3892050e-cb6a-457e-90e6-5def440715fd","ios":"levelo://app?vid=3892050e-cb6a-457e-90e6-5def440715fd"},"vehicle_type_id":"4","last_reported":1783263848,"current_range_meters":6800,"station_id":"st_d6tc3vkotcvc738tfjhg","pricing_plan_id":"cebpf4jnsgd1na2vs0mg"},{"bike_id":"66f64495-157d-434d-a3ef-5a17f45e04e3","system_id":"levelo_inurba_marseille","lat":43.2412,"lon":5.40999,"is_reserved":false,"is_disabled":false,"rental_uris":{"android":"levelo://app?vid=66f64495-157d-434d-a3ef-5a17f45e04e3","ios":"levelo://app?vid=66f64495-157d-434d-a3ef-5a17f45e04e3"},"vehicle_type_id":"4","last_reported":1783263848,"current_range_meters":6800,"station_id":"","pricing_plan_id":"cebpf4jnsgd1na2vs0mg"},{"bike_id":"a4f990f9-c624-4cd8-82c4-3c3fad99a6b8","system_id":"levelo_inurba_marseille","lat":43.26546,"lon":5.37281,"is_reserved":false,"is_disabled":false,"rental_uris":{"android":"levelo://app?vid=a4f990f9-c624-4cd8-82c4-3c3fad99a6b8","ios":"levelo://app?vid=a4f990f9-c624-4cd8-82c4-3c3fad99a6b8"},"vehicle_type_id":"4","last_reported":1783263848,"current_range_meters":6800,"station_id":"ce4bhg12rcd13ifvqf70","pricing_plan_id":"cebpf4jnsgd1na2vs0mg"},{"bike_id":"6bce2861-f5f1-47d6-aa09-94e878a50d41","system_id":"levelo_inurba_marseille","lat":43.21764,"lon":5.34592,"is_reserved":false,"is_disabled":false,"rental_uris":{"android":"levelo://app?vid=6bce2861-f5f1-47d6-aa09-94e878a50d41","ios":"levelo://app?vid=6bce2861-f5f1-47d6-aa09-94e878a50d41"},"vehicle_type_id":"4","last_reported":1783263848,"current_range_meters":6800,"station_id":"st_cvj6r9ubvosntc0bgbag","pricing_plan_id":"cebpf4jnsgd1na2vs0mg"},{"bike_id":"fc5d7b22-bed1-4640-a4b2-9379b1406486","system_id":"levelo_inurba_marseille","lat":43.29428,"lon":5.3843,"is_reserved":false,"is_disabled":true,"rental_uris":{"android":"levelo://app?vid=fc5d7b22-bed1-4640-a4b2-9379b1406486","ios":"levelo://app?vid=fc5d7b22-bed1-4640-a4b2-9379b1406486"},"vehicle_type_id":"4","last_reported":1783263848,"current_range_meters":6800,"station_id":"","pricing_plan_id":"cebpf4jnsgd1na2vs0mg"},{"bike_id":"51687ee8-dba7-4061-9600-574b19684104","system_id":"levelo_inurba_marseille","lat":43.30714,"lon":5.38418,"is_reserved":false,"is_disabled":false,"rental_uris":{"android":"levelo://app?vid=51687ee8-dba7-4061-9600-574b19684104","ios":"levelo://app?vid=51687ee8-dba7-4061-9600-574b19684104"},"vehicle_type_id":"4","last_reported":1783263848,"current_range_meters":6800,"station_id":"","pricing_plan_id":"cebpf4jnsgd1na2vs0mg"},{"bike_id":"9b90e003-58ed-4053-9ca5-b4657f6223e6","system_id":"levelo_inurba_marseille","lat":43.28411,"lon":5.34992,"is_reserved":false,"is_disabled":false,"rental_uris":{"android":"levelo://app?vid=9b90e003-58ed-4053-9ca5-b4657f6223e6","ios":"levelo://app?vid=9b90e003-58ed-4053-9ca5-b4657f6223e6"},"vehicle_type_id":"4","last_reported":1783263848,"current_range_meters":6800,"station_id":"ce4bhbh2rcd13ifvqepg","pricing_plan_id":"cebpf4jnsgd1na2vs0mg"},{"bike_id":"5632bdc0-9030-4ab1-9a7d-a2b34cf1a1e4","system_id":"levelo_inurba_marseille","lat":43.29496,"lon":5.43303,"is_reserved":false,"is_disabled":false,"rental_uris":{"android":"levelo://app?vid=5632bdc0-9030-4ab1-9a7d-a2b34cf1a1e4","ios":"levelo://app?vid=5632bdc0-9030-4ab1-9a7d-a2b34cf1a1e4"},"vehicle_type_id":"4","last_reported":1783263848,"current_range_meters":6800,"station_id":"st_d3j5ugp08ojc73fj9d10","pricing_plan_id":"cebpf4jnsgd1na2vs0mg"},{"bike_id":"042aa53d-4ec3-477c-b412-9e56cf0ac38d","system_id":"levelo_inurba_marseille","lat":43.31897,"lon":5.36814,"is_reserved":false,"is_disabled":false,"rental_uris":{"android":"levelo://app?vid=042aa53d-4ec3-477c-b412-9e56cf0ac38d","ios":"levelo://app?vid=042aa53d-4ec3-477c-b412-9e56cf0ac38d"},"vehicle_type_id":"4","last_reported":1783263848,"current_range_meters":7200,"station_id":"st_d6o2h0d0559c73evc1b0","pricing_plan_id":"cebpf4jnsgd1na2vs0mg"},{"bike_id":"7ed954a4-4b10-48b5-897c-f9aac447bb2e","system_id":"levelo_inurba_marseille","lat":43.23789,"lon":5.36625,"is_reserved":false,"is_disabled":false,"rental_uris":{"android":"levelo://app?vid=7ed954a4-4b10-48b5-897c-f9aac447bb2e","ios":"levelo://app?vid=7ed954a4-4b10-48b5-897c-f9aac447bb2e"},"vehicle_type_id":"4","last_reported":1783263848,"current_range_meters":7200,"station_id":"st_d3nk18o9ro0c73en2l3g","pricing_plan_id":"cebpf4jnsgd1na2vs0mg"},{"bike_id":"9715e161-fe0b-4fe6-97bd-4f0e825ea45b","system_id":"levelo_inurba_marseille","lat":43.26198,"lon":5.3744,"is_reserved":false,"is_disabled":false,"rental_uris":{"android":"levelo://app?vid=9715e161-fe0b-4fe6-97bd-4f0e825ea45b","ios":"levelo://app?vid=9715e161-fe0b-4fe6-97bd-4f0e825ea45b"},"vehicle_type_id":"4","last_reported":1783263848,"current_range_meters":7200,"station_id":"ce4bhgp2rcd13ifvqfc0","pricing_plan_id":"cebpf4jnsgd1na2vs0mg"},{"bike_id":"d1f95cf9-3c50-44e1-afec-1a16e5b009af","system_id":"levelo_inurba_marseille","lat":43.266713,"lon":5.372395,"is_reserved":false,"is_disabled":false,"rental_uris":{"android":"levelo://app?vid=d1f95cf9-3c50-44e1-afec-1a16e5b009af","ios":"levelo://app?vid=d1f95cf9-3c50-44e1-afec-1a16e5b009af"},"vehicle_type_id":"4","last_reported":1783263848,"current_range_meters":7200,"station_id":"","pricing_plan_id":"cebpf4jnsgd1na2vs0mg"},{"bike_id":"2d3dd4f4-c2be-4315-be3d-f35763bc2c71","system_id":"levelo_inurba_marseille","lat":43.26694,"lon":5.40188,"is_reserved":false,"is_disabled":false,"rental_uris":{"android":"levelo://app?vid=2d3dd4f4-c2be-4315-be3d-f35763bc2c71","ios":"levelo://app?vid=2d3dd4f4-c2be-4315-be3d-f35763bc2c71"},"vehicle_type_id":"4","last_reported":1783263848,"current_range_meters":7200,"station_id":"","pricing_plan_id":"cebpf4jnsgd1na2vs0mg"},{"bike_id":"3fcf6205-f23c-4cee-8363-04389955351d","system_id":"levelo_inurba_marseille","lat":43.22562,"lon":5.41621,"is_reserved":false,"is_disabled":false,"rental_uris":{"android":"levelo://app?vid=3fcf6205-f23c-4cee-8363-04389955351d","ios":"levelo://app?vid=3fcf6205-f23c-4cee-8363-04389955351d"},"vehicle_type_id":"4","last_reported":1783263848,"current_range_meters":7200,"station_id":"st_d2o4gvlbi1j2169b742g","pricing_plan_id":"cebpf4jnsgd1na2vs0mg"},{"bike_id":"6988656b-b9bf-42fd-86c6-85441f215ca5","system_id":"levelo_inurba_marseille","lat":43.21199,"lon":5.35082,"is_reserved":false,"is_disabled":false,"rental_uris":{"android":"levelo://app?vid=6988656b-b9bf-42fd-86c6-85441f215ca5","ios":"levelo://app?vid=6988656b-b9bf-42fd-86c6-85441f215ca5"},"vehicle_type_id":"4","last_reported":1783263848,"current_range_meters":7200,"station_id":"st_cvj6sg6p6f1abm77japg","pricing_plan_id":"cebpf4jnsgd1na2vs0mg"},{"bike_id":"73c8701a-5534-4d6e-b634-9acc1e8fe67a","system_id":"levelo_inurba_marseille","lat":43.27496,"lon":5.42447,"is_reserved":false,"is_disabled":false,"rental_uris":{"android":"levelo://app?vid=73c8701a-5534-4d6e-b634-9acc1e8fe67a","ios":"levelo://app?vid=73c8701a-5534-4d6e-b634-9acc1e8fe67a"},"vehicle_type_id":"4","last_reported":1783263848,"current_range_meters":7200,"station_id":"ce4bhn92rcd13ifvqgrg","pricing_plan_id":"cebpf4jnsgd1na2vs0mg"},{"bike_id":"8573ae4c-c9fc-4ff8-a5e9-0df2486e1c40","system_id":"levelo_inurba_marseille","lat":43.26026,"lon":5.37558,"is_reserved":false,"is_disabled":true,"rental_uris":{"android":"levelo://app?vid=8573ae4c-c9fc-4ff8-a5e9-0df2486e1c40","ios":"levelo://app?vid=8573ae4c-c9fc-4ff8-a5e9-0df2486e1c40"},"vehicle_type_id":"4","last_reported":1783263848,"current_range_meters":7200,"station_id":"ce4bhgh2rcd13ifvqfa0","pricing_plan_id":"cebpf4jnsgd1na2vs0mg"},{"bike_id":"ced74b9f-b178-40c4-b05a-f65c4f2b3f5d","system_id":"levelo_inurba_marseille","lat":43.27944,"lon":5.41058,"is_reserved":false,"is_disabled":true,"rental_uris":{"android":"levelo://app?vid=ced74b9f-b178-40c4-b05a-f65c4f2b3f5d","ios":"levelo://app?vid=ced74b9f-b178-40c4-b05a-f65c4f2b3f5d"},"vehicle_type_id":"4","last_reported":1783263848,"current_range_meters":7200,"station_id":"ce4bhnp2rcd13ifvqh0g","pricing_plan_id":"cebpf4jnsgd1na2vs0mg"},{"bike_id":"cc738f32-f811-4e3f-b968-0bc0d7c9be0d","system_id":"levelo_inurba_marseille","lat":43.29261,"lon":5.409,"is_reserved":false,"is_disabled":true,"rental_uris":{"android":"levelo://app?vid=cc738f32-f811-4e3f-b968-0bc0d7c9be0d","ios":"levelo://app?vid=cc738f32-f811-4e3f-b968-0bc0d7c9be0d"},"vehicle_type_id":"4","last_reported":1783263848,"current_range_meters":7200,"station_id":"ce4bh192rcd13ifvqdc0","pricing_plan_id":"cebpf4jnsgd1na2vs0mg"},{"bike_id":"ebb69cdb-f57c-486a-9d37-3814132e26e5","system_id":"levelo_inurba_marseille","lat":43.28034,"lon":5.36945,"is_reserved":false,"is_disabled":true,"rental_uris":{"android":"levelo://app?vid=ebb69cdb-f57c-486a-9d37-3814132e26e5","ios":"levelo://app?vid=ebb69cdb-f57c-486a-9d37-3814132e26e5"},"vehicle_type_id":"4","last_reported":1783263848,"current_range_meters":7200,"station_id":"ce4bha12rcd13ifvqef0","pricing_plan_id":"cebpf4jnsgd1na2vs0mg"},{"bike_id":"c8d4766e-124d-4f50-bd84-bfe0c753bcc2","system_id":"levelo_inurba_marseille","lat":43.30299,"lon":5.39221,"is_reserved":false,"is_disabled":false,"rental_uris":{"android":"levelo://app?vid=c8d4766e-124d-4f50-bd84-bfe0c753bcc2","ios":"levelo://app?vid=c8d4766e-124d-4f50-bd84-bfe0c753bcc2"},"vehicle_type_id":"4","last_reported":1783263848,"current_range_meters":7200,"station_id":"ce4bgkh2rcd13ifvqbk0","pricing_plan_id":"cebpf4jnsgd1na2vs0mg"},{"bike_id":"d542e80b-c621-4744-a175-6c723a1aa866","system_id":"levelo_inurba_marseille","lat":43.29237,"lon":5.44515,"is_reserved":false,"is_disabled":false,"rental_uris":{"android":"levelo://app?vid=d542e80b-c621-4744-a175-6c723a1aa866","ios":"levelo://app?vid=d542e80b-c621-4744-a175-6c723a1aa866"},"vehicle_type_id":"4","last_reported":1783263848,"current_range_meters":7200,"station_id":"","pricing_plan_id":"cebpf4jnsgd1na2vs0mg"},{"bike_id":"537ca998-8fd3-4dae-915c-356daecbb82f","system_id":"levelo_inurba_marseille","lat":43.29017,"lon":5.38651,"is_reserved":false,"is_disabled":true,"rental_uris":{"android":"levelo://app?vid=537ca998-8fd3-4dae-915c-356daecbb82f","ios":"levelo://app?vid=537ca998-8fd3-4dae-915c-356daecbb82f"},"vehicle_type_id":"4","last_reported":1783263848,"current_range_meters":7200,"station_id":"ce4bh4p2rcd13ifvqe0g","pricing_plan_id":"cebpf4jnsgd1na2vs0mg"},{"bike_id":"4ea05420-4688-4f88-ab4d-87e93bd11b74","system_id":"levelo_inurba_marseille","lat":43.29255,"lon":5.40898,"is_reserved":false,"is_disabled":false,"rental_uris":{"android":"levelo://app?vid=4ea05420-4688-4f88-ab4d-87e93bd11b74","ios":"levelo://app?vid=4ea05420-4688-4f88-ab4d-87e93bd11b74"},"vehicle_type_id":"4","last_reported":1783263848,"current_range_meters":7200,"station_id":"ce4bh192rcd13ifvqdc0","pricing_plan_id":"cebpf4jnsgd1na2vs0mg"},{"bike_id":"67d07600-44cc-401e-9a6a-0a6f26ad82e9","system_id":"levelo_inurba_marseille","lat":43.26825,"lon":5.39441,"is_reserved":false,"is_disabled":false,"rental_uris":{"android":"levelo://app?vid=67d07600-44cc-401e-9a6a-0a6f26ad82e9","ios":"levelo://app?vid=67d07600-44cc-401e-9a6a-0a6f26ad82e9"},"vehicle_type_id":"4","last_reported":1783263848,"current_range_meters":7200,"station_id":"ce4bhh12rcd13ifvqfg0","pricing_plan_id":"cebpf4jnsgd1na2vs0mg"},{"bike_id":"5ad2f38e-4631-4e87-9c1a-3cd49609e3a2","system_id":"levelo_inurba_marseille","lat":43.29203,"lon":5.35789,"is_reserved":false,"is_disabled":false,"rental_uris":{"android":"levelo://app?vid=5ad2f38e-4631-4e87-9c1a-3cd49609e3a2","ios":"levelo://app?vid=5ad2f38e-4631-4e87-9c1a-3cd49609e3a2"},"vehicle_type_id":"4","last_reported":1783263848,"current_range_meters":7200,"station_id":"ce4bhb12rcd13ifvqel0","pricing_plan_id":"cebpf4jnsgd1na2vs0mg"},{"bike_id":"c9445652-b236-402b-8ec1-fb5567a22b0f","system_id":"levelo_inurba_marseille","lat":43.2444,"lon":5.40952,"is_reserved":false,"is_disabled":false,"rental_uris":{"android":"levelo://app?vid=c9445652-b236-402b-8ec1-fb5567a22b0f","ios":"levelo://app?vid=c9445652-b236-402b-8ec1-fb5567a22b0f"},"vehicle_type_id":"4","last_reported":1783263848,"current_range_meters":7200,"station_id":"","pricing_plan_id":"cebpf4jnsgd1na2vs0mg"},{"bike_id":"acb6b183-d4d6-4d8e-974e-924b61f91a80","system_id":"levelo_inurba_marseille","lat":43.34409,"lon":5.42051,"is_reserved":false,"is_disabled":false,"rental_uris":{"android":"levelo://app?vid=acb6b183-d4d6-4d8e-974e-924b61f91a80","ios":"levelo://app?vid=acb6b183-d4d6-4d8e-974e-924b61f91a80"},"vehicle_type_id":"4","last_reported":1783263848,"current_range_meters":7200,"station_id":"","pricing_plan_id":"cebpf4jnsgd1na2vs0mg"},{"bike_id":"84e8cb9a-fd8c-4c42-b802-e83f65e28d10","system_id":"levelo_inurba_marseille","lat":43.21746,"lon":5.34603,"is_reserved":false,"is_disabled":false,"rental_uris":{"android":"levelo://app?vid=84e8cb9a-fd8c-4c42-b802-e83f65e28d10","ios":"levelo://app?vid=84e8cb9a-fd8c-4c42-b802-e83f65e28d10"},"vehicle_type_id":"4","last_reported":1783263848,"current_range_meters":7200,"station_id":"st_cvj6r9ubvosntc0bgbag","pricing_plan_id":"cebpf4jnsgd1na2vs0mg"},{"bike_id":"c1c88b11-92f5-437b-85af-b745aa920b32","system_id":"levelo_inurba_marseille","lat":43.26666,"lon":5.38758,"is_reserved":false,"is_disabled":false,"rental_uris":{"android":"levelo://app?vid=c1c88b11-92f5-437b-85af-b745aa920b32","ios":"levelo://app?vid=c1c88b11-92f5-437b-85af-b745aa920b32"},"vehicle_type_id":"4","last_reported":1783263848,"current_range_meters":7200,"station_id":"","pricing_plan_id":"cebpf4jnsgd1na2vs0mg"},{"bike_id":"028c7fed-5f2f-40d0-baa1-a58613675508","system_id":"levelo_inurba_marseille","lat":43.25335,"lon":5.4216,"is_reserved":false,"is_disabled":false,"rental_uris":{"android":"levelo://app?vid=028c7fed-5f2f-40d0-baa1-a58613675508","ios":"levelo://app?vid=028c7fed-5f2f-40d0-baa1-a58613675508"},"vehicle_type_id":"4","last_reported":1783263848,"current_range_meters":8000,"station_id":"st_d2m65c5bi1j21697t3ng","pricing_plan_id":"cebpf4jnsgd1na2vs0mg"},{"bike_id":"57fbcb39-2404-4ef2-8152-21a19d302a45","system_id":"levelo_inurba_marseille","lat":43.3205,"lon":5.41542,"is_reserved":false,"is_disabled":false,"rental_uris":{"android":"levelo://app?vid=57fbcb39-2404-4ef2-8152-21a19d302a45","ios":"levelo://app?vid=57fbcb39-2404-4ef2-8152-21a19d302a45"},"vehicle_type_id":"4","last_reported":1783263848,"current_range_meters":8000,"station_id":"ce4bhq92rcd13ifvqhkg","pricing_plan_id":"cebpf4jnsgd1na2vs0mg"},{"bike_id":"a25df531-e46d-4787-adaf-116ec1674326","system_id":"levelo_inurba_marseille","lat":43.26781,"lon":5.39419,"is_reserved":false,"is_disabled":false,"rental_uris":{"android":"levelo://app?vid=a25df531-e46d-4787-adaf-116ec1674326","ios":"levelo://app?vid=a25df531-e46d-4787-adaf-116ec1674326"},"vehicle_type_id":"4","last_reported":1783263848,"current_range_meters":8000,"station_id":"ce4bhh12rcd13ifvqfg0","pricing_plan_id":"cebpf4jnsgd1na2vs0mg"},{"bike_id":"5a56fcf1-662a-4ee0-8904-978660e625da","system_id":"levelo_inurba_marseille","lat":43.30354,"lon":5.41876,"is_reserved":false,"is_disabled":false,"rental_uris":{"android":"levelo://app?vid=5a56fcf1-662a-4ee0-8904-978660e625da","ios":"levelo://app?vid=5a56fcf1-662a-4ee0-8904-978660e625da"},"vehicle_type_id":"4","last_reported":1783263848,"current_range_meters":8000,"station_id":"ce4bhop2rcd13ifvqh7g","pricing_plan_id":"cebpf4jnsgd1na2vs0mg"},{"bike_id":"ec4c8c4a-749e-489c-96b0-437e2989be52","system_id":"levelo_inurba_marseille","lat":43.2952,"lon":5.37515,"is_reserved":false,"is_disabled":false,"rental_uris":{"android":"levelo://app?vid=ec4c8c4a-749e-489c-96b0-437e2989be52","ios":"levelo://app?vid=ec4c8c4a-749e-489c-96b0-437e2989be52"},"vehicle_type_id":"4","last_reported":1783263848,"current_range_meters":8000,"station_id":"ce4bgkp2rcd13ifvqbmg","pricing_plan_id":"cebpf4jnsgd1na2vs0mg"},{"bike_id":"9002fe20-8e48-4d73-9046-432f4a4772e3","system_id":"levelo_inurba_marseille","lat":43.28417,"lon":5.34981,"is_reserved":false,"is_disabled":false,"rental_uris":{"android":"levelo://app?vid=9002fe20-8e48-4d73-9046-432f4a4772e3","ios":"levelo://app?vid=9002fe20-8e48-4d73-9046-432f4a4772e3"},"vehicle_type_id":"4","last_reported":1783263848,"current_range_meters":8000,"station_id":"ce4bhbh2rcd13ifvqepg","pricing_plan_id":"cebpf4jnsgd1na2vs0mg"},{"bike_id":"12b2d4ce-4735-4507-9fde-29557bacb2eb","system_id":"levelo_inurba_marseille","lat":43.2849,"lon":5.48384,"is_reserved":false,"is_disabled":false,"rental_uris":{"android":"levelo://app?vid=12b2d4ce-4735-4507-9fde-29557bacb2eb","ios":"levelo://app?vid=12b2d4ce-4735-4507-9fde-29557bacb2eb"},"vehicle_type_id":"4","last_reported":1783263848,"current_range_meters":8000,"station_id":"st_d3svhcjqgbts73a3dn0g","pricing_plan_id":"cebpf4jnsgd1na2vs0mg"},{"bike_id":"e21b25e3-cdbf-4694-9a84-c74b628bddb8","system_id":"levelo_inurba_marseille","lat":43.26103,"lon":5.39362,"is_reserved":false,"is_disabled":false,"rental_uris":{"android":"levelo://app?vid=e21b25e3-cdbf-4694-9a84-c74b628bddb8","ios":"levelo://app?vid=e21b25e3-cdbf-4694-9a84-c74b628bddb8"},"vehicle_type_id":"4","last_reported":1783263848,"current_range_meters":8000,"station_id":"ce4bhh92rcd13ifvqfj0","pricing_plan_id":"cebpf4jnsgd1na2vs0mg"},{"bike_id":"f1fa67ea-70e8-494e-90f1-3cd8a54e2aac","system_id":"levelo_inurba_marseille","lat":43.282705,"lon":5.350623,"is_reserved":false,"is_disabled":true,"rental_uris":{"android":"levelo://app?vid=f1fa67ea-70e8-494e-90f1-3cd8a54e2aac","ios":"levelo://app?vid=f1fa67ea-70e8-494e-90f1-3cd8a54e2aac"},"vehicle_type_id":"4","last_reported":1783263848,"current_range_meters":8000,"station_id":"ce4bhbp2rcd13ifvqerg","pricing_plan_id":"cebpf4jnsgd1na2vs0mg"},{"bike_id":"40e722f2-64dd-416f-9e57-d96111c77e32","system_id":"levelo_inurba_marseille","lat":43.28705,"lon":5.46684,"is_reserved":false,"is_disabled":false,"rental_uris":{"android":"levelo://app?vid=40e722f2-64dd-416f-9e57-d96111c77e32","ios":"levelo://app?vid=40e722f2-64dd-416f-9e57-d96111c77e32"},"vehicle_type_id":"4","last_reported":1783263848,"current_range_meters":8000,"station_id":"st_d6tc3vkotcvc738tfjhg","pricing_plan_id":"cebpf4jnsgd1na2vs0mg"},{"bike_id":"b0e35df9-86ec-4b4b-b93b-e6d5dd334479","system_id":"levelo_inurba_marseille","lat":43.23201,"lon":5.35547,"is_reserved":false,"is_disabled":false,"rental_uris":{"android":"levelo://app?vid=b0e35df9-86ec-4b4b-b93b-e6d5dd334479","ios":"levelo://app?vid=b0e35df9-86ec-4b4b-b93b-e6d5dd334479"},"vehicle_type_id":"4","last_reported":1783263848,"current_range_meters":8000,"station_id":"ce4bhu92rcd13ifvqi70","pricing_plan_id":"cebpf4jnsgd1na2vs0mg"},{"bike_id":"ae9653ca-a981-4fa4-848f-da55e76d424c","system_id":"levelo_inurba_marseille","lat":43.27185,"lon":5.40989,"is_reserved":false,"is_disabled":false,"rental_uris":{"android":"levelo://app?vid=ae9653ca-a981-4fa4-848f-da55e76d424c","ios":"levelo://app?vid=ae9653ca-a981-4fa4-848f-da55e76d424c"},"vehicle_type_id":"4","last_reported":1783263848,"current_range_meters":8000,"station_id":"ce4bhl12rcd13ifvqgf0","pricing_plan_id":"cebpf4jnsgd1na2vs0mg"},{"bike_id":"1a447539-86ef-458e-8f93-24be922cd0cc","system_id":"levelo_inurba_marseille","lat":43.2718,"lon":5.4099,"is_reserved":false,"is_disabled":false,"rental_uris":{"android":"levelo://app?vid=1a447539-86ef-458e-8f93-24be922cd0cc","ios":"levelo://app?vid=1a447539-86ef-458e-8f93-24be922cd0cc"},"vehicle_type_id":"4","last_reported":1783263848,"current_range_meters":8000,"station_id":"ce4bhl12rcd13ifvqgf0","pricing_plan_id":"cebpf4jnsgd1na2vs0mg"},{"bike_id":"a4f9ee3b-b427-4829-b639-bd7508b29e83","system_id":"levelo_inurba_marseille","lat":43.28271,"lon":5.35067,"is_reserved":false,"is_disabled":true,"rental_uris":{"android":"levelo://app?vid=a4f9ee3b-b427-4829-b639-bd7508b29e83","ios":"levelo://app?vid=a4f9ee3b-b427-4829-b639-bd7508b29e83"},"vehicle_type_id":"4","last_reported":1783263848,"current_range_meters":8000,"station_id":"ce4bhbp2rcd13ifvqerg","pricing_plan_id":"cebpf4jnsgd1na2vs0mg"},{"bike_id":"8bc199c6-fa2d-4c70-9249-7d435dcab9a6","system_id":"levelo_inurba_marseille","lat":43.29265,"lon":5.36845,"is_reserved":false,"is_disabled":true,"rental_uris":{"android":"levelo://app?vid=8bc199c6-fa2d-4c70-9249-7d435dcab9a6","ios":"levelo://app?vid=8bc199c6-fa2d-4c70-9249-7d435dcab9a6"},"vehicle_type_id":"4","last_reported":1783263848,"current_range_meters":8000,"station_id":"ce4bhbp2rcd13ifvqesg","pricing_plan_id":"cebpf4jnsgd1na2vs0mg"},{"bike_id":"47d62ec6-63c7-4e65-b764-269205544590","system_id":"levelo_inurba_marseille","lat":43.305505,"lon":5.365744,"is_reserved":false,"is_disabled":false,"rental_uris":{"android":"levelo://app?vid=47d62ec6-63c7-4e65-b764-269205544590","ios":"levelo://app?vid=47d62ec6-63c7-4e65-b764-269205544590"},"vehicle_type_id":"4","last_reported":1783263848,"current_range_meters":8000,"station_id":"ce4bgs12rcd13ifvqcag","pricing_plan_id":"cebpf4jnsgd1na2vs0mg"},{"bike_id":"0526f325-4481-4c66-9a00-bd03340cac0b","system_id":"levelo_inurba_marseille","lat":43.27372,"lon":5.36258,"is_reserved":false,"is_disabled":false,"rental_uris":{"android":"levelo://app?vid=0526f325-4481-4c66-9a00-bd03340cac0b","ios":"levelo://app?vid=0526f325-4481-4c66-9a00-bd03340cac0b"},"vehicle_type_id":"4","last_reported":1783263848,"current_range_meters":8000,"station_id":"ce4bhbh2rcd13ifvqeo0","pricing_plan_id":"cebpf4jnsgd1na2vs0mg"},{"bike_id":"f56c5a55-490f-470f-bccd-8a878283165b","system_id":"levelo_inurba_marseille","lat":43.31784,"lon":5.36835,"is_reserved":false,"is_disabled":false,"rental_uris":{"android":"levelo://app?vid=f56c5a55-490f-470f-bccd-8a878283165b","ios":"levelo://app?vid=f56c5a55-490f-470f-bccd-8a878283165b"},"vehicle_type_id":"4","last_reported":1783263848,"current_range_meters":8000,"station_id":"","pricing_plan_id":"cebpf4jnsgd1na2vs0mg"},{"bike_id":"ca803bbb-df34-4e95-a7c2-94aa897ae6b5","system_id":"levelo_inurba_marseille","lat":43.28709,"lon":5.46679,"is_reserved":false,"is_disabled":false,"rental_uris":{"android":"levelo://app?vid=ca803bbb-df34-4e95-a7c2-94aa897ae6b5","ios":"levelo://app?vid=ca803bbb-df34-4e95-a7c2-94aa897ae6b5"},"vehicle_type_id":"4","last_reported":1783263848,"current_range_meters":8000,"station_id":"st_d6tc3vkotcvc738tfjhg","pricing_plan_id":"cebpf4jnsgd1na2vs0mg"},{"bike_id":"734a2b36-f813-4ac8-aa3c-52e586919a54","system_id":"levelo_inurba_marseille","lat":43.2319,"lon":5.35576,"is_reserved":false,"is_disabled":false,"rental_uris":{"android":"levelo://app?vid=734a2b36-f813-4ac8-aa3c-52e586919a54","ios":"levelo://app?vid=734a2b36-f813-4ac8-aa3c-52e586919a54"},"vehicle_type_id":"4","last_reported":1783263848,"current_range_meters":8000,"station_id":"ce4bhu92rcd13ifvqi70","pricing_plan_id":"cebpf4jnsgd1na2vs0mg"},{"bike_id":"a0b4dd2c-256f-4eb7-82e7-460d8c6a2a20","system_id":"levelo_inurba_marseille","lat":43.30407,"lon":5.41261,"is_reserved":false,"is_disabled":false,"rental_uris":{"android":"levelo://app?vid=a0b4dd2c-256f-4eb7-82e7-460d8c6a2a20","ios":"levelo://app?vid=a0b4dd2c-256f-4eb7-82e7-460d8c6a2a20"},"vehicle_type_id":"4","last_reported":1783263848,"current_range_meters":8000,"station_id":"ce4bhop2rcd13ifvqh8g","pricing_plan_id":"cebpf4jnsgd1na2vs0mg"},{"bike_id":"6f7a01a8-ee4c-4eed-b676-8bb956e41341","system_id":"levelo_inurba_marseille","lat":43.28968,"lon":5.42478,"is_reserved":false,"is_disabled":false,"rental_uris":{"android":"levelo://app?vid=6f7a01a8-ee4c-4eed-b676-8bb956e41341","ios":"levelo://app?vid=6f7a01a8-ee4c-4eed-b676-8bb956e41341"},"vehicle_type_id":"4","last_reported":1783263848,"current_range_meters":8000,"station_id":"","pricing_plan_id":"cebpf4jnsgd1na2vs0mg"},{"bike_id":"2bd79137-03b5-4309-b0d7-20c725d16088","system_id":"levelo_inurba_marseille","lat":43.30888,"lon":5.36859,"is_reserved":false,"is_disabled":false,"rental_uris":{"android":"levelo://app?vid=2bd79137-03b5-4309-b0d7-20c725d16088","ios":"levelo://app?vid=2bd79137-03b5-4309-b0d7-20c725d16088"},"vehicle_type_id":"4","last_reported":1783263848,"current_range_meters":8000,"station_id":"ce4bgn92rcd13ifvqbvg","pricing_plan_id":"cebpf4jnsgd1na2vs0mg"},{"bike_id":"0ceb903a-e8ea-479c-8db1-c000b6c81094","system_id":"levelo_inurba_marseille","lat":43.25855,"lon":5.39899,"is_reserved":false,"is_disabled":false,"rental_uris":{"android":"levelo://app?vid=0ceb903a-e8ea-479c-8db1-c000b6c81094","ios":"levelo://app?vid=0ceb903a-e8ea-479c-8db1-c000b6c81094"},"vehicle_type_id":"4","last_reported":1783263848,"current_range_meters":8000,"station_id":"ce4bhl92rcd13ifvqghg","pricing_plan_id":"cebpf4jnsgd1na2vs0mg"},{"bike_id":"e00d0afb-ac80-42d8-8e53-c3dd7e3d351c","system_id":"levelo_inurba_marseille","lat":43.2618,"lon":5.37506,"is_reserved":false,"is_disabled":false,"rental_uris":{"android":"levelo://app?vid=e00d0afb-ac80-42d8-8e53-c3dd7e3d351c","ios":"levelo://app?vid=e00d0afb-ac80-42d8-8e53-c3dd7e3d351c"},"vehicle_type_id":"4","last_reported":1783263848,"current_range_meters":8000,"station_id":"ce4bhgp2rcd13ifvqfc0","pricing_plan_id":"cebpf4jnsgd1na2vs0mg"},{"bike_id":"b039a727-71b1-4709-945e-51f5aeb9fa7f","system_id":"levelo_inurba_marseille","lat":43.22529,"lon":5.34837,"is_reserved":false,"is_disabled":false,"rental_uris":{"android":"levelo://app?vid=b039a727-71b1-4709-945e-51f5aeb9fa7f","ios":"levelo://app?vid=b039a727-71b1-4709-945e-51f5aeb9fa7f"},"vehicle_type_id":"4","last_reported":1783263848,"current_range_meters":8000,"station_id":"st_cvj5dfep6f1abm77gieg","pricing_plan_id":"cebpf4jnsgd1na2vs0mg"},{"bike_id":"fef99e4a-53fb-4ffb-aa19-e78a3f9c8949","system_id":"levelo_inurba_marseille","lat":43.3314,"lon":5.37701,"is_reserved":false,"is_disabled":false,"rental_uris":{"android":"levelo://app?vid=fef99e4a-53fb-4ffb-aa19-e78a3f9c8949","ios":"levelo://app?vid=fef99e4a-53fb-4ffb-aa19-e78a3f9c8949"},"vehicle_type_id":"4","last_reported":1783263848,"current_range_meters":8000,"station_id":"st_d46cu089ee8s73dldbu0","pricing_plan_id":"cebpf4jnsgd1na2vs0mg"},{"bike_id":"e7d1b9f1-5190-43f9-ac7f-75ca3a393e7d","system_id":"levelo_inurba_marseille","lat":43.28266,"lon":5.35078,"is_reserved":false,"is_disabled":false,"rental_uris":{"android":"levelo://app?vid=e7d1b9f1-5190-43f9-ac7f-75ca3a393e7d","ios":"levelo://app?vid=e7d1b9f1-5190-43f9-ac7f-75ca3a393e7d"},"vehicle_type_id":"4","last_reported":1783263848,"current_range_meters":8000,"station_id":"ce4bhbp2rcd13ifvqerg","pricing_plan_id":"cebpf4jnsgd1na2vs0mg"},{"bike_id":"138e49e7-8d22-4832-895c-d97d918d2d72","system_id":"levelo_inurba_marseille","lat":43.27823,"lon":5.3645,"is_reserved":false,"is_disabled":false,"rental_uris":{"android":"levelo://app?vid=138e49e7-8d22-4832-895c-d97d918d2d72","ios":"levelo://app?vid=138e49e7-8d22-4832-895c-d97d918d2d72"},"vehicle_type_id":"4","last_reported":1783263848,"current_range_meters":8400,"station_id":"","pricing_plan_id":"cebpf4jnsgd1na2vs0mg"},{"bike_id":"6e28c7de-4432-46c6-8824-5a05812aca65","system_id":"levelo_inurba_marseille","lat":43.22533,"lon":5.34816,"is_reserved":false,"is_disabled":false,"rental_uris":{"android":"levelo://app?vid=6e28c7de-4432-46c6-8824-5a05812aca65","ios":"levelo://app?vid=6e28c7de-4432-46c6-8824-5a05812aca65"},"vehicle_type_id":"4","last_reported":1783263848,"current_range_meters":8400,"station_id":"st_cvj5dfep6f1abm77gieg","pricing_plan_id":"cebpf4jnsgd1na2vs0mg"},{"bike_id":"90ae1f49-a39f-4c58-be95-3a19082f7294","system_id":"levelo_inurba_marseille","lat":43.28695,"lon":5.37437,"is_reserved":false,"is_disabled":false,"rental_uris":{"android":"levelo://app?vid=90ae1f49-a39f-4c58-be95-3a19082f7294","ios":"levelo://app?vid=90ae1f49-a39f-4c58-be95-3a19082f7294"},"vehicle_type_id":"4","last_reported":1783263848,"current_range_meters":8400,"station_id":"ce4bh3p2rcd13ifvqdq0","pricing_plan_id":"cebpf4jnsgd1na2vs0mg"},{"bike_id":"f19ac97e-9f1f-4ead-bcd8-93ab9ea02fc4","system_id":"levelo_inurba_marseille","lat":43.28728,"lon":5.36078,"is_reserved":false,"is_disabled":false,"rental_uris":{"android":"levelo://app?vid=f19ac97e-9f1f-4ead-bcd8-93ab9ea02fc4","ios":"levelo://app?vid=f19ac97e-9f1f-4ead-bcd8-93ab9ea02fc4"},"vehicle_type_id":"4","last_reported":1783263848,"current_range_meters":8400,"station_id":"cki0cbj6b192h4jlfktg","pricing_plan_id":"cebpf4jnsgd1na2vs0mg"},{"bike_id":"ff2ff9e7-f262-4d20-b164-d23dfcb7cae7","system_id":"levelo_inurba_marseille","lat":43.21742,"lon":5.34612,"is_reserved":false,"is_disabled":false,"rental_uris":{"android":"levelo://app?vid=ff2ff9e7-f262-4d20-b164-d23dfcb7cae7","ios":"levelo://app?vid=ff2ff9e7-f262-4d20-b164-d23dfcb7cae7"},"vehicle_type_id":"4","last_reported":1783263848,"current_range_meters":8400,"station_id":"st_cvj6r9ubvosntc0bgbag","pricing_plan_id":"cebpf4jnsgd1na2vs0mg"},{"bike_id":"746b9f21-9782-4f52-9ea6-8a2b88245d0c","system_id":"levelo_inurba_marseille","lat":43.2953,"lon":5.39401,"is_reserved":false,"is_disabled":false,"rental_uris":{"android":"levelo://app?vid=746b9f21-9782-4f52-9ea6-8a2b88245d0c","ios":"levelo://app?vid=746b9f21-9782-4f52-9ea6-8a2b88245d0c"},"vehicle_type_id":"4","last_reported":1783263848,"current_range_meters":8400,"station_id":"ce4bh292rcd13ifvqdf0","pricing_plan_id":"cebpf4jnsgd1na2vs0mg"},{"bike_id":"6b703ae7-b021-4d07-a990-ef927f27bcc0","system_id":"levelo_inurba_marseille","lat":43.25433,"lon":5.376,"is_reserved":false,"is_disabled":false,"rental_uris":{"android":"levelo://app?vid=6b703ae7-b021-4d07-a990-ef927f27bcc0","ios":"levelo://app?vid=6b703ae7-b021-4d07-a990-ef927f27bcc0"},"vehicle_type_id":"4","last_reported":1783263848,"current_range_meters":8400,"station_id":"","pricing_plan_id":"cebpf4jnsgd1na2vs0mg"},{"bike_id":"170cae9f-27e5-4bd1-be3a-63a6ad2f0259","system_id":"levelo_inurba_marseille","lat":43.32533,"lon":5.41476,"is_reserved":false,"is_disabled":false,"rental_uris":{"android":"levelo://app?vid=170cae9f-27e5-4bd1-be3a-63a6ad2f0259","ios":"levelo://app?vid=170cae9f-27e5-4bd1-be3a-63a6ad2f0259"},"vehicle_type_id":"4","last_reported":1783263848,"current_range_meters":8400,"station_id":"ce4bhq12rcd13ifvqhhg","pricing_plan_id":"cebpf4jnsgd1na2vs0mg"},{"bike_id":"5c656a05-4735-4c8f-ae01-edc0688f21ad","system_id":"levelo_inurba_marseille","lat":43.23787,"lon":5.36625,"is_reserved":false,"is_disabled":false,"rental_uris":{"android":"levelo://app?vid=5c656a05-4735-4c8f-ae01-edc0688f21ad","ios":"levelo://app?vid=5c656a05-4735-4c8f-ae01-edc0688f21ad"},"vehicle_type_id":"4","last_reported":1783263848,"current_range_meters":8400,"station_id":"st_d3nk18o9ro0c73en2l3g","pricing_plan_id":"cebpf4jnsgd1na2vs0mg"},{"bike_id":"bbc89da9-9a70-42d9-9e4c-0b41be7a26ce","system_id":"levelo_inurba_marseille","lat":43.28617,"lon":5.35112,"is_reserved":false,"is_disabled":false,"rental_uris":{"android":"levelo://app?vid=bbc89da9-9a70-42d9-9e4c-0b41be7a26ce","ios":"levelo://app?vid=bbc89da9-9a70-42d9-9e4c-0b41be7a26ce"},"vehicle_type_id":"4","last_reported":1783263848,"current_range_meters":8400,"station_id":"ce4bhch2rcd13ifvqeug","pricing_plan_id":"cebpf4jnsgd1na2vs0mg"},{"bike_id":"d3445804-aa86-4322-9d7c-8853ed1e9664","system_id":"levelo_inurba_marseille","lat":43.29563,"lon":5.42278,"is_reserved":false,"is_disabled":false,"rental_uris":{"android":"levelo://app?vid=d3445804-aa86-4322-9d7c-8853ed1e9664","ios":"levelo://app?vid=d3445804-aa86-4322-9d7c-8853ed1e9664"},"vehicle_type_id":"4","last_reported":1783263848,"current_range_meters":8400,"station_id":"ce4bhph2rcd13ifvqhdg","pricing_plan_id":"cebpf4jnsgd1na2vs0mg"},