{"last_updated":1703703930,"ttl":30,"version":"2.2","data":{"bikes":[{"bike_id":"4f1db3bd-2fc2-4602-8cf7-261f57f53774","system_id":"levelo_inurba_marseille","lat":43.312239,"lon":5.368562,"is_reserved":false,"is_disabled":false,"rental_uris":{"android":"levelo://app?vid=4f1db3bd-2fc2-4602-8cf7-261f57f53774","ios":"levelo://app?vid=4f1db3bd-2fc2-4602-8cf7-261f57f53774"},"vehicle_type_id":"4","last_reported":1703703930,"current_range_meters":9600,"station_id":"ce4bgl92rcd13ifvqbq0","pricing_plan_id":"free"},{"bike_id":"8d94f53b-99b5-429c-9f33-de246cb09af6","system_id":"levelo_inurba_marseille","lat":43.31229,"lon":5.36858,"is_reserved":false,"is_disabled":false,"rental_uris":{"android":"levelo://app?vid=8d94f53b-99b5-429c-9f33-de246cb09af6","ios":"levelo://app?vid=8d94f53b-99b5-429c-9f33-de246cb09af6"},"vehicle_type_id":"4","last_reported":1703703930,"current_range_meters":28000,"station_id":"ce4bgl92rcd13ifvqbq0","pricing_plan_id":"free"},{"bike_id":"94800107-a208-4a4f-9c76-c6f42dc2601a","system_id":"levelo_inurba_marseille","lat":43.312239,"lon":5.368562,"is_reserved":false,"is_disabled":false,"rental_uris":{"android":"levelo://app?vid=94800107-a208-4a4f-9c76-c6f42dc2601a","ios":"levelo://app?vid=94800107-a208-4a4f-9c76-c6f42dc2601a"},"vehicle_type_id":"4","last_reported":1703703930,"current_range_meters":26000,"station_id":"ce4bgl92rcd13ifvqbq0","pricing_plan_id":"free"},{"bike_id":"4f0aaa87-cb4b-4389-871f-2dd88483af9b","system_id":"levelo_inurba_marseille","lat":43.309076,"lon":5.368465,"is_reserved":false,"is_disabled":false,"rental_uris":{"android":"levelo://app?vid=4f0aaa87-cb4b-4389-871f-2dd88483af9b","ios":"levelo://app?vid=4f0aaa87-cb4b-4389-871f-2dd88483af9b"},"vehicle_type_id":"4","last_reported":1703703930,"current_range_meters":27600,"station_id":"ce4bgn92rcd13ifvqbvg","pricing_plan_id":"free"},{"bike_id":"6e1babd6-356c-4bbe-8fed-7cf3203eb34f","system_id":"levelo_inurba_marseille","lat":43.31496,"lon":5.3731,"is_reserved":false,"is_disabled":false,"rental_uris":{"android":"levelo://app?vid=6e1babd6-356c-4bbe-8fed-7cf3203eb34f","ios":"levelo://app?vid=6e1babd6-356c-4bbe-8fed-7cf3203eb34f"},"vehicle_type_id":"4","last_reported":1703703930,"current_range_meters":18800,"station_id":"ce4bgt12rcd13ifvqcd0","pricing_plan_id":"free"},{"bike_id":"41575ec6-6acc-4f99-9d6f-91a8d4737faf","system_id":"levelo_inurba_marseille","lat":43.309039,"lon":5.371797,"is_reserved":false,"is_disabled":false,"rental_uris":{"android":"levelo://app?vid=41575ec6-6acc-4f99-9d6f-91a8d4737faf","ios":"levelo://app?vid=41575ec6-6acc-4f99-9d6f-91a8d4737faf"},"vehicle_type_id":"4","last_reported":1703703930,"current_range_meters":31200,"station_id":"ce4bguh2rcd13ifvqckg","pricing_plan_id":"free"},{"bike_id":"74fe9bc5-e3f4-4c1a-8a5e-f3795aaa273d","system_id":"levelo_inurba_marseille","lat":43.309039,"lon":5.371797,"is_reserved":false,"is_disabled":false,"rental_uris":{"android":"levelo://app?vid=74fe9bc5-e3f4-4c1a-8a5e-f3795aaa273d","ios":"levelo://app?vid=74fe9bc5-e3f4-4c1a-8a5e-f3795aaa273d"},"vehicle_type_id":"4","last_reported":1703703930,"current_range_meters":22000,"station_id":"ce4bguh2rcd13ifvqckg","pricing_plan_id":"free"},{"bike_id":"a2b890e6-c8f6-46fe-83c7-05ff0cac5303","system_id":"levelo_inurba_marseille","lat":43.318964,"lon":5.36877,"is_reserved":false,"is_disabled":false,"rental_uris":{"android":"levelo://app?vid=a2b890e6-c8f6-46fe-83c7-05ff0cac5303","ios":"levelo://app?vid=a2b890e6-c8f6-46fe-83c7-05ff0cac5303"},"vehicle_type_id":"4","last_reported":1703703930,"current_range_meters":7200,"station_id":"","pricing_plan_id":"free"},{"bike_id":"adc14d48-e478-4d9e-8f67-d01fb24e38b0","system_id":"levelo_inurba_marseille","lat":43.30601,"lon":5.37221,"is_reserved":false,"is_disabled":false,"rental_uris":{"android":"levelo://app?vid=adc14d48-e478-4d9e-8f67-d01fb24e38b0","ios":"levelo://app?vid=adc14d48-e478-4d9e-8f67-d01fb24e38b0"},"vehicle_type_id":"4","last_reported":1703703930,"current_range_meters":30400,"station_id":"ce4bgqh2rcd13ifvqc4g","pricing_plan_id":"free"},{"bike_id":"a2494595-1d92-47e5-9f06-11b0434aa231","system_id":"levelo_inurba_marseille","lat":43.307945,"lon":5.376487,"is_reserved":false,"is_disabled":false,"rental_uris":{"android":"levelo://app?vid=a2494595-1d92-47e5-9f06-11b0434aa231","ios":"levelo://app?vid=a2494595-1d92-47e5-9f06-11b0434aa231"},"vehicle_type_id":"4","last_reported":1703703930,"current_range_meters":6800,"station_id":"ce4bgv92rcd13ifvqcq0","pricing_plan_id":"free"},{"bike_id":"b3a2e490-3acc-4627-a2e1-73d2ff6a2938","system_id":"levelo_inurba_marseille","lat":43.307847,"lon":5.376567,"is_reserved":false,"is_disabled":false,"rental_uris":{"android":"levelo://app?vid=b3a2e490-3acc-4627-a2e1-73d2ff6a2938","ios":"levelo://app?vid=b3a2e490-3acc-4627-a2e1-73d2ff6a2938"},"vehicle_type_id":"4","last_reported":1703703930,"current_range_meters":4000,"station_id":"ce4bgv92rcd13ifvqcq0","pricing_plan_id":"free"},{"bike_id":"8f9b6203-ac8d-4a94-8169-0dcabe3f7a4d","system_id":"levelo_inurba_marseille","lat":43.30778,"lon":5.3766,"is_reserved":false,"is_disabled":false,"rental_uris":{"android":"levelo://app?vid=8f9b6203-ac8d-4a94-8169-0dcabe3f7a4d","ios":"levelo://app?vid=8f9b6203-ac8d-4a94-8169-0dcabe3f7a4d"},"vehicle_type_id":"4","last_reported":1703703930,"current_range_meters":4800,"station_id":"ce4bgv92rcd13ifvqcq0","pricing_plan_id":"free"},{"bike_id":"8f1b9c07-f808-4f04-9f0f-53ea426a4066","system_id":"levelo_inurba_marseille","lat":43.317075,"lon":5.377367,"is_reserved":false,"is_disabled":false,"rental_uris":{"android":"levelo://app?vid=8f1b9c07-f808-4f04-9f0f-53ea426a4066","ios":"levelo://app?vid=8f1b9c07-f808-4f04-9f0f-53ea426a4066"},"vehicle_type_id":"4","last_reported":1703703930,"current_range_meters":24800,"station_id":"ce4bgth2rcd13ifvqch0","pricing_plan_id":"free"},{"bike_id":"069042d6-77b6-469d-9a18-90430553e12a","system_id":"levelo_inurba_marseille","lat":43.317075,"lon":5.377367,"is_reserved":false,"is_disabled":false,"rental_uris":{"android":"levelo://app?vid=069042d6-77b6-469d-9a18-90430553e12a","ios":"levelo://app?vid=069042d6-77b6-469d-9a18-90430553e12a"},"vehicle_type_id":"4","last_reported":1703703930,"current_range_meters":3600,"station_id":"ce4bgth2rcd13ifvqch0","pricing_plan_id":"free"},{"bike_id":"3b9b06fc-bb29-43f8-b05c-5d0d90107631","system_id":"levelo_inurba_marseille","lat":43.30304,"lon":5.368987,"is_reserved":false,"is_disabled":false,"rental_uris":{"android":"levelo://app?vid=3b9b06fc-bb29-43f8-b05c-5d0d90107631","ios":"levelo://app?vid=3b9b06fc-bb29-43f8-b05c-5d0d90107631"},"vehicle_type_id":"4","last_reported":1703703930,"current_range_meters":26400,"station_id":"ce4bgqh2rcd13ifvqc5g","pricing_plan_id":"free"},{"bike_id":"9d33052a-ce68-47ba-b9d2-ab2a40f2b5af","system_id":"levelo_inurba_marseille","lat":43.303046,"lon":5.368981,"is_reserved":false,"is_disabled":false,"rental_uris":{"android":"levelo://app?vid=9d33052a-ce68-47ba-b9d2-ab2a40f2b5af","ios":"levelo://app?vid=9d33052a-ce68-47ba-b9d2-ab2a40f2b5af"},"vehicle_type_id":"4","last_reported":1703703930,"current_range_meters":25600,"station_id":"ce4bgqh2rcd13ifvqc5g","pricing_plan_id":"free"},{"bike_id":"2963ade6-017a-4bff-bf79-5ba67f2477b9","system_id":"levelo_inurba_marseille","lat":43.308012,"lon":5.381511,"is_reserved":false,"is_disabled":false,"rental_uris":{"android":"levelo://app?vid=2963ade6-017a-4bff-bf79-5ba67f2477b9","ios":"levelo://app?vid=2963ade6-017a-4bff-bf79-5ba67f2477b9"},"vehicle_type_id":"4","last_reported":1703703930,"current_range_meters":18800,"station_id":"ce4bgt12rcd13ifvqce0","pricing_plan_id":"free"},{"bike_id":"ed20a26a-fd05-40b0-b360-6cab66f682b0","system_id":"levelo_inurba_marseille","lat":43.30808,"lon":5.3816,"is_reserved":false,"is_disabled":false,"rental_uris":{"android":"levelo://app?vid=ed20a26a-fd05-40b0-b360-6cab66f682b0","ios":"levelo://app?vid=ed20a26a-fd05-40b0-b360-6cab66f682b0"},"vehicle_type_id":"4","last_reported":1703703930,"current_range_meters":0,"station_id":"ce4bgt12rcd13ifvqce0","pricing_plan_id":"free"},{"bike_id":"5810a51d-900e-4f21-b011-504985336ccb","system_id":"levelo_inurba_marseille","lat":43.324771,"lon":5.36557,"is_reserved":false,"is_disabled":false,"rental_uris":{"android":"levelo://app?vid=5810a51d-900e-4f21-b011-504985336ccb","ios":"levelo://app?vid=5810a51d-900e-4f21-b011-504985336ccb"},"vehicle_type_id":"4","last_reported":1703703930,"current_range_meters":26000,"station_id":"ce4bhs12rcd13ifvqhvg","pricing_plan_id":"free"},{"bike_id":"eb75f652-373e-4726-9e33-c05a085e4a2d","system_id":"levelo_inurba_marseille","lat":43.301453,"lon":5.37416,"is_reserved":false,"is_disabled":false,"rental_uris":{"android":"levelo://app?vid=eb75f652-373e-4726-9e33-c05a085e4a2d","ios":"levelo://app?vid=eb75f652-373e-4726-9e33-c05a085e4a2d"},"vehicle_type_id":"4","last_reported":1703703930,"current_range_meters":8800,"station_id":"","pricing_plan_id":"free"},{"bike_id":"403ffb47-c714-478c-8e34-84ede5bb0c44","system_id":"levelo_inurba_marseille","lat":43.319935,"lon":5.381699,"is_reserved":false,"is_disabled":false,"rental_uris":{"android":"levelo://app?vid=403ffb47-c714-478c-8e34-84ede5bb0c44","ios":"levelo://app?vid=403ffb47-c714-478c-8e34-84ede5bb0c44"},"vehicle_type_id":"4","last_reported":1703703930,"current_range_meters":11600,"station_id":"ce4bhr12rcd13ifvqhpg","pricing_plan_id":"free"},{"bike_id":"51325c00-139d-4eb1-8830-baa6b4ad2dfb","system_id":"levelo_inurba_marseille","lat":43.319935,"lon":5.381699,"is_reserved":false,"is_disabled":false,"rental_uris":{"android":"levelo://app?vid=51325c00-139d-4eb1-8830-baa6b4ad2dfb","ios":"levelo://app?vid=51325c00-139d-4eb1-8830-baa6b4ad2dfb"},"vehicle_type_id":"4","last_reported":1703703930,"current_range_meters":10800,"station_id":"ce4bhr12rcd13ifvqhpg","pricing_plan_id":"free"},{"bike_id":"6c58e734-d06d-45e2-8795-1ec4fcd0a9d2","system_id":"levelo_inurba_marseille","lat":43.313571,"lon":5.384829,"is_reserved":false,"is_disabled":false,"rental_uris":{"android":"levelo://app?vid=6c58e734-d06d-45e2-8795-1ec4fcd0a9d2","ios":"levelo://app?vid=6c58e734-d06d-45e2-8795-1ec4fcd0a9d2"},"vehicle_type_id":"4","last_reported":1703703930,"current_range_meters":8800,"station_id":"ce4bgt92rcd13ifvqcf0","pricing_plan_id":"free"},{"bike_id":"7d0cc27a-097a-4148-b6a7-c768f6e0b364","system_id":"levelo_inurba_marseille","lat":43.313571,"lon":5.384829,"is_reserved":false,"is_disabled":false,"rental_uris":{"android":"levelo://app?vid=7d0cc27a-097a-4148-b6a7-c768f6e0b364","ios":"levelo://app?vid=7d0cc27a-097a-4148-b6a7-c768f6e0b364"},"vehicle_type_id":"4","last_reported":1703703930,"current_range_meters":24800,"station_id":"ce4bgt92rcd13ifvqcf0","pricing_plan_id":"free"},{"bike_id":"d765122a-7a6c-495f-addb-765a711a5b96","system_id":"levelo_inurba_marseille","lat":43.313571,"lon":5.384829,"is_reserved":false,"is_disabled":false,"rental_uris":{"android":"levelo://app?vid=d765122a-7a6c-495f-addb-765a711a5b96","ios":"levelo://app?vid=d765122a-7a6c-495f-addb-765a711a5b96"},"vehicle_type_id":"4","last_reported":1703703930,"current_range_meters":17200,"station_id":"ce4bgt92rcd13ifvqcf0","pricing_plan_id":"free"},{"bike_id":"a7f2d639-b1cf-4a08-ac15-45a5fdd40f18","system_id":"levelo_inurba_marseille","lat":43.313571,"lon":5.384829,"is_reserved":false,"is_disabled":false,"rental_uris":{"android":"levelo://app?vid=a7f2d639-b1cf-4a08-ac15-45a5fdd40f18","ios":"levelo://app?vid=a7f2d639-b1cf-4a08-ac15-45a5fdd40f18"},"vehicle_type_id":"4","last_reported":1703703930,"current_range_meters":22000,"station_id":"ce4bgt92rcd13ifvqcf0","pricing_plan_id":"free"},{"bike_id":"1a425633-6ce8-43d2-90f1-88a4cd9e48e2","system_id":"levelo_inurba_marseille","lat":43.313571,"lon":5.384829,"is_reserved":false,"is_disabled":false,"rental_uris":{"android":"levelo://app?vid=1a425633-6ce8-43d2-90f1-88a4cd9e48e2","ios":"levelo://app?vid=1a425633-6ce8-43d2-90f1-88a4cd9e48e2"},"vehicle_type_id":"4","last_reported":1703703930,"current_range_meters":26400,"station_id":"ce4bgt92rcd13ifvqcf0","pricing_plan_id":"free"},{"bike_id":"4b3cfa60-9c74-4e62-961d-1705113433eb","system_id":"levelo_inurba_marseille","lat":43.313571,"lon":5.384829,"is_reserved":false,"is_disabled":false,"rental_uris":{"android":"levelo://app?vid=4b3cfa60-9c74-4e62-961d-1705113433eb","ios":"levelo://app?vid=4b3cfa60-9c74-4e62-961d-1705113433eb"},"vehicle_type_id":"4","last_reported":1703703930,"current_range_meters":22800,"station_id":"ce4bgt92rcd13ifvqcf0","pricing_plan_id":"free"},{"bike_id":"d8613c17-2811-441a-84f7-47de36f15438","system_id":"levelo_inurba_marseille","lat":43.313571,"lon":5.384829,"is_reserved":false,"is_disabled":false,"rental_uris":{"android":"levelo://app?vid=d8613c17-2811-441a-84f7-47de36f15438","ios":"levelo://app?vid=d8613c17-2811-441a-84f7-47de36f15438"},"vehicle_type_id":"4","last_reported":1703703930,"current_range_meters":22400,"station_id":"ce4bgt92rcd13ifvqcf0","pricing_plan_id":"free"},{"bike_id":"d3b78e7e-8d02-4676-870b-fb9d4d2bbd17","system_id":"levelo_inurba_marseille","lat":43.313571,"lon":5.384829,"is_reserved":false,"is_disabled":false,"rental_uris":{"android":"levelo://app?vid=d3b78e7e-8d02-4676-870b-fb9d4d2bbd17","ios":"levelo://app?vid=d3b78e7e-8d02-4676-870b-fb9d4d2bbd17"},"vehicle_type_id":"4","last_reported":1703703930,"current_range_meters":17200,"station_id":"ce4bgt92rcd13ifvqcf0","pricing_plan_id":"free"},{"bike_id":"ff626801-e822-4fc9-a7f6-f37f28ffd723","system_id":"levelo_inurba_marseille","lat":43.313571,"lon":5.384829,"is_reserved":false,"is_disabled":false,"rental_uris":{"android":"levelo://app?vid=ff626801-e822-4fc9-a7f6-f37f28ffd723","ios":"levelo://app?vid=ff626801-e822-4fc9-a7f6-f37f28ffd723"},"vehicle_type_id":"4","last_reported":1703703930,"current_range_meters":13200,"station_id":"ce4bgt92rcd13ifvqcf0","pricing_plan_id":"free"},{"bike_id":"fce2111f-8531-47f8-b8a0-b2ae7fae0d47","system_id":"levelo_inurba_marseille","lat":43.313571,"lon":5.384829,"is_reserved":false,"is_disabled":false,"rental_uris":{"android":"levelo://app?vid=fce2111f-8531-47f8-b8a0-b2ae7fae0d47","ios":"levelo://app?vid=fce2111f-8531-47f8-b8a0-b2ae7fae0d47"},"vehicle_type_id":"4","last_reported":1703703930,"current_range_meters":23200,"station_id":"ce4bgt92rcd13ifvqcf0","pricing_plan_id":"free"},{"bike_id":"d1fa0731-d569-4b87-841f-c761625d6ee9","system_id":"levelo_inurba_marseille","lat":43.305364,"lon":5.384119,"is_reserved":false,"is_disabled":false,"rental_uris":{"android":"levelo://app?vid=d1fa0731-d569-4b87-841f-c761625d6ee9","ios":"levelo://app?vid=d1fa0731-d569-4b87-841f-c761625d6ee9"},"vehicle_type_id":"4","last_reported":1703703930,"current_range_meters":21600,"station_id":"ce4bgg92rcd13ifvqb30","pricing_plan_id":"free"},{"bike_id":"5183c5c1-3f34-443b-8ea1-fa5583ea38e0","system_id":"levelo_inurba_marseille","lat":43.305364,"lon":5.384119,"is_reserved":false,"is_disabled":false,"rental_uris":{"android":"levelo://app?vid=5183c5c1-3f34-443b-8ea1-fa5583ea38e0","ios":"levelo://app?vid=5183c5c1-3f34-443b-8ea1-fa5583ea38e0"},"vehicle_type_id":"4","last_reported":1703703930,"current_range_meters":24000,"station_id":"ce4bgg92rcd13ifvqb30","pricing_plan_id":"free"},{"bike_id":"9ea6cf31-d881-4bba-ac93-df7696a747eb","system_id":"levelo_inurba_marseille","lat":43.311722,"lon":5.387247,"is_reserved":false,"is_disabled":false,"rental_uris":{"android":"levelo://app?vid=9ea6cf31-d881-4bba-ac93-df7696a747eb","ios":"levelo://app?vid=9ea6cf31-d881-4bba-ac93-df7696a747eb"},"vehicle_type_id":"4","last_reported":1703703930,"current_range_meters":21600,"station_id":"ce4bgv12rcd13ifvqcp0","pricing_plan_id":"free"},{"bike_id":"3407e4f9-9706-4655-ae6f-cbe9f9fe5d34","system_id":"levelo_inurba_marseille","lat":43.311722,"lon":5.387247,"is_reserved":false,"is_disabled":false,"rental_uris":{"android":"levelo://app?vid=3407e4f9-9706-4655-ae6f-cbe9f9fe5d34","ios":"levelo://app?vid=3407e4f9-9706-4655-ae6f-cbe9f9fe5d34"},"vehicle_type_id":"4","last_reported":1703703930,"current_range_meters":22000,"station_id":"ce4bgv12rcd13ifvqcp0","pricing_plan_id":"free"},{"bike_id":"04d5b439-13e1-435e-b3ee-d19787f8dada","system_id":"levelo_inurba_marseille","lat":43.311722,"lon":5.387247,"is_reserved":false,"is_disabled":false,"rental_uris":{"android":"levelo://app?vid=04d5b439-13e1-435e-b3ee-d19787f8dada","ios":"levelo://app?vid=04d5b439-13e1-435e-b3ee-d19787f8dada"},"vehicle_type_id":"4","last_reported":1703703930,"current_range_meters":24400,"station_id":"ce4bgv12rcd13ifvqcp0","pricing_plan_id":"free"},{"bike_id":"7119845d-00aa-4d9f-be8c-fc97d41f1380","system_id":"levelo_inurba_marseille","lat":43.326128,"lon":5.376413,"is_reserved":false,"is_disabled":false,"rental_uris":{"android":"levelo://app?vid=7119845d-00aa-4d9f-be8c-fc97d41f1380","ios":"levelo://app?vid=7119845d-00aa-4d9f-be8c-fc97d41f1380"},"vehicle_type_id":"4","last_reported":1703703930,"current_range_meters":20800,"station_id":"","pricing_plan_id":"free"},{"bike_id":"90ed2fa2-04c3-416f-9041-61ab2404c7fc","system_id":"levelo_inurba_marseille","lat":43.297774,"lon":5.370875,"is_reserved":false,"is_disabled":false,"rental_uris":{"android":"levelo://app?vid=90ed2fa2-04c3-416f-9041-61ab2404c7fc","ios":"levelo://app?vid=90ed2fa2-04c3-416f-9041-61ab2404c7fc"},"vehicle_type_id":"4","last_reported":1703703930,"current_range_meters":20400,"station_id":"ce4bgop2rcd13ifvqc1g","pricing_plan_id":"free"},{"bike_id":"6d1471f8-bce9-466e-a589-4a37d3811250","system_id":"levelo_inurba_marseille","lat":43.322872,"lon":5.382756,"is_reserved":false,"is_disabled":false,"rental_uris":{"android":"levelo://app?vid=6d1471f8-bce9-466e-a589-4a37d3811250","ios":"levelo://app?vid=6d1471f8-bce9-466e-a589-4a37d3811250"},"vehicle_type_id":"4","last_reported":1703703930,"current_range_meters":22000,"station_id":"ce4bhr12rcd13ifvqhqg","pricing_plan_id":"free"},{"bike_id":"b80d7642-fe96-4085-a572-f27716682acd","system_id":"levelo_inurba_marseille","lat":43.322872,"lon":5.382756,"is_reserved":false,"is_disabled":false,"rental_uris":{"android":"levelo://app?vid=b80d7642-fe96-4085-a572-f27716682acd","ios":"levelo://app?vid=b80d7642-fe96-4085-a572-f27716682acd"},"vehicle_type_id":"4","last_reported":1703703930,"current_range_meters":18800,"station_id":"ce4bhr12rcd13ifvqhqg","pricing_plan_id":"free"},{"bike_id":"0a0a41d2-3c00-48f6-882d-b27afb73fe78","system_id":"levelo_inurba_marseille","lat":43.322872,"lon":5.382756,"is_reserved":false,"is_disabled":false,"rental_uris":{"android":"levelo://app?vid=0a0a41d2-3c00-48f6-882d-b27afb73fe78","ios":"levelo://app?vid=0a0a41d2-3c00-48f6-882d-b27afb73fe78"},"vehicle_type_id":"4","last_reported":1703703930,"current_range_meters":26800,"station_id":"ce4bhr12rcd13ifvqhqg","pricing_plan_id":"free"},{"bike_id":"3270f28d-7b09-46cb-ba43-f40752fc3385","system_id":"levelo_inurba_marseille","lat":43.322872,"lon":5.382756,"is_reserved":false,"is_disabled":false,"rental_uris":{"android":"levelo://app?vid=3270f28d-7b09-46cb-ba43-f40752fc3385","ios":"levelo://app?vid=3270f28d-7b09-46cb-ba43-f40752fc3385"},"vehicle_type_id":"4","last_reported":1703703930,"current_range_meters":31200,"station_id":"ce4bhr12rcd13ifvqhqg","pricing_plan_id":"free"},{"bike_id":"1ea82e61-37ea-4b15-a6ef-01d29683b9fd","system_id":"levelo_inurba_marseille","lat":43.32825,"lon":5.36683,"is_reserved":false,"is_disabled":false,"rental_uris":{"android":"levelo://app?vid=1ea82e61-37ea-4b15-a6ef-01d29683b9fd","ios":"levelo://app?vid=1ea82e61-37ea-4b15-a6ef-01d29683b9fd"},"vehicle_type_id":"4","last_reported":1703703930,"current_range_meters":26400,"station_id":"ce4bhs92rcd13ifvqi0g","pricing_plan_id":"free"},{"bike_id":"a677cd10-a09b-4b2e-bffd-45b05d2c9229","system_id":"levelo_inurba_marseille","lat":43.32826,"lon":5.36669,"is_reserved":false,"is_disabled":false,"rental_uris":{"android":"levelo://app?vid=a677cd10-a09b-4b2e-bffd-45b05d2c9229","ios":"levelo://app?vid=a677cd10-a09b-4b2e-bffd-45b05d2c9229"},"vehicle_type_id":"4","last_reported":1703703930,"current_range_meters":29200,"station_id":"ce4bhs92rcd13ifvqi0g","pricing_plan_id":"free"},{"bike_id":"5c89eee7-6e83-42b4-bd81-efdcf68f6666","system_id":"levelo_inurba_marseille","lat":43.32828,"lon":5.36679,"is_reserved":false,"is_disabled":false,"rental_uris":{"android":"levelo://app?vid=5c89eee7-6e83-42b4-bd81-efdcf68f6666","ios":"levelo://app?vid=5c89eee7-6e83-42b4-bd81-efdcf68f6666"},"vehicle_type_id":"4","last_reported":1703703930,"current_range_meters":27200,"station_id":"ce4bhs92rcd13ifvqi0g","pricing_plan_id":"free"},{"bike_id":"51714c4a-3132-4951-88ec-80e85fa125e8","system_id":"levelo_inurba_marseille","lat":43.328282,"lon":5.36689,"is_reserved":false,"is_disabled":false,"rental_uris":{"android":"levelo://app?vid=51714c4a-3132-4951-88ec-80e85fa125e8","ios":"levelo://app?vid=51714c4a-3132-4951-88ec-80e85fa125e8"},"vehicle_type_id":"4","last_reported":1703703930,"current_range_meters":22800,"station_id":"ce4bhs92rcd13ifvqi0g","pricing_plan_id":"free"},{"bike_id":"a448ca86-2b35-41e1-89c4-32a99bab0563","system_id":"levelo_inurba_marseille","lat":43.328371,"lon":5.366912,"is_reserved":false,"is_disabled":false,"rental_uris":{"android":"levelo://app?vid=a448ca86-2b35-41e1-89c4-32a99bab0563","ios":"levelo://app?vid=a448ca86-2b35-41e1-89c4-32a99bab0563"},"vehicle_type_id":"4","last_reported":1703703930,"current_range_meters":27200,"station_id":"ce4bhs92rcd13ifvqi0g","pricing_plan_id":"free"},{"bike_id":"6f67326a-1664-406f-9978-902e013e2357","system_id":"levelo_inurba_marseille","lat":43.32829,"lon":5.36675,"is_reserved":false,"is_disabled":false,"rental_uris":{"android":"levelo://app?vid=6f67326a-1664-406f-9978-902e013e2357","ios":"levelo://app?vid=6f67326a-1664-406f-9978-902e013e2357"},"vehicle_type_id":"4","last_reported":1703703930,"current_range_meters":26400,"station_id":"ce4bhs92rcd13ifvqi0g","pricing_plan_id":"free"},{"bike_id":"ea7074d7-b7c9-4941-82c2-dff391bae9cb","system_id":"levelo_inurba_marseille","lat":43.328297,"lon":5.366782,"is_reserved":false,"is_disabled":false,"rental_uris":{"android":"levelo://app?vid=ea7074d7-b7c9-4941-82c2-dff391bae9cb","ios":"levelo://app?vid=ea7074d7-b7c9-4941-82c2-dff391bae9cb"},"vehicle_type_id":"4","last_reported":1703703930,"current_range_meters":18800,"station_id":"ce4bhs92rcd13ifvqi0g","pricing_plan_id":"free"},{"bike_id":"b33e79d7-85bd-413c-801b-bcd1df69d847","system_id":"levelo_inurba_marseille","lat":43.3283,"lon":5.36668,"is_reserved":false,"is_disabled":false,"rental_uris":{"android":"levelo://app?vid=b33e79d7-85bd-413c-801b-bcd1df69d847","ios":"levelo://app?vid=b33e79d7-85bd-413c-801b-bcd1df69d847"},"vehicle_type_id":"4","last_reported":1703703930,"current_range_meters":20800,"station_id":"ce4bhs92rcd13ifvqi0g","pricing_plan_id":"free"},{"bike_id":"de708f00-7118-4d7c-9021-d7dcbd798473","system_id":"levelo_inurba_marseille","lat":43.328371,"lon":5.366909,"is_reserved":false,"is_disabled":false,"rental_uris":{"android":"levelo://app?vid=de708f00-7118-4d7c-9021-d7dcbd798473","ios":"levelo://app?vid=de708f00-7118-4d7c-9021-d7dcbd798473"},"vehicle_type_id":"4","last_reported":1703703930,"current_range_meters":20000,"station_id":"ce4bhs92rcd13ifvqi0g","pricing_plan_id":"free"},{"bike_id":"904f83aa-e9ab-401d-84c1-9edfed82b884","system_id":"levelo_inurba_marseille","lat":43.328371,"lon":5.366909,"is_reserved":false,"is_disabled":false,"rental_uris":{"android":"levelo://app?vid=904f83aa-e9ab-401d-84c1-9edfed82b884","ios":"levelo://app?vid=904f83aa-e9ab-401d-84c1-9edfed82b884"},"vehicle_type_id":"4","last_reported":1703703930,"current_range_meters":13600,"station_id":"ce4bhs92rcd13ifvqi0g","pricing_plan_id":"free"},{"bike_id":"6516e11b-ff9a-4979-b85a-a42584b5c933","system_id":"levelo_inurba_marseille","lat":43.328331,"lon":5.366727,"is_reserved":false,"is_disabled":false,"rental_uris":{"android":"levelo://app?vid=6516e11b-ff9a-4979-b85a-a42584b5c933","ios":"levelo://app?vid=6516e11b-ff9a-4979-b85a-a42584b5c933"},"vehicle_type_id":"4","last_reported":1703703930,"current_range_meters":27600,"station_id":"ce4bhs92rcd13ifvqi0g","pricing_plan_id":"free"},{"bike_id":"be72c8fa-57ca-4b39-a06f-106528121e53","system_id":"levelo_inurba_marseille","lat":43.32835,"lon":5.36681,"is_reserved":false,"is_disabled":false,"rental_uris":{"android":"levelo://app?vid=be72c8fa-57ca-4b39-a06f-106528121e53","ios":"levelo://app?vid=be72c8fa-57ca-4b39-a06f-106528121e53"},"vehicle_type_id":"4","last_reported":1703703930,"current_range_meters":4000,"station_id":"ce4bhs92rcd13ifvqi0g","pricing_plan_id":"free"},{"bike_id":"5c4da61a-4a66-4911-aa14-038a72ab09c9","system_id":"levelo_inurba_marseille","lat":43.297163,"lon":5.365866,"is_reserved":false,"is_disabled":false,"rental_uris":{"android":"levelo://app?vid=5c4da61a-4a66-4911-aa14-038a72ab09c9","ios":"levelo://app?vid=5c4da61a-4a66-4911-aa14-038a72ab09c9"},"vehicle_type_id":"4","last_reported":1703703930,"current_range_meters":20800,"station_id":"ce4bgn12rcd13ifvqbt0","pricing_plan_id":"free"},{"bike_id":"794112ab-ca9b-4ea0-80ed-fb8933ae8a77","system_id":"levelo_inurba_marseille","lat":43.2968,"lon":5.37291,"is_reserved":false,"is_disabled":false,"rental_uris":{"android":"levelo://app?vid=794112ab-ca9b-4ea0-80ed-fb8933ae8a77","ios":"levelo://app?vid=794112ab-ca9b-4ea0-80ed-fb8933ae8a77"},"vehicle_type_id":"4","last_reported":1703703930,"current_range_meters":27600,"station_id":"ce4bgk12rcd13ifvqbj0","pricing_plan_id":"free"},{"bike_id":"921b424d-ad0d-4c7a-9d74-66e3a49bfa19","system_id":"levelo_inurba_marseille","lat":43.32934,"lon":5.36612,"is_reserved":false,"is_disabled":false,"rental_uris":{"android":"levelo://app?vid=921b424d-ad0d-4c7a-9d74-66e3a49bfa19","ios":"levelo://app?vid=921b424d-ad0d-4c7a-9d74-66e3a49bfa19"},"vehicle_type_id":"4","last_reported":1703703930,"current_range_meters":16400,"station_id":"","pricing_plan_id":"free"},{"bike_id":"bbc7dad6-750a-4e37-b398-732786a4eaa5","system_id":"levelo_inurba_marseille","lat":43.296129,"lon":5.370777,"is_reserved":false,"is_disabled":false,"rental_uris":{"android":"levelo://app?vid=bbc7dad6-750a-4e37-b398-732786a4eaa5","ios":"levelo://app?vid=bbc7dad6-750a-4e37-b398-732786a4eaa5"},"vehicle_type_id":"4","last_reported":1703703930,"current_range_meters":23600,"station_id":"ce4bgnh2rcd13ifvqc0g","pricing_plan_id":"free"},{"bike_id":"ef341b2c-b027-4fd1-a0b4-35f7d51af0e3","system_id":"levelo_inurba_marseille","lat":43.296921,"lon":5.376579,"is_reserved":false,"is_disabled":false,"rental_uris":{"android":"levelo://app?vid=ef341b2c-b027-4fd1-a0b4-35f7d51af0e3","ios":"levelo://app?vid=ef341b2c-b027-4fd1-a0b4-35f7d51af0e3"},"vehicle_type_id":"4","last_reported":1703703930,"current_range_meters":9600,"station_id":"ce4bgkh2rcd13ifvqbl0","pricing_plan_id":"free"},{"bike_id":"0e430842-7e03-45ae-8780-09084280d5b8","system_id":"levelo_inurba_marseille","lat":43.309524,"lon":5.390279,"is_reserved":false,"is_disabled":false,"rental_uris":{"android":"levelo://app?vid=0e430842-7e03-45ae-8780-09084280d5b8","ios":"levelo://app?vid=0e430842-7e03-45ae-8780-09084280d5b8"},"vehicle_type_id":"4","last_reported":1703703930,"current_range_meters":14800,"station_id":"ce4bgup2rcd13ifvqco0","pricing_plan_id":"free"},{"bike_id":"acd46654-2f87-4026-85cc-38df3446ee4a","system_id":"levelo_inurba_marseille","lat":43.309589,"lon":5.390258,"is_reserved":false,"is_disabled":false,"rental_uris":{"android":"levelo://app?vid=acd46654-2f87-4026-85cc-38df3446ee4a","ios":"levelo://app?vid=acd46654-2f87-4026-85cc-38df3446ee4a"},"vehicle_type_id":"4","last_reported":1703703930,"current_range_meters":26800,"station_id":"ce4bgup2rcd13ifvqco0","pricing_plan_id":"free"},{"bike_id":"80e219a1-511f-498c-8085-a51c6834dbfa","system_id":"levelo_inurba_marseille","lat":43.296921,"lon":5.376579,"is_reserved":false,"is_disabled":false,"rental_uris":{"android":"levelo://app?vid=80e219a1-511f-498c-8085-a51c6834dbfa","ios":"levelo://app?vid=80e219a1-511f-498c-8085-a51c6834dbfa"},"vehicle_type_id":"4","last_reported":1703703930,"current_range_meters":20000,"station_id":"ce4bgkh2rcd13ifvqbl0","pricing_plan_id":"free"},{"bike_id":"d163a4ab-ad12-4961-b812-475cb1cde355","system_id":"levelo_inurba_marseille","lat":43.298037,"lon":5.381066,"is_reserved":false,"is_disabled":false,"rental_uris":{"android":"levelo://app?vid=d163a4ab-ad12-4961-b812-475cb1cde355","ios":"levelo://app?vid=d163a4ab-ad12-4961-b812-475cb1cde355"},"vehicle_type_id":"4","last_reported":1703703930,"current_range_meters":18400,"station_id":"ce4bgip2rcd13ifvqbb0","pricing_plan_id":"free"},{"bike_id":"9ba19c62-038b-4cc0-826a-8f9d1dddcc0b","system_id":"levelo_inurba_marseille","lat":43.298037,"lon":5.381066,"is_reserved":false,"is_disabled":false,"rental_uris":{"android":"levelo://app?vid=9ba19c62-038b-4cc0-826a-8f9d1dddcc0b","ios":"levelo://app?vid=9ba19c62-038b-4cc0-826a-8f9d1dddcc0b"},"vehicle_type_id":"4","last_reported":1703703930,"current_range_meters":29200,"station_id":"ce4bgip2rcd13ifvqbb0","pricing_plan_id":"free"},{"bike_id":"d6720205-dac4-4ca1-90f1-2598b0a2c67a","system_id":"levelo_inurba_marseille","lat":43.298037,"lon":5.381066,"is_reserved":false,"is_disabled":false,"rental_uris":{"android":"levelo://app?vid=d6720205-dac4-4ca1-90f1-2598b0a2c67a","ios":"levelo://app?vid=d6720205-dac4-4ca1-90f1-2598b0a2c67a"},"vehicle_type_id":"4","last_reported":1703703930,"current_range_meters":7600,"station_id":"ce4bgip2rcd13ifvqbb0","pricing_plan_id":"free"},{"bike_id":"67b089bf-6071-415d-8777-915fe201ef54","system_id":"levelo_inurba_marseille","lat":43.304278,"lon":5.388868,"is_reserved":false,"is_disabled":false,"rental_uris":{"android":"levelo://app?vid=67b089bf-6071-415d-8777-915fe201ef54","ios":"levelo://app?vid=67b089bf-6071-415d-8777-915fe201ef54"},"vehicle_type_id":"4","last_reported":1703703930,"current_range_meters":1600,"station_id":"ce4bgk12rcd13ifvqbi0","pricing_plan_id":"free"},{"bike_id":"a2d2d7e9-8ae6-4b68-97f6-66b0c1054099","system_id":"levelo_inurba_marseille","lat":43.296277,"lon":5.377108,"is_reserved":false,"is_disabled":false,"rental_uris":{"android":"levelo://app?vid=a2d2d7e9-8ae6-4b68-97f6-66b0c1054099","ios":"levelo://app?vid=a2d2d7e9-8ae6-4b68-97f6-66b0c1054099"},"vehicle_type_id":"4","last_reported":1703703930,"current_range_meters":22000,"station_id":"ce4bgi92rcd13ifvqb90","pricing_plan_id":"free"},{"bike_id":"c7fdb61c-dee7-4844-a60a-1a42b38a2ee0","system_id":"levelo_inurba_marseille","lat":43.290624,"lon":5.359245,"is_reserved":false,"is_disabled":false,"rental_uris":{"android":"levelo://app?vid=c7fdb61c-dee7-4844-a60a-1a42b38a2ee0","ios":"levelo://app?vid=c7fdb61c-dee7-4844-a60a-1a42b38a2ee0"},"vehicle_type_id":"4","last_reported":1703703930,"current_range_meters":3600,"station_id":"ce4bha92rcd13ifvqeg0","pricing_plan_id":"free"},{"bike_id":"5c96aa62-fc6f-47d4-91d8-16b6187e97a4","system_id":"levelo_inurba_marseille","lat":43.296263,"lon":5.377094,"is_reserved":false,"is_disabled":false,"rental_uris":{"android":"levelo://app?vid=5c96aa62-fc6f-47d4-91d8-16b6187e97a4","ios":"levelo://app?vid=5c96aa62-fc6f-47d4-91d8-16b6187e97a4"},"vehicle_type_id":"4","last_reported":1703703930,"current_range_meters":24800,"station_id":"ce4bgi92rcd13ifvqb90","pricing_plan_id":"free"},{"bike_id":"eb35cac9-f9df-45a3-a739-c6d26aece67b","system_id":"levelo_inurba_marseille","lat":43.299707,"lon":5.384859,"is_reserved":false,"is_disabled":false,"rental_uris":{"android":"levelo://app?vid=eb35cac9-f9df-45a3-a739-c6d26aece67b","ios":"levelo://app?vid=eb35cac9-f9df-45a3-a739-c6d26aece67b"},"vehicle_type_id":"4","last_reported":1703703930,"current_range_meters":20000,"station_id":"ce4bgj92rcd13ifvqbd0","pricing_plan_id":"free"},{"bike_id":"ff1066fb-e3bb-42f4-8795-e5a83f5af98f","system_id":"levelo_inurba_marseille","lat":43.299724,"lon":5.384848,"is_reserved":false,"is_disabled":false,"rental_uris":{"android":"levelo://app?vid=ff1066fb-e3bb-42f4-8795-e5a83f5af98f","ios":"levelo://app?vid=ff1066fb-e3bb-42f4-8795-e5a83f5af98f"},"vehicle_type_id":"4","last_reported":1703703930,"current_range_meters":28800,"station_id":"ce4bgj92rcd13ifvqbd0","pricing_plan_id":"free"},{"bike_id":"84b767b9-3581-4fcc-bd0f-2f03b2938957","system_id":"levelo_inurba_marseille","lat":43.299724,"lon":5.384848,"is_reserved":false,"is_disabled":false,"rental_uris":{"android":"levelo://app?vid=84b767b9-3581-4fcc-bd0f-2f03b2938957","ios":"levelo://app?vid=84b767b9-3581-4fcc-bd0f-2f03b2938957"},"vehicle_type_id":"4","last_reported":1703703930,"current_range_meters":17200,"station_id":"ce4bgj92rcd13ifvqbd0","pricing_plan_id":"free"},{"bike_id":"453cf3fe-914f-47d7-bb0b-9e3076dc1b66","system_id":"levelo_inurba_marseille","lat":43.32368,"lon":5.38859,"is_reserved":false,"is_disabled":false,"rental_uris":{"android":"levelo://app?vid=453cf3fe-914f-47d7-bb0b-9e3076dc1b66","ios":"levelo://app?vid=453cf3fe-914f-47d7-bb0b-9e3076dc1b66"},"vehicle_type_id":"4","last_reported":1703703930,"current_range_meters":8400,"station_id":"ce4bhqp2rcd13ifvqhog","pricing_plan_id":"free"},{"bike_id":"edc571ac-79f5-429a-89f8-86fa7ab8f6ba","system_id":"levelo_inurba_marseille","lat":43.32371,"lon":5.38927,"is_reserved":false,"is_disabled":false,"rental_uris":{"android":"levelo://app?vid=edc571ac-79f5-429a-89f8-86fa7ab8f6ba","ios":"levelo://app?vid=edc571ac-79f5-429a-89f8-86fa7ab8f6ba"},"vehicle_type_id":"4","last_reported":1703703930,"current_range_meters":21200,"station_id":"ce4bhqp2rcd13ifvqhog","pricing_plan_id":"free"},{"bike_id":"57a44f6c-6b9e-4327-9c0a-c4abf91ffb8c","system_id":"levelo_inurba_marseille","lat":43.29307,"lon":5.37172,"is_reserved":false,"is_disabled":false,"rental_uris":{"android":"levelo://app?vid=57a44f6c-6b9e-4327-9c0a-c4abf91ffb8c","ios":"levelo://app?vid=57a44f6c-6b9e-4327-9c0a-c4abf91ffb8c"},"vehicle_type_id":"4","last_reported":1703703930,"current_range_meters":24800,"station_id":"ce4bgh92rcd13ifvqb40","pricing_plan_id":"free"},{"bike_id":"b9ddbc22-f162-44d6-a28d-eeb0e7687c58","system_id":"levelo_inurba_marseille","lat":43.292749,"lon":5.368402,"is_reserved":false,"is_disabled":false,"rental_uris":{"android":"levelo://app?vid=b9ddbc22-f162-44d6-a28d-eeb0e7687c58","ios":"levelo://app?vid=b9ddbc22-f162-44d6-a28d-eeb0e7687c58"},"vehicle_type_id":"4","last_reported":1703703930,"current_range_meters":22800,"station_id":"ce4bhbp2rcd13ifvqesg","pricing_plan_id":"free"},{"bike_id":"d215639b-dae3-4fff-9211-10abceb21025","system_id":"levelo_inurba_marseille","lat":43.293009,"lon":5.374584,"is_reserved":false,"is_disabled":false,"rental_uris":{"android":"levelo://app?vid=d215639b-dae3-4fff-9211-10abceb21025","ios":"levelo://app?vid=d215639b-dae3-4fff-9211-10abceb21025"},"vehicle_type_id":"4","last_reported":1703703930,"current_range_meters":25600,"station_id":"ce4bgi12rcd13ifvqb70","pricing_plan_id":"free"},{"bike_id":"fa298e4b-a3b3-4907-9fdd-302f6b059a2b","system_id":"levelo_inurba_marseille","lat":43.293009,"lon":5.374584,"is_reserved":false,"is_disabled":false,"rental_uris":{"android":"levelo://app?vid=fa298e4b-a3b3-4907-9fdd-302f6b059a2b","ios":"levelo://app?vid=fa298e4b-a3b3-4907-9fdd-302f6b059a2b"},"vehicle_type_id":"4","last_reported":1703703930,"current_range_meters":14000,"station_id":"ce4bgi12rcd13ifvqb70","pricing_plan_id":"free"},{"bike_id":"95ba2800-f4fa-462a-85c0-a32f00444888","system_id":"levelo_inurba_marseille","lat":43.303002,"lon":5.392142,"is_reserved":false,"is_disabled":false,"rental_uris":{"android":"levelo://app?vid=95ba2800-f4fa-462a-85c0-a32f00444888","ios":"levelo://app?vid=95ba2800-f4fa-462a-85c0-a32f00444888"},"vehicle_type_id":"4","last_reported":1703703930,"current_range_meters":16800,"station_id":"ce4bgkh2rcd13ifvqbk0","pricing_plan_id":"free"},{"bike_id":"f8962755-9eef-4cfe-a49f-96a2aa803f16","system_id":"levelo_inurba_marseille","lat":43.302992,"lon":5.392136,"is_reserved":false,"is_disabled":false,"rental_uris":{"android":"levelo://app?vid=f8962755-9eef-4cfe-a49f-96a2aa803f16","ios":"levelo://app?vid=f8962755-9eef-4cfe-a49f-96a2aa803f16"},"vehicle_type_id":"4","last_reported":1703703930,"current_range_meters":21200,"station_id":"ce4bgkh2rcd13ifvqbk0","pricing_plan_id":"free"},{"bike_id":"c39fa576-d098-4f9c-a37d-f545e85250af","system_id":"levelo_inurba_marseille","lat":43.2936,"lon":5.37835,"is_reserved":false,"is_disabled":false,"rental_uris":{"android":"levelo://app?vid=c39fa576-d098-4f9c-a37d-f545e85250af","ios":"levelo://app?vid=c39fa576-d098-4f9c-a37d-f545e85250af"},"vehicle_type_id":"4","last_reported":1703703930,"current_range_meters":15200,"station_id":"ce4bgjh2rcd13ifvqbf0","pricing_plan_id":"free"},{"bike_id":"ba0cc5db-a6d9-4374-b49d-a88ddd2871d1","system_id":"levelo_inurba_marseille","lat":43.30085,"lon":5.390856,"is_reserved":false,"is_disabled":false,"rental_uris":{"android":"levelo://app?vid=ba0cc5db-a6d9-4374-b49d-a88ddd2871d1","ios":"levelo://app?vid=ba0cc5db-a6d9-4374-b49d-a88ddd2871d1"},"vehicle_type_id":"4","last_reported":1703703930,"current_range_meters":28000,"station_id":"ce4bh192rcd13ifvqdb0","pricing_plan_id":"free"},{"bike_id":"47e88b8b-7d01-4bf7-92fc-fa9e88040351","system_id":"levelo_inurba_marseille","lat":43.30092,"lon":5.3908,"is_reserved":false,"is_disabled":false,"rental_uris":{"android":"levelo://app?vid=47e88b8b-7d01-4bf7-92fc-fa9e88040351","ios":"levelo://app?vid=47e88b8b-7d01-4bf7-92fc-fa9e88040351"},"vehicle_type_id":"4","last_reported":1703703930,"current_range_meters":14000,"station_id":"ce4bh192rcd13ifvqdb0","pricing_plan_id":"free"},{"bike_id":"c1db25f5-5d61-4b4c-92f6-80715b1de172","system_id":"levelo_inurba_marseille","lat":43.292774,"lon":5.376322,"is_reserved":false,"is_disabled":false,"rental_uris":{"android":"levelo://app?vid=c1db25f5-5d61-4b4c-92f6-80715b1de172","ios":"levelo://app?vid=c1db25f5-5d61-4b4c-92f6-80715b1de172"},"vehicle_type_id":"4","last_reported":1703703930,"current_range_meters":27600,"station_id":"","pricing_plan_id":"free"},{"bike_id":"f3083e9a-ba1c-4edd-983b-dabab85dee34","system_id":"levelo_inurba_marseille","lat":43.2987,"lon":5.38908,"is_reserved":false,"is_disabled":false,"rental_uris":{"android":"levelo://app?vid=f3083e9a-ba1c-4edd-983b-dabab85dee34","ios":"levelo://app?vid=f3083e9a-ba1c-4edd-983b-dabab85dee34"},"vehicle_type_id":"4","last_reported":1703703930,"current_range_meters":21200,"station_id":"","pricing_plan_id":"free"},{"bike_id":"d9dfd10e-3a9b-4338-a925-71bff3a65fb9","system_id":"levelo_inurba_marseille","lat":43.291671,"lon":5.371575,"is_reserved":false,"is_disabled":false,"rental_uris":{"android":"levelo://app?vid=d9dfd10e-3a9b-4338-a925-71bff3a65fb9","ios":"levelo://app?vid=d9dfd10e-3a9b-4338-a925-71bff3a65fb9"},"vehicle_type_id":"4","last_reported":1703703930,"current_range_meters":24800,"station_id":"ce4bha92rcd13ifvqeh0","pricing_plan_id":"free"},{"bike_id":"720d0f6f-488a-42c1-9474-6ae9fe306587","system_id":"levelo_inurba_marseille","lat":43.291994,"lon":5.357886,"is_reserved":false,"is_disabled":false,"rental_uris":{"android":"levelo://app?vid=720d0f6f-488a-42c1-9474-6ae9fe306587","ios":"levelo://app?vid=720d0f6f-488a-42c1-9474-6ae9fe306587"},"vehicle_type_id":"4","last_reported":1703703930,"current_range_meters":19200,"station_id":"ce4bhb12rcd13ifvqel0","pricing_plan_id":"free"},{"bike_id":"3638b74a-1caa-4ca1-b48b-1c396d2ec16c","system_id":"levelo_inurba_marseille","lat":43.313291,"lon":5.396838,"is_reserved":false,"is_disabled":false,"rental_uris":{"android":"levelo://app?vid=3638b74a-1caa-4ca1-b48b-1c396d2ec16c","ios":"levelo://app?vid=3638b74a-1caa-4ca1-b48b-1c396d2ec16c"},"vehicle_type_id":"4","last_reported":1703703930,"current_range_meters":20400,"station_id":"ce4bgvp2rcd13ifvqcu0","pricing_plan_id":"free"},{"bike_id":"1655b3f6-739b-4bda-bea9-43d350764295","system_id":"levelo_inurba_marseille","lat":43.309038,"lon":5.396546,"is_reserved":false,"is_disabled":false,"rental_uris":{"android":"levelo://app?vid=1655b3f6-739b-4bda-bea9-43d350764295","ios":"levelo://app?vid=1655b3f6-739b-4bda-bea9-43d350764295"},"vehicle_type_id":"4","last_reported":1703703930,"current_range_meters":22400,"station_id":"ce4bh012rcd13ifvqcv0","pricing_plan_id":"free"},{"bike_id":"521e7d95-69af-4ef7-9693-a65cd4631573","system_id":"levelo_inurba_marseille","lat":43.309038,"lon":5.396546,"is_reserved":false,"is_disabled":false,"rental_uris":{"android":"levelo://app?vid=521e7d95-69af-4ef7-9693-a65cd4631573","ios":"levelo://app?vid=521e7d95-69af-4ef7-9693-a65cd4631573"},"vehicle_type_id":"4","last_reported":1703703930,"current_range_meters":31200,"station_id":"ce4bh012rcd13ifvqcv0","pricing_plan_id":"free"},{"bike_id":"34bccc16-38a2-446c-9843-987386085215","system_id":"levelo_inurba_marseille","lat":43.313291,"lon":5.396838,"is_reserved":false,"is_disabled":false,"rental_uris":{"android":"levelo://app?vid=34bccc16-38a2-446c-9843-987386085215","ios":"levelo://app?vid=34bccc16-38a2-446c-9843-987386085215"},"vehicle_type_id":"4","last_reported":1703703930,"current_range_meters":12800,"station_id":"ce4bgvp2rcd13ifvqcu0","pricing_plan_id":"free"},{"bike_id":"112da1fe-586a-46ed-973b-78e71111aaac","system_id":"levelo_inurba_marseille","lat":43.313291,"lon":5.396838,"is_reserved":false,"is_disabled":false,"rental_uris":{"android":"levelo://app?vid=112da1fe-586a-46ed-973b-78e71111aaac","ios":"levelo://app?vid=112da1fe-586a-46ed-973b-78e71111aaac"},"vehicle_type_id":"4","last_reported":1703703930,"current_range_meters":14400,"station_id":"ce4bgvp2rcd13ifvqcu0","pricing_plan_id":"free"},{"bike_id":"bfae5e17-dd11-4e64-bd2e-5ae732ed4fdc","system_id":"levelo_inurba_marseille","lat":43.309038,"lon":5.396546,"is_reserved":false,"is_disabled":false,"rental_uris":{"android":"levelo://app?vid=bfae5e17-dd11-4e64-bd2e-5ae732ed4fdc","ios":"levelo://app?vid=bfae5e17-dd11-4e64-bd2e-5ae732ed4fdc"},"vehicle_type_id":"4","last_reported":1703703930,"current_range_meters":25200,"station_id":"ce4bh012rcd13ifvqcv0","pricing_plan_id":"free"},{"bike_id":"8658ef6f-32ee-4aa6-8a3c-9e4140d64bd6","system_id":"levelo_inurba_marseille","lat":43.313291,"lon":5.396838,"is_reserved":false,"is_disabled":false,"rental_uris":{"android":"levelo://app?vid=8658ef6f-32ee-4aa6-8a3c-9e4140d64bd6","ios":"levelo://app?vid=8658ef6f-32ee-4aa6-8a3c-9e4140d64bd6"},"vehicle_type_id":"4","last_reported":1703703930,"current_range_meters":15200,"station_id":"ce4bgvp2rcd13ifvqcu0","pricing_plan_id":"free"},{"bike_id":"9259255d-5fda-4d03-9814-c2d65e12bb51","system_id":"levelo_inurba_marseille","lat":43.309047,"lon":5.396551,"is_reserved":false,"is_disabled":false,"rental_uris":{"android":"levelo://app?vid=9259255d-5fda-4d03-9814-c2d65e12bb51","ios":"levelo://app?vid=9259255d-5fda-4d03-9814-c2d65e12bb51"},"vehicle_type_id":"4","last_reported":1703703930,"current_range_meters":25600,"station_id":"ce4bh012rcd13ifvqcv0","pricing_plan_id":"free"},{"bike_id":"d67c2606-bbb5-4f4c-9aca-446c44da9109","system_id":"levelo_inurba_marseille","lat":43.309038,"lon":5.396546,"is_reserved":false,"is_disabled":false,"rental_uris":{"android":"levelo://app?vid=d67c2606-bbb5-4f4c-9aca-446c44da9109","ios":"levelo://app?vid=d67c2606-bbb5-4f4c-9aca-446c44da9109"},"vehicle_type_id":"4","last_reported":1703703930,"current_range_meters":8400,"station_id":"ce4bh012rcd13ifvqcv0","pricing_plan_id":"free"},{"bike_id":"bececbb2-f7b3-4dab-9188-3a4401906e83","system_id":"levelo_inurba_marseille","lat":43.309038,"lon":5.396546,"is_reserved":false,"is_disabled":false,"rental_uris":{"android":"levelo://app?vid=bececbb2-f7b3-4dab-9188-3a4401906e83","ios":"levelo://app?vid=bececbb2-f7b3-4dab-9188-3a4401906e83"},"vehicle_type_id":"4","last_reported":1703703930,"current_range_meters":22400,"station_id":"ce4bh012rcd13ifvqcv0","pricing_plan_id":"free"},{"bike_id":"5e380dff-385e-49c4-884e-a2f67a5462b6","system_id":"levelo_inurba_marseille","lat":43.309038,"lon":5.396546,"is_reserved":false,"is_disabled":false,"rental_uris":{"android":"levelo://app?vid=5e380dff-385e-49c4-884e-a2f67a5462b6","ios":"levelo://app?vid=5e380dff-385e-49c4-884e-a2f67a5462b6"},"vehicle_type_id":"4","last_reported":1703703930,"current_range_meters":10400,"station_id":"ce4bh012rcd13ifvqcv0","pricing_plan_id":"free"},{"bike_id":"38710ace-d041-4d02-a8eb-bf7c4827f230","system_id":"levelo_inurba_marseille","lat":43.309047,"lon":5.396551,"is_reserved":false,"is_disabled":false,"rental_uris":{"android":"levelo://app?vid=38710ace-d041-4d02-a8eb-bf7c4827f230","ios":"levelo://app?vid=38710ace-d041-4d02-a8eb-bf7c4827f230"},"vehicle_type_id":"4","last_reported":1703703930,"current_range_meters":7600,"station_id":"ce4bh012rcd13ifvqcv0","pricing_plan_id":"free"},{"bike_id":"5efd3574-baa2-481f-97dc-7238c3062c8b","system_id":"levelo_inurba_marseille","lat":43.29529,"lon":5.385581,"is_reserved":false,"is_disabled":false,"rental_uris":{"android":"levelo://app?vid=5efd3574-baa2-481f-97dc-7238c3062c8b","ios":"levelo://app?vid=5efd3574-baa2-481f-97dc-7238c3062c8b"},"vehicle_type_id":"4","last_reported":1703703930,"current_range_meters":28800,"station_id":"ce4bgih2rcd13ifvqba0","pricing_plan_id":"free"},{"bike_id":"e02c278a-0d02-4799-9d33-9947327e1698","system_id":"levelo_inurba_marseille","lat":43.29529,"lon":5.385581,"is_reserved":false,"is_disabled":false,"rental_uris":{"android":"levelo://app?vid=e02c278a-0d02-4799-9d33-9947327e1698","ios":"levelo://app?vid=e02c278a-0d02-4799-9d33-9947327e1698"},"vehicle_type_id":"4","last_reported":1703703930,"current_range_meters":25200,"station_id":"ce4bgih2rcd13ifvqba0","pricing_plan_id":"free"},{"bike_id":"57e9791f-a6df-4848-a1d2-106e904458b5","system_id":"levelo_inurba_marseille","lat":43.30218,"lon":5.39471,"is_reserved":false,"is_disabled":false,"rental_uris":{"android":"levelo://app?vid=57e9791f-a6df-4848-a1d2-106e904458b5","ios":"levelo://app?vid=57e9791f-a6df-4848-a1d2-106e904458b5"},"vehicle_type_id":"4","last_reported":1703703930,"current_range_meters":1200,"station_id":"ce4bh0p2rcd13ifvqd70","pricing_plan_id":"free"},{"bike_id":"b5b7d182-c641-436e-b699-54e5e018d879","system_id":"levelo_inurba_marseille","lat":43.294153,"lon":5.386305,"is_reserved":false,"is_disabled":false,"rental_uris":{"android":"levelo://app?vid=b5b7d182-c641-436e-b699-54e5e018d879","ios":"levelo://app?vid=b5b7d182-c641-436e-b699-54e5e018d879"},"vehicle_type_id":"4","last_reported":1703703930,"current_range_meters":26000,"station_id":"ce4bh2h2rcd13ifvqdh0","pricing_plan_id":"free"},{"bike_id":"ec8c8f7d-ea23-45cb-9b55-30c42448a423","system_id":"levelo_inurba_marseille","lat":43.294162,"lon":5.386292,"is_reserved":false,"is_disabled":false,"rental_uris":{"android":"levelo://app?vid=ec8c8f7d-ea23-45cb-9b55-30c42448a423","ios":"levelo://app?vid=ec8c8f7d-ea23-45cb-9b55-30c42448a423"},"vehicle_type_id":"4","last_reported":1703703930,"current_range_meters":26000,"station_id":"ce4bh2h2rcd13ifvqdh0","pricing_plan_id":"free"},{"bike_id":"185ec4c3-0ac3-43e0-944f-be8b1d6ea95c","system_id":"levelo_inurba_marseille","lat":43.294162,"lon":5.386292,"is_reserved":false,"is_disabled":false,"rental_uris":{"android":"levelo://app?vid=185ec4c3-0ac3-43e0-944f-be8b1d6ea95c","ios":"levelo://app?vid=185ec4c3-0ac3-43e0-944f-be8b1d6ea95c"},"vehicle_type_id":"4","last_reported":1703703930,"current_range_meters":18400,"station_id":"ce4bh2h2rcd13ifvqdh0","pricing_plan_id":"free"},{"bike_id":"6baacb77-1a0a-48f7-9778-7ea30268c4c2","system_id":"levelo_inurba_marseille","lat":43.289184,"lon":5.366408,"is_reserved":false,"is_disabled":false,"rental_uris":{"android":"levelo://app?vid=6baacb77-1a0a-48f7-9778-7ea30268c4c2","ios":"levelo://app?vid=6baacb77-1a0a-48f7-9778-7ea30268c4c2"},"vehicle_type_id":"4","last_reported":1703703930,"current_range_meters":25200,"station_id":"ce4bhap2rcd13ifvqek0","pricing_plan_id":"free"},{"bike_id":"7050f572-d064-40a3-9ec0-2740371fff5a","system_id":"levelo_inurba_marseille","lat":43.290327,"lon":5.375711,"is_reserved":false,"is_disabled":false,"rental_uris":{"android":"levelo://app?vid=7050f572-d064-40a3-9ec0-2740371fff5a","ios":"levelo://app?vid=7050f572-d064-40a3-9ec0-2740371fff5a"},"vehicle_type_id":"4","last_reported":1703703930,"current_range_meters":30800,"station_id":"ce4bh692rcd13ifvqe90","pricing_plan_id":"free"},{"bike_id":"8e0b9243-0acf-4819-a971-a0d06504b564","system_id":"levelo_inurba_marseille","lat":43.289184,"lon":5.366408,"is_reserved":false,"is_disabled":false,"rental_uris":{"android":"levelo://app?vid=8e0b9243-0acf-4819-a971-a0d06504b564","ios":"levelo://app?vid=8e0b9243-0acf-4819-a971-a0d06504b564"},"vehicle_type_id":"4","last_reported":1703703930,"current_range_meters":28800,"station_id":"ce4bhap2rcd13ifvqek0","pricing_plan_id":"free"},{"bike_id":"67fb3db9-920a-4f6b-9829-3690fc75cd29","system_id":"levelo_inurba_marseille","lat":43.289184,"lon":5.366408,"is_reserved":false,"is_disabled":false,"rental_uris":{"android":"levelo://app?vid=67fb3db9-920a-4f6b-9829-3690fc75cd29","ios":"levelo://app?vid=67fb3db9-920a-4f6b-9829-3690fc75cd29"},"vehicle_type_id":"4","last_reported":1703703930,"current_range_meters":16400,"station_id":"ce4bhap2rcd13ifvqek0","pricing_plan_id":"free"},{"bike_id":"891fbcc7-14ee-4b0a-8c93-3559ffddb62c","system_id":"levelo_inurba_marseille","lat":43.289184,"lon":5.366408,"is_reserved":false,"is_disabled":false,"rental_uris":{"android":"levelo://app?vid=891fbcc7-14ee-4b0a-8c93-3559ffddb62c","ios":"levelo://app?vid=891fbcc7-14ee-4b0a-8c93-3559ffddb62c"},"vehicle_type_id":"4","last_reported":1703703930,"current_range_meters":20000,"station_id":"ce4bhap2rcd13ifvqek0","pricing_plan_id":"free"},{"bike_id":"ee254a7b-25ab-4f4c-9cfc-b3a0f845c158","system_id":"levelo_inurba_marseille","lat":43.292644,"lon":5.384257,"is_reserved":false,"is_disabled":false,"rental_uris":{"android":"levelo://app?vid=ee254a7b-25ab-4f4c-9cfc-b3a0f845c158","ios":"levelo://app?vid=ee254a7b-25ab-4f4c-9cfc-b3a0f845c158"},"vehicle_type_id":"4","last_reported":1703703930,"current_range_meters":14400,"station_id":"ce4bh692rcd13ifvqea0","pricing_plan_id":"free"},{"bike_id":"23ed6948-e9bc-487f-b232-d1d034d601b3","system_id":"levelo_inurba_marseille","lat":43.292642,"lon":5.384254,"is_reserved":false,"is_disabled":false,"rental_uris":{"android":"levelo://app?vid=23ed6948-e9bc-487f-b232-d1d034d601b3","ios":"levelo://app?vid=23ed6948-e9bc-487f-b232-d1d034d601b3"},"vehicle_type_id":"4","last_reported":1703703930,"current_range_meters":1200,"station_id":"ce4bh692rcd13ifvqea0","pricing_plan_id":"free"},{"bike_id":"9c0cf985-3321-4673-a64f-61c2f282af55","system_id":"levelo_inurba_marseille","lat":43.292644,"lon":5.384257,"is_reserved":false,"is_disabled":false,"rental_uris":{"android":"levelo://app?vid=9c0cf985-3321-4673-a64f-61c2f282af55","ios":"levelo://app?vid=9c0cf985-3321-4673-a64f-61c2f282af55"},"vehicle_type_id":"4","last_reported":1703703930,"current_range_meters":3600,"station_id":"ce4bh692rcd13ifvqea0","pricing_plan_id":"free"},{"bike_id":"502a9fd3-a299-437c-829c-ba89d9f9ca07","system_id":"levelo_inurba_marseille","lat":43.292644,"lon":5.384257,"is_reserved":false,"is_disabled":false,"rental_uris":{"android":"levelo://app?vid=502a9fd3-a299-437c-829c-ba89d9f9ca07","ios":"levelo://app?vid=502a9fd3-a299-437c-829c-ba89d9f9ca07"},"vehicle_type_id":"4","last_reported":1703703930,"current_range_meters":4000,"station_id":"ce4bh692rcd13ifvqea0","pricing_plan_id":"free"},{"bike_id":"ba9ff484-22c9-4de9-9832-2d07c68350a3","system_id":"levelo_inurba_marseille","lat":43.292628,"lon":5.384444,"is_reserved":false,"is_disabled":false,"rental_uris":{"android":"levelo://app?vid=ba9ff484-22c9-4de9-9832-2d07c68350a3","ios":"levelo://app?vid=ba9ff484-22c9-4de9-9832-2d07c68350a3"},"vehicle_type_id":"4","last_reported":1703703930,"current_range_meters":6000,"station_id":"ce4bh3p2rcd13ifvqdq0","pricing_plan_id":"free"},{"bike_id":"08d517e0-a032-441e-99a4-3e3c4647e724","system_id":"levelo_inurba_marseille","lat":43.292644,"lon":5.384257,"is_reserved":false,"is_disabled":false,"rental_uris":{"android":"levelo://app?vid=08d517e0-a032-441e-99a4-3e3c4647e724","ios":"levelo://app?vid=08d517e0-a032-441e-99a4-3e3c4647e724"},"vehicle_type_id":"4","last_reported":1703703930,"current_range_meters":18000,"station_id":"ce4bh692rcd13ifvqea0","pricing_plan_id":"free"},{"bike_id":"174db35d-4ce7-46e3-9d16-3166cc92efe8","system_id":"levelo_inurba_marseille","lat":43.292642,"lon":5.384254,"is_reserved":false,"is_disabled":false,"rental_uris":{"android":"levelo://app?vid=174db35d-4ce7-46e3-9d16-3166cc92efe8","ios":"levelo://app?vid=174db35d-4ce7-46e3-9d16-3166cc92efe8"},"vehicle_type_id":"4","last_reported":1703703930,"current_range_meters":12400,"station_id":"ce4bh692rcd13ifvqea0","pricing_plan_id":"free"},{"bike_id":"9cd7d95a-1b82-46cd-ace5-999bfab63fc2","system_id":"levelo_inurba_marseille","lat":43.292642,"lon":5.384254,"is_reserved":false,"is_disabled":false,"rental_uris":{"android":"levelo://app?vid=9cd7d95a-1b82-46cd-ace5-999bfab63fc2","ios":"levelo://app?vid=9cd7d95a-1b82-46cd-ace5-999bfab63fc2"},"vehicle_type_id":"4","last_reported":1703703930,"current_range_meters":17600,"station_id":"ce4bh692rcd13ifvqea0","pricing_plan_id":"free"},{"bike_id":"f829c62c-042e-45dd-a680-df1635936c7c","system_id":"levelo_inurba_marseille","lat":43.292642,"lon":5.384254,"is_reserved":false,"is_disabled":false,"rental_uris":{"android":"levelo://app?vid=f829c62c-042e-45dd-a680-df1635936c7c","ios":"levelo://app?vid=f829c62c-042e-45dd-a680-df1635936c7c"},"vehicle_type_id":"4","last_reported":1703703930,"current_range_meters":2000,"station_id":"ce4bh692rcd13ifvqea0","pricing_plan_id":"free"},{"bike_id":"eb0edfe4-4296-4b7d-92aa-b5792ebcf302","system_id":"levelo_inurba_marseille","lat":43.292644,"lon":5.384257,"is_reserved":false,"is_disabled":false,"rental_uris":{"android":"levelo://app?vid=eb0edfe4-4296-4b7d-92aa-b5792ebcf302","ios":"levelo://app?vid=eb0edfe4-4296-4b7d-92aa-b5792ebcf302"},"vehicle_type_id":"4","last_reported":1703703930,"current_range_meters":22800,"station_id":"ce4bh692rcd13ifvqea0","pricing_plan_id":"free"},{"bike_id":"d1506cba-c917-4a93-a3ae-55ea0764e8d2","system_id":"levelo_inurba_marseille","lat":43.292642,"lon":5.384254,"is_reserved":false,"is_disabled":false,"rental_uris":{"android":"levelo://app?vid=d1506cba-c917-4a93-a3ae-55ea0764e8d2","ios":"levelo://app?vid=d1506cba-c917-4a93-a3ae-55ea0764e8d2"},"vehicle_type_id":"4","last_reported":1703703930,"current_range_meters":24400,"station_id":"ce4bh692rcd13ifvqea0","pricing_plan_id":"free"},{"bike_id":"35f4bc45-4aa6-4eef-8e37-5d8046fc502c","system_id":"levelo_inurba_marseille","lat":43.29006,"lon":5.35608,"is_reserved":false,"is_disabled":false,"rental_uris":{"android":"levelo://app?vid=35f4bc45-4aa6-4eef-8e37-5d8046fc502c","ios":"levelo://app?vid=35f4bc45-4aa6-4eef-8e37-5d8046fc502c"},"vehicle_type_id":"4","last_reported":1703703930,"current_range_meters":9600,"station_id":"","pricing_plan_id":"free"},{"bike_id":"787efe3d-9cd2-4623-9f2f-04afcfb4c8fc","system_id":"levelo_inurba_marseille","lat":43.290103,"lon":5.356114,"is_reserved":false,"is_disabled":false,"rental_uris":{"android":"levelo://app?vid=787efe3d-9cd2-4623-9f2f-04afcfb4c8fc","ios":"levelo://app?vid=787efe3d-9cd2-4623-9f2f-04afcfb4c8fc"},"vehicle_type_id":"4","last_reported":1703703930,"current_range_meters":30000,"station_id":"ce4bhb92rcd13ifvqen0","pricing_plan_id":"free"},{"bike_id":"707d7799-f870-412c-b821-c75454bd0f01","system_id":"levelo_inurba_marseille","lat":43.290995,"lon":5.381361,"is_reserved":false,"is_disabled":false,"rental_uris":{"android":"levelo://app?vid=707d7799-f870-412c-b821-c75454bd0f01","ios":"levelo://app?vid=707d7799-f870-412c-b821-c75454bd0f01"},"vehicle_type_id":"4","last_reported":1703703930,"current_range_meters":24800,"station_id":"ce4bh512rcd13ifvqe2g","pricing_plan_id":"free"},{"bike_id":"18bf0ed2-bf10-4a1c-a5a7-bf34b243aac2","system_id":"levelo_inurba_marseille","lat":43.290995,"lon":5.381361,"is_reserved":false,"is_disabled":false,"rental_uris":{"android":"levelo://app?vid=18bf0ed2-bf10-4a1c-a5a7-bf34b243aac2","ios":"levelo://app?vid=18bf0ed2-bf10-4a1c-a5a7-bf34b243aac2"},"vehicle_type_id":"4","last_reported":1703703930,"current_range_meters":16000,"station_id":"ce4bh512rcd13ifvqe2g","pricing_plan_id":"free"},{"bike_id":"a758bfe2-5275-4a6c-8ea2-c7bb601fa023","system_id":"levelo_inurba_marseille","lat":43.295169,"lon":5.390426,"is_reserved":false,"is_disabled":false,"rental_uris":{"android":"levelo://app?vid=a758bfe2-5275-4a6c-8ea2-c7bb601fa023","ios":"levelo://app?vid=a758bfe2-5275-4a6c-8ea2-c7bb601fa023"},"vehicle_type_id":"4","last_reported":1703703930,"current_range_meters":22400,"station_id":"ce4bh3p2rcd13ifvqdp0","pricing_plan_id":"free"},{"bike_id":"96d5cae3-5d70-47c8-bac2-7cd21e0aac9b","system_id":"levelo_inurba_marseille","lat":43.295169,"lon":5.390426,"is_reserved":false,"is_disabled":false,"rental_uris":{"android":"levelo://app?vid=96d5cae3-5d70-47c8-bac2-7cd21e0aac9b","ios":"levelo://app?vid=96d5cae3-5d70-47c8-bac2-7cd21e0aac9b"},"vehicle_type_id":"4","last_reported":1703703930,"current_range_meters":15200,"station_id":"ce4bh3p2rcd13ifvqdp0","pricing_plan_id":"free"},{"bike_id":"495faf64-a935-4c6e-b77f-2b296d14493a","system_id":"levelo_inurba_marseille","lat":43.331017,"lon":5.389194,"is_reserved":false,"is_disabled":false,"rental_uris":{"android":"levelo://app?vid=495faf64-a935-4c6e-b77f-2b296d14493a","ios":"levelo://app?vid=495faf64-a935-4c6e-b77f-2b296d14493a"},"vehicle_type_id":"4","last_reported":1703703930,"current_range_meters":15600,"station_id":"","pricing_plan_id":"free"},{"bike_id":"9bd27428-3b4b-449d-beff-46f780a43010","system_id":"levelo_inurba_marseille","lat":43.295169,"lon":5.390426,"is_reserved":false,"is_disabled":false,"rental_uris":{"android":"levelo://app?vid=9bd27428-3b4b-449d-beff-46f780a43010","ios":"levelo://app?vid=9bd27428-3b4b-449d-beff-46f780a43010"},"vehicle_type_id":"4","last_reported":1703703930,"current_range_meters":18800,"station_id":"ce4bh3p2rcd13ifvqdp0","pricing_plan_id":"free"},{"bike_id":"da82727f-5090-4dcc-9a39-e49701b0afae","system_id":"levelo_inurba_marseille","lat":43.330442,"lon":5.389148,"is_reserved":false,"is_disabled":false,"rental_uris":{"android":"levelo://app?vid=da82727f-5090-4dcc-9a39-e49701b0afae","ios":"levelo://app?vid=da82727f-5090-4dcc-9a39-e49701b0afae"},"vehicle_type_id":"4","last_reported":1703703930,"current_range_meters":17200,"station_id":"ce4bhr92rcd13ifvqhrg","pricing_plan_id":"free"},{"bike_id":"c48171cf-da19-45b6-830e-0435ef30970e","system_id":"levelo_inurba_marseille","lat":43.295169,"lon":5.390426,"is_reserved":false,"is_disabled":false,"rental_uris":{"android":"levelo://app?vid=c48171cf-da19-45b6-830e-0435ef30970e","ios":"levelo://app?vid=c48171cf-da19-45b6-830e-0435ef30970e"},"vehicle_type_id":"4","last_reported":1703703930,"current_range_meters":20800,"station_id":"ce4bh3p2rcd13ifvqdp0","pricing_plan_id":"free"},{"bike_id":"837e4840-f9f0-42f2-896f-fa90e31fab8a","system_id":"levelo_inurba_marseille","lat":43.330442,"lon":5.389148,"is_reserved":false,"is_disabled":false,"rental_uris":{"android":"levelo://app?vid=837e4840-f9f0-42f2-896f-fa90e31fab8a","ios":"levelo://app?vid=837e4840-f9f0-42f2-896f-fa90e31fab8a"},"vehicle_type_id":"4","last_reported":1703703930,"current_range_meters":25600,"station_id":"ce4bhr92rcd13ifvqhrg","pricing_plan_id":"free"},{"bike_id":"ca13b9d4-b4b9-4599-b62c-35f970a8ea9c","system_id":"levelo_inurba_marseille","lat":43.295169,"lon":5.390426,"is_reserved":false,"is_disabled":false,"rental_uris":{"android":"levelo://app?vid=ca13b9d4-b4b9-4599-b62c-35f970a8ea9c","ios":"levelo://app?vid=ca13b9d4-b4b9-4599-b62c-35f970a8ea9c"},"vehicle_type_id":"4","last_reported":1703703930,"current_range_meters":4400,"station_id":"ce4bh3p2rcd13ifvqdp0","pricing_plan_id":"free"},{"bike_id":"dd4a0017-9abf-4e41-9047-e8902a455822","system_id":"levelo_inurba_marseille","lat":43.295169,"lon":5.390426,"is_reserved":false,"is_disabled":false,"rental_uris":{"android":"levelo://app?vid=dd4a0017-9abf-4e41-9047-e8902a455822","ios":"levelo://app?vid=dd4a0017-9abf-4e41-9047-e8902a455822"},"vehicle_type_id":"4","last_reported":1703703930,"current_range_meters":18000,"station_id":"ce4bh3p2rcd13ifvqdp0","pricing_plan_id":"free"},{"bike_id":"4cadeb6a-f64d-4503-abd4-279b525cb523","system_id":"levelo_inurba_marseille","lat":43.2901,"lon":5.381269,"is_reserved":false,"is_disabled":false,"rental_uris":{"android":"levelo://app?vid=4cadeb6a-f64d-4503-abd4-279b525cb523","ios":"levelo://app?vid=4cadeb6a-f64d-4503-abd4-279b525cb523"},"vehicle_type_id":"4","last_reported":1703703930,"current_range_meters":28400,"station_id":"ce4bh4p2rcd13ifvqe1g","pricing_plan_id":"free"},{"bike_id":"370cccf7-c9ba-46c2-819b-c8e8cacc4c21","system_id":"levelo_inurba_marseille","lat":43.33145,"lon":5.3893,"is_reserved":false,"is_disabled":false,"rental_uris":{"android":"levelo://app?vid=370cccf7-c9ba-46c2-819b-c8e8cacc4c21","ios":"levelo://app?vid=370cccf7-c9ba-46c2-819b-c8e8cacc4c21"},"vehicle_type_id":"4","last_reported":1703703930,"current_range_meters":18000,"station_id":"","pricing_plan_id":"free"},{"bike_id":"40e9356e-584a-486e-8c1c-53048506797d","system_id":"levelo_inurba_marseille","lat":43.2901,"lon":5.381269,"is_reserved":false,"is_disabled":false,"rental_uris":{"android":"levelo://app?vid=40e9356e-584a-486e-8c1c-53048506797d","ios":"levelo://app?vid=40e9356e-584a-486e-8c1c-53048506797d"},"vehicle_type_id":"4","last_reported":1703703930,"current_range_meters":8800,"station_id":"ce4bh4p2rcd13ifvqe1g","pricing_plan_id":"free"},{"bike_id":"a12c73af-5e25-4daf-8f3a-172002907596","system_id":"levelo_inurba_marseille","lat":43.28856,"lon":5.358371,"is_reserved":false,"is_disabled":false,"rental_uris":{"android":"levelo://app?vid=a12c73af-5e25-4daf-8f3a-172002907596","ios":"levelo://app?vid=a12c73af-5e25-4daf-8f3a-172002907596"},"vehicle_type_id":"4","last_reported":1703703930,"current_range_meters":29200,"station_id":"ce4bhb12rcd13ifvqem0","pricing_plan_id":"free"},{"bike_id":"a2c8a716-53c8-4933-829e-57151c8e31bc","system_id":"levelo_inurba_marseille","lat":43.28856,"lon":5.358371,"is_reserved":false,"is_disabled":false,"rental_uris":{"android":"levelo://app?vid=a2c8a716-53c8-4933-829e-57151c8e31bc","ios":"levelo://app?vid=a2c8a716-53c8-4933-829e-57151c8e31bc"},"vehicle_type_id":"4","last_reported":1703703930,"current_range_meters":12000,"station_id":"ce4bhb12rcd13ifvqem0","pricing_plan_id":"free"},{"bike_id":"45e9d267-5c57-452e-993a-c6c7fa826b87","system_id":"levelo_inurba_marseille","lat":43.337353,"lon":5.374557,"is_reserved":false,"is_disabled":false,"rental_uris":{"android":"levelo://app?vid=45e9d267-5c57-452e-993a-c6c7fa826b87","ios":"levelo://app?vid=45e9d267-5c57-452e-993a-c6c7fa826b87"},"vehicle_type_id":"4","last_reported":1703703930,"current_range_meters":29600,"station_id":"","pricing_plan_id":"free"},{"bike_id":"9b2544c3-9ad9-4b24-9de2-91356dc59bab","system_id":"levelo_inurba_marseille","lat":43.312609,"lon":5.401662,"is_reserved":false,"is_disabled":false,"rental_uris":{"android":"levelo://app?vid=9b2544c3-9ad9-4b24-9de2-91356dc59bab","ios":"levelo://app?vid=9b2544c3-9ad9-4b24-9de2-91356dc59bab"},"vehicle_type_id":"4","last_reported":1703703930,"current_range_meters":15600,"station_id":"ce4bh092rcd13ifvqd30","pricing_plan_id":"free"},{"bike_id":"2b5bc9eb-e70d-4b4a-9aa3-83e1efe10e1a","system_id":"levelo_inurba_marseille","lat":43.312609,"lon":5.401662,"is_reserved":false,"is_disabled":false,"rental_uris":{"android":"levelo://app?vid=2b5bc9eb-e70d-4b4a-9aa3-83e1efe10e1a","ios":"levelo://app?vid=2b5bc9eb-e70d-4b4a-9aa3-83e1efe10e1a"},"vehicle_type_id":"4","last_reported":1703703930,"current_range_meters":20800,"station_id":"ce4bh092rcd13ifvqd30","pricing_plan_id":"free"},{"bike_id":"8377a6ff-7967-4ee3-9bea-c05beea571bc","system_id":"levelo_inurba_marseille","lat":43.30642,"lon":5.401031,"is_reserved":false,"is_disabled":false,"rental_uris":{"android":"levelo://app?vid=8377a6ff-7967-4ee3-9bea-c05beea571bc","ios":"levelo://app?vid=8377a6ff-7967-4ee3-9bea-c05beea571bc"},"vehicle_type_id":"4","last_reported":1703703930,"current_range_meters":29600,"station_id":"ce4bh112rcd13ifvqda0","pricing_plan_id":"free"},{"bike_id":"af6c9ffd-9a8e-4472-aa9e-9defbbf871d4","system_id":"levelo_inurba_marseille","lat":43.306412,"lon":5.401035,"is_reserved":false,"is_disabled":false,"rental_uris":{"android":"levelo://app?vid=af6c9ffd-9a8e-4472-aa9e-9defbbf871d4","ios":"levelo://app?vid=af6c9ffd-9a8e-4472-aa9e-9defbbf871d4"},"vehicle_type_id":"4","last_reported":1703703930,"current_range_meters":3200,"station_id":"ce4bh112rcd13ifvqda0","pricing_plan_id":"free"},{"bike_id":"70057516-6579-4c80-beac-7a2722dbff3c","system_id":"levelo_inurba_marseille","lat":43.306412,"lon":5.401035,"is_reserved":false,"is_disabled":false,"rental_uris":{"android":"levelo://app?vid=70057516-6579-4c80-beac-7a2722dbff3c","ios":"levelo://app?vid=70057516-6579-4c80-beac-7a2722dbff3c"},"vehicle_type_id":"4","last_reported":1703703930,"current_range_meters":20000,"station_id":"ce4bh112rcd13ifvqda0","pricing_plan_id":"free"},{"bike_id":"92b05522-0d0d-4404-b04d-0bb134e4ec52","system_id":"levelo_inurba_marseille","lat":43.3065,"lon":5.40102,"is_reserved":false,"is_disabled":false,"rental_uris":{"android":"levelo://app?vid=92b05522-0d0d-4404-b04d-0bb134e4ec52","ios":"levelo://app?vid=92b05522-0d0d-4404-b04d-0bb134e4ec52"},"vehicle_type_id":"4","last_reported":1703703930,"current_range_meters":20000,"station_id":"ce4bh112rcd13ifvqda0","pricing_plan_id":"free"},{"bike_id":"1ebe3585-3a31-489e-8a39-27762bafd95a","system_id":"levelo_inurba_marseille","lat":43.3013,"lon":5.39866,"is_reserved":false,"is_disabled":false,"rental_uris":{"android":"levelo://app?vid=1ebe3585-3a31-489e-8a39-27762bafd95a","ios":"levelo://app?vid=1ebe3585-3a31-489e-8a39-27762bafd95a"},"vehicle_type_id":"4","last_reported":1703703930,"current_range_meters":0,"station_id":"ce4bh0h2rcd13ifvqd40","pricing_plan_id":"free"},{"bike_id":"32b830ac-5c3e-445d-a176-6415962c4b28","system_id":"levelo_inurba_marseille","lat":43.28727,"lon":5.36078,"is_reserved":false,"is_disabled":false,"rental_uris":{"android":"levelo://app?vid=32b830ac-5c3e-445d-a176-6415962c4b28","ios":"levelo://app?vid=32b830ac-5c3e-445d-a176-6415962c4b28"},"vehicle_type_id":"4","last_reported":1703703930,"current_range_meters":28000,"station_id":"cki0cbj6b192h4jlfktg","pricing_plan_id":"free"},{"bike_id":"395b4c6b-2846-48f8-adf3-a7b6e4defa20","system_id":"levelo_inurba_marseille","lat":43.28727,"lon":5.36078,"is_reserved":false,"is_disabled":false,"rental_uris":{"android":"levelo://app?vid=395b4c6b-2846-48f8-adf3-a7b6e4defa20","ios":"levelo://app?vid=395b4c6b-2846-48f8-adf3-a7b6e4defa20"},"vehicle_type_id":"4","last_reported":1703703930,"current_range_meters":30400,"station_id":"cki0cbj6b192h4jlfktg","pricing_plan_id":"free"},{"bike_id":"acf0acff-577b-49b8-a004-401f4a72e069","system_id":"levelo_inurba_marseille","lat":43.286591,"lon":5.363346,"is_reserved":false,"is_disabled":false,"rental_uris":{"android":"levelo://app?vid=acf0acff-577b-49b8-a004-401f4a72e069","ios":"levelo://app?vid=acf0acff-577b-49b8-a004-401f4a72e069"},"vehicle_type_id":"4","last_reported":1703703930,"current_range_meters":28800,"station_id":"ce4bhah2rcd13ifvqej0","pricing_plan_id":"free"},{"bike_id":"6cf1d3fb-8a4a-4b8b-9408-2cb074240003","system_id":"levelo_inurba_marseille","lat":43.290336,"lon":5.386425,"is_reserved":false,"is_disabled":false,"rental_uris":{"android":"levelo://app?vid=6cf1d3fb-8a4a-4b8b-9408-2cb074240003","ios":"levelo://app?vid=6cf1d3fb-8a4a-4b8b-9408-2cb074240003"},"vehicle_type_id":"4","last_reported":1703703930,"current_range_meters":21200,"station_id":"ce4bh4p2rcd13ifvqe0g","pricing_plan_id":"free"},{"bike_id":"bc21a361-92b0-45ad-803e-cb79dcaa1935","system_id":"levelo_inurba_marseille","lat":43.289307,"lon":5.38406,"is_reserved":false,"is_disabled":false,"rental_uris":{"android":"levelo://app?vid=bc21a361-92b0-45ad-803e-cb79dcaa1935","ios":"levelo://app?vid=bc21a361-92b0-45ad-803e-cb79dcaa1935"},"vehicle_type_id":"4","last_reported":1703703930,"current_range_meters":18000,"station_id":"ce4bh612rcd13ifvqe6g","pricing_plan_id":"free"},{"bike_id":"6002a6bf-62bd-4d84-bb26-3390cc28981d","system_id":"levelo_inurba_marseille","lat":43.290336,"lon":5.386425,"is_reserved":false,"is_disabled":false,"rental_uris":{"android":"levelo://app?vid=6002a6bf-62bd-4d84-bb26-3390cc28981d","ios":"levelo://app?vid=6002a6bf-62bd-4d84-bb26-3390cc28981d"},"vehicle_type_id":"4","last_reported":1703703930,"current_range_meters":16800,"station_id":"ce4bh4p2rcd13ifvqe0g","pricing_plan_id":"free"},{"bike_id":"2bac057d-1c07-4af3-9297-c045aa2c8756","system_id":"levelo_inurba_marseille","lat":43.290336,"lon":5.386425,"is_reserved":false,"is_disabled":false,"rental_uris":{"android":"levelo://app?vid=2bac057d-1c07-4af3-9297-c045aa2c8756","ios":"levelo://app?vid=2bac057d-1c07-4af3-9297-c045aa2c8756"},"vehicle_type_id":"4","last_reported":1703703930,"current_range_meters":18000,"station_id":"ce4bh4p2rcd13ifvqe0g","pricing_plan_id":"free"},{"bike_id":"efc82c61-eb44-44a1-9e87-e11b34865ec8","system_id":"levelo_inurba_marseille","lat":43.290345,"lon":5.38646,"is_reserved":false,"is_disabled":false,"rental_uris":{"android":"levelo://app?vid=efc82c61-eb44-44a1-9e87-e11b34865ec8","ios":"levelo://app?vid=efc82c61-eb44-44a1-9e87-e11b34865ec8"},"vehicle_type_id":"4","last_reported":1703703930,"current_range_meters":7200,"station_id":"ce4bh4p2rcd13ifvqe0g","pricing_plan_id":"free"},{"bike_id":"6eac4fb1-2e39-4019-83c3-b414927d94dd","system_id":"levelo_inurba_marseille","lat":43.286039,"lon":5.370681,"is_reserved":false,"is_disabled":false,"rental_uris":{"android":"levelo://app?vid=6eac4fb1-2e39-4019-83c3-b414927d94dd","ios":"levelo://app?vid=6eac4fb1-2e39-4019-83c3-b414927d94dd"},"vehicle_type_id":"4","last_reported":1703703930,"current_range_meters":26000,"station_id":"ce4bht12rcd13ifvqi60","pricing_plan_id":"free"},{"bike_id":"38d8412b-e1eb-44d4-a17e-b0db5dad2402","system_id":"levelo_inurba_marseille","lat":43.286039,"lon":5.370679,"is_reserved":false,"is_disabled":false,"rental_uris":{"android":"levelo://app?vid=38d8412b-e1eb-44d4-a17e-b0db5dad2402","ios":"levelo://app?vid=38d8412b-e1eb-44d4-a17e-b0db5dad2402"},"vehicle_type_id":"4","last_reported":1703703930,"current_range_meters":31200,"station_id":"ce4bht12rcd13ifvqi60","pricing_plan_id":"free"},{"bike_id":"0a417a43-5140-4a33-9aaa-064c6134ebe4","system_id":"levelo_inurba_marseille","lat":43.286039,"lon":5.370679,"is_reserved":false,"is_disabled":false,"rental_uris":{"android":"levelo://app?vid=0a417a43-5140-4a33-9aaa-064c6134ebe4","ios":"levelo://app?vid=0a417a43-5140-4a33-9aaa-064c6134ebe4"},"vehicle_type_id":"4","last_reported":1703703930,"current_range_meters":31200,"station_id":"ce4bht12rcd13ifvqi60","pricing_plan_id":"free"},{"bike_id":"4692a5b3-492e-4a6f-9e7e-7f2fae58ddd0","system_id":"levelo_inurba_marseille","lat":43.286039,"lon":5.370681,"is_reserved":false,"is_disabled":false,"rental_uris":{"android":"levelo://app?vid=4692a5b3-492e-4a6f-9e7e-7f2fae58ddd0","ios":"levelo://app?vid=4692a5b3-492e-4a6f-9e7e-7f2fae58ddd0"},"vehicle_type_id":"4","last_reported":1703703930,"current_range_meters":10800,"station_id":"ce4bht12rcd13ifvqi60","pricing_plan_id":"free"},{"bike_id":"2e41ddd3-5539-4fd4-91cb-2b475651dfd9","system_id":"levelo_inurba_marseille","lat":43.286039,"lon":5.370679,"is_reserved":false,"is_disabled":false,"rental_uris":{"android":"levelo://app?vid=2e41ddd3-5539-4fd4-91cb-2b475651dfd9","ios":"levelo://app?vid=2e41ddd3-5539-4fd4-91cb-2b475651dfd9"},"vehicle_type_id":"4","last_reported":1703703930,"current_range_meters":400,"station_id":"ce4bht12rcd13ifvqi60","pricing_plan_id":"free"},{"bike_id":"b7fdfbba-e7df-4062-8e1b-fcfbf27ddd1c","system_id":"levelo_inurba_marseille","lat":43.286039,"lon":5.370679,"is_reserved":false,"is_disabled":false,"rental_uris":{"android":"levelo://app?vid=b7fdfbba-e7df-4062-8e1b-fcfbf27ddd1c","ios":"levelo://app?vid=b7fdfbba-e7df-4062-8e1b-fcfbf27ddd1c"},"vehicle_type_id":"4","last_reported":1703703930,"current_range_meters":22800,"station_id":"ce4bht12rcd13ifvqi60","pricing_plan_id":"free"},{"bike_id":"2894883c-b0bb-453e-b4a5-f945273e5dfa","system_id":"levelo_inurba_marseille","lat":43.286039,"lon":5.370681,"is_reserved":false,"is_disabled":false,"rental_uris":{"android":"levelo://app?vid=2894883c-b0bb-453e-b4a5-f945273e5dfa","ios":"levelo://app?vid=2894883c-b0bb-453e-b4a5-f945273e5dfa"},"vehicle_type_id":"4","last_reported":1703703930,"current_range_meters":16000,"station_id":"ce4bht12rcd13ifvqi60","pricing_plan_id":"free"},{"bike_id":"5ca28f22-e835-4044-9c28-43a41a6d8445","system_id":"levelo_inurba_marseille","lat":43.28724,"lon":5.37942,"is_reserved":false,"is_disabled":false,"rental_uris":{"android":"levelo://app?vid=5ca28f22-e835-4044-9c28-43a41a6d8445","ios":"levelo://app?vid=5ca28f22-e835-4044-9c28-43a41a6d8445"},"vehicle_type_id":"4","last_reported":1703703930,"current_range_meters":29200,"station_id":"ce4bh9p2rcd13ifvqec0","pricing_plan_id":"free"},{"bike_id":"eb6936fb-2b7b-4075-a57d-7be19a3ee0cc","system_id":"levelo_inurba_marseille","lat":43.287185,"lon":5.379373,"is_reserved":false,"is_disabled":false,"rental_uris":{"android":"levelo://app?vid=eb6936fb-2b7b-4075-a57d-7be19a3ee0cc","ios":"levelo://app?vid=eb6936fb-2b7b-4075-a57d-7be19a3ee0cc"},"vehicle_type_id":"4","last_reported":1703703930,"current_range_meters":21600,"station_id":"ce4bh9p2rcd13ifvqec0","pricing_plan_id":"free"},{"bike_id":"fd19a3c1-03c5-4481-995c-2951824ee659","system_id":"levelo_inurba_marseille","lat":43.287185,"lon":5.379373,"is_reserved":false,"is_disabled":false,"rental_uris":{"android":"levelo://app?vid=fd19a3c1-03c5-4481-995c-2951824ee659","ios":"levelo://app?vid=fd19a3c1-03c5-4481-995c-2951824ee659"},"vehicle_type_id":"4","last_reported":1703703930,"current_range_meters":30800,"station_id":"ce4bh9p2rcd13ifvqec0","pricing_plan_id":"free"},{"bike_id":"e598060c-2d2d-4197-b46a-9cacdd9b6de0","system_id":"levelo_inurba_marseille","lat":43.316828,"lon":5.404723,"is_reserved":false,"is_disabled":false,"rental_uris":{"android":"levelo://app?vid=e598060c-2d2d-4197-b46a-9cacdd9b6de0","ios":"levelo://app?vid=e598060c-2d2d-4197-b46a-9cacdd9b6de0"},"vehicle_type_id":"4","last_reported":1703703930,"current_range_meters":12800,"station_id":"ce4bh012rcd13ifvqd00","pricing_plan_id":"free"},{"bike_id":"f3f324a1-1def-4f04-9868-ca6c5fef7ec2","system_id":"levelo_inurba_marseille","lat":43.291994,"lon":5.392907,"is_reserved":false,"is_disabled":false,"rental_uris":{"android":"levelo://app?vid=f3f324a1-1def-4f04-9868-ca6c5fef7ec2","ios":"levelo://app?vid=f3f324a1-1def-4f04-9868-ca6c5fef7ec2"},"vehicle_type_id":"4","last_reported":1703703930,"current_range_meters":24800,"station_id":"ce4bh192rcd13ifvqdd0","pricing_plan_id":"free"},{"bike_id":"e2adfa7c-882e-48a1-9ee4-b36e6186ebbf","system_id":"levelo_inurba_marseille","lat":43.330912,"lon":5.396935,"is_reserved":false,"is_disabled":false,"rental_uris":{"android":"levelo://app?vid=e2adfa7c-882e-48a1-9ee4-b36e6186ebbf","ios":"levelo://app?vid=e2adfa7c-882e-48a1-9ee4-b36e6186ebbf"},"vehicle_type_id":"4","last_reported":1703703930,"current_range_meters":0,"station_id":"","pricing_plan_id":"free"},{"bike_id":"9faf3b86-fd8d-4e0b-bedc-2691735709ac","system_id":"levelo_inurba_marseille","lat":43.28463,"lon":5.35886,"is_reserved":false,"is_disabled":false,"rental_uris":{"android":"levelo://app?vid=9faf3b86-fd8d-4e0b-bedc-2691735709ac","ios":"levelo://app?vid=9faf3b86-fd8d-4e0b-bedc-2691735709ac"},"vehicle_type_id":"4","last_reported":1703703930,"current_range_meters":17200,"station_id":"ce4bhah2rcd13ifvqei0","pricing_plan_id":"free"},{"bike_id":"64c1efa8-e669-4a8e-a8ad-ff71042f697c","system_id":"levelo_inurba_marseille","lat":43.28457,"lon":5.35893,"is_reserved":false,"is_disabled":false,"rental_uris":{"android":"levelo://app?vid=64c1efa8-e669-4a8e-a8ad-ff71042f697c","ios":"levelo://app?vid=64c1efa8-e669-4a8e-a8ad-ff71042f697c"},"vehicle_type_id":"4","last_reported":1703703930,"current_range_meters":14800,"station_id":"ce4bhah2rcd13ifvqei0","pricing_plan_id":"free"},{"bike_id":"0a92c87e-7335-4a2f-a73a-795ba19eeba0","system_id":"levelo_inurba_marseille","lat":43.28457,"lon":5.3589,"is_reserved":false,"is_disabled":false,"rental_uris":{"android":"levelo://app?vid=0a92c87e-7335-4a2f-a73a-795ba19eeba0","ios":"levelo://app?vid=0a92c87e-7335-4a2f-a73a-795ba19eeba0"},"vehicle_type_id":"4","last_reported":1703703930,"current_range_meters":12800,"station_id":"ce4bhah2rcd13ifvqei0","pricing_plan_id":"free"},{"bike_id":"1f8f97ba-1204-46f8-90a5-63d556e17797","system_id":"levelo_inurba_marseille","lat":43.284534,"lon":5.358662,"is_reserved":false,"is_disabled":false,"rental_uris":{"android":"levelo://app?vid=1f8f97ba-1204-46f8-90a5-63d556e17797","ios":"levelo://app?vid=1f8f97ba-1204-46f8-90a5-63d556e17797"},"vehicle_type_id":"4","last_reported":1703703930,"current_range_meters":30400,"station_id":"ce4bhah2rcd13ifvqei0","pricing_plan_id":"free"},{"bike_id":"d7969ba6-7f9b-434b-a6d1-4356015e812d","system_id":"levelo_inurba_marseille","lat":43.28455,"lon":5.35899,"is_reserved":false,"is_disabled":false,"rental_uris":{"android":"levelo://app?vid=d7969ba6-7f9b-434b-a6d1-4356015e812d","ios":"levelo://app?vid=d7969ba6-7f9b-434b-a6d1-4356015e812d"},"vehicle_type_id":"4","last_reported":1703703930,"current_range_meters":21200,"station_id":"ce4bhah2rcd13ifvqei0","pricing_plan_id":"free"},{"bike_id":"4cbcdfa0-0384-462c-8599-2a72400c5252","system_id":"levelo_inurba_marseille","lat":43.284554,"lon":5.358835,"is_reserved":false,"is_disabled":false,"rental_uris":{"android":"levelo://app?vid=4cbcdfa0-0384-462c-8599-2a72400c5252","ios":"levelo://app?vid=4cbcdfa0-0384-462c-8599-2a72400c5252"},"vehicle_type_id":"4","last_reported":1703703930,"current_range_meters":30800,"station_id":"ce4bhah2rcd13ifvqei0","pricing_plan_id":"free"},{"bike_id":"92c65f2f-fd71-4c2b-9b84-0f1a1b0d5d10","system_id":"levelo_inurba_marseille","lat":43.28453,"lon":5.35898,"is_reserved":false,"is_disabled":false,"rental_uris":{"android":"levelo://app?vid=92c65f2f-fd71-4c2b-9b84-0f1a1b0d5d10","ios":"levelo://app?vid=92c65f2f-fd71-4c2b-9b84-0f1a1b0d5d10"},"vehicle_type_id":"4","last_reported":1703703930,"current_range_meters":12800,"station_id":"ce4bhah2rcd13ifvqei0","pricing_plan_id":"free"},{"bike_id":"653cc390-f554-4b40-b516-481d3cf5e380","system_id":"levelo_inurba_marseille","lat":43.285856,"lon":5.350771,"is_reserved":false,"is_disabled":false,"rental_uris":{"android":"levelo://app?vid=653cc390-f554-4b40-b516-481d3cf5e380","ios":"levelo://app?vid=653cc390-f554-4b40-b516-481d3cf5e380"},"vehicle_type_id":"4","last_reported":1703703930,"current_range_meters":13600,"station_id":"ce4bhch2rcd13ifvqeug","pricing_plan_id":"free"},{"bike_id":"0edd4ab1-21ac-455f-974a-ef70fa29950a","system_id":"levelo_inurba_marseille","lat":43.285856,"lon":5.350771,"is_reserved":false,"is_disabled":false,"rental_uris":{"android":"levelo://app?vid=0edd4ab1-21ac-455f-974a-ef70fa29950a","ios":"levelo://app?vid=0edd4ab1-21ac-455f-974a-ef70fa29950a"},"vehicle_type_id":"4","last_reported":1703703930,"current_range_meters":14800,"station_id":"ce4bhch2rcd13ifvqeug","pricing_plan_id":"free"},{"bike_id":"763c03af-98f9-4e23-aebb-73d79f30f8e9","system_id":"levelo_inurba_marseille","lat":43.283998,"lon":5.375062,"is_reserved":false,"is_disabled":false,"rental_uris":{"android":"levelo://app?vid=763c03af-98f9-4e23-aebb-73d79f30f8e9","ios":"levelo://app?vid=763c03af-98f9-4e23-aebb-73d79f30f8e9"},"vehicle_type_id":"4","last_reported":1703703930,"current_range_meters":13600,"station_id":"ce4bh412rcd13ifvqds0","pricing_plan_id":"free"},{"bike_id":"0316090b-c9d7-4467-915a-295b044fbfee","system_id":"levelo_inurba_marseille","lat":43.283998,"lon":5.375062,"is_reserved":false,"is_disabled":false,"rental_uris":{"android":"levelo://app?vid=0316090b-c9d7-4467-915a-295b044fbfee","ios":"levelo://app?vid=0316090b-c9d7-4467-915a-295b044fbfee"},"vehicle_type_id":"4","last_reported":1703703930,"current_range_meters":30800,"station_id":"ce4bh412rcd13ifvqds0","pricing_plan_id":"free"},{"bike_id":"d7bea775-b801-4a8d-a719-34d127f24d01","system_id":"levelo_inurba_marseille","lat":43.283998,"lon":5.375062,"is_reserved":false,"is_disabled":false,"rental_uris":{"android":"levelo://app?vid=d7bea775-b801-4a8d-a719-34d127f24d01","ios":"levelo://app?vid=d7bea775-b801-4a8d-a719-34d127f24d01"},"vehicle_type_id":"4","last_reported":1703703930,"current_range_meters":16800,"station_id":"ce4bh412rcd13ifvqds0","pricing_plan_id":"free"},{"bike_id":"48667880-3f3e-4360-a6f9-282b68fed078","system_id":"levelo_inurba_marseille","lat":43.283998,"lon":5.375062,"is_reserved":false,"is_disabled":false,"rental_uris":{"android":"levelo://app?vid=48667880-3f3e-4360-a6f9-282b68fed078","ios":"levelo://app?vid=48667880-3f3e-4360-a6f9-282b68fed078"},"vehicle_type_id":"4","last_reported":1703703930,"current_range_meters":12400,"station_id":"ce4bh412rcd13ifvqds0","pricing_plan_id":"free"},{"bike_id":"806541bc-2cba-453a-b41d-7a4ed285d140","system_id":"levelo_inurba_marseille","lat":43.295713,"lon":5.399639,"is_reserved":false,"is_disabled":false,"rental_uris":{"android":"levelo://app?vid=806541bc-2cba-453a-b41d-7a4ed285d140","ios":"levelo://app?vid=806541bc-2cba-453a-b41d-7a4ed285d140"},"vehicle_type_id":"4","last_reported":1703703930,"current_range_meters":23200,"station_id":"ce4bh312rcd13ifvqdj0","pricing_plan_id":"free"},{"bike_id":"ae2f357c-4238-4cda-9468-d094446d0d46","system_id":"levelo_inurba_marseille","lat":43.28409,"lon":5.37522,"is_reserved":false,"is_disabled":false,"rental_uris":{"android":"levelo://app?vid=ae2f357c-4238-4cda-9468-d094446d0d46","ios":"levelo://app?vid=ae2f357c-4238-4cda-9468-d094446d0d46"},"vehicle_type_id":"4","last_reported":1703703930,"current_range_meters":0,"station_id":"ce4bh412rcd13ifvqds0","pricing_plan_id":"free"},{"bike_id":"cdb63b9a-d087-4bcc-9202-4f3862241a13","system_id":"levelo_inurba_marseille","lat":43.284076,"lon":5.375205,"is_reserved":false,"is_disabled":false,"rental_uris":{"android":"levelo://app?vid=cdb63b9a-d087-4bcc-9202-4f3862241a13","ios":"levelo://app?vid=cdb63b9a-d087-4bcc-9202-4f3862241a13"},"vehicle_type_id":"4","last_reported":1703703930,"current_range_meters":30800,"station_id":"ce4bh412rcd13ifvqds0","pricing_plan_id":"free"},{"bike_id":"de6753ab-644d-475c-8824-79af688fbfb2","system_id":"levelo_inurba_marseille","lat":43.283998,"lon":5.375062,"is_reserved":false,"is_disabled":false,"rental_uris":{"android":"levelo://app?vid=de6753ab-644d-475c-8824-79af688fbfb2","ios":"levelo://app?vid=de6753ab-644d-475c-8824-79af688fbfb2"},"vehicle_type_id":"4","last_reported":1703703930,"current_range_meters":8800,"station_id":"ce4bh412rcd13ifvqds0","pricing_plan_id":"free"},{"bike_id":"3826199f-0e7e-4cba-9e2a-0d83c3e88a76","system_id":"levelo_inurba_marseille","lat":43.28401,"lon":5.37524,"is_reserved":false,"is_disabled":false,"rental_uris":{"android":"levelo://app?vid=3826199f-0e7e-4cba-9e2a-0d83c3e88a76","ios":"levelo://app?vid=3826199f-0e7e-4cba-9e2a-0d83c3e88a76"},"vehicle_type_id":"4","last_reported":1703703930,"current_range_meters":23200,"station_id":"ce4bh412rcd13ifvqds0","pricing_plan_id":"free"},{"bike_id":"31fbc055-acde-40cd-85ee-878a6309003f","system_id":"levelo_inurba_marseille","lat":43.319179,"lon":5.407725,"is_reserved":false,"is_disabled":false,"rental_uris":{"android":"levelo://app?vid=31fbc055-acde-40cd-85ee-878a6309003f","ios":"levelo://app?vid=31fbc055-acde-40cd-85ee-878a6309003f"},"vehicle_type_id":"4","last_reported":1703703930,"current_range_meters":16000,"station_id":"ce4bhq12rcd13ifvqhig","pricing_plan_id":"free"},{"bike_id":"c56fa5c4-bd28-4d63-a8a5-ae1a58f0c655","system_id":"levelo_inurba_marseille","lat":43.28741,"lon":5.38986,"is_reserved":false,"is_disabled":false,"rental_uris":{"android":"levelo://app?vid=c56fa5c4-bd28-4d63-a8a5-ae1a58f0c655","ios":"levelo://app?vid=c56fa5c4-bd28-4d63-a8a5-ae1a58f0c655"},"vehicle_type_id":"4","last_reported":1703703930,"current_range_meters":2000,"station_id":"","pricing_plan_id":"free"},{"bike_id":"49b1c88b-18f4-45e6-8539-960a1d0da850","system_id":"levelo_inurba_marseille","lat":43.33717,"lon":5.391857,"is_reserved":false,"is_disabled":false,"rental_uris":{"android":"levelo://app?vid=49b1c88b-18f4-45e6-8539-960a1d0da850","ios":"levelo://app?vid=49b1c88b-18f4-45e6-8539-960a1d0da850"},"vehicle_type_id":"4","last_reported":1703703930,"current_range_meters":28800,"station_id":"ce4bhr92rcd13ifvqhsg","pricing_plan_id":"free"},{"bike_id":"381844c3-e025-4ad4-8b5b-45e3143ae1c8","system_id":"levelo_inurba_marseille","lat":43.323464,"lon":5.406297,"is_reserved":false,"is_disabled":false,"rental_uris":{"android":"levelo://app?vid=381844c3-e025-4ad4-8b5b-45e3143ae1c8","ios":"levelo://app?vid=381844c3-e025-4ad4-8b5b-45e3143ae1c8"},"vehicle_type_id":"4","last_reported":1703703930,"current_range_meters":15600,"station_id":"ce4bhq92rcd13ifvqhjg","pricing_plan_id":"free"},{"bike_id":"ca34c6b2-7439-4d61-ad3b-f8346696ab97","system_id":"levelo_inurba_marseille","lat":43.284793,"lon":5.384119,"is_reserved":false,"is_disabled":false,"rental_uris":{"android":"levelo://app?vid=ca34c6b2-7439-4d61-ad3b-f8346696ab97","ios":"levelo://app?vid=ca34c6b2-7439-4d61-ad3b-f8346696ab97"},"vehicle_type_id":"4","last_reported":1703703930,"current_range_meters":10400,"station_id":"ce4bh512rcd13ifvqe3g","pricing_plan_id":"free"},{"bike_id":"ca0512c0-7664-460e-b55a-e8b3856954eb","system_id":"levelo_inurba_marseille","lat":43.288497,"lon":5.393089,"is_reserved":false,"is_disabled":false,"rental_uris":{"android":"levelo://app?vid=ca0512c0-7664-460e-b55a-e8b3856954eb","ios":"levelo://app?vid=ca0512c0-7664-460e-b55a-e8b3856954eb"},"vehicle_type_id":"4","last_reported":1703703930,"current_range_meters":16800,"station_id":"ce4bh2p2rcd13ifvqdi0","pricing_plan_id":"free"},{"bike_id":"db409e8d-b5f7-42b2-9ea5-5ce1a96baa17","system_id":"levelo_inurba_marseille","lat":43.29795,"lon":5.404086,"is_reserved":false,"is_disabled":false,"rental_uris":{"android":"levelo://app?vid=db409e8d-b5f7-42b2-9ea5-5ce1a96baa17","ios":"levelo://app?vid=db409e8d-b5f7-42b2-9ea5-5ce1a96baa17"},"vehicle_type_id":"4","last_reported":1703703930,"current_range_meters":30400,"station_id":"ce4bh112rcd13ifvqd90","pricing_plan_id":"free"},{"bike_id":"1f38d37a-4e92-4776-b9d1-4bd0fe6fd251","system_id":"levelo_inurba_marseille","lat":43.283494,"lon":5.380945,"is_reserved":false,"is_disabled":false,"rental_uris":{"android":"levelo://app?vid=1f38d37a-4e92-4776-b9d1-4bd0fe6fd251","ios":"levelo://app?vid=1f38d37a-4e92-4776-b9d1-4bd0fe6fd251"},"vehicle_type_id":"4","last_reported":1703703930,"current_range_meters":27600,"station_id":"ce4bh412rcd13ifvqdr0","pricing_plan_id":"free"},{"bike_id":"239bca15-95f7-4332-a07b-f2813c4ccbfc","system_id":"levelo_inurba_marseille","lat":43.283494,"lon":5.380945,"is_reserved":false,"is_disabled":false,"rental_uris":{"android":"levelo://app?vid=239bca15-95f7-4332-a07b-f2813c4ccbfc","ios":"levelo://app?vid=239bca15-95f7-4332-a07b-f2813c4ccbfc"},"vehicle_type_id":"4","last_reported":1703703930,"current_range_meters":12000,"station_id":"ce4bh412rcd13ifvqdr0","pricing_plan_id":"free"},{"bike_id":"e1b37242-1d16-4173-bb93-b5c1ae6d3471","system_id":"levelo_inurba_marseille","lat":43.283498,"lon":5.380948,"is_reserved":false,"is_disabled":false,"rental_uris":{"android":"levelo://app?vid=e1b37242-1d16-4173-bb93-b5c1ae6d3471","ios":"levelo://app?vid=e1b37242-1d16-4173-bb93-b5c1ae6d3471"},"vehicle_type_id":"4","last_reported":1703703930,"current_range_meters":24400,"station_id":"ce4bh412rcd13ifvqdr0","pricing_plan_id":"free"},{"bike_id":"e485450b-2736-4f4c-b94b-0da5a69b88aa","system_id":"levelo_inurba_marseille","lat":43.33385,"lon":5.39822,"is_reserved":false,"is_disabled":false,"rental_uris":{"android":"levelo://app?vid=e485450b-2736-4f4c-b94b-0da5a69b88aa","ios":"levelo://app?vid=e485450b-2736-4f4c-b94b-0da5a69b88aa"},"vehicle_type_id":"4","last_reported":1703703930,"current_range_meters":17600,"station_id":"","pricing_plan_id":"free"},{"bike_id":"c86e4308-3704-4028-9799-a4600c5c0f71","system_id":"levelo_inurba_marseille","lat":43.284219,"lon":5.3497,"is_reserved":false,"is_disabled":false,"rental_uris":{"android":"levelo://app?vid=c86e4308-3704-4028-9799-a4600c5c0f71","ios":"levelo://app?vid=c86e4308-3704-4028-9799-a4600c5c0f71"},"vehicle_type_id":"4","last_reported":1703703930,"current_range_meters":15200,"station_id":"ce4bhbh2rcd13ifvqepg","pricing_plan_id":"free"},{"bike_id":"00d3df29-2635-4b7c-ad21-f86b8c57380b","system_id":"levelo_inurba_marseille","lat":43.284217,"lon":5.349697,"is_reserved":false,"is_disabled":false,"rental_uris":{"android":"levelo://app?vid=00d3df29-2635-4b7c-ad21-f86b8c57380b","ios":"levelo://app?vid=00d3df29-2635-4b7c-ad21-f86b8c57380b"},"vehicle_type_id":"4","last_reported":1703703930,"current_range_meters":30000,"station_id":"ce4bhbh2rcd13ifvqepg","pricing_plan_id":"free"},{"bike_id":"dd29f9c2-bd10-4318-8101-b6d5f92f56b1","system_id":"levelo_inurba_marseille","lat":43.292724,"lon":5.401131,"is_reserved":false,"is_disabled":false,"rental_uris":{"android":"levelo://app?vid=dd29f9c2-bd10-4318-8101-b6d5f92f56b1","ios":"levelo://app?vid=dd29f9c2-bd10-4318-8101-b6d5f92f56b1"},"vehicle_type_id":"4","last_reported":1703703930,"current_range_meters":25200,"station_id":"ce4bh312rcd13ifvqdk0","pricing_plan_id":"free"},{"bike_id":"884a441e-9181-46e0-9fc3-41a4f9ed3362","system_id":"levelo_inurba_marseille","lat":43.280382,"lon":5.369291,"is_reserved":false,"is_disabled":false,"rental_uris":{"android":"levelo://app?vid=884a441e-9181-46e0-9fc3-41a4f9ed3362","ios":"levelo://app?vid=884a441e-9181-46e0-9fc3-41a4f9ed3362"},"vehicle_type_id":"4","last_reported":1703703930,"current_range_meters":30000,"station_id":"ce4bha12rcd13ifvqef0","pricing_plan_id":"free"},{"bike_id":"f54f96a5-cbf4-4fba-9a9c-902bb99b4eef","system_id":"levelo_inurba_marseille","lat":43.28039,"lon":5.369297,"is_reserved":false,"is_disabled":false,"rental_uris":{"android":"levelo://app?vid=f54f96a5-cbf4-4fba-9a9c-902bb99b4eef","ios":"levelo://app?vid=f54f96a5-cbf4-4fba-9a9c-902bb99b4eef"},"vehicle_type_id":"4","last_reported":1703703930,"current_range_meters":29200,"station_id":"ce4bha12rcd13ifvqef0","pricing_plan_id":"free"},{"bike_id":"d60802d6-4f47-444a-b234-883690eec05b","system_id":"levelo_inurba_marseille","lat":43.3361,"lon":5.39831,"is_reserved":false,"is_disabled":false,"rental_uris":{"android":"levelo://app?vid=d60802d6-4f47-444a-b234-883690eec05b","ios":"levelo://app?vid=d60802d6-4f47-444a-b234-883690eec05b"},"vehicle_type_id":"4","last_reported":1703703930,"current_range_meters":31200,"station_id":"","pricing_plan_id":"free"},{"bike_id":"4df77bba-7e9f-4b6a-9f9f-d629c8ebb266","system_id":"levelo_inurba_marseille","lat":43.284462,"lon":5.392121,"is_reserved":false,"is_disabled":false,"rental_uris":{"android":"levelo://app?vid=4df77bba-7e9f-4b6a-9f9f-d629c8ebb266","ios":"levelo://app?vid=4df77bba-7e9f-4b6a-9f9f-d629c8ebb266"},"vehicle_type_id":"4","last_reported":1703703930,"current_range_meters":13200,"station_id":"ce4bhoh2rcd13ifvqh5g","pricing_plan_id":"free"},{"bike_id":"9d278055-7e28-4d03-9ecb-8bae8ec1a728","system_id":"levelo_inurba_marseille","lat":43.284462,"lon":5.392121,"is_reserved":false,"is_disabled":false,"rental_uris":{"android":"levelo://app?vid=9d278055-7e28-4d03-9ecb-8bae8ec1a728","ios":"levelo://app?vid=9d278055-7e28-4d03-9ecb-8bae8ec1a728"},"vehicle_type_id":"4","last_reported":1703703930,"current_range_meters":18400,"station_id":"ce4bhoh2rcd13ifvqh5g","pricing_plan_id":"free"},{"bike_id":"696c181d-79fb-4121-a07e-54c2bf344a88","system_id":"levelo_inurba_marseille","lat":43.28573,"lon":5.394992,"is_reserved":false,"is_disabled":false,"rental_uris":{"android":"levelo://app?vid=696c181d-79fb-4121-a07e-54c2bf344a88","ios":"levelo://app?vid=696c181d-79fb-4121-a07e-54c2bf344a88"},"vehicle_type_id":"4","last_reported":1703703930,"current_range_meters":24800,"station_id":"ce4bh292rcd13ifvqdg0","pricing_plan_id":"free"},{"bike_id":"14de7076-d876-4e09-b880-b5f95b5ddf51","system_id":"levelo_inurba_marseille","lat":43.285742,"lon":5.395004,"is_reserved":false,"is_disabled":false,"rental_uris":{"android":"levelo://app?vid=14de7076-d876-4e09-b880-b5f95b5ddf51","ios":"levelo://app?vid=14de7076-d876-4e09-b880-b5f95b5ddf51"},"vehicle_type_id":"4","last_reported":1703703930,"current_range_meters":25600,"station_id":"ce4bh292rcd13ifvqdg0","pricing_plan_id":"free"},{"bike_id":"50f5f9f1-88bd-4e16-9dd2-87d1d8a558fa","system_id":"levelo_inurba_marseille","lat":43.326605,"lon":5.409903,"is_reserved":false,"is_disabled":false,"rental_uris":{"android":"levelo://app?vid=50f5f9f1-88bd-4e16-9dd2-87d1d8a558fa","ios":"levelo://app?vid=50f5f9f1-88bd-4e16-9dd2-87d1d8a558fa"},"vehicle_type_id":"4","last_reported":1703703930,"current_range_meters":28000,"station_id":"ce4bhpp2rcd13ifvqhgg","pricing_plan_id":"free"},{"bike_id":"c9d73eed-5888-4e39-be0e-da9a3b48d0b3","system_id":"levelo_inurba_marseille","lat":43.283633,"lon":5.392028,"is_reserved":false,"is_disabled":false,"rental_uris":{"android":"levelo://app?vid=c9d73eed-5888-4e39-be0e-da9a3b48d0b3","ios":"levelo://app?vid=c9d73eed-5888-4e39-be0e-da9a3b48d0b3"},"vehicle_type_id":"4","last_reported":1703703930,"current_range_meters":22000,"station_id":"","pricing_plan_id":"free"},{"bike_id":"41b59856-6d85-4403-af7d-51e6d1cd4c98","system_id":"levelo_inurba_marseille","lat":43.304188,"lon":5.412904,"is_reserved":false,"is_disabled":false,"rental_uris":{"android":"levelo://app?vid=41b59856-6d85-4403-af7d-51e6d1cd4c98","ios":"levelo://app?vid=41b59856-6d85-4403-af7d-51e6d1cd4c98"},"vehicle_type_id":"4","last_reported":1703703930,"current_range_meters":31600,"station_id":"ce4bhop2rcd13ifvqh8g","pricing_plan_id":"free"},{"bike_id":"416bdfae-f3c5-4a48-94bd-4dc05c82a988","system_id":"levelo_inurba_marseille","lat":43.304188,"lon":5.412904,"is_reserved":false,"is_disabled":false,"rental_uris":{"android":"levelo://app?vid=416bdfae-f3c5-4a48-94bd-4dc05c82a988","ios":"levelo://app?vid=416bdfae-f3c5-4a48-94bd-4dc05c82a988"},"vehicle_type_id":"4","last_reported":1703703930,"current_range_meters":3200,"station_id":"ce4bhop2rcd13ifvqh8g","pricing_plan_id":"free"},{"bike_id":"4db615f4-c98b-4d77-b0dc-096fb7fedc50","system_id":"levelo_inurba_marseille","lat":43.304188,"lon":5.412904,"is_reserved":false,"is_disabled":false,"rental_uris":{"android":"levelo://app?vid=4db615f4-c98b-4d77-b0dc-096fb7fedc50","ios":"levelo://app?vid=4db615f4-c98b-4d77-b0dc-096fb7fedc50"},"vehicle_type_id":"4","last_reported":1703703930,"current_range_meters":400,"station_id":"ce4bhop2rcd13ifvqh8g","pricing_plan_id":"free"},{"bike_id":"edc92465-6d00-4372-be19-bd8de723b1a6","system_id":"levelo_inurba_marseille","lat":43.304188,"lon":5.412904,"is_reserved":false,"is_disabled":false,"rental_uris":{"android":"levelo://app?vid=edc92465-6d00-4372-be19-bd8de723b1a6","ios":"levelo://app?vid=edc92465-6d00-4372-be19-bd8de723b1a6"},"vehicle_type_id":"4","last_reported":1703703930,"current_range_meters":17200,"station_id":"ce4bhop2rcd13ifvqh8g","pricing_plan_id":"free"},{"bike_id":"a4a5ccde-62af-4c28-95c1-d68b50703509","system_id":"levelo_inurba_marseille","lat":43.3268,"lon":5.41042,"is_reserved":false,"is_disabled":false,"rental_uris":{"android":"levelo://app?vid=a4a5ccde-62af-4c28-95c1-d68b50703509","ios":"levelo://app?vid=a4a5ccde-62af-4c28-95c1-d68b50703509"},"vehicle_type_id":"4","last_reported":1703703930,"current_range_meters":25200,"station_id":"ce4bhpp2rcd13ifvqhgg","pricing_plan_id":"free"},{"bike_id":"824649d1-68f8-4079-abff-ba8c25239c33","system_id":"levelo_inurba_marseille","lat":43.279087,"lon":5.380114,"is_reserved":false,"is_disabled":false,"rental_uris":{"android":"levelo://app?vid=824649d1-68f8-4079-abff-ba8c25239c33","ios":"levelo://app?vid=824649d1-68f8-4079-abff-ba8c25239c33"},"vehicle_type_id":"4","last_reported":1703703930,"current_range_meters":28400,"station_id":"ce4bhf92rcd13ifvqf50","pricing_plan_id":"free"},{"bike_id":"b3508135-b5d1-420a-9532-2658a7d222a5","system_id":"levelo_inurba_marseille","lat":43.279087,"lon":5.380114,"is_reserved":false,"is_disabled":false,"rental_uris":{"android":"levelo://app?vid=b3508135-b5d1-420a-9532-2658a7d222a5","ios":"levelo://app?vid=b3508135-b5d1-420a-9532-2658a7d222a5"},"vehicle_type_id":"4","last_reported":1703703930,"current_range_meters":29600,"station_id":"ce4bhf92rcd13ifvqf50","pricing_plan_id":"free"},{"bike_id":"db8d1bac-dcc9-4a2d-8f38-0931e10e1806","system_id":"levelo_inurba_marseille","lat":43.287154,"lon":5.399979,"is_reserved":false,"is_disabled":false,"rental_uris":{"android":"levelo://app?vid=db8d1bac-dcc9-4a2d-8f38-0931e10e1806","ios":"levelo://app?vid=db8d1bac-dcc9-4a2d-8f38-0931e10e1806"},"vehicle_type_id":"4","last_reported":1703703930,"current_range_meters":28000,"station_id":"ce4bho92rcd13ifvqh3g","pricing_plan_id":"free"},{"bike_id":"beb97639-1487-46bc-9aa8-ceb915e1ec35","system_id":"levelo_inurba_marseille","lat":43.287154,"lon":5.399979,"is_reserved":false,"is_disabled":false,"rental_uris":{"android":"levelo://app?vid=beb97639-1487-46bc-9aa8-ceb915e1ec35","ios":"levelo://app?vid=beb97639-1487-46bc-9aa8-ceb915e1ec35"},"vehicle_type_id":"4","last_reported":1703703930,"current_range_meters":27200,"station_id":"ce4bho92rcd13ifvqh3g","pricing_plan_id":"free"},{"bike_id":"c6206c44-0a70-43fc-b138-14b431b483f1","system_id":"levelo_inurba_marseille","lat":43.279742,"lon":5.38744,"is_reserved":false,"is_disabled":false,"rental_uris":{"android":"levelo://app?vid=c6206c44-0a70-43fc-b138-14b431b483f1","ios":"levelo://app?vid=c6206c44-0a70-43fc-b138-14b431b483f1"},"vehicle_type_id":"4","last_reported":1703703930,"current_range_meters":2000,"station_id":"ce4bhg12rcd13ifvqf80","pricing_plan_id":"free"},{"bike_id":"f28207cb-e1a0-4c54-ba15-d3134db2bed9","system_id":"levelo_inurba_marseille","lat":43.292571,"lon":5.409107,"is_reserved":false,"is_disabled":false,"rental_uris":{"android":"levelo://app?vid=f28207cb-e1a0-4c54-ba15-d3134db2bed9","ios":"levelo://app?vid=f28207cb-e1a0-4c54-ba15-d3134db2bed9"},"vehicle_type_id":"4","last_reported":1703703930,"current_range_meters":23600,"station_id":"ce4bh192rcd13ifvqdc0","pricing_plan_id":"free"},{"bike_id":"48e7f89a-fb3e-4fec-8f8e-9727e7a7c4fc","system_id":"levelo_inurba_marseille","lat":43.29257,"lon":5.40903,"is_reserved":false,"is_disabled":false,"rental_uris":{"android":"levelo://app?vid=48e7f89a-fb3e-4fec-8f8e-9727e7a7c4fc","ios":"levelo://app?vid=48e7f89a-fb3e-4fec-8f8e-9727e7a7c4fc"},"vehicle_type_id":"4","last_reported":1703703930,"current_range_meters":24000,"station_id":"ce4bh192rcd13ifvqdc0","pricing_plan_id":"free"},{"bike_id":"0b732704-7607-429e-84f5-3138fba41d2c","system_id":"levelo_inurba_marseille","lat":43.32533,"lon":5.41433,"is_reserved":false,"is_disabled":false,"rental_uris":{"android":"levelo://app?vid=0b732704-7607-429e-84f5-3138fba41d2c","ios":"levelo://app?vid=0b732704-7607-429e-84f5-3138fba41d2c"},"vehicle_type_id":"4","last_reported":1703703930,"current_range_meters":3200,"station_id":"ce4bhq12rcd13ifvqhhg","pricing_plan_id":"free"},{"bike_id":"fe24d15c-11c2-484f-b180-ee87508dc74d","system_id":"levelo_inurba_marseille","lat":43.276179,"lon":5.361009,"is_reserved":false,"is_disabled":false,"rental_uris":{"android":"levelo://app?vid=fe24d15c-11c2-484f-b180-ee87508dc74d","ios":"levelo://app?vid=fe24d15c-11c2-484f-b180-ee87508dc74d"},"vehicle_type_id":"4","last_reported":1703703930,"current_range_meters":0,"station_id":"ce4bgj92rcd13ifvqbe0","pricing_plan_id":"free"},{"bike_id":"36d6eb99-343a-49b1-aa20-f72100ccf5aa","system_id":"levelo_inurba_marseille","lat":43.3255,"lon":5.41444,"is_reserved":false,"is_disabled":false,"rental_uris":{"android":"levelo://app?vid=36d6eb99-343a-49b1-aa20-f72100ccf5aa","ios":"levelo://app?vid=36d6eb99-343a-49b1-aa20-f72100ccf5aa"},"vehicle_type_id":"4","last_reported":1703703930,"current_range_meters":22400,"station_id":"ce4bhq12rcd13ifvqhhg","pricing_plan_id":"free"},{"bike_id":"6990c368-afbd-43b3-97ca-07bffaacd28a","system_id":"levelo_inurba_marseille","lat":43.280784,"lon":5.396622,"is_reserved":false,"is_disabled":false,"rental_uris":{"android":"levelo://app?vid=6990c368-afbd-43b3-97ca-07bffaacd28a","ios":"levelo://app?vid=6990c368-afbd-43b3-97ca-07bffaacd28a"},"vehicle_type_id":"4","last_reported":1703703930,"current_range_meters":26000,"station_id":"ce4bho12rcd13ifvqh2g","pricing_plan_id":"free"},