{"last_updated":1738833007,"ttl":60,"version":"2.2","data":{"bikes":[{"bike_id":"9b310c92-efeb-4765-8a96-172429f0f07e","system_id":"levelo_inurba_marseille","lat":43.28847,"lon":5.35835,"is_reserved":false,"is_disabled":false,"rental_uris":{"android":"levelo://app?vid=9b310c92-efeb-4765-8a96-172429f0f07e","ios":"levelo://app?vid=9b310c92-efeb-4765-8a96-172429f0f07e"},"vehicle_type_id":"4","last_reported":1738833007,"current_range_meters":31200,"station_id":"ce4bhb12rcd13ifvqem0","pricing_plan_id":"cebpf4jnsgd1na2vs0mg"},{"bike_id":"c88a5332-299f-4c55-b376-657578c07d3a","system_id":"levelo_inurba_marseille","lat":43.25822,"lon":5.39438,"is_reserved":false,"is_disabled":false,"rental_uris":{"android":"levelo://app?vid=c88a5332-299f-4c55-b376-657578c07d3a","ios":"levelo://app?vid=c88a5332-299f-4c55-b376-657578c07d3a"},"vehicle_type_id":"4","last_reported":1738833007,"current_range_meters":30400,"station_id":"ce4bhip2rcd13ifvqft0","pricing_plan_id":"cebpf4jnsgd1na2vs0mg"},{"bike_id":"610fb8b2-ef24-429f-8026-ba3e2d414d35","system_id":"levelo_inurba_marseille","lat":43.33612,"lon":5.41002,"is_reserved":false,"is_disabled":false,"rental_uris":{"android":"levelo://app?vid=610fb8b2-ef24-429f-8026-ba3e2d414d35","ios":"levelo://app?vid=610fb8b2-ef24-429f-8026-ba3e2d414d35"},"vehicle_type_id":"4","last_reported":1738833007,"current_range_meters":39200,"station_id":"ce4bhqh2rcd13ifvqhmg","pricing_plan_id":"cebpf4jnsgd1na2vs0mg"},{"bike_id":"7bb56172-3dac-4011-8d70-51b1d52cd8eb","system_id":"levelo_inurba_marseille","lat":43.24698,"lon":5.3814,"is_reserved":false,"is_disabled":false,"rental_uris":{"android":"levelo://app?vid=7bb56172-3dac-4011-8d70-51b1d52cd8eb","ios":"levelo://app?vid=7bb56172-3dac-4011-8d70-51b1d52cd8eb"},"vehicle_type_id":"4","last_reported":1738833007,"current_range_meters":4400,"station_id":"ce4bhih2rcd13ifvqfr0","pricing_plan_id":"cebpf4jnsgd1na2vs0mg"},{"bike_id":"2d7f9513-ca4c-497c-b33a-44fa19bf5f1f","system_id":"levelo_inurba_marseille","lat":43.29721,"lon":5.37672,"is_reserved":false,"is_disabled":true,"rental_uris":{"android":"levelo://app?vid=2d7f9513-ca4c-497c-b33a-44fa19bf5f1f","ios":"levelo://app?vid=2d7f9513-ca4c-497c-b33a-44fa19bf5f1f"},"vehicle_type_id":"4","last_reported":1738833007,"current_range_meters":11600,"station_id":"ce4bgkh2rcd13ifvqbl0","pricing_plan_id":"cebpf4jnsgd1na2vs0mg"},{"bike_id":"d00cdb85-10d5-4b9c-90cf-8c66446d2f13","system_id":"levelo_inurba_marseille","lat":43.26783,"lon":5.39422,"is_reserved":false,"is_disabled":false,"rental_uris":{"android":"levelo://app?vid=d00cdb85-10d5-4b9c-90cf-8c66446d2f13","ios":"levelo://app?vid=d00cdb85-10d5-4b9c-90cf-8c66446d2f13"},"vehicle_type_id":"4","last_reported":1738833007,"current_range_meters":28400,"station_id":"ce4bhh12rcd13ifvqfg0","pricing_plan_id":"cebpf4jnsgd1na2vs0mg"},{"bike_id":"d4a3c29c-2a0e-4b2b-a870-bc26f8f3f10a","system_id":"levelo_inurba_marseille","lat":43.269375,"lon":5.389596,"is_reserved":false,"is_disabled":false,"rental_uris":{"android":"levelo://app?vid=d4a3c29c-2a0e-4b2b-a870-bc26f8f3f10a","ios":"levelo://app?vid=d4a3c29c-2a0e-4b2b-a870-bc26f8f3f10a"},"vehicle_type_id":"4","last_reported":1738833007,"current_range_meters":25600,"station_id":"ce4bhhh2rcd13ifvqfl0","pricing_plan_id":"cebpf4jnsgd1na2vs0mg"},{"bike_id":"98fd826c-0bf1-4b38-a3d1-66676766ed4b","system_id":"levelo_inurba_marseille","lat":43.30535,"lon":5.36731,"is_reserved":false,"is_disabled":false,"rental_uris":{"android":"levelo://app?vid=98fd826c-0bf1-4b38-a3d1-66676766ed4b","ios":"levelo://app?vid=98fd826c-0bf1-4b38-a3d1-66676766ed4b"},"vehicle_type_id":"4","last_reported":1738833007,"current_range_meters":39200,"station_id":"ce4bgrp2rcd13ifvqc9g","pricing_plan_id":"cebpf4jnsgd1na2vs0mg"},{"bike_id":"b2bd4902-85ec-4863-a262-d4d076a04dc2","system_id":"levelo_inurba_marseille","lat":43.27494,"lon":5.42467,"is_reserved":false,"is_disabled":false,"rental_uris":{"android":"levelo://app?vid=b2bd4902-85ec-4863-a262-d4d076a04dc2","ios":"levelo://app?vid=b2bd4902-85ec-4863-a262-d4d076a04dc2"},"vehicle_type_id":"4","last_reported":1738833007,"current_range_meters":4400,"station_id":"ce4bhn92rcd13ifvqgrg","pricing_plan_id":"cebpf4jnsgd1na2vs0mg"},{"bike_id":"60efba71-1f79-4331-8e03-d1cbb62a05fd","system_id":"levelo_inurba_marseille","lat":43.23185,"lon":5.39994,"is_reserved":false,"is_disabled":false,"rental_uris":{"android":"levelo://app?vid=60efba71-1f79-4331-8e03-d1cbb62a05fd","ios":"levelo://app?vid=60efba71-1f79-4331-8e03-d1cbb62a05fd"},"vehicle_type_id":"4","last_reported":1738833007,"current_range_meters":17600,"station_id":"ce4bhn12rcd13ifvqgqg","pricing_plan_id":"cebpf4jnsgd1na2vs0mg"},{"bike_id":"7d34c48a-7d5c-4fdb-b436-254657a5812d","system_id":"levelo_inurba_marseille","lat":43.30478,"lon":5.37899,"is_reserved":false,"is_disabled":false,"rental_uris":{"android":"levelo://app?vid=7d34c48a-7d5c-4fdb-b436-254657a5812d","ios":"levelo://app?vid=7d34c48a-7d5c-4fdb-b436-254657a5812d"},"vehicle_type_id":"4","last_reported":1738833007,"current_range_meters":37600,"station_id":"ce4bgup2rcd13ifvqcn0","pricing_plan_id":"cebpf4jnsgd1na2vs0mg"},{"bike_id":"b3e259ec-5d56-4e3a-a7e9-9e5f76176da8","system_id":"levelo_inurba_marseille","lat":43.31355,"lon":5.36714,"is_reserved":false,"is_disabled":true,"rental_uris":{"android":"levelo://app?vid=b3e259ec-5d56-4e3a-a7e9-9e5f76176da8","ios":"levelo://app?vid=b3e259ec-5d56-4e3a-a7e9-9e5f76176da8"},"vehicle_type_id":"4","last_reported":1738833007,"current_range_meters":0,"station_id":"ce4bgr92rcd13ifvqc6g","pricing_plan_id":"cebpf4jnsgd1na2vs0mg"},{"bike_id":"2e2103ea-1862-4a7c-aebb-70a8bcb44f35","system_id":"levelo_inurba_marseille","lat":43.305374,"lon":5.366842,"is_reserved":false,"is_disabled":false,"rental_uris":{"android":"levelo://app?vid=2e2103ea-1862-4a7c-aebb-70a8bcb44f35","ios":"levelo://app?vid=2e2103ea-1862-4a7c-aebb-70a8bcb44f35"},"vehicle_type_id":"4","last_reported":1738833007,"current_range_meters":28800,"station_id":"ce4bgrp2rcd13ifvqc9g","pricing_plan_id":"cebpf4jnsgd1na2vs0mg"},{"bike_id":"93436f32-c9ca-48fd-adf7-e627183ce3b5","system_id":"levelo_inurba_marseille","lat":43.28709,"lon":5.37958,"is_reserved":false,"is_disabled":true,"rental_uris":{"android":"levelo://app?vid=93436f32-c9ca-48fd-adf7-e627183ce3b5","ios":"levelo://app?vid=93436f32-c9ca-48fd-adf7-e627183ce3b5"},"vehicle_type_id":"4","last_reported":1738833007,"current_range_meters":36000,"station_id":"ce4bh9p2rcd13ifvqec0","pricing_plan_id":"cebpf4jnsgd1na2vs0mg"},{"bike_id":"675de847-f8f5-4cef-a33a-ce7228341298","system_id":"levelo_inurba_marseille","lat":43.28472,"lon":5.38406,"is_reserved":false,"is_disabled":false,"rental_uris":{"android":"levelo://app?vid=675de847-f8f5-4cef-a33a-ce7228341298","ios":"levelo://app?vid=675de847-f8f5-4cef-a33a-ce7228341298"},"vehicle_type_id":"4","last_reported":1738833007,"current_range_meters":17200,"station_id":"ce4bh512rcd13ifvqe3g","pricing_plan_id":"cebpf4jnsgd1na2vs0mg"},{"bike_id":"48c3441c-11db-44cf-b627-fa15456f0152","system_id":"levelo_inurba_marseille","lat":43.34137,"lon":5.40913,"is_reserved":false,"is_disabled":false,"rental_uris":{"android":"levelo://app?vid=48c3441c-11db-44cf-b627-fa15456f0152","ios":"levelo://app?vid=48c3441c-11db-44cf-b627-fa15456f0152"},"vehicle_type_id":"4","last_reported":1738833007,"current_range_meters":32000,"station_id":"ce4bhqh2rcd13ifvqhlg","pricing_plan_id":"cebpf4jnsgd1na2vs0mg"},{"bike_id":"8761b3f6-2468-4f75-b87e-00e98b723d43","system_id":"levelo_inurba_marseille","lat":43.30272,"lon":5.37715,"is_reserved":false,"is_disabled":false,"rental_uris":{"android":"levelo://app?vid=8761b3f6-2468-4f75-b87e-00e98b723d43","ios":"levelo://app?vid=8761b3f6-2468-4f75-b87e-00e98b723d43"},"vehicle_type_id":"4","last_reported":1738833007,"current_range_meters":38000,"station_id":"ce4bguh2rcd13ifvqcj0","pricing_plan_id":"cebpf4jnsgd1na2vs0mg"},{"bike_id":"dabda0f4-b7bc-4081-811a-b8b88e9d50be","system_id":"levelo_inurba_marseille","lat":43.26182,"lon":5.37461,"is_reserved":false,"is_disabled":false,"rental_uris":{"android":"levelo://app?vid=dabda0f4-b7bc-4081-811a-b8b88e9d50be","ios":"levelo://app?vid=dabda0f4-b7bc-4081-811a-b8b88e9d50be"},"vehicle_type_id":"4","last_reported":1738833007,"current_range_meters":38800,"station_id":"ce4bhgp2rcd13ifvqfc0","pricing_plan_id":"cebpf4jnsgd1na2vs0mg"},{"bike_id":"7eaacd34-10f9-4246-8aa1-4a22e07a7c06","system_id":"levelo_inurba_marseille","lat":43.31624,"lon":5.37401,"is_reserved":false,"is_disabled":false,"rental_uris":{"android":"levelo://app?vid=7eaacd34-10f9-4246-8aa1-4a22e07a7c06","ios":"levelo://app?vid=7eaacd34-10f9-4246-8aa1-4a22e07a7c06"},"vehicle_type_id":"4","last_reported":1738833007,"current_range_meters":24000,"station_id":"","pricing_plan_id":"cebpf4jnsgd1na2vs0mg"},{"bike_id":"b85d0f36-4ceb-47ae-b932-72d8372ef081","system_id":"levelo_inurba_marseille","lat":43.23181,"lon":5.39984,"is_reserved":false,"is_disabled":false,"rental_uris":{"android":"levelo://app?vid=b85d0f36-4ceb-47ae-b932-72d8372ef081","ios":"levelo://app?vid=b85d0f36-4ceb-47ae-b932-72d8372ef081"},"vehicle_type_id":"4","last_reported":1738833007,"current_range_meters":38000,"station_id":"ce4bhn12rcd13ifvqgqg","pricing_plan_id":"cebpf4jnsgd1na2vs0mg"},{"bike_id":"c4e55077-4eb0-47e2-a96e-7f002bcfe838","system_id":"levelo_inurba_marseille","lat":43.32477,"lon":5.36576,"is_reserved":false,"is_disabled":false,"rental_uris":{"android":"levelo://app?vid=c4e55077-4eb0-47e2-a96e-7f002bcfe838","ios":"levelo://app?vid=c4e55077-4eb0-47e2-a96e-7f002bcfe838"},"vehicle_type_id":"4","last_reported":1738833007,"current_range_meters":32400,"station_id":"ce4bhs12rcd13ifvqhvg","pricing_plan_id":"cebpf4jnsgd1na2vs0mg"},{"bike_id":"19cfb078-9854-4658-91b7-e1746e55420c","system_id":"levelo_inurba_marseille","lat":43.31527,"lon":5.38023,"is_reserved":false,"is_disabled":false,"rental_uris":{"android":"levelo://app?vid=19cfb078-9854-4658-91b7-e1746e55420c","ios":"levelo://app?vid=19cfb078-9854-4658-91b7-e1746e55420c"},"vehicle_type_id":"4","last_reported":1738833007,"current_range_meters":38800,"station_id":"ce4bhsp2rcd13ifvqi50","pricing_plan_id":"cebpf4jnsgd1na2vs0mg"},{"bike_id":"820ef2aa-6e06-412e-8587-3e87867adcdb","system_id":"levelo_inurba_marseille","lat":43.28935,"lon":5.36649,"is_reserved":false,"is_disabled":false,"rental_uris":{"android":"levelo://app?vid=820ef2aa-6e06-412e-8587-3e87867adcdb","ios":"levelo://app?vid=820ef2aa-6e06-412e-8587-3e87867adcdb"},"vehicle_type_id":"4","last_reported":1738833007,"current_range_meters":32000,"station_id":"ce4bhap2rcd13ifvqek0","pricing_plan_id":"cebpf4jnsgd1na2vs0mg"},{"bike_id":"1c7ae611-7357-4955-9ed1-59c9116f277e","system_id":"levelo_inurba_marseille","lat":43.30035,"lon":5.40086,"is_reserved":false,"is_disabled":false,"rental_uris":{"android":"levelo://app?vid=1c7ae611-7357-4955-9ed1-59c9116f277e","ios":"levelo://app?vid=1c7ae611-7357-4955-9ed1-59c9116f277e"},"vehicle_type_id":"4","last_reported":1738833007,"current_range_meters":34800,"station_id":"ce4bh312rcd13ifvqdk0","pricing_plan_id":"cebpf4jnsgd1na2vs0mg"},{"bike_id":"b7eb1d29-c5ee-4080-8f84-5619ceb2add1","system_id":"levelo_inurba_marseille","lat":43.31344,"lon":5.36731,"is_reserved":false,"is_disabled":false,"rental_uris":{"android":"levelo://app?vid=b7eb1d29-c5ee-4080-8f84-5619ceb2add1","ios":"levelo://app?vid=b7eb1d29-c5ee-4080-8f84-5619ceb2add1"},"vehicle_type_id":"4","last_reported":1738833007,"current_range_meters":37600,"station_id":"ce4bgr92rcd13ifvqc6g","pricing_plan_id":"cebpf4jnsgd1na2vs0mg"},{"bike_id":"a6ba5ef6-5b99-47d9-acea-ad62a4cd0a59","system_id":"levelo_inurba_marseille","lat":43.26562,"lon":5.39222,"is_reserved":false,"is_disabled":false,"rental_uris":{"android":"levelo://app?vid=a6ba5ef6-5b99-47d9-acea-ad62a4cd0a59","ios":"levelo://app?vid=a6ba5ef6-5b99-47d9-acea-ad62a4cd0a59"},"vehicle_type_id":"4","last_reported":1738833007,"current_range_meters":36000,"station_id":"","pricing_plan_id":"cebpf4jnsgd1na2vs0mg"},{"bike_id":"85506d97-0f87-4df9-ad07-8dd2dedad0b3","system_id":"levelo_inurba_marseille","lat":43.27193,"lon":5.39205,"is_reserved":false,"is_disabled":true,"rental_uris":{"android":"levelo://app?vid=85506d97-0f87-4df9-ad07-8dd2dedad0b3","ios":"levelo://app?vid=85506d97-0f87-4df9-ad07-8dd2dedad0b3"},"vehicle_type_id":"4","last_reported":1738833007,"current_range_meters":34000,"station_id":"ce4bhhp2rcd13ifvqfm0","pricing_plan_id":"cebpf4jnsgd1na2vs0mg"},{"bike_id":"a1a7079b-68b5-45ca-9af8-b6bc9f7cd559","system_id":"levelo_inurba_marseille","lat":43.22929,"lon":5.35381,"is_reserved":false,"is_disabled":false,"rental_uris":{"android":"levelo://app?vid=a1a7079b-68b5-45ca-9af8-b6bc9f7cd559","ios":"levelo://app?vid=a1a7079b-68b5-45ca-9af8-b6bc9f7cd559"},"vehicle_type_id":"4","last_reported":1738833007,"current_range_meters":38800,"station_id":"cpo3532slgdg3j2ikp40","pricing_plan_id":"cebpf4jnsgd1na2vs0mg"},{"bike_id":"00418135-3262-4cc3-adbc-fc08b9876df7","system_id":"levelo_inurba_marseille","lat":43.29263,"lon":5.38438,"is_reserved":false,"is_disabled":false,"rental_uris":{"android":"levelo://app?vid=00418135-3262-4cc3-adbc-fc08b9876df7","ios":"levelo://app?vid=00418135-3262-4cc3-adbc-fc08b9876df7"},"vehicle_type_id":"4","last_reported":1738833007,"current_range_meters":29600,"station_id":"ce4bh692rcd13ifvqea0","pricing_plan_id":"cebpf4jnsgd1na2vs0mg"},{"bike_id":"b3e15123-f412-47a1-bf1f-9c73196cafab","system_id":"levelo_inurba_marseille","lat":43.25829,"lon":5.39436,"is_reserved":false,"is_disabled":true,"rental_uris":{"android":"levelo://app?vid=b3e15123-f412-47a1-bf1f-9c73196cafab","ios":"levelo://app?vid=b3e15123-f412-47a1-bf1f-9c73196cafab"},"vehicle_type_id":"4","last_reported":1738833007,"current_range_meters":400,"station_id":"ce4bhip2rcd13ifvqft0","pricing_plan_id":"cebpf4jnsgd1na2vs0mg"},{"bike_id":"99e6c8e3-5c86-415c-b3f7-c87c1418cb77","system_id":"levelo_inurba_marseille","lat":43.30462,"lon":5.37917,"is_reserved":false,"is_disabled":false,"rental_uris":{"android":"levelo://app?vid=99e6c8e3-5c86-415c-b3f7-c87c1418cb77","ios":"levelo://app?vid=99e6c8e3-5c86-415c-b3f7-c87c1418cb77"},"vehicle_type_id":"4","last_reported":1738833007,"current_range_meters":39200,"station_id":"ce4bgup2rcd13ifvqcn0","pricing_plan_id":"cebpf4jnsgd1na2vs0mg"},{"bike_id":"99bf38b1-b513-4e7d-815a-922ec24f68c3","system_id":"levelo_inurba_marseille","lat":43.27485,"lon":5.42454,"is_reserved":false,"is_disabled":false,"rental_uris":{"android":"levelo://app?vid=99bf38b1-b513-4e7d-815a-922ec24f68c3","ios":"levelo://app?vid=99bf38b1-b513-4e7d-815a-922ec24f68c3"},"vehicle_type_id":"4","last_reported":1738833007,"current_range_meters":30800,"station_id":"ce4bhn92rcd13ifvqgrg","pricing_plan_id":"cebpf4jnsgd1na2vs0mg"},{"bike_id":"90c4c78b-e4a7-4853-a5ee-228a6bb5a7ce","system_id":"levelo_inurba_marseille","lat":43.29054,"lon":5.37586,"is_reserved":false,"is_disabled":false,"rental_uris":{"android":"levelo://app?vid=90c4c78b-e4a7-4853-a5ee-228a6bb5a7ce","ios":"levelo://app?vid=90c4c78b-e4a7-4853-a5ee-228a6bb5a7ce"},"vehicle_type_id":"4","last_reported":1738833007,"current_range_meters":38800,"station_id":"ce4bh692rcd13ifvqe90","pricing_plan_id":"cebpf4jnsgd1na2vs0mg"},{"bike_id":"b0b70dbd-bdde-4326-96ee-f00c6aa1d2d8","system_id":"levelo_inurba_marseille","lat":43.33607,"lon":5.40995,"is_reserved":false,"is_disabled":false,"rental_uris":{"android":"levelo://app?vid=b0b70dbd-bdde-4326-96ee-f00c6aa1d2d8","ios":"levelo://app?vid=b0b70dbd-bdde-4326-96ee-f00c6aa1d2d8"},"vehicle_type_id":"4","last_reported":1738833007,"current_range_meters":25200,"station_id":"ce4bhqh2rcd13ifvqhmg","pricing_plan_id":"cebpf4jnsgd1na2vs0mg"},{"bike_id":"f423adf0-93aa-4c47-9d8a-b1e2e7e85005","system_id":"levelo_inurba_marseille","lat":43.28407,"lon":5.34996,"is_reserved":false,"is_disabled":true,"rental_uris":{"android":"levelo://app?vid=f423adf0-93aa-4c47-9d8a-b1e2e7e85005","ios":"levelo://app?vid=f423adf0-93aa-4c47-9d8a-b1e2e7e85005"},"vehicle_type_id":"4","last_reported":1738833007,"current_range_meters":8000,"station_id":"ce4bhbh2rcd13ifvqepg","pricing_plan_id":"cebpf4jnsgd1na2vs0mg"},{"bike_id":"eda4d722-bdb9-4040-a223-1024d7f41486","system_id":"levelo_inurba_marseille","lat":43.30537,"lon":5.3672,"is_reserved":false,"is_disabled":false,"rental_uris":{"android":"levelo://app?vid=eda4d722-bdb9-4040-a223-1024d7f41486","ios":"levelo://app?vid=eda4d722-bdb9-4040-a223-1024d7f41486"},"vehicle_type_id":"4","last_reported":1738833007,"current_range_meters":32000,"station_id":"ce4bgrp2rcd13ifvqc9g","pricing_plan_id":"cebpf4jnsgd1na2vs0mg"},{"bike_id":"fc7b554c-cbf8-4ca0-9c6e-26c01d6d3ec0","system_id":"levelo_inurba_marseille","lat":43.29255,"lon":5.38442,"is_reserved":false,"is_disabled":false,"rental_uris":{"android":"levelo://app?vid=fc7b554c-cbf8-4ca0-9c6e-26c01d6d3ec0","ios":"levelo://app?vid=fc7b554c-cbf8-4ca0-9c6e-26c01d6d3ec0"},"vehicle_type_id":"4","last_reported":1738833007,"current_range_meters":8000,"station_id":"ce4bh692rcd13ifvqea0","pricing_plan_id":"cebpf4jnsgd1na2vs0mg"},{"bike_id":"31da273c-2d88-464d-8eff-b87d306a408c","system_id":"levelo_inurba_marseille","lat":43.29971,"lon":5.41319,"is_reserved":false,"is_disabled":false,"rental_uris":{"android":"levelo://app?vid=31da273c-2d88-464d-8eff-b87d306a408c","ios":"levelo://app?vid=31da273c-2d88-464d-8eff-b87d306a408c"},"vehicle_type_id":"4","last_reported":1738833007,"current_range_meters":38800,"station_id":"ce4bhp12rcd13ifvqh9g","pricing_plan_id":"cebpf4jnsgd1na2vs0mg"},{"bike_id":"952afd09-03d4-4848-8861-01247835edfd","system_id":"levelo_inurba_marseille","lat":43.2593,"lon":5.40909,"is_reserved":false,"is_disabled":false,"rental_uris":{"android":"levelo://app?vid=952afd09-03d4-4848-8861-01247835edfd","ios":"levelo://app?vid=952afd09-03d4-4848-8861-01247835edfd"},"vehicle_type_id":"4","last_reported":1738833007,"current_range_meters":17600,"station_id":"ce4bhm92rcd13ifvqglg","pricing_plan_id":"cebpf4jnsgd1na2vs0mg"},{"bike_id":"76c3a5ce-1f74-4aac-866f-387e1b5ddfc0","system_id":"levelo_inurba_marseille","lat":43.24187,"lon":5.39723,"is_reserved":false,"is_disabled":false,"rental_uris":{"android":"levelo://app?vid=76c3a5ce-1f74-4aac-866f-387e1b5ddfc0","ios":"levelo://app?vid=76c3a5ce-1f74-4aac-866f-387e1b5ddfc0"},"vehicle_type_id":"4","last_reported":1738833007,"current_range_meters":18000,"station_id":"ce4bhn12rcd13ifvqgpg","pricing_plan_id":"cebpf4jnsgd1na2vs0mg"},{"bike_id":"859537e0-4cf9-4ee3-8f90-de5b287589dd","system_id":"levelo_inurba_marseille","lat":43.30913,"lon":5.36848,"is_reserved":false,"is_disabled":false,"rental_uris":{"android":"levelo://app?vid=859537e0-4cf9-4ee3-8f90-de5b287589dd","ios":"levelo://app?vid=859537e0-4cf9-4ee3-8f90-de5b287589dd"},"vehicle_type_id":"4","last_reported":1738833007,"current_range_meters":36800,"station_id":"ce4bgn92rcd13ifvqbvg","pricing_plan_id":"cebpf4jnsgd1na2vs0mg"},{"bike_id":"eb7fff4c-f402-463b-92e2-75a42b52f84d","system_id":"levelo_inurba_marseille","lat":43.29295,"lon":5.37441,"is_reserved":false,"is_disabled":false,"rental_uris":{"android":"levelo://app?vid=eb7fff4c-f402-463b-92e2-75a42b52f84d","ios":"levelo://app?vid=eb7fff4c-f402-463b-92e2-75a42b52f84d"},"vehicle_type_id":"4","last_reported":1738833007,"current_range_meters":37600,"station_id":"ce4bgi12rcd13ifvqb70","pricing_plan_id":"cebpf4jnsgd1na2vs0mg"},{"bike_id":"6bba36c7-75a6-4b1b-96cb-c03d219a6faa","system_id":"levelo_inurba_marseille","lat":43.33014,"lon":5.39037,"is_reserved":false,"is_disabled":false,"rental_uris":{"android":"levelo://app?vid=6bba36c7-75a6-4b1b-96cb-c03d219a6faa","ios":"levelo://app?vid=6bba36c7-75a6-4b1b-96cb-c03d219a6faa"},"vehicle_type_id":"4","last_reported":1738833007,"current_range_meters":34000,"station_id":"ce4bhr92rcd13ifvqhrg","pricing_plan_id":"cebpf4jnsgd1na2vs0mg"},{"bike_id":"8c4f9c0f-be49-477b-b708-b24dc020065f","system_id":"levelo_inurba_marseille","lat":43.28089,"lon":5.37841,"is_reserved":false,"is_disabled":false,"rental_uris":{"android":"levelo://app?vid=8c4f9c0f-be49-477b-b708-b24dc020065f","ios":"levelo://app?vid=8c4f9c0f-be49-477b-b708-b24dc020065f"},"vehicle_type_id":"4","last_reported":1738833007,"current_range_meters":26800,"station_id":"ce4bha12rcd13ifvqee0","pricing_plan_id":"cebpf4jnsgd1na2vs0mg"},{"bike_id":"5786637f-7aa3-4c94-860d-27f2b053d260","system_id":"levelo_inurba_marseille","lat":43.27674,"lon":5.38928,"is_reserved":false,"is_disabled":false,"rental_uris":{"android":"levelo://app?vid=5786637f-7aa3-4c94-860d-27f2b053d260","ios":"levelo://app?vid=5786637f-7aa3-4c94-860d-27f2b053d260"},"vehicle_type_id":"4","last_reported":1738833007,"current_range_meters":30400,"station_id":"ce4bhi12rcd13ifvqfo0","pricing_plan_id":"cebpf4jnsgd1na2vs0mg"},{"bike_id":"10e50f59-c87a-42f4-8fbb-d01f7149660f","system_id":"levelo_inurba_marseille","lat":43.3094,"lon":5.39066,"is_reserved":false,"is_disabled":false,"rental_uris":{"android":"levelo://app?vid=10e50f59-c87a-42f4-8fbb-d01f7149660f","ios":"levelo://app?vid=10e50f59-c87a-42f4-8fbb-d01f7149660f"},"vehicle_type_id":"4","last_reported":1738833007,"current_range_meters":22800,"station_id":"ce4bgup2rcd13ifvqco0","pricing_plan_id":"cebpf4jnsgd1na2vs0mg"},{"bike_id":"c90bee22-93e6-4769-a402-7c2dd626c38f","system_id":"levelo_inurba_marseille","lat":43.27608,"lon":5.36122,"is_reserved":false,"is_disabled":false,"rental_uris":{"android":"levelo://app?vid=c90bee22-93e6-4769-a402-7c2dd626c38f","ios":"levelo://app?vid=c90bee22-93e6-4769-a402-7c2dd626c38f"},"vehicle_type_id":"4","last_reported":1738833007,"current_range_meters":33600,"station_id":"ce4bgj92rcd13ifvqbe0","pricing_plan_id":"cebpf4jnsgd1na2vs0mg"},{"bike_id":"7f657d43-65c7-468d-ad0e-f606466b52ae","system_id":"levelo_inurba_marseille","lat":43.32475,"lon":5.36562,"is_reserved":false,"is_disabled":false,"rental_uris":{"android":"levelo://app?vid=7f657d43-65c7-468d-ad0e-f606466b52ae","ios":"levelo://app?vid=7f657d43-65c7-468d-ad0e-f606466b52ae"},"vehicle_type_id":"4","last_reported":1738833007,"current_range_meters":14800,"station_id":"ce4bhs12rcd13ifvqhvg","pricing_plan_id":"cebpf4jnsgd1na2vs0mg"},{"bike_id":"8361d931-ae94-4712-87c5-c5609c422dff","system_id":"levelo_inurba_marseille","lat":43.31214,"lon":5.36801,"is_reserved":false,"is_disabled":false,"rental_uris":{"android":"levelo://app?vid=8361d931-ae94-4712-87c5-c5609c422dff","ios":"levelo://app?vid=8361d931-ae94-4712-87c5-c5609c422dff"},"vehicle_type_id":"4","last_reported":1738833007,"current_range_meters":22400,"station_id":"ce4bgl92rcd13ifvqbq0","pricing_plan_id":"cebpf4jnsgd1na2vs0mg"},{"bike_id":"585829b3-6401-45a0-8835-1ef0bbd3a57c","system_id":"levelo_inurba_marseille","lat":43.281454,"lon":5.426441,"is_reserved":false,"is_disabled":false,"rental_uris":{"android":"levelo://app?vid=585829b3-6401-45a0-8835-1ef0bbd3a57c","ios":"levelo://app?vid=585829b3-6401-45a0-8835-1ef0bbd3a57c"},"vehicle_type_id":"4","last_reported":1738833007,"current_range_meters":25200,"station_id":"ce4bhnh2rcd13ifvqgug","pricing_plan_id":"cebpf4jnsgd1na2vs0mg"},{"bike_id":"88c1f5c5-bb0b-42bc-8019-2c4b7e1fc378","system_id":"levelo_inurba_marseille","lat":43.309447,"lon":5.390343,"is_reserved":false,"is_disabled":false,"rental_uris":{"android":"levelo://app?vid=88c1f5c5-bb0b-42bc-8019-2c4b7e1fc378","ios":"levelo://app?vid=88c1f5c5-bb0b-42bc-8019-2c4b7e1fc378"},"vehicle_type_id":"4","last_reported":1738833007,"current_range_meters":28400,"station_id":"ce4bgup2rcd13ifvqco0","pricing_plan_id":"cebpf4jnsgd1na2vs0mg"},{"bike_id":"c9ebdd2d-fe07-41ca-b670-8702fd2c73e6","system_id":"levelo_inurba_marseille","lat":43.30306,"lon":5.36898,"is_reserved":false,"is_disabled":true,"rental_uris":{"android":"levelo://app?vid=c9ebdd2d-fe07-41ca-b670-8702fd2c73e6","ios":"levelo://app?vid=c9ebdd2d-fe07-41ca-b670-8702fd2c73e6"},"vehicle_type_id":"4","last_reported":1738833007,"current_range_meters":24000,"station_id":"ce4bgqh2rcd13ifvqc5g","pricing_plan_id":"cebpf4jnsgd1na2vs0mg"},{"bike_id":"7c296f27-b71b-4c52-86d6-a2530bfabee8","system_id":"levelo_inurba_marseille","lat":43.27208,"lon":5.39181,"is_reserved":false,"is_disabled":false,"rental_uris":{"android":"levelo://app?vid=7c296f27-b71b-4c52-86d6-a2530bfabee8","ios":"levelo://app?vid=7c296f27-b71b-4c52-86d6-a2530bfabee8"},"vehicle_type_id":"4","last_reported":1738833007,"current_range_meters":38800,"station_id":"ce4bhhp2rcd13ifvqfm0","pricing_plan_id":"cebpf4jnsgd1na2vs0mg"},{"bike_id":"6712f04b-f35d-4e3a-a70d-c89aec85d9b2","system_id":"levelo_inurba_marseille","lat":43.22928,"lon":5.35353,"is_reserved":false,"is_disabled":false,"rental_uris":{"android":"levelo://app?vid=6712f04b-f35d-4e3a-a70d-c89aec85d9b2","ios":"levelo://app?vid=6712f04b-f35d-4e3a-a70d-c89aec85d9b2"},"vehicle_type_id":"4","last_reported":1738833007,"current_range_meters":38000,"station_id":"cpo3532slgdg3j2ikp40","pricing_plan_id":"cebpf4jnsgd1na2vs0mg"},{"bike_id":"80f789f5-fe59-4d39-929a-1d5e5cf352ea","system_id":"levelo_inurba_marseille","lat":43.29611,"lon":5.37728,"is_reserved":false,"is_disabled":false,"rental_uris":{"android":"levelo://app?vid=80f789f5-fe59-4d39-929a-1d5e5cf352ea","ios":"levelo://app?vid=80f789f5-fe59-4d39-929a-1d5e5cf352ea"},"vehicle_type_id":"4","last_reported":1738833007,"current_range_meters":39200,"station_id":"ce4bgi92rcd13ifvqb90","pricing_plan_id":"cebpf4jnsgd1na2vs0mg"},{"bike_id":"9470dd73-7393-47ca-8f05-fd76cdac2879","system_id":"levelo_inurba_marseille","lat":43.24055,"lon":5.37784,"is_reserved":false,"is_disabled":false,"rental_uris":{"android":"levelo://app?vid=9470dd73-7393-47ca-8f05-fd76cdac2879","ios":"levelo://app?vid=9470dd73-7393-47ca-8f05-fd76cdac2879"},"vehicle_type_id":"4","last_reported":1738833007,"current_range_meters":39200,"station_id":"ce4bhnp2rcd13ifvqgvg","pricing_plan_id":"cebpf4jnsgd1na2vs0mg"},{"bike_id":"5169f958-fc07-489b-b19b-5b31b5506996","system_id":"levelo_inurba_marseille","lat":43.30144,"lon":5.38095,"is_reserved":false,"is_disabled":false,"rental_uris":{"android":"levelo://app?vid=5169f958-fc07-489b-b19b-5b31b5506996","ios":"levelo://app?vid=5169f958-fc07-489b-b19b-5b31b5506996"},"vehicle_type_id":"4","last_reported":1738833007,"current_range_meters":25200,"station_id":"ce4bgjp2rcd13ifvqbh0","pricing_plan_id":"cebpf4jnsgd1na2vs0mg"},{"bike_id":"1631835e-eb64-4097-b39f-638a3f74b000","system_id":"levelo_inurba_marseille","lat":43.3027,"lon":5.37727,"is_reserved":false,"is_disabled":false,"rental_uris":{"android":"levelo://app?vid=1631835e-eb64-4097-b39f-638a3f74b000","ios":"levelo://app?vid=1631835e-eb64-4097-b39f-638a3f74b000"},"vehicle_type_id":"4","last_reported":1738833007,"current_range_meters":39200,"station_id":"ce4bguh2rcd13ifvqcj0","pricing_plan_id":"cebpf4jnsgd1na2vs0mg"},{"bike_id":"69e03564-17f5-44a1-8879-5030df3f7e46","system_id":"levelo_inurba_marseille","lat":43.30153,"lon":5.37423,"is_reserved":false,"is_disabled":false,"rental_uris":{"android":"levelo://app?vid=69e03564-17f5-44a1-8879-5030df3f7e46","ios":"levelo://app?vid=69e03564-17f5-44a1-8879-5030df3f7e46"},"vehicle_type_id":"4","last_reported":1738833007,"current_range_meters":36800,"station_id":"ce4bgs92rcd13ifvqcc0","pricing_plan_id":"cebpf4jnsgd1na2vs0mg"},{"bike_id":"058d3b72-e750-49df-85ff-8e59412b305d","system_id":"levelo_inurba_marseille","lat":43.29273,"lon":5.36847,"is_reserved":false,"is_disabled":false,"rental_uris":{"android":"levelo://app?vid=058d3b72-e750-49df-85ff-8e59412b305d","ios":"levelo://app?vid=058d3b72-e750-49df-85ff-8e59412b305d"},"vehicle_type_id":"4","last_reported":1738833007,"current_range_meters":36400,"station_id":"ce4bhbp2rcd13ifvqesg","pricing_plan_id":"cebpf4jnsgd1na2vs0mg"},{"bike_id":"b0abb723-72c6-43cf-9217-df332ce37e33","system_id":"levelo_inurba_marseille","lat":43.2994,"lon":5.36577,"is_reserved":false,"is_disabled":true,"rental_uris":{"android":"levelo://app?vid=b0abb723-72c6-43cf-9217-df332ce37e33","ios":"levelo://app?vid=b0abb723-72c6-43cf-9217-df332ce37e33"},"vehicle_type_id":"4","last_reported":1738833007,"current_range_meters":23200,"station_id":"ce4bgm92rcd13ifvqbr0","pricing_plan_id":"cebpf4jnsgd1na2vs0mg"},{"bike_id":"c1c75084-6fe2-45e8-8aa7-83f2021a6f51","system_id":"levelo_inurba_marseille","lat":43.27927,"lon":5.38746,"is_reserved":false,"is_disabled":false,"rental_uris":{"android":"levelo://app?vid=c1c75084-6fe2-45e8-8aa7-83f2021a6f51","ios":"levelo://app?vid=c1c75084-6fe2-45e8-8aa7-83f2021a6f51"},"vehicle_type_id":"4","last_reported":1738833007,"current_range_meters":39200,"station_id":"ce4bhg12rcd13ifvqf80","pricing_plan_id":"cebpf4jnsgd1na2vs0mg"},{"bike_id":"25659fa6-7f8a-4039-a312-8f7176f52022","system_id":"levelo_inurba_marseille","lat":43.29577,"lon":5.36738,"is_reserved":false,"is_disabled":false,"rental_uris":{"android":"levelo://app?vid=25659fa6-7f8a-4039-a312-8f7176f52022","ios":"levelo://app?vid=25659fa6-7f8a-4039-a312-8f7176f52022"},"vehicle_type_id":"4","last_reported":1738833007,"current_range_meters":24400,"station_id":"ce4bgph2rcd13ifvqc2g","pricing_plan_id":"cebpf4jnsgd1na2vs0mg"},{"bike_id":"12be4a65-e7b3-4220-9442-37e04da9989a","system_id":"levelo_inurba_marseille","lat":43.27162,"lon":5.41008,"is_reserved":false,"is_disabled":false,"rental_uris":{"android":"levelo://app?vid=12be4a65-e7b3-4220-9442-37e04da9989a","ios":"levelo://app?vid=12be4a65-e7b3-4220-9442-37e04da9989a"},"vehicle_type_id":"4","last_reported":1738833007,"current_range_meters":38800,"station_id":"ce4bhl12rcd13ifvqgf0","pricing_plan_id":"cebpf4jnsgd1na2vs0mg"},{"bike_id":"8604271a-1856-49cc-98e1-13f33c6adfc2","system_id":"levelo_inurba_marseille","lat":43.3138,"lon":5.36676,"is_reserved":false,"is_disabled":false,"rental_uris":{"android":"levelo://app?vid=8604271a-1856-49cc-98e1-13f33c6adfc2","ios":"levelo://app?vid=8604271a-1856-49cc-98e1-13f33c6adfc2"},"vehicle_type_id":"4","last_reported":1738833007,"current_range_meters":38800,"station_id":"ce4bgr92rcd13ifvqc6g","pricing_plan_id":"cebpf4jnsgd1na2vs0mg"},{"bike_id":"091d41d7-c1d3-4cdf-9b5c-052439e6b669","system_id":"levelo_inurba_marseille","lat":43.30492,"lon":5.36693,"is_reserved":false,"is_disabled":true,"rental_uris":{"android":"levelo://app?vid=091d41d7-c1d3-4cdf-9b5c-052439e6b669","ios":"levelo://app?vid=091d41d7-c1d3-4cdf-9b5c-052439e6b669"},"vehicle_type_id":"4","last_reported":1738833007,"current_range_meters":24000,"station_id":"","pricing_plan_id":"cebpf4jnsgd1na2vs0mg"},{"bike_id":"97658022-11d9-44b3-8e7f-2eacbc9ac49d","system_id":"levelo_inurba_marseille","lat":43.30911,"lon":5.36853,"is_reserved":false,"is_disabled":false,"rental_uris":{"android":"levelo://app?vid=97658022-11d9-44b3-8e7f-2eacbc9ac49d","ios":"levelo://app?vid=97658022-11d9-44b3-8e7f-2eacbc9ac49d"},"vehicle_type_id":"4","last_reported":1738833007,"current_range_meters":38000,"station_id":"ce4bgn92rcd13ifvqbvg","pricing_plan_id":"cebpf4jnsgd1na2vs0mg"},{"bike_id":"9db65b9b-d6cd-4be6-8b8a-8c2cd6f3a9c8","system_id":"levelo_inurba_marseille","lat":43.24072,"lon":5.37761,"is_reserved":false,"is_disabled":false,"rental_uris":{"android":"levelo://app?vid=9db65b9b-d6cd-4be6-8b8a-8c2cd6f3a9c8","ios":"levelo://app?vid=9db65b9b-d6cd-4be6-8b8a-8c2cd6f3a9c8"},"vehicle_type_id":"4","last_reported":1738833007,"current_range_meters":22400,"station_id":"ce4bhnp2rcd13ifvqgvg","pricing_plan_id":"cebpf4jnsgd1na2vs0mg"},{"bike_id":"bb59bbf9-a773-4050-b666-ab885ddc31a5","system_id":"levelo_inurba_marseille","lat":43.24077,"lon":5.37756,"is_reserved":false,"is_disabled":false,"rental_uris":{"android":"levelo://app?vid=bb59bbf9-a773-4050-b666-ab885ddc31a5","ios":"levelo://app?vid=bb59bbf9-a773-4050-b666-ab885ddc31a5"},"vehicle_type_id":"4","last_reported":1738833007,"current_range_meters":20000,"station_id":"ce4bhnp2rcd13ifvqgvg","pricing_plan_id":"cebpf4jnsgd1na2vs0mg"},{"bike_id":"a6b2428a-7d23-4892-a3bf-86cc25978b7a","system_id":"levelo_inurba_marseille","lat":43.2549,"lon":5.37643,"is_reserved":false,"is_disabled":true,"rental_uris":{"android":"levelo://app?vid=a6b2428a-7d23-4892-a3bf-86cc25978b7a","ios":"levelo://app?vid=a6b2428a-7d23-4892-a3bf-86cc25978b7a"},"vehicle_type_id":"4","last_reported":1738833007,"current_range_meters":23200,"station_id":"ce4bhh12rcd13ifvqff0","pricing_plan_id":"cebpf4jnsgd1na2vs0mg"},{"bike_id":"a49548cd-11e6-42cb-b750-1864d28f9ef0","system_id":"levelo_inurba_marseille","lat":43.29274,"lon":5.40123,"is_reserved":false,"is_disabled":false,"rental_uris":{"android":"levelo://app?vid=a49548cd-11e6-42cb-b750-1864d28f9ef0","ios":"levelo://app?vid=a49548cd-11e6-42cb-b750-1864d28f9ef0"},"vehicle_type_id":"4","last_reported":1738833007,"current_range_meters":37600,"station_id":"ce4bh312rcd13ifvqdk0","pricing_plan_id":"cebpf4jnsgd1na2vs0mg"},{"bike_id":"ea51b30d-1640-4c8f-b921-076520204eb4","system_id":"levelo_inurba_marseille","lat":43.27312,"lon":5.39105,"is_reserved":false,"is_disabled":false,"rental_uris":{"android":"levelo://app?vid=ea51b30d-1640-4c8f-b921-076520204eb4","ios":"levelo://app?vid=ea51b30d-1640-4c8f-b921-076520204eb4"},"vehicle_type_id":"4","last_reported":1738833007,"current_range_meters":38800,"station_id":"ce4bhgp2rcd13ifvqfe0","pricing_plan_id":"cebpf4jnsgd1na2vs0mg"},{"bike_id":"c85a26e1-f53e-4ec1-b1ea-8b32d23f1f4d","system_id":"levelo_inurba_marseille","lat":43.22997,"lon":5.35478,"is_reserved":false,"is_disabled":true,"rental_uris":{"android":"levelo://app?vid=c85a26e1-f53e-4ec1-b1ea-8b32d23f1f4d","ios":"levelo://app?vid=c85a26e1-f53e-4ec1-b1ea-8b32d23f1f4d"},"vehicle_type_id":"4","last_reported":1738833007,"current_range_meters":18000,"station_id":"cpo3342slgdg3j2ifvpg","pricing_plan_id":"cebpf4jnsgd1na2vs0mg"},{"bike_id":"679274d3-e500-4dd7-ace3-877f33c86066","system_id":"levelo_inurba_marseille","lat":43.27062,"lon":5.40268,"is_reserved":false,"is_disabled":false,"rental_uris":{"android":"levelo://app?vid=679274d3-e500-4dd7-ace3-877f33c86066","ios":"levelo://app?vid=679274d3-e500-4dd7-ace3-877f33c86066"},"vehicle_type_id":"4","last_reported":1738833007,"current_range_meters":30400,"station_id":"ce4bhk92rcd13ifvqgc0","pricing_plan_id":"cebpf4jnsgd1na2vs0mg"},{"bike_id":"dec579f0-be88-4c68-b30c-c742337fdb89","system_id":"levelo_inurba_marseille","lat":43.30543,"lon":5.38436,"is_reserved":false,"is_disabled":false,"rental_uris":{"android":"levelo://app?vid=dec579f0-be88-4c68-b30c-c742337fdb89","ios":"levelo://app?vid=dec579f0-be88-4c68-b30c-c742337fdb89"},"vehicle_type_id":"4","last_reported":1738833007,"current_range_meters":26000,"station_id":"ce4bgg92rcd13ifvqb30","pricing_plan_id":"cebpf4jnsgd1na2vs0mg"},{"bike_id":"3192cf42-79f3-4be1-8549-9fbaeef06aa7","system_id":"levelo_inurba_marseille","lat":43.30463,"lon":5.37908,"is_reserved":false,"is_disabled":false,"rental_uris":{"android":"levelo://app?vid=3192cf42-79f3-4be1-8549-9fbaeef06aa7","ios":"levelo://app?vid=3192cf42-79f3-4be1-8549-9fbaeef06aa7"},"vehicle_type_id":"4","last_reported":1738833007,"current_range_meters":17200,"station_id":"ce4bgup2rcd13ifvqcn0","pricing_plan_id":"cebpf4jnsgd1na2vs0mg"},{"bike_id":"b53fa945-e9cc-4182-a468-22d651fe530e","system_id":"levelo_inurba_marseille","lat":43.24642,"lon":5.38911,"is_reserved":false,"is_disabled":false,"rental_uris":{"android":"levelo://app?vid=b53fa945-e9cc-4182-a468-22d651fe530e","ios":"levelo://app?vid=b53fa945-e9cc-4182-a468-22d651fe530e"},"vehicle_type_id":"4","last_reported":1738833007,"current_range_meters":17200,"station_id":"ce4bhg12rcd13ifvqf60","pricing_plan_id":"cebpf4jnsgd1na2vs0mg"},{"bike_id":"565d6fca-10b7-4b88-8101-89e4cbc6df92","system_id":"levelo_inurba_marseille","lat":43.28827,"lon":5.35861,"is_reserved":false,"is_disabled":false,"rental_uris":{"android":"levelo://app?vid=565d6fca-10b7-4b88-8101-89e4cbc6df92","ios":"levelo://app?vid=565d6fca-10b7-4b88-8101-89e4cbc6df92"},"vehicle_type_id":"4","last_reported":1738833007,"current_range_meters":35600,"station_id":"ce4bhb12rcd13ifvqem0","pricing_plan_id":"cebpf4jnsgd1na2vs0mg"},{"bike_id":"f6abcce2-0993-4345-8889-2e5c8bb1bf44","system_id":"levelo_inurba_marseille","lat":43.23147,"lon":5.43707,"is_reserved":false,"is_disabled":false,"rental_uris":{"android":"levelo://app?vid=f6abcce2-0993-4345-8889-2e5c8bb1bf44","ios":"levelo://app?vid=f6abcce2-0993-4345-8889-2e5c8bb1bf44"},"vehicle_type_id":"4","last_reported":1738833007,"current_range_meters":17600,"station_id":"ce4bhmp2rcd13ifvqgog","pricing_plan_id":"cebpf4jnsgd1na2vs0mg"},{"bike_id":"017c3247-6847-4a18-aea2-0e806d0dec2a","system_id":"levelo_inurba_marseille","lat":43.336,"lon":5.41033,"is_reserved":false,"is_disabled":false,"rental_uris":{"android":"levelo://app?vid=017c3247-6847-4a18-aea2-0e806d0dec2a","ios":"levelo://app?vid=017c3247-6847-4a18-aea2-0e806d0dec2a"},"vehicle_type_id":"4","last_reported":1738833007,"current_range_meters":18000,"station_id":"ce4bhqh2rcd13ifvqhmg","pricing_plan_id":"cebpf4jnsgd1na2vs0mg"},{"bike_id":"bfec391f-a951-48b3-8a91-fa55aac51292","system_id":"levelo_inurba_marseille","lat":43.28465,"lon":5.38528,"is_reserved":false,"is_disabled":false,"rental_uris":{"android":"levelo://app?vid=bfec391f-a951-48b3-8a91-fa55aac51292","ios":"levelo://app?vid=bfec391f-a951-48b3-8a91-fa55aac51292"},"vehicle_type_id":"4","last_reported":1738833007,"current_range_meters":30000,"station_id":"ce4bh8p2rcd13ifvqeb0","pricing_plan_id":"cebpf4jnsgd1na2vs0mg"},{"bike_id":"154ffdd7-ac39-415e-b2e1-fd3c07fe937d","system_id":"levelo_inurba_marseille","lat":43.2407,"lon":5.37767,"is_reserved":false,"is_disabled":false,"rental_uris":{"android":"levelo://app?vid=154ffdd7-ac39-415e-b2e1-fd3c07fe937d","ios":"levelo://app?vid=154ffdd7-ac39-415e-b2e1-fd3c07fe937d"},"vehicle_type_id":"4","last_reported":1738833007,"current_range_meters":22800,"station_id":"ce4bhnp2rcd13ifvqgvg","pricing_plan_id":"cebpf4jnsgd1na2vs0mg"},{"bike_id":"6a3f47a3-8f7a-4dd2-a856-450fdd8291f6","system_id":"levelo_inurba_marseille","lat":43.30529,"lon":5.36722,"is_reserved":false,"is_disabled":false,"rental_uris":{"android":"levelo://app?vid=6a3f47a3-8f7a-4dd2-a856-450fdd8291f6","ios":"levelo://app?vid=6a3f47a3-8f7a-4dd2-a856-450fdd8291f6"},"vehicle_type_id":"4","last_reported":1738833007,"current_range_meters":30000,"station_id":"ce4bgrp2rcd13ifvqc9g","pricing_plan_id":"cebpf4jnsgd1na2vs0mg"},{"bike_id":"e68d3488-b6e9-4d42-a673-21e601a75114","system_id":"levelo_inurba_marseille","lat":43.2583,"lon":5.3943,"is_reserved":false,"is_disabled":false,"rental_uris":{"android":"levelo://app?vid=e68d3488-b6e9-4d42-a673-21e601a75114","ios":"levelo://app?vid=e68d3488-b6e9-4d42-a673-21e601a75114"},"vehicle_type_id":"4","last_reported":1738833007,"current_range_meters":8400,"station_id":"ce4bhip2rcd13ifvqft0","pricing_plan_id":"cebpf4jnsgd1na2vs0mg"},{"bike_id":"1f60af65-67e4-4506-92ce-b099d71368bc","system_id":"levelo_inurba_marseille","lat":43.2736,"lon":5.36261,"is_reserved":false,"is_disabled":false,"rental_uris":{"android":"levelo://app?vid=1f60af65-67e4-4506-92ce-b099d71368bc","ios":"levelo://app?vid=1f60af65-67e4-4506-92ce-b099d71368bc"},"vehicle_type_id":"4","last_reported":1738833007,"current_range_meters":38800,"station_id":"ce4bhbh2rcd13ifvqeo0","pricing_plan_id":"cebpf4jnsgd1na2vs0mg"},{"bike_id":"7e8a0b28-3f8b-4de5-a3dd-c9e16385764f","system_id":"levelo_inurba_marseille","lat":43.26047,"lon":5.39415,"is_reserved":false,"is_disabled":false,"rental_uris":{"android":"levelo://app?vid=7e8a0b28-3f8b-4de5-a3dd-c9e16385764f","ios":"levelo://app?vid=7e8a0b28-3f8b-4de5-a3dd-c9e16385764f"},"vehicle_type_id":"4","last_reported":1738833007,"current_range_meters":38800,"station_id":"ce4bhh92rcd13ifvqfj0","pricing_plan_id":"cebpf4jnsgd1na2vs0mg"},{"bike_id":"2522c914-8450-407c-9332-8d30e2d74c38","system_id":"levelo_inurba_marseille","lat":43.29722,"lon":5.37687,"is_reserved":false,"is_disabled":false,"rental_uris":{"android":"levelo://app?vid=2522c914-8450-407c-9332-8d30e2d74c38","ios":"levelo://app?vid=2522c914-8450-407c-9332-8d30e2d74c38"},"vehicle_type_id":"4","last_reported":1738833007,"current_range_meters":26000,"station_id":"ce4bgkh2rcd13ifvqbl0","pricing_plan_id":"cebpf4jnsgd1na2vs0mg"},{"bike_id":"a9d2cdd8-e8cc-40c9-87d7-d5a1d12197b1","system_id":"levelo_inurba_marseille","lat":43.27493,"lon":5.42456,"is_reserved":false,"is_disabled":false,"rental_uris":{"android":"levelo://app?vid=a9d2cdd8-e8cc-40c9-87d7-d5a1d12197b1","ios":"levelo://app?vid=a9d2cdd8-e8cc-40c9-87d7-d5a1d12197b1"},"vehicle_type_id":"4","last_reported":1738833007,"current_range_meters":38400,"station_id":"ce4bhn92rcd13ifvqgrg","pricing_plan_id":"cebpf4jnsgd1na2vs0mg"},{"bike_id":"02c10881-a574-4412-870d-a8a1969c9255","system_id":"levelo_inurba_marseille","lat":43.29013,"lon":5.4,"is_reserved":false,"is_disabled":false,"rental_uris":{"android":"levelo://app?vid=02c10881-a574-4412-870d-a8a1969c9255","ios":"levelo://app?vid=02c10881-a574-4412-870d-a8a1969c9255"},"vehicle_type_id":"4","last_reported":1738833007,"current_range_meters":38400,"station_id":"ce4bh392rcd13ifvqdm0","pricing_plan_id":"cebpf4jnsgd1na2vs0mg"},{"bike_id":"9193840a-a4d3-45d8-a9f7-dfd661a76b64","system_id":"levelo_inurba_marseille","lat":43.314,"lon":5.36664,"is_reserved":false,"is_disabled":false,"rental_uris":{"android":"levelo://app?vid=9193840a-a4d3-45d8-a9f7-dfd661a76b64","ios":"levelo://app?vid=9193840a-a4d3-45d8-a9f7-dfd661a76b64"},"vehicle_type_id":"4","last_reported":1738833007,"current_range_meters":39200,"station_id":"ce4bgr92rcd13ifvqc6g","pricing_plan_id":"cebpf4jnsgd1na2vs0mg"},{"bike_id":"35b0fbe6-22db-46fb-a54a-76af362a8729","system_id":"levelo_inurba_marseille","lat":43.2997,"lon":5.41338,"is_reserved":false,"is_disabled":false,"rental_uris":{"android":"levelo://app?vid=35b0fbe6-22db-46fb-a54a-76af362a8729","ios":"levelo://app?vid=35b0fbe6-22db-46fb-a54a-76af362a8729"},"vehicle_type_id":"4","last_reported":1738833007,"current_range_meters":34800,"station_id":"ce4bhp12rcd13ifvqh9g","pricing_plan_id":"cebpf4jnsgd1na2vs0mg"},{"bike_id":"88ce7e1b-d6f8-4620-beef-be982f304f3e","system_id":"levelo_inurba_marseille","lat":43.3211,"lon":5.36782,"is_reserved":false,"is_disabled":false,"rental_uris":{"android":"levelo://app?vid=88ce7e1b-d6f8-4620-beef-be982f304f3e","ios":"levelo://app?vid=88ce7e1b-d6f8-4620-beef-be982f304f3e"},"vehicle_type_id":"4","last_reported":1738833007,"current_range_meters":38000,"station_id":"ce4bhrh2rcd13ifvqhug","pricing_plan_id":"cebpf4jnsgd1na2vs0mg"},{"bike_id":"344d1955-5263-40eb-a201-ab603aa02c10","system_id":"levelo_inurba_marseille","lat":43.23956,"lon":5.36647,"is_reserved":false,"is_disabled":false,"rental_uris":{"android":"levelo://app?vid=344d1955-5263-40eb-a201-ab603aa02c10","ios":"levelo://app?vid=344d1955-5263-40eb-a201-ab603aa02c10"},"vehicle_type_id":"4","last_reported":1738833007,"current_range_meters":38000,"station_id":"ce4bhi12rcd13ifvqfp0","pricing_plan_id":"cebpf4jnsgd1na2vs0mg"},{"bike_id":"0083c554-f72b-4dec-a9ea-993a6d3d9431","system_id":"levelo_inurba_marseille","lat":43.27053,"lon":5.40275,"is_reserved":false,"is_disabled":false,"rental_uris":{"android":"levelo://app?vid=0083c554-f72b-4dec-a9ea-993a6d3d9431","ios":"levelo://app?vid=0083c554-f72b-4dec-a9ea-993a6d3d9431"},"vehicle_type_id":"4","last_reported":1738833007,"current_range_meters":6800,"station_id":"ce4bhk92rcd13ifvqgc0","pricing_plan_id":"cebpf4jnsgd1na2vs0mg"},{"bike_id":"41a7c36a-2ba7-456e-9776-92a30f133957","system_id":"levelo_inurba_marseille","lat":43.27192,"lon":5.39186,"is_reserved":false,"is_disabled":false,"rental_uris":{"android":"levelo://app?vid=41a7c36a-2ba7-456e-9776-92a30f133957","ios":"levelo://app?vid=41a7c36a-2ba7-456e-9776-92a30f133957"},"vehicle_type_id":"4","last_reported":1738833007,"current_range_meters":38000,"station_id":"ce4bhhp2rcd13ifvqfm0","pricing_plan_id":"cebpf4jnsgd1na2vs0mg"},{"bike_id":"2f9a6647-bfb0-4c5f-b2d5-6b23d0794b76","system_id":"levelo_inurba_marseille","lat":43.25574,"lon":5.38249,"is_reserved":false,"is_disabled":true,"rental_uris":{"android":"levelo://app?vid=2f9a6647-bfb0-4c5f-b2d5-6b23d0794b76","ios":"levelo://app?vid=2f9a6647-bfb0-4c5f-b2d5-6b23d0794b76"},"vehicle_type_id":"4","last_reported":1738833007,"current_range_meters":35600,"station_id":"ce4bhih2rcd13ifvqfs0","pricing_plan_id":"cebpf4jnsgd1na2vs0mg"},{"bike_id":"d25a4504-17d4-4308-88f8-6085b6b06f28","system_id":"levelo_inurba_marseille","lat":43.28942,"lon":5.36397,"is_reserved":false,"is_disabled":true,"rental_uris":{"android":"levelo://app?vid=d25a4504-17d4-4308-88f8-6085b6b06f28","ios":"levelo://app?vid=d25a4504-17d4-4308-88f8-6085b6b06f28"},"vehicle_type_id":"4","last_reported":1738833007,"current_range_meters":17600,"station_id":"ce4bhc92rcd13ifvqetg","pricing_plan_id":"cebpf4jnsgd1na2vs0mg"},{"bike_id":"be98d1a4-25d6-4e7e-ac77-f18d78a92b9d","system_id":"levelo_inurba_marseille","lat":43.28155,"lon":5.42663,"is_reserved":false,"is_disabled":false,"rental_uris":{"android":"levelo://app?vid=be98d1a4-25d6-4e7e-ac77-f18d78a92b9d","ios":"levelo://app?vid=be98d1a4-25d6-4e7e-ac77-f18d78a92b9d"},"vehicle_type_id":"4","last_reported":1738833007,"current_range_meters":8000,"station_id":"ce4bhnh2rcd13ifvqgug","pricing_plan_id":"cebpf4jnsgd1na2vs0mg"},{"bike_id":"786af5a6-7181-4746-8e7c-5055a97f6274","system_id":"levelo_inurba_marseille","lat":43.28148,"lon":5.42646,"is_reserved":false,"is_disabled":true,"rental_uris":{"android":"levelo://app?vid=786af5a6-7181-4746-8e7c-5055a97f6274","ios":"levelo://app?vid=786af5a6-7181-4746-8e7c-5055a97f6274"},"vehicle_type_id":"4","last_reported":1738833007,"current_range_meters":28800,"station_id":"ce4bhnh2rcd13ifvqgug","pricing_plan_id":"cebpf4jnsgd1na2vs0mg"},{"bike_id":"e15065a6-8250-416b-8039-693e48ff6eed","system_id":"levelo_inurba_marseille","lat":43.24181,"lon":5.39726,"is_reserved":false,"is_disabled":false,"rental_uris":{"android":"levelo://app?vid=e15065a6-8250-416b-8039-693e48ff6eed","ios":"levelo://app?vid=e15065a6-8250-416b-8039-693e48ff6eed"},"vehicle_type_id":"4","last_reported":1738833007,"current_range_meters":38800,"station_id":"ce4bhn12rcd13ifvqgpg","pricing_plan_id":"cebpf4jnsgd1na2vs0mg"},{"bike_id":"4c76cb7e-eca9-438f-a4b3-b0ceeafe88c7","system_id":"levelo_inurba_marseille","lat":43.30903,"lon":5.36884,"is_reserved":false,"is_disabled":false,"rental_uris":{"android":"levelo://app?vid=4c76cb7e-eca9-438f-a4b3-b0ceeafe88c7","ios":"levelo://app?vid=4c76cb7e-eca9-438f-a4b3-b0ceeafe88c7"},"vehicle_type_id":"4","last_reported":1738833007,"current_range_meters":38800,"station_id":"ce4bgn92rcd13ifvqbvg","pricing_plan_id":"cebpf4jnsgd1na2vs0mg"},{"bike_id":"dea3caf3-4372-452d-a8b7-101a967d7129","system_id":"levelo_inurba_marseille","lat":43.24161,"lon":5.3973,"is_reserved":false,"is_disabled":false,"rental_uris":{"android":"levelo://app?vid=dea3caf3-4372-452d-a8b7-101a967d7129","ios":"levelo://app?vid=dea3caf3-4372-452d-a8b7-101a967d7129"},"vehicle_type_id":"4","last_reported":1738833007,"current_range_meters":16800,"station_id":"ce4bhn12rcd13ifvqgpg","pricing_plan_id":"cebpf4jnsgd1na2vs0mg"},{"bike_id":"6cc17b24-c47e-420a-adb6-514dcc7d7a17","system_id":"levelo_inurba_marseille","lat":43.29298,"lon":5.37461,"is_reserved":false,"is_disabled":false,"rental_uris":{"android":"levelo://app?vid=6cc17b24-c47e-420a-adb6-514dcc7d7a17","ios":"levelo://app?vid=6cc17b24-c47e-420a-adb6-514dcc7d7a17"},"vehicle_type_id":"4","last_reported":1738833007,"current_range_meters":38800,"station_id":"ce4bgi12rcd13ifvqb70","pricing_plan_id":"cebpf4jnsgd1na2vs0mg"},{"bike_id":"9b7355dc-7165-40f0-8cd2-81f22484ab5d","system_id":"levelo_inurba_marseille","lat":43.23953,"lon":5.36638,"is_reserved":false,"is_disabled":false,"rental_uris":{"android":"levelo://app?vid=9b7355dc-7165-40f0-8cd2-81f22484ab5d","ios":"levelo://app?vid=9b7355dc-7165-40f0-8cd2-81f22484ab5d"},"vehicle_type_id":"4","last_reported":1738833007,"current_range_meters":32800,"station_id":"ce4bhi12rcd13ifvqfp0","pricing_plan_id":"cebpf4jnsgd1na2vs0mg"},{"bike_id":"599d8ef5-e5c8-4c93-877c-f39657a7a8dc","system_id":"levelo_inurba_marseille","lat":43.30534,"lon":5.3673,"is_reserved":false,"is_disabled":false,"rental_uris":{"android":"levelo://app?vid=599d8ef5-e5c8-4c93-877c-f39657a7a8dc","ios":"levelo://app?vid=599d8ef5-e5c8-4c93-877c-f39657a7a8dc"},"vehicle_type_id":"4","last_reported":1738833007,"current_range_meters":36800,"station_id":"ce4bgrp2rcd13ifvqc9g","pricing_plan_id":"cebpf4jnsgd1na2vs0mg"},{"bike_id":"9b19789b-537f-4ed5-92aa-6fda84d65c3e","system_id":"levelo_inurba_marseille","lat":43.3091,"lon":5.36839,"is_reserved":false,"is_disabled":false,"rental_uris":{"android":"levelo://app?vid=9b19789b-537f-4ed5-92aa-6fda84d65c3e","ios":"levelo://app?vid=9b19789b-537f-4ed5-92aa-6fda84d65c3e"},"vehicle_type_id":"4","last_reported":1738833007,"current_range_meters":18800,"station_id":"ce4bgn92rcd13ifvqbvg","pricing_plan_id":"cebpf4jnsgd1na2vs0mg"},{"bike_id":"5faf1ae7-8dab-473f-a1d4-d668766e2b45","system_id":"levelo_inurba_marseille","lat":43.26673,"lon":5.38272,"is_reserved":false,"is_disabled":false,"rental_uris":{"android":"levelo://app?vid=5faf1ae7-8dab-473f-a1d4-d668766e2b45","ios":"levelo://app?vid=5faf1ae7-8dab-473f-a1d4-d668766e2b45"},"vehicle_type_id":"4","last_reported":1738833007,"current_range_meters":28000,"station_id":"ce4bhg92rcd13ifvqf90","pricing_plan_id":"cebpf4jnsgd1na2vs0mg"},{"bike_id":"931c3b97-cce1-4ebe-a291-6c50a6f2810e","system_id":"levelo_inurba_marseille","lat":43.317957,"lon":5.374267,"is_reserved":false,"is_disabled":true,"rental_uris":{"android":"levelo://app?vid=931c3b97-cce1-4ebe-a291-6c50a6f2810e","ios":"levelo://app?vid=931c3b97-cce1-4ebe-a291-6c50a6f2810e"},"vehicle_type_id":"4","last_reported":1738833007,"current_range_meters":2000,"station_id":"","pricing_plan_id":"cebpf4jnsgd1na2vs0mg"},{"bike_id":"b9452b32-8f5d-4c98-bc11-fee58cf523e3","system_id":"levelo_inurba_marseille","lat":43.29904,"lon":5.43658,"is_reserved":false,"is_disabled":false,"rental_uris":{"android":"levelo://app?vid=b9452b32-8f5d-4c98-bc11-fee58cf523e3","ios":"levelo://app?vid=b9452b32-8f5d-4c98-bc11-fee58cf523e3"},"vehicle_type_id":"4","last_reported":1738833007,"current_range_meters":20800,"station_id":"ce4bhpp2rcd13ifvqhfg","pricing_plan_id":"cebpf4jnsgd1na2vs0mg"},{"bike_id":"b553fb90-bc31-4d0d-b0ad-01b7ba79c22e","system_id":"levelo_inurba_marseille","lat":43.25002,"lon":5.38945,"is_reserved":false,"is_disabled":false,"rental_uris":{"android":"levelo://app?vid=b553fb90-bc31-4d0d-b0ad-01b7ba79c22e","ios":"levelo://app?vid=b553fb90-bc31-4d0d-b0ad-01b7ba79c22e"},"vehicle_type_id":"4","last_reported":1738833007,"current_range_meters":19200,"station_id":"ce4bhgp2rcd13ifvqfd0","pricing_plan_id":"cebpf4jnsgd1na2vs0mg"},{"bike_id":"13b3b6a1-f920-47ec-ad77-f4e3fb2eb0d2","system_id":"levelo_inurba_marseille","lat":43.25835,"lon":5.39464,"is_reserved":false,"is_disabled":false,"rental_uris":{"android":"levelo://app?vid=13b3b6a1-f920-47ec-ad77-f4e3fb2eb0d2","ios":"levelo://app?vid=13b3b6a1-f920-47ec-ad77-f4e3fb2eb0d2"},"vehicle_type_id":"4","last_reported":1738833007,"current_range_meters":38800,"station_id":"ce4bhip2rcd13ifvqft0","pricing_plan_id":"cebpf4jnsgd1na2vs0mg"},{"bike_id":"606a8f1d-223e-46f0-94eb-58a27a8d8c60","system_id":"levelo_inurba_marseille","lat":43.2594,"lon":5.40902,"is_reserved":false,"is_disabled":false,"rental_uris":{"android":"levelo://app?vid=606a8f1d-223e-46f0-94eb-58a27a8d8c60","ios":"levelo://app?vid=606a8f1d-223e-46f0-94eb-58a27a8d8c60"},"vehicle_type_id":"4","last_reported":1738833007,"current_range_meters":28400,"station_id":"ce4bhm92rcd13ifvqglg","pricing_plan_id":"cebpf4jnsgd1na2vs0mg"},{"bike_id":"874de4a1-e3bc-4b6a-b89b-f2d4ac15bc74","system_id":"levelo_inurba_marseille","lat":43.33018,"lon":5.39035,"is_reserved":false,"is_disabled":false,"rental_uris":{"android":"levelo://app?vid=874de4a1-e3bc-4b6a-b89b-f2d4ac15bc74","ios":"levelo://app?vid=874de4a1-e3bc-4b6a-b89b-f2d4ac15bc74"},"vehicle_type_id":"4","last_reported":1738833007,"current_range_meters":31200,"station_id":"ce4bhr92rcd13ifvqhrg","pricing_plan_id":"cebpf4jnsgd1na2vs0mg"},{"bike_id":"6100990f-c4b7-4419-ab12-3d9c2a9f7c81","system_id":"levelo_inurba_marseille","lat":43.28245,"lon":5.35075,"is_reserved":false,"is_disabled":false,"rental_uris":{"android":"levelo://app?vid=6100990f-c4b7-4419-ab12-3d9c2a9f7c81","ios":"levelo://app?vid=6100990f-c4b7-4419-ab12-3d9c2a9f7c81"},"vehicle_type_id":"4","last_reported":1738833007,"current_range_meters":35600,"station_id":"ce4bhbp2rcd13ifvqerg","pricing_plan_id":"cebpf4jnsgd1na2vs0mg"},{"bike_id":"7e9d4236-f1f2-4603-a435-14574573f5a7","system_id":"levelo_inurba_marseille","lat":43.28428,"lon":5.39193,"is_reserved":false,"is_disabled":false,"rental_uris":{"android":"levelo://app?vid=7e9d4236-f1f2-4603-a435-14574573f5a7","ios":"levelo://app?vid=7e9d4236-f1f2-4603-a435-14574573f5a7"},"vehicle_type_id":"4","last_reported":1738833007,"current_range_meters":38800,"station_id":"ce4bhoh2rcd13ifvqh5g","pricing_plan_id":"cebpf4jnsgd1na2vs0mg"},{"bike_id":"911f4bca-2035-4b31-a700-e992630ca766","system_id":"levelo_inurba_marseille","lat":43.26049,"lon":5.39403,"is_reserved":false,"is_disabled":false,"rental_uris":{"android":"levelo://app?vid=911f4bca-2035-4b31-a700-e992630ca766","ios":"levelo://app?vid=911f4bca-2035-4b31-a700-e992630ca766"},"vehicle_type_id":"4","last_reported":1738833007,"current_range_meters":38800,"station_id":"ce4bhh92rcd13ifvqfj0","pricing_plan_id":"cebpf4jnsgd1na2vs0mg"},{"bike_id":"0573d8db-ba52-4804-8faa-a5b4241c13e3","system_id":"levelo_inurba_marseille","lat":43.3095,"lon":5.39047,"is_reserved":false,"is_disabled":false,"rental_uris":{"android":"levelo://app?vid=0573d8db-ba52-4804-8faa-a5b4241c13e3","ios":"levelo://app?vid=0573d8db-ba52-4804-8faa-a5b4241c13e3"},"vehicle_type_id":"4","last_reported":1738833007,"current_range_meters":38400,"station_id":"ce4bgup2rcd13ifvqco0","pricing_plan_id":"cebpf4jnsgd1na2vs0mg"},{"bike_id":"f6efe962-0131-47e4-9dda-fd4f708560de","system_id":"levelo_inurba_marseille","lat":43.23148,"lon":5.4372,"is_reserved":false,"is_disabled":false,"rental_uris":{"android":"levelo://app?vid=f6efe962-0131-47e4-9dda-fd4f708560de","ios":"levelo://app?vid=f6efe962-0131-47e4-9dda-fd4f708560de"},"vehicle_type_id":"4","last_reported":1738833007,"current_range_meters":18000,"station_id":"ce4bhmp2rcd13ifvqgog","pricing_plan_id":"cebpf4jnsgd1na2vs0mg"},{"bike_id":"0022f75c-ba13-4ecf-bcf1-cd2d261a34ce","system_id":"levelo_inurba_marseille","lat":43.24689,"lon":5.38171,"is_reserved":false,"is_disabled":false,"rental_uris":{"android":"levelo://app?vid=0022f75c-ba13-4ecf-bcf1-cd2d261a34ce","ios":"levelo://app?vid=0022f75c-ba13-4ecf-bcf1-cd2d261a34ce"},"vehicle_type_id":"4","last_reported":1738833007,"current_range_meters":36800,"station_id":"ce4bhih2rcd13ifvqfr0","pricing_plan_id":"cebpf4jnsgd1na2vs0mg"},{"bike_id":"2a480fc9-8aba-413d-b048-db7d23138de6","system_id":"levelo_inurba_marseille","lat":43.29291,"lon":5.38451,"is_reserved":false,"is_disabled":false,"rental_uris":{"android":"levelo://app?vid=2a480fc9-8aba-413d-b048-db7d23138de6","ios":"levelo://app?vid=2a480fc9-8aba-413d-b048-db7d23138de6"},"vehicle_type_id":"4","last_reported":1738833007,"current_range_meters":24400,"station_id":"ce4bh692rcd13ifvqea0","pricing_plan_id":"cebpf4jnsgd1na2vs0mg"},{"bike_id":"de8b98cc-777c-42cf-a67e-2d28d36cc37e","system_id":"levelo_inurba_marseille","lat":43.282954,"lon":5.381258,"is_reserved":false,"is_disabled":false,"rental_uris":{"android":"levelo://app?vid=de8b98cc-777c-42cf-a67e-2d28d36cc37e","ios":"levelo://app?vid=de8b98cc-777c-42cf-a67e-2d28d36cc37e"},"vehicle_type_id":"4","last_reported":1738833007,"current_range_meters":27200,"station_id":"ce4bh412rcd13ifvqdr0","pricing_plan_id":"cebpf4jnsgd1na2vs0mg"},{"bike_id":"9c8941af-9f6f-40f6-b874-a51eda5db35c","system_id":"levelo_inurba_marseille","lat":43.29694,"lon":5.37686,"is_reserved":false,"is_disabled":false,"rental_uris":{"android":"levelo://app?vid=9c8941af-9f6f-40f6-b874-a51eda5db35c","ios":"levelo://app?vid=9c8941af-9f6f-40f6-b874-a51eda5db35c"},"vehicle_type_id":"4","last_reported":1738833007,"current_range_meters":38400,"station_id":"ce4bgkh2rcd13ifvqbl0","pricing_plan_id":"cebpf4jnsgd1na2vs0mg"},{"bike_id":"f66bb5d9-3da6-4930-bf55-0906bcacbe5b","system_id":"levelo_inurba_marseille","lat":43.28344,"lon":5.38106,"is_reserved":false,"is_disabled":false,"rental_uris":{"android":"levelo://app?vid=f66bb5d9-3da6-4930-bf55-0906bcacbe5b","ios":"levelo://app?vid=f66bb5d9-3da6-4930-bf55-0906bcacbe5b"},"vehicle_type_id":"4","last_reported":1738833007,"current_range_meters":35200,"station_id":"ce4bh412rcd13ifvqdr0","pricing_plan_id":"cebpf4jnsgd1na2vs0mg"},{"bike_id":"504767d4-8796-46e2-bb94-19fcbc3f75db","system_id":"levelo_inurba_marseille","lat":43.27496,"lon":5.42465,"is_reserved":false,"is_disabled":false,"rental_uris":{"android":"levelo://app?vid=504767d4-8796-46e2-bb94-19fcbc3f75db","ios":"levelo://app?vid=504767d4-8796-46e2-bb94-19fcbc3f75db"},"vehicle_type_id":"4","last_reported":1738833007,"current_range_meters":19200,"station_id":"ce4bhn92rcd13ifvqgrg","pricing_plan_id":"cebpf4jnsgd1na2vs0mg"},{"bike_id":"bc4186b3-1073-492b-ab95-0326a7b12d0e","system_id":"levelo_inurba_marseille","lat":43.28412,"lon":5.34974,"is_reserved":false,"is_disabled":false,"rental_uris":{"android":"levelo://app?vid=bc4186b3-1073-492b-ab95-0326a7b12d0e","ios":"levelo://app?vid=bc4186b3-1073-492b-ab95-0326a7b12d0e"},"vehicle_type_id":"4","last_reported":1738833007,"current_range_meters":32400,"station_id":"ce4bhbh2rcd13ifvqepg","pricing_plan_id":"cebpf4jnsgd1na2vs0mg"},{"bike_id":"70fbe035-321d-404d-abb5-90c57c24fee3","system_id":"levelo_inurba_marseille","lat":43.29888,"lon":5.38143,"is_reserved":false,"is_disabled":true,"rental_uris":{"android":"levelo://app?vid=70fbe035-321d-404d-abb5-90c57c24fee3","ios":"levelo://app?vid=70fbe035-321d-404d-abb5-90c57c24fee3"},"vehicle_type_id":"4","last_reported":1738833007,"current_range_meters":0,"station_id":"ce4bgj12rcd13ifvqbc0","pricing_plan_id":"cebpf4jnsgd1na2vs0mg"},{"bike_id":"4d04ccd7-41fe-45b8-a433-538275d1104c","system_id":"levelo_inurba_marseille","lat":43.30126,"lon":5.37429,"is_reserved":false,"is_disabled":false,"rental_uris":{"android":"levelo://app?vid=4d04ccd7-41fe-45b8-a433-538275d1104c","ios":"levelo://app?vid=4d04ccd7-41fe-45b8-a433-538275d1104c"},"vehicle_type_id":"4","last_reported":1738833007,"current_range_meters":32000,"station_id":"ce4bgs92rcd13ifvqcc0","pricing_plan_id":"cebpf4jnsgd1na2vs0mg"},{"bike_id":"6d761807-90b5-4ec6-8237-30bc7ca7f4c0","system_id":"levelo_inurba_marseille","lat":43.25827,"lon":5.39443,"is_reserved":false,"is_disabled":false,"rental_uris":{"android":"levelo://app?vid=6d761807-90b5-4ec6-8237-30bc7ca7f4c0","ios":"levelo://app?vid=6d761807-90b5-4ec6-8237-30bc7ca7f4c0"},"vehicle_type_id":"4","last_reported":1738833007,"current_range_meters":38800,"station_id":"ce4bhip2rcd13ifvqft0","pricing_plan_id":"cebpf4jnsgd1na2vs0mg"},{"bike_id":"eeeb7a04-0f26-41a9-88a1-9d9a641daae7","system_id":"levelo_inurba_marseille","lat":43.27498,"lon":5.42459,"is_reserved":false,"is_disabled":false,"rental_uris":{"android":"levelo://app?vid=eeeb7a04-0f26-41a9-88a1-9d9a641daae7","ios":"levelo://app?vid=eeeb7a04-0f26-41a9-88a1-9d9a641daae7"},"vehicle_type_id":"4","last_reported":1738833007,"current_range_meters":28400,"station_id":"ce4bhn92rcd13ifvqgrg","pricing_plan_id":"cebpf4jnsgd1na2vs0mg"},{"bike_id":"95823b3e-f00f-4f48-8ff1-d3edc43e838e","system_id":"levelo_inurba_marseille","lat":43.24803,"lon":5.37469,"is_reserved":false,"is_disabled":false,"rental_uris":{"android":"levelo://app?vid=95823b3e-f00f-4f48-8ff1-d3edc43e838e","ios":"levelo://app?vid=95823b3e-f00f-4f48-8ff1-d3edc43e838e"},"vehicle_type_id":"4","last_reported":1738833007,"current_range_meters":28000,"station_id":"ce4bhgh2rcd13ifvqfb0","pricing_plan_id":"cebpf4jnsgd1na2vs0mg"},{"bike_id":"f2f5faee-8807-4570-acdb-9ab56ad43b0b","system_id":"levelo_inurba_marseille","lat":43.31371,"lon":5.36707,"is_reserved":false,"is_disabled":false,"rental_uris":{"android":"levelo://app?vid=f2f5faee-8807-4570-acdb-9ab56ad43b0b","ios":"levelo://app?vid=f2f5faee-8807-4570-acdb-9ab56ad43b0b"},"vehicle_type_id":"4","last_reported":1738833007,"current_range_meters":27600,"station_id":"ce4bgr92rcd13ifvqc6g","pricing_plan_id":"cebpf4jnsgd1na2vs0mg"},{"bike_id":"2b52254f-933d-4903-ac07-21eb27a1e798","system_id":"levelo_inurba_marseille","lat":43.27176,"lon":5.41005,"is_reserved":false,"is_disabled":false,"rental_uris":{"android":"levelo://app?vid=2b52254f-933d-4903-ac07-21eb27a1e798","ios":"levelo://app?vid=2b52254f-933d-4903-ac07-21eb27a1e798"},"vehicle_type_id":"4","last_reported":1738833007,"current_range_meters":36800,"station_id":"ce4bhl12rcd13ifvqgf0","pricing_plan_id":"cebpf4jnsgd1na2vs0mg"},{"bike_id":"5181dc82-4f4d-45a5-b17e-fb03d054d9d9","system_id":"levelo_inurba_marseille","lat":43.28853,"lon":5.35848,"is_reserved":false,"is_disabled":true,"rental_uris":{"android":"levelo://app?vid=5181dc82-4f4d-45a5-b17e-fb03d054d9d9","ios":"levelo://app?vid=5181dc82-4f4d-45a5-b17e-fb03d054d9d9"},"vehicle_type_id":"4","last_reported":1738833007,"current_range_meters":32000,"station_id":"ce4bhb12rcd13ifvqem0","pricing_plan_id":"cebpf4jnsgd1na2vs0mg"},{"bike_id":"599cece5-0d29-4e11-b46b-81ed71253738","system_id":"levelo_inurba_marseille","lat":43.27982,"lon":5.41665,"is_reserved":false,"is_disabled":false,"rental_uris":{"android":"levelo://app?vid=599cece5-0d29-4e11-b46b-81ed71253738","ios":"levelo://app?vid=599cece5-0d29-4e11-b46b-81ed71253738"},"vehicle_type_id":"4","last_reported":1738833007,"current_range_meters":38800,"station_id":"ce4bho12rcd13ifvqh1g","pricing_plan_id":"cebpf4jnsgd1na2vs0mg"},{"bike_id":"6d3ec936-088f-4802-ba95-2c0493d6c98e","system_id":"levelo_inurba_marseille","lat":43.27492,"lon":5.42463,"is_reserved":false,"is_disabled":false,"rental_uris":{"android":"levelo://app?vid=6d3ec936-088f-4802-ba95-2c0493d6c98e","ios":"levelo://app?vid=6d3ec936-088f-4802-ba95-2c0493d6c98e"},"vehicle_type_id":"4","last_reported":1738833007,"current_range_meters":11200,"station_id":"ce4bhn92rcd13ifvqgrg","pricing_plan_id":"cebpf4jnsgd1na2vs0mg"},{"bike_id":"407915f2-41ff-4297-882f-2cad73cc62b4","system_id":"levelo_inurba_marseille","lat":43.30911,"lon":5.36849,"is_reserved":false,"is_disabled":false,"rental_uris":{"android":"levelo://app?vid=407915f2-41ff-4297-882f-2cad73cc62b4","ios":"levelo://app?vid=407915f2-41ff-4297-882f-2cad73cc62b4"},"vehicle_type_id":"4","last_reported":1738833007,"current_range_meters":38000,"station_id":"ce4bgn92rcd13ifvqbvg","pricing_plan_id":"cebpf4jnsgd1na2vs0mg"},{"bike_id":"0da13c80-55fb-483d-bc78-309d72f0175e","system_id":"levelo_inurba_marseille","lat":43.29054,"lon":5.3718,"is_reserved":false,"is_disabled":false,"rental_uris":{"android":"levelo://app?vid=0da13c80-55fb-483d-bc78-309d72f0175e","ios":"levelo://app?vid=0da13c80-55fb-483d-bc78-309d72f0175e"},"vehicle_type_id":"4","last_reported":1738833007,"current_range_meters":17600,"station_id":"ce4bh5p2rcd13ifvqe4g","pricing_plan_id":"cebpf4jnsgd1na2vs0mg"},{"bike_id":"bc3a20aa-daf6-4c5e-ac1c-17a251997803","system_id":"levelo_inurba_marseille","lat":43.24546,"lon":5.39526,"is_reserved":false,"is_disabled":false,"rental_uris":{"android":"levelo://app?vid=bc3a20aa-daf6-4c5e-ac1c-17a251997803","ios":"levelo://app?vid=bc3a20aa-daf6-4c5e-ac1c-17a251997803"},"vehicle_type_id":"4","last_reported":1738833007,"current_range_meters":38800,"station_id":"ce4bhlp2rcd13ifvqgjg","pricing_plan_id":"cebpf4jnsgd1na2vs0mg"},{"bike_id":"12dd591c-af41-4b22-9fb5-9d4eab8636c6","system_id":"levelo_inurba_marseille","lat":43.30462,"lon":5.37915,"is_reserved":false,"is_disabled":false,"rental_uris":{"android":"levelo://app?vid=12dd591c-af41-4b22-9fb5-9d4eab8636c6","ios":"levelo://app?vid=12dd591c-af41-4b22-9fb5-9d4eab8636c6"},"vehicle_type_id":"4","last_reported":1738833007,"current_range_meters":34800,"station_id":"ce4bgup2rcd13ifvqcn0","pricing_plan_id":"cebpf4jnsgd1na2vs0mg"},{"bike_id":"dfc3329e-db4d-4202-9737-a11c896ceef3","system_id":"levelo_inurba_marseille","lat":43.26571,"lon":5.38994,"is_reserved":false,"is_disabled":false,"rental_uris":{"android":"levelo://app?vid=dfc3329e-db4d-4202-9737-a11c896ceef3","ios":"levelo://app?vid=dfc3329e-db4d-4202-9737-a11c896ceef3"},"vehicle_type_id":"4","last_reported":1738833007,"current_range_meters":25600,"station_id":"ce4bhe12rcd13ifvqf30","pricing_plan_id":"cebpf4jnsgd1na2vs0mg"},{"bike_id":"9eb01c18-d575-49b0-b335-bff70127852a","system_id":"levelo_inurba_marseille","lat":43.292626,"lon":5.384296,"is_reserved":false,"is_disabled":true,"rental_uris":{"android":"levelo://app?vid=9eb01c18-d575-49b0-b335-bff70127852a","ios":"levelo://app?vid=9eb01c18-d575-49b0-b335-bff70127852a"},"vehicle_type_id":"4","last_reported":1738833007,"current_range_meters":38800,"station_id":"ce4bh692rcd13ifvqea0","pricing_plan_id":"cebpf4jnsgd1na2vs0mg"},{"bike_id":"5839687c-ec5f-4351-a68e-45ba25ac463e","system_id":"levelo_inurba_marseille","lat":43.30424,"lon":5.38889,"is_reserved":false,"is_disabled":false,"rental_uris":{"android":"levelo://app?vid=5839687c-ec5f-4351-a68e-45ba25ac463e","ios":"levelo://app?vid=5839687c-ec5f-4351-a68e-45ba25ac463e"},"vehicle_type_id":"4","last_reported":1738833007,"current_range_meters":3600,"station_id":"ce4bgk12rcd13ifvqbi0","pricing_plan_id":"cebpf4jnsgd1na2vs0mg"},{"bike_id":"09963baf-f270-43fd-8845-1d0fc8b80973","system_id":"levelo_inurba_marseille","lat":43.2909,"lon":5.3816,"is_reserved":false,"is_disabled":true,"rental_uris":{"android":"levelo://app?vid=09963baf-f270-43fd-8845-1d0fc8b80973","ios":"levelo://app?vid=09963baf-f270-43fd-8845-1d0fc8b80973"},"vehicle_type_id":"4","last_reported":1738833007,"current_range_meters":0,"station_id":"ce4bh512rcd13ifvqe2g","pricing_plan_id":"cebpf4jnsgd1na2vs0mg"},{"bike_id":"4646af66-0dd4-47cf-83cb-4f3f70a6c2f5","system_id":"levelo_inurba_marseille","lat":43.26674,"lon":5.38263,"is_reserved":false,"is_disabled":false,"rental_uris":{"android":"levelo://app?vid=4646af66-0dd4-47cf-83cb-4f3f70a6c2f5","ios":"levelo://app?vid=4646af66-0dd4-47cf-83cb-4f3f70a6c2f5"},"vehicle_type_id":"4","last_reported":1738833007,"current_range_meters":39200,"station_id":"ce4bhg92rcd13ifvqf90","pricing_plan_id":"cebpf4jnsgd1na2vs0mg"},{"bike_id":"4f1edc63-dcc9-481c-81c0-df06c8bc1bdd","system_id":"levelo_inurba_marseille","lat":43.30943,"lon":5.39038,"is_reserved":false,"is_disabled":false,"rental_uris":{"android":"levelo://app?vid=4f1edc63-dcc9-481c-81c0-df06c8bc1bdd","ios":"levelo://app?vid=4f1edc63-dcc9-481c-81c0-df06c8bc1bdd"},"vehicle_type_id":"4","last_reported":1738833007,"current_range_meters":5600,"station_id":"ce4bgup2rcd13ifvqco0","pricing_plan_id":"cebpf4jnsgd1na2vs0mg"},{"bike_id":"9e1f3f21-cac8-4032-8cc5-7619214da968","system_id":"levelo_inurba_marseille","lat":43.28491,"lon":5.38532,"is_reserved":false,"is_disabled":false,"rental_uris":{"android":"levelo://app?vid=9e1f3f21-cac8-4032-8cc5-7619214da968","ios":"levelo://app?vid=9e1f3f21-cac8-4032-8cc5-7619214da968"},"vehicle_type_id":"4","last_reported":1738833007,"current_range_meters":38800,"station_id":"ce4bh8p2rcd13ifvqeb0","pricing_plan_id":"cebpf4jnsgd1na2vs0mg"},{"bike_id":"c8f5c26b-f468-45cd-ad47-7693ca5af32a","system_id":"levelo_inurba_marseille","lat":43.30188,"lon":5.36631,"is_reserved":false,"is_disabled":false,"rental_uris":{"android":"levelo://app?vid=c8f5c26b-f468-45cd-ad47-7693ca5af32a","ios":"levelo://app?vid=c8f5c26b-f468-45cd-ad47-7693ca5af32a"},"vehicle_type_id":"4","last_reported":1738833007,"current_range_meters":24000,"station_id":"ce4bgrh2rcd13ifvqc8g","pricing_plan_id":"cebpf4jnsgd1na2vs0mg"},{"bike_id":"3d13a1bd-14fb-4bcd-abcd-ded034c2c5a1","system_id":"levelo_inurba_marseille","lat":43.27779,"lon":5.40751,"is_reserved":false,"is_disabled":false,"rental_uris":{"android":"levelo://app?vid=3d13a1bd-14fb-4bcd-abcd-ded034c2c5a1","ios":"levelo://app?vid=3d13a1bd-14fb-4bcd-abcd-ded034c2c5a1"},"vehicle_type_id":"4","last_reported":1738833007,"current_range_meters":37600,"station_id":"ce4bhnh2rcd13ifvqgtg","pricing_plan_id":"cebpf4jnsgd1na2vs0mg"},{"bike_id":"16c08f4f-5078-4227-884d-a77ebbaaee0c","system_id":"levelo_inurba_marseille","lat":43.28155,"lon":5.42655,"is_reserved":false,"is_disabled":false,"rental_uris":{"android":"levelo://app?vid=16c08f4f-5078-4227-884d-a77ebbaaee0c","ios":"levelo://app?vid=16c08f4f-5078-4227-884d-a77ebbaaee0c"},"vehicle_type_id":"4","last_reported":1738833007,"current_range_meters":38800,"station_id":"ce4bhnh2rcd13ifvqgug","pricing_plan_id":"cebpf4jnsgd1na2vs0mg"},{"bike_id":"9c81c1b8-1b89-413e-855b-6a07871bc1e0","system_id":"levelo_inurba_marseille","lat":43.23958,"lon":5.36644,"is_reserved":false,"is_disabled":false,"rental_uris":{"android":"levelo://app?vid=9c81c1b8-1b89-413e-855b-6a07871bc1e0","ios":"levelo://app?vid=9c81c1b8-1b89-413e-855b-6a07871bc1e0"},"vehicle_type_id":"4","last_reported":1738833007,"current_range_meters":21600,"station_id":"ce4bhi12rcd13ifvqfp0","pricing_plan_id":"cebpf4jnsgd1na2vs0mg"},{"bike_id":"ff3d9c62-eb2a-492c-a8a9-5a5ad5f9a381","system_id":"levelo_inurba_marseille","lat":43.2925,"lon":5.37201,"is_reserved":false,"is_disabled":true,"rental_uris":{"android":"levelo://app?vid=ff3d9c62-eb2a-492c-a8a9-5a5ad5f9a381","ios":"levelo://app?vid=ff3d9c62-eb2a-492c-a8a9-5a5ad5f9a381"},"vehicle_type_id":"4","last_reported":1738833007,"current_range_meters":26000,"station_id":"ce4bgh92rcd13ifvqb40","pricing_plan_id":"cebpf4jnsgd1na2vs0mg"},{"bike_id":"66c91f0e-d404-4399-99c9-77276ceb134d","system_id":"levelo_inurba_marseille","lat":43.3045,"lon":5.36553,"is_reserved":false,"is_disabled":false,"rental_uris":{"android":"levelo://app?vid=66c91f0e-d404-4399-99c9-77276ceb134d","ios":"levelo://app?vid=66c91f0e-d404-4399-99c9-77276ceb134d"},"vehicle_type_id":"4","last_reported":1738833007,"current_range_meters":35200,"station_id":"ce4bgs12rcd13ifvqcag","pricing_plan_id":"cebpf4jnsgd1na2vs0mg"},{"bike_id":"0fe75a77-59c8-4e9b-a9c0-5d484c957c5c","system_id":"levelo_inurba_marseille","lat":43.28724,"lon":5.37934,"is_reserved":false,"is_disabled":false,"rental_uris":{"android":"levelo://app?vid=0fe75a77-59c8-4e9b-a9c0-5d484c957c5c","ios":"levelo://app?vid=0fe75a77-59c8-4e9b-a9c0-5d484c957c5c"},"vehicle_type_id":"4","last_reported":1738833007,"current_range_meters":9600,"station_id":"ce4bh9p2rcd13ifvqec0","pricing_plan_id":"cebpf4jnsgd1na2vs0mg"},{"bike_id":"bab07d03-5352-4a1b-80e4-e1f9df8edacd","system_id":"levelo_inurba_marseille","lat":43.23192,"lon":5.35554,"is_reserved":false,"is_disabled":false,"rental_uris":{"android":"levelo://app?vid=bab07d03-5352-4a1b-80e4-e1f9df8edacd","ios":"levelo://app?vid=bab07d03-5352-4a1b-80e4-e1f9df8edacd"},"vehicle_type_id":"4","last_reported":1738833007,"current_range_meters":34000,"station_id":"ce4bhu92rcd13ifvqi70","pricing_plan_id":"cebpf4jnsgd1na2vs0mg"},{"bike_id":"ae58f566-5afd-4c2c-9a43-e948f526a2e0","system_id":"levelo_inurba_marseille","lat":43.3361,"lon":5.41027,"is_reserved":false,"is_disabled":false,"rental_uris":{"android":"levelo://app?vid=ae58f566-5afd-4c2c-9a43-e948f526a2e0","ios":"levelo://app?vid=ae58f566-5afd-4c2c-9a43-e948f526a2e0"},"vehicle_type_id":"4","last_reported":1738833007,"current_range_meters":25600,"station_id":"ce4bhqh2rcd13ifvqhmg","pricing_plan_id":"cebpf4jnsgd1na2vs0mg"},{"bike_id":"d8bb33a3-1b15-4044-a9bd-7030a4461d24","system_id":"levelo_inurba_marseille","lat":43.25593,"lon":5.38229,"is_reserved":false,"is_disabled":false,"rental_uris":{"android":"levelo://app?vid=d8bb33a3-1b15-4044-a9bd-7030a4461d24","ios":"levelo://app?vid=d8bb33a3-1b15-4044-a9bd-7030a4461d24"},"vehicle_type_id":"4","last_reported":1738833007,"current_range_meters":38800,"station_id":"ce4bhih2rcd13ifvqfs0","pricing_plan_id":"cebpf4jnsgd1na2vs0mg"},{"bike_id":"4aeea585-1227-4ca0-ab33-524ca09cb946","system_id":"levelo_inurba_marseille","lat":43.24062,"lon":5.37756,"is_reserved":false,"is_disabled":false,"rental_uris":{"android":"levelo://app?vid=4aeea585-1227-4ca0-ab33-524ca09cb946","ios":"levelo://app?vid=4aeea585-1227-4ca0-ab33-524ca09cb946"},"vehicle_type_id":"4","last_reported":1738833007,"current_range_meters":28800,"station_id":"ce4bhnp2rcd13ifvqgvg","pricing_plan_id":"cebpf4jnsgd1na2vs0mg"},{"bike_id":"e754019e-7c8b-4672-9a61-98573c199dda","system_id":"levelo_inurba_marseille","lat":43.32534,"lon":5.4146,"is_reserved":false,"is_disabled":false,"rental_uris":{"android":"levelo://app?vid=e754019e-7c8b-4672-9a61-98573c199dda","ios":"levelo://app?vid=e754019e-7c8b-4672-9a61-98573c199dda"},"vehicle_type_id":"4","last_reported":1738833007,"current_range_meters":38800,"station_id":"ce4bhq12rcd13ifvqhhg","pricing_plan_id":"cebpf4jnsgd1na2vs0mg"},{"bike_id":"595588ff-42cd-4170-8c75-046e92bfb34d","system_id":"levelo_inurba_marseille","lat":43.30457,"lon":5.37912,"is_reserved":false,"is_disabled":true,"rental_uris":{"android":"levelo://app?vid=595588ff-42cd-4170-8c75-046e92bfb34d","ios":"levelo://app?vid=595588ff-42cd-4170-8c75-046e92bfb34d"},"vehicle_type_id":"4","last_reported":1738833007,"current_range_meters":14800,"station_id":"ce4bho92rcd13ifvqh3g","pricing_plan_id":"cebpf4jnsgd1na2vs0mg"},{"bike_id":"934710cf-9010-4a78-81b6-34b30dbe6d5c","system_id":"levelo_inurba_marseille","lat":43.26196,"lon":5.37929,"is_reserved":false,"is_disabled":false,"rental_uris":{"android":"levelo://app?vid=934710cf-9010-4a78-81b6-34b30dbe6d5c","ios":"levelo://app?vid=934710cf-9010-4a78-81b6-34b30dbe6d5c"},"vehicle_type_id":"4","last_reported":1738833007,"current_range_meters":38800,"station_id":"ce4bhjp2rcd13ifvqg90","pricing_plan_id":"cebpf4jnsgd1na2vs0mg"},{"bike_id":"6c8daa83-0b4d-4fa8-a272-7a4dcdce1705","system_id":"levelo_inurba_marseille","lat":43.28271,"lon":5.35063,"is_reserved":false,"is_disabled":false,"rental_uris":{"android":"levelo://app?vid=6c8daa83-0b4d-4fa8-a272-7a4dcdce1705","ios":"levelo://app?vid=6c8daa83-0b4d-4fa8-a272-7a4dcdce1705"},"vehicle_type_id":"4","last_reported":1738833007,"current_range_meters":28000,"station_id":"ce4bhbp2rcd13ifvqerg","pricing_plan_id":"cebpf4jnsgd1na2vs0mg"},{"bike_id":"554d4d34-db2a-43ff-b073-f167bc955577","system_id":"levelo_inurba_marseille","lat":43.2749,"lon":5.42459,"is_reserved":false,"is_disabled":false,"rental_uris":{"android":"levelo://app?vid=554d4d34-db2a-43ff-b073-f167bc955577","ios":"levelo://app?vid=554d4d34-db2a-43ff-b073-f167bc955577"},"vehicle_type_id":"4","last_reported":1738833007,"current_range_meters":28800,"station_id":"ce4bhn92rcd13ifvqgrg","pricing_plan_id":"cebpf4jnsgd1na2vs0mg"},{"bike_id":"87ea7a2e-3367-4617-b793-d6e97e762c1f","system_id":"levelo_inurba_marseille","lat":43.27401,"lon":5.39438,"is_reserved":false,"is_disabled":false,"rental_uris":{"android":"levelo://app?vid=87ea7a2e-3367-4617-b793-d6e97e762c1f","ios":"levelo://app?vid=87ea7a2e-3367-4617-b793-d6e97e762c1f"},"vehicle_type_id":"4","last_reported":1738833007,"current_range_meters":23200,"station_id":"ce4bhdp2rcd13ifvqf20","pricing_plan_id":"cebpf4jnsgd1na2vs0mg"},{"bike_id":"6522239a-3688-4f94-bb02-adaf4a055ea5","system_id":"levelo_inurba_marseille","lat":43.23188,"lon":5.35549,"is_reserved":false,"is_disabled":false,"rental_uris":{"android":"levelo://app?vid=6522239a-3688-4f94-bb02-adaf4a055ea5","ios":"levelo://app?vid=6522239a-3688-4f94-bb02-adaf4a055ea5"},"vehicle_type_id":"4","last_reported":1738833007,"current_range_meters":39200,"station_id":"ce4bhu92rcd13ifvqi70","pricing_plan_id":"cebpf4jnsgd1na2vs0mg"},{"bike_id":"aee3719b-ff75-435e-aa1c-24b4bddf333e","system_id":"levelo_inurba_marseille","lat":43.24057,"lon":5.37768,"is_reserved":false,"is_disabled":false,"rental_uris":{"android":"levelo://app?vid=aee3719b-ff75-435e-aa1c-24b4bddf333e","ios":"levelo://app?vid=aee3719b-ff75-435e-aa1c-24b4bddf333e"},"vehicle_type_id":"4","last_reported":1738833007,"current_range_meters":16400,"station_id":"ce4bhnp2rcd13ifvqgvg","pricing_plan_id":"cebpf4jnsgd1na2vs0mg"},{"bike_id":"6fd0c732-3a1a-4c3f-8237-1cac68335031","system_id":"levelo_inurba_marseille","lat":43.27488,"lon":5.42462,"is_reserved":false,"is_disabled":true,"rental_uris":{"android":"levelo://app?vid=6fd0c732-3a1a-4c3f-8237-1cac68335031","ios":"levelo://app?vid=6fd0c732-3a1a-4c3f-8237-1cac68335031"},"vehicle_type_id":"4","last_reported":1738833007,"current_range_meters":18800,"station_id":"ce4bhn92rcd13ifvqgrg","pricing_plan_id":"cebpf4jnsgd1na2vs0mg"},{"bike_id":"2067b896-33e2-45f5-86d8-d65552e3842f","system_id":"levelo_inurba_marseille","lat":43.30147,"lon":5.3741,"is_reserved":false,"is_disabled":false,"rental_uris":{"android":"levelo://app?vid=2067b896-33e2-45f5-86d8-d65552e3842f","ios":"levelo://app?vid=2067b896-33e2-45f5-86d8-d65552e3842f"},"vehicle_type_id":"4","last_reported":1738833007,"current_range_meters":39200,"station_id":"ce4bgs92rcd13ifvqcc0","pricing_plan_id":"cebpf4jnsgd1na2vs0mg"},{"bike_id":"cd07e062-2af1-406e-bcb9-5f1ec4730937","system_id":"levelo_inurba_marseille","lat":43.23072,"lon":5.35494,"is_reserved":false,"is_disabled":false,"rental_uris":{"android":"levelo://app?vid=cd07e062-2af1-406e-bcb9-5f1ec4730937","ios":"levelo://app?vid=cd07e062-2af1-406e-bcb9-5f1ec4730937"},"vehicle_type_id":"4","last_reported":1738833007,"current_range_meters":36400,"station_id":"cpo3342slgdg3j2ifvpg","pricing_plan_id":"cebpf4jnsgd1na2vs0mg"},{"bike_id":"c3644d12-8427-4602-9945-9ef42c46feca","system_id":"levelo_inurba_marseille","lat":43.24165,"lon":5.36403,"is_reserved":false,"is_disabled":false,"rental_uris":{"android":"levelo://app?vid=c3644d12-8427-4602-9945-9ef42c46feca","ios":"levelo://app?vid=c3644d12-8427-4602-9945-9ef42c46feca"},"vehicle_type_id":"4","last_reported":1738833007,"current_range_meters":36400,"station_id":"cpo36qri1sfpv3e86is0","pricing_plan_id":"cebpf4jnsgd1na2vs0mg"},{"bike_id":"01b41886-2ed6-4662-b87a-6ee149db700f","system_id":"levelo_inurba_marseille","lat":43.29268,"lon":5.36848,"is_reserved":false,"is_disabled":false,"rental_uris":{"android":"levelo://app?vid=01b41886-2ed6-4662-b87a-6ee149db700f","ios":"levelo://app?vid=01b41886-2ed6-4662-b87a-6ee149db700f"},"vehicle_type_id":"4","last_reported":1738833007,"current_range_meters":31200,"station_id":"ce4bhbp2rcd13ifvqesg","pricing_plan_id":"cebpf4jnsgd1na2vs0mg"},{"bike_id":"20815bf0-f955-435e-a63e-482bd619f1c6","system_id":"levelo_inurba_marseille","lat":43.241783,"lon":5.397358,"is_reserved":false,"is_disabled":false,"rental_uris":{"android":"levelo://app?vid=20815bf0-f955-435e-a63e-482bd619f1c6","ios":"levelo://app?vid=20815bf0-f955-435e-a63e-482bd619f1c6"},"vehicle_type_id":"4","last_reported":1738833007,"current_range_meters":36800,"station_id":"ce4bhn12rcd13ifvqgpg","pricing_plan_id":"cebpf4jnsgd1na2vs0mg"},{"bike_id":"1e7bde43-ab8f-4755-b59a-acd0a53ae759","system_id":"levelo_inurba_marseille","lat":43.317142,"lon":5.424035,"is_reserved":false,"is_disabled":true,"rental_uris":{"android":"levelo://app?vid=1e7bde43-ab8f-4755-b59a-acd0a53ae759","ios":"levelo://app?vid=1e7bde43-ab8f-4755-b59a-acd0a53ae759"},"vehicle_type_id":"4","last_reported":1738833007,"current_range_meters":0,"station_id":"ce4bhp92rcd13ifvqhbg","pricing_plan_id":"cebpf4jnsgd1na2vs0mg"},{"bike_id":"53e1d245-2fa1-49d1-bd1b-b723202b5a85","system_id":"levelo_inurba_marseille","lat":43.33623,"lon":5.40974,"is_reserved":false,"is_disabled":false,"rental_uris":{"android":"levelo://app?vid=53e1d245-2fa1-49d1-bd1b-b723202b5a85","ios":"levelo://app?vid=53e1d245-2fa1-49d1-bd1b-b723202b5a85"},"vehicle_type_id":"4","last_reported":1738833007,"current_range_meters":30400,"station_id":"ce4bhqh2rcd13ifvqhmg","pricing_plan_id":"cebpf4jnsgd1na2vs0mg"},{"bike_id":"12f83b76-bc7a-463b-9760-1f418c756c34","system_id":"levelo_inurba_marseille","lat":43.24388,"lon":5.37063,"is_reserved":false,"is_disabled":false,"rental_uris":{"android":"levelo://app?vid=12f83b76-bc7a-463b-9760-1f418c756c34","ios":"levelo://app?vid=12f83b76-bc7a-463b-9760-1f418c756c34"},"vehicle_type_id":"4","last_reported":1738833007,"current_range_meters":35600,"station_id":"ce4bhhh2rcd13ifvqfk0","pricing_plan_id":"cebpf4jnsgd1na2vs0mg"},{"bike_id":"bd944b22-bdc4-45a8-9a31-0c38734abd7e","system_id":"levelo_inurba_marseille","lat":43.289336,"lon":5.36412,"is_reserved":false,"is_disabled":true,"rental_uris":{"android":"levelo://app?vid=bd944b22-bdc4-45a8-9a31-0c38734abd7e","ios":"levelo://app?vid=bd944b22-bdc4-45a8-9a31-0c38734abd7e"},"vehicle_type_id":"4","last_reported":1738833007,"current_range_meters":800,"station_id":"ce4bhc92rcd13ifvqetg","pricing_plan_id":"cebpf4jnsgd1na2vs0mg"},{"bike_id":"323fd1fd-6fc6-4abf-8c9c-e67f624cbd31","system_id":"levelo_inurba_marseille","lat":43.33766,"lon":5.37461,"is_reserved":false,"is_disabled":false,"rental_uris":{"android":"levelo://app?vid=323fd1fd-6fc6-4abf-8c9c-e67f624cbd31","ios":"levelo://app?vid=323fd1fd-6fc6-4abf-8c9c-e67f624cbd31"},"vehicle_type_id":"4","last_reported":1738833007,"current_range_meters":32000,"station_id":"","pricing_plan_id":"cebpf4jnsgd1na2vs0mg"},{"bike_id":"78a4c83f-4d73-437d-9527-15d2cb2bd443","system_id":"levelo_inurba_marseille","lat":43.28151,"lon":5.42639,"is_reserved":false,"is_disabled":false,"rental_uris":{"android":"levelo://app?vid=78a4c83f-4d73-437d-9527-15d2cb2bd443","ios":"levelo://app?vid=78a4c83f-4d73-437d-9527-15d2cb2bd443"},"vehicle_type_id":"4","last_reported":1738833007,"current_range_meters":38800,"station_id":"ce4bhnh2rcd13ifvqgug","pricing_plan_id":"cebpf4jnsgd1na2vs0mg"},{"bike_id":"45a7daa2-2a2e-4454-90c3-1009aaecc5bd","system_id":"levelo_inurba_marseille","lat":43.23202,"lon":5.35556,"is_reserved":false,"is_disabled":false,"rental_uris":{"android":"levelo://app?vid=45a7daa2-2a2e-4454-90c3-1009aaecc5bd","ios":"levelo://app?vid=45a7daa2-2a2e-4454-90c3-1009aaecc5bd"},"vehicle_type_id":"4","last_reported":1738833007,"current_range_meters":39200,"station_id":"ce4bhu92rcd13ifvqi70","pricing_plan_id":"cebpf4jnsgd1na2vs0mg"},{"bike_id":"aece1634-918f-4f68-8bc7-9a7b7abafc1f","system_id":"levelo_inurba_marseille","lat":43.28155,"lon":5.42643,"is_reserved":false,"is_disabled":true,"rental_uris":{"android":"levelo://app?vid=aece1634-918f-4f68-8bc7-9a7b7abafc1f","ios":"levelo://app?vid=aece1634-918f-4f68-8bc7-9a7b7abafc1f"},"vehicle_type_id":"4","last_reported":1738833007,"current_range_meters":27200,"station_id":"ce4bhnh2rcd13ifvqgug","pricing_plan_id":"cebpf4jnsgd1na2vs0mg"},{"bike_id":"aed95c19-b94a-4cd1-bdd0-71dcebbed92e","system_id":"levelo_inurba_marseille","lat":43.32537,"lon":5.41462,"is_reserved":false,"is_disabled":false,"rental_uris":{"android":"levelo://app?vid=aed95c19-b94a-4cd1-bdd0-71dcebbed92e","ios":"levelo://app?vid=aed95c19-b94a-4cd1-bdd0-71dcebbed92e"},"vehicle_type_id":"4","last_reported":1738833007,"current_range_meters":38800,"station_id":"ce4bhq12rcd13ifvqhhg","pricing_plan_id":"cebpf4jnsgd1na2vs0mg"},{"bike_id":"c4db225b-1b9c-41bb-91a4-454648afebff","system_id":"levelo_inurba_marseille","lat":43.29704,"lon":5.37707,"is_reserved":false,"is_disabled":false,"rental_uris":{"android":"levelo://app?vid=c4db225b-1b9c-41bb-91a4-454648afebff","ios":"levelo://app?vid=c4db225b-1b9c-41bb-91a4-454648afebff"},"vehicle_type_id":"4","last_reported":1738833007,"current_range_meters":38000,"station_id":"ce4bgkh2rcd13ifvqbl0","pricing_plan_id":"cebpf4jnsgd1na2vs0mg"},{"bike_id":"3b1d5f28-8e2f-4cd2-84ee-32e60c8bc1d4","system_id":"levelo_inurba_marseille","lat":43.27939,"lon":5.38728,"is_reserved":false,"is_disabled":false,"rental_uris":{"android":"levelo://app?vid=3b1d5f28-8e2f-4cd2-84ee-32e60c8bc1d4","ios":"levelo://app?vid=3b1d5f28-8e2f-4cd2-84ee-32e60c8bc1d4"},"vehicle_type_id":"4","last_reported":1738833007,"current_range_meters":38000,"station_id":"ce4bhg12rcd13ifvqf80","pricing_plan_id":"cebpf4jnsgd1na2vs0mg"},{"bike_id":"dd71d97f-8b4b-4a1b-a8d7-a09a3041be67","system_id":"levelo_inurba_marseille","lat":43.28149,"lon":5.42653,"is_reserved":false,"is_disabled":false,"rental_uris":{"android":"levelo://app?vid=dd71d97f-8b4b-4a1b-a8d7-a09a3041be67","ios":"levelo://app?vid=dd71d97f-8b4b-4a1b-a8d7-a09a3041be67"},"vehicle_type_id":"4","last_reported":1738833007,"current_range_meters":38000,"station_id":"ce4bhnh2rcd13ifvqgug","pricing_plan_id":"cebpf4jnsgd1na2vs0mg"},{"bike_id":"a17b902b-bafc-49d0-9389-2ce74253b3a1","system_id":"levelo_inurba_marseille","lat":43.2717,"lon":5.41003,"is_reserved":false,"is_disabled":false,"rental_uris":{"android":"levelo://app?vid=a17b902b-bafc-49d0-9389-2ce74253b3a1","ios":"levelo://app?vid=a17b902b-bafc-49d0-9389-2ce74253b3a1"},"vehicle_type_id":"4","last_reported":1738833007,"current_range_meters":38800,"station_id":"ce4bhl12rcd13ifvqgf0","pricing_plan_id":"cebpf4jnsgd1na2vs0mg"},{"bike_id":"82928581-7cae-4db3-9a68-a5b9ec34a9ee","system_id":"levelo_inurba_marseille","lat":43.31903,"lon":5.43367,"is_reserved":false,"is_disabled":true,"rental_uris":{"android":"levelo://app?vid=82928581-7cae-4db3-9a68-a5b9ec34a9ee","ios":"levelo://app?vid=82928581-7cae-4db3-9a68-a5b9ec34a9ee"},"vehicle_type_id":"4","last_reported":1738833007,"current_range_meters":0,"station_id":"","pricing_plan_id":"cebpf4jnsgd1na2vs0mg"},{"bike_id":"d1e8b4fe-886c-41ea-8ee3-69dd4d1731ea","system_id":"levelo_inurba_marseille","lat":43.28459,"lon":5.38436,"is_reserved":false,"is_disabled":false,"rental_uris":{"android":"levelo://app?vid=d1e8b4fe-886c-41ea-8ee3-69dd4d1731ea","ios":"levelo://app?vid=d1e8b4fe-886c-41ea-8ee3-69dd4d1731ea"},"vehicle_type_id":"4","last_reported":1738833007,"current_range_meters":28000,"station_id":"ce4bh512rcd13ifvqe3g","pricing_plan_id":"cebpf4jnsgd1na2vs0mg"},{"bike_id":"8a3b1adc-e338-472b-9199-ede1c4fce4fb","system_id":"levelo_inurba_marseille","lat":43.3046,"lon":5.37923,"is_reserved":false,"is_disabled":false,"rental_uris":{"android":"levelo://app?vid=8a3b1adc-e338-472b-9199-ede1c4fce4fb","ios":"levelo://app?vid=8a3b1adc-e338-472b-9199-ede1c4fce4fb"},"vehicle_type_id":"4","last_reported":1738833007,"current_range_meters":33600,"station_id":"ce4bgup2rcd13ifvqcn0","pricing_plan_id":"cebpf4jnsgd1na2vs0mg"},{"bike_id":"96640a5d-a724-47aa-a964-25b29748e9bd","system_id":"levelo_inurba_marseille","lat":43.25929,"lon":5.40909,"is_reserved":false,"is_disabled":false,"rental_uris":{"android":"levelo://app?vid=96640a5d-a724-47aa-a964-25b29748e9bd","ios":"levelo://app?vid=96640a5d-a724-47aa-a964-25b29748e9bd"},"vehicle_type_id":"4","last_reported":1738833007,"current_range_meters":24000,"station_id":"ce4bhm92rcd13ifvqglg","pricing_plan_id":"cebpf4jnsgd1na2vs0mg"},{"bike_id":"e1474808-2994-402b-b392-81042629e7f6","system_id":"levelo_inurba_marseille","lat":43.28933,"lon":5.364,"is_reserved":false,"is_disabled":false,"rental_uris":{"android":"levelo://app?vid=e1474808-2994-402b-b392-81042629e7f6","ios":"levelo://app?vid=e1474808-2994-402b-b392-81042629e7f6"},"vehicle_type_id":"4","last_reported":1738833007,"current_range_meters":33200,"station_id":"ce4bhc92rcd13ifvqetg","pricing_plan_id":"cebpf4jnsgd1na2vs0mg"},{"bike_id":"adbdf0cc-c588-4b8b-90ce-43b5d4db6054","system_id":"levelo_inurba_marseille","lat":43.31354,"lon":5.3849,"is_reserved":false,"is_disabled":false,"rental_uris":{"android":"levelo://app?vid=adbdf0cc-c588-4b8b-90ce-43b5d4db6054","ios":"levelo://app?vid=adbdf0cc-c588-4b8b-90ce-43b5d4db6054"},"vehicle_type_id":"4","last_reported":1738833007,"current_range_meters":38800,"station_id":"ce4bgt92rcd13ifvqcf0","pricing_plan_id":"cebpf4jnsgd1na2vs0mg"},{"bike_id":"0a1d80a5-8567-473e-862c-e2d2e710157a","system_id":"levelo_inurba_marseille","lat":43.28421,"lon":5.35009,"is_reserved":false,"is_disabled":false,"rental_uris":{"android":"levelo://app?vid=0a1d80a5-8567-473e-862c-e2d2e710157a","ios":"levelo://app?vid=0a1d80a5-8567-473e-862c-e2d2e710157a"},"vehicle_type_id":"4","last_reported":1738833007,"current_range_meters":30000,"station_id":"ce4bhbh2rcd13ifvqepg","pricing_plan_id":"cebpf4jnsgd1na2vs0mg"},{"bike_id":"06f57d1b-ff90-4aff-b84d-7b37401683a1","system_id":"levelo_inurba_marseille","lat":43.2649,"lon":5.39548,"is_reserved":false,"is_disabled":false,"rental_uris":{"android":"levelo://app?vid=06f57d1b-ff90-4aff-b84d-7b37401683a1","ios":"levelo://app?vid=06f57d1b-ff90-4aff-b84d-7b37401683a1"},"vehicle_type_id":"4","last_reported":1738833007,"current_range_meters":32400,"station_id":"ce4bhi12rcd13ifvqfq0","pricing_plan_id":"cebpf4jnsgd1na2vs0mg"},{"bike_id":"ef15b174-9029-4622-95b2-4e5f874342a6","system_id":"levelo_inurba_marseille","lat":43.2408,"lon":5.37756,"is_reserved":false,"is_disabled":true,"rental_uris":{"android":"levelo://app?vid=ef15b174-9029-4622-95b2-4e5f874342a6","ios":"levelo://app?vid=ef15b174-9029-4622-95b2-4e5f874342a6"},"vehicle_type_id":"4","last_reported":1738833007,"current_range_meters":0,"station_id":"ce4bhnp2rcd13ifvqgvg","pricing_plan_id":"cebpf4jnsgd1na2vs0mg"},{"bike_id":"efc75f68-c0e7-4c38-a126-0f2ae1afe39d","system_id":"levelo_inurba_marseille","lat":43.27189,"lon":5.40984,"is_reserved":false,"is_disabled":false,"rental_uris":{"android":"levelo://app?vid=efc75f68-c0e7-4c38-a126-0f2ae1afe39d","ios":"levelo://app?vid=efc75f68-c0e7-4c38-a126-0f2ae1afe39d"},"vehicle_type_id":"4","last_reported":1738833007,"current_range_meters":38800,"station_id":"ce4bhl12rcd13ifvqgf0","pricing_plan_id":"cebpf4jnsgd1na2vs0mg"},{"bike_id":"c8867084-73b3-4ef6-939b-90719c3af5d4","system_id":"levelo_inurba_marseille","lat":43.24163,"lon":5.36447,"is_reserved":false,"is_disabled":true,"rental_uris":{"android":"levelo://app?vid=c8867084-73b3-4ef6-939b-90719c3af5d4","ios":"levelo://app?vid=c8867084-73b3-4ef6-939b-90719c3af5d4"},"vehicle_type_id":"4","last_reported":1738833007,"current_range_meters":1200,"station_id":"cpo36qri1sfpv3e86is0","pricing_plan_id":"cebpf4jnsgd1na2vs0mg"},{"bike_id":"0dc28690-d1fc-4c68-886e-a1e203ae5896","system_id":"levelo_inurba_marseille","lat":43.31377,"lon":5.36692,"is_reserved":false,"is_disabled":false,"rental_uris":{"android":"levelo://app?vid=0dc28690-d1fc-4c68-886e-a1e203ae5896","ios":"levelo://app?vid=0dc28690-d1fc-4c68-886e-a1e203ae5896"},"vehicle_type_id":"4","last_reported":1738833007,"current_range_meters":38800,"station_id":"ce4bgr92rcd13ifvqc6g","pricing_plan_id":"cebpf4jnsgd1na2vs0mg"},{"bike_id":"e815bea6-a15d-4e98-b368-59ecfebf95c5","system_id":"levelo_inurba_marseille","lat":43.30898,"lon":5.36872,"is_reserved":false,"is_disabled":false,"rental_uris":{"android":"levelo://app?vid=e815bea6-a15d-4e98-b368-59ecfebf95c5","ios":"levelo://app?vid=e815bea6-a15d-4e98-b368-59ecfebf95c5"},"vehicle_type_id":"4","last_reported":1738833007,"current_range_meters":39200,"station_id":"ce4bgn92rcd13ifvqbvg","pricing_plan_id":"cebpf4jnsgd1na2vs0mg"},{"bike_id":"95f5db5b-bfdc-43a6-ba30-fd0c9a921239","system_id":"levelo_inurba_marseille","lat":43.2319,"lon":5.39974,"is_reserved":false,"is_disabled":false,"rental_uris":{"android":"levelo://app?vid=95f5db5b-bfdc-43a6-ba30-fd0c9a921239","ios":"levelo://app?vid=95f5db5b-bfdc-43a6-ba30-fd0c9a921239"},"vehicle_type_id":"4","last_reported":1738833007,"current_range_meters":8800,"station_id":"ce4bhn12rcd13ifvqgqg","pricing_plan_id":"cebpf4jnsgd1na2vs0mg"},{"bike_id":"c6a64351-9db3-4bb5-be12-a507bb068d20","system_id":"levelo_inurba_marseille","lat":43.30262,"lon":5.37739,"is_reserved":false,"is_disabled":false,"rental_uris":{"android":"levelo://app?vid=c6a64351-9db3-4bb5-be12-a507bb068d20","ios":"levelo://app?vid=c6a64351-9db3-4bb5-be12-a507bb068d20"},"vehicle_type_id":"4","last_reported":1738833007,"current_range_meters":33200,"station_id":"ce4bguh2rcd13ifvqcj0","pricing_plan_id":"cebpf4jnsgd1na2vs0mg"},{"bike_id":"66502117-174e-4624-bc1b-cdfaf99d636f","system_id":"levelo_inurba_marseille","lat":43.30455,"lon":5.37908,"is_reserved":false,"is_disabled":false,"rental_uris":{"android":"levelo://app?vid=66502117-174e-4624-bc1b-cdfaf99d636f","ios":"levelo://app?vid=66502117-174e-4624-bc1b-cdfaf99d636f"},"vehicle_type_id":"4","last_reported":1738833007,"current_range_meters":17600,"station_id":"ce4bgup2rcd13ifvqcn0","pricing_plan_id":"cebpf4jnsgd1na2vs0mg"},{"bike_id":"97e3f16d-c680-499c-b7df-c4ab9d43861c","system_id":"levelo_inurba_marseille","lat":43.23176,"lon":5.39986,"is_reserved":false,"is_disabled":false,"rental_uris":{"android":"levelo://app?vid=97e3f16d-c680-499c-b7df-c4ab9d43861c","ios":"levelo://app?vid=97e3f16d-c680-499c-b7df-c4ab9d43861c"},"vehicle_type_id":"4","last_reported":1738833007,"current_range_meters":19200,"station_id":"ce4bhn12rcd13ifvqgqg","pricing_plan_id":"cebpf4jnsgd1na2vs0mg"},{"bike_id":"7ed04109-8f30-42b7-b677-0444438a482b","system_id":"levelo_inurba_marseille","lat":43.27984,"lon":5.40045,"is_reserved":false,"is_disabled":false,"rental_uris":{"android":"levelo://app?vid=7ed04109-8f30-42b7-b677-0444438a482b","ios":"levelo://app?vid=7ed04109-8f30-42b7-b677-0444438a482b"},"vehicle_type_id":"4","last_reported":1738833007,"current_range_meters":34000,"station_id":"ce4bho92rcd13ifvqh4g","pricing_plan_id":"cebpf4jnsgd1na2vs0mg"},{"bike_id":"1d39db26-f63e-47ca-96af-759972ec17a4","system_id":"levelo_inurba_marseille","lat":43.27376,"lon":5.36256,"is_reserved":false,"is_disabled":false,"rental_uris":{"android":"levelo://app?vid=1d39db26-f63e-47ca-96af-759972ec17a4","ios":"levelo://app?vid=1d39db26-f63e-47ca-96af-759972ec17a4"},"vehicle_type_id":"4","last_reported":1738833007,"current_range_meters":39200,"station_id":"ce4bhbh2rcd13ifvqeo0","pricing_plan_id":"cebpf4jnsgd1na2vs0mg"},{"bike_id":"9ae970ef-caae-44cf-96e2-1264801a6b60","system_id":"levelo_inurba_marseille","lat":43.30268,"lon":5.37704,"is_reserved":false,"is_disabled":false,"rental_uris":{"android":"levelo://app?vid=9ae970ef-caae-44cf-96e2-1264801a6b60","ios":"levelo://app?vid=9ae970ef-caae-44cf-96e2-1264801a6b60"},"vehicle_type_id":"4","last_reported":1738833007,"current_range_meters":33200,"station_id":"ce4bguh2rcd13ifvqcj0","pricing_plan_id":"cebpf4jnsgd1na2vs0mg"},{"bike_id":"09b6cb25-2a49-4fab-afe0-5ad8d63a05a0","system_id":"levelo_inurba_marseille","lat":43.29367,"lon":5.37849,"is_reserved":false,"is_disabled":false,"rental_uris":{"android":"levelo://app?vid=09b6cb25-2a49-4fab-afe0-5ad8d63a05a0","ios":"levelo://app?vid=09b6cb25-2a49-4fab-afe0-5ad8d63a05a0"},"vehicle_type_id":"4","last_reported":1738833007,"current_range_meters":14000,"station_id":"ce4bgjh2rcd13ifvqbf0","pricing_plan_id":"cebpf4jnsgd1na2vs0mg"},{"bike_id":"19786159-ea4b-4b0e-ae0f-123a3305e398","system_id":"levelo_inurba_marseille","lat":43.27208,"lon":5.39194,"is_reserved":false,"is_disabled":false,"rental_uris":{"android":"levelo://app?vid=19786159-ea4b-4b0e-ae0f-123a3305e398","ios":"levelo://app?vid=19786159-ea4b-4b0e-ae0f-123a3305e398"},"vehicle_type_id":"4","last_reported":1738833007,"current_range_meters":38800,"station_id":"ce4bhhp2rcd13ifvqfm0","pricing_plan_id":"cebpf4jnsgd1na2vs0mg"},{"bike_id":"03183b92-04df-4e0f-beb9-8c8f28eef25f","system_id":"levelo_inurba_marseille","lat":43.30938,"lon":5.39048,"is_reserved":false,"is_disabled":false,"rental_uris":{"android":"levelo://app?vid=03183b92-04df-4e0f-beb9-8c8f28eef25f","ios":"levelo://app?vid=03183b92-04df-4e0f-beb9-8c8f28eef25f"},"vehicle_type_id":"4","last_reported":1738833007,"current_range_meters":38400,"station_id":"ce4bgup2rcd13ifvqco0","pricing_plan_id":"cebpf4jnsgd1na2vs0mg"},{"bike_id":"a13906c5-4f9e-4988-ab41-e13bc89f66bf","system_id":"levelo_inurba_marseille","lat":43.29836,"lon":5.3629,"is_reserved":false,"is_disabled":false,"rental_uris":{"android":"levelo://app?vid=a13906c5-4f9e-4988-ab41-e13bc89f66bf","ios":"levelo://app?vid=a13906c5-4f9e-4988-ab41-e13bc89f66bf"},"vehicle_type_id":"4","last_reported":1738833007,"current_range_meters":9600,"station_id":"ce4bgpp2rcd13ifvqc3g","pricing_plan_id":"cebpf4jnsgd1na2vs0mg"},{"bike_id":"2a135dee-b60f-4c7e-9fc1-e0580a85cb0e","system_id":"levelo_inurba_marseille","lat":43.30941,"lon":5.3905,"is_reserved":false,"is_disabled":false,"rental_uris":{"android":"levelo://app?vid=2a135dee-b60f-4c7e-9fc1-e0580a85cb0e","ios":"levelo://app?vid=2a135dee-b60f-4c7e-9fc1-e0580a85cb0e"},"vehicle_type_id":"4","last_reported":1738833007,"current_range_meters":27600,"station_id":"ce4bgup2rcd13ifvqco0","pricing_plan_id":"cebpf4jnsgd1na2vs0mg"},{"bike_id":"1489c8c8-a04b-479f-95b4-a81e60a2c685","system_id":"levelo_inurba_marseille","lat":43.31187,"lon":5.3872,"is_reserved":false,"is_disabled":false,"rental_uris":{"android":"levelo://app?vid=1489c8c8-a04b-479f-95b4-a81e60a2c685","ios":"levelo://app?vid=1489c8c8-a04b-479f-95b4-a81e60a2c685"},"vehicle_type_id":"4","last_reported":1738833007,"current_range_meters":34800,"station_id":"ce4bgv12rcd13ifvqcp0","pricing_plan_id":"cebpf4jnsgd1na2vs0mg"},{"bike_id":"c1a7392a-6352-4155-88f1-a5abd14b178d","system_id":"levelo_inurba_marseille","lat":43.27659,"lon":5.38955,"is_reserved":false,"is_disabled":false,"rental_uris":{"android":"levelo://app?vid=c1a7392a-6352-4155-88f1-a5abd14b178d","ios":"levelo://app?vid=c1a7392a-6352-4155-88f1-a5abd14b178d"},"vehicle_type_id":"4","last_reported":1738833007,"current_range_meters":12000,"station_id":"ce4bhi12rcd13ifvqfo0","pricing_plan_id":"cebpf4jnsgd1na2vs0mg"},{"bike_id":"2abe9708-9379-4a03-9845-e60b4d7451ca","system_id":"levelo_inurba_marseille","lat":43.33009,"lon":5.39047,"is_reserved":false,"is_disabled":false,"rental_uris":{"android":"levelo://app?vid=2abe9708-9379-4a03-9845-e60b4d7451ca","ios":"levelo://app?vid=2abe9708-9379-4a03-9845-e60b4d7451ca"},"vehicle_type_id":"4","last_reported":1738833007,"current_range_meters":26000,"station_id":"ce4bhr92rcd13ifvqhrg","pricing_plan_id":"cebpf4jnsgd1na2vs0mg"},{"bike_id":"8aab57d3-ccd7-4a7e-8d92-acc1be3939df","system_id":"levelo_inurba_marseille","lat":43.2722,"lon":5.39164,"is_reserved":false,"is_disabled":false,"rental_uris":{"android":"levelo://app?vid=8aab57d3-ccd7-4a7e-8d92-acc1be3939df","ios":"levelo://app?vid=8aab57d3-ccd7-4a7e-8d92-acc1be3939df"},"vehicle_type_id":"4","last_reported":1738833007,"current_range_meters":39200,"station_id":"ce4bhhp2rcd13ifvqfm0","pricing_plan_id":"cebpf4jnsgd1na2vs0mg"},{"bike_id":"d5d9a3e9-b6b9-4496-97c0-0d638a64e82b","system_id":"levelo_inurba_marseille","lat":43.25817,"lon":5.3946,"is_reserved":false,"is_disabled":false,"rental_uris":{"android":"levelo://app?vid=d5d9a3e9-b6b9-4496-97c0-0d638a64e82b","ios":"levelo://app?vid=d5d9a3e9-b6b9-4496-97c0-0d638a64e82b"},"vehicle_type_id":"4","last_reported":1738833007,"current_range_meters":36400,"station_id":"ce4bhip2rcd13ifvqft0","pricing_plan_id":"cebpf4jnsgd1na2vs0mg"},{"bike_id":"37dc05e9-7015-4a5b-b793-c3aed3c0501b","system_id":"levelo_inurba_marseille","lat":43.28702,"lon":5.40004,"is_reserved":false,"is_disabled":false,"rental_uris":{"android":"levelo://app?vid=37dc05e9-7015-4a5b-b793-c3aed3c0501b","ios":"levelo://app?vid=37dc05e9-7015-4a5b-b793-c3aed3c0501b"},"vehicle_type_id":"4","last_reported":1738833007,"current_range_meters":26800,"station_id":"ce4bho92rcd13ifvqh3g","pricing_plan_id":"cebpf4jnsgd1na2vs0mg"},{"bike_id":"56726d96-d87f-4e91-896a-5b02b969c33c","system_id":"levelo_inurba_marseille","lat":43.25936,"lon":5.40902,"is_reserved":false,"is_disabled":false,"rental_uris":{"android":"levelo://app?vid=56726d96-d87f-4e91-896a-5b02b969c33c","ios":"levelo://app?vid=56726d96-d87f-4e91-896a-5b02b969c33c"},"vehicle_type_id":"4","last_reported":1738833007,"current_range_meters":38800,"station_id":"ce4bhm92rcd13ifvqglg","pricing_plan_id":"cebpf4jnsgd1na2vs0mg"},{"bike_id":"9f2812f1-aa9c-4d0b-be5f-ed61813186a6","system_id":"levelo_inurba_marseille","lat":43.28859,"lon":5.39324,"is_reserved":false,"is_disabled":true,"rental_uris":{"android":"levelo://app?vid=9f2812f1-aa9c-4d0b-be5f-ed61813186a6","ios":"levelo://app?vid=9f2812f1-aa9c-4d0b-be5f-ed61813186a6"},"vehicle_type_id":"4","last_reported":1738833007,"current_range_meters":36400,"station_id":"ce4bh2p2rcd13ifvqdi0","pricing_plan_id":"cebpf4jnsgd1na2vs0mg"},{"bike_id":"eb6107a0-42f3-4f68-ad7b-fcb0117c564f","system_id":"levelo_inurba_marseille","lat":43.30152,"lon":5.38084,"is_reserved":false,"is_disabled":false,"rental_uris":{"android":"levelo://app?vid=eb6107a0-42f3-4f68-ad7b-fcb0117c564f","ios":"levelo://app?vid=eb6107a0-42f3-4f68-ad7b-fcb0117c564f"},"vehicle_type_id":"4","last_reported":1738833007,"current_range_meters":35600,"station_id":"ce4bgjp2rcd13ifvqbh0","pricing_plan_id":"cebpf4jnsgd1na2vs0mg"},{"bike_id":"ec58a886-eddf-413c-9588-048d119536b0","system_id":"levelo_inurba_marseille","lat":43.27994,"lon":5.40019,"is_reserved":false,"is_disabled":true,"rental_uris":{"android":"levelo://app?vid=ec58a886-eddf-413c-9588-048d119536b0","ios":"levelo://app?vid=ec58a886-eddf-413c-9588-048d119536b0"},"vehicle_type_id":"4","last_reported":1738833007,"current_range_meters":3200,"station_id":"ce4bho92rcd13ifvqh4g","pricing_plan_id":"cebpf4jnsgd1na2vs0mg"},