{"last_updated":1744009852,"ttl":60,"version":"2.2","data":{"bikes":[{"bike_id":"d94d8aa7-d63e-4df0-ae6b-bc6448fecd88","system_id":"levelo_inurba_marseille","lat":43.30143,"lon":5.374202,"is_reserved":false,"is_disabled":false,"rental_uris":{"android":"levelo://app?vid=d94d8aa7-d63e-4df0-ae6b-bc6448fecd88","ios":"levelo://app?vid=d94d8aa7-d63e-4df0-ae6b-bc6448fecd88"},"vehicle_type_id":"4","last_reported":1744009852,"current_range_meters":2800,"station_id":"ce4bgs92rcd13ifvqcc0","pricing_plan_id":"cebpf4jnsgd1na2vs0mg"},{"bike_id":"c3221d67-6b6c-4d87-8cdf-7cf09f4c579f","system_id":"levelo_inurba_marseille","lat":43.2902,"lon":5.38139,"is_reserved":false,"is_disabled":false,"rental_uris":{"android":"levelo://app?vid=c3221d67-6b6c-4d87-8cdf-7cf09f4c579f","ios":"levelo://app?vid=c3221d67-6b6c-4d87-8cdf-7cf09f4c579f"},"vehicle_type_id":"4","last_reported":1744009852,"current_range_meters":2800,"station_id":"ce4bh4p2rcd13ifvqe1g","pricing_plan_id":"cebpf4jnsgd1na2vs0mg"},{"bike_id":"5182050f-f7ae-42eb-8fc6-4903c90f0837","system_id":"levelo_inurba_marseille","lat":43.30276,"lon":5.377153,"is_reserved":false,"is_disabled":false,"rental_uris":{"android":"levelo://app?vid=5182050f-f7ae-42eb-8fc6-4903c90f0837","ios":"levelo://app?vid=5182050f-f7ae-42eb-8fc6-4903c90f0837"},"vehicle_type_id":"4","last_reported":1744009852,"current_range_meters":3200,"station_id":"ce4bguh2rcd13ifvqcj0","pricing_plan_id":"cebpf4jnsgd1na2vs0mg"},{"bike_id":"1d653d97-47c1-479f-a059-283b21efe2f2","system_id":"levelo_inurba_marseille","lat":43.309052,"lon":5.368459,"is_reserved":false,"is_disabled":false,"rental_uris":{"android":"levelo://app?vid=1d653d97-47c1-479f-a059-283b21efe2f2","ios":"levelo://app?vid=1d653d97-47c1-479f-a059-283b21efe2f2"},"vehicle_type_id":"4","last_reported":1744009852,"current_range_meters":3200,"station_id":"ce4bgn92rcd13ifvqbvg","pricing_plan_id":"cebpf4jnsgd1na2vs0mg"},{"bike_id":"69f27ac7-c201-4d7b-a41a-066249700815","system_id":"levelo_inurba_marseille","lat":43.241683,"lon":5.363968,"is_reserved":false,"is_disabled":true,"rental_uris":{"android":"levelo://app?vid=69f27ac7-c201-4d7b-a41a-066249700815","ios":"levelo://app?vid=69f27ac7-c201-4d7b-a41a-066249700815"},"vehicle_type_id":"4","last_reported":1744009852,"current_range_meters":3600,"station_id":"ce4bh412rcd13ifvqdr0","pricing_plan_id":"cebpf4jnsgd1na2vs0mg"},{"bike_id":"4538eb0a-9a7f-47d2-93d0-b48cdef0e7dd","system_id":"levelo_inurba_marseille","lat":43.29309,"lon":5.37193,"is_reserved":false,"is_disabled":false,"rental_uris":{"android":"levelo://app?vid=4538eb0a-9a7f-47d2-93d0-b48cdef0e7dd","ios":"levelo://app?vid=4538eb0a-9a7f-47d2-93d0-b48cdef0e7dd"},"vehicle_type_id":"4","last_reported":1744009852,"current_range_meters":3600,"station_id":"ce4bgh92rcd13ifvqb40","pricing_plan_id":"cebpf4jnsgd1na2vs0mg"},{"bike_id":"14372806-dbaf-42a6-80e2-a045e7992d20","system_id":"levelo_inurba_marseille","lat":43.25003,"lon":5.38933,"is_reserved":false,"is_disabled":false,"rental_uris":{"android":"levelo://app?vid=14372806-dbaf-42a6-80e2-a045e7992d20","ios":"levelo://app?vid=14372806-dbaf-42a6-80e2-a045e7992d20"},"vehicle_type_id":"4","last_reported":1744009852,"current_range_meters":3600,"station_id":"ce4bhgp2rcd13ifvqfd0","pricing_plan_id":"cebpf4jnsgd1na2vs0mg"},{"bike_id":"389ed7ae-2e24-4653-8de7-9886f2d2af1e","system_id":"levelo_inurba_marseille","lat":43.2904,"lon":5.37583,"is_reserved":false,"is_disabled":false,"rental_uris":{"android":"levelo://app?vid=389ed7ae-2e24-4653-8de7-9886f2d2af1e","ios":"levelo://app?vid=389ed7ae-2e24-4653-8de7-9886f2d2af1e"},"vehicle_type_id":"4","last_reported":1744009852,"current_range_meters":4000,"station_id":"ce4bh692rcd13ifvqe90","pricing_plan_id":"cebpf4jnsgd1na2vs0mg"},{"bike_id":"2baf1e55-26a0-4ed3-bd8c-4dbbd85c69dd","system_id":"levelo_inurba_marseille","lat":43.26058,"lon":5.39401,"is_reserved":false,"is_disabled":false,"rental_uris":{"android":"levelo://app?vid=2baf1e55-26a0-4ed3-bd8c-4dbbd85c69dd","ios":"levelo://app?vid=2baf1e55-26a0-4ed3-bd8c-4dbbd85c69dd"},"vehicle_type_id":"4","last_reported":1744009852,"current_range_meters":4000,"station_id":"ce4bhh92rcd13ifvqfj0","pricing_plan_id":"cebpf4jnsgd1na2vs0mg"},{"bike_id":"96295522-bdc3-4468-aff3-6cca04e9bdb4","system_id":"levelo_inurba_marseille","lat":43.24069,"lon":5.37799,"is_reserved":false,"is_disabled":false,"rental_uris":{"android":"levelo://app?vid=96295522-bdc3-4468-aff3-6cca04e9bdb4","ios":"levelo://app?vid=96295522-bdc3-4468-aff3-6cca04e9bdb4"},"vehicle_type_id":"4","last_reported":1744009852,"current_range_meters":4000,"station_id":"ce4bhnp2rcd13ifvqgvg","pricing_plan_id":"cebpf4jnsgd1na2vs0mg"},{"bike_id":"33bd86b3-e44b-4654-89a9-dc2269e5aeda","system_id":"levelo_inurba_marseille","lat":43.290371,"lon":5.399608,"is_reserved":false,"is_disabled":false,"rental_uris":{"android":"levelo://app?vid=33bd86b3-e44b-4654-89a9-dc2269e5aeda","ios":"levelo://app?vid=33bd86b3-e44b-4654-89a9-dc2269e5aeda"},"vehicle_type_id":"4","last_reported":1744009852,"current_range_meters":4000,"station_id":"ce4bh012rcd13ifvqd00","pricing_plan_id":"cebpf4jnsgd1na2vs0mg"},{"bike_id":"06fb8fe2-aae9-4ca0-a318-f5fb55d7ab3d","system_id":"levelo_inurba_marseille","lat":43.29114,"lon":5.40079,"is_reserved":false,"is_disabled":false,"rental_uris":{"android":"levelo://app?vid=06fb8fe2-aae9-4ca0-a318-f5fb55d7ab3d","ios":"levelo://app?vid=06fb8fe2-aae9-4ca0-a318-f5fb55d7ab3d"},"vehicle_type_id":"4","last_reported":1744009852,"current_range_meters":4000,"station_id":"","pricing_plan_id":"cebpf4jnsgd1na2vs0mg"},{"bike_id":"ad0a6a8e-1a57-45a0-bef8-4fdaf6c58712","system_id":"levelo_inurba_marseille","lat":43.27206,"lon":5.3918,"is_reserved":false,"is_disabled":false,"rental_uris":{"android":"levelo://app?vid=ad0a6a8e-1a57-45a0-bef8-4fdaf6c58712","ios":"levelo://app?vid=ad0a6a8e-1a57-45a0-bef8-4fdaf6c58712"},"vehicle_type_id":"4","last_reported":1744009852,"current_range_meters":4400,"station_id":"ce4bhhp2rcd13ifvqfm0","pricing_plan_id":"cebpf4jnsgd1na2vs0mg"},{"bike_id":"9941f9e8-ce9b-4dc3-a951-7b2067a4025a","system_id":"levelo_inurba_marseille","lat":43.29668,"lon":5.3729,"is_reserved":false,"is_disabled":false,"rental_uris":{"android":"levelo://app?vid=9941f9e8-ce9b-4dc3-a951-7b2067a4025a","ios":"levelo://app?vid=9941f9e8-ce9b-4dc3-a951-7b2067a4025a"},"vehicle_type_id":"4","last_reported":1744009852,"current_range_meters":4000,"station_id":"ce4bgk12rcd13ifvqbj0","pricing_plan_id":"cebpf4jnsgd1na2vs0mg"},{"bike_id":"9caf6d03-afef-4093-ae97-fd6143db22e1","system_id":"levelo_inurba_marseille","lat":43.29302,"lon":5.37468,"is_reserved":false,"is_disabled":false,"rental_uris":{"android":"levelo://app?vid=9caf6d03-afef-4093-ae97-fd6143db22e1","ios":"levelo://app?vid=9caf6d03-afef-4093-ae97-fd6143db22e1"},"vehicle_type_id":"4","last_reported":1744009852,"current_range_meters":4400,"station_id":"ce4bgi12rcd13ifvqb70","pricing_plan_id":"cebpf4jnsgd1na2vs0mg"},{"bike_id":"9378cab7-1ef7-47d6-af28-c6473192be1a","system_id":"levelo_inurba_marseille","lat":43.31239,"lon":5.40825,"is_reserved":false,"is_disabled":false,"rental_uris":{"android":"levelo://app?vid=9378cab7-1ef7-47d6-af28-c6473192be1a","ios":"levelo://app?vid=9378cab7-1ef7-47d6-af28-c6473192be1a"},"vehicle_type_id":"4","last_reported":1744009852,"current_range_meters":4400,"station_id":"","pricing_plan_id":"cebpf4jnsgd1na2vs0mg"},{"bike_id":"6023584e-870f-454d-88b0-bf3dc0e21fbe","system_id":"levelo_inurba_marseille","lat":43.24398,"lon":5.37078,"is_reserved":false,"is_disabled":true,"rental_uris":{"android":"levelo://app?vid=6023584e-870f-454d-88b0-bf3dc0e21fbe","ios":"levelo://app?vid=6023584e-870f-454d-88b0-bf3dc0e21fbe"},"vehicle_type_id":"4","last_reported":1744009852,"current_range_meters":4400,"station_id":"ce4bhhh2rcd13ifvqfk0","pricing_plan_id":"cebpf4jnsgd1na2vs0mg"},{"bike_id":"eb79d1f9-7c91-4ea2-b5f8-796189743e1a","system_id":"levelo_inurba_marseille","lat":43.34242,"lon":5.3812,"is_reserved":false,"is_disabled":true,"rental_uris":{"android":"levelo://app?vid=eb79d1f9-7c91-4ea2-b5f8-796189743e1a","ios":"levelo://app?vid=eb79d1f9-7c91-4ea2-b5f8-796189743e1a"},"vehicle_type_id":"4","last_reported":1744009852,"current_range_meters":4800,"station_id":"","pricing_plan_id":"cebpf4jnsgd1na2vs0mg"},{"bike_id":"a9401d85-a042-4bd9-893c-d36d70c39164","system_id":"levelo_inurba_marseille","lat":43.30948,"lon":5.39047,"is_reserved":false,"is_disabled":false,"rental_uris":{"android":"levelo://app?vid=a9401d85-a042-4bd9-893c-d36d70c39164","ios":"levelo://app?vid=a9401d85-a042-4bd9-893c-d36d70c39164"},"vehicle_type_id":"4","last_reported":1744009852,"current_range_meters":4800,"station_id":"ce4bgup2rcd13ifvqco0","pricing_plan_id":"cebpf4jnsgd1na2vs0mg"},{"bike_id":"2b718ae1-5826-49e1-b1d0-53c0b335159f","system_id":"levelo_inurba_marseille","lat":43.309052,"lon":5.368454,"is_reserved":false,"is_disabled":false,"rental_uris":{"android":"levelo://app?vid=2b718ae1-5826-49e1-b1d0-53c0b335159f","ios":"levelo://app?vid=2b718ae1-5826-49e1-b1d0-53c0b335159f"},"vehicle_type_id":"4","last_reported":1744009852,"current_range_meters":5600,"station_id":"ce4bgn92rcd13ifvqbvg","pricing_plan_id":"cebpf4jnsgd1na2vs0mg"},{"bike_id":"e3c5f122-d61d-4b7a-b30e-709a3dbe5e46","system_id":"levelo_inurba_marseille","lat":43.324,"lon":5.39014,"is_reserved":false,"is_disabled":true,"rental_uris":{"android":"levelo://app?vid=e3c5f122-d61d-4b7a-b30e-709a3dbe5e46","ios":"levelo://app?vid=e3c5f122-d61d-4b7a-b30e-709a3dbe5e46"},"vehicle_type_id":"4","last_reported":1744009852,"current_range_meters":5600,"station_id":"","pricing_plan_id":"cebpf4jnsgd1na2vs0mg"},{"bike_id":"90b5b390-c640-46ab-b1a8-b8ab403d6dd5","system_id":"levelo_inurba_marseille","lat":43.25943,"lon":5.40902,"is_reserved":false,"is_disabled":false,"rental_uris":{"android":"levelo://app?vid=90b5b390-c640-46ab-b1a8-b8ab403d6dd5","ios":"levelo://app?vid=90b5b390-c640-46ab-b1a8-b8ab403d6dd5"},"vehicle_type_id":"4","last_reported":1744009852,"current_range_meters":5600,"station_id":"ce4bhm92rcd13ifvqglg","pricing_plan_id":"cebpf4jnsgd1na2vs0mg"},{"bike_id":"f3c1071e-f6ca-49a1-a797-33fa58c01c07","system_id":"levelo_inurba_marseille","lat":43.25118,"lon":5.40332,"is_reserved":false,"is_disabled":false,"rental_uris":{"android":"levelo://app?vid=f3c1071e-f6ca-49a1-a797-33fa58c01c07","ios":"levelo://app?vid=f3c1071e-f6ca-49a1-a797-33fa58c01c07"},"vehicle_type_id":"4","last_reported":1744009852,"current_range_meters":5600,"station_id":"ce4bhlh2rcd13ifvqgig","pricing_plan_id":"cebpf4jnsgd1na2vs0mg"},{"bike_id":"db43c204-abd0-4363-a4fa-b6da276d2530","system_id":"levelo_inurba_marseille","lat":43.2742,"lon":5.39415,"is_reserved":false,"is_disabled":false,"rental_uris":{"android":"levelo://app?vid=db43c204-abd0-4363-a4fa-b6da276d2530","ios":"levelo://app?vid=db43c204-abd0-4363-a4fa-b6da276d2530"},"vehicle_type_id":"4","last_reported":1744009852,"current_range_meters":4800,"station_id":"ce4bhdp2rcd13ifvqf20","pricing_plan_id":"cebpf4jnsgd1na2vs0mg"},{"bike_id":"694a7586-f602-4016-b8b3-0e6d68879fbd","system_id":"levelo_inurba_marseille","lat":43.31351,"lon":5.36721,"is_reserved":false,"is_disabled":false,"rental_uris":{"android":"levelo://app?vid=694a7586-f602-4016-b8b3-0e6d68879fbd","ios":"levelo://app?vid=694a7586-f602-4016-b8b3-0e6d68879fbd"},"vehicle_type_id":"4","last_reported":1744009852,"current_range_meters":5600,"station_id":"ce4bgr92rcd13ifvqc6g","pricing_plan_id":"cebpf4jnsgd1na2vs0mg"},{"bike_id":"97045fe9-f264-4b05-93e3-8dc052408e14","system_id":"levelo_inurba_marseille","lat":43.31485,"lon":5.37302,"is_reserved":false,"is_disabled":false,"rental_uris":{"android":"levelo://app?vid=97045fe9-f264-4b05-93e3-8dc052408e14","ios":"levelo://app?vid=97045fe9-f264-4b05-93e3-8dc052408e14"},"vehicle_type_id":"4","last_reported":1744009852,"current_range_meters":5600,"station_id":"ce4bgt12rcd13ifvqcd0","pricing_plan_id":"cebpf4jnsgd1na2vs0mg"},{"bike_id":"620b9284-a283-4a50-82ff-ec39b41f1a89","system_id":"levelo_inurba_marseille","lat":43.30436,"lon":5.37865,"is_reserved":false,"is_disabled":false,"rental_uris":{"android":"levelo://app?vid=620b9284-a283-4a50-82ff-ec39b41f1a89","ios":"levelo://app?vid=620b9284-a283-4a50-82ff-ec39b41f1a89"},"vehicle_type_id":"4","last_reported":1744009852,"current_range_meters":5600,"station_id":"ce4bgup2rcd13ifvqcn0","pricing_plan_id":"cebpf4jnsgd1na2vs0mg"},{"bike_id":"45163737-8ce4-4a0a-b335-04cd36d73c79","system_id":"levelo_inurba_marseille","lat":43.32483,"lon":5.36556,"is_reserved":false,"is_disabled":false,"rental_uris":{"android":"levelo://app?vid=45163737-8ce4-4a0a-b335-04cd36d73c79","ios":"levelo://app?vid=45163737-8ce4-4a0a-b335-04cd36d73c79"},"vehicle_type_id":"4","last_reported":1744009852,"current_range_meters":6000,"station_id":"ce4bhs12rcd13ifvqhvg","pricing_plan_id":"cebpf4jnsgd1na2vs0mg"},{"bike_id":"0f452801-81b8-432b-a4f9-97dfbe0753c5","system_id":"levelo_inurba_marseille","lat":43.307922,"lon":5.376412,"is_reserved":false,"is_disabled":false,"rental_uris":{"android":"levelo://app?vid=0f452801-81b8-432b-a4f9-97dfbe0753c5","ios":"levelo://app?vid=0f452801-81b8-432b-a4f9-97dfbe0753c5"},"vehicle_type_id":"4","last_reported":1744009852,"current_range_meters":6000,"station_id":"ce4bgrp2rcd13ifvqc9g","pricing_plan_id":"cebpf4jnsgd1na2vs0mg"},{"bike_id":"59d94bf3-2bad-4ab3-b915-a815248c2df4","system_id":"levelo_inurba_marseille","lat":43.309052,"lon":5.368458,"is_reserved":false,"is_disabled":false,"rental_uris":{"android":"levelo://app?vid=59d94bf3-2bad-4ab3-b915-a815248c2df4","ios":"levelo://app?vid=59d94bf3-2bad-4ab3-b915-a815248c2df4"},"vehicle_type_id":"4","last_reported":1744009852,"current_range_meters":5600,"station_id":"ce4bgn92rcd13ifvqbvg","pricing_plan_id":"cebpf4jnsgd1na2vs0mg"},{"bike_id":"46aaf249-f504-46ae-93ce-7245839b78b5","system_id":"levelo_inurba_marseille","lat":43.25784,"lon":5.386693,"is_reserved":false,"is_disabled":true,"rental_uris":{"android":"levelo://app?vid=46aaf249-f504-46ae-93ce-7245839b78b5","ios":"levelo://app?vid=46aaf249-f504-46ae-93ce-7245839b78b5"},"vehicle_type_id":"4","last_reported":1744009852,"current_range_meters":6000,"station_id":"","pricing_plan_id":"cebpf4jnsgd1na2vs0mg"},{"bike_id":"8f6ddff7-3d5d-49f7-860a-318c89cc5d7b","system_id":"levelo_inurba_marseille","lat":43.25938,"lon":5.40903,"is_reserved":false,"is_disabled":false,"rental_uris":{"android":"levelo://app?vid=8f6ddff7-3d5d-49f7-860a-318c89cc5d7b","ios":"levelo://app?vid=8f6ddff7-3d5d-49f7-860a-318c89cc5d7b"},"vehicle_type_id":"4","last_reported":1744009852,"current_range_meters":6000,"station_id":"ce4bhm92rcd13ifvqglg","pricing_plan_id":"cebpf4jnsgd1na2vs0mg"},{"bike_id":"1daf2d82-5d37-4deb-8b40-587c497c8110","system_id":"levelo_inurba_marseille","lat":43.299428,"lon":5.371971,"is_reserved":false,"is_disabled":false,"rental_uris":{"android":"levelo://app?vid=1daf2d82-5d37-4deb-8b40-587c497c8110","ios":"levelo://app?vid=1daf2d82-5d37-4deb-8b40-587c497c8110"},"vehicle_type_id":"4","last_reported":1744009852,"current_range_meters":6000,"station_id":"ce4bgqh2rcd13ifvqc5g","pricing_plan_id":"cebpf4jnsgd1na2vs0mg"},{"bike_id":"4815b711-7def-4ca4-828f-f82d5b3e3191","system_id":"levelo_inurba_marseille","lat":43.23154,"lon":5.43713,"is_reserved":false,"is_disabled":false,"rental_uris":{"android":"levelo://app?vid=4815b711-7def-4ca4-828f-f82d5b3e3191","ios":"levelo://app?vid=4815b711-7def-4ca4-828f-f82d5b3e3191"},"vehicle_type_id":"4","last_reported":1744009852,"current_range_meters":6000,"station_id":"ce4bhmp2rcd13ifvqgog","pricing_plan_id":"cebpf4jnsgd1na2vs0mg"},{"bike_id":"3e602309-c2cc-49c9-984b-ceb6bc2fb252","system_id":"levelo_inurba_marseille","lat":43.305628,"lon":5.365564,"is_reserved":false,"is_disabled":false,"rental_uris":{"android":"levelo://app?vid=3e602309-c2cc-49c9-984b-ceb6bc2fb252","ios":"levelo://app?vid=3e602309-c2cc-49c9-984b-ceb6bc2fb252"},"vehicle_type_id":"4","last_reported":1744009852,"current_range_meters":6000,"station_id":"ce4bgs12rcd13ifvqcag","pricing_plan_id":"cebpf4jnsgd1na2vs0mg"},{"bike_id":"6d70e492-394e-44f3-96aa-c37ef18b968b","system_id":"levelo_inurba_marseille","lat":43.25108,"lon":5.39591,"is_reserved":false,"is_disabled":false,"rental_uris":{"android":"levelo://app?vid=6d70e492-394e-44f3-96aa-c37ef18b968b","ios":"levelo://app?vid=6d70e492-394e-44f3-96aa-c37ef18b968b"},"vehicle_type_id":"4","last_reported":1744009852,"current_range_meters":6000,"station_id":"ce4bhm12rcd13ifvqgkg","pricing_plan_id":"cebpf4jnsgd1na2vs0mg"},{"bike_id":"da3a530c-4529-46cf-b4c4-ad44f8f408c9","system_id":"levelo_inurba_marseille","lat":43.2916,"lon":5.37554,"is_reserved":false,"is_disabled":false,"rental_uris":{"android":"levelo://app?vid=da3a530c-4529-46cf-b4c4-ad44f8f408c9","ios":"levelo://app?vid=da3a530c-4529-46cf-b4c4-ad44f8f408c9"},"vehicle_type_id":"4","last_reported":1744009852,"current_range_meters":6000,"station_id":"ce4bha92rcd13ifvqeh0","pricing_plan_id":"cebpf4jnsgd1na2vs0mg"},{"bike_id":"09764cee-8724-44c1-b501-307abe5b537a","system_id":"levelo_inurba_marseille","lat":43.32116,"lon":5.36796,"is_reserved":false,"is_disabled":false,"rental_uris":{"android":"levelo://app?vid=09764cee-8724-44c1-b501-307abe5b537a","ios":"levelo://app?vid=09764cee-8724-44c1-b501-307abe5b537a"},"vehicle_type_id":"4","last_reported":1744009852,"current_range_meters":6400,"station_id":"ce4bhrh2rcd13ifvqhug","pricing_plan_id":"cebpf4jnsgd1na2vs0mg"},{"bike_id":"84645bda-ee32-4a47-818c-85671698dd38","system_id":"levelo_inurba_marseille","lat":43.30948,"lon":5.390294,"is_reserved":false,"is_disabled":false,"rental_uris":{"android":"levelo://app?vid=84645bda-ee32-4a47-818c-85671698dd38","ios":"levelo://app?vid=84645bda-ee32-4a47-818c-85671698dd38"},"vehicle_type_id":"4","last_reported":1744009852,"current_range_meters":8400,"station_id":"ce4bgup2rcd13ifvqco0","pricing_plan_id":"cebpf4jnsgd1na2vs0mg"},{"bike_id":"ab844845-b6f4-428b-83db-97bab391baa8","system_id":"levelo_inurba_marseille","lat":43.24078,"lon":5.37759,"is_reserved":false,"is_disabled":false,"rental_uris":{"android":"levelo://app?vid=ab844845-b6f4-428b-83db-97bab391baa8","ios":"levelo://app?vid=ab844845-b6f4-428b-83db-97bab391baa8"},"vehicle_type_id":"4","last_reported":1744009852,"current_range_meters":6000,"station_id":"ce4bhnp2rcd13ifvqgvg","pricing_plan_id":"cebpf4jnsgd1na2vs0mg"},{"bike_id":"b184dbab-c143-4eb0-9216-3b79d67de04a","system_id":"levelo_inurba_marseille","lat":43.274955,"lon":5.424531,"is_reserved":false,"is_disabled":false,"rental_uris":{"android":"levelo://app?vid=b184dbab-c143-4eb0-9216-3b79d67de04a","ios":"levelo://app?vid=b184dbab-c143-4eb0-9216-3b79d67de04a"},"vehicle_type_id":"4","last_reported":1744009852,"current_range_meters":6400,"station_id":"ce4bhn92rcd13ifvqgrg","pricing_plan_id":"cebpf4jnsgd1na2vs0mg"},{"bike_id":"6717e46b-8ac1-41ed-89ad-8ec1c0377f53","system_id":"levelo_inurba_marseille","lat":43.29921,"lon":5.37477,"is_reserved":false,"is_disabled":false,"rental_uris":{"android":"levelo://app?vid=6717e46b-8ac1-41ed-89ad-8ec1c0377f53","ios":"levelo://app?vid=6717e46b-8ac1-41ed-89ad-8ec1c0377f53"},"vehicle_type_id":"4","last_reported":1744009852,"current_range_meters":6800,"station_id":"ce4bgjh2rcd13ifvqbg0","pricing_plan_id":"cebpf4jnsgd1na2vs0mg"},{"bike_id":"07961e41-86f1-43af-9958-ee798ea80fe5","system_id":"levelo_inurba_marseille","lat":43.29847,"lon":5.36277,"is_reserved":false,"is_disabled":false,"rental_uris":{"android":"levelo://app?vid=07961e41-86f1-43af-9958-ee798ea80fe5","ios":"levelo://app?vid=07961e41-86f1-43af-9958-ee798ea80fe5"},"vehicle_type_id":"4","last_reported":1744009852,"current_range_meters":6800,"station_id":"ce4bgpp2rcd13ifvqc3g","pricing_plan_id":"cebpf4jnsgd1na2vs0mg"},{"bike_id":"660d99f1-cadb-413d-82ad-e49e35dc1993","system_id":"levelo_inurba_marseille","lat":43.30952,"lon":5.39017,"is_reserved":false,"is_disabled":false,"rental_uris":{"android":"levelo://app?vid=660d99f1-cadb-413d-82ad-e49e35dc1993","ios":"levelo://app?vid=660d99f1-cadb-413d-82ad-e49e35dc1993"},"vehicle_type_id":"4","last_reported":1744009852,"current_range_meters":6800,"station_id":"ce4bgup2rcd13ifvqco0","pricing_plan_id":"cebpf4jnsgd1na2vs0mg"},{"bike_id":"3b00ff80-4208-4d41-a2d1-4d71d840c23f","system_id":"levelo_inurba_marseille","lat":43.25905,"lon":5.40871,"is_reserved":false,"is_disabled":false,"rental_uris":{"android":"levelo://app?vid=3b00ff80-4208-4d41-a2d1-4d71d840c23f","ios":"levelo://app?vid=3b00ff80-4208-4d41-a2d1-4d71d840c23f"},"vehicle_type_id":"4","last_reported":1744009852,"current_range_meters":6800,"station_id":"ce4bhm92rcd13ifvqglg","pricing_plan_id":"cebpf4jnsgd1na2vs0mg"},{"bike_id":"8d09da39-816e-44f9-aa5e-85ebdd598b04","system_id":"levelo_inurba_marseille","lat":43.30289,"lon":5.36886,"is_reserved":false,"is_disabled":false,"rental_uris":{"android":"levelo://app?vid=8d09da39-816e-44f9-aa5e-85ebdd598b04","ios":"levelo://app?vid=8d09da39-816e-44f9-aa5e-85ebdd598b04"},"vehicle_type_id":"4","last_reported":1744009852,"current_range_meters":6800,"station_id":"ce4bgqh2rcd13ifvqc5g","pricing_plan_id":"cebpf4jnsgd1na2vs0mg"},{"bike_id":"4484023d-f27c-4e1d-98da-7d9cf8021015","system_id":"levelo_inurba_marseille","lat":43.2836,"lon":5.38634,"is_reserved":false,"is_disabled":false,"rental_uris":{"android":"levelo://app?vid=4484023d-f27c-4e1d-98da-7d9cf8021015","ios":"levelo://app?vid=4484023d-f27c-4e1d-98da-7d9cf8021015"},"vehicle_type_id":"4","last_reported":1744009852,"current_range_meters":6800,"station_id":"ce4bh492rcd13ifvqdvg","pricing_plan_id":"cebpf4jnsgd1na2vs0mg"},{"bike_id":"bc4ee155-ba8e-4e1c-94df-304e7b042fb6","system_id":"levelo_inurba_marseille","lat":43.30949,"lon":5.40157,"is_reserved":false,"is_disabled":false,"rental_uris":{"android":"levelo://app?vid=bc4ee155-ba8e-4e1c-94df-304e7b042fb6","ios":"levelo://app?vid=bc4ee155-ba8e-4e1c-94df-304e7b042fb6"},"vehicle_type_id":"4","last_reported":1744009852,"current_range_meters":6800,"station_id":"ce4bgvp2rcd13ifvqct0","pricing_plan_id":"cebpf4jnsgd1na2vs0mg"},{"bike_id":"1d6f3057-f8f7-4009-89c3-a3edbfb45073","system_id":"levelo_inurba_marseille","lat":43.28163,"lon":5.42662,"is_reserved":false,"is_disabled":false,"rental_uris":{"android":"levelo://app?vid=1d6f3057-f8f7-4009-89c3-a3edbfb45073","ios":"levelo://app?vid=1d6f3057-f8f7-4009-89c3-a3edbfb45073"},"vehicle_type_id":"4","last_reported":1744009852,"current_range_meters":7200,"station_id":"ce4bhnh2rcd13ifvqgug","pricing_plan_id":"cebpf4jnsgd1na2vs0mg"},{"bike_id":"c41122b4-6958-44a1-a684-c8e5e28afb4a","system_id":"levelo_inurba_marseille","lat":43.25013,"lon":5.38928,"is_reserved":false,"is_disabled":false,"rental_uris":{"android":"levelo://app?vid=c41122b4-6958-44a1-a684-c8e5e28afb4a","ios":"levelo://app?vid=c41122b4-6958-44a1-a684-c8e5e28afb4a"},"vehicle_type_id":"4","last_reported":1744009852,"current_range_meters":7200,"station_id":"ce4bhgp2rcd13ifvqfd0","pricing_plan_id":"cebpf4jnsgd1na2vs0mg"},{"bike_id":"736c7c4f-11f4-465d-93d2-a6a56fe6182a","system_id":"levelo_inurba_marseille","lat":43.31219,"lon":5.36864,"is_reserved":false,"is_disabled":false,"rental_uris":{"android":"levelo://app?vid=736c7c4f-11f4-465d-93d2-a6a56fe6182a","ios":"levelo://app?vid=736c7c4f-11f4-465d-93d2-a6a56fe6182a"},"vehicle_type_id":"4","last_reported":1744009852,"current_range_meters":7200,"station_id":"ce4bgl92rcd13ifvqbq0","pricing_plan_id":"cebpf4jnsgd1na2vs0mg"},{"bike_id":"a5762f83-7939-4772-8b9d-d9ece69741e7","system_id":"levelo_inurba_marseille","lat":43.31338,"lon":5.36693,"is_reserved":false,"is_disabled":false,"rental_uris":{"android":"levelo://app?vid=a5762f83-7939-4772-8b9d-d9ece69741e7","ios":"levelo://app?vid=a5762f83-7939-4772-8b9d-d9ece69741e7"},"vehicle_type_id":"4","last_reported":1744009852,"current_range_meters":7200,"station_id":"ce4bgr92rcd13ifvqc6g","pricing_plan_id":"cebpf4jnsgd1na2vs0mg"},{"bike_id":"5e96b480-0943-41ff-bc95-79d78b1301a2","system_id":"levelo_inurba_marseille","lat":43.27532,"lon":5.42409,"is_reserved":false,"is_disabled":false,"rental_uris":{"android":"levelo://app?vid=5e96b480-0943-41ff-bc95-79d78b1301a2","ios":"levelo://app?vid=5e96b480-0943-41ff-bc95-79d78b1301a2"},"vehicle_type_id":"4","last_reported":1744009852,"current_range_meters":7200,"station_id":"ce4bhn92rcd13ifvqgrg","pricing_plan_id":"cebpf4jnsgd1na2vs0mg"},{"bike_id":"69f96590-caac-48cf-8388-770718491fb5","system_id":"levelo_inurba_marseille","lat":43.24178,"lon":5.39733,"is_reserved":false,"is_disabled":false,"rental_uris":{"android":"levelo://app?vid=69f96590-caac-48cf-8388-770718491fb5","ios":"levelo://app?vid=69f96590-caac-48cf-8388-770718491fb5"},"vehicle_type_id":"4","last_reported":1744009852,"current_range_meters":7200,"station_id":"ce4bhn12rcd13ifvqgpg","pricing_plan_id":"cebpf4jnsgd1na2vs0mg"},{"bike_id":"879c15b8-249d-4ac3-837b-467979be949e","system_id":"levelo_inurba_marseille","lat":43.23315,"lon":5.36154,"is_reserved":false,"is_disabled":false,"rental_uris":{"android":"levelo://app?vid=879c15b8-249d-4ac3-837b-467979be949e","ios":"levelo://app?vid=879c15b8-249d-4ac3-837b-467979be949e"},"vehicle_type_id":"4","last_reported":1744009852,"current_range_meters":7200,"station_id":"","pricing_plan_id":"cebpf4jnsgd1na2vs0mg"},{"bike_id":"985699d8-091e-4647-ae03-5d38a7cfaf54","system_id":"levelo_inurba_marseille","lat":43.30318,"lon":5.36897,"is_reserved":false,"is_disabled":false,"rental_uris":{"android":"levelo://app?vid=985699d8-091e-4647-ae03-5d38a7cfaf54","ios":"levelo://app?vid=985699d8-091e-4647-ae03-5d38a7cfaf54"},"vehicle_type_id":"4","last_reported":1744009852,"current_range_meters":7200,"station_id":"ce4bgqh2rcd13ifvqc5g","pricing_plan_id":"cebpf4jnsgd1na2vs0mg"},{"bike_id":"22085ef8-530a-4278-b620-bb79960a2359","system_id":"levelo_inurba_marseille","lat":43.29042,"lon":5.39973,"is_reserved":false,"is_disabled":false,"rental_uris":{"android":"levelo://app?vid=22085ef8-530a-4278-b620-bb79960a2359","ios":"levelo://app?vid=22085ef8-530a-4278-b620-bb79960a2359"},"vehicle_type_id":"4","last_reported":1744009852,"current_range_meters":7200,"station_id":"ce4bh392rcd13ifvqdm0","pricing_plan_id":"cebpf4jnsgd1na2vs0mg"},{"bike_id":"27d97511-6103-4d1b-bf00-47add810e79c","system_id":"levelo_inurba_marseille","lat":43.30318,"lon":5.36896,"is_reserved":false,"is_disabled":false,"rental_uris":{"android":"levelo://app?vid=27d97511-6103-4d1b-bf00-47add810e79c","ios":"levelo://app?vid=27d97511-6103-4d1b-bf00-47add810e79c"},"vehicle_type_id":"4","last_reported":1744009852,"current_range_meters":8000,"station_id":"ce4bgqh2rcd13ifvqc5g","pricing_plan_id":"cebpf4jnsgd1na2vs0mg"},{"bike_id":"7e114504-c80e-42c2-8dfc-3f805a80c893","system_id":"levelo_inurba_marseille","lat":43.2896,"lon":5.36416,"is_reserved":false,"is_disabled":true,"rental_uris":{"android":"levelo://app?vid=7e114504-c80e-42c2-8dfc-3f805a80c893","ios":"levelo://app?vid=7e114504-c80e-42c2-8dfc-3f805a80c893"},"vehicle_type_id":"4","last_reported":1744009852,"current_range_meters":8000,"station_id":"ce4bhc92rcd13ifvqetg","pricing_plan_id":"cebpf4jnsgd1na2vs0mg"},{"bike_id":"00393ee2-317d-4e98-a30d-fd25773ef49f","system_id":"levelo_inurba_marseille","lat":43.35221,"lon":5.35793,"is_reserved":false,"is_disabled":false,"rental_uris":{"android":"levelo://app?vid=00393ee2-317d-4e98-a30d-fd25773ef49f","ios":"levelo://app?vid=00393ee2-317d-4e98-a30d-fd25773ef49f"},"vehicle_type_id":"4","last_reported":1744009852,"current_range_meters":8000,"station_id":"","pricing_plan_id":"cebpf4jnsgd1na2vs0mg"},{"bike_id":"dfe033e5-eb50-4610-85ee-430cd4939587","system_id":"levelo_inurba_marseille","lat":43.27617,"lon":5.36122,"is_reserved":false,"is_disabled":true,"rental_uris":{"android":"levelo://app?vid=dfe033e5-eb50-4610-85ee-430cd4939587","ios":"levelo://app?vid=dfe033e5-eb50-4610-85ee-430cd4939587"},"vehicle_type_id":"4","last_reported":1744009852,"current_range_meters":8000,"station_id":"ce4bgj92rcd13ifvqbe0","pricing_plan_id":"cebpf4jnsgd1na2vs0mg"},{"bike_id":"1f8d1e21-f657-42c0-bf7b-10b968483646","system_id":"levelo_inurba_marseille","lat":43.31231,"lon":5.36866,"is_reserved":false,"is_disabled":false,"rental_uris":{"android":"levelo://app?vid=1f8d1e21-f657-42c0-bf7b-10b968483646","ios":"levelo://app?vid=1f8d1e21-f657-42c0-bf7b-10b968483646"},"vehicle_type_id":"4","last_reported":1744009852,"current_range_meters":8000,"station_id":"ce4bgl92rcd13ifvqbq0","pricing_plan_id":"cebpf4jnsgd1na2vs0mg"},{"bike_id":"dd6333b1-78ba-4390-9f9a-5b0223395c64","system_id":"levelo_inurba_marseille","lat":43.270492,"lon":5.401915,"is_reserved":false,"is_disabled":false,"rental_uris":{"android":"levelo://app?vid=dd6333b1-78ba-4390-9f9a-5b0223395c64","ios":"levelo://app?vid=dd6333b1-78ba-4390-9f9a-5b0223395c64"},"vehicle_type_id":"4","last_reported":1744009852,"current_range_meters":8000,"station_id":"ce4bhk92rcd13ifvqgc0","pricing_plan_id":"cebpf4jnsgd1na2vs0mg"},{"bike_id":"136b6e45-ee21-453e-aa22-e07947db9071","system_id":"levelo_inurba_marseille","lat":43.23149,"lon":5.437,"is_reserved":false,"is_disabled":true,"rental_uris":{"android":"levelo://app?vid=136b6e45-ee21-453e-aa22-e07947db9071","ios":"levelo://app?vid=136b6e45-ee21-453e-aa22-e07947db9071"},"vehicle_type_id":"4","last_reported":1744009852,"current_range_meters":8000,"station_id":"ce4bhmp2rcd13ifvqgog","pricing_plan_id":"cebpf4jnsgd1na2vs0mg"},{"bike_id":"599cd34c-20ae-429b-a3d3-757fcae68040","system_id":"levelo_inurba_marseille","lat":43.312,"lon":5.36847,"is_reserved":false,"is_disabled":false,"rental_uris":{"android":"levelo://app?vid=599cd34c-20ae-429b-a3d3-757fcae68040","ios":"levelo://app?vid=599cd34c-20ae-429b-a3d3-757fcae68040"},"vehicle_type_id":"4","last_reported":1744009852,"current_range_meters":8400,"station_id":"ce4bgl92rcd13ifvqbq0","pricing_plan_id":"cebpf4jnsgd1na2vs0mg"},{"bike_id":"72543552-8188-4373-8db0-bd2f24c14e7b","system_id":"levelo_inurba_marseille","lat":43.32283,"lon":5.37668,"is_reserved":false,"is_disabled":false,"rental_uris":{"android":"levelo://app?vid=72543552-8188-4373-8db0-bd2f24c14e7b","ios":"levelo://app?vid=72543552-8188-4373-8db0-bd2f24c14e7b"},"vehicle_type_id":"4","last_reported":1744009852,"current_range_meters":8400,"station_id":"","pricing_plan_id":"cebpf4jnsgd1na2vs0mg"},{"bike_id":"590bd0e2-9f1d-4e6f-9e37-05bb0e5ae5dc","system_id":"levelo_inurba_marseille","lat":43.29891,"lon":5.36397,"is_reserved":false,"is_disabled":false,"rental_uris":{"android":"levelo://app?vid=590bd0e2-9f1d-4e6f-9e37-05bb0e5ae5dc","ios":"levelo://app?vid=590bd0e2-9f1d-4e6f-9e37-05bb0e5ae5dc"},"vehicle_type_id":"4","last_reported":1744009852,"current_range_meters":8400,"station_id":"","pricing_plan_id":"cebpf4jnsgd1na2vs0mg"},{"bike_id":"6034eb24-94e2-4ab9-9a43-c7a8184b482c","system_id":"levelo_inurba_marseille","lat":43.29036,"lon":5.39993,"is_reserved":false,"is_disabled":false,"rental_uris":{"android":"levelo://app?vid=6034eb24-94e2-4ab9-9a43-c7a8184b482c","ios":"levelo://app?vid=6034eb24-94e2-4ab9-9a43-c7a8184b482c"},"vehicle_type_id":"4","last_reported":1744009852,"current_range_meters":8400,"station_id":"ce4bh392rcd13ifvqdm0","pricing_plan_id":"cebpf4jnsgd1na2vs0mg"},{"bike_id":"71f095a9-88df-4b7e-8f1b-d14590c3b745","system_id":"levelo_inurba_marseille","lat":43.3378,"lon":5.3745,"is_reserved":false,"is_disabled":false,"rental_uris":{"android":"levelo://app?vid=71f095a9-88df-4b7e-8f1b-d14590c3b745","ios":"levelo://app?vid=71f095a9-88df-4b7e-8f1b-d14590c3b745"},"vehicle_type_id":"4","last_reported":1744009852,"current_range_meters":8400,"station_id":"","pricing_plan_id":"cebpf4jnsgd1na2vs0mg"},{"bike_id":"b786170b-2a07-48c0-a562-7ad3ac44153d","system_id":"levelo_inurba_marseille","lat":43.29034,"lon":5.39959,"is_reserved":false,"is_disabled":false,"rental_uris":{"android":"levelo://app?vid=b786170b-2a07-48c0-a562-7ad3ac44153d","ios":"levelo://app?vid=b786170b-2a07-48c0-a562-7ad3ac44153d"},"vehicle_type_id":"4","last_reported":1744009852,"current_range_meters":8000,"station_id":"ce4bh392rcd13ifvqdm0","pricing_plan_id":"cebpf4jnsgd1na2vs0mg"},{"bike_id":"007107bd-ce1d-49b7-ad24-fc160971ed8b","system_id":"levelo_inurba_marseille","lat":43.31696,"lon":5.37776,"is_reserved":false,"is_disabled":false,"rental_uris":{"android":"levelo://app?vid=007107bd-ce1d-49b7-ad24-fc160971ed8b","ios":"levelo://app?vid=007107bd-ce1d-49b7-ad24-fc160971ed8b"},"vehicle_type_id":"4","last_reported":1744009852,"current_range_meters":8400,"station_id":"ce4bgth2rcd13ifvqch0","pricing_plan_id":"cebpf4jnsgd1na2vs0mg"},{"bike_id":"2cd7ef9b-a726-4134-9830-a54c0abc7b06","system_id":"levelo_inurba_marseille","lat":43.24158,"lon":5.39739,"is_reserved":false,"is_disabled":false,"rental_uris":{"android":"levelo://app?vid=2cd7ef9b-a726-4134-9830-a54c0abc7b06","ios":"levelo://app?vid=2cd7ef9b-a726-4134-9830-a54c0abc7b06"},"vehicle_type_id":"4","last_reported":1744009852,"current_range_meters":8400,"station_id":"ce4bhn12rcd13ifvqgpg","pricing_plan_id":"cebpf4jnsgd1na2vs0mg"},{"bike_id":"aba5e844-f429-4fca-8fbd-34616f5265a2","system_id":"levelo_inurba_marseille","lat":43.28166,"lon":5.42668,"is_reserved":false,"is_disabled":false,"rental_uris":{"android":"levelo://app?vid=aba5e844-f429-4fca-8fbd-34616f5265a2","ios":"levelo://app?vid=aba5e844-f429-4fca-8fbd-34616f5265a2"},"vehicle_type_id":"4","last_reported":1744009852,"current_range_meters":8400,"station_id":"ce4bhnh2rcd13ifvqgug","pricing_plan_id":"cebpf4jnsgd1na2vs0mg"},{"bike_id":"093019e0-55e5-42b1-9c23-9d41c3c990a6","system_id":"levelo_inurba_marseille","lat":43.31993,"lon":5.38154,"is_reserved":false,"is_disabled":false,"rental_uris":{"android":"levelo://app?vid=093019e0-55e5-42b1-9c23-9d41c3c990a6","ios":"levelo://app?vid=093019e0-55e5-42b1-9c23-9d41c3c990a6"},"vehicle_type_id":"4","last_reported":1744009852,"current_range_meters":8400,"station_id":"ce4bhr12rcd13ifvqhpg","pricing_plan_id":"cebpf4jnsgd1na2vs0mg"},{"bike_id":"f56fa8c2-6991-4db5-9b1b-225fe2c50caf","system_id":"levelo_inurba_marseille","lat":43.28149,"lon":5.42692,"is_reserved":false,"is_disabled":false,"rental_uris":{"android":"levelo://app?vid=f56fa8c2-6991-4db5-9b1b-225fe2c50caf","ios":"levelo://app?vid=f56fa8c2-6991-4db5-9b1b-225fe2c50caf"},"vehicle_type_id":"4","last_reported":1744009852,"current_range_meters":8400,"station_id":"ce4bhnh2rcd13ifvqgug","pricing_plan_id":"cebpf4jnsgd1na2vs0mg"},{"bike_id":"989c95ad-174b-4d11-bf71-7e1e26e27127","system_id":"levelo_inurba_marseille","lat":43.24813,"lon":5.37509,"is_reserved":false,"is_disabled":false,"rental_uris":{"android":"levelo://app?vid=989c95ad-174b-4d11-bf71-7e1e26e27127","ios":"levelo://app?vid=989c95ad-174b-4d11-bf71-7e1e26e27127"},"vehicle_type_id":"4","last_reported":1744009852,"current_range_meters":8400,"station_id":"","pricing_plan_id":"cebpf4jnsgd1na2vs0mg"},{"bike_id":"33cdd17a-41ff-4c01-b4a1-63e3a7c4eb42","system_id":"levelo_inurba_marseille","lat":43.30288,"lon":5.3771,"is_reserved":false,"is_disabled":false,"rental_uris":{"android":"levelo://app?vid=33cdd17a-41ff-4c01-b4a1-63e3a7c4eb42","ios":"levelo://app?vid=33cdd17a-41ff-4c01-b4a1-63e3a7c4eb42"},"vehicle_type_id":"4","last_reported":1744009852,"current_range_meters":8400,"station_id":"ce4bguh2rcd13ifvqcj0","pricing_plan_id":"cebpf4jnsgd1na2vs0mg"},{"bike_id":"351b921a-1463-4cf6-859d-ca5bd51a6e76","system_id":"levelo_inurba_marseille","lat":43.31792,"lon":5.3681,"is_reserved":false,"is_disabled":false,"rental_uris":{"android":"levelo://app?vid=351b921a-1463-4cf6-859d-ca5bd51a6e76","ios":"levelo://app?vid=351b921a-1463-4cf6-859d-ca5bd51a6e76"},"vehicle_type_id":"4","last_reported":1744009852,"current_range_meters":8400,"station_id":"","pricing_plan_id":"cebpf4jnsgd1na2vs0mg"},{"bike_id":"d66890eb-a849-4361-8afb-8574c3836f73","system_id":"levelo_inurba_marseille","lat":43.2607,"lon":5.387218,"is_reserved":false,"is_disabled":false,"rental_uris":{"android":"levelo://app?vid=d66890eb-a849-4361-8afb-8574c3836f73","ios":"levelo://app?vid=d66890eb-a849-4361-8afb-8574c3836f73"},"vehicle_type_id":"4","last_reported":1744009852,"current_range_meters":8400,"station_id":"","pricing_plan_id":"cebpf4jnsgd1na2vs0mg"},{"bike_id":"9595b62d-9676-42e9-9df3-e2e6b968d082","system_id":"levelo_inurba_marseille","lat":43.24802,"lon":5.37507,"is_reserved":false,"is_disabled":false,"rental_uris":{"android":"levelo://app?vid=9595b62d-9676-42e9-9df3-e2e6b968d082","ios":"levelo://app?vid=9595b62d-9676-42e9-9df3-e2e6b968d082"},"vehicle_type_id":"4","last_reported":1744009852,"current_range_meters":8400,"station_id":"","pricing_plan_id":"cebpf4jnsgd1na2vs0mg"},{"bike_id":"fe3c5771-886e-47e6-93fc-4aaead5f7c0f","system_id":"levelo_inurba_marseille","lat":43.25939,"lon":5.40901,"is_reserved":false,"is_disabled":false,"rental_uris":{"android":"levelo://app?vid=fe3c5771-886e-47e6-93fc-4aaead5f7c0f","ios":"levelo://app?vid=fe3c5771-886e-47e6-93fc-4aaead5f7c0f"},"vehicle_type_id":"4","last_reported":1744009852,"current_range_meters":8400,"station_id":"ce4bhm92rcd13ifvqglg","pricing_plan_id":"cebpf4jnsgd1na2vs0mg"},{"bike_id":"71e7726d-0578-47c1-8930-d03bed65501c","system_id":"levelo_inurba_marseille","lat":43.29969,"lon":5.37182,"is_reserved":false,"is_disabled":false,"rental_uris":{"android":"levelo://app?vid=71e7726d-0578-47c1-8930-d03bed65501c","ios":"levelo://app?vid=71e7726d-0578-47c1-8930-d03bed65501c"},"vehicle_type_id":"4","last_reported":1744009852,"current_range_meters":8400,"station_id":"ce4bgr92rcd13ifvqc7g","pricing_plan_id":"cebpf4jnsgd1na2vs0mg"},{"bike_id":"1266949c-9467-4ff8-bfa0-e172d7be7f64","system_id":"levelo_inurba_marseille","lat":43.31019,"lon":5.36664,"is_reserved":false,"is_disabled":true,"rental_uris":{"android":"levelo://app?vid=1266949c-9467-4ff8-bfa0-e172d7be7f64","ios":"levelo://app?vid=1266949c-9467-4ff8-bfa0-e172d7be7f64"},"vehicle_type_id":"4","last_reported":1744009852,"current_range_meters":8800,"station_id":"","pricing_plan_id":"cebpf4jnsgd1na2vs0mg"},{"bike_id":"27c4ca3e-4ce1-4a6f-a413-878455439639","system_id":"levelo_inurba_marseille","lat":43.32478,"lon":5.3657,"is_reserved":false,"is_disabled":false,"rental_uris":{"android":"levelo://app?vid=27c4ca3e-4ce1-4a6f-a413-878455439639","ios":"levelo://app?vid=27c4ca3e-4ce1-4a6f-a413-878455439639"},"vehicle_type_id":"4","last_reported":1744009852,"current_range_meters":8400,"station_id":"ce4bhs12rcd13ifvqhvg","pricing_plan_id":"cebpf4jnsgd1na2vs0mg"},{"bike_id":"edaccf97-dc5b-4501-9f95-e0fff4b79492","system_id":"levelo_inurba_marseille","lat":43.2799,"lon":5.41669,"is_reserved":false,"is_disabled":false,"rental_uris":{"android":"levelo://app?vid=edaccf97-dc5b-4501-9f95-e0fff4b79492","ios":"levelo://app?vid=edaccf97-dc5b-4501-9f95-e0fff4b79492"},"vehicle_type_id":"4","last_reported":1744009852,"current_range_meters":8800,"station_id":"ce4bho12rcd13ifvqh1g","pricing_plan_id":"cebpf4jnsgd1na2vs0mg"},{"bike_id":"fd5cccc1-5f43-428f-829b-35b739912f23","system_id":"levelo_inurba_marseille","lat":43.32551,"lon":5.41435,"is_reserved":false,"is_disabled":false,"rental_uris":{"android":"levelo://app?vid=fd5cccc1-5f43-428f-829b-35b739912f23","ios":"levelo://app?vid=fd5cccc1-5f43-428f-829b-35b739912f23"},"vehicle_type_id":"4","last_reported":1744009852,"current_range_meters":8400,"station_id":"ce4bhq12rcd13ifvqhhg","pricing_plan_id":"cebpf4jnsgd1na2vs0mg"},{"bike_id":"2934e2cb-a24e-4858-b0c5-41a565edaee7","system_id":"levelo_inurba_marseille","lat":43.27941,"lon":5.40858,"is_reserved":false,"is_disabled":false,"rental_uris":{"android":"levelo://app?vid=2934e2cb-a24e-4858-b0c5-41a565edaee7","ios":"levelo://app?vid=2934e2cb-a24e-4858-b0c5-41a565edaee7"},"vehicle_type_id":"4","last_reported":1744009852,"current_range_meters":8800,"station_id":"","pricing_plan_id":"cebpf4jnsgd1na2vs0mg"},{"bike_id":"3e9a35d1-de44-4a45-84e7-a27ce0a23b8b","system_id":"levelo_inurba_marseille","lat":43.279878,"lon":5.416744,"is_reserved":false,"is_disabled":false,"rental_uris":{"android":"levelo://app?vid=3e9a35d1-de44-4a45-84e7-a27ce0a23b8b","ios":"levelo://app?vid=3e9a35d1-de44-4a45-84e7-a27ce0a23b8b"},"vehicle_type_id":"4","last_reported":1744009852,"current_range_meters":8800,"station_id":"ce4bho12rcd13ifvqh1g","pricing_plan_id":"cebpf4jnsgd1na2vs0mg"},{"bike_id":"606675f6-9cae-427a-83c9-8a064752327b","system_id":"levelo_inurba_marseille","lat":43.32368,"lon":5.36768,"is_reserved":false,"is_disabled":false,"rental_uris":{"android":"levelo://app?vid=606675f6-9cae-427a-83c9-8a064752327b","ios":"levelo://app?vid=606675f6-9cae-427a-83c9-8a064752327b"},"vehicle_type_id":"4","last_reported":1744009852,"current_range_meters":8800,"station_id":"ce4bhsh2rcd13ifvqi2g","pricing_plan_id":"cebpf4jnsgd1na2vs0mg"},{"bike_id":"19379d7b-b3b4-46ff-9af1-6370bf06ecc3","system_id":"levelo_inurba_marseille","lat":43.28993,"lon":5.3562,"is_reserved":false,"is_disabled":true,"rental_uris":{"android":"levelo://app?vid=19379d7b-b3b4-46ff-9af1-6370bf06ecc3","ios":"levelo://app?vid=19379d7b-b3b4-46ff-9af1-6370bf06ecc3"},"vehicle_type_id":"4","last_reported":1744009852,"current_range_meters":8800,"station_id":"ce4bhb92rcd13ifvqen0","pricing_plan_id":"cebpf4jnsgd1na2vs0mg"},{"bike_id":"f29aecaa-ade0-467c-986a-b65b06d523f4","system_id":"levelo_inurba_marseille","lat":43.28854,"lon":5.39374,"is_reserved":false,"is_disabled":true,"rental_uris":{"android":"levelo://app?vid=f29aecaa-ade0-467c-986a-b65b06d523f4","ios":"levelo://app?vid=f29aecaa-ade0-467c-986a-b65b06d523f4"},"vehicle_type_id":"4","last_reported":1744009852,"current_range_meters":9200,"station_id":"","pricing_plan_id":"cebpf4jnsgd1na2vs0mg"},{"bike_id":"63e1d95c-79be-4b82-a868-e312bf827ceb","system_id":"levelo_inurba_marseille","lat":43.29015,"lon":5.38637,"is_reserved":false,"is_disabled":true,"rental_uris":{"android":"levelo://app?vid=63e1d95c-79be-4b82-a868-e312bf827ceb","ios":"levelo://app?vid=63e1d95c-79be-4b82-a868-e312bf827ceb"},"vehicle_type_id":"4","last_reported":1744009852,"current_range_meters":9200,"station_id":"","pricing_plan_id":"cebpf4jnsgd1na2vs0mg"},{"bike_id":"c3e6d442-6282-4c88-9f90-93d85aff9e76","system_id":"levelo_inurba_marseille","lat":43.28157,"lon":5.42646,"is_reserved":false,"is_disabled":false,"rental_uris":{"android":"levelo://app?vid=c3e6d442-6282-4c88-9f90-93d85aff9e76","ios":"levelo://app?vid=c3e6d442-6282-4c88-9f90-93d85aff9e76"},"vehicle_type_id":"4","last_reported":1744009852,"current_range_meters":9200,"station_id":"ce4bhnh2rcd13ifvqgug","pricing_plan_id":"cebpf4jnsgd1na2vs0mg"},{"bike_id":"33448e42-2dee-4e4d-933a-57b94ec14f0c","system_id":"levelo_inurba_marseille","lat":43.29194,"lon":5.35607,"is_reserved":false,"is_disabled":true,"rental_uris":{"android":"levelo://app?vid=33448e42-2dee-4e4d-933a-57b94ec14f0c","ios":"levelo://app?vid=33448e42-2dee-4e4d-933a-57b94ec14f0c"},"vehicle_type_id":"4","last_reported":1744009852,"current_range_meters":9200,"station_id":"","pricing_plan_id":"cebpf4jnsgd1na2vs0mg"},{"bike_id":"45656cd8-d332-4461-af1d-d61ecbca0668","system_id":"levelo_inurba_marseille","lat":43.3212,"lon":5.36786,"is_reserved":false,"is_disabled":false,"rental_uris":{"android":"levelo://app?vid=45656cd8-d332-4461-af1d-d61ecbca0668","ios":"levelo://app?vid=45656cd8-d332-4461-af1d-d61ecbca0668"},"vehicle_type_id":"4","last_reported":1744009852,"current_range_meters":9200,"station_id":"ce4bhrh2rcd13ifvqhug","pricing_plan_id":"cebpf4jnsgd1na2vs0mg"},{"bike_id":"04ce681f-1add-470d-a705-28fa1ef446da","system_id":"levelo_inurba_marseille","lat":43.31337,"lon":5.36728,"is_reserved":false,"is_disabled":false,"rental_uris":{"android":"levelo://app?vid=04ce681f-1add-470d-a705-28fa1ef446da","ios":"levelo://app?vid=04ce681f-1add-470d-a705-28fa1ef446da"},"vehicle_type_id":"4","last_reported":1744009852,"current_range_meters":9200,"station_id":"ce4bgr92rcd13ifvqc6g","pricing_plan_id":"cebpf4jnsgd1na2vs0mg"},{"bike_id":"90205e48-dc47-484e-9b19-84fe4bcb3fb7","system_id":"levelo_inurba_marseille","lat":43.25807,"lon":5.3951,"is_reserved":false,"is_disabled":false,"rental_uris":{"android":"levelo://app?vid=90205e48-dc47-484e-9b19-84fe4bcb3fb7","ios":"levelo://app?vid=90205e48-dc47-484e-9b19-84fe4bcb3fb7"},"vehicle_type_id":"4","last_reported":1744009852,"current_range_meters":9600,"station_id":"","pricing_plan_id":"cebpf4jnsgd1na2vs0mg"},{"bike_id":"9a285eae-2bf6-4f79-93ba-664911f7d286","system_id":"levelo_inurba_marseille","lat":43.29616,"lon":5.37175,"is_reserved":false,"is_disabled":false,"rental_uris":{"android":"levelo://app?vid=9a285eae-2bf6-4f79-93ba-664911f7d286","ios":"levelo://app?vid=9a285eae-2bf6-4f79-93ba-664911f7d286"},"vehicle_type_id":"4","last_reported":1744009852,"current_range_meters":9600,"station_id":"ce4bgnh2rcd13ifvqc0g","pricing_plan_id":"cebpf4jnsgd1na2vs0mg"},{"bike_id":"8a38320c-a733-4cf5-8c8e-152497fe8f8f","system_id":"levelo_inurba_marseille","lat":43.28147,"lon":5.42646,"is_reserved":false,"is_disabled":false,"rental_uris":{"android":"levelo://app?vid=8a38320c-a733-4cf5-8c8e-152497fe8f8f","ios":"levelo://app?vid=8a38320c-a733-4cf5-8c8e-152497fe8f8f"},"vehicle_type_id":"4","last_reported":1744009852,"current_range_meters":9600,"station_id":"ce4bhnh2rcd13ifvqgug","pricing_plan_id":"cebpf4jnsgd1na2vs0mg"},{"bike_id":"a409c3f0-8991-4228-afb5-57b19bb06658","system_id":"levelo_inurba_marseille","lat":43.32401,"lon":5.38997,"is_reserved":false,"is_disabled":true,"rental_uris":{"android":"levelo://app?vid=a409c3f0-8991-4228-afb5-57b19bb06658","ios":"levelo://app?vid=a409c3f0-8991-4228-afb5-57b19bb06658"},"vehicle_type_id":"4","last_reported":1744009852,"current_range_meters":9600,"station_id":"","pricing_plan_id":"cebpf4jnsgd1na2vs0mg"},{"bike_id":"e4d4dc7a-abcd-4c1d-8017-887f937d011f","system_id":"levelo_inurba_marseille","lat":43.29567,"lon":5.39976,"is_reserved":false,"is_disabled":true,"rental_uris":{"android":"levelo://app?vid=e4d4dc7a-abcd-4c1d-8017-887f937d011f","ios":"levelo://app?vid=e4d4dc7a-abcd-4c1d-8017-887f937d011f"},"vehicle_type_id":"4","last_reported":1744009852,"current_range_meters":9600,"station_id":"ce4bh312rcd13ifvqdj0","pricing_plan_id":"cebpf4jnsgd1na2vs0mg"},{"bike_id":"97872a21-1a99-4c02-91d9-bd084f9f2ebd","system_id":"levelo_inurba_marseille","lat":43.28148,"lon":5.42648,"is_reserved":false,"is_disabled":false,"rental_uris":{"android":"levelo://app?vid=97872a21-1a99-4c02-91d9-bd084f9f2ebd","ios":"levelo://app?vid=97872a21-1a99-4c02-91d9-bd084f9f2ebd"},"vehicle_type_id":"4","last_reported":1744009852,"current_range_meters":9600,"station_id":"ce4bhnh2rcd13ifvqgug","pricing_plan_id":"cebpf4jnsgd1na2vs0mg"},{"bike_id":"ea5585fb-5555-49b1-83ce-b77c352506c2","system_id":"levelo_inurba_marseille","lat":43.25937,"lon":5.40907,"is_reserved":false,"is_disabled":false,"rental_uris":{"android":"levelo://app?vid=ea5585fb-5555-49b1-83ce-b77c352506c2","ios":"levelo://app?vid=ea5585fb-5555-49b1-83ce-b77c352506c2"},"vehicle_type_id":"4","last_reported":1744009852,"current_range_meters":9600,"station_id":"ce4bhm92rcd13ifvqglg","pricing_plan_id":"cebpf4jnsgd1na2vs0mg"},{"bike_id":"8539495d-a8db-48e8-999c-a0eec7f95200","system_id":"levelo_inurba_marseille","lat":43.254869,"lon":5.376509,"is_reserved":false,"is_disabled":true,"rental_uris":{"android":"levelo://app?vid=8539495d-a8db-48e8-999c-a0eec7f95200","ios":"levelo://app?vid=8539495d-a8db-48e8-999c-a0eec7f95200"},"vehicle_type_id":"4","last_reported":1744009852,"current_range_meters":9600,"station_id":"ce4bhh12rcd13ifvqff0","pricing_plan_id":"cebpf4jnsgd1na2vs0mg"},{"bike_id":"03459487-5609-45d6-8672-77ad1a4c94a5","system_id":"levelo_inurba_marseille","lat":43.23137,"lon":5.43731,"is_reserved":false,"is_disabled":false,"rental_uris":{"android":"levelo://app?vid=03459487-5609-45d6-8672-77ad1a4c94a5","ios":"levelo://app?vid=03459487-5609-45d6-8672-77ad1a4c94a5"},"vehicle_type_id":"4","last_reported":1744009852,"current_range_meters":10000,"station_id":"ce4bhmp2rcd13ifvqgog","pricing_plan_id":"cebpf4jnsgd1na2vs0mg"},{"bike_id":"dbcbe596-7914-47cd-867e-c25587b37acd","system_id":"levelo_inurba_marseille","lat":43.297073,"lon":5.376934,"is_reserved":false,"is_disabled":false,"rental_uris":{"android":"levelo://app?vid=dbcbe596-7914-47cd-867e-c25587b37acd","ios":"levelo://app?vid=dbcbe596-7914-47cd-867e-c25587b37acd"},"vehicle_type_id":"4","last_reported":1744009852,"current_range_meters":10000,"station_id":"ce4bgkh2rcd13ifvqbl0","pricing_plan_id":"cebpf4jnsgd1na2vs0mg"},{"bike_id":"1e81c4d2-6637-42bf-8d6d-5d37c0fe2360","system_id":"levelo_inurba_marseille","lat":43.32102,"lon":5.36809,"is_reserved":false,"is_disabled":false,"rental_uris":{"android":"levelo://app?vid=1e81c4d2-6637-42bf-8d6d-5d37c0fe2360","ios":"levelo://app?vid=1e81c4d2-6637-42bf-8d6d-5d37c0fe2360"},"vehicle_type_id":"4","last_reported":1744009852,"current_range_meters":10000,"station_id":"ce4bhrh2rcd13ifvqhug","pricing_plan_id":"cebpf4jnsgd1na2vs0mg"},{"bike_id":"a959694d-18ce-4d80-917f-23c91ed81065","system_id":"levelo_inurba_marseille","lat":43.29891,"lon":5.43657,"is_reserved":false,"is_disabled":false,"rental_uris":{"android":"levelo://app?vid=a959694d-18ce-4d80-917f-23c91ed81065","ios":"levelo://app?vid=a959694d-18ce-4d80-917f-23c91ed81065"},"vehicle_type_id":"4","last_reported":1744009852,"current_range_meters":10000,"station_id":"ce4bhpp2rcd13ifvqhfg","pricing_plan_id":"cebpf4jnsgd1na2vs0mg"},{"bike_id":"81134681-18e6-4c8d-8591-db7ea34d52db","system_id":"levelo_inurba_marseille","lat":43.29059,"lon":5.39999,"is_reserved":false,"is_disabled":false,"rental_uris":{"android":"levelo://app?vid=81134681-18e6-4c8d-8591-db7ea34d52db","ios":"levelo://app?vid=81134681-18e6-4c8d-8591-db7ea34d52db"},"vehicle_type_id":"4","last_reported":1744009852,"current_range_meters":10000,"station_id":"ce4bh392rcd13ifvqdm0","pricing_plan_id":"cebpf4jnsgd1na2vs0mg"},{"bike_id":"8636a8fa-7cbc-4041-980b-31b169a9a5bc","system_id":"levelo_inurba_marseille","lat":43.267866,"lon":5.394173,"is_reserved":false,"is_disabled":false,"rental_uris":{"android":"levelo://app?vid=8636a8fa-7cbc-4041-980b-31b169a9a5bc","ios":"levelo://app?vid=8636a8fa-7cbc-4041-980b-31b169a9a5bc"},"vehicle_type_id":"4","last_reported":1744009852,"current_range_meters":9600,"station_id":"ce4bhh12rcd13ifvqfg0","pricing_plan_id":"cebpf4jnsgd1na2vs0mg"},{"bike_id":"8ab34c1b-3ef4-4cd7-8817-60f2d6e059e3","system_id":"levelo_inurba_marseille","lat":43.29936,"lon":5.36556,"is_reserved":false,"is_disabled":false,"rental_uris":{"android":"levelo://app?vid=8ab34c1b-3ef4-4cd7-8817-60f2d6e059e3","ios":"levelo://app?vid=8ab34c1b-3ef4-4cd7-8817-60f2d6e059e3"},"vehicle_type_id":"4","last_reported":1744009852,"current_range_meters":10000,"station_id":"ce4bgm92rcd13ifvqbr0","pricing_plan_id":"cebpf4jnsgd1na2vs0mg"},{"bike_id":"b949e990-7975-4256-8785-8cc7eb0a18b8","system_id":"levelo_inurba_marseille","lat":43.29565,"lon":5.37541,"is_reserved":false,"is_disabled":false,"rental_uris":{"android":"levelo://app?vid=b949e990-7975-4256-8785-8cc7eb0a18b8","ios":"levelo://app?vid=b949e990-7975-4256-8785-8cc7eb0a18b8"},"vehicle_type_id":"4","last_reported":1744009852,"current_range_meters":10800,"station_id":"ce4bgh92rcd13ifvqb50","pricing_plan_id":"cebpf4jnsgd1na2vs0mg"},{"bike_id":"d6c3d7f4-760c-422c-8667-25e15a7934b3","system_id":"levelo_inurba_marseille","lat":43.30796,"lon":5.37402,"is_reserved":false,"is_disabled":false,"rental_uris":{"android":"levelo://app?vid=d6c3d7f4-760c-422c-8667-25e15a7934b3","ios":"levelo://app?vid=d6c3d7f4-760c-422c-8667-25e15a7934b3"},"vehicle_type_id":"4","last_reported":1744009852,"current_range_meters":10800,"station_id":"","pricing_plan_id":"cebpf4jnsgd1na2vs0mg"},{"bike_id":"3a6cf4dd-4a04-48a6-bbfb-6b1ea18759b5","system_id":"levelo_inurba_marseille","lat":43.32362,"lon":5.3676,"is_reserved":false,"is_disabled":false,"rental_uris":{"android":"levelo://app?vid=3a6cf4dd-4a04-48a6-bbfb-6b1ea18759b5","ios":"levelo://app?vid=3a6cf4dd-4a04-48a6-bbfb-6b1ea18759b5"},"vehicle_type_id":"4","last_reported":1744009852,"current_range_meters":10800,"station_id":"ce4bhsh2rcd13ifvqi2g","pricing_plan_id":"cebpf4jnsgd1na2vs0mg"},{"bike_id":"e53b9e9b-ac51-4f70-ad60-ed3149b8c178","system_id":"levelo_inurba_marseille","lat":43.31305,"lon":5.37337,"is_reserved":false,"is_disabled":false,"rental_uris":{"android":"levelo://app?vid=e53b9e9b-ac51-4f70-ad60-ed3149b8c178","ios":"levelo://app?vid=e53b9e9b-ac51-4f70-ad60-ed3149b8c178"},"vehicle_type_id":"4","last_reported":1744009852,"current_range_meters":10800,"station_id":"","pricing_plan_id":"cebpf4jnsgd1na2vs0mg"},{"bike_id":"4509e3b0-878a-445a-9c5e-723776639186","system_id":"levelo_inurba_marseille","lat":43.31361,"lon":5.36721,"is_reserved":false,"is_disabled":false,"rental_uris":{"android":"levelo://app?vid=4509e3b0-878a-445a-9c5e-723776639186","ios":"levelo://app?vid=4509e3b0-878a-445a-9c5e-723776639186"},"vehicle_type_id":"4","last_reported":1744009852,"current_range_meters":10800,"station_id":"ce4bgr92rcd13ifvqc6g","pricing_plan_id":"cebpf4jnsgd1na2vs0mg"},{"bike_id":"9d282ce8-215c-49cd-a4e7-e94f77a006b8","system_id":"levelo_inurba_marseille","lat":43.32334,"lon":5.40631,"is_reserved":false,"is_disabled":false,"rental_uris":{"android":"levelo://app?vid=9d282ce8-215c-49cd-a4e7-e94f77a006b8","ios":"levelo://app?vid=9d282ce8-215c-49cd-a4e7-e94f77a006b8"},"vehicle_type_id":"4","last_reported":1744009852,"current_range_meters":10800,"station_id":"ce4bhq92rcd13ifvqhjg","pricing_plan_id":"cebpf4jnsgd1na2vs0mg"},{"bike_id":"87bda883-ac94-49fc-94c2-3a86e52b4f97","system_id":"levelo_inurba_marseille","lat":43.307259,"lon":5.383368,"is_reserved":false,"is_disabled":false,"rental_uris":{"android":"levelo://app?vid=87bda883-ac94-49fc-94c2-3a86e52b4f97","ios":"levelo://app?vid=87bda883-ac94-49fc-94c2-3a86e52b4f97"},"vehicle_type_id":"4","last_reported":1744009852,"current_range_meters":10800,"station_id":"","pricing_plan_id":"cebpf4jnsgd1na2vs0mg"},{"bike_id":"b8eb4e1e-abf3-4203-8518-35d0345f2f7c","system_id":"levelo_inurba_marseille","lat":43.284935,"lon":5.385576,"is_reserved":false,"is_disabled":false,"rental_uris":{"android":"levelo://app?vid=b8eb4e1e-abf3-4203-8518-35d0345f2f7c","ios":"levelo://app?vid=b8eb4e1e-abf3-4203-8518-35d0345f2f7c"},"vehicle_type_id":"4","last_reported":1744009852,"current_range_meters":10000,"station_id":"ce4bh8p2rcd13ifvqeb0","pricing_plan_id":"cebpf4jnsgd1na2vs0mg"},{"bike_id":"222e1e00-578b-4512-8bd3-f56c6fa61730","system_id":"levelo_inurba_marseille","lat":43.23961,"lon":5.36653,"is_reserved":false,"is_disabled":true,"rental_uris":{"android":"levelo://app?vid=222e1e00-578b-4512-8bd3-f56c6fa61730","ios":"levelo://app?vid=222e1e00-578b-4512-8bd3-f56c6fa61730"},"vehicle_type_id":"4","last_reported":1744009852,"current_range_meters":10800,"station_id":"ce4bhi12rcd13ifvqfp0","pricing_plan_id":"cebpf4jnsgd1na2vs0mg"},{"bike_id":"d893a78a-9318-483a-996e-9bec91fd98dc","system_id":"levelo_inurba_marseille","lat":43.31726,"lon":5.43704,"is_reserved":false,"is_disabled":false,"rental_uris":{"android":"levelo://app?vid=d893a78a-9318-483a-996e-9bec91fd98dc","ios":"levelo://app?vid=d893a78a-9318-483a-996e-9bec91fd98dc"},"vehicle_type_id":"4","last_reported":1744009852,"current_range_meters":10800,"station_id":"ce4bhp92rcd13ifvqhcg","pricing_plan_id":"cebpf4jnsgd1na2vs0mg"},{"bike_id":"01b7085e-f4b2-4524-8e40-c9fe4de69333","system_id":"levelo_inurba_marseille","lat":43.23154,"lon":5.43736,"is_reserved":false,"is_disabled":false,"rental_uris":{"android":"levelo://app?vid=01b7085e-f4b2-4524-8e40-c9fe4de69333","ios":"levelo://app?vid=01b7085e-f4b2-4524-8e40-c9fe4de69333"},"vehicle_type_id":"4","last_reported":1744009852,"current_range_meters":10800,"station_id":"ce4bhmp2rcd13ifvqgog","pricing_plan_id":"cebpf4jnsgd1na2vs0mg"},{"bike_id":"891f1f09-6759-480b-9d4f-0756d59abf11","system_id":"levelo_inurba_marseille","lat":43.22497,"lon":5.34791,"is_reserved":false,"is_disabled":false,"rental_uris":{"android":"levelo://app?vid=891f1f09-6759-480b-9d4f-0756d59abf11","ios":"levelo://app?vid=891f1f09-6759-480b-9d4f-0756d59abf11"},"vehicle_type_id":"4","last_reported":1744009852,"current_range_meters":10800,"station_id":"ce4bh612rcd13ifvqe6g","pricing_plan_id":"cebpf4jnsgd1na2vs0mg"},{"bike_id":"7c4ab7b9-1c2d-4570-9ad3-103cdcbb3a84","system_id":"levelo_inurba_marseille","lat":43.309021,"lon":5.368488,"is_reserved":false,"is_disabled":false,"rental_uris":{"android":"levelo://app?vid=7c4ab7b9-1c2d-4570-9ad3-103cdcbb3a84","ios":"levelo://app?vid=7c4ab7b9-1c2d-4570-9ad3-103cdcbb3a84"},"vehicle_type_id":"4","last_reported":1744009852,"current_range_meters":10000,"station_id":"ce4bgn92rcd13ifvqbvg","pricing_plan_id":"cebpf4jnsgd1na2vs0mg"},{"bike_id":"84fd32e4-3845-43ac-915c-34f8cee585d3","system_id":"levelo_inurba_marseille","lat":43.23963,"lon":5.36658,"is_reserved":false,"is_disabled":false,"rental_uris":{"android":"levelo://app?vid=84fd32e4-3845-43ac-915c-34f8cee585d3","ios":"levelo://app?vid=84fd32e4-3845-43ac-915c-34f8cee585d3"},"vehicle_type_id":"4","last_reported":1744009852,"current_range_meters":11200,"station_id":"ce4bhi12rcd13ifvqfp0","pricing_plan_id":"cebpf4jnsgd1na2vs0mg"},{"bike_id":"935587bd-e327-433f-b68c-6a9a15057f6f","system_id":"levelo_inurba_marseille","lat":43.314303,"lon":5.401584,"is_reserved":false,"is_disabled":false,"rental_uris":{"android":"levelo://app?vid=935587bd-e327-433f-b68c-6a9a15057f6f","ios":"levelo://app?vid=935587bd-e327-433f-b68c-6a9a15057f6f"},"vehicle_type_id":"4","last_reported":1744009852,"current_range_meters":11200,"station_id":"","pricing_plan_id":"cebpf4jnsgd1na2vs0mg"},{"bike_id":"e0f9379f-4e29-4d2f-9389-d7a00c58e8a0","system_id":"levelo_inurba_marseille","lat":43.24181,"lon":5.39727,"is_reserved":false,"is_disabled":false,"rental_uris":{"android":"levelo://app?vid=e0f9379f-4e29-4d2f-9389-d7a00c58e8a0","ios":"levelo://app?vid=e0f9379f-4e29-4d2f-9389-d7a00c58e8a0"},"vehicle_type_id":"4","last_reported":1744009852,"current_range_meters":11200,"station_id":"ce4bhn12rcd13ifvqgpg","pricing_plan_id":"cebpf4jnsgd1na2vs0mg"},{"bike_id":"cc057f14-b1e1-4dee-b107-8741c01c5964","system_id":"levelo_inurba_marseille","lat":43.32105,"lon":5.36766,"is_reserved":false,"is_disabled":false,"rental_uris":{"android":"levelo://app?vid=cc057f14-b1e1-4dee-b107-8741c01c5964","ios":"levelo://app?vid=cc057f14-b1e1-4dee-b107-8741c01c5964"},"vehicle_type_id":"4","last_reported":1744009852,"current_range_meters":11200,"station_id":"ce4bhrh2rcd13ifvqhug","pricing_plan_id":"cebpf4jnsgd1na2vs0mg"},{"bike_id":"bfe57f62-0f9e-4cdc-82b0-8d00041fbc63","system_id":"levelo_inurba_marseille","lat":43.25028,"lon":5.38965,"is_reserved":false,"is_disabled":false,"rental_uris":{"android":"levelo://app?vid=bfe57f62-0f9e-4cdc-82b0-8d00041fbc63","ios":"levelo://app?vid=bfe57f62-0f9e-4cdc-82b0-8d00041fbc63"},"vehicle_type_id":"4","last_reported":1744009852,"current_range_meters":11200,"station_id":"ce4bhgp2rcd13ifvqfd0","pricing_plan_id":"cebpf4jnsgd1na2vs0mg"},{"bike_id":"d1ca3e3f-a3af-4494-a8e3-d9258a45fcfe","system_id":"levelo_inurba_marseille","lat":43.31341,"lon":5.36726,"is_reserved":false,"is_disabled":false,"rental_uris":{"android":"levelo://app?vid=d1ca3e3f-a3af-4494-a8e3-d9258a45fcfe","ios":"levelo://app?vid=d1ca3e3f-a3af-4494-a8e3-d9258a45fcfe"},"vehicle_type_id":"4","last_reported":1744009852,"current_range_meters":11600,"station_id":"ce4bgr92rcd13ifvqc6g","pricing_plan_id":"cebpf4jnsgd1na2vs0mg"},{"bike_id":"0579037e-cb0c-462c-a967-bfbee9541cb1","system_id":"levelo_inurba_marseille","lat":43.29533,"lon":5.37509,"is_reserved":false,"is_disabled":false,"rental_uris":{"android":"levelo://app?vid=0579037e-cb0c-462c-a967-bfbee9541cb1","ios":"levelo://app?vid=0579037e-cb0c-462c-a967-bfbee9541cb1"},"vehicle_type_id":"4","last_reported":1744009852,"current_range_meters":11600,"station_id":"ce4bgkp2rcd13ifvqbmg","pricing_plan_id":"cebpf4jnsgd1na2vs0mg"},{"bike_id":"d19affee-a7e5-482c-b631-ffb68f6b53b9","system_id":"levelo_inurba_marseille","lat":43.231876,"lon":5.399794,"is_reserved":false,"is_disabled":false,"rental_uris":{"android":"levelo://app?vid=d19affee-a7e5-482c-b631-ffb68f6b53b9","ios":"levelo://app?vid=d19affee-a7e5-482c-b631-ffb68f6b53b9"},"vehicle_type_id":"4","last_reported":1744009852,"current_range_meters":11600,"station_id":"ce4bhn12rcd13ifvqgqg","pricing_plan_id":"cebpf4jnsgd1na2vs0mg"},{"bike_id":"71573b55-6c90-4007-93f5-cb011bb5a227","system_id":"levelo_inurba_marseille","lat":43.29266,"lon":5.40908,"is_reserved":false,"is_disabled":false,"rental_uris":{"android":"levelo://app?vid=71573b55-6c90-4007-93f5-cb011bb5a227","ios":"levelo://app?vid=71573b55-6c90-4007-93f5-cb011bb5a227"},"vehicle_type_id":"4","last_reported":1744009852,"current_range_meters":14000,"station_id":"ce4bh192rcd13ifvqdc0","pricing_plan_id":"cebpf4jnsgd1na2vs0mg"},{"bike_id":"ed8fc941-f91b-4ac4-b638-8ae395bbc5c7","system_id":"levelo_inurba_marseille","lat":43.29233,"lon":5.36097,"is_reserved":false,"is_disabled":true,"rental_uris":{"android":"levelo://app?vid=ed8fc941-f91b-4ac4-b638-8ae395bbc5c7","ios":"levelo://app?vid=ed8fc941-f91b-4ac4-b638-8ae395bbc5c7"},"vehicle_type_id":"4","last_reported":1744009852,"current_range_meters":11600,"station_id":"ce4bhbh2rcd13ifvqeqg","pricing_plan_id":"cebpf4jnsgd1na2vs0mg"},{"bike_id":"543e8a52-25b8-474c-a2e7-31d0c99c8646","system_id":"levelo_inurba_marseille","lat":43.2418,"lon":5.39723,"is_reserved":false,"is_disabled":false,"rental_uris":{"android":"levelo://app?vid=543e8a52-25b8-474c-a2e7-31d0c99c8646","ios":"levelo://app?vid=543e8a52-25b8-474c-a2e7-31d0c99c8646"},"vehicle_type_id":"4","last_reported":1744009852,"current_range_meters":11600,"station_id":"ce4bhn12rcd13ifvqgpg","pricing_plan_id":"cebpf4jnsgd1na2vs0mg"},{"bike_id":"813087b9-e346-426a-aba8-c71cbb800ab3","system_id":"levelo_inurba_marseille","lat":43.30163,"lon":5.38115,"is_reserved":false,"is_disabled":false,"rental_uris":{"android":"levelo://app?vid=813087b9-e346-426a-aba8-c71cbb800ab3","ios":"levelo://app?vid=813087b9-e346-426a-aba8-c71cbb800ab3"},"vehicle_type_id":"4","last_reported":1744009852,"current_range_meters":11600,"station_id":"ce4bgjp2rcd13ifvqbh0","pricing_plan_id":"cebpf4jnsgd1na2vs0mg"},{"bike_id":"750bc9c2-8244-4f27-a571-77c62d7d6b92","system_id":"levelo_inurba_marseille","lat":43.31273,"lon":5.37757,"is_reserved":false,"is_disabled":false,"rental_uris":{"android":"levelo://app?vid=750bc9c2-8244-4f27-a571-77c62d7d6b92","ios":"levelo://app?vid=750bc9c2-8244-4f27-a571-77c62d7d6b92"},"vehicle_type_id":"4","last_reported":1744009852,"current_range_meters":12000,"station_id":"","pricing_plan_id":"cebpf4jnsgd1na2vs0mg"},{"bike_id":"7956d4b7-f9df-4616-bd52-832d0af74ae0","system_id":"levelo_inurba_marseille","lat":43.25725,"lon":5.4111,"is_reserved":false,"is_disabled":false,"rental_uris":{"android":"levelo://app?vid=7956d4b7-f9df-4616-bd52-832d0af74ae0","ios":"levelo://app?vid=7956d4b7-f9df-4616-bd52-832d0af74ae0"},"vehicle_type_id":"4","last_reported":1744009852,"current_range_meters":12000,"station_id":"ce4bhkp2rcd13ifvqgd0","pricing_plan_id":"cebpf4jnsgd1na2vs0mg"},{"bike_id":"e926ae44-9c36-4909-aca0-768b34034fa9","system_id":"levelo_inurba_marseille","lat":43.31998,"lon":5.38154,"is_reserved":false,"is_disabled":true,"rental_uris":{"android":"levelo://app?vid=e926ae44-9c36-4909-aca0-768b34034fa9","ios":"levelo://app?vid=e926ae44-9c36-4909-aca0-768b34034fa9"},"vehicle_type_id":"4","last_reported":1744009852,"current_range_meters":12000,"station_id":"ce4bhr12rcd13ifvqhpg","pricing_plan_id":"cebpf4jnsgd1na2vs0mg"},{"bike_id":"39b0bde0-51ed-4896-8c63-8ca6b13848d0","system_id":"levelo_inurba_marseille","lat":43.32032,"lon":5.41558,"is_reserved":false,"is_disabled":false,"rental_uris":{"android":"levelo://app?vid=39b0bde0-51ed-4896-8c63-8ca6b13848d0","ios":"levelo://app?vid=39b0bde0-51ed-4896-8c63-8ca6b13848d0"},"vehicle_type_id":"4","last_reported":1744009852,"current_range_meters":12000,"station_id":"ce4bhq92rcd13ifvqhkg","pricing_plan_id":"cebpf4jnsgd1na2vs0mg"},{"bike_id":"6b9fd70e-e12f-4bbd-a35c-7c949b5efc04","system_id":"levelo_inurba_marseille","lat":43.25708,"lon":5.411098,"is_reserved":false,"is_disabled":false,"rental_uris":{"android":"levelo://app?vid=6b9fd70e-e12f-4bbd-a35c-7c949b5efc04","ios":"levelo://app?vid=6b9fd70e-e12f-4bbd-a35c-7c949b5efc04"},"vehicle_type_id":"4","last_reported":1744009852,"current_range_meters":12000,"station_id":"ce4bhkp2rcd13ifvqgd0","pricing_plan_id":"cebpf4jnsgd1na2vs0mg"},{"bike_id":"ddc18b59-559a-4a16-b480-f9ff872c3dd3","system_id":"levelo_inurba_marseille","lat":43.23147,"lon":5.437263,"is_reserved":false,"is_disabled":true,"rental_uris":{"android":"levelo://app?vid=ddc18b59-559a-4a16-b480-f9ff872c3dd3","ios":"levelo://app?vid=ddc18b59-559a-4a16-b480-f9ff872c3dd3"},"vehicle_type_id":"4","last_reported":1744009852,"current_range_meters":12000,"station_id":"ce4bhmp2rcd13ifvqgog","pricing_plan_id":"cebpf4jnsgd1na2vs0mg"},{"bike_id":"6b79c190-08a0-493c-b3e0-7480ca940237","system_id":"levelo_inurba_marseille","lat":43.2593,"lon":5.40893,"is_reserved":false,"is_disabled":false,"rental_uris":{"android":"levelo://app?vid=6b79c190-08a0-493c-b3e0-7480ca940237","ios":"levelo://app?vid=6b79c190-08a0-493c-b3e0-7480ca940237"},"vehicle_type_id":"4","last_reported":1744009852,"current_range_meters":12400,"station_id":"ce4bhm92rcd13ifvqglg","pricing_plan_id":"cebpf4jnsgd1na2vs0mg"},{"bike_id":"77f38b93-7fba-419c-bd89-44cd77690ed3","system_id":"levelo_inurba_marseille","lat":43.24182,"lon":5.39723,"is_reserved":false,"is_disabled":false,"rental_uris":{"android":"levelo://app?vid=77f38b93-7fba-419c-bd89-44cd77690ed3","ios":"levelo://app?vid=77f38b93-7fba-419c-bd89-44cd77690ed3"},"vehicle_type_id":"4","last_reported":1744009852,"current_range_meters":12400,"station_id":"ce4bhn12rcd13ifvqgpg","pricing_plan_id":"cebpf4jnsgd1na2vs0mg"},{"bike_id":"b3955141-b4e4-46ef-9f72-2d6ddb89ac2c","system_id":"levelo_inurba_marseille","lat":43.231429,"lon":5.437254,"is_reserved":false,"is_disabled":false,"rental_uris":{"android":"levelo://app?vid=b3955141-b4e4-46ef-9f72-2d6ddb89ac2c","ios":"levelo://app?vid=b3955141-b4e4-46ef-9f72-2d6ddb89ac2c"},"vehicle_type_id":"4","last_reported":1744009852,"current_range_meters":12400,"station_id":"ce4bhmp2rcd13ifvqgog","pricing_plan_id":"cebpf4jnsgd1na2vs0mg"},{"bike_id":"fc7f1fe7-d7c3-419c-a4b6-6e9b8f11cff3","system_id":"levelo_inurba_marseille","lat":43.24177,"lon":5.39735,"is_reserved":false,"is_disabled":false,"rental_uris":{"android":"levelo://app?vid=fc7f1fe7-d7c3-419c-a4b6-6e9b8f11cff3","ios":"levelo://app?vid=fc7f1fe7-d7c3-419c-a4b6-6e9b8f11cff3"},"vehicle_type_id":"4","last_reported":1744009852,"current_range_meters":12400,"station_id":"ce4bhn12rcd13ifvqgpg","pricing_plan_id":"cebpf4jnsgd1na2vs0mg"},{"bike_id":"b5f969de-f00c-4527-8db7-b0bfd727b190","system_id":"levelo_inurba_marseille","lat":43.280396,"lon":5.378334,"is_reserved":false,"is_disabled":false,"rental_uris":{"android":"levelo://app?vid=b5f969de-f00c-4527-8db7-b0bfd727b190","ios":"levelo://app?vid=b5f969de-f00c-4527-8db7-b0bfd727b190"},"vehicle_type_id":"4","last_reported":1744009852,"current_range_meters":12400,"station_id":"","pricing_plan_id":"cebpf4jnsgd1na2vs0mg"},{"bike_id":"d3398a9d-8182-4669-8042-b7dc0d8d1823","system_id":"levelo_inurba_marseille","lat":43.29892,"lon":5.43683,"is_reserved":false,"is_disabled":false,"rental_uris":{"android":"levelo://app?vid=d3398a9d-8182-4669-8042-b7dc0d8d1823","ios":"levelo://app?vid=d3398a9d-8182-4669-8042-b7dc0d8d1823"},"vehicle_type_id":"4","last_reported":1744009852,"current_range_meters":12800,"station_id":"ce4bhpp2rcd13ifvqhfg","pricing_plan_id":"cebpf4jnsgd1na2vs0mg"},{"bike_id":"d86abf1b-1941-4fe9-a76f-ea87c45cb6ce","system_id":"levelo_inurba_marseille","lat":43.309052,"lon":5.368462,"is_reserved":false,"is_disabled":false,"rental_uris":{"android":"levelo://app?vid=d86abf1b-1941-4fe9-a76f-ea87c45cb6ce","ios":"levelo://app?vid=d86abf1b-1941-4fe9-a76f-ea87c45cb6ce"},"vehicle_type_id":"4","last_reported":1744009852,"current_range_meters":12800,"station_id":"ce4bgn92rcd13ifvqbvg","pricing_plan_id":"cebpf4jnsgd1na2vs0mg"},{"bike_id":"06cf4095-4fc9-4687-a567-623d4c28fe9b","system_id":"levelo_inurba_marseille","lat":43.30909,"lon":5.36864,"is_reserved":false,"is_disabled":false,"rental_uris":{"android":"levelo://app?vid=06cf4095-4fc9-4687-a567-623d4c28fe9b","ios":"levelo://app?vid=06cf4095-4fc9-4687-a567-623d4c28fe9b"},"vehicle_type_id":"4","last_reported":1744009852,"current_range_meters":12800,"station_id":"ce4bgn92rcd13ifvqbvg","pricing_plan_id":"cebpf4jnsgd1na2vs0mg"},{"bike_id":"7f849341-935d-4b6d-88b0-0fbbf079e418","system_id":"levelo_inurba_marseille","lat":43.28478,"lon":5.38421,"is_reserved":false,"is_disabled":true,"rental_uris":{"android":"levelo://app?vid=7f849341-935d-4b6d-88b0-0fbbf079e418","ios":"levelo://app?vid=7f849341-935d-4b6d-88b0-0fbbf079e418"},"vehicle_type_id":"4","last_reported":1744009852,"current_range_meters":12800,"station_id":"ce4bh512rcd13ifvqe3g","pricing_plan_id":"cebpf4jnsgd1na2vs0mg"},{"bike_id":"31680a03-0208-48c5-8f58-55f2ae922a13","system_id":"levelo_inurba_marseille","lat":43.25938,"lon":5.40903,"is_reserved":false,"is_disabled":false,"rental_uris":{"android":"levelo://app?vid=31680a03-0208-48c5-8f58-55f2ae922a13","ios":"levelo://app?vid=31680a03-0208-48c5-8f58-55f2ae922a13"},"vehicle_type_id":"4","last_reported":1744009852,"current_range_meters":12800,"station_id":"ce4bhm92rcd13ifvqglg","pricing_plan_id":"cebpf4jnsgd1na2vs0mg"},{"bike_id":"73272853-088e-4b39-8e6e-94fe10fc353c","system_id":"levelo_inurba_marseille","lat":43.33767,"lon":5.37485,"is_reserved":false,"is_disabled":true,"rental_uris":{"android":"levelo://app?vid=73272853-088e-4b39-8e6e-94fe10fc353c","ios":"levelo://app?vid=73272853-088e-4b39-8e6e-94fe10fc353c"},"vehicle_type_id":"4","last_reported":1744009852,"current_range_meters":12800,"station_id":"","pricing_plan_id":"cebpf4jnsgd1na2vs0mg"},{"bike_id":"d3940f6d-6c26-4ccb-aa36-1b12f0ca6ef4","system_id":"levelo_inurba_marseille","lat":43.32096,"lon":5.38524,"is_reserved":false,"is_disabled":true,"rental_uris":{"android":"levelo://app?vid=d3940f6d-6c26-4ccb-aa36-1b12f0ca6ef4","ios":"levelo://app?vid=d3940f6d-6c26-4ccb-aa36-1b12f0ca6ef4"},"vehicle_type_id":"4","last_reported":1744009852,"current_range_meters":12800,"station_id":"","pricing_plan_id":"cebpf4jnsgd1na2vs0mg"},{"bike_id":"8daa3e29-a6dc-495f-b0f9-540d9e71c557","system_id":"levelo_inurba_marseille","lat":43.26201,"lon":5.37458,"is_reserved":false,"is_disabled":true,"rental_uris":{"android":"levelo://app?vid=8daa3e29-a6dc-495f-b0f9-540d9e71c557","ios":"levelo://app?vid=8daa3e29-a6dc-495f-b0f9-540d9e71c557"},"vehicle_type_id":"4","last_reported":1744009852,"current_range_meters":13600,"station_id":"ce4bhgp2rcd13ifvqfc0","pricing_plan_id":"cebpf4jnsgd1na2vs0mg"},{"bike_id":"af69ddaf-3c35-451f-90e1-22db18d9f81c","system_id":"levelo_inurba_marseille","lat":43.30795,"lon":5.43548,"is_reserved":false,"is_disabled":false,"rental_uris":{"android":"levelo://app?vid=af69ddaf-3c35-451f-90e1-22db18d9f81c","ios":"levelo://app?vid=af69ddaf-3c35-451f-90e1-22db18d9f81c"},"vehicle_type_id":"4","last_reported":1744009852,"current_range_meters":13600,"station_id":"ce4bhph2rcd13ifvqheg","pricing_plan_id":"cebpf4jnsgd1na2vs0mg"},{"bike_id":"5f9c8e3a-f534-4374-8219-01381d1afe63","system_id":"levelo_inurba_marseille","lat":43.25102,"lon":5.39515,"is_reserved":false,"is_disabled":false,"rental_uris":{"android":"levelo://app?vid=5f9c8e3a-f534-4374-8219-01381d1afe63","ios":"levelo://app?vid=5f9c8e3a-f534-4374-8219-01381d1afe63"},"vehicle_type_id":"4","last_reported":1744009852,"current_range_meters":13600,"station_id":"ce4bhmp2rcd13ifvqgog","pricing_plan_id":"cebpf4jnsgd1na2vs0mg"},{"bike_id":"be1ac5e9-3e7d-4d52-b9d8-107a7ded2d33","system_id":"levelo_inurba_marseille","lat":43.27175,"lon":5.40992,"is_reserved":false,"is_disabled":false,"rental_uris":{"android":"levelo://app?vid=be1ac5e9-3e7d-4d52-b9d8-107a7ded2d33","ios":"levelo://app?vid=be1ac5e9-3e7d-4d52-b9d8-107a7ded2d33"},"vehicle_type_id":"4","last_reported":1744009852,"current_range_meters":13600,"station_id":"ce4bhl12rcd13ifvqgf0","pricing_plan_id":"cebpf4jnsgd1na2vs0mg"},{"bike_id":"34a0f029-22a9-41f1-9bbb-f45a5b6b8efe","system_id":"levelo_inurba_marseille","lat":43.30953,"lon":5.39041,"is_reserved":false,"is_disabled":false,"rental_uris":{"android":"levelo://app?vid=34a0f029-22a9-41f1-9bbb-f45a5b6b8efe","ios":"levelo://app?vid=34a0f029-22a9-41f1-9bbb-f45a5b6b8efe"},"vehicle_type_id":"4","last_reported":1744009852,"current_range_meters":14000,"station_id":"ce4bgup2rcd13ifvqco0","pricing_plan_id":"cebpf4jnsgd1na2vs0mg"},{"bike_id":"940d416a-3d1a-45ff-8a21-cd1a7ca66435","system_id":"levelo_inurba_marseille","lat":43.24399,"lon":5.37062,"is_reserved":false,"is_disabled":true,"rental_uris":{"android":"levelo://app?vid=940d416a-3d1a-45ff-8a21-cd1a7ca66435","ios":"levelo://app?vid=940d416a-3d1a-45ff-8a21-cd1a7ca66435"},"vehicle_type_id":"4","last_reported":1744009852,"current_range_meters":14000,"station_id":"ce4bhhh2rcd13ifvqfk0","pricing_plan_id":"cebpf4jnsgd1na2vs0mg"},{"bike_id":"d2c0f1ed-7cb7-410c-aa2f-6defec26c88a","system_id":"levelo_inurba_marseille","lat":43.27997,"lon":5.41683,"is_reserved":false,"is_disabled":false,"rental_uris":{"android":"levelo://app?vid=d2c0f1ed-7cb7-410c-aa2f-6defec26c88a","ios":"levelo://app?vid=d2c0f1ed-7cb7-410c-aa2f-6defec26c88a"},"vehicle_type_id":"4","last_reported":1744009852,"current_range_meters":14000,"station_id":"ce4bho12rcd13ifvqh1g","pricing_plan_id":"cebpf4jnsgd1na2vs0mg"},{"bike_id":"965debe4-081f-4ce1-a884-fcf3ae2cc3a4","system_id":"levelo_inurba_marseille","lat":43.2315,"lon":5.43722,"is_reserved":false,"is_disabled":false,"rental_uris":{"android":"levelo://app?vid=965debe4-081f-4ce1-a884-fcf3ae2cc3a4","ios":"levelo://app?vid=965debe4-081f-4ce1-a884-fcf3ae2cc3a4"},"vehicle_type_id":"4","last_reported":1744009852,"current_range_meters":14000,"station_id":"ce4bhmp2rcd13ifvqgog","pricing_plan_id":"cebpf4jnsgd1na2vs0mg"},{"bike_id":"3038e27a-3c15-4e20-acfa-201ea6a731ec","system_id":"levelo_inurba_marseille","lat":43.2582,"lon":5.39439,"is_reserved":false,"is_disabled":false,"rental_uris":{"android":"levelo://app?vid=3038e27a-3c15-4e20-acfa-201ea6a731ec","ios":"levelo://app?vid=3038e27a-3c15-4e20-acfa-201ea6a731ec"},"vehicle_type_id":"4","last_reported":1744009852,"current_range_meters":14000,"station_id":"ce4bhip2rcd13ifvqft0","pricing_plan_id":"cebpf4jnsgd1na2vs0mg"},{"bike_id":"d59d94e9-9758-4e70-8f6d-f720ca0e403c","system_id":"levelo_inurba_marseille","lat":43.27627,"lon":5.36115,"is_reserved":false,"is_disabled":true,"rental_uris":{"android":"levelo://app?vid=d59d94e9-9758-4e70-8f6d-f720ca0e403c","ios":"levelo://app?vid=d59d94e9-9758-4e70-8f6d-f720ca0e403c"},"vehicle_type_id":"4","last_reported":1744009852,"current_range_meters":14000,"station_id":"ce4bgj92rcd13ifvqbe0","pricing_plan_id":"cebpf4jnsgd1na2vs0mg"},{"bike_id":"8127a379-abcb-448e-b192-b2b588a12b57","system_id":"levelo_inurba_marseille","lat":43.25716,"lon":5.4112,"is_reserved":false,"is_disabled":false,"rental_uris":{"android":"levelo://app?vid=8127a379-abcb-448e-b192-b2b588a12b57","ios":"levelo://app?vid=8127a379-abcb-448e-b192-b2b588a12b57"},"vehicle_type_id":"4","last_reported":1744009852,"current_range_meters":14000,"station_id":"ce4bhkp2rcd13ifvqgd0","pricing_plan_id":"cebpf4jnsgd1na2vs0mg"},{"bike_id":"36bad958-5b66-40dd-af90-e706d63444a6","system_id":"levelo_inurba_marseille","lat":43.31988,"lon":5.38168,"is_reserved":false,"is_disabled":false,"rental_uris":{"android":"levelo://app?vid=36bad958-5b66-40dd-af90-e706d63444a6","ios":"levelo://app?vid=36bad958-5b66-40dd-af90-e706d63444a6"},"vehicle_type_id":"4","last_reported":1744009852,"current_range_meters":14000,"station_id":"ce4bhr12rcd13ifvqhpg","pricing_plan_id":"cebpf4jnsgd1na2vs0mg"},{"bike_id":"adb4ee41-a46b-4f37-a518-a2b370471489","system_id":"levelo_inurba_marseille","lat":43.27333,"lon":5.4114,"is_reserved":false,"is_disabled":false,"rental_uris":{"android":"levelo://app?vid=adb4ee41-a46b-4f37-a518-a2b370471489","ios":"levelo://app?vid=adb4ee41-a46b-4f37-a518-a2b370471489"},"vehicle_type_id":"4","last_reported":1744009852,"current_range_meters":14000,"station_id":"","pricing_plan_id":"cebpf4jnsgd1na2vs0mg"},{"bike_id":"6bb42352-d3ad-4a2f-9f21-9eb6cc41e5ff","system_id":"levelo_inurba_marseille","lat":43.31242,"lon":5.368707,"is_reserved":false,"is_disabled":false,"rental_uris":{"android":"levelo://app?vid=6bb42352-d3ad-4a2f-9f21-9eb6cc41e5ff","ios":"levelo://app?vid=6bb42352-d3ad-4a2f-9f21-9eb6cc41e5ff"},"vehicle_type_id":"4","last_reported":1744009852,"current_range_meters":14400,"station_id":"ce4bgl92rcd13ifvqbq0","pricing_plan_id":"cebpf4jnsgd1na2vs0mg"},{"bike_id":"4bffe067-ddfd-405b-ac38-37ad268dc3c6","system_id":"levelo_inurba_marseille","lat":43.30536,"lon":5.36706,"is_reserved":false,"is_disabled":false,"rental_uris":{"android":"levelo://app?vid=4bffe067-ddfd-405b-ac38-37ad268dc3c6","ios":"levelo://app?vid=4bffe067-ddfd-405b-ac38-37ad268dc3c6"},"vehicle_type_id":"4","last_reported":1744009852,"current_range_meters":14000,"station_id":"ce4bgrp2rcd13ifvqc9g","pricing_plan_id":"cebpf4jnsgd1na2vs0mg"},{"bike_id":"00a7e663-4b56-4cdc-be9a-13ab0452a793","system_id":"levelo_inurba_marseille","lat":43.23953,"lon":5.36644,"is_reserved":false,"is_disabled":false,"rental_uris":{"android":"levelo://app?vid=00a7e663-4b56-4cdc-be9a-13ab0452a793","ios":"levelo://app?vid=00a7e663-4b56-4cdc-be9a-13ab0452a793"},"vehicle_type_id":"4","last_reported":1744009852,"current_range_meters":14400,"station_id":"ce4bhi12rcd13ifvqfp0","pricing_plan_id":"cebpf4jnsgd1na2vs0mg"},{"bike_id":"a21dec73-c98a-433e-af31-0bbf4b51050e","system_id":"levelo_inurba_marseille","lat":43.29445,"lon":5.39743,"is_reserved":false,"is_disabled":false,"rental_uris":{"android":"levelo://app?vid=a21dec73-c98a-433e-af31-0bbf4b51050e","ios":"levelo://app?vid=a21dec73-c98a-433e-af31-0bbf4b51050e"},"vehicle_type_id":"4","last_reported":1744009852,"current_range_meters":14400,"station_id":"ce4bh3h2rcd13ifvqdo0","pricing_plan_id":"cebpf4jnsgd1na2vs0mg"},{"bike_id":"ba65dd60-6f38-4881-ab8e-d69cb0a11fed","system_id":"levelo_inurba_marseille","lat":43.29251,"lon":5.4091,"is_reserved":false,"is_disabled":false,"rental_uris":{"android":"levelo://app?vid=ba65dd60-6f38-4881-ab8e-d69cb0a11fed","ios":"levelo://app?vid=ba65dd60-6f38-4881-ab8e-d69cb0a11fed"},"vehicle_type_id":"4","last_reported":1744009852,"current_range_meters":14400,"station_id":"ce4bh192rcd13ifvqdc0","pricing_plan_id":"cebpf4jnsgd1na2vs0mg"},{"bike_id":"7e68812f-f97b-4e36-9c60-ea450212fc32","system_id":"levelo_inurba_marseille","lat":43.28164,"lon":5.42676,"is_reserved":false,"is_disabled":false,"rental_uris":{"android":"levelo://app?vid=7e68812f-f97b-4e36-9c60-ea450212fc32","ios":"levelo://app?vid=7e68812f-f97b-4e36-9c60-ea450212fc32"},"vehicle_type_id":"4","last_reported":1744009852,"current_range_meters":14800,"station_id":"ce4bhnh2rcd13ifvqgug","pricing_plan_id":"cebpf4jnsgd1na2vs0mg"},{"bike_id":"9579ab0a-24b4-4490-a442-2b612dd0dfd9","system_id":"levelo_inurba_marseille","lat":43.26201,"lon":5.37467,"is_reserved":false,"is_disabled":false,"rental_uris":{"android":"levelo://app?vid=9579ab0a-24b4-4490-a442-2b612dd0dfd9","ios":"levelo://app?vid=9579ab0a-24b4-4490-a442-2b612dd0dfd9"},"vehicle_type_id":"4","last_reported":1744009852,"current_range_meters":14800,"station_id":"ce4bhgp2rcd13ifvqfc0","pricing_plan_id":"cebpf4jnsgd1na2vs0mg"},{"bike_id":"37823676-6983-4c6b-857c-cf94b572aa24","system_id":"levelo_inurba_marseille","lat":43.27495,"lon":5.4246,"is_reserved":false,"is_disabled":false,"rental_uris":{"android":"levelo://app?vid=37823676-6983-4c6b-857c-cf94b572aa24","ios":"levelo://app?vid=37823676-6983-4c6b-857c-cf94b572aa24"},"vehicle_type_id":"4","last_reported":1744009852,"current_range_meters":14800,"station_id":"ce4bhn92rcd13ifvqgrg","pricing_plan_id":"cebpf4jnsgd1na2vs0mg"},{"bike_id":"83822545-0295-4152-8d2b-34de9b1cd2a5","system_id":"levelo_inurba_marseille","lat":43.29053,"lon":5.39968,"is_reserved":false,"is_disabled":false,"rental_uris":{"android":"levelo://app?vid=83822545-0295-4152-8d2b-34de9b1cd2a5","ios":"levelo://app?vid=83822545-0295-4152-8d2b-34de9b1cd2a5"},"vehicle_type_id":"4","last_reported":1744009852,"current_range_meters":14800,"station_id":"ce4bh392rcd13ifvqdm0","pricing_plan_id":"cebpf4jnsgd1na2vs0mg"},{"bike_id":"c1873dea-0be8-4a49-aaeb-db6238d3d175","system_id":"levelo_inurba_marseille","lat":43.26228,"lon":5.37478,"is_reserved":false,"is_disabled":false,"rental_uris":{"android":"levelo://app?vid=c1873dea-0be8-4a49-aaeb-db6238d3d175","ios":"levelo://app?vid=c1873dea-0be8-4a49-aaeb-db6238d3d175"},"vehicle_type_id":"4","last_reported":1744009852,"current_range_meters":15200,"station_id":"ce4bhgp2rcd13ifvqfc0","pricing_plan_id":"cebpf4jnsgd1na2vs0mg"},{"bike_id":"82f28cf6-556c-431d-a12b-bd3ce5fc2f28","system_id":"levelo_inurba_marseille","lat":43.27531,"lon":5.37775,"is_reserved":false,"is_disabled":false,"rental_uris":{"android":"levelo://app?vid=82f28cf6-556c-431d-a12b-bd3ce5fc2f28","ios":"levelo://app?vid=82f28cf6-556c-431d-a12b-bd3ce5fc2f28"},"vehicle_type_id":"4","last_reported":1744009852,"current_range_meters":15200,"station_id":"","pricing_plan_id":"cebpf4jnsgd1na2vs0mg"},{"bike_id":"612e4418-3f3c-4051-a097-64933dc2e1ae","system_id":"levelo_inurba_marseille","lat":43.25082,"lon":5.39519,"is_reserved":false,"is_disabled":false,"rental_uris":{"android":"levelo://app?vid=612e4418-3f3c-4051-a097-64933dc2e1ae","ios":"levelo://app?vid=612e4418-3f3c-4051-a097-64933dc2e1ae"},"vehicle_type_id":"4","last_reported":1744009852,"current_range_meters":15200,"station_id":"ce4bhm12rcd13ifvqgkg","pricing_plan_id":"cebpf4jnsgd1na2vs0mg"},{"bike_id":"4662f2c9-aa99-4430-b56d-3b091c848158","system_id":"levelo_inurba_marseille","lat":43.26221,"lon":5.37482,"is_reserved":false,"is_disabled":false,"rental_uris":{"android":"levelo://app?vid=4662f2c9-aa99-4430-b56d-3b091c848158","ios":"levelo://app?vid=4662f2c9-aa99-4430-b56d-3b091c848158"},"vehicle_type_id":"4","last_reported":1744009852,"current_range_meters":15200,"station_id":"","pricing_plan_id":"cebpf4jnsgd1na2vs0mg"},{"bike_id":"3576b946-70b3-456f-a60a-d98e227f015c","system_id":"levelo_inurba_marseille","lat":43.30088,"lon":5.38228,"is_reserved":false,"is_disabled":false,"rental_uris":{"android":"levelo://app?vid=3576b946-70b3-456f-a60a-d98e227f015c","ios":"levelo://app?vid=3576b946-70b3-456f-a60a-d98e227f015c"},"vehicle_type_id":"4","last_reported":1744009852,"current_range_meters":15200,"station_id":"ce4bgup2rcd13ifvqcn0","pricing_plan_id":"cebpf4jnsgd1na2vs0mg"},{"bike_id":"66e3c87b-665f-4453-bb43-5df54ef1ab5e","system_id":"levelo_inurba_marseille","lat":43.271938,"lon":5.391929,"is_reserved":false,"is_disabled":true,"rental_uris":{"android":"levelo://app?vid=66e3c87b-665f-4453-bb43-5df54ef1ab5e","ios":"levelo://app?vid=66e3c87b-665f-4453-bb43-5df54ef1ab5e"},"vehicle_type_id":"4","last_reported":1744009852,"current_range_meters":15200,"station_id":"ce4bhhp2rcd13ifvqfm0","pricing_plan_id":"cebpf4jnsgd1na2vs0mg"},{"bike_id":"14ab760d-ff88-46dd-ad80-4f603e70a734","system_id":"levelo_inurba_marseille","lat":43.30944,"lon":5.39025,"is_reserved":false,"is_disabled":false,"rental_uris":{"android":"levelo://app?vid=14ab760d-ff88-46dd-ad80-4f603e70a734","ios":"levelo://app?vid=14ab760d-ff88-46dd-ad80-4f603e70a734"},"vehicle_type_id":"4","last_reported":1744009852,"current_range_meters":15200,"station_id":"ce4bgup2rcd13ifvqco0","pricing_plan_id":"cebpf4jnsgd1na2vs0mg"},{"bike_id":"f17ce36f-e80a-4732-89e2-7a7dfab19d87","system_id":"levelo_inurba_marseille","lat":43.29902,"lon":5.43655,"is_reserved":false,"is_disabled":false,"rental_uris":{"android":"levelo://app?vid=f17ce36f-e80a-4732-89e2-7a7dfab19d87","ios":"levelo://app?vid=f17ce36f-e80a-4732-89e2-7a7dfab19d87"},"vehicle_type_id":"4","last_reported":1744009852,"current_range_meters":16000,"station_id":"ce4bhpp2rcd13ifvqhfg","pricing_plan_id":"cebpf4jnsgd1na2vs0mg"},{"bike_id":"b6718462-a8cf-4ef3-9c9f-8fc06260fbda","system_id":"levelo_inurba_marseille","lat":43.24816,"lon":5.37495,"is_reserved":false,"is_disabled":true,"rental_uris":{"android":"levelo://app?vid=b6718462-a8cf-4ef3-9c9f-8fc06260fbda","ios":"levelo://app?vid=b6718462-a8cf-4ef3-9c9f-8fc06260fbda"},"vehicle_type_id":"4","last_reported":1744009852,"current_range_meters":16000,"station_id":"ce4bhgh2rcd13ifvqfb0","pricing_plan_id":"cebpf4jnsgd1na2vs0mg"},{"bike_id":"a57c1694-543f-4cc0-8168-32928fb15af0","system_id":"levelo_inurba_marseille","lat":43.26056,"lon":5.39403,"is_reserved":false,"is_disabled":false,"rental_uris":{"android":"levelo://app?vid=a57c1694-543f-4cc0-8168-32928fb15af0","ios":"levelo://app?vid=a57c1694-543f-4cc0-8168-32928fb15af0"},"vehicle_type_id":"4","last_reported":1744009852,"current_range_meters":15200,"station_id":"ce4bhh92rcd13ifvqfj0","pricing_plan_id":"cebpf4jnsgd1na2vs0mg"},{"bike_id":"88b9da84-22bf-4f47-96e8-eddfe88dcbda","system_id":"levelo_inurba_marseille","lat":43.246681,"lon":5.381493,"is_reserved":false,"is_disabled":false,"rental_uris":{"android":"levelo://app?vid=88b9da84-22bf-4f47-96e8-eddfe88dcbda","ios":"levelo://app?vid=88b9da84-22bf-4f47-96e8-eddfe88dcbda"},"vehicle_type_id":"4","last_reported":1744009852,"current_range_meters":16000,"station_id":"ce4bhih2rcd13ifvqfr0","pricing_plan_id":"cebpf4jnsgd1na2vs0mg"},{"bike_id":"4ad895e5-cc1e-41c8-a950-0ef55a290fb0","system_id":"levelo_inurba_marseille","lat":43.25005,"lon":5.3894,"is_reserved":false,"is_disabled":false,"rental_uris":{"android":"levelo://app?vid=4ad895e5-cc1e-41c8-a950-0ef55a290fb0","ios":"levelo://app?vid=4ad895e5-cc1e-41c8-a950-0ef55a290fb0"},"vehicle_type_id":"4","last_reported":1744009852,"current_range_meters":16000,"station_id":"ce4bhgp2rcd13ifvqfd0","pricing_plan_id":"cebpf4jnsgd1na2vs0mg"},{"bike_id":"aa407b8d-a6af-4ca4-895d-e6f9044d54a5","system_id":"levelo_inurba_marseille","lat":43.309151,"lon":5.368598,"is_reserved":false,"is_disabled":true,"rental_uris":{"android":"levelo://app?vid=aa407b8d-a6af-4ca4-895d-e6f9044d54a5","ios":"levelo://app?vid=aa407b8d-a6af-4ca4-895d-e6f9044d54a5"},"vehicle_type_id":"4","last_reported":1744009852,"current_range_meters":16000,"station_id":"ce4bgn92rcd13ifvqbvg","pricing_plan_id":"cebpf4jnsgd1na2vs0mg"},{"bike_id":"077e96e8-f9e6-4b8d-9fc0-de6cf9949ffe","system_id":"levelo_inurba_marseille","lat":43.30553,"lon":5.3845,"is_reserved":false,"is_disabled":true,"rental_uris":{"android":"levelo://app?vid=077e96e8-f9e6-4b8d-9fc0-de6cf9949ffe","ios":"levelo://app?vid=077e96e8-f9e6-4b8d-9fc0-de6cf9949ffe"},"vehicle_type_id":"4","last_reported":1744009852,"current_range_meters":16000,"station_id":"ce4bgg92rcd13ifvqb30","pricing_plan_id":"cebpf4jnsgd1na2vs0mg"},{"bike_id":"fe6782eb-2b55-4907-adb3-9b8269deeeac","system_id":"levelo_inurba_marseille","lat":43.32474,"lon":5.36566,"is_reserved":false,"is_disabled":false,"rental_uris":{"android":"levelo://app?vid=fe6782eb-2b55-4907-adb3-9b8269deeeac","ios":"levelo://app?vid=fe6782eb-2b55-4907-adb3-9b8269deeeac"},"vehicle_type_id":"4","last_reported":1744009852,"current_range_meters":3600,"station_id":"ce4bhs12rcd13ifvqhvg","pricing_plan_id":"cebpf4jnsgd1na2vs0mg"},{"bike_id":"4b9dfe05-0e60-423c-af4b-3ef6e8cad4ce","system_id":"levelo_inurba_marseille","lat":43.25108,"lon":5.40324,"is_reserved":false,"is_disabled":true,"rental_uris":{"android":"levelo://app?vid=4b9dfe05-0e60-423c-af4b-3ef6e8cad4ce","ios":"levelo://app?vid=4b9dfe05-0e60-423c-af4b-3ef6e8cad4ce"},"vehicle_type_id":"4","last_reported":1744009852,"current_range_meters":16000,"station_id":"ce4bhlh2rcd13ifvqgig","pricing_plan_id":"cebpf4jnsgd1na2vs0mg"},{"bike_id":"d90bf2bb-8fec-423b-94fb-b26d91fe13df","system_id":"levelo_inurba_marseille","lat":43.289776,"lon":5.378276,"is_reserved":false,"is_disabled":false,"rental_uris":{"android":"levelo://app?vid=d90bf2bb-8fec-423b-94fb-b26d91fe13df","ios":"levelo://app?vid=d90bf2bb-8fec-423b-94fb-b26d91fe13df"},"vehicle_type_id":"4","last_reported":1744009852,"current_range_meters":15200,"station_id":"ce4bhg12rcd13ifvqf60","pricing_plan_id":"cebpf4jnsgd1na2vs0mg"},{"bike_id":"60392a77-faa5-43ad-a980-0ec91bc8be0f","system_id":"levelo_inurba_marseille","lat":43.24822,"lon":5.37465,"is_reserved":false,"is_disabled":false,"rental_uris":{"android":"levelo://app?vid=60392a77-faa5-43ad-a980-0ec91bc8be0f","ios":"levelo://app?vid=60392a77-faa5-43ad-a980-0ec91bc8be0f"},"vehicle_type_id":"4","last_reported":1744009852,"current_range_meters":16000,"station_id":"ce4bhgh2rcd13ifvqfb0","pricing_plan_id":"cebpf4jnsgd1na2vs0mg"},{"bike_id":"df5912f5-b3dd-4793-b9d2-90d160a7a564","system_id":"levelo_inurba_marseille","lat":43.24163,"lon":5.3974,"is_reserved":false,"is_disabled":false,"rental_uris":{"android":"levelo://app?vid=df5912f5-b3dd-4793-b9d2-90d160a7a564","ios":"levelo://app?vid=df5912f5-b3dd-4793-b9d2-90d160a7a564"},"vehicle_type_id":"4","last_reported":1744009852,"current_range_meters":16400,"station_id":"ce4bhn12rcd13ifvqgpg","pricing_plan_id":"cebpf4jnsgd1na2vs0mg"},{"bike_id":"47a73120-b359-47d9-9488-054e9aab6d35","system_id":"levelo_inurba_marseille","lat":43.30212,"lon":5.39468,"is_reserved":false,"is_disabled":false,"rental_uris":{"android":"levelo://app?vid=47a73120-b359-47d9-9488-054e9aab6d35","ios":"levelo://app?vid=47a73120-b359-47d9-9488-054e9aab6d35"},"vehicle_type_id":"4","last_reported":1744009852,"current_range_meters":16400,"station_id":"ce4bh0p2rcd13ifvqd70","pricing_plan_id":"cebpf4jnsgd1na2vs0mg"},{"bike_id":"6e713124-0905-4fb2-8899-2981cf94335e","system_id":"levelo_inurba_marseille","lat":43.26197,"lon":5.37473,"is_reserved":false,"is_disabled":false,"rental_uris":{"android":"levelo://app?vid=6e713124-0905-4fb2-8899-2981cf94335e","ios":"levelo://app?vid=6e713124-0905-4fb2-8899-2981cf94335e"},"vehicle_type_id":"4","last_reported":1744009852,"current_range_meters":16400,"station_id":"ce4bhgp2rcd13ifvqfc0","pricing_plan_id":"cebpf4jnsgd1na2vs0mg"},{"bike_id":"db6e6f09-ab19-45bd-a1b9-8553d0074295","system_id":"levelo_inurba_marseille","lat":43.27202,"lon":5.39194,"is_reserved":false,"is_disabled":true,"rental_uris":{"android":"levelo://app?vid=db6e6f09-ab19-45bd-a1b9-8553d0074295","ios":"levelo://app?vid=db6e6f09-ab19-45bd-a1b9-8553d0074295"},"vehicle_type_id":"4","last_reported":1744009852,"current_range_meters":16400,"station_id":"ce4bhhp2rcd13ifvqfm0","pricing_plan_id":"cebpf4jnsgd1na2vs0mg"},{"bike_id":"7ced0eab-c890-42cc-ba81-2c658b34dd74","system_id":"levelo_inurba_marseille","lat":43.31272,"lon":5.40206,"is_reserved":false,"is_disabled":false,"rental_uris":{"android":"levelo://app?vid=7ced0eab-c890-42cc-ba81-2c658b34dd74","ios":"levelo://app?vid=7ced0eab-c890-42cc-ba81-2c658b34dd74"},"vehicle_type_id":"4","last_reported":1744009852,"current_range_meters":16400,"station_id":"ce4bh092rcd13ifvqd30","pricing_plan_id":"cebpf4jnsgd1na2vs0mg"},{"bike_id":"3b38e354-3b13-4769-b7bf-fbf117452bbe","system_id":"levelo_inurba_marseille","lat":43.28145,"lon":5.42656,"is_reserved":false,"is_disabled":true,"rental_uris":{"android":"levelo://app?vid=3b38e354-3b13-4769-b7bf-fbf117452bbe","ios":"levelo://app?vid=3b38e354-3b13-4769-b7bf-fbf117452bbe"},"vehicle_type_id":"4","last_reported":1744009852,"current_range_meters":16400,"station_id":"ce4bhnh2rcd13ifvqgug","pricing_plan_id":"cebpf4jnsgd1na2vs0mg"},{"bike_id":"19224d95-e048-4cbb-8884-43e0e6b3db9b","system_id":"levelo_inurba_marseille","lat":43.29907,"lon":5.3974,"is_reserved":false,"is_disabled":true,"rental_uris":{"android":"levelo://app?vid=19224d95-e048-4cbb-8884-43e0e6b3db9b","ios":"levelo://app?vid=19224d95-e048-4cbb-8884-43e0e6b3db9b"},"vehicle_type_id":"4","last_reported":1744009852,"current_range_meters":16400,"station_id":"ce4bh0h2rcd13ifvqd50","pricing_plan_id":"cebpf4jnsgd1na2vs0mg"},{"bike_id":"ec69ed26-c9c4-41c6-9498-aab6d519e861","system_id":"levelo_inurba_marseille","lat":43.231863,"lon":5.399879,"is_reserved":false,"is_disabled":false,"rental_uris":{"android":"levelo://app?vid=ec69ed26-c9c4-41c6-9498-aab6d519e861","ios":"levelo://app?vid=ec69ed26-c9c4-41c6-9498-aab6d519e861"},"vehicle_type_id":"4","last_reported":1744009852,"current_range_meters":16400,"station_id":"ce4bhn12rcd13ifvqgqg","pricing_plan_id":"cebpf4jnsgd1na2vs0mg"},{"bike_id":"15095812-4bdf-4c2a-96da-11c76fbd1d82","system_id":"levelo_inurba_marseille","lat":43.294528,"lon":5.380876,"is_reserved":false,"is_disabled":false,"rental_uris":{"android":"levelo://app?vid=15095812-4bdf-4c2a-96da-11c76fbd1d82","ios":"levelo://app?vid=15095812-4bdf-4c2a-96da-11c76fbd1d82"},"vehicle_type_id":"4","last_reported":1744009852,"current_range_meters":16800,"station_id":"ce4bgr92rcd13ifvqc7g","pricing_plan_id":"cebpf4jnsgd1na2vs0mg"},{"bike_id":"0aa02c49-cbb3-4907-a588-f754056f3ba8","system_id":"levelo_inurba_marseille","lat":43.30792,"lon":5.38154,"is_reserved":false,"is_disabled":true,"rental_uris":{"android":"levelo://app?vid=0aa02c49-cbb3-4907-a588-f754056f3ba8","ios":"levelo://app?vid=0aa02c49-cbb3-4907-a588-f754056f3ba8"},"vehicle_type_id":"4","last_reported":1744009852,"current_range_meters":16800,"station_id":"ce4bgt12rcd13ifvqce0","pricing_plan_id":"cebpf4jnsgd1na2vs0mg"},{"bike_id":"c73145a2-41e6-4f51-b630-67e115445391","system_id":"levelo_inurba_marseille","lat":43.24999,"lon":5.38934,"is_reserved":false,"is_disabled":false,"rental_uris":{"android":"levelo://app?vid=c73145a2-41e6-4f51-b630-67e115445391","ios":"levelo://app?vid=c73145a2-41e6-4f51-b630-67e115445391"},"vehicle_type_id":"4","last_reported":1744009852,"current_range_meters":16800,"station_id":"ce4bhgp2rcd13ifvqfd0","pricing_plan_id":"cebpf4jnsgd1na2vs0mg"},{"bike_id":"bff75da5-0c42-4c30-8400-2477afc24f54","system_id":"levelo_inurba_marseille","lat":43.31338,"lon":5.36723,"is_reserved":false,"is_disabled":false,"rental_uris":{"android":"levelo://app?vid=bff75da5-0c42-4c30-8400-2477afc24f54","ios":"levelo://app?vid=bff75da5-0c42-4c30-8400-2477afc24f54"},"vehicle_type_id":"4","last_reported":1744009852,"current_range_meters":16800,"station_id":"ce4bgr92rcd13ifvqc6g","pricing_plan_id":"cebpf4jnsgd1na2vs0mg"},{"bike_id":"889763a9-aa13-4a71-bb0c-e1cb1d4e9045","system_id":"levelo_inurba_marseille","lat":43.30895,"lon":5.36847,"is_reserved":false,"is_disabled":false,"rental_uris":{"android":"levelo://app?vid=889763a9-aa13-4a71-bb0c-e1cb1d4e9045","ios":"levelo://app?vid=889763a9-aa13-4a71-bb0c-e1cb1d4e9045"},"vehicle_type_id":"4","last_reported":1744009852,"current_range_meters":16800,"station_id":"ce4bgn92rcd13ifvqbvg","pricing_plan_id":"cebpf4jnsgd1na2vs0mg"},{"bike_id":"a57e6b2f-d2aa-4ea0-8ac9-143e1e273859","system_id":"levelo_inurba_marseille","lat":43.28572,"lon":5.39517,"is_reserved":false,"is_disabled":false,"rental_uris":{"android":"levelo://app?vid=a57e6b2f-d2aa-4ea0-8ac9-143e1e273859","ios":"levelo://app?vid=a57e6b2f-d2aa-4ea0-8ac9-143e1e273859"},"vehicle_type_id":"4","last_reported":1744009852,"current_range_meters":17200,"station_id":"ce4bh292rcd13ifvqdg0","pricing_plan_id":"cebpf4jnsgd1na2vs0mg"},{"bike_id":"b9a6212f-48f0-4e1e-a9f1-e053c4907229","system_id":"levelo_inurba_marseille","lat":43.29843,"lon":5.36277,"is_reserved":false,"is_disabled":false,"rental_uris":{"android":"levelo://app?vid=b9a6212f-48f0-4e1e-a9f1-e053c4907229","ios":"levelo://app?vid=b9a6212f-48f0-4e1e-a9f1-e053c4907229"},"vehicle_type_id":"4","last_reported":1744009852,"current_range_meters":17200,"station_id":"ce4bgpp2rcd13ifvqc3g","pricing_plan_id":"cebpf4jnsgd1na2vs0mg"},{"bike_id":"01bfe29a-0dc3-4b54-ada8-961a7f287024","system_id":"levelo_inurba_marseille","lat":43.239552,"lon":5.366274,"is_reserved":false,"is_disabled":false,"rental_uris":{"android":"levelo://app?vid=01bfe29a-0dc3-4b54-ada8-961a7f287024","ios":"levelo://app?vid=01bfe29a-0dc3-4b54-ada8-961a7f287024"},"vehicle_type_id":"4","last_reported":1744009852,"current_range_meters":17200,"station_id":"ce4bhi12rcd13ifvqfp0","pricing_plan_id":"cebpf4jnsgd1na2vs0mg"},{"bike_id":"140bcc9c-7a15-47b1-a546-a2322d7111c7","system_id":"levelo_inurba_marseille","lat":43.31232,"lon":5.36875,"is_reserved":false,"is_disabled":false,"rental_uris":{"android":"levelo://app?vid=140bcc9c-7a15-47b1-a546-a2322d7111c7","ios":"levelo://app?vid=140bcc9c-7a15-47b1-a546-a2322d7111c7"},"vehicle_type_id":"4","last_reported":1744009852,"current_range_meters":17200,"station_id":"ce4bgl92rcd13ifvqbq0","pricing_plan_id":"cebpf4jnsgd1na2vs0mg"},{"bike_id":"06c25d4e-aaa3-4985-8b30-5a07d4327a06","system_id":"levelo_inurba_marseille","lat":43.258363,"lon":5.394373,"is_reserved":false,"is_disabled":false,"rental_uris":{"android":"levelo://app?vid=06c25d4e-aaa3-4985-8b30-5a07d4327a06","ios":"levelo://app?vid=06c25d4e-aaa3-4985-8b30-5a07d4327a06"},"vehicle_type_id":"4","last_reported":1744009852,"current_range_meters":17200,"station_id":"ce4bhip2rcd13ifvqft0","pricing_plan_id":"cebpf4jnsgd1na2vs0mg"},{"bike_id":"52e22752-5882-4aaa-8525-8eed7d0a27b3","system_id":"levelo_inurba_marseille","lat":43.22504,"lon":5.34775,"is_reserved":false,"is_disabled":true,"rental_uris":{"android":"levelo://app?vid=52e22752-5882-4aaa-8525-8eed7d0a27b3","ios":"levelo://app?vid=52e22752-5882-4aaa-8525-8eed7d0a27b3"},"vehicle_type_id":"4","last_reported":1744009852,"current_range_meters":17200,"station_id":"","pricing_plan_id":"cebpf4jnsgd1na2vs0mg"},{"bike_id":"085641e4-e08b-4534-a02a-c52bf859e5da","system_id":"levelo_inurba_marseille","lat":43.265,"lon":5.39535,"is_reserved":false,"is_disabled":false,"rental_uris":{"android":"levelo://app?vid=085641e4-e08b-4534-a02a-c52bf859e5da","ios":"levelo://app?vid=085641e4-e08b-4534-a02a-c52bf859e5da"},"vehicle_type_id":"4","last_reported":1744009852,"current_range_meters":17200,"station_id":"ce4bhi12rcd13ifvqfq0","pricing_plan_id":"cebpf4jnsgd1na2vs0mg"},{"bike_id":"4bf17b49-7e5c-4bd9-82f8-af145dc36336","system_id":"levelo_inurba_marseille","lat":43.299208,"lon":5.374815,"is_reserved":false,"is_disabled":true,"rental_uris":{"android":"levelo://app?vid=4bf17b49-7e5c-4bd9-82f8-af145dc36336","ios":"levelo://app?vid=4bf17b49-7e5c-4bd9-82f8-af145dc36336"},"vehicle_type_id":"4","last_reported":1744009852,"current_range_meters":17600,"station_id":"","pricing_plan_id":"cebpf4jnsgd1na2vs0mg"},{"bike_id":"0e15af95-8e49-4aa4-9628-ef2a06d14e76","system_id":"levelo_inurba_marseille","lat":43.3031,"lon":5.36889,"is_reserved":false,"is_disabled":false,"rental_uris":{"android":"levelo://app?vid=0e15af95-8e49-4aa4-9628-ef2a06d14e76","ios":"levelo://app?vid=0e15af95-8e49-4aa4-9628-ef2a06d14e76"},"vehicle_type_id":"4","last_reported":1744009852,"current_range_meters":17600,"station_id":"ce4bgqh2rcd13ifvqc5g","pricing_plan_id":"cebpf4jnsgd1na2vs0mg"},{"bike_id":"0cb4216d-7fef-41e7-81c3-f12b189c46d4","system_id":"levelo_inurba_marseille","lat":43.262124,"lon":5.374413,"is_reserved":false,"is_disabled":false,"rental_uris":{"android":"levelo://app?vid=0cb4216d-7fef-41e7-81c3-f12b189c46d4","ios":"levelo://app?vid=0cb4216d-7fef-41e7-81c3-f12b189c46d4"},"vehicle_type_id":"4","last_reported":1744009852,"current_range_meters":17600,"station_id":"ce4bhgp2rcd13ifvqfc0","pricing_plan_id":"cebpf4jnsgd1na2vs0mg"},{"bike_id":"9e0829d0-dc9c-45ad-978e-48b61761a490","system_id":"levelo_inurba_marseille","lat":43.30953,"lon":5.39026,"is_reserved":false,"is_disabled":false,"rental_uris":{"android":"levelo://app?vid=9e0829d0-dc9c-45ad-978e-48b61761a490","ios":"levelo://app?vid=9e0829d0-dc9c-45ad-978e-48b61761a490"},"vehicle_type_id":"4","last_reported":1744009852,"current_range_meters":17600,"station_id":"ce4bgup2rcd13ifvqco0","pricing_plan_id":"cebpf4jnsgd1na2vs0mg"},{"bike_id":"2f48ec57-d212-4e94-8bdf-81b7a8f04386","system_id":"levelo_inurba_marseille","lat":43.27213,"lon":5.39185,"is_reserved":false,"is_disabled":true,"rental_uris":{"android":"levelo://app?vid=2f48ec57-d212-4e94-8bdf-81b7a8f04386","ios":"levelo://app?vid=2f48ec57-d212-4e94-8bdf-81b7a8f04386"},"vehicle_type_id":"4","last_reported":1744009852,"current_range_meters":18000,"station_id":"ce4bhhp2rcd13ifvqfm0","pricing_plan_id":"cebpf4jnsgd1na2vs0mg"},{"bike_id":"e55c5427-38d9-4d67-8424-4eec1e856bd8","system_id":"levelo_inurba_marseille","lat":43.31056,"lon":5.38353,"is_reserved":false,"is_disabled":false,"rental_uris":{"android":"levelo://app?vid=e55c5427-38d9-4d67-8424-4eec1e856bd8","ios":"levelo://app?vid=e55c5427-38d9-4d67-8424-4eec1e856bd8"},"vehicle_type_id":"4","last_reported":1744009852,"current_range_meters":17600,"station_id":"ce4bgv92rcd13ifvqcr0","pricing_plan_id":"cebpf4jnsgd1na2vs0mg"},