{"last_updated":1699563973,"ttl":30,"version":"2.2","data":{"bikes":[{"bike_id":"c9c5a635-facd-4b5b-9b92-5d721eefd8cd","system_id":"levelo_inurba_marseille","lat":43.31221,"lon":5.3685,"is_reserved":false,"is_disabled":false,"rental_uris":{"android":"levelo://app?vid=c9c5a635-facd-4b5b-9b92-5d721eefd8cd","ios":"levelo://app?vid=c9c5a635-facd-4b5b-9b92-5d721eefd8cd"},"vehicle_type_id":"4","last_reported":1699563973,"current_range_meters":2800,"station_id":"ce4bgl92rcd13ifvqbq0","pricing_plan_id":"free"},{"bike_id":"34b506f8-afe9-464c-9c9b-4ec502575c7d","system_id":"levelo_inurba_marseille","lat":43.314811,"lon":5.373103,"is_reserved":false,"is_disabled":false,"rental_uris":{"android":"levelo://app?vid=34b506f8-afe9-464c-9c9b-4ec502575c7d","ios":"levelo://app?vid=34b506f8-afe9-464c-9c9b-4ec502575c7d"},"vehicle_type_id":"4","last_reported":1699563973,"current_range_meters":25600,"station_id":"ce4bgt12rcd13ifvqcd0","pricing_plan_id":"free"},{"bike_id":"2f222026-c000-4c84-9103-e6d44a0ff880","system_id":"levelo_inurba_marseille","lat":43.309039,"lon":5.371797,"is_reserved":false,"is_disabled":false,"rental_uris":{"android":"levelo://app?vid=2f222026-c000-4c84-9103-e6d44a0ff880","ios":"levelo://app?vid=2f222026-c000-4c84-9103-e6d44a0ff880"},"vehicle_type_id":"4","last_reported":1699563973,"current_range_meters":28000,"station_id":"ce4bguh2rcd13ifvqckg","pricing_plan_id":"free"},{"bike_id":"931a69d6-38d8-474c-93da-5169817383a3","system_id":"levelo_inurba_marseille","lat":43.30547,"lon":5.3653,"is_reserved":false,"is_disabled":false,"rental_uris":{"android":"levelo://app?vid=931a69d6-38d8-474c-93da-5169817383a3","ios":"levelo://app?vid=931a69d6-38d8-474c-93da-5169817383a3"},"vehicle_type_id":"4","last_reported":1699563973,"current_range_meters":0,"station_id":"ce4bgs12rcd13ifvqcag","pricing_plan_id":"free"},{"bike_id":"76b359af-c20b-45d0-a1df-78f4c9a6553a","system_id":"levelo_inurba_marseille","lat":43.30529,"lon":5.36538,"is_reserved":false,"is_disabled":false,"rental_uris":{"android":"levelo://app?vid=76b359af-c20b-45d0-a1df-78f4c9a6553a","ios":"levelo://app?vid=76b359af-c20b-45d0-a1df-78f4c9a6553a"},"vehicle_type_id":"4","last_reported":1699563973,"current_range_meters":26400,"station_id":"ce4bgs12rcd13ifvqcag","pricing_plan_id":"free"},{"bike_id":"dd7638b1-5a8a-465f-8883-a03434f7c3df","system_id":"levelo_inurba_marseille","lat":43.31127,"lon":5.37755,"is_reserved":false,"is_disabled":false,"rental_uris":{"android":"levelo://app?vid=dd7638b1-5a8a-465f-8883-a03434f7c3df","ios":"levelo://app?vid=dd7638b1-5a8a-465f-8883-a03434f7c3df"},"vehicle_type_id":"4","last_reported":1699563973,"current_range_meters":10800,"station_id":"ce4bgt92rcd13ifvqcg0","pricing_plan_id":"free"},{"bike_id":"ab185017-0290-4c41-bace-5d5bb8a61f52","system_id":"levelo_inurba_marseille","lat":43.311131,"lon":5.377651,"is_reserved":false,"is_disabled":false,"rental_uris":{"android":"levelo://app?vid=ab185017-0290-4c41-bace-5d5bb8a61f52","ios":"levelo://app?vid=ab185017-0290-4c41-bace-5d5bb8a61f52"},"vehicle_type_id":"4","last_reported":1699563973,"current_range_meters":31200,"station_id":"ce4bgt92rcd13ifvqcg0","pricing_plan_id":"free"},{"bike_id":"69c14741-f40c-4ac8-9611-638a9e5b3a3d","system_id":"levelo_inurba_marseille","lat":43.31131,"lon":5.37765,"is_reserved":false,"is_disabled":false,"rental_uris":{"android":"levelo://app?vid=69c14741-f40c-4ac8-9611-638a9e5b3a3d","ios":"levelo://app?vid=69c14741-f40c-4ac8-9611-638a9e5b3a3d"},"vehicle_type_id":"4","last_reported":1699563973,"current_range_meters":4000,"station_id":"ce4bgt92rcd13ifvqcg0","pricing_plan_id":"free"},{"bike_id":"87609399-9919-437b-ad67-af815862c48e","system_id":"levelo_inurba_marseille","lat":43.31123,"lon":5.377636,"is_reserved":false,"is_disabled":false,"rental_uris":{"android":"levelo://app?vid=87609399-9919-437b-ad67-af815862c48e","ios":"levelo://app?vid=87609399-9919-437b-ad67-af815862c48e"},"vehicle_type_id":"4","last_reported":1699563973,"current_range_meters":21600,"station_id":"ce4bgt92rcd13ifvqcg0","pricing_plan_id":"free"},{"bike_id":"dbfb7146-9cbe-4142-b115-d98b3fd5d810","system_id":"levelo_inurba_marseille","lat":43.307945,"lon":5.376487,"is_reserved":false,"is_disabled":false,"rental_uris":{"android":"levelo://app?vid=dbfb7146-9cbe-4142-b115-d98b3fd5d810","ios":"levelo://app?vid=dbfb7146-9cbe-4142-b115-d98b3fd5d810"},"vehicle_type_id":"4","last_reported":1699563973,"current_range_meters":1200,"station_id":"ce4bgv92rcd13ifvqcq0","pricing_plan_id":"free"},{"bike_id":"b1330c22-c43e-4898-8237-421af3fc60e6","system_id":"levelo_inurba_marseille","lat":43.30783,"lon":5.3765,"is_reserved":false,"is_disabled":false,"rental_uris":{"android":"levelo://app?vid=b1330c22-c43e-4898-8237-421af3fc60e6","ios":"levelo://app?vid=b1330c22-c43e-4898-8237-421af3fc60e6"},"vehicle_type_id":"4","last_reported":1699563973,"current_range_meters":0,"station_id":"ce4bgv92rcd13ifvqcq0","pricing_plan_id":"free"},{"bike_id":"57053367-5328-4d78-8951-737f56b37ed9","system_id":"levelo_inurba_marseille","lat":43.319924,"lon":5.373389,"is_reserved":false,"is_disabled":false,"rental_uris":{"android":"levelo://app?vid=57053367-5328-4d78-8951-737f56b37ed9","ios":"levelo://app?vid=57053367-5328-4d78-8951-737f56b37ed9"},"vehicle_type_id":"4","last_reported":1699563973,"current_range_meters":25200,"station_id":"","pricing_plan_id":"free"},{"bike_id":"37e6cc99-429c-436a-a732-33691b552be9","system_id":"levelo_inurba_marseille","lat":43.317075,"lon":5.377367,"is_reserved":false,"is_disabled":false,"rental_uris":{"android":"levelo://app?vid=37e6cc99-429c-436a-a732-33691b552be9","ios":"levelo://app?vid=37e6cc99-429c-436a-a732-33691b552be9"},"vehicle_type_id":"4","last_reported":1699563973,"current_range_meters":18000,"station_id":"ce4bgth2rcd13ifvqch0","pricing_plan_id":"free"},{"bike_id":"d22b8ba1-50ce-4369-b409-59fce8a80eba","system_id":"levelo_inurba_marseille","lat":43.308012,"lon":5.381511,"is_reserved":false,"is_disabled":false,"rental_uris":{"android":"levelo://app?vid=d22b8ba1-50ce-4369-b409-59fce8a80eba","ios":"levelo://app?vid=d22b8ba1-50ce-4369-b409-59fce8a80eba"},"vehicle_type_id":"4","last_reported":1699563973,"current_range_meters":2000,"station_id":"ce4bgt12rcd13ifvqce0","pricing_plan_id":"free"},{"bike_id":"52e43f3d-cb2f-437b-8c87-91792bb0e7db","system_id":"levelo_inurba_marseille","lat":43.322415,"lon":5.375668,"is_reserved":false,"is_disabled":false,"rental_uris":{"android":"levelo://app?vid=52e43f3d-cb2f-437b-8c87-91792bb0e7db","ios":"levelo://app?vid=52e43f3d-cb2f-437b-8c87-91792bb0e7db"},"vehicle_type_id":"4","last_reported":1699563973,"current_range_meters":12400,"station_id":"","pricing_plan_id":"free"},{"bike_id":"29ef7d5c-cf94-4bc3-b73f-ad375ce1d015","system_id":"levelo_inurba_marseille","lat":43.303586,"lon":5.377754,"is_reserved":false,"is_disabled":false,"rental_uris":{"android":"levelo://app?vid=29ef7d5c-cf94-4bc3-b73f-ad375ce1d015","ios":"levelo://app?vid=29ef7d5c-cf94-4bc3-b73f-ad375ce1d015"},"vehicle_type_id":"4","last_reported":1699563973,"current_range_meters":4400,"station_id":"","pricing_plan_id":"free"},{"bike_id":"81427731-3bde-43ce-bbf9-d59d3be60dda","system_id":"levelo_inurba_marseille","lat":43.324771,"lon":5.36557,"is_reserved":false,"is_disabled":false,"rental_uris":{"android":"levelo://app?vid=81427731-3bde-43ce-bbf9-d59d3be60dda","ios":"levelo://app?vid=81427731-3bde-43ce-bbf9-d59d3be60dda"},"vehicle_type_id":"4","last_reported":1699563973,"current_range_meters":11200,"station_id":"ce4bhs12rcd13ifvqhvg","pricing_plan_id":"free"},{"bike_id":"ea091bd9-9cc6-4b2e-b43e-c5fa2d8c70c9","system_id":"levelo_inurba_marseille","lat":43.302784,"lon":5.377158,"is_reserved":false,"is_disabled":false,"rental_uris":{"android":"levelo://app?vid=ea091bd9-9cc6-4b2e-b43e-c5fa2d8c70c9","ios":"levelo://app?vid=ea091bd9-9cc6-4b2e-b43e-c5fa2d8c70c9"},"vehicle_type_id":"4","last_reported":1699563973,"current_range_meters":0,"station_id":"ce4bguh2rcd13ifvqcj0","pricing_plan_id":"free"},{"bike_id":"8c33f4b1-5c9d-404b-9bd3-47c1a2359704","system_id":"levelo_inurba_marseille","lat":43.301429,"lon":5.37413,"is_reserved":false,"is_disabled":false,"rental_uris":{"android":"levelo://app?vid=8c33f4b1-5c9d-404b-9bd3-47c1a2359704","ios":"levelo://app?vid=8c33f4b1-5c9d-404b-9bd3-47c1a2359704"},"vehicle_type_id":"4","last_reported":1699563973,"current_range_meters":17600,"station_id":"ce4bgs92rcd13ifvqcc0","pricing_plan_id":"free"},{"bike_id":"69166d53-ec8e-4a0a-864c-7a29f7650dd8","system_id":"levelo_inurba_marseille","lat":43.321118,"lon":5.379988,"is_reserved":false,"is_disabled":false,"rental_uris":{"android":"levelo://app?vid=69166d53-ec8e-4a0a-864c-7a29f7650dd8","ios":"levelo://app?vid=69166d53-ec8e-4a0a-864c-7a29f7650dd8"},"vehicle_type_id":"4","last_reported":1699563973,"current_range_meters":27200,"station_id":"","pricing_plan_id":"free"},{"bike_id":"d98ef63b-3279-44c8-ac44-bc93896579ca","system_id":"levelo_inurba_marseille","lat":43.319964,"lon":5.381446,"is_reserved":false,"is_disabled":false,"rental_uris":{"android":"levelo://app?vid=d98ef63b-3279-44c8-ac44-bc93896579ca","ios":"levelo://app?vid=d98ef63b-3279-44c8-ac44-bc93896579ca"},"vehicle_type_id":"4","last_reported":1699563973,"current_range_meters":24400,"station_id":"ce4bhr12rcd13ifvqhpg","pricing_plan_id":"free"},{"bike_id":"13d78257-2559-4a10-97b8-aaa7032179bc","system_id":"levelo_inurba_marseille","lat":43.319975,"lon":5.381519,"is_reserved":false,"is_disabled":false,"rental_uris":{"android":"levelo://app?vid=13d78257-2559-4a10-97b8-aaa7032179bc","ios":"levelo://app?vid=13d78257-2559-4a10-97b8-aaa7032179bc"},"vehicle_type_id":"4","last_reported":1699563973,"current_range_meters":10800,"station_id":"","pricing_plan_id":"free"},{"bike_id":"f0e0fac1-61fc-4545-80df-e429e55c1818","system_id":"levelo_inurba_marseille","lat":43.320039,"lon":5.38151,"is_reserved":false,"is_disabled":false,"rental_uris":{"android":"levelo://app?vid=f0e0fac1-61fc-4545-80df-e429e55c1818","ios":"levelo://app?vid=f0e0fac1-61fc-4545-80df-e429e55c1818"},"vehicle_type_id":"4","last_reported":1699563973,"current_range_meters":800,"station_id":"ce4bhr12rcd13ifvqhpg","pricing_plan_id":"free"},{"bike_id":"1482bc32-7a23-4109-885f-2d119a1e3cec","system_id":"levelo_inurba_marseille","lat":43.319935,"lon":5.381699,"is_reserved":false,"is_disabled":false,"rental_uris":{"android":"levelo://app?vid=1482bc32-7a23-4109-885f-2d119a1e3cec","ios":"levelo://app?vid=1482bc32-7a23-4109-885f-2d119a1e3cec"},"vehicle_type_id":"4","last_reported":1699563973,"current_range_meters":16000,"station_id":"ce4bhr12rcd13ifvqhpg","pricing_plan_id":"free"},{"bike_id":"defcaae0-157e-473b-a98e-5551c6052783","system_id":"levelo_inurba_marseille","lat":43.319979,"lon":5.381624,"is_reserved":false,"is_disabled":false,"rental_uris":{"android":"levelo://app?vid=defcaae0-157e-473b-a98e-5551c6052783","ios":"levelo://app?vid=defcaae0-157e-473b-a98e-5551c6052783"},"vehicle_type_id":"4","last_reported":1699563973,"current_range_meters":15600,"station_id":"ce4bhr12rcd13ifvqhpg","pricing_plan_id":"free"},{"bike_id":"5eb07bf5-4423-42e5-bd0e-252e8644494f","system_id":"levelo_inurba_marseille","lat":43.313571,"lon":5.384829,"is_reserved":false,"is_disabled":false,"rental_uris":{"android":"levelo://app?vid=5eb07bf5-4423-42e5-bd0e-252e8644494f","ios":"levelo://app?vid=5eb07bf5-4423-42e5-bd0e-252e8644494f"},"vehicle_type_id":"4","last_reported":1699563973,"current_range_meters":4400,"station_id":"ce4bgt92rcd13ifvqcf0","pricing_plan_id":"free"},{"bike_id":"7bb8fc1d-6a0f-4347-bcb5-d95f301eb7ce","system_id":"levelo_inurba_marseille","lat":43.299724,"lon":5.371829,"is_reserved":false,"is_disabled":false,"rental_uris":{"android":"levelo://app?vid=7bb8fc1d-6a0f-4347-bcb5-d95f301eb7ce","ios":"levelo://app?vid=7bb8fc1d-6a0f-4347-bcb5-d95f301eb7ce"},"vehicle_type_id":"4","last_reported":1699563973,"current_range_meters":1600,"station_id":"ce4bgr92rcd13ifvqc7g","pricing_plan_id":"free"},{"bike_id":"1408e975-a084-4db3-b753-97780c82371a","system_id":"levelo_inurba_marseille","lat":43.299724,"lon":5.371829,"is_reserved":false,"is_disabled":false,"rental_uris":{"android":"levelo://app?vid=1408e975-a084-4db3-b753-97780c82371a","ios":"levelo://app?vid=1408e975-a084-4db3-b753-97780c82371a"},"vehicle_type_id":"4","last_reported":1699563973,"current_range_meters":31200,"station_id":"ce4bgr92rcd13ifvqc7g","pricing_plan_id":"free"},{"bike_id":"1d1844e8-4e2e-4db4-af74-925aa2e58224","system_id":"levelo_inurba_marseille","lat":43.299724,"lon":5.371829,"is_reserved":false,"is_disabled":false,"rental_uris":{"android":"levelo://app?vid=1d1844e8-4e2e-4db4-af74-925aa2e58224","ios":"levelo://app?vid=1d1844e8-4e2e-4db4-af74-925aa2e58224"},"vehicle_type_id":"4","last_reported":1699563973,"current_range_meters":30400,"station_id":"ce4bgr92rcd13ifvqc7g","pricing_plan_id":"free"},{"bike_id":"2aa07dbd-abc3-43b6-a1fa-b3b25d3cf066","system_id":"levelo_inurba_marseille","lat":43.32148,"lon":5.38202,"is_reserved":false,"is_disabled":false,"rental_uris":{"android":"levelo://app?vid=2aa07dbd-abc3-43b6-a1fa-b3b25d3cf066","ios":"levelo://app?vid=2aa07dbd-abc3-43b6-a1fa-b3b25d3cf066"},"vehicle_type_id":"4","last_reported":1699563973,"current_range_meters":800,"station_id":"","pricing_plan_id":"free"},{"bike_id":"a74ef003-f77b-4904-a1af-0630e8422154","system_id":"levelo_inurba_marseille","lat":43.305364,"lon":5.384119,"is_reserved":false,"is_disabled":false,"rental_uris":{"android":"levelo://app?vid=a74ef003-f77b-4904-a1af-0630e8422154","ios":"levelo://app?vid=a74ef003-f77b-4904-a1af-0630e8422154"},"vehicle_type_id":"4","last_reported":1699563973,"current_range_meters":6000,"station_id":"ce4bgg92rcd13ifvqb30","pricing_plan_id":"free"},{"bike_id":"8950f55a-e75d-4fac-9a7c-f529bc0580a5","system_id":"levelo_inurba_marseille","lat":43.320464,"lon":5.384144,"is_reserved":false,"is_disabled":false,"rental_uris":{"android":"levelo://app?vid=8950f55a-e75d-4fac-9a7c-f529bc0580a5","ios":"levelo://app?vid=8950f55a-e75d-4fac-9a7c-f529bc0580a5"},"vehicle_type_id":"4","last_reported":1699563973,"current_range_meters":19600,"station_id":"","pricing_plan_id":"free"},{"bike_id":"a78cca97-2887-4be0-8124-79b350765fc4","system_id":"levelo_inurba_marseille","lat":43.297794,"lon":5.370888,"is_reserved":false,"is_disabled":false,"rental_uris":{"android":"levelo://app?vid=a78cca97-2887-4be0-8124-79b350765fc4","ios":"levelo://app?vid=a78cca97-2887-4be0-8124-79b350765fc4"},"vehicle_type_id":"4","last_reported":1699563973,"current_range_meters":0,"station_id":"ce4bgop2rcd13ifvqc1g","pricing_plan_id":"free"},{"bike_id":"0eb3cb53-0f2b-4825-86b8-6ad00f482ad1","system_id":"levelo_inurba_marseille","lat":43.297809,"lon":5.371056,"is_reserved":false,"is_disabled":false,"rental_uris":{"android":"levelo://app?vid=0eb3cb53-0f2b-4825-86b8-6ad00f482ad1","ios":"levelo://app?vid=0eb3cb53-0f2b-4825-86b8-6ad00f482ad1"},"vehicle_type_id":"4","last_reported":1699563973,"current_range_meters":3200,"station_id":"","pricing_plan_id":"free"},{"bike_id":"91286602-dac0-4a76-8927-6c8664893e7b","system_id":"levelo_inurba_marseille","lat":43.322872,"lon":5.382756,"is_reserved":false,"is_disabled":false,"rental_uris":{"android":"levelo://app?vid=91286602-dac0-4a76-8927-6c8664893e7b","ios":"levelo://app?vid=91286602-dac0-4a76-8927-6c8664893e7b"},"vehicle_type_id":"4","last_reported":1699563973,"current_range_meters":7600,"station_id":"ce4bhr12rcd13ifvqhqg","pricing_plan_id":"free"},{"bike_id":"adec3add-adaa-4c07-9d6b-d29fb6c4f19c","system_id":"levelo_inurba_marseille","lat":43.322872,"lon":5.382756,"is_reserved":false,"is_disabled":false,"rental_uris":{"android":"levelo://app?vid=adec3add-adaa-4c07-9d6b-d29fb6c4f19c","ios":"levelo://app?vid=adec3add-adaa-4c07-9d6b-d29fb6c4f19c"},"vehicle_type_id":"4","last_reported":1699563973,"current_range_meters":17600,"station_id":"ce4bhr12rcd13ifvqhqg","pricing_plan_id":"free"},{"bike_id":"e4a895a8-c6d1-4804-993c-b111541ae28a","system_id":"levelo_inurba_marseille","lat":43.322872,"lon":5.382756,"is_reserved":false,"is_disabled":false,"rental_uris":{"android":"levelo://app?vid=e4a895a8-c6d1-4804-993c-b111541ae28a","ios":"levelo://app?vid=e4a895a8-c6d1-4804-993c-b111541ae28a"},"vehicle_type_id":"4","last_reported":1699563973,"current_range_meters":13200,"station_id":"ce4bhr12rcd13ifvqhqg","pricing_plan_id":"free"},{"bike_id":"6abc6ed3-7ee5-474c-b332-4aeb367ba6b7","system_id":"levelo_inurba_marseille","lat":43.322872,"lon":5.382756,"is_reserved":false,"is_disabled":false,"rental_uris":{"android":"levelo://app?vid=6abc6ed3-7ee5-474c-b332-4aeb367ba6b7","ios":"levelo://app?vid=6abc6ed3-7ee5-474c-b332-4aeb367ba6b7"},"vehicle_type_id":"4","last_reported":1699563973,"current_range_meters":26400,"station_id":"ce4bhr12rcd13ifvqhqg","pricing_plan_id":"free"},{"bike_id":"3107b7f8-ab0e-4ce9-87df-bf5ce8e59681","system_id":"levelo_inurba_marseille","lat":43.322862,"lon":5.382824,"is_reserved":false,"is_disabled":false,"rental_uris":{"android":"levelo://app?vid=3107b7f8-ab0e-4ce9-87df-bf5ce8e59681","ios":"levelo://app?vid=3107b7f8-ab0e-4ce9-87df-bf5ce8e59681"},"vehicle_type_id":"4","last_reported":1699563973,"current_range_meters":18400,"station_id":"ce4bhr12rcd13ifvqhqg","pricing_plan_id":"free"},{"bike_id":"bdcd47c8-ddb5-4e05-a246-b4789ccbbe70","system_id":"levelo_inurba_marseille","lat":43.328371,"lon":5.366909,"is_reserved":false,"is_disabled":false,"rental_uris":{"android":"levelo://app?vid=bdcd47c8-ddb5-4e05-a246-b4789ccbbe70","ios":"levelo://app?vid=bdcd47c8-ddb5-4e05-a246-b4789ccbbe70"},"vehicle_type_id":"4","last_reported":1699563973,"current_range_meters":1600,"station_id":"ce4bhs92rcd13ifvqi0g","pricing_plan_id":"free"},{"bike_id":"bcb89bb9-8932-4adb-ba55-2d690f7f33ae","system_id":"levelo_inurba_marseille","lat":43.297163,"lon":5.365866,"is_reserved":false,"is_disabled":false,"rental_uris":{"android":"levelo://app?vid=bcb89bb9-8932-4adb-ba55-2d690f7f33ae","ios":"levelo://app?vid=bcb89bb9-8932-4adb-ba55-2d690f7f33ae"},"vehicle_type_id":"4","last_reported":1699563973,"current_range_meters":18000,"station_id":"ce4bgn12rcd13ifvqbt0","pricing_plan_id":"free"},{"bike_id":"e219a371-2c9a-49a0-86fb-3cc9b7fb4b96","system_id":"levelo_inurba_marseille","lat":43.32831,"lon":5.36692,"is_reserved":false,"is_disabled":false,"rental_uris":{"android":"levelo://app?vid=e219a371-2c9a-49a0-86fb-3cc9b7fb4b96","ios":"levelo://app?vid=e219a371-2c9a-49a0-86fb-3cc9b7fb4b96"},"vehicle_type_id":"4","last_reported":1699563973,"current_range_meters":15200,"station_id":"ce4bhs92rcd13ifvqi0g","pricing_plan_id":"free"},{"bike_id":"f437c1fb-b5f1-44fe-aa69-52bd1cd9ade2","system_id":"levelo_inurba_marseille","lat":43.328371,"lon":5.366909,"is_reserved":false,"is_disabled":false,"rental_uris":{"android":"levelo://app?vid=f437c1fb-b5f1-44fe-aa69-52bd1cd9ade2","ios":"levelo://app?vid=f437c1fb-b5f1-44fe-aa69-52bd1cd9ade2"},"vehicle_type_id":"4","last_reported":1699563973,"current_range_meters":19200,"station_id":"ce4bhs92rcd13ifvqi0g","pricing_plan_id":"free"},{"bike_id":"79d1a15d-a829-4501-ab8b-348c99ea8b85","system_id":"levelo_inurba_marseille","lat":43.32774,"lon":5.375,"is_reserved":false,"is_disabled":false,"rental_uris":{"android":"levelo://app?vid=79d1a15d-a829-4501-ab8b-348c99ea8b85","ios":"levelo://app?vid=79d1a15d-a829-4501-ab8b-348c99ea8b85"},"vehicle_type_id":"4","last_reported":1699563973,"current_range_meters":28000,"station_id":"","pricing_plan_id":"free"},{"bike_id":"03eeec59-6c76-4519-a076-6ffd1f8d6754","system_id":"levelo_inurba_marseille","lat":43.2968,"lon":5.37291,"is_reserved":false,"is_disabled":false,"rental_uris":{"android":"levelo://app?vid=03eeec59-6c76-4519-a076-6ffd1f8d6754","ios":"levelo://app?vid=03eeec59-6c76-4519-a076-6ffd1f8d6754"},"vehicle_type_id":"4","last_reported":1699563973,"current_range_meters":8400,"station_id":"ce4bgk12rcd13ifvqbj0","pricing_plan_id":"free"},{"bike_id":"547558d2-d8a3-47c3-8381-a4377ae77cfa","system_id":"levelo_inurba_marseille","lat":43.296,"lon":5.36802,"is_reserved":false,"is_disabled":false,"rental_uris":{"android":"levelo://app?vid=547558d2-d8a3-47c3-8381-a4377ae77cfa","ios":"levelo://app?vid=547558d2-d8a3-47c3-8381-a4377ae77cfa"},"vehicle_type_id":"4","last_reported":1699563973,"current_range_meters":27200,"station_id":"","pricing_plan_id":"free"},{"bike_id":"b3aa5f5d-f274-4636-a212-10c48daaeddf","system_id":"levelo_inurba_marseille","lat":43.29573,"lon":5.367355,"is_reserved":false,"is_disabled":false,"rental_uris":{"android":"levelo://app?vid=b3aa5f5d-f274-4636-a212-10c48daaeddf","ios":"levelo://app?vid=b3aa5f5d-f274-4636-a212-10c48daaeddf"},"vehicle_type_id":"4","last_reported":1699563973,"current_range_meters":9200,"station_id":"ce4bgph2rcd13ifvqc2g","pricing_plan_id":"free"},{"bike_id":"d447991a-59b4-4778-a190-7d2b0920a414","system_id":"levelo_inurba_marseille","lat":43.32215,"lon":5.38613,"is_reserved":false,"is_disabled":false,"rental_uris":{"android":"levelo://app?vid=d447991a-59b4-4778-a190-7d2b0920a414","ios":"levelo://app?vid=d447991a-59b4-4778-a190-7d2b0920a414"},"vehicle_type_id":"4","last_reported":1699563973,"current_range_meters":27200,"station_id":"","pricing_plan_id":"free"},{"bike_id":"7b7d0fb0-2743-42bc-8ed8-c763265b350d","system_id":"levelo_inurba_marseille","lat":43.296129,"lon":5.370777,"is_reserved":false,"is_disabled":false,"rental_uris":{"android":"levelo://app?vid=7b7d0fb0-2743-42bc-8ed8-c763265b350d","ios":"levelo://app?vid=7b7d0fb0-2743-42bc-8ed8-c763265b350d"},"vehicle_type_id":"4","last_reported":1699563973,"current_range_meters":28000,"station_id":"ce4bgnh2rcd13ifvqc0g","pricing_plan_id":"free"},{"bike_id":"7c5b2ce2-e80d-4552-ad49-1bc8cd5d92c3","system_id":"levelo_inurba_marseille","lat":43.318426,"lon":5.388738,"is_reserved":false,"is_disabled":false,"rental_uris":{"android":"levelo://app?vid=7c5b2ce2-e80d-4552-ad49-1bc8cd5d92c3","ios":"levelo://app?vid=7c5b2ce2-e80d-4552-ad49-1bc8cd5d92c3"},"vehicle_type_id":"4","last_reported":1699563973,"current_range_meters":12000,"station_id":"","pricing_plan_id":"free"},{"bike_id":"51e23f02-97c8-4444-ac54-44a20e95490f","system_id":"levelo_inurba_marseille","lat":43.296131,"lon":5.370791,"is_reserved":false,"is_disabled":false,"rental_uris":{"android":"levelo://app?vid=51e23f02-97c8-4444-ac54-44a20e95490f","ios":"levelo://app?vid=51e23f02-97c8-4444-ac54-44a20e95490f"},"vehicle_type_id":"4","last_reported":1699563973,"current_range_meters":27200,"station_id":"ce4bgnh2rcd13ifvqc0g","pricing_plan_id":"free"},{"bike_id":"42187d26-eff1-4161-8206-c2b6cfdf09c0","system_id":"levelo_inurba_marseille","lat":43.29573,"lon":5.367355,"is_reserved":false,"is_disabled":false,"rental_uris":{"android":"levelo://app?vid=42187d26-eff1-4161-8206-c2b6cfdf09c0","ios":"levelo://app?vid=42187d26-eff1-4161-8206-c2b6cfdf09c0"},"vehicle_type_id":"4","last_reported":1699563973,"current_range_meters":28000,"station_id":"ce4bgph2rcd13ifvqc2g","pricing_plan_id":"free"},{"bike_id":"33954103-f0f0-4f35-aa27-70771ab4a048","system_id":"levelo_inurba_marseille","lat":43.317557,"lon":5.390173,"is_reserved":false,"is_disabled":false,"rental_uris":{"android":"levelo://app?vid=33954103-f0f0-4f35-aa27-70771ab4a048","ios":"levelo://app?vid=33954103-f0f0-4f35-aa27-70771ab4a048"},"vehicle_type_id":"4","last_reported":1699563973,"current_range_meters":20400,"station_id":"ce4bhqp2rcd13ifvqhng","pricing_plan_id":"free"},{"bike_id":"0134d556-ce99-413b-9221-18a0bb1fed70","system_id":"levelo_inurba_marseille","lat":43.29579,"lon":5.3751,"is_reserved":false,"is_disabled":false,"rental_uris":{"android":"levelo://app?vid=0134d556-ce99-413b-9221-18a0bb1fed70","ios":"levelo://app?vid=0134d556-ce99-413b-9221-18a0bb1fed70"},"vehicle_type_id":"4","last_reported":1699563973,"current_range_meters":0,"station_id":"ce4bgh92rcd13ifvqb50","pricing_plan_id":"free"},{"bike_id":"c4549532-cef7-4d8b-88a6-a74d9d519338","system_id":"levelo_inurba_marseille","lat":43.304278,"lon":5.388868,"is_reserved":false,"is_disabled":false,"rental_uris":{"android":"levelo://app?vid=c4549532-cef7-4d8b-88a6-a74d9d519338","ios":"levelo://app?vid=c4549532-cef7-4d8b-88a6-a74d9d519338"},"vehicle_type_id":"4","last_reported":1699563973,"current_range_meters":13200,"station_id":"ce4bgk12rcd13ifvqbi0","pricing_plan_id":"free"},{"bike_id":"bc402647-a7a0-4225-8de7-d463fa2a6de8","system_id":"levelo_inurba_marseille","lat":43.304278,"lon":5.388868,"is_reserved":false,"is_disabled":false,"rental_uris":{"android":"levelo://app?vid=bc402647-a7a0-4225-8de7-d463fa2a6de8","ios":"levelo://app?vid=bc402647-a7a0-4225-8de7-d463fa2a6de8"},"vehicle_type_id":"4","last_reported":1699563973,"current_range_meters":26400,"station_id":"ce4bgk12rcd13ifvqbi0","pricing_plan_id":"free"},{"bike_id":"72368755-5cdf-4dea-9d09-2c01b4f0b6f8","system_id":"levelo_inurba_marseille","lat":43.29623,"lon":5.37724,"is_reserved":false,"is_disabled":false,"rental_uris":{"android":"levelo://app?vid=72368755-5cdf-4dea-9d09-2c01b4f0b6f8","ios":"levelo://app?vid=72368755-5cdf-4dea-9d09-2c01b4f0b6f8"},"vehicle_type_id":"4","last_reported":1699563973,"current_range_meters":0,"station_id":"ce4bgi92rcd13ifvqb90","pricing_plan_id":"free"},{"bike_id":"443f43a9-98a1-45c8-ba00-40f2a0de410b","system_id":"levelo_inurba_marseille","lat":43.295279,"lon":5.375048,"is_reserved":false,"is_disabled":false,"rental_uris":{"android":"levelo://app?vid=443f43a9-98a1-45c8-ba00-40f2a0de410b","ios":"levelo://app?vid=443f43a9-98a1-45c8-ba00-40f2a0de410b"},"vehicle_type_id":"4","last_reported":1699563973,"current_range_meters":12400,"station_id":"ce4bgkp2rcd13ifvqbmg","pricing_plan_id":"free"},{"bike_id":"a26a672c-8f86-40f5-9e8e-9856cf399a24","system_id":"levelo_inurba_marseille","lat":43.299707,"lon":5.384859,"is_reserved":false,"is_disabled":false,"rental_uris":{"android":"levelo://app?vid=a26a672c-8f86-40f5-9e8e-9856cf399a24","ios":"levelo://app?vid=a26a672c-8f86-40f5-9e8e-9856cf399a24"},"vehicle_type_id":"4","last_reported":1699563973,"current_range_meters":31200,"station_id":"ce4bgj92rcd13ifvqbd0","pricing_plan_id":"free"},{"bike_id":"dba2c1a2-e6a9-451b-9545-95869c02b46f","system_id":"levelo_inurba_marseille","lat":43.329065,"lon":5.379814,"is_reserved":false,"is_disabled":false,"rental_uris":{"android":"levelo://app?vid=dba2c1a2-e6a9-451b-9545-95869c02b46f","ios":"levelo://app?vid=dba2c1a2-e6a9-451b-9545-95869c02b46f"},"vehicle_type_id":"4","last_reported":1699563973,"current_range_meters":0,"station_id":"","pricing_plan_id":"free"},{"bike_id":"61fc040a-ad48-411a-aadb-f0a6672483c3","system_id":"levelo_inurba_marseille","lat":43.323697,"lon":5.388833,"is_reserved":false,"is_disabled":false,"rental_uris":{"android":"levelo://app?vid=61fc040a-ad48-411a-aadb-f0a6672483c3","ios":"levelo://app?vid=61fc040a-ad48-411a-aadb-f0a6672483c3"},"vehicle_type_id":"4","last_reported":1699563973,"current_range_meters":3200,"station_id":"ce4bhqp2rcd13ifvqhog","pricing_plan_id":"free"},{"bike_id":"f5008c8b-61ec-4ba4-8d57-7ff1a54f00f2","system_id":"levelo_inurba_marseille","lat":43.299239,"lon":5.38617,"is_reserved":false,"is_disabled":false,"rental_uris":{"android":"levelo://app?vid=f5008c8b-61ec-4ba4-8d57-7ff1a54f00f2","ios":"levelo://app?vid=f5008c8b-61ec-4ba4-8d57-7ff1a54f00f2"},"vehicle_type_id":"4","last_reported":1699563973,"current_range_meters":8400,"station_id":"","pricing_plan_id":"free"},{"bike_id":"5be27f1c-b5c9-464d-ac33-6afa4ea1d64b","system_id":"levelo_inurba_marseille","lat":43.314193,"lon":5.39378,"is_reserved":false,"is_disabled":false,"rental_uris":{"android":"levelo://app?vid=5be27f1c-b5c9-464d-ac33-6afa4ea1d64b","ios":"levelo://app?vid=5be27f1c-b5c9-464d-ac33-6afa4ea1d64b"},"vehicle_type_id":"4","last_reported":1699563973,"current_range_meters":17200,"station_id":"","pricing_plan_id":"free"},{"bike_id":"da76f428-8323-45fa-b583-0d2fb22909bb","system_id":"levelo_inurba_marseille","lat":43.292749,"lon":5.368402,"is_reserved":false,"is_disabled":false,"rental_uris":{"android":"levelo://app?vid=da76f428-8323-45fa-b583-0d2fb22909bb","ios":"levelo://app?vid=da76f428-8323-45fa-b583-0d2fb22909bb"},"vehicle_type_id":"4","last_reported":1699563973,"current_range_meters":2000,"station_id":"ce4bhbp2rcd13ifvqesg","pricing_plan_id":"free"},{"bike_id":"6101ff1e-e28f-42e3-af9e-f88b26d55864","system_id":"levelo_inurba_marseille","lat":43.292727,"lon":5.368438,"is_reserved":false,"is_disabled":false,"rental_uris":{"android":"levelo://app?vid=6101ff1e-e28f-42e3-af9e-f88b26d55864","ios":"levelo://app?vid=6101ff1e-e28f-42e3-af9e-f88b26d55864"},"vehicle_type_id":"4","last_reported":1699563973,"current_range_meters":20800,"station_id":"ce4bhbp2rcd13ifvqesg","pricing_plan_id":"free"},{"bike_id":"60ffca7c-8661-4588-88a1-3007c88aa0b2","system_id":"levelo_inurba_marseille","lat":43.293009,"lon":5.374584,"is_reserved":false,"is_disabled":false,"rental_uris":{"android":"levelo://app?vid=60ffca7c-8661-4588-88a1-3007c88aa0b2","ios":"levelo://app?vid=60ffca7c-8661-4588-88a1-3007c88aa0b2"},"vehicle_type_id":"4","last_reported":1699563973,"current_range_meters":26800,"station_id":"ce4bgi12rcd13ifvqb70","pricing_plan_id":"free"},{"bike_id":"ba13013d-2210-4f06-a5c3-80f4d681aeae","system_id":"levelo_inurba_marseille","lat":43.305994,"lon":5.393687,"is_reserved":false,"is_disabled":false,"rental_uris":{"android":"levelo://app?vid=ba13013d-2210-4f06-a5c3-80f4d681aeae","ios":"levelo://app?vid=ba13013d-2210-4f06-a5c3-80f4d681aeae"},"vehicle_type_id":"4","last_reported":1699563973,"current_range_meters":4400,"station_id":"ce4bh0p2rcd13ifvqd80","pricing_plan_id":"free"},{"bike_id":"e1d1638c-13b6-432b-bef1-e6bd32798dd9","system_id":"levelo_inurba_marseille","lat":43.300852,"lon":5.390859,"is_reserved":false,"is_disabled":false,"rental_uris":{"android":"levelo://app?vid=e1d1638c-13b6-432b-bef1-e6bd32798dd9","ios":"levelo://app?vid=e1d1638c-13b6-432b-bef1-e6bd32798dd9"},"vehicle_type_id":"4","last_reported":1699563973,"current_range_meters":14800,"station_id":"ce4bh192rcd13ifvqdb0","pricing_plan_id":"free"},{"bike_id":"2a4e2499-8efd-41e6-93b0-b77ea80a66c1","system_id":"levelo_inurba_marseille","lat":43.292261,"lon":5.360563,"is_reserved":false,"is_disabled":false,"rental_uris":{"android":"levelo://app?vid=2a4e2499-8efd-41e6-93b0-b77ea80a66c1","ios":"levelo://app?vid=2a4e2499-8efd-41e6-93b0-b77ea80a66c1"},"vehicle_type_id":"4","last_reported":1699563973,"current_range_meters":30000,"station_id":"ce4bhbh2rcd13ifvqeqg","pricing_plan_id":"free"},{"bike_id":"348c27b2-b152-429c-b0ff-61ea8ce6ee2d","system_id":"levelo_inurba_marseille","lat":43.300852,"lon":5.390859,"is_reserved":false,"is_disabled":false,"rental_uris":{"android":"levelo://app?vid=348c27b2-b152-429c-b0ff-61ea8ce6ee2d","ios":"levelo://app?vid=348c27b2-b152-429c-b0ff-61ea8ce6ee2d"},"vehicle_type_id":"4","last_reported":1699563973,"current_range_meters":22000,"station_id":"ce4bh192rcd13ifvqdb0","pricing_plan_id":"free"},{"bike_id":"810e6469-af24-4b4d-8a17-f6ec2fbb37d1","system_id":"levelo_inurba_marseille","lat":43.3331,"lon":5.35949,"is_reserved":false,"is_disabled":false,"rental_uris":{"android":"levelo://app?vid=810e6469-af24-4b4d-8a17-f6ec2fbb37d1","ios":"levelo://app?vid=810e6469-af24-4b4d-8a17-f6ec2fbb37d1"},"vehicle_type_id":"4","last_reported":1699563973,"current_range_meters":0,"station_id":"","pricing_plan_id":"free"},{"bike_id":"53d33eb6-2855-4ce9-85f0-ebbaf728cec4","system_id":"levelo_inurba_marseille","lat":43.33217,"lon":5.3788,"is_reserved":false,"is_disabled":false,"rental_uris":{"android":"levelo://app?vid=53d33eb6-2855-4ce9-85f0-ebbaf728cec4","ios":"levelo://app?vid=53d33eb6-2855-4ce9-85f0-ebbaf728cec4"},"vehicle_type_id":"4","last_reported":1699563973,"current_range_meters":0,"station_id":"","pricing_plan_id":"free"},{"bike_id":"7f1422bd-3867-41a8-9e10-41fe28d889fd","system_id":"levelo_inurba_marseille","lat":43.29173,"lon":5.37151,"is_reserved":false,"is_disabled":false,"rental_uris":{"android":"levelo://app?vid=7f1422bd-3867-41a8-9e10-41fe28d889fd","ios":"levelo://app?vid=7f1422bd-3867-41a8-9e10-41fe28d889fd"},"vehicle_type_id":"4","last_reported":1699563973,"current_range_meters":0,"station_id":"ce4bha92rcd13ifvqeh0","pricing_plan_id":"free"},{"bike_id":"78a327af-4b5e-41a5-b175-405a76d55d34","system_id":"levelo_inurba_marseille","lat":43.298764,"lon":5.388973,"is_reserved":false,"is_disabled":false,"rental_uris":{"android":"levelo://app?vid=78a327af-4b5e-41a5-b175-405a76d55d34","ios":"levelo://app?vid=78a327af-4b5e-41a5-b175-405a76d55d34"},"vehicle_type_id":"4","last_reported":1699563973,"current_range_meters":8000,"station_id":"ce4bh392rcd13ifvqdl0","pricing_plan_id":"free"},{"bike_id":"0813912f-b536-44c0-9830-f966b1f91fe6","system_id":"levelo_inurba_marseille","lat":43.291675,"lon":5.371583,"is_reserved":false,"is_disabled":false,"rental_uris":{"android":"levelo://app?vid=0813912f-b536-44c0-9830-f966b1f91fe6","ios":"levelo://app?vid=0813912f-b536-44c0-9830-f966b1f91fe6"},"vehicle_type_id":"4","last_reported":1699563973,"current_range_meters":12000,"station_id":"ce4bha92rcd13ifvqeh0","pricing_plan_id":"free"},{"bike_id":"6b5e7785-54c4-411c-be26-c8472bc7b511","system_id":"levelo_inurba_marseille","lat":43.313291,"lon":5.396838,"is_reserved":false,"is_disabled":false,"rental_uris":{"android":"levelo://app?vid=6b5e7785-54c4-411c-be26-c8472bc7b511","ios":"levelo://app?vid=6b5e7785-54c4-411c-be26-c8472bc7b511"},"vehicle_type_id":"4","last_reported":1699563973,"current_range_meters":17600,"station_id":"ce4bgvp2rcd13ifvqcu0","pricing_plan_id":"free"},{"bike_id":"600d8311-3e59-4589-8144-7ba37d671815","system_id":"levelo_inurba_marseille","lat":43.31327,"lon":5.39688,"is_reserved":false,"is_disabled":false,"rental_uris":{"android":"levelo://app?vid=600d8311-3e59-4589-8144-7ba37d671815","ios":"levelo://app?vid=600d8311-3e59-4589-8144-7ba37d671815"},"vehicle_type_id":"4","last_reported":1699563973,"current_range_meters":12400,"station_id":"ce4bgvp2rcd13ifvqcu0","pricing_plan_id":"free"},{"bike_id":"dae12094-abcb-4b76-91bb-3d44d5e924b7","system_id":"levelo_inurba_marseille","lat":43.31328,"lon":5.396942,"is_reserved":false,"is_disabled":false,"rental_uris":{"android":"levelo://app?vid=dae12094-abcb-4b76-91bb-3d44d5e924b7","ios":"levelo://app?vid=dae12094-abcb-4b76-91bb-3d44d5e924b7"},"vehicle_type_id":"4","last_reported":1699563973,"current_range_meters":6400,"station_id":"ce4bgvp2rcd13ifvqcu0","pricing_plan_id":"free"},{"bike_id":"d5a8d086-e78f-45f3-b050-97814e312c90","system_id":"levelo_inurba_marseille","lat":43.31325,"lon":5.39696,"is_reserved":false,"is_disabled":false,"rental_uris":{"android":"levelo://app?vid=d5a8d086-e78f-45f3-b050-97814e312c90","ios":"levelo://app?vid=d5a8d086-e78f-45f3-b050-97814e312c90"},"vehicle_type_id":"4","last_reported":1699563973,"current_range_meters":25200,"station_id":"ce4bgvp2rcd13ifvqcu0","pricing_plan_id":"free"},{"bike_id":"69915967-cb2a-4026-97a0-2f354509b5d2","system_id":"levelo_inurba_marseille","lat":43.309038,"lon":5.396546,"is_reserved":false,"is_disabled":false,"rental_uris":{"android":"levelo://app?vid=69915967-cb2a-4026-97a0-2f354509b5d2","ios":"levelo://app?vid=69915967-cb2a-4026-97a0-2f354509b5d2"},"vehicle_type_id":"4","last_reported":1699563973,"current_range_meters":0,"station_id":"ce4bh012rcd13ifvqcv0","pricing_plan_id":"free"},{"bike_id":"a7cc0a0b-1b31-4f8f-a2be-959b6160251c","system_id":"levelo_inurba_marseille","lat":43.309047,"lon":5.396551,"is_reserved":false,"is_disabled":false,"rental_uris":{"android":"levelo://app?vid=a7cc0a0b-1b31-4f8f-a2be-959b6160251c","ios":"levelo://app?vid=a7cc0a0b-1b31-4f8f-a2be-959b6160251c"},"vehicle_type_id":"4","last_reported":1699563973,"current_range_meters":30400,"station_id":"ce4bh012rcd13ifvqcv0","pricing_plan_id":"free"},{"bike_id":"196659f1-48ec-405e-a15a-425dfab1e6c2","system_id":"levelo_inurba_marseille","lat":43.309038,"lon":5.396546,"is_reserved":false,"is_disabled":false,"rental_uris":{"android":"levelo://app?vid=196659f1-48ec-405e-a15a-425dfab1e6c2","ios":"levelo://app?vid=196659f1-48ec-405e-a15a-425dfab1e6c2"},"vehicle_type_id":"4","last_reported":1699563973,"current_range_meters":800,"station_id":"ce4bh012rcd13ifvqcv0","pricing_plan_id":"free"},{"bike_id":"d94f093d-8fc5-4f4c-a0a7-c3543f5e4af0","system_id":"levelo_inurba_marseille","lat":43.309038,"lon":5.396546,"is_reserved":false,"is_disabled":false,"rental_uris":{"android":"levelo://app?vid=d94f093d-8fc5-4f4c-a0a7-c3543f5e4af0","ios":"levelo://app?vid=d94f093d-8fc5-4f4c-a0a7-c3543f5e4af0"},"vehicle_type_id":"4","last_reported":1699563973,"current_range_meters":0,"station_id":"ce4bh012rcd13ifvqcv0","pricing_plan_id":"free"},{"bike_id":"1f871a32-87a0-4c92-897a-00c08ee56386","system_id":"levelo_inurba_marseille","lat":43.29529,"lon":5.385581,"is_reserved":false,"is_disabled":false,"rental_uris":{"android":"levelo://app?vid=1f871a32-87a0-4c92-897a-00c08ee56386","ios":"levelo://app?vid=1f871a32-87a0-4c92-897a-00c08ee56386"},"vehicle_type_id":"4","last_reported":1699563973,"current_range_meters":26800,"station_id":"ce4bgih2rcd13ifvqba0","pricing_plan_id":"free"},{"bike_id":"70f2f2c9-89c8-4517-ab70-b9ed45d5539c","system_id":"levelo_inurba_marseille","lat":43.29529,"lon":5.385581,"is_reserved":false,"is_disabled":false,"rental_uris":{"android":"levelo://app?vid=70f2f2c9-89c8-4517-ab70-b9ed45d5539c","ios":"levelo://app?vid=70f2f2c9-89c8-4517-ab70-b9ed45d5539c"},"vehicle_type_id":"4","last_reported":1699563973,"current_range_meters":13600,"station_id":"ce4bgih2rcd13ifvqba0","pricing_plan_id":"free"},{"bike_id":"ff75b0e9-9704-4d8c-8b75-43c1395da38d","system_id":"levelo_inurba_marseille","lat":43.29529,"lon":5.385581,"is_reserved":false,"is_disabled":false,"rental_uris":{"android":"levelo://app?vid=ff75b0e9-9704-4d8c-8b75-43c1395da38d","ios":"levelo://app?vid=ff75b0e9-9704-4d8c-8b75-43c1395da38d"},"vehicle_type_id":"4","last_reported":1699563973,"current_range_meters":29600,"station_id":"ce4bgih2rcd13ifvqba0","pricing_plan_id":"free"},{"bike_id":"28721b64-63c3-4b59-9919-74890f7a3250","system_id":"levelo_inurba_marseille","lat":43.30215,"lon":5.39471,"is_reserved":false,"is_disabled":false,"rental_uris":{"android":"levelo://app?vid=28721b64-63c3-4b59-9919-74890f7a3250","ios":"levelo://app?vid=28721b64-63c3-4b59-9919-74890f7a3250"},"vehicle_type_id":"4","last_reported":1699563973,"current_range_meters":0,"station_id":"ce4bh0p2rcd13ifvqd70","pricing_plan_id":"free"},{"bike_id":"937937c4-e455-4c51-9550-b4a15cd7554d","system_id":"levelo_inurba_marseille","lat":43.294153,"lon":5.386305,"is_reserved":false,"is_disabled":false,"rental_uris":{"android":"levelo://app?vid=937937c4-e455-4c51-9550-b4a15cd7554d","ios":"levelo://app?vid=937937c4-e455-4c51-9550-b4a15cd7554d"},"vehicle_type_id":"4","last_reported":1699563973,"current_range_meters":22000,"station_id":"ce4bh2h2rcd13ifvqdh0","pricing_plan_id":"free"},{"bike_id":"4a2d285a-b7b4-4bbc-a0fa-6a69432e05e9","system_id":"levelo_inurba_marseille","lat":43.294153,"lon":5.386305,"is_reserved":false,"is_disabled":false,"rental_uris":{"android":"levelo://app?vid=4a2d285a-b7b4-4bbc-a0fa-6a69432e05e9","ios":"levelo://app?vid=4a2d285a-b7b4-4bbc-a0fa-6a69432e05e9"},"vehicle_type_id":"4","last_reported":1699563973,"current_range_meters":13200,"station_id":"ce4bh2h2rcd13ifvqdh0","pricing_plan_id":"free"},{"bike_id":"daca23d6-d591-4392-b5cb-d3f25981a538","system_id":"levelo_inurba_marseille","lat":43.29422,"lon":5.3862,"is_reserved":false,"is_disabled":false,"rental_uris":{"android":"levelo://app?vid=daca23d6-d591-4392-b5cb-d3f25981a538","ios":"levelo://app?vid=daca23d6-d591-4392-b5cb-d3f25981a538"},"vehicle_type_id":"4","last_reported":1699563973,"current_range_meters":12400,"station_id":"ce4bh2h2rcd13ifvqdh0","pricing_plan_id":"free"},{"bike_id":"9957badd-53c8-43cb-bdc3-486b88ca538a","system_id":"levelo_inurba_marseille","lat":43.29422,"lon":5.38621,"is_reserved":false,"is_disabled":false,"rental_uris":{"android":"levelo://app?vid=9957badd-53c8-43cb-bdc3-486b88ca538a","ios":"levelo://app?vid=9957badd-53c8-43cb-bdc3-486b88ca538a"},"vehicle_type_id":"4","last_reported":1699563973,"current_range_meters":16000,"station_id":"ce4bh2h2rcd13ifvqdh0","pricing_plan_id":"free"},{"bike_id":"aee78164-478c-424b-bc8a-69bc57d88a94","system_id":"levelo_inurba_marseille","lat":43.294153,"lon":5.386305,"is_reserved":false,"is_disabled":false,"rental_uris":{"android":"levelo://app?vid=aee78164-478c-424b-bc8a-69bc57d88a94","ios":"levelo://app?vid=aee78164-478c-424b-bc8a-69bc57d88a94"},"vehicle_type_id":"4","last_reported":1699563973,"current_range_meters":9600,"station_id":"ce4bh2h2rcd13ifvqdh0","pricing_plan_id":"free"},{"bike_id":"068c66c1-5395-45ee-9a84-709a787d3547","system_id":"levelo_inurba_marseille","lat":43.294153,"lon":5.386305,"is_reserved":false,"is_disabled":false,"rental_uris":{"android":"levelo://app?vid=068c66c1-5395-45ee-9a84-709a787d3547","ios":"levelo://app?vid=068c66c1-5395-45ee-9a84-709a787d3547"},"vehicle_type_id":"4","last_reported":1699563973,"current_range_meters":10800,"station_id":"ce4bh2h2rcd13ifvqdh0","pricing_plan_id":"free"},{"bike_id":"19ea2a1a-aa99-483c-92f0-78cca5973ba2","system_id":"levelo_inurba_marseille","lat":43.29417,"lon":5.38617,"is_reserved":false,"is_disabled":false,"rental_uris":{"android":"levelo://app?vid=19ea2a1a-aa99-483c-92f0-78cca5973ba2","ios":"levelo://app?vid=19ea2a1a-aa99-483c-92f0-78cca5973ba2"},"vehicle_type_id":"4","last_reported":1699563973,"current_range_meters":5600,"station_id":"ce4bh2h2rcd13ifvqdh0","pricing_plan_id":"free"},{"bike_id":"05118805-6957-4fca-8b62-c2ecdc7e4c6e","system_id":"levelo_inurba_marseille","lat":43.29418,"lon":5.38619,"is_reserved":false,"is_disabled":false,"rental_uris":{"android":"levelo://app?vid=05118805-6957-4fca-8b62-c2ecdc7e4c6e","ios":"levelo://app?vid=05118805-6957-4fca-8b62-c2ecdc7e4c6e"},"vehicle_type_id":"4","last_reported":1699563973,"current_range_meters":0,"station_id":"ce4bh2h2rcd13ifvqdh0","pricing_plan_id":"free"},{"bike_id":"19de861f-e424-4433-9257-62bfb6ceb2a3","system_id":"levelo_inurba_marseille","lat":43.294198,"lon":5.386268,"is_reserved":false,"is_disabled":false,"rental_uris":{"android":"levelo://app?vid=19de861f-e424-4433-9257-62bfb6ceb2a3","ios":"levelo://app?vid=19de861f-e424-4433-9257-62bfb6ceb2a3"},"vehicle_type_id":"4","last_reported":1699563973,"current_range_meters":31200,"station_id":"ce4bh2h2rcd13ifvqdh0","pricing_plan_id":"free"},{"bike_id":"3eb6a8f0-66d6-49d7-9c7d-eaa8931f4c9d","system_id":"levelo_inurba_marseille","lat":43.294162,"lon":5.386292,"is_reserved":false,"is_disabled":false,"rental_uris":{"android":"levelo://app?vid=3eb6a8f0-66d6-49d7-9c7d-eaa8931f4c9d","ios":"levelo://app?vid=3eb6a8f0-66d6-49d7-9c7d-eaa8931f4c9d"},"vehicle_type_id":"4","last_reported":1699563973,"current_range_meters":25600,"station_id":"ce4bh2h2rcd13ifvqdh0","pricing_plan_id":"free"},{"bike_id":"610c2699-84a6-4b7d-8188-08cebba09a89","system_id":"levelo_inurba_marseille","lat":43.29418,"lon":5.38628,"is_reserved":false,"is_disabled":false,"rental_uris":{"android":"levelo://app?vid=610c2699-84a6-4b7d-8188-08cebba09a89","ios":"levelo://app?vid=610c2699-84a6-4b7d-8188-08cebba09a89"},"vehicle_type_id":"4","last_reported":1699563973,"current_range_meters":30000,"station_id":"ce4bh2h2rcd13ifvqdh0","pricing_plan_id":"free"},{"bike_id":"b915a086-ba36-4772-a317-9a3c537faebd","system_id":"levelo_inurba_marseille","lat":43.29417,"lon":5.38631,"is_reserved":false,"is_disabled":false,"rental_uris":{"android":"levelo://app?vid=b915a086-ba36-4772-a317-9a3c537faebd","ios":"levelo://app?vid=b915a086-ba36-4772-a317-9a3c537faebd"},"vehicle_type_id":"4","last_reported":1699563973,"current_range_meters":13200,"station_id":"ce4bh2h2rcd13ifvqdh0","pricing_plan_id":"free"},{"bike_id":"cce4de9e-c2c4-487a-88c1-46e1040f7b58","system_id":"levelo_inurba_marseille","lat":43.2941,"lon":5.38626,"is_reserved":false,"is_disabled":false,"rental_uris":{"android":"levelo://app?vid=cce4de9e-c2c4-487a-88c1-46e1040f7b58","ios":"levelo://app?vid=cce4de9e-c2c4-487a-88c1-46e1040f7b58"},"vehicle_type_id":"4","last_reported":1699563973,"current_range_meters":7200,"station_id":"ce4bh2h2rcd13ifvqdh0","pricing_plan_id":"free"},{"bike_id":"33583234-3e07-41e3-81f6-ab6c9c3255a5","system_id":"levelo_inurba_marseille","lat":43.289468,"lon":5.363719,"is_reserved":false,"is_disabled":false,"rental_uris":{"android":"levelo://app?vid=33583234-3e07-41e3-81f6-ab6c9c3255a5","ios":"levelo://app?vid=33583234-3e07-41e3-81f6-ab6c9c3255a5"},"vehicle_type_id":"4","last_reported":1699563973,"current_range_meters":31200,"station_id":"ce4bhc92rcd13ifvqetg","pricing_plan_id":"free"},{"bike_id":"a9540f6d-5675-4963-8337-6d5f908e4e0a","system_id":"levelo_inurba_marseille","lat":43.289468,"lon":5.363719,"is_reserved":false,"is_disabled":false,"rental_uris":{"android":"levelo://app?vid=a9540f6d-5675-4963-8337-6d5f908e4e0a","ios":"levelo://app?vid=a9540f6d-5675-4963-8337-6d5f908e4e0a"},"vehicle_type_id":"4","last_reported":1699563973,"current_range_meters":28000,"station_id":"ce4bhc92rcd13ifvqetg","pricing_plan_id":"free"},{"bike_id":"b212e351-c6fc-4e4a-b826-176f615086d4","system_id":"levelo_inurba_marseille","lat":43.289403,"lon":5.364048,"is_reserved":false,"is_disabled":false,"rental_uris":{"android":"levelo://app?vid=b212e351-c6fc-4e4a-b826-176f615086d4","ios":"levelo://app?vid=b212e351-c6fc-4e4a-b826-176f615086d4"},"vehicle_type_id":"4","last_reported":1699563973,"current_range_meters":30000,"station_id":"ce4bhc92rcd13ifvqetg","pricing_plan_id":"free"},{"bike_id":"fc53e6d3-a31e-484c-9831-3d7ef6137796","system_id":"levelo_inurba_marseille","lat":43.2894,"lon":5.36403,"is_reserved":false,"is_disabled":false,"rental_uris":{"android":"levelo://app?vid=fc53e6d3-a31e-484c-9831-3d7ef6137796","ios":"levelo://app?vid=fc53e6d3-a31e-484c-9831-3d7ef6137796"},"vehicle_type_id":"4","last_reported":1699563973,"current_range_meters":31200,"station_id":"ce4bhc92rcd13ifvqetg","pricing_plan_id":"free"},{"bike_id":"42ed5dd2-a62b-4b2e-a0b0-d43d918b0420","system_id":"levelo_inurba_marseille","lat":43.294153,"lon":5.386305,"is_reserved":false,"is_disabled":false,"rental_uris":{"android":"levelo://app?vid=42ed5dd2-a62b-4b2e-a0b0-d43d918b0420","ios":"levelo://app?vid=42ed5dd2-a62b-4b2e-a0b0-d43d918b0420"},"vehicle_type_id":"4","last_reported":1699563973,"current_range_meters":7200,"station_id":"ce4bh2h2rcd13ifvqdh0","pricing_plan_id":"free"},{"bike_id":"2eed60a5-3c30-4e5d-b1ae-d5affe1970da","system_id":"levelo_inurba_marseille","lat":43.292642,"lon":5.384254,"is_reserved":false,"is_disabled":false,"rental_uris":{"android":"levelo://app?vid=2eed60a5-3c30-4e5d-b1ae-d5affe1970da","ios":"levelo://app?vid=2eed60a5-3c30-4e5d-b1ae-d5affe1970da"},"vehicle_type_id":"4","last_reported":1699563973,"current_range_meters":0,"station_id":"ce4bh692rcd13ifvqea0","pricing_plan_id":"free"},{"bike_id":"ee11d4af-695b-402c-aa42-73ffdf4e640c","system_id":"levelo_inurba_marseille","lat":43.292703,"lon":5.384453,"is_reserved":false,"is_disabled":false,"rental_uris":{"android":"levelo://app?vid=ee11d4af-695b-402c-aa42-73ffdf4e640c","ios":"levelo://app?vid=ee11d4af-695b-402c-aa42-73ffdf4e640c"},"vehicle_type_id":"4","last_reported":1699563973,"current_range_meters":0,"station_id":"ce4bh692rcd13ifvqea0","pricing_plan_id":"free"},{"bike_id":"6c5e57a3-61a2-4a4e-9275-da006af201ea","system_id":"levelo_inurba_marseille","lat":43.304274,"lon":5.397513,"is_reserved":false,"is_disabled":false,"rental_uris":{"android":"levelo://app?vid=6c5e57a3-61a2-4a4e-9275-da006af201ea","ios":"levelo://app?vid=6c5e57a3-61a2-4a4e-9275-da006af201ea"},"vehicle_type_id":"4","last_reported":1699563973,"current_range_meters":3200,"station_id":"ce4bh092rcd13ifvqd20","pricing_plan_id":"free"},{"bike_id":"5fcde716-ddd4-4ee7-88b4-3ecc71897afa","system_id":"levelo_inurba_marseille","lat":43.29009,"lon":5.35617,"is_reserved":false,"is_disabled":false,"rental_uris":{"android":"levelo://app?vid=5fcde716-ddd4-4ee7-88b4-3ecc71897afa","ios":"levelo://app?vid=5fcde716-ddd4-4ee7-88b4-3ecc71897afa"},"vehicle_type_id":"4","last_reported":1699563973,"current_range_meters":30000,"station_id":"ce4bhb92rcd13ifvqen0","pricing_plan_id":"free"},{"bike_id":"564f3ae8-b523-43e9-a76d-49c35333173e","system_id":"levelo_inurba_marseille","lat":43.290104,"lon":5.356111,"is_reserved":false,"is_disabled":false,"rental_uris":{"android":"levelo://app?vid=564f3ae8-b523-43e9-a76d-49c35333173e","ios":"levelo://app?vid=564f3ae8-b523-43e9-a76d-49c35333173e"},"vehicle_type_id":"4","last_reported":1699563973,"current_range_meters":19600,"station_id":"ce4bhb92rcd13ifvqen0","pricing_plan_id":"free"},{"bike_id":"2ceaaa0e-54bd-4352-be73-cdbd879bd85a","system_id":"levelo_inurba_marseille","lat":43.29794,"lon":5.39338,"is_reserved":false,"is_disabled":false,"rental_uris":{"android":"levelo://app?vid=2ceaaa0e-54bd-4352-be73-cdbd879bd85a","ios":"levelo://app?vid=2ceaaa0e-54bd-4352-be73-cdbd879bd85a"},"vehicle_type_id":"4","last_reported":1699563973,"current_range_meters":22800,"station_id":"chh1huq6cuj3fo74tm60","pricing_plan_id":"free"},{"bike_id":"2927090c-3747-4288-8e6f-6c3e44339688","system_id":"levelo_inurba_marseille","lat":43.289743,"lon":5.378304,"is_reserved":false,"is_disabled":false,"rental_uris":{"android":"levelo://app?vid=2927090c-3747-4288-8e6f-6c3e44339688","ios":"levelo://app?vid=2927090c-3747-4288-8e6f-6c3e44339688"},"vehicle_type_id":"4","last_reported":1699563973,"current_range_meters":28000,"station_id":"ce4bh9p2rcd13ifvqed0","pricing_plan_id":"free"},{"bike_id":"9e1f5cb1-6453-497a-843b-6048ebc6e0fa","system_id":"levelo_inurba_marseille","lat":43.29796,"lon":5.39343,"is_reserved":false,"is_disabled":false,"rental_uris":{"android":"levelo://app?vid=9e1f5cb1-6453-497a-843b-6048ebc6e0fa","ios":"levelo://app?vid=9e1f5cb1-6453-497a-843b-6048ebc6e0fa"},"vehicle_type_id":"4","last_reported":1699563973,"current_range_meters":17600,"station_id":"chh1huq6cuj3fo74tm60","pricing_plan_id":"free"},{"bike_id":"478e34a9-5997-4bc2-beef-adf08b14b36a","system_id":"levelo_inurba_marseille","lat":43.297815,"lon":5.393548,"is_reserved":false,"is_disabled":false,"rental_uris":{"android":"levelo://app?vid=478e34a9-5997-4bc2-beef-adf08b14b36a","ios":"levelo://app?vid=478e34a9-5997-4bc2-beef-adf08b14b36a"},"vehicle_type_id":"4","last_reported":1699563973,"current_range_meters":28400,"station_id":"chh1huq6cuj3fo74tm60","pricing_plan_id":"free"},{"bike_id":"d264f86a-5ec1-46bd-8cac-d5add23327bf","system_id":"levelo_inurba_marseille","lat":43.297903,"lon":5.39341,"is_reserved":false,"is_disabled":false,"rental_uris":{"android":"levelo://app?vid=d264f86a-5ec1-46bd-8cac-d5add23327bf","ios":"levelo://app?vid=d264f86a-5ec1-46bd-8cac-d5add23327bf"},"vehicle_type_id":"4","last_reported":1699563973,"current_range_meters":29600,"station_id":"chh1huq6cuj3fo74tm60","pricing_plan_id":"free"},{"bike_id":"a1ca3274-c56f-4da0-8861-5d0b956768bf","system_id":"levelo_inurba_marseille","lat":43.29786,"lon":5.3934,"is_reserved":false,"is_disabled":false,"rental_uris":{"android":"levelo://app?vid=a1ca3274-c56f-4da0-8861-5d0b956768bf","ios":"levelo://app?vid=a1ca3274-c56f-4da0-8861-5d0b956768bf"},"vehicle_type_id":"4","last_reported":1699563973,"current_range_meters":18000,"station_id":"chh1huq6cuj3fo74tm60","pricing_plan_id":"free"},{"bike_id":"7c876ed5-dbd2-4f41-b266-9af2bfed38e0","system_id":"levelo_inurba_marseille","lat":43.297815,"lon":5.393548,"is_reserved":false,"is_disabled":false,"rental_uris":{"android":"levelo://app?vid=7c876ed5-dbd2-4f41-b266-9af2bfed38e0","ios":"levelo://app?vid=7c876ed5-dbd2-4f41-b266-9af2bfed38e0"},"vehicle_type_id":"4","last_reported":1699563973,"current_range_meters":24000,"station_id":"chh1huq6cuj3fo74tm60","pricing_plan_id":"free"},{"bike_id":"87093cec-b723-4f30-9fc1-57e213eacefa","system_id":"levelo_inurba_marseille","lat":43.297815,"lon":5.393548,"is_reserved":false,"is_disabled":false,"rental_uris":{"android":"levelo://app?vid=87093cec-b723-4f30-9fc1-57e213eacefa","ios":"levelo://app?vid=87093cec-b723-4f30-9fc1-57e213eacefa"},"vehicle_type_id":"4","last_reported":1699563973,"current_range_meters":23600,"station_id":"chh1huq6cuj3fo74tm60","pricing_plan_id":"free"},{"bike_id":"52f91160-25d0-41ca-a3b0-51eff596ff43","system_id":"levelo_inurba_marseille","lat":43.289743,"lon":5.378304,"is_reserved":false,"is_disabled":false,"rental_uris":{"android":"levelo://app?vid=52f91160-25d0-41ca-a3b0-51eff596ff43","ios":"levelo://app?vid=52f91160-25d0-41ca-a3b0-51eff596ff43"},"vehicle_type_id":"4","last_reported":1699563973,"current_range_meters":11600,"station_id":"ce4bh9p2rcd13ifvqed0","pricing_plan_id":"free"},{"bike_id":"6a7784ee-8497-4341-98d2-beb3e1f923ea","system_id":"levelo_inurba_marseille","lat":43.295169,"lon":5.390426,"is_reserved":false,"is_disabled":false,"rental_uris":{"android":"levelo://app?vid=6a7784ee-8497-4341-98d2-beb3e1f923ea","ios":"levelo://app?vid=6a7784ee-8497-4341-98d2-beb3e1f923ea"},"vehicle_type_id":"4","last_reported":1699563973,"current_range_meters":11200,"station_id":"ce4bh3p2rcd13ifvqdp0","pricing_plan_id":"free"},{"bike_id":"1e56ac1a-4335-4da5-a670-13a29c3eddbe","system_id":"levelo_inurba_marseille","lat":43.295169,"lon":5.390426,"is_reserved":false,"is_disabled":false,"rental_uris":{"android":"levelo://app?vid=1e56ac1a-4335-4da5-a670-13a29c3eddbe","ios":"levelo://app?vid=1e56ac1a-4335-4da5-a670-13a29c3eddbe"},"vehicle_type_id":"4","last_reported":1699563973,"current_range_meters":16000,"station_id":"ce4bh3p2rcd13ifvqdp0","pricing_plan_id":"free"},{"bike_id":"ca33ea6b-3028-4dc8-a98d-9fea3e2dca99","system_id":"levelo_inurba_marseille","lat":43.295169,"lon":5.390426,"is_reserved":false,"is_disabled":false,"rental_uris":{"android":"levelo://app?vid=ca33ea6b-3028-4dc8-a98d-9fea3e2dca99","ios":"levelo://app?vid=ca33ea6b-3028-4dc8-a98d-9fea3e2dca99"},"vehicle_type_id":"4","last_reported":1699563973,"current_range_meters":26000,"station_id":"ce4bh3p2rcd13ifvqdp0","pricing_plan_id":"free"},{"bike_id":"34eb7635-7a05-44fa-886f-797e533e2af4","system_id":"levelo_inurba_marseille","lat":43.289741,"lon":5.378306,"is_reserved":false,"is_disabled":false,"rental_uris":{"android":"levelo://app?vid=34eb7635-7a05-44fa-886f-797e533e2af4","ios":"levelo://app?vid=34eb7635-7a05-44fa-886f-797e533e2af4"},"vehicle_type_id":"4","last_reported":1699563973,"current_range_meters":15600,"station_id":"ce4bh9p2rcd13ifvqed0","pricing_plan_id":"free"},{"bike_id":"286dff29-61e7-44b2-bf22-a33710337a89","system_id":"levelo_inurba_marseille","lat":43.295236,"lon":5.390396,"is_reserved":false,"is_disabled":false,"rental_uris":{"android":"levelo://app?vid=286dff29-61e7-44b2-bf22-a33710337a89","ios":"levelo://app?vid=286dff29-61e7-44b2-bf22-a33710337a89"},"vehicle_type_id":"4","last_reported":1699563973,"current_range_meters":11200,"station_id":"ce4bh3p2rcd13ifvqdp0","pricing_plan_id":"free"},{"bike_id":"f3f01e56-ee8c-4c10-83c4-4641cd6e2224","system_id":"levelo_inurba_marseille","lat":43.295169,"lon":5.390426,"is_reserved":false,"is_disabled":false,"rental_uris":{"android":"levelo://app?vid=f3f01e56-ee8c-4c10-83c4-4641cd6e2224","ios":"levelo://app?vid=f3f01e56-ee8c-4c10-83c4-4641cd6e2224"},"vehicle_type_id":"4","last_reported":1699563973,"current_range_meters":0,"station_id":"ce4bh3p2rcd13ifvqdp0","pricing_plan_id":"free"},{"bike_id":"874283f7-e59f-4b1a-913b-c78096386442","system_id":"levelo_inurba_marseille","lat":43.295169,"lon":5.390426,"is_reserved":false,"is_disabled":false,"rental_uris":{"android":"levelo://app?vid=874283f7-e59f-4b1a-913b-c78096386442","ios":"levelo://app?vid=874283f7-e59f-4b1a-913b-c78096386442"},"vehicle_type_id":"4","last_reported":1699563973,"current_range_meters":17200,"station_id":"ce4bh3p2rcd13ifvqdp0","pricing_plan_id":"free"},{"bike_id":"3b0b138f-fb8a-464f-be4c-51a2d19a493f","system_id":"levelo_inurba_marseille","lat":43.326543,"lon":5.395063,"is_reserved":false,"is_disabled":false,"rental_uris":{"android":"levelo://app?vid=3b0b138f-fb8a-464f-be4c-51a2d19a493f","ios":"levelo://app?vid=3b0b138f-fb8a-464f-be4c-51a2d19a493f"},"vehicle_type_id":"4","last_reported":1699563973,"current_range_meters":30400,"station_id":"","pricing_plan_id":"free"},{"bike_id":"a18e56e9-2a08-4993-8f6b-2e9c241c82dc","system_id":"levelo_inurba_marseille","lat":43.2901,"lon":5.381269,"is_reserved":false,"is_disabled":false,"rental_uris":{"android":"levelo://app?vid=a18e56e9-2a08-4993-8f6b-2e9c241c82dc","ios":"levelo://app?vid=a18e56e9-2a08-4993-8f6b-2e9c241c82dc"},"vehicle_type_id":"4","last_reported":1699563973,"current_range_meters":29600,"station_id":"ce4bh4p2rcd13ifvqe1g","pricing_plan_id":"free"},{"bike_id":"1a05a3c2-2f80-4175-a7f9-c2f2b7ca64cd","system_id":"levelo_inurba_marseille","lat":43.28856,"lon":5.358371,"is_reserved":false,"is_disabled":false,"rental_uris":{"android":"levelo://app?vid=1a05a3c2-2f80-4175-a7f9-c2f2b7ca64cd","ios":"levelo://app?vid=1a05a3c2-2f80-4175-a7f9-c2f2b7ca64cd"},"vehicle_type_id":"4","last_reported":1699563973,"current_range_meters":9600,"station_id":"ce4bhb12rcd13ifvqem0","pricing_plan_id":"free"},{"bike_id":"5b9dba80-0dcd-4596-b1ad-b25b0dacff84","system_id":"levelo_inurba_marseille","lat":43.28856,"lon":5.358371,"is_reserved":false,"is_disabled":false,"rental_uris":{"android":"levelo://app?vid=5b9dba80-0dcd-4596-b1ad-b25b0dacff84","ios":"levelo://app?vid=5b9dba80-0dcd-4596-b1ad-b25b0dacff84"},"vehicle_type_id":"4","last_reported":1699563973,"current_range_meters":28800,"station_id":"ce4bhb12rcd13ifvqem0","pricing_plan_id":"free"},{"bike_id":"e9a81314-d05c-4f2e-b32a-9bb9ab051e17","system_id":"levelo_inurba_marseille","lat":43.2901,"lon":5.381269,"is_reserved":false,"is_disabled":false,"rental_uris":{"android":"levelo://app?vid=e9a81314-d05c-4f2e-b32a-9bb9ab051e17","ios":"levelo://app?vid=e9a81314-d05c-4f2e-b32a-9bb9ab051e17"},"vehicle_type_id":"4","last_reported":1699563973,"current_range_meters":22000,"station_id":"ce4bh4p2rcd13ifvqe1g","pricing_plan_id":"free"},{"bike_id":"c8f72ab4-a2ed-4c28-9eb8-10c0b7c549e8","system_id":"levelo_inurba_marseille","lat":43.28856,"lon":5.358371,"is_reserved":false,"is_disabled":false,"rental_uris":{"android":"levelo://app?vid=c8f72ab4-a2ed-4c28-9eb8-10c0b7c549e8","ios":"levelo://app?vid=c8f72ab4-a2ed-4c28-9eb8-10c0b7c549e8"},"vehicle_type_id":"4","last_reported":1699563973,"current_range_meters":12400,"station_id":"ce4bhb12rcd13ifvqem0","pricing_plan_id":"free"},{"bike_id":"bd09714f-edb2-4ebc-891c-b6d72498369c","system_id":"levelo_inurba_marseille","lat":43.31282,"lon":5.40173,"is_reserved":false,"is_disabled":false,"rental_uris":{"android":"levelo://app?vid=bd09714f-edb2-4ebc-891c-b6d72498369c","ios":"levelo://app?vid=bd09714f-edb2-4ebc-891c-b6d72498369c"},"vehicle_type_id":"4","last_reported":1699563973,"current_range_meters":0,"station_id":"ce4bh092rcd13ifvqd30","pricing_plan_id":"free"},{"bike_id":"2eb76cb2-e51e-4a80-b58d-cf3036b5c3e4","system_id":"levelo_inurba_marseille","lat":43.30923,"lon":5.40143,"is_reserved":false,"is_disabled":false,"rental_uris":{"android":"levelo://app?vid=2eb76cb2-e51e-4a80-b58d-cf3036b5c3e4","ios":"levelo://app?vid=2eb76cb2-e51e-4a80-b58d-cf3036b5c3e4"},"vehicle_type_id":"4","last_reported":1699563973,"current_range_meters":18000,"station_id":"ce4bgvp2rcd13ifvqct0","pricing_plan_id":"free"},{"bike_id":"98e8545c-eea4-4898-b98f-83f357c181f2","system_id":"levelo_inurba_marseille","lat":43.30927,"lon":5.40145,"is_reserved":false,"is_disabled":false,"rental_uris":{"android":"levelo://app?vid=98e8545c-eea4-4898-b98f-83f357c181f2","ios":"levelo://app?vid=98e8545c-eea4-4898-b98f-83f357c181f2"},"vehicle_type_id":"4","last_reported":1699563973,"current_range_meters":15600,"station_id":"ce4bgvp2rcd13ifvqct0","pricing_plan_id":"free"},{"bike_id":"9cd40627-d81b-41ec-921e-7e9fb75192fc","system_id":"levelo_inurba_marseille","lat":43.30936,"lon":5.40149,"is_reserved":false,"is_disabled":false,"rental_uris":{"android":"levelo://app?vid=9cd40627-d81b-41ec-921e-7e9fb75192fc","ios":"levelo://app?vid=9cd40627-d81b-41ec-921e-7e9fb75192fc"},"vehicle_type_id":"4","last_reported":1699563973,"current_range_meters":22400,"station_id":"ce4bgvp2rcd13ifvqct0","pricing_plan_id":"free"},{"bike_id":"fb8c267a-8fbc-4bb8-86fa-ead1c910eee3","system_id":"levelo_inurba_marseille","lat":43.337503,"lon":5.374667,"is_reserved":false,"is_disabled":false,"rental_uris":{"android":"levelo://app?vid=fb8c267a-8fbc-4bb8-86fa-ead1c910eee3","ios":"levelo://app?vid=fb8c267a-8fbc-4bb8-86fa-ead1c910eee3"},"vehicle_type_id":"4","last_reported":1699563973,"current_range_meters":31200,"station_id":"","pricing_plan_id":"free"},{"bike_id":"2c515728-875e-4cad-a96a-76f9bf98f5fd","system_id":"levelo_inurba_marseille","lat":43.28829,"lon":5.37652,"is_reserved":false,"is_disabled":false,"rental_uris":{"android":"levelo://app?vid=2c515728-875e-4cad-a96a-76f9bf98f5fd","ios":"levelo://app?vid=2c515728-875e-4cad-a96a-76f9bf98f5fd"},"vehicle_type_id":"4","last_reported":1699563973,"current_range_meters":2800,"station_id":"ce4bht12rcd13ifvqi60","pricing_plan_id":"free"},{"bike_id":"61c9606b-5e0c-419f-a3b5-4fe4d535e889","system_id":"levelo_inurba_marseille","lat":43.33037,"lon":5.392367,"is_reserved":false,"is_disabled":false,"rental_uris":{"android":"levelo://app?vid=61c9606b-5e0c-419f-a3b5-4fe4d535e889","ios":"levelo://app?vid=61c9606b-5e0c-419f-a3b5-4fe4d535e889"},"vehicle_type_id":"4","last_reported":1699563973,"current_range_meters":16800,"station_id":"","pricing_plan_id":"free"},{"bike_id":"b23dc3a4-aa20-4eed-a49b-3c39381551ce","system_id":"levelo_inurba_marseille","lat":43.306412,"lon":5.401035,"is_reserved":false,"is_disabled":false,"rental_uris":{"android":"levelo://app?vid=b23dc3a4-aa20-4eed-a49b-3c39381551ce","ios":"levelo://app?vid=b23dc3a4-aa20-4eed-a49b-3c39381551ce"},"vehicle_type_id":"4","last_reported":1699563973,"current_range_meters":10400,"station_id":"ce4bh112rcd13ifvqda0","pricing_plan_id":"free"},{"bike_id":"241bbb39-2121-4d98-83f8-18189116eeac","system_id":"levelo_inurba_marseille","lat":43.306412,"lon":5.401035,"is_reserved":false,"is_disabled":false,"rental_uris":{"android":"levelo://app?vid=241bbb39-2121-4d98-83f8-18189116eeac","ios":"levelo://app?vid=241bbb39-2121-4d98-83f8-18189116eeac"},"vehicle_type_id":"4","last_reported":1699563973,"current_range_meters":22000,"station_id":"ce4bh112rcd13ifvqda0","pricing_plan_id":"free"},{"bike_id":"f57fc954-ce76-4a07-ab8f-af9008ac04b8","system_id":"levelo_inurba_marseille","lat":43.30134,"lon":5.3987,"is_reserved":false,"is_disabled":false,"rental_uris":{"android":"levelo://app?vid=f57fc954-ce76-4a07-ab8f-af9008ac04b8","ios":"levelo://app?vid=f57fc954-ce76-4a07-ab8f-af9008ac04b8"},"vehicle_type_id":"4","last_reported":1699563973,"current_range_meters":21200,"station_id":"ce4bh0h2rcd13ifvqd40","pricing_plan_id":"free"},{"bike_id":"3f62065f-401c-473d-bc1c-173e1ffae26d","system_id":"levelo_inurba_marseille","lat":43.28727,"lon":5.36078,"is_reserved":false,"is_disabled":false,"rental_uris":{"android":"levelo://app?vid=3f62065f-401c-473d-bc1c-173e1ffae26d","ios":"levelo://app?vid=3f62065f-401c-473d-bc1c-173e1ffae26d"},"vehicle_type_id":"4","last_reported":1699563973,"current_range_meters":31200,"station_id":"cki0cbj6b192h4jlfktg","pricing_plan_id":"free"},{"bike_id":"a3258b75-e09d-4420-b623-902fe16833be","system_id":"levelo_inurba_marseille","lat":43.28727,"lon":5.36078,"is_reserved":false,"is_disabled":false,"rental_uris":{"android":"levelo://app?vid=a3258b75-e09d-4420-b623-902fe16833be","ios":"levelo://app?vid=a3258b75-e09d-4420-b623-902fe16833be"},"vehicle_type_id":"4","last_reported":1699563973,"current_range_meters":16400,"station_id":"cki0cbj6b192h4jlfktg","pricing_plan_id":"free"},{"bike_id":"1afeea72-d45f-450e-9a74-8afe60f9d14a","system_id":"levelo_inurba_marseille","lat":43.28727,"lon":5.36078,"is_reserved":false,"is_disabled":false,"rental_uris":{"android":"levelo://app?vid=1afeea72-d45f-450e-9a74-8afe60f9d14a","ios":"levelo://app?vid=1afeea72-d45f-450e-9a74-8afe60f9d14a"},"vehicle_type_id":"4","last_reported":1699563973,"current_range_meters":19600,"station_id":"cki0cbj6b192h4jlfktg","pricing_plan_id":"free"},{"bike_id":"f14140f1-4136-4862-bdac-0126ecce10c4","system_id":"levelo_inurba_marseille","lat":43.28727,"lon":5.36078,"is_reserved":false,"is_disabled":false,"rental_uris":{"android":"levelo://app?vid=f14140f1-4136-4862-bdac-0126ecce10c4","ios":"levelo://app?vid=f14140f1-4136-4862-bdac-0126ecce10c4"},"vehicle_type_id":"4","last_reported":1699563973,"current_range_meters":13600,"station_id":"cki0cbj6b192h4jlfktg","pricing_plan_id":"free"},{"bike_id":"c2eea334-a744-4007-8c9e-7945c53e6b1e","system_id":"levelo_inurba_marseille","lat":43.286961,"lon":5.373785,"is_reserved":false,"is_disabled":false,"rental_uris":{"android":"levelo://app?vid=c2eea334-a744-4007-8c9e-7945c53e6b1e","ios":"levelo://app?vid=c2eea334-a744-4007-8c9e-7945c53e6b1e"},"vehicle_type_id":"4","last_reported":1699563973,"current_range_meters":1600,"station_id":"ce4bh3p2rcd13ifvqdq0","pricing_plan_id":"free"},{"bike_id":"93bb130e-05f6-4f32-a71f-fbe08b37ca3b","system_id":"levelo_inurba_marseille","lat":43.286591,"lon":5.363346,"is_reserved":false,"is_disabled":false,"rental_uris":{"android":"levelo://app?vid=93bb130e-05f6-4f32-a71f-fbe08b37ca3b","ios":"levelo://app?vid=93bb130e-05f6-4f32-a71f-fbe08b37ca3b"},"vehicle_type_id":"4","last_reported":1699563973,"current_range_meters":31200,"station_id":"ce4bhah2rcd13ifvqej0","pricing_plan_id":"free"},{"bike_id":"93269703-9607-43d3-a9c8-9c040bf66747","system_id":"levelo_inurba_marseille","lat":43.286961,"lon":5.373785,"is_reserved":false,"is_disabled":false,"rental_uris":{"android":"levelo://app?vid=93269703-9607-43d3-a9c8-9c040bf66747","ios":"levelo://app?vid=93269703-9607-43d3-a9c8-9c040bf66747"},"vehicle_type_id":"4","last_reported":1699563973,"current_range_meters":11200,"station_id":"ce4bh3p2rcd13ifvqdq0","pricing_plan_id":"free"},{"bike_id":"1eab7863-6f0e-4901-b675-fd25b894f0d8","system_id":"levelo_inurba_marseille","lat":43.298681,"lon":5.397225,"is_reserved":false,"is_disabled":false,"rental_uris":{"android":"levelo://app?vid=1eab7863-6f0e-4901-b675-fd25b894f0d8","ios":"levelo://app?vid=1eab7863-6f0e-4901-b675-fd25b894f0d8"},"vehicle_type_id":"4","last_reported":1699563973,"current_range_meters":0,"station_id":"ce4bh0h2rcd13ifvqd50","pricing_plan_id":"free"},{"bike_id":"bd60983d-26d9-4f02-bc92-711d21a2625e","system_id":"levelo_inurba_marseille","lat":43.286961,"lon":5.373785,"is_reserved":false,"is_disabled":false,"rental_uris":{"android":"levelo://app?vid=bd60983d-26d9-4f02-bc92-711d21a2625e","ios":"levelo://app?vid=bd60983d-26d9-4f02-bc92-711d21a2625e"},"vehicle_type_id":"4","last_reported":1699563973,"current_range_meters":31600,"station_id":"ce4bh3p2rcd13ifvqdq0","pricing_plan_id":"free"},{"bike_id":"c646cf8b-396e-4638-9ca0-374425eae3a7","system_id":"levelo_inurba_marseille","lat":43.286961,"lon":5.373785,"is_reserved":false,"is_disabled":false,"rental_uris":{"android":"levelo://app?vid=c646cf8b-396e-4638-9ca0-374425eae3a7","ios":"levelo://app?vid=c646cf8b-396e-4638-9ca0-374425eae3a7"},"vehicle_type_id":"4","last_reported":1699563973,"current_range_meters":11200,"station_id":"ce4bh3p2rcd13ifvqdq0","pricing_plan_id":"free"},{"bike_id":"a5114d3a-72cf-4732-84a3-3cac59bf360a","system_id":"levelo_inurba_marseille","lat":43.286961,"lon":5.373785,"is_reserved":false,"is_disabled":false,"rental_uris":{"android":"levelo://app?vid=a5114d3a-72cf-4732-84a3-3cac59bf360a","ios":"levelo://app?vid=a5114d3a-72cf-4732-84a3-3cac59bf360a"},"vehicle_type_id":"4","last_reported":1699563973,"current_range_meters":6000,"station_id":"ce4bh3p2rcd13ifvqdq0","pricing_plan_id":"free"},{"bike_id":"c5491b2e-a028-4d28-87f4-35d4c9540d90","system_id":"levelo_inurba_marseille","lat":43.286591,"lon":5.363346,"is_reserved":false,"is_disabled":false,"rental_uris":{"android":"levelo://app?vid=c5491b2e-a028-4d28-87f4-35d4c9540d90","ios":"levelo://app?vid=c5491b2e-a028-4d28-87f4-35d4c9540d90"},"vehicle_type_id":"4","last_reported":1699563973,"current_range_meters":26400,"station_id":"ce4bhah2rcd13ifvqej0","pricing_plan_id":"free"},{"bike_id":"ff5af3c8-a6b1-468d-9de1-280ccf2647fd","system_id":"levelo_inurba_marseille","lat":43.286591,"lon":5.363346,"is_reserved":false,"is_disabled":false,"rental_uris":{"android":"levelo://app?vid=ff5af3c8-a6b1-468d-9de1-280ccf2647fd","ios":"levelo://app?vid=ff5af3c8-a6b1-468d-9de1-280ccf2647fd"},"vehicle_type_id":"4","last_reported":1699563973,"current_range_meters":12400,"station_id":"ce4bhah2rcd13ifvqej0","pricing_plan_id":"free"},{"bike_id":"c8053b8e-e510-419d-ab3f-48ea48fae45d","system_id":"levelo_inurba_marseille","lat":43.295194,"lon":5.39397,"is_reserved":false,"is_disabled":false,"rental_uris":{"android":"levelo://app?vid=c8053b8e-e510-419d-ab3f-48ea48fae45d","ios":"levelo://app?vid=c8053b8e-e510-419d-ab3f-48ea48fae45d"},"vehicle_type_id":"4","last_reported":1699563973,"current_range_meters":20800,"station_id":"ce4bh292rcd13ifvqdf0","pricing_plan_id":"free"},{"bike_id":"226f6b98-24d5-4ecc-a93e-569257b433ca","system_id":"levelo_inurba_marseille","lat":43.295196,"lon":5.39397,"is_reserved":false,"is_disabled":false,"rental_uris":{"android":"levelo://app?vid=226f6b98-24d5-4ecc-a93e-569257b433ca","ios":"levelo://app?vid=226f6b98-24d5-4ecc-a93e-569257b433ca"},"vehicle_type_id":"4","last_reported":1699563973,"current_range_meters":23600,"station_id":"ce4bh292rcd13ifvqdf0","pricing_plan_id":"free"},{"bike_id":"72f7df2a-2200-43b3-a45b-fbac3dea4a3e","system_id":"levelo_inurba_marseille","lat":43.295194,"lon":5.39397,"is_reserved":false,"is_disabled":false,"rental_uris":{"android":"levelo://app?vid=72f7df2a-2200-43b3-a45b-fbac3dea4a3e","ios":"levelo://app?vid=72f7df2a-2200-43b3-a45b-fbac3dea4a3e"},"vehicle_type_id":"4","last_reported":1699563973,"current_range_meters":4000,"station_id":"ce4bh292rcd13ifvqdf0","pricing_plan_id":"free"},{"bike_id":"8295f13a-02ae-4ae9-a47e-57aa9912519a","system_id":"levelo_inurba_marseille","lat":43.295194,"lon":5.39397,"is_reserved":false,"is_disabled":false,"rental_uris":{"android":"levelo://app?vid=8295f13a-02ae-4ae9-a47e-57aa9912519a","ios":"levelo://app?vid=8295f13a-02ae-4ae9-a47e-57aa9912519a"},"vehicle_type_id":"4","last_reported":1699563973,"current_range_meters":24400,"station_id":"ce4bh292rcd13ifvqdf0","pricing_plan_id":"free"},{"bike_id":"29183cbc-d5a7-436d-93a9-0f14ede469da","system_id":"levelo_inurba_marseille","lat":43.302759,"lon":5.400793,"is_reserved":false,"is_disabled":false,"rental_uris":{"android":"levelo://app?vid=29183cbc-d5a7-436d-93a9-0f14ede469da","ios":"levelo://app?vid=29183cbc-d5a7-436d-93a9-0f14ede469da"},"vehicle_type_id":"4","last_reported":1699563973,"current_range_meters":23200,"station_id":"ce4bgvh2rcd13ifvqcs0","pricing_plan_id":"free"},{"bike_id":"34d10bc9-b500-470c-8dab-255b42d7ff78","system_id":"levelo_inurba_marseille","lat":43.302759,"lon":5.400793,"is_reserved":false,"is_disabled":false,"rental_uris":{"android":"levelo://app?vid=34d10bc9-b500-470c-8dab-255b42d7ff78","ios":"levelo://app?vid=34d10bc9-b500-470c-8dab-255b42d7ff78"},"vehicle_type_id":"4","last_reported":1699563973,"current_range_meters":7200,"station_id":"ce4bgvh2rcd13ifvqcs0","pricing_plan_id":"free"},{"bike_id":"aecd0129-d35f-4c46-8f48-5c34e8e54889","system_id":"levelo_inurba_marseille","lat":43.30262,"lon":5.40077,"is_reserved":false,"is_disabled":false,"rental_uris":{"android":"levelo://app?vid=aecd0129-d35f-4c46-8f48-5c34e8e54889","ios":"levelo://app?vid=aecd0129-d35f-4c46-8f48-5c34e8e54889"},"vehicle_type_id":"4","last_reported":1699563973,"current_range_meters":1600,"station_id":"ce4bgvh2rcd13ifvqcs0","pricing_plan_id":"free"},{"bike_id":"47115d91-bf86-4024-8e92-92b6a12b2e7e","system_id":"levelo_inurba_marseille","lat":43.30241,"lon":5.400813,"is_reserved":false,"is_disabled":false,"rental_uris":{"android":"levelo://app?vid=47115d91-bf86-4024-8e92-92b6a12b2e7e","ios":"levelo://app?vid=47115d91-bf86-4024-8e92-92b6a12b2e7e"},"vehicle_type_id":"4","last_reported":1699563973,"current_range_meters":8000,"station_id":"ce4bgvh2rcd13ifvqcs0","pricing_plan_id":"free"},{"bike_id":"40eabeda-7910-41ba-81a2-f34cb96f7584","system_id":"levelo_inurba_marseille","lat":43.287184,"lon":5.37937,"is_reserved":false,"is_disabled":false,"rental_uris":{"android":"levelo://app?vid=40eabeda-7910-41ba-81a2-f34cb96f7584","ios":"levelo://app?vid=40eabeda-7910-41ba-81a2-f34cb96f7584"},"vehicle_type_id":"4","last_reported":1699563973,"current_range_meters":13200,"station_id":"ce4bh9p2rcd13ifvqec0","pricing_plan_id":"free"},{"bike_id":"21bf5949-9758-4901-81f9-2dafa9dc78a9","system_id":"levelo_inurba_marseille","lat":43.290003,"lon":5.38794,"is_reserved":false,"is_disabled":false,"rental_uris":{"android":"levelo://app?vid=21bf5949-9758-4901-81f9-2dafa9dc78a9","ios":"levelo://app?vid=21bf5949-9758-4901-81f9-2dafa9dc78a9"},"vehicle_type_id":"4","last_reported":1699563973,"current_range_meters":6400,"station_id":"","pricing_plan_id":"free"},{"bike_id":"fca9c2d2-1cfc-4a83-833f-a826ee0b0fdd","system_id":"levelo_inurba_marseille","lat":43.31641,"lon":5.40436,"is_reserved":false,"is_disabled":false,"rental_uris":{"android":"levelo://app?vid=fca9c2d2-1cfc-4a83-833f-a826ee0b0fdd","ios":"levelo://app?vid=fca9c2d2-1cfc-4a83-833f-a826ee0b0fdd"},"vehicle_type_id":"4","last_reported":1699563973,"current_range_meters":7200,"station_id":"ce4bh012rcd13ifvqd00","pricing_plan_id":"free"},{"bike_id":"b0296fd1-b321-41b7-a6e3-9034fb8f459f","system_id":"levelo_inurba_marseille","lat":43.31654,"lon":5.40436,"is_reserved":false,"is_disabled":false,"rental_uris":{"android":"levelo://app?vid=b0296fd1-b321-41b7-a6e3-9034fb8f459f","ios":"levelo://app?vid=b0296fd1-b321-41b7-a6e3-9034fb8f459f"},"vehicle_type_id":"4","last_reported":1699563973,"current_range_meters":31200,"station_id":"ce4bh012rcd13ifvqd00","pricing_plan_id":"free"},{"bike_id":"246a2b33-aba0-4459-972e-773ca8b92a32","system_id":"levelo_inurba_marseille","lat":43.316485,"lon":5.404374,"is_reserved":false,"is_disabled":false,"rental_uris":{"android":"levelo://app?vid=246a2b33-aba0-4459-972e-773ca8b92a32","ios":"levelo://app?vid=246a2b33-aba0-4459-972e-773ca8b92a32"},"vehicle_type_id":"4","last_reported":1699563973,"current_range_meters":30800,"station_id":"ce4bh012rcd13ifvqd00","pricing_plan_id":"free"},{"bike_id":"06d9ca47-f432-40b8-a8fa-78fabcee464d","system_id":"levelo_inurba_marseille","lat":43.31649,"lon":5.40438,"is_reserved":false,"is_disabled":false,"rental_uris":{"android":"levelo://app?vid=06d9ca47-f432-40b8-a8fa-78fabcee464d","ios":"levelo://app?vid=06d9ca47-f432-40b8-a8fa-78fabcee464d"},"vehicle_type_id":"4","last_reported":1699563973,"current_range_meters":12400,"station_id":"ce4bh012rcd13ifvqd00","pricing_plan_id":"free"},{"bike_id":"e57449c2-d088-47cf-8bf2-271593713c89","system_id":"levelo_inurba_marseille","lat":43.328576,"lon":5.398841,"is_reserved":false,"is_disabled":false,"rental_uris":{"android":"levelo://app?vid=e57449c2-d088-47cf-8bf2-271593713c89","ios":"levelo://app?vid=e57449c2-d088-47cf-8bf2-271593713c89"},"vehicle_type_id":"4","last_reported":1699563973,"current_range_meters":14400,"station_id":"","pricing_plan_id":"free"},{"bike_id":"cc0f114f-940b-4c88-9eb9-6a312a524610","system_id":"levelo_inurba_marseille","lat":43.291994,"lon":5.392907,"is_reserved":false,"is_disabled":false,"rental_uris":{"android":"levelo://app?vid=cc0f114f-940b-4c88-9eb9-6a312a524610","ios":"levelo://app?vid=cc0f114f-940b-4c88-9eb9-6a312a524610"},"vehicle_type_id":"4","last_reported":1699563973,"current_range_meters":18800,"station_id":"ce4bh192rcd13ifvqdd0","pricing_plan_id":"free"},{"bike_id":"7313f0c5-5e6a-4bbe-8fe5-27149720e9fe","system_id":"levelo_inurba_marseille","lat":43.291994,"lon":5.392907,"is_reserved":false,"is_disabled":false,"rental_uris":{"android":"levelo://app?vid=7313f0c5-5e6a-4bbe-8fe5-27149720e9fe","ios":"levelo://app?vid=7313f0c5-5e6a-4bbe-8fe5-27149720e9fe"},"vehicle_type_id":"4","last_reported":1699563973,"current_range_meters":19600,"station_id":"ce4bh192rcd13ifvqdd0","pricing_plan_id":"free"},{"bike_id":"9ef91e9f-5537-4d54-8286-5c2d9422bef8","system_id":"levelo_inurba_marseille","lat":43.291994,"lon":5.392907,"is_reserved":false,"is_disabled":false,"rental_uris":{"android":"levelo://app?vid=9ef91e9f-5537-4d54-8286-5c2d9422bef8","ios":"levelo://app?vid=9ef91e9f-5537-4d54-8286-5c2d9422bef8"},"vehicle_type_id":"4","last_reported":1699563973,"current_range_meters":2000,"station_id":"ce4bh192rcd13ifvqdd0","pricing_plan_id":"free"},{"bike_id":"94af14a7-e47d-4982-bbf0-3c1d6f6d5cbd","system_id":"levelo_inurba_marseille","lat":43.28469,"lon":5.35903,"is_reserved":false,"is_disabled":false,"rental_uris":{"android":"levelo://app?vid=94af14a7-e47d-4982-bbf0-3c1d6f6d5cbd","ios":"levelo://app?vid=94af14a7-e47d-4982-bbf0-3c1d6f6d5cbd"},"vehicle_type_id":"4","last_reported":1699563973,"current_range_meters":31200,"station_id":"ce4bhah2rcd13ifvqei0","pricing_plan_id":"free"},{"bike_id":"c6335d6d-a7ad-4c2d-b60d-d28edb981e22","system_id":"levelo_inurba_marseille","lat":43.284676,"lon":5.358936,"is_reserved":false,"is_disabled":false,"rental_uris":{"android":"levelo://app?vid=c6335d6d-a7ad-4c2d-b60d-d28edb981e22","ios":"levelo://app?vid=c6335d6d-a7ad-4c2d-b60d-d28edb981e22"},"vehicle_type_id":"4","last_reported":1699563973,"current_range_meters":24400,"station_id":"ce4bhah2rcd13ifvqei0","pricing_plan_id":"free"},{"bike_id":"897f18cd-b6cd-4003-bbf3-8e7e9b0615ce","system_id":"levelo_inurba_marseille","lat":43.284534,"lon":5.358662,"is_reserved":false,"is_disabled":false,"rental_uris":{"android":"levelo://app?vid=897f18cd-b6cd-4003-bbf3-8e7e9b0615ce","ios":"levelo://app?vid=897f18cd-b6cd-4003-bbf3-8e7e9b0615ce"},"vehicle_type_id":"4","last_reported":1699563973,"current_range_meters":17600,"station_id":"ce4bhah2rcd13ifvqei0","pricing_plan_id":"free"},{"bike_id":"9bb217ca-3551-4a57-84ab-20784a907507","system_id":"levelo_inurba_marseille","lat":43.28465,"lon":5.35897,"is_reserved":false,"is_disabled":false,"rental_uris":{"android":"levelo://app?vid=9bb217ca-3551-4a57-84ab-20784a907507","ios":"levelo://app?vid=9bb217ca-3551-4a57-84ab-20784a907507"},"vehicle_type_id":"4","last_reported":1699563973,"current_range_meters":31200,"station_id":"ce4bhah2rcd13ifvqei0","pricing_plan_id":"free"},{"bike_id":"79bbf1b8-0087-470e-a61f-de2ed560511c","system_id":"levelo_inurba_marseille","lat":43.28463,"lon":5.35894,"is_reserved":false,"is_disabled":false,"rental_uris":{"android":"levelo://app?vid=79bbf1b8-0087-470e-a61f-de2ed560511c","ios":"levelo://app?vid=79bbf1b8-0087-470e-a61f-de2ed560511c"},"vehicle_type_id":"4","last_reported":1699563973,"current_range_meters":400,"station_id":"ce4bhah2rcd13ifvqei0","pricing_plan_id":"free"},{"bike_id":"1ca452a7-c44f-4699-a1d9-4abe7d053869","system_id":"levelo_inurba_marseille","lat":43.284534,"lon":5.358662,"is_reserved":false,"is_disabled":false,"rental_uris":{"android":"levelo://app?vid=1ca452a7-c44f-4699-a1d9-4abe7d053869","ios":"levelo://app?vid=1ca452a7-c44f-4699-a1d9-4abe7d053869"},"vehicle_type_id":"4","last_reported":1699563973,"current_range_meters":29200,"station_id":"ce4bhah2rcd13ifvqei0","pricing_plan_id":"free"},{"bike_id":"bbab6207-7180-4281-8267-2a0871ff73b7","system_id":"levelo_inurba_marseille","lat":43.284534,"lon":5.358662,"is_reserved":false,"is_disabled":false,"rental_uris":{"android":"levelo://app?vid=bbab6207-7180-4281-8267-2a0871ff73b7","ios":"levelo://app?vid=bbab6207-7180-4281-8267-2a0871ff73b7"},"vehicle_type_id":"4","last_reported":1699563973,"current_range_meters":10800,"station_id":"ce4bhah2rcd13ifvqei0","pricing_plan_id":"free"},{"bike_id":"5183c6e4-fa58-40ac-8863-b6b72ff08fb7","system_id":"levelo_inurba_marseille","lat":43.284534,"lon":5.358662,"is_reserved":false,"is_disabled":false,"rental_uris":{"android":"levelo://app?vid=5183c6e4-fa58-40ac-8863-b6b72ff08fb7","ios":"levelo://app?vid=5183c6e4-fa58-40ac-8863-b6b72ff08fb7"},"vehicle_type_id":"4","last_reported":1699563973,"current_range_meters":31200,"station_id":"ce4bhah2rcd13ifvqei0","pricing_plan_id":"free"},{"bike_id":"90093fa5-1ab4-4d56-9461-6467370c9274","system_id":"levelo_inurba_marseille","lat":43.284615,"lon":5.358859,"is_reserved":false,"is_disabled":false,"rental_uris":{"android":"levelo://app?vid=90093fa5-1ab4-4d56-9461-6467370c9274","ios":"levelo://app?vid=90093fa5-1ab4-4d56-9461-6467370c9274"},"vehicle_type_id":"4","last_reported":1699563973,"current_range_meters":10800,"station_id":"ce4bhah2rcd13ifvqei0","pricing_plan_id":"free"},{"bike_id":"c0af76d5-f577-4ed2-ae8e-85cfd7cc48ed","system_id":"levelo_inurba_marseille","lat":43.28459,"lon":5.35897,"is_reserved":false,"is_disabled":false,"rental_uris":{"android":"levelo://app?vid=c0af76d5-f577-4ed2-ae8e-85cfd7cc48ed","ios":"levelo://app?vid=c0af76d5-f577-4ed2-ae8e-85cfd7cc48ed"},"vehicle_type_id":"4","last_reported":1699563973,"current_range_meters":9600,"station_id":"ce4bhah2rcd13ifvqei0","pricing_plan_id":"free"},{"bike_id":"19da7a58-9fc7-44ee-9a92-c803d6f45185","system_id":"levelo_inurba_marseille","lat":43.284606,"lon":5.358819,"is_reserved":false,"is_disabled":false,"rental_uris":{"android":"levelo://app?vid=19da7a58-9fc7-44ee-9a92-c803d6f45185","ios":"levelo://app?vid=19da7a58-9fc7-44ee-9a92-c803d6f45185"},"vehicle_type_id":"4","last_reported":1699563973,"current_range_meters":31200,"station_id":"ce4bhah2rcd13ifvqei0","pricing_plan_id":"free"},{"bike_id":"59b93669-18fb-44c6-8880-c553e0b74feb","system_id":"levelo_inurba_marseille","lat":43.28459,"lon":5.35891,"is_reserved":false,"is_disabled":false,"rental_uris":{"android":"levelo://app?vid=59b93669-18fb-44c6-8880-c553e0b74feb","ios":"levelo://app?vid=59b93669-18fb-44c6-8880-c553e0b74feb"},"vehicle_type_id":"4","last_reported":1699563973,"current_range_meters":20400,"station_id":"ce4bhah2rcd13ifvqei0","pricing_plan_id":"free"},{"bike_id":"541ce9a2-5d06-4b63-8afd-8383b361cf22","system_id":"levelo_inurba_marseille","lat":43.284534,"lon":5.358662,"is_reserved":false,"is_disabled":false,"rental_uris":{"android":"levelo://app?vid=541ce9a2-5d06-4b63-8afd-8383b361cf22","ios":"levelo://app?vid=541ce9a2-5d06-4b63-8afd-8383b361cf22"},"vehicle_type_id":"4","last_reported":1699563973,"current_range_meters":31200,"station_id":"ce4bhah2rcd13ifvqei0","pricing_plan_id":"free"},{"bike_id":"19d3b56c-747d-4844-8b37-4959d1da3e10","system_id":"levelo_inurba_marseille","lat":43.284534,"lon":5.358662,"is_reserved":false,"is_disabled":false,"rental_uris":{"android":"levelo://app?vid=19d3b56c-747d-4844-8b37-4959d1da3e10","ios":"levelo://app?vid=19d3b56c-747d-4844-8b37-4959d1da3e10"},"vehicle_type_id":"4","last_reported":1699563973,"current_range_meters":31200,"station_id":"ce4bhah2rcd13ifvqei0","pricing_plan_id":"free"},{"bike_id":"8c5e9706-e763-4c57-b84f-3d21a35bd9bd","system_id":"levelo_inurba_marseille","lat":43.284576,"lon":5.358816,"is_reserved":false,"is_disabled":false,"rental_uris":{"android":"levelo://app?vid=8c5e9706-e763-4c57-b84f-3d21a35bd9bd","ios":"levelo://app?vid=8c5e9706-e763-4c57-b84f-3d21a35bd9bd"},"vehicle_type_id":"4","last_reported":1699563973,"current_range_meters":31200,"station_id":"ce4bhah2rcd13ifvqei0","pricing_plan_id":"free"},{"bike_id":"f082430a-f2a0-46af-a8b8-e164bcb5dd18","system_id":"levelo_inurba_marseille","lat":43.284534,"lon":5.358662,"is_reserved":false,"is_disabled":false,"rental_uris":{"android":"levelo://app?vid=f082430a-f2a0-46af-a8b8-e164bcb5dd18","ios":"levelo://app?vid=f082430a-f2a0-46af-a8b8-e164bcb5dd18"},"vehicle_type_id":"4","last_reported":1699563973,"current_range_meters":16400,"station_id":"ce4bhah2rcd13ifvqei0","pricing_plan_id":"free"},{"bike_id":"f1a5d00b-bd6f-4dc5-981a-d34af25438b9","system_id":"levelo_inurba_marseille","lat":43.284534,"lon":5.358662,"is_reserved":false,"is_disabled":false,"rental_uris":{"android":"levelo://app?vid=f1a5d00b-bd6f-4dc5-981a-d34af25438b9","ios":"levelo://app?vid=f1a5d00b-bd6f-4dc5-981a-d34af25438b9"},"vehicle_type_id":"4","last_reported":1699563973,"current_range_meters":23200,"station_id":"ce4bhah2rcd13ifvqei0","pricing_plan_id":"free"},{"bike_id":"498ed3ae-f309-4586-b540-abdd71af012d","system_id":"levelo_inurba_marseille","lat":43.28454,"lon":5.35886,"is_reserved":false,"is_disabled":false,"rental_uris":{"android":"levelo://app?vid=498ed3ae-f309-4586-b540-abdd71af012d","ios":"levelo://app?vid=498ed3ae-f309-4586-b540-abdd71af012d"},"vehicle_type_id":"4","last_reported":1699563973,"current_range_meters":11600,"station_id":"ce4bhah2rcd13ifvqei0","pricing_plan_id":"free"},{"bike_id":"71c97c36-2fcf-4039-ac51-a11584d2c759","system_id":"levelo_inurba_marseille","lat":43.284558,"lon":5.358696,"is_reserved":false,"is_disabled":false,"rental_uris":{"android":"levelo://app?vid=71c97c36-2fcf-4039-ac51-a11584d2c759","ios":"levelo://app?vid=71c97c36-2fcf-4039-ac51-a11584d2c759"},"vehicle_type_id":"4","last_reported":1699563973,"current_range_meters":1200,"station_id":"ce4bhah2rcd13ifvqei0","pricing_plan_id":"free"},{"bike_id":"88e5708d-98f2-441c-a393-24464f971e2e","system_id":"levelo_inurba_marseille","lat":43.284534,"lon":5.358662,"is_reserved":false,"is_disabled":false,"rental_uris":{"android":"levelo://app?vid=88e5708d-98f2-441c-a393-24464f971e2e","ios":"levelo://app?vid=88e5708d-98f2-441c-a393-24464f971e2e"},"vehicle_type_id":"4","last_reported":1699563973,"current_range_meters":27600,"station_id":"ce4bhah2rcd13ifvqei0","pricing_plan_id":"free"},{"bike_id":"c539c721-2693-430d-a283-c72fe05cbeee","system_id":"levelo_inurba_marseille","lat":43.284534,"lon":5.358662,"is_reserved":false,"is_disabled":false,"rental_uris":{"android":"levelo://app?vid=c539c721-2693-430d-a283-c72fe05cbeee","ios":"levelo://app?vid=c539c721-2693-430d-a283-c72fe05cbeee"},"vehicle_type_id":"4","last_reported":1699563973,"current_range_meters":31200,"station_id":"ce4bhah2rcd13ifvqei0","pricing_plan_id":"free"},{"bike_id":"4c499fea-2daf-4f8b-bd1d-ffb84d443b22","system_id":"levelo_inurba_marseille","lat":43.28447,"lon":5.35902,"is_reserved":false,"is_disabled":false,"rental_uris":{"android":"levelo://app?vid=4c499fea-2daf-4f8b-bd1d-ffb84d443b22","ios":"levelo://app?vid=4c499fea-2daf-4f8b-bd1d-ffb84d443b22"},"vehicle_type_id":"4","last_reported":1699563973,"current_range_meters":10000,"station_id":"ce4bhah2rcd13ifvqei0","pricing_plan_id":"free"},{"bike_id":"e3aee071-0e64-4b00-8cd9-f1b2cb598e41","system_id":"levelo_inurba_marseille","lat":43.283998,"lon":5.375062,"is_reserved":false,"is_disabled":false,"rental_uris":{"android":"levelo://app?vid=e3aee071-0e64-4b00-8cd9-f1b2cb598e41","ios":"levelo://app?vid=e3aee071-0e64-4b00-8cd9-f1b2cb598e41"},"vehicle_type_id":"4","last_reported":1699563973,"current_range_meters":10800,"station_id":"ce4bh412rcd13ifvqds0","pricing_plan_id":"free"},{"bike_id":"64888399-fcd3-4101-a599-042a21a689c6","system_id":"levelo_inurba_marseille","lat":43.294314,"lon":5.397498,"is_reserved":false,"is_disabled":false,"rental_uris":{"android":"levelo://app?vid=64888399-fcd3-4101-a599-042a21a689c6","ios":"levelo://app?vid=64888399-fcd3-4101-a599-042a21a689c6"},"vehicle_type_id":"4","last_reported":1699563973,"current_range_meters":22400,"station_id":"ce4bh3h2rcd13ifvqdo0","pricing_plan_id":"free"},{"bike_id":"a239656f-1c8f-41ba-991e-82d309849438","system_id":"levelo_inurba_marseille","lat":43.283998,"lon":5.375062,"is_reserved":false,"is_disabled":false,"rental_uris":{"android":"levelo://app?vid=a239656f-1c8f-41ba-991e-82d309849438","ios":"levelo://app?vid=a239656f-1c8f-41ba-991e-82d309849438"},"vehicle_type_id":"4","last_reported":1699563973,"current_range_meters":6000,"station_id":"ce4bh412rcd13ifvqds0","pricing_plan_id":"free"},{"bike_id":"bab84986-a1d4-45d3-a550-8f1a06657da6","system_id":"levelo_inurba_marseille","lat":43.286157,"lon":5.351108,"is_reserved":false,"is_disabled":false,"rental_uris":{"android":"levelo://app?vid=bab84986-a1d4-45d3-a550-8f1a06657da6","ios":"levelo://app?vid=bab84986-a1d4-45d3-a550-8f1a06657da6"},"vehicle_type_id":"4","last_reported":1699563973,"current_range_meters":29600,"station_id":"ce4bhch2rcd13ifvqeug","pricing_plan_id":"free"},{"bike_id":"b1edef45-8ab2-47b2-a136-093606cf05f7","system_id":"levelo_inurba_marseille","lat":43.286148,"lon":5.351055,"is_reserved":false,"is_disabled":false,"rental_uris":{"android":"levelo://app?vid=b1edef45-8ab2-47b2-a136-093606cf05f7","ios":"levelo://app?vid=b1edef45-8ab2-47b2-a136-093606cf05f7"},"vehicle_type_id":"4","last_reported":1699563973,"current_range_meters":9200,"station_id":"ce4bhch2rcd13ifvqeug","pricing_plan_id":"free"},{"bike_id":"72b13af0-7009-4401-81fe-f49826c73d7a","system_id":"levelo_inurba_marseille","lat":43.28434,"lon":5.37514,"is_reserved":false,"is_disabled":false,"rental_uris":{"android":"levelo://app?vid=72b13af0-7009-4401-81fe-f49826c73d7a","ios":"levelo://app?vid=72b13af0-7009-4401-81fe-f49826c73d7a"},"vehicle_type_id":"4","last_reported":1699563973,"current_range_meters":10000,"station_id":"ce4bh412rcd13ifvqds0","pricing_plan_id":"free"},{"bike_id":"b3decd37-6579-4af5-8ca5-52f7d1a56cae","system_id":"levelo_inurba_marseille","lat":43.283998,"lon":5.375062,"is_reserved":false,"is_disabled":false,"rental_uris":{"android":"levelo://app?vid=b3decd37-6579-4af5-8ca5-52f7d1a56cae","ios":"levelo://app?vid=b3decd37-6579-4af5-8ca5-52f7d1a56cae"},"vehicle_type_id":"4","last_reported":1699563973,"current_range_meters":28000,"station_id":"ce4bh412rcd13ifvqds0","pricing_plan_id":"free"},{"bike_id":"312c69da-9a01-4f47-a7a9-0d656e5444e1","system_id":"levelo_inurba_marseille","lat":43.283998,"lon":5.375062,"is_reserved":false,"is_disabled":false,"rental_uris":{"android":"levelo://app?vid=312c69da-9a01-4f47-a7a9-0d656e5444e1","ios":"levelo://app?vid=312c69da-9a01-4f47-a7a9-0d656e5444e1"},"vehicle_type_id":"4","last_reported":1699563973,"current_range_meters":19600,"station_id":"ce4bh412rcd13ifvqds0","pricing_plan_id":"free"},{"bike_id":"699b8fcc-588b-485c-80ce-4f75419cfea7","system_id":"levelo_inurba_marseille","lat":43.286039,"lon":5.370681,"is_reserved":false,"is_disabled":false,"rental_uris":{"android":"levelo://app?vid=699b8fcc-588b-485c-80ce-4f75419cfea7","ios":"levelo://app?vid=699b8fcc-588b-485c-80ce-4f75419cfea7"},"vehicle_type_id":"4","last_reported":1699563973,"current_range_meters":16800,"station_id":"ce4bht12rcd13ifvqi60","pricing_plan_id":"free"},{"bike_id":"030625bd-f8ba-4389-9944-df2973894a22","system_id":"levelo_inurba_marseille","lat":43.325746,"lon":5.404204,"is_reserved":false,"is_disabled":false,"rental_uris":{"android":"levelo://app?vid=030625bd-f8ba-4389-9944-df2973894a22","ios":"levelo://app?vid=030625bd-f8ba-4389-9944-df2973894a22"},"vehicle_type_id":"4","last_reported":1699563973,"current_range_meters":8000,"station_id":"","pricing_plan_id":"free"},{"bike_id":"c62a31fe-26d8-480d-83d1-44db580000e3","system_id":"levelo_inurba_marseille","lat":43.323464,"lon":5.406297,"is_reserved":false,"is_disabled":false,"rental_uris":{"android":"levelo://app?vid=c62a31fe-26d8-480d-83d1-44db580000e3","ios":"levelo://app?vid=c62a31fe-26d8-480d-83d1-44db580000e3"},"vehicle_type_id":"4","last_reported":1699563973,"current_range_meters":30800,"station_id":"ce4bhq92rcd13ifvqhjg","pricing_plan_id":"free"},{"bike_id":"ce029730-ee5f-4c96-9382-7c5a4cc3b040","system_id":"levelo_inurba_marseille","lat":43.323464,"lon":5.406297,"is_reserved":false,"is_disabled":false,"rental_uris":{"android":"levelo://app?vid=ce029730-ee5f-4c96-9382-7c5a4cc3b040","ios":"levelo://app?vid=ce029730-ee5f-4c96-9382-7c5a4cc3b040"},"vehicle_type_id":"4","last_reported":1699563973,"current_range_meters":14800,"station_id":"ce4bhq92rcd13ifvqhjg","pricing_plan_id":"free"},{"bike_id":"3fd447c9-bd02-4aa2-8b14-301ac9885ead","system_id":"levelo_inurba_marseille","lat":43.323464,"lon":5.406297,"is_reserved":false,"is_disabled":false,"rental_uris":{"android":"levelo://app?vid=3fd447c9-bd02-4aa2-8b14-301ac9885ead","ios":"levelo://app?vid=3fd447c9-bd02-4aa2-8b14-301ac9885ead"},"vehicle_type_id":"4","last_reported":1699563973,"current_range_meters":27200,"station_id":"ce4bhq92rcd13ifvqhjg","pricing_plan_id":"free"},{"bike_id":"dbb54b04-f3de-498f-98dd-24d296abb3e1","system_id":"levelo_inurba_marseille","lat":43.28353,"lon":5.381,"is_reserved":false,"is_disabled":false,"rental_uris":{"android":"levelo://app?vid=dbb54b04-f3de-498f-98dd-24d296abb3e1","ios":"levelo://app?vid=dbb54b04-f3de-498f-98dd-24d296abb3e1"},"vehicle_type_id":"4","last_reported":1699563973,"current_range_meters":5200,"station_id":"ce4bh412rcd13ifvqdr0","pricing_plan_id":"free"},{"bike_id":"8cc4dfd8-510c-4c35-8260-81f7accf41d2","system_id":"levelo_inurba_marseille","lat":43.283494,"lon":5.380945,"is_reserved":false,"is_disabled":false,"rental_uris":{"android":"levelo://app?vid=8cc4dfd8-510c-4c35-8260-81f7accf41d2","ios":"levelo://app?vid=8cc4dfd8-510c-4c35-8260-81f7accf41d2"},"vehicle_type_id":"4","last_reported":1699563973,"current_range_meters":22800,"station_id":"ce4bh412rcd13ifvqdr0","pricing_plan_id":"free"},{"bike_id":"47997ac3-886a-45b1-a379-0e4efbf5bf7c","system_id":"levelo_inurba_marseille","lat":43.283498,"lon":5.380948,"is_reserved":false,"is_disabled":false,"rental_uris":{"android":"levelo://app?vid=47997ac3-886a-45b1-a379-0e4efbf5bf7c","ios":"levelo://app?vid=47997ac3-886a-45b1-a379-0e4efbf5bf7c"},"vehicle_type_id":"4","last_reported":1699563973,"current_range_meters":15600,"station_id":"ce4bh412rcd13ifvqdr0","pricing_plan_id":"free"},{"bike_id":"694cc18d-6823-481a-9d09-67d990c2d197","system_id":"levelo_inurba_marseille","lat":43.324289,"lon":5.407562,"is_reserved":false,"is_disabled":false,"rental_uris":{"android":"levelo://app?vid=694cc18d-6823-481a-9d09-67d990c2d197","ios":"levelo://app?vid=694cc18d-6823-481a-9d09-67d990c2d197"},"vehicle_type_id":"4","last_reported":1699563973,"current_range_meters":4800,"station_id":"","pricing_plan_id":"free"},{"bike_id":"45256814-4e7f-4b0d-851c-400bedbf64a1","system_id":"levelo_inurba_marseille","lat":43.292724,"lon":5.401131,"is_reserved":false,"is_disabled":false,"rental_uris":{"android":"levelo://app?vid=45256814-4e7f-4b0d-851c-400bedbf64a1","ios":"levelo://app?vid=45256814-4e7f-4b0d-851c-400bedbf64a1"},"vehicle_type_id":"4","last_reported":1699563973,"current_range_meters":18400,"station_id":"ce4bh312rcd13ifvqdk0","pricing_plan_id":"free"},{"bike_id":"d0f297d7-af59-4dd4-a41b-4a965c9f1327","system_id":"levelo_inurba_marseille","lat":43.282754,"lon":5.350519,"is_reserved":false,"is_disabled":false,"rental_uris":{"android":"levelo://app?vid=d0f297d7-af59-4dd4-a41b-4a965c9f1327","ios":"levelo://app?vid=d0f297d7-af59-4dd4-a41b-4a965c9f1327"},"vehicle_type_id":"4","last_reported":1699563973,"current_range_meters":6400,"station_id":"ce4bhbp2rcd13ifvqerg","pricing_plan_id":"free"},{"bike_id":"d05fba94-0970-4729-8ef6-872d76f22a95","system_id":"levelo_inurba_marseille","lat":43.283502,"lon":5.386471,"is_reserved":false,"is_disabled":false,"rental_uris":{"android":"levelo://app?vid=d05fba94-0970-4729-8ef6-872d76f22a95","ios":"levelo://app?vid=d05fba94-0970-4729-8ef6-872d76f22a95"},"vehicle_type_id":"4","last_reported":1699563973,"current_range_meters":15200,"station_id":"ce4bh492rcd13ifvqdvg","pricing_plan_id":"free"},{"bike_id":"3ac7f5dd-7040-4e06-aea3-d284b94f90c3","system_id":"levelo_inurba_marseille","lat":43.28372,"lon":5.38632,"is_reserved":false,"is_disabled":false,"rental_uris":{"android":"levelo://app?vid=3ac7f5dd-7040-4e06-aea3-d284b94f90c3","ios":"levelo://app?vid=3ac7f5dd-7040-4e06-aea3-d284b94f90c3"},"vehicle_type_id":"4","last_reported":1699563973,"current_range_meters":11200,"station_id":"ce4bh492rcd13ifvqdvg","pricing_plan_id":"free"},{"bike_id":"10647cea-ded0-4f4c-9830-7a18fa86278a","system_id":"levelo_inurba_marseille","lat":43.282744,"lon":5.350533,"is_reserved":false,"is_disabled":false,"rental_uris":{"android":"levelo://app?vid=10647cea-ded0-4f4c-9830-7a18fa86278a","ios":"levelo://app?vid=10647cea-ded0-4f4c-9830-7a18fa86278a"},"vehicle_type_id":"4","last_reported":1699563973,"current_range_meters":29600,"station_id":"ce4bhbp2rcd13ifvqerg","pricing_plan_id":"free"},{"bike_id":"a4e16195-9fe8-49b5-a5ac-914ee79a665b","system_id":"levelo_inurba_marseille","lat":43.28039,"lon":5.369297,"is_reserved":false,"is_disabled":false,"rental_uris":{"android":"levelo://app?vid=a4e16195-9fe8-49b5-a5ac-914ee79a665b","ios":"levelo://app?vid=a4e16195-9fe8-49b5-a5ac-914ee79a665b"},"vehicle_type_id":"4","last_reported":1699563973,"current_range_meters":27600,"station_id":"ce4bha12rcd13ifvqef0","pricing_plan_id":"free"},{"bike_id":"aae14c09-5199-434b-aa08-47f414b5fcd2","system_id":"levelo_inurba_marseille","lat":43.282754,"lon":5.350519,"is_reserved":false,"is_disabled":false,"rental_uris":{"android":"levelo://app?vid=aae14c09-5199-434b-aa08-47f414b5fcd2","ios":"levelo://app?vid=aae14c09-5199-434b-aa08-47f414b5fcd2"},"vehicle_type_id":"4","last_reported":1699563973,"current_range_meters":9600,"station_id":"ce4bhbp2rcd13ifvqerg","pricing_plan_id":"free"},{"bike_id":"127fab5f-d08b-4b84-b2a6-33091f62848b","system_id":"levelo_inurba_marseille","lat":43.28039,"lon":5.369442,"is_reserved":false,"is_disabled":false,"rental_uris":{"android":"levelo://app?vid=127fab5f-d08b-4b84-b2a6-33091f62848b","ios":"levelo://app?vid=127fab5f-d08b-4b84-b2a6-33091f62848b"},"vehicle_type_id":"4","last_reported":1699563973,"current_range_meters":12800,"station_id":"ce4bha12rcd13ifvqef0","pricing_plan_id":"free"},{"bike_id":"04ce808c-21a6-4eaf-b1ab-7d5a42de58c7","system_id":"levelo_inurba_marseille","lat":43.28036,"lon":5.369373,"is_reserved":false,"is_disabled":false,"rental_uris":{"android":"levelo://app?vid=04ce808c-21a6-4eaf-b1ab-7d5a42de58c7","ios":"levelo://app?vid=04ce808c-21a6-4eaf-b1ab-7d5a42de58c7"},"vehicle_type_id":"4","last_reported":1699563973,"current_range_meters":6400,"station_id":"ce4bha12rcd13ifvqef0","pricing_plan_id":"free"},{"bike_id":"6ce14d11-5c0b-40be-8dc1-99e20a1711f6","system_id":"levelo_inurba_marseille","lat":43.28035,"lon":5.36945,"is_reserved":false,"is_disabled":false,"rental_uris":{"android":"levelo://app?vid=6ce14d11-5c0b-40be-8dc1-99e20a1711f6","ios":"levelo://app?vid=6ce14d11-5c0b-40be-8dc1-99e20a1711f6"},"vehicle_type_id":"4","last_reported":1699563973,"current_range_meters":30800,"station_id":"ce4bha12rcd13ifvqef0","pricing_plan_id":"free"},{"bike_id":"3dbbdf5e-a9e4-4094-9a78-0841285a1271","system_id":"levelo_inurba_marseille","lat":43.29041,"lon":5.399634,"is_reserved":false,"is_disabled":false,"rental_uris":{"android":"levelo://app?vid=3dbbdf5e-a9e4-4094-9a78-0841285a1271","ios":"levelo://app?vid=3dbbdf5e-a9e4-4094-9a78-0841285a1271"},"vehicle_type_id":"4","last_reported":1699563973,"current_range_meters":16400,"station_id":"ce4bh392rcd13ifvqdm0","pricing_plan_id":"free"},{"bike_id":"0eca1d00-5069-4a15-98af-d74e4fb5633f","system_id":"levelo_inurba_marseille","lat":43.303625,"lon":5.41015,"is_reserved":false,"is_disabled":false,"rental_uris":{"android":"levelo://app?vid=0eca1d00-5069-4a15-98af-d74e4fb5633f","ios":"levelo://app?vid=0eca1d00-5069-4a15-98af-d74e4fb5633f"},"vehicle_type_id":"4","last_reported":1699563973,"current_range_meters":21200,"station_id":"","pricing_plan_id":"free"},{"bike_id":"c5269fde-c094-4163-a2ac-a6350e774e3c","system_id":"levelo_inurba_marseille","lat":43.323447,"lon":5.41003,"is_reserved":false,"is_disabled":false,"rental_uris":{"android":"levelo://app?vid=c5269fde-c094-4163-a2ac-a6350e774e3c","ios":"levelo://app?vid=c5269fde-c094-4163-a2ac-a6350e774e3c"},"vehicle_type_id":"4","last_reported":1699563973,"current_range_meters":12000,"station_id":"","pricing_plan_id":"free"},{"bike_id":"153ace0d-7f87-40f8-b13c-39796d554881","system_id":"levelo_inurba_marseille","lat":43.286961,"lon":5.373785,"is_reserved":false,"is_disabled":false,"rental_uris":{"android":"levelo://app?vid=153ace0d-7f87-40f8-b13c-39796d554881","ios":"levelo://app?vid=153ace0d-7f87-40f8-b13c-39796d554881"},"vehicle_type_id":"4","last_reported":1699563973,"current_range_meters":16400,"station_id":"ce4bh3p2rcd13ifvqdq0","pricing_plan_id":"free"},{"bike_id":"071e3f39-35a8-4b56-8827-68bd306436e5","system_id":"levelo_inurba_marseille","lat":43.284462,"lon":5.392121,"is_reserved":false,"is_disabled":false,"rental_uris":{"android":"levelo://app?vid=071e3f39-35a8-4b56-8827-68bd306436e5","ios":"levelo://app?vid=071e3f39-35a8-4b56-8827-68bd306436e5"},"vehicle_type_id":"4","last_reported":1699563973,"current_range_meters":20400,"station_id":"ce4bhoh2rcd13ifvqh5g","pricing_plan_id":"free"},