{"last_updated":1739106684,"ttl":60,"version":"2.2","data":{"bikes":[{"bike_id":"8bf9c0d5-b42b-43f3-ac16-58c6303bc32c","system_id":"levelo_inurba_marseille","lat":43.27065,"lon":5.42274,"is_reserved":false,"is_disabled":false,"rental_uris":{"android":"levelo://app?vid=8bf9c0d5-b42b-43f3-ac16-58c6303bc32c","ios":"levelo://app?vid=8bf9c0d5-b42b-43f3-ac16-58c6303bc32c"},"vehicle_type_id":"4","last_reported":1739106684,"current_range_meters":16400,"station_id":"ce4bhk92rcd13ifvqgb0","pricing_plan_id":"cebpf4jnsgd1na2vs0mg"},{"bike_id":"24e6347d-30fc-429d-a054-000bdfd80c76","system_id":"levelo_inurba_marseille","lat":43.28286,"lon":5.35059,"is_reserved":false,"is_disabled":false,"rental_uris":{"android":"levelo://app?vid=24e6347d-30fc-429d-a054-000bdfd80c76","ios":"levelo://app?vid=24e6347d-30fc-429d-a054-000bdfd80c76"},"vehicle_type_id":"4","last_reported":1739106684,"current_range_meters":35600,"station_id":"ce4bhbp2rcd13ifvqerg","pricing_plan_id":"cebpf4jnsgd1na2vs0mg"},{"bike_id":"05eb7be6-9d96-421b-af71-eddbdb0da360","system_id":"levelo_inurba_marseille","lat":43.30658,"lon":5.40093,"is_reserved":false,"is_disabled":true,"rental_uris":{"android":"levelo://app?vid=05eb7be6-9d96-421b-af71-eddbdb0da360","ios":"levelo://app?vid=05eb7be6-9d96-421b-af71-eddbdb0da360"},"vehicle_type_id":"4","last_reported":1739106684,"current_range_meters":0,"station_id":"ce4bh112rcd13ifvqda0","pricing_plan_id":"cebpf4jnsgd1na2vs0mg"},{"bike_id":"cfa7f1cc-5150-48ed-843c-f6960ddad1e1","system_id":"levelo_inurba_marseille","lat":43.26495,"lon":5.39549,"is_reserved":false,"is_disabled":true,"rental_uris":{"android":"levelo://app?vid=cfa7f1cc-5150-48ed-843c-f6960ddad1e1","ios":"levelo://app?vid=cfa7f1cc-5150-48ed-843c-f6960ddad1e1"},"vehicle_type_id":"4","last_reported":1739106684,"current_range_meters":9200,"station_id":"ce4bhi12rcd13ifvqfq0","pricing_plan_id":"cebpf4jnsgd1na2vs0mg"},{"bike_id":"fb0e234e-108f-4e2d-9520-e41bff530764","system_id":"levelo_inurba_marseille","lat":43.2466,"lon":5.38166,"is_reserved":false,"is_disabled":false,"rental_uris":{"android":"levelo://app?vid=fb0e234e-108f-4e2d-9520-e41bff530764","ios":"levelo://app?vid=fb0e234e-108f-4e2d-9520-e41bff530764"},"vehicle_type_id":"4","last_reported":1739106684,"current_range_meters":31200,"station_id":"ce4bhih2rcd13ifvqfr0","pricing_plan_id":"cebpf4jnsgd1na2vs0mg"},{"bike_id":"e06bad01-5d50-47d2-96c7-a75ef9dc120d","system_id":"levelo_inurba_marseille","lat":43.33763,"lon":5.37454,"is_reserved":false,"is_disabled":false,"rental_uris":{"android":"levelo://app?vid=e06bad01-5d50-47d2-96c7-a75ef9dc120d","ios":"levelo://app?vid=e06bad01-5d50-47d2-96c7-a75ef9dc120d"},"vehicle_type_id":"4","last_reported":1739106684,"current_range_meters":20400,"station_id":"","pricing_plan_id":"cebpf4jnsgd1na2vs0mg"},{"bike_id":"776aadf6-ee97-4be7-b948-331af9e9d054","system_id":"levelo_inurba_marseille","lat":43.254976,"lon":5.376774,"is_reserved":false,"is_disabled":false,"rental_uris":{"android":"levelo://app?vid=776aadf6-ee97-4be7-b948-331af9e9d054","ios":"levelo://app?vid=776aadf6-ee97-4be7-b948-331af9e9d054"},"vehicle_type_id":"4","last_reported":1739106684,"current_range_meters":16000,"station_id":"ce4bhh12rcd13ifvqff0","pricing_plan_id":"cebpf4jnsgd1na2vs0mg"},{"bike_id":"6fa26a38-fc10-4157-8953-a025d4eac4bf","system_id":"levelo_inurba_marseille","lat":43.3302,"lon":5.39042,"is_reserved":false,"is_disabled":false,"rental_uris":{"android":"levelo://app?vid=6fa26a38-fc10-4157-8953-a025d4eac4bf","ios":"levelo://app?vid=6fa26a38-fc10-4157-8953-a025d4eac4bf"},"vehicle_type_id":"4","last_reported":1739106684,"current_range_meters":38800,"station_id":"ce4bhr92rcd13ifvqhrg","pricing_plan_id":"cebpf4jnsgd1na2vs0mg"},{"bike_id":"9fea41fc-8f0f-48ab-9af0-fa75d6ad7f05","system_id":"levelo_inurba_marseille","lat":43.29719,"lon":5.3672,"is_reserved":false,"is_disabled":false,"rental_uris":{"android":"levelo://app?vid=9fea41fc-8f0f-48ab-9af0-fa75d6ad7f05","ios":"levelo://app?vid=9fea41fc-8f0f-48ab-9af0-fa75d6ad7f05"},"vehicle_type_id":"4","last_reported":1739106684,"current_range_meters":38000,"station_id":"","pricing_plan_id":"cebpf4jnsgd1na2vs0mg"},{"bike_id":"952ab6ee-c71f-431a-a116-28c771dc3a24","system_id":"levelo_inurba_marseille","lat":43.28002,"lon":5.40922,"is_reserved":false,"is_disabled":true,"rental_uris":{"android":"levelo://app?vid=952ab6ee-c71f-431a-a116-28c771dc3a24","ios":"levelo://app?vid=952ab6ee-c71f-431a-a116-28c771dc3a24"},"vehicle_type_id":"4","last_reported":1739106684,"current_range_meters":0,"station_id":"ce4bhnp2rcd13ifvqh0g","pricing_plan_id":"cebpf4jnsgd1na2vs0mg"},{"bike_id":"3b9a51eb-9d09-4e1e-b7ee-f5e8dd0b0f5c","system_id":"levelo_inurba_marseille","lat":43.29581,"lon":5.37507,"is_reserved":false,"is_disabled":false,"rental_uris":{"android":"levelo://app?vid=3b9a51eb-9d09-4e1e-b7ee-f5e8dd0b0f5c","ios":"levelo://app?vid=3b9a51eb-9d09-4e1e-b7ee-f5e8dd0b0f5c"},"vehicle_type_id":"4","last_reported":1739106684,"current_range_meters":24800,"station_id":"ce4bgh92rcd13ifvqb50","pricing_plan_id":"cebpf4jnsgd1na2vs0mg"},{"bike_id":"65f72f39-28b2-4ecf-9611-e269bdba0218","system_id":"levelo_inurba_marseille","lat":43.29875,"lon":5.3891,"is_reserved":false,"is_disabled":false,"rental_uris":{"android":"levelo://app?vid=65f72f39-28b2-4ecf-9611-e269bdba0218","ios":"levelo://app?vid=65f72f39-28b2-4ecf-9611-e269bdba0218"},"vehicle_type_id":"4","last_reported":1739106684,"current_range_meters":6000,"station_id":"ce4bh392rcd13ifvqdl0","pricing_plan_id":"cebpf4jnsgd1na2vs0mg"},{"bike_id":"775acb38-5b67-40a7-8531-66c2f856ba4d","system_id":"levelo_inurba_marseille","lat":43.30177,"lon":5.38088,"is_reserved":false,"is_disabled":false,"rental_uris":{"android":"levelo://app?vid=775acb38-5b67-40a7-8531-66c2f856ba4d","ios":"levelo://app?vid=775acb38-5b67-40a7-8531-66c2f856ba4d"},"vehicle_type_id":"4","last_reported":1739106684,"current_range_meters":38800,"station_id":"ce4bgjp2rcd13ifvqbh0","pricing_plan_id":"cebpf4jnsgd1na2vs0mg"},{"bike_id":"1363bcc9-ac62-46aa-9a9a-4d66160c03ac","system_id":"levelo_inurba_marseille","lat":43.273184,"lon":5.390989,"is_reserved":false,"is_disabled":false,"rental_uris":{"android":"levelo://app?vid=1363bcc9-ac62-46aa-9a9a-4d66160c03ac","ios":"levelo://app?vid=1363bcc9-ac62-46aa-9a9a-4d66160c03ac"},"vehicle_type_id":"4","last_reported":1739106684,"current_range_meters":16800,"station_id":"ce4bhgp2rcd13ifvqfe0","pricing_plan_id":"cebpf4jnsgd1na2vs0mg"},{"bike_id":"d696575c-e789-4788-9762-51f581d91421","system_id":"levelo_inurba_marseille","lat":43.30888,"lon":5.39648,"is_reserved":false,"is_disabled":false,"rental_uris":{"android":"levelo://app?vid=d696575c-e789-4788-9762-51f581d91421","ios":"levelo://app?vid=d696575c-e789-4788-9762-51f581d91421"},"vehicle_type_id":"4","last_reported":1739106684,"current_range_meters":36800,"station_id":"ce4bh012rcd13ifvqcv0","pricing_plan_id":"cebpf4jnsgd1na2vs0mg"},{"bike_id":"36e53cc6-0052-4492-bb77-b33fe90983d1","system_id":"levelo_inurba_marseille","lat":43.28625,"lon":5.35109,"is_reserved":false,"is_disabled":false,"rental_uris":{"android":"levelo://app?vid=36e53cc6-0052-4492-bb77-b33fe90983d1","ios":"levelo://app?vid=36e53cc6-0052-4492-bb77-b33fe90983d1"},"vehicle_type_id":"4","last_reported":1739106684,"current_range_meters":30000,"station_id":"ce4bhch2rcd13ifvqeug","pricing_plan_id":"cebpf4jnsgd1na2vs0mg"},{"bike_id":"b1aee307-69da-426e-b1be-3716851e3284","system_id":"levelo_inurba_marseille","lat":43.29595,"lon":5.37725,"is_reserved":false,"is_disabled":false,"rental_uris":{"android":"levelo://app?vid=b1aee307-69da-426e-b1be-3716851e3284","ios":"levelo://app?vid=b1aee307-69da-426e-b1be-3716851e3284"},"vehicle_type_id":"4","last_reported":1739106684,"current_range_meters":25200,"station_id":"ce4bgi92rcd13ifvqb90","pricing_plan_id":"cebpf4jnsgd1na2vs0mg"},{"bike_id":"949ecb89-56e4-4c04-a100-83de2f0eaaf9","system_id":"levelo_inurba_marseille","lat":43.27814,"lon":5.40704,"is_reserved":false,"is_disabled":false,"rental_uris":{"android":"levelo://app?vid=949ecb89-56e4-4c04-a100-83de2f0eaaf9","ios":"levelo://app?vid=949ecb89-56e4-4c04-a100-83de2f0eaaf9"},"vehicle_type_id":"4","last_reported":1739106684,"current_range_meters":24800,"station_id":"ce4bhnh2rcd13ifvqgtg","pricing_plan_id":"cebpf4jnsgd1na2vs0mg"},{"bike_id":"9d897177-23f8-4ec6-9c3d-62210334eb7b","system_id":"levelo_inurba_marseille","lat":43.28418,"lon":5.3752,"is_reserved":false,"is_disabled":false,"rental_uris":{"android":"levelo://app?vid=9d897177-23f8-4ec6-9c3d-62210334eb7b","ios":"levelo://app?vid=9d897177-23f8-4ec6-9c3d-62210334eb7b"},"vehicle_type_id":"4","last_reported":1739106684,"current_range_meters":25600,"station_id":"ce4bh412rcd13ifvqds0","pricing_plan_id":"cebpf4jnsgd1na2vs0mg"},{"bike_id":"f3d79bbb-3f95-477c-9c9b-88c1b756415c","system_id":"levelo_inurba_marseille","lat":43.27071,"lon":5.42285,"is_reserved":false,"is_disabled":false,"rental_uris":{"android":"levelo://app?vid=f3d79bbb-3f95-477c-9c9b-88c1b756415c","ios":"levelo://app?vid=f3d79bbb-3f95-477c-9c9b-88c1b756415c"},"vehicle_type_id":"4","last_reported":1739106684,"current_range_meters":16000,"station_id":"ce4bhk92rcd13ifvqgb0","pricing_plan_id":"cebpf4jnsgd1na2vs0mg"},{"bike_id":"8ec06531-f19f-4d99-a1a4-6dcbffd70e75","system_id":"levelo_inurba_marseille","lat":43.27564,"lon":5.38418,"is_reserved":false,"is_disabled":false,"rental_uris":{"android":"levelo://app?vid=8ec06531-f19f-4d99-a1a4-6dcbffd70e75","ios":"levelo://app?vid=8ec06531-f19f-4d99-a1a4-6dcbffd70e75"},"vehicle_type_id":"4","last_reported":1739106684,"current_range_meters":31200,"station_id":"ce4bhh92rcd13ifvqfi0","pricing_plan_id":"cebpf4jnsgd1na2vs0mg"},{"bike_id":"1df3b2d9-6537-45bf-b0c1-025079a871b3","system_id":"levelo_inurba_marseille","lat":43.31485,"lon":5.37306,"is_reserved":false,"is_disabled":false,"rental_uris":{"android":"levelo://app?vid=1df3b2d9-6537-45bf-b0c1-025079a871b3","ios":"levelo://app?vid=1df3b2d9-6537-45bf-b0c1-025079a871b3"},"vehicle_type_id":"4","last_reported":1739106684,"current_range_meters":7200,"station_id":"ce4bgt12rcd13ifvqcd0","pricing_plan_id":"cebpf4jnsgd1na2vs0mg"},{"bike_id":"cc5be222-f5b9-4564-8357-792e36ef3901","system_id":"levelo_inurba_marseille","lat":43.28059,"lon":5.36948,"is_reserved":false,"is_disabled":false,"rental_uris":{"android":"levelo://app?vid=cc5be222-f5b9-4564-8357-792e36ef3901","ios":"levelo://app?vid=cc5be222-f5b9-4564-8357-792e36ef3901"},"vehicle_type_id":"4","last_reported":1739106684,"current_range_meters":38800,"station_id":"ce4bha12rcd13ifvqef0","pricing_plan_id":"cebpf4jnsgd1na2vs0mg"},{"bike_id":"bf1166a6-6d02-4b59-a461-8ee8d9697ddf","system_id":"levelo_inurba_marseille","lat":43.23963,"lon":5.36639,"is_reserved":false,"is_disabled":false,"rental_uris":{"android":"levelo://app?vid=bf1166a6-6d02-4b59-a461-8ee8d9697ddf","ios":"levelo://app?vid=bf1166a6-6d02-4b59-a461-8ee8d9697ddf"},"vehicle_type_id":"4","last_reported":1739106684,"current_range_meters":8800,"station_id":"ce4bhi12rcd13ifvqfp0","pricing_plan_id":"cebpf4jnsgd1na2vs0mg"},{"bike_id":"84632040-162e-400f-b949-c724d6e1e087","system_id":"levelo_inurba_marseille","lat":43.26221,"lon":5.37438,"is_reserved":false,"is_disabled":false,"rental_uris":{"android":"levelo://app?vid=84632040-162e-400f-b949-c724d6e1e087","ios":"levelo://app?vid=84632040-162e-400f-b949-c724d6e1e087"},"vehicle_type_id":"4","last_reported":1739106684,"current_range_meters":26800,"station_id":"ce4bhgp2rcd13ifvqfc0","pricing_plan_id":"cebpf4jnsgd1na2vs0mg"},{"bike_id":"0863691f-945d-4989-90a5-f43ee2d9ae8a","system_id":"levelo_inurba_marseille","lat":43.24804,"lon":5.37452,"is_reserved":false,"is_disabled":false,"rental_uris":{"android":"levelo://app?vid=0863691f-945d-4989-90a5-f43ee2d9ae8a","ios":"levelo://app?vid=0863691f-945d-4989-90a5-f43ee2d9ae8a"},"vehicle_type_id":"4","last_reported":1739106684,"current_range_meters":22000,"station_id":"ce4bhgh2rcd13ifvqfb0","pricing_plan_id":"cebpf4jnsgd1na2vs0mg"},{"bike_id":"c7214087-f338-4aa0-87d4-4c782ee32a35","system_id":"levelo_inurba_marseille","lat":43.23963,"lon":5.36634,"is_reserved":false,"is_disabled":false,"rental_uris":{"android":"levelo://app?vid=c7214087-f338-4aa0-87d4-4c782ee32a35","ios":"levelo://app?vid=c7214087-f338-4aa0-87d4-4c782ee32a35"},"vehicle_type_id":"4","last_reported":1739106684,"current_range_meters":12000,"station_id":"ce4bhi12rcd13ifvqfp0","pricing_plan_id":"cebpf4jnsgd1na2vs0mg"},{"bike_id":"9232cd87-0823-43a9-b923-e060fb0c5759","system_id":"levelo_inurba_marseille","lat":43.29554,"lon":5.42277,"is_reserved":false,"is_disabled":false,"rental_uris":{"android":"levelo://app?vid=9232cd87-0823-43a9-b923-e060fb0c5759","ios":"levelo://app?vid=9232cd87-0823-43a9-b923-e060fb0c5759"},"vehicle_type_id":"4","last_reported":1739106684,"current_range_meters":38000,"station_id":"ce4bhph2rcd13ifvqhdg","pricing_plan_id":"cebpf4jnsgd1na2vs0mg"},{"bike_id":"d4487369-0195-444c-afeb-c4fba3a9e41f","system_id":"levelo_inurba_marseille","lat":43.23968,"lon":5.3665,"is_reserved":false,"is_disabled":false,"rental_uris":{"android":"levelo://app?vid=d4487369-0195-444c-afeb-c4fba3a9e41f","ios":"levelo://app?vid=d4487369-0195-444c-afeb-c4fba3a9e41f"},"vehicle_type_id":"4","last_reported":1739106684,"current_range_meters":10000,"station_id":"ce4bhi12rcd13ifvqfp0","pricing_plan_id":"cebpf4jnsgd1na2vs0mg"},{"bike_id":"1b91739e-6bd2-4273-8c8f-c0534d5b551b","system_id":"levelo_inurba_marseille","lat":43.23962,"lon":5.36644,"is_reserved":false,"is_disabled":false,"rental_uris":{"android":"levelo://app?vid=1b91739e-6bd2-4273-8c8f-c0534d5b551b","ios":"levelo://app?vid=1b91739e-6bd2-4273-8c8f-c0534d5b551b"},"vehicle_type_id":"4","last_reported":1739106684,"current_range_meters":29600,"station_id":"ce4bhi12rcd13ifvqfp0","pricing_plan_id":"cebpf4jnsgd1na2vs0mg"},{"bike_id":"8055405a-4747-4bdd-94d4-2b5afab82475","system_id":"levelo_inurba_marseille","lat":43.28104,"lon":5.37859,"is_reserved":false,"is_disabled":false,"rental_uris":{"android":"levelo://app?vid=8055405a-4747-4bdd-94d4-2b5afab82475","ios":"levelo://app?vid=8055405a-4747-4bdd-94d4-2b5afab82475"},"vehicle_type_id":"4","last_reported":1739106684,"current_range_meters":17600,"station_id":"ce4bha12rcd13ifvqee0","pricing_plan_id":"cebpf4jnsgd1na2vs0mg"},{"bike_id":"131a231e-f87b-4a19-b215-3c107c31e242","system_id":"levelo_inurba_marseille","lat":43.27303,"lon":5.39081,"is_reserved":false,"is_disabled":false,"rental_uris":{"android":"levelo://app?vid=131a231e-f87b-4a19-b215-3c107c31e242","ios":"levelo://app?vid=131a231e-f87b-4a19-b215-3c107c31e242"},"vehicle_type_id":"4","last_reported":1739106684,"current_range_meters":26000,"station_id":"ce4bhgp2rcd13ifvqfe0","pricing_plan_id":"cebpf4jnsgd1na2vs0mg"},{"bike_id":"2d6a2e4c-47bb-4bf8-8e22-1e9c987f8b16","system_id":"levelo_inurba_marseille","lat":43.23963,"lon":5.36639,"is_reserved":false,"is_disabled":false,"rental_uris":{"android":"levelo://app?vid=2d6a2e4c-47bb-4bf8-8e22-1e9c987f8b16","ios":"levelo://app?vid=2d6a2e4c-47bb-4bf8-8e22-1e9c987f8b16"},"vehicle_type_id":"4","last_reported":1739106684,"current_range_meters":8000,"station_id":"ce4bhi12rcd13ifvqfp0","pricing_plan_id":"cebpf4jnsgd1na2vs0mg"},{"bike_id":"87c857b0-c325-4c5a-800d-113e661dff03","system_id":"levelo_inurba_marseille","lat":43.30308,"lon":5.39214,"is_reserved":false,"is_disabled":false,"rental_uris":{"android":"levelo://app?vid=87c857b0-c325-4c5a-800d-113e661dff03","ios":"levelo://app?vid=87c857b0-c325-4c5a-800d-113e661dff03"},"vehicle_type_id":"4","last_reported":1739106684,"current_range_meters":22000,"station_id":"ce4bgkh2rcd13ifvqbk0","pricing_plan_id":"cebpf4jnsgd1na2vs0mg"},{"bike_id":"caf26979-fb1e-40fc-9542-2d73cd945194","system_id":"levelo_inurba_marseille","lat":43.29732,"lon":5.36606,"is_reserved":false,"is_disabled":false,"rental_uris":{"android":"levelo://app?vid=caf26979-fb1e-40fc-9542-2d73cd945194","ios":"levelo://app?vid=caf26979-fb1e-40fc-9542-2d73cd945194"},"vehicle_type_id":"4","last_reported":1739106684,"current_range_meters":10000,"station_id":"ce4bgn12rcd13ifvqbt0","pricing_plan_id":"cebpf4jnsgd1na2vs0mg"},{"bike_id":"098d220b-e449-43ea-8d6d-9fc78e0abad9","system_id":"levelo_inurba_marseille","lat":43.22937,"lon":5.35381,"is_reserved":false,"is_disabled":false,"rental_uris":{"android":"levelo://app?vid=098d220b-e449-43ea-8d6d-9fc78e0abad9","ios":"levelo://app?vid=098d220b-e449-43ea-8d6d-9fc78e0abad9"},"vehicle_type_id":"4","last_reported":1739106684,"current_range_meters":38800,"station_id":"cpo3532slgdg3j2ikp40","pricing_plan_id":"cebpf4jnsgd1na2vs0mg"},{"bike_id":"206b044f-638d-4c7a-aa69-bbee71179c84","system_id":"levelo_inurba_marseille","lat":43.29441,"lon":5.37769,"is_reserved":false,"is_disabled":false,"rental_uris":{"android":"levelo://app?vid=206b044f-638d-4c7a-aa69-bbee71179c84","ios":"levelo://app?vid=206b044f-638d-4c7a-aa69-bbee71179c84"},"vehicle_type_id":"4","last_reported":1739106684,"current_range_meters":38000,"station_id":"ce4bgjh2rcd13ifvqbf0","pricing_plan_id":"cebpf4jnsgd1na2vs0mg"},{"bike_id":"611f8c53-6117-4cbd-b8e0-30e3e16819db","system_id":"levelo_inurba_marseille","lat":43.29007,"lon":5.35606,"is_reserved":false,"is_disabled":false,"rental_uris":{"android":"levelo://app?vid=611f8c53-6117-4cbd-b8e0-30e3e16819db","ios":"levelo://app?vid=611f8c53-6117-4cbd-b8e0-30e3e16819db"},"vehicle_type_id":"4","last_reported":1739106684,"current_range_meters":32000,"station_id":"ce4bhb92rcd13ifvqen0","pricing_plan_id":"cebpf4jnsgd1na2vs0mg"},{"bike_id":"6e4211e5-f61d-48a8-9a3a-370ad923a5ac","system_id":"levelo_inurba_marseille","lat":43.25088,"lon":5.39508,"is_reserved":false,"is_disabled":false,"rental_uris":{"android":"levelo://app?vid=6e4211e5-f61d-48a8-9a3a-370ad923a5ac","ios":"levelo://app?vid=6e4211e5-f61d-48a8-9a3a-370ad923a5ac"},"vehicle_type_id":"4","last_reported":1739106684,"current_range_meters":29600,"station_id":"ce4bhm12rcd13ifvqgkg","pricing_plan_id":"cebpf4jnsgd1na2vs0mg"},{"bike_id":"156ea94b-36f5-4ee3-b1b2-16c507ebbc8e","system_id":"levelo_inurba_marseille","lat":43.23967,"lon":5.36627,"is_reserved":false,"is_disabled":false,"rental_uris":{"android":"levelo://app?vid=156ea94b-36f5-4ee3-b1b2-16c507ebbc8e","ios":"levelo://app?vid=156ea94b-36f5-4ee3-b1b2-16c507ebbc8e"},"vehicle_type_id":"4","last_reported":1739106684,"current_range_meters":35200,"station_id":"ce4bhi12rcd13ifvqfp0","pricing_plan_id":"cebpf4jnsgd1na2vs0mg"},{"bike_id":"6c34ab0a-7b79-47af-b689-ddca8ac557ec","system_id":"levelo_inurba_marseille","lat":43.26213,"lon":5.37442,"is_reserved":false,"is_disabled":false,"rental_uris":{"android":"levelo://app?vid=6c34ab0a-7b79-47af-b689-ddca8ac557ec","ios":"levelo://app?vid=6c34ab0a-7b79-47af-b689-ddca8ac557ec"},"vehicle_type_id":"4","last_reported":1739106684,"current_range_meters":35200,"station_id":"ce4bhgp2rcd13ifvqfc0","pricing_plan_id":"cebpf4jnsgd1na2vs0mg"},{"bike_id":"109d8d07-d605-45c4-912d-3e7b38f9a9ae","system_id":"levelo_inurba_marseille","lat":43.24173,"lon":5.36393,"is_reserved":false,"is_disabled":false,"rental_uris":{"android":"levelo://app?vid=109d8d07-d605-45c4-912d-3e7b38f9a9ae","ios":"levelo://app?vid=109d8d07-d605-45c4-912d-3e7b38f9a9ae"},"vehicle_type_id":"4","last_reported":1739106684,"current_range_meters":38800,"station_id":"cpo36qri1sfpv3e86is0","pricing_plan_id":"cebpf4jnsgd1na2vs0mg"},{"bike_id":"25942210-cb49-4e7b-986a-27edd939ad3b","system_id":"levelo_inurba_marseille","lat":43.2901,"lon":5.35622,"is_reserved":false,"is_disabled":false,"rental_uris":{"android":"levelo://app?vid=25942210-cb49-4e7b-986a-27edd939ad3b","ios":"levelo://app?vid=25942210-cb49-4e7b-986a-27edd939ad3b"},"vehicle_type_id":"4","last_reported":1739106684,"current_range_meters":38800,"station_id":"ce4bhb92rcd13ifvqen0","pricing_plan_id":"cebpf4jnsgd1na2vs0mg"},{"bike_id":"2ebd233c-fd15-4f13-9700-c155c053523f","system_id":"levelo_inurba_marseille","lat":43.25849,"lon":5.40977,"is_reserved":false,"is_disabled":true,"rental_uris":{"android":"levelo://app?vid=2ebd233c-fd15-4f13-9700-c155c053523f","ios":"levelo://app?vid=2ebd233c-fd15-4f13-9700-c155c053523f"},"vehicle_type_id":"4","last_reported":1739106684,"current_range_meters":18800,"station_id":"ce4bhm92rcd13ifvqglg","pricing_plan_id":"cebpf4jnsgd1na2vs0mg"},{"bike_id":"b76b80a4-ff95-4c8b-ba39-e983a8872cf2","system_id":"levelo_inurba_marseille","lat":43.30163,"lon":5.38081,"is_reserved":false,"is_disabled":false,"rental_uris":{"android":"levelo://app?vid=b76b80a4-ff95-4c8b-ba39-e983a8872cf2","ios":"levelo://app?vid=b76b80a4-ff95-4c8b-ba39-e983a8872cf2"},"vehicle_type_id":"4","last_reported":1739106684,"current_range_meters":30400,"station_id":"ce4bgjp2rcd13ifvqbh0","pricing_plan_id":"cebpf4jnsgd1na2vs0mg"},{"bike_id":"4d140d23-dc77-4686-8598-5f394d904140","system_id":"levelo_inurba_marseille","lat":43.30794,"lon":5.37651,"is_reserved":false,"is_disabled":false,"rental_uris":{"android":"levelo://app?vid=4d140d23-dc77-4686-8598-5f394d904140","ios":"levelo://app?vid=4d140d23-dc77-4686-8598-5f394d904140"},"vehicle_type_id":"4","last_reported":1739106684,"current_range_meters":3200,"station_id":"ce4bgv92rcd13ifvqcq0","pricing_plan_id":"cebpf4jnsgd1na2vs0mg"},{"bike_id":"1bdbd3ab-5f3e-4f66-a5c4-291022cad55d","system_id":"levelo_inurba_marseille","lat":43.31334,"lon":5.39701,"is_reserved":false,"is_disabled":false,"rental_uris":{"android":"levelo://app?vid=1bdbd3ab-5f3e-4f66-a5c4-291022cad55d","ios":"levelo://app?vid=1bdbd3ab-5f3e-4f66-a5c4-291022cad55d"},"vehicle_type_id":"4","last_reported":1739106684,"current_range_meters":26000,"station_id":"ce4bgvp2rcd13ifvqcu0","pricing_plan_id":"cebpf4jnsgd1na2vs0mg"},{"bike_id":"8fdc9d99-5dd6-46ed-933b-a92898878e61","system_id":"levelo_inurba_marseille","lat":43.28101,"lon":5.37844,"is_reserved":false,"is_disabled":false,"rental_uris":{"android":"levelo://app?vid=8fdc9d99-5dd6-46ed-933b-a92898878e61","ios":"levelo://app?vid=8fdc9d99-5dd6-46ed-933b-a92898878e61"},"vehicle_type_id":"4","last_reported":1739106684,"current_range_meters":38800,"station_id":"ce4bha12rcd13ifvqee0","pricing_plan_id":"cebpf4jnsgd1na2vs0mg"},{"bike_id":"c13ae62e-d5d6-4d3f-b979-0be4fe4644ed","system_id":"levelo_inurba_marseille","lat":43.24669,"lon":5.38171,"is_reserved":false,"is_disabled":false,"rental_uris":{"android":"levelo://app?vid=c13ae62e-d5d6-4d3f-b979-0be4fe4644ed","ios":"levelo://app?vid=c13ae62e-d5d6-4d3f-b979-0be4fe4644ed"},"vehicle_type_id":"4","last_reported":1739106684,"current_range_meters":16000,"station_id":"ce4bhih2rcd13ifvqfr0","pricing_plan_id":"cebpf4jnsgd1na2vs0mg"},{"bike_id":"52903de9-70f0-4e1d-962c-f2dd54b59ea4","system_id":"levelo_inurba_marseille","lat":43.28719,"lon":5.36082,"is_reserved":false,"is_disabled":false,"rental_uris":{"android":"levelo://app?vid=52903de9-70f0-4e1d-962c-f2dd54b59ea4","ios":"levelo://app?vid=52903de9-70f0-4e1d-962c-f2dd54b59ea4"},"vehicle_type_id":"4","last_reported":1739106684,"current_range_meters":28000,"station_id":"cki0cbj6b192h4jlfktg","pricing_plan_id":"cebpf4jnsgd1na2vs0mg"},{"bike_id":"a5a002b6-a257-47c5-aa17-011a49f423c9","system_id":"levelo_inurba_marseille","lat":43.25582,"lon":5.38233,"is_reserved":false,"is_disabled":false,"rental_uris":{"android":"levelo://app?vid=a5a002b6-a257-47c5-aa17-011a49f423c9","ios":"levelo://app?vid=a5a002b6-a257-47c5-aa17-011a49f423c9"},"vehicle_type_id":"4","last_reported":1739106684,"current_range_meters":25600,"station_id":"ce4bhih2rcd13ifvqfs0","pricing_plan_id":"cebpf4jnsgd1na2vs0mg"},{"bike_id":"1d9b9c9d-363a-40b7-904e-bb37859e7849","system_id":"levelo_inurba_marseille","lat":43.2482,"lon":5.3749,"is_reserved":false,"is_disabled":false,"rental_uris":{"android":"levelo://app?vid=1d9b9c9d-363a-40b7-904e-bb37859e7849","ios":"levelo://app?vid=1d9b9c9d-363a-40b7-904e-bb37859e7849"},"vehicle_type_id":"4","last_reported":1739106684,"current_range_meters":24000,"station_id":"ce4bhgh2rcd13ifvqfb0","pricing_plan_id":"cebpf4jnsgd1na2vs0mg"},{"bike_id":"0e21fd9b-c8ed-40f7-93de-fef88c8b1a35","system_id":"levelo_inurba_marseille","lat":43.23065,"lon":5.355,"is_reserved":false,"is_disabled":false,"rental_uris":{"android":"levelo://app?vid=0e21fd9b-c8ed-40f7-93de-fef88c8b1a35","ios":"levelo://app?vid=0e21fd9b-c8ed-40f7-93de-fef88c8b1a35"},"vehicle_type_id":"4","last_reported":1739106684,"current_range_meters":37600,"station_id":"cpo3342slgdg3j2ifvpg","pricing_plan_id":"cebpf4jnsgd1na2vs0mg"},{"bike_id":"21d898ed-92c5-464c-963a-ac66ea2225fd","system_id":"levelo_inurba_marseille","lat":43.28624,"lon":5.351,"is_reserved":false,"is_disabled":false,"rental_uris":{"android":"levelo://app?vid=21d898ed-92c5-464c-963a-ac66ea2225fd","ios":"levelo://app?vid=21d898ed-92c5-464c-963a-ac66ea2225fd"},"vehicle_type_id":"4","last_reported":1739106684,"current_range_meters":28000,"station_id":"ce4bhch2rcd13ifvqeug","pricing_plan_id":"cebpf4jnsgd1na2vs0mg"},{"bike_id":"735bc853-0d2f-4535-b51c-93cf0d0e3caf","system_id":"levelo_inurba_marseille","lat":43.29701,"lon":5.37713,"is_reserved":false,"is_disabled":false,"rental_uris":{"android":"levelo://app?vid=735bc853-0d2f-4535-b51c-93cf0d0e3caf","ios":"levelo://app?vid=735bc853-0d2f-4535-b51c-93cf0d0e3caf"},"vehicle_type_id":"4","last_reported":1739106684,"current_range_meters":22800,"station_id":"ce4bgkh2rcd13ifvqbl0","pricing_plan_id":"cebpf4jnsgd1na2vs0mg"},{"bike_id":"89912e32-c5f0-448f-82d2-e236e4d6d653","system_id":"levelo_inurba_marseille","lat":43.28248,"lon":5.40763,"is_reserved":false,"is_disabled":true,"rental_uris":{"android":"levelo://app?vid=89912e32-c5f0-448f-82d2-e236e4d6d653","ios":"levelo://app?vid=89912e32-c5f0-448f-82d2-e236e4d6d653"},"vehicle_type_id":"4","last_reported":1739106684,"current_range_meters":0,"station_id":"","pricing_plan_id":"cebpf4jnsgd1na2vs0mg"},{"bike_id":"a94874e9-9d42-4fca-806d-b544ac93c319","system_id":"levelo_inurba_marseille","lat":43.295005,"lon":5.387273,"is_reserved":false,"is_disabled":false,"rental_uris":{"android":"levelo://app?vid=a94874e9-9d42-4fca-806d-b544ac93c319","ios":"levelo://app?vid=a94874e9-9d42-4fca-806d-b544ac93c319"},"vehicle_type_id":"4","last_reported":1739106684,"current_range_meters":9600,"station_id":"ce4bh292rcd13ifvqdf0","pricing_plan_id":"cebpf4jnsgd1na2vs0mg"},{"bike_id":"e7e14db6-3bef-453a-aab6-06ade3cdd6b0","system_id":"levelo_inurba_marseille","lat":43.24404,"lon":5.441,"is_reserved":false,"is_disabled":true,"rental_uris":{"android":"levelo://app?vid=e7e14db6-3bef-453a-aab6-06ade3cdd6b0","ios":"levelo://app?vid=e7e14db6-3bef-453a-aab6-06ade3cdd6b0"},"vehicle_type_id":"4","last_reported":1739106684,"current_range_meters":0,"station_id":"","pricing_plan_id":"cebpf4jnsgd1na2vs0mg"},{"bike_id":"8e8fc4ea-4d77-4f77-8b11-8c01b3197d66","system_id":"levelo_inurba_marseille","lat":43.25499,"lon":5.37651,"is_reserved":false,"is_disabled":false,"rental_uris":{"android":"levelo://app?vid=8e8fc4ea-4d77-4f77-8b11-8c01b3197d66","ios":"levelo://app?vid=8e8fc4ea-4d77-4f77-8b11-8c01b3197d66"},"vehicle_type_id":"4","last_reported":1739106684,"current_range_meters":22000,"station_id":"ce4bhh12rcd13ifvqff0","pricing_plan_id":"cebpf4jnsgd1na2vs0mg"},{"bike_id":"fb5a704f-a51b-458c-a6e9-f5586a789b94","system_id":"levelo_inurba_marseille","lat":43.24169,"lon":5.36384,"is_reserved":false,"is_disabled":false,"rental_uris":{"android":"levelo://app?vid=fb5a704f-a51b-458c-a6e9-f5586a789b94","ios":"levelo://app?vid=fb5a704f-a51b-458c-a6e9-f5586a789b94"},"vehicle_type_id":"4","last_reported":1739106684,"current_range_meters":33600,"station_id":"cpo36qri1sfpv3e86is0","pricing_plan_id":"cebpf4jnsgd1na2vs0mg"},{"bike_id":"30462d37-33d8-46b4-bb9e-631bd52e425d","system_id":"levelo_inurba_marseille","lat":43.29913,"lon":5.38134,"is_reserved":false,"is_disabled":false,"rental_uris":{"android":"levelo://app?vid=30462d37-33d8-46b4-bb9e-631bd52e425d","ios":"levelo://app?vid=30462d37-33d8-46b4-bb9e-631bd52e425d"},"vehicle_type_id":"4","last_reported":1739106684,"current_range_meters":26800,"station_id":"ce4bgj12rcd13ifvqbc0","pricing_plan_id":"cebpf4jnsgd1na2vs0mg"},{"bike_id":"bfd84249-0515-4ab9-801d-3a8bb75b155d","system_id":"levelo_inurba_marseille","lat":43.27558,"lon":5.38414,"is_reserved":false,"is_disabled":false,"rental_uris":{"android":"levelo://app?vid=bfd84249-0515-4ab9-801d-3a8bb75b155d","ios":"levelo://app?vid=bfd84249-0515-4ab9-801d-3a8bb75b155d"},"vehicle_type_id":"4","last_reported":1739106684,"current_range_meters":37600,"station_id":"ce4bhh92rcd13ifvqfi0","pricing_plan_id":"cebpf4jnsgd1na2vs0mg"},{"bike_id":"badda3c4-70ef-41fb-b835-c3b6b3ba2d76","system_id":"levelo_inurba_marseille","lat":43.26492,"lon":5.39564,"is_reserved":false,"is_disabled":false,"rental_uris":{"android":"levelo://app?vid=badda3c4-70ef-41fb-b835-c3b6b3ba2d76","ios":"levelo://app?vid=badda3c4-70ef-41fb-b835-c3b6b3ba2d76"},"vehicle_type_id":"4","last_reported":1739106684,"current_range_meters":36000,"station_id":"ce4bhi12rcd13ifvqfq0","pricing_plan_id":"cebpf4jnsgd1na2vs0mg"},{"bike_id":"e2e7377b-14ae-4a80-a078-95c73aaae9f7","system_id":"levelo_inurba_marseille","lat":43.29709,"lon":5.37708,"is_reserved":false,"is_disabled":false,"rental_uris":{"android":"levelo://app?vid=e2e7377b-14ae-4a80-a078-95c73aaae9f7","ios":"levelo://app?vid=e2e7377b-14ae-4a80-a078-95c73aaae9f7"},"vehicle_type_id":"4","last_reported":1739106684,"current_range_meters":6000,"station_id":"ce4bgkh2rcd13ifvqbl0","pricing_plan_id":"cebpf4jnsgd1na2vs0mg"},{"bike_id":"ab54e2d0-4c2c-486a-84c7-811ed9008ddc","system_id":"levelo_inurba_marseille","lat":43.2796,"lon":5.42376,"is_reserved":false,"is_disabled":true,"rental_uris":{"android":"levelo://app?vid=ab54e2d0-4c2c-486a-84c7-811ed9008ddc","ios":"levelo://app?vid=ab54e2d0-4c2c-486a-84c7-811ed9008ddc"},"vehicle_type_id":"4","last_reported":1739106684,"current_range_meters":0,"station_id":"","pricing_plan_id":"cebpf4jnsgd1na2vs0mg"},{"bike_id":"04e9976f-fc67-4b3f-9a5f-08268a5eb49c","system_id":"levelo_inurba_marseille","lat":43.29419,"lon":5.38621,"is_reserved":false,"is_disabled":true,"rental_uris":{"android":"levelo://app?vid=04e9976f-fc67-4b3f-9a5f-08268a5eb49c","ios":"levelo://app?vid=04e9976f-fc67-4b3f-9a5f-08268a5eb49c"},"vehicle_type_id":"4","last_reported":1739106684,"current_range_meters":36800,"station_id":"ce4bh2h2rcd13ifvqdh0","pricing_plan_id":"cebpf4jnsgd1na2vs0mg"},{"bike_id":"c446fe99-7ab5-4250-9743-1aee425c6247","system_id":"levelo_inurba_marseille","lat":43.25579,"lon":5.38241,"is_reserved":false,"is_disabled":false,"rental_uris":{"android":"levelo://app?vid=c446fe99-7ab5-4250-9743-1aee425c6247","ios":"levelo://app?vid=c446fe99-7ab5-4250-9743-1aee425c6247"},"vehicle_type_id":"4","last_reported":1739106684,"current_range_meters":25200,"station_id":"ce4bhih2rcd13ifvqfs0","pricing_plan_id":"cebpf4jnsgd1na2vs0mg"},{"bike_id":"c68163ed-9542-4ac1-a2e7-7b48ec52b60f","system_id":"levelo_inurba_marseille","lat":43.29052,"lon":5.39952,"is_reserved":false,"is_disabled":true,"rental_uris":{"android":"levelo://app?vid=c68163ed-9542-4ac1-a2e7-7b48ec52b60f","ios":"levelo://app?vid=c68163ed-9542-4ac1-a2e7-7b48ec52b60f"},"vehicle_type_id":"4","last_reported":1739106684,"current_range_meters":38400,"station_id":"ce4bh392rcd13ifvqdm0","pricing_plan_id":"cebpf4jnsgd1na2vs0mg"},{"bike_id":"b5135d91-2dbc-4326-bda2-20e06e74cbe2","system_id":"levelo_inurba_marseille","lat":43.29584,"lon":5.37026,"is_reserved":false,"is_disabled":false,"rental_uris":{"android":"levelo://app?vid=b5135d91-2dbc-4326-bda2-20e06e74cbe2","ios":"levelo://app?vid=b5135d91-2dbc-4326-bda2-20e06e74cbe2"},"vehicle_type_id":"4","last_reported":1739106684,"current_range_meters":16400,"station_id":"","pricing_plan_id":"cebpf4jnsgd1na2vs0mg"},{"bike_id":"6835673f-f138-4499-8bdd-83c3f3bccf33","system_id":"levelo_inurba_marseille","lat":43.28007,"lon":5.39998,"is_reserved":false,"is_disabled":false,"rental_uris":{"android":"levelo://app?vid=6835673f-f138-4499-8bdd-83c3f3bccf33","ios":"levelo://app?vid=6835673f-f138-4499-8bdd-83c3f3bccf33"},"vehicle_type_id":"4","last_reported":1739106684,"current_range_meters":30000,"station_id":"ce4bho92rcd13ifvqh4g","pricing_plan_id":"cebpf4jnsgd1na2vs0mg"},{"bike_id":"bb1bab95-412e-41ba-879a-c483b6ec0924","system_id":"levelo_inurba_marseille","lat":43.27834,"lon":5.40711,"is_reserved":false,"is_disabled":false,"rental_uris":{"android":"levelo://app?vid=bb1bab95-412e-41ba-879a-c483b6ec0924","ios":"levelo://app?vid=bb1bab95-412e-41ba-879a-c483b6ec0924"},"vehicle_type_id":"4","last_reported":1739106684,"current_range_meters":9200,"station_id":"ce4bhnh2rcd13ifvqgtg","pricing_plan_id":"cebpf4jnsgd1na2vs0mg"},{"bike_id":"6e358927-ff7d-49ba-8b74-937ec069bd4e","system_id":"levelo_inurba_marseille","lat":43.286204,"lon":5.351026,"is_reserved":false,"is_disabled":false,"rental_uris":{"android":"levelo://app?vid=6e358927-ff7d-49ba-8b74-937ec069bd4e","ios":"levelo://app?vid=6e358927-ff7d-49ba-8b74-937ec069bd4e"},"vehicle_type_id":"4","last_reported":1739106684,"current_range_meters":16400,"station_id":"ce4bhch2rcd13ifvqeug","pricing_plan_id":"cebpf4jnsgd1na2vs0mg"},{"bike_id":"6a58dd11-a579-4519-84ef-72d462a0e689","system_id":"levelo_inurba_marseille","lat":43.32629,"lon":5.42842,"is_reserved":false,"is_disabled":false,"rental_uris":{"android":"levelo://app?vid=6a58dd11-a579-4519-84ef-72d462a0e689","ios":"levelo://app?vid=6a58dd11-a579-4519-84ef-72d462a0e689"},"vehicle_type_id":"4","last_reported":1739106684,"current_range_meters":16400,"station_id":"","pricing_plan_id":"cebpf4jnsgd1na2vs0mg"},{"bike_id":"3600cf6e-b370-46a9-a53c-871abbc03398","system_id":"levelo_inurba_marseille","lat":43.28257,"lon":5.35061,"is_reserved":false,"is_disabled":true,"rental_uris":{"android":"levelo://app?vid=3600cf6e-b370-46a9-a53c-871abbc03398","ios":"levelo://app?vid=3600cf6e-b370-46a9-a53c-871abbc03398"},"vehicle_type_id":"4","last_reported":1739106684,"current_range_meters":38800,"station_id":"ce4bhbp2rcd13ifvqerg","pricing_plan_id":"cebpf4jnsgd1na2vs0mg"},{"bike_id":"9ee17cc6-94b6-42f9-a180-22e25ec3ed8d","system_id":"levelo_inurba_marseille","lat":43.28702,"lon":5.37391,"is_reserved":false,"is_disabled":true,"rental_uris":{"android":"levelo://app?vid=9ee17cc6-94b6-42f9-a180-22e25ec3ed8d","ios":"levelo://app?vid=9ee17cc6-94b6-42f9-a180-22e25ec3ed8d"},"vehicle_type_id":"4","last_reported":1739106684,"current_range_meters":8400,"station_id":"ce4bh3p2rcd13ifvqdq0","pricing_plan_id":"cebpf4jnsgd1na2vs0mg"},{"bike_id":"599ac96d-0531-436c-8d87-3a3fbbacb74c","system_id":"levelo_inurba_marseille","lat":43.23149,"lon":5.43699,"is_reserved":false,"is_disabled":true,"rental_uris":{"android":"levelo://app?vid=599ac96d-0531-436c-8d87-3a3fbbacb74c","ios":"levelo://app?vid=599ac96d-0531-436c-8d87-3a3fbbacb74c"},"vehicle_type_id":"4","last_reported":1739106684,"current_range_meters":1200,"station_id":"ce4bhmp2rcd13ifvqgog","pricing_plan_id":"cebpf4jnsgd1na2vs0mg"},{"bike_id":"a56ddd66-7610-4b94-beb2-83224404b398","system_id":"levelo_inurba_marseille","lat":43.321,"lon":5.36754,"is_reserved":false,"is_disabled":false,"rental_uris":{"android":"levelo://app?vid=a56ddd66-7610-4b94-beb2-83224404b398","ios":"levelo://app?vid=a56ddd66-7610-4b94-beb2-83224404b398"},"vehicle_type_id":"4","last_reported":1739106684,"current_range_meters":36400,"station_id":"ce4bhrh2rcd13ifvqhug","pricing_plan_id":"cebpf4jnsgd1na2vs0mg"},{"bike_id":"6e55f6b2-de3d-41aa-9621-b9d4915806e6","system_id":"levelo_inurba_marseille","lat":43.28259,"lon":5.35068,"is_reserved":false,"is_disabled":false,"rental_uris":{"android":"levelo://app?vid=6e55f6b2-de3d-41aa-9621-b9d4915806e6","ios":"levelo://app?vid=6e55f6b2-de3d-41aa-9621-b9d4915806e6"},"vehicle_type_id":"4","last_reported":1739106684,"current_range_meters":31200,"station_id":"ce4bhbp2rcd13ifvqerg","pricing_plan_id":"cebpf4jnsgd1na2vs0mg"},{"bike_id":"4913b8b5-d6bb-4003-9626-2e55d74c370d","system_id":"levelo_inurba_marseille","lat":43.23959,"lon":5.36627,"is_reserved":false,"is_disabled":false,"rental_uris":{"android":"levelo://app?vid=4913b8b5-d6bb-4003-9626-2e55d74c370d","ios":"levelo://app?vid=4913b8b5-d6bb-4003-9626-2e55d74c370d"},"vehicle_type_id":"4","last_reported":1739106684,"current_range_meters":10000,"station_id":"ce4bhi12rcd13ifvqfp0","pricing_plan_id":"cebpf4jnsgd1na2vs0mg"},{"bike_id":"b512c1e5-37e4-4931-81ed-e1ac1fca0ab9","system_id":"levelo_inurba_marseille","lat":43.29222,"lon":5.36092,"is_reserved":false,"is_disabled":false,"rental_uris":{"android":"levelo://app?vid=b512c1e5-37e4-4931-81ed-e1ac1fca0ab9","ios":"levelo://app?vid=b512c1e5-37e4-4931-81ed-e1ac1fca0ab9"},"vehicle_type_id":"4","last_reported":1739106684,"current_range_meters":34000,"station_id":"ce4bhbh2rcd13ifvqeqg","pricing_plan_id":"cebpf4jnsgd1na2vs0mg"},{"bike_id":"9513f54e-f799-42e1-a4ab-6b46fc4ec8b4","system_id":"levelo_inurba_marseille","lat":43.29258,"lon":5.40904,"is_reserved":false,"is_disabled":true,"rental_uris":{"android":"levelo://app?vid=9513f54e-f799-42e1-a4ab-6b46fc4ec8b4","ios":"levelo://app?vid=9513f54e-f799-42e1-a4ab-6b46fc4ec8b4"},"vehicle_type_id":"4","last_reported":1739106684,"current_range_meters":1600,"station_id":"ce4bh192rcd13ifvqdc0","pricing_plan_id":"cebpf4jnsgd1na2vs0mg"},{"bike_id":"187375a2-49e4-46d1-b02c-429ac3db4d24","system_id":"levelo_inurba_marseille","lat":43.28625,"lon":5.35099,"is_reserved":false,"is_disabled":false,"rental_uris":{"android":"levelo://app?vid=187375a2-49e4-46d1-b02c-429ac3db4d24","ios":"levelo://app?vid=187375a2-49e4-46d1-b02c-429ac3db4d24"},"vehicle_type_id":"4","last_reported":1739106684,"current_range_meters":24000,"station_id":"ce4bhch2rcd13ifvqeug","pricing_plan_id":"cebpf4jnsgd1na2vs0mg"},{"bike_id":"0ccae692-16fa-48e3-88e0-236b5491d838","system_id":"levelo_inurba_marseille","lat":43.33714,"lon":5.39196,"is_reserved":false,"is_disabled":false,"rental_uris":{"android":"levelo://app?vid=0ccae692-16fa-48e3-88e0-236b5491d838","ios":"levelo://app?vid=0ccae692-16fa-48e3-88e0-236b5491d838"},"vehicle_type_id":"4","last_reported":1739106684,"current_range_meters":38800,"station_id":"ce4bhr92rcd13ifvqhsg","pricing_plan_id":"cebpf4jnsgd1na2vs0mg"},{"bike_id":"3387e857-76e8-4fc1-a1cf-94655f3cc3c6","system_id":"levelo_inurba_marseille","lat":43.23962,"lon":5.36627,"is_reserved":false,"is_disabled":false,"rental_uris":{"android":"levelo://app?vid=3387e857-76e8-4fc1-a1cf-94655f3cc3c6","ios":"levelo://app?vid=3387e857-76e8-4fc1-a1cf-94655f3cc3c6"},"vehicle_type_id":"4","last_reported":1739106684,"current_range_meters":27600,"station_id":"ce4bhi12rcd13ifvqfp0","pricing_plan_id":"cebpf4jnsgd1na2vs0mg"},{"bike_id":"c5b8b027-9bf6-441c-a68a-dc9052c14d78","system_id":"levelo_inurba_marseille","lat":43.25579,"lon":5.38252,"is_reserved":false,"is_disabled":false,"rental_uris":{"android":"levelo://app?vid=c5b8b027-9bf6-441c-a68a-dc9052c14d78","ios":"levelo://app?vid=c5b8b027-9bf6-441c-a68a-dc9052c14d78"},"vehicle_type_id":"4","last_reported":1739106684,"current_range_meters":14400,"station_id":"ce4bhih2rcd13ifvqfs0","pricing_plan_id":"cebpf4jnsgd1na2vs0mg"},{"bike_id":"fb4ff991-8c44-4e6e-9881-23d19b1c7472","system_id":"levelo_inurba_marseille","lat":43.29153,"lon":5.38069,"is_reserved":false,"is_disabled":true,"rental_uris":{"android":"levelo://app?vid=fb4ff991-8c44-4e6e-9881-23d19b1c7472","ios":"levelo://app?vid=fb4ff991-8c44-4e6e-9881-23d19b1c7472"},"vehicle_type_id":"4","last_reported":1739106684,"current_range_meters":36400,"station_id":"","pricing_plan_id":"cebpf4jnsgd1na2vs0mg"},{"bike_id":"11462a5d-f3b5-4ed0-8ffe-90ff24433c8c","system_id":"levelo_inurba_marseille","lat":43.284194,"lon":5.349906,"is_reserved":false,"is_disabled":false,"rental_uris":{"android":"levelo://app?vid=11462a5d-f3b5-4ed0-8ffe-90ff24433c8c","ios":"levelo://app?vid=11462a5d-f3b5-4ed0-8ffe-90ff24433c8c"},"vehicle_type_id":"4","last_reported":1739106684,"current_range_meters":26000,"station_id":"ce4bhbh2rcd13ifvqepg","pricing_plan_id":"cebpf4jnsgd1na2vs0mg"},{"bike_id":"d1fac8c8-a7f0-4def-a7c1-4a177f7dc106","system_id":"levelo_inurba_marseille","lat":43.2511,"lon":5.4032,"is_reserved":false,"is_disabled":false,"rental_uris":{"android":"levelo://app?vid=d1fac8c8-a7f0-4def-a7c1-4a177f7dc106","ios":"levelo://app?vid=d1fac8c8-a7f0-4def-a7c1-4a177f7dc106"},"vehicle_type_id":"4","last_reported":1739106684,"current_range_meters":36400,"station_id":"ce4bhlh2rcd13ifvqgig","pricing_plan_id":"cebpf4jnsgd1na2vs0mg"},{"bike_id":"5bc71d75-3593-48b6-a39c-852caefe1c85","system_id":"levelo_inurba_marseille","lat":43.26956,"lon":5.38629,"is_reserved":false,"is_disabled":false,"rental_uris":{"android":"levelo://app?vid=5bc71d75-3593-48b6-a39c-852caefe1c85","ios":"levelo://app?vid=5bc71d75-3593-48b6-a39c-852caefe1c85"},"vehicle_type_id":"4","last_reported":1739106684,"current_range_meters":35600,"station_id":"ce4bhh92rcd13ifvqfh0","pricing_plan_id":"cebpf4jnsgd1na2vs0mg"},{"bike_id":"767abe10-f6fd-4a71-a21f-02aadb380fdf","system_id":"levelo_inurba_marseille","lat":43.29518,"lon":5.375,"is_reserved":false,"is_disabled":true,"rental_uris":{"android":"levelo://app?vid=767abe10-f6fd-4a71-a21f-02aadb380fdf","ios":"levelo://app?vid=767abe10-f6fd-4a71-a21f-02aadb380fdf"},"vehicle_type_id":"4","last_reported":1739106684,"current_range_meters":32400,"station_id":"ce4bgkp2rcd13ifvqbmg","pricing_plan_id":"cebpf4jnsgd1na2vs0mg"},{"bike_id":"0e83b365-6dc2-4bd3-a9f0-472f67dc989e","system_id":"levelo_inurba_marseille","lat":43.25008,"lon":5.38926,"is_reserved":false,"is_disabled":false,"rental_uris":{"android":"levelo://app?vid=0e83b365-6dc2-4bd3-a9f0-472f67dc989e","ios":"levelo://app?vid=0e83b365-6dc2-4bd3-a9f0-472f67dc989e"},"vehicle_type_id":"4","last_reported":1739106684,"current_range_meters":38800,"station_id":"ce4bhgp2rcd13ifvqfd0","pricing_plan_id":"cebpf4jnsgd1na2vs0mg"},{"bike_id":"262d9a53-2997-44d9-bd6f-d49fa495e433","system_id":"levelo_inurba_marseille","lat":43.23195,"lon":5.35558,"is_reserved":false,"is_disabled":false,"rental_uris":{"android":"levelo://app?vid=262d9a53-2997-44d9-bd6f-d49fa495e433","ios":"levelo://app?vid=262d9a53-2997-44d9-bd6f-d49fa495e433"},"vehicle_type_id":"4","last_reported":1739106684,"current_range_meters":6000,"station_id":"ce4bhu92rcd13ifvqi70","pricing_plan_id":"cebpf4jnsgd1na2vs0mg"},{"bike_id":"fcc3839f-20cc-4c82-be21-1998e64b5437","system_id":"levelo_inurba_marseille","lat":43.31228,"lon":5.36844,"is_reserved":false,"is_disabled":false,"rental_uris":{"android":"levelo://app?vid=fcc3839f-20cc-4c82-be21-1998e64b5437","ios":"levelo://app?vid=fcc3839f-20cc-4c82-be21-1998e64b5437"},"vehicle_type_id":"4","last_reported":1739106684,"current_range_meters":38400,"station_id":"ce4bgl92rcd13ifvqbq0","pricing_plan_id":"cebpf4jnsgd1na2vs0mg"},{"bike_id":"f67b7531-6c63-4f46-a9d4-4fdf588facb0","system_id":"levelo_inurba_marseille","lat":43.27874,"lon":5.40597,"is_reserved":false,"is_disabled":true,"rental_uris":{"android":"levelo://app?vid=f67b7531-6c63-4f46-a9d4-4fdf588facb0","ios":"levelo://app?vid=f67b7531-6c63-4f46-a9d4-4fdf588facb0"},"vehicle_type_id":"4","last_reported":1739106684,"current_range_meters":0,"station_id":"","pricing_plan_id":"cebpf4jnsgd1na2vs0mg"},{"bike_id":"28bc2108-0dbe-4972-a4ae-3060201c5ec2","system_id":"levelo_inurba_marseille","lat":43.28424,"lon":5.34991,"is_reserved":false,"is_disabled":false,"rental_uris":{"android":"levelo://app?vid=28bc2108-0dbe-4972-a4ae-3060201c5ec2","ios":"levelo://app?vid=28bc2108-0dbe-4972-a4ae-3060201c5ec2"},"vehicle_type_id":"4","last_reported":1739106684,"current_range_meters":23200,"station_id":"ce4bhbh2rcd13ifvqepg","pricing_plan_id":"cebpf4jnsgd1na2vs0mg"},{"bike_id":"07ea03cd-d48d-42cb-aa74-2c7cdf8fd83b","system_id":"levelo_inurba_marseille","lat":43.29594,"lon":5.37727,"is_reserved":false,"is_disabled":false,"rental_uris":{"android":"levelo://app?vid=07ea03cd-d48d-42cb-aa74-2c7cdf8fd83b","ios":"levelo://app?vid=07ea03cd-d48d-42cb-aa74-2c7cdf8fd83b"},"vehicle_type_id":"4","last_reported":1739106684,"current_range_meters":34800,"station_id":"ce4bgi92rcd13ifvqb90","pricing_plan_id":"cebpf4jnsgd1na2vs0mg"},{"bike_id":"a1ff6a73-36b2-4a61-a88f-8f0cc16371c7","system_id":"levelo_inurba_marseille","lat":43.26221,"lon":5.40465,"is_reserved":false,"is_disabled":false,"rental_uris":{"android":"levelo://app?vid=a1ff6a73-36b2-4a61-a88f-8f0cc16371c7","ios":"levelo://app?vid=a1ff6a73-36b2-4a61-a88f-8f0cc16371c7"},"vehicle_type_id":"4","last_reported":1739106684,"current_range_meters":28800,"station_id":"ce4bhmh2rcd13ifvqgmg","pricing_plan_id":"cebpf4jnsgd1na2vs0mg"},{"bike_id":"74dda318-1b0b-46a6-82cc-20741b70a914","system_id":"levelo_inurba_marseille","lat":43.29299,"lon":5.37417,"is_reserved":false,"is_disabled":true,"rental_uris":{"android":"levelo://app?vid=74dda318-1b0b-46a6-82cc-20741b70a914","ios":"levelo://app?vid=74dda318-1b0b-46a6-82cc-20741b70a914"},"vehicle_type_id":"4","last_reported":1739106684,"current_range_meters":21600,"station_id":"ce4bgi12rcd13ifvqb70","pricing_plan_id":"cebpf4jnsgd1na2vs0mg"},{"bike_id":"9d2ea34e-93c4-4a02-8f0c-13ccde1a7290","system_id":"levelo_inurba_marseille","lat":43.29743,"lon":5.37699,"is_reserved":false,"is_disabled":false,"rental_uris":{"android":"levelo://app?vid=9d2ea34e-93c4-4a02-8f0c-13ccde1a7290","ios":"levelo://app?vid=9d2ea34e-93c4-4a02-8f0c-13ccde1a7290"},"vehicle_type_id":"4","last_reported":1739106684,"current_range_meters":30000,"station_id":"ce4bgkh2rcd13ifvqbl0","pricing_plan_id":"cebpf4jnsgd1na2vs0mg"},{"bike_id":"40b221ed-8398-44a6-9294-97ea8af9ebdc","system_id":"levelo_inurba_marseille","lat":43.28026,"lon":5.36944,"is_reserved":false,"is_disabled":false,"rental_uris":{"android":"levelo://app?vid=40b221ed-8398-44a6-9294-97ea8af9ebdc","ios":"levelo://app?vid=40b221ed-8398-44a6-9294-97ea8af9ebdc"},"vehicle_type_id":"4","last_reported":1739106684,"current_range_meters":28400,"station_id":"ce4bha12rcd13ifvqef0","pricing_plan_id":"cebpf4jnsgd1na2vs0mg"},{"bike_id":"488c0f88-f522-4244-bd79-131e248eb6f1","system_id":"levelo_inurba_marseille","lat":43.27373,"lon":5.36253,"is_reserved":false,"is_disabled":false,"rental_uris":{"android":"levelo://app?vid=488c0f88-f522-4244-bd79-131e248eb6f1","ios":"levelo://app?vid=488c0f88-f522-4244-bd79-131e248eb6f1"},"vehicle_type_id":"4","last_reported":1739106684,"current_range_meters":23200,"station_id":"ce4bhbh2rcd13ifvqeo0","pricing_plan_id":"cebpf4jnsgd1na2vs0mg"},{"bike_id":"1c006256-7530-4a56-a25d-dca64c3573d8","system_id":"levelo_inurba_marseille","lat":43.28701,"lon":5.39991,"is_reserved":false,"is_disabled":true,"rental_uris":{"android":"levelo://app?vid=1c006256-7530-4a56-a25d-dca64c3573d8","ios":"levelo://app?vid=1c006256-7530-4a56-a25d-dca64c3573d8"},"vehicle_type_id":"4","last_reported":1739106684,"current_range_meters":38800,"station_id":"ce4bho92rcd13ifvqh3g","pricing_plan_id":"cebpf4jnsgd1na2vs0mg"},{"bike_id":"c9e319fb-3ae8-4934-b4bc-31daa2dac128","system_id":"levelo_inurba_marseille","lat":43.23196,"lon":5.35558,"is_reserved":false,"is_disabled":false,"rental_uris":{"android":"levelo://app?vid=c9e319fb-3ae8-4934-b4bc-31daa2dac128","ios":"levelo://app?vid=c9e319fb-3ae8-4934-b4bc-31daa2dac128"},"vehicle_type_id":"4","last_reported":1739106684,"current_range_meters":10000,"station_id":"ce4bhu92rcd13ifvqi70","pricing_plan_id":"cebpf4jnsgd1na2vs0mg"},{"bike_id":"eeb1626b-d9a7-4181-8530-ac28fa96e047","system_id":"levelo_inurba_marseille","lat":43.29023,"lon":5.35934,"is_reserved":false,"is_disabled":false,"rental_uris":{"android":"levelo://app?vid=eeb1626b-d9a7-4181-8530-ac28fa96e047","ios":"levelo://app?vid=eeb1626b-d9a7-4181-8530-ac28fa96e047"},"vehicle_type_id":"4","last_reported":1739106684,"current_range_meters":31200,"station_id":"ce4bha92rcd13ifvqeg0","pricing_plan_id":"cebpf4jnsgd1na2vs0mg"},{"bike_id":"5c7479b7-7263-4b4c-a3b1-0d7fb0f411f8","system_id":"levelo_inurba_marseille","lat":43.30321,"lon":5.40466,"is_reserved":false,"is_disabled":true,"rental_uris":{"android":"levelo://app?vid=5c7479b7-7263-4b4c-a3b1-0d7fb0f411f8","ios":"levelo://app?vid=5c7479b7-7263-4b4c-a3b1-0d7fb0f411f8"},"vehicle_type_id":"4","last_reported":1739106684,"current_range_meters":37600,"station_id":"ce4bh012rcd13ifvqd10","pricing_plan_id":"cebpf4jnsgd1na2vs0mg"},{"bike_id":"23644462-c1de-4e99-a2e9-4d0c9cf86788","system_id":"levelo_inurba_marseille","lat":43.312456,"lon":5.368665,"is_reserved":false,"is_disabled":false,"rental_uris":{"android":"levelo://app?vid=23644462-c1de-4e99-a2e9-4d0c9cf86788","ios":"levelo://app?vid=23644462-c1de-4e99-a2e9-4d0c9cf86788"},"vehicle_type_id":"4","last_reported":1739106684,"current_range_meters":30400,"station_id":"ce4bgl92rcd13ifvqbq0","pricing_plan_id":"cebpf4jnsgd1na2vs0mg"},{"bike_id":"b7c96000-aeec-4f2a-9a5e-de27561e5828","system_id":"levelo_inurba_marseille","lat":43.30432,"lon":5.39747,"is_reserved":false,"is_disabled":false,"rental_uris":{"android":"levelo://app?vid=b7c96000-aeec-4f2a-9a5e-de27561e5828","ios":"levelo://app?vid=b7c96000-aeec-4f2a-9a5e-de27561e5828"},"vehicle_type_id":"4","last_reported":1739106684,"current_range_meters":32000,"station_id":"ce4bh092rcd13ifvqd20","pricing_plan_id":"cebpf4jnsgd1na2vs0mg"},{"bike_id":"c3830605-578f-4c68-8b10-5553553277a4","system_id":"levelo_inurba_marseille","lat":43.29225,"lon":5.36053,"is_reserved":false,"is_disabled":false,"rental_uris":{"android":"levelo://app?vid=c3830605-578f-4c68-8b10-5553553277a4","ios":"levelo://app?vid=c3830605-578f-4c68-8b10-5553553277a4"},"vehicle_type_id":"4","last_reported":1739106684,"current_range_meters":38800,"station_id":"ce4bhbh2rcd13ifvqeqg","pricing_plan_id":"cebpf4jnsgd1na2vs0mg"},{"bike_id":"22669ad6-c05b-49c6-864d-bb442ac14c15","system_id":"levelo_inurba_marseille","lat":43.25937,"lon":5.40887,"is_reserved":false,"is_disabled":false,"rental_uris":{"android":"levelo://app?vid=22669ad6-c05b-49c6-864d-bb442ac14c15","ios":"levelo://app?vid=22669ad6-c05b-49c6-864d-bb442ac14c15"},"vehicle_type_id":"4","last_reported":1739106684,"current_range_meters":30400,"station_id":"ce4bhm92rcd13ifvqglg","pricing_plan_id":"cebpf4jnsgd1na2vs0mg"},{"bike_id":"d65f63cc-0642-4df2-b1d3-b11f204a36a0","system_id":"levelo_inurba_marseille","lat":43.30151,"lon":5.38102,"is_reserved":false,"is_disabled":false,"rental_uris":{"android":"levelo://app?vid=d65f63cc-0642-4df2-b1d3-b11f204a36a0","ios":"levelo://app?vid=d65f63cc-0642-4df2-b1d3-b11f204a36a0"},"vehicle_type_id":"4","last_reported":1739106684,"current_range_meters":20800,"station_id":"ce4bgjp2rcd13ifvqbh0","pricing_plan_id":"cebpf4jnsgd1na2vs0mg"},{"bike_id":"7acedcb0-a26d-4e76-a0f1-661494c1c033","system_id":"levelo_inurba_marseille","lat":43.30895,"lon":5.36857,"is_reserved":false,"is_disabled":false,"rental_uris":{"android":"levelo://app?vid=7acedcb0-a26d-4e76-a0f1-661494c1c033","ios":"levelo://app?vid=7acedcb0-a26d-4e76-a0f1-661494c1c033"},"vehicle_type_id":"4","last_reported":1739106684,"current_range_meters":27200,"station_id":"ce4bgn92rcd13ifvqbvg","pricing_plan_id":"cebpf4jnsgd1na2vs0mg"},{"bike_id":"c6fc4b4a-5347-4905-8d96-67ea4d004656","system_id":"levelo_inurba_marseille","lat":43.2319,"lon":5.35535,"is_reserved":false,"is_disabled":false,"rental_uris":{"android":"levelo://app?vid=c6fc4b4a-5347-4905-8d96-67ea4d004656","ios":"levelo://app?vid=c6fc4b4a-5347-4905-8d96-67ea4d004656"},"vehicle_type_id":"4","last_reported":1739106684,"current_range_meters":38800,"station_id":"ce4bhu92rcd13ifvqi70","pricing_plan_id":"cebpf4jnsgd1na2vs0mg"},{"bike_id":"1da8b17b-ad28-4780-a711-431647c244ed","system_id":"levelo_inurba_marseille","lat":43.239601,"lon":5.366321,"is_reserved":false,"is_disabled":false,"rental_uris":{"android":"levelo://app?vid=1da8b17b-ad28-4780-a711-431647c244ed","ios":"levelo://app?vid=1da8b17b-ad28-4780-a711-431647c244ed"},"vehicle_type_id":"4","last_reported":1739106684,"current_range_meters":20400,"station_id":"ce4bhi12rcd13ifvqfp0","pricing_plan_id":"cebpf4jnsgd1na2vs0mg"},{"bike_id":"7243d2a0-8cbd-4c75-9acd-ba6045d97ce5","system_id":"levelo_inurba_marseille","lat":43.2319,"lon":5.35553,"is_reserved":false,"is_disabled":false,"rental_uris":{"android":"levelo://app?vid=7243d2a0-8cbd-4c75-9acd-ba6045d97ce5","ios":"levelo://app?vid=7243d2a0-8cbd-4c75-9acd-ba6045d97ce5"},"vehicle_type_id":"4","last_reported":1739106684,"current_range_meters":22400,"station_id":"ce4bhu92rcd13ifvqi70","pricing_plan_id":"cebpf4jnsgd1na2vs0mg"},{"bike_id":"f78952aa-a1e4-42f8-b5d2-31338580d315","system_id":"levelo_inurba_marseille","lat":43.23967,"lon":5.36633,"is_reserved":false,"is_disabled":false,"rental_uris":{"android":"levelo://app?vid=f78952aa-a1e4-42f8-b5d2-31338580d315","ios":"levelo://app?vid=f78952aa-a1e4-42f8-b5d2-31338580d315"},"vehicle_type_id":"4","last_reported":1739106684,"current_range_meters":11600,"station_id":"ce4bhi12rcd13ifvqfp0","pricing_plan_id":"cebpf4jnsgd1na2vs0mg"},{"bike_id":"a1a18607-cde4-4128-986d-41a919f24b6a","system_id":"levelo_inurba_marseille","lat":43.25584,"lon":5.38233,"is_reserved":false,"is_disabled":false,"rental_uris":{"android":"levelo://app?vid=a1a18607-cde4-4128-986d-41a919f24b6a","ios":"levelo://app?vid=a1a18607-cde4-4128-986d-41a919f24b6a"},"vehicle_type_id":"4","last_reported":1739106684,"current_range_meters":6400,"station_id":"ce4bhih2rcd13ifvqfs0","pricing_plan_id":"cebpf4jnsgd1na2vs0mg"},{"bike_id":"985ea620-1838-4cc4-9f45-6622855b2de9","system_id":"levelo_inurba_marseille","lat":43.27992,"lon":5.40015,"is_reserved":false,"is_disabled":false,"rental_uris":{"android":"levelo://app?vid=985ea620-1838-4cc4-9f45-6622855b2de9","ios":"levelo://app?vid=985ea620-1838-4cc4-9f45-6622855b2de9"},"vehicle_type_id":"4","last_reported":1739106684,"current_range_meters":38400,"station_id":"ce4bho92rcd13ifvqh4g","pricing_plan_id":"cebpf4jnsgd1na2vs0mg"},{"bike_id":"7aace376-1c85-41da-b513-cc179ab8c9f6","system_id":"levelo_inurba_marseille","lat":43.3015,"lon":5.37422,"is_reserved":false,"is_disabled":false,"rental_uris":{"android":"levelo://app?vid=7aace376-1c85-41da-b513-cc179ab8c9f6","ios":"levelo://app?vid=7aace376-1c85-41da-b513-cc179ab8c9f6"},"vehicle_type_id":"4","last_reported":1739106684,"current_range_meters":32000,"station_id":"ce4bgs92rcd13ifvqcc0","pricing_plan_id":"cebpf4jnsgd1na2vs0mg"},{"bike_id":"3a81bb57-e672-45b7-b455-b6b9eff32441","system_id":"levelo_inurba_marseille","lat":43.28339,"lon":5.38089,"is_reserved":false,"is_disabled":false,"rental_uris":{"android":"levelo://app?vid=3a81bb57-e672-45b7-b455-b6b9eff32441","ios":"levelo://app?vid=3a81bb57-e672-45b7-b455-b6b9eff32441"},"vehicle_type_id":"4","last_reported":1739106684,"current_range_meters":23200,"station_id":"ce4bh412rcd13ifvqdr0","pricing_plan_id":"cebpf4jnsgd1na2vs0mg"},{"bike_id":"e897fb4c-c9e2-42ca-8ce0-bf3216e4eddd","system_id":"levelo_inurba_marseille","lat":43.264959,"lon":5.395474,"is_reserved":false,"is_disabled":false,"rental_uris":{"android":"levelo://app?vid=e897fb4c-c9e2-42ca-8ce0-bf3216e4eddd","ios":"levelo://app?vid=e897fb4c-c9e2-42ca-8ce0-bf3216e4eddd"},"vehicle_type_id":"4","last_reported":1739106684,"current_range_meters":25600,"station_id":"ce4bhi12rcd13ifvqfq0","pricing_plan_id":"cebpf4jnsgd1na2vs0mg"},{"bike_id":"5bb09c0f-5ba9-4d48-873e-2ee2e6973503","system_id":"levelo_inurba_marseille","lat":43.33026,"lon":5.39015,"is_reserved":false,"is_disabled":false,"rental_uris":{"android":"levelo://app?vid=5bb09c0f-5ba9-4d48-873e-2ee2e6973503","ios":"levelo://app?vid=5bb09c0f-5ba9-4d48-873e-2ee2e6973503"},"vehicle_type_id":"4","last_reported":1739106684,"current_range_meters":36000,"station_id":"ce4bhr92rcd13ifvqhrg","pricing_plan_id":"cebpf4jnsgd1na2vs0mg"},{"bike_id":"28ec708f-b9d6-4f04-ab7e-a6ccbf662666","system_id":"levelo_inurba_marseille","lat":43.26505,"lon":5.39545,"is_reserved":false,"is_disabled":false,"rental_uris":{"android":"levelo://app?vid=28ec708f-b9d6-4f04-ab7e-a6ccbf662666","ios":"levelo://app?vid=28ec708f-b9d6-4f04-ab7e-a6ccbf662666"},"vehicle_type_id":"4","last_reported":1739106684,"current_range_meters":38800,"station_id":"ce4bhi12rcd13ifvqfq0","pricing_plan_id":"cebpf4jnsgd1na2vs0mg"},{"bike_id":"c8467e20-c52a-4fa4-90f2-f69c646cb59f","system_id":"levelo_inurba_marseille","lat":43.308,"lon":5.43518,"is_reserved":false,"is_disabled":false,"rental_uris":{"android":"levelo://app?vid=c8467e20-c52a-4fa4-90f2-f69c646cb59f","ios":"levelo://app?vid=c8467e20-c52a-4fa4-90f2-f69c646cb59f"},"vehicle_type_id":"4","last_reported":1739106684,"current_range_meters":24800,"station_id":"ce4bhph2rcd13ifvqheg","pricing_plan_id":"cebpf4jnsgd1na2vs0mg"},{"bike_id":"8e23ca53-8441-437b-83d1-b66bbe688f88","system_id":"levelo_inurba_marseille","lat":43.268,"lon":5.40258,"is_reserved":false,"is_disabled":false,"rental_uris":{"android":"levelo://app?vid=8e23ca53-8441-437b-83d1-b66bbe688f88","ios":"levelo://app?vid=8e23ca53-8441-437b-83d1-b66bbe688f88"},"vehicle_type_id":"4","last_reported":1739106684,"current_range_meters":39200,"station_id":"ce501612rcd8frsf0b60","pricing_plan_id":"cebpf4jnsgd1na2vs0mg"},{"bike_id":"2ceac124-3981-41ba-88bd-6e918853c153","system_id":"levelo_inurba_marseille","lat":43.25003,"lon":5.38923,"is_reserved":false,"is_disabled":false,"rental_uris":{"android":"levelo://app?vid=2ceac124-3981-41ba-88bd-6e918853c153","ios":"levelo://app?vid=2ceac124-3981-41ba-88bd-6e918853c153"},"vehicle_type_id":"4","last_reported":1739106684,"current_range_meters":38800,"station_id":"ce4bhgp2rcd13ifvqfd0","pricing_plan_id":"cebpf4jnsgd1na2vs0mg"},{"bike_id":"22a5c6e1-bb6b-4333-8051-e7583e5afc36","system_id":"levelo_inurba_marseille","lat":43.29452,"lon":5.39767,"is_reserved":false,"is_disabled":true,"rental_uris":{"android":"levelo://app?vid=22a5c6e1-bb6b-4333-8051-e7583e5afc36","ios":"levelo://app?vid=22a5c6e1-bb6b-4333-8051-e7583e5afc36"},"vehicle_type_id":"4","last_reported":1739106684,"current_range_meters":38800,"station_id":"ce4bh3h2rcd13ifvqdo0","pricing_plan_id":"cebpf4jnsgd1na2vs0mg"},{"bike_id":"c90518c7-d32d-4b8f-8ede-186b0aed6dbd","system_id":"levelo_inurba_marseille","lat":43.28704,"lon":5.37933,"is_reserved":false,"is_disabled":false,"rental_uris":{"android":"levelo://app?vid=c90518c7-d32d-4b8f-8ede-186b0aed6dbd","ios":"levelo://app?vid=c90518c7-d32d-4b8f-8ede-186b0aed6dbd"},"vehicle_type_id":"4","last_reported":1739106684,"current_range_meters":37600,"station_id":"ce4bh9p2rcd13ifvqec0","pricing_plan_id":"cebpf4jnsgd1na2vs0mg"},{"bike_id":"5c3e58d0-3647-4d94-8959-cff21bd78632","system_id":"levelo_inurba_marseille","lat":43.29709,"lon":5.36596,"is_reserved":false,"is_disabled":false,"rental_uris":{"android":"levelo://app?vid=5c3e58d0-3647-4d94-8959-cff21bd78632","ios":"levelo://app?vid=5c3e58d0-3647-4d94-8959-cff21bd78632"},"vehicle_type_id":"4","last_reported":1739106684,"current_range_meters":38000,"station_id":"ce4bgn12rcd13ifvqbt0","pricing_plan_id":"cebpf4jnsgd1na2vs0mg"},{"bike_id":"afd073ab-b7d7-4d06-a610-4d1b18b5fb42","system_id":"levelo_inurba_marseille","lat":43.27675,"lon":5.38913,"is_reserved":false,"is_disabled":false,"rental_uris":{"android":"levelo://app?vid=afd073ab-b7d7-4d06-a610-4d1b18b5fb42","ios":"levelo://app?vid=afd073ab-b7d7-4d06-a610-4d1b18b5fb42"},"vehicle_type_id":"4","last_reported":1739106684,"current_range_meters":38800,"station_id":"ce4bhi12rcd13ifvqfo0","pricing_plan_id":"cebpf4jnsgd1na2vs0mg"},{"bike_id":"fd7f60dd-1b52-46f9-9b6b-de4b0fe7477f","system_id":"levelo_inurba_marseille","lat":43.27059,"lon":5.4228,"is_reserved":false,"is_disabled":true,"rental_uris":{"android":"levelo://app?vid=fd7f60dd-1b52-46f9-9b6b-de4b0fe7477f","ios":"levelo://app?vid=fd7f60dd-1b52-46f9-9b6b-de4b0fe7477f"},"vehicle_type_id":"4","last_reported":1739106684,"current_range_meters":34000,"station_id":"ce4bhk92rcd13ifvqgb0","pricing_plan_id":"cebpf4jnsgd1na2vs0mg"},{"bike_id":"b77293ea-57bc-4088-ba4a-87100c2d79e0","system_id":"levelo_inurba_marseille","lat":43.26551,"lon":5.37289,"is_reserved":false,"is_disabled":false,"rental_uris":{"android":"levelo://app?vid=b77293ea-57bc-4088-ba4a-87100c2d79e0","ios":"levelo://app?vid=b77293ea-57bc-4088-ba4a-87100c2d79e0"},"vehicle_type_id":"4","last_reported":1739106684,"current_range_meters":38800,"station_id":"ce4bhg12rcd13ifvqf70","pricing_plan_id":"cebpf4jnsgd1na2vs0mg"},{"bike_id":"71af4c3a-fa26-4039-9ee7-f5d24e009142","system_id":"levelo_inurba_marseille","lat":43.24805,"lon":5.37452,"is_reserved":false,"is_disabled":false,"rental_uris":{"android":"levelo://app?vid=71af4c3a-fa26-4039-9ee7-f5d24e009142","ios":"levelo://app?vid=71af4c3a-fa26-4039-9ee7-f5d24e009142"},"vehicle_type_id":"4","last_reported":1739106684,"current_range_meters":39200,"station_id":"ce4bhgh2rcd13ifvqfb0","pricing_plan_id":"cebpf4jnsgd1na2vs0mg"},{"bike_id":"ab718d08-fa73-4b37-8fd0-bd8c0a26cdbd","system_id":"levelo_inurba_marseille","lat":43.27621,"lon":5.36119,"is_reserved":false,"is_disabled":false,"rental_uris":{"android":"levelo://app?vid=ab718d08-fa73-4b37-8fd0-bd8c0a26cdbd","ios":"levelo://app?vid=ab718d08-fa73-4b37-8fd0-bd8c0a26cdbd"},"vehicle_type_id":"4","last_reported":1739106684,"current_range_meters":3200,"station_id":"ce4bgj92rcd13ifvqbe0","pricing_plan_id":"cebpf4jnsgd1na2vs0mg"},{"bike_id":"86e7fe57-f8b6-4306-adb2-c48a1d6d6515","system_id":"levelo_inurba_marseille","lat":43.25731,"lon":5.41117,"is_reserved":false,"is_disabled":false,"rental_uris":{"android":"levelo://app?vid=86e7fe57-f8b6-4306-adb2-c48a1d6d6515","ios":"levelo://app?vid=86e7fe57-f8b6-4306-adb2-c48a1d6d6515"},"vehicle_type_id":"4","last_reported":1739106684,"current_range_meters":38800,"station_id":"ce4bhkp2rcd13ifvqgd0","pricing_plan_id":"cebpf4jnsgd1na2vs0mg"},{"bike_id":"244783fc-e553-4b13-97c4-77dee0149449","system_id":"levelo_inurba_marseille","lat":43.31319,"lon":5.39696,"is_reserved":false,"is_disabled":false,"rental_uris":{"android":"levelo://app?vid=244783fc-e553-4b13-97c4-77dee0149449","ios":"levelo://app?vid=244783fc-e553-4b13-97c4-77dee0149449"},"vehicle_type_id":"4","last_reported":1739106684,"current_range_meters":24800,"station_id":"ce4bgvp2rcd13ifvqcu0","pricing_plan_id":"cebpf4jnsgd1na2vs0mg"},{"bike_id":"f0cf9417-5968-4224-8d9d-cfbb5c3c25d9","system_id":"levelo_inurba_marseille","lat":43.30527,"lon":5.36672,"is_reserved":false,"is_disabled":false,"rental_uris":{"android":"levelo://app?vid=f0cf9417-5968-4224-8d9d-cfbb5c3c25d9","ios":"levelo://app?vid=f0cf9417-5968-4224-8d9d-cfbb5c3c25d9"},"vehicle_type_id":"4","last_reported":1739106684,"current_range_meters":38800,"station_id":"","pricing_plan_id":"cebpf4jnsgd1na2vs0mg"},{"bike_id":"d5fd2a14-8ff1-4b6e-a72e-8f7d6ba6ec2f","system_id":"levelo_inurba_marseille","lat":43.28276,"lon":5.35079,"is_reserved":false,"is_disabled":false,"rental_uris":{"android":"levelo://app?vid=d5fd2a14-8ff1-4b6e-a72e-8f7d6ba6ec2f","ios":"levelo://app?vid=d5fd2a14-8ff1-4b6e-a72e-8f7d6ba6ec2f"},"vehicle_type_id":"4","last_reported":1739106684,"current_range_meters":22400,"station_id":"ce4bhbp2rcd13ifvqerg","pricing_plan_id":"cebpf4jnsgd1na2vs0mg"},{"bike_id":"174526fc-7b01-451e-aeb2-e80c6f1ebabf","system_id":"levelo_inurba_marseille","lat":43.29301,"lon":5.37455,"is_reserved":false,"is_disabled":false,"rental_uris":{"android":"levelo://app?vid=174526fc-7b01-451e-aeb2-e80c6f1ebabf","ios":"levelo://app?vid=174526fc-7b01-451e-aeb2-e80c6f1ebabf"},"vehicle_type_id":"4","last_reported":1739106684,"current_range_meters":33600,"station_id":"ce4bgi12rcd13ifvqb70","pricing_plan_id":"cebpf4jnsgd1na2vs0mg"},{"bike_id":"c6f92ca4-91f7-4b27-a97d-0ada5b4e29ae","system_id":"levelo_inurba_marseille","lat":43.24668,"lon":5.38158,"is_reserved":false,"is_disabled":false,"rental_uris":{"android":"levelo://app?vid=c6f92ca4-91f7-4b27-a97d-0ada5b4e29ae","ios":"levelo://app?vid=c6f92ca4-91f7-4b27-a97d-0ada5b4e29ae"},"vehicle_type_id":"4","last_reported":1739106684,"current_range_meters":24800,"station_id":"ce4bhih2rcd13ifvqfr0","pricing_plan_id":"cebpf4jnsgd1na2vs0mg"},{"bike_id":"dc2380f1-2eb7-46a3-ae22-c9e2fe5ac43b","system_id":"levelo_inurba_marseille","lat":43.28271,"lon":5.3509,"is_reserved":false,"is_disabled":false,"rental_uris":{"android":"levelo://app?vid=dc2380f1-2eb7-46a3-ae22-c9e2fe5ac43b","ios":"levelo://app?vid=dc2380f1-2eb7-46a3-ae22-c9e2fe5ac43b"},"vehicle_type_id":"4","last_reported":1739106684,"current_range_meters":34800,"station_id":"ce4bhbp2rcd13ifvqerg","pricing_plan_id":"cebpf4jnsgd1na2vs0mg"},{"bike_id":"f335f4ea-f372-4b4d-97e9-cf4e01ad5b70","system_id":"levelo_inurba_marseille","lat":43.32247,"lon":5.38929,"is_reserved":false,"is_disabled":false,"rental_uris":{"android":"levelo://app?vid=f335f4ea-f372-4b4d-97e9-cf4e01ad5b70","ios":"levelo://app?vid=f335f4ea-f372-4b4d-97e9-cf4e01ad5b70"},"vehicle_type_id":"4","last_reported":1739106684,"current_range_meters":17600,"station_id":"","pricing_plan_id":"cebpf4jnsgd1na2vs0mg"},{"bike_id":"110b5397-d612-4b43-9970-8f955358b259","system_id":"levelo_inurba_marseille","lat":43.23953,"lon":5.36645,"is_reserved":false,"is_disabled":false,"rental_uris":{"android":"levelo://app?vid=110b5397-d612-4b43-9970-8f955358b259","ios":"levelo://app?vid=110b5397-d612-4b43-9970-8f955358b259"},"vehicle_type_id":"4","last_reported":1739106684,"current_range_meters":8000,"station_id":"ce4bhi12rcd13ifvqfp0","pricing_plan_id":"cebpf4jnsgd1na2vs0mg"},{"bike_id":"6df8b26d-51b8-4e87-bf10-0714c37461eb","system_id":"levelo_inurba_marseille","lat":43.24176,"lon":5.39734,"is_reserved":false,"is_disabled":false,"rental_uris":{"android":"levelo://app?vid=6df8b26d-51b8-4e87-bf10-0714c37461eb","ios":"levelo://app?vid=6df8b26d-51b8-4e87-bf10-0714c37461eb"},"vehicle_type_id":"4","last_reported":1739106684,"current_range_meters":22400,"station_id":"ce4bhn12rcd13ifvqgpg","pricing_plan_id":"cebpf4jnsgd1na2vs0mg"},{"bike_id":"c5d44a3a-c0d4-413d-abd6-5d633623f413","system_id":"levelo_inurba_marseille","lat":43.31219,"lon":5.3686,"is_reserved":false,"is_disabled":false,"rental_uris":{"android":"levelo://app?vid=c5d44a3a-c0d4-413d-abd6-5d633623f413","ios":"levelo://app?vid=c5d44a3a-c0d4-413d-abd6-5d633623f413"},"vehicle_type_id":"4","last_reported":1739106684,"current_range_meters":38000,"station_id":"ce4bgl92rcd13ifvqbq0","pricing_plan_id":"cebpf4jnsgd1na2vs0mg"},{"bike_id":"7c3d3c88-5e30-4ebd-9017-7ce0346cbbb6","system_id":"levelo_inurba_marseille","lat":43.250017,"lon":5.389296,"is_reserved":false,"is_disabled":false,"rental_uris":{"android":"levelo://app?vid=7c3d3c88-5e30-4ebd-9017-7ce0346cbbb6","ios":"levelo://app?vid=7c3d3c88-5e30-4ebd-9017-7ce0346cbbb6"},"vehicle_type_id":"4","last_reported":1739106684,"current_range_meters":25200,"station_id":"ce4bhgp2rcd13ifvqfd0","pricing_plan_id":"cebpf4jnsgd1na2vs0mg"},{"bike_id":"c5789181-d252-4c46-b75d-908f3a6a38fe","system_id":"levelo_inurba_marseille","lat":43.3375,"lon":5.39176,"is_reserved":false,"is_disabled":false,"rental_uris":{"android":"levelo://app?vid=c5789181-d252-4c46-b75d-908f3a6a38fe","ios":"levelo://app?vid=c5789181-d252-4c46-b75d-908f3a6a38fe"},"vehicle_type_id":"4","last_reported":1739106684,"current_range_meters":38800,"station_id":"ce4bhr92rcd13ifvqhsg","pricing_plan_id":"cebpf4jnsgd1na2vs0mg"},{"bike_id":"8613db78-efe7-4d09-9b25-be05e9cdde1b","system_id":"levelo_inurba_marseille","lat":43.31392,"lon":5.38505,"is_reserved":false,"is_disabled":false,"rental_uris":{"android":"levelo://app?vid=8613db78-efe7-4d09-9b25-be05e9cdde1b","ios":"levelo://app?vid=8613db78-efe7-4d09-9b25-be05e9cdde1b"},"vehicle_type_id":"4","last_reported":1739106684,"current_range_meters":36400,"station_id":"ce4bgt92rcd13ifvqcf0","pricing_plan_id":"cebpf4jnsgd1na2vs0mg"},{"bike_id":"0d3e6358-f538-48e4-97b5-cfd7ffaf7479","system_id":"levelo_inurba_marseille","lat":43.27174,"lon":5.40989,"is_reserved":false,"is_disabled":false,"rental_uris":{"android":"levelo://app?vid=0d3e6358-f538-48e4-97b5-cfd7ffaf7479","ios":"levelo://app?vid=0d3e6358-f538-48e4-97b5-cfd7ffaf7479"},"vehicle_type_id":"4","last_reported":1739106684,"current_range_meters":38800,"station_id":"ce4bhl12rcd13ifvqgf0","pricing_plan_id":"cebpf4jnsgd1na2vs0mg"},{"bike_id":"335f62b9-9f8c-4044-8158-f504e15c2aee","system_id":"levelo_inurba_marseille","lat":43.28262,"lon":5.35061,"is_reserved":false,"is_disabled":false,"rental_uris":{"android":"levelo://app?vid=335f62b9-9f8c-4044-8158-f504e15c2aee","ios":"levelo://app?vid=335f62b9-9f8c-4044-8158-f504e15c2aee"},"vehicle_type_id":"4","last_reported":1739106684,"current_range_meters":22000,"station_id":"ce4bhbp2rcd13ifvqerg","pricing_plan_id":"cebpf4jnsgd1na2vs0mg"},{"bike_id":"4b346763-af4b-47bb-8f20-016bb4fee202","system_id":"levelo_inurba_marseille","lat":43.2781,"lon":5.40712,"is_reserved":false,"is_disabled":false,"rental_uris":{"android":"levelo://app?vid=4b346763-af4b-47bb-8f20-016bb4fee202","ios":"levelo://app?vid=4b346763-af4b-47bb-8f20-016bb4fee202"},"vehicle_type_id":"4","last_reported":1739106684,"current_range_meters":38800,"station_id":"ce4bhnh2rcd13ifvqgtg","pricing_plan_id":"cebpf4jnsgd1na2vs0mg"},{"bike_id":"a3017e08-da34-45be-bc47-d338c3dee81a","system_id":"levelo_inurba_marseille","lat":43.26612,"lon":5.39374,"is_reserved":false,"is_disabled":false,"rental_uris":{"android":"levelo://app?vid=a3017e08-da34-45be-bc47-d338c3dee81a","ios":"levelo://app?vid=a3017e08-da34-45be-bc47-d338c3dee81a"},"vehicle_type_id":"4","last_reported":1739106684,"current_range_meters":38400,"station_id":"","pricing_plan_id":"cebpf4jnsgd1na2vs0mg"},{"bike_id":"a0e4aa32-2930-4b3f-a9c9-c8d667116e7d","system_id":"levelo_inurba_marseille","lat":43.30162,"lon":5.39719,"is_reserved":false,"is_disabled":false,"rental_uris":{"android":"levelo://app?vid=a0e4aa32-2930-4b3f-a9c9-c8d667116e7d","ios":"levelo://app?vid=a0e4aa32-2930-4b3f-a9c9-c8d667116e7d"},"vehicle_type_id":"4","last_reported":1739106684,"current_range_meters":24800,"station_id":"","pricing_plan_id":"cebpf4jnsgd1na2vs0mg"},{"bike_id":"09710415-4dac-4e4c-a5b2-403eafa59e89","system_id":"levelo_inurba_marseille","lat":43.23966,"lon":5.36632,"is_reserved":false,"is_disabled":false,"rental_uris":{"android":"levelo://app?vid=09710415-4dac-4e4c-a5b2-403eafa59e89","ios":"levelo://app?vid=09710415-4dac-4e4c-a5b2-403eafa59e89"},"vehicle_type_id":"4","last_reported":1739106684,"current_range_meters":35600,"station_id":"ce4bhi12rcd13ifvqfp0","pricing_plan_id":"cebpf4jnsgd1na2vs0mg"},{"bike_id":"cda70a47-1966-4606-a6ee-e81748054c04","system_id":"levelo_inurba_marseille","lat":43.23963,"lon":5.36625,"is_reserved":false,"is_disabled":false,"rental_uris":{"android":"levelo://app?vid=cda70a47-1966-4606-a6ee-e81748054c04","ios":"levelo://app?vid=cda70a47-1966-4606-a6ee-e81748054c04"},"vehicle_type_id":"4","last_reported":1739106684,"current_range_meters":31200,"station_id":"ce4bhi12rcd13ifvqfp0","pricing_plan_id":"cebpf4jnsgd1na2vs0mg"},{"bike_id":"11fb8b8a-e2f0-4df9-8d01-2d7793fba192","system_id":"levelo_inurba_marseille","lat":43.27326,"lon":5.39094,"is_reserved":false,"is_disabled":false,"rental_uris":{"android":"levelo://app?vid=11fb8b8a-e2f0-4df9-8d01-2d7793fba192","ios":"levelo://app?vid=11fb8b8a-e2f0-4df9-8d01-2d7793fba192"},"vehicle_type_id":"4","last_reported":1739106684,"current_range_meters":38800,"station_id":"ce4bhgp2rcd13ifvqfe0","pricing_plan_id":"cebpf4jnsgd1na2vs0mg"},{"bike_id":"118b1d9a-bc00-428d-ac60-6949e2e1ff6b","system_id":"levelo_inurba_marseille","lat":43.24804,"lon":5.37464,"is_reserved":false,"is_disabled":false,"rental_uris":{"android":"levelo://app?vid=118b1d9a-bc00-428d-ac60-6949e2e1ff6b","ios":"levelo://app?vid=118b1d9a-bc00-428d-ac60-6949e2e1ff6b"},"vehicle_type_id":"4","last_reported":1739106684,"current_range_meters":28400,"station_id":"ce4bhgh2rcd13ifvqfb0","pricing_plan_id":"cebpf4jnsgd1na2vs0mg"},{"bike_id":"fa4a9fb9-a805-49c0-bc6f-0ec4b2c770a3","system_id":"levelo_inurba_marseille","lat":43.29057,"lon":5.37168,"is_reserved":false,"is_disabled":false,"rental_uris":{"android":"levelo://app?vid=fa4a9fb9-a805-49c0-bc6f-0ec4b2c770a3","ios":"levelo://app?vid=fa4a9fb9-a805-49c0-bc6f-0ec4b2c770a3"},"vehicle_type_id":"4","last_reported":1739106684,"current_range_meters":32800,"station_id":"ce4bh5p2rcd13ifvqe4g","pricing_plan_id":"cebpf4jnsgd1na2vs0mg"},{"bike_id":"656b3b3b-ebfa-4345-b7c9-9eedd9381155","system_id":"levelo_inurba_marseille","lat":43.30821,"lon":5.40097,"is_reserved":false,"is_disabled":false,"rental_uris":{"android":"levelo://app?vid=656b3b3b-ebfa-4345-b7c9-9eedd9381155","ios":"levelo://app?vid=656b3b3b-ebfa-4345-b7c9-9eedd9381155"},"vehicle_type_id":"4","last_reported":1739106684,"current_range_meters":11600,"station_id":"","pricing_plan_id":"cebpf4jnsgd1na2vs0mg"},{"bike_id":"f572c4d0-7db4-4c29-925c-f9578f18219d","system_id":"levelo_inurba_marseille","lat":43.28414,"lon":5.34995,"is_reserved":false,"is_disabled":false,"rental_uris":{"android":"levelo://app?vid=f572c4d0-7db4-4c29-925c-f9578f18219d","ios":"levelo://app?vid=f572c4d0-7db4-4c29-925c-f9578f18219d"},"vehicle_type_id":"4","last_reported":1739106684,"current_range_meters":26800,"station_id":"ce4bhbh2rcd13ifvqepg","pricing_plan_id":"cebpf4jnsgd1na2vs0mg"},{"bike_id":"776c0ab4-7cb1-4e9b-a20f-38a36a45ed21","system_id":"levelo_inurba_marseille","lat":43.30793,"lon":5.3765,"is_reserved":false,"is_disabled":false,"rental_uris":{"android":"levelo://app?vid=776c0ab4-7cb1-4e9b-a20f-38a36a45ed21","ios":"levelo://app?vid=776c0ab4-7cb1-4e9b-a20f-38a36a45ed21"},"vehicle_type_id":"4","last_reported":1739106684,"current_range_meters":30400,"station_id":"ce4bgv92rcd13ifvqcq0","pricing_plan_id":"cebpf4jnsgd1na2vs0mg"},{"bike_id":"15620aa9-d57b-49b0-a465-273e58125809","system_id":"levelo_inurba_marseille","lat":43.28413,"lon":5.34989,"is_reserved":false,"is_disabled":false,"rental_uris":{"android":"levelo://app?vid=15620aa9-d57b-49b0-a465-273e58125809","ios":"levelo://app?vid=15620aa9-d57b-49b0-a465-273e58125809"},"vehicle_type_id":"4","last_reported":1739106684,"current_range_meters":26000,"station_id":"ce4bhbh2rcd13ifvqepg","pricing_plan_id":"cebpf4jnsgd1na2vs0mg"},{"bike_id":"b51e142c-de4a-4e92-bd38-22dc3a4cd001","system_id":"levelo_inurba_marseille","lat":43.26566,"lon":5.3901,"is_reserved":false,"is_disabled":false,"rental_uris":{"android":"levelo://app?vid=b51e142c-de4a-4e92-bd38-22dc3a4cd001","ios":"levelo://app?vid=b51e142c-de4a-4e92-bd38-22dc3a4cd001"},"vehicle_type_id":"4","last_reported":1739106684,"current_range_meters":17200,"station_id":"ce4bho92rcd13ifvqh3g","pricing_plan_id":"cebpf4jnsgd1na2vs0mg"},{"bike_id":"64e8e2e3-8984-4256-ae2a-ac9cd49207f0","system_id":"levelo_inurba_marseille","lat":43.2828,"lon":5.35078,"is_reserved":false,"is_disabled":false,"rental_uris":{"android":"levelo://app?vid=64e8e2e3-8984-4256-ae2a-ac9cd49207f0","ios":"levelo://app?vid=64e8e2e3-8984-4256-ae2a-ac9cd49207f0"},"vehicle_type_id":"4","last_reported":1739106684,"current_range_meters":37600,"station_id":"ce4bhbp2rcd13ifvqerg","pricing_plan_id":"cebpf4jnsgd1na2vs0mg"},{"bike_id":"7f2deb56-183c-436c-981c-cfbcfece13e6","system_id":"levelo_inurba_marseille","lat":43.23963,"lon":5.36618,"is_reserved":false,"is_disabled":false,"rental_uris":{"android":"levelo://app?vid=7f2deb56-183c-436c-981c-cfbcfece13e6","ios":"levelo://app?vid=7f2deb56-183c-436c-981c-cfbcfece13e6"},"vehicle_type_id":"4","last_reported":1739106684,"current_range_meters":36000,"station_id":"ce4bhi12rcd13ifvqfp0","pricing_plan_id":"cebpf4jnsgd1na2vs0mg"},{"bike_id":"aac5a4ca-b8d0-4641-93c3-6c5e80d60918","system_id":"levelo_inurba_marseille","lat":43.31202,"lon":5.36832,"is_reserved":false,"is_disabled":false,"rental_uris":{"android":"levelo://app?vid=aac5a4ca-b8d0-4641-93c3-6c5e80d60918","ios":"levelo://app?vid=aac5a4ca-b8d0-4641-93c3-6c5e80d60918"},"vehicle_type_id":"4","last_reported":1739106684,"current_range_meters":38800,"station_id":"ce4bgl92rcd13ifvqbq0","pricing_plan_id":"cebpf4jnsgd1na2vs0mg"},{"bike_id":"4247d448-c996-453e-88de-edbb3a34b124","system_id":"levelo_inurba_marseille","lat":43.30149,"lon":5.380958,"is_reserved":false,"is_disabled":false,"rental_uris":{"android":"levelo://app?vid=4247d448-c996-453e-88de-edbb3a34b124","ios":"levelo://app?vid=4247d448-c996-453e-88de-edbb3a34b124"},"vehicle_type_id":"4","last_reported":1739106684,"current_range_meters":27600,"station_id":"ce4bgjp2rcd13ifvqbh0","pricing_plan_id":"cebpf4jnsgd1na2vs0mg"},{"bike_id":"a5a14ac8-8c40-406c-865a-09ed98e25470","system_id":"levelo_inurba_marseille","lat":43.23196,"lon":5.35553,"is_reserved":false,"is_disabled":false,"rental_uris":{"android":"levelo://app?vid=a5a14ac8-8c40-406c-865a-09ed98e25470","ios":"levelo://app?vid=a5a14ac8-8c40-406c-865a-09ed98e25470"},"vehicle_type_id":"4","last_reported":1739106684,"current_range_meters":14000,"station_id":"ce4bhu92rcd13ifvqi70","pricing_plan_id":"cebpf4jnsgd1na2vs0mg"},{"bike_id":"5223a8ab-1759-4199-88f8-4ead011cc81e","system_id":"levelo_inurba_marseille","lat":43.27579,"lon":5.38471,"is_reserved":false,"is_disabled":false,"rental_uris":{"android":"levelo://app?vid=5223a8ab-1759-4199-88f8-4ead011cc81e","ios":"levelo://app?vid=5223a8ab-1759-4199-88f8-4ead011cc81e"},"vehicle_type_id":"4","last_reported":1739106684,"current_range_meters":38800,"station_id":"ce4bhh92rcd13ifvqfi0","pricing_plan_id":"cebpf4jnsgd1na2vs0mg"},{"bike_id":"abed809c-e7f0-4d2e-ba0b-e3aca6e38076","system_id":"levelo_inurba_marseille","lat":43.26945,"lon":5.40267,"is_reserved":false,"is_disabled":false,"rental_uris":{"android":"levelo://app?vid=abed809c-e7f0-4d2e-ba0b-e3aca6e38076","ios":"levelo://app?vid=abed809c-e7f0-4d2e-ba0b-e3aca6e38076"},"vehicle_type_id":"4","last_reported":1739106684,"current_range_meters":16800,"station_id":"cjm6bp8fraef2m0cb0m0","pricing_plan_id":"cebpf4jnsgd1na2vs0mg"},{"bike_id":"87f55178-b221-4f5a-9b43-4df846d42ec8","system_id":"levelo_inurba_marseille","lat":43.32285,"lon":5.38272,"is_reserved":false,"is_disabled":false,"rental_uris":{"android":"levelo://app?vid=87f55178-b221-4f5a-9b43-4df846d42ec8","ios":"levelo://app?vid=87f55178-b221-4f5a-9b43-4df846d42ec8"},"vehicle_type_id":"4","last_reported":1739106684,"current_range_meters":21600,"station_id":"ce4bhr12rcd13ifvqhqg","pricing_plan_id":"cebpf4jnsgd1na2vs0mg"},{"bike_id":"af3d52f0-b551-4adf-9818-bbacaff1d6f0","system_id":"levelo_inurba_marseille","lat":43.25822,"lon":5.39443,"is_reserved":false,"is_disabled":false,"rental_uris":{"android":"levelo://app?vid=af3d52f0-b551-4adf-9818-bbacaff1d6f0","ios":"levelo://app?vid=af3d52f0-b551-4adf-9818-bbacaff1d6f0"},"vehicle_type_id":"4","last_reported":1739106684,"current_range_meters":37600,"station_id":"ce4bhip2rcd13ifvqft0","pricing_plan_id":"cebpf4jnsgd1na2vs0mg"},{"bike_id":"9f7cf945-ba46-4a30-a487-0537ff799f4a","system_id":"levelo_inurba_marseille","lat":43.27989,"lon":5.40013,"is_reserved":false,"is_disabled":false,"rental_uris":{"android":"levelo://app?vid=9f7cf945-ba46-4a30-a487-0537ff799f4a","ios":"levelo://app?vid=9f7cf945-ba46-4a30-a487-0537ff799f4a"},"vehicle_type_id":"4","last_reported":1739106684,"current_range_meters":16000,"station_id":"ce4bho92rcd13ifvqh4g","pricing_plan_id":"cebpf4jnsgd1na2vs0mg"},{"bike_id":"59db9156-837c-4bef-bdf0-6cb05d00fb23","system_id":"levelo_inurba_marseille","lat":43.24168,"lon":5.36401,"is_reserved":false,"is_disabled":false,"rental_uris":{"android":"levelo://app?vid=59db9156-837c-4bef-bdf0-6cb05d00fb23","ios":"levelo://app?vid=59db9156-837c-4bef-bdf0-6cb05d00fb23"},"vehicle_type_id":"4","last_reported":1739106684,"current_range_meters":24000,"station_id":"cpo36qri1sfpv3e86is0","pricing_plan_id":"cebpf4jnsgd1na2vs0mg"},{"bike_id":"7486797d-9c17-426c-8b8d-0ccea1b61cf7","system_id":"levelo_inurba_marseille","lat":43.25151,"lon":5.37294,"is_reserved":false,"is_disabled":false,"rental_uris":{"android":"levelo://app?vid=7486797d-9c17-426c-8b8d-0ccea1b61cf7","ios":"levelo://app?vid=7486797d-9c17-426c-8b8d-0ccea1b61cf7"},"vehicle_type_id":"4","last_reported":1739106684,"current_range_meters":39200,"station_id":"ce4bhgh2rcd13ifvqfb0","pricing_plan_id":"cebpf4jnsgd1na2vs0mg"},{"bike_id":"f1e9b514-8d63-4512-92a1-4bc9d87c157b","system_id":"levelo_inurba_marseille","lat":43.31716,"lon":5.43709,"is_reserved":false,"is_disabled":true,"rental_uris":{"android":"levelo://app?vid=f1e9b514-8d63-4512-92a1-4bc9d87c157b","ios":"levelo://app?vid=f1e9b514-8d63-4512-92a1-4bc9d87c157b"},"vehicle_type_id":"4","last_reported":1739106684,"current_range_meters":400,"station_id":"ce4bhp92rcd13ifvqhcg","pricing_plan_id":"cebpf4jnsgd1na2vs0mg"},{"bike_id":"a0074d74-cecf-48cb-88d9-dfdc2b2fa810","system_id":"levelo_inurba_marseille","lat":43.23957,"lon":5.36635,"is_reserved":false,"is_disabled":false,"rental_uris":{"android":"levelo://app?vid=a0074d74-cecf-48cb-88d9-dfdc2b2fa810","ios":"levelo://app?vid=a0074d74-cecf-48cb-88d9-dfdc2b2fa810"},"vehicle_type_id":"4","last_reported":1739106684,"current_range_meters":17200,"station_id":"ce4bhi12rcd13ifvqfp0","pricing_plan_id":"cebpf4jnsgd1na2vs0mg"},{"bike_id":"fc8d00e4-07c7-4fd1-8ff2-0a261feae6ed","system_id":"levelo_inurba_marseille","lat":43.28611,"lon":5.35113,"is_reserved":false,"is_disabled":false,"rental_uris":{"android":"levelo://app?vid=fc8d00e4-07c7-4fd1-8ff2-0a261feae6ed","ios":"levelo://app?vid=fc8d00e4-07c7-4fd1-8ff2-0a261feae6ed"},"vehicle_type_id":"4","last_reported":1739106684,"current_range_meters":36800,"station_id":"ce4bhch2rcd13ifvqeug","pricing_plan_id":"cebpf4jnsgd1na2vs0mg"},{"bike_id":"7e424a35-8cf7-4c71-b98f-4231461d22a0","system_id":"levelo_inurba_marseille","lat":43.2751,"lon":5.38994,"is_reserved":false,"is_disabled":false,"rental_uris":{"android":"levelo://app?vid=7e424a35-8cf7-4c71-b98f-4231461d22a0","ios":"levelo://app?vid=7e424a35-8cf7-4c71-b98f-4231461d22a0"},"vehicle_type_id":"4","last_reported":1739106684,"current_range_meters":34800,"station_id":"","pricing_plan_id":"cebpf4jnsgd1na2vs0mg"},{"bike_id":"5bdf4a7a-73e7-421a-9397-7f985b521133","system_id":"levelo_inurba_marseille","lat":43.28484,"lon":5.35868,"is_reserved":false,"is_disabled":false,"rental_uris":{"android":"levelo://app?vid=5bdf4a7a-73e7-421a-9397-7f985b521133","ios":"levelo://app?vid=5bdf4a7a-73e7-421a-9397-7f985b521133"},"vehicle_type_id":"4","last_reported":1739106684,"current_range_meters":38800,"station_id":"ce4bhah2rcd13ifvqei0","pricing_plan_id":"cebpf4jnsgd1na2vs0mg"},{"bike_id":"9189e0cd-d5d1-46a9-97ed-08ec6d7d8cc9","system_id":"levelo_inurba_marseille","lat":43.29975,"lon":5.38478,"is_reserved":false,"is_disabled":true,"rental_uris":{"android":"levelo://app?vid=9189e0cd-d5d1-46a9-97ed-08ec6d7d8cc9","ios":"levelo://app?vid=9189e0cd-d5d1-46a9-97ed-08ec6d7d8cc9"},"vehicle_type_id":"4","last_reported":1739106684,"current_range_meters":38800,"station_id":"ce4bgj92rcd13ifvqbd0","pricing_plan_id":"cebpf4jnsgd1na2vs0mg"},{"bike_id":"688cb102-28ba-4c7e-885f-41414f9433e9","system_id":"levelo_inurba_marseille","lat":43.25553,"lon":5.3819,"is_reserved":false,"is_disabled":false,"rental_uris":{"android":"levelo://app?vid=688cb102-28ba-4c7e-885f-41414f9433e9","ios":"levelo://app?vid=688cb102-28ba-4c7e-885f-41414f9433e9"},"vehicle_type_id":"4","last_reported":1739106684,"current_range_meters":18800,"station_id":"ce4bhih2rcd13ifvqfs0","pricing_plan_id":"cebpf4jnsgd1na2vs0mg"},{"bike_id":"9c3ed8fb-7268-418c-ac09-3f255c9e9b5e","system_id":"levelo_inurba_marseille","lat":43.28036,"lon":5.3693,"is_reserved":false,"is_disabled":false,"rental_uris":{"android":"levelo://app?vid=9c3ed8fb-7268-418c-ac09-3f255c9e9b5e","ios":"levelo://app?vid=9c3ed8fb-7268-418c-ac09-3f255c9e9b5e"},"vehicle_type_id":"4","last_reported":1739106684,"current_range_meters":37600,"station_id":"ce4bha12rcd13ifvqef0","pricing_plan_id":"cebpf4jnsgd1na2vs0mg"},{"bike_id":"c9ddcdca-0c8e-40e1-86b9-4707dbafeb2e","system_id":"levelo_inurba_marseille","lat":43.28413,"lon":5.3499,"is_reserved":false,"is_disabled":false,"rental_uris":{"android":"levelo://app?vid=c9ddcdca-0c8e-40e1-86b9-4707dbafeb2e","ios":"levelo://app?vid=c9ddcdca-0c8e-40e1-86b9-4707dbafeb2e"},"vehicle_type_id":"4","last_reported":1739106684,"current_range_meters":27600,"station_id":"ce4bhbh2rcd13ifvqepg","pricing_plan_id":"cebpf4jnsgd1na2vs0mg"},{"bike_id":"16f12e8d-10b1-49e6-a814-bca684947f57","system_id":"levelo_inurba_marseille","lat":43.30168,"lon":5.38072,"is_reserved":false,"is_disabled":false,"rental_uris":{"android":"levelo://app?vid=16f12e8d-10b1-49e6-a814-bca684947f57","ios":"levelo://app?vid=16f12e8d-10b1-49e6-a814-bca684947f57"},"vehicle_type_id":"4","last_reported":1739106684,"current_range_meters":38800,"station_id":"ce4bgjp2rcd13ifvqbh0","pricing_plan_id":"cebpf4jnsgd1na2vs0mg"},{"bike_id":"7a230c4d-3963-4b09-8c58-f19ddcbd8c5e","system_id":"levelo_inurba_marseille","lat":43.28608,"lon":5.37064,"is_reserved":false,"is_disabled":false,"rental_uris":{"android":"levelo://app?vid=7a230c4d-3963-4b09-8c58-f19ddcbd8c5e","ios":"levelo://app?vid=7a230c4d-3963-4b09-8c58-f19ddcbd8c5e"},"vehicle_type_id":"4","last_reported":1739106684,"current_range_meters":38000,"station_id":"ce4bht12rcd13ifvqi60","pricing_plan_id":"cebpf4jnsgd1na2vs0mg"},{"bike_id":"6ff781d1-2621-44d1-b299-83b571f09432","system_id":"levelo_inurba_marseille","lat":43.34067,"lon":5.38511,"is_reserved":false,"is_disabled":true,"rental_uris":{"android":"levelo://app?vid=6ff781d1-2621-44d1-b299-83b571f09432","ios":"levelo://app?vid=6ff781d1-2621-44d1-b299-83b571f09432"},"vehicle_type_id":"4","last_reported":1739106684,"current_range_meters":0,"station_id":"","pricing_plan_id":"cebpf4jnsgd1na2vs0mg"},{"bike_id":"12a5adf2-053c-4a9b-a118-e30c811e4f95","system_id":"levelo_inurba_marseille","lat":43.28416,"lon":5.34953,"is_reserved":false,"is_disabled":false,"rental_uris":{"android":"levelo://app?vid=12a5adf2-053c-4a9b-a118-e30c811e4f95","ios":"levelo://app?vid=12a5adf2-053c-4a9b-a118-e30c811e4f95"},"vehicle_type_id":"4","last_reported":1739106684,"current_range_meters":36400,"station_id":"ce4bhbh2rcd13ifvqepg","pricing_plan_id":"cebpf4jnsgd1na2vs0mg"},{"bike_id":"f2354b3b-9398-430a-991c-0c108e9a4c6a","system_id":"levelo_inurba_marseille","lat":43.30313,"lon":5.39194,"is_reserved":false,"is_disabled":true,"rental_uris":{"android":"levelo://app?vid=f2354b3b-9398-430a-991c-0c108e9a4c6a","ios":"levelo://app?vid=f2354b3b-9398-430a-991c-0c108e9a4c6a"},"vehicle_type_id":"4","last_reported":1739106684,"current_range_meters":38400,"station_id":"ce4bgkh2rcd13ifvqbk0","pricing_plan_id":"cebpf4jnsgd1na2vs0mg"},{"bike_id":"023da4ba-3275-433f-9c20-6aa1fe5c1824","system_id":"levelo_inurba_marseille","lat":43.24086,"lon":5.37745,"is_reserved":false,"is_disabled":false,"rental_uris":{"android":"levelo://app?vid=023da4ba-3275-433f-9c20-6aa1fe5c1824","ios":"levelo://app?vid=023da4ba-3275-433f-9c20-6aa1fe5c1824"},"vehicle_type_id":"4","last_reported":1739106684,"current_range_meters":35200,"station_id":"ce4bhnp2rcd13ifvqgvg","pricing_plan_id":"cebpf4jnsgd1na2vs0mg"},{"bike_id":"02c20e57-669d-4efa-b9c7-8be49a8574b8","system_id":"levelo_inurba_marseille","lat":43.26555,"lon":5.39031,"is_reserved":false,"is_disabled":false,"rental_uris":{"android":"levelo://app?vid=02c20e57-669d-4efa-b9c7-8be49a8574b8","ios":"levelo://app?vid=02c20e57-669d-4efa-b9c7-8be49a8574b8"},"vehicle_type_id":"4","last_reported":1739106684,"current_range_meters":26800,"station_id":"ce4bhe12rcd13ifvqf30","pricing_plan_id":"cebpf4jnsgd1na2vs0mg"},{"bike_id":"4c62bfd0-5da4-4d02-a2bc-9f1101d4c39e","system_id":"levelo_inurba_marseille","lat":43.29499,"lon":5.37493,"is_reserved":false,"is_disabled":false,"rental_uris":{"android":"levelo://app?vid=4c62bfd0-5da4-4d02-a2bc-9f1101d4c39e","ios":"levelo://app?vid=4c62bfd0-5da4-4d02-a2bc-9f1101d4c39e"},"vehicle_type_id":"4","last_reported":1739106684,"current_range_meters":10000,"station_id":"ce4bgkp2rcd13ifvqbmg","pricing_plan_id":"cebpf4jnsgd1na2vs0mg"},{"bike_id":"7dd42f26-039b-4231-b783-76a330983dd5","system_id":"levelo_inurba_marseille","lat":43.2886,"lon":5.35857,"is_reserved":false,"is_disabled":false,"rental_uris":{"android":"levelo://app?vid=7dd42f26-039b-4231-b783-76a330983dd5","ios":"levelo://app?vid=7dd42f26-039b-4231-b783-76a330983dd5"},"vehicle_type_id":"4","last_reported":1739106684,"current_range_meters":37600,"station_id":"ce4bhb12rcd13ifvqem0","pricing_plan_id":"cebpf4jnsgd1na2vs0mg"},{"bike_id":"e7c9102f-de83-43c3-a871-1b6285552687","system_id":"levelo_inurba_marseille","lat":43.30166,"lon":5.38089,"is_reserved":false,"is_disabled":false,"rental_uris":{"android":"levelo://app?vid=e7c9102f-de83-43c3-a871-1b6285552687","ios":"levelo://app?vid=e7c9102f-de83-43c3-a871-1b6285552687"},"vehicle_type_id":"4","last_reported":1739106684,"current_range_meters":35200,"station_id":"ce4bgjp2rcd13ifvqbh0","pricing_plan_id":"cebpf4jnsgd1na2vs0mg"},{"bike_id":"4eb76448-eaf5-41bb-bffe-e4bd1b60aaf0","system_id":"levelo_inurba_marseille","lat":43.26548,"lon":5.37268,"is_reserved":false,"is_disabled":true,"rental_uris":{"android":"levelo://app?vid=4eb76448-eaf5-41bb-bffe-e4bd1b60aaf0","ios":"levelo://app?vid=4eb76448-eaf5-41bb-bffe-e4bd1b60aaf0"},"vehicle_type_id":"4","last_reported":1739106684,"current_range_meters":36800,"station_id":"ce4bhg12rcd13ifvqf70","pricing_plan_id":"cebpf4jnsgd1na2vs0mg"},{"bike_id":"e2200dc8-d2f7-4f30-b1b2-4f395de74e61","system_id":"levelo_inurba_marseille","lat":43.31159,"lon":5.37817,"is_reserved":false,"is_disabled":false,"rental_uris":{"android":"levelo://app?vid=e2200dc8-d2f7-4f30-b1b2-4f395de74e61","ios":"levelo://app?vid=e2200dc8-d2f7-4f30-b1b2-4f395de74e61"},"vehicle_type_id":"4","last_reported":1739106684,"current_range_meters":25600,"station_id":"","pricing_plan_id":"cebpf4jnsgd1na2vs0mg"},{"bike_id":"6dc8aad2-7037-4229-8043-78cd60c32539","system_id":"levelo_inurba_marseille","lat":43.2396,"lon":5.36624,"is_reserved":false,"is_disabled":false,"rental_uris":{"android":"levelo://app?vid=6dc8aad2-7037-4229-8043-78cd60c32539","ios":"levelo://app?vid=6dc8aad2-7037-4229-8043-78cd60c32539"},"vehicle_type_id":"4","last_reported":1739106684,"current_range_meters":12000,"station_id":"ce4bhi12rcd13ifvqfp0","pricing_plan_id":"cebpf4jnsgd1na2vs0mg"},{"bike_id":"313be936-53f9-4bd6-908b-3c562eeef275","system_id":"levelo_inurba_marseille","lat":43.24073,"lon":5.37748,"is_reserved":false,"is_disabled":false,"rental_uris":{"android":"levelo://app?vid=313be936-53f9-4bd6-908b-3c562eeef275","ios":"levelo://app?vid=313be936-53f9-4bd6-908b-3c562eeef275"},"vehicle_type_id":"4","last_reported":1739106684,"current_range_meters":24800,"station_id":"ce4bhnp2rcd13ifvqgvg","pricing_plan_id":"cebpf4jnsgd1na2vs0mg"},{"bike_id":"ccc01d27-0460-40f9-ba6c-5b58d25f17ea","system_id":"levelo_inurba_marseille","lat":43.27921,"lon":5.3801,"is_reserved":false,"is_disabled":false,"rental_uris":{"android":"levelo://app?vid=ccc01d27-0460-40f9-ba6c-5b58d25f17ea","ios":"levelo://app?vid=ccc01d27-0460-40f9-ba6c-5b58d25f17ea"},"vehicle_type_id":"4","last_reported":1739106684,"current_range_meters":33600,"station_id":"ce4bhf92rcd13ifvqf50","pricing_plan_id":"cebpf4jnsgd1na2vs0mg"},{"bike_id":"e57d29bd-5e5d-4aaf-8e15-41d5191fea0b","system_id":"levelo_inurba_marseille","lat":43.30789,"lon":5.37647,"is_reserved":false,"is_disabled":false,"rental_uris":{"android":"levelo://app?vid=e57d29bd-5e5d-4aaf-8e15-41d5191fea0b","ios":"levelo://app?vid=e57d29bd-5e5d-4aaf-8e15-41d5191fea0b"},"vehicle_type_id":"4","last_reported":1739106684,"current_range_meters":17200,"station_id":"ce4bgv92rcd13ifvqcq0","pricing_plan_id":"cebpf4jnsgd1na2vs0mg"},{"bike_id":"891e205f-edb6-4417-95d0-d323fb0f946a","system_id":"levelo_inurba_marseille","lat":43.30533,"lon":5.367,"is_reserved":false,"is_disabled":false,"rental_uris":{"android":"levelo://app?vid=891e205f-edb6-4417-95d0-d323fb0f946a","ios":"levelo://app?vid=891e205f-edb6-4417-95d0-d323fb0f946a"},"vehicle_type_id":"4","last_reported":1739106684,"current_range_meters":36000,"station_id":"ce4bgrp2rcd13ifvqc9g","pricing_plan_id":"cebpf4jnsgd1na2vs0mg"},{"bike_id":"5548099f-3d20-4527-ac00-8c94cf8efa93","system_id":"levelo_inurba_marseille","lat":43.29626,"lon":5.37157,"is_reserved":false,"is_disabled":false,"rental_uris":{"android":"levelo://app?vid=5548099f-3d20-4527-ac00-8c94cf8efa93","ios":"levelo://app?vid=5548099f-3d20-4527-ac00-8c94cf8efa93"},"vehicle_type_id":"4","last_reported":1739106684,"current_range_meters":16400,"station_id":"ce4bgnh2rcd13ifvqc0g","pricing_plan_id":"cebpf4jnsgd1na2vs0mg"},{"bike_id":"5443e981-a803-4e00-ae9c-f23425c4860e","system_id":"levelo_inurba_marseille","lat":43.29878,"lon":5.38913,"is_reserved":false,"is_disabled":false,"rental_uris":{"android":"levelo://app?vid=5443e981-a803-4e00-ae9c-f23425c4860e","ios":"levelo://app?vid=5443e981-a803-4e00-ae9c-f23425c4860e"},"vehicle_type_id":"4","last_reported":1739106684,"current_range_meters":32400,"station_id":"ce4bh392rcd13ifvqdl0","pricing_plan_id":"cebpf4jnsgd1na2vs0mg"},{"bike_id":"48ffc077-3522-4d19-ae2b-452f21b4d33b","system_id":"levelo_inurba_marseille","lat":43.30794,"lon":5.38156,"is_reserved":false,"is_disabled":false,"rental_uris":{"android":"levelo://app?vid=48ffc077-3522-4d19-ae2b-452f21b4d33b","ios":"levelo://app?vid=48ffc077-3522-4d19-ae2b-452f21b4d33b"},"vehicle_type_id":"4","last_reported":1739106684,"current_range_meters":22800,"station_id":"ce4bgt12rcd13ifvqce0","pricing_plan_id":"cebpf4jnsgd1na2vs0mg"},{"bike_id":"54821b8f-03ba-4360-abc1-91db00db4644","system_id":"levelo_inurba_marseille","lat":43.25495,"lon":5.37634,"is_reserved":false,"is_disabled":false,"rental_uris":{"android":"levelo://app?vid=54821b8f-03ba-4360-abc1-91db00db4644","ios":"levelo://app?vid=54821b8f-03ba-4360-abc1-91db00db4644"},"vehicle_type_id":"4","last_reported":1739106684,"current_range_meters":38800,"station_id":"ce4bhh12rcd13ifvqff0","pricing_plan_id":"cebpf4jnsgd1na2vs0mg"},{"bike_id":"48cfa1b6-cea4-46a9-9cd0-36a8c7915375","system_id":"levelo_inurba_marseille","lat":43.27063,"lon":5.40262,"is_reserved":false,"is_disabled":false,"rental_uris":{"android":"levelo://app?vid=48cfa1b6-cea4-46a9-9cd0-36a8c7915375","ios":"levelo://app?vid=48cfa1b6-cea4-46a9-9cd0-36a8c7915375"},"vehicle_type_id":"4","last_reported":1739106684,"current_range_meters":38800,"station_id":"ce4bhk92rcd13ifvqgc0","pricing_plan_id":"cebpf4jnsgd1na2vs0mg"},{"bike_id":"66a32674-0e22-4208-bc59-e57e45db52af","system_id":"levelo_inurba_marseille","lat":43.25004,"lon":5.38934,"is_reserved":false,"is_disabled":false,"rental_uris":{"android":"levelo://app?vid=66a32674-0e22-4208-bc59-e57e45db52af","ios":"levelo://app?vid=66a32674-0e22-4208-bc59-e57e45db52af"},"vehicle_type_id":"4","last_reported":1739106684,"current_range_meters":28000,"station_id":"ce4bhgp2rcd13ifvqfd0","pricing_plan_id":"cebpf4jnsgd1na2vs0mg"},{"bike_id":"bf6b4f8a-ebdf-4a97-96a5-34d838a6edf6","system_id":"levelo_inurba_marseille","lat":43.23187,"lon":5.35561,"is_reserved":false,"is_disabled":false,"rental_uris":{"android":"levelo://app?vid=bf6b4f8a-ebdf-4a97-96a5-34d838a6edf6","ios":"levelo://app?vid=bf6b4f8a-ebdf-4a97-96a5-34d838a6edf6"},"vehicle_type_id":"4","last_reported":1739106684,"current_range_meters":24000,"station_id":"ce4bhu92rcd13ifvqi70","pricing_plan_id":"cebpf4jnsgd1na2vs0mg"},{"bike_id":"811b596f-d366-4ba7-8bb7-6aab07e70a55","system_id":"levelo_inurba_marseille","lat":43.2827,"lon":5.35081,"is_reserved":false,"is_disabled":false,"rental_uris":{"android":"levelo://app?vid=811b596f-d366-4ba7-8bb7-6aab07e70a55","ios":"levelo://app?vid=811b596f-d366-4ba7-8bb7-6aab07e70a55"},"vehicle_type_id":"4","last_reported":1739106684,"current_range_meters":15200,"station_id":"ce4bhbp2rcd13ifvqerg","pricing_plan_id":"cebpf4jnsgd1na2vs0mg"},{"bike_id":"213121fc-8105-4127-83ce-0c8d78bb7544","system_id":"levelo_inurba_marseille","lat":43.31365,"lon":5.39659,"is_reserved":false,"is_disabled":false,"rental_uris":{"android":"levelo://app?vid=213121fc-8105-4127-83ce-0c8d78bb7544","ios":"levelo://app?vid=213121fc-8105-4127-83ce-0c8d78bb7544"},"vehicle_type_id":"4","last_reported":1739106684,"current_range_meters":25200,"station_id":"ce4bgvp2rcd13ifvqcu0","pricing_plan_id":"cebpf4jnsgd1na2vs0mg"},{"bike_id":"add99ff6-f54a-4f52-b2a1-c4071c3f0d53","system_id":"levelo_inurba_marseille","lat":43.26682,"lon":5.38273,"is_reserved":false,"is_disabled":false,"rental_uris":{"android":"levelo://app?vid=add99ff6-f54a-4f52-b2a1-c4071c3f0d53","ios":"levelo://app?vid=add99ff6-f54a-4f52-b2a1-c4071c3f0d53"},"vehicle_type_id":"4","last_reported":1739106684,"current_range_meters":27600,"station_id":"ce4bhg92rcd13ifvqf90","pricing_plan_id":"cebpf4jnsgd1na2vs0mg"},{"bike_id":"d8f62340-4eca-4551-9614-e0d9ad9e8911","system_id":"levelo_inurba_marseille","lat":43.26959,"lon":5.38604,"is_reserved":false,"is_disabled":false,"rental_uris":{"android":"levelo://app?vid=d8f62340-4eca-4551-9614-e0d9ad9e8911","ios":"levelo://app?vid=d8f62340-4eca-4551-9614-e0d9ad9e8911"},"vehicle_type_id":"4","last_reported":1739106684,"current_range_meters":14400,"station_id":"ce4bhh92rcd13ifvqfh0","pricing_plan_id":"cebpf4jnsgd1na2vs0mg"},{"bike_id":"25abaf33-067a-4b80-89fd-6dd825a080ab","system_id":"levelo_inurba_marseille","lat":43.30162,"lon":5.38087,"is_reserved":false,"is_disabled":false,"rental_uris":{"android":"levelo://app?vid=25abaf33-067a-4b80-89fd-6dd825a080ab","ios":"levelo://app?vid=25abaf33-067a-4b80-89fd-6dd825a080ab"},"vehicle_type_id":"4","last_reported":1739106684,"current_range_meters":38800,"station_id":"ce4bgjp2rcd13ifvqbh0","pricing_plan_id":"cebpf4jnsgd1na2vs0mg"},{"bike_id":"c54adf54-2f88-445c-8d8e-45419eb2600c","system_id":"levelo_inurba_marseille","lat":43.30662,"lon":5.37362,"is_reserved":false,"is_disabled":false,"rental_uris":{"android":"levelo://app?vid=c54adf54-2f88-445c-8d8e-45419eb2600c","ios":"levelo://app?vid=c54adf54-2f88-445c-8d8e-45419eb2600c"},"vehicle_type_id":"4","last_reported":1739106684,"current_range_meters":8000,"station_id":"","pricing_plan_id":"cebpf4jnsgd1na2vs0mg"},{"bike_id":"06b81e0b-f59f-442b-8367-23cebd52cf43","system_id":"levelo_inurba_marseille","lat":43.27423,"lon":5.39427,"is_reserved":false,"is_disabled":false,"rental_uris":{"android":"levelo://app?vid=06b81e0b-f59f-442b-8367-23cebd52cf43","ios":"levelo://app?vid=06b81e0b-f59f-442b-8367-23cebd52cf43"},"vehicle_type_id":"4","last_reported":1739106684,"current_range_meters":38800,"station_id":"ce4bhdp2rcd13ifvqf20","pricing_plan_id":"cebpf4jnsgd1na2vs0mg"},{"bike_id":"455a36df-3663-418c-af3b-ce691823bf7f","system_id":"levelo_inurba_marseille","lat":43.30161,"lon":5.38081,"is_reserved":false,"is_disabled":false,"rental_uris":{"android":"levelo://app?vid=455a36df-3663-418c-af3b-ce691823bf7f","ios":"levelo://app?vid=455a36df-3663-418c-af3b-ce691823bf7f"},"vehicle_type_id":"4","last_reported":1739106684,"current_range_meters":38800,"station_id":"ce4bgjp2rcd13ifvqbh0","pricing_plan_id":"cebpf4jnsgd1na2vs0mg"},{"bike_id":"be61678a-055f-4cad-87b0-c5a707ca2316","system_id":"levelo_inurba_marseille","lat":43.28614,"lon":5.35101,"is_reserved":false,"is_disabled":false,"rental_uris":{"android":"levelo://app?vid=be61678a-055f-4cad-87b0-c5a707ca2316","ios":"levelo://app?vid=be61678a-055f-4cad-87b0-c5a707ca2316"},"vehicle_type_id":"4","last_reported":1739106684,"current_range_meters":34000,"station_id":"ce4bhch2rcd13ifvqeug","pricing_plan_id":"cebpf4jnsgd1na2vs0mg"},{"bike_id":"f9438944-6d7f-4d99-b575-fb4f3f5cf680","system_id":"levelo_inurba_marseille","lat":43.24799,"lon":5.37451,"is_reserved":false,"is_disabled":false,"rental_uris":{"android":"levelo://app?vid=f9438944-6d7f-4d99-b575-fb4f3f5cf680","ios":"levelo://app?vid=f9438944-6d7f-4d99-b575-fb4f3f5cf680"},"vehicle_type_id":"4","last_reported":1739106684,"current_range_meters":8400,"station_id":"ce4bhgh2rcd13ifvqfb0","pricing_plan_id":"cebpf4jnsgd1na2vs0mg"},{"bike_id":"1a3d3b39-f932-4fb6-81b3-15756812698e","system_id":"levelo_inurba_marseille","lat":43.29581,"lon":5.36742,"is_reserved":false,"is_disabled":false,"rental_uris":{"android":"levelo://app?vid=1a3d3b39-f932-4fb6-81b3-15756812698e","ios":"levelo://app?vid=1a3d3b39-f932-4fb6-81b3-15756812698e"},"vehicle_type_id":"4","last_reported":1739106684,"current_range_meters":24800,"station_id":"ce4bgph2rcd13ifvqc2g","pricing_plan_id":"cebpf4jnsgd1na2vs0mg"},{"bike_id":"49ad4b8c-5d5c-4a58-a784-a97fe60e5f1d","system_id":"levelo_inurba_marseille","lat":43.26939,"lon":5.40257,"is_reserved":false,"is_disabled":false,"rental_uris":{"android":"levelo://app?vid=49ad4b8c-5d5c-4a58-a784-a97fe60e5f1d","ios":"levelo://app?vid=49ad4b8c-5d5c-4a58-a784-a97fe60e5f1d"},"vehicle_type_id":"4","last_reported":1739106684,"current_range_meters":36000,"station_id":"cjm6bp8fraef2m0cb0m0","pricing_plan_id":"cebpf4jnsgd1na2vs0mg"},{"bike_id":"fa8ebd31-b729-4f5c-bb21-518a58280e21","system_id":"levelo_inurba_marseille","lat":43.276243,"lon":5.36123,"is_reserved":false,"is_disabled":false,"rental_uris":{"android":"levelo://app?vid=fa8ebd31-b729-4f5c-bb21-518a58280e21","ios":"levelo://app?vid=fa8ebd31-b729-4f5c-bb21-518a58280e21"},