{"last_updated":1752077473,"ttl":60,"version":"2.2","data":{"bikes":[{"bike_id":"cd20cfea-2f2f-444d-a882-a49b6cf370eb","system_id":"levelo_inurba_marseille","lat":43.337444,"lon":5.374475,"is_reserved":false,"is_disabled":true,"rental_uris":{"android":"levelo://app?vid=cd20cfea-2f2f-444d-a882-a49b6cf370eb","ios":"levelo://app?vid=cd20cfea-2f2f-444d-a882-a49b6cf370eb"},"vehicle_type_id":"4","last_reported":1752077474,"current_range_meters":0,"station_id":"","pricing_plan_id":"cebpf4jnsgd1na2vs0mg"},{"bike_id":"3da29fb8-fc97-44c6-b9ac-31dd456b2fd4","system_id":"levelo_inurba_marseille","lat":43.33771,"lon":5.37424,"is_reserved":false,"is_disabled":true,"rental_uris":{"android":"levelo://app?vid=3da29fb8-fc97-44c6-b9ac-31dd456b2fd4","ios":"levelo://app?vid=3da29fb8-fc97-44c6-b9ac-31dd456b2fd4"},"vehicle_type_id":"4","last_reported":1752077474,"current_range_meters":0,"station_id":"","pricing_plan_id":"cebpf4jnsgd1na2vs0mg"},{"bike_id":"01861ad8-a8d7-4be6-816e-651927c87584","system_id":"levelo_inurba_marseille","lat":43.33751,"lon":5.37456,"is_reserved":false,"is_disabled":true,"rental_uris":{"android":"levelo://app?vid=01861ad8-a8d7-4be6-816e-651927c87584","ios":"levelo://app?vid=01861ad8-a8d7-4be6-816e-651927c87584"},"vehicle_type_id":"4","last_reported":1752077474,"current_range_meters":0,"station_id":"","pricing_plan_id":"cebpf4jnsgd1na2vs0mg"},{"bike_id":"53b1a31e-8ada-40c0-8d64-113a81233c84","system_id":"levelo_inurba_marseille","lat":43.364,"lon":5.31931,"is_reserved":false,"is_disabled":true,"rental_uris":{"android":"levelo://app?vid=53b1a31e-8ada-40c0-8d64-113a81233c84","ios":"levelo://app?vid=53b1a31e-8ada-40c0-8d64-113a81233c84"},"vehicle_type_id":"4","last_reported":1752077474,"current_range_meters":0,"station_id":"","pricing_plan_id":"cebpf4jnsgd1na2vs0mg"},{"bike_id":"95260758-2456-4552-add6-e04888ed279e","system_id":"levelo_inurba_marseille","lat":43.30297,"lon":5.39215,"is_reserved":false,"is_disabled":true,"rental_uris":{"android":"levelo://app?vid=95260758-2456-4552-add6-e04888ed279e","ios":"levelo://app?vid=95260758-2456-4552-add6-e04888ed279e"},"vehicle_type_id":"4","last_reported":1752077474,"current_range_meters":0,"station_id":"ce4bgkh2rcd13ifvqbk0","pricing_plan_id":"cebpf4jnsgd1na2vs0mg"},{"bike_id":"bc94add9-558d-42f7-9854-c21ea4aacd58","system_id":"levelo_inurba_marseille","lat":43.30256,"lon":5.40057,"is_reserved":false,"is_disabled":true,"rental_uris":{"android":"levelo://app?vid=bc94add9-558d-42f7-9854-c21ea4aacd58","ios":"levelo://app?vid=bc94add9-558d-42f7-9854-c21ea4aacd58"},"vehicle_type_id":"4","last_reported":1752077474,"current_range_meters":0,"station_id":"ce4bgvh2rcd13ifvqcs0","pricing_plan_id":"cebpf4jnsgd1na2vs0mg"},{"bike_id":"53c4e4f8-a908-4738-9128-3be9a7692bf0","system_id":"levelo_inurba_marseille","lat":43.2963,"lon":5.40599,"is_reserved":false,"is_disabled":true,"rental_uris":{"android":"levelo://app?vid=53c4e4f8-a908-4738-9128-3be9a7692bf0","ios":"levelo://app?vid=53c4e4f8-a908-4738-9128-3be9a7692bf0"},"vehicle_type_id":"4","last_reported":1752077474,"current_range_meters":0,"station_id":"ce4bh0h2rcd13ifvqd60","pricing_plan_id":"cebpf4jnsgd1na2vs0mg"},{"bike_id":"a3058e0e-7298-4982-a1f1-1d1a8bab9bbc","system_id":"levelo_inurba_marseille","lat":43.29529,"lon":5.3905,"is_reserved":false,"is_disabled":true,"rental_uris":{"android":"levelo://app?vid=a3058e0e-7298-4982-a1f1-1d1a8bab9bbc","ios":"levelo://app?vid=a3058e0e-7298-4982-a1f1-1d1a8bab9bbc"},"vehicle_type_id":"4","last_reported":1752077474,"current_range_meters":0,"station_id":"ce4bh3p2rcd13ifvqdp0","pricing_plan_id":"cebpf4jnsgd1na2vs0mg"},{"bike_id":"4eaa4f46-e787-462b-ab61-5147ba127d17","system_id":"levelo_inurba_marseille","lat":43.27498,"lon":5.42457,"is_reserved":false,"is_disabled":true,"rental_uris":{"android":"levelo://app?vid=4eaa4f46-e787-462b-ab61-5147ba127d17","ios":"levelo://app?vid=4eaa4f46-e787-462b-ab61-5147ba127d17"},"vehicle_type_id":"4","last_reported":1752077474,"current_range_meters":0,"station_id":"ce4bhn92rcd13ifvqgrg","pricing_plan_id":"cebpf4jnsgd1na2vs0mg"},{"bike_id":"e562ad4e-a577-4b7b-a74e-7e00b9c0f52f","system_id":"levelo_inurba_marseille","lat":43.225027,"lon":5.347812,"is_reserved":false,"is_disabled":true,"rental_uris":{"android":"levelo://app?vid=e562ad4e-a577-4b7b-a74e-7e00b9c0f52f","ios":"levelo://app?vid=e562ad4e-a577-4b7b-a74e-7e00b9c0f52f"},"vehicle_type_id":"4","last_reported":1752077474,"current_range_meters":0,"station_id":"st_cvj5dfep6f1abm77gieg","pricing_plan_id":"cebpf4jnsgd1na2vs0mg"},{"bike_id":"6661cbd2-6ba2-4b46-b15e-1188df0f29d7","system_id":"levelo_inurba_marseille","lat":43.21211,"lon":5.35087,"is_reserved":false,"is_disabled":true,"rental_uris":{"android":"levelo://app?vid=6661cbd2-6ba2-4b46-b15e-1188df0f29d7","ios":"levelo://app?vid=6661cbd2-6ba2-4b46-b15e-1188df0f29d7"},"vehicle_type_id":"4","last_reported":1752077474,"current_range_meters":0,"station_id":"st_cvj6sg6p6f1abm77japg","pricing_plan_id":"cebpf4jnsgd1na2vs0mg"},{"bike_id":"0fa27288-5535-4a3a-bfb0-b82caf369ae8","system_id":"levelo_inurba_marseille","lat":43.28262,"lon":5.35064,"is_reserved":false,"is_disabled":true,"rental_uris":{"android":"levelo://app?vid=0fa27288-5535-4a3a-bfb0-b82caf369ae8","ios":"levelo://app?vid=0fa27288-5535-4a3a-bfb0-b82caf369ae8"},"vehicle_type_id":"4","last_reported":1752077474,"current_range_meters":400,"station_id":"ce4bhbp2rcd13ifvqerg","pricing_plan_id":"cebpf4jnsgd1na2vs0mg"},{"bike_id":"c94d02e3-f1b9-4adf-898f-6f3cf4285185","system_id":"levelo_inurba_marseille","lat":43.31897,"lon":5.40735,"is_reserved":false,"is_disabled":true,"rental_uris":{"android":"levelo://app?vid=c94d02e3-f1b9-4adf-898f-6f3cf4285185","ios":"levelo://app?vid=c94d02e3-f1b9-4adf-898f-6f3cf4285185"},"vehicle_type_id":"4","last_reported":1752077474,"current_range_meters":800,"station_id":"ce4bhq12rcd13ifvqhig","pricing_plan_id":"cebpf4jnsgd1na2vs0mg"},{"bike_id":"336eaf6b-6955-4ef9-8dfa-abf06b057d2c","system_id":"levelo_inurba_marseille","lat":43.21188,"lon":5.35069,"is_reserved":false,"is_disabled":true,"rental_uris":{"android":"levelo://app?vid=336eaf6b-6955-4ef9-8dfa-abf06b057d2c","ios":"levelo://app?vid=336eaf6b-6955-4ef9-8dfa-abf06b057d2c"},"vehicle_type_id":"4","last_reported":1752077474,"current_range_meters":800,"station_id":"st_cvj6sg6p6f1abm77japg","pricing_plan_id":"cebpf4jnsgd1na2vs0mg"},{"bike_id":"98201f2e-4fc7-4dae-b1a7-9c6d2dbb1f5f","system_id":"levelo_inurba_marseille","lat":43.29073,"lon":5.37168,"is_reserved":false,"is_disabled":true,"rental_uris":{"android":"levelo://app?vid=98201f2e-4fc7-4dae-b1a7-9c6d2dbb1f5f","ios":"levelo://app?vid=98201f2e-4fc7-4dae-b1a7-9c6d2dbb1f5f"},"vehicle_type_id":"4","last_reported":1752077474,"current_range_meters":1200,"station_id":"ce4bh5p2rcd13ifvqe4g","pricing_plan_id":"cebpf4jnsgd1na2vs0mg"},{"bike_id":"2bd6bd50-2b9d-44a1-93d2-a37cc132b156","system_id":"levelo_inurba_marseille","lat":43.28268,"lon":5.35059,"is_reserved":false,"is_disabled":true,"rental_uris":{"android":"levelo://app?vid=2bd6bd50-2b9d-44a1-93d2-a37cc132b156","ios":"levelo://app?vid=2bd6bd50-2b9d-44a1-93d2-a37cc132b156"},"vehicle_type_id":"4","last_reported":1752077474,"current_range_meters":1200,"station_id":"ce4bhbp2rcd13ifvqerg","pricing_plan_id":"cebpf4jnsgd1na2vs0mg"},{"bike_id":"0a993afa-a211-4b10-9163-1eb607e4c2a5","system_id":"levelo_inurba_marseille","lat":43.279937,"lon":5.386947,"is_reserved":false,"is_disabled":true,"rental_uris":{"android":"levelo://app?vid=0a993afa-a211-4b10-9163-1eb607e4c2a5","ios":"levelo://app?vid=0a993afa-a211-4b10-9163-1eb607e4c2a5"},"vehicle_type_id":"4","last_reported":1752077474,"current_range_meters":1200,"station_id":"ce4bhg12rcd13ifvqf80","pricing_plan_id":"cebpf4jnsgd1na2vs0mg"},{"bike_id":"cd869f0c-8345-4fb1-a60e-ec0ef40cae6f","system_id":"levelo_inurba_marseille","lat":43.26956,"lon":5.38634,"is_reserved":false,"is_disabled":true,"rental_uris":{"android":"levelo://app?vid=cd869f0c-8345-4fb1-a60e-ec0ef40cae6f","ios":"levelo://app?vid=cd869f0c-8345-4fb1-a60e-ec0ef40cae6f"},"vehicle_type_id":"4","last_reported":1752077474,"current_range_meters":1200,"station_id":"ce4bhh92rcd13ifvqfh0","pricing_plan_id":"cebpf4jnsgd1na2vs0mg"},{"bike_id":"0eb9dd1d-f549-43db-a801-3f1b2c8cb0ee","system_id":"levelo_inurba_marseille","lat":43.32659,"lon":5.40992,"is_reserved":false,"is_disabled":true,"rental_uris":{"android":"levelo://app?vid=0eb9dd1d-f549-43db-a801-3f1b2c8cb0ee","ios":"levelo://app?vid=0eb9dd1d-f549-43db-a801-3f1b2c8cb0ee"},"vehicle_type_id":"4","last_reported":1752077474,"current_range_meters":1200,"station_id":"ce4bhpp2rcd13ifvqhgg","pricing_plan_id":"cebpf4jnsgd1na2vs0mg"},{"bike_id":"9dbe87cc-21c9-4b6c-952c-c09e35887f80","system_id":"levelo_inurba_marseille","lat":43.21763,"lon":5.34598,"is_reserved":false,"is_disabled":true,"rental_uris":{"android":"levelo://app?vid=9dbe87cc-21c9-4b6c-952c-c09e35887f80","ios":"levelo://app?vid=9dbe87cc-21c9-4b6c-952c-c09e35887f80"},"vehicle_type_id":"4","last_reported":1752077474,"current_range_meters":1200,"station_id":"st_cvj6r9ubvosntc0bgbag","pricing_plan_id":"cebpf4jnsgd1na2vs0mg"},{"bike_id":"2581b7c5-1b42-4417-a9e6-cbdbedb7a2dd","system_id":"levelo_inurba_marseille","lat":43.2176,"lon":5.34613,"is_reserved":false,"is_disabled":true,"rental_uris":{"android":"levelo://app?vid=2581b7c5-1b42-4417-a9e6-cbdbedb7a2dd","ios":"levelo://app?vid=2581b7c5-1b42-4417-a9e6-cbdbedb7a2dd"},"vehicle_type_id":"4","last_reported":1752077474,"current_range_meters":1200,"station_id":"st_cvj6r9ubvosntc0bgbag","pricing_plan_id":"cebpf4jnsgd1na2vs0mg"},{"bike_id":"6ea540a8-e376-42de-ad38-52788891cd67","system_id":"levelo_inurba_marseille","lat":43.30321,"lon":5.40434,"is_reserved":false,"is_disabled":true,"rental_uris":{"android":"levelo://app?vid=6ea540a8-e376-42de-ad38-52788891cd67","ios":"levelo://app?vid=6ea540a8-e376-42de-ad38-52788891cd67"},"vehicle_type_id":"4","last_reported":1752077474,"current_range_meters":1600,"station_id":"ce4bh012rcd13ifvqd10","pricing_plan_id":"cebpf4jnsgd1na2vs0mg"},{"bike_id":"2210e010-5f14-444d-8476-f2a6e4b4c102","system_id":"levelo_inurba_marseille","lat":43.26208,"lon":5.37443,"is_reserved":false,"is_disabled":true,"rental_uris":{"android":"levelo://app?vid=2210e010-5f14-444d-8476-f2a6e4b4c102","ios":"levelo://app?vid=2210e010-5f14-444d-8476-f2a6e4b4c102"},"vehicle_type_id":"4","last_reported":1752077474,"current_range_meters":1600,"station_id":"ce4bhgp2rcd13ifvqfc0","pricing_plan_id":"cebpf4jnsgd1na2vs0mg"},{"bike_id":"5745f131-cd4a-4ac9-bdc2-7385b3c3e0a5","system_id":"levelo_inurba_marseille","lat":43.21742,"lon":5.34582,"is_reserved":false,"is_disabled":true,"rental_uris":{"android":"levelo://app?vid=5745f131-cd4a-4ac9-bdc2-7385b3c3e0a5","ios":"levelo://app?vid=5745f131-cd4a-4ac9-bdc2-7385b3c3e0a5"},"vehicle_type_id":"4","last_reported":1752077474,"current_range_meters":1600,"station_id":"st_cvj6r9ubvosntc0bgbag","pricing_plan_id":"cebpf4jnsgd1na2vs0mg"},{"bike_id":"c98d0307-3157-4a39-9409-864e8e505802","system_id":"levelo_inurba_marseille","lat":43.24163,"lon":5.39373,"is_reserved":false,"is_disabled":true,"rental_uris":{"android":"levelo://app?vid=c98d0307-3157-4a39-9409-864e8e505802","ios":"levelo://app?vid=c98d0307-3157-4a39-9409-864e8e505802"},"vehicle_type_id":"4","last_reported":1752077474,"current_range_meters":2000,"station_id":"","pricing_plan_id":"cebpf4jnsgd1na2vs0mg"},{"bike_id":"3b22f952-d0bc-4c00-8fd3-7e27b88aea23","system_id":"levelo_inurba_marseille","lat":43.29659,"lon":5.36245,"is_reserved":false,"is_disabled":true,"rental_uris":{"android":"levelo://app?vid=3b22f952-d0bc-4c00-8fd3-7e27b88aea23","ios":"levelo://app?vid=3b22f952-d0bc-4c00-8fd3-7e27b88aea23"},"vehicle_type_id":"4","last_reported":1752077474,"current_range_meters":2000,"station_id":"","pricing_plan_id":"cebpf4jnsgd1na2vs0mg"},{"bike_id":"5dd215d8-fbe0-4774-a142-eedc4c9b0bb9","system_id":"levelo_inurba_marseille","lat":43.27308,"lon":5.39106,"is_reserved":false,"is_disabled":true,"rental_uris":{"android":"levelo://app?vid=5dd215d8-fbe0-4774-a142-eedc4c9b0bb9","ios":"levelo://app?vid=5dd215d8-fbe0-4774-a142-eedc4c9b0bb9"},"vehicle_type_id":"4","last_reported":1752077474,"current_range_meters":2000,"station_id":"ce4bhgp2rcd13ifvqfe0","pricing_plan_id":"cebpf4jnsgd1na2vs0mg"},{"bike_id":"37f2becd-23f9-4f13-a711-38b8024eeec7","system_id":"levelo_inurba_marseille","lat":43.33768,"lon":5.37516,"is_reserved":false,"is_disabled":false,"rental_uris":{"android":"levelo://app?vid=37f2becd-23f9-4f13-a711-38b8024eeec7","ios":"levelo://app?vid=37f2becd-23f9-4f13-a711-38b8024eeec7"},"vehicle_type_id":"4","last_reported":1752077474,"current_range_meters":2800,"station_id":"","pricing_plan_id":"cebpf4jnsgd1na2vs0mg"},{"bike_id":"713be4c4-a773-4917-bec5-0c42bbc80d50","system_id":"levelo_inurba_marseille","lat":43.27922,"lon":5.39578,"is_reserved":false,"is_disabled":false,"rental_uris":{"android":"levelo://app?vid=713be4c4-a773-4917-bec5-0c42bbc80d50","ios":"levelo://app?vid=713be4c4-a773-4917-bec5-0c42bbc80d50"},"vehicle_type_id":"4","last_reported":1752077474,"current_range_meters":2800,"station_id":"ce4bhf92rcd13ifvqf40","pricing_plan_id":"cebpf4jnsgd1na2vs0mg"},{"bike_id":"6369ef9f-ee51-4929-b9eb-83dffa55d41a","system_id":"levelo_inurba_marseille","lat":43.293615,"lon":5.373599,"is_reserved":false,"is_disabled":false,"rental_uris":{"android":"levelo://app?vid=6369ef9f-ee51-4929-b9eb-83dffa55d41a","ios":"levelo://app?vid=6369ef9f-ee51-4929-b9eb-83dffa55d41a"},"vehicle_type_id":"4","last_reported":1752077474,"current_range_meters":3200,"station_id":"ce4bhb12rcd13ifvqel0","pricing_plan_id":"cebpf4jnsgd1na2vs0mg"},{"bike_id":"b3468ca0-9271-4bf7-9c1b-cd68e3f47488","system_id":"levelo_inurba_marseille","lat":43.289129,"lon":5.396496,"is_reserved":false,"is_disabled":false,"rental_uris":{"android":"levelo://app?vid=b3468ca0-9271-4bf7-9c1b-cd68e3f47488","ios":"levelo://app?vid=b3468ca0-9271-4bf7-9c1b-cd68e3f47488"},"vehicle_type_id":"4","last_reported":1752077474,"current_range_meters":3200,"station_id":"ce4bho92rcd13ifvqh3g","pricing_plan_id":"cebpf4jnsgd1na2vs0mg"},{"bike_id":"303615e2-b645-47aa-b8dc-d69233e50c42","system_id":"levelo_inurba_marseille","lat":43.29914,"lon":5.43659,"is_reserved":false,"is_disabled":false,"rental_uris":{"android":"levelo://app?vid=303615e2-b645-47aa-b8dc-d69233e50c42","ios":"levelo://app?vid=303615e2-b645-47aa-b8dc-d69233e50c42"},"vehicle_type_id":"4","last_reported":1752077474,"current_range_meters":3200,"station_id":"ce4bhpp2rcd13ifvqhfg","pricing_plan_id":"cebpf4jnsgd1na2vs0mg"},{"bike_id":"2c423baa-ecca-420a-87d7-ad0b7e0b9ebb","system_id":"levelo_inurba_marseille","lat":43.280458,"lon":5.353603,"is_reserved":false,"is_disabled":false,"rental_uris":{"android":"levelo://app?vid=2c423baa-ecca-420a-87d7-ad0b7e0b9ebb","ios":"levelo://app?vid=2c423baa-ecca-420a-87d7-ad0b7e0b9ebb"},"vehicle_type_id":"4","last_reported":1752077474,"current_range_meters":3600,"station_id":"","pricing_plan_id":"cebpf4jnsgd1na2vs0mg"},{"bike_id":"e10c0869-9891-4eff-983b-2f667f7a71f0","system_id":"levelo_inurba_marseille","lat":43.31083,"lon":5.42431,"is_reserved":false,"is_disabled":false,"rental_uris":{"android":"levelo://app?vid=e10c0869-9891-4eff-983b-2f667f7a71f0","ios":"levelo://app?vid=e10c0869-9891-4eff-983b-2f667f7a71f0"},"vehicle_type_id":"4","last_reported":1752077474,"current_range_meters":3600,"station_id":"ce4bhp92rcd13ifvqhag","pricing_plan_id":"cebpf4jnsgd1na2vs0mg"},{"bike_id":"3fdfe980-ad24-4b9a-b706-1338dd7f23aa","system_id":"levelo_inurba_marseille","lat":43.29553,"lon":5.42285,"is_reserved":false,"is_disabled":false,"rental_uris":{"android":"levelo://app?vid=3fdfe980-ad24-4b9a-b706-1338dd7f23aa","ios":"levelo://app?vid=3fdfe980-ad24-4b9a-b706-1338dd7f23aa"},"vehicle_type_id":"4","last_reported":1752077474,"current_range_meters":3600,"station_id":"ce4bhph2rcd13ifvqhdg","pricing_plan_id":"cebpf4jnsgd1na2vs0mg"},{"bike_id":"fff348c2-664c-4932-ac4f-808a01a77f35","system_id":"levelo_inurba_marseille","lat":43.31688,"lon":5.40478,"is_reserved":false,"is_disabled":false,"rental_uris":{"android":"levelo://app?vid=fff348c2-664c-4932-ac4f-808a01a77f35","ios":"levelo://app?vid=fff348c2-664c-4932-ac4f-808a01a77f35"},"vehicle_type_id":"4","last_reported":1752077474,"current_range_meters":4000,"station_id":"ce4bh012rcd13ifvqd00","pricing_plan_id":"cebpf4jnsgd1na2vs0mg"},{"bike_id":"42cb0cd9-1001-4f5b-a896-38d19660b43c","system_id":"levelo_inurba_marseille","lat":43.29029,"lon":5.35594,"is_reserved":false,"is_disabled":false,"rental_uris":{"android":"levelo://app?vid=42cb0cd9-1001-4f5b-a896-38d19660b43c","ios":"levelo://app?vid=42cb0cd9-1001-4f5b-a896-38d19660b43c"},"vehicle_type_id":"4","last_reported":1752077474,"current_range_meters":4000,"station_id":"ce4bhb92rcd13ifvqen0","pricing_plan_id":"cebpf4jnsgd1na2vs0mg"},{"bike_id":"addf55d6-882c-47bb-8821-cb63241a5de6","system_id":"levelo_inurba_marseille","lat":43.25007,"lon":5.38926,"is_reserved":false,"is_disabled":false,"rental_uris":{"android":"levelo://app?vid=addf55d6-882c-47bb-8821-cb63241a5de6","ios":"levelo://app?vid=addf55d6-882c-47bb-8821-cb63241a5de6"},"vehicle_type_id":"4","last_reported":1752077474,"current_range_meters":4000,"station_id":"ce4bhgp2rcd13ifvqfd0","pricing_plan_id":"cebpf4jnsgd1na2vs0mg"},{"bike_id":"b6298908-c110-4734-bd54-5126c1515414","system_id":"levelo_inurba_marseille","lat":43.21188,"lon":5.35079,"is_reserved":false,"is_disabled":false,"rental_uris":{"android":"levelo://app?vid=b6298908-c110-4734-bd54-5126c1515414","ios":"levelo://app?vid=b6298908-c110-4734-bd54-5126c1515414"},"vehicle_type_id":"4","last_reported":1752077474,"current_range_meters":4000,"station_id":"st_cvj6sg6p6f1abm77japg","pricing_plan_id":"cebpf4jnsgd1na2vs0mg"},{"bike_id":"12618e1b-f412-41e6-8bb7-b47e373c49aa","system_id":"levelo_inurba_marseille","lat":43.29269,"lon":5.38443,"is_reserved":false,"is_disabled":false,"rental_uris":{"android":"levelo://app?vid=12618e1b-f412-41e6-8bb7-b47e373c49aa","ios":"levelo://app?vid=12618e1b-f412-41e6-8bb7-b47e373c49aa"},"vehicle_type_id":"4","last_reported":1752077474,"current_range_meters":4400,"station_id":"ce4bh692rcd13ifvqea0","pricing_plan_id":"cebpf4jnsgd1na2vs0mg"},{"bike_id":"f0c49e23-9025-4f51-8dff-2ead67575796","system_id":"levelo_inurba_marseille","lat":43.29709,"lon":5.37695,"is_reserved":false,"is_disabled":false,"rental_uris":{"android":"levelo://app?vid=f0c49e23-9025-4f51-8dff-2ead67575796","ios":"levelo://app?vid=f0c49e23-9025-4f51-8dff-2ead67575796"},"vehicle_type_id":"4","last_reported":1752077474,"current_range_meters":5600,"station_id":"ce4bgkh2rcd13ifvqbl0","pricing_plan_id":"cebpf4jnsgd1na2vs0mg"},{"bike_id":"0c8f92f0-34dd-4528-ac9a-218976babbcb","system_id":"levelo_inurba_marseille","lat":43.297057,"lon":5.376893,"is_reserved":false,"is_disabled":false,"rental_uris":{"android":"levelo://app?vid=0c8f92f0-34dd-4528-ac9a-218976babbcb","ios":"levelo://app?vid=0c8f92f0-34dd-4528-ac9a-218976babbcb"},"vehicle_type_id":"4","last_reported":1752077474,"current_range_meters":5600,"station_id":"ce4bgkh2rcd13ifvqbl0","pricing_plan_id":"cebpf4jnsgd1na2vs0mg"},{"bike_id":"c293dfea-6724-4e70-9db8-ca3048fba494","system_id":"levelo_inurba_marseille","lat":43.21751,"lon":5.34604,"is_reserved":false,"is_disabled":false,"rental_uris":{"android":"levelo://app?vid=c293dfea-6724-4e70-9db8-ca3048fba494","ios":"levelo://app?vid=c293dfea-6724-4e70-9db8-ca3048fba494"},"vehicle_type_id":"4","last_reported":1752077474,"current_range_meters":5600,"station_id":"st_cvj6r9ubvosntc0bgbag","pricing_plan_id":"cebpf4jnsgd1na2vs0mg"},{"bike_id":"396ce2c7-7371-48f1-9b45-db456fcfa7ed","system_id":"levelo_inurba_marseille","lat":43.29533,"lon":5.37509,"is_reserved":false,"is_disabled":false,"rental_uris":{"android":"levelo://app?vid=396ce2c7-7371-48f1-9b45-db456fcfa7ed","ios":"levelo://app?vid=396ce2c7-7371-48f1-9b45-db456fcfa7ed"},"vehicle_type_id":"4","last_reported":1752077474,"current_range_meters":6400,"station_id":"ce4bgkp2rcd13ifvqbmg","pricing_plan_id":"cebpf4jnsgd1na2vs0mg"},{"bike_id":"1d6cf656-08e3-4cd9-9731-3c5160d493cf","system_id":"levelo_inurba_marseille","lat":43.27841,"lon":5.39218,"is_reserved":false,"is_disabled":false,"rental_uris":{"android":"levelo://app?vid=1d6cf656-08e3-4cd9-9731-3c5160d493cf","ios":"levelo://app?vid=1d6cf656-08e3-4cd9-9731-3c5160d493cf"},"vehicle_type_id":"4","last_reported":1752077474,"current_range_meters":6400,"station_id":"ce4bhjp2rcd13ifvqga0","pricing_plan_id":"cebpf4jnsgd1na2vs0mg"},{"bike_id":"bfe5c67c-29ab-4d73-b9a6-103845bb2ad0","system_id":"levelo_inurba_marseille","lat":43.25586,"lon":5.38229,"is_reserved":false,"is_disabled":false,"rental_uris":{"android":"levelo://app?vid=bfe5c67c-29ab-4d73-b9a6-103845bb2ad0","ios":"levelo://app?vid=bfe5c67c-29ab-4d73-b9a6-103845bb2ad0"},"vehicle_type_id":"4","last_reported":1752077474,"current_range_meters":6800,"station_id":"ce4bhih2rcd13ifvqfs0","pricing_plan_id":"cebpf4jnsgd1na2vs0mg"},{"bike_id":"db4ba8b2-c28c-4134-a9f2-5f1d931f296e","system_id":"levelo_inurba_marseille","lat":43.26937,"lon":5.4025,"is_reserved":false,"is_disabled":false,"rental_uris":{"android":"levelo://app?vid=db4ba8b2-c28c-4134-a9f2-5f1d931f296e","ios":"levelo://app?vid=db4ba8b2-c28c-4134-a9f2-5f1d931f296e"},"vehicle_type_id":"4","last_reported":1752077474,"current_range_meters":6800,"station_id":"cjm6bp8fraef2m0cb0m0","pricing_plan_id":"cebpf4jnsgd1na2vs0mg"},{"bike_id":"d087278b-5388-4b7e-a347-2ce3642391af","system_id":"levelo_inurba_marseille","lat":43.241723,"lon":5.363987,"is_reserved":false,"is_disabled":false,"rental_uris":{"android":"levelo://app?vid=d087278b-5388-4b7e-a347-2ce3642391af","ios":"levelo://app?vid=d087278b-5388-4b7e-a347-2ce3642391af"},"vehicle_type_id":"4","last_reported":1752077474,"current_range_meters":6800,"station_id":"cpo36qri1sfpv3e86is0","pricing_plan_id":"cebpf4jnsgd1na2vs0mg"},{"bike_id":"888522e3-39b6-4ff3-ad74-ff6c6f771157","system_id":"levelo_inurba_marseille","lat":43.29528,"lon":5.40295,"is_reserved":false,"is_disabled":false,"rental_uris":{"android":"levelo://app?vid=888522e3-39b6-4ff3-ad74-ff6c6f771157","ios":"levelo://app?vid=888522e3-39b6-4ff3-ad74-ff6c6f771157"},"vehicle_type_id":"4","last_reported":1752077474,"current_range_meters":7200,"station_id":"","pricing_plan_id":"cebpf4jnsgd1na2vs0mg"},{"bike_id":"c9dca66e-1e65-4df0-975d-55720650e28f","system_id":"levelo_inurba_marseille","lat":43.26939,"lon":5.40259,"is_reserved":false,"is_disabled":false,"rental_uris":{"android":"levelo://app?vid=c9dca66e-1e65-4df0-975d-55720650e28f","ios":"levelo://app?vid=c9dca66e-1e65-4df0-975d-55720650e28f"},"vehicle_type_id":"4","last_reported":1752077474,"current_range_meters":8000,"station_id":"cjm6bp8fraef2m0cb0m0","pricing_plan_id":"cebpf4jnsgd1na2vs0mg"},{"bike_id":"650e235a-d0b8-4b18-a3ba-c686d5e44a59","system_id":"levelo_inurba_marseille","lat":43.29836,"lon":5.36252,"is_reserved":false,"is_disabled":false,"rental_uris":{"android":"levelo://app?vid=650e235a-d0b8-4b18-a3ba-c686d5e44a59","ios":"levelo://app?vid=650e235a-d0b8-4b18-a3ba-c686d5e44a59"},"vehicle_type_id":"4","last_reported":1752077474,"current_range_meters":8400,"station_id":"ce4bgpp2rcd13ifvqc3g","pricing_plan_id":"cebpf4jnsgd1na2vs0mg"},{"bike_id":"4083d482-1696-41b6-96fa-1eaf80f2e81a","system_id":"levelo_inurba_marseille","lat":43.29004,"lon":5.3561,"is_reserved":false,"is_disabled":false,"rental_uris":{"android":"levelo://app?vid=4083d482-1696-41b6-96fa-1eaf80f2e81a","ios":"levelo://app?vid=4083d482-1696-41b6-96fa-1eaf80f2e81a"},"vehicle_type_id":"4","last_reported":1752077474,"current_range_meters":8400,"station_id":"ce4bhb92rcd13ifvqen0","pricing_plan_id":"cebpf4jnsgd1na2vs0mg"},{"bike_id":"9c2eb84c-c69d-4db1-a108-4d001a151fac","system_id":"levelo_inurba_marseille","lat":43.23176,"lon":5.39987,"is_reserved":false,"is_disabled":false,"rental_uris":{"android":"levelo://app?vid=9c2eb84c-c69d-4db1-a108-4d001a151fac","ios":"levelo://app?vid=9c2eb84c-c69d-4db1-a108-4d001a151fac"},"vehicle_type_id":"4","last_reported":1752077474,"current_range_meters":8400,"station_id":"ce4bhn12rcd13ifvqgqg","pricing_plan_id":"cebpf4jnsgd1na2vs0mg"},{"bike_id":"b78e2964-12b0-4cd0-ab18-904593681d30","system_id":"levelo_inurba_marseille","lat":43.28944,"lon":5.36633,"is_reserved":false,"is_disabled":false,"rental_uris":{"android":"levelo://app?vid=b78e2964-12b0-4cd0-ab18-904593681d30","ios":"levelo://app?vid=b78e2964-12b0-4cd0-ab18-904593681d30"},"vehicle_type_id":"4","last_reported":1752077474,"current_range_meters":8800,"station_id":"ce4bhap2rcd13ifvqek0","pricing_plan_id":"cebpf4jnsgd1na2vs0mg"},{"bike_id":"03205168-9c88-4c23-b06c-833fd5d1ab3a","system_id":"levelo_inurba_marseille","lat":43.28261,"lon":5.35054,"is_reserved":false,"is_disabled":false,"rental_uris":{"android":"levelo://app?vid=03205168-9c88-4c23-b06c-833fd5d1ab3a","ios":"levelo://app?vid=03205168-9c88-4c23-b06c-833fd5d1ab3a"},"vehicle_type_id":"4","last_reported":1752077474,"current_range_meters":8800,"station_id":"ce4bhbp2rcd13ifvqerg","pricing_plan_id":"cebpf4jnsgd1na2vs0mg"},{"bike_id":"b1c4beea-b25d-4cb6-8d00-dc9fa6e94486","system_id":"levelo_inurba_marseille","lat":43.28269,"lon":5.35074,"is_reserved":false,"is_disabled":false,"rental_uris":{"android":"levelo://app?vid=b1c4beea-b25d-4cb6-8d00-dc9fa6e94486","ios":"levelo://app?vid=b1c4beea-b25d-4cb6-8d00-dc9fa6e94486"},"vehicle_type_id":"4","last_reported":1752077474,"current_range_meters":9200,"station_id":"ce4bhbp2rcd13ifvqerg","pricing_plan_id":"cebpf4jnsgd1na2vs0mg"},{"bike_id":"b1782c71-4fa3-43b2-b63d-8383d883831b","system_id":"levelo_inurba_marseille","lat":43.23963,"lon":5.36629,"is_reserved":false,"is_disabled":false,"rental_uris":{"android":"levelo://app?vid=b1782c71-4fa3-43b2-b63d-8383d883831b","ios":"levelo://app?vid=b1782c71-4fa3-43b2-b63d-8383d883831b"},"vehicle_type_id":"4","last_reported":1752077474,"current_range_meters":9200,"station_id":"ce4bhi12rcd13ifvqfp0","pricing_plan_id":"cebpf4jnsgd1na2vs0mg"},{"bike_id":"3030cb07-c041-4d87-a253-8c849c24aa85","system_id":"levelo_inurba_marseille","lat":43.32648,"lon":5.36228,"is_reserved":false,"is_disabled":false,"rental_uris":{"android":"levelo://app?vid=3030cb07-c041-4d87-a253-8c849c24aa85","ios":"levelo://app?vid=3030cb07-c041-4d87-a253-8c849c24aa85"},"vehicle_type_id":"4","last_reported":1752077474,"current_range_meters":9600,"station_id":"","pricing_plan_id":"cebpf4jnsgd1na2vs0mg"},{"bike_id":"424fd8d5-b890-4af3-a856-0e4624d18a3b","system_id":"levelo_inurba_marseille","lat":43.282142,"lon":5.350863,"is_reserved":false,"is_disabled":false,"rental_uris":{"android":"levelo://app?vid=424fd8d5-b890-4af3-a856-0e4624d18a3b","ios":"levelo://app?vid=424fd8d5-b890-4af3-a856-0e4624d18a3b"},"vehicle_type_id":"4","last_reported":1752077474,"current_range_meters":9600,"station_id":"","pricing_plan_id":"cebpf4jnsgd1na2vs0mg"},{"bike_id":"3bd8b8a3-512e-4c45-8839-c2f9349ff4ec","system_id":"levelo_inurba_marseille","lat":43.21766,"lon":5.34598,"is_reserved":false,"is_disabled":false,"rental_uris":{"android":"levelo://app?vid=3bd8b8a3-512e-4c45-8839-c2f9349ff4ec","ios":"levelo://app?vid=3bd8b8a3-512e-4c45-8839-c2f9349ff4ec"},"vehicle_type_id":"4","last_reported":1752077474,"current_range_meters":9600,"station_id":"","pricing_plan_id":"cebpf4jnsgd1na2vs0mg"},{"bike_id":"87c2d236-4978-4760-be77-27d7f5a212e4","system_id":"levelo_inurba_marseille","lat":43.29644,"lon":5.36205,"is_reserved":false,"is_disabled":false,"rental_uris":{"android":"levelo://app?vid=87c2d236-4978-4760-be77-27d7f5a212e4","ios":"levelo://app?vid=87c2d236-4978-4760-be77-27d7f5a212e4"},"vehicle_type_id":"4","last_reported":1752077474,"current_range_meters":9600,"station_id":"","pricing_plan_id":"cebpf4jnsgd1na2vs0mg"},{"bike_id":"81ab6eb8-616b-49df-b89d-f0e5048c4cda","system_id":"levelo_inurba_marseille","lat":43.30887,"lon":5.39656,"is_reserved":false,"is_disabled":false,"rental_uris":{"android":"levelo://app?vid=81ab6eb8-616b-49df-b89d-f0e5048c4cda","ios":"levelo://app?vid=81ab6eb8-616b-49df-b89d-f0e5048c4cda"},"vehicle_type_id":"4","last_reported":1752077474,"current_range_meters":9600,"station_id":"ce4bh012rcd13ifvqcv0","pricing_plan_id":"cebpf4jnsgd1na2vs0mg"},{"bike_id":"9ef8fdc9-f364-4fd7-8af1-b2626c961c6d","system_id":"levelo_inurba_marseille","lat":43.25576,"lon":5.38233,"is_reserved":false,"is_disabled":false,"rental_uris":{"android":"levelo://app?vid=9ef8fdc9-f364-4fd7-8af1-b2626c961c6d","ios":"levelo://app?vid=9ef8fdc9-f364-4fd7-8af1-b2626c961c6d"},"vehicle_type_id":"4","last_reported":1752077474,"current_range_meters":9600,"station_id":"ce4bhih2rcd13ifvqfs0","pricing_plan_id":"cebpf4jnsgd1na2vs0mg"},{"bike_id":"830ca46b-969b-473f-8d1d-9113a656779c","system_id":"levelo_inurba_marseille","lat":43.28155,"lon":5.42643,"is_reserved":false,"is_disabled":false,"rental_uris":{"android":"levelo://app?vid=830ca46b-969b-473f-8d1d-9113a656779c","ios":"levelo://app?vid=830ca46b-969b-473f-8d1d-9113a656779c"},"vehicle_type_id":"4","last_reported":1752077474,"current_range_meters":9600,"station_id":"ce4bhnh2rcd13ifvqgug","pricing_plan_id":"cebpf4jnsgd1na2vs0mg"},{"bike_id":"83031a6c-6662-42be-ae9e-f1ba3f35d84b","system_id":"levelo_inurba_marseille","lat":43.29202,"lon":5.39321,"is_reserved":false,"is_disabled":false,"rental_uris":{"android":"levelo://app?vid=83031a6c-6662-42be-ae9e-f1ba3f35d84b","ios":"levelo://app?vid=83031a6c-6662-42be-ae9e-f1ba3f35d84b"},"vehicle_type_id":"4","last_reported":1752077474,"current_range_meters":10000,"station_id":"ce4bh192rcd13ifvqdd0","pricing_plan_id":"cebpf4jnsgd1na2vs0mg"},{"bike_id":"73073a80-38cf-4bf6-a917-b7bf07e8e282","system_id":"levelo_inurba_marseille","lat":43.28729,"lon":5.37932,"is_reserved":false,"is_disabled":false,"rental_uris":{"android":"levelo://app?vid=73073a80-38cf-4bf6-a917-b7bf07e8e282","ios":"levelo://app?vid=73073a80-38cf-4bf6-a917-b7bf07e8e282"},"vehicle_type_id":"4","last_reported":1752077474,"current_range_meters":10000,"station_id":"ce4bh9p2rcd13ifvqec0","pricing_plan_id":"cebpf4jnsgd1na2vs0mg"},{"bike_id":"4323f4d3-5d22-4fc0-8d23-e02e88dc63d2","system_id":"levelo_inurba_marseille","lat":43.28103,"lon":5.3784,"is_reserved":false,"is_disabled":false,"rental_uris":{"android":"levelo://app?vid=4323f4d3-5d22-4fc0-8d23-e02e88dc63d2","ios":"levelo://app?vid=4323f4d3-5d22-4fc0-8d23-e02e88dc63d2"},"vehicle_type_id":"4","last_reported":1752077474,"current_range_meters":10000,"station_id":"ce4bha12rcd13ifvqee0","pricing_plan_id":"cebpf4jnsgd1na2vs0mg"},{"bike_id":"8b618d0d-47b3-4793-b91b-c48b403b5898","system_id":"levelo_inurba_marseille","lat":43.25585,"lon":5.38237,"is_reserved":false,"is_disabled":false,"rental_uris":{"android":"levelo://app?vid=8b618d0d-47b3-4793-b91b-c48b403b5898","ios":"levelo://app?vid=8b618d0d-47b3-4793-b91b-c48b403b5898"},"vehicle_type_id":"4","last_reported":1752077474,"current_range_meters":10000,"station_id":"ce4bhih2rcd13ifvqfs0","pricing_plan_id":"cebpf4jnsgd1na2vs0mg"},{"bike_id":"109759bc-eeed-422e-8d28-0097c2f6286a","system_id":"levelo_inurba_marseille","lat":43.28421,"lon":5.34995,"is_reserved":false,"is_disabled":false,"rental_uris":{"android":"levelo://app?vid=109759bc-eeed-422e-8d28-0097c2f6286a","ios":"levelo://app?vid=109759bc-eeed-422e-8d28-0097c2f6286a"},"vehicle_type_id":"4","last_reported":1752077474,"current_range_meters":10800,"station_id":"ce4bhbh2rcd13ifvqepg","pricing_plan_id":"cebpf4jnsgd1na2vs0mg"},{"bike_id":"7d7f9d70-7414-46bb-a5f3-2dad8ac9fa68","system_id":"levelo_inurba_marseille","lat":43.25086,"lon":5.39523,"is_reserved":false,"is_disabled":false,"rental_uris":{"android":"levelo://app?vid=7d7f9d70-7414-46bb-a5f3-2dad8ac9fa68","ios":"levelo://app?vid=7d7f9d70-7414-46bb-a5f3-2dad8ac9fa68"},"vehicle_type_id":"4","last_reported":1752077474,"current_range_meters":10800,"station_id":"ce4bhm12rcd13ifvqgkg","pricing_plan_id":"cebpf4jnsgd1na2vs0mg"},{"bike_id":"56cb47c6-3682-41fc-a52b-681f7927fe66","system_id":"levelo_inurba_marseille","lat":43.23196,"lon":5.35553,"is_reserved":false,"is_disabled":false,"rental_uris":{"android":"levelo://app?vid=56cb47c6-3682-41fc-a52b-681f7927fe66","ios":"levelo://app?vid=56cb47c6-3682-41fc-a52b-681f7927fe66"},"vehicle_type_id":"4","last_reported":1752077474,"current_range_meters":11200,"station_id":"ce4bhu92rcd13ifvqi70","pricing_plan_id":"cebpf4jnsgd1na2vs0mg"},{"bike_id":"5db44857-9ed0-4850-a05a-f2fc6bd5fa46","system_id":"levelo_inurba_marseille","lat":43.27972,"lon":5.384685,"is_reserved":false,"is_disabled":false,"rental_uris":{"android":"levelo://app?vid=5db44857-9ed0-4850-a05a-f2fc6bd5fa46","ios":"levelo://app?vid=5db44857-9ed0-4850-a05a-f2fc6bd5fa46"},"vehicle_type_id":"4","last_reported":1752077474,"current_range_meters":11600,"station_id":"","pricing_plan_id":"cebpf4jnsgd1na2vs0mg"},{"bike_id":"84e7e709-4e4f-4764-818c-af719435bfca","system_id":"levelo_inurba_marseille","lat":43.31905,"lon":5.37215,"is_reserved":false,"is_disabled":false,"rental_uris":{"android":"levelo://app?vid=84e7e709-4e4f-4764-818c-af719435bfca","ios":"levelo://app?vid=84e7e709-4e4f-4764-818c-af719435bfca"},"vehicle_type_id":"4","last_reported":1752077474,"current_range_meters":12000,"station_id":"","pricing_plan_id":"cebpf4jnsgd1na2vs0mg"},{"bike_id":"4ecd575e-160b-4aa5-aa07-466e5ce15954","system_id":"levelo_inurba_marseille","lat":43.28412,"lon":5.3498,"is_reserved":false,"is_disabled":false,"rental_uris":{"android":"levelo://app?vid=4ecd575e-160b-4aa5-aa07-466e5ce15954","ios":"levelo://app?vid=4ecd575e-160b-4aa5-aa07-466e5ce15954"},"vehicle_type_id":"4","last_reported":1752077474,"current_range_meters":12000,"station_id":"ce4bhbh2rcd13ifvqepg","pricing_plan_id":"cebpf4jnsgd1na2vs0mg"},{"bike_id":"85339cdc-4037-4417-9054-e722f7e495c5","system_id":"levelo_inurba_marseille","lat":43.2738,"lon":5.3626,"is_reserved":false,"is_disabled":false,"rental_uris":{"android":"levelo://app?vid=85339cdc-4037-4417-9054-e722f7e495c5","ios":"levelo://app?vid=85339cdc-4037-4417-9054-e722f7e495c5"},"vehicle_type_id":"4","last_reported":1752077474,"current_range_meters":12400,"station_id":"ce4bhbh2rcd13ifvqeo0","pricing_plan_id":"cebpf4jnsgd1na2vs0mg"},{"bike_id":"86b9b08b-1620-4bce-b388-6a966eb11cb3","system_id":"levelo_inurba_marseille","lat":43.24793,"lon":5.37452,"is_reserved":false,"is_disabled":false,"rental_uris":{"android":"levelo://app?vid=86b9b08b-1620-4bce-b388-6a966eb11cb3","ios":"levelo://app?vid=86b9b08b-1620-4bce-b388-6a966eb11cb3"},"vehicle_type_id":"4","last_reported":1752077474,"current_range_meters":12400,"station_id":"ce4bhgh2rcd13ifvqfb0","pricing_plan_id":"cebpf4jnsgd1na2vs0mg"},{"bike_id":"d5a6b840-f293-4f7e-94f2-1825a40996d7","system_id":"levelo_inurba_marseille","lat":43.26213,"lon":5.37437,"is_reserved":false,"is_disabled":false,"rental_uris":{"android":"levelo://app?vid=d5a6b840-f293-4f7e-94f2-1825a40996d7","ios":"levelo://app?vid=d5a6b840-f293-4f7e-94f2-1825a40996d7"},"vehicle_type_id":"4","last_reported":1752077474,"current_range_meters":12400,"station_id":"ce4bhgp2rcd13ifvqfc0","pricing_plan_id":"cebpf4jnsgd1na2vs0mg"},{"bike_id":"2fa231de-f74d-4e49-b569-19825602707e","system_id":"levelo_inurba_marseille","lat":43.23954,"lon":5.36656,"is_reserved":false,"is_disabled":false,"rental_uris":{"android":"levelo://app?vid=2fa231de-f74d-4e49-b569-19825602707e","ios":"levelo://app?vid=2fa231de-f74d-4e49-b569-19825602707e"},"vehicle_type_id":"4","last_reported":1752077474,"current_range_meters":12400,"station_id":"ce4bhi12rcd13ifvqfp0","pricing_plan_id":"cebpf4jnsgd1na2vs0mg"},{"bike_id":"a3cbee26-f4ae-483a-b6fa-dba36c98478b","system_id":"levelo_inurba_marseille","lat":43.23196,"lon":5.35556,"is_reserved":false,"is_disabled":false,"rental_uris":{"android":"levelo://app?vid=a3cbee26-f4ae-483a-b6fa-dba36c98478b","ios":"levelo://app?vid=a3cbee26-f4ae-483a-b6fa-dba36c98478b"},"vehicle_type_id":"4","last_reported":1752077474,"current_range_meters":12400,"station_id":"ce4bhu92rcd13ifvqi70","pricing_plan_id":"cebpf4jnsgd1na2vs0mg"},{"bike_id":"c2b72fe0-bae6-4c7b-ad48-9e771b203dc8","system_id":"levelo_inurba_marseille","lat":43.31364,"lon":5.38462,"is_reserved":false,"is_disabled":false,"rental_uris":{"android":"levelo://app?vid=c2b72fe0-bae6-4c7b-ad48-9e771b203dc8","ios":"levelo://app?vid=c2b72fe0-bae6-4c7b-ad48-9e771b203dc8"},"vehicle_type_id":"4","last_reported":1752077474,"current_range_meters":12800,"station_id":"ce4bgt92rcd13ifvqcf0","pricing_plan_id":"cebpf4jnsgd1na2vs0mg"},{"bike_id":"644de9ba-9fde-4bed-a981-dd76b3cb6b40","system_id":"levelo_inurba_marseille","lat":43.239572,"lon":5.366596,"is_reserved":false,"is_disabled":false,"rental_uris":{"android":"levelo://app?vid=644de9ba-9fde-4bed-a981-dd76b3cb6b40","ios":"levelo://app?vid=644de9ba-9fde-4bed-a981-dd76b3cb6b40"},"vehicle_type_id":"4","last_reported":1752077474,"current_range_meters":12800,"station_id":"ce4bhi12rcd13ifvqfp0","pricing_plan_id":"cebpf4jnsgd1na2vs0mg"},{"bike_id":"ac39d365-5643-4610-bf4b-0e5167a77f88","system_id":"levelo_inurba_marseille","lat":43.33742,"lon":5.39191,"is_reserved":false,"is_disabled":false,"rental_uris":{"android":"levelo://app?vid=ac39d365-5643-4610-bf4b-0e5167a77f88","ios":"levelo://app?vid=ac39d365-5643-4610-bf4b-0e5167a77f88"},"vehicle_type_id":"4","last_reported":1752077474,"current_range_meters":12800,"station_id":"ce4bhr92rcd13ifvqhsg","pricing_plan_id":"cebpf4jnsgd1na2vs0mg"},{"bike_id":"f573a8fb-f1f8-47c4-901e-ddf2739a5cca","system_id":"levelo_inurba_marseille","lat":43.36006,"lon":5.32484,"is_reserved":false,"is_disabled":false,"rental_uris":{"android":"levelo://app?vid=f573a8fb-f1f8-47c4-901e-ddf2739a5cca","ios":"levelo://app?vid=f573a8fb-f1f8-47c4-901e-ddf2739a5cca"},"vehicle_type_id":"4","last_reported":1752077474,"current_range_meters":13600,"station_id":"","pricing_plan_id":"cebpf4jnsgd1na2vs0mg"},{"bike_id":"e36cb2c3-f89f-47f0-b875-2aaf5e113ba2","system_id":"levelo_inurba_marseille","lat":43.30808,"lon":5.38152,"is_reserved":false,"is_disabled":false,"rental_uris":{"android":"levelo://app?vid=e36cb2c3-f89f-47f0-b875-2aaf5e113ba2","ios":"levelo://app?vid=e36cb2c3-f89f-47f0-b875-2aaf5e113ba2"},"vehicle_type_id":"4","last_reported":1752077474,"current_range_meters":13600,"station_id":"ce4bgt12rcd13ifvqce0","pricing_plan_id":"cebpf4jnsgd1na2vs0mg"},{"bike_id":"c514ad25-b83c-4d10-a595-57ae5a32aef4","system_id":"levelo_inurba_marseille","lat":43.22937,"lon":5.35378,"is_reserved":false,"is_disabled":false,"rental_uris":{"android":"levelo://app?vid=c514ad25-b83c-4d10-a595-57ae5a32aef4","ios":"levelo://app?vid=c514ad25-b83c-4d10-a595-57ae5a32aef4"},"vehicle_type_id":"4","last_reported":1752077474,"current_range_meters":13600,"station_id":"cpo3532slgdg3j2ikp40","pricing_plan_id":"cebpf4jnsgd1na2vs0mg"},{"bike_id":"4975b22d-8c48-452f-bd19-7a9d3ed7c378","system_id":"levelo_inurba_marseille","lat":43.29676,"lon":5.37424,"is_reserved":false,"is_disabled":false,"rental_uris":{"android":"levelo://app?vid=4975b22d-8c48-452f-bd19-7a9d3ed7c378","ios":"levelo://app?vid=4975b22d-8c48-452f-bd19-7a9d3ed7c378"},"vehicle_type_id":"4","last_reported":1752077474,"current_range_meters":14000,"station_id":"","pricing_plan_id":"cebpf4jnsgd1na2vs0mg"},{"bike_id":"c314f006-3886-411c-ac17-a6d9676a393d","system_id":"levelo_inurba_marseille","lat":43.29207,"lon":5.3931,"is_reserved":false,"is_disabled":false,"rental_uris":{"android":"levelo://app?vid=c314f006-3886-411c-ac17-a6d9676a393d","ios":"levelo://app?vid=c314f006-3886-411c-ac17-a6d9676a393d"},"vehicle_type_id":"4","last_reported":1752077474,"current_range_meters":14000,"station_id":"ce4bh192rcd13ifvqdd0","pricing_plan_id":"cebpf4jnsgd1na2vs0mg"},{"bike_id":"d69b26eb-f7a8-4ac6-a4cf-e0c8a159dd69","system_id":"levelo_inurba_marseille","lat":43.256326,"lon":5.382415,"is_reserved":false,"is_disabled":false,"rental_uris":{"android":"levelo://app?vid=d69b26eb-f7a8-4ac6-a4cf-e0c8a159dd69","ios":"levelo://app?vid=d69b26eb-f7a8-4ac6-a4cf-e0c8a159dd69"},"vehicle_type_id":"4","last_reported":1752077474,"current_range_meters":14000,"station_id":"ce4bhjp2rcd13ifvqg90","pricing_plan_id":"cebpf4jnsgd1na2vs0mg"},{"bike_id":"fc13d74f-1f0e-4d42-bf6c-874743692683","system_id":"levelo_inurba_marseille","lat":43.3111,"lon":5.37763,"is_reserved":false,"is_disabled":false,"rental_uris":{"android":"levelo://app?vid=fc13d74f-1f0e-4d42-bf6c-874743692683","ios":"levelo://app?vid=fc13d74f-1f0e-4d42-bf6c-874743692683"},"vehicle_type_id":"4","last_reported":1752077474,"current_range_meters":14400,"station_id":"ce4bgt92rcd13ifvqcg0","pricing_plan_id":"cebpf4jnsgd1na2vs0mg"},{"bike_id":"69851d52-03c7-490b-86b7-e4b62b3ba12e","system_id":"levelo_inurba_marseille","lat":43.28617,"lon":5.35107,"is_reserved":false,"is_disabled":false,"rental_uris":{"android":"levelo://app?vid=69851d52-03c7-490b-86b7-e4b62b3ba12e","ios":"levelo://app?vid=69851d52-03c7-490b-86b7-e4b62b3ba12e"},"vehicle_type_id":"4","last_reported":1752077474,"current_range_meters":14400,"station_id":"ce4bhch2rcd13ifvqeug","pricing_plan_id":"cebpf4jnsgd1na2vs0mg"},{"bike_id":"7dc48cb7-b742-4446-8d3e-f56bc6d6cf97","system_id":"levelo_inurba_marseille","lat":43.262061,"lon":5.374699,"is_reserved":false,"is_disabled":false,"rental_uris":{"android":"levelo://app?vid=7dc48cb7-b742-4446-8d3e-f56bc6d6cf97","ios":"levelo://app?vid=7dc48cb7-b742-4446-8d3e-f56bc6d6cf97"},"vehicle_type_id":"4","last_reported":1752077474,"current_range_meters":14400,"station_id":"ce4bhgp2rcd13ifvqfc0","pricing_plan_id":"cebpf4jnsgd1na2vs0mg"},{"bike_id":"25d8a453-a056-4f74-8778-f999940c651f","system_id":"levelo_inurba_marseille","lat":43.25503,"lon":5.37649,"is_reserved":false,"is_disabled":false,"rental_uris":{"android":"levelo://app?vid=25d8a453-a056-4f74-8778-f999940c651f","ios":"levelo://app?vid=25d8a453-a056-4f74-8778-f999940c651f"},"vehicle_type_id":"4","last_reported":1752077474,"current_range_meters":14400,"station_id":"ce4bhh12rcd13ifvqff0","pricing_plan_id":"cebpf4jnsgd1na2vs0mg"},{"bike_id":"6a57f39f-3f2f-4d3e-b9e1-7bde1ca9b465","system_id":"levelo_inurba_marseille","lat":43.25499,"lon":5.3765,"is_reserved":false,"is_disabled":false,"rental_uris":{"android":"levelo://app?vid=6a57f39f-3f2f-4d3e-b9e1-7bde1ca9b465","ios":"levelo://app?vid=6a57f39f-3f2f-4d3e-b9e1-7bde1ca9b465"},"vehicle_type_id":"4","last_reported":1752077474,"current_range_meters":14400,"station_id":"ce4bhh12rcd13ifvqff0","pricing_plan_id":"cebpf4jnsgd1na2vs0mg"},{"bike_id":"834a584b-ba14-4542-a9fe-1ad9546f4ea5","system_id":"levelo_inurba_marseille","lat":43.255019,"lon":5.376487,"is_reserved":false,"is_disabled":false,"rental_uris":{"android":"levelo://app?vid=834a584b-ba14-4542-a9fe-1ad9546f4ea5","ios":"levelo://app?vid=834a584b-ba14-4542-a9fe-1ad9546f4ea5"},"vehicle_type_id":"4","last_reported":1752077474,"current_range_meters":14400,"station_id":"ce4bhh12rcd13ifvqff0","pricing_plan_id":"cebpf4jnsgd1na2vs0mg"},{"bike_id":"878331b6-4dbd-4828-a6d5-4c5b511244d4","system_id":"levelo_inurba_marseille","lat":43.21748,"lon":5.34592,"is_reserved":false,"is_disabled":false,"rental_uris":{"android":"levelo://app?vid=878331b6-4dbd-4828-a6d5-4c5b511244d4","ios":"levelo://app?vid=878331b6-4dbd-4828-a6d5-4c5b511244d4"},"vehicle_type_id":"4","last_reported":1752077474,"current_range_meters":14400,"station_id":"st_cvj6r9ubvosntc0bgbag","pricing_plan_id":"cebpf4jnsgd1na2vs0mg"},{"bike_id":"b2caa530-bb19-4cc6-a6bd-61e3e1d7432e","system_id":"levelo_inurba_marseille","lat":43.33763,"lon":5.37461,"is_reserved":false,"is_disabled":false,"rental_uris":{"android":"levelo://app?vid=b2caa530-bb19-4cc6-a6bd-61e3e1d7432e","ios":"levelo://app?vid=b2caa530-bb19-4cc6-a6bd-61e3e1d7432e"},"vehicle_type_id":"4","last_reported":1752077474,"current_range_meters":14800,"station_id":"","pricing_plan_id":"cebpf4jnsgd1na2vs0mg"},{"bike_id":"8b52e051-4e83-4103-a98d-28f12690ba46","system_id":"levelo_inurba_marseille","lat":43.30515,"lon":5.39461,"is_reserved":false,"is_disabled":false,"rental_uris":{"android":"levelo://app?vid=8b52e051-4e83-4103-a98d-28f12690ba46","ios":"levelo://app?vid=8b52e051-4e83-4103-a98d-28f12690ba46"},"vehicle_type_id":"4","last_reported":1752077474,"current_range_meters":14800,"station_id":"","pricing_plan_id":"cebpf4jnsgd1na2vs0mg"},{"bike_id":"0e230b8b-a0e5-41b0-8a4f-114c1735d588","system_id":"levelo_inurba_marseille","lat":43.251436,"lon":5.403238,"is_reserved":false,"is_disabled":false,"rental_uris":{"android":"levelo://app?vid=0e230b8b-a0e5-41b0-8a4f-114c1735d588","ios":"levelo://app?vid=0e230b8b-a0e5-41b0-8a4f-114c1735d588"},"vehicle_type_id":"4","last_reported":1752077474,"current_range_meters":14800,"station_id":"ce4bhlh2rcd13ifvqgig","pricing_plan_id":"cebpf4jnsgd1na2vs0mg"},{"bike_id":"b6d9b946-f66a-4c6f-96e5-5d23e176360c","system_id":"levelo_inurba_marseille","lat":43.31315,"lon":5.38172,"is_reserved":false,"is_disabled":false,"rental_uris":{"android":"levelo://app?vid=b6d9b946-f66a-4c6f-96e5-5d23e176360c","ios":"levelo://app?vid=b6d9b946-f66a-4c6f-96e5-5d23e176360c"},"vehicle_type_id":"4","last_reported":1752077474,"current_range_meters":15200,"station_id":"","pricing_plan_id":"cebpf4jnsgd1na2vs0mg"},{"bike_id":"93d6be08-2471-48d7-9948-c35dc9626201","system_id":"levelo_inurba_marseille","lat":43.31714,"lon":5.37647,"is_reserved":false,"is_disabled":false,"rental_uris":{"android":"levelo://app?vid=93d6be08-2471-48d7-9948-c35dc9626201","ios":"levelo://app?vid=93d6be08-2471-48d7-9948-c35dc9626201"},"vehicle_type_id":"4","last_reported":1752077474,"current_range_meters":15200,"station_id":"","pricing_plan_id":"cebpf4jnsgd1na2vs0mg"},{"bike_id":"f5c16f07-bc6f-4121-91a7-5ad90eec4f34","system_id":"levelo_inurba_marseille","lat":43.31221,"lon":5.37315,"is_reserved":false,"is_disabled":false,"rental_uris":{"android":"levelo://app?vid=f5c16f07-bc6f-4121-91a7-5ad90eec4f34","ios":"levelo://app?vid=f5c16f07-bc6f-4121-91a7-5ad90eec4f34"},"vehicle_type_id":"4","last_reported":1752077474,"current_range_meters":15200,"station_id":"","pricing_plan_id":"cebpf4jnsgd1na2vs0mg"},{"bike_id":"88e36905-9185-42cd-b3d3-afce6da694d5","system_id":"levelo_inurba_marseille","lat":43.2603,"lon":5.37548,"is_reserved":false,"is_disabled":false,"rental_uris":{"android":"levelo://app?vid=88e36905-9185-42cd-b3d3-afce6da694d5","ios":"levelo://app?vid=88e36905-9185-42cd-b3d3-afce6da694d5"},"vehicle_type_id":"4","last_reported":1752077474,"current_range_meters":15200,"station_id":"ce4bhgh2rcd13ifvqfa0","pricing_plan_id":"cebpf4jnsgd1na2vs0mg"},{"bike_id":"449ed129-2f06-47da-936f-6e63a3609258","system_id":"levelo_inurba_marseille","lat":43.23198,"lon":5.3555,"is_reserved":false,"is_disabled":false,"rental_uris":{"android":"levelo://app?vid=449ed129-2f06-47da-936f-6e63a3609258","ios":"levelo://app?vid=449ed129-2f06-47da-936f-6e63a3609258"},"vehicle_type_id":"4","last_reported":1752077474,"current_range_meters":15200,"station_id":"ce4bhu92rcd13ifvqi70","pricing_plan_id":"cebpf4jnsgd1na2vs0mg"},{"bike_id":"b757ffbb-2b71-4330-9f60-5f8a9d46d16e","system_id":"levelo_inurba_marseille","lat":43.29626,"lon":5.37107,"is_reserved":false,"is_disabled":false,"rental_uris":{"android":"levelo://app?vid=b757ffbb-2b71-4330-9f60-5f8a9d46d16e","ios":"levelo://app?vid=b757ffbb-2b71-4330-9f60-5f8a9d46d16e"},"vehicle_type_id":"4","last_reported":1752077474,"current_range_meters":16000,"station_id":"ce4bgnh2rcd13ifvqc0g","pricing_plan_id":"cebpf4jnsgd1na2vs0mg"},{"bike_id":"834c54e4-01b7-45b5-bf62-883e931ed329","system_id":"levelo_inurba_marseille","lat":43.28352,"lon":5.38108,"is_reserved":false,"is_disabled":false,"rental_uris":{"android":"levelo://app?vid=834c54e4-01b7-45b5-bf62-883e931ed329","ios":"levelo://app?vid=834c54e4-01b7-45b5-bf62-883e931ed329"},"vehicle_type_id":"4","last_reported":1752077474,"current_range_meters":16000,"station_id":"ce4bh412rcd13ifvqdr0","pricing_plan_id":"cebpf4jnsgd1na2vs0mg"},{"bike_id":"84d28e08-8384-4f52-976a-b3c1bd42bd45","system_id":"levelo_inurba_marseille","lat":43.27674,"lon":5.38872,"is_reserved":false,"is_disabled":false,"rental_uris":{"android":"levelo://app?vid=84d28e08-8384-4f52-976a-b3c1bd42bd45","ios":"levelo://app?vid=84d28e08-8384-4f52-976a-b3c1bd42bd45"},"vehicle_type_id":"4","last_reported":1752077474,"current_range_meters":16000,"station_id":"ce4bhi12rcd13ifvqfo0","pricing_plan_id":"cebpf4jnsgd1na2vs0mg"},{"bike_id":"1bc63c58-183e-4688-9173-e004e373962b","system_id":"levelo_inurba_marseille","lat":43.22977,"lon":5.35433,"is_reserved":false,"is_disabled":false,"rental_uris":{"android":"levelo://app?vid=1bc63c58-183e-4688-9173-e004e373962b","ios":"levelo://app?vid=1bc63c58-183e-4688-9173-e004e373962b"},"vehicle_type_id":"4","last_reported":1752077474,"current_range_meters":16000,"station_id":"cpo3342slgdg3j2ifvpg","pricing_plan_id":"cebpf4jnsgd1na2vs0mg"},{"bike_id":"6e5c2657-ccb8-4153-8b94-2143bc427a03","system_id":"levelo_inurba_marseille","lat":43.22525,"lon":5.34784,"is_reserved":false,"is_disabled":false,"rental_uris":{"android":"levelo://app?vid=6e5c2657-ccb8-4153-8b94-2143bc427a03","ios":"levelo://app?vid=6e5c2657-ccb8-4153-8b94-2143bc427a03"},"vehicle_type_id":"4","last_reported":1752077474,"current_range_meters":16000,"station_id":"st_cvj5dfep6f1abm77gieg","pricing_plan_id":"cebpf4jnsgd1na2vs0mg"},{"bike_id":"b28aa0a0-791c-4a08-9a16-c7bf6ea0ed5a","system_id":"levelo_inurba_marseille","lat":43.22508,"lon":5.34786,"is_reserved":false,"is_disabled":false,"rental_uris":{"android":"levelo://app?vid=b28aa0a0-791c-4a08-9a16-c7bf6ea0ed5a","ios":"levelo://app?vid=b28aa0a0-791c-4a08-9a16-c7bf6ea0ed5a"},"vehicle_type_id":"4","last_reported":1752077474,"current_range_meters":16000,"station_id":"st_cvj5dfep6f1abm77gieg","pricing_plan_id":"cebpf4jnsgd1na2vs0mg"},{"bike_id":"1be39311-cfa5-4cbb-b93d-fb0870d6e611","system_id":"levelo_inurba_marseille","lat":43.211944,"lon":5.350714,"is_reserved":false,"is_disabled":false,"rental_uris":{"android":"levelo://app?vid=1be39311-cfa5-4cbb-b93d-fb0870d6e611","ios":"levelo://app?vid=1be39311-cfa5-4cbb-b93d-fb0870d6e611"},"vehicle_type_id":"4","last_reported":1752077474,"current_range_meters":16000,"station_id":"st_cvj6sg6p6f1abm77japg","pricing_plan_id":"cebpf4jnsgd1na2vs0mg"},{"bike_id":"b418f594-5909-456b-b751-4fe7d7611a62","system_id":"levelo_inurba_marseille","lat":43.2927,"lon":5.37635,"is_reserved":false,"is_disabled":false,"rental_uris":{"android":"levelo://app?vid=b418f594-5909-456b-b751-4fe7d7611a62","ios":"levelo://app?vid=b418f594-5909-456b-b751-4fe7d7611a62"},"vehicle_type_id":"4","last_reported":1752077474,"current_range_meters":16400,"station_id":"ce4bgi12rcd13ifvqb80","pricing_plan_id":"cebpf4jnsgd1na2vs0mg"},{"bike_id":"a23ff000-084a-4611-8f26-308d1f0778a0","system_id":"levelo_inurba_marseille","lat":43.28475,"lon":5.38418,"is_reserved":false,"is_disabled":false,"rental_uris":{"android":"levelo://app?vid=a23ff000-084a-4611-8f26-308d1f0778a0","ios":"levelo://app?vid=a23ff000-084a-4611-8f26-308d1f0778a0"},"vehicle_type_id":"4","last_reported":1752077474,"current_range_meters":16400,"station_id":"ce4bh512rcd13ifvqe3g","pricing_plan_id":"cebpf4jnsgd1na2vs0mg"},{"bike_id":"dfc91ac7-1142-4c9c-970a-d500d1c99918","system_id":"levelo_inurba_marseille","lat":43.2466,"lon":5.38164,"is_reserved":false,"is_disabled":false,"rental_uris":{"android":"levelo://app?vid=dfc91ac7-1142-4c9c-970a-d500d1c99918","ios":"levelo://app?vid=dfc91ac7-1142-4c9c-970a-d500d1c99918"},"vehicle_type_id":"4","last_reported":1752077474,"current_range_meters":16400,"station_id":"ce4bhih2rcd13ifvqfr0","pricing_plan_id":"cebpf4jnsgd1na2vs0mg"},{"bike_id":"2dc1f5c8-26fe-4e87-bcea-d5f6d3c1c40c","system_id":"levelo_inurba_marseille","lat":43.31721,"lon":5.42394,"is_reserved":false,"is_disabled":false,"rental_uris":{"android":"levelo://app?vid=2dc1f5c8-26fe-4e87-bcea-d5f6d3c1c40c","ios":"levelo://app?vid=2dc1f5c8-26fe-4e87-bcea-d5f6d3c1c40c"},"vehicle_type_id":"4","last_reported":1752077474,"current_range_meters":16400,"station_id":"ce4bhp92rcd13ifvqhbg","pricing_plan_id":"cebpf4jnsgd1na2vs0mg"},{"bike_id":"320f2a33-deaa-4e0a-a3d5-c39ce8ad680a","system_id":"levelo_inurba_marseille","lat":43.31585,"lon":5.37421,"is_reserved":false,"is_disabled":false,"rental_uris":{"android":"levelo://app?vid=320f2a33-deaa-4e0a-a3d5-c39ce8ad680a","ios":"levelo://app?vid=320f2a33-deaa-4e0a-a3d5-c39ce8ad680a"},"vehicle_type_id":"4","last_reported":1752077474,"current_range_meters":16800,"station_id":"","pricing_plan_id":"cebpf4jnsgd1na2vs0mg"},{"bike_id":"2297beef-6cc9-4d71-852c-a3839b25bcf3","system_id":"levelo_inurba_marseille","lat":43.30807,"lon":5.3814,"is_reserved":false,"is_disabled":false,"rental_uris":{"android":"levelo://app?vid=2297beef-6cc9-4d71-852c-a3839b25bcf3","ios":"levelo://app?vid=2297beef-6cc9-4d71-852c-a3839b25bcf3"},"vehicle_type_id":"4","last_reported":1752077474,"current_range_meters":16800,"station_id":"ce4bgt12rcd13ifvqce0","pricing_plan_id":"cebpf4jnsgd1na2vs0mg"},{"bike_id":"744de9c5-5760-4c22-96e4-d65a1e22d14f","system_id":"levelo_inurba_marseille","lat":43.3205,"lon":5.4093,"is_reserved":false,"is_disabled":false,"rental_uris":{"android":"levelo://app?vid=744de9c5-5760-4c22-96e4-d65a1e22d14f","ios":"levelo://app?vid=744de9c5-5760-4c22-96e4-d65a1e22d14f"},"vehicle_type_id":"4","last_reported":1752077474,"current_range_meters":16800,"station_id":"ce4bhap2rcd13ifvqek0","pricing_plan_id":"cebpf4jnsgd1na2vs0mg"},{"bike_id":"b9aad953-9bed-4824-834b-f3f50fd8c58d","system_id":"levelo_inurba_marseille","lat":43.284198,"lon":5.349922,"is_reserved":false,"is_disabled":false,"rental_uris":{"android":"levelo://app?vid=b9aad953-9bed-4824-834b-f3f50fd8c58d","ios":"levelo://app?vid=b9aad953-9bed-4824-834b-f3f50fd8c58d"},"vehicle_type_id":"4","last_reported":1752077474,"current_range_meters":16800,"station_id":"ce4bhbh2rcd13ifvqepg","pricing_plan_id":"cebpf4jnsgd1na2vs0mg"},{"bike_id":"191da7b9-bed7-4843-89f5-6df19e076b49","system_id":"levelo_inurba_marseille","lat":43.286263,"lon":5.351179,"is_reserved":false,"is_disabled":false,"rental_uris":{"android":"levelo://app?vid=191da7b9-bed7-4843-89f5-6df19e076b49","ios":"levelo://app?vid=191da7b9-bed7-4843-89f5-6df19e076b49"},"vehicle_type_id":"4","last_reported":1752077474,"current_range_meters":16800,"station_id":"ce4bhch2rcd13ifvqeug","pricing_plan_id":"cebpf4jnsgd1na2vs0mg"},{"bike_id":"7dd4258d-8fe1-466b-bba8-036a896c4262","system_id":"levelo_inurba_marseille","lat":43.232,"lon":5.35547,"is_reserved":false,"is_disabled":false,"rental_uris":{"android":"levelo://app?vid=7dd4258d-8fe1-466b-bba8-036a896c4262","ios":"levelo://app?vid=7dd4258d-8fe1-466b-bba8-036a896c4262"},"vehicle_type_id":"4","last_reported":1752077474,"current_range_meters":16800,"station_id":"ce4bhu92rcd13ifvqi70","pricing_plan_id":"cebpf4jnsgd1na2vs0mg"},{"bike_id":"18858759-f5e2-47b7-8053-3137d69124bf","system_id":"levelo_inurba_marseille","lat":43.303025,"lon":5.392154,"is_reserved":false,"is_disabled":false,"rental_uris":{"android":"levelo://app?vid=18858759-f5e2-47b7-8053-3137d69124bf","ios":"levelo://app?vid=18858759-f5e2-47b7-8053-3137d69124bf"},"vehicle_type_id":"4","last_reported":1752077474,"current_range_meters":17200,"station_id":"ce4bgop2rcd13ifvqc1g","pricing_plan_id":"cebpf4jnsgd1na2vs0mg"},{"bike_id":"749370c6-54e1-4cc8-942a-7921a4b8fb09","system_id":"levelo_inurba_marseille","lat":43.28264,"lon":5.3506,"is_reserved":false,"is_disabled":false,"rental_uris":{"android":"levelo://app?vid=749370c6-54e1-4cc8-942a-7921a4b8fb09","ios":"levelo://app?vid=749370c6-54e1-4cc8-942a-7921a4b8fb09"},"vehicle_type_id":"4","last_reported":1752077474,"current_range_meters":17200,"station_id":"ce4bhbp2rcd13ifvqerg","pricing_plan_id":"cebpf4jnsgd1na2vs0mg"},{"bike_id":"f2962ad6-e210-4b31-95a3-4eebd34a77e9","system_id":"levelo_inurba_marseille","lat":43.2698,"lon":5.39872,"is_reserved":false,"is_disabled":false,"rental_uris":{"android":"levelo://app?vid=f2962ad6-e210-4b31-95a3-4eebd34a77e9","ios":"levelo://app?vid=f2962ad6-e210-4b31-95a3-4eebd34a77e9"},"vehicle_type_id":"4","last_reported":1752077474,"current_range_meters":17600,"station_id":"","pricing_plan_id":"cebpf4jnsgd1na2vs0mg"},{"bike_id":"7b6f8bc4-1d53-4c3a-b0a1-7b71a0801a8a","system_id":"levelo_inurba_marseille","lat":43.313295,"lon":5.39697,"is_reserved":false,"is_disabled":false,"rental_uris":{"android":"levelo://app?vid=7b6f8bc4-1d53-4c3a-b0a1-7b71a0801a8a","ios":"levelo://app?vid=7b6f8bc4-1d53-4c3a-b0a1-7b71a0801a8a"},"vehicle_type_id":"4","last_reported":1752077474,"current_range_meters":17600,"station_id":"ce4bgvp2rcd13ifvqcu0","pricing_plan_id":"cebpf4jnsgd1na2vs0mg"},{"bike_id":"9d2e056a-5a76-483e-bd70-1ba4cc8582d9","system_id":"levelo_inurba_marseille","lat":43.2829,"lon":5.35063,"is_reserved":false,"is_disabled":false,"rental_uris":{"android":"levelo://app?vid=9d2e056a-5a76-483e-bd70-1ba4cc8582d9","ios":"levelo://app?vid=9d2e056a-5a76-483e-bd70-1ba4cc8582d9"},"vehicle_type_id":"4","last_reported":1752077474,"current_range_meters":17600,"station_id":"ce4bhbp2rcd13ifvqerg","pricing_plan_id":"cebpf4jnsgd1na2vs0mg"},{"bike_id":"dc895109-ee02-4ef1-9f8c-68ad809df014","system_id":"levelo_inurba_marseille","lat":43.23199,"lon":5.35544,"is_reserved":false,"is_disabled":false,"rental_uris":{"android":"levelo://app?vid=dc895109-ee02-4ef1-9f8c-68ad809df014","ios":"levelo://app?vid=dc895109-ee02-4ef1-9f8c-68ad809df014"},"vehicle_type_id":"4","last_reported":1752077474,"current_range_meters":17600,"station_id":"ce4bhu92rcd13ifvqi70","pricing_plan_id":"cebpf4jnsgd1na2vs0mg"},{"bike_id":"bc79cf22-9600-43f9-855f-d2516f160b65","system_id":"levelo_inurba_marseille","lat":43.313587,"lon":5.376727,"is_reserved":false,"is_disabled":false,"rental_uris":{"android":"levelo://app?vid=bc79cf22-9600-43f9-855f-d2516f160b65","ios":"levelo://app?vid=bc79cf22-9600-43f9-855f-d2516f160b65"},"vehicle_type_id":"4","last_reported":1752077474,"current_range_meters":18000,"station_id":"","pricing_plan_id":"cebpf4jnsgd1na2vs0mg"},{"bike_id":"36c387ea-be50-4028-8ecc-21605fe3e879","system_id":"levelo_inurba_marseille","lat":43.29362,"lon":5.42815,"is_reserved":false,"is_disabled":false,"rental_uris":{"android":"levelo://app?vid=36c387ea-be50-4028-8ecc-21605fe3e879","ios":"levelo://app?vid=36c387ea-be50-4028-8ecc-21605fe3e879"},"vehicle_type_id":"4","last_reported":1752077474,"current_range_meters":18000,"station_id":"","pricing_plan_id":"cebpf4jnsgd1na2vs0mg"},{"bike_id":"feaa7e3a-cbe4-4489-be11-8a12d7eec173","system_id":"levelo_inurba_marseille","lat":43.251842,"lon":5.425724,"is_reserved":false,"is_disabled":false,"rental_uris":{"android":"levelo://app?vid=feaa7e3a-cbe4-4489-be11-8a12d7eec173","ios":"levelo://app?vid=feaa7e3a-cbe4-4489-be11-8a12d7eec173"},"vehicle_type_id":"4","last_reported":1752077474,"current_range_meters":18000,"station_id":"","pricing_plan_id":"cebpf4jnsgd1na2vs0mg"},{"bike_id":"d1c1ca45-4d34-4a40-b4e7-310ab2f21918","system_id":"levelo_inurba_marseille","lat":43.29581,"lon":5.36735,"is_reserved":false,"is_disabled":false,"rental_uris":{"android":"levelo://app?vid=d1c1ca45-4d34-4a40-b4e7-310ab2f21918","ios":"levelo://app?vid=d1c1ca45-4d34-4a40-b4e7-310ab2f21918"},"vehicle_type_id":"4","last_reported":1752077474,"current_range_meters":18000,"station_id":"ce4bgph2rcd13ifvqc2g","pricing_plan_id":"cebpf4jnsgd1na2vs0mg"},{"bike_id":"e8c4a64d-76d4-4e28-a309-49615d58b09d","system_id":"levelo_inurba_marseille","lat":43.31333,"lon":5.39694,"is_reserved":false,"is_disabled":false,"rental_uris":{"android":"levelo://app?vid=e8c4a64d-76d4-4e28-a309-49615d58b09d","ios":"levelo://app?vid=e8c4a64d-76d4-4e28-a309-49615d58b09d"},"vehicle_type_id":"4","last_reported":1752077474,"current_range_meters":18000,"station_id":"ce4bgvp2rcd13ifvqcu0","pricing_plan_id":"cebpf4jnsgd1na2vs0mg"},{"bike_id":"36ffa099-8ffa-41ce-b159-1190da85e500","system_id":"levelo_inurba_marseille","lat":43.29061,"lon":5.38107,"is_reserved":false,"is_disabled":false,"rental_uris":{"android":"levelo://app?vid=36ffa099-8ffa-41ce-b159-1190da85e500","ios":"levelo://app?vid=36ffa099-8ffa-41ce-b159-1190da85e500"},"vehicle_type_id":"4","last_reported":1752077474,"current_range_meters":18000,"station_id":"ce4bh512rcd13ifvqe2g","pricing_plan_id":"cebpf4jnsgd1na2vs0mg"},{"bike_id":"6dbe322f-ad95-41c7-9a8a-ea2a2ce5a124","system_id":"levelo_inurba_marseille","lat":43.29233,"lon":5.36074,"is_reserved":false,"is_disabled":false,"rental_uris":{"android":"levelo://app?vid=6dbe322f-ad95-41c7-9a8a-ea2a2ce5a124","ios":"levelo://app?vid=6dbe322f-ad95-41c7-9a8a-ea2a2ce5a124"},"vehicle_type_id":"4","last_reported":1752077474,"current_range_meters":18000,"station_id":"ce4bhbh2rcd13ifvqeqg","pricing_plan_id":"cebpf4jnsgd1na2vs0mg"},{"bike_id":"0dd9a045-d333-4a19-b255-22edfa67517c","system_id":"levelo_inurba_marseille","lat":43.289405,"lon":5.363955,"is_reserved":false,"is_disabled":false,"rental_uris":{"android":"levelo://app?vid=0dd9a045-d333-4a19-b255-22edfa67517c","ios":"levelo://app?vid=0dd9a045-d333-4a19-b255-22edfa67517c"},"vehicle_type_id":"4","last_reported":1752077474,"current_range_meters":18000,"station_id":"ce4bhc92rcd13ifvqetg","pricing_plan_id":"cebpf4jnsgd1na2vs0mg"},{"bike_id":"3c2be974-f10a-47a0-ae30-b9e120db49ce","system_id":"levelo_inurba_marseille","lat":43.25493,"lon":5.37649,"is_reserved":false,"is_disabled":false,"rental_uris":{"android":"levelo://app?vid=3c2be974-f10a-47a0-ae30-b9e120db49ce","ios":"levelo://app?vid=3c2be974-f10a-47a0-ae30-b9e120db49ce"},"vehicle_type_id":"4","last_reported":1752077474,"current_range_meters":18000,"station_id":"ce4bhh12rcd13ifvqff0","pricing_plan_id":"cebpf4jnsgd1na2vs0mg"},{"bike_id":"f2c5f055-8f6b-41bc-9690-fb77d1e3da2b","system_id":"levelo_inurba_marseille","lat":43.23191,"lon":5.39979,"is_reserved":false,"is_disabled":false,"rental_uris":{"android":"levelo://app?vid=f2c5f055-8f6b-41bc-9690-fb77d1e3da2b","ios":"levelo://app?vid=f2c5f055-8f6b-41bc-9690-fb77d1e3da2b"},"vehicle_type_id":"4","last_reported":1752077474,"current_range_meters":18000,"station_id":"ce4bhn12rcd13ifvqgqg","pricing_plan_id":"cebpf4jnsgd1na2vs0mg"},{"bike_id":"87d13c3c-9453-4492-8a8f-f2b4c8e828c6","system_id":"levelo_inurba_marseille","lat":43.26177,"lon":5.37049,"is_reserved":false,"is_disabled":false,"rental_uris":{"android":"levelo://app?vid=87d13c3c-9453-4492-8a8f-f2b4c8e828c6","ios":"levelo://app?vid=87d13c3c-9453-4492-8a8f-f2b4c8e828c6"},"vehicle_type_id":"4","last_reported":1752077474,"current_range_meters":18800,"station_id":"","pricing_plan_id":"cebpf4jnsgd1na2vs0mg"},{"bike_id":"491e83a5-cb79-4108-b784-822f5b889d95","system_id":"levelo_inurba_marseille","lat":43.2952,"lon":5.37511,"is_reserved":false,"is_disabled":false,"rental_uris":{"android":"levelo://app?vid=491e83a5-cb79-4108-b784-822f5b889d95","ios":"levelo://app?vid=491e83a5-cb79-4108-b784-822f5b889d95"},"vehicle_type_id":"4","last_reported":1752077474,"current_range_meters":18800,"station_id":"ce4bgkp2rcd13ifvqbmg","pricing_plan_id":"cebpf4jnsgd1na2vs0mg"},{"bike_id":"32a45745-158f-4e9b-8347-39544e4e467d","system_id":"levelo_inurba_marseille","lat":43.28413,"lon":5.35015,"is_reserved":false,"is_disabled":false,"rental_uris":{"android":"levelo://app?vid=32a45745-158f-4e9b-8347-39544e4e467d","ios":"levelo://app?vid=32a45745-158f-4e9b-8347-39544e4e467d"},"vehicle_type_id":"4","last_reported":1752077474,"current_range_meters":18800,"station_id":"ce4bhbh2rcd13ifvqepg","pricing_plan_id":"cebpf4jnsgd1na2vs0mg"},{"bike_id":"fe393e70-3017-4f74-9643-ce2ab31a2adc","system_id":"levelo_inurba_marseille","lat":43.286236,"lon":5.351035,"is_reserved":false,"is_disabled":false,"rental_uris":{"android":"levelo://app?vid=fe393e70-3017-4f74-9643-ce2ab31a2adc","ios":"levelo://app?vid=fe393e70-3017-4f74-9643-ce2ab31a2adc"},"vehicle_type_id":"4","last_reported":1752077474,"current_range_meters":18800,"station_id":"ce4bhch2rcd13ifvqeug","pricing_plan_id":"cebpf4jnsgd1na2vs0mg"},{"bike_id":"85e3320e-8cee-43de-83f2-e982ac59c075","system_id":"levelo_inurba_marseille","lat":43.225,"lon":5.34807,"is_reserved":false,"is_disabled":false,"rental_uris":{"android":"levelo://app?vid=85e3320e-8cee-43de-83f2-e982ac59c075","ios":"levelo://app?vid=85e3320e-8cee-43de-83f2-e982ac59c075"},"vehicle_type_id":"4","last_reported":1752077474,"current_range_meters":18800,"station_id":"st_cvj5dfep6f1abm77gieg","pricing_plan_id":"cebpf4jnsgd1na2vs0mg"},{"bike_id":"51d79711-fd55-46d0-999d-7df329fd6150","system_id":"levelo_inurba_marseille","lat":43.21762,"lon":5.34603,"is_reserved":false,"is_disabled":false,"rental_uris":{"android":"levelo://app?vid=51d79711-fd55-46d0-999d-7df329fd6150","ios":"levelo://app?vid=51d79711-fd55-46d0-999d-7df329fd6150"},"vehicle_type_id":"4","last_reported":1752077474,"current_range_meters":18800,"station_id":"st_cvj6r9ubvosntc0bgbag","pricing_plan_id":"cebpf4jnsgd1na2vs0mg"},{"bike_id":"42ddf1de-52a6-47b1-8606-f9f2c373dc80","system_id":"levelo_inurba_marseille","lat":43.217532,"lon":5.34599,"is_reserved":false,"is_disabled":false,"rental_uris":{"android":"levelo://app?vid=42ddf1de-52a6-47b1-8606-f9f2c373dc80","ios":"levelo://app?vid=42ddf1de-52a6-47b1-8606-f9f2c373dc80"},"vehicle_type_id":"4","last_reported":1752077474,"current_range_meters":18800,"station_id":"st_cvj6r9ubvosntc0bgbag","pricing_plan_id":"cebpf4jnsgd1na2vs0mg"},{"bike_id":"069759f3-8488-4973-b337-5e447fc27e24","system_id":"levelo_inurba_marseille","lat":43.21196,"lon":5.35063,"is_reserved":false,"is_disabled":false,"rental_uris":{"android":"levelo://app?vid=069759f3-8488-4973-b337-5e447fc27e24","ios":"levelo://app?vid=069759f3-8488-4973-b337-5e447fc27e24"},"vehicle_type_id":"4","last_reported":1752077474,"current_range_meters":18800,"station_id":"st_cvj6sg6p6f1abm77japg","pricing_plan_id":"cebpf4jnsgd1na2vs0mg"},{"bike_id":"cade331f-a6e3-4d01-8bc4-dd218718d65a","system_id":"levelo_inurba_marseille","lat":43.26276,"lon":5.37436,"is_reserved":false,"is_disabled":false,"rental_uris":{"android":"levelo://app?vid=cade331f-a6e3-4d01-8bc4-dd218718d65a","ios":"levelo://app?vid=cade331f-a6e3-4d01-8bc4-dd218718d65a"},"vehicle_type_id":"4","last_reported":1752077474,"current_range_meters":19200,"station_id":"","pricing_plan_id":"cebpf4jnsgd1na2vs0mg"},{"bike_id":"9f5e74ce-2459-4c6f-a171-f6d1e8a1ed83","system_id":"levelo_inurba_marseille","lat":43.31888,"lon":5.37552,"is_reserved":false,"is_disabled":false,"rental_uris":{"android":"levelo://app?vid=9f5e74ce-2459-4c6f-a171-f6d1e8a1ed83","ios":"levelo://app?vid=9f5e74ce-2459-4c6f-a171-f6d1e8a1ed83"},"vehicle_type_id":"4","last_reported":1752077474,"current_range_meters":19200,"station_id":"","pricing_plan_id":"cebpf4jnsgd1na2vs0mg"},{"bike_id":"f7db4f76-f9b4-4c58-81f0-17769d8a997d","system_id":"levelo_inurba_marseille","lat":43.25588,"lon":5.38246,"is_reserved":false,"is_disabled":false,"rental_uris":{"android":"levelo://app?vid=f7db4f76-f9b4-4c58-81f0-17769d8a997d","ios":"levelo://app?vid=f7db4f76-f9b4-4c58-81f0-17769d8a997d"},"vehicle_type_id":"4","last_reported":1752077474,"current_range_meters":19200,"station_id":"ce4bhih2rcd13ifvqfs0","pricing_plan_id":"cebpf4jnsgd1na2vs0mg"},{"bike_id":"7725683b-3883-4cb7-b23c-591c9a76b7b2","system_id":"levelo_inurba_marseille","lat":43.25574,"lon":5.3823,"is_reserved":false,"is_disabled":false,"rental_uris":{"android":"levelo://app?vid=7725683b-3883-4cb7-b23c-591c9a76b7b2","ios":"levelo://app?vid=7725683b-3883-4cb7-b23c-591c9a76b7b2"},"vehicle_type_id":"4","last_reported":1752077474,"current_range_meters":19200,"station_id":"ce4bhih2rcd13ifvqfs0","pricing_plan_id":"cebpf4jnsgd1na2vs0mg"},{"bike_id":"fde530d0-eeed-4692-bb9c-2c65ba0cdd9f","system_id":"levelo_inurba_marseille","lat":43.308423,"lon":5.425894,"is_reserved":false,"is_disabled":false,"rental_uris":{"android":"levelo://app?vid=fde530d0-eeed-4692-bb9c-2c65ba0cdd9f","ios":"levelo://app?vid=fde530d0-eeed-4692-bb9c-2c65ba0cdd9f"},"vehicle_type_id":"4","last_reported":1752077474,"current_range_meters":19600,"station_id":"","pricing_plan_id":"cebpf4jnsgd1na2vs0mg"},{"bike_id":"d6ffa863-3444-4493-ad31-6eaf84ef2a1f","system_id":"levelo_inurba_marseille","lat":43.29621,"lon":5.37158,"is_reserved":false,"is_disabled":false,"rental_uris":{"android":"levelo://app?vid=d6ffa863-3444-4493-ad31-6eaf84ef2a1f","ios":"levelo://app?vid=d6ffa863-3444-4493-ad31-6eaf84ef2a1f"},"vehicle_type_id":"4","last_reported":1752077474,"current_range_meters":19600,"station_id":"ce4bgnh2rcd13ifvqc0g","pricing_plan_id":"cebpf4jnsgd1na2vs0mg"},{"bike_id":"3e10134f-0d30-42b2-88ed-5b5956204000","system_id":"levelo_inurba_marseille","lat":43.29582,"lon":5.36743,"is_reserved":false,"is_disabled":false,"rental_uris":{"android":"levelo://app?vid=3e10134f-0d30-42b2-88ed-5b5956204000","ios":"levelo://app?vid=3e10134f-0d30-42b2-88ed-5b5956204000"},"vehicle_type_id":"4","last_reported":1752077474,"current_range_meters":19600,"station_id":"ce4bgph2rcd13ifvqc2g","pricing_plan_id":"cebpf4jnsgd1na2vs0mg"},{"bike_id":"7fa6ba75-a0b1-4eca-bde8-d2a9f53c4a95","system_id":"levelo_inurba_marseille","lat":43.23199,"lon":5.35553,"is_reserved":false,"is_disabled":false,"rental_uris":{"android":"levelo://app?vid=7fa6ba75-a0b1-4eca-bde8-d2a9f53c4a95","ios":"levelo://app?vid=7fa6ba75-a0b1-4eca-bde8-d2a9f53c4a95"},"vehicle_type_id":"4","last_reported":1752077474,"current_range_meters":19600,"station_id":"ce4bhu92rcd13ifvqi70","pricing_plan_id":"cebpf4jnsgd1na2vs0mg"},{"bike_id":"1dea9a4b-e532-440d-9acf-dbd3f20db555","system_id":"levelo_inurba_marseille","lat":43.26939,"lon":5.40263,"is_reserved":false,"is_disabled":false,"rental_uris":{"android":"levelo://app?vid=1dea9a4b-e532-440d-9acf-dbd3f20db555","ios":"levelo://app?vid=1dea9a4b-e532-440d-9acf-dbd3f20db555"},"vehicle_type_id":"4","last_reported":1752077474,"current_range_meters":19600,"station_id":"cjm6bp8fraef2m0cb0m0","pricing_plan_id":"cebpf4jnsgd1na2vs0mg"},{"bike_id":"d6ccf0b1-3fcc-4a6a-883f-25257c08898d","system_id":"levelo_inurba_marseille","lat":43.224976,"lon":5.348346,"is_reserved":false,"is_disabled":false,"rental_uris":{"android":"levelo://app?vid=d6ccf0b1-3fcc-4a6a-883f-25257c08898d","ios":"levelo://app?vid=d6ccf0b1-3fcc-4a6a-883f-25257c08898d"},"vehicle_type_id":"4","last_reported":1752077474,"current_range_meters":20000,"station_id":"","pricing_plan_id":"cebpf4jnsgd1na2vs0mg"},{"bike_id":"fa87fcb5-aacb-41a1-a789-0296bbd02085","system_id":"levelo_inurba_marseille","lat":43.24586,"lon":5.37382,"is_reserved":false,"is_disabled":false,"rental_uris":{"android":"levelo://app?vid=fa87fcb5-aacb-41a1-a789-0296bbd02085","ios":"levelo://app?vid=fa87fcb5-aacb-41a1-a789-0296bbd02085"},"vehicle_type_id":"4","last_reported":1752077474,"current_range_meters":20000,"station_id":"","pricing_plan_id":"cebpf4jnsgd1na2vs0mg"},{"bike_id":"4e209b0c-855f-4b51-8120-2faef8673853","system_id":"levelo_inurba_marseille","lat":43.30614,"lon":5.36889,"is_reserved":false,"is_disabled":false,"rental_uris":{"android":"levelo://app?vid=4e209b0c-855f-4b51-8120-2faef8673853","ios":"levelo://app?vid=4e209b0c-855f-4b51-8120-2faef8673853"},"vehicle_type_id":"4","last_reported":1752077474,"current_range_meters":20000,"station_id":"","pricing_plan_id":"cebpf4jnsgd1na2vs0mg"},{"bike_id":"2ab8a933-7435-4c9b-ad4b-60c141093861","system_id":"levelo_inurba_marseille","lat":43.30281,"lon":5.39188,"is_reserved":false,"is_disabled":false,"rental_uris":{"android":"levelo://app?vid=2ab8a933-7435-4c9b-ad4b-60c141093861","ios":"levelo://app?vid=2ab8a933-7435-4c9b-ad4b-60c141093861"},"vehicle_type_id":"4","last_reported":1752077474,"current_range_meters":20000,"station_id":"ce4bgkh2rcd13ifvqbk0","pricing_plan_id":"cebpf4jnsgd1na2vs0mg"},{"bike_id":"526182d7-d8b2-45df-8d31-1d1f447e87ca","system_id":"levelo_inurba_marseille","lat":43.3127,"lon":5.4017,"is_reserved":false,"is_disabled":false,"rental_uris":{"android":"levelo://app?vid=526182d7-d8b2-45df-8d31-1d1f447e87ca","ios":"levelo://app?vid=526182d7-d8b2-45df-8d31-1d1f447e87ca"},"vehicle_type_id":"4","last_reported":1752077474,"current_range_meters":20000,"station_id":"ce4bh092rcd13ifvqd30","pricing_plan_id":"cebpf4jnsgd1na2vs0mg"},{"bike_id":"e2bb7ee9-ac0d-44b3-bb61-6afabc57f457","system_id":"levelo_inurba_marseille","lat":43.27387,"lon":5.36256,"is_reserved":false,"is_disabled":false,"rental_uris":{"android":"levelo://app?vid=e2bb7ee9-ac0d-44b3-bb61-6afabc57f457","ios":"levelo://app?vid=e2bb7ee9-ac0d-44b3-bb61-6afabc57f457"},"vehicle_type_id":"4","last_reported":1752077474,"current_range_meters":20000,"station_id":"ce4bhbh2rcd13ifvqeo0","pricing_plan_id":"cebpf4jnsgd1na2vs0mg"},{"bike_id":"2388ceb6-7358-4672-b847-92c8d4a1619e","system_id":"levelo_inurba_marseille","lat":43.26958,"lon":5.38633,"is_reserved":false,"is_disabled":false,"rental_uris":{"android":"levelo://app?vid=2388ceb6-7358-4672-b847-92c8d4a1619e","ios":"levelo://app?vid=2388ceb6-7358-4672-b847-92c8d4a1619e"},"vehicle_type_id":"4","last_reported":1752077474,"current_range_meters":20000,"station_id":"ce4bhh92rcd13ifvqfh0","pricing_plan_id":"cebpf4jnsgd1na2vs0mg"},{"bike_id":"91292408-2bc6-4cad-bc84-0110ae4eed05","system_id":"levelo_inurba_marseille","lat":43.270648,"lon":5.422814,"is_reserved":false,"is_disabled":false,"rental_uris":{"android":"levelo://app?vid=91292408-2bc6-4cad-bc84-0110ae4eed05","ios":"levelo://app?vid=91292408-2bc6-4cad-bc84-0110ae4eed05"},"vehicle_type_id":"4","last_reported":1752077474,"current_range_meters":20000,"station_id":"ce4bhk92rcd13ifvqgb0","pricing_plan_id":"cebpf4jnsgd1na2vs0mg"},{"bike_id":"89c88601-23fc-46eb-8f34-723cccb1bf9d","system_id":"levelo_inurba_marseille","lat":43.27496,"lon":5.42454,"is_reserved":false,"is_disabled":false,"rental_uris":{"android":"levelo://app?vid=89c88601-23fc-46eb-8f34-723cccb1bf9d","ios":"levelo://app?vid=89c88601-23fc-46eb-8f34-723cccb1bf9d"},"vehicle_type_id":"4","last_reported":1752077474,"current_range_meters":20000,"station_id":"ce4bhn92rcd13ifvqgrg","pricing_plan_id":"cebpf4jnsgd1na2vs0mg"},{"bike_id":"fc963b4b-8495-46da-9660-d64c4bfcd837","system_id":"levelo_inurba_marseille","lat":43.24075,"lon":5.37766,"is_reserved":false,"is_disabled":false,"rental_uris":{"android":"levelo://app?vid=fc963b4b-8495-46da-9660-d64c4bfcd837","ios":"levelo://app?vid=fc963b4b-8495-46da-9660-d64c4bfcd837"},"vehicle_type_id":"4","last_reported":1752077474,"current_range_meters":20000,"station_id":"ce4bhnp2rcd13ifvqgvg","pricing_plan_id":"cebpf4jnsgd1na2vs0mg"},{"bike_id":"3b30cb48-100f-4f80-ae9c-c05fdbf5ac62","system_id":"levelo_inurba_marseille","lat":43.25451,"lon":5.37946,"is_reserved":false,"is_disabled":false,"rental_uris":{"android":"levelo://app?vid=3b30cb48-100f-4f80-ae9c-c05fdbf5ac62","ios":"levelo://app?vid=3b30cb48-100f-4f80-ae9c-c05fdbf5ac62"},"vehicle_type_id":"4","last_reported":1752077474,"current_range_meters":20400,"station_id":"","pricing_plan_id":"cebpf4jnsgd1na2vs0mg"},{"bike_id":"bd5228ab-002e-4f81-bbd3-2baf5452f591","system_id":"levelo_inurba_marseille","lat":43.278237,"lon":5.414467,"is_reserved":false,"is_disabled":false,"rental_uris":{"android":"levelo://app?vid=bd5228ab-002e-4f81-bbd3-2baf5452f591","ios":"levelo://app?vid=bd5228ab-002e-4f81-bbd3-2baf5452f591"},"vehicle_type_id":"4","last_reported":1752077474,"current_range_meters":20400,"station_id":"","pricing_plan_id":"cebpf4jnsgd1na2vs0mg"},{"bike_id":"cf7089c0-768b-47a7-baf4-88c5520bb6c7","system_id":"levelo_inurba_marseille","lat":43.29849,"lon":5.3628,"is_reserved":false,"is_disabled":false,"rental_uris":{"android":"levelo://app?vid=cf7089c0-768b-47a7-baf4-88c5520bb6c7","ios":"levelo://app?vid=cf7089c0-768b-47a7-baf4-88c5520bb6c7"},"vehicle_type_id":"4","last_reported":1752077474,"current_range_meters":20400,"station_id":"ce4bgpp2rcd13ifvqc3g","pricing_plan_id":"cebpf4jnsgd1na2vs0mg"},{"bike_id":"9239d50f-454f-4cfe-bb52-525aa9c261e6","system_id":"levelo_inurba_marseille","lat":43.28632,"lon":5.35098,"is_reserved":false,"is_disabled":false,"rental_uris":{"android":"levelo://app?vid=9239d50f-454f-4cfe-bb52-525aa9c261e6","ios":"levelo://app?vid=9239d50f-454f-4cfe-bb52-525aa9c261e6"},"vehicle_type_id":"4","last_reported":1752077474,"current_range_meters":20400,"station_id":"ce4bhch2rcd13ifvqeug","pricing_plan_id":"cebpf4jnsgd1na2vs0mg"},{"bike_id":"50945149-9e06-4fa8-a5c2-c261e5fe0908","system_id":"levelo_inurba_marseille","lat":43.2742,"lon":5.39411,"is_reserved":false,"is_disabled":false,"rental_uris":{"android":"levelo://app?vid=50945149-9e06-4fa8-a5c2-c261e5fe0908","ios":"levelo://app?vid=50945149-9e06-4fa8-a5c2-c261e5fe0908"},"vehicle_type_id":"4","last_reported":1752077474,"current_range_meters":20400,"station_id":"ce4bhdp2rcd13ifvqf20","pricing_plan_id":"cebpf4jnsgd1na2vs0mg"},{"bike_id":"ee1ac907-8623-4d00-ac01-d41dd90be9fe","system_id":"levelo_inurba_marseille","lat":43.2119,"lon":5.35073,"is_reserved":false,"is_disabled":false,"rental_uris":{"android":"levelo://app?vid=ee1ac907-8623-4d00-ac01-d41dd90be9fe","ios":"levelo://app?vid=ee1ac907-8623-4d00-ac01-d41dd90be9fe"},"vehicle_type_id":"4","last_reported":1752077474,"current_range_meters":20400,"station_id":"st_cvj6sg6p6f1abm77japg","pricing_plan_id":"cebpf4jnsgd1na2vs0mg"},{"bike_id":"24b17f7b-dff1-4936-b27a-7c2c6813a894","system_id":"levelo_inurba_marseille","lat":43.24586,"lon":5.3737,"is_reserved":false,"is_disabled":false,"rental_uris":{"android":"levelo://app?vid=24b17f7b-dff1-4936-b27a-7c2c6813a894","ios":"levelo://app?vid=24b17f7b-dff1-4936-b27a-7c2c6813a894"},"vehicle_type_id":"4","last_reported":1752077474,"current_range_meters":20800,"station_id":"","pricing_plan_id":"cebpf4jnsgd1na2vs0mg"},{"bike_id":"55eb3ee3-207d-45c9-a356-7e275a6ee08e","system_id":"levelo_inurba_marseille","lat":43.322208,"lon":5.407363,"is_reserved":false,"is_disabled":false,"rental_uris":{"android":"levelo://app?vid=55eb3ee3-207d-45c9-a356-7e275a6ee08e","ios":"levelo://app?vid=55eb3ee3-207d-45c9-a356-7e275a6ee08e"},"vehicle_type_id":"4","last_reported":1752077474,"current_range_meters":20800,"station_id":"ce4bh092rcd13ifvqd30","pricing_plan_id":"cebpf4jnsgd1na2vs0mg"},{"bike_id":"33ca56ee-489a-4240-9d4c-667abf911c67","system_id":"levelo_inurba_marseille","lat":43.2738,"lon":5.3625,"is_reserved":false,"is_disabled":false,"rental_uris":{"android":"levelo://app?vid=33ca56ee-489a-4240-9d4c-667abf911c67","ios":"levelo://app?vid=33ca56ee-489a-4240-9d4c-667abf911c67"},"vehicle_type_id":"4","last_reported":1752077474,"current_range_meters":20800,"station_id":"ce4bhbh2rcd13ifvqeo0","pricing_plan_id":"cebpf4jnsgd1na2vs0mg"},{"bike_id":"10c59449-1e22-41d8-be57-73de9f1e8e96","system_id":"levelo_inurba_marseille","lat":43.28409,"lon":5.3499,"is_reserved":false,"is_disabled":false,"rental_uris":{"android":"levelo://app?vid=10c59449-1e22-41d8-be57-73de9f1e8e96","ios":"levelo://app?vid=10c59449-1e22-41d8-be57-73de9f1e8e96"},"vehicle_type_id":"4","last_reported":1752077474,"current_range_meters":20800,"station_id":"ce4bhbh2rcd13ifvqepg","pricing_plan_id":"cebpf4jnsgd1na2vs0mg"},{"bike_id":"d29d784e-d8e4-46dd-bb3f-f0c18ed60e4d","system_id":"levelo_inurba_marseille","lat":43.29222,"lon":5.36061,"is_reserved":false,"is_disabled":false,"rental_uris":{"android":"levelo://app?vid=d29d784e-d8e4-46dd-bb3f-f0c18ed60e4d","ios":"levelo://app?vid=d29d784e-d8e4-46dd-bb3f-f0c18ed60e4d"},"vehicle_type_id":"4","last_reported":1752077474,"current_range_meters":20800,"station_id":"ce4bhbh2rcd13ifvqeqg","pricing_plan_id":"cebpf4jnsgd1na2vs0mg"},{"bike_id":"cc8dac58-e10f-4660-9a4a-aeb193ea7375","system_id":"levelo_inurba_marseille","lat":43.25497,"lon":5.37659,"is_reserved":false,"is_disabled":false,"rental_uris":{"android":"levelo://app?vid=cc8dac58-e10f-4660-9a4a-aeb193ea7375","ios":"levelo://app?vid=cc8dac58-e10f-4660-9a4a-aeb193ea7375"},"vehicle_type_id":"4","last_reported":1752077474,"current_range_meters":20800,"station_id":"ce4bhh12rcd13ifvqff0","pricing_plan_id":"cebpf4jnsgd1na2vs0mg"},{"bike_id":"12671aaf-df30-48df-969a-0e8ba311c0d9","system_id":"levelo_inurba_marseille","lat":43.299257,"lon":5.374755,"is_reserved":false,"is_disabled":false,"rental_uris":{"android":"levelo://app?vid=12671aaf-df30-48df-969a-0e8ba311c0d9","ios":"levelo://app?vid=12671aaf-df30-48df-969a-0e8ba311c0d9"},"vehicle_type_id":"4","last_reported":1752077474,"current_range_meters":21600,"station_id":"","pricing_plan_id":"cebpf4jnsgd1na2vs0mg"},{"bike_id":"48780600-0ab4-4f20-83d0-921deda6f8c8","system_id":"levelo_inurba_marseille","lat":43.28911,"lon":5.3817,"is_reserved":false,"is_disabled":false,"rental_uris":{"android":"levelo://app?vid=48780600-0ab4-4f20-83d0-921deda6f8c8","ios":"levelo://app?vid=48780600-0ab4-4f20-83d0-921deda6f8c8"},"vehicle_type_id":"4","last_reported":1752077474,"current_range_meters":21600,"station_id":"","pricing_plan_id":"cebpf4jnsgd1na2vs0mg"},{"bike_id":"5dcfe2d8-69a8-454f-bf5e-78ca106ce853","system_id":"levelo_inurba_marseille","lat":43.29056,"lon":5.3811,"is_reserved":false,"is_disabled":false,"rental_uris":{"android":"levelo://app?vid=5dcfe2d8-69a8-454f-bf5e-78ca106ce853","ios":"levelo://app?vid=5dcfe2d8-69a8-454f-bf5e-78ca106ce853"},"vehicle_type_id":"4","last_reported":1752077474,"current_range_meters":21600,"station_id":"","pricing_plan_id":"cebpf4jnsgd1na2vs0mg"},{"bike_id":"6006a9aa-40e9-4dd0-9916-778076e2eaee","system_id":"levelo_inurba_marseille","lat":43.28429,"lon":5.34984,"is_reserved":false,"is_disabled":false,"rental_uris":{"android":"levelo://app?vid=6006a9aa-40e9-4dd0-9916-778076e2eaee","ios":"levelo://app?vid=6006a9aa-40e9-4dd0-9916-778076e2eaee"},"vehicle_type_id":"4","last_reported":1752077474,"current_range_meters":21600,"station_id":"ce4bhbh2rcd13ifvqepg","pricing_plan_id":"cebpf4jnsgd1na2vs0mg"},{"bike_id":"a639b820-7e59-4035-96cb-cf4c8016504d","system_id":"levelo_inurba_marseille","lat":43.265564,"lon":5.372853,"is_reserved":false,"is_disabled":false,"rental_uris":{"android":"levelo://app?vid=a639b820-7e59-4035-96cb-cf4c8016504d","ios":"levelo://app?vid=a639b820-7e59-4035-96cb-cf4c8016504d"},"vehicle_type_id":"4","last_reported":1752077474,"current_range_meters":21600,"station_id":"ce4bhg12rcd13ifvqf70","pricing_plan_id":"cebpf4jnsgd1na2vs0mg"},{"bike_id":"c3565731-85a3-458b-b139-d9af6956cc8a","system_id":"levelo_inurba_marseille","lat":43.26552,"lon":5.37283,"is_reserved":false,"is_disabled":false,"rental_uris":{"android":"levelo://app?vid=c3565731-85a3-458b-b139-d9af6956cc8a","ios":"levelo://app?vid=c3565731-85a3-458b-b139-d9af6956cc8a"},"vehicle_type_id":"4","last_reported":1752077474,"current_range_meters":21600,"station_id":"ce4bhg12rcd13ifvqf70","pricing_plan_id":"cebpf4jnsgd1na2vs0mg"},{"bike_id":"32dd38ad-4242-4aef-a574-62a73d8f0042","system_id":"levelo_inurba_marseille","lat":43.27071,"lon":5.42279,"is_reserved":false,"is_disabled":false,"rental_uris":{"android":"levelo://app?vid=32dd38ad-4242-4aef-a574-62a73d8f0042","ios":"levelo://app?vid=32dd38ad-4242-4aef-a574-62a73d8f0042"},"vehicle_type_id":"4","last_reported":1752077474,"current_range_meters":21600,"station_id":"ce4bhk92rcd13ifvqgb0","pricing_plan_id":"cebpf4jnsgd1na2vs0mg"},{"bike_id":"3b935dfc-179a-4512-b00d-bb8fa978bd14","system_id":"levelo_inurba_marseille","lat":43.29901,"lon":5.43673,"is_reserved":false,"is_disabled":false,"rental_uris":{"android":"levelo://app?vid=3b935dfc-179a-4512-b00d-bb8fa978bd14","ios":"levelo://app?vid=3b935dfc-179a-4512-b00d-bb8fa978bd14"},"vehicle_type_id":"4","last_reported":1752077474,"current_range_meters":21600,"station_id":"ce4bhpp2rcd13ifvqhfg","pricing_plan_id":"cebpf4jnsgd1na2vs0mg"},{"bike_id":"3f674e21-387f-42dc-83a5-434606be9c99","system_id":"levelo_inurba_marseille","lat":43.21739,"lon":5.34609,"is_reserved":false,"is_disabled":false,"rental_uris":{"android":"levelo://app?vid=3f674e21-387f-42dc-83a5-434606be9c99","ios":"levelo://app?vid=3f674e21-387f-42dc-83a5-434606be9c99"},"vehicle_type_id":"4","last_reported":1752077474,"current_range_meters":21600,"station_id":"st_cvj6r9ubvosntc0bgbag","pricing_plan_id":"cebpf4jnsgd1na2vs0mg"},{"bike_id":"47d5837a-2c71-40ff-8231-090bed1eadbb","system_id":"levelo_inurba_marseille","lat":43.304909,"lon":5.390442,"is_reserved":false,"is_disabled":false,"rental_uris":{"android":"levelo://app?vid=47d5837a-2c71-40ff-8231-090bed1eadbb","ios":"levelo://app?vid=47d5837a-2c71-40ff-8231-090bed1eadbb"},"vehicle_type_id":"4","last_reported":1752077474,"current_range_meters":22000,"station_id":"ce4bgk12rcd13ifvqbi0","pricing_plan_id":"cebpf4jnsgd1na2vs0mg"},{"bike_id":"a9d464c7-7db9-40a9-a235-10357c28e0ea","system_id":"levelo_inurba_marseille","lat":43.30315,"lon":5.40432,"is_reserved":false,"is_disabled":false,"rental_uris":{"android":"levelo://app?vid=a9d464c7-7db9-40a9-a235-10357c28e0ea","ios":"levelo://app?vid=a9d464c7-7db9-40a9-a235-10357c28e0ea"},"vehicle_type_id":"4","last_reported":1752077474,"current_range_meters":22000,"station_id":"ce4bh012rcd13ifvqd10","pricing_plan_id":"cebpf4jnsgd1na2vs0mg"},{"bike_id":"e84b88f6-a9be-4285-be10-f97b3fee351a","system_id":"levelo_inurba_marseille","lat":43.2811,"lon":5.37829,"is_reserved":false,"is_disabled":false,"rental_uris":{"android":"levelo://app?vid=e84b88f6-a9be-4285-be10-f97b3fee351a","ios":"levelo://app?vid=e84b88f6-a9be-4285-be10-f97b3fee351a"},"vehicle_type_id":"4","last_reported":1752077474,"current_range_meters":22000,"station_id":"ce4bha12rcd13ifvqee0","pricing_plan_id":"cebpf4jnsgd1na2vs0mg"},{"bike_id":"03fe5480-7cf7-4f73-af75-bc9e8768fba8","system_id":"levelo_inurba_marseille","lat":43.25584,"lon":5.38228,"is_reserved":false,"is_disabled":false,"rental_uris":{"android":"levelo://app?vid=03fe5480-7cf7-4f73-af75-bc9e8768fba8","ios":"levelo://app?vid=03fe5480-7cf7-4f73-af75-bc9e8768fba8"},"vehicle_type_id":"4","last_reported":1752077474,"current_range_meters":22000,"station_id":"ce4bhih2rcd13ifvqfs0","pricing_plan_id":"cebpf4jnsgd1na2vs0mg"},{"bike_id":"09e6819b-a711-4281-9abf-bd68cfffbbde","system_id":"levelo_inurba_marseille","lat":43.27072,"lon":5.42276,"is_reserved":false,"is_disabled":false,"rental_uris":{"android":"levelo://app?vid=09e6819b-a711-4281-9abf-bd68cfffbbde","ios":"levelo://app?vid=09e6819b-a711-4281-9abf-bd68cfffbbde"},"vehicle_type_id":"4","last_reported":1752077474,"current_range_meters":22000,"station_id":"ce4bhk92rcd13ifvqgb0","pricing_plan_id":"cebpf4jnsgd1na2vs0mg"},{"bike_id":"1a9d8f74-c95c-4746-9371-b2dad12e16af","system_id":"levelo_inurba_marseille","lat":43.27062,"lon":5.40247,"is_reserved":false,"is_disabled":false,"rental_uris":{"android":"levelo://app?vid=1a9d8f74-c95c-4746-9371-b2dad12e16af","ios":"levelo://app?vid=1a9d8f74-c95c-4746-9371-b2dad12e16af"},"vehicle_type_id":"4","last_reported":1752077474,"current_range_meters":22000,"station_id":"ce4bhk92rcd13ifvqgc0","pricing_plan_id":"cebpf4jnsgd1na2vs0mg"},{"bike_id":"9c0cbf80-bae5-4cce-8bd2-1e23e0adb712","system_id":"levelo_inurba_marseille","lat":43.28156,"lon":5.4264,"is_reserved":false,"is_disabled":false,"rental_uris":{"android":"levelo://app?vid=9c0cbf80-bae5-4cce-8bd2-1e23e0adb712","ios":"levelo://app?vid=9c0cbf80-bae5-4cce-8bd2-1e23e0adb712"},"vehicle_type_id":"4","last_reported":1752077474,"current_range_meters":22000,"station_id":"ce4bhnh2rcd13ifvqgug","pricing_plan_id":"cebpf4jnsgd1na2vs0mg"},{"bike_id":"8f89e4f3-495a-4317-bd6d-37a19186d65b","system_id":"levelo_inurba_marseille","lat":43.3374,"lon":5.39184,"is_reserved":false,"is_disabled":false,"rental_uris":{"android":"levelo://app?vid=8f89e4f3-495a-4317-bd6d-37a19186d65b","ios":"levelo://app?vid=8f89e4f3-495a-4317-bd6d-37a19186d65b"},"vehicle_type_id":"4","last_reported":1752077474,"current_range_meters":22000,"station_id":"ce4bhr92rcd13ifvqhsg","pricing_plan_id":"cebpf4jnsgd1na2vs0mg"},{"bike_id":"7405c651-a868-4f97-b0fd-445de387662c","system_id":"levelo_inurba_marseille","lat":43.21773,"lon":5.34609,"is_reserved":false,"is_disabled":false,"rental_uris":{"android":"levelo://app?vid=7405c651-a868-4f97-b0fd-445de387662c","ios":"levelo://app?vid=7405c651-a868-4f97-b0fd-445de387662c"},"vehicle_type_id":"4","last_reported":1752077474,"current_range_meters":22000,"station_id":"st_cvj6r9ubvosntc0bgbag","pricing_plan_id":"cebpf4jnsgd1na2vs0mg"},{"bike_id":"f64ea80f-2d40-46f6-af68-55052b037017","system_id":"levelo_inurba_marseille","lat":43.31932,"lon":5.3731,"is_reserved":false,"is_disabled":false,"rental_uris":{"android":"levelo://app?vid=f64ea80f-2d40-46f6-af68-55052b037017","ios":"levelo://app?vid=f64ea80f-2d40-46f6-af68-55052b037017"},"vehicle_type_id":"4","last_reported":1752077474,"current_range_meters":22400,"station_id":"","pricing_plan_id":"cebpf4jnsgd1na2vs0mg"},{"bike_id":"0d797aec-cb68-4012-9370-e291f0d35bf6","system_id":"levelo_inurba_marseille","lat":43.31498,"lon":5.37262,"is_reserved":false,"is_disabled":false,"rental_uris":{"android":"levelo://app?vid=0d797aec-cb68-4012-9370-e291f0d35bf6","ios":"levelo://app?vid=0d797aec-cb68-4012-9370-e291f0d35bf6"},"vehicle_type_id":"4","last_reported":1752077474,"current_range_meters":22400,"station_id":"ce4bgt12rcd13ifvqcd0","pricing_plan_id":"cebpf4jnsgd1na2vs0mg"},{"bike_id":"c2541d4a-e7c4-4c86-89f5-6db0f3dc3920","system_id":"levelo_inurba_marseille","lat":43.29428,"lon":5.39762,"is_reserved":false,"is_disabled":false,"rental_uris":{"android":"levelo://app?vid=c2541d4a-e7c4-4c86-89f5-6db0f3dc3920","ios":"levelo://app?vid=c2541d4a-e7c4-4c86-89f5-6db0f3dc3920"},"vehicle_type_id":"4","last_reported":1752077474,"current_range_meters":22400,"station_id":"ce4bh3h2rcd13ifvqdo0","pricing_plan_id":"cebpf4jnsgd1na2vs0mg"},{"bike_id":"e510ade2-3bf1-4e76-bfa8-7ebe6d4288a2","system_id":"levelo_inurba_marseille","lat":43.28418,"lon":5.34986,"is_reserved":false,"is_disabled":false,"rental_uris":{"android":"levelo://app?vid=e510ade2-3bf1-4e76-bfa8-7ebe6d4288a2","ios":"levelo://app?vid=e510ade2-3bf1-4e76-bfa8-7ebe6d4288a2"},"vehicle_type_id":"4","last_reported":1752077474,"current_range_meters":22400,"station_id":"ce4bhbh2rcd13ifvqepg","pricing_plan_id":"cebpf4jnsgd1na2vs0mg"},{"bike_id":"a37c81c5-d096-4e6d-b1b3-5bbb8251fbd0","system_id":"levelo_inurba_marseille","lat":43.2439,"lon":5.3705,"is_reserved":false,"is_disabled":false,"rental_uris":{"android":"levelo://app?vid=a37c81c5-d096-4e6d-b1b3-5bbb8251fbd0","ios":"levelo://app?vid=a37c81c5-d096-4e6d-b1b3-5bbb8251fbd0"},"vehicle_type_id":"4","last_reported":1752077474,"current_range_meters":22400,"station_id":"ce4bhhh2rcd13ifvqfk0","pricing_plan_id":"cebpf4jnsgd1na2vs0mg"},{"bike_id":"d6183b14-14ca-44c7-b355-9bc124d67e93","system_id":"levelo_inurba_marseille","lat":43.31496,"lon":5.3802,"is_reserved":false,"is_disabled":false,"rental_uris":{"android":"levelo://app?vid=d6183b14-14ca-44c7-b355-9bc124d67e93","ios":"levelo://app?vid=d6183b14-14ca-44c7-b355-9bc124d67e93"},"vehicle_type_id":"4","last_reported":1752077474,"current_range_meters":22400,"station_id":"ce4bhsp2rcd13ifvqi50","pricing_plan_id":"cebpf4jnsgd1na2vs0mg"},{"bike_id":"a5a6c2c1-2d48-4581-8647-6eab6c0bbb54","system_id":"levelo_inurba_marseille","lat":43.26899,"lon":5.36924,"is_reserved":false,"is_disabled":false,"rental_uris":{"android":"levelo://app?vid=a5a6c2c1-2d48-4581-8647-6eab6c0bbb54","ios":"levelo://app?vid=a5a6c2c1-2d48-4581-8647-6eab6c0bbb54"},"vehicle_type_id":"4","last_reported":1752077474,"current_range_meters":22800,"station_id":"","pricing_plan_id":"cebpf4jnsgd1na2vs0mg"},{"bike_id":"ecf3dbd8-ebd4-439f-a4b9-b62a07833bb5","system_id":"levelo_inurba_marseille","lat":43.26226,"lon":5.37445,"is_reserved":false,"is_disabled":false,"rental_uris":{"android":"levelo://app?vid=ecf3dbd8-ebd4-439f-a4b9-b62a07833bb5","ios":"levelo://app?vid=ecf3dbd8-ebd4-439f-a4b9-b62a07833bb5"},"vehicle_type_id":"4","last_reported":1752077474,"current_range_meters":22800,"station_id":"","pricing_plan_id":"cebpf4jnsgd1na2vs0mg"},{"bike_id":"532ecf29-9e48-4841-af8b-a05471e90d5c","system_id":"levelo_inurba_marseille","lat":43.303104,"lon":5.392215,"is_reserved":false,"is_disabled":false,"rental_uris":{"android":"levelo://app?vid=532ecf29-9e48-4841-af8b-a05471e90d5c","ios":"levelo://app?vid=532ecf29-9e48-4841-af8b-a05471e90d5c"},"vehicle_type_id":"4","last_reported":1752077474,"current_range_meters":22800,"station_id":"ce4bgkh2rcd13ifvqbk0","pricing_plan_id":"cebpf4jnsgd1na2vs0mg"},{"bike_id":"6a3704ac-19c4-46e3-8c3c-550faad28cd0","system_id":"levelo_inurba_marseille","lat":43.279892,"lon":5.400111,"is_reserved":false,"is_disabled":false,"rental_uris":{"android":"levelo://app?vid=6a3704ac-19c4-46e3-8c3c-550faad28cd0","ios":"levelo://app?vid=6a3704ac-19c4-46e3-8c3c-550faad28cd0"},"vehicle_type_id":"4","last_reported":1752077474,"current_range_meters":22800,"station_id":"ce4bho92rcd13ifvqh4g","pricing_plan_id":"cebpf4jnsgd1na2vs0mg"},{"bike_id":"d529ec2c-1e77-46ec-a7c4-fba360d0a391","system_id":"levelo_inurba_marseille","lat":43.298998,"lon":5.436635,"is_reserved":false,"is_disabled":false,"rental_uris":{"android":"levelo://app?vid=d529ec2c-1e77-46ec-a7c4-fba360d0a391","ios":"levelo://app?vid=d529ec2c-1e77-46ec-a7c4-fba360d0a391"},"vehicle_type_id":"4","last_reported":1752077474,"current_range_meters":22800,"station_id":"ce4bhpp2rcd13ifvqhfg","pricing_plan_id":"cebpf4jnsgd1na2vs0mg"},{"bike_id":"e3a75ee9-c614-467b-8cc2-f813bcef2ab1","system_id":"levelo_inurba_marseille","lat":43.33743,"lon":5.3919,"is_reserved":false,"is_disabled":false,"rental_uris":{"android":"levelo://app?vid=e3a75ee9-c614-467b-8cc2-f813bcef2ab1","ios":"levelo://app?vid=e3a75ee9-c614-467b-8cc2-f813bcef2ab1"},"vehicle_type_id":"4","last_reported":1752077474,"current_range_meters":22800,"station_id":"ce4bhr92rcd13ifvqhsg","pricing_plan_id":"cebpf4jnsgd1na2vs0mg"},{"bike_id":"ca82af78-77e6-4092-9d8e-80a6b4175624","system_id":"levelo_inurba_marseille","lat":43.29752,"lon":5.45998,"is_reserved":false,"is_disabled":false,"rental_uris":{"android":"levelo://app?vid=ca82af78-77e6-4092-9d8e-80a6b4175624","ios":"levelo://app?vid=ca82af78-77e6-4092-9d8e-80a6b4175624"},"vehicle_type_id":"4","last_reported":1752077474,"current_range_meters":23200,"station_id":"","pricing_plan_id":"cebpf4jnsgd1na2vs0mg"},{"bike_id":"2448778b-ee46-49fe-bbff-35d04fc373fb","system_id":"levelo_inurba_marseille","lat":43.24805,"lon":5.37447,"is_reserved":false,"is_disabled":false,"rental_uris":{"android":"levelo://app?vid=2448778b-ee46-49fe-bbff-35d04fc373fb","ios":"levelo://app?vid=2448778b-ee46-49fe-bbff-35d04fc373fb"},"vehicle_type_id":"4","last_reported":1752077474,"current_range_meters":23200,"station_id":"ce4bhgh2rcd13ifvqfb0","pricing_plan_id":"cebpf4jnsgd1na2vs0mg"},{"bike_id":"2a459f96-6b53-43f7-b70c-1135b0d88aea","system_id":"levelo_inurba_marseille","lat":43.23203,"lon":5.35555,"is_reserved":false,"is_disabled":false,"rental_uris":{"android":"levelo://app?vid=2a459f96-6b53-43f7-b70c-1135b0d88aea","ios":"levelo://app?vid=2a459f96-6b53-43f7-b70c-1135b0d88aea"},"vehicle_type_id":"4","last_reported":1752077474,"current_range_meters":23200,"station_id":"ce4bhu92rcd13ifvqi70","pricing_plan_id":"cebpf4jnsgd1na2vs0mg"},{"bike_id":"038cc9f7-3db3-4a14-a3dd-a9f6e9d54aa7","system_id":"levelo_inurba_marseille","lat":43.23067,"lon":5.35495,"is_reserved":false,"is_disabled":false,"rental_uris":{"android":"levelo://app?vid=038cc9f7-3db3-4a14-a3dd-a9f6e9d54aa7","ios":"levelo://app?vid=038cc9f7-3db3-4a14-a3dd-a9f6e9d54aa7"},"vehicle_type_id":"4","last_reported":1752077474,"current_range_meters":23200,"station_id":"cpo3342slgdg3j2ifvpg","pricing_plan_id":"cebpf4jnsgd1na2vs0mg"},{"bike_id":"4d8942c7-0e64-4b67-b6b6-d1a5c3d08cfb","system_id":"levelo_inurba_marseille","lat":43.22506,"lon":5.3479,"is_reserved":false,"is_disabled":false,"rental_uris":{"android":"levelo://app?vid=4d8942c7-0e64-4b67-b6b6-d1a5c3d08cfb","ios":"levelo://app?vid=4d8942c7-0e64-4b67-b6b6-d1a5c3d08cfb"},"vehicle_type_id":"4","last_reported":1752077474,"current_range_meters":23200,"station_id":"st_cvj5dfep6f1abm77gieg","pricing_plan_id":"cebpf4jnsgd1na2vs0mg"},{"bike_id":"1c14c87f-2787-4208-aebf-242bead7b64e","system_id":"levelo_inurba_marseille","lat":43.21758,"lon":5.346,"is_reserved":false,"is_disabled":false,"rental_uris":{"android":"levelo://app?vid=1c14c87f-2787-4208-aebf-242bead7b64e","ios":"levelo://app?vid=1c14c87f-2787-4208-aebf-242bead7b64e"},"vehicle_type_id":"4","last_reported":1752077474,"current_range_meters":23200,"station_id":"st_cvj6r9ubvosntc0bgbag","pricing_plan_id":"cebpf4jnsgd1na2vs0mg"},{"bike_id":"29a0a180-d29f-4a4e-a71b-d1d9d42cb217","system_id":"levelo_inurba_marseille","lat":43.21192,"lon":5.35064,"is_reserved":false,"is_disabled":false,"rental_uris":{"android":"levelo://app?vid=29a0a180-d29f-4a4e-a71b-d1d9d42cb217","ios":"levelo://app?vid=29a0a180-d29f-4a4e-a71b-d1d9d42cb217"},"vehicle_type_id":"4","last_reported":1752077474,"current_range_meters":23200,"station_id":"st_cvj6sg6p6f1abm77japg","pricing_plan_id":"cebpf4jnsgd1na2vs0mg"},{"bike_id":"67a45585-930f-4a51-b5c7-db1585564219","system_id":"levelo_inurba_marseille","lat":43.29686,"lon":5.36289,"is_reserved":false,"is_disabled":false,"rental_uris":{"android":"levelo://app?vid=67a45585-930f-4a51-b5c7-db1585564219","ios":"levelo://app?vid=67a45585-930f-4a51-b5c7-db1585564219"},"vehicle_type_id":"4","last_reported":1752077474,"current_range_meters":24000,"station_id":"","pricing_plan_id":"cebpf4jnsgd1na2vs0mg"},{"bike_id":"9d1a1862-d55d-482b-84dc-ae0b309b3ddf","system_id":"levelo_inurba_marseille","lat":43.2841,"lon":5.35,"is_reserved":false,"is_disabled":false,"rental_uris":{"android":"levelo://app?vid=9d1a1862-d55d-482b-84dc-ae0b309b3ddf","ios":"levelo://app?vid=9d1a1862-d55d-482b-84dc-ae0b309b3ddf"},"vehicle_type_id":"4","last_reported":1752077474,"current_range_meters":24000,"station_id":"ce4bhbh2rcd13ifvqepg","pricing_plan_id":"cebpf4jnsgd1na2vs0mg"},{"bike_id":"89b3a802-551e-46ae-bd42-9c8ca380d54d","system_id":"levelo_inurba_marseille","lat":43.28421,"lon":5.3499,"is_reserved":false,"is_disabled":false,"rental_uris":{"android":"levelo://app?vid=89b3a802-551e-46ae-bd42-9c8ca380d54d","ios":"levelo://app?vid=89b3a802-551e-46ae-bd42-9c8ca380d54d"},"vehicle_type_id":"4","last_reported":1752077474,"current_range_meters":24000,"station_id":"ce4bhbh2rcd13ifvqepg","pricing_plan_id":"cebpf4jnsgd1na2vs0mg"},{"bike_id":"3e017a38-9a20-4013-9bac-ee785f5060be","system_id":"levelo_inurba_marseille","lat":43.284204,"lon":5.349842,"is_reserved":false,"is_disabled":false,"rental_uris":{"android":"levelo://app?vid=3e017a38-9a20-4013-9bac-ee785f5060be","ios":"levelo://app?vid=3e017a38-9a20-4013-9bac-ee785f5060be"},"vehicle_type_id":"4","last_reported":1752077474,"current_range_meters":24000,"station_id":"ce4bhbh2rcd13ifvqepg","pricing_plan_id":"cebpf4jnsgd1na2vs0mg"},{"bike_id":"7074539f-ce39-4e75-b998-34b92226326d","system_id":"levelo_inurba_marseille","lat":43.26237,"lon":5.37444,"is_reserved":false,"is_disabled":false,"rental_uris":{"android":"levelo://app?vid=7074539f-ce39-4e75-b998-34b92226326d","ios":"levelo://app?vid=7074539f-ce39-4e75-b998-34b92226326d"},"vehicle_type_id":"4","last_reported":1752077474,"current_range_meters":24000,"station_id":"ce4bhgp2rcd13ifvqfc0","pricing_plan_id":"cebpf4jnsgd1na2vs0mg"},{"bike_id":"7dd4e999-9183-42ea-b8ed-fdae3fc61072","system_id":"levelo_inurba_marseille","lat":43.26209,"lon":5.37446,"is_reserved":false,"is_disabled":false,"rental_uris":{"android":"levelo://app?vid=7dd4e999-9183-42ea-b8ed-fdae3fc61072","ios":"levelo://app?vid=7dd4e999-9183-42ea-b8ed-fdae3fc61072"},"vehicle_type_id":"4","last_reported":1752077474,"current_range_meters":24000,"station_id":"ce4bhgp2rcd13ifvqfc0","pricing_plan_id":"cebpf4jnsgd1na2vs0mg"},{"bike_id":"f178f10a-d6dd-4a23-b600-03bc788b8eb3","system_id":"levelo_inurba_marseille","lat":43.21746,"lon":5.34607,"is_reserved":false,"is_disabled":false,"rental_uris":{"android":"levelo://app?vid=f178f10a-d6dd-4a23-b600-03bc788b8eb3","ios":"levelo://app?vid=f178f10a-d6dd-4a23-b600-03bc788b8eb3"},"vehicle_type_id":"4","last_reported":1752077474,"current_range_meters":24000,"station_id":"st_cvj6r9ubvosntc0bgbag","pricing_plan_id":"cebpf4jnsgd1na2vs0mg"},{"bike_id":"155d01e7-2de1-436e-9faa-bb8076018244","system_id":"levelo_inurba_marseille","lat":43.21194,"lon":5.35058,"is_reserved":false,"is_disabled":false,"rental_uris":{"android":"levelo://app?vid=155d01e7-2de1-436e-9faa-bb8076018244","ios":"levelo://app?vid=155d01e7-2de1-436e-9faa-bb8076018244"},"vehicle_type_id":"4","last_reported":1752077474,"current_range_meters":24000,"station_id":"st_cvj6sg6p6f1abm77japg","pricing_plan_id":"cebpf4jnsgd1na2vs0mg"},{"bike_id":"b41d2e33-6e35-4423-95ab-3d36354c5a9d","system_id":"levelo_inurba_marseille","lat":43.303169,"lon":5.390734,"is_reserved":false,"is_disabled":false,"rental_uris":{"android":"levelo://app?vid=b41d2e33-6e35-4423-95ab-3d36354c5a9d","ios":"levelo://app?vid=b41d2e33-6e35-4423-95ab-3d36354c5a9d"},