{"last_updated":1746914911,"ttl":60,"version":"2.2","data":{"bikes":[{"bike_id":"cb3441a9-eec5-41a9-a118-a92c2b6a61e9","system_id":"levelo_inurba_marseille","lat":43.305245,"lon":5.399151,"is_reserved":false,"is_disabled":false,"rental_uris":{"android":"levelo://app?vid=cb3441a9-eec5-41a9-a118-a92c2b6a61e9","ios":"levelo://app?vid=cb3441a9-eec5-41a9-a118-a92c2b6a61e9"},"vehicle_type_id":"4","last_reported":1746914911,"current_range_meters":2800,"station_id":"ce4bh112rcd13ifvqda0","pricing_plan_id":"cebpf4jnsgd1na2vs0mg"},{"bike_id":"325e4463-61a6-4c4b-af7f-86b24acd8c29","system_id":"levelo_inurba_marseille","lat":43.28348,"lon":5.38103,"is_reserved":false,"is_disabled":false,"rental_uris":{"android":"levelo://app?vid=325e4463-61a6-4c4b-af7f-86b24acd8c29","ios":"levelo://app?vid=325e4463-61a6-4c4b-af7f-86b24acd8c29"},"vehicle_type_id":"4","last_reported":1746914911,"current_range_meters":2800,"station_id":"ce4bh412rcd13ifvqdr0","pricing_plan_id":"cebpf4jnsgd1na2vs0mg"},{"bike_id":"0a3eb716-b49e-4c2e-9e24-f3c936f60596","system_id":"levelo_inurba_marseille","lat":43.26057,"lon":5.39404,"is_reserved":false,"is_disabled":false,"rental_uris":{"android":"levelo://app?vid=0a3eb716-b49e-4c2e-9e24-f3c936f60596","ios":"levelo://app?vid=0a3eb716-b49e-4c2e-9e24-f3c936f60596"},"vehicle_type_id":"4","last_reported":1746914911,"current_range_meters":3200,"station_id":"ce4bhh92rcd13ifvqfj0","pricing_plan_id":"cebpf4jnsgd1na2vs0mg"},{"bike_id":"af4abaca-80ed-4183-b98d-310e1f7c2a98","system_id":"levelo_inurba_marseille","lat":43.28456,"lon":5.35879,"is_reserved":false,"is_disabled":false,"rental_uris":{"android":"levelo://app?vid=af4abaca-80ed-4183-b98d-310e1f7c2a98","ios":"levelo://app?vid=af4abaca-80ed-4183-b98d-310e1f7c2a98"},"vehicle_type_id":"4","last_reported":1746914911,"current_range_meters":3200,"station_id":"ce4bhah2rcd13ifvqei0","pricing_plan_id":"cebpf4jnsgd1na2vs0mg"},{"bike_id":"cb412ac9-524d-450c-b726-f754a4e8340d","system_id":"levelo_inurba_marseille","lat":43.28463,"lon":5.35886,"is_reserved":false,"is_disabled":false,"rental_uris":{"android":"levelo://app?vid=cb412ac9-524d-450c-b726-f754a4e8340d","ios":"levelo://app?vid=cb412ac9-524d-450c-b726-f754a4e8340d"},"vehicle_type_id":"4","last_reported":1746914911,"current_range_meters":3200,"station_id":"ce4bhah2rcd13ifvqei0","pricing_plan_id":"cebpf4jnsgd1na2vs0mg"},{"bike_id":"caf9033d-5f00-49c3-b1ee-1328b62008dc","system_id":"levelo_inurba_marseille","lat":43.33578,"lon":5.42861,"is_reserved":false,"is_disabled":false,"rental_uris":{"android":"levelo://app?vid=caf9033d-5f00-49c3-b1ee-1328b62008dc","ios":"levelo://app?vid=caf9033d-5f00-49c3-b1ee-1328b62008dc"},"vehicle_type_id":"4","last_reported":1746914911,"current_range_meters":3200,"station_id":"","pricing_plan_id":"cebpf4jnsgd1na2vs0mg"},{"bike_id":"dff13517-dfc0-4d07-9e75-b1cf70b8b3f3","system_id":"levelo_inurba_marseille","lat":43.2466,"lon":5.38162,"is_reserved":false,"is_disabled":false,"rental_uris":{"android":"levelo://app?vid=dff13517-dfc0-4d07-9e75-b1cf70b8b3f3","ios":"levelo://app?vid=dff13517-dfc0-4d07-9e75-b1cf70b8b3f3"},"vehicle_type_id":"4","last_reported":1746914911,"current_range_meters":3600,"station_id":"ce4bhih2rcd13ifvqfr0","pricing_plan_id":"cebpf4jnsgd1na2vs0mg"},{"bike_id":"a52974aa-e3ee-4017-bef0-bcbd7ff9546e","system_id":"levelo_inurba_marseille","lat":43.27921,"lon":5.41147,"is_reserved":false,"is_disabled":false,"rental_uris":{"android":"levelo://app?vid=a52974aa-e3ee-4017-bef0-bcbd7ff9546e","ios":"levelo://app?vid=a52974aa-e3ee-4017-bef0-bcbd7ff9546e"},"vehicle_type_id":"4","last_reported":1746914911,"current_range_meters":3600,"station_id":"","pricing_plan_id":"cebpf4jnsgd1na2vs0mg"},{"bike_id":"7b862a3e-82bd-4770-bc9b-310b977245a0","system_id":"levelo_inurba_marseille","lat":43.28722,"lon":5.37937,"is_reserved":false,"is_disabled":false,"rental_uris":{"android":"levelo://app?vid=7b862a3e-82bd-4770-bc9b-310b977245a0","ios":"levelo://app?vid=7b862a3e-82bd-4770-bc9b-310b977245a0"},"vehicle_type_id":"4","last_reported":1746914911,"current_range_meters":3600,"station_id":"ce4bh9p2rcd13ifvqec0","pricing_plan_id":"cebpf4jnsgd1na2vs0mg"},{"bike_id":"48ec1488-e3cf-498d-b8bb-1089710a7e1a","system_id":"levelo_inurba_marseille","lat":43.27068,"lon":5.42279,"is_reserved":false,"is_disabled":false,"rental_uris":{"android":"levelo://app?vid=48ec1488-e3cf-498d-b8bb-1089710a7e1a","ios":"levelo://app?vid=48ec1488-e3cf-498d-b8bb-1089710a7e1a"},"vehicle_type_id":"4","last_reported":1746914911,"current_range_meters":4000,"station_id":"ce4bhk92rcd13ifvqgb0","pricing_plan_id":"cebpf4jnsgd1na2vs0mg"},{"bike_id":"3d112367-c7f0-4d89-b152-ab865872c375","system_id":"levelo_inurba_marseille","lat":43.25142,"lon":5.37571,"is_reserved":false,"is_disabled":false,"rental_uris":{"android":"levelo://app?vid=3d112367-c7f0-4d89-b152-ab865872c375","ios":"levelo://app?vid=3d112367-c7f0-4d89-b152-ab865872c375"},"vehicle_type_id":"4","last_reported":1746914911,"current_range_meters":4400,"station_id":"","pricing_plan_id":"cebpf4jnsgd1na2vs0mg"},{"bike_id":"b782172c-d8d1-4a9c-bc65-cdfa53888b07","system_id":"levelo_inurba_marseille","lat":43.30427,"lon":5.3889,"is_reserved":false,"is_disabled":false,"rental_uris":{"android":"levelo://app?vid=b782172c-d8d1-4a9c-bc65-cdfa53888b07","ios":"levelo://app?vid=b782172c-d8d1-4a9c-bc65-cdfa53888b07"},"vehicle_type_id":"4","last_reported":1746914911,"current_range_meters":4400,"station_id":"ce4bgk12rcd13ifvqbi0","pricing_plan_id":"cebpf4jnsgd1na2vs0mg"},{"bike_id":"f64d5ec9-3d21-4506-b35b-a6743a127e0f","system_id":"levelo_inurba_marseille","lat":43.29051,"lon":5.35903,"is_reserved":false,"is_disabled":false,"rental_uris":{"android":"levelo://app?vid=f64d5ec9-3d21-4506-b35b-a6743a127e0f","ios":"levelo://app?vid=f64d5ec9-3d21-4506-b35b-a6743a127e0f"},"vehicle_type_id":"4","last_reported":1746914911,"current_range_meters":4800,"station_id":"ce4bha92rcd13ifvqeg0","pricing_plan_id":"cebpf4jnsgd1na2vs0mg"},{"bike_id":"00ffc3b2-a5e1-4604-9194-448b49ebf978","system_id":"levelo_inurba_marseille","lat":43.24558,"lon":5.39518,"is_reserved":false,"is_disabled":false,"rental_uris":{"android":"levelo://app?vid=00ffc3b2-a5e1-4604-9194-448b49ebf978","ios":"levelo://app?vid=00ffc3b2-a5e1-4604-9194-448b49ebf978"},"vehicle_type_id":"4","last_reported":1746914911,"current_range_meters":4800,"station_id":"ce4bhlp2rcd13ifvqgjg","pricing_plan_id":"cebpf4jnsgd1na2vs0mg"},{"bike_id":"140f7d66-acdb-4de6-ac87-06726211d825","system_id":"levelo_inurba_marseille","lat":43.29252,"lon":5.40915,"is_reserved":false,"is_disabled":false,"rental_uris":{"android":"levelo://app?vid=140f7d66-acdb-4de6-ac87-06726211d825","ios":"levelo://app?vid=140f7d66-acdb-4de6-ac87-06726211d825"},"vehicle_type_id":"4","last_reported":1746914911,"current_range_meters":4800,"station_id":"","pricing_plan_id":"cebpf4jnsgd1na2vs0mg"},{"bike_id":"572f6b61-bb32-4e1b-935a-e3cea3d4e549","system_id":"levelo_inurba_marseille","lat":43.29968,"lon":5.38501,"is_reserved":false,"is_disabled":false,"rental_uris":{"android":"levelo://app?vid=572f6b61-bb32-4e1b-935a-e3cea3d4e549","ios":"levelo://app?vid=572f6b61-bb32-4e1b-935a-e3cea3d4e549"},"vehicle_type_id":"4","last_reported":1746914911,"current_range_meters":6000,"station_id":"ce4bgj92rcd13ifvqbd0","pricing_plan_id":"cebpf4jnsgd1na2vs0mg"},{"bike_id":"d69c80ad-b04f-4021-9556-16e53a21adda","system_id":"levelo_inurba_marseille","lat":43.29832,"lon":5.3624,"is_reserved":false,"is_disabled":false,"rental_uris":{"android":"levelo://app?vid=d69c80ad-b04f-4021-9556-16e53a21adda","ios":"levelo://app?vid=d69c80ad-b04f-4021-9556-16e53a21adda"},"vehicle_type_id":"4","last_reported":1746914911,"current_range_meters":6000,"station_id":"ce4bgpp2rcd13ifvqc3g","pricing_plan_id":"cebpf4jnsgd1na2vs0mg"},{"bike_id":"36bcd210-740f-4b54-8d7b-db81a1159295","system_id":"levelo_inurba_marseille","lat":43.28348,"lon":5.38102,"is_reserved":false,"is_disabled":false,"rental_uris":{"android":"levelo://app?vid=36bcd210-740f-4b54-8d7b-db81a1159295","ios":"levelo://app?vid=36bcd210-740f-4b54-8d7b-db81a1159295"},"vehicle_type_id":"4","last_reported":1746914911,"current_range_meters":6400,"station_id":"ce4bh412rcd13ifvqdr0","pricing_plan_id":"cebpf4jnsgd1na2vs0mg"},{"bike_id":"87bce1e0-12b9-4072-b223-d6a5dbb40b51","system_id":"levelo_inurba_marseille","lat":43.30741,"lon":5.42443,"is_reserved":false,"is_disabled":false,"rental_uris":{"android":"levelo://app?vid=87bce1e0-12b9-4072-b223-d6a5dbb40b51","ios":"levelo://app?vid=87bce1e0-12b9-4072-b223-d6a5dbb40b51"},"vehicle_type_id":"4","last_reported":1746914911,"current_range_meters":6400,"station_id":"st_cvj6ca6bvosntc0bfgr0","pricing_plan_id":"cebpf4jnsgd1na2vs0mg"},{"bike_id":"067c4ff5-88b8-4db7-8cfb-e7c430c93809","system_id":"levelo_inurba_marseille","lat":43.28034,"lon":5.3695,"is_reserved":false,"is_disabled":false,"rental_uris":{"android":"levelo://app?vid=067c4ff5-88b8-4db7-8cfb-e7c430c93809","ios":"levelo://app?vid=067c4ff5-88b8-4db7-8cfb-e7c430c93809"},"vehicle_type_id":"4","last_reported":1746914911,"current_range_meters":6400,"station_id":"ce4bha12rcd13ifvqef0","pricing_plan_id":"cebpf4jnsgd1na2vs0mg"},{"bike_id":"7561ca81-18ff-4062-bd0d-4e3e5b796d0e","system_id":"levelo_inurba_marseille","lat":43.27777,"lon":5.43507,"is_reserved":false,"is_disabled":false,"rental_uris":{"android":"levelo://app?vid=7561ca81-18ff-4062-bd0d-4e3e5b796d0e","ios":"levelo://app?vid=7561ca81-18ff-4062-bd0d-4e3e5b796d0e"},"vehicle_type_id":"4","last_reported":1746914911,"current_range_meters":6400,"station_id":"","pricing_plan_id":"cebpf4jnsgd1na2vs0mg"},{"bike_id":"8721b0b2-aa5e-47f2-98b6-4fd22cf926b9","system_id":"levelo_inurba_marseille","lat":43.23158,"lon":5.43717,"is_reserved":false,"is_disabled":false,"rental_uris":{"android":"levelo://app?vid=8721b0b2-aa5e-47f2-98b6-4fd22cf926b9","ios":"levelo://app?vid=8721b0b2-aa5e-47f2-98b6-4fd22cf926b9"},"vehicle_type_id":"4","last_reported":1746914911,"current_range_meters":6400,"station_id":"ce4bhmp2rcd13ifvqgog","pricing_plan_id":"cebpf4jnsgd1na2vs0mg"},{"bike_id":"93b3c579-248b-412d-b464-87f9fb70e513","system_id":"levelo_inurba_marseille","lat":43.2925,"lon":5.38306,"is_reserved":false,"is_disabled":false,"rental_uris":{"android":"levelo://app?vid=93b3c579-248b-412d-b464-87f9fb70e513","ios":"levelo://app?vid=93b3c579-248b-412d-b464-87f9fb70e513"},"vehicle_type_id":"4","last_reported":1746914911,"current_range_meters":6800,"station_id":"","pricing_plan_id":"cebpf4jnsgd1na2vs0mg"},{"bike_id":"ec46d12d-6c4e-4d88-9b04-68388e10e57d","system_id":"levelo_inurba_marseille","lat":43.2872,"lon":5.37934,"is_reserved":false,"is_disabled":false,"rental_uris":{"android":"levelo://app?vid=ec46d12d-6c4e-4d88-9b04-68388e10e57d","ios":"levelo://app?vid=ec46d12d-6c4e-4d88-9b04-68388e10e57d"},"vehicle_type_id":"4","last_reported":1746914911,"current_range_meters":6800,"station_id":"ce4bh9p2rcd13ifvqec0","pricing_plan_id":"cebpf4jnsgd1na2vs0mg"},{"bike_id":"e04fcbab-5dd7-4880-9bbd-cc0bc7ee94c7","system_id":"levelo_inurba_marseille","lat":43.29302,"lon":5.37461,"is_reserved":false,"is_disabled":false,"rental_uris":{"android":"levelo://app?vid=e04fcbab-5dd7-4880-9bbd-cc0bc7ee94c7","ios":"levelo://app?vid=e04fcbab-5dd7-4880-9bbd-cc0bc7ee94c7"},"vehicle_type_id":"4","last_reported":1746914911,"current_range_meters":6800,"station_id":"ce4bgi12rcd13ifvqb70","pricing_plan_id":"cebpf4jnsgd1na2vs0mg"},{"bike_id":"c80b743c-e2cb-4f9c-9c01-ffcd811b327a","system_id":"levelo_inurba_marseille","lat":43.294481,"lon":5.385745,"is_reserved":false,"is_disabled":false,"rental_uris":{"android":"levelo://app?vid=c80b743c-e2cb-4f9c-9c01-ffcd811b327a","ios":"levelo://app?vid=c80b743c-e2cb-4f9c-9c01-ffcd811b327a"},"vehicle_type_id":"4","last_reported":1746914911,"current_range_meters":6800,"station_id":"ce4bh0p2rcd13ifvqd80","pricing_plan_id":"cebpf4jnsgd1na2vs0mg"},{"bike_id":"5b4e9a9e-437f-42a7-b1c0-34640153bb0d","system_id":"levelo_inurba_marseille","lat":43.29258,"lon":5.40906,"is_reserved":false,"is_disabled":false,"rental_uris":{"android":"levelo://app?vid=5b4e9a9e-437f-42a7-b1c0-34640153bb0d","ios":"levelo://app?vid=5b4e9a9e-437f-42a7-b1c0-34640153bb0d"},"vehicle_type_id":"4","last_reported":1746914911,"current_range_meters":6800,"station_id":"ce4bh192rcd13ifvqdc0","pricing_plan_id":"cebpf4jnsgd1na2vs0mg"},{"bike_id":"20d62d3a-f9ce-444c-ad20-a24efcb0537e","system_id":"levelo_inurba_marseille","lat":43.31994,"lon":5.38139,"is_reserved":false,"is_disabled":true,"rental_uris":{"android":"levelo://app?vid=20d62d3a-f9ce-444c-ad20-a24efcb0537e","ios":"levelo://app?vid=20d62d3a-f9ce-444c-ad20-a24efcb0537e"},"vehicle_type_id":"4","last_reported":1746914911,"current_range_meters":6800,"station_id":"ce4bhr12rcd13ifvqhpg","pricing_plan_id":"cebpf4jnsgd1na2vs0mg"},{"bike_id":"515ea834-52ce-4010-a348-e717fc03fd77","system_id":"levelo_inurba_marseille","lat":43.29452,"lon":5.39782,"is_reserved":false,"is_disabled":false,"rental_uris":{"android":"levelo://app?vid=515ea834-52ce-4010-a348-e717fc03fd77","ios":"levelo://app?vid=515ea834-52ce-4010-a348-e717fc03fd77"},"vehicle_type_id":"4","last_reported":1746914911,"current_range_meters":7200,"station_id":"ce4bh3h2rcd13ifvqdo0","pricing_plan_id":"cebpf4jnsgd1na2vs0mg"},{"bike_id":"c9d8040d-92c1-425f-851b-37d264d46287","system_id":"levelo_inurba_marseille","lat":43.303326,"lon":5.404325,"is_reserved":false,"is_disabled":false,"rental_uris":{"android":"levelo://app?vid=c9d8040d-92c1-425f-851b-37d264d46287","ios":"levelo://app?vid=c9d8040d-92c1-425f-851b-37d264d46287"},"vehicle_type_id":"4","last_reported":1746914911,"current_range_meters":7200,"station_id":"ce4bh012rcd13ifvqd10","pricing_plan_id":"cebpf4jnsgd1na2vs0mg"},{"bike_id":"d26470ec-c77f-4723-bf3b-b85ee2ae9447","system_id":"levelo_inurba_marseille","lat":43.306076,"lon":5.372371,"is_reserved":false,"is_disabled":false,"rental_uris":{"android":"levelo://app?vid=d26470ec-c77f-4723-bf3b-b85ee2ae9447","ios":"levelo://app?vid=d26470ec-c77f-4723-bf3b-b85ee2ae9447"},"vehicle_type_id":"4","last_reported":1746914911,"current_range_meters":7200,"station_id":"","pricing_plan_id":"cebpf4jnsgd1na2vs0mg"},{"bike_id":"904c7fc2-540f-4043-a405-5f5658266117","system_id":"levelo_inurba_marseille","lat":43.27585,"lon":5.37805,"is_reserved":false,"is_disabled":false,"rental_uris":{"android":"levelo://app?vid=904c7fc2-540f-4043-a405-5f5658266117","ios":"levelo://app?vid=904c7fc2-540f-4043-a405-5f5658266117"},"vehicle_type_id":"4","last_reported":1746914911,"current_range_meters":7200,"station_id":"","pricing_plan_id":"cebpf4jnsgd1na2vs0mg"},{"bike_id":"1ed15134-1bd1-4ad5-81a8-bcf026d7ec96","system_id":"levelo_inurba_marseille","lat":43.2926,"lon":5.38435,"is_reserved":false,"is_disabled":false,"rental_uris":{"android":"levelo://app?vid=1ed15134-1bd1-4ad5-81a8-bcf026d7ec96","ios":"levelo://app?vid=1ed15134-1bd1-4ad5-81a8-bcf026d7ec96"},"vehicle_type_id":"4","last_reported":1746914911,"current_range_meters":7200,"station_id":"ce4bh692rcd13ifvqea0","pricing_plan_id":"cebpf4jnsgd1na2vs0mg"},{"bike_id":"b9c09fe7-ed6a-47f5-97c6-49fff241f014","system_id":"levelo_inurba_marseille","lat":43.287061,"lon":5.364215,"is_reserved":false,"is_disabled":false,"rental_uris":{"android":"levelo://app?vid=b9c09fe7-ed6a-47f5-97c6-49fff241f014","ios":"levelo://app?vid=b9c09fe7-ed6a-47f5-97c6-49fff241f014"},"vehicle_type_id":"4","last_reported":1746914911,"current_range_meters":7200,"station_id":"ce4bhah2rcd13ifvqei0","pricing_plan_id":"cebpf4jnsgd1na2vs0mg"},{"bike_id":"44b6822a-3f74-4531-bc1a-e9caf355563c","system_id":"levelo_inurba_marseille","lat":43.25482,"lon":5.37613,"is_reserved":false,"is_disabled":false,"rental_uris":{"android":"levelo://app?vid=44b6822a-3f74-4531-bc1a-e9caf355563c","ios":"levelo://app?vid=44b6822a-3f74-4531-bc1a-e9caf355563c"},"vehicle_type_id":"4","last_reported":1746914911,"current_range_meters":7200,"station_id":"ce4bhh12rcd13ifvqff0","pricing_plan_id":"cebpf4jnsgd1na2vs0mg"},{"bike_id":"4aebb133-f690-40f9-abb2-bf0d0fc2874a","system_id":"levelo_inurba_marseille","lat":43.29245,"lon":5.38448,"is_reserved":false,"is_disabled":false,"rental_uris":{"android":"levelo://app?vid=4aebb133-f690-40f9-abb2-bf0d0fc2874a","ios":"levelo://app?vid=4aebb133-f690-40f9-abb2-bf0d0fc2874a"},"vehicle_type_id":"4","last_reported":1746914911,"current_range_meters":8000,"station_id":"ce4bh692rcd13ifvqea0","pricing_plan_id":"cebpf4jnsgd1na2vs0mg"},{"bike_id":"6adb323e-a9c5-4d14-9ab5-2cd0333e3b0a","system_id":"levelo_inurba_marseille","lat":43.30434,"lon":5.38886,"is_reserved":false,"is_disabled":false,"rental_uris":{"android":"levelo://app?vid=6adb323e-a9c5-4d14-9ab5-2cd0333e3b0a","ios":"levelo://app?vid=6adb323e-a9c5-4d14-9ab5-2cd0333e3b0a"},"vehicle_type_id":"4","last_reported":1746914911,"current_range_meters":8000,"station_id":"ce4bgk12rcd13ifvqbi0","pricing_plan_id":"cebpf4jnsgd1na2vs0mg"},{"bike_id":"21dec20f-b12c-44c9-a877-72848dc3842d","system_id":"levelo_inurba_marseille","lat":43.29628,"lon":5.40599,"is_reserved":false,"is_disabled":false,"rental_uris":{"android":"levelo://app?vid=21dec20f-b12c-44c9-a877-72848dc3842d","ios":"levelo://app?vid=21dec20f-b12c-44c9-a877-72848dc3842d"},"vehicle_type_id":"4","last_reported":1746914911,"current_range_meters":7200,"station_id":"ce4bh0h2rcd13ifvqd60","pricing_plan_id":"cebpf4jnsgd1na2vs0mg"},{"bike_id":"195d4b83-6810-42f7-b0c9-2c0cf6e3b028","system_id":"levelo_inurba_marseille","lat":43.29264,"lon":5.40196,"is_reserved":false,"is_disabled":false,"rental_uris":{"android":"levelo://app?vid=195d4b83-6810-42f7-b0c9-2c0cf6e3b028","ios":"levelo://app?vid=195d4b83-6810-42f7-b0c9-2c0cf6e3b028"},"vehicle_type_id":"4","last_reported":1746914911,"current_range_meters":8000,"station_id":"","pricing_plan_id":"cebpf4jnsgd1na2vs0mg"},{"bike_id":"c13f6770-edfc-46b5-bb2d-9740a2cce6d4","system_id":"levelo_inurba_marseille","lat":43.2553,"lon":5.37651,"is_reserved":false,"is_disabled":true,"rental_uris":{"android":"levelo://app?vid=c13f6770-edfc-46b5-bb2d-9740a2cce6d4","ios":"levelo://app?vid=c13f6770-edfc-46b5-bb2d-9740a2cce6d4"},"vehicle_type_id":"4","last_reported":1746914911,"current_range_meters":8000,"station_id":"ce4bhh12rcd13ifvqff0","pricing_plan_id":"cebpf4jnsgd1na2vs0mg"},{"bike_id":"f37fd579-ee4e-46a5-9128-3c50468ec629","system_id":"levelo_inurba_marseille","lat":43.265503,"lon":5.372867,"is_reserved":false,"is_disabled":true,"rental_uris":{"android":"levelo://app?vid=f37fd579-ee4e-46a5-9128-3c50468ec629","ios":"levelo://app?vid=f37fd579-ee4e-46a5-9128-3c50468ec629"},"vehicle_type_id":"4","last_reported":1746914911,"current_range_meters":8400,"station_id":"ce4bhg12rcd13ifvqf70","pricing_plan_id":"cebpf4jnsgd1na2vs0mg"},{"bike_id":"7d133824-1f9a-4c15-a32e-419ca57eeea8","system_id":"levelo_inurba_marseille","lat":43.29641,"lon":5.36742,"is_reserved":false,"is_disabled":true,"rental_uris":{"android":"levelo://app?vid=7d133824-1f9a-4c15-a32e-419ca57eeea8","ios":"levelo://app?vid=7d133824-1f9a-4c15-a32e-419ca57eeea8"},"vehicle_type_id":"4","last_reported":1746914911,"current_range_meters":8400,"station_id":"","pricing_plan_id":"cebpf4jnsgd1na2vs0mg"},{"bike_id":"0fb9037b-c812-4109-bfee-79b41be9af10","system_id":"levelo_inurba_marseille","lat":43.24079,"lon":5.37751,"is_reserved":false,"is_disabled":false,"rental_uris":{"android":"levelo://app?vid=0fb9037b-c812-4109-bfee-79b41be9af10","ios":"levelo://app?vid=0fb9037b-c812-4109-bfee-79b41be9af10"},"vehicle_type_id":"4","last_reported":1746914911,"current_range_meters":8400,"station_id":"ce4bhnp2rcd13ifvqgvg","pricing_plan_id":"cebpf4jnsgd1na2vs0mg"},{"bike_id":"7d170a97-e44d-4d61-9ebe-9425a1b031d2","system_id":"levelo_inurba_marseille","lat":43.29934,"lon":5.37475,"is_reserved":false,"is_disabled":false,"rental_uris":{"android":"levelo://app?vid=7d170a97-e44d-4d61-9ebe-9425a1b031d2","ios":"levelo://app?vid=7d170a97-e44d-4d61-9ebe-9425a1b031d2"},"vehicle_type_id":"4","last_reported":1746914911,"current_range_meters":8400,"station_id":"ce4bgjh2rcd13ifvqbg0","pricing_plan_id":"cebpf4jnsgd1na2vs0mg"},{"bike_id":"e6070e7a-9ce9-4093-b91b-ee4e1a856a5e","system_id":"levelo_inurba_marseille","lat":43.30226,"lon":5.39468,"is_reserved":false,"is_disabled":false,"rental_uris":{"android":"levelo://app?vid=e6070e7a-9ce9-4093-b91b-ee4e1a856a5e","ios":"levelo://app?vid=e6070e7a-9ce9-4093-b91b-ee4e1a856a5e"},"vehicle_type_id":"4","last_reported":1746914911,"current_range_meters":8400,"station_id":"ce4bh0p2rcd13ifvqd70","pricing_plan_id":"cebpf4jnsgd1na2vs0mg"},{"bike_id":"b215f848-7b9d-4a41-b91f-77a59ec6ec33","system_id":"levelo_inurba_marseille","lat":43.31155,"lon":5.38721,"is_reserved":false,"is_disabled":false,"rental_uris":{"android":"levelo://app?vid=b215f848-7b9d-4a41-b91f-77a59ec6ec33","ios":"levelo://app?vid=b215f848-7b9d-4a41-b91f-77a59ec6ec33"},"vehicle_type_id":"4","last_reported":1746914911,"current_range_meters":8400,"station_id":"ce4bgv12rcd13ifvqcp0","pricing_plan_id":"cebpf4jnsgd1na2vs0mg"},{"bike_id":"af7b116c-7e91-49c0-a1d2-fdae80f6b25b","system_id":"levelo_inurba_marseille","lat":43.33605,"lon":5.41035,"is_reserved":false,"is_disabled":false,"rental_uris":{"android":"levelo://app?vid=af7b116c-7e91-49c0-a1d2-fdae80f6b25b","ios":"levelo://app?vid=af7b116c-7e91-49c0-a1d2-fdae80f6b25b"},"vehicle_type_id":"4","last_reported":1746914911,"current_range_meters":8400,"station_id":"ce4bhqh2rcd13ifvqhmg","pricing_plan_id":"cebpf4jnsgd1na2vs0mg"},{"bike_id":"f30700cd-2b15-4379-bae3-a617af060209","system_id":"levelo_inurba_marseille","lat":43.21759,"lon":5.34601,"is_reserved":false,"is_disabled":true,"rental_uris":{"android":"levelo://app?vid=f30700cd-2b15-4379-bae3-a617af060209","ios":"levelo://app?vid=f30700cd-2b15-4379-bae3-a617af060209"},"vehicle_type_id":"4","last_reported":1746914911,"current_range_meters":8400,"station_id":"st_cvj6r9ubvosntc0bgbag","pricing_plan_id":"cebpf4jnsgd1na2vs0mg"},{"bike_id":"c8871d60-de65-4dc9-8457-ca42730446e7","system_id":"levelo_inurba_marseille","lat":43.317497,"lon":5.387753,"is_reserved":false,"is_disabled":false,"rental_uris":{"android":"levelo://app?vid=c8871d60-de65-4dc9-8457-ca42730446e7","ios":"levelo://app?vid=c8871d60-de65-4dc9-8457-ca42730446e7"},"vehicle_type_id":"4","last_reported":1746914911,"current_range_meters":8400,"station_id":"","pricing_plan_id":"cebpf4jnsgd1na2vs0mg"},{"bike_id":"a932ed97-0b82-4dff-a694-20216c52fd19","system_id":"levelo_inurba_marseille","lat":43.29926,"lon":5.37465,"is_reserved":false,"is_disabled":false,"rental_uris":{"android":"levelo://app?vid=a932ed97-0b82-4dff-a694-20216c52fd19","ios":"levelo://app?vid=a932ed97-0b82-4dff-a694-20216c52fd19"},"vehicle_type_id":"4","last_reported":1746914911,"current_range_meters":8800,"station_id":"ce4bgjh2rcd13ifvqbg0","pricing_plan_id":"cebpf4jnsgd1na2vs0mg"},{"bike_id":"05ecc193-9e21-4abd-8561-07ea6c151287","system_id":"levelo_inurba_marseille","lat":43.30155,"lon":5.39449,"is_reserved":false,"is_disabled":false,"rental_uris":{"android":"levelo://app?vid=05ecc193-9e21-4abd-8561-07ea6c151287","ios":"levelo://app?vid=05ecc193-9e21-4abd-8561-07ea6c151287"},"vehicle_type_id":"4","last_reported":1746914911,"current_range_meters":8800,"station_id":"ce4bh0p2rcd13ifvqd70","pricing_plan_id":"cebpf4jnsgd1na2vs0mg"},{"bike_id":"aedac110-9a80-4055-b3bc-6fbbff4ed0bc","system_id":"levelo_inurba_marseille","lat":43.31776,"lon":5.37236,"is_reserved":false,"is_disabled":false,"rental_uris":{"android":"levelo://app?vid=aedac110-9a80-4055-b3bc-6fbbff4ed0bc","ios":"levelo://app?vid=aedac110-9a80-4055-b3bc-6fbbff4ed0bc"},"vehicle_type_id":"4","last_reported":1746914911,"current_range_meters":8800,"station_id":"","pricing_plan_id":"cebpf4jnsgd1na2vs0mg"},{"bike_id":"4baffd64-cdc4-4bd3-997f-9fd23552f679","system_id":"levelo_inurba_marseille","lat":43.29706,"lon":5.36611,"is_reserved":false,"is_disabled":false,"rental_uris":{"android":"levelo://app?vid=4baffd64-cdc4-4bd3-997f-9fd23552f679","ios":"levelo://app?vid=4baffd64-cdc4-4bd3-997f-9fd23552f679"},"vehicle_type_id":"4","last_reported":1746914911,"current_range_meters":8800,"station_id":"ce4bgn12rcd13ifvqbt0","pricing_plan_id":"cebpf4jnsgd1na2vs0mg"},{"bike_id":"814c300d-d261-4866-b022-44e7c5159380","system_id":"levelo_inurba_marseille","lat":43.24165,"lon":5.36409,"is_reserved":false,"is_disabled":true,"rental_uris":{"android":"levelo://app?vid=814c300d-d261-4866-b022-44e7c5159380","ios":"levelo://app?vid=814c300d-d261-4866-b022-44e7c5159380"},"vehicle_type_id":"4","last_reported":1746914911,"current_range_meters":8800,"station_id":"cpo36qri1sfpv3e86is0","pricing_plan_id":"cebpf4jnsgd1na2vs0mg"},{"bike_id":"091b2495-8506-43b4-b374-57e577b837c4","system_id":"levelo_inurba_marseille","lat":43.25119,"lon":5.40326,"is_reserved":false,"is_disabled":false,"rental_uris":{"android":"levelo://app?vid=091b2495-8506-43b4-b374-57e577b837c4","ios":"levelo://app?vid=091b2495-8506-43b4-b374-57e577b837c4"},"vehicle_type_id":"4","last_reported":1746914911,"current_range_meters":8800,"station_id":"ce4bhlh2rcd13ifvqgig","pricing_plan_id":"cebpf4jnsgd1na2vs0mg"},{"bike_id":"125c856f-a649-40f5-a039-594d1ffc4bd6","system_id":"levelo_inurba_marseille","lat":43.26938,"lon":5.3891,"is_reserved":false,"is_disabled":false,"rental_uris":{"android":"levelo://app?vid=125c856f-a649-40f5-a039-594d1ffc4bd6","ios":"levelo://app?vid=125c856f-a649-40f5-a039-594d1ffc4bd6"},"vehicle_type_id":"4","last_reported":1746914911,"current_range_meters":8400,"station_id":"ce4bhhh2rcd13ifvqfl0","pricing_plan_id":"cebpf4jnsgd1na2vs0mg"},{"bike_id":"86b478b2-1cf2-4e07-8a5c-76710e912a41","system_id":"levelo_inurba_marseille","lat":43.291274,"lon":5.366891,"is_reserved":false,"is_disabled":false,"rental_uris":{"android":"levelo://app?vid=86b478b2-1cf2-4e07-8a5c-76710e912a41","ios":"levelo://app?vid=86b478b2-1cf2-4e07-8a5c-76710e912a41"},"vehicle_type_id":"4","last_reported":1746914911,"current_range_meters":8800,"station_id":"","pricing_plan_id":"cebpf4jnsgd1na2vs0mg"},{"bike_id":"44e88eeb-5d69-44d1-ad07-bcaf5276d14e","system_id":"levelo_inurba_marseille","lat":43.26228,"lon":5.40453,"is_reserved":false,"is_disabled":false,"rental_uris":{"android":"levelo://app?vid=44e88eeb-5d69-44d1-ad07-bcaf5276d14e","ios":"levelo://app?vid=44e88eeb-5d69-44d1-ad07-bcaf5276d14e"},"vehicle_type_id":"4","last_reported":1746914911,"current_range_meters":8800,"station_id":"ce4bhmh2rcd13ifvqgmg","pricing_plan_id":"cebpf4jnsgd1na2vs0mg"},{"bike_id":"99fb9985-2088-4a48-ae83-62aca3ba1639","system_id":"levelo_inurba_marseille","lat":43.314835,"lon":5.372755,"is_reserved":false,"is_disabled":true,"rental_uris":{"android":"levelo://app?vid=99fb9985-2088-4a48-ae83-62aca3ba1639","ios":"levelo://app?vid=99fb9985-2088-4a48-ae83-62aca3ba1639"},"vehicle_type_id":"4","last_reported":1746914911,"current_range_meters":8800,"station_id":"ce4bgt12rcd13ifvqcd0","pricing_plan_id":"cebpf4jnsgd1na2vs0mg"},{"bike_id":"10ee2d0e-ca01-4e83-bbdf-6c08178a202f","system_id":"levelo_inurba_marseille","lat":43.28608,"lon":5.41288,"is_reserved":false,"is_disabled":false,"rental_uris":{"android":"levelo://app?vid=10ee2d0e-ca01-4e83-bbdf-6c08178a202f","ios":"levelo://app?vid=10ee2d0e-ca01-4e83-bbdf-6c08178a202f"},"vehicle_type_id":"4","last_reported":1746914911,"current_range_meters":9200,"station_id":"","pricing_plan_id":"cebpf4jnsgd1na2vs0mg"},{"bike_id":"930ea334-03db-4a4b-bbad-3260d0628f88","system_id":"levelo_inurba_marseille","lat":43.31376,"lon":5.38526,"is_reserved":false,"is_disabled":false,"rental_uris":{"android":"levelo://app?vid=930ea334-03db-4a4b-bbad-3260d0628f88","ios":"levelo://app?vid=930ea334-03db-4a4b-bbad-3260d0628f88"},"vehicle_type_id":"4","last_reported":1746914911,"current_range_meters":9200,"station_id":"ce4bgt92rcd13ifvqcf0","pricing_plan_id":"cebpf4jnsgd1na2vs0mg"},{"bike_id":"cdf2c42d-2387-455c-b3aa-2e8698fb7237","system_id":"levelo_inurba_marseille","lat":43.31479,"lon":5.37309,"is_reserved":false,"is_disabled":false,"rental_uris":{"android":"levelo://app?vid=cdf2c42d-2387-455c-b3aa-2e8698fb7237","ios":"levelo://app?vid=cdf2c42d-2387-455c-b3aa-2e8698fb7237"},"vehicle_type_id":"4","last_reported":1746914911,"current_range_meters":9600,"station_id":"ce4bgt12rcd13ifvqcd0","pricing_plan_id":"cebpf4jnsgd1na2vs0mg"},{"bike_id":"9bb1b42a-14c8-450d-ad22-01dfddfdd30e","system_id":"levelo_inurba_marseille","lat":43.29039,"lon":5.37569,"is_reserved":false,"is_disabled":false,"rental_uris":{"android":"levelo://app?vid=9bb1b42a-14c8-450d-ad22-01dfddfdd30e","ios":"levelo://app?vid=9bb1b42a-14c8-450d-ad22-01dfddfdd30e"},"vehicle_type_id":"4","last_reported":1746914911,"current_range_meters":9600,"station_id":"ce4bh692rcd13ifvqe90","pricing_plan_id":"cebpf4jnsgd1na2vs0mg"},{"bike_id":"849bca3a-1c29-405d-807b-f4ebb31a1f2a","system_id":"levelo_inurba_marseille","lat":43.30274,"lon":5.38113,"is_reserved":false,"is_disabled":false,"rental_uris":{"android":"levelo://app?vid=849bca3a-1c29-405d-807b-f4ebb31a1f2a","ios":"levelo://app?vid=849bca3a-1c29-405d-807b-f4ebb31a1f2a"},"vehicle_type_id":"4","last_reported":1746914911,"current_range_meters":9600,"station_id":"","pricing_plan_id":"cebpf4jnsgd1na2vs0mg"},{"bike_id":"351ef218-24e5-4670-825d-fc1ac5cd3c19","system_id":"levelo_inurba_marseille","lat":43.31811,"lon":5.36818,"is_reserved":false,"is_disabled":false,"rental_uris":{"android":"levelo://app?vid=351ef218-24e5-4670-825d-fc1ac5cd3c19","ios":"levelo://app?vid=351ef218-24e5-4670-825d-fc1ac5cd3c19"},"vehicle_type_id":"4","last_reported":1746914911,"current_range_meters":9600,"station_id":"","pricing_plan_id":"cebpf4jnsgd1na2vs0mg"},{"bike_id":"a2514267-4fd8-409f-be6c-38268e63cec1","system_id":"levelo_inurba_marseille","lat":43.28359,"lon":5.38101,"is_reserved":false,"is_disabled":true,"rental_uris":{"android":"levelo://app?vid=a2514267-4fd8-409f-be6c-38268e63cec1","ios":"levelo://app?vid=a2514267-4fd8-409f-be6c-38268e63cec1"},"vehicle_type_id":"4","last_reported":1746914911,"current_range_meters":9600,"station_id":"ce4bh412rcd13ifvqdr0","pricing_plan_id":"cebpf4jnsgd1na2vs0mg"},{"bike_id":"cbb84f45-3fb7-43f0-b1b9-596ef6971fc2","system_id":"levelo_inurba_marseille","lat":43.31364,"lon":5.38497,"is_reserved":false,"is_disabled":false,"rental_uris":{"android":"levelo://app?vid=cbb84f45-3fb7-43f0-b1b9-596ef6971fc2","ios":"levelo://app?vid=cbb84f45-3fb7-43f0-b1b9-596ef6971fc2"},"vehicle_type_id":"4","last_reported":1746914911,"current_range_meters":9600,"station_id":"ce4bgt92rcd13ifvqcf0","pricing_plan_id":"cebpf4jnsgd1na2vs0mg"},{"bike_id":"c0bc0ea6-4473-4e07-9f41-bf52820844f7","system_id":"levelo_inurba_marseille","lat":43.25114,"lon":5.4033,"is_reserved":false,"is_disabled":false,"rental_uris":{"android":"levelo://app?vid=c0bc0ea6-4473-4e07-9f41-bf52820844f7","ios":"levelo://app?vid=c0bc0ea6-4473-4e07-9f41-bf52820844f7"},"vehicle_type_id":"4","last_reported":1746914911,"current_range_meters":9600,"station_id":"ce4bhlh2rcd13ifvqgig","pricing_plan_id":"cebpf4jnsgd1na2vs0mg"},{"bike_id":"e551c910-f279-4345-983b-35636ebdf060","system_id":"levelo_inurba_marseille","lat":43.29076,"lon":5.38163,"is_reserved":false,"is_disabled":false,"rental_uris":{"android":"levelo://app?vid=e551c910-f279-4345-983b-35636ebdf060","ios":"levelo://app?vid=e551c910-f279-4345-983b-35636ebdf060"},"vehicle_type_id":"4","last_reported":1746914911,"current_range_meters":10000,"station_id":"ce4bh512rcd13ifvqe2g","pricing_plan_id":"cebpf4jnsgd1na2vs0mg"},{"bike_id":"eef07d64-116f-4531-8507-13c94ea02041","system_id":"levelo_inurba_marseille","lat":43.30317,"lon":5.4043,"is_reserved":false,"is_disabled":false,"rental_uris":{"android":"levelo://app?vid=eef07d64-116f-4531-8507-13c94ea02041","ios":"levelo://app?vid=eef07d64-116f-4531-8507-13c94ea02041"},"vehicle_type_id":"4","last_reported":1746914911,"current_range_meters":10000,"station_id":"ce4bh012rcd13ifvqd10","pricing_plan_id":"cebpf4jnsgd1na2vs0mg"},{"bike_id":"a7e8b2b2-1022-4017-86ef-4f2a514f9658","system_id":"levelo_inurba_marseille","lat":43.29245,"lon":5.38447,"is_reserved":false,"is_disabled":false,"rental_uris":{"android":"levelo://app?vid=a7e8b2b2-1022-4017-86ef-4f2a514f9658","ios":"levelo://app?vid=a7e8b2b2-1022-4017-86ef-4f2a514f9658"},"vehicle_type_id":"4","last_reported":1746914911,"current_range_meters":10000,"station_id":"ce4bh692rcd13ifvqea0","pricing_plan_id":"cebpf4jnsgd1na2vs0mg"},{"bike_id":"90a4d605-c843-4437-8062-ea389c47c467","system_id":"levelo_inurba_marseille","lat":43.30421,"lon":5.39762,"is_reserved":false,"is_disabled":false,"rental_uris":{"android":"levelo://app?vid=90a4d605-c843-4437-8062-ea389c47c467","ios":"levelo://app?vid=90a4d605-c843-4437-8062-ea389c47c467"},"vehicle_type_id":"4","last_reported":1746914911,"current_range_meters":10000,"station_id":"ce4bh092rcd13ifvqd20","pricing_plan_id":"cebpf4jnsgd1na2vs0mg"},{"bike_id":"b37c9b29-d150-4c65-b008-0e06b2cb610c","system_id":"levelo_inurba_marseille","lat":43.29623,"lon":5.37733,"is_reserved":false,"is_disabled":false,"rental_uris":{"android":"levelo://app?vid=b37c9b29-d150-4c65-b008-0e06b2cb610c","ios":"levelo://app?vid=b37c9b29-d150-4c65-b008-0e06b2cb610c"},"vehicle_type_id":"4","last_reported":1746914911,"current_range_meters":10000,"station_id":"ce4bgi92rcd13ifvqb90","pricing_plan_id":"cebpf4jnsgd1na2vs0mg"},{"bike_id":"76eb38bb-f6fa-4460-ae23-f70420b766e9","system_id":"levelo_inurba_marseille","lat":43.25129,"lon":5.40307,"is_reserved":false,"is_disabled":false,"rental_uris":{"android":"levelo://app?vid=76eb38bb-f6fa-4460-ae23-f70420b766e9","ios":"levelo://app?vid=76eb38bb-f6fa-4460-ae23-f70420b766e9"},"vehicle_type_id":"4","last_reported":1746914911,"current_range_meters":10800,"station_id":"ce4bhlh2rcd13ifvqgig","pricing_plan_id":"cebpf4jnsgd1na2vs0mg"},{"bike_id":"1c3ebdb9-928f-4fa1-b586-e9e16644a202","system_id":"levelo_inurba_marseille","lat":43.3024,"lon":5.40059,"is_reserved":false,"is_disabled":false,"rental_uris":{"android":"levelo://app?vid=1c3ebdb9-928f-4fa1-b586-e9e16644a202","ios":"levelo://app?vid=1c3ebdb9-928f-4fa1-b586-e9e16644a202"},"vehicle_type_id":"4","last_reported":1746914911,"current_range_meters":10800,"station_id":"ce4bgvh2rcd13ifvqcs0","pricing_plan_id":"cebpf4jnsgd1na2vs0mg"},{"bike_id":"d0958304-33d1-4b4f-81f9-03078b9d6ea8","system_id":"levelo_inurba_marseille","lat":43.28037,"lon":5.36943,"is_reserved":false,"is_disabled":false,"rental_uris":{"android":"levelo://app?vid=d0958304-33d1-4b4f-81f9-03078b9d6ea8","ios":"levelo://app?vid=d0958304-33d1-4b4f-81f9-03078b9d6ea8"},"vehicle_type_id":"4","last_reported":1746914911,"current_range_meters":10800,"station_id":"ce4bha12rcd13ifvqef0","pricing_plan_id":"cebpf4jnsgd1na2vs0mg"},{"bike_id":"7174a69c-03be-499c-81df-46cc79fa3fc1","system_id":"levelo_inurba_marseille","lat":43.299,"lon":5.43674,"is_reserved":false,"is_disabled":false,"rental_uris":{"android":"levelo://app?vid=7174a69c-03be-499c-81df-46cc79fa3fc1","ios":"levelo://app?vid=7174a69c-03be-499c-81df-46cc79fa3fc1"},"vehicle_type_id":"4","last_reported":1746914911,"current_range_meters":10800,"station_id":"ce4bhpp2rcd13ifvqhfg","pricing_plan_id":"cebpf4jnsgd1na2vs0mg"},{"bike_id":"7aef1d6b-1fee-431e-a7e7-5eee8820a6c8","system_id":"levelo_inurba_marseille","lat":43.30239,"lon":5.4006,"is_reserved":false,"is_disabled":false,"rental_uris":{"android":"levelo://app?vid=7aef1d6b-1fee-431e-a7e7-5eee8820a6c8","ios":"levelo://app?vid=7aef1d6b-1fee-431e-a7e7-5eee8820a6c8"},"vehicle_type_id":"4","last_reported":1746914911,"current_range_meters":11200,"station_id":"ce4bgvh2rcd13ifvqcs0","pricing_plan_id":"cebpf4jnsgd1na2vs0mg"},{"bike_id":"7b0d4e41-ae4e-4c3d-8709-ddefc68e0cee","system_id":"levelo_inurba_marseille","lat":43.29267,"lon":5.38439,"is_reserved":false,"is_disabled":false,"rental_uris":{"android":"levelo://app?vid=7b0d4e41-ae4e-4c3d-8709-ddefc68e0cee","ios":"levelo://app?vid=7b0d4e41-ae4e-4c3d-8709-ddefc68e0cee"},"vehicle_type_id":"4","last_reported":1746914911,"current_range_meters":10800,"station_id":"ce4bh692rcd13ifvqea0","pricing_plan_id":"cebpf4jnsgd1na2vs0mg"},{"bike_id":"7da56c48-6fd3-4a21-9e4c-216dc14c18ee","system_id":"levelo_inurba_marseille","lat":43.28458,"lon":5.35879,"is_reserved":false,"is_disabled":false,"rental_uris":{"android":"levelo://app?vid=7da56c48-6fd3-4a21-9e4c-216dc14c18ee","ios":"levelo://app?vid=7da56c48-6fd3-4a21-9e4c-216dc14c18ee"},"vehicle_type_id":"4","last_reported":1746914911,"current_range_meters":10800,"station_id":"ce4bhah2rcd13ifvqei0","pricing_plan_id":"cebpf4jnsgd1na2vs0mg"},{"bike_id":"67a378e1-7e89-41ff-a0bc-e22ce5b10084","system_id":"levelo_inurba_marseille","lat":43.31374,"lon":5.384866,"is_reserved":false,"is_disabled":false,"rental_uris":{"android":"levelo://app?vid=67a378e1-7e89-41ff-a0bc-e22ce5b10084","ios":"levelo://app?vid=67a378e1-7e89-41ff-a0bc-e22ce5b10084"},"vehicle_type_id":"4","last_reported":1746914911,"current_range_meters":10800,"station_id":"ce4bgt92rcd13ifvqcf0","pricing_plan_id":"cebpf4jnsgd1na2vs0mg"},{"bike_id":"04c1226f-faa4-4a45-b805-4b9bcac57fa8","system_id":"levelo_inurba_marseille","lat":43.29268,"lon":5.39112,"is_reserved":false,"is_disabled":false,"rental_uris":{"android":"levelo://app?vid=04c1226f-faa4-4a45-b805-4b9bcac57fa8","ios":"levelo://app?vid=04c1226f-faa4-4a45-b805-4b9bcac57fa8"},"vehicle_type_id":"4","last_reported":1746914911,"current_range_meters":10800,"station_id":"","pricing_plan_id":"cebpf4jnsgd1na2vs0mg"},{"bike_id":"07194d45-fb01-4082-a869-1669b949e023","system_id":"levelo_inurba_marseille","lat":43.32481,"lon":5.36563,"is_reserved":false,"is_disabled":false,"rental_uris":{"android":"levelo://app?vid=07194d45-fb01-4082-a869-1669b949e023","ios":"levelo://app?vid=07194d45-fb01-4082-a869-1669b949e023"},"vehicle_type_id":"4","last_reported":1746914911,"current_range_meters":10800,"station_id":"ce4bhs12rcd13ifvqhvg","pricing_plan_id":"cebpf4jnsgd1na2vs0mg"},{"bike_id":"0dc52e4a-27c8-46bc-ac74-d0914cdf2355","system_id":"levelo_inurba_marseille","lat":43.28021,"lon":5.36944,"is_reserved":false,"is_disabled":false,"rental_uris":{"android":"levelo://app?vid=0dc52e4a-27c8-46bc-ac74-d0914cdf2355","ios":"levelo://app?vid=0dc52e4a-27c8-46bc-ac74-d0914cdf2355"},"vehicle_type_id":"4","last_reported":1746914911,"current_range_meters":11200,"station_id":"ce4bha12rcd13ifvqef0","pricing_plan_id":"cebpf4jnsgd1na2vs0mg"},{"bike_id":"ab9fc22a-0539-486e-98a1-d796727775b3","system_id":"levelo_inurba_marseille","lat":43.28457,"lon":5.35892,"is_reserved":false,"is_disabled":false,"rental_uris":{"android":"levelo://app?vid=ab9fc22a-0539-486e-98a1-d796727775b3","ios":"levelo://app?vid=ab9fc22a-0539-486e-98a1-d796727775b3"},"vehicle_type_id":"4","last_reported":1746914911,"current_range_meters":11200,"station_id":"ce4bhah2rcd13ifvqei0","pricing_plan_id":"cebpf4jnsgd1na2vs0mg"},{"bike_id":"3a086cac-48b9-46d2-a143-89f2382289e8","system_id":"levelo_inurba_marseille","lat":43.308928,"lon":5.396515,"is_reserved":false,"is_disabled":false,"rental_uris":{"android":"levelo://app?vid=3a086cac-48b9-46d2-a143-89f2382289e8","ios":"levelo://app?vid=3a086cac-48b9-46d2-a143-89f2382289e8"},"vehicle_type_id":"4","last_reported":1746914911,"current_range_meters":11200,"station_id":"ce4bh012rcd13ifvqcv0","pricing_plan_id":"cebpf4jnsgd1na2vs0mg"},{"bike_id":"7b1a19d4-5ed3-40d5-98f4-94cde2e26552","system_id":"levelo_inurba_marseille","lat":43.290216,"lon":5.386271,"is_reserved":false,"is_disabled":false,"rental_uris":{"android":"levelo://app?vid=7b1a19d4-5ed3-40d5-98f4-94cde2e26552","ios":"levelo://app?vid=7b1a19d4-5ed3-40d5-98f4-94cde2e26552"},"vehicle_type_id":"4","last_reported":1746914911,"current_range_meters":11200,"station_id":"ce4bh4p2rcd13ifvqe0g","pricing_plan_id":"cebpf4jnsgd1na2vs0mg"},{"bike_id":"47a51c8b-44fc-4278-8dde-36c66e7050b3","system_id":"levelo_inurba_marseille","lat":43.29532,"lon":5.39413,"is_reserved":false,"is_disabled":false,"rental_uris":{"android":"levelo://app?vid=47a51c8b-44fc-4278-8dde-36c66e7050b3","ios":"levelo://app?vid=47a51c8b-44fc-4278-8dde-36c66e7050b3"},"vehicle_type_id":"4","last_reported":1746914911,"current_range_meters":11200,"station_id":"ce4bh292rcd13ifvqdf0","pricing_plan_id":"cebpf4jnsgd1na2vs0mg"},{"bike_id":"db934911-44a6-4793-9c9a-b25ca32db974","system_id":"levelo_inurba_marseille","lat":43.28037,"lon":5.369497,"is_reserved":false,"is_disabled":false,"rental_uris":{"android":"levelo://app?vid=db934911-44a6-4793-9c9a-b25ca32db974","ios":"levelo://app?vid=db934911-44a6-4793-9c9a-b25ca32db974"},"vehicle_type_id":"4","last_reported":1746914911,"current_range_meters":11600,"station_id":"ce4bha12rcd13ifvqef0","pricing_plan_id":"cebpf4jnsgd1na2vs0mg"},{"bike_id":"1d83476a-9395-4e91-90b3-3098d854b2b3","system_id":"levelo_inurba_marseille","lat":43.292657,"lon":5.384259,"is_reserved":false,"is_disabled":true,"rental_uris":{"android":"levelo://app?vid=1d83476a-9395-4e91-90b3-3098d854b2b3","ios":"levelo://app?vid=1d83476a-9395-4e91-90b3-3098d854b2b3"},"vehicle_type_id":"4","last_reported":1746914911,"current_range_meters":11600,"station_id":"ce4bh692rcd13ifvqea0","pricing_plan_id":"cebpf4jnsgd1na2vs0mg"},{"bike_id":"78bdd815-3059-45df-b09f-69c9435cbc40","system_id":"levelo_inurba_marseille","lat":43.31352,"lon":5.38493,"is_reserved":false,"is_disabled":false,"rental_uris":{"android":"levelo://app?vid=78bdd815-3059-45df-b09f-69c9435cbc40","ios":"levelo://app?vid=78bdd815-3059-45df-b09f-69c9435cbc40"},"vehicle_type_id":"4","last_reported":1746914911,"current_range_meters":12000,"station_id":"ce4bgt92rcd13ifvqcf0","pricing_plan_id":"cebpf4jnsgd1na2vs0mg"},{"bike_id":"71b039ff-3ff5-419d-84ac-e7fb8f65197f","system_id":"levelo_inurba_marseille","lat":43.30935,"lon":5.40138,"is_reserved":false,"is_disabled":false,"rental_uris":{"android":"levelo://app?vid=71b039ff-3ff5-419d-84ac-e7fb8f65197f","ios":"levelo://app?vid=71b039ff-3ff5-419d-84ac-e7fb8f65197f"},"vehicle_type_id":"4","last_reported":1746914911,"current_range_meters":12000,"station_id":"ce4bgvp2rcd13ifvqct0","pricing_plan_id":"cebpf4jnsgd1na2vs0mg"},{"bike_id":"6ef17d4a-3acf-4136-a3aa-30df54bf330a","system_id":"levelo_inurba_marseille","lat":43.30669,"lon":5.3674,"is_reserved":false,"is_disabled":false,"rental_uris":{"android":"levelo://app?vid=6ef17d4a-3acf-4136-a3aa-30df54bf330a","ios":"levelo://app?vid=6ef17d4a-3acf-4136-a3aa-30df54bf330a"},"vehicle_type_id":"4","last_reported":1746914911,"current_range_meters":12000,"station_id":"","pricing_plan_id":"cebpf4jnsgd1na2vs0mg"},{"bike_id":"cf06a58c-6b90-4ee6-b7ff-5b33ec523703","system_id":"levelo_inurba_marseille","lat":43.28589,"lon":5.41272,"is_reserved":false,"is_disabled":false,"rental_uris":{"android":"levelo://app?vid=cf06a58c-6b90-4ee6-b7ff-5b33ec523703","ios":"levelo://app?vid=cf06a58c-6b90-4ee6-b7ff-5b33ec523703"},"vehicle_type_id":"4","last_reported":1746914911,"current_range_meters":12400,"station_id":"","pricing_plan_id":"cebpf4jnsgd1na2vs0mg"},{"bike_id":"0205fa26-a9e4-4207-b789-760dc60a3ef4","system_id":"levelo_inurba_marseille","lat":43.26193,"lon":5.37449,"is_reserved":false,"is_disabled":false,"rental_uris":{"android":"levelo://app?vid=0205fa26-a9e4-4207-b789-760dc60a3ef4","ios":"levelo://app?vid=0205fa26-a9e4-4207-b789-760dc60a3ef4"},"vehicle_type_id":"4","last_reported":1746914911,"current_range_meters":12400,"station_id":"ce4bhgp2rcd13ifvqfc0","pricing_plan_id":"cebpf4jnsgd1na2vs0mg"},{"bike_id":"f5754198-774f-4b3b-aa3d-9a15da962701","system_id":"levelo_inurba_marseille","lat":43.31707,"lon":5.43699,"is_reserved":false,"is_disabled":false,"rental_uris":{"android":"levelo://app?vid=f5754198-774f-4b3b-aa3d-9a15da962701","ios":"levelo://app?vid=f5754198-774f-4b3b-aa3d-9a15da962701"},"vehicle_type_id":"4","last_reported":1746914911,"current_range_meters":12400,"station_id":"ce4bhp92rcd13ifvqhcg","pricing_plan_id":"cebpf4jnsgd1na2vs0mg"},{"bike_id":"530fd4a6-244f-4e38-a29b-1c870e1909cf","system_id":"levelo_inurba_marseille","lat":43.287134,"lon":5.379336,"is_reserved":false,"is_disabled":false,"rental_uris":{"android":"levelo://app?vid=530fd4a6-244f-4e38-a29b-1c870e1909cf","ios":"levelo://app?vid=530fd4a6-244f-4e38-a29b-1c870e1909cf"},"vehicle_type_id":"4","last_reported":1746914911,"current_range_meters":12400,"station_id":"ce4bh9p2rcd13ifvqec0","pricing_plan_id":"cebpf4jnsgd1na2vs0mg"},{"bike_id":"9a83fb59-da31-4e0d-92d3-185f19609284","system_id":"levelo_inurba_marseille","lat":43.29425,"lon":5.3863,"is_reserved":false,"is_disabled":false,"rental_uris":{"android":"levelo://app?vid=9a83fb59-da31-4e0d-92d3-185f19609284","ios":"levelo://app?vid=9a83fb59-da31-4e0d-92d3-185f19609284"},"vehicle_type_id":"4","last_reported":1746914911,"current_range_meters":12400,"station_id":"ce4bh2h2rcd13ifvqdh0","pricing_plan_id":"cebpf4jnsgd1na2vs0mg"},{"bike_id":"5730214d-4f46-4c03-91a2-4a3cb261f72a","system_id":"levelo_inurba_marseille","lat":43.28915,"lon":5.38383,"is_reserved":false,"is_disabled":false,"rental_uris":{"android":"levelo://app?vid=5730214d-4f46-4c03-91a2-4a3cb261f72a","ios":"levelo://app?vid=5730214d-4f46-4c03-91a2-4a3cb261f72a"},"vehicle_type_id":"4","last_reported":1746914911,"current_range_meters":12400,"station_id":"ce4bh612rcd13ifvqe6g","pricing_plan_id":"cebpf4jnsgd1na2vs0mg"},{"bike_id":"fc2577e7-1497-425b-9d4f-ab8d7dc843c6","system_id":"levelo_inurba_marseille","lat":43.33771,"lon":5.37485,"is_reserved":false,"is_disabled":false,"rental_uris":{"android":"levelo://app?vid=fc2577e7-1497-425b-9d4f-ab8d7dc843c6","ios":"levelo://app?vid=fc2577e7-1497-425b-9d4f-ab8d7dc843c6"},"vehicle_type_id":"4","last_reported":1746914911,"current_range_meters":12800,"station_id":"","pricing_plan_id":"cebpf4jnsgd1na2vs0mg"},{"bike_id":"0e5586fb-cddb-49b5-8352-7834ee80358f","system_id":"levelo_inurba_marseille","lat":43.30934,"lon":5.40144,"is_reserved":false,"is_disabled":false,"rental_uris":{"android":"levelo://app?vid=0e5586fb-cddb-49b5-8352-7834ee80358f","ios":"levelo://app?vid=0e5586fb-cddb-49b5-8352-7834ee80358f"},"vehicle_type_id":"4","last_reported":1746914911,"current_range_meters":12800,"station_id":"ce4bgvp2rcd13ifvqct0","pricing_plan_id":"cebpf4jnsgd1na2vs0mg"},{"bike_id":"c7e0e85b-2ecb-472a-adb3-6e456e188efe","system_id":"levelo_inurba_marseille","lat":43.28719,"lon":5.37926,"is_reserved":false,"is_disabled":false,"rental_uris":{"android":"levelo://app?vid=c7e0e85b-2ecb-472a-adb3-6e456e188efe","ios":"levelo://app?vid=c7e0e85b-2ecb-472a-adb3-6e456e188efe"},"vehicle_type_id":"4","last_reported":1746914911,"current_range_meters":12800,"station_id":"ce4bh9p2rcd13ifvqec0","pricing_plan_id":"cebpf4jnsgd1na2vs0mg"},{"bike_id":"bddedd96-a011-4674-a78a-417c4c21b019","system_id":"levelo_inurba_marseille","lat":43.29959,"lon":5.37019,"is_reserved":false,"is_disabled":false,"rental_uris":{"android":"levelo://app?vid=bddedd96-a011-4674-a78a-417c4c21b019","ios":"levelo://app?vid=bddedd96-a011-4674-a78a-417c4c21b019"},"vehicle_type_id":"4","last_reported":1746914911,"current_range_meters":13600,"station_id":"","pricing_plan_id":"cebpf4jnsgd1na2vs0mg"},{"bike_id":"900ea268-0578-4e3f-962a-f13d5c269c59","system_id":"levelo_inurba_marseille","lat":43.23149,"lon":5.43722,"is_reserved":false,"is_disabled":false,"rental_uris":{"android":"levelo://app?vid=900ea268-0578-4e3f-962a-f13d5c269c59","ios":"levelo://app?vid=900ea268-0578-4e3f-962a-f13d5c269c59"},"vehicle_type_id":"4","last_reported":1746914911,"current_range_meters":13600,"station_id":"ce4bhmp2rcd13ifvqgog","pricing_plan_id":"cebpf4jnsgd1na2vs0mg"},{"bike_id":"b222ace3-ab88-460b-b1d6-41e908211cad","system_id":"levelo_inurba_marseille","lat":43.21758,"lon":5.3458,"is_reserved":false,"is_disabled":true,"rental_uris":{"android":"levelo://app?vid=b222ace3-ab88-460b-b1d6-41e908211cad","ios":"levelo://app?vid=b222ace3-ab88-460b-b1d6-41e908211cad"},"vehicle_type_id":"4","last_reported":1746914911,"current_range_meters":14000,"station_id":"st_cvj6r9ubvosntc0bgbag","pricing_plan_id":"cebpf4jnsgd1na2vs0mg"},{"bike_id":"d6b6a49d-cc44-4c34-b5ec-6b6c2bed22e9","system_id":"levelo_inurba_marseille","lat":43.27814,"lon":5.40716,"is_reserved":false,"is_disabled":false,"rental_uris":{"android":"levelo://app?vid=d6b6a49d-cc44-4c34-b5ec-6b6c2bed22e9","ios":"levelo://app?vid=d6b6a49d-cc44-4c34-b5ec-6b6c2bed22e9"},"vehicle_type_id":"4","last_reported":1746914911,"current_range_meters":14000,"station_id":"ce4bhnh2rcd13ifvqgtg","pricing_plan_id":"cebpf4jnsgd1na2vs0mg"},{"bike_id":"85528a61-0066-401a-aebb-4f61bbc00b16","system_id":"levelo_inurba_marseille","lat":43.30246,"lon":5.40065,"is_reserved":false,"is_disabled":false,"rental_uris":{"android":"levelo://app?vid=85528a61-0066-401a-aebb-4f61bbc00b16","ios":"levelo://app?vid=85528a61-0066-401a-aebb-4f61bbc00b16"},"vehicle_type_id":"4","last_reported":1746914911,"current_range_meters":13600,"station_id":"ce4bgvh2rcd13ifvqcs0","pricing_plan_id":"cebpf4jnsgd1na2vs0mg"},{"bike_id":"7f688788-8df3-4eb7-a7e6-051d3c128582","system_id":"levelo_inurba_marseille","lat":43.30612,"lon":5.37207,"is_reserved":false,"is_disabled":false,"rental_uris":{"android":"levelo://app?vid=7f688788-8df3-4eb7-a7e6-051d3c128582","ios":"levelo://app?vid=7f688788-8df3-4eb7-a7e6-051d3c128582"},"vehicle_type_id":"4","last_reported":1746914911,"current_range_meters":14000,"station_id":"ce4bgqh2rcd13ifvqc4g","pricing_plan_id":"cebpf4jnsgd1na2vs0mg"},{"bike_id":"6d705489-d3d5-4e12-a28e-5d7bb8b109f3","system_id":"levelo_inurba_marseille","lat":43.26846,"lon":5.42756,"is_reserved":false,"is_disabled":false,"rental_uris":{"android":"levelo://app?vid=6d705489-d3d5-4e12-a28e-5d7bb8b109f3","ios":"levelo://app?vid=6d705489-d3d5-4e12-a28e-5d7bb8b109f3"},"vehicle_type_id":"4","last_reported":1746914911,"current_range_meters":14400,"station_id":"","pricing_plan_id":"cebpf4jnsgd1na2vs0mg"},{"bike_id":"50a5f453-7480-4c0c-a853-520dbe4eaaaf","system_id":"levelo_inurba_marseille","lat":43.30337,"lon":5.40437,"is_reserved":false,"is_disabled":false,"rental_uris":{"android":"levelo://app?vid=50a5f453-7480-4c0c-a853-520dbe4eaaaf","ios":"levelo://app?vid=50a5f453-7480-4c0c-a853-520dbe4eaaaf"},"vehicle_type_id":"4","last_reported":1746914911,"current_range_meters":14400,"station_id":"ce4bh012rcd13ifvqd10","pricing_plan_id":"cebpf4jnsgd1na2vs0mg"},{"bike_id":"6add2d36-61c6-46c1-a56e-696306c1bd19","system_id":"levelo_inurba_marseille","lat":43.233635,"lon":5.360728,"is_reserved":false,"is_disabled":false,"rental_uris":{"android":"levelo://app?vid=6add2d36-61c6-46c1-a56e-696306c1bd19","ios":"levelo://app?vid=6add2d36-61c6-46c1-a56e-696306c1bd19"},"vehicle_type_id":"4","last_reported":1746914911,"current_range_meters":14400,"station_id":"","pricing_plan_id":"cebpf4jnsgd1na2vs0mg"},{"bike_id":"a1121b36-b5cd-4dda-96ef-13a3dfaa55e1","system_id":"levelo_inurba_marseille","lat":43.301401,"lon":5.387791,"is_reserved":false,"is_disabled":false,"rental_uris":{"android":"levelo://app?vid=a1121b36-b5cd-4dda-96ef-13a3dfaa55e1","ios":"levelo://app?vid=a1121b36-b5cd-4dda-96ef-13a3dfaa55e1"},"vehicle_type_id":"4","last_reported":1746914911,"current_range_meters":14800,"station_id":"","pricing_plan_id":"cebpf4jnsgd1na2vs0mg"},{"bike_id":"f2fd71f1-8d0f-441a-9f1b-9fc9c34f54cc","system_id":"levelo_inurba_marseille","lat":43.32337,"lon":5.40622,"is_reserved":false,"is_disabled":false,"rental_uris":{"android":"levelo://app?vid=f2fd71f1-8d0f-441a-9f1b-9fc9c34f54cc","ios":"levelo://app?vid=f2fd71f1-8d0f-441a-9f1b-9fc9c34f54cc"},"vehicle_type_id":"4","last_reported":1746914911,"current_range_meters":14800,"station_id":"ce4bhq92rcd13ifvqhjg","pricing_plan_id":"cebpf4jnsgd1na2vs0mg"},{"bike_id":"9717a2a0-7656-4db2-b44a-65fc1b9a4abe","system_id":"levelo_inurba_marseille","lat":43.28365,"lon":5.381002,"is_reserved":false,"is_disabled":false,"rental_uris":{"android":"levelo://app?vid=9717a2a0-7656-4db2-b44a-65fc1b9a4abe","ios":"levelo://app?vid=9717a2a0-7656-4db2-b44a-65fc1b9a4abe"},"vehicle_type_id":"4","last_reported":1746914911,"current_range_meters":14800,"station_id":"ce4bh412rcd13ifvqdr0","pricing_plan_id":"cebpf4jnsgd1na2vs0mg"},{"bike_id":"ce30a071-7418-4e49-8909-3c6849764055","system_id":"levelo_inurba_marseille","lat":43.28343,"lon":5.38103,"is_reserved":false,"is_disabled":false,"rental_uris":{"android":"levelo://app?vid=ce30a071-7418-4e49-8909-3c6849764055","ios":"levelo://app?vid=ce30a071-7418-4e49-8909-3c6849764055"},"vehicle_type_id":"4","last_reported":1746914911,"current_range_meters":14800,"station_id":"ce4bh412rcd13ifvqdr0","pricing_plan_id":"cebpf4jnsgd1na2vs0mg"},{"bike_id":"89bcfb4f-069b-4772-88c9-127b3c9590f7","system_id":"levelo_inurba_marseille","lat":43.30298,"lon":5.36894,"is_reserved":false,"is_disabled":false,"rental_uris":{"android":"levelo://app?vid=89bcfb4f-069b-4772-88c9-127b3c9590f7","ios":"levelo://app?vid=89bcfb4f-069b-4772-88c9-127b3c9590f7"},"vehicle_type_id":"4","last_reported":1746914911,"current_range_meters":14800,"station_id":"ce4bgqh2rcd13ifvqc5g","pricing_plan_id":"cebpf4jnsgd1na2vs0mg"},{"bike_id":"f789b59a-2542-4289-a296-8d49f0abb7a8","system_id":"levelo_inurba_marseille","lat":43.30783,"lon":5.37644,"is_reserved":false,"is_disabled":false,"rental_uris":{"android":"levelo://app?vid=f789b59a-2542-4289-a296-8d49f0abb7a8","ios":"levelo://app?vid=f789b59a-2542-4289-a296-8d49f0abb7a8"},"vehicle_type_id":"4","last_reported":1746914911,"current_range_meters":15200,"station_id":"ce4bgv92rcd13ifvqcq0","pricing_plan_id":"cebpf4jnsgd1na2vs0mg"},{"bike_id":"6663a384-abed-48bd-861f-d563c5fcecd4","system_id":"levelo_inurba_marseille","lat":43.284153,"lon":5.350034,"is_reserved":false,"is_disabled":true,"rental_uris":{"android":"levelo://app?vid=6663a384-abed-48bd-861f-d563c5fcecd4","ios":"levelo://app?vid=6663a384-abed-48bd-861f-d563c5fcecd4"},"vehicle_type_id":"4","last_reported":1746914911,"current_range_meters":15200,"station_id":"ce4bhbh2rcd13ifvqepg","pricing_plan_id":"cebpf4jnsgd1na2vs0mg"},{"bike_id":"414912d1-c40b-4b57-8860-d1b418c7cd47","system_id":"levelo_inurba_marseille","lat":43.28924,"lon":5.38399,"is_reserved":false,"is_disabled":false,"rental_uris":{"android":"levelo://app?vid=414912d1-c40b-4b57-8860-d1b418c7cd47","ios":"levelo://app?vid=414912d1-c40b-4b57-8860-d1b418c7cd47"},"vehicle_type_id":"4","last_reported":1746914911,"current_range_meters":15200,"station_id":"ce4bh612rcd13ifvqe6g","pricing_plan_id":"cebpf4jnsgd1na2vs0mg"},{"bike_id":"92d87bf1-60f8-44f9-b273-2bc2afd633ce","system_id":"levelo_inurba_marseille","lat":43.284604,"lon":5.358966,"is_reserved":false,"is_disabled":false,"rental_uris":{"android":"levelo://app?vid=92d87bf1-60f8-44f9-b273-2bc2afd633ce","ios":"levelo://app?vid=92d87bf1-60f8-44f9-b273-2bc2afd633ce"},"vehicle_type_id":"4","last_reported":1746914911,"current_range_meters":15200,"station_id":"ce4bhah2rcd13ifvqei0","pricing_plan_id":"cebpf4jnsgd1na2vs0mg"},{"bike_id":"d83b7170-8eed-47c1-b0ec-1140d3a45dea","system_id":"levelo_inurba_marseille","lat":43.307942,"lon":5.435222,"is_reserved":false,"is_disabled":false,"rental_uris":{"android":"levelo://app?vid=d83b7170-8eed-47c1-b0ec-1140d3a45dea","ios":"levelo://app?vid=d83b7170-8eed-47c1-b0ec-1140d3a45dea"},"vehicle_type_id":"4","last_reported":1746914911,"current_range_meters":15200,"station_id":"ce4bhph2rcd13ifvqheg","pricing_plan_id":"cebpf4jnsgd1na2vs0mg"},{"bike_id":"cc9f7207-c402-4cda-8472-6c727bc12fe8","system_id":"levelo_inurba_marseille","lat":43.30592,"lon":5.39353,"is_reserved":false,"is_disabled":false,"rental_uris":{"android":"levelo://app?vid=cc9f7207-c402-4cda-8472-6c727bc12fe8","ios":"levelo://app?vid=cc9f7207-c402-4cda-8472-6c727bc12fe8"},"vehicle_type_id":"4","last_reported":1746914911,"current_range_meters":16000,"station_id":"ce4bh0p2rcd13ifvqd80","pricing_plan_id":"cebpf4jnsgd1na2vs0mg"},{"bike_id":"e2434f42-8ebb-4eed-a218-d21bf35b3735","system_id":"levelo_inurba_marseille","lat":43.29779,"lon":5.3811,"is_reserved":false,"is_disabled":true,"rental_uris":{"android":"levelo://app?vid=e2434f42-8ebb-4eed-a218-d21bf35b3735","ios":"levelo://app?vid=e2434f42-8ebb-4eed-a218-d21bf35b3735"},"vehicle_type_id":"4","last_reported":1746914911,"current_range_meters":16000,"station_id":"ce4bgip2rcd13ifvqbb0","pricing_plan_id":"cebpf4jnsgd1na2vs0mg"},{"bike_id":"847ad4f0-f740-49d3-b050-3b13a65b4323","system_id":"levelo_inurba_marseille","lat":43.29544,"lon":5.38529,"is_reserved":false,"is_disabled":false,"rental_uris":{"android":"levelo://app?vid=847ad4f0-f740-49d3-b050-3b13a65b4323","ios":"levelo://app?vid=847ad4f0-f740-49d3-b050-3b13a65b4323"},"vehicle_type_id":"4","last_reported":1746914911,"current_range_meters":16000,"station_id":"ce4bgih2rcd13ifvqba0","pricing_plan_id":"cebpf4jnsgd1na2vs0mg"},{"bike_id":"cc37f216-4d31-46db-a513-e343542e5619","system_id":"levelo_inurba_marseille","lat":43.284136,"lon":5.375081,"is_reserved":false,"is_disabled":false,"rental_uris":{"android":"levelo://app?vid=cc37f216-4d31-46db-a513-e343542e5619","ios":"levelo://app?vid=cc37f216-4d31-46db-a513-e343542e5619"},"vehicle_type_id":"4","last_reported":1746914911,"current_range_meters":16000,"station_id":"ce4bh412rcd13ifvqds0","pricing_plan_id":"cebpf4jnsgd1na2vs0mg"},{"bike_id":"2dbdf915-d2fb-4c36-8994-b53e3db07015","system_id":"levelo_inurba_marseille","lat":43.21761,"lon":5.34597,"is_reserved":false,"is_disabled":true,"rental_uris":{"android":"levelo://app?vid=2dbdf915-d2fb-4c36-8994-b53e3db07015","ios":"levelo://app?vid=2dbdf915-d2fb-4c36-8994-b53e3db07015"},"vehicle_type_id":"4","last_reported":1746914911,"current_range_meters":16000,"station_id":"st_cvj6r9ubvosntc0bgbag","pricing_plan_id":"cebpf4jnsgd1na2vs0mg"},{"bike_id":"13b0ccc3-423d-43b4-87ae-0d6ebc4ae8a4","system_id":"levelo_inurba_marseille","lat":43.28922,"lon":5.38397,"is_reserved":false,"is_disabled":false,"rental_uris":{"android":"levelo://app?vid=13b0ccc3-423d-43b4-87ae-0d6ebc4ae8a4","ios":"levelo://app?vid=13b0ccc3-423d-43b4-87ae-0d6ebc4ae8a4"},"vehicle_type_id":"4","last_reported":1746914911,"current_range_meters":16000,"station_id":"ce4bh612rcd13ifvqe6g","pricing_plan_id":"cebpf4jnsgd1na2vs0mg"},{"bike_id":"f5ca684c-953b-4dab-aeec-7beb4111c8e3","system_id":"levelo_inurba_marseille","lat":43.29427,"lon":5.38631,"is_reserved":false,"is_disabled":false,"rental_uris":{"android":"levelo://app?vid=f5ca684c-953b-4dab-aeec-7beb4111c8e3","ios":"levelo://app?vid=f5ca684c-953b-4dab-aeec-7beb4111c8e3"},"vehicle_type_id":"4","last_reported":1746914911,"current_range_meters":16000,"station_id":"ce4bh2h2rcd13ifvqdh0","pricing_plan_id":"cebpf4jnsgd1na2vs0mg"},{"bike_id":"a56c7a62-f5e4-48f7-ac44-547808d706f5","system_id":"levelo_inurba_marseille","lat":43.31489,"lon":5.373,"is_reserved":false,"is_disabled":false,"rental_uris":{"android":"levelo://app?vid=a56c7a62-f5e4-48f7-ac44-547808d706f5","ios":"levelo://app?vid=a56c7a62-f5e4-48f7-ac44-547808d706f5"},"vehicle_type_id":"4","last_reported":1746914911,"current_range_meters":16000,"station_id":"ce4bgt12rcd13ifvqcd0","pricing_plan_id":"cebpf4jnsgd1na2vs0mg"},{"bike_id":"9ca5a64c-7fe5-4800-b304-f0a90074b325","system_id":"levelo_inurba_marseille","lat":43.31235,"lon":5.40692,"is_reserved":false,"is_disabled":false,"rental_uris":{"android":"levelo://app?vid=9ca5a64c-7fe5-4800-b304-f0a90074b325","ios":"levelo://app?vid=9ca5a64c-7fe5-4800-b304-f0a90074b325"},"vehicle_type_id":"4","last_reported":1746914911,"current_range_meters":16000,"station_id":"","pricing_plan_id":"cebpf4jnsgd1na2vs0mg"},{"bike_id":"914a3761-a374-4681-b97f-6a8b1dd6f171","system_id":"levelo_inurba_marseille","lat":43.289436,"lon":5.363873,"is_reserved":false,"is_disabled":false,"rental_uris":{"android":"levelo://app?vid=914a3761-a374-4681-b97f-6a8b1dd6f171","ios":"levelo://app?vid=914a3761-a374-4681-b97f-6a8b1dd6f171"},"vehicle_type_id":"4","last_reported":1746914911,"current_range_meters":16000,"station_id":"ce4bhc92rcd13ifvqetg","pricing_plan_id":"cebpf4jnsgd1na2vs0mg"},{"bike_id":"78bdd65d-acd5-4212-b9ce-1f713fbfe66f","system_id":"levelo_inurba_marseille","lat":43.21194,"lon":5.35067,"is_reserved":false,"is_disabled":true,"rental_uris":{"android":"levelo://app?vid=78bdd65d-acd5-4212-b9ce-1f713fbfe66f","ios":"levelo://app?vid=78bdd65d-acd5-4212-b9ce-1f713fbfe66f"},"vehicle_type_id":"4","last_reported":1746914911,"current_range_meters":16000,"station_id":"st_cvj6sg6p6f1abm77japg","pricing_plan_id":"cebpf4jnsgd1na2vs0mg"},{"bike_id":"e12ea456-d9ad-4b3f-9ddf-fc045a89685e","system_id":"levelo_inurba_marseille","lat":43.27071,"lon":5.42294,"is_reserved":false,"is_disabled":false,"rental_uris":{"android":"levelo://app?vid=e12ea456-d9ad-4b3f-9ddf-fc045a89685e","ios":"levelo://app?vid=e12ea456-d9ad-4b3f-9ddf-fc045a89685e"},"vehicle_type_id":"4","last_reported":1746914911,"current_range_meters":16400,"station_id":"ce4bhk92rcd13ifvqgb0","pricing_plan_id":"cebpf4jnsgd1na2vs0mg"},{"bike_id":"c33c979d-9903-40dc-a17f-25ccdad88704","system_id":"levelo_inurba_marseille","lat":43.29517,"lon":5.3941,"is_reserved":false,"is_disabled":true,"rental_uris":{"android":"levelo://app?vid=c33c979d-9903-40dc-a17f-25ccdad88704","ios":"levelo://app?vid=c33c979d-9903-40dc-a17f-25ccdad88704"},"vehicle_type_id":"4","last_reported":1746914911,"current_range_meters":16400,"station_id":"ce4bh292rcd13ifvqdf0","pricing_plan_id":"cebpf4jnsgd1na2vs0mg"},{"bike_id":"13fa2dba-5a58-4588-b4a1-7956487d21f6","system_id":"levelo_inurba_marseille","lat":43.32252,"lon":5.36759,"is_reserved":false,"is_disabled":false,"rental_uris":{"android":"levelo://app?vid=13fa2dba-5a58-4588-b4a1-7956487d21f6","ios":"levelo://app?vid=13fa2dba-5a58-4588-b4a1-7956487d21f6"},"vehicle_type_id":"4","last_reported":1746914911,"current_range_meters":16400,"station_id":"","pricing_plan_id":"cebpf4jnsgd1na2vs0mg"},{"bike_id":"cbe5e661-c3e6-4a61-bcb7-bf5eab36baff","system_id":"levelo_inurba_marseille","lat":43.30333,"lon":5.4043,"is_reserved":false,"is_disabled":false,"rental_uris":{"android":"levelo://app?vid=cbe5e661-c3e6-4a61-bcb7-bf5eab36baff","ios":"levelo://app?vid=cbe5e661-c3e6-4a61-bcb7-bf5eab36baff"},"vehicle_type_id":"4","last_reported":1746914911,"current_range_meters":16400,"station_id":"ce4bh012rcd13ifvqd10","pricing_plan_id":"cebpf4jnsgd1na2vs0mg"},{"bike_id":"e49bbaf2-e67e-42dc-955c-cf1db6c8f1bd","system_id":"levelo_inurba_marseille","lat":43.31757,"lon":5.39018,"is_reserved":false,"is_disabled":false,"rental_uris":{"android":"levelo://app?vid=e49bbaf2-e67e-42dc-955c-cf1db6c8f1bd","ios":"levelo://app?vid=e49bbaf2-e67e-42dc-955c-cf1db6c8f1bd"},"vehicle_type_id":"4","last_reported":1746914911,"current_range_meters":16400,"station_id":"ce4bhqp2rcd13ifvqhng","pricing_plan_id":"cebpf4jnsgd1na2vs0mg"},{"bike_id":"5a6455bf-5b95-44d7-b901-490e1482ecfd","system_id":"levelo_inurba_marseille","lat":43.29208,"lon":5.39314,"is_reserved":false,"is_disabled":false,"rental_uris":{"android":"levelo://app?vid=5a6455bf-5b95-44d7-b901-490e1482ecfd","ios":"levelo://app?vid=5a6455bf-5b95-44d7-b901-490e1482ecfd"},"vehicle_type_id":"4","last_reported":1746914911,"current_range_meters":16800,"station_id":"ce4bh192rcd13ifvqdd0","pricing_plan_id":"cebpf4jnsgd1na2vs0mg"},{"bike_id":"14d693c5-ecb3-4074-a67c-588bec49507c","system_id":"levelo_inurba_marseille","lat":43.29094,"lon":5.38137,"is_reserved":false,"is_disabled":false,"rental_uris":{"android":"levelo://app?vid=14d693c5-ecb3-4074-a67c-588bec49507c","ios":"levelo://app?vid=14d693c5-ecb3-4074-a67c-588bec49507c"},"vehicle_type_id":"4","last_reported":1746914911,"current_range_meters":16800,"station_id":"ce4bh512rcd13ifvqe2g","pricing_plan_id":"cebpf4jnsgd1na2vs0mg"},{"bike_id":"43537185-2341-4abe-bfc3-e1f46de7c25a","system_id":"levelo_inurba_marseille","lat":43.27067,"lon":5.42263,"is_reserved":false,"is_disabled":false,"rental_uris":{"android":"levelo://app?vid=43537185-2341-4abe-bfc3-e1f46de7c25a","ios":"levelo://app?vid=43537185-2341-4abe-bfc3-e1f46de7c25a"},"vehicle_type_id":"4","last_reported":1746914911,"current_range_meters":16800,"station_id":"ce4bhk92rcd13ifvqgb0","pricing_plan_id":"cebpf4jnsgd1na2vs0mg"},{"bike_id":"02c273ea-7e5b-4d68-83d0-a2b2a999ee3a","system_id":"levelo_inurba_marseille","lat":43.30724,"lon":5.3979,"is_reserved":false,"is_disabled":false,"rental_uris":{"android":"levelo://app?vid=02c273ea-7e5b-4d68-83d0-a2b2a999ee3a","ios":"levelo://app?vid=02c273ea-7e5b-4d68-83d0-a2b2a999ee3a"},"vehicle_type_id":"4","last_reported":1746914911,"current_range_meters":16800,"station_id":"","pricing_plan_id":"cebpf4jnsgd1na2vs0mg"},{"bike_id":"d14a6269-3830-4052-a40e-331eb2b4f4d8","system_id":"levelo_inurba_marseille","lat":43.30159,"lon":5.37407,"is_reserved":false,"is_disabled":false,"rental_uris":{"android":"levelo://app?vid=d14a6269-3830-4052-a40e-331eb2b4f4d8","ios":"levelo://app?vid=d14a6269-3830-4052-a40e-331eb2b4f4d8"},"vehicle_type_id":"4","last_reported":1746914911,"current_range_meters":16800,"station_id":"ce4bgs92rcd13ifvqcc0","pricing_plan_id":"cebpf4jnsgd1na2vs0mg"},{"bike_id":"bce9332a-b4b4-4419-a2b2-6239f68c865d","system_id":"levelo_inurba_marseille","lat":43.29437,"lon":5.39748,"is_reserved":false,"is_disabled":false,"rental_uris":{"android":"levelo://app?vid=bce9332a-b4b4-4419-a2b2-6239f68c865d","ios":"levelo://app?vid=bce9332a-b4b4-4419-a2b2-6239f68c865d"},"vehicle_type_id":"4","last_reported":1746914911,"current_range_meters":16800,"station_id":"ce4bh3h2rcd13ifvqdo0","pricing_plan_id":"cebpf4jnsgd1na2vs0mg"},{"bike_id":"eabf14a0-7bd3-4e89-8bac-05906d0f4b2c","system_id":"levelo_inurba_marseille","lat":43.279707,"lon":5.387284,"is_reserved":false,"is_disabled":true,"rental_uris":{"android":"levelo://app?vid=eabf14a0-7bd3-4e89-8bac-05906d0f4b2c","ios":"levelo://app?vid=eabf14a0-7bd3-4e89-8bac-05906d0f4b2c"},"vehicle_type_id":"4","last_reported":1746914911,"current_range_meters":16800,"station_id":"ce4bhg12rcd13ifvqf80","pricing_plan_id":"cebpf4jnsgd1na2vs0mg"},{"bike_id":"d18d4370-2bd6-49a0-b879-64148b9a89fb","system_id":"levelo_inurba_marseille","lat":43.28926,"lon":5.38399,"is_reserved":false,"is_disabled":false,"rental_uris":{"android":"levelo://app?vid=d18d4370-2bd6-49a0-b879-64148b9a89fb","ios":"levelo://app?vid=d18d4370-2bd6-49a0-b879-64148b9a89fb"},"vehicle_type_id":"4","last_reported":1746914911,"current_range_meters":17200,"station_id":"ce4bh612rcd13ifvqe6g","pricing_plan_id":"cebpf4jnsgd1na2vs0mg"},{"bike_id":"ac9ad60a-819a-4a59-869e-571a2df7efda","system_id":"levelo_inurba_marseille","lat":43.323374,"lon":5.406206,"is_reserved":false,"is_disabled":false,"rental_uris":{"android":"levelo://app?vid=ac9ad60a-819a-4a59-869e-571a2df7efda","ios":"levelo://app?vid=ac9ad60a-819a-4a59-869e-571a2df7efda"},"vehicle_type_id":"4","last_reported":1746914911,"current_range_meters":17200,"station_id":"ce4bhq92rcd13ifvqhjg","pricing_plan_id":"cebpf4jnsgd1na2vs0mg"},{"bike_id":"cc62d2da-5a20-4806-9c3f-389790a326f5","system_id":"levelo_inurba_marseille","lat":43.24402,"lon":5.37078,"is_reserved":false,"is_disabled":true,"rental_uris":{"android":"levelo://app?vid=cc62d2da-5a20-4806-9c3f-389790a326f5","ios":"levelo://app?vid=cc62d2da-5a20-4806-9c3f-389790a326f5"},"vehicle_type_id":"4","last_reported":1746914911,"current_range_meters":17200,"station_id":"ce4bhhh2rcd13ifvqfk0","pricing_plan_id":"cebpf4jnsgd1na2vs0mg"},{"bike_id":"d8881fbc-5b93-40bc-beb3-55f71dae2e6c","system_id":"levelo_inurba_marseille","lat":43.32474,"lon":5.36584,"is_reserved":false,"is_disabled":false,"rental_uris":{"android":"levelo://app?vid=d8881fbc-5b93-40bc-beb3-55f71dae2e6c","ios":"levelo://app?vid=d8881fbc-5b93-40bc-beb3-55f71dae2e6c"},"vehicle_type_id":"4","last_reported":1746914911,"current_range_meters":17200,"station_id":"ce4bhs12rcd13ifvqhvg","pricing_plan_id":"cebpf4jnsgd1na2vs0mg"},{"bike_id":"d08f9c29-0070-4531-8786-ac27b84d5a22","system_id":"levelo_inurba_marseille","lat":43.30277,"lon":5.37708,"is_reserved":false,"is_disabled":false,"rental_uris":{"android":"levelo://app?vid=d08f9c29-0070-4531-8786-ac27b84d5a22","ios":"levelo://app?vid=d08f9c29-0070-4531-8786-ac27b84d5a22"},"vehicle_type_id":"4","last_reported":1746914911,"current_range_meters":16800,"station_id":"ce4bguh2rcd13ifvqcj0","pricing_plan_id":"cebpf4jnsgd1na2vs0mg"},{"bike_id":"29bcc0a3-f441-4905-b817-702918cd7f8e","system_id":"levelo_inurba_marseille","lat":43.28271,"lon":5.36151,"is_reserved":false,"is_disabled":false,"rental_uris":{"android":"levelo://app?vid=29bcc0a3-f441-4905-b817-702918cd7f8e","ios":"levelo://app?vid=29bcc0a3-f441-4905-b817-702918cd7f8e"},"vehicle_type_id":"4","last_reported":1746914911,"current_range_meters":17200,"station_id":"","pricing_plan_id":"cebpf4jnsgd1na2vs0mg"},{"bike_id":"878d7e05-aee1-4634-a9d2-4769a525200b","system_id":"levelo_inurba_marseille","lat":43.29909,"lon":5.37469,"is_reserved":false,"is_disabled":false,"rental_uris":{"android":"levelo://app?vid=878d7e05-aee1-4634-a9d2-4769a525200b","ios":"levelo://app?vid=878d7e05-aee1-4634-a9d2-4769a525200b"},"vehicle_type_id":"4","last_reported":1746914911,"current_range_meters":17200,"station_id":"ce4bgjh2rcd13ifvqbg0","pricing_plan_id":"cebpf4jnsgd1na2vs0mg"},{"bike_id":"8e6ab1ed-f180-44c8-83c9-2aeb43840fa1","system_id":"levelo_inurba_marseille","lat":43.30562,"lon":5.38436,"is_reserved":false,"is_disabled":false,"rental_uris":{"android":"levelo://app?vid=8e6ab1ed-f180-44c8-83c9-2aeb43840fa1","ios":"levelo://app?vid=8e6ab1ed-f180-44c8-83c9-2aeb43840fa1"},"vehicle_type_id":"4","last_reported":1746914911,"current_range_meters":17200,"station_id":"ce4bgg92rcd13ifvqb30","pricing_plan_id":"cebpf4jnsgd1na2vs0mg"},{"bike_id":"f52c819d-ca4b-4640-b458-b877db1bf990","system_id":"levelo_inurba_marseille","lat":43.29866,"lon":5.40999,"is_reserved":false,"is_disabled":false,"rental_uris":{"android":"levelo://app?vid=f52c819d-ca4b-4640-b458-b877db1bf990","ios":"levelo://app?vid=f52c819d-ca4b-4640-b458-b877db1bf990"},"vehicle_type_id":"4","last_reported":1746914911,"current_range_meters":17600,"station_id":"","pricing_plan_id":"cebpf4jnsgd1na2vs0mg"},{"bike_id":"8abff4d1-4849-4466-8500-712c28b07ddf","system_id":"levelo_inurba_marseille","lat":43.295898,"lon":5.399065,"is_reserved":false,"is_disabled":false,"rental_uris":{"android":"levelo://app?vid=8abff4d1-4849-4466-8500-712c28b07ddf","ios":"levelo://app?vid=8abff4d1-4849-4466-8500-712c28b07ddf"},"vehicle_type_id":"4","last_reported":1746914911,"current_range_meters":17600,"station_id":"ce4bh3p2rcd13ifvqdp0","pricing_plan_id":"cebpf4jnsgd1na2vs0mg"},{"bike_id":"e8479a0a-12fe-4af2-8d1d-7b7dfc996fc6","system_id":"levelo_inurba_marseille","lat":43.33708,"lon":5.39196,"is_reserved":false,"is_disabled":false,"rental_uris":{"android":"levelo://app?vid=e8479a0a-12fe-4af2-8d1d-7b7dfc996fc6","ios":"levelo://app?vid=e8479a0a-12fe-4af2-8d1d-7b7dfc996fc6"},"vehicle_type_id":"4","last_reported":1746914911,"current_range_meters":17600,"station_id":"ce4bhr92rcd13ifvqhsg","pricing_plan_id":"cebpf4jnsgd1na2vs0mg"},{"bike_id":"bff329b0-ca52-43b0-b4e7-b54cd160ef4e","system_id":"levelo_inurba_marseille","lat":43.23148,"lon":5.43724,"is_reserved":false,"is_disabled":false,"rental_uris":{"android":"levelo://app?vid=bff329b0-ca52-43b0-b4e7-b54cd160ef4e","ios":"levelo://app?vid=bff329b0-ca52-43b0-b4e7-b54cd160ef4e"},"vehicle_type_id":"4","last_reported":1746914911,"current_range_meters":17200,"station_id":"ce4bhmp2rcd13ifvqgog","pricing_plan_id":"cebpf4jnsgd1na2vs0mg"},{"bike_id":"79053622-c692-4e0e-96cc-3db36c18bebe","system_id":"levelo_inurba_marseille","lat":43.30218,"lon":5.39485,"is_reserved":false,"is_disabled":false,"rental_uris":{"android":"levelo://app?vid=79053622-c692-4e0e-96cc-3db36c18bebe","ios":"levelo://app?vid=79053622-c692-4e0e-96cc-3db36c18bebe"},"vehicle_type_id":"4","last_reported":1746914911,"current_range_meters":18000,"station_id":"ce4bh0p2rcd13ifvqd70","pricing_plan_id":"cebpf4jnsgd1na2vs0mg"},{"bike_id":"c21e3c70-ccf0-4358-9180-2f0a38c78cab","system_id":"levelo_inurba_marseille","lat":43.29692,"lon":5.37704,"is_reserved":false,"is_disabled":false,"rental_uris":{"android":"levelo://app?vid=c21e3c70-ccf0-4358-9180-2f0a38c78cab","ios":"levelo://app?vid=c21e3c70-ccf0-4358-9180-2f0a38c78cab"},"vehicle_type_id":"4","last_reported":1746914911,"current_range_meters":17600,"station_id":"ce4bgkh2rcd13ifvqbl0","pricing_plan_id":"cebpf4jnsgd1na2vs0mg"},{"bike_id":"082db1f0-99c6-4f93-a484-bdf136979352","system_id":"levelo_inurba_marseille","lat":43.29449,"lon":5.38597,"is_reserved":false,"is_disabled":false,"rental_uris":{"android":"levelo://app?vid=082db1f0-99c6-4f93-a484-bdf136979352","ios":"levelo://app?vid=082db1f0-99c6-4f93-a484-bdf136979352"},"vehicle_type_id":"4","last_reported":1746914911,"current_range_meters":18000,"station_id":"ce4bh2h2rcd13ifvqdh0","pricing_plan_id":"cebpf4jnsgd1na2vs0mg"},{"bike_id":"9b2f7d8a-4869-4006-a9df-d9c81ac2f2d8","system_id":"levelo_inurba_marseille","lat":43.28723,"lon":5.39969,"is_reserved":false,"is_disabled":false,"rental_uris":{"android":"levelo://app?vid=9b2f7d8a-4869-4006-a9df-d9c81ac2f2d8","ios":"levelo://app?vid=9b2f7d8a-4869-4006-a9df-d9c81ac2f2d8"},"vehicle_type_id":"4","last_reported":1746914911,"current_range_meters":18000,"station_id":"ce4bho92rcd13ifvqh3g","pricing_plan_id":"cebpf4jnsgd1na2vs0mg"},{"bike_id":"7445e7d6-4605-48ee-af17-c3e71b5a2935","system_id":"levelo_inurba_marseille","lat":43.29429,"lon":5.38622,"is_reserved":false,"is_disabled":false,"rental_uris":{"android":"levelo://app?vid=7445e7d6-4605-48ee-af17-c3e71b5a2935","ios":"levelo://app?vid=7445e7d6-4605-48ee-af17-c3e71b5a2935"},"vehicle_type_id":"4","last_reported":1746914911,"current_range_meters":18000,"station_id":"ce4bh2h2rcd13ifvqdh0","pricing_plan_id":"cebpf4jnsgd1na2vs0mg"},{"bike_id":"78ee8c40-d85b-4256-894a-650f6911bb79","system_id":"levelo_inurba_marseille","lat":43.27423,"lon":5.3942,"is_reserved":false,"is_disabled":false,"rental_uris":{"android":"levelo://app?vid=78ee8c40-d85b-4256-894a-650f6911bb79","ios":"levelo://app?vid=78ee8c40-d85b-4256-894a-650f6911bb79"},"vehicle_type_id":"4","last_reported":1746914911,"current_range_meters":18000,"station_id":"ce4bhdp2rcd13ifvqf20","pricing_plan_id":"cebpf4jnsgd1na2vs0mg"},{"bike_id":"eea2c32a-fa80-40a4-ae2c-18d1ca8ee305","system_id":"levelo_inurba_marseille","lat":43.31071,"lon":5.38355,"is_reserved":false,"is_disabled":false,"rental_uris":{"android":"levelo://app?vid=eea2c32a-fa80-40a4-ae2c-18d1ca8ee305","ios":"levelo://app?vid=eea2c32a-fa80-40a4-ae2c-18d1ca8ee305"},"vehicle_type_id":"4","last_reported":1746914911,"current_range_meters":18000,"station_id":"ce4bgv92rcd13ifvqcr0","pricing_plan_id":"cebpf4jnsgd1na2vs0mg"},{"bike_id":"52736094-3941-425f-b915-d6bb150d0d07","system_id":"levelo_inurba_marseille","lat":43.30213,"lon":5.39473,"is_reserved":false,"is_disabled":false,"rental_uris":{"android":"levelo://app?vid=52736094-3941-425f-b915-d6bb150d0d07","ios":"levelo://app?vid=52736094-3941-425f-b915-d6bb150d0d07"},"vehicle_type_id":"4","last_reported":1746914911,"current_range_meters":18000,"station_id":"ce4bh0p2rcd13ifvqd70","pricing_plan_id":"cebpf4jnsgd1na2vs0mg"},{"bike_id":"50193ae5-4456-41cd-8bcb-dec6cf61b153","system_id":"levelo_inurba_marseille","lat":43.27489,"lon":5.42421,"is_reserved":false,"is_disabled":false,"rental_uris":{"android":"levelo://app?vid=50193ae5-4456-41cd-8bcb-dec6cf61b153","ios":"levelo://app?vid=50193ae5-4456-41cd-8bcb-dec6cf61b153"},"vehicle_type_id":"4","last_reported":1746914911,"current_range_meters":18800,"station_id":"ce4bhn92rcd13ifvqgrg","pricing_plan_id":"cebpf4jnsgd1na2vs0mg"},{"bike_id":"7267de05-6ede-49fe-b814-3ec326426339","system_id":"levelo_inurba_marseille","lat":43.29257,"lon":5.40902,"is_reserved":false,"is_disabled":false,"rental_uris":{"android":"levelo://app?vid=7267de05-6ede-49fe-b814-3ec326426339","ios":"levelo://app?vid=7267de05-6ede-49fe-b814-3ec326426339"},"vehicle_type_id":"4","last_reported":1746914911,"current_range_meters":18800,"station_id":"ce4bh192rcd13ifvqdc0","pricing_plan_id":"cebpf4jnsgd1na2vs0mg"},{"bike_id":"9e1bac43-4e2b-4e2e-8686-e6d76948494d","system_id":"levelo_inurba_marseille","lat":43.28359,"lon":5.38102,"is_reserved":false,"is_disabled":false,"rental_uris":{"android":"levelo://app?vid=9e1bac43-4e2b-4e2e-8686-e6d76948494d","ios":"levelo://app?vid=9e1bac43-4e2b-4e2e-8686-e6d76948494d"},"vehicle_type_id":"4","last_reported":1746914911,"current_range_meters":18800,"station_id":"ce4bh412rcd13ifvqdr0","pricing_plan_id":"cebpf4jnsgd1na2vs0mg"},{"bike_id":"e64b6efa-8ad8-4af7-8d4d-f16b57fe35e2","system_id":"levelo_inurba_marseille","lat":43.28623,"lon":5.37064,"is_reserved":false,"is_disabled":true,"rental_uris":{"android":"levelo://app?vid=e64b6efa-8ad8-4af7-8d4d-f16b57fe35e2","ios":"levelo://app?vid=e64b6efa-8ad8-4af7-8d4d-f16b57fe35e2"},"vehicle_type_id":"4","last_reported":1746914911,"current_range_meters":18800,"station_id":"ce4bht12rcd13ifvqi60","pricing_plan_id":"cebpf4jnsgd1na2vs0mg"},{"bike_id":"cfc293f9-1f27-42c9-bae0-db9e5a49fc90","system_id":"levelo_inurba_marseille","lat":43.30424,"lon":5.39744,"is_reserved":false,"is_disabled":false,"rental_uris":{"android":"levelo://app?vid=cfc293f9-1f27-42c9-bae0-db9e5a49fc90","ios":"levelo://app?vid=cfc293f9-1f27-42c9-bae0-db9e5a49fc90"},"vehicle_type_id":"4","last_reported":1746914911,"current_range_meters":18800,"station_id":"ce4bh092rcd13ifvqd20","pricing_plan_id":"cebpf4jnsgd1na2vs0mg"},{"bike_id":"bedbf8d3-dae8-404f-a8ca-2fda54452782","system_id":"levelo_inurba_marseille","lat":43.30956,"lon":5.39033,"is_reserved":false,"is_disabled":false,"rental_uris":{"android":"levelo://app?vid=bedbf8d3-dae8-404f-a8ca-2fda54452782","ios":"levelo://app?vid=bedbf8d3-dae8-404f-a8ca-2fda54452782"},"vehicle_type_id":"4","last_reported":1746914911,"current_range_meters":18800,"station_id":"ce4bgup2rcd13ifvqco0","pricing_plan_id":"cebpf4jnsgd1na2vs0mg"},{"bike_id":"534c9c23-cdbf-4ba7-9a1a-17f5c93a4d5b","system_id":"levelo_inurba_marseille","lat":43.30354,"lon":5.36803,"is_reserved":false,"is_disabled":false,"rental_uris":{"android":"levelo://app?vid=534c9c23-cdbf-4ba7-9a1a-17f5c93a4d5b","ios":"levelo://app?vid=534c9c23-cdbf-4ba7-9a1a-17f5c93a4d5b"},"vehicle_type_id":"4","last_reported":1746914911,"current_range_meters":18800,"station_id":"","pricing_plan_id":"cebpf4jnsgd1na2vs0mg"},{"bike_id":"7692b48f-523f-4105-bb0f-76be2eddb235","system_id":"levelo_inurba_marseille","lat":43.32658,"lon":5.40999,"is_reserved":false,"is_disabled":false,"rental_uris":{"android":"levelo://app?vid=7692b48f-523f-4105-bb0f-76be2eddb235","ios":"levelo://app?vid=7692b48f-523f-4105-bb0f-76be2eddb235"},"vehicle_type_id":"4","last_reported":1746914911,"current_range_meters":18800,"station_id":"ce4bhpp2rcd13ifvqhgg","pricing_plan_id":"cebpf4jnsgd1na2vs0mg"},{"bike_id":"bf8d19c3-65f2-46f6-a580-d2c59dd59a95","system_id":"levelo_inurba_marseille","lat":43.292742,"lon":5.401072,"is_reserved":false,"is_disabled":false,"rental_uris":{"android":"levelo://app?vid=bf8d19c3-65f2-46f6-a580-d2c59dd59a95","ios":"levelo://app?vid=bf8d19c3-65f2-46f6-a580-d2c59dd59a95"},"vehicle_type_id":"4","last_reported":1746914911,"current_range_meters":18800,"station_id":"ce4bh312rcd13ifvqdk0","pricing_plan_id":"cebpf4jnsgd1na2vs0mg"},{"bike_id":"3cf91f01-f2d6-49b6-b319-1b3a0f0b8792","system_id":"levelo_inurba_marseille","lat":43.27941,"lon":5.4104,"is_reserved":false,"is_disabled":false,"rental_uris":{"android":"levelo://app?vid=3cf91f01-f2d6-49b6-b319-1b3a0f0b8792","ios":"levelo://app?vid=3cf91f01-f2d6-49b6-b319-1b3a0f0b8792"},"vehicle_type_id":"4","last_reported":1746914911,"current_range_meters":19200,"station_id":"ce4bhnp2rcd13ifvqh0g","pricing_plan_id":"cebpf4jnsgd1na2vs0mg"},{"bike_id":"9eb45cff-0f92-440d-b5e4-f9f552e30ae0","system_id":"levelo_inurba_marseille","lat":43.284218,"lon":5.34986,"is_reserved":false,"is_disabled":true,"rental_uris":{"android":"levelo://app?vid=9eb45cff-0f92-440d-b5e4-f9f552e30ae0","ios":"levelo://app?vid=9eb45cff-0f92-440d-b5e4-f9f552e30ae0"},"vehicle_type_id":"4","last_reported":1746914911,"current_range_meters":19200,"station_id":"ce4bhbh2rcd13ifvqepg","pricing_plan_id":"cebpf4jnsgd1na2vs0mg"},{"bike_id":"6f33d593-b6b8-45ca-b839-ed5fd0e98215","system_id":"levelo_inurba_marseille","lat":43.21191,"lon":5.35072,"is_reserved":false,"is_disabled":true,"rental_uris":{"android":"levelo://app?vid=6f33d593-b6b8-45ca-b839-ed5fd0e98215","ios":"levelo://app?vid=6f33d593-b6b8-45ca-b839-ed5fd0e98215"},"vehicle_type_id":"4","last_reported":1746914911,"current_range_meters":19200,"station_id":"st_cvj6sg6p6f1abm77japg","pricing_plan_id":"cebpf4jnsgd1na2vs0mg"},{"bike_id":"a92f3826-bdf0-40c0-bed2-7f4d85a65591","system_id":"levelo_inurba_marseille","lat":43.28927,"lon":5.38389,"is_reserved":false,"is_disabled":false,"rental_uris":{"android":"levelo://app?vid=a92f3826-bdf0-40c0-bed2-7f4d85a65591","ios":"levelo://app?vid=a92f3826-bdf0-40c0-bed2-7f4d85a65591"},"vehicle_type_id":"4","last_reported":1746914911,"current_range_meters":19200,"station_id":"ce4bh612rcd13ifvqe6g","pricing_plan_id":"cebpf4jnsgd1na2vs0mg"},{"bike_id":"a1f1d3d2-b6bc-450f-882f-542948005906","system_id":"levelo_inurba_marseille","lat":43.25088,"lon":5.39526,"is_reserved":false,"is_disabled":false,"rental_uris":{"android":"levelo://app?vid=a1f1d3d2-b6bc-450f-882f-542948005906","ios":"levelo://app?vid=a1f1d3d2-b6bc-450f-882f-542948005906"},"vehicle_type_id":"4","last_reported":1746914911,"current_range_meters":19200,"station_id":"ce4bhm12rcd13ifvqgkg","pricing_plan_id":"cebpf4jnsgd1na2vs0mg"},{"bike_id":"c651969d-d92b-4866-b580-56c754cccab6","system_id":"levelo_inurba_marseille","lat":43.30939,"lon":5.39027,"is_reserved":false,"is_disabled":false,"rental_uris":{"android":"levelo://app?vid=c651969d-d92b-4866-b580-56c754cccab6","ios":"levelo://app?vid=c651969d-d92b-4866-b580-56c754cccab6"},"vehicle_type_id":"4","last_reported":1746914911,"current_range_meters":19200,"station_id":"ce4bgup2rcd13ifvqco0","pricing_plan_id":"cebpf4jnsgd1na2vs0mg"},{"bike_id":"1ba2c5e0-3dc0-457d-8d4d-52cafc00b2d2","system_id":"levelo_inurba_marseille","lat":43.29429,"lon":5.38623,"is_reserved":false,"is_disabled":false,"rental_uris":{"android":"levelo://app?vid=1ba2c5e0-3dc0-457d-8d4d-52cafc00b2d2","ios":"levelo://app?vid=1ba2c5e0-3dc0-457d-8d4d-52cafc00b2d2"},"vehicle_type_id":"4","last_reported":1746914911,"current_range_meters":19600,"station_id":"ce4bh2h2rcd13ifvqdh0","pricing_plan_id":"cebpf4jnsgd1na2vs0mg"},{"bike_id":"476a88a3-b19c-4b3b-981f-f54d1157f097","system_id":"levelo_inurba_marseille","lat":43.30781,"lon":5.37656,"is_reserved":false,"is_disabled":false,"rental_uris":{"android":"levelo://app?vid=476a88a3-b19c-4b3b-981f-f54d1157f097","ios":"levelo://app?vid=476a88a3-b19c-4b3b-981f-f54d1157f097"},"vehicle_type_id":"4","last_reported":1746914911,"current_range_meters":19600,"station_id":"ce4bgv92rcd13ifvqcq0","pricing_plan_id":"cebpf4jnsgd1na2vs0mg"},{"bike_id":"a2cc6f90-4e19-44fb-a049-565b813c6d23","system_id":"levelo_inurba_marseille","lat":43.281573,"lon":5.426161,"is_reserved":false,"is_disabled":false,"rental_uris":{"android":"levelo://app?vid=a2cc6f90-4e19-44fb-a049-565b813c6d23","ios":"levelo://app?vid=a2cc6f90-4e19-44fb-a049-565b813c6d23"},"vehicle_type_id":"4","last_reported":1746914911,"current_range_meters":19600,"station_id":"ce4bhnh2rcd13ifvqgug","pricing_plan_id":"cebpf4jnsgd1na2vs0mg"},{"bike_id":"b6cc4029-3d31-49e0-8338-de0f562397cd","system_id":"levelo_inurba_marseille","lat":43.29311,"lon":5.3718,"is_reserved":false,"is_disabled":false,"rental_uris":{"android":"levelo://app?vid=b6cc4029-3d31-49e0-8338-de0f562397cd","ios":"levelo://app?vid=b6cc4029-3d31-49e0-8338-de0f562397cd"},"vehicle_type_id":"4","last_reported":1746914911,"current_range_meters":19200,"station_id":"ce4bgh92rcd13ifvqb40","pricing_plan_id":"cebpf4jnsgd1na2vs0mg"},{"bike_id":"68db2cc3-aecf-4dda-abde-7b59ce0b03df","system_id":"levelo_inurba_marseille","lat":43.25823,"lon":5.39427,"is_reserved":false,"is_disabled":false,"rental_uris":{"android":"levelo://app?vid=68db2cc3-aecf-4dda-abde-7b59ce0b03df","ios":"levelo://app?vid=68db2cc3-aecf-4dda-abde-7b59ce0b03df"},"vehicle_type_id":"4","last_reported":1746914911,"current_range_meters":19600,"station_id":"ce4bhip2rcd13ifvqft0","pricing_plan_id":"cebpf4jnsgd1na2vs0mg"},{"bike_id":"e224e3f7-5962-446d-8561-10045026da22","system_id":"levelo_inurba_marseille","lat":43.32487,"lon":5.36566,"is_reserved":false,"is_disabled":false,"rental_uris":{"android":"levelo://app?vid=e224e3f7-5962-446d-8561-10045026da22","ios":"levelo://app?vid=e224e3f7-5962-446d-8561-10045026da22"},"vehicle_type_id":"4","last_reported":1746914911,"current_range_meters":20000,"station_id":"ce4bhs12rcd13ifvqhvg","pricing_plan_id":"cebpf4jnsgd1na2vs0mg"},{"bike_id":"4762718c-a376-420c-be5d-ae5208641990","system_id":"levelo_inurba_marseille","lat":43.28461,"lon":5.35911,"is_reserved":false,"is_disabled":true,"rental_uris":{"android":"levelo://app?vid=4762718c-a376-420c-be5d-ae5208641990","ios":"levelo://app?vid=4762718c-a376-420c-be5d-ae5208641990"},"vehicle_type_id":"4","last_reported":1746914911,"current_range_meters":20000,"station_id":"ce4bhah2rcd13ifvqei0","pricing_plan_id":"cebpf4jnsgd1na2vs0mg"},{"bike_id":"748d84d8-5b89-431b-939c-66810a6e7006","system_id":"levelo_inurba_marseille","lat":43.30607,"lon":5.37216,"is_reserved":false,"is_disabled":false,"rental_uris":{"android":"levelo://app?vid=748d84d8-5b89-431b-939c-66810a6e7006","ios":"levelo://app?vid=748d84d8-5b89-431b-939c-66810a6e7006"},"vehicle_type_id":"4","last_reported":1746914911,"current_range_meters":20000,"station_id":"ce4bgqh2rcd13ifvqc4g","pricing_plan_id":"cebpf4jnsgd1na2vs0mg"},{"bike_id":"1ba3da09-ade7-4885-a184-feaf605a17cb","system_id":"levelo_inurba_marseille","lat":43.30264,"lon":5.40076,"is_reserved":false,"is_disabled":false,"rental_uris":{"android":"levelo://app?vid=1ba3da09-ade7-4885-a184-feaf605a17cb","ios":"levelo://app?vid=1ba3da09-ade7-4885-a184-feaf605a17cb"},"vehicle_type_id":"4","last_reported":1746914911,"current_range_meters":20000,"station_id":"ce4bgvh2rcd13ifvqcs0","pricing_plan_id":"cebpf4jnsgd1na2vs0mg"},{"bike_id":"4a165f23-fbd3-4d80-8747-44afd0fff7ae","system_id":"levelo_inurba_marseille","lat":43.31079,"lon":5.38347,"is_reserved":false,"is_disabled":false,"rental_uris":{"android":"levelo://app?vid=4a165f23-fbd3-4d80-8747-44afd0fff7ae","ios":"levelo://app?vid=4a165f23-fbd3-4d80-8747-44afd0fff7ae"},"vehicle_type_id":"4","last_reported":1746914911,"current_range_meters":20000,"station_id":"ce4bgv92rcd13ifvqcr0","pricing_plan_id":"cebpf4jnsgd1na2vs0mg"},{"bike_id":"2ae42f68-68c5-48a6-88e8-602aa446efd4","system_id":"levelo_inurba_marseille","lat":43.29027,"lon":5.38637,"is_reserved":false,"is_disabled":false,"rental_uris":{"android":"levelo://app?vid=2ae42f68-68c5-48a6-88e8-602aa446efd4","ios":"levelo://app?vid=2ae42f68-68c5-48a6-88e8-602aa446efd4"},"vehicle_type_id":"4","last_reported":1746914911,"current_range_meters":20000,"station_id":"ce4bh4p2rcd13ifvqe0g","pricing_plan_id":"cebpf4jnsgd1na2vs0mg"},{"bike_id":"95c07f58-992e-486e-9e01-f8c38af93653","system_id":"levelo_inurba_marseille","lat":43.30578,"lon":5.36749,"is_reserved":false,"is_disabled":true,"rental_uris":{"android":"levelo://app?vid=95c07f58-992e-486e-9e01-f8c38af93653","ios":"levelo://app?vid=95c07f58-992e-486e-9e01-f8c38af93653"},"vehicle_type_id":"4","last_reported":1746914911,"current_range_meters":20000,"station_id":"ce4bgrp2rcd13ifvqc9g","pricing_plan_id":"cebpf4jnsgd1na2vs0mg"},{"bike_id":"b54d71f3-964a-4753-8f1a-f9f182e4fdc8","system_id":"levelo_inurba_marseille","lat":43.28713,"lon":5.36092,"is_reserved":false,"is_disabled":false,"rental_uris":{"android":"levelo://app?vid=b54d71f3-964a-4753-8f1a-f9f182e4fdc8","ios":"levelo://app?vid=b54d71f3-964a-4753-8f1a-f9f182e4fdc8"},"vehicle_type_id":"4","last_reported":1746914911,"current_range_meters":20000,"station_id":"cki0cbj6b192h4jlfktg","pricing_plan_id":"cebpf4jnsgd1na2vs0mg"},{"bike_id":"5f292918-0351-47bc-b52f-404937095ee0","system_id":"levelo_inurba_marseille","lat":43.23442,"lon":5.35921,"is_reserved":false,"is_disabled":false,"rental_uris":{"android":"levelo://app?vid=5f292918-0351-47bc-b52f-404937095ee0","ios":"levelo://app?vid=5f292918-0351-47bc-b52f-404937095ee0"},"vehicle_type_id":"4","last_reported":1746914911,"current_range_meters":20400,"station_id":"","pricing_plan_id":"cebpf4jnsgd1na2vs0mg"},{"bike_id":"dbf5fde2-c707-459e-b682-6e3ec4f30c26","system_id":"levelo_inurba_marseille","lat":43.30584,"lon":5.37235,"is_reserved":false,"is_disabled":false,"rental_uris":{"android":"levelo://app?vid=dbf5fde2-c707-459e-b682-6e3ec4f30c26","ios":"levelo://app?vid=dbf5fde2-c707-459e-b682-6e3ec4f30c26"},"vehicle_type_id":"4","last_reported":1746914911,"current_range_meters":20400,"station_id":"ce4bgqh2rcd13ifvqc4g","pricing_plan_id":"cebpf4jnsgd1na2vs0mg"},{"bike_id":"77b898d6-83c3-4819-8f10-342d8faa3aa9","system_id":"levelo_inurba_marseille","lat":43.27091,"lon":5.4228,"is_reserved":false,"is_disabled":true,"rental_uris":{"android":"levelo://app?vid=77b898d6-83c3-4819-8f10-342d8faa3aa9","ios":"levelo://app?vid=77b898d6-83c3-4819-8f10-342d8faa3aa9"},"vehicle_type_id":"4","last_reported":1746914911,"current_range_meters":20400,"station_id":"ce4bhk92rcd13ifvqgb0","pricing_plan_id":"cebpf4jnsgd1na2vs0mg"},{"bike_id":"b863d088-7c33-444a-9632-6d7e659eca2d","system_id":"levelo_inurba_marseille","lat":43.29203,"lon":5.39317,"is_reserved":false,"is_disabled":false,"rental_uris":{"android":"levelo://app?vid=b863d088-7c33-444a-9632-6d7e659eca2d","ios":"levelo://app?vid=b863d088-7c33-444a-9632-6d7e659eca2d"},"vehicle_type_id":"4","last_reported":1746914911,"current_range_meters":20400,"station_id":"ce4bh192rcd13ifvqdd0","pricing_plan_id":"cebpf4jnsgd1na2vs0mg"},{"bike_id":"1a48785d-b844-4b2d-b864-820cc126dbce","system_id":"levelo_inurba_marseille","lat":43.33604,"lon":5.41037,"is_reserved":false,"is_disabled":false,"rental_uris":{"android":"levelo://app?vid=1a48785d-b844-4b2d-b864-820cc126dbce","ios":"levelo://app?vid=1a48785d-b844-4b2d-b864-820cc126dbce"},"vehicle_type_id":"4","last_reported":1746914911,"current_range_meters":20400,"station_id":"ce4bhqh2rcd13ifvqhmg","pricing_plan_id":"cebpf4jnsgd1na2vs0mg"},{"bike_id":"95c951a3-19d8-4ddc-b6c8-0a711e97dec8","system_id":"levelo_inurba_marseille","lat":43.29959,"lon":5.37018,"is_reserved":false,"is_disabled":false,"rental_uris":{"android":"levelo://app?vid=95c951a3-19d8-4ddc-b6c8-0a711e97dec8","ios":"levelo://app?vid=95c951a3-19d8-4ddc-b6c8-0a711e97dec8"},"vehicle_type_id":"4","last_reported":1746914911,"current_range_meters":18000,"station_id":"","pricing_plan_id":"cebpf4jnsgd1na2vs0mg"},{"bike_id":"aaf7734b-b205-4c21-9ef7-ad86c63c238f","system_id":"levelo_inurba_marseille","lat":43.25584,"lon":5.3824,"is_reserved":false,"is_disabled":false,"rental_uris":{"android":"levelo://app?vid=aaf7734b-b205-4c21-9ef7-ad86c63c238f","ios":"levelo://app?vid=aaf7734b-b205-4c21-9ef7-ad86c63c238f"},"vehicle_type_id":"4","last_reported":1746914911,"current_range_meters":20800,"station_id":"ce4bhih2rcd13ifvqfs0","pricing_plan_id":"cebpf4jnsgd1na2vs0mg"},{"bike_id":"6c52c591-5597-47a1-a5eb-077487ea44f4","system_id":"levelo_inurba_marseille","lat":43.29074,"lon":5.37165,"is_reserved":false,"is_disabled":false,"rental_uris":{"android":"levelo://app?vid=6c52c591-5597-47a1-a5eb-077487ea44f4","ios":"levelo://app?vid=6c52c591-5597-47a1-a5eb-077487ea44f4"},"vehicle_type_id":"4","last_reported":1746914911,"current_range_meters":20800,"station_id":"ce4bh5p2rcd13ifvqe4g","pricing_plan_id":"cebpf4jnsgd1na2vs0mg"},{"bike_id":"3b3ce7c2-e5b2-4197-914d-6a84ee25051d","system_id":"levelo_inurba_marseille","lat":43.30782,"lon":5.37653,"is_reserved":false,"is_disabled":false,"rental_uris":{"android":"levelo://app?vid=3b3ce7c2-e5b2-4197-914d-6a84ee25051d","ios":"levelo://app?vid=3b3ce7c2-e5b2-4197-914d-6a84ee25051d"},"vehicle_type_id":"4","last_reported":1746914911,"current_range_meters":20800,"station_id":"ce4bgv92rcd13ifvqcq0","pricing_plan_id":"cebpf4jnsgd1na2vs0mg"},{"bike_id":"d740be2a-867c-42f0-893b-a550f7411c44","system_id":"levelo_inurba_marseille","lat":43.30325,"lon":5.40437,"is_reserved":false,"is_disabled":false,"rental_uris":{"android":"levelo://app?vid=d740be2a-867c-42f0-893b-a550f7411c44","ios":"levelo://app?vid=d740be2a-867c-42f0-893b-a550f7411c44"},"vehicle_type_id":"4","last_reported":1746914911,"current_range_meters":20800,"station_id":"ce4bh012rcd13ifvqd10","pricing_plan_id":"cebpf4jnsgd1na2vs0mg"},{"bike_id":"31f6117a-575c-415a-a0a3-a08bbecde04c","system_id":"levelo_inurba_marseille","lat":43.24674,"lon":5.38152,"is_reserved":false,"is_disabled":false,"rental_uris":{"android":"levelo://app?vid=31f6117a-575c-415a-a0a3-a08bbecde04c","ios":"levelo://app?vid=31f6117a-575c-415a-a0a3-a08bbecde04c"},"vehicle_type_id":"4","last_reported":1746914911,"current_range_meters":20800,"station_id":"ce4bhih2rcd13ifvqfr0","pricing_plan_id":"cebpf4jnsgd1na2vs0mg"},{"bike_id":"e36c392c-ba70-4df9-a422-a12ec85572e8","system_id":"levelo_inurba_marseille","lat":43.28026,"lon":5.36923,"is_reserved":false,"is_disabled":false,"rental_uris":{"android":"levelo://app?vid=e36c392c-ba70-4df9-a422-a12ec85572e8","ios":"levelo://app?vid=e36c392c-ba70-4df9-a422-a12ec85572e8"},"vehicle_type_id":"4","last_reported":1746914911,"current_range_meters":20800,"station_id":"ce4bha12rcd13ifvqef0","pricing_plan_id":"cebpf4jnsgd1na2vs0mg"},{"bike_id":"1b90dc52-5053-4d51-9995-43ae2d0b359e","system_id":"levelo_inurba_marseille","lat":43.28665,"lon":5.36338,"is_reserved":false,"is_disabled":false,"rental_uris":{"android":"levelo://app?vid=1b90dc52-5053-4d51-9995-43ae2d0b359e","ios":"levelo://app?vid=1b90dc52-5053-4d51-9995-43ae2d0b359e"},"vehicle_type_id":"4","last_reported":1746914911,"current_range_meters":21600,"station_id":"ce4bhah2rcd13ifvqej0","pricing_plan_id":"cebpf4jnsgd1na2vs0mg"},{"bike_id":"f4096660-b97e-40e1-a4fd-df22946467fb","system_id":"levelo_inurba_marseille","lat":43.31362,"lon":5.38502,"is_reserved":false,"is_disabled":false,"rental_uris":{"android":"levelo://app?vid=f4096660-b97e-40e1-a4fd-df22946467fb","ios":"levelo://app?vid=f4096660-b97e-40e1-a4fd-df22946467fb"},"vehicle_type_id":"4","last_reported":1746914911,"current_range_meters":21600,"station_id":"ce4bgt92rcd13ifvqcf0","pricing_plan_id":"cebpf4jnsgd1na2vs0mg"},{"bike_id":"cbddb541-e24f-4307-99eb-92d81daa9fd4","system_id":"levelo_inurba_marseille","lat":43.28021,"lon":5.36963,"is_reserved":false,"is_disabled":false,"rental_uris":{"android":"levelo://app?vid=cbddb541-e24f-4307-99eb-92d81daa9fd4","ios":"levelo://app?vid=cbddb541-e24f-4307-99eb-92d81daa9fd4"},"vehicle_type_id":"4","last_reported":1746914911,"current_range_meters":21600,"station_id":"ce4bha12rcd13ifvqef0","pricing_plan_id":"cebpf4jnsgd1na2vs0mg"},{"bike_id":"d3d233e8-ddf6-405a-9e9c-75ee3e6db206","system_id":"levelo_inurba_marseille","lat":43.29263,"lon":5.38449,"is_reserved":false,"is_disabled":false,"rental_uris":{"android":"levelo://app?vid=d3d233e8-ddf6-405a-9e9c-75ee3e6db206","ios":"levelo://app?vid=d3d233e8-ddf6-405a-9e9c-75ee3e6db206"},"vehicle_type_id":"4","last_reported":1746914911,"current_range_meters":21600,"station_id":"ce4bh692rcd13ifvqea0","pricing_plan_id":"cebpf4jnsgd1na2vs0mg"},{"bike_id":"d8f85698-9cc7-4fac-ba09-0118aa7df1b5","system_id":"levelo_inurba_marseille","lat":43.31353,"lon":5.38505,"is_reserved":false,"is_disabled":true,"rental_uris":{"android":"levelo://app?vid=d8f85698-9cc7-4fac-ba09-0118aa7df1b5","ios":"levelo://app?vid=d8f85698-9cc7-4fac-ba09-0118aa7df1b5"},"vehicle_type_id":"4","last_reported":1746914911,"current_range_meters":21600,"station_id":"ce4bgt92rcd13ifvqcf0","pricing_plan_id":"cebpf4jnsgd1na2vs0mg"},{"bike_id":"ce3db671-c141-48a4-a6cc-e03d1f8d68a1","system_id":"levelo_inurba_marseille","lat":43.31367,"lon":5.38506,"is_reserved":false,"is_disabled":false,"rental_uris":{"android":"levelo://app?vid=ce3db671-c141-48a4-a6cc-e03d1f8d68a1","ios":"levelo://app?vid=ce3db671-c141-48a4-a6cc-e03d1f8d68a1"},"vehicle_type_id":"4","last_reported":1746914911,"current_range_meters":21600,"station_id":"ce4bgt92rcd13ifvqcf0","pricing_plan_id":"cebpf4jnsgd1na2vs0mg"},{"bike_id":"3f653555-0e96-4cb4-aa59-c4bbbba8e961","system_id":"levelo_inurba_marseille","lat":43.30128,"lon":5.39871,"is_reserved":false,"is_disabled":false,"rental_uris":{"android":"levelo://app?vid=3f653555-0e96-4cb4-aa59-c4bbbba8e961","ios":"levelo://app?vid=3f653555-0e96-4cb4-aa59-c4bbbba8e961"},"vehicle_type_id":"4","last_reported":1746914911,"current_range_meters":21600,"station_id":"ce4bh0h2rcd13ifvqd40","pricing_plan_id":"cebpf4jnsgd1na2vs0mg"},{"bike_id":"af331e3e-48ca-415c-a4d0-39d054a5f791","system_id":"levelo_inurba_marseille","lat":43.31534,"lon":5.3804,"is_reserved":false,"is_disabled":false,"rental_uris":{"android":"levelo://app?vid=af331e3e-48ca-415c-a4d0-39d054a5f791","ios":"levelo://app?vid=af331e3e-48ca-415c-a4d0-39d054a5f791"},"vehicle_type_id":"4","last_reported":1746914911,"current_range_meters":21600,"station_id":"ce4bhsp2rcd13ifvqi50","pricing_plan_id":"cebpf4jnsgd1na2vs0mg"},{"bike_id":"a3ccca99-1fdb-4331-8525-de051e28181f","system_id":"levelo_inurba_marseille","lat":43.289458,"lon":5.366288,"is_reserved":false,"is_disabled":true,"rental_uris":{"android":"levelo://app?vid=a3ccca99-1fdb-4331-8525-de051e28181f","ios":"levelo://app?vid=a3ccca99-1fdb-4331-8525-de051e28181f"},"vehicle_type_id":"4","last_reported":1746914911,"current_range_meters":21600,"station_id":"ce4bhap2rcd13ifvqek0","pricing_plan_id":"cebpf4jnsgd1na2vs0mg"},{"bike_id":"c37ca2b1-69dc-46e9-94be-7c01aebc93d5","system_id":"levelo_inurba_marseille","lat":43.303107,"lon":5.368966,"is_reserved":false,"is_disabled":false,"rental_uris":{"android":"levelo://app?vid=c37ca2b1-69dc-46e9-94be-7c01aebc93d5","ios":"levelo://app?vid=c37ca2b1-69dc-46e9-94be-7c01aebc93d5"},"vehicle_type_id":"4","last_reported":1746914911,"current_range_meters":22000,"station_id":"ce4bgqh2rcd13ifvqc5g","pricing_plan_id":"cebpf4jnsgd1na2vs0mg"},{"bike_id":"79de402e-0253-4264-aedc-4a57af084e0f","system_id":"levelo_inurba_marseille","lat":43.30436,"lon":5.3887,"is_reserved":false,"is_disabled":false,"rental_uris":{"android":"levelo://app?vid=79de402e-0253-4264-aedc-4a57af084e0f","ios":"levelo://app?vid=79de402e-0253-4264-aedc-4a57af084e0f"},"vehicle_type_id":"4","last_reported":1746914911,"current_range_meters":22000,"station_id":"ce4bgk12rcd13ifvqbi0","pricing_plan_id":"cebpf4jnsgd1na2vs0mg"},{"bike_id":"2fd9ad41-4c4c-42ba-a565-b6c6295e9ad9","system_id":"levelo_inurba_marseille","lat":43.29935,"lon":5.36537,"is_reserved":false,"is_disabled":false,"rental_uris":{"android":"levelo://app?vid=2fd9ad41-4c4c-42ba-a565-b6c6295e9ad9","ios":"levelo://app?vid=2fd9ad41-4c4c-42ba-a565-b6c6295e9ad9"},"vehicle_type_id":"4","last_reported":1746914911,"current_range_meters":22000,"station_id":"ce4bgm92rcd13ifvqbr0","pricing_plan_id":"cebpf4jnsgd1na2vs0mg"},{"bike_id":"5211a971-cb36-4b30-875d-22c81ec60ebd","system_id":"levelo_inurba_marseille","lat":43.29259,"lon":5.38425,"is_reserved":false,"is_disabled":false,"rental_uris":{"android":"levelo://app?vid=5211a971-cb36-4b30-875d-22c81ec60ebd","ios":"levelo://app?vid=5211a971-cb36-4b30-875d-22c81ec60ebd"},"vehicle_type_id":"4","last_reported":1746914911,"current_range_meters":22000,"station_id":"ce4bh692rcd13ifvqea0","pricing_plan_id":"cebpf4jnsgd1na2vs0mg"},{"bike_id":"515b7289-c269-42c2-bfd2-08c8df009c33","system_id":"levelo_inurba_marseille","lat":43.29517,"lon":5.39042,"is_reserved":false,"is_disabled":false,"rental_uris":{"android":"levelo://app?vid=515b7289-c269-42c2-bfd2-08c8df009c33","ios":"levelo://app?vid=515b7289-c269-42c2-bfd2-08c8df009c33"},"vehicle_type_id":"4","last_reported":1746914911,"current_range_meters":22400,"station_id":"ce4bh3p2rcd13ifvqdp0","pricing_plan_id":"cebpf4jnsgd1na2vs0mg"},{"bike_id":"d9e07bd5-57a6-4db1-b4a4-9133ec0c3a86","system_id":"levelo_inurba_marseille","lat":43.2799,"lon":5.41656,"is_reserved":false,"is_disabled":false,"rental_uris":{"android":"levelo://app?vid=d9e07bd5-57a6-4db1-b4a4-9133ec0c3a86","ios":"levelo://app?vid=d9e07bd5-57a6-4db1-b4a4-9133ec0c3a86"},"vehicle_type_id":"4","last_reported":1746914911,"current_range_meters":22400,"station_id":"ce4bho12rcd13ifvqh1g","pricing_plan_id":"cebpf4jnsgd1na2vs0mg"},{"bike_id":"a3270441-b57d-466d-835f-4acba3fe7db1","system_id":"levelo_inurba_marseille","lat":43.29265,"lon":5.38452,"is_reserved":false,"is_disabled":false,"rental_uris":{"android":"levelo://app?vid=a3270441-b57d-466d-835f-4acba3fe7db1","ios":"levelo://app?vid=a3270441-b57d-466d-835f-4acba3fe7db1"},"vehicle_type_id":"4","last_reported":1746914911,"current_range_meters":22400,"station_id":"ce4bh692rcd13ifvqea0","pricing_plan_id":"cebpf4jnsgd1na2vs0mg"},