{"last_updated":1710885988,"ttl":30,"version":"2.2","data":{"bikes":[{"bike_id":"6449c81a-2ad0-4a58-b026-e9b61cda0e7e","system_id":"levelo_inurba_marseille","lat":43.313661,"lon":5.367362,"is_reserved":false,"is_disabled":false,"rental_uris":{"android":"levelo://app?vid=6449c81a-2ad0-4a58-b026-e9b61cda0e7e","ios":"levelo://app?vid=6449c81a-2ad0-4a58-b026-e9b61cda0e7e"},"vehicle_type_id":"4","last_reported":1710885988,"current_range_meters":0,"station_id":"ce4bgr92rcd13ifvqc6g","pricing_plan_id":"cebpf4jnsgd1na2vs0mg"},{"bike_id":"7b9ad78f-f7d9-4ab6-9173-4c09e4d7b833","system_id":"levelo_inurba_marseille","lat":43.312218,"lon":5.368518,"is_reserved":false,"is_disabled":false,"rental_uris":{"android":"levelo://app?vid=7b9ad78f-f7d9-4ab6-9173-4c09e4d7b833","ios":"levelo://app?vid=7b9ad78f-f7d9-4ab6-9173-4c09e4d7b833"},"vehicle_type_id":"4","last_reported":1710885988,"current_range_meters":0,"station_id":"ce4bgl92rcd13ifvqbq0","pricing_plan_id":"cebpf4jnsgd1na2vs0mg"},{"bike_id":"a80b1b29-5c8a-4114-b22a-138937724ae7","system_id":"levelo_inurba_marseille","lat":43.312239,"lon":5.368562,"is_reserved":false,"is_disabled":false,"rental_uris":{"android":"levelo://app?vid=a80b1b29-5c8a-4114-b22a-138937724ae7","ios":"levelo://app?vid=a80b1b29-5c8a-4114-b22a-138937724ae7"},"vehicle_type_id":"4","last_reported":1710885988,"current_range_meters":18800,"station_id":"ce4bgl92rcd13ifvqbq0","pricing_plan_id":"cebpf4jnsgd1na2vs0mg"},{"bike_id":"ccaa5dfa-b9df-4d70-be5f-6bba0900f3b5","system_id":"levelo_inurba_marseille","lat":43.312239,"lon":5.368562,"is_reserved":false,"is_disabled":false,"rental_uris":{"android":"levelo://app?vid=ccaa5dfa-b9df-4d70-be5f-6bba0900f3b5","ios":"levelo://app?vid=ccaa5dfa-b9df-4d70-be5f-6bba0900f3b5"},"vehicle_type_id":"4","last_reported":1710885988,"current_range_meters":20400,"station_id":"ce4bgl92rcd13ifvqbq0","pricing_plan_id":"cebpf4jnsgd1na2vs0mg"},{"bike_id":"2d0b5a3c-05bc-4a50-92eb-8fcebaf2855b","system_id":"levelo_inurba_marseille","lat":43.309091,"lon":5.368497,"is_reserved":false,"is_disabled":false,"rental_uris":{"android":"levelo://app?vid=2d0b5a3c-05bc-4a50-92eb-8fcebaf2855b","ios":"levelo://app?vid=2d0b5a3c-05bc-4a50-92eb-8fcebaf2855b"},"vehicle_type_id":"4","last_reported":1710885988,"current_range_meters":6400,"station_id":"ce4bgn92rcd13ifvqbvg","pricing_plan_id":"cebpf4jnsgd1na2vs0mg"},{"bike_id":"5da35b18-e415-4840-9821-4fb2472c673c","system_id":"levelo_inurba_marseille","lat":43.309076,"lon":5.368465,"is_reserved":false,"is_disabled":false,"rental_uris":{"android":"levelo://app?vid=5da35b18-e415-4840-9821-4fb2472c673c","ios":"levelo://app?vid=5da35b18-e415-4840-9821-4fb2472c673c"},"vehicle_type_id":"4","last_reported":1710885988,"current_range_meters":21200,"station_id":"ce4bgn92rcd13ifvqbvg","pricing_plan_id":"cebpf4jnsgd1na2vs0mg"},{"bike_id":"90e27834-b568-4582-af67-941d1e7938e5","system_id":"levelo_inurba_marseille","lat":43.309076,"lon":5.368465,"is_reserved":false,"is_disabled":false,"rental_uris":{"android":"levelo://app?vid=90e27834-b568-4582-af67-941d1e7938e5","ios":"levelo://app?vid=90e27834-b568-4582-af67-941d1e7938e5"},"vehicle_type_id":"4","last_reported":1710885988,"current_range_meters":6800,"station_id":"ce4bgn92rcd13ifvqbvg","pricing_plan_id":"cebpf4jnsgd1na2vs0mg"},{"bike_id":"305db590-7bee-4b23-8ccf-8135cfb54d47","system_id":"levelo_inurba_marseille","lat":43.314811,"lon":5.373103,"is_reserved":false,"is_disabled":false,"rental_uris":{"android":"levelo://app?vid=305db590-7bee-4b23-8ccf-8135cfb54d47","ios":"levelo://app?vid=305db590-7bee-4b23-8ccf-8135cfb54d47"},"vehicle_type_id":"4","last_reported":1710885988,"current_range_meters":5600,"station_id":"ce4bgt12rcd13ifvqcd0","pricing_plan_id":"cebpf4jnsgd1na2vs0mg"},{"bike_id":"df8e0c27-dfed-469f-a38e-37c53095b8f1","system_id":"levelo_inurba_marseille","lat":43.314811,"lon":5.373103,"is_reserved":false,"is_disabled":false,"rental_uris":{"android":"levelo://app?vid=df8e0c27-dfed-469f-a38e-37c53095b8f1","ios":"levelo://app?vid=df8e0c27-dfed-469f-a38e-37c53095b8f1"},"vehicle_type_id":"4","last_reported":1710885988,"current_range_meters":10400,"station_id":"ce4bgt12rcd13ifvqcd0","pricing_plan_id":"cebpf4jnsgd1na2vs0mg"},{"bike_id":"8b104ccd-84a2-4df6-bd9e-4b950306c72c","system_id":"levelo_inurba_marseille","lat":43.314811,"lon":5.373103,"is_reserved":false,"is_disabled":false,"rental_uris":{"android":"levelo://app?vid=8b104ccd-84a2-4df6-bd9e-4b950306c72c","ios":"levelo://app?vid=8b104ccd-84a2-4df6-bd9e-4b950306c72c"},"vehicle_type_id":"4","last_reported":1710885988,"current_range_meters":800,"station_id":"ce4bgt12rcd13ifvqcd0","pricing_plan_id":"cebpf4jnsgd1na2vs0mg"},{"bike_id":"07a463a4-4f6c-47c0-9476-fbef81ef646d","system_id":"levelo_inurba_marseille","lat":43.314811,"lon":5.373104,"is_reserved":false,"is_disabled":false,"rental_uris":{"android":"levelo://app?vid=07a463a4-4f6c-47c0-9476-fbef81ef646d","ios":"levelo://app?vid=07a463a4-4f6c-47c0-9476-fbef81ef646d"},"vehicle_type_id":"4","last_reported":1710885988,"current_range_meters":11600,"station_id":"ce4bgt12rcd13ifvqcd0","pricing_plan_id":"cebpf4jnsgd1na2vs0mg"},{"bike_id":"3b5f9334-a1a5-4eb8-8ffa-c8c7603cd1e2","system_id":"levelo_inurba_marseille","lat":43.314811,"lon":5.373104,"is_reserved":false,"is_disabled":false,"rental_uris":{"android":"levelo://app?vid=3b5f9334-a1a5-4eb8-8ffa-c8c7603cd1e2","ios":"levelo://app?vid=3b5f9334-a1a5-4eb8-8ffa-c8c7603cd1e2"},"vehicle_type_id":"4","last_reported":1710885988,"current_range_meters":18400,"station_id":"ce4bgt12rcd13ifvqcd0","pricing_plan_id":"cebpf4jnsgd1na2vs0mg"},{"bike_id":"c6d55b97-a26a-42ba-9339-a1a9cb9d7c20","system_id":"levelo_inurba_marseille","lat":43.309034,"lon":5.371783,"is_reserved":false,"is_disabled":false,"rental_uris":{"android":"levelo://app?vid=c6d55b97-a26a-42ba-9339-a1a9cb9d7c20","ios":"levelo://app?vid=c6d55b97-a26a-42ba-9339-a1a9cb9d7c20"},"vehicle_type_id":"4","last_reported":1710885988,"current_range_meters":10000,"station_id":"ce4bguh2rcd13ifvqckg","pricing_plan_id":"cebpf4jnsgd1na2vs0mg"},{"bike_id":"e732a779-d392-4468-8b17-4cedc67cb563","system_id":"levelo_inurba_marseille","lat":43.309034,"lon":5.371783,"is_reserved":false,"is_disabled":false,"rental_uris":{"android":"levelo://app?vid=e732a779-d392-4468-8b17-4cedc67cb563","ios":"levelo://app?vid=e732a779-d392-4468-8b17-4cedc67cb563"},"vehicle_type_id":"4","last_reported":1710885988,"current_range_meters":8400,"station_id":"ce4bguh2rcd13ifvqckg","pricing_plan_id":"cebpf4jnsgd1na2vs0mg"},{"bike_id":"336bddec-5e1f-4041-8ef0-e3686bc5f85e","system_id":"levelo_inurba_marseille","lat":43.305706,"lon":5.365654,"is_reserved":false,"is_disabled":false,"rental_uris":{"android":"levelo://app?vid=336bddec-5e1f-4041-8ef0-e3686bc5f85e","ios":"levelo://app?vid=336bddec-5e1f-4041-8ef0-e3686bc5f85e"},"vehicle_type_id":"4","last_reported":1710885988,"current_range_meters":6400,"station_id":"ce4bgs12rcd13ifvqcag","pricing_plan_id":"cebpf4jnsgd1na2vs0mg"},{"bike_id":"7eb7f5d1-1f4d-4620-a7c0-6d624c01769f","system_id":"levelo_inurba_marseille","lat":43.305368,"lon":5.367343,"is_reserved":false,"is_disabled":false,"rental_uris":{"android":"levelo://app?vid=7eb7f5d1-1f4d-4620-a7c0-6d624c01769f","ios":"levelo://app?vid=7eb7f5d1-1f4d-4620-a7c0-6d624c01769f"},"vehicle_type_id":"4","last_reported":1710885988,"current_range_meters":0,"station_id":"ce4bgrp2rcd13ifvqc9g","pricing_plan_id":"cebpf4jnsgd1na2vs0mg"},{"bike_id":"2cced892-2477-4dbe-b3eb-e673517e786b","system_id":"levelo_inurba_marseille","lat":43.305706,"lon":5.365654,"is_reserved":false,"is_disabled":false,"rental_uris":{"android":"levelo://app?vid=2cced892-2477-4dbe-b3eb-e673517e786b","ios":"levelo://app?vid=2cced892-2477-4dbe-b3eb-e673517e786b"},"vehicle_type_id":"4","last_reported":1710885988,"current_range_meters":6400,"station_id":"ce4bgs12rcd13ifvqcag","pricing_plan_id":"cebpf4jnsgd1na2vs0mg"},{"bike_id":"cb40106c-7cde-4662-9cbf-d15f070f8bf5","system_id":"levelo_inurba_marseille","lat":43.305989,"lon":5.37225,"is_reserved":false,"is_disabled":false,"rental_uris":{"android":"levelo://app?vid=cb40106c-7cde-4662-9cbf-d15f070f8bf5","ios":"levelo://app?vid=cb40106c-7cde-4662-9cbf-d15f070f8bf5"},"vehicle_type_id":"4","last_reported":1710885988,"current_range_meters":8400,"station_id":"ce4bgqh2rcd13ifvqc4g","pricing_plan_id":"cebpf4jnsgd1na2vs0mg"},{"bike_id":"008c6b36-4cdd-442c-8c46-ab8dfdfef631","system_id":"levelo_inurba_marseille","lat":43.305989,"lon":5.37225,"is_reserved":false,"is_disabled":false,"rental_uris":{"android":"levelo://app?vid=008c6b36-4cdd-442c-8c46-ab8dfdfef631","ios":"levelo://app?vid=008c6b36-4cdd-442c-8c46-ab8dfdfef631"},"vehicle_type_id":"4","last_reported":1710885988,"current_range_meters":4800,"station_id":"ce4bgqh2rcd13ifvqc4g","pricing_plan_id":"cebpf4jnsgd1na2vs0mg"},{"bike_id":"94c1c2a8-afc7-451d-a53f-648600c186a8","system_id":"levelo_inurba_marseille","lat":43.306,"lon":5.37232,"is_reserved":false,"is_disabled":false,"rental_uris":{"android":"levelo://app?vid=94c1c2a8-afc7-451d-a53f-648600c186a8","ios":"levelo://app?vid=94c1c2a8-afc7-451d-a53f-648600c186a8"},"vehicle_type_id":"4","last_reported":1710885988,"current_range_meters":15200,"station_id":"ce4bgqh2rcd13ifvqc4g","pricing_plan_id":"cebpf4jnsgd1na2vs0mg"},{"bike_id":"0f9aed33-35f7-4414-ae6a-61b99ca0e2c1","system_id":"levelo_inurba_marseille","lat":43.31113,"lon":5.377755,"is_reserved":false,"is_disabled":false,"rental_uris":{"android":"levelo://app?vid=0f9aed33-35f7-4414-ae6a-61b99ca0e2c1","ios":"levelo://app?vid=0f9aed33-35f7-4414-ae6a-61b99ca0e2c1"},"vehicle_type_id":"4","last_reported":1710885988,"current_range_meters":0,"station_id":"ce4bgt92rcd13ifvqcg0","pricing_plan_id":"cebpf4jnsgd1na2vs0mg"},{"bike_id":"1f342fa6-2174-444e-bf0a-ee1becdd16d7","system_id":"levelo_inurba_marseille","lat":43.317075,"lon":5.377367,"is_reserved":false,"is_disabled":false,"rental_uris":{"android":"levelo://app?vid=1f342fa6-2174-444e-bf0a-ee1becdd16d7","ios":"levelo://app?vid=1f342fa6-2174-444e-bf0a-ee1becdd16d7"},"vehicle_type_id":"4","last_reported":1710885988,"current_range_meters":14000,"station_id":"ce4bgth2rcd13ifvqch0","pricing_plan_id":"cebpf4jnsgd1na2vs0mg"},{"bike_id":"3dade923-d49a-498b-a84a-7ecb87699f07","system_id":"levelo_inurba_marseille","lat":43.32088,"lon":5.37305,"is_reserved":false,"is_disabled":false,"rental_uris":{"android":"levelo://app?vid=3dade923-d49a-498b-a84a-7ecb87699f07","ios":"levelo://app?vid=3dade923-d49a-498b-a84a-7ecb87699f07"},"vehicle_type_id":"4","last_reported":1710885988,"current_range_meters":10400,"station_id":"","pricing_plan_id":"cebpf4jnsgd1na2vs0mg"},{"bike_id":"17ffe6dc-1f73-40cd-abe7-e8711907f397","system_id":"levelo_inurba_marseille","lat":43.303046,"lon":5.368981,"is_reserved":false,"is_disabled":false,"rental_uris":{"android":"levelo://app?vid=17ffe6dc-1f73-40cd-abe7-e8711907f397","ios":"levelo://app?vid=17ffe6dc-1f73-40cd-abe7-e8711907f397"},"vehicle_type_id":"4","last_reported":1710885988,"current_range_meters":4800,"station_id":"ce4bgqh2rcd13ifvqc5g","pricing_plan_id":"cebpf4jnsgd1na2vs0mg"},{"bike_id":"ff9678c9-b195-4700-967e-29c1f7349ad5","system_id":"levelo_inurba_marseille","lat":43.303046,"lon":5.368981,"is_reserved":false,"is_disabled":false,"rental_uris":{"android":"levelo://app?vid=ff9678c9-b195-4700-967e-29c1f7349ad5","ios":"levelo://app?vid=ff9678c9-b195-4700-967e-29c1f7349ad5"},"vehicle_type_id":"4","last_reported":1710885988,"current_range_meters":16400,"station_id":"ce4bgqh2rcd13ifvqc5g","pricing_plan_id":"cebpf4jnsgd1na2vs0mg"},{"bike_id":"dc2c51b7-6a1f-4ed5-958a-ec118ad1eda5","system_id":"levelo_inurba_marseille","lat":43.303046,"lon":5.368981,"is_reserved":false,"is_disabled":false,"rental_uris":{"android":"levelo://app?vid=dc2c51b7-6a1f-4ed5-958a-ec118ad1eda5","ios":"levelo://app?vid=dc2c51b7-6a1f-4ed5-958a-ec118ad1eda5"},"vehicle_type_id":"4","last_reported":1710885988,"current_range_meters":25200,"station_id":"ce4bgqh2rcd13ifvqc5g","pricing_plan_id":"cebpf4jnsgd1na2vs0mg"},{"bike_id":"e4d67ee0-98a9-4d5f-9305-07f0a9c963b1","system_id":"levelo_inurba_marseille","lat":43.30307,"lon":5.369013,"is_reserved":false,"is_disabled":false,"rental_uris":{"android":"levelo://app?vid=e4d67ee0-98a9-4d5f-9305-07f0a9c963b1","ios":"levelo://app?vid=e4d67ee0-98a9-4d5f-9305-07f0a9c963b1"},"vehicle_type_id":"4","last_reported":1710885988,"current_range_meters":12800,"station_id":"ce4bgqh2rcd13ifvqc5g","pricing_plan_id":"cebpf4jnsgd1na2vs0mg"},{"bike_id":"d036cacc-961e-4ffe-a33c-5159ea8a7a53","system_id":"levelo_inurba_marseille","lat":43.315289,"lon":5.380349,"is_reserved":false,"is_disabled":false,"rental_uris":{"android":"levelo://app?vid=d036cacc-961e-4ffe-a33c-5159ea8a7a53","ios":"levelo://app?vid=d036cacc-961e-4ffe-a33c-5159ea8a7a53"},"vehicle_type_id":"4","last_reported":1710885988,"current_range_meters":6800,"station_id":"ce4bhsp2rcd13ifvqi50","pricing_plan_id":"cebpf4jnsgd1na2vs0mg"},{"bike_id":"c5c3eea8-b433-4577-9fc2-29faa758d1d1","system_id":"levelo_inurba_marseille","lat":43.315289,"lon":5.380349,"is_reserved":false,"is_disabled":false,"rental_uris":{"android":"levelo://app?vid=c5c3eea8-b433-4577-9fc2-29faa758d1d1","ios":"levelo://app?vid=c5c3eea8-b433-4577-9fc2-29faa758d1d1"},"vehicle_type_id":"4","last_reported":1710885988,"current_range_meters":10000,"station_id":"ce4bhsp2rcd13ifvqi50","pricing_plan_id":"cebpf4jnsgd1na2vs0mg"},{"bike_id":"5319447b-a428-4bc3-bdc0-d6347848242f","system_id":"levelo_inurba_marseille","lat":43.301939,"lon":5.366286,"is_reserved":false,"is_disabled":false,"rental_uris":{"android":"levelo://app?vid=5319447b-a428-4bc3-bdc0-d6347848242f","ios":"levelo://app?vid=5319447b-a428-4bc3-bdc0-d6347848242f"},"vehicle_type_id":"4","last_reported":1710885988,"current_range_meters":2800,"station_id":"ce4bgrh2rcd13ifvqc8g","pricing_plan_id":"cebpf4jnsgd1na2vs0mg"},{"bike_id":"f2531723-de05-4add-afa7-eecce0b8ff53","system_id":"levelo_inurba_marseille","lat":43.301939,"lon":5.366286,"is_reserved":false,"is_disabled":false,"rental_uris":{"android":"levelo://app?vid=f2531723-de05-4add-afa7-eecce0b8ff53","ios":"levelo://app?vid=f2531723-de05-4add-afa7-eecce0b8ff53"},"vehicle_type_id":"4","last_reported":1710885988,"current_range_meters":15200,"station_id":"ce4bgrh2rcd13ifvqc8g","pricing_plan_id":"cebpf4jnsgd1na2vs0mg"},{"bike_id":"02c2449b-2dfa-4501-b476-2d56c02781d9","system_id":"levelo_inurba_marseille","lat":43.301939,"lon":5.366286,"is_reserved":false,"is_disabled":false,"rental_uris":{"android":"levelo://app?vid=02c2449b-2dfa-4501-b476-2d56c02781d9","ios":"levelo://app?vid=02c2449b-2dfa-4501-b476-2d56c02781d9"},"vehicle_type_id":"4","last_reported":1710885988,"current_range_meters":3200,"station_id":"ce4bgrh2rcd13ifvqc8g","pricing_plan_id":"cebpf4jnsgd1na2vs0mg"},{"bike_id":"cb2e7148-bf4b-4a51-870d-56beefe53c6b","system_id":"levelo_inurba_marseille","lat":43.301939,"lon":5.366286,"is_reserved":false,"is_disabled":false,"rental_uris":{"android":"levelo://app?vid=cb2e7148-bf4b-4a51-870d-56beefe53c6b","ios":"levelo://app?vid=cb2e7148-bf4b-4a51-870d-56beefe53c6b"},"vehicle_type_id":"4","last_reported":1710885988,"current_range_meters":12000,"station_id":"ce4bgrh2rcd13ifvqc8g","pricing_plan_id":"cebpf4jnsgd1na2vs0mg"},{"bike_id":"c14ab8b6-0be8-4c6a-ae98-8a2b5e813492","system_id":"levelo_inurba_marseille","lat":43.30802,"lon":5.381518,"is_reserved":false,"is_disabled":false,"rental_uris":{"android":"levelo://app?vid=c14ab8b6-0be8-4c6a-ae98-8a2b5e813492","ios":"levelo://app?vid=c14ab8b6-0be8-4c6a-ae98-8a2b5e813492"},"vehicle_type_id":"4","last_reported":1710885988,"current_range_meters":0,"station_id":"ce4bgt12rcd13ifvqce0","pricing_plan_id":"cebpf4jnsgd1na2vs0mg"},{"bike_id":"3ae5378f-d0c3-4da6-a75b-9153df2d48da","system_id":"levelo_inurba_marseille","lat":43.304606,"lon":5.379026,"is_reserved":false,"is_disabled":false,"rental_uris":{"android":"levelo://app?vid=3ae5378f-d0c3-4da6-a75b-9153df2d48da","ios":"levelo://app?vid=3ae5378f-d0c3-4da6-a75b-9153df2d48da"},"vehicle_type_id":"4","last_reported":1710885988,"current_range_meters":0,"station_id":"ce4bgup2rcd13ifvqcn0","pricing_plan_id":"cebpf4jnsgd1na2vs0mg"},{"bike_id":"3b81e612-f122-40e2-96dc-88acbeb4b7e4","system_id":"levelo_inurba_marseille","lat":43.304606,"lon":5.379026,"is_reserved":false,"is_disabled":false,"rental_uris":{"android":"levelo://app?vid=3b81e612-f122-40e2-96dc-88acbeb4b7e4","ios":"levelo://app?vid=3b81e612-f122-40e2-96dc-88acbeb4b7e4"},"vehicle_type_id":"4","last_reported":1710885988,"current_range_meters":11200,"station_id":"ce4bgup2rcd13ifvqcn0","pricing_plan_id":"cebpf4jnsgd1na2vs0mg"},{"bike_id":"dfb23a97-220f-4c7b-b652-18457fa994fa","system_id":"levelo_inurba_marseille","lat":43.304606,"lon":5.379026,"is_reserved":false,"is_disabled":false,"rental_uris":{"android":"levelo://app?vid=dfb23a97-220f-4c7b-b652-18457fa994fa","ios":"levelo://app?vid=dfb23a97-220f-4c7b-b652-18457fa994fa"},"vehicle_type_id":"4","last_reported":1710885988,"current_range_meters":6800,"station_id":"ce4bgup2rcd13ifvqcn0","pricing_plan_id":"cebpf4jnsgd1na2vs0mg"},{"bike_id":"b8a22ab7-89b0-42af-b1d1-f3eb05f1c229","system_id":"levelo_inurba_marseille","lat":43.304606,"lon":5.379026,"is_reserved":false,"is_disabled":false,"rental_uris":{"android":"levelo://app?vid=b8a22ab7-89b0-42af-b1d1-f3eb05f1c229","ios":"levelo://app?vid=b8a22ab7-89b0-42af-b1d1-f3eb05f1c229"},"vehicle_type_id":"4","last_reported":1710885988,"current_range_meters":13600,"station_id":"ce4bgup2rcd13ifvqcn0","pricing_plan_id":"cebpf4jnsgd1na2vs0mg"},{"bike_id":"578b4115-6e9e-4c6d-a2e8-d17e58d1b65b","system_id":"levelo_inurba_marseille","lat":43.32476,"lon":5.36562,"is_reserved":false,"is_disabled":false,"rental_uris":{"android":"levelo://app?vid=578b4115-6e9e-4c6d-a2e8-d17e58d1b65b","ios":"levelo://app?vid=578b4115-6e9e-4c6d-a2e8-d17e58d1b65b"},"vehicle_type_id":"4","last_reported":1710885988,"current_range_meters":12800,"station_id":"ce4bhs12rcd13ifvqhvg","pricing_plan_id":"cebpf4jnsgd1na2vs0mg"},{"bike_id":"78035174-21d1-4135-b9d3-4451b7739307","system_id":"levelo_inurba_marseille","lat":43.324771,"lon":5.36557,"is_reserved":false,"is_disabled":false,"rental_uris":{"android":"levelo://app?vid=78035174-21d1-4135-b9d3-4451b7739307","ios":"levelo://app?vid=78035174-21d1-4135-b9d3-4451b7739307"},"vehicle_type_id":"4","last_reported":1710885988,"current_range_meters":6800,"station_id":"ce4bhs12rcd13ifvqhvg","pricing_plan_id":"cebpf4jnsgd1na2vs0mg"},{"bike_id":"e2ddb4fc-b0c9-4d33-b415-1f98d69b5bb8","system_id":"levelo_inurba_marseille","lat":43.324771,"lon":5.36557,"is_reserved":false,"is_disabled":false,"rental_uris":{"android":"levelo://app?vid=e2ddb4fc-b0c9-4d33-b415-1f98d69b5bb8","ios":"levelo://app?vid=e2ddb4fc-b0c9-4d33-b415-1f98d69b5bb8"},"vehicle_type_id":"4","last_reported":1710885988,"current_range_meters":16000,"station_id":"ce4bhs12rcd13ifvqhvg","pricing_plan_id":"cebpf4jnsgd1na2vs0mg"},{"bike_id":"c56abe9e-fc19-466b-bdf4-4cfcb46f0dd3","system_id":"levelo_inurba_marseille","lat":43.324771,"lon":5.36557,"is_reserved":false,"is_disabled":false,"rental_uris":{"android":"levelo://app?vid=c56abe9e-fc19-466b-bdf4-4cfcb46f0dd3","ios":"levelo://app?vid=c56abe9e-fc19-466b-bdf4-4cfcb46f0dd3"},"vehicle_type_id":"4","last_reported":1710885988,"current_range_meters":5200,"station_id":"ce4bhs12rcd13ifvqhvg","pricing_plan_id":"cebpf4jnsgd1na2vs0mg"},{"bike_id":"1bd4942d-a6ee-47f2-b0eb-7b019f50f5ca","system_id":"levelo_inurba_marseille","lat":43.324771,"lon":5.36557,"is_reserved":false,"is_disabled":false,"rental_uris":{"android":"levelo://app?vid=1bd4942d-a6ee-47f2-b0eb-7b019f50f5ca","ios":"levelo://app?vid=1bd4942d-a6ee-47f2-b0eb-7b019f50f5ca"},"vehicle_type_id":"4","last_reported":1710885988,"current_range_meters":1600,"station_id":"ce4bhs12rcd13ifvqhvg","pricing_plan_id":"cebpf4jnsgd1na2vs0mg"},{"bike_id":"2e3fb9e7-1f93-4eeb-932d-7631c96cb308","system_id":"levelo_inurba_marseille","lat":43.324771,"lon":5.36557,"is_reserved":false,"is_disabled":false,"rental_uris":{"android":"levelo://app?vid=2e3fb9e7-1f93-4eeb-932d-7631c96cb308","ios":"levelo://app?vid=2e3fb9e7-1f93-4eeb-932d-7631c96cb308"},"vehicle_type_id":"4","last_reported":1710885988,"current_range_meters":2400,"station_id":"ce4bhs12rcd13ifvqhvg","pricing_plan_id":"cebpf4jnsgd1na2vs0mg"},{"bike_id":"d8638a15-dd12-49ad-a0d1-a12405f695be","system_id":"levelo_inurba_marseille","lat":43.324771,"lon":5.36557,"is_reserved":false,"is_disabled":false,"rental_uris":{"android":"levelo://app?vid=d8638a15-dd12-49ad-a0d1-a12405f695be","ios":"levelo://app?vid=d8638a15-dd12-49ad-a0d1-a12405f695be"},"vehicle_type_id":"4","last_reported":1710885988,"current_range_meters":2000,"station_id":"ce4bhs12rcd13ifvqhvg","pricing_plan_id":"cebpf4jnsgd1na2vs0mg"},{"bike_id":"1d39258a-f28b-4365-bfde-15bf09b2ec85","system_id":"levelo_inurba_marseille","lat":43.324771,"lon":5.36557,"is_reserved":false,"is_disabled":false,"rental_uris":{"android":"levelo://app?vid=1d39258a-f28b-4365-bfde-15bf09b2ec85","ios":"levelo://app?vid=1d39258a-f28b-4365-bfde-15bf09b2ec85"},"vehicle_type_id":"4","last_reported":1710885988,"current_range_meters":13600,"station_id":"ce4bhs12rcd13ifvqhvg","pricing_plan_id":"cebpf4jnsgd1na2vs0mg"},{"bike_id":"4107dd61-d16e-48f1-924d-0ba0714cc309","system_id":"levelo_inurba_marseille","lat":43.310804,"lon":5.38359,"is_reserved":false,"is_disabled":false,"rental_uris":{"android":"levelo://app?vid=4107dd61-d16e-48f1-924d-0ba0714cc309","ios":"levelo://app?vid=4107dd61-d16e-48f1-924d-0ba0714cc309"},"vehicle_type_id":"4","last_reported":1710885988,"current_range_meters":24000,"station_id":"ce4bgv92rcd13ifvqcr0","pricing_plan_id":"cebpf4jnsgd1na2vs0mg"},{"bike_id":"5eefe0ca-6757-4cd5-b65c-bfe7c2722862","system_id":"levelo_inurba_marseille","lat":43.310804,"lon":5.38359,"is_reserved":false,"is_disabled":false,"rental_uris":{"android":"levelo://app?vid=5eefe0ca-6757-4cd5-b65c-bfe7c2722862","ios":"levelo://app?vid=5eefe0ca-6757-4cd5-b65c-bfe7c2722862"},"vehicle_type_id":"4","last_reported":1710885988,"current_range_meters":0,"station_id":"ce4bgv92rcd13ifvqcr0","pricing_plan_id":"cebpf4jnsgd1na2vs0mg"},{"bike_id":"f594fa0e-841c-4ad0-8038-9b7f2e3a6443","system_id":"levelo_inurba_marseille","lat":43.310804,"lon":5.38359,"is_reserved":false,"is_disabled":false,"rental_uris":{"android":"levelo://app?vid=f594fa0e-841c-4ad0-8038-9b7f2e3a6443","ios":"levelo://app?vid=f594fa0e-841c-4ad0-8038-9b7f2e3a6443"},"vehicle_type_id":"4","last_reported":1710885988,"current_range_meters":18000,"station_id":"ce4bgv92rcd13ifvqcr0","pricing_plan_id":"cebpf4jnsgd1na2vs0mg"},{"bike_id":"fb52cfb3-a142-4515-bdea-73eef794cd03","system_id":"levelo_inurba_marseille","lat":43.310663,"lon":5.38354,"is_reserved":false,"is_disabled":false,"rental_uris":{"android":"levelo://app?vid=fb52cfb3-a142-4515-bdea-73eef794cd03","ios":"levelo://app?vid=fb52cfb3-a142-4515-bdea-73eef794cd03"},"vehicle_type_id":"4","last_reported":1710885988,"current_range_meters":18000,"station_id":"","pricing_plan_id":"cebpf4jnsgd1na2vs0mg"},{"bike_id":"3a2e0ea9-0656-42c8-b911-ee19a4dbbf8e","system_id":"levelo_inurba_marseille","lat":43.319935,"lon":5.381699,"is_reserved":false,"is_disabled":false,"rental_uris":{"android":"levelo://app?vid=3a2e0ea9-0656-42c8-b911-ee19a4dbbf8e","ios":"levelo://app?vid=3a2e0ea9-0656-42c8-b911-ee19a4dbbf8e"},"vehicle_type_id":"4","last_reported":1710885988,"current_range_meters":16400,"station_id":"ce4bhr12rcd13ifvqhpg","pricing_plan_id":"cebpf4jnsgd1na2vs0mg"},{"bike_id":"90f8a9e8-274f-4ad0-9d3d-5cd343f7045b","system_id":"levelo_inurba_marseille","lat":43.319935,"lon":5.381699,"is_reserved":false,"is_disabled":false,"rental_uris":{"android":"levelo://app?vid=90f8a9e8-274f-4ad0-9d3d-5cd343f7045b","ios":"levelo://app?vid=90f8a9e8-274f-4ad0-9d3d-5cd343f7045b"},"vehicle_type_id":"4","last_reported":1710885988,"current_range_meters":11200,"station_id":"ce4bhr12rcd13ifvqhpg","pricing_plan_id":"cebpf4jnsgd1na2vs0mg"},{"bike_id":"be83824f-cd7e-44ed-bda3-89905b40ab1f","system_id":"levelo_inurba_marseille","lat":43.319991,"lon":5.381458,"is_reserved":false,"is_disabled":false,"rental_uris":{"android":"levelo://app?vid=be83824f-cd7e-44ed-bda3-89905b40ab1f","ios":"levelo://app?vid=be83824f-cd7e-44ed-bda3-89905b40ab1f"},"vehicle_type_id":"4","last_reported":1710885988,"current_range_meters":5600,"station_id":"ce4bhr12rcd13ifvqhpg","pricing_plan_id":"cebpf4jnsgd1na2vs0mg"},{"bike_id":"652ab8f5-04d5-4b3c-9479-97e3d0427748","system_id":"levelo_inurba_marseille","lat":43.319935,"lon":5.381699,"is_reserved":false,"is_disabled":false,"rental_uris":{"android":"levelo://app?vid=652ab8f5-04d5-4b3c-9479-97e3d0427748","ios":"levelo://app?vid=652ab8f5-04d5-4b3c-9479-97e3d0427748"},"vehicle_type_id":"4","last_reported":1710885988,"current_range_meters":19200,"station_id":"ce4bhr12rcd13ifvqhpg","pricing_plan_id":"cebpf4jnsgd1na2vs0mg"},{"bike_id":"1d88780d-f1c4-41b5-8b98-17c48fd33c14","system_id":"levelo_inurba_marseille","lat":43.319935,"lon":5.381699,"is_reserved":false,"is_disabled":false,"rental_uris":{"android":"levelo://app?vid=1d88780d-f1c4-41b5-8b98-17c48fd33c14","ios":"levelo://app?vid=1d88780d-f1c4-41b5-8b98-17c48fd33c14"},"vehicle_type_id":"4","last_reported":1710885988,"current_range_meters":6400,"station_id":"ce4bhr12rcd13ifvqhpg","pricing_plan_id":"cebpf4jnsgd1na2vs0mg"},{"bike_id":"3bf418cf-8c93-441a-80ae-e4e659e91213","system_id":"levelo_inurba_marseille","lat":43.319985,"lon":5.381485,"is_reserved":false,"is_disabled":false,"rental_uris":{"android":"levelo://app?vid=3bf418cf-8c93-441a-80ae-e4e659e91213","ios":"levelo://app?vid=3bf418cf-8c93-441a-80ae-e4e659e91213"},"vehicle_type_id":"4","last_reported":1710885988,"current_range_meters":13200,"station_id":"ce4bhr12rcd13ifvqhpg","pricing_plan_id":"cebpf4jnsgd1na2vs0mg"},{"bike_id":"e6634cf6-29a9-4f1f-8487-418450787096","system_id":"levelo_inurba_marseille","lat":43.319935,"lon":5.381699,"is_reserved":false,"is_disabled":false,"rental_uris":{"android":"levelo://app?vid=e6634cf6-29a9-4f1f-8487-418450787096","ios":"levelo://app?vid=e6634cf6-29a9-4f1f-8487-418450787096"},"vehicle_type_id":"4","last_reported":1710885988,"current_range_meters":4000,"station_id":"ce4bhr12rcd13ifvqhpg","pricing_plan_id":"cebpf4jnsgd1na2vs0mg"},{"bike_id":"59b83d62-1d91-4918-8b47-9a9a1d917eb3","system_id":"levelo_inurba_marseille","lat":43.319935,"lon":5.381699,"is_reserved":false,"is_disabled":false,"rental_uris":{"android":"levelo://app?vid=59b83d62-1d91-4918-8b47-9a9a1d917eb3","ios":"levelo://app?vid=59b83d62-1d91-4918-8b47-9a9a1d917eb3"},"vehicle_type_id":"4","last_reported":1710885988,"current_range_meters":7200,"station_id":"ce4bhr12rcd13ifvqhpg","pricing_plan_id":"cebpf4jnsgd1na2vs0mg"},{"bike_id":"56deea52-3409-4459-bbcc-ac4bede94f11","system_id":"levelo_inurba_marseille","lat":43.319935,"lon":5.381699,"is_reserved":false,"is_disabled":false,"rental_uris":{"android":"levelo://app?vid=56deea52-3409-4459-bbcc-ac4bede94f11","ios":"levelo://app?vid=56deea52-3409-4459-bbcc-ac4bede94f11"},"vehicle_type_id":"4","last_reported":1710885988,"current_range_meters":29600,"station_id":"ce4bhr12rcd13ifvqhpg","pricing_plan_id":"cebpf4jnsgd1na2vs0mg"},{"bike_id":"7b5bc8eb-efd3-4dcf-ba18-ec8fb109820e","system_id":"levelo_inurba_marseille","lat":43.313571,"lon":5.384829,"is_reserved":false,"is_disabled":false,"rental_uris":{"android":"levelo://app?vid=7b5bc8eb-efd3-4dcf-ba18-ec8fb109820e","ios":"levelo://app?vid=7b5bc8eb-efd3-4dcf-ba18-ec8fb109820e"},"vehicle_type_id":"4","last_reported":1710885988,"current_range_meters":20800,"station_id":"ce4bgt92rcd13ifvqcf0","pricing_plan_id":"cebpf4jnsgd1na2vs0mg"},{"bike_id":"fc61d34b-156e-45c2-b499-92005df6167a","system_id":"levelo_inurba_marseille","lat":43.313571,"lon":5.384829,"is_reserved":false,"is_disabled":false,"rental_uris":{"android":"levelo://app?vid=fc61d34b-156e-45c2-b499-92005df6167a","ios":"levelo://app?vid=fc61d34b-156e-45c2-b499-92005df6167a"},"vehicle_type_id":"4","last_reported":1710885988,"current_range_meters":27600,"station_id":"ce4bgt92rcd13ifvqcf0","pricing_plan_id":"cebpf4jnsgd1na2vs0mg"},{"bike_id":"cf81f418-d1f2-4496-9faf-53e77cfa58b3","system_id":"levelo_inurba_marseille","lat":43.313571,"lon":5.384829,"is_reserved":false,"is_disabled":false,"rental_uris":{"android":"levelo://app?vid=cf81f418-d1f2-4496-9faf-53e77cfa58b3","ios":"levelo://app?vid=cf81f418-d1f2-4496-9faf-53e77cfa58b3"},"vehicle_type_id":"4","last_reported":1710885988,"current_range_meters":10800,"station_id":"ce4bgt92rcd13ifvqcf0","pricing_plan_id":"cebpf4jnsgd1na2vs0mg"},{"bike_id":"a840b457-6d1e-4fc8-a31b-b6fd29861943","system_id":"levelo_inurba_marseille","lat":43.313571,"lon":5.384829,"is_reserved":false,"is_disabled":false,"rental_uris":{"android":"levelo://app?vid=a840b457-6d1e-4fc8-a31b-b6fd29861943","ios":"levelo://app?vid=a840b457-6d1e-4fc8-a31b-b6fd29861943"},"vehicle_type_id":"4","last_reported":1710885988,"current_range_meters":24000,"station_id":"ce4bgt92rcd13ifvqcf0","pricing_plan_id":"cebpf4jnsgd1na2vs0mg"},{"bike_id":"3fde04d2-1225-4417-8faa-52988958fdf0","system_id":"levelo_inurba_marseille","lat":43.299243,"lon":5.37481,"is_reserved":false,"is_disabled":false,"rental_uris":{"android":"levelo://app?vid=3fde04d2-1225-4417-8faa-52988958fdf0","ios":"levelo://app?vid=3fde04d2-1225-4417-8faa-52988958fdf0"},"vehicle_type_id":"4","last_reported":1710885988,"current_range_meters":2800,"station_id":"ce4bgjh2rcd13ifvqbg0","pricing_plan_id":"cebpf4jnsgd1na2vs0mg"},{"bike_id":"4f1a25d6-2c86-4750-b17c-4dc523da943b","system_id":"levelo_inurba_marseille","lat":43.299243,"lon":5.374807,"is_reserved":false,"is_disabled":false,"rental_uris":{"android":"levelo://app?vid=4f1a25d6-2c86-4750-b17c-4dc523da943b","ios":"levelo://app?vid=4f1a25d6-2c86-4750-b17c-4dc523da943b"},"vehicle_type_id":"4","last_reported":1710885988,"current_range_meters":15200,"station_id":"ce4bgjh2rcd13ifvqbg0","pricing_plan_id":"cebpf4jnsgd1na2vs0mg"},{"bike_id":"6ad8227b-3ac8-4643-9a0d-599bfca79dc4","system_id":"levelo_inurba_marseille","lat":43.311722,"lon":5.387247,"is_reserved":false,"is_disabled":false,"rental_uris":{"android":"levelo://app?vid=6ad8227b-3ac8-4643-9a0d-599bfca79dc4","ios":"levelo://app?vid=6ad8227b-3ac8-4643-9a0d-599bfca79dc4"},"vehicle_type_id":"4","last_reported":1710885988,"current_range_meters":6400,"station_id":"ce4bgv12rcd13ifvqcp0","pricing_plan_id":"cebpf4jnsgd1na2vs0mg"},{"bike_id":"50c24b02-11c8-46a0-bed9-c645233a3f60","system_id":"levelo_inurba_marseille","lat":43.311722,"lon":5.387247,"is_reserved":false,"is_disabled":false,"rental_uris":{"android":"levelo://app?vid=50c24b02-11c8-46a0-bed9-c645233a3f60","ios":"levelo://app?vid=50c24b02-11c8-46a0-bed9-c645233a3f60"},"vehicle_type_id":"4","last_reported":1710885988,"current_range_meters":0,"station_id":"ce4bgv12rcd13ifvqcp0","pricing_plan_id":"cebpf4jnsgd1na2vs0mg"},{"bike_id":"26d7716e-b16c-456f-849b-20c16721eb41","system_id":"levelo_inurba_marseille","lat":43.311722,"lon":5.387247,"is_reserved":false,"is_disabled":false,"rental_uris":{"android":"levelo://app?vid=26d7716e-b16c-456f-849b-20c16721eb41","ios":"levelo://app?vid=26d7716e-b16c-456f-849b-20c16721eb41"},"vehicle_type_id":"4","last_reported":1710885988,"current_range_meters":18000,"station_id":"ce4bgv12rcd13ifvqcp0","pricing_plan_id":"cebpf4jnsgd1na2vs0mg"},{"bike_id":"d8c7fcfb-914b-44da-91f2-4eaa9c1fa16a","system_id":"levelo_inurba_marseille","lat":43.29788,"lon":5.371,"is_reserved":false,"is_disabled":false,"rental_uris":{"android":"levelo://app?vid=d8c7fcfb-914b-44da-91f2-4eaa9c1fa16a","ios":"levelo://app?vid=d8c7fcfb-914b-44da-91f2-4eaa9c1fa16a"},"vehicle_type_id":"4","last_reported":1710885988,"current_range_meters":12000,"station_id":"","pricing_plan_id":"cebpf4jnsgd1na2vs0mg"},{"bike_id":"feead7e7-9cee-4c57-94a6-da647512767c","system_id":"levelo_inurba_marseille","lat":43.322896,"lon":5.382515,"is_reserved":false,"is_disabled":false,"rental_uris":{"android":"levelo://app?vid=feead7e7-9cee-4c57-94a6-da647512767c","ios":"levelo://app?vid=feead7e7-9cee-4c57-94a6-da647512767c"},"vehicle_type_id":"4","last_reported":1710885988,"current_range_meters":21200,"station_id":"ce4bhr12rcd13ifvqhqg","pricing_plan_id":"cebpf4jnsgd1na2vs0mg"},{"bike_id":"40920d67-a293-48ed-a3d6-e0e6bc1e2c92","system_id":"levelo_inurba_marseille","lat":43.322937,"lon":5.382511,"is_reserved":false,"is_disabled":false,"rental_uris":{"android":"levelo://app?vid=40920d67-a293-48ed-a3d6-e0e6bc1e2c92","ios":"levelo://app?vid=40920d67-a293-48ed-a3d6-e0e6bc1e2c92"},"vehicle_type_id":"4","last_reported":1710885988,"current_range_meters":4800,"station_id":"ce4bhr12rcd13ifvqhqg","pricing_plan_id":"cebpf4jnsgd1na2vs0mg"},{"bike_id":"8805e5c2-5ebc-4d17-aa66-b7acbedf72f2","system_id":"levelo_inurba_marseille","lat":43.32283,"lon":5.38268,"is_reserved":false,"is_disabled":false,"rental_uris":{"android":"levelo://app?vid=8805e5c2-5ebc-4d17-aa66-b7acbedf72f2","ios":"levelo://app?vid=8805e5c2-5ebc-4d17-aa66-b7acbedf72f2"},"vehicle_type_id":"4","last_reported":1710885988,"current_range_meters":3200,"station_id":"ce4bhr12rcd13ifvqhqg","pricing_plan_id":"cebpf4jnsgd1na2vs0mg"},{"bike_id":"5f8b4803-e4ba-4452-a9f1-55c7a87b5d2b","system_id":"levelo_inurba_marseille","lat":43.32289,"lon":5.38261,"is_reserved":false,"is_disabled":false,"rental_uris":{"android":"levelo://app?vid=5f8b4803-e4ba-4452-a9f1-55c7a87b5d2b","ios":"levelo://app?vid=5f8b4803-e4ba-4452-a9f1-55c7a87b5d2b"},"vehicle_type_id":"4","last_reported":1710885988,"current_range_meters":16000,"station_id":"ce4bhr12rcd13ifvqhqg","pricing_plan_id":"cebpf4jnsgd1na2vs0mg"},{"bike_id":"f32c3800-2880-49c9-b647-144d107e7f9a","system_id":"levelo_inurba_marseille","lat":43.322881,"lon":5.382636,"is_reserved":false,"is_disabled":false,"rental_uris":{"android":"levelo://app?vid=f32c3800-2880-49c9-b647-144d107e7f9a","ios":"levelo://app?vid=f32c3800-2880-49c9-b647-144d107e7f9a"},"vehicle_type_id":"4","last_reported":1710885988,"current_range_meters":25200,"station_id":"ce4bhr12rcd13ifvqhqg","pricing_plan_id":"cebpf4jnsgd1na2vs0mg"},{"bike_id":"62e90e97-975b-4b7d-879f-5a0c84df8cc7","system_id":"levelo_inurba_marseille","lat":43.322915,"lon":5.382605,"is_reserved":false,"is_disabled":false,"rental_uris":{"android":"levelo://app?vid=62e90e97-975b-4b7d-879f-5a0c84df8cc7","ios":"levelo://app?vid=62e90e97-975b-4b7d-879f-5a0c84df8cc7"},"vehicle_type_id":"4","last_reported":1710885988,"current_range_meters":5600,"station_id":"ce4bhr12rcd13ifvqhqg","pricing_plan_id":"cebpf4jnsgd1na2vs0mg"},{"bike_id":"ba23170a-19ea-4496-9826-26157cb68722","system_id":"levelo_inurba_marseille","lat":43.322872,"lon":5.382756,"is_reserved":false,"is_disabled":false,"rental_uris":{"android":"levelo://app?vid=ba23170a-19ea-4496-9826-26157cb68722","ios":"levelo://app?vid=ba23170a-19ea-4496-9826-26157cb68722"},"vehicle_type_id":"4","last_reported":1710885988,"current_range_meters":24400,"station_id":"ce4bhr12rcd13ifvqhqg","pricing_plan_id":"cebpf4jnsgd1na2vs0mg"},{"bike_id":"77653936-6795-4644-9bbf-81f59777308c","system_id":"levelo_inurba_marseille","lat":43.32287,"lon":5.382666,"is_reserved":false,"is_disabled":false,"rental_uris":{"android":"levelo://app?vid=77653936-6795-4644-9bbf-81f59777308c","ios":"levelo://app?vid=77653936-6795-4644-9bbf-81f59777308c"},"vehicle_type_id":"4","last_reported":1710885988,"current_range_meters":0,"station_id":"ce4bhr12rcd13ifvqhqg","pricing_plan_id":"cebpf4jnsgd1na2vs0mg"},{"bike_id":"36727d06-0af4-4c64-88de-4193d3d2494b","system_id":"levelo_inurba_marseille","lat":43.32285,"lon":5.38271,"is_reserved":false,"is_disabled":false,"rental_uris":{"android":"levelo://app?vid=36727d06-0af4-4c64-88de-4193d3d2494b","ios":"levelo://app?vid=36727d06-0af4-4c64-88de-4193d3d2494b"},"vehicle_type_id":"4","last_reported":1710885988,"current_range_meters":15200,"station_id":"ce4bhr12rcd13ifvqhqg","pricing_plan_id":"cebpf4jnsgd1na2vs0mg"},{"bike_id":"bd6b6545-b45a-4dc0-b743-d330ab6c2563","system_id":"levelo_inurba_marseille","lat":43.32291,"lon":5.38264,"is_reserved":false,"is_disabled":false,"rental_uris":{"android":"levelo://app?vid=bd6b6545-b45a-4dc0-b743-d330ab6c2563","ios":"levelo://app?vid=bd6b6545-b45a-4dc0-b743-d330ab6c2563"},"vehicle_type_id":"4","last_reported":1710885988,"current_range_meters":29600,"station_id":"ce4bhr12rcd13ifvqhqg","pricing_plan_id":"cebpf4jnsgd1na2vs0mg"},{"bike_id":"accb2f69-ca20-4b2f-9b54-89cf5f810bdd","system_id":"levelo_inurba_marseille","lat":43.32293,"lon":5.38263,"is_reserved":false,"is_disabled":false,"rental_uris":{"android":"levelo://app?vid=accb2f69-ca20-4b2f-9b54-89cf5f810bdd","ios":"levelo://app?vid=accb2f69-ca20-4b2f-9b54-89cf5f810bdd"},"vehicle_type_id":"4","last_reported":1710885988,"current_range_meters":24000,"station_id":"ce4bhr12rcd13ifvqhqg","pricing_plan_id":"cebpf4jnsgd1na2vs0mg"},{"bike_id":"3ff125a5-dff1-4591-b6cc-449dc2424878","system_id":"levelo_inurba_marseille","lat":43.32289,"lon":5.38269,"is_reserved":false,"is_disabled":false,"rental_uris":{"android":"levelo://app?vid=3ff125a5-dff1-4591-b6cc-449dc2424878","ios":"levelo://app?vid=3ff125a5-dff1-4591-b6cc-449dc2424878"},"vehicle_type_id":"4","last_reported":1710885988,"current_range_meters":17600,"station_id":"ce4bhr12rcd13ifvqhqg","pricing_plan_id":"cebpf4jnsgd1na2vs0mg"},{"bike_id":"4f4a75fa-11e1-4b9c-9fc5-7e2938322638","system_id":"levelo_inurba_marseille","lat":43.32292,"lon":5.38267,"is_reserved":false,"is_disabled":false,"rental_uris":{"android":"levelo://app?vid=4f4a75fa-11e1-4b9c-9fc5-7e2938322638","ios":"levelo://app?vid=4f4a75fa-11e1-4b9c-9fc5-7e2938322638"},"vehicle_type_id":"4","last_reported":1710885988,"current_range_meters":25600,"station_id":"ce4bhr12rcd13ifvqhqg","pricing_plan_id":"cebpf4jnsgd1na2vs0mg"},{"bike_id":"eddeac31-d118-4f00-9fae-66dd1f398919","system_id":"levelo_inurba_marseille","lat":43.32287,"lon":5.38275,"is_reserved":false,"is_disabled":false,"rental_uris":{"android":"levelo://app?vid=eddeac31-d118-4f00-9fae-66dd1f398919","ios":"levelo://app?vid=eddeac31-d118-4f00-9fae-66dd1f398919"},"vehicle_type_id":"4","last_reported":1710885988,"current_range_meters":6800,"station_id":"ce4bhr12rcd13ifvqhqg","pricing_plan_id":"cebpf4jnsgd1na2vs0mg"},{"bike_id":"f0516476-e3a2-4c66-b71c-c566b7ec1fc0","system_id":"levelo_inurba_marseille","lat":43.32288,"lon":5.38275,"is_reserved":false,"is_disabled":false,"rental_uris":{"android":"levelo://app?vid=f0516476-e3a2-4c66-b71c-c566b7ec1fc0","ios":"levelo://app?vid=f0516476-e3a2-4c66-b71c-c566b7ec1fc0"},"vehicle_type_id":"4","last_reported":1710885988,"current_range_meters":26800,"station_id":"ce4bhr12rcd13ifvqhqg","pricing_plan_id":"cebpf4jnsgd1na2vs0mg"},{"bike_id":"85d4d71c-b2c1-426a-b0b8-be8461195f7e","system_id":"levelo_inurba_marseille","lat":43.322872,"lon":5.382756,"is_reserved":false,"is_disabled":false,"rental_uris":{"android":"levelo://app?vid=85d4d71c-b2c1-426a-b0b8-be8461195f7e","ios":"levelo://app?vid=85d4d71c-b2c1-426a-b0b8-be8461195f7e"},"vehicle_type_id":"4","last_reported":1710885988,"current_range_meters":31600,"station_id":"ce4bhr12rcd13ifvqhqg","pricing_plan_id":"cebpf4jnsgd1na2vs0mg"},{"bike_id":"f15b0355-2112-4631-980d-d37c34e26c81","system_id":"levelo_inurba_marseille","lat":43.322872,"lon":5.382756,"is_reserved":false,"is_disabled":false,"rental_uris":{"android":"levelo://app?vid=f15b0355-2112-4631-980d-d37c34e26c81","ios":"levelo://app?vid=f15b0355-2112-4631-980d-d37c34e26c81"},"vehicle_type_id":"4","last_reported":1710885988,"current_range_meters":21200,"station_id":"ce4bhr12rcd13ifvqhqg","pricing_plan_id":"cebpf4jnsgd1na2vs0mg"},{"bike_id":"91866b6c-0f1d-4595-a374-74c3f3fe3718","system_id":"levelo_inurba_marseille","lat":43.32291,"lon":5.38274,"is_reserved":false,"is_disabled":false,"rental_uris":{"android":"levelo://app?vid=91866b6c-0f1d-4595-a374-74c3f3fe3718","ios":"levelo://app?vid=91866b6c-0f1d-4595-a374-74c3f3fe3718"},"vehicle_type_id":"4","last_reported":1710885988,"current_range_meters":3600,"station_id":"ce4bhr12rcd13ifvqhqg","pricing_plan_id":"cebpf4jnsgd1na2vs0mg"},{"bike_id":"3f897b5a-cdff-4477-8cbe-02af1e3040aa","system_id":"levelo_inurba_marseille","lat":43.3229,"lon":5.38276,"is_reserved":false,"is_disabled":false,"rental_uris":{"android":"levelo://app?vid=3f897b5a-cdff-4477-8cbe-02af1e3040aa","ios":"levelo://app?vid=3f897b5a-cdff-4477-8cbe-02af1e3040aa"},"vehicle_type_id":"4","last_reported":1710885988,"current_range_meters":3200,"station_id":"ce4bhr12rcd13ifvqhqg","pricing_plan_id":"cebpf4jnsgd1na2vs0mg"},{"bike_id":"fe2c0272-b23e-47ab-9983-08819dc287f5","system_id":"levelo_inurba_marseille","lat":43.322872,"lon":5.382756,"is_reserved":false,"is_disabled":false,"rental_uris":{"android":"levelo://app?vid=fe2c0272-b23e-47ab-9983-08819dc287f5","ios":"levelo://app?vid=fe2c0272-b23e-47ab-9983-08819dc287f5"},"vehicle_type_id":"4","last_reported":1710885988,"current_range_meters":12400,"station_id":"ce4bhr12rcd13ifvqhqg","pricing_plan_id":"cebpf4jnsgd1na2vs0mg"},{"bike_id":"2e3cfbc4-2591-412d-946c-a756b7107de3","system_id":"levelo_inurba_marseille","lat":43.2968,"lon":5.37291,"is_reserved":false,"is_disabled":false,"rental_uris":{"android":"levelo://app?vid=2e3cfbc4-2591-412d-946c-a756b7107de3","ios":"levelo://app?vid=2e3cfbc4-2591-412d-946c-a756b7107de3"},"vehicle_type_id":"4","last_reported":1710885988,"current_range_meters":24800,"station_id":"ce4bgk12rcd13ifvqbj0","pricing_plan_id":"cebpf4jnsgd1na2vs0mg"},{"bike_id":"e82068a2-4702-4347-aadc-2585b1163aa6","system_id":"levelo_inurba_marseille","lat":43.30974,"lon":5.38991,"is_reserved":false,"is_disabled":false,"rental_uris":{"android":"levelo://app?vid=e82068a2-4702-4347-aadc-2585b1163aa6","ios":"levelo://app?vid=e82068a2-4702-4347-aadc-2585b1163aa6"},"vehicle_type_id":"4","last_reported":1710885988,"current_range_meters":0,"station_id":"ce4bgup2rcd13ifvqco0","pricing_plan_id":"cebpf4jnsgd1na2vs0mg"},{"bike_id":"6c43850e-595f-4bd0-a28c-48d0a9207e31","system_id":"levelo_inurba_marseille","lat":43.299028,"lon":5.381509,"is_reserved":false,"is_disabled":false,"rental_uris":{"android":"levelo://app?vid=6c43850e-595f-4bd0-a28c-48d0a9207e31","ios":"levelo://app?vid=6c43850e-595f-4bd0-a28c-48d0a9207e31"},"vehicle_type_id":"4","last_reported":1710885988,"current_range_meters":2000,"station_id":"ce4bgj12rcd13ifvqbc0","pricing_plan_id":"cebpf4jnsgd1na2vs0mg"},{"bike_id":"c081ea61-27b0-449e-bc7a-51c15342ced6","system_id":"levelo_inurba_marseille","lat":43.296921,"lon":5.376579,"is_reserved":false,"is_disabled":false,"rental_uris":{"android":"levelo://app?vid=c081ea61-27b0-449e-bc7a-51c15342ced6","ios":"levelo://app?vid=c081ea61-27b0-449e-bc7a-51c15342ced6"},"vehicle_type_id":"4","last_reported":1710885988,"current_range_meters":27600,"station_id":"ce4bgkh2rcd13ifvqbl0","pricing_plan_id":"cebpf4jnsgd1na2vs0mg"},{"bike_id":"8670aed4-c9f4-448e-9b81-bcbdf8d797c0","system_id":"levelo_inurba_marseille","lat":43.30955,"lon":5.39027,"is_reserved":false,"is_disabled":false,"rental_uris":{"android":"levelo://app?vid=8670aed4-c9f4-448e-9b81-bcbdf8d797c0","ios":"levelo://app?vid=8670aed4-c9f4-448e-9b81-bcbdf8d797c0"},"vehicle_type_id":"4","last_reported":1710885988,"current_range_meters":2000,"station_id":"","pricing_plan_id":"cebpf4jnsgd1na2vs0mg"},{"bike_id":"7ca0c1ad-62ba-4747-9301-1d19b557c75f","system_id":"levelo_inurba_marseille","lat":43.309589,"lon":5.390258,"is_reserved":false,"is_disabled":false,"rental_uris":{"android":"levelo://app?vid=7ca0c1ad-62ba-4747-9301-1d19b557c75f","ios":"levelo://app?vid=7ca0c1ad-62ba-4747-9301-1d19b557c75f"},"vehicle_type_id":"4","last_reported":1710885988,"current_range_meters":17600,"station_id":"ce4bgup2rcd13ifvqco0","pricing_plan_id":"cebpf4jnsgd1na2vs0mg"},{"bike_id":"1706af1f-ebdd-4b2a-b6d6-4c87f030ae7d","system_id":"levelo_inurba_marseille","lat":43.309589,"lon":5.390258,"is_reserved":false,"is_disabled":false,"rental_uris":{"android":"levelo://app?vid=1706af1f-ebdd-4b2a-b6d6-4c87f030ae7d","ios":"levelo://app?vid=1706af1f-ebdd-4b2a-b6d6-4c87f030ae7d"},"vehicle_type_id":"4","last_reported":1710885988,"current_range_meters":3600,"station_id":"ce4bgup2rcd13ifvqco0","pricing_plan_id":"cebpf4jnsgd1na2vs0mg"},{"bike_id":"853db477-f31a-466e-8ad9-0832a1e41cb2","system_id":"levelo_inurba_marseille","lat":43.317557,"lon":5.390173,"is_reserved":false,"is_disabled":false,"rental_uris":{"android":"levelo://app?vid=853db477-f31a-466e-8ad9-0832a1e41cb2","ios":"levelo://app?vid=853db477-f31a-466e-8ad9-0832a1e41cb2"},"vehicle_type_id":"4","last_reported":1710885988,"current_range_meters":28800,"station_id":"ce4bhqp2rcd13ifvqhng","pricing_plan_id":"cebpf4jnsgd1na2vs0mg"},{"bike_id":"abfcce25-6301-4e4f-abdb-06281e7cafdf","system_id":"levelo_inurba_marseille","lat":43.317557,"lon":5.390173,"is_reserved":false,"is_disabled":false,"rental_uris":{"android":"levelo://app?vid=abfcce25-6301-4e4f-abdb-06281e7cafdf","ios":"levelo://app?vid=abfcce25-6301-4e4f-abdb-06281e7cafdf"},"vehicle_type_id":"4","last_reported":1710885988,"current_range_meters":2400,"station_id":"ce4bhqp2rcd13ifvqhng","pricing_plan_id":"cebpf4jnsgd1na2vs0mg"},{"bike_id":"add7f8ca-ceb2-4a3d-b852-c4ebd3cce13c","system_id":"levelo_inurba_marseille","lat":43.31753,"lon":5.39017,"is_reserved":false,"is_disabled":false,"rental_uris":{"android":"levelo://app?vid=add7f8ca-ceb2-4a3d-b852-c4ebd3cce13c","ios":"levelo://app?vid=add7f8ca-ceb2-4a3d-b852-c4ebd3cce13c"},"vehicle_type_id":"4","last_reported":1710885988,"current_range_meters":9600,"station_id":"ce4bhqp2rcd13ifvqhng","pricing_plan_id":"cebpf4jnsgd1na2vs0mg"},{"bike_id":"d953640e-f2c8-4259-b6c4-199d9789e936","system_id":"levelo_inurba_marseille","lat":43.317557,"lon":5.390173,"is_reserved":false,"is_disabled":false,"rental_uris":{"android":"levelo://app?vid=d953640e-f2c8-4259-b6c4-199d9789e936","ios":"levelo://app?vid=d953640e-f2c8-4259-b6c4-199d9789e936"},"vehicle_type_id":"4","last_reported":1710885988,"current_range_meters":9200,"station_id":"ce4bhqp2rcd13ifvqhng","pricing_plan_id":"cebpf4jnsgd1na2vs0mg"},{"bike_id":"ca944068-2655-453d-8f07-5da02e5def12","system_id":"levelo_inurba_marseille","lat":43.317557,"lon":5.390173,"is_reserved":false,"is_disabled":false,"rental_uris":{"android":"levelo://app?vid=ca944068-2655-453d-8f07-5da02e5def12","ios":"levelo://app?vid=ca944068-2655-453d-8f07-5da02e5def12"},"vehicle_type_id":"4","last_reported":1710885988,"current_range_meters":31200,"station_id":"ce4bhqp2rcd13ifvqhng","pricing_plan_id":"cebpf4jnsgd1na2vs0mg"},{"bike_id":"379c24a9-8b39-4998-b57a-e7bc51d2ee41","system_id":"levelo_inurba_marseille","lat":43.317557,"lon":5.390173,"is_reserved":false,"is_disabled":false,"rental_uris":{"android":"levelo://app?vid=379c24a9-8b39-4998-b57a-e7bc51d2ee41","ios":"levelo://app?vid=379c24a9-8b39-4998-b57a-e7bc51d2ee41"},"vehicle_type_id":"4","last_reported":1710885988,"current_range_meters":2400,"station_id":"ce4bhqp2rcd13ifvqhng","pricing_plan_id":"cebpf4jnsgd1na2vs0mg"},{"bike_id":"ba7fb15e-941b-4dd0-8924-dfb2cd68f7b2","system_id":"levelo_inurba_marseille","lat":43.317557,"lon":5.390173,"is_reserved":false,"is_disabled":false,"rental_uris":{"android":"levelo://app?vid=ba7fb15e-941b-4dd0-8924-dfb2cd68f7b2","ios":"levelo://app?vid=ba7fb15e-941b-4dd0-8924-dfb2cd68f7b2"},"vehicle_type_id":"4","last_reported":1710885988,"current_range_meters":0,"station_id":"ce4bhqp2rcd13ifvqhng","pricing_plan_id":"cebpf4jnsgd1na2vs0mg"},{"bike_id":"93d9c109-c481-4ecb-a79a-fb131d53b975","system_id":"levelo_inurba_marseille","lat":43.298013,"lon":5.380793,"is_reserved":false,"is_disabled":false,"rental_uris":{"android":"levelo://app?vid=93d9c109-c481-4ecb-a79a-fb131d53b975","ios":"levelo://app?vid=93d9c109-c481-4ecb-a79a-fb131d53b975"},"vehicle_type_id":"4","last_reported":1710885988,"current_range_meters":0,"station_id":"ce4bgip2rcd13ifvqbb0","pricing_plan_id":"cebpf4jnsgd1na2vs0mg"},{"bike_id":"4048b976-7181-490e-9baa-afb9d2f10287","system_id":"levelo_inurba_marseille","lat":43.298037,"lon":5.381066,"is_reserved":false,"is_disabled":false,"rental_uris":{"android":"levelo://app?vid=4048b976-7181-490e-9baa-afb9d2f10287","ios":"levelo://app?vid=4048b976-7181-490e-9baa-afb9d2f10287"},"vehicle_type_id":"4","last_reported":1710885988,"current_range_meters":3600,"station_id":"ce4bgip2rcd13ifvqbb0","pricing_plan_id":"cebpf4jnsgd1na2vs0mg"},{"bike_id":"6125e59e-7926-4e98-b800-ab9d42042e15","system_id":"levelo_inurba_marseille","lat":43.30451,"lon":5.3888,"is_reserved":false,"is_disabled":false,"rental_uris":{"android":"levelo://app?vid=6125e59e-7926-4e98-b800-ab9d42042e15","ios":"levelo://app?vid=6125e59e-7926-4e98-b800-ab9d42042e15"},"vehicle_type_id":"4","last_reported":1710885988,"current_range_meters":31200,"station_id":"ce4bgk12rcd13ifvqbi0","pricing_plan_id":"cebpf4jnsgd1na2vs0mg"},{"bike_id":"ac50a14c-a94f-4f1b-a93d-aae3a00752c0","system_id":"levelo_inurba_marseille","lat":43.295748,"lon":5.37522,"is_reserved":false,"is_disabled":false,"rental_uris":{"android":"levelo://app?vid=ac50a14c-a94f-4f1b-a93d-aae3a00752c0","ios":"levelo://app?vid=ac50a14c-a94f-4f1b-a93d-aae3a00752c0"},"vehicle_type_id":"4","last_reported":1710885988,"current_range_meters":8000,"station_id":"ce4bgh92rcd13ifvqb50","pricing_plan_id":"cebpf4jnsgd1na2vs0mg"},{"bike_id":"b7b14a15-f54e-4a4a-baa4-2dfc781a70cc","system_id":"levelo_inurba_marseille","lat":43.304396,"lon":5.38883,"is_reserved":false,"is_disabled":false,"rental_uris":{"android":"levelo://app?vid=b7b14a15-f54e-4a4a-baa4-2dfc781a70cc","ios":"levelo://app?vid=b7b14a15-f54e-4a4a-baa4-2dfc781a70cc"},"vehicle_type_id":"4","last_reported":1710885988,"current_range_meters":6800,"station_id":"ce4bgk12rcd13ifvqbi0","pricing_plan_id":"cebpf4jnsgd1na2vs0mg"},{"bike_id":"9ea7937e-a300-4ddf-8412-6df18e3c77b5","system_id":"levelo_inurba_marseille","lat":43.30431,"lon":5.38878,"is_reserved":false,"is_disabled":false,"rental_uris":{"android":"levelo://app?vid=9ea7937e-a300-4ddf-8412-6df18e3c77b5","ios":"levelo://app?vid=9ea7937e-a300-4ddf-8412-6df18e3c77b5"},"vehicle_type_id":"4","last_reported":1710885988,"current_range_meters":29200,"station_id":"ce4bgk12rcd13ifvqbi0","pricing_plan_id":"cebpf4jnsgd1na2vs0mg"},{"bike_id":"ea834482-a810-430f-8cc3-10a666447f54","system_id":"levelo_inurba_marseille","lat":43.30433,"lon":5.3888,"is_reserved":false,"is_disabled":false,"rental_uris":{"android":"levelo://app?vid=ea834482-a810-430f-8cc3-10a666447f54","ios":"levelo://app?vid=ea834482-a810-430f-8cc3-10a666447f54"},"vehicle_type_id":"4","last_reported":1710885988,"current_range_meters":21600,"station_id":"ce4bgk12rcd13ifvqbi0","pricing_plan_id":"cebpf4jnsgd1na2vs0mg"},{"bike_id":"c9bc6ff4-27e4-4273-b0d7-7a63ce6218af","system_id":"levelo_inurba_marseille","lat":43.304278,"lon":5.388868,"is_reserved":false,"is_disabled":false,"rental_uris":{"android":"levelo://app?vid=c9bc6ff4-27e4-4273-b0d7-7a63ce6218af","ios":"levelo://app?vid=c9bc6ff4-27e4-4273-b0d7-7a63ce6218af"},"vehicle_type_id":"4","last_reported":1710885988,"current_range_meters":18400,"station_id":"ce4bgk12rcd13ifvqbi0","pricing_plan_id":"cebpf4jnsgd1na2vs0mg"},{"bike_id":"27763e8c-63cd-4473-ab4d-302621925369","system_id":"levelo_inurba_marseille","lat":43.30433,"lon":5.38888,"is_reserved":false,"is_disabled":false,"rental_uris":{"android":"levelo://app?vid=27763e8c-63cd-4473-ab4d-302621925369","ios":"levelo://app?vid=27763e8c-63cd-4473-ab4d-302621925369"},"vehicle_type_id":"4","last_reported":1710885988,"current_range_meters":6400,"station_id":"ce4bgk12rcd13ifvqbi0","pricing_plan_id":"cebpf4jnsgd1na2vs0mg"},{"bike_id":"6228a129-b8ee-439c-9879-8f13fa4e4b06","system_id":"levelo_inurba_marseille","lat":43.304315,"lon":5.388905,"is_reserved":false,"is_disabled":false,"rental_uris":{"android":"levelo://app?vid=6228a129-b8ee-439c-9879-8f13fa4e4b06","ios":"levelo://app?vid=6228a129-b8ee-439c-9879-8f13fa4e4b06"},"vehicle_type_id":"4","last_reported":1710885988,"current_range_meters":30800,"station_id":"ce4bgk12rcd13ifvqbi0","pricing_plan_id":"cebpf4jnsgd1na2vs0mg"},{"bike_id":"8faeec85-3a0e-408f-9911-9a30af793fd4","system_id":"levelo_inurba_marseille","lat":43.304285,"lon":5.388895,"is_reserved":false,"is_disabled":false,"rental_uris":{"android":"levelo://app?vid=8faeec85-3a0e-408f-9911-9a30af793fd4","ios":"levelo://app?vid=8faeec85-3a0e-408f-9911-9a30af793fd4"},"vehicle_type_id":"4","last_reported":1710885988,"current_range_meters":1200,"station_id":"ce4bgk12rcd13ifvqbi0","pricing_plan_id":"cebpf4jnsgd1na2vs0mg"},{"bike_id":"c36847ad-5c0d-4b9b-bd80-2ced0cf8a1c1","system_id":"levelo_inurba_marseille","lat":43.304278,"lon":5.388868,"is_reserved":false,"is_disabled":false,"rental_uris":{"android":"levelo://app?vid=c36847ad-5c0d-4b9b-bd80-2ced0cf8a1c1","ios":"levelo://app?vid=c36847ad-5c0d-4b9b-bd80-2ced0cf8a1c1"},"vehicle_type_id":"4","last_reported":1710885988,"current_range_meters":31200,"station_id":"ce4bgk12rcd13ifvqbi0","pricing_plan_id":"cebpf4jnsgd1na2vs0mg"},{"bike_id":"d542c32a-e4a1-43df-8663-be8fed679efe","system_id":"levelo_inurba_marseille","lat":43.30428,"lon":5.3889,"is_reserved":false,"is_disabled":false,"rental_uris":{"android":"levelo://app?vid=d542c32a-e4a1-43df-8663-be8fed679efe","ios":"levelo://app?vid=d542c32a-e4a1-43df-8663-be8fed679efe"},"vehicle_type_id":"4","last_reported":1710885988,"current_range_meters":14000,"station_id":"ce4bgk12rcd13ifvqbi0","pricing_plan_id":"cebpf4jnsgd1na2vs0mg"},{"bike_id":"99c89b05-60fb-443b-a639-be65c234fe2a","system_id":"levelo_inurba_marseille","lat":43.304278,"lon":5.388868,"is_reserved":false,"is_disabled":false,"rental_uris":{"android":"levelo://app?vid=99c89b05-60fb-443b-a639-be65c234fe2a","ios":"levelo://app?vid=99c89b05-60fb-443b-a639-be65c234fe2a"},"vehicle_type_id":"4","last_reported":1710885988,"current_range_meters":13200,"station_id":"ce4bgk12rcd13ifvqbi0","pricing_plan_id":"cebpf4jnsgd1na2vs0mg"},{"bike_id":"621b142a-f311-40e3-9d8b-9e588bf08bea","system_id":"levelo_inurba_marseille","lat":43.304278,"lon":5.388868,"is_reserved":false,"is_disabled":false,"rental_uris":{"android":"levelo://app?vid=621b142a-f311-40e3-9d8b-9e588bf08bea","ios":"levelo://app?vid=621b142a-f311-40e3-9d8b-9e588bf08bea"},"vehicle_type_id":"4","last_reported":1710885988,"current_range_meters":14000,"station_id":"ce4bgk12rcd13ifvqbi0","pricing_plan_id":"cebpf4jnsgd1na2vs0mg"},{"bike_id":"e5e2e68d-dcb8-4650-bfca-8ff246732b70","system_id":"levelo_inurba_marseille","lat":43.304278,"lon":5.388868,"is_reserved":false,"is_disabled":false,"rental_uris":{"android":"levelo://app?vid=e5e2e68d-dcb8-4650-bfca-8ff246732b70","ios":"levelo://app?vid=e5e2e68d-dcb8-4650-bfca-8ff246732b70"},"vehicle_type_id":"4","last_reported":1710885988,"current_range_meters":8000,"station_id":"ce4bgk12rcd13ifvqbi0","pricing_plan_id":"cebpf4jnsgd1na2vs0mg"},{"bike_id":"48f6435e-09d6-49ab-ac1b-eb0f6672591b","system_id":"levelo_inurba_marseille","lat":43.304278,"lon":5.388868,"is_reserved":false,"is_disabled":false,"rental_uris":{"android":"levelo://app?vid=48f6435e-09d6-49ab-ac1b-eb0f6672591b","ios":"levelo://app?vid=48f6435e-09d6-49ab-ac1b-eb0f6672591b"},"vehicle_type_id":"4","last_reported":1710885988,"current_range_meters":5600,"station_id":"ce4bgk12rcd13ifvqbi0","pricing_plan_id":"cebpf4jnsgd1na2vs0mg"},{"bike_id":"14e29ce6-5061-4362-93d0-b9c7277fcaa3","system_id":"levelo_inurba_marseille","lat":43.304278,"lon":5.388868,"is_reserved":false,"is_disabled":false,"rental_uris":{"android":"levelo://app?vid=14e29ce6-5061-4362-93d0-b9c7277fcaa3","ios":"levelo://app?vid=14e29ce6-5061-4362-93d0-b9c7277fcaa3"},"vehicle_type_id":"4","last_reported":1710885988,"current_range_meters":22000,"station_id":"ce4bgk12rcd13ifvqbi0","pricing_plan_id":"cebpf4jnsgd1na2vs0mg"},{"bike_id":"e9f37e65-fe5e-4f2d-bebe-5a9cf9cf1b76","system_id":"levelo_inurba_marseille","lat":43.304278,"lon":5.388868,"is_reserved":false,"is_disabled":false,"rental_uris":{"android":"levelo://app?vid=e9f37e65-fe5e-4f2d-bebe-5a9cf9cf1b76","ios":"levelo://app?vid=e9f37e65-fe5e-4f2d-bebe-5a9cf9cf1b76"},"vehicle_type_id":"4","last_reported":1710885988,"current_range_meters":25200,"station_id":"ce4bgk12rcd13ifvqbi0","pricing_plan_id":"cebpf4jnsgd1na2vs0mg"},{"bike_id":"1f07acfe-03eb-454d-ae59-2a785dfb1430","system_id":"levelo_inurba_marseille","lat":43.304278,"lon":5.388868,"is_reserved":false,"is_disabled":false,"rental_uris":{"android":"levelo://app?vid=1f07acfe-03eb-454d-ae59-2a785dfb1430","ios":"levelo://app?vid=1f07acfe-03eb-454d-ae59-2a785dfb1430"},"vehicle_type_id":"4","last_reported":1710885988,"current_range_meters":2400,"station_id":"ce4bgk12rcd13ifvqbi0","pricing_plan_id":"cebpf4jnsgd1na2vs0mg"},{"bike_id":"d093c175-02bf-4aee-bc1c-139c9289adc4","system_id":"levelo_inurba_marseille","lat":43.304278,"lon":5.388868,"is_reserved":false,"is_disabled":false,"rental_uris":{"android":"levelo://app?vid=d093c175-02bf-4aee-bc1c-139c9289adc4","ios":"levelo://app?vid=d093c175-02bf-4aee-bc1c-139c9289adc4"},"vehicle_type_id":"4","last_reported":1710885988,"current_range_meters":22800,"station_id":"ce4bgk12rcd13ifvqbi0","pricing_plan_id":"cebpf4jnsgd1na2vs0mg"},{"bike_id":"88789adc-5d99-44d3-ad0e-52d865ec8ff9","system_id":"levelo_inurba_marseille","lat":43.309589,"lon":5.390258,"is_reserved":false,"is_disabled":false,"rental_uris":{"android":"levelo://app?vid=88789adc-5d99-44d3-ad0e-52d865ec8ff9","ios":"levelo://app?vid=88789adc-5d99-44d3-ad0e-52d865ec8ff9"},"vehicle_type_id":"4","last_reported":1710885988,"current_range_meters":8400,"station_id":"ce4bgup2rcd13ifvqco0","pricing_plan_id":"cebpf4jnsgd1na2vs0mg"},{"bike_id":"0a959583-8345-48ab-a6a0-4eb51e4642d9","system_id":"levelo_inurba_marseille","lat":43.29968,"lon":5.38495,"is_reserved":false,"is_disabled":false,"rental_uris":{"android":"levelo://app?vid=0a959583-8345-48ab-a6a0-4eb51e4642d9","ios":"levelo://app?vid=0a959583-8345-48ab-a6a0-4eb51e4642d9"},"vehicle_type_id":"4","last_reported":1710885988,"current_range_meters":0,"station_id":"ce4bgj92rcd13ifvqbd0","pricing_plan_id":"cebpf4jnsgd1na2vs0mg"},{"bike_id":"617b0e6f-676e-40f0-bbaf-c9395e5b4dcd","system_id":"levelo_inurba_marseille","lat":43.314339,"lon":5.392922,"is_reserved":false,"is_disabled":false,"rental_uris":{"android":"levelo://app?vid=617b0e6f-676e-40f0-bbaf-c9395e5b4dcd","ios":"levelo://app?vid=617b0e6f-676e-40f0-bbaf-c9395e5b4dcd"},"vehicle_type_id":"4","last_reported":1710885988,"current_range_meters":27600,"station_id":"","pricing_plan_id":"cebpf4jnsgd1na2vs0mg"},{"bike_id":"15fc4921-5c0b-4728-bdd2-5ee3143549d2","system_id":"levelo_inurba_marseille","lat":43.32357,"lon":5.38885,"is_reserved":false,"is_disabled":false,"rental_uris":{"android":"levelo://app?vid=15fc4921-5c0b-4728-bdd2-5ee3143549d2","ios":"levelo://app?vid=15fc4921-5c0b-4728-bdd2-5ee3143549d2"},"vehicle_type_id":"4","last_reported":1710885988,"current_range_meters":0,"station_id":"ce4bhqp2rcd13ifvqhog","pricing_plan_id":"cebpf4jnsgd1na2vs0mg"},{"bike_id":"fa6652b9-0ab9-421f-9aeb-9561120c4d20","system_id":"levelo_inurba_marseille","lat":43.32368,"lon":5.38884,"is_reserved":false,"is_disabled":false,"rental_uris":{"android":"levelo://app?vid=fa6652b9-0ab9-421f-9aeb-9561120c4d20","ios":"levelo://app?vid=fa6652b9-0ab9-421f-9aeb-9561120c4d20"},"vehicle_type_id":"4","last_reported":1710885988,"current_range_meters":28400,"station_id":"ce4bhqp2rcd13ifvqhog","pricing_plan_id":"cebpf4jnsgd1na2vs0mg"},{"bike_id":"e200aebf-5329-4531-b72e-181699b5be48","system_id":"levelo_inurba_marseille","lat":43.32368,"lon":5.38884,"is_reserved":false,"is_disabled":false,"rental_uris":{"android":"levelo://app?vid=e200aebf-5329-4531-b72e-181699b5be48","ios":"levelo://app?vid=e200aebf-5329-4531-b72e-181699b5be48"},"vehicle_type_id":"4","last_reported":1710885988,"current_range_meters":400,"station_id":"ce4bhqp2rcd13ifvqhog","pricing_plan_id":"cebpf4jnsgd1na2vs0mg"},{"bike_id":"c9753313-ff05-4bc7-9209-6194355bacbb","system_id":"levelo_inurba_marseille","lat":43.32368,"lon":5.38884,"is_reserved":false,"is_disabled":false,"rental_uris":{"android":"levelo://app?vid=c9753313-ff05-4bc7-9209-6194355bacbb","ios":"levelo://app?vid=c9753313-ff05-4bc7-9209-6194355bacbb"},"vehicle_type_id":"4","last_reported":1710885988,"current_range_meters":0,"station_id":"ce4bhqp2rcd13ifvqhog","pricing_plan_id":"cebpf4jnsgd1na2vs0mg"},{"bike_id":"d1c473ef-8f57-4a45-a518-f2821a73640e","system_id":"levelo_inurba_marseille","lat":43.323629,"lon":5.388908,"is_reserved":false,"is_disabled":false,"rental_uris":{"android":"levelo://app?vid=d1c473ef-8f57-4a45-a518-f2821a73640e","ios":"levelo://app?vid=d1c473ef-8f57-4a45-a518-f2821a73640e"},"vehicle_type_id":"4","last_reported":1710885988,"current_range_meters":13600,"station_id":"ce4bhqp2rcd13ifvqhog","pricing_plan_id":"cebpf4jnsgd1na2vs0mg"},{"bike_id":"77d915da-b00f-431f-9fb4-10a630781629","system_id":"levelo_inurba_marseille","lat":43.32366,"lon":5.38888,"is_reserved":false,"is_disabled":false,"rental_uris":{"android":"levelo://app?vid=77d915da-b00f-431f-9fb4-10a630781629","ios":"levelo://app?vid=77d915da-b00f-431f-9fb4-10a630781629"},"vehicle_type_id":"4","last_reported":1710885988,"current_range_meters":21600,"station_id":"ce4bhqp2rcd13ifvqhog","pricing_plan_id":"cebpf4jnsgd1na2vs0mg"},{"bike_id":"8c5a09a7-6627-40b5-958f-7a7763e76ce2","system_id":"levelo_inurba_marseille","lat":43.32366,"lon":5.38888,"is_reserved":false,"is_disabled":false,"rental_uris":{"android":"levelo://app?vid=8c5a09a7-6627-40b5-958f-7a7763e76ce2","ios":"levelo://app?vid=8c5a09a7-6627-40b5-958f-7a7763e76ce2"},"vehicle_type_id":"4","last_reported":1710885988,"current_range_meters":14400,"station_id":"ce4bhqp2rcd13ifvqhog","pricing_plan_id":"cebpf4jnsgd1na2vs0mg"},{"bike_id":"e37c32ea-6d8c-404c-81bf-a340e415fa51","system_id":"levelo_inurba_marseille","lat":43.32367,"lon":5.388836,"is_reserved":false,"is_disabled":false,"rental_uris":{"android":"levelo://app?vid=e37c32ea-6d8c-404c-81bf-a340e415fa51","ios":"levelo://app?vid=e37c32ea-6d8c-404c-81bf-a340e415fa51"},"vehicle_type_id":"4","last_reported":1710885988,"current_range_meters":26800,"station_id":"ce4bhqp2rcd13ifvqhog","pricing_plan_id":"cebpf4jnsgd1na2vs0mg"},{"bike_id":"80eb6f3c-7dad-4186-9ec8-bba5dd0c9f98","system_id":"levelo_inurba_marseille","lat":43.32368,"lon":5.38887,"is_reserved":false,"is_disabled":false,"rental_uris":{"android":"levelo://app?vid=80eb6f3c-7dad-4186-9ec8-bba5dd0c9f98","ios":"levelo://app?vid=80eb6f3c-7dad-4186-9ec8-bba5dd0c9f98"},"vehicle_type_id":"4","last_reported":1710885988,"current_range_meters":26800,"station_id":"ce4bhqp2rcd13ifvqhog","pricing_plan_id":"cebpf4jnsgd1na2vs0mg"},{"bike_id":"b754f7e6-8e5c-43b8-b933-43400991c1da","system_id":"levelo_inurba_marseille","lat":43.323665,"lon":5.388885,"is_reserved":false,"is_disabled":false,"rental_uris":{"android":"levelo://app?vid=b754f7e6-8e5c-43b8-b933-43400991c1da","ios":"levelo://app?vid=b754f7e6-8e5c-43b8-b933-43400991c1da"},"vehicle_type_id":"4","last_reported":1710885988,"current_range_meters":13200,"station_id":"ce4bhqp2rcd13ifvqhog","pricing_plan_id":"cebpf4jnsgd1na2vs0mg"},{"bike_id":"3b03bf20-78c9-4f5f-8559-507ea971bc2e","system_id":"levelo_inurba_marseille","lat":43.3237,"lon":5.38887,"is_reserved":false,"is_disabled":false,"rental_uris":{"android":"levelo://app?vid=3b03bf20-78c9-4f5f-8559-507ea971bc2e","ios":"levelo://app?vid=3b03bf20-78c9-4f5f-8559-507ea971bc2e"},"vehicle_type_id":"4","last_reported":1710885988,"current_range_meters":9600,"station_id":"ce4bhqp2rcd13ifvqhog","pricing_plan_id":"cebpf4jnsgd1na2vs0mg"},{"bike_id":"28d032b9-6d9a-4cd4-9b78-a4ab91172b41","system_id":"levelo_inurba_marseille","lat":43.32372,"lon":5.38886,"is_reserved":false,"is_disabled":false,"rental_uris":{"android":"levelo://app?vid=28d032b9-6d9a-4cd4-9b78-a4ab91172b41","ios":"levelo://app?vid=28d032b9-6d9a-4cd4-9b78-a4ab91172b41"},"vehicle_type_id":"4","last_reported":1710885988,"current_range_meters":2000,"station_id":"ce4bhqp2rcd13ifvqhog","pricing_plan_id":"cebpf4jnsgd1na2vs0mg"},{"bike_id":"9b43ae9f-97c3-4da0-938b-50afec46d2a5","system_id":"levelo_inurba_marseille","lat":43.32373,"lon":5.38886,"is_reserved":false,"is_disabled":false,"rental_uris":{"android":"levelo://app?vid=9b43ae9f-97c3-4da0-938b-50afec46d2a5","ios":"levelo://app?vid=9b43ae9f-97c3-4da0-938b-50afec46d2a5"},"vehicle_type_id":"4","last_reported":1710885988,"current_range_meters":16400,"station_id":"ce4bhqp2rcd13ifvqhog","pricing_plan_id":"cebpf4jnsgd1na2vs0mg"},{"bike_id":"88c09819-0132-49e1-a848-b83c3e55111a","system_id":"levelo_inurba_marseille","lat":43.32367,"lon":5.388836,"is_reserved":false,"is_disabled":false,"rental_uris":{"android":"levelo://app?vid=88c09819-0132-49e1-a848-b83c3e55111a","ios":"levelo://app?vid=88c09819-0132-49e1-a848-b83c3e55111a"},"vehicle_type_id":"4","last_reported":1710885988,"current_range_meters":19600,"station_id":"ce4bhqp2rcd13ifvqhog","pricing_plan_id":"cebpf4jnsgd1na2vs0mg"},{"bike_id":"f7e40c54-4d37-462c-874d-c1f6b99a3291","system_id":"levelo_inurba_marseille","lat":43.29595,"lon":5.38106,"is_reserved":false,"is_disabled":false,"rental_uris":{"android":"levelo://app?vid=f7e40c54-4d37-462c-874d-c1f6b99a3291","ios":"levelo://app?vid=f7e40c54-4d37-462c-874d-c1f6b99a3291"},"vehicle_type_id":"4","last_reported":1710885988,"current_range_meters":0,"station_id":"ce4bgl12rcd13ifvqbo0","pricing_plan_id":"cebpf4jnsgd1na2vs0mg"},{"bike_id":"02bca0e0-3a5a-46df-b6cb-96d8d86bf228","system_id":"levelo_inurba_marseille","lat":43.293259,"lon":5.371586,"is_reserved":false,"is_disabled":false,"rental_uris":{"android":"levelo://app?vid=02bca0e0-3a5a-46df-b6cb-96d8d86bf228","ios":"levelo://app?vid=02bca0e0-3a5a-46df-b6cb-96d8d86bf228"},"vehicle_type_id":"4","last_reported":1710885988,"current_range_meters":15600,"station_id":"ce4bgh92rcd13ifvqb40","pricing_plan_id":"cebpf4jnsgd1na2vs0mg"},{"bike_id":"7cab4992-ac4b-4054-9a38-8b9dfec91302","system_id":"levelo_inurba_marseille","lat":43.305994,"lon":5.393687,"is_reserved":false,"is_disabled":false,"rental_uris":{"android":"levelo://app?vid=7cab4992-ac4b-4054-9a38-8b9dfec91302","ios":"levelo://app?vid=7cab4992-ac4b-4054-9a38-8b9dfec91302"},"vehicle_type_id":"4","last_reported":1710885988,"current_range_meters":4400,"station_id":"ce4bh0p2rcd13ifvqd80","pricing_plan_id":"cebpf4jnsgd1na2vs0mg"},{"bike_id":"0e5304e5-3cef-42bb-94e5-96a704e330d4","system_id":"levelo_inurba_marseille","lat":43.305994,"lon":5.393687,"is_reserved":false,"is_disabled":false,"rental_uris":{"android":"levelo://app?vid=0e5304e5-3cef-42bb-94e5-96a704e330d4","ios":"levelo://app?vid=0e5304e5-3cef-42bb-94e5-96a704e330d4"},"vehicle_type_id":"4","last_reported":1710885988,"current_range_meters":8400,"station_id":"ce4bh0p2rcd13ifvqd80","pricing_plan_id":"cebpf4jnsgd1na2vs0mg"},{"bike_id":"0d1dee4e-fb9e-498a-ae05-883e5633afb0","system_id":"levelo_inurba_marseille","lat":43.302992,"lon":5.392136,"is_reserved":false,"is_disabled":false,"rental_uris":{"android":"levelo://app?vid=0d1dee4e-fb9e-498a-ae05-883e5633afb0","ios":"levelo://app?vid=0d1dee4e-fb9e-498a-ae05-883e5633afb0"},"vehicle_type_id":"4","last_reported":1710885988,"current_range_meters":30400,"station_id":"ce4bgkh2rcd13ifvqbk0","pricing_plan_id":"cebpf4jnsgd1na2vs0mg"},{"bike_id":"df27bbb0-7713-4049-9f87-8e8beeba124f","system_id":"levelo_inurba_marseille","lat":43.30292,"lon":5.39203,"is_reserved":false,"is_disabled":false,"rental_uris":{"android":"levelo://app?vid=df27bbb0-7713-4049-9f87-8e8beeba124f","ios":"levelo://app?vid=df27bbb0-7713-4049-9f87-8e8beeba124f"},"vehicle_type_id":"4","last_reported":1710885988,"current_range_meters":8400,"station_id":"ce4bgkh2rcd13ifvqbk0","pricing_plan_id":"cebpf4jnsgd1na2vs0mg"},{"bike_id":"67e51e6f-658c-4b8d-aad9-2cf567d38b02","system_id":"levelo_inurba_marseille","lat":43.303002,"lon":5.392142,"is_reserved":false,"is_disabled":false,"rental_uris":{"android":"levelo://app?vid=67e51e6f-658c-4b8d-aad9-2cf567d38b02","ios":"levelo://app?vid=67e51e6f-658c-4b8d-aad9-2cf567d38b02"},"vehicle_type_id":"4","last_reported":1710885988,"current_range_meters":6800,"station_id":"ce4bgkh2rcd13ifvqbk0","pricing_plan_id":"cebpf4jnsgd1na2vs0mg"},{"bike_id":"1f4d1e32-8aae-4c61-925d-c4274e0d063e","system_id":"levelo_inurba_marseille","lat":43.30085,"lon":5.390856,"is_reserved":false,"is_disabled":false,"rental_uris":{"android":"levelo://app?vid=1f4d1e32-8aae-4c61-925d-c4274e0d063e","ios":"levelo://app?vid=1f4d1e32-8aae-4c61-925d-c4274e0d063e"},"vehicle_type_id":"4","last_reported":1710885988,"current_range_meters":5600,"station_id":"ce4bh192rcd13ifvqdb0","pricing_plan_id":"cebpf4jnsgd1na2vs0mg"},{"bike_id":"19085e46-1ef6-4cae-8c5a-4f144767ad61","system_id":"levelo_inurba_marseille","lat":43.30089,"lon":5.39072,"is_reserved":false,"is_disabled":false,"rental_uris":{"android":"levelo://app?vid=19085e46-1ef6-4cae-8c5a-4f144767ad61","ios":"levelo://app?vid=19085e46-1ef6-4cae-8c5a-4f144767ad61"},"vehicle_type_id":"4","last_reported":1710885988,"current_range_meters":18000,"station_id":"","pricing_plan_id":"cebpf4jnsgd1na2vs0mg"},{"bike_id":"bf9904b1-8bcb-4f26-93ec-e72351f5fc47","system_id":"levelo_inurba_marseille","lat":43.300852,"lon":5.390859,"is_reserved":false,"is_disabled":false,"rental_uris":{"android":"levelo://app?vid=bf9904b1-8bcb-4f26-93ec-e72351f5fc47","ios":"levelo://app?vid=bf9904b1-8bcb-4f26-93ec-e72351f5fc47"},"vehicle_type_id":"4","last_reported":1710885988,"current_range_meters":6800,"station_id":"ce4bh192rcd13ifvqdb0","pricing_plan_id":"cebpf4jnsgd1na2vs0mg"},{"bike_id":"8167b5fd-a589-41ce-9a4b-d352f8c87e5a","system_id":"levelo_inurba_marseille","lat":43.300852,"lon":5.390859,"is_reserved":false,"is_disabled":false,"rental_uris":{"android":"levelo://app?vid=8167b5fd-a589-41ce-9a4b-d352f8c87e5a","ios":"levelo://app?vid=8167b5fd-a589-41ce-9a4b-d352f8c87e5a"},"vehicle_type_id":"4","last_reported":1710885988,"current_range_meters":21200,"station_id":"ce4bh192rcd13ifvqdb0","pricing_plan_id":"cebpf4jnsgd1na2vs0mg"},{"bike_id":"c5da8c70-4c43-4ea7-ba11-78bd7b804690","system_id":"levelo_inurba_marseille","lat":43.30085,"lon":5.390856,"is_reserved":false,"is_disabled":false,"rental_uris":{"android":"levelo://app?vid=c5da8c70-4c43-4ea7-ba11-78bd7b804690","ios":"levelo://app?vid=c5da8c70-4c43-4ea7-ba11-78bd7b804690"},"vehicle_type_id":"4","last_reported":1710885988,"current_range_meters":10400,"station_id":"ce4bh192rcd13ifvqdb0","pricing_plan_id":"cebpf4jnsgd1na2vs0mg"},{"bike_id":"b917f1fc-6458-4618-abd1-270fc93d676e","system_id":"levelo_inurba_marseille","lat":43.29219,"lon":5.3735,"is_reserved":false,"is_disabled":false,"rental_uris":{"android":"levelo://app?vid=b917f1fc-6458-4618-abd1-270fc93d676e","ios":"levelo://app?vid=b917f1fc-6458-4618-abd1-270fc93d676e"},"vehicle_type_id":"4","last_reported":1710885988,"current_range_meters":17600,"station_id":"","pricing_plan_id":"cebpf4jnsgd1na2vs0mg"},{"bike_id":"f9b7b6b8-0c09-433b-8f85-e06c1cb786ab","system_id":"levelo_inurba_marseille","lat":43.298764,"lon":5.388973,"is_reserved":false,"is_disabled":false,"rental_uris":{"android":"levelo://app?vid=f9b7b6b8-0c09-433b-8f85-e06c1cb786ab","ios":"levelo://app?vid=f9b7b6b8-0c09-433b-8f85-e06c1cb786ab"},"vehicle_type_id":"4","last_reported":1710885988,"current_range_meters":15200,"station_id":"ce4bh392rcd13ifvqdl0","pricing_plan_id":"cebpf4jnsgd1na2vs0mg"},{"bike_id":"9d28de2f-61e5-4281-830f-1592e63e86c6","system_id":"levelo_inurba_marseille","lat":43.298764,"lon":5.388973,"is_reserved":false,"is_disabled":false,"rental_uris":{"android":"levelo://app?vid=9d28de2f-61e5-4281-830f-1592e63e86c6","ios":"levelo://app?vid=9d28de2f-61e5-4281-830f-1592e63e86c6"},"vehicle_type_id":"4","last_reported":1710885988,"current_range_meters":3200,"station_id":"ce4bh392rcd13ifvqdl0","pricing_plan_id":"cebpf4jnsgd1na2vs0mg"},{"bike_id":"311742f1-a1b2-4f31-830c-79887b3ef12c","system_id":"levelo_inurba_marseille","lat":43.298764,"lon":5.388973,"is_reserved":false,"is_disabled":false,"rental_uris":{"android":"levelo://app?vid=311742f1-a1b2-4f31-830c-79887b3ef12c","ios":"levelo://app?vid=311742f1-a1b2-4f31-830c-79887b3ef12c"},"vehicle_type_id":"4","last_reported":1710885988,"current_range_meters":19200,"station_id":"ce4bh392rcd13ifvqdl0","pricing_plan_id":"cebpf4jnsgd1na2vs0mg"},{"bike_id":"2ca4657e-49d6-4a4b-a8f2-1283517a9148","system_id":"levelo_inurba_marseille","lat":43.298764,"lon":5.388973,"is_reserved":false,"is_disabled":false,"rental_uris":{"android":"levelo://app?vid=2ca4657e-49d6-4a4b-a8f2-1283517a9148","ios":"levelo://app?vid=2ca4657e-49d6-4a4b-a8f2-1283517a9148"},"vehicle_type_id":"4","last_reported":1710885988,"current_range_meters":6400,"station_id":"ce4bh392rcd13ifvqdl0","pricing_plan_id":"cebpf4jnsgd1na2vs0mg"},{"bike_id":"a46d04eb-3dd2-4f7a-8229-ce65bee63710","system_id":"levelo_inurba_marseille","lat":43.298764,"lon":5.388973,"is_reserved":false,"is_disabled":false,"rental_uris":{"android":"levelo://app?vid=a46d04eb-3dd2-4f7a-8229-ce65bee63710","ios":"levelo://app?vid=a46d04eb-3dd2-4f7a-8229-ce65bee63710"},"vehicle_type_id":"4","last_reported":1710885988,"current_range_meters":0,"station_id":"ce4bh392rcd13ifvqdl0","pricing_plan_id":"cebpf4jnsgd1na2vs0mg"},{"bike_id":"fc060662-1060-4350-b35b-ba0c076dfecf","system_id":"levelo_inurba_marseille","lat":43.298764,"lon":5.388973,"is_reserved":false,"is_disabled":false,"rental_uris":{"android":"levelo://app?vid=fc060662-1060-4350-b35b-ba0c076dfecf","ios":"levelo://app?vid=fc060662-1060-4350-b35b-ba0c076dfecf"},"vehicle_type_id":"4","last_reported":1710885988,"current_range_meters":28800,"station_id":"ce4bh392rcd13ifvqdl0","pricing_plan_id":"cebpf4jnsgd1na2vs0mg"},{"bike_id":"6b3eed18-75ea-4bad-89c9-6bbfeed2db97","system_id":"levelo_inurba_marseille","lat":43.298764,"lon":5.388973,"is_reserved":false,"is_disabled":false,"rental_uris":{"android":"levelo://app?vid=6b3eed18-75ea-4bad-89c9-6bbfeed2db97","ios":"levelo://app?vid=6b3eed18-75ea-4bad-89c9-6bbfeed2db97"},"vehicle_type_id":"4","last_reported":1710885988,"current_range_meters":5600,"station_id":"ce4bh392rcd13ifvqdl0","pricing_plan_id":"cebpf4jnsgd1na2vs0mg"},{"bike_id":"a9c7f721-f7b6-4e56-877c-8994075ad201","system_id":"levelo_inurba_marseille","lat":43.313291,"lon":5.396838,"is_reserved":false,"is_disabled":false,"rental_uris":{"android":"levelo://app?vid=a9c7f721-f7b6-4e56-877c-8994075ad201","ios":"levelo://app?vid=a9c7f721-f7b6-4e56-877c-8994075ad201"},"vehicle_type_id":"4","last_reported":1710885988,"current_range_meters":6800,"station_id":"ce4bgvp2rcd13ifvqcu0","pricing_plan_id":"cebpf4jnsgd1na2vs0mg"},{"bike_id":"10086f67-0aa4-438a-b979-2d02b2aff619","system_id":"levelo_inurba_marseille","lat":43.309038,"lon":5.396546,"is_reserved":false,"is_disabled":false,"rental_uris":{"android":"levelo://app?vid=10086f67-0aa4-438a-b979-2d02b2aff619","ios":"levelo://app?vid=10086f67-0aa4-438a-b979-2d02b2aff619"},"vehicle_type_id":"4","last_reported":1710885988,"current_range_meters":0,"station_id":"ce4bh012rcd13ifvqcv0","pricing_plan_id":"cebpf4jnsgd1na2vs0mg"},{"bike_id":"084c7708-6521-4ee6-9e81-bff5ef45da27","system_id":"levelo_inurba_marseille","lat":43.313291,"lon":5.396838,"is_reserved":false,"is_disabled":false,"rental_uris":{"android":"levelo://app?vid=084c7708-6521-4ee6-9e81-bff5ef45da27","ios":"levelo://app?vid=084c7708-6521-4ee6-9e81-bff5ef45da27"},"vehicle_type_id":"4","last_reported":1710885988,"current_range_meters":20400,"station_id":"ce4bgvp2rcd13ifvqcu0","pricing_plan_id":"cebpf4jnsgd1na2vs0mg"},{"bike_id":"a1e8dd5c-113a-4a74-bda4-9b3f72cd5cf3","system_id":"levelo_inurba_marseille","lat":43.30884,"lon":5.3964,"is_reserved":false,"is_disabled":false,"rental_uris":{"android":"levelo://app?vid=a1e8dd5c-113a-4a74-bda4-9b3f72cd5cf3","ios":"levelo://app?vid=a1e8dd5c-113a-4a74-bda4-9b3f72cd5cf3"},"vehicle_type_id":"4","last_reported":1710885988,"current_range_meters":18000,"station_id":"ce4bh012rcd13ifvqcv0","pricing_plan_id":"cebpf4jnsgd1na2vs0mg"},{"bike_id":"bfe90ee0-0ba2-417f-b577-3d9e702c53ea","system_id":"levelo_inurba_marseille","lat":43.313291,"lon":5.396838,"is_reserved":false,"is_disabled":false,"rental_uris":{"android":"levelo://app?vid=bfe90ee0-0ba2-417f-b577-3d9e702c53ea","ios":"levelo://app?vid=bfe90ee0-0ba2-417f-b577-3d9e702c53ea"},"vehicle_type_id":"4","last_reported":1710885988,"current_range_meters":0,"station_id":"ce4bgvp2rcd13ifvqcu0","pricing_plan_id":"cebpf4jnsgd1na2vs0mg"},{"bike_id":"8f8795b1-965d-4b3e-b739-57ed3cab6c03","system_id":"levelo_inurba_marseille","lat":43.313291,"lon":5.396838,"is_reserved":false,"is_disabled":false,"rental_uris":{"android":"levelo://app?vid=8f8795b1-965d-4b3e-b739-57ed3cab6c03","ios":"levelo://app?vid=8f8795b1-965d-4b3e-b739-57ed3cab6c03"},"vehicle_type_id":"4","last_reported":1710885988,"current_range_meters":800,"station_id":"ce4bgvp2rcd13ifvqcu0","pricing_plan_id":"cebpf4jnsgd1na2vs0mg"},{"bike_id":"bbd17e35-2e6f-485a-a4b5-897d529c7f0b","system_id":"levelo_inurba_marseille","lat":43.309038,"lon":5.396546,"is_reserved":false,"is_disabled":false,"rental_uris":{"android":"levelo://app?vid=bbd17e35-2e6f-485a-a4b5-897d529c7f0b","ios":"levelo://app?vid=bbd17e35-2e6f-485a-a4b5-897d529c7f0b"},"vehicle_type_id":"4","last_reported":1710885988,"current_range_meters":5200,"station_id":"ce4bh012rcd13ifvqcv0","pricing_plan_id":"cebpf4jnsgd1na2vs0mg"},{"bike_id":"0d703fe5-4bda-49fa-add5-8dec9c61849f","system_id":"levelo_inurba_marseille","lat":43.31333,"lon":5.39693,"is_reserved":false,"is_disabled":false,"rental_uris":{"android":"levelo://app?vid=0d703fe5-4bda-49fa-add5-8dec9c61849f","ios":"levelo://app?vid=0d703fe5-4bda-49fa-add5-8dec9c61849f"},"vehicle_type_id":"4","last_reported":1710885988,"current_range_meters":0,"station_id":"ce4bgvp2rcd13ifvqcu0","pricing_plan_id":"cebpf4jnsgd1na2vs0mg"},{"bike_id":"5d5fd77d-f933-475c-bfa2-4600b58b0dc6","system_id":"levelo_inurba_marseille","lat":43.31326,"lon":5.39694,"is_reserved":false,"is_disabled":false,"rental_uris":{"android":"levelo://app?vid=5d5fd77d-f933-475c-bfa2-4600b58b0dc6","ios":"levelo://app?vid=5d5fd77d-f933-475c-bfa2-4600b58b0dc6"},"vehicle_type_id":"4","last_reported":1710885988,"current_range_meters":9200,"station_id":"ce4bgvp2rcd13ifvqcu0","pricing_plan_id":"cebpf4jnsgd1na2vs0mg"},{"bike_id":"ae729094-85f0-448d-86bf-cd7f0ed8c51a","system_id":"levelo_inurba_marseille","lat":43.309047,"lon":5.396551,"is_reserved":false,"is_disabled":false,"rental_uris":{"android":"levelo://app?vid=ae729094-85f0-448d-86bf-cd7f0ed8c51a","ios":"levelo://app?vid=ae729094-85f0-448d-86bf-cd7f0ed8c51a"},"vehicle_type_id":"4","last_reported":1710885988,"current_range_meters":12000,"station_id":"ce4bh012rcd13ifvqcv0","pricing_plan_id":"cebpf4jnsgd1na2vs0mg"},{"bike_id":"c6357bc8-2f02-453d-99e8-1041a659effd","system_id":"levelo_inurba_marseille","lat":43.309038,"lon":5.396546,"is_reserved":false,"is_disabled":false,"rental_uris":{"android":"levelo://app?vid=c6357bc8-2f02-453d-99e8-1041a659effd","ios":"levelo://app?vid=c6357bc8-2f02-453d-99e8-1041a659effd"},"vehicle_type_id":"4","last_reported":1710885988,"current_range_meters":29200,"station_id":"ce4bh012rcd13ifvqcv0","pricing_plan_id":"cebpf4jnsgd1na2vs0mg"},{"bike_id":"8b99f704-bd25-48f8-8ba9-2bada9084e4b","system_id":"levelo_inurba_marseille","lat":43.309047,"lon":5.396551,"is_reserved":false,"is_disabled":false,"rental_uris":{"android":"levelo://app?vid=8b99f704-bd25-48f8-8ba9-2bada9084e4b","ios":"levelo://app?vid=8b99f704-bd25-48f8-8ba9-2bada9084e4b"},"vehicle_type_id":"4","last_reported":1710885988,"current_range_meters":29600,"station_id":"ce4bh012rcd13ifvqcv0","pricing_plan_id":"cebpf4jnsgd1na2vs0mg"},{"bike_id":"86f48e37-0d84-4ef0-965e-256ef456bf43","system_id":"levelo_inurba_marseille","lat":43.30891,"lon":5.39652,"is_reserved":false,"is_disabled":false,"rental_uris":{"android":"levelo://app?vid=86f48e37-0d84-4ef0-965e-256ef456bf43","ios":"levelo://app?vid=86f48e37-0d84-4ef0-965e-256ef456bf43"},"vehicle_type_id":"4","last_reported":1710885988,"current_range_meters":11600,"station_id":"ce4bh012rcd13ifvqcv0","pricing_plan_id":"cebpf4jnsgd1na2vs0mg"},{"bike_id":"ebecd739-813e-4d43-8589-b3db540133e1","system_id":"levelo_inurba_marseille","lat":43.313291,"lon":5.396838,"is_reserved":false,"is_disabled":false,"rental_uris":{"android":"levelo://app?vid=ebecd739-813e-4d43-8589-b3db540133e1","ios":"levelo://app?vid=ebecd739-813e-4d43-8589-b3db540133e1"},"vehicle_type_id":"4","last_reported":1710885988,"current_range_meters":3600,"station_id":"ce4bgvp2rcd13ifvqcu0","pricing_plan_id":"cebpf4jnsgd1na2vs0mg"},{"bike_id":"b32544b3-b912-4684-b972-3f289ebbe0c9","system_id":"levelo_inurba_marseille","lat":43.31349,"lon":5.39698,"is_reserved":false,"is_disabled":false,"rental_uris":{"android":"levelo://app?vid=b32544b3-b912-4684-b972-3f289ebbe0c9","ios":"levelo://app?vid=b32544b3-b912-4684-b972-3f289ebbe0c9"},"vehicle_type_id":"4","last_reported":1710885988,"current_range_meters":6400,"station_id":"ce4bgvp2rcd13ifvqcu0","pricing_plan_id":"cebpf4jnsgd1na2vs0mg"},{"bike_id":"944ae07e-1917-4207-ad5b-dd6d0105869b","system_id":"levelo_inurba_marseille","lat":43.313291,"lon":5.396838,"is_reserved":false,"is_disabled":false,"rental_uris":{"android":"levelo://app?vid=944ae07e-1917-4207-ad5b-dd6d0105869b","ios":"levelo://app?vid=944ae07e-1917-4207-ad5b-dd6d0105869b"},"vehicle_type_id":"4","last_reported":1710885988,"current_range_meters":14400,"station_id":"ce4bgvp2rcd13ifvqcu0","pricing_plan_id":"cebpf4jnsgd1na2vs0mg"},{"bike_id":"fd95327b-fbd5-464e-8944-961be4e96dbc","system_id":"levelo_inurba_marseille","lat":43.308825,"lon":5.396515,"is_reserved":false,"is_disabled":false,"rental_uris":{"android":"levelo://app?vid=fd95327b-fbd5-464e-8944-961be4e96dbc","ios":"levelo://app?vid=fd95327b-fbd5-464e-8944-961be4e96dbc"},"vehicle_type_id":"4","last_reported":1710885988,"current_range_meters":20000,"station_id":"ce4bh012rcd13ifvqcv0","pricing_plan_id":"cebpf4jnsgd1na2vs0mg"},{"bike_id":"81b3302a-5077-4623-9fef-4d5bccf3020a","system_id":"levelo_inurba_marseille","lat":43.309047,"lon":5.396551,"is_reserved":false,"is_disabled":false,"rental_uris":{"android":"levelo://app?vid=81b3302a-5077-4623-9fef-4d5bccf3020a","ios":"levelo://app?vid=81b3302a-5077-4623-9fef-4d5bccf3020a"},"vehicle_type_id":"4","last_reported":1710885988,"current_range_meters":23600,"station_id":"ce4bh012rcd13ifvqcv0","pricing_plan_id":"cebpf4jnsgd1na2vs0mg"},{"bike_id":"11aa79ac-dca6-444f-842c-9c53f9e64f1a","system_id":"levelo_inurba_marseille","lat":43.313291,"lon":5.396838,"is_reserved":false,"is_disabled":false,"rental_uris":{"android":"levelo://app?vid=11aa79ac-dca6-444f-842c-9c53f9e64f1a","ios":"levelo://app?vid=11aa79ac-dca6-444f-842c-9c53f9e64f1a"},"vehicle_type_id":"4","last_reported":1710885988,"current_range_meters":31200,"station_id":"ce4bgvp2rcd13ifvqcu0","pricing_plan_id":"cebpf4jnsgd1na2vs0mg"},{"bike_id":"19a0d3b7-08bd-4d8f-88cd-240d3ea2fc2d","system_id":"levelo_inurba_marseille","lat":43.309038,"lon":5.396546,"is_reserved":false,"is_disabled":false,"rental_uris":{"android":"levelo://app?vid=19a0d3b7-08bd-4d8f-88cd-240d3ea2fc2d","ios":"levelo://app?vid=19a0d3b7-08bd-4d8f-88cd-240d3ea2fc2d"},"vehicle_type_id":"4","last_reported":1710885988,"current_range_meters":21600,"station_id":"ce4bh012rcd13ifvqcv0","pricing_plan_id":"cebpf4jnsgd1na2vs0mg"},{"bike_id":"a7ed0b21-9fba-4b4e-8ba5-e3bf735c6c7a","system_id":"levelo_inurba_marseille","lat":43.308835,"lon":5.39656,"is_reserved":false,"is_disabled":false,"rental_uris":{"android":"levelo://app?vid=a7ed0b21-9fba-4b4e-8ba5-e3bf735c6c7a","ios":"levelo://app?vid=a7ed0b21-9fba-4b4e-8ba5-e3bf735c6c7a"},"vehicle_type_id":"4","last_reported":1710885988,"current_range_meters":6000,"station_id":"ce4bh012rcd13ifvqcv0","pricing_plan_id":"cebpf4jnsgd1na2vs0mg"},{"bike_id":"e6c85b82-cb02-4dde-83b0-21bcd64ec166","system_id":"levelo_inurba_marseille","lat":43.30889,"lon":5.39658,"is_reserved":false,"is_disabled":false,"rental_uris":{"android":"levelo://app?vid=e6c85b82-cb02-4dde-83b0-21bcd64ec166","ios":"levelo://app?vid=e6c85b82-cb02-4dde-83b0-21bcd64ec166"},"vehicle_type_id":"4","last_reported":1710885988,"current_range_meters":22000,"station_id":"ce4bh012rcd13ifvqcv0","pricing_plan_id":"cebpf4jnsgd1na2vs0mg"},{"bike_id":"40d92724-3f65-4e29-bd02-ce945e11f4f1","system_id":"levelo_inurba_marseille","lat":43.30897,"lon":5.3966,"is_reserved":false,"is_disabled":false,"rental_uris":{"android":"levelo://app?vid=40d92724-3f65-4e29-bd02-ce945e11f4f1","ios":"levelo://app?vid=40d92724-3f65-4e29-bd02-ce945e11f4f1"},"vehicle_type_id":"4","last_reported":1710885988,"current_range_meters":18000,"station_id":"ce4bh012rcd13ifvqcv0","pricing_plan_id":"cebpf4jnsgd1na2vs0mg"},{"bike_id":"8939ee52-1833-460a-a056-e87a9f09956a","system_id":"levelo_inurba_marseille","lat":43.308797,"lon":5.396577,"is_reserved":false,"is_disabled":false,"rental_uris":{"android":"levelo://app?vid=8939ee52-1833-460a-a056-e87a9f09956a","ios":"levelo://app?vid=8939ee52-1833-460a-a056-e87a9f09956a"},"vehicle_type_id":"4","last_reported":1710885988,"current_range_meters":0,"station_id":"ce4bh012rcd13ifvqcv0","pricing_plan_id":"cebpf4jnsgd1na2vs0mg"},{"bike_id":"129d6073-4e0e-4304-82d3-ccb27e10d8cc","system_id":"levelo_inurba_marseille","lat":43.29529,"lon":5.385581,"is_reserved":false,"is_disabled":false,"rental_uris":{"android":"levelo://app?vid=129d6073-4e0e-4304-82d3-ccb27e10d8cc","ios":"levelo://app?vid=129d6073-4e0e-4304-82d3-ccb27e10d8cc"},"vehicle_type_id":"4","last_reported":1710885988,"current_range_meters":24400,"station_id":"ce4bgih2rcd13ifvqba0","pricing_plan_id":"cebpf4jnsgd1na2vs0mg"},{"bike_id":"6747a33c-fcda-44fd-9b73-218d47a1a812","system_id":"levelo_inurba_marseille","lat":43.29529,"lon":5.385581,"is_reserved":false,"is_disabled":false,"rental_uris":{"android":"levelo://app?vid=6747a33c-fcda-44fd-9b73-218d47a1a812","ios":"levelo://app?vid=6747a33c-fcda-44fd-9b73-218d47a1a812"},"vehicle_type_id":"4","last_reported":1710885988,"current_range_meters":19600,"station_id":"ce4bgih2rcd13ifvqba0","pricing_plan_id":"cebpf4jnsgd1na2vs0mg"},{"bike_id":"9945295d-ec59-49dc-bbb2-dcc2e166b0cc","system_id":"levelo_inurba_marseille","lat":43.29529,"lon":5.385581,"is_reserved":false,"is_disabled":false,"rental_uris":{"android":"levelo://app?vid=9945295d-ec59-49dc-bbb2-dcc2e166b0cc","ios":"levelo://app?vid=9945295d-ec59-49dc-bbb2-dcc2e166b0cc"},"vehicle_type_id":"4","last_reported":1710885988,"current_range_meters":27600,"station_id":"ce4bgih2rcd13ifvqba0","pricing_plan_id":"cebpf4jnsgd1na2vs0mg"},{"bike_id":"0a33ae22-2764-436e-926d-d04d2950d633","system_id":"levelo_inurba_marseille","lat":43.29529,"lon":5.385581,"is_reserved":false,"is_disabled":false,"rental_uris":{"android":"levelo://app?vid=0a33ae22-2764-436e-926d-d04d2950d633","ios":"levelo://app?vid=0a33ae22-2764-436e-926d-d04d2950d633"},"vehicle_type_id":"4","last_reported":1710885988,"current_range_meters":6400,"station_id":"ce4bgih2rcd13ifvqba0","pricing_plan_id":"cebpf4jnsgd1na2vs0mg"},{"bike_id":"78f8462b-c17a-4525-8cb3-20c05e56b7a4","system_id":"levelo_inurba_marseille","lat":43.308905,"lon":5.39666,"is_reserved":false,"is_disabled":false,"rental_uris":{"android":"levelo://app?vid=78f8462b-c17a-4525-8cb3-20c05e56b7a4","ios":"levelo://app?vid=78f8462b-c17a-4525-8cb3-20c05e56b7a4"},"vehicle_type_id":"4","last_reported":1710885988,"current_range_meters":7600,"station_id":"ce4bh012rcd13ifvqcv0","pricing_plan_id":"cebpf4jnsgd1na2vs0mg"},{"bike_id":"dfc32456-42af-4620-bbde-e44e3db1d0ec","system_id":"levelo_inurba_marseille","lat":43.29529,"lon":5.385581,"is_reserved":false,"is_disabled":false,"rental_uris":{"android":"levelo://app?vid=dfc32456-42af-4620-bbde-e44e3db1d0ec","ios":"levelo://app?vid=dfc32456-42af-4620-bbde-e44e3db1d0ec"},"vehicle_type_id":"4","last_reported":1710885988,"current_range_meters":19200,"station_id":"ce4bgih2rcd13ifvqba0","pricing_plan_id":"cebpf4jnsgd1na2vs0mg"},{"bike_id":"a678c947-0a70-4dae-bd9a-5dc62e545958","system_id":"levelo_inurba_marseille","lat":43.29529,"lon":5.385581,"is_reserved":false,"is_disabled":false,"rental_uris":{"android":"levelo://app?vid=a678c947-0a70-4dae-bd9a-5dc62e545958","ios":"levelo://app?vid=a678c947-0a70-4dae-bd9a-5dc62e545958"},"vehicle_type_id":"4","last_reported":1710885988,"current_range_meters":28000,"station_id":"ce4bgih2rcd13ifvqba0","pricing_plan_id":"cebpf4jnsgd1na2vs0mg"},{"bike_id":"8f0d056c-fae7-4e31-b173-6d9150008aa6","system_id":"levelo_inurba_marseille","lat":43.29529,"lon":5.385581,"is_reserved":false,"is_disabled":false,"rental_uris":{"android":"levelo://app?vid=8f0d056c-fae7-4e31-b173-6d9150008aa6","ios":"levelo://app?vid=8f0d056c-fae7-4e31-b173-6d9150008aa6"},"vehicle_type_id":"4","last_reported":1710885988,"current_range_meters":24400,"station_id":"ce4bgih2rcd13ifvqba0","pricing_plan_id":"cebpf4jnsgd1na2vs0mg"},{"bike_id":"c2f01780-9f99-4156-979b-380804a3d88f","system_id":"levelo_inurba_marseille","lat":43.29535,"lon":5.38544,"is_reserved":false,"is_disabled":false,"rental_uris":{"android":"levelo://app?vid=c2f01780-9f99-4156-979b-380804a3d88f","ios":"levelo://app?vid=c2f01780-9f99-4156-979b-380804a3d88f"},"vehicle_type_id":"4","last_reported":1710885988,"current_range_meters":9200,"station_id":"ce4bgih2rcd13ifvqba0","pricing_plan_id":"cebpf4jnsgd1na2vs0mg"},{"bike_id":"5bd68249-8375-47b3-8bd8-ac72c86bc3b6","system_id":"levelo_inurba_marseille","lat":43.29531,"lon":5.38537,"is_reserved":false,"is_disabled":false,"rental_uris":{"android":"levelo://app?vid=5bd68249-8375-47b3-8bd8-ac72c86bc3b6","ios":"levelo://app?vid=5bd68249-8375-47b3-8bd8-ac72c86bc3b6"},"vehicle_type_id":"4","last_reported":1710885988,"current_range_meters":5600,"station_id":"ce4bgih2rcd13ifvqba0","pricing_plan_id":"cebpf4jnsgd1na2vs0mg"},{"bike_id":"600d9a36-7753-4611-b5f5-f8a77fe4decd","system_id":"levelo_inurba_marseille","lat":43.29529,"lon":5.385581,"is_reserved":false,"is_disabled":false,"rental_uris":{"android":"levelo://app?vid=600d9a36-7753-4611-b5f5-f8a77fe4decd","ios":"levelo://app?vid=600d9a36-7753-4611-b5f5-f8a77fe4decd"},"vehicle_type_id":"4","last_reported":1710885988,"current_range_meters":11600,"station_id":"ce4bgih2rcd13ifvqba0","pricing_plan_id":"cebpf4jnsgd1na2vs0mg"},{"bike_id":"565928cd-3ea0-4bee-a7cd-8d589b5d5aac","system_id":"levelo_inurba_marseille","lat":43.29537,"lon":5.38551,"is_reserved":false,"is_disabled":false,"rental_uris":{"android":"levelo://app?vid=565928cd-3ea0-4bee-a7cd-8d589b5d5aac","ios":"levelo://app?vid=565928cd-3ea0-4bee-a7cd-8d589b5d5aac"},"vehicle_type_id":"4","last_reported":1710885988,"current_range_meters":30800,"station_id":"ce4bgih2rcd13ifvqba0","pricing_plan_id":"cebpf4jnsgd1na2vs0mg"},{"bike_id":"16056ea9-3fd0-4a4a-b9d7-66d256cac263","system_id":"levelo_inurba_marseille","lat":43.29529,"lon":5.385581,"is_reserved":false,"is_disabled":false,"rental_uris":{"android":"levelo://app?vid=16056ea9-3fd0-4a4a-b9d7-66d256cac263","ios":"levelo://app?vid=16056ea9-3fd0-4a4a-b9d7-66d256cac263"},"vehicle_type_id":"4","last_reported":1710885988,"current_range_meters":2800,"station_id":"ce4bgih2rcd13ifvqba0","pricing_plan_id":"cebpf4jnsgd1na2vs0mg"},{"bike_id":"419d778f-13b9-41d2-8fff-d1e350771ae6","system_id":"levelo_inurba_marseille","lat":43.295573,"lon":5.38592,"is_reserved":false,"is_disabled":false,"rental_uris":{"android":"levelo://app?vid=419d778f-13b9-41d2-8fff-d1e350771ae6","ios":"levelo://app?vid=419d778f-13b9-41d2-8fff-d1e350771ae6"},"vehicle_type_id":"4","last_reported":1710885988,"current_range_meters":0,"station_id":"ce4bgj92rcd13ifvqbd0","pricing_plan_id":"cebpf4jnsgd1na2vs0mg"},{"bike_id":"aeea94ff-ca75-4262-bef0-fa6ba23efb19","system_id":"levelo_inurba_marseille","lat":43.290779,"lon":5.371482,"is_reserved":false,"is_disabled":false,"rental_uris":{"android":"levelo://app?vid=aeea94ff-ca75-4262-bef0-fa6ba23efb19","ios":"levelo://app?vid=aeea94ff-ca75-4262-bef0-fa6ba23efb19"},"vehicle_type_id":"4","last_reported":1710885988,"current_range_meters":0,"station_id":"ce4bh5p2rcd13ifvqe4g","pricing_plan_id":"cebpf4jnsgd1na2vs0mg"},{"bike_id":"31439721-c253-40b7-961b-7bc8009984a2","system_id":"levelo_inurba_marseille","lat":43.291426,"lon":5.37769,"is_reserved":false,"is_disabled":false,"rental_uris":{"android":"levelo://app?vid=31439721-c253-40b7-961b-7bc8009984a2","ios":"levelo://app?vid=31439721-c253-40b7-961b-7bc8009984a2"},"vehicle_type_id":"4","last_reported":1710885988,"current_range_meters":30000,"station_id":"","pricing_plan_id":"cebpf4jnsgd1na2vs0mg"},{"bike_id":"f80d1b22-49d5-4d04-916e-50d43a0913c1","system_id":"levelo_inurba_marseille","lat":43.290631,"lon":5.359244,"is_reserved":false,"is_disabled":false,"rental_uris":{"android":"levelo://app?vid=f80d1b22-49d5-4d04-916e-50d43a0913c1","ios":"levelo://app?vid=f80d1b22-49d5-4d04-916e-50d43a0913c1"},"vehicle_type_id":"4","last_reported":1710885988,"current_range_meters":21600,"station_id":"ce4bha92rcd13ifvqeg0","pricing_plan_id":"cebpf4jnsgd1na2vs0mg"},{"bike_id":"ff44f1c7-378d-408c-9eff-4eca6a63ef2c","system_id":"levelo_inurba_marseille","lat":43.290631,"lon":5.359244,"is_reserved":false,"is_disabled":false,"rental_uris":{"android":"levelo://app?vid=ff44f1c7-378d-408c-9eff-4eca6a63ef2c","ios":"levelo://app?vid=ff44f1c7-378d-408c-9eff-4eca6a63ef2c"},"vehicle_type_id":"4","last_reported":1710885988,"current_range_meters":0,"station_id":"ce4bha92rcd13ifvqeg0","pricing_plan_id":"cebpf4jnsgd1na2vs0mg"},{"bike_id":"3a582b30-2834-4edc-b2ff-1235b874c959","system_id":"levelo_inurba_marseille","lat":43.289184,"lon":5.366408,"is_reserved":false,"is_disabled":false,"rental_uris":{"android":"levelo://app?vid=3a582b30-2834-4edc-b2ff-1235b874c959","ios":"levelo://app?vid=3a582b30-2834-4edc-b2ff-1235b874c959"},"vehicle_type_id":"4","last_reported":1710885988,"current_range_meters":21200,"station_id":"ce4bhap2rcd13ifvqek0","pricing_plan_id":"cebpf4jnsgd1na2vs0mg"},{"bike_id":"9a391ec2-338b-43f8-aa6f-9270cbb11b24","system_id":"levelo_inurba_marseille","lat":43.290624,"lon":5.359245,"is_reserved":false,"is_disabled":false,"rental_uris":{"android":"levelo://app?vid=9a391ec2-338b-43f8-aa6f-9270cbb11b24","ios":"levelo://app?vid=9a391ec2-338b-43f8-aa6f-9270cbb11b24"},"vehicle_type_id":"4","last_reported":1710885988,"current_range_meters":8800,"station_id":"ce4bha92rcd13ifvqeg0","pricing_plan_id":"cebpf4jnsgd1na2vs0mg"},{"bike_id":"b9e6f1f0-75e9-4dae-a742-e433aa0a463d","system_id":"levelo_inurba_marseille","lat":43.290631,"lon":5.359244,"is_reserved":false,"is_disabled":false,"rental_uris":{"android":"levelo://app?vid=b9e6f1f0-75e9-4dae-a742-e433aa0a463d","ios":"levelo://app?vid=b9e6f1f0-75e9-4dae-a742-e433aa0a463d"},"vehicle_type_id":"4","last_reported":1710885988,"current_range_meters":27200,"station_id":"ce4bha92rcd13ifvqeg0","pricing_plan_id":"cebpf4jnsgd1na2vs0mg"},{"bike_id":"ddb82d01-1bcd-4ddb-8328-247fc4cb7b67","system_id":"levelo_inurba_marseille","lat":43.290631,"lon":5.359244,"is_reserved":false,"is_disabled":false,"rental_uris":{"android":"levelo://app?vid=ddb82d01-1bcd-4ddb-8328-247fc4cb7b67","ios":"levelo://app?vid=ddb82d01-1bcd-4ddb-8328-247fc4cb7b67"},"vehicle_type_id":"4","last_reported":1710885988,"current_range_meters":7200,"station_id":"ce4bha92rcd13ifvqeg0","pricing_plan_id":"cebpf4jnsgd1na2vs0mg"},{"bike_id":"e48a4414-9246-44e5-a4ef-cf433e1006d0","system_id":"levelo_inurba_marseille","lat":43.29416,"lon":5.38616,"is_reserved":false,"is_disabled":false,"rental_uris":{"android":"levelo://app?vid=e48a4414-9246-44e5-a4ef-cf433e1006d0","ios":"levelo://app?vid=e48a4414-9246-44e5-a4ef-cf433e1006d0"},"vehicle_type_id":"4","last_reported":1710885988,"current_range_meters":28000,"station_id":"ce4bh2h2rcd13ifvqdh0","pricing_plan_id":"cebpf4jnsgd1na2vs0mg"},{"bike_id":"2694f7cc-39eb-402c-9187-eac278fdce22","system_id":"levelo_inurba_marseille","lat":43.294153,"lon":5.386305,"is_reserved":false,"is_disabled":false,"rental_uris":{"android":"levelo://app?vid=2694f7cc-39eb-402c-9187-eac278fdce22","ios":"levelo://app?vid=2694f7cc-39eb-402c-9187-eac278fdce22"},"vehicle_type_id":"4","last_reported":1710885988,"current_range_meters":31200,"station_id":"ce4bh2h2rcd13ifvqdh0","pricing_plan_id":"cebpf4jnsgd1na2vs0mg"},{"bike_id":"d135c643-99b7-4cc8-bc0e-feee7e283373","system_id":"levelo_inurba_marseille","lat":43.294162,"lon":5.386292,"is_reserved":false,"is_disabled":false,"rental_uris":{"android":"levelo://app?vid=d135c643-99b7-4cc8-bc0e-feee7e283373","ios":"levelo://app?vid=d135c643-99b7-4cc8-bc0e-feee7e283373"},"vehicle_type_id":"4","last_reported":1710885988,"current_range_meters":24000,"station_id":"ce4bh2h2rcd13ifvqdh0","pricing_plan_id":"cebpf4jnsgd1na2vs0mg"},{"bike_id":"5df44cdf-30e8-40f8-a142-737a2653bdab","system_id":"levelo_inurba_marseille","lat":43.294153,"lon":5.386305,"is_reserved":false,"is_disabled":false,"rental_uris":{"android":"levelo://app?vid=5df44cdf-30e8-40f8-a142-737a2653bdab","ios":"levelo://app?vid=5df44cdf-30e8-40f8-a142-737a2653bdab"},"vehicle_type_id":"4","last_reported":1710885988,"current_range_meters":30800,"station_id":"ce4bh2h2rcd13ifvqdh0","pricing_plan_id":"cebpf4jnsgd1na2vs0mg"},{"bike_id":"ed4d7084-0a62-4469-b5af-60c4832283a7","system_id":"levelo_inurba_marseille","lat":43.294153,"lon":5.386305,"is_reserved":false,"is_disabled":false,"rental_uris":{"android":"levelo://app?vid=ed4d7084-0a62-4469-b5af-60c4832283a7","ios":"levelo://app?vid=ed4d7084-0a62-4469-b5af-60c4832283a7"},"vehicle_type_id":"4","last_reported":1710885988,"current_range_meters":17600,"station_id":"ce4bh2h2rcd13ifvqdh0","pricing_plan_id":"cebpf4jnsgd1na2vs0mg"},{"bike_id":"5fc34f5d-4f50-406e-8abc-7a017ba2c531","system_id":"levelo_inurba_marseille","lat":43.29405,"lon":5.386161,"is_reserved":false,"is_disabled":false,"rental_uris":{"android":"levelo://app?vid=5fc34f5d-4f50-406e-8abc-7a017ba2c531","ios":"levelo://app?vid=5fc34f5d-4f50-406e-8abc-7a017ba2c531"},"vehicle_type_id":"4","last_reported":1710885988,"current_range_meters":24800,"station_id":"ce4bh2h2rcd13ifvqdh0","pricing_plan_id":"cebpf4jnsgd1na2vs0mg"},{"bike_id":"3fc44a0f-ac86-4dc8-b30b-89f08bd86603","system_id":"levelo_inurba_marseille","lat":43.29415,"lon":5.38636,"is_reserved":false,"is_disabled":false,"rental_uris":{"android":"levelo://app?vid=3fc44a0f-ac86-4dc8-b30b-89f08bd86603","ios":"levelo://app?vid=3fc44a0f-ac86-4dc8-b30b-89f08bd86603"},"vehicle_type_id":"4","last_reported":1710885988,"current_range_meters":12800,"station_id":"ce4bh2h2rcd13ifvqdh0","pricing_plan_id":"cebpf4jnsgd1na2vs0mg"},{"bike_id":"620bffd8-68d2-413a-b4b5-898f202a1bfe","system_id":"levelo_inurba_marseille","lat":43.289184,"lon":5.366408,"is_reserved":false,"is_disabled":false,"rental_uris":{"android":"levelo://app?vid=620bffd8-68d2-413a-b4b5-898f202a1bfe","ios":"levelo://app?vid=620bffd8-68d2-413a-b4b5-898f202a1bfe"},"vehicle_type_id":"4","last_reported":1710885988,"current_range_meters":22400,"station_id":"ce4bhap2rcd13ifvqek0","pricing_plan_id":"cebpf4jnsgd1na2vs0mg"},{"bike_id":"fab70fc6-670b-48b2-b6ac-38b8738fde46","system_id":"levelo_inurba_marseille","lat":43.289468,"lon":5.363719,"is_reserved":false,"is_disabled":false,"rental_uris":{"android":"levelo://app?vid=fab70fc6-670b-48b2-b6ac-38b8738fde46","ios":"levelo://app?vid=fab70fc6-670b-48b2-b6ac-38b8738fde46"},"vehicle_type_id":"4","last_reported":1710885988,"current_range_meters":8000,"station_id":"ce4bhc92rcd13ifvqetg","pricing_plan_id":"cebpf4jnsgd1na2vs0mg"},{"bike_id":"10cff093-09cd-453b-9d94-23a5e5c229b5","system_id":"levelo_inurba_marseille","lat":43.289184,"lon":5.366408,"is_reserved":false,"is_disabled":false,"rental_uris":{"android":"levelo://app?vid=10cff093-09cd-453b-9d94-23a5e5c229b5","ios":"levelo://app?vid=10cff093-09cd-453b-9d94-23a5e5c229b5"},"vehicle_type_id":"4","last_reported":1710885988,"current_range_meters":31200,"station_id":"ce4bhap2rcd13ifvqek0","pricing_plan_id":"cebpf4jnsgd1na2vs0mg"},{"bike_id":"e772b93a-2f4a-4e0c-9dbe-a358fb9ee378","system_id":"levelo_inurba_marseille","lat":43.29411,"lon":5.386325,"is_reserved":false,"is_disabled":false,"rental_uris":{"android":"levelo://app?vid=e772b93a-2f4a-4e0c-9dbe-a358fb9ee378","ios":"levelo://app?vid=e772b93a-2f4a-4e0c-9dbe-a358fb9ee378"},"vehicle_type_id":"4","last_reported":1710885988,"current_range_meters":7200,"station_id":"ce4bh2h2rcd13ifvqdh0","pricing_plan_id":"cebpf4jnsgd1na2vs0mg"},{"bike_id":"63021fdc-948d-4de3-b9d3-778c84d8a770","system_id":"levelo_inurba_marseille","lat":43.29407,"lon":5.38627,"is_reserved":false,"is_disabled":false,"rental_uris":{"android":"levelo://app?vid=63021fdc-948d-4de3-b9d3-778c84d8a770","ios":"levelo://app?vid=63021fdc-948d-4de3-b9d3-778c84d8a770"},