{"last_updated":1758953552,"ttl":60,"version":"2.2","data":{"bikes":[{"bike_id":"7d9c893e-52dd-45e6-aa9f-5fa5fcf1a192","system_id":"levelo_inurba_marseille","lat":43.30913,"lon":5.40125,"is_reserved":false,"is_disabled":true,"rental_uris":{"android":"levelo://app?vid=7d9c893e-52dd-45e6-aa9f-5fa5fcf1a192","ios":"levelo://app?vid=7d9c893e-52dd-45e6-aa9f-5fa5fcf1a192"},"vehicle_type_id":"4","last_reported":1758953552,"current_range_meters":3200,"station_id":"ce4bgvp2rcd13ifvqct0","pricing_plan_id":"cebpf4jnsgd1na2vs0mg"},{"bike_id":"64279a81-ee34-4c3b-b57a-9b62bb0c0a24","system_id":"levelo_inurba_marseille","lat":43.31541,"lon":5.43167,"is_reserved":false,"is_disabled":false,"rental_uris":{"android":"levelo://app?vid=64279a81-ee34-4c3b-b57a-9b62bb0c0a24","ios":"levelo://app?vid=64279a81-ee34-4c3b-b57a-9b62bb0c0a24"},"vehicle_type_id":"4","last_reported":1758953552,"current_range_meters":3200,"station_id":"","pricing_plan_id":"cebpf4jnsgd1na2vs0mg"},{"bike_id":"a9c882fa-042c-4611-b8c3-cc0d3b2ee569","system_id":"levelo_inurba_marseille","lat":43.282642,"lon":5.350744,"is_reserved":false,"is_disabled":false,"rental_uris":{"android":"levelo://app?vid=a9c882fa-042c-4611-b8c3-cc0d3b2ee569","ios":"levelo://app?vid=a9c882fa-042c-4611-b8c3-cc0d3b2ee569"},"vehicle_type_id":"4","last_reported":1758953552,"current_range_meters":4400,"station_id":"","pricing_plan_id":"cebpf4jnsgd1na2vs0mg"},{"bike_id":"4949fcce-d8e3-467f-b7b4-445f07ef4ae4","system_id":"levelo_inurba_marseille","lat":43.29937,"lon":5.36575,"is_reserved":false,"is_disabled":false,"rental_uris":{"android":"levelo://app?vid=4949fcce-d8e3-467f-b7b4-445f07ef4ae4","ios":"levelo://app?vid=4949fcce-d8e3-467f-b7b4-445f07ef4ae4"},"vehicle_type_id":"4","last_reported":1758953552,"current_range_meters":4400,"station_id":"ce4bgm92rcd13ifvqbr0","pricing_plan_id":"cebpf4jnsgd1na2vs0mg"},{"bike_id":"588bb5c6-d90f-4edd-b1de-2d2164a39c00","system_id":"levelo_inurba_marseille","lat":43.32948,"lon":5.39046,"is_reserved":false,"is_disabled":false,"rental_uris":{"android":"levelo://app?vid=588bb5c6-d90f-4edd-b1de-2d2164a39c00","ios":"levelo://app?vid=588bb5c6-d90f-4edd-b1de-2d2164a39c00"},"vehicle_type_id":"4","last_reported":1758953552,"current_range_meters":4400,"station_id":"","pricing_plan_id":"cebpf4jnsgd1na2vs0mg"},{"bike_id":"d8a2347c-225c-4028-b110-5b8c63be1a5a","system_id":"levelo_inurba_marseille","lat":43.287902,"lon":5.376473,"is_reserved":false,"is_disabled":false,"rental_uris":{"android":"levelo://app?vid=d8a2347c-225c-4028-b110-5b8c63be1a5a","ios":"levelo://app?vid=d8a2347c-225c-4028-b110-5b8c63be1a5a"},"vehicle_type_id":"4","last_reported":1758953552,"current_range_meters":4800,"station_id":"","pricing_plan_id":"cebpf4jnsgd1na2vs0mg"},{"bike_id":"003515e8-8117-44bb-979d-5f47e8d50fda","system_id":"levelo_inurba_marseille","lat":43.30608,"lon":5.37555,"is_reserved":false,"is_disabled":false,"rental_uris":{"android":"levelo://app?vid=003515e8-8117-44bb-979d-5f47e8d50fda","ios":"levelo://app?vid=003515e8-8117-44bb-979d-5f47e8d50fda"},"vehicle_type_id":"4","last_reported":1758953552,"current_range_meters":5600,"station_id":"","pricing_plan_id":"cebpf4jnsgd1na2vs0mg"},{"bike_id":"8eae954c-dab6-4303-94f5-569e1c483f62","system_id":"levelo_inurba_marseille","lat":43.29482,"lon":5.40741,"is_reserved":false,"is_disabled":false,"rental_uris":{"android":"levelo://app?vid=8eae954c-dab6-4303-94f5-569e1c483f62","ios":"levelo://app?vid=8eae954c-dab6-4303-94f5-569e1c483f62"},"vehicle_type_id":"4","last_reported":1758953552,"current_range_meters":5600,"station_id":"","pricing_plan_id":"cebpf4jnsgd1na2vs0mg"},{"bike_id":"0a366caa-b462-4eaa-95bc-71e07880bea7","system_id":"levelo_inurba_marseille","lat":43.27045,"lon":5.40308,"is_reserved":false,"is_disabled":false,"rental_uris":{"android":"levelo://app?vid=0a366caa-b462-4eaa-95bc-71e07880bea7","ios":"levelo://app?vid=0a366caa-b462-4eaa-95bc-71e07880bea7"},"vehicle_type_id":"4","last_reported":1758953552,"current_range_meters":6000,"station_id":"ce4bhk92rcd13ifvqgc0","pricing_plan_id":"cebpf4jnsgd1na2vs0mg"},{"bike_id":"3c19536b-fb5b-4f9a-ab5d-bec9a9d3b963","system_id":"levelo_inurba_marseille","lat":43.2464,"lon":5.38904,"is_reserved":false,"is_disabled":false,"rental_uris":{"android":"levelo://app?vid=3c19536b-fb5b-4f9a-ab5d-bec9a9d3b963","ios":"levelo://app?vid=3c19536b-fb5b-4f9a-ab5d-bec9a9d3b963"},"vehicle_type_id":"4","last_reported":1758953552,"current_range_meters":6000,"station_id":"ce4bhg12rcd13ifvqf60","pricing_plan_id":"cebpf4jnsgd1na2vs0mg"},{"bike_id":"fee689bb-cae2-4ff6-9789-75afd812a849","system_id":"levelo_inurba_marseille","lat":43.27954,"lon":5.40094,"is_reserved":false,"is_disabled":false,"rental_uris":{"android":"levelo://app?vid=fee689bb-cae2-4ff6-9789-75afd812a849","ios":"levelo://app?vid=fee689bb-cae2-4ff6-9789-75afd812a849"},"vehicle_type_id":"4","last_reported":1758953552,"current_range_meters":6000,"station_id":"","pricing_plan_id":"cebpf4jnsgd1na2vs0mg"},{"bike_id":"f897d300-643c-4c7a-951b-f56d70ef23ca","system_id":"levelo_inurba_marseille","lat":43.303384,"lon":5.39076,"is_reserved":false,"is_disabled":false,"rental_uris":{"android":"levelo://app?vid=f897d300-643c-4c7a-951b-f56d70ef23ca","ios":"levelo://app?vid=f897d300-643c-4c7a-951b-f56d70ef23ca"},"vehicle_type_id":"4","last_reported":1758953552,"current_range_meters":6400,"station_id":"","pricing_plan_id":"cebpf4jnsgd1na2vs0mg"},{"bike_id":"05cf823f-d01d-49dc-b7fd-024ca2b99e90","system_id":"levelo_inurba_marseille","lat":43.29442,"lon":5.44411,"is_reserved":false,"is_disabled":false,"rental_uris":{"android":"levelo://app?vid=05cf823f-d01d-49dc-b7fd-024ca2b99e90","ios":"levelo://app?vid=05cf823f-d01d-49dc-b7fd-024ca2b99e90"},"vehicle_type_id":"4","last_reported":1758953552,"current_range_meters":6400,"station_id":"","pricing_plan_id":"cebpf4jnsgd1na2vs0mg"},{"bike_id":"af29c7b0-3b11-473c-8a84-69d9e236f367","system_id":"levelo_inurba_marseille","lat":43.27314,"lon":5.39091,"is_reserved":false,"is_disabled":false,"rental_uris":{"android":"levelo://app?vid=af29c7b0-3b11-473c-8a84-69d9e236f367","ios":"levelo://app?vid=af29c7b0-3b11-473c-8a84-69d9e236f367"},"vehicle_type_id":"4","last_reported":1758953552,"current_range_meters":6000,"station_id":"ce4bhgp2rcd13ifvqfe0","pricing_plan_id":"cebpf4jnsgd1na2vs0mg"},{"bike_id":"10570c5a-8e04-4e55-8478-90c821e94d73","system_id":"levelo_inurba_marseille","lat":43.33181,"lon":5.38251,"is_reserved":false,"is_disabled":false,"rental_uris":{"android":"levelo://app?vid=10570c5a-8e04-4e55-8478-90c821e94d73","ios":"levelo://app?vid=10570c5a-8e04-4e55-8478-90c821e94d73"},"vehicle_type_id":"4","last_reported":1758953552,"current_range_meters":6400,"station_id":"","pricing_plan_id":"cebpf4jnsgd1na2vs0mg"},{"bike_id":"fad55caa-b226-4b3d-b96f-a62351891de6","system_id":"levelo_inurba_marseille","lat":43.29611,"lon":5.38121,"is_reserved":false,"is_disabled":false,"rental_uris":{"android":"levelo://app?vid=fad55caa-b226-4b3d-b96f-a62351891de6","ios":"levelo://app?vid=fad55caa-b226-4b3d-b96f-a62351891de6"},"vehicle_type_id":"4","last_reported":1758953552,"current_range_meters":6800,"station_id":"ce4bgl12rcd13ifvqbo0","pricing_plan_id":"cebpf4jnsgd1na2vs0mg"},{"bike_id":"6a6d6cff-09b8-44e2-b0ef-2f3a93fde45f","system_id":"levelo_inurba_marseille","lat":43.29789,"lon":5.37908,"is_reserved":false,"is_disabled":false,"rental_uris":{"android":"levelo://app?vid=6a6d6cff-09b8-44e2-b0ef-2f3a93fde45f","ios":"levelo://app?vid=6a6d6cff-09b8-44e2-b0ef-2f3a93fde45f"},"vehicle_type_id":"4","last_reported":1758953552,"current_range_meters":6800,"station_id":"","pricing_plan_id":"cebpf4jnsgd1na2vs0mg"},{"bike_id":"e057a4ef-97bf-4e25-9a18-02598bbb0bbf","system_id":"levelo_inurba_marseille","lat":43.24554,"lon":5.39516,"is_reserved":false,"is_disabled":true,"rental_uris":{"android":"levelo://app?vid=e057a4ef-97bf-4e25-9a18-02598bbb0bbf","ios":"levelo://app?vid=e057a4ef-97bf-4e25-9a18-02598bbb0bbf"},"vehicle_type_id":"4","last_reported":1758953552,"current_range_meters":6800,"station_id":"ce4bhlp2rcd13ifvqgjg","pricing_plan_id":"cebpf4jnsgd1na2vs0mg"},{"bike_id":"f3dac6d8-b180-4928-85f1-c0e06c666299","system_id":"levelo_inurba_marseille","lat":43.26379,"lon":5.39661,"is_reserved":false,"is_disabled":false,"rental_uris":{"android":"levelo://app?vid=f3dac6d8-b180-4928-85f1-c0e06c666299","ios":"levelo://app?vid=f3dac6d8-b180-4928-85f1-c0e06c666299"},"vehicle_type_id":"4","last_reported":1758953552,"current_range_meters":6800,"station_id":"","pricing_plan_id":"cebpf4jnsgd1na2vs0mg"},{"bike_id":"53001c16-1dcc-4401-8407-fd1737bde282","system_id":"levelo_inurba_marseille","lat":43.29599,"lon":5.38109,"is_reserved":false,"is_disabled":false,"rental_uris":{"android":"levelo://app?vid=53001c16-1dcc-4401-8407-fd1737bde282","ios":"levelo://app?vid=53001c16-1dcc-4401-8407-fd1737bde282"},"vehicle_type_id":"4","last_reported":1758953552,"current_range_meters":6800,"station_id":"ce4bgl12rcd13ifvqbo0","pricing_plan_id":"cebpf4jnsgd1na2vs0mg"},{"bike_id":"c7f6a08b-c655-4213-b2ba-7d02e7f382fe","system_id":"levelo_inurba_marseille","lat":43.27988,"lon":5.39483,"is_reserved":false,"is_disabled":false,"rental_uris":{"android":"levelo://app?vid=c7f6a08b-c655-4213-b2ba-7d02e7f382fe","ios":"levelo://app?vid=c7f6a08b-c655-4213-b2ba-7d02e7f382fe"},"vehicle_type_id":"4","last_reported":1758953552,"current_range_meters":6800,"station_id":"","pricing_plan_id":"cebpf4jnsgd1na2vs0mg"},{"bike_id":"890ffdea-bcf1-4a50-87f1-4792a85b2fb6","system_id":"levelo_inurba_marseille","lat":43.32344,"lon":5.40623,"is_reserved":false,"is_disabled":false,"rental_uris":{"android":"levelo://app?vid=890ffdea-bcf1-4a50-87f1-4792a85b2fb6","ios":"levelo://app?vid=890ffdea-bcf1-4a50-87f1-4792a85b2fb6"},"vehicle_type_id":"4","last_reported":1758953552,"current_range_meters":6800,"station_id":"ce4bhq92rcd13ifvqhjg","pricing_plan_id":"cebpf4jnsgd1na2vs0mg"},{"bike_id":"8cfc4174-b0cd-4d47-9abc-24b60bce3fcc","system_id":"levelo_inurba_marseille","lat":43.28408,"lon":5.37518,"is_reserved":false,"is_disabled":false,"rental_uris":{"android":"levelo://app?vid=8cfc4174-b0cd-4d47-9abc-24b60bce3fcc","ios":"levelo://app?vid=8cfc4174-b0cd-4d47-9abc-24b60bce3fcc"},"vehicle_type_id":"4","last_reported":1758953552,"current_range_meters":6800,"station_id":"ce4bh412rcd13ifvqds0","pricing_plan_id":"cebpf4jnsgd1na2vs0mg"},{"bike_id":"6ed89cc0-a1c2-411f-8cbe-6e0b5926bab7","system_id":"levelo_inurba_marseille","lat":43.295633,"lon":5.400205,"is_reserved":false,"is_disabled":false,"rental_uris":{"android":"levelo://app?vid=6ed89cc0-a1c2-411f-8cbe-6e0b5926bab7","ios":"levelo://app?vid=6ed89cc0-a1c2-411f-8cbe-6e0b5926bab7"},"vehicle_type_id":"4","last_reported":1758953552,"current_range_meters":6800,"station_id":"ce4bh312rcd13ifvqdj0","pricing_plan_id":"cebpf4jnsgd1na2vs0mg"},{"bike_id":"14568db5-2437-46e1-a004-fca5da459653","system_id":"levelo_inurba_marseille","lat":43.28666,"lon":5.39497,"is_reserved":false,"is_disabled":true,"rental_uris":{"android":"levelo://app?vid=14568db5-2437-46e1-a004-fca5da459653","ios":"levelo://app?vid=14568db5-2437-46e1-a004-fca5da459653"},"vehicle_type_id":"4","last_reported":1758953552,"current_range_meters":7200,"station_id":"","pricing_plan_id":"cebpf4jnsgd1na2vs0mg"},{"bike_id":"1776e90b-4094-4e79-94fd-7ea4cba6715e","system_id":"levelo_inurba_marseille","lat":43.26577,"lon":5.39006,"is_reserved":false,"is_disabled":false,"rental_uris":{"android":"levelo://app?vid=1776e90b-4094-4e79-94fd-7ea4cba6715e","ios":"levelo://app?vid=1776e90b-4094-4e79-94fd-7ea4cba6715e"},"vehicle_type_id":"4","last_reported":1758953552,"current_range_meters":7200,"station_id":"ce4bhe12rcd13ifvqf30","pricing_plan_id":"cebpf4jnsgd1na2vs0mg"},{"bike_id":"0b1eb747-8274-4a8a-a752-7c30d6b68dc6","system_id":"levelo_inurba_marseille","lat":43.29905,"lon":5.43664,"is_reserved":false,"is_disabled":false,"rental_uris":{"android":"levelo://app?vid=0b1eb747-8274-4a8a-a752-7c30d6b68dc6","ios":"levelo://app?vid=0b1eb747-8274-4a8a-a752-7c30d6b68dc6"},"vehicle_type_id":"4","last_reported":1758953552,"current_range_meters":7200,"station_id":"ce4bhpp2rcd13ifvqhfg","pricing_plan_id":"cebpf4jnsgd1na2vs0mg"},{"bike_id":"00822170-7cc2-47e8-bf25-34d2439a812a","system_id":"levelo_inurba_marseille","lat":43.284618,"lon":5.358883,"is_reserved":false,"is_disabled":false,"rental_uris":{"android":"levelo://app?vid=00822170-7cc2-47e8-bf25-34d2439a812a","ios":"levelo://app?vid=00822170-7cc2-47e8-bf25-34d2439a812a"},"vehicle_type_id":"4","last_reported":1758953552,"current_range_meters":7200,"station_id":"ce4bhah2rcd13ifvqei0","pricing_plan_id":"cebpf4jnsgd1na2vs0mg"},{"bike_id":"3f2a6925-7ff0-466e-9c67-79993b24b793","system_id":"levelo_inurba_marseille","lat":43.307769,"lon":5.376634,"is_reserved":false,"is_disabled":false,"rental_uris":{"android":"levelo://app?vid=3f2a6925-7ff0-466e-9c67-79993b24b793","ios":"levelo://app?vid=3f2a6925-7ff0-466e-9c67-79993b24b793"},"vehicle_type_id":"4","last_reported":1758953552,"current_range_meters":7200,"station_id":"ce4bgv92rcd13ifvqcq0","pricing_plan_id":"cebpf4jnsgd1na2vs0mg"},{"bike_id":"75e9fae5-1f8f-46c5-9408-a538927a0a47","system_id":"levelo_inurba_marseille","lat":43.28479,"lon":5.38563,"is_reserved":false,"is_disabled":false,"rental_uris":{"android":"levelo://app?vid=75e9fae5-1f8f-46c5-9408-a538927a0a47","ios":"levelo://app?vid=75e9fae5-1f8f-46c5-9408-a538927a0a47"},"vehicle_type_id":"4","last_reported":1758953552,"current_range_meters":8000,"station_id":"ce4bh8p2rcd13ifvqeb0","pricing_plan_id":"cebpf4jnsgd1na2vs0mg"},{"bike_id":"d8188c10-fa44-48f3-80bc-0d7af47e2395","system_id":"levelo_inurba_marseille","lat":43.27997,"lon":5.41652,"is_reserved":false,"is_disabled":false,"rental_uris":{"android":"levelo://app?vid=d8188c10-fa44-48f3-80bc-0d7af47e2395","ios":"levelo://app?vid=d8188c10-fa44-48f3-80bc-0d7af47e2395"},"vehicle_type_id":"4","last_reported":1758953552,"current_range_meters":8000,"station_id":"ce4bho12rcd13ifvqh1g","pricing_plan_id":"cebpf4jnsgd1na2vs0mg"},{"bike_id":"31acb67f-f128-4924-bdf8-8cd571b9e5b4","system_id":"levelo_inurba_marseille","lat":43.27206,"lon":5.39188,"is_reserved":false,"is_disabled":false,"rental_uris":{"android":"levelo://app?vid=31acb67f-f128-4924-bdf8-8cd571b9e5b4","ios":"levelo://app?vid=31acb67f-f128-4924-bdf8-8cd571b9e5b4"},"vehicle_type_id":"4","last_reported":1758953552,"current_range_meters":7200,"station_id":"ce4bhhp2rcd13ifvqfm0","pricing_plan_id":"cebpf4jnsgd1na2vs0mg"},{"bike_id":"c997d792-cf69-4564-bd42-903ef7057cc4","system_id":"levelo_inurba_marseille","lat":43.3032,"lon":5.4046,"is_reserved":false,"is_disabled":false,"rental_uris":{"android":"levelo://app?vid=c997d792-cf69-4564-bd42-903ef7057cc4","ios":"levelo://app?vid=c997d792-cf69-4564-bd42-903ef7057cc4"},"vehicle_type_id":"4","last_reported":1758953552,"current_range_meters":8000,"station_id":"ce4bh012rcd13ifvqd10","pricing_plan_id":"cebpf4jnsgd1na2vs0mg"},{"bike_id":"887d2329-ebc9-4a93-bc3c-660fe04dfc65","system_id":"levelo_inurba_marseille","lat":43.2926,"lon":5.36846,"is_reserved":false,"is_disabled":false,"rental_uris":{"android":"levelo://app?vid=887d2329-ebc9-4a93-bc3c-660fe04dfc65","ios":"levelo://app?vid=887d2329-ebc9-4a93-bc3c-660fe04dfc65"},"vehicle_type_id":"4","last_reported":1758953552,"current_range_meters":8000,"station_id":"ce4bhbp2rcd13ifvqesg","pricing_plan_id":"cebpf4jnsgd1na2vs0mg"},{"bike_id":"a898d2fd-6567-4531-a6ba-ae906960be4e","system_id":"levelo_inurba_marseille","lat":43.28909,"lon":5.3639,"is_reserved":false,"is_disabled":false,"rental_uris":{"android":"levelo://app?vid=a898d2fd-6567-4531-a6ba-ae906960be4e","ios":"levelo://app?vid=a898d2fd-6567-4531-a6ba-ae906960be4e"},"vehicle_type_id":"4","last_reported":1758953552,"current_range_meters":8000,"station_id":"ce4bhc92rcd13ifvqetg","pricing_plan_id":"cebpf4jnsgd1na2vs0mg"},{"bike_id":"041cd397-24ab-4e04-af23-07b961e161f4","system_id":"levelo_inurba_marseille","lat":43.337444,"lon":5.374475,"is_reserved":false,"is_disabled":false,"rental_uris":{"android":"levelo://app?vid=041cd397-24ab-4e04-af23-07b961e161f4","ios":"levelo://app?vid=041cd397-24ab-4e04-af23-07b961e161f4"},"vehicle_type_id":"4","last_reported":1758953552,"current_range_meters":8000,"station_id":"","pricing_plan_id":"cebpf4jnsgd1na2vs0mg"},{"bike_id":"78b43ab0-57e9-43ee-b7c6-fbbb1406e224","system_id":"levelo_inurba_marseille","lat":43.257294,"lon":5.411005,"is_reserved":false,"is_disabled":true,"rental_uris":{"android":"levelo://app?vid=78b43ab0-57e9-43ee-b7c6-fbbb1406e224","ios":"levelo://app?vid=78b43ab0-57e9-43ee-b7c6-fbbb1406e224"},"vehicle_type_id":"4","last_reported":1758953552,"current_range_meters":8000,"station_id":"ce4bhkp2rcd13ifvqgd0","pricing_plan_id":"cebpf4jnsgd1na2vs0mg"},{"bike_id":"d04fcbfe-168d-46c8-8add-df8419b475eb","system_id":"levelo_inurba_marseille","lat":43.271782,"lon":5.409959,"is_reserved":false,"is_disabled":false,"rental_uris":{"android":"levelo://app?vid=d04fcbfe-168d-46c8-8add-df8419b475eb","ios":"levelo://app?vid=d04fcbfe-168d-46c8-8add-df8419b475eb"},"vehicle_type_id":"4","last_reported":1758953552,"current_range_meters":8400,"station_id":"ce4bhl12rcd13ifvqgf0","pricing_plan_id":"cebpf4jnsgd1na2vs0mg"},{"bike_id":"22e1526a-5d94-480e-9eef-c281aa35345c","system_id":"levelo_inurba_marseille","lat":43.21208,"lon":5.35082,"is_reserved":false,"is_disabled":false,"rental_uris":{"android":"levelo://app?vid=22e1526a-5d94-480e-9eef-c281aa35345c","ios":"levelo://app?vid=22e1526a-5d94-480e-9eef-c281aa35345c"},"vehicle_type_id":"4","last_reported":1758953552,"current_range_meters":8400,"station_id":"st_cvj6sg6p6f1abm77japg","pricing_plan_id":"cebpf4jnsgd1na2vs0mg"},{"bike_id":"75611fb7-df45-4d9f-9db0-a181136cc424","system_id":"levelo_inurba_marseille","lat":43.21749,"lon":5.34599,"is_reserved":false,"is_disabled":false,"rental_uris":{"android":"levelo://app?vid=75611fb7-df45-4d9f-9db0-a181136cc424","ios":"levelo://app?vid=75611fb7-df45-4d9f-9db0-a181136cc424"},"vehicle_type_id":"4","last_reported":1758953552,"current_range_meters":8400,"station_id":"st_cvj6r9ubvosntc0bgbag","pricing_plan_id":"cebpf4jnsgd1na2vs0mg"},{"bike_id":"96d9d290-3482-406b-a187-2a8b12ccabb2","system_id":"levelo_inurba_marseille","lat":43.289966,"lon":5.371208,"is_reserved":false,"is_disabled":false,"rental_uris":{"android":"levelo://app?vid=96d9d290-3482-406b-a187-2a8b12ccabb2","ios":"levelo://app?vid=96d9d290-3482-406b-a187-2a8b12ccabb2"},"vehicle_type_id":"4","last_reported":1758953552,"current_range_meters":8400,"station_id":"","pricing_plan_id":"cebpf4jnsgd1na2vs0mg"},{"bike_id":"888d9833-34a2-4f76-b088-ac5f6b33041d","system_id":"levelo_inurba_marseille","lat":43.24391,"lon":5.37076,"is_reserved":false,"is_disabled":false,"rental_uris":{"android":"levelo://app?vid=888d9833-34a2-4f76-b088-ac5f6b33041d","ios":"levelo://app?vid=888d9833-34a2-4f76-b088-ac5f6b33041d"},"vehicle_type_id":"4","last_reported":1758953552,"current_range_meters":8400,"station_id":"ce4bhhh2rcd13ifvqfk0","pricing_plan_id":"cebpf4jnsgd1na2vs0mg"},{"bike_id":"174dfb4f-f618-4c2f-be1c-ae0d6b405e94","system_id":"levelo_inurba_marseille","lat":43.29708,"lon":5.38279,"is_reserved":false,"is_disabled":false,"rental_uris":{"android":"levelo://app?vid=174dfb4f-f618-4c2f-be1c-ae0d6b405e94","ios":"levelo://app?vid=174dfb4f-f618-4c2f-be1c-ae0d6b405e94"},"vehicle_type_id":"4","last_reported":1758953552,"current_range_meters":8800,"station_id":"","pricing_plan_id":"cebpf4jnsgd1na2vs0mg"},{"bike_id":"87b16657-eeaf-4a1b-9184-a62af12c6a4d","system_id":"levelo_inurba_marseille","lat":43.27365,"lon":5.36258,"is_reserved":false,"is_disabled":false,"rental_uris":{"android":"levelo://app?vid=87b16657-eeaf-4a1b-9184-a62af12c6a4d","ios":"levelo://app?vid=87b16657-eeaf-4a1b-9184-a62af12c6a4d"},"vehicle_type_id":"4","last_reported":1758953552,"current_range_meters":8800,"station_id":"ce4bhbh2rcd13ifvqeo0","pricing_plan_id":"cebpf4jnsgd1na2vs0mg"},{"bike_id":"8fb6b312-30ed-4765-90d6-32ed783bc889","system_id":"levelo_inurba_marseille","lat":43.2997,"lon":5.41331,"is_reserved":false,"is_disabled":true,"rental_uris":{"android":"levelo://app?vid=8fb6b312-30ed-4765-90d6-32ed783bc889","ios":"levelo://app?vid=8fb6b312-30ed-4765-90d6-32ed783bc889"},"vehicle_type_id":"4","last_reported":1758953552,"current_range_meters":8800,"station_id":"ce4bhp12rcd13ifvqh9g","pricing_plan_id":"cebpf4jnsgd1na2vs0mg"},{"bike_id":"b01b5bc6-6834-41fb-be97-f5b6fb7e9ec8","system_id":"levelo_inurba_marseille","lat":43.26306,"lon":5.39838,"is_reserved":false,"is_disabled":false,"rental_uris":{"android":"levelo://app?vid=b01b5bc6-6834-41fb-be97-f5b6fb7e9ec8","ios":"levelo://app?vid=b01b5bc6-6834-41fb-be97-f5b6fb7e9ec8"},"vehicle_type_id":"4","last_reported":1758953552,"current_range_meters":9200,"station_id":"","pricing_plan_id":"cebpf4jnsgd1na2vs0mg"},{"bike_id":"10a1f6b6-637c-4e45-a304-d180b707ff74","system_id":"levelo_inurba_marseille","lat":43.28415,"lon":5.3752,"is_reserved":false,"is_disabled":false,"rental_uris":{"android":"levelo://app?vid=10a1f6b6-637c-4e45-a304-d180b707ff74","ios":"levelo://app?vid=10a1f6b6-637c-4e45-a304-d180b707ff74"},"vehicle_type_id":"4","last_reported":1758953552,"current_range_meters":9200,"station_id":"ce4bh412rcd13ifvqds0","pricing_plan_id":"cebpf4jnsgd1na2vs0mg"},{"bike_id":"ea8a4eef-57a3-4dc7-b7e7-531bbcd9507c","system_id":"levelo_inurba_marseille","lat":43.32336,"lon":5.40619,"is_reserved":false,"is_disabled":false,"rental_uris":{"android":"levelo://app?vid=ea8a4eef-57a3-4dc7-b7e7-531bbcd9507c","ios":"levelo://app?vid=ea8a4eef-57a3-4dc7-b7e7-531bbcd9507c"},"vehicle_type_id":"4","last_reported":1758953552,"current_range_meters":9200,"station_id":"ce4bhq92rcd13ifvqhjg","pricing_plan_id":"cebpf4jnsgd1na2vs0mg"},{"bike_id":"17427bb0-4fb5-43e3-ad33-e759cc7cc09c","system_id":"levelo_inurba_marseille","lat":43.31557,"lon":5.38606,"is_reserved":false,"is_disabled":false,"rental_uris":{"android":"levelo://app?vid=17427bb0-4fb5-43e3-ad33-e759cc7cc09c","ios":"levelo://app?vid=17427bb0-4fb5-43e3-ad33-e759cc7cc09c"},"vehicle_type_id":"4","last_reported":1758953552,"current_range_meters":9200,"station_id":"","pricing_plan_id":"cebpf4jnsgd1na2vs0mg"},{"bike_id":"b77c0c26-5543-49c5-acf9-741f709ee51a","system_id":"levelo_inurba_marseille","lat":43.26486,"lon":5.39563,"is_reserved":false,"is_disabled":true,"rental_uris":{"android":"levelo://app?vid=b77c0c26-5543-49c5-acf9-741f709ee51a","ios":"levelo://app?vid=b77c0c26-5543-49c5-acf9-741f709ee51a"},"vehicle_type_id":"4","last_reported":1758953552,"current_range_meters":9200,"station_id":"ce4bhi12rcd13ifvqfq0","pricing_plan_id":"cebpf4jnsgd1na2vs0mg"},{"bike_id":"a57b3feb-2354-42fe-87fd-e8fcee3a0260","system_id":"levelo_inurba_marseille","lat":43.26953,"lon":5.40241,"is_reserved":false,"is_disabled":false,"rental_uris":{"android":"levelo://app?vid=a57b3feb-2354-42fe-87fd-e8fcee3a0260","ios":"levelo://app?vid=a57b3feb-2354-42fe-87fd-e8fcee3a0260"},"vehicle_type_id":"4","last_reported":1758953552,"current_range_meters":9200,"station_id":"","pricing_plan_id":"cebpf4jnsgd1na2vs0mg"},{"bike_id":"6f7da9ea-ed51-485c-9b5c-d086b463c457","system_id":"levelo_inurba_marseille","lat":43.26196,"lon":5.37471,"is_reserved":false,"is_disabled":true,"rental_uris":{"android":"levelo://app?vid=6f7da9ea-ed51-485c-9b5c-d086b463c457","ios":"levelo://app?vid=6f7da9ea-ed51-485c-9b5c-d086b463c457"},"vehicle_type_id":"4","last_reported":1758953552,"current_range_meters":9600,"station_id":"ce4bhgp2rcd13ifvqfc0","pricing_plan_id":"cebpf4jnsgd1na2vs0mg"},{"bike_id":"376bcd1f-630a-4f4d-a49d-a8583356e5a2","system_id":"levelo_inurba_marseille","lat":43.28656,"lon":5.39332,"is_reserved":false,"is_disabled":true,"rental_uris":{"android":"levelo://app?vid=376bcd1f-630a-4f4d-a49d-a8583356e5a2","ios":"levelo://app?vid=376bcd1f-630a-4f4d-a49d-a8583356e5a2"},"vehicle_type_id":"4","last_reported":1758953552,"current_range_meters":9600,"station_id":"","pricing_plan_id":"cebpf4jnsgd1na2vs0mg"},{"bike_id":"64df0cea-d93c-4085-a36a-82afb9602077","system_id":"levelo_inurba_marseille","lat":43.2622,"lon":5.40453,"is_reserved":false,"is_disabled":false,"rental_uris":{"android":"levelo://app?vid=64df0cea-d93c-4085-a36a-82afb9602077","ios":"levelo://app?vid=64df0cea-d93c-4085-a36a-82afb9602077"},"vehicle_type_id":"4","last_reported":1758953552,"current_range_meters":9600,"station_id":"ce4bhmh2rcd13ifvqgmg","pricing_plan_id":"cebpf4jnsgd1na2vs0mg"},{"bike_id":"9300ed07-9754-4ebb-833a-0638397716cd","system_id":"levelo_inurba_marseille","lat":43.30542,"lon":5.38441,"is_reserved":false,"is_disabled":false,"rental_uris":{"android":"levelo://app?vid=9300ed07-9754-4ebb-833a-0638397716cd","ios":"levelo://app?vid=9300ed07-9754-4ebb-833a-0638397716cd"},"vehicle_type_id":"4","last_reported":1758953552,"current_range_meters":9600,"station_id":"ce4bgg92rcd13ifvqb30","pricing_plan_id":"cebpf4jnsgd1na2vs0mg"},{"bike_id":"8dc00af3-5715-49ae-82c9-28552fd6dd37","system_id":"levelo_inurba_marseille","lat":43.29008,"lon":5.35617,"is_reserved":false,"is_disabled":false,"rental_uris":{"android":"levelo://app?vid=8dc00af3-5715-49ae-82c9-28552fd6dd37","ios":"levelo://app?vid=8dc00af3-5715-49ae-82c9-28552fd6dd37"},"vehicle_type_id":"4","last_reported":1758953552,"current_range_meters":9600,"station_id":"ce4bhb92rcd13ifvqen0","pricing_plan_id":"cebpf4jnsgd1na2vs0mg"},{"bike_id":"2907de3a-cdb7-4c49-945b-9d4546080cdd","system_id":"levelo_inurba_marseille","lat":43.2947,"lon":5.36244,"is_reserved":false,"is_disabled":false,"rental_uris":{"android":"levelo://app?vid=2907de3a-cdb7-4c49-945b-9d4546080cdd","ios":"levelo://app?vid=2907de3a-cdb7-4c49-945b-9d4546080cdd"},"vehicle_type_id":"4","last_reported":1758953552,"current_range_meters":9600,"station_id":"","pricing_plan_id":"cebpf4jnsgd1na2vs0mg"},{"bike_id":"c975862c-3721-4ac1-a6a4-5b86cf0364aa","system_id":"levelo_inurba_marseille","lat":43.211942,"lon":5.350713,"is_reserved":false,"is_disabled":false,"rental_uris":{"android":"levelo://app?vid=c975862c-3721-4ac1-a6a4-5b86cf0364aa","ios":"levelo://app?vid=c975862c-3721-4ac1-a6a4-5b86cf0364aa"},"vehicle_type_id":"4","last_reported":1758953552,"current_range_meters":9600,"station_id":"st_cvj6sg6p6f1abm77japg","pricing_plan_id":"cebpf4jnsgd1na2vs0mg"},{"bike_id":"a639c491-c436-478a-8d5d-bd2c30b918ff","system_id":"levelo_inurba_marseille","lat":43.29753,"lon":5.37217,"is_reserved":false,"is_disabled":false,"rental_uris":{"android":"levelo://app?vid=a639c491-c436-478a-8d5d-bd2c30b918ff","ios":"levelo://app?vid=a639c491-c436-478a-8d5d-bd2c30b918ff"},"vehicle_type_id":"4","last_reported":1758953552,"current_range_meters":9600,"station_id":"","pricing_plan_id":"cebpf4jnsgd1na2vs0mg"},{"bike_id":"a3061c22-295d-4ee1-8cf7-fa54b8515910","system_id":"levelo_inurba_marseille","lat":43.23185,"lon":5.39995,"is_reserved":false,"is_disabled":false,"rental_uris":{"android":"levelo://app?vid=a3061c22-295d-4ee1-8cf7-fa54b8515910","ios":"levelo://app?vid=a3061c22-295d-4ee1-8cf7-fa54b8515910"},"vehicle_type_id":"4","last_reported":1758953552,"current_range_meters":9600,"station_id":"ce4bhn12rcd13ifvqgqg","pricing_plan_id":"cebpf4jnsgd1na2vs0mg"},{"bike_id":"ac90e46a-066a-4453-875e-a056a85ea0d5","system_id":"levelo_inurba_marseille","lat":43.28379,"lon":5.38689,"is_reserved":false,"is_disabled":false,"rental_uris":{"android":"levelo://app?vid=ac90e46a-066a-4453-875e-a056a85ea0d5","ios":"levelo://app?vid=ac90e46a-066a-4453-875e-a056a85ea0d5"},"vehicle_type_id":"4","last_reported":1758953552,"current_range_meters":9200,"station_id":"ce4bh492rcd13ifvqdvg","pricing_plan_id":"cebpf4jnsgd1na2vs0mg"},{"bike_id":"d6625ab2-f484-4250-9e0e-bc20bc24232f","system_id":"levelo_inurba_marseille","lat":43.30256,"lon":5.4007,"is_reserved":false,"is_disabled":false,"rental_uris":{"android":"levelo://app?vid=d6625ab2-f484-4250-9e0e-bc20bc24232f","ios":"levelo://app?vid=d6625ab2-f484-4250-9e0e-bc20bc24232f"},"vehicle_type_id":"4","last_reported":1758953552,"current_range_meters":10000,"station_id":"ce4bgvh2rcd13ifvqcs0","pricing_plan_id":"cebpf4jnsgd1na2vs0mg"},{"bike_id":"9a4f92ed-e086-4038-a651-bbe0613f80bd","system_id":"levelo_inurba_marseille","lat":43.22557,"lon":5.41625,"is_reserved":false,"is_disabled":false,"rental_uris":{"android":"levelo://app?vid=9a4f92ed-e086-4038-a651-bbe0613f80bd","ios":"levelo://app?vid=9a4f92ed-e086-4038-a651-bbe0613f80bd"},"vehicle_type_id":"4","last_reported":1758953552,"current_range_meters":10000,"station_id":"st_d2o4gvlbi1j2169b742g","pricing_plan_id":"cebpf4jnsgd1na2vs0mg"},{"bike_id":"d85a21d7-1e65-4d76-b134-97a257d3c799","system_id":"levelo_inurba_marseille","lat":43.29095,"lon":5.38172,"is_reserved":false,"is_disabled":false,"rental_uris":{"android":"levelo://app?vid=d85a21d7-1e65-4d76-b134-97a257d3c799","ios":"levelo://app?vid=d85a21d7-1e65-4d76-b134-97a257d3c799"},"vehicle_type_id":"4","last_reported":1758953552,"current_range_meters":10000,"station_id":"ce4bh512rcd13ifvqe2g","pricing_plan_id":"cebpf4jnsgd1na2vs0mg"},{"bike_id":"04e1f2fc-a999-4e5d-b642-eb389a3f0235","system_id":"levelo_inurba_marseille","lat":43.30549,"lon":5.36521,"is_reserved":false,"is_disabled":true,"rental_uris":{"android":"levelo://app?vid=04e1f2fc-a999-4e5d-b642-eb389a3f0235","ios":"levelo://app?vid=04e1f2fc-a999-4e5d-b642-eb389a3f0235"},"vehicle_type_id":"4","last_reported":1758953552,"current_range_meters":10000,"station_id":"ce4bgs12rcd13ifvqcag","pricing_plan_id":"cebpf4jnsgd1na2vs0mg"},{"bike_id":"bdf98283-e040-4f5f-94a3-6c902d369273","system_id":"levelo_inurba_marseille","lat":43.29736,"lon":5.37701,"is_reserved":false,"is_disabled":true,"rental_uris":{"android":"levelo://app?vid=bdf98283-e040-4f5f-94a3-6c902d369273","ios":"levelo://app?vid=bdf98283-e040-4f5f-94a3-6c902d369273"},"vehicle_type_id":"4","last_reported":1758953552,"current_range_meters":10000,"station_id":"ce4bgkh2rcd13ifvqbl0","pricing_plan_id":"cebpf4jnsgd1na2vs0mg"},{"bike_id":"41fbe864-b9c2-4b8a-a22b-e40ee788b52e","system_id":"levelo_inurba_marseille","lat":43.25099,"lon":5.39524,"is_reserved":false,"is_disabled":false,"rental_uris":{"android":"levelo://app?vid=41fbe864-b9c2-4b8a-a22b-e40ee788b52e","ios":"levelo://app?vid=41fbe864-b9c2-4b8a-a22b-e40ee788b52e"},"vehicle_type_id":"4","last_reported":1758953552,"current_range_meters":10000,"station_id":"ce4bhm12rcd13ifvqgkg","pricing_plan_id":"cebpf4jnsgd1na2vs0mg"},{"bike_id":"492ad12c-b243-47af-8b99-b8dc1dc5237a","system_id":"levelo_inurba_marseille","lat":43.22925,"lon":5.3539,"is_reserved":false,"is_disabled":false,"rental_uris":{"android":"levelo://app?vid=492ad12c-b243-47af-8b99-b8dc1dc5237a","ios":"levelo://app?vid=492ad12c-b243-47af-8b99-b8dc1dc5237a"},"vehicle_type_id":"4","last_reported":1758953552,"current_range_meters":10000,"station_id":"cpo3532slgdg3j2ikp40","pricing_plan_id":"cebpf4jnsgd1na2vs0mg"},{"bike_id":"3be1415e-65a3-4c87-9e41-bbfa45afed45","system_id":"levelo_inurba_marseille","lat":43.29891,"lon":5.43704,"is_reserved":false,"is_disabled":false,"rental_uris":{"android":"levelo://app?vid=3be1415e-65a3-4c87-9e41-bbfa45afed45","ios":"levelo://app?vid=3be1415e-65a3-4c87-9e41-bbfa45afed45"},"vehicle_type_id":"4","last_reported":1758953552,"current_range_meters":10800,"station_id":"","pricing_plan_id":"cebpf4jnsgd1na2vs0mg"},{"bike_id":"3f51e03c-3abb-4dde-8cdd-da596aa3252f","system_id":"levelo_inurba_marseille","lat":43.27672,"lon":5.38893,"is_reserved":false,"is_disabled":true,"rental_uris":{"android":"levelo://app?vid=3f51e03c-3abb-4dde-8cdd-da596aa3252f","ios":"levelo://app?vid=3f51e03c-3abb-4dde-8cdd-da596aa3252f"},"vehicle_type_id":"4","last_reported":1758953552,"current_range_meters":10800,"station_id":"ce4bhi12rcd13ifvqfo0","pricing_plan_id":"cebpf4jnsgd1na2vs0mg"},{"bike_id":"82397662-c3a0-420a-a710-2430e3969fa7","system_id":"levelo_inurba_marseille","lat":43.27376,"lon":5.36264,"is_reserved":false,"is_disabled":false,"rental_uris":{"android":"levelo://app?vid=82397662-c3a0-420a-a710-2430e3969fa7","ios":"levelo://app?vid=82397662-c3a0-420a-a710-2430e3969fa7"},"vehicle_type_id":"4","last_reported":1758953552,"current_range_meters":10800,"station_id":"ce4bhbh2rcd13ifvqeo0","pricing_plan_id":"cebpf4jnsgd1na2vs0mg"},{"bike_id":"fd7db3b2-bf6f-47a6-a193-d9e54fb8924d","system_id":"levelo_inurba_marseille","lat":43.32331,"lon":5.3872,"is_reserved":false,"is_disabled":false,"rental_uris":{"android":"levelo://app?vid=fd7db3b2-bf6f-47a6-a193-d9e54fb8924d","ios":"levelo://app?vid=fd7db3b2-bf6f-47a6-a193-d9e54fb8924d"},"vehicle_type_id":"4","last_reported":1758953552,"current_range_meters":10800,"station_id":"","pricing_plan_id":"cebpf4jnsgd1na2vs0mg"},{"bike_id":"6948e7cf-b0a1-40f5-8c98-6380a618c11b","system_id":"levelo_inurba_marseille","lat":43.27983,"lon":5.41653,"is_reserved":false,"is_disabled":false,"rental_uris":{"android":"levelo://app?vid=6948e7cf-b0a1-40f5-8c98-6380a618c11b","ios":"levelo://app?vid=6948e7cf-b0a1-40f5-8c98-6380a618c11b"},"vehicle_type_id":"4","last_reported":1758953552,"current_range_meters":10800,"station_id":"ce4bho12rcd13ifvqh1g","pricing_plan_id":"cebpf4jnsgd1na2vs0mg"},{"bike_id":"de3747e9-e37c-4cdb-ad1a-9f67e8a91990","system_id":"levelo_inurba_marseille","lat":43.23191,"lon":5.40016,"is_reserved":false,"is_disabled":false,"rental_uris":{"android":"levelo://app?vid=de3747e9-e37c-4cdb-ad1a-9f67e8a91990","ios":"levelo://app?vid=de3747e9-e37c-4cdb-ad1a-9f67e8a91990"},"vehicle_type_id":"4","last_reported":1758953552,"current_range_meters":10800,"station_id":"ce4bhn12rcd13ifvqgqg","pricing_plan_id":"cebpf4jnsgd1na2vs0mg"},{"bike_id":"beedc081-2f74-4443-83b8-86641378e1ea","system_id":"levelo_inurba_marseille","lat":43.27178,"lon":5.40978,"is_reserved":false,"is_disabled":false,"rental_uris":{"android":"levelo://app?vid=beedc081-2f74-4443-83b8-86641378e1ea","ios":"levelo://app?vid=beedc081-2f74-4443-83b8-86641378e1ea"},"vehicle_type_id":"4","last_reported":1758953552,"current_range_meters":10800,"station_id":"ce4bhl12rcd13ifvqgf0","pricing_plan_id":"cebpf4jnsgd1na2vs0mg"},{"bike_id":"57dc4d48-a588-470d-9e76-731f989cf022","system_id":"levelo_inurba_marseille","lat":43.27181,"lon":5.40988,"is_reserved":false,"is_disabled":false,"rental_uris":{"android":"levelo://app?vid=57dc4d48-a588-470d-9e76-731f989cf022","ios":"levelo://app?vid=57dc4d48-a588-470d-9e76-731f989cf022"},"vehicle_type_id":"4","last_reported":1758953552,"current_range_meters":10800,"station_id":"ce4bhl12rcd13ifvqgf0","pricing_plan_id":"cebpf4jnsgd1na2vs0mg"},{"bike_id":"08fe2b08-b3fa-43f8-ae73-04061f76318d","system_id":"levelo_inurba_marseille","lat":43.305552,"lon":5.365395,"is_reserved":false,"is_disabled":false,"rental_uris":{"android":"levelo://app?vid=08fe2b08-b3fa-43f8-ae73-04061f76318d","ios":"levelo://app?vid=08fe2b08-b3fa-43f8-ae73-04061f76318d"},"vehicle_type_id":"4","last_reported":1758953552,"current_range_meters":10800,"station_id":"","pricing_plan_id":"cebpf4jnsgd1na2vs0mg"},{"bike_id":"89cea052-4576-453d-8e9d-6e7729d13e8f","system_id":"levelo_inurba_marseille","lat":43.26565,"lon":5.4032,"is_reserved":false,"is_disabled":false,"rental_uris":{"android":"levelo://app?vid=89cea052-4576-453d-8e9d-6e7729d13e8f","ios":"levelo://app?vid=89cea052-4576-453d-8e9d-6e7729d13e8f"},"vehicle_type_id":"4","last_reported":1758953552,"current_range_meters":10800,"station_id":"ce4bhmp2rcd13ifvqgng","pricing_plan_id":"cebpf4jnsgd1na2vs0mg"},{"bike_id":"4407f0c7-f8f2-44c4-b16c-74d5984e3278","system_id":"levelo_inurba_marseille","lat":43.25577,"lon":5.38254,"is_reserved":false,"is_disabled":true,"rental_uris":{"android":"levelo://app?vid=4407f0c7-f8f2-44c4-b16c-74d5984e3278","ios":"levelo://app?vid=4407f0c7-f8f2-44c4-b16c-74d5984e3278"},"vehicle_type_id":"4","last_reported":1758953552,"current_range_meters":10800,"station_id":"ce4bhih2rcd13ifvqfs0","pricing_plan_id":"cebpf4jnsgd1na2vs0mg"},{"bike_id":"0ea41344-eefb-4701-8c32-712cc43b7e62","system_id":"levelo_inurba_marseille","lat":43.314939,"lon":5.373038,"is_reserved":false,"is_disabled":false,"rental_uris":{"android":"levelo://app?vid=0ea41344-eefb-4701-8c32-712cc43b7e62","ios":"levelo://app?vid=0ea41344-eefb-4701-8c32-712cc43b7e62"},"vehicle_type_id":"4","last_reported":1758953552,"current_range_meters":10800,"station_id":"ce4bgt12rcd13ifvqcd0","pricing_plan_id":"cebpf4jnsgd1na2vs0mg"},{"bike_id":"10b8d871-07e9-4114-9eb9-6bcce40e7beb","system_id":"levelo_inurba_marseille","lat":43.27045,"lon":5.392226,"is_reserved":false,"is_disabled":false,"rental_uris":{"android":"levelo://app?vid=10b8d871-07e9-4114-9eb9-6bcce40e7beb","ios":"levelo://app?vid=10b8d871-07e9-4114-9eb9-6bcce40e7beb"},"vehicle_type_id":"4","last_reported":1758953552,"current_range_meters":10800,"station_id":"ce4bhe12rcd13ifvqf30","pricing_plan_id":"cebpf4jnsgd1na2vs0mg"},{"bike_id":"0b2fda4e-ac18-414b-8b05-54fcdd4fc421","system_id":"levelo_inurba_marseille","lat":43.32292,"lon":5.38277,"is_reserved":false,"is_disabled":false,"rental_uris":{"android":"levelo://app?vid=0b2fda4e-ac18-414b-8b05-54fcdd4fc421","ios":"levelo://app?vid=0b2fda4e-ac18-414b-8b05-54fcdd4fc421"},"vehicle_type_id":"4","last_reported":1758953552,"current_range_meters":10800,"station_id":"ce4bhr12rcd13ifvqhqg","pricing_plan_id":"cebpf4jnsgd1na2vs0mg"},{"bike_id":"dbee219e-5153-4b73-9f21-b46d94357ac7","system_id":"levelo_inurba_marseille","lat":43.29903,"lon":5.38065,"is_reserved":false,"is_disabled":true,"rental_uris":{"android":"levelo://app?vid=dbee219e-5153-4b73-9f21-b46d94357ac7","ios":"levelo://app?vid=dbee219e-5153-4b73-9f21-b46d94357ac7"},"vehicle_type_id":"4","last_reported":1758953552,"current_range_meters":10800,"station_id":"ce4bgj12rcd13ifvqbc0","pricing_plan_id":"cebpf4jnsgd1na2vs0mg"},{"bike_id":"cff89afc-fc2e-4a21-b156-855b02c41c7a","system_id":"levelo_inurba_marseille","lat":43.29014,"lon":5.3558,"is_reserved":false,"is_disabled":false,"rental_uris":{"android":"levelo://app?vid=cff89afc-fc2e-4a21-b156-855b02c41c7a","ios":"levelo://app?vid=cff89afc-fc2e-4a21-b156-855b02c41c7a"},"vehicle_type_id":"4","last_reported":1758953552,"current_range_meters":11200,"station_id":"ce4bhb92rcd13ifvqen0","pricing_plan_id":"cebpf4jnsgd1na2vs0mg"},{"bike_id":"fd4b5ad5-2581-44dd-90b2-f4a8fbdc2423","system_id":"levelo_inurba_marseille","lat":43.299011,"lon":5.364989,"is_reserved":false,"is_disabled":false,"rental_uris":{"android":"levelo://app?vid=fd4b5ad5-2581-44dd-90b2-f4a8fbdc2423","ios":"levelo://app?vid=fd4b5ad5-2581-44dd-90b2-f4a8fbdc2423"},"vehicle_type_id":"4","last_reported":1758953552,"current_range_meters":11200,"station_id":"","pricing_plan_id":"cebpf4jnsgd1na2vs0mg"},{"bike_id":"460dc79f-5575-4f99-ae1a-a43c8adf9ace","system_id":"levelo_inurba_marseille","lat":43.25346,"lon":5.42164,"is_reserved":false,"is_disabled":false,"rental_uris":{"android":"levelo://app?vid=460dc79f-5575-4f99-ae1a-a43c8adf9ace","ios":"levelo://app?vid=460dc79f-5575-4f99-ae1a-a43c8adf9ace"},"vehicle_type_id":"4","last_reported":1758953552,"current_range_meters":11200,"station_id":"st_d2m65c5bi1j21697t3ng","pricing_plan_id":"cebpf4jnsgd1na2vs0mg"},{"bike_id":"de37a4c8-34a4-4a8f-b54c-1bbc676690f8","system_id":"levelo_inurba_marseille","lat":43.30298,"lon":5.40443,"is_reserved":false,"is_disabled":false,"rental_uris":{"android":"levelo://app?vid=de37a4c8-34a4-4a8f-b54c-1bbc676690f8","ios":"levelo://app?vid=de37a4c8-34a4-4a8f-b54c-1bbc676690f8"},"vehicle_type_id":"4","last_reported":1758953552,"current_range_meters":11200,"station_id":"ce4bh012rcd13ifvqd10","pricing_plan_id":"cebpf4jnsgd1na2vs0mg"},{"bike_id":"512844d5-2399-4f17-94e2-f8e1f228aa8b","system_id":"levelo_inurba_marseille","lat":43.2501,"lon":5.38945,"is_reserved":false,"is_disabled":false,"rental_uris":{"android":"levelo://app?vid=512844d5-2399-4f17-94e2-f8e1f228aa8b","ios":"levelo://app?vid=512844d5-2399-4f17-94e2-f8e1f228aa8b"},"vehicle_type_id":"4","last_reported":1758953552,"current_range_meters":11200,"station_id":"ce4bhgp2rcd13ifvqfd0","pricing_plan_id":"cebpf4jnsgd1na2vs0mg"},{"bike_id":"8cf842e4-76c1-4a82-ad31-66529da65dba","system_id":"levelo_inurba_marseille","lat":43.26723,"lon":5.40253,"is_reserved":false,"is_disabled":false,"rental_uris":{"android":"levelo://app?vid=8cf842e4-76c1-4a82-ad31-66529da65dba","ios":"levelo://app?vid=8cf842e4-76c1-4a82-ad31-66529da65dba"},"vehicle_type_id":"4","last_reported":1758953552,"current_range_meters":11600,"station_id":"","pricing_plan_id":"cebpf4jnsgd1na2vs0mg"},{"bike_id":"3652de56-c611-41c6-aa03-7fef6136da9d","system_id":"levelo_inurba_marseille","lat":43.24995,"lon":5.38927,"is_reserved":false,"is_disabled":false,"rental_uris":{"android":"levelo://app?vid=3652de56-c611-41c6-aa03-7fef6136da9d","ios":"levelo://app?vid=3652de56-c611-41c6-aa03-7fef6136da9d"},"vehicle_type_id":"4","last_reported":1758953552,"current_range_meters":11600,"station_id":"ce4bhgp2rcd13ifvqfd0","pricing_plan_id":"cebpf4jnsgd1na2vs0mg"},{"bike_id":"7266fb39-452a-4e7f-aafa-8725c9c5d955","system_id":"levelo_inurba_marseille","lat":43.27175,"lon":5.40981,"is_reserved":false,"is_disabled":false,"rental_uris":{"android":"levelo://app?vid=7266fb39-452a-4e7f-aafa-8725c9c5d955","ios":"levelo://app?vid=7266fb39-452a-4e7f-aafa-8725c9c5d955"},"vehicle_type_id":"4","last_reported":1758953552,"current_range_meters":11600,"station_id":"ce4bhl12rcd13ifvqgf0","pricing_plan_id":"cebpf4jnsgd1na2vs0mg"},{"bike_id":"6c00a6a0-3cf0-48a9-b218-0693fab11be9","system_id":"levelo_inurba_marseille","lat":43.30306,"lon":5.43524,"is_reserved":false,"is_disabled":false,"rental_uris":{"android":"levelo://app?vid=6c00a6a0-3cf0-48a9-b218-0693fab11be9","ios":"levelo://app?vid=6c00a6a0-3cf0-48a9-b218-0693fab11be9"},"vehicle_type_id":"4","last_reported":1758953552,"current_range_meters":11600,"station_id":"","pricing_plan_id":"cebpf4jnsgd1na2vs0mg"},{"bike_id":"85782661-163d-4a8b-b5a4-1f0a766faaa2","system_id":"levelo_inurba_marseille","lat":43.24629,"lon":5.43147,"is_reserved":false,"is_disabled":false,"rental_uris":{"android":"levelo://app?vid=85782661-163d-4a8b-b5a4-1f0a766faaa2","ios":"levelo://app?vid=85782661-163d-4a8b-b5a4-1f0a766faaa2"},"vehicle_type_id":"4","last_reported":1758953552,"current_range_meters":11600,"station_id":"st_d2m6c4gdas8pm72e190g","pricing_plan_id":"cebpf4jnsgd1na2vs0mg"},{"bike_id":"e068fba2-d5f5-4586-981c-84563a6c6666","system_id":"levelo_inurba_marseille","lat":43.31309,"lon":5.39682,"is_reserved":false,"is_disabled":true,"rental_uris":{"android":"levelo://app?vid=e068fba2-d5f5-4586-981c-84563a6c6666","ios":"levelo://app?vid=e068fba2-d5f5-4586-981c-84563a6c6666"},"vehicle_type_id":"4","last_reported":1758953552,"current_range_meters":11600,"station_id":"ce4bgvp2rcd13ifvqcu0","pricing_plan_id":"cebpf4jnsgd1na2vs0mg"},{"bike_id":"05bae944-f246-4d64-bb30-0e4357796c8d","system_id":"levelo_inurba_marseille","lat":43.29799,"lon":5.38094,"is_reserved":false,"is_disabled":false,"rental_uris":{"android":"levelo://app?vid=05bae944-f246-4d64-bb30-0e4357796c8d","ios":"levelo://app?vid=05bae944-f246-4d64-bb30-0e4357796c8d"},"vehicle_type_id":"4","last_reported":1758953552,"current_range_meters":11600,"station_id":"ce4bgip2rcd13ifvqbb0","pricing_plan_id":"cebpf4jnsgd1na2vs0mg"},{"bike_id":"fc88e4a3-bba5-409d-aedf-70a9d539a9c0","system_id":"levelo_inurba_marseille","lat":43.30885,"lon":5.39644,"is_reserved":false,"is_disabled":false,"rental_uris":{"android":"levelo://app?vid=fc88e4a3-bba5-409d-aedf-70a9d539a9c0","ios":"levelo://app?vid=fc88e4a3-bba5-409d-aedf-70a9d539a9c0"},"vehicle_type_id":"4","last_reported":1758953552,"current_range_meters":11600,"station_id":"ce4bh012rcd13ifvqcv0","pricing_plan_id":"cebpf4jnsgd1na2vs0mg"},{"bike_id":"fee74e98-eb52-4f66-a612-109c75f34aa6","system_id":"levelo_inurba_marseille","lat":43.296216,"lon":5.379492,"is_reserved":false,"is_disabled":false,"rental_uris":{"android":"levelo://app?vid=fee74e98-eb52-4f66-a612-109c75f34aa6","ios":"levelo://app?vid=fee74e98-eb52-4f66-a612-109c75f34aa6"},"vehicle_type_id":"4","last_reported":1758953552,"current_range_meters":11600,"station_id":"","pricing_plan_id":"cebpf4jnsgd1na2vs0mg"},{"bike_id":"c37e5625-b670-436a-802f-d0e6109b1c8f","system_id":"levelo_inurba_marseille","lat":43.30162,"lon":5.38068,"is_reserved":false,"is_disabled":false,"rental_uris":{"android":"levelo://app?vid=c37e5625-b670-436a-802f-d0e6109b1c8f","ios":"levelo://app?vid=c37e5625-b670-436a-802f-d0e6109b1c8f"},"vehicle_type_id":"4","last_reported":1758953552,"current_range_meters":11600,"station_id":"ce4bgjp2rcd13ifvqbh0","pricing_plan_id":"cebpf4jnsgd1na2vs0mg"},{"bike_id":"ab915236-e4e0-43d4-b3d0-7dc20b4ec838","system_id":"levelo_inurba_marseille","lat":43.31342,"lon":5.36689,"is_reserved":false,"is_disabled":false,"rental_uris":{"android":"levelo://app?vid=ab915236-e4e0-43d4-b3d0-7dc20b4ec838","ios":"levelo://app?vid=ab915236-e4e0-43d4-b3d0-7dc20b4ec838"},"vehicle_type_id":"4","last_reported":1758953552,"current_range_meters":11600,"station_id":"ce4bgr92rcd13ifvqc6g","pricing_plan_id":"cebpf4jnsgd1na2vs0mg"},{"bike_id":"735b4eef-5ed2-47aa-ab59-36616a810357","system_id":"levelo_inurba_marseille","lat":43.280449,"lon":5.391404,"is_reserved":false,"is_disabled":false,"rental_uris":{"android":"levelo://app?vid=735b4eef-5ed2-47aa-ab59-36616a810357","ios":"levelo://app?vid=735b4eef-5ed2-47aa-ab59-36616a810357"},"vehicle_type_id":"4","last_reported":1758953552,"current_range_meters":12000,"station_id":"","pricing_plan_id":"cebpf4jnsgd1na2vs0mg"},{"bike_id":"5a85c95d-db7c-4aff-bb3e-11fe5a5d2127","system_id":"levelo_inurba_marseille","lat":43.26585,"lon":5.39013,"is_reserved":false,"is_disabled":false,"rental_uris":{"android":"levelo://app?vid=5a85c95d-db7c-4aff-bb3e-11fe5a5d2127","ios":"levelo://app?vid=5a85c95d-db7c-4aff-bb3e-11fe5a5d2127"},"vehicle_type_id":"4","last_reported":1758953552,"current_range_meters":12000,"station_id":"ce4bhe12rcd13ifvqf30","pricing_plan_id":"cebpf4jnsgd1na2vs0mg"},{"bike_id":"3c886f95-456b-4492-8a78-52ec040e522d","system_id":"levelo_inurba_marseille","lat":43.29806,"lon":5.37341,"is_reserved":false,"is_disabled":true,"rental_uris":{"android":"levelo://app?vid=3c886f95-456b-4492-8a78-52ec040e522d","ios":"levelo://app?vid=3c886f95-456b-4492-8a78-52ec040e522d"},"vehicle_type_id":"4","last_reported":1758953552,"current_range_meters":12000,"station_id":"","pricing_plan_id":"cebpf4jnsgd1na2vs0mg"},{"bike_id":"6d6d8da8-e6bd-4401-8227-e4015a556e81","system_id":"levelo_inurba_marseille","lat":43.25121,"lon":5.4032,"is_reserved":false,"is_disabled":false,"rental_uris":{"android":"levelo://app?vid=6d6d8da8-e6bd-4401-8227-e4015a556e81","ios":"levelo://app?vid=6d6d8da8-e6bd-4401-8227-e4015a556e81"},"vehicle_type_id":"4","last_reported":1758953552,"current_range_meters":12000,"station_id":"ce4bhlh2rcd13ifvqgig","pricing_plan_id":"cebpf4jnsgd1na2vs0mg"},{"bike_id":"cd52d724-6e36-4c8e-9efa-f35ff15b1a8b","system_id":"levelo_inurba_marseille","lat":43.317243,"lon":5.424,"is_reserved":false,"is_disabled":false,"rental_uris":{"android":"levelo://app?vid=cd52d724-6e36-4c8e-9efa-f35ff15b1a8b","ios":"levelo://app?vid=cd52d724-6e36-4c8e-9efa-f35ff15b1a8b"},"vehicle_type_id":"4","last_reported":1758953552,"current_range_meters":12000,"station_id":"ce4bhp92rcd13ifvqhbg","pricing_plan_id":"cebpf4jnsgd1na2vs0mg"},{"bike_id":"5d877167-f391-4cf4-830a-d2718a5834ac","system_id":"levelo_inurba_marseille","lat":43.31722,"lon":5.42426,"is_reserved":false,"is_disabled":false,"rental_uris":{"android":"levelo://app?vid=5d877167-f391-4cf4-830a-d2718a5834ac","ios":"levelo://app?vid=5d877167-f391-4cf4-830a-d2718a5834ac"},"vehicle_type_id":"4","last_reported":1758953552,"current_range_meters":12400,"station_id":"ce4bhp92rcd13ifvqhbg","pricing_plan_id":"cebpf4jnsgd1na2vs0mg"},{"bike_id":"70b7ea01-eb7d-4ad4-9d7b-08819c9c9cd3","system_id":"levelo_inurba_marseille","lat":43.25566,"lon":5.38253,"is_reserved":false,"is_disabled":true,"rental_uris":{"android":"levelo://app?vid=70b7ea01-eb7d-4ad4-9d7b-08819c9c9cd3","ios":"levelo://app?vid=70b7ea01-eb7d-4ad4-9d7b-08819c9c9cd3"},"vehicle_type_id":"4","last_reported":1758953552,"current_range_meters":12400,"station_id":"ce4bhih2rcd13ifvqfs0","pricing_plan_id":"cebpf4jnsgd1na2vs0mg"},{"bike_id":"a6187c30-1c11-4309-be70-335b3ca8c646","system_id":"levelo_inurba_marseille","lat":43.21196,"lon":5.35095,"is_reserved":false,"is_disabled":false,"rental_uris":{"android":"levelo://app?vid=a6187c30-1c11-4309-be70-335b3ca8c646","ios":"levelo://app?vid=a6187c30-1c11-4309-be70-335b3ca8c646"},"vehicle_type_id":"4","last_reported":1758953552,"current_range_meters":12400,"station_id":"","pricing_plan_id":"cebpf4jnsgd1na2vs0mg"},{"bike_id":"63d52c35-c9c9-44eb-9780-1b2f9145123b","system_id":"levelo_inurba_marseille","lat":43.29627,"lon":5.377037,"is_reserved":false,"is_disabled":false,"rental_uris":{"android":"levelo://app?vid=63d52c35-c9c9-44eb-9780-1b2f9145123b","ios":"levelo://app?vid=63d52c35-c9c9-44eb-9780-1b2f9145123b"},"vehicle_type_id":"4","last_reported":1758953552,"current_range_meters":12400,"station_id":"","pricing_plan_id":"cebpf4jnsgd1na2vs0mg"},{"bike_id":"9bb4db31-0bf9-4171-bca1-76cb045f53a3","system_id":"levelo_inurba_marseille","lat":43.26924,"lon":5.389081,"is_reserved":false,"is_disabled":false,"rental_uris":{"android":"levelo://app?vid=9bb4db31-0bf9-4171-bca1-76cb045f53a3","ios":"levelo://app?vid=9bb4db31-0bf9-4171-bca1-76cb045f53a3"},"vehicle_type_id":"4","last_reported":1758953552,"current_range_meters":12400,"station_id":"ce4bhhh2rcd13ifvqfl0","pricing_plan_id":"cebpf4jnsgd1na2vs0mg"},{"bike_id":"5dfe6188-cf51-49fc-b324-419cf8501486","system_id":"levelo_inurba_marseille","lat":43.29473,"lon":5.38671,"is_reserved":false,"is_disabled":false,"rental_uris":{"android":"levelo://app?vid=5dfe6188-cf51-49fc-b324-419cf8501486","ios":"levelo://app?vid=5dfe6188-cf51-49fc-b324-419cf8501486"},"vehicle_type_id":"4","last_reported":1758953552,"current_range_meters":12400,"station_id":"","pricing_plan_id":"cebpf4jnsgd1na2vs0mg"},{"bike_id":"fd1364a5-ff73-488a-b72e-592513140002","system_id":"levelo_inurba_marseille","lat":43.25098,"lon":5.39538,"is_reserved":false,"is_disabled":false,"rental_uris":{"android":"levelo://app?vid=fd1364a5-ff73-488a-b72e-592513140002","ios":"levelo://app?vid=fd1364a5-ff73-488a-b72e-592513140002"},"vehicle_type_id":"4","last_reported":1758953552,"current_range_meters":12400,"station_id":"ce4bhm12rcd13ifvqgkg","pricing_plan_id":"cebpf4jnsgd1na2vs0mg"},{"bike_id":"ec348589-ff91-45a4-84f8-96a0dc2abb69","system_id":"levelo_inurba_marseille","lat":43.32731,"lon":5.392493,"is_reserved":false,"is_disabled":false,"rental_uris":{"android":"levelo://app?vid=ec348589-ff91-45a4-84f8-96a0dc2abb69","ios":"levelo://app?vid=ec348589-ff91-45a4-84f8-96a0dc2abb69"},"vehicle_type_id":"4","last_reported":1758953552,"current_range_meters":12400,"station_id":"","pricing_plan_id":"cebpf4jnsgd1na2vs0mg"},{"bike_id":"2a416e7a-1803-402e-9523-74bfe690bd54","system_id":"levelo_inurba_marseille","lat":43.32365,"lon":5.36767,"is_reserved":false,"is_disabled":false,"rental_uris":{"android":"levelo://app?vid=2a416e7a-1803-402e-9523-74bfe690bd54","ios":"levelo://app?vid=2a416e7a-1803-402e-9523-74bfe690bd54"},"vehicle_type_id":"4","last_reported":1758953552,"current_range_meters":12400,"station_id":"ce4bhsh2rcd13ifvqi2g","pricing_plan_id":"cebpf4jnsgd1na2vs0mg"},{"bike_id":"01bf55f2-4ac6-46f6-8504-3267bf31e1a6","system_id":"levelo_inurba_marseille","lat":43.2973,"lon":5.381787,"is_reserved":false,"is_disabled":false,"rental_uris":{"android":"levelo://app?vid=01bf55f2-4ac6-46f6-8504-3267bf31e1a6","ios":"levelo://app?vid=01bf55f2-4ac6-46f6-8504-3267bf31e1a6"},"vehicle_type_id":"4","last_reported":1758953552,"current_range_meters":12800,"station_id":"","pricing_plan_id":"cebpf4jnsgd1na2vs0mg"},{"bike_id":"3f5f25b2-29cb-4c1b-9001-a380de7c6480","system_id":"levelo_inurba_marseille","lat":43.28409,"lon":5.34988,"is_reserved":false,"is_disabled":false,"rental_uris":{"android":"levelo://app?vid=3f5f25b2-29cb-4c1b-9001-a380de7c6480","ios":"levelo://app?vid=3f5f25b2-29cb-4c1b-9001-a380de7c6480"},"vehicle_type_id":"4","last_reported":1758953552,"current_range_meters":12800,"station_id":"ce4bhbh2rcd13ifvqepg","pricing_plan_id":"cebpf4jnsgd1na2vs0mg"},{"bike_id":"62529f44-1407-45b5-a57d-0e6b577d523f","system_id":"levelo_inurba_marseille","lat":43.3171,"lon":5.4241,"is_reserved":false,"is_disabled":true,"rental_uris":{"android":"levelo://app?vid=62529f44-1407-45b5-a57d-0e6b577d523f","ios":"levelo://app?vid=62529f44-1407-45b5-a57d-0e6b577d523f"},"vehicle_type_id":"4","last_reported":1758953552,"current_range_meters":12800,"station_id":"ce4bhp92rcd13ifvqhbg","pricing_plan_id":"cebpf4jnsgd1na2vs0mg"},{"bike_id":"ee925a9c-c600-454e-8837-0da5956fd25f","system_id":"levelo_inurba_marseille","lat":43.22925,"lon":5.35383,"is_reserved":false,"is_disabled":false,"rental_uris":{"android":"levelo://app?vid=ee925a9c-c600-454e-8837-0da5956fd25f","ios":"levelo://app?vid=ee925a9c-c600-454e-8837-0da5956fd25f"},"vehicle_type_id":"4","last_reported":1758953552,"current_range_meters":12800,"station_id":"cpo3532slgdg3j2ikp40","pricing_plan_id":"cebpf4jnsgd1na2vs0mg"},{"bike_id":"45e07bae-690f-4ff3-a8bd-511d32841972","system_id":"levelo_inurba_marseille","lat":43.247,"lon":5.40178,"is_reserved":false,"is_disabled":false,"rental_uris":{"android":"levelo://app?vid=45e07bae-690f-4ff3-a8bd-511d32841972","ios":"levelo://app?vid=45e07bae-690f-4ff3-a8bd-511d32841972"},"vehicle_type_id":"4","last_reported":1758953552,"current_range_meters":13600,"station_id":"","pricing_plan_id":"cebpf4jnsgd1na2vs0mg"},{"bike_id":"e8c51c17-19f3-4a36-b51c-2f9ea4777522","system_id":"levelo_inurba_marseille","lat":43.2657,"lon":5.39023,"is_reserved":false,"is_disabled":false,"rental_uris":{"android":"levelo://app?vid=e8c51c17-19f3-4a36-b51c-2f9ea4777522","ios":"levelo://app?vid=e8c51c17-19f3-4a36-b51c-2f9ea4777522"},"vehicle_type_id":"4","last_reported":1758953552,"current_range_meters":13600,"station_id":"ce4bhe12rcd13ifvqf30","pricing_plan_id":"cebpf4jnsgd1na2vs0mg"},{"bike_id":"08d20b0c-2fff-4957-9295-ba219ed8493d","system_id":"levelo_inurba_marseille","lat":43.29309,"lon":5.37466,"is_reserved":false,"is_disabled":false,"rental_uris":{"android":"levelo://app?vid=08d20b0c-2fff-4957-9295-ba219ed8493d","ios":"levelo://app?vid=08d20b0c-2fff-4957-9295-ba219ed8493d"},"vehicle_type_id":"4","last_reported":1758953552,"current_range_meters":12800,"station_id":"ce4bgi12rcd13ifvqb70","pricing_plan_id":"cebpf4jnsgd1na2vs0mg"},{"bike_id":"1c14f608-9eb0-4b58-8221-e6e5ed28265b","system_id":"levelo_inurba_marseille","lat":43.24398,"lon":5.37089,"is_reserved":false,"is_disabled":false,"rental_uris":{"android":"levelo://app?vid=1c14f608-9eb0-4b58-8221-e6e5ed28265b","ios":"levelo://app?vid=1c14f608-9eb0-4b58-8221-e6e5ed28265b"},"vehicle_type_id":"4","last_reported":1758953552,"current_range_meters":13600,"station_id":"ce4bhhh2rcd13ifvqfk0","pricing_plan_id":"cebpf4jnsgd1na2vs0mg"},{"bike_id":"e241dfc8-d7f9-404e-a9fb-70b03889b507","system_id":"levelo_inurba_marseille","lat":43.31353,"lon":5.38494,"is_reserved":false,"is_disabled":true,"rental_uris":{"android":"levelo://app?vid=e241dfc8-d7f9-404e-a9fb-70b03889b507","ios":"levelo://app?vid=e241dfc8-d7f9-404e-a9fb-70b03889b507"},"vehicle_type_id":"4","last_reported":1758953552,"current_range_meters":13600,"station_id":"ce4bgt92rcd13ifvqcf0","pricing_plan_id":"cebpf4jnsgd1na2vs0mg"},{"bike_id":"fc0516a3-c60c-4ef6-aa0f-b20216ddae8e","system_id":"levelo_inurba_marseille","lat":43.2896,"lon":5.37168,"is_reserved":false,"is_disabled":false,"rental_uris":{"android":"levelo://app?vid=fc0516a3-c60c-4ef6-aa0f-b20216ddae8e","ios":"levelo://app?vid=fc0516a3-c60c-4ef6-aa0f-b20216ddae8e"},"vehicle_type_id":"4","last_reported":1758953552,"current_range_meters":13600,"station_id":"","pricing_plan_id":"cebpf4jnsgd1na2vs0mg"},{"bike_id":"c8b1cf41-1849-4329-8ffa-26e75935d5f8","system_id":"levelo_inurba_marseille","lat":43.270809,"lon":5.422764,"is_reserved":false,"is_disabled":false,"rental_uris":{"android":"levelo://app?vid=c8b1cf41-1849-4329-8ffa-26e75935d5f8","ios":"levelo://app?vid=c8b1cf41-1849-4329-8ffa-26e75935d5f8"},"vehicle_type_id":"4","last_reported":1758953552,"current_range_meters":13600,"station_id":"ce4bhk92rcd13ifvqgb0","pricing_plan_id":"cebpf4jnsgd1na2vs0mg"},{"bike_id":"39e73ceb-60a7-4264-8736-2fb1b49c7fb4","system_id":"levelo_inurba_marseille","lat":43.24995,"lon":5.38925,"is_reserved":false,"is_disabled":false,"rental_uris":{"android":"levelo://app?vid=39e73ceb-60a7-4264-8736-2fb1b49c7fb4","ios":"levelo://app?vid=39e73ceb-60a7-4264-8736-2fb1b49c7fb4"},"vehicle_type_id":"4","last_reported":1758953552,"current_range_meters":13600,"station_id":"ce4bhgp2rcd13ifvqfd0","pricing_plan_id":"cebpf4jnsgd1na2vs0mg"},{"bike_id":"189ac908-f248-49da-b5d3-1f0f547cee37","system_id":"levelo_inurba_marseille","lat":43.26197,"lon":5.37449,"is_reserved":false,"is_disabled":false,"rental_uris":{"android":"levelo://app?vid=189ac908-f248-49da-b5d3-1f0f547cee37","ios":"levelo://app?vid=189ac908-f248-49da-b5d3-1f0f547cee37"},"vehicle_type_id":"4","last_reported":1758953552,"current_range_meters":14000,"station_id":"ce4bhgp2rcd13ifvqfc0","pricing_plan_id":"cebpf4jnsgd1na2vs0mg"},{"bike_id":"c10020b2-b68e-4e39-8d5c-87792dc721b4","system_id":"levelo_inurba_marseille","lat":43.26242,"lon":5.37914,"is_reserved":false,"is_disabled":true,"rental_uris":{"android":"levelo://app?vid=c10020b2-b68e-4e39-8d5c-87792dc721b4","ios":"levelo://app?vid=c10020b2-b68e-4e39-8d5c-87792dc721b4"},"vehicle_type_id":"4","last_reported":1758953552,"current_range_meters":14000,"station_id":"ce4bhjp2rcd13ifvqg90","pricing_plan_id":"cebpf4jnsgd1na2vs0mg"},{"bike_id":"934ea1ec-b7f6-49a1-9efa-287317d4eb22","system_id":"levelo_inurba_marseille","lat":43.29048,"lon":5.35914,"is_reserved":false,"is_disabled":false,"rental_uris":{"android":"levelo://app?vid=934ea1ec-b7f6-49a1-9efa-287317d4eb22","ios":"levelo://app?vid=934ea1ec-b7f6-49a1-9efa-287317d4eb22"},"vehicle_type_id":"4","last_reported":1758953552,"current_range_meters":14000,"station_id":"","pricing_plan_id":"cebpf4jnsgd1na2vs0mg"},{"bike_id":"943bef0e-7084-48c8-bbe4-deebf90121ff","system_id":"levelo_inurba_marseille","lat":43.29039,"lon":5.3997,"is_reserved":false,"is_disabled":false,"rental_uris":{"android":"levelo://app?vid=943bef0e-7084-48c8-bbe4-deebf90121ff","ios":"levelo://app?vid=943bef0e-7084-48c8-bbe4-deebf90121ff"},"vehicle_type_id":"4","last_reported":1758953552,"current_range_meters":14000,"station_id":"ce4bh392rcd13ifvqdm0","pricing_plan_id":"cebpf4jnsgd1na2vs0mg"},{"bike_id":"052c59a7-1cc4-4bbc-97f5-180981a63118","system_id":"levelo_inurba_marseille","lat":43.2463,"lon":5.43147,"is_reserved":false,"is_disabled":false,"rental_uris":{"android":"levelo://app?vid=052c59a7-1cc4-4bbc-97f5-180981a63118","ios":"levelo://app?vid=052c59a7-1cc4-4bbc-97f5-180981a63118"},"vehicle_type_id":"4","last_reported":1758953552,"current_range_meters":14000,"station_id":"st_d2m6c4gdas8pm72e190g","pricing_plan_id":"cebpf4jnsgd1na2vs0mg"},{"bike_id":"80bdba63-46f3-4274-b0d9-d9711409b6a8","system_id":"levelo_inurba_marseille","lat":43.270752,"lon":5.402497,"is_reserved":false,"is_disabled":false,"rental_uris":{"android":"levelo://app?vid=80bdba63-46f3-4274-b0d9-d9711409b6a8","ios":"levelo://app?vid=80bdba63-46f3-4274-b0d9-d9711409b6a8"},"vehicle_type_id":"4","last_reported":1758953552,"current_range_meters":14000,"station_id":"","pricing_plan_id":"cebpf4jnsgd1na2vs0mg"},{"bike_id":"31a2accd-fac1-445a-96a9-4f1a04ab92f2","system_id":"levelo_inurba_marseille","lat":43.3234,"lon":5.40615,"is_reserved":false,"is_disabled":false,"rental_uris":{"android":"levelo://app?vid=31a2accd-fac1-445a-96a9-4f1a04ab92f2","ios":"levelo://app?vid=31a2accd-fac1-445a-96a9-4f1a04ab92f2"},"vehicle_type_id":"4","last_reported":1758953552,"current_range_meters":14000,"station_id":"ce4bhq92rcd13ifvqhjg","pricing_plan_id":"cebpf4jnsgd1na2vs0mg"},{"bike_id":"8c1d5d89-9224-4ca7-944d-7e12066fcb9e","system_id":"levelo_inurba_marseille","lat":43.30019,"lon":5.38812,"is_reserved":false,"is_disabled":false,"rental_uris":{"android":"levelo://app?vid=8c1d5d89-9224-4ca7-944d-7e12066fcb9e","ios":"levelo://app?vid=8c1d5d89-9224-4ca7-944d-7e12066fcb9e"},"vehicle_type_id":"4","last_reported":1758953552,"current_range_meters":14000,"station_id":"","pricing_plan_id":"cebpf4jnsgd1na2vs0mg"},{"bike_id":"0b6d78ef-a482-414c-8c48-806956450260","system_id":"levelo_inurba_marseille","lat":43.30659,"lon":5.4007,"is_reserved":false,"is_disabled":false,"rental_uris":{"android":"levelo://app?vid=0b6d78ef-a482-414c-8c48-806956450260","ios":"levelo://app?vid=0b6d78ef-a482-414c-8c48-806956450260"},"vehicle_type_id":"4","last_reported":1758953552,"current_range_meters":14000,"station_id":"ce4bh112rcd13ifvqda0","pricing_plan_id":"cebpf4jnsgd1na2vs0mg"},{"bike_id":"a58a31a4-3992-4f6b-9553-88e861e2eaae","system_id":"levelo_inurba_marseille","lat":43.28187,"lon":5.39039,"is_reserved":false,"is_disabled":false,"rental_uris":{"android":"levelo://app?vid=a58a31a4-3992-4f6b-9553-88e861e2eaae","ios":"levelo://app?vid=a58a31a4-3992-4f6b-9553-88e861e2eaae"},"vehicle_type_id":"4","last_reported":1758953552,"current_range_meters":14400,"station_id":"","pricing_plan_id":"cebpf4jnsgd1na2vs0mg"},{"bike_id":"c247fd48-59c6-416b-b09e-11e2835ebeb0","system_id":"levelo_inurba_marseille","lat":43.29535,"lon":5.39394,"is_reserved":false,"is_disabled":false,"rental_uris":{"android":"levelo://app?vid=c247fd48-59c6-416b-b09e-11e2835ebeb0","ios":"levelo://app?vid=c247fd48-59c6-416b-b09e-11e2835ebeb0"},"vehicle_type_id":"4","last_reported":1758953552,"current_range_meters":14400,"station_id":"ce4bh292rcd13ifvqdf0","pricing_plan_id":"cebpf4jnsgd1na2vs0mg"},{"bike_id":"a85c738a-1316-4889-b7f4-674fdfcaba7e","system_id":"levelo_inurba_marseille","lat":43.24666,"lon":5.4037,"is_reserved":false,"is_disabled":false,"rental_uris":{"android":"levelo://app?vid=a85c738a-1316-4889-b7f4-674fdfcaba7e","ios":"levelo://app?vid=a85c738a-1316-4889-b7f4-674fdfcaba7e"},"vehicle_type_id":"4","last_reported":1758953552,"current_range_meters":14400,"station_id":"","pricing_plan_id":"cebpf4jnsgd1na2vs0mg"},{"bike_id":"9de5eb4a-2bba-4d94-b5d2-50807c7d8cc2","system_id":"levelo_inurba_marseille","lat":43.22534,"lon":5.34839,"is_reserved":false,"is_disabled":false,"rental_uris":{"android":"levelo://app?vid=9de5eb4a-2bba-4d94-b5d2-50807c7d8cc2","ios":"levelo://app?vid=9de5eb4a-2bba-4d94-b5d2-50807c7d8cc2"},"vehicle_type_id":"4","last_reported":1758953552,"current_range_meters":14400,"station_id":"","pricing_plan_id":"cebpf4jnsgd1na2vs0mg"},{"bike_id":"855d7122-4824-46d3-b6c6-d8afb40dfca0","system_id":"levelo_inurba_marseille","lat":43.24073,"lon":5.37766,"is_reserved":false,"is_disabled":false,"rental_uris":{"android":"levelo://app?vid=855d7122-4824-46d3-b6c6-d8afb40dfca0","ios":"levelo://app?vid=855d7122-4824-46d3-b6c6-d8afb40dfca0"},"vehicle_type_id":"4","last_reported":1758953552,"current_range_meters":14400,"station_id":"ce4bhnp2rcd13ifvqgvg","pricing_plan_id":"cebpf4jnsgd1na2vs0mg"},{"bike_id":"df649d25-1f44-4471-8cdd-9566da8ef9b9","system_id":"levelo_inurba_marseille","lat":43.31926,"lon":5.39298,"is_reserved":false,"is_disabled":false,"rental_uris":{"android":"levelo://app?vid=df649d25-1f44-4471-8cdd-9566da8ef9b9","ios":"levelo://app?vid=df649d25-1f44-4471-8cdd-9566da8ef9b9"},"vehicle_type_id":"4","last_reported":1758953552,"current_range_meters":14800,"station_id":"","pricing_plan_id":"cebpf4jnsgd1na2vs0mg"},{"bike_id":"b97777f5-d0e8-46c1-ba55-0326f8586d47","system_id":"levelo_inurba_marseille","lat":43.28852,"lon":5.35858,"is_reserved":false,"is_disabled":false,"rental_uris":{"android":"levelo://app?vid=b97777f5-d0e8-46c1-ba55-0326f8586d47","ios":"levelo://app?vid=b97777f5-d0e8-46c1-ba55-0326f8586d47"},"vehicle_type_id":"4","last_reported":1758953552,"current_range_meters":14800,"station_id":"ce4bhb12rcd13ifvqem0","pricing_plan_id":"cebpf4jnsgd1na2vs0mg"},{"bike_id":"28b1295c-4da5-44d0-98cb-fab7c8987c19","system_id":"levelo_inurba_marseille","lat":43.29797,"lon":5.38091,"is_reserved":false,"is_disabled":false,"rental_uris":{"android":"levelo://app?vid=28b1295c-4da5-44d0-98cb-fab7c8987c19","ios":"levelo://app?vid=28b1295c-4da5-44d0-98cb-fab7c8987c19"},"vehicle_type_id":"4","last_reported":1758953552,"current_range_meters":14800,"station_id":"ce4bgip2rcd13ifvqbb0","pricing_plan_id":"cebpf4jnsgd1na2vs0mg"},{"bike_id":"7f09bc43-02a6-468a-9182-731c83281b4a","system_id":"levelo_inurba_marseille","lat":43.26363,"lon":5.37548,"is_reserved":false,"is_disabled":false,"rental_uris":{"android":"levelo://app?vid=7f09bc43-02a6-468a-9182-731c83281b4a","ios":"levelo://app?vid=7f09bc43-02a6-468a-9182-731c83281b4a"},"vehicle_type_id":"4","last_reported":1758953552,"current_range_meters":14800,"station_id":"","pricing_plan_id":"cebpf4jnsgd1na2vs0mg"},{"bike_id":"5bb42022-0e19-48bc-a5b4-218bb1d7482e","system_id":"levelo_inurba_marseille","lat":43.31302,"lon":5.37727,"is_reserved":false,"is_disabled":false,"rental_uris":{"android":"levelo://app?vid=5bb42022-0e19-48bc-a5b4-218bb1d7482e","ios":"levelo://app?vid=5bb42022-0e19-48bc-a5b4-218bb1d7482e"},"vehicle_type_id":"4","last_reported":1758953552,"current_range_meters":14800,"station_id":"","pricing_plan_id":"cebpf4jnsgd1na2vs0mg"},{"bike_id":"4a9588e3-eb45-4a8a-8a80-e0548791ccd6","system_id":"levelo_inurba_marseille","lat":43.25336,"lon":5.42164,"is_reserved":false,"is_disabled":false,"rental_uris":{"android":"levelo://app?vid=4a9588e3-eb45-4a8a-8a80-e0548791ccd6","ios":"levelo://app?vid=4a9588e3-eb45-4a8a-8a80-e0548791ccd6"},"vehicle_type_id":"4","last_reported":1758953552,"current_range_meters":14800,"station_id":"st_d2m65c5bi1j21697t3ng","pricing_plan_id":"cebpf4jnsgd1na2vs0mg"},{"bike_id":"46ac5fb6-ac2e-43e8-84c9-c4e46889ea29","system_id":"levelo_inurba_marseille","lat":43.21214,"lon":5.35074,"is_reserved":false,"is_disabled":false,"rental_uris":{"android":"levelo://app?vid=46ac5fb6-ac2e-43e8-84c9-c4e46889ea29","ios":"levelo://app?vid=46ac5fb6-ac2e-43e8-84c9-c4e46889ea29"},"vehicle_type_id":"4","last_reported":1758953552,"current_range_meters":14800,"station_id":"st_cvj6sg6p6f1abm77japg","pricing_plan_id":"cebpf4jnsgd1na2vs0mg"},{"bike_id":"ec1d1e92-046f-4309-979e-6b1800a32d86","system_id":"levelo_inurba_marseille","lat":43.304437,"lon":5.38147,"is_reserved":false,"is_disabled":false,"rental_uris":{"android":"levelo://app?vid=ec1d1e92-046f-4309-979e-6b1800a32d86","ios":"levelo://app?vid=ec1d1e92-046f-4309-979e-6b1800a32d86"},"vehicle_type_id":"4","last_reported":1758953552,"current_range_meters":14800,"station_id":"ce4bgup2rcd13ifvqcn0","pricing_plan_id":"cebpf4jnsgd1na2vs0mg"},{"bike_id":"03350417-1098-4d6c-b8fe-9e64358744bf","system_id":"levelo_inurba_marseille","lat":43.31033,"lon":5.37587,"is_reserved":false,"is_disabled":false,"rental_uris":{"android":"levelo://app?vid=03350417-1098-4d6c-b8fe-9e64358744bf","ios":"levelo://app?vid=03350417-1098-4d6c-b8fe-9e64358744bf"},"vehicle_type_id":"4","last_reported":1758953552,"current_range_meters":14800,"station_id":"","pricing_plan_id":"cebpf4jnsgd1na2vs0mg"},{"bike_id":"cd119ae5-1417-41f1-a8e2-920696e70b86","system_id":"levelo_inurba_marseille","lat":43.22567,"lon":5.41636,"is_reserved":false,"is_disabled":false,"rental_uris":{"android":"levelo://app?vid=cd119ae5-1417-41f1-a8e2-920696e70b86","ios":"levelo://app?vid=cd119ae5-1417-41f1-a8e2-920696e70b86"},"vehicle_type_id":"4","last_reported":1758953552,"current_range_meters":15200,"station_id":"st_d2o4gvlbi1j2169b742g","pricing_plan_id":"cebpf4jnsgd1na2vs0mg"},{"bike_id":"4012124e-c7b2-4b1e-8d46-f39e75fd31fa","system_id":"levelo_inurba_marseille","lat":43.24168,"lon":5.36392,"is_reserved":false,"is_disabled":false,"rental_uris":{"android":"levelo://app?vid=4012124e-c7b2-4b1e-8d46-f39e75fd31fa","ios":"levelo://app?vid=4012124e-c7b2-4b1e-8d46-f39e75fd31fa"},"vehicle_type_id":"4","last_reported":1758953552,"current_range_meters":15200,"station_id":"cpo36qri1sfpv3e86is0","pricing_plan_id":"cebpf4jnsgd1na2vs0mg"},{"bike_id":"1c3e2cf7-7039-483f-bd2a-6943b321f854","system_id":"levelo_inurba_marseille","lat":43.26408,"lon":5.41115,"is_reserved":false,"is_disabled":false,"rental_uris":{"android":"levelo://app?vid=1c3e2cf7-7039-483f-bd2a-6943b321f854","ios":"levelo://app?vid=1c3e2cf7-7039-483f-bd2a-6943b321f854"},"vehicle_type_id":"4","last_reported":1758953552,"current_range_meters":15200,"station_id":"","pricing_plan_id":"cebpf4jnsgd1na2vs0mg"},{"bike_id":"31028c27-330e-419e-b95a-677487e65d45","system_id":"levelo_inurba_marseille","lat":43.330265,"lon":5.390441,"is_reserved":false,"is_disabled":false,"rental_uris":{"android":"levelo://app?vid=31028c27-330e-419e-b95a-677487e65d45","ios":"levelo://app?vid=31028c27-330e-419e-b95a-677487e65d45"},"vehicle_type_id":"4","last_reported":1758953552,"current_range_meters":15200,"station_id":"ce4bhr92rcd13ifvqhrg","pricing_plan_id":"cebpf4jnsgd1na2vs0mg"},{"bike_id":"71649b2c-48f8-4b8a-b9c0-477bd83fa14b","system_id":"levelo_inurba_marseille","lat":43.28427,"lon":5.34996,"is_reserved":false,"is_disabled":true,"rental_uris":{"android":"levelo://app?vid=71649b2c-48f8-4b8a-b9c0-477bd83fa14b","ios":"levelo://app?vid=71649b2c-48f8-4b8a-b9c0-477bd83fa14b"},"vehicle_type_id":"4","last_reported":1758953552,"current_range_meters":16000,"station_id":"ce4bhbh2rcd13ifvqepg","pricing_plan_id":"cebpf4jnsgd1na2vs0mg"},{"bike_id":"327c041e-5c9e-4b0d-a97c-a2dbaab036ae","system_id":"levelo_inurba_marseille","lat":43.32813,"lon":5.4113,"is_reserved":false,"is_disabled":false,"rental_uris":{"android":"levelo://app?vid=327c041e-5c9e-4b0d-a97c-a2dbaab036ae","ios":"levelo://app?vid=327c041e-5c9e-4b0d-a97c-a2dbaab036ae"},"vehicle_type_id":"4","last_reported":1758953552,"current_range_meters":16000,"station_id":"","pricing_plan_id":"cebpf4jnsgd1na2vs0mg"},{"bike_id":"398ee6a3-1ca0-4a39-b8ef-9410f4339bd9","system_id":"levelo_inurba_marseille","lat":43.241712,"lon":5.364013,"is_reserved":false,"is_disabled":false,"rental_uris":{"android":"levelo://app?vid=398ee6a3-1ca0-4a39-b8ef-9410f4339bd9","ios":"levelo://app?vid=398ee6a3-1ca0-4a39-b8ef-9410f4339bd9"},"vehicle_type_id":"4","last_reported":1758953552,"current_range_meters":16000,"station_id":"cpo36qri1sfpv3e86is0","pricing_plan_id":"cebpf4jnsgd1na2vs0mg"},{"bike_id":"665db91b-dd1b-4912-8590-8678ef4e8928","system_id":"levelo_inurba_marseille","lat":43.251295,"lon":5.403183,"is_reserved":false,"is_disabled":false,"rental_uris":{"android":"levelo://app?vid=665db91b-dd1b-4912-8590-8678ef4e8928","ios":"levelo://app?vid=665db91b-dd1b-4912-8590-8678ef4e8928"},"vehicle_type_id":"4","last_reported":1758953552,"current_range_meters":16000,"station_id":"ce4bhlh2rcd13ifvqgig","pricing_plan_id":"cebpf4jnsgd1na2vs0mg"},{"bike_id":"fcc02545-01b7-420a-aaf4-62887bc5f905","system_id":"levelo_inurba_marseille","lat":43.29791,"lon":5.37092,"is_reserved":false,"is_disabled":false,"rental_uris":{"android":"levelo://app?vid=fcc02545-01b7-420a-aaf4-62887bc5f905","ios":"levelo://app?vid=fcc02545-01b7-420a-aaf4-62887bc5f905"},"vehicle_type_id":"4","last_reported":1758953552,"current_range_meters":16000,"station_id":"ce4bgop2rcd13ifvqc1g","pricing_plan_id":"cebpf4jnsgd1na2vs0mg"},{"bike_id":"71c5f8cc-6881-46b9-bbbc-8164fe7d6eaa","system_id":"levelo_inurba_marseille","lat":43.25116,"lon":5.40337,"is_reserved":false,"is_disabled":false,"rental_uris":{"android":"levelo://app?vid=71c5f8cc-6881-46b9-bbbc-8164fe7d6eaa","ios":"levelo://app?vid=71c5f8cc-6881-46b9-bbbc-8164fe7d6eaa"},"vehicle_type_id":"4","last_reported":1758953552,"current_range_meters":16000,"station_id":"ce4bhlh2rcd13ifvqgig","pricing_plan_id":"cebpf4jnsgd1na2vs0mg"},{"bike_id":"2221b137-a2de-474e-91de-6d351c76ddc5","system_id":"levelo_inurba_marseille","lat":43.31323,"lon":5.397,"is_reserved":false,"is_disabled":false,"rental_uris":{"android":"levelo://app?vid=2221b137-a2de-474e-91de-6d351c76ddc5","ios":"levelo://app?vid=2221b137-a2de-474e-91de-6d351c76ddc5"},"vehicle_type_id":"4","last_reported":1758953552,"current_range_meters":16000,"station_id":"ce4bgvp2rcd13ifvqcu0","pricing_plan_id":"cebpf4jnsgd1na2vs0mg"},{"bike_id":"367cc5de-fbd0-47d1-8fa2-cb83d9fcf585","system_id":"levelo_inurba_marseille","lat":43.25834,"lon":5.39453,"is_reserved":false,"is_disabled":false,"rental_uris":{"android":"levelo://app?vid=367cc5de-fbd0-47d1-8fa2-cb83d9fcf585","ios":"levelo://app?vid=367cc5de-fbd0-47d1-8fa2-cb83d9fcf585"},"vehicle_type_id":"4","last_reported":1758953552,"current_range_meters":16000,"station_id":"ce4bhip2rcd13ifvqft0","pricing_plan_id":"cebpf4jnsgd1na2vs0mg"},{"bike_id":"9feae468-b8bd-422a-8fcb-2d68fc5ee82c","system_id":"levelo_inurba_marseille","lat":43.33385,"lon":5.42001,"is_reserved":false,"is_disabled":false,"rental_uris":{"android":"levelo://app?vid=9feae468-b8bd-422a-8fcb-2d68fc5ee82c","ios":"levelo://app?vid=9feae468-b8bd-422a-8fcb-2d68fc5ee82c"},"vehicle_type_id":"4","last_reported":1758953552,"current_range_meters":16400,"station_id":"","pricing_plan_id":"cebpf4jnsgd1na2vs0mg"},{"bike_id":"a4ba26dc-2f32-48e5-bf18-4cc12ac5d755","system_id":"levelo_inurba_marseille","lat":43.27073,"lon":5.42274,"is_reserved":false,"is_disabled":false,"rental_uris":{"android":"levelo://app?vid=a4ba26dc-2f32-48e5-bf18-4cc12ac5d755","ios":"levelo://app?vid=a4ba26dc-2f32-48e5-bf18-4cc12ac5d755"},"vehicle_type_id":"4","last_reported":1758953552,"current_range_meters":16400,"station_id":"ce4bhk92rcd13ifvqgb0","pricing_plan_id":"cebpf4jnsgd1na2vs0mg"},{"bike_id":"85c7ac65-0172-4766-8977-f4ba34ed9c93","system_id":"levelo_inurba_marseille","lat":43.25337,"lon":5.42181,"is_reserved":false,"is_disabled":false,"rental_uris":{"android":"levelo://app?vid=85c7ac65-0172-4766-8977-f4ba34ed9c93","ios":"levelo://app?vid=85c7ac65-0172-4766-8977-f4ba34ed9c93"},"vehicle_type_id":"4","last_reported":1758953552,"current_range_meters":16400,"station_id":"st_d2m65c5bi1j21697t3ng","pricing_plan_id":"cebpf4jnsgd1na2vs0mg"},{"bike_id":"ef755c66-7861-4426-8d6b-6bfa164e35f4","system_id":"levelo_inurba_marseille","lat":43.26951,"lon":5.38633,"is_reserved":false,"is_disabled":false,"rental_uris":{"android":"levelo://app?vid=ef755c66-7861-4426-8d6b-6bfa164e35f4","ios":"levelo://app?vid=ef755c66-7861-4426-8d6b-6bfa164e35f4"},"vehicle_type_id":"4","last_reported":1758953552,"current_range_meters":16400,"station_id":"ce4bhh92rcd13ifvqfh0","pricing_plan_id":"cebpf4jnsgd1na2vs0mg"},{"bike_id":"44d4d470-428c-4d22-8a8d-45e84313f9de","system_id":"levelo_inurba_marseille","lat":43.30883,"lon":5.39652,"is_reserved":false,"is_disabled":false,"rental_uris":{"android":"levelo://app?vid=44d4d470-428c-4d22-8a8d-45e84313f9de","ios":"levelo://app?vid=44d4d470-428c-4d22-8a8d-45e84313f9de"},"vehicle_type_id":"4","last_reported":1758953552,"current_range_meters":16400,"station_id":"ce4bh012rcd13ifvqcv0","pricing_plan_id":"cebpf4jnsgd1na2vs0mg"},{"bike_id":"4a5f2c7e-7ab6-4fbf-abec-0194fa5424fe","system_id":"levelo_inurba_marseille","lat":43.280073,"lon":5.416662,"is_reserved":false,"is_disabled":false,"rental_uris":{"android":"levelo://app?vid=4a5f2c7e-7ab6-4fbf-abec-0194fa5424fe","ios":"levelo://app?vid=4a5f2c7e-7ab6-4fbf-abec-0194fa5424fe"},"vehicle_type_id":"4","last_reported":1758953552,"current_range_meters":16400,"station_id":"ce4bho12rcd13ifvqh1g","pricing_plan_id":"cebpf4jnsgd1na2vs0mg"},{"bike_id":"b23fb850-684f-43f6-8592-6935a0d57bb2","system_id":"levelo_inurba_marseille","lat":43.2856,"lon":5.39511,"is_reserved":false,"is_disabled":true,"rental_uris":{"android":"levelo://app?vid=b23fb850-684f-43f6-8592-6935a0d57bb2","ios":"levelo://app?vid=b23fb850-684f-43f6-8592-6935a0d57bb2"},"vehicle_type_id":"4","last_reported":1758953552,"current_range_meters":16400,"station_id":"ce4bh292rcd13ifvqdg0","pricing_plan_id":"cebpf4jnsgd1na2vs0mg"},{"bike_id":"82115a18-6cd4-48f2-87ee-746c22595cee","system_id":"levelo_inurba_marseille","lat":43.30159,"lon":5.38091,"is_reserved":false,"is_disabled":true,"rental_uris":{"android":"levelo://app?vid=82115a18-6cd4-48f2-87ee-746c22595cee","ios":"levelo://app?vid=82115a18-6cd4-48f2-87ee-746c22595cee"},"vehicle_type_id":"4","last_reported":1758953552,"current_range_meters":16400,"station_id":"ce4bgjp2rcd13ifvqbh0","pricing_plan_id":"cebpf4jnsgd1na2vs0mg"},{"bike_id":"5de5a448-9e06-4293-af32-48e8256dee6d","system_id":"levelo_inurba_marseille","lat":43.3377,"lon":5.37446,"is_reserved":false,"is_disabled":false,"rental_uris":{"android":"levelo://app?vid=5de5a448-9e06-4293-af32-48e8256dee6d","ios":"levelo://app?vid=5de5a448-9e06-4293-af32-48e8256dee6d"},"vehicle_type_id":"4","last_reported":1758953552,"current_range_meters":16400,"station_id":"","pricing_plan_id":"cebpf4jnsgd1na2vs0mg"},{"bike_id":"317f2be1-b105-402c-900f-6b3ae07bb4db","system_id":"levelo_inurba_marseille","lat":43.24169,"lon":5.36398,"is_reserved":false,"is_disabled":false,"rental_uris":{"android":"levelo://app?vid=317f2be1-b105-402c-900f-6b3ae07bb4db","ios":"levelo://app?vid=317f2be1-b105-402c-900f-6b3ae07bb4db"},"vehicle_type_id":"4","last_reported":1758953552,"current_range_meters":16400,"station_id":"cpo36qri1sfpv3e86is0","pricing_plan_id":"cebpf4jnsgd1na2vs0mg"},{"bike_id":"4635c942-f2b1-44bd-8835-1cc392551193","system_id":"levelo_inurba_marseille","lat":43.28435,"lon":5.37563,"is_reserved":false,"is_disabled":false,"rental_uris":{"android":"levelo://app?vid=4635c942-f2b1-44bd-8835-1cc392551193","ios":"levelo://app?vid=4635c942-f2b1-44bd-8835-1cc392551193"},"vehicle_type_id":"4","last_reported":1758953552,"current_range_meters":16400,"station_id":"","pricing_plan_id":"cebpf4jnsgd1na2vs0mg"},{"bike_id":"aa1ef45f-f323-4723-9180-ea0318bf8a28","system_id":"levelo_inurba_marseille","lat":43.32343,"lon":5.40614,"is_reserved":false,"is_disabled":false,"rental_uris":{"android":"levelo://app?vid=aa1ef45f-f323-4723-9180-ea0318bf8a28","ios":"levelo://app?vid=aa1ef45f-f323-4723-9180-ea0318bf8a28"},"vehicle_type_id":"4","last_reported":1758953552,"current_range_meters":16800,"station_id":"ce4bhq92rcd13ifvqhjg","pricing_plan_id":"cebpf4jnsgd1na2vs0mg"},{"bike_id":"175ed984-4779-4b98-920a-039ca300eaa4","system_id":"levelo_inurba_marseille","lat":43.27299,"lon":5.40831,"is_reserved":false,"is_disabled":false,"rental_uris":{"android":"levelo://app?vid=175ed984-4779-4b98-920a-039ca300eaa4","ios":"levelo://app?vid=175ed984-4779-4b98-920a-039ca300eaa4"},"vehicle_type_id":"4","last_reported":1758953552,"current_range_meters":16800,"station_id":"","pricing_plan_id":"cebpf4jnsgd1na2vs0mg"},{"bike_id":"60ef707f-22ce-4566-aae4-8970d2991590","system_id":"levelo_inurba_marseille","lat":43.304231,"lon":5.397434,"is_reserved":false,"is_disabled":false,"rental_uris":{"android":"levelo://app?vid=60ef707f-22ce-4566-aae4-8970d2991590","ios":"levelo://app?vid=60ef707f-22ce-4566-aae4-8970d2991590"},"vehicle_type_id":"4","last_reported":1758953552,"current_range_meters":16800,"station_id":"","pricing_plan_id":"cebpf4jnsgd1na2vs0mg"},{"bike_id":"cb0a43cc-2f6b-482a-91bb-c383cccf5be4","system_id":"levelo_inurba_marseille","lat":43.3199,"lon":5.38059,"is_reserved":false,"is_disabled":false,"rental_uris":{"android":"levelo://app?vid=cb0a43cc-2f6b-482a-91bb-c383cccf5be4","ios":"levelo://app?vid=cb0a43cc-2f6b-482a-91bb-c383cccf5be4"},"vehicle_type_id":"4","last_reported":1758953552,"current_range_meters":16800,"station_id":"","pricing_plan_id":"cebpf4jnsgd1na2vs0mg"},{"bike_id":"3fccd8f6-2dcb-412d-8982-fb947c83a223","system_id":"levelo_inurba_marseille","lat":43.31121,"lon":5.37758,"is_reserved":false,"is_disabled":false,"rental_uris":{"android":"levelo://app?vid=3fccd8f6-2dcb-412d-8982-fb947c83a223","ios":"levelo://app?vid=3fccd8f6-2dcb-412d-8982-fb947c83a223"},"vehicle_type_id":"4","last_reported":1758953552,"current_range_meters":16800,"station_id":"ce4bgt92rcd13ifvqcg0","pricing_plan_id":"cebpf4jnsgd1na2vs0mg"},{"bike_id":"8631e1de-9e17-4ad0-8f0d-fcc6c04dcb03","system_id":"levelo_inurba_marseille","lat":43.3093,"lon":5.40136,"is_reserved":false,"is_disabled":false,"rental_uris":{"android":"levelo://app?vid=8631e1de-9e17-4ad0-8f0d-fcc6c04dcb03","ios":"levelo://app?vid=8631e1de-9e17-4ad0-8f0d-fcc6c04dcb03"},"vehicle_type_id":"4","last_reported":1758953552,"current_range_meters":16800,"station_id":"ce4bgvp2rcd13ifvqct0","pricing_plan_id":"cebpf4jnsgd1na2vs0mg"},{"bike_id":"912aeb68-4b25-4bda-9d18-d3328632a172","system_id":"levelo_inurba_marseille","lat":43.288557,"lon":5.35854,"is_reserved":false,"is_disabled":false,"rental_uris":{"android":"levelo://app?vid=912aeb68-4b25-4bda-9d18-d3328632a172","ios":"levelo://app?vid=912aeb68-4b25-4bda-9d18-d3328632a172"},"vehicle_type_id":"4","last_reported":1758953552,"current_range_meters":16800,"station_id":"ce4bhb12rcd13ifvqem0","pricing_plan_id":"cebpf4jnsgd1na2vs0mg"},{"bike_id":"6fbef51e-815f-44f1-844b-e8c9d10753b8","system_id":"levelo_inurba_marseille","lat":43.27181,"lon":5.40998,"is_reserved":false,"is_disabled":false,"rental_uris":{"android":"levelo://app?vid=6fbef51e-815f-44f1-844b-e8c9d10753b8","ios":"levelo://app?vid=6fbef51e-815f-44f1-844b-e8c9d10753b8"},"vehicle_type_id":"4","last_reported":1758953552,"current_range_meters":17200,"station_id":"ce4bhl12rcd13ifvqgf0","pricing_plan_id":"cebpf4jnsgd1na2vs0mg"},{"bike_id":"eba41fdd-3d44-40e3-adae-81844e46783b","system_id":"levelo_inurba_marseille","lat":43.284,"lon":5.37524,"is_reserved":false,"is_disabled":false,"rental_uris":{"android":"levelo://app?vid=eba41fdd-3d44-40e3-adae-81844e46783b","ios":"levelo://app?vid=eba41fdd-3d44-40e3-adae-81844e46783b"},"vehicle_type_id":"4","last_reported":1758953552,"current_range_meters":17200,"station_id":"ce4bh412rcd13ifvqds0","pricing_plan_id":"cebpf4jnsgd1na2vs0mg"},{"bike_id":"4c02c545-ad59-45b1-9b9c-d3678a5922c7","system_id":"levelo_inurba_marseille","lat":43.337444,"lon":5.374475,"is_reserved":false,"is_disabled":false,"rental_uris":{"android":"levelo://app?vid=4c02c545-ad59-45b1-9b9c-d3678a5922c7","ios":"levelo://app?vid=4c02c545-ad59-45b1-9b9c-d3678a5922c7"},"vehicle_type_id":"4","last_reported":1758953552,"current_range_meters":17200,"station_id":"","pricing_plan_id":"cebpf4jnsgd1na2vs0mg"},{"bike_id":"37a3518b-1574-4b1f-9320-dfb70ff44a3c","system_id":"levelo_inurba_marseille","lat":43.29204,"lon":5.39323,"is_reserved":false,"is_disabled":true,"rental_uris":{"android":"levelo://app?vid=37a3518b-1574-4b1f-9320-dfb70ff44a3c","ios":"levelo://app?vid=37a3518b-1574-4b1f-9320-dfb70ff44a3c"},"vehicle_type_id":"4","last_reported":1758953552,"current_range_meters":17200,"station_id":"ce4bh192rcd13ifvqdd0","pricing_plan_id":"cebpf4jnsgd1na2vs0mg"},{"bike_id":"0f8c66b7-2559-4545-8c9b-b7b40dced113","system_id":"levelo_inurba_marseille","lat":43.296737,"lon":5.41285,"is_reserved":false,"is_disabled":false,"rental_uris":{"android":"levelo://app?vid=0f8c66b7-2559-4545-8c9b-b7b40dced113","ios":"levelo://app?vid=0f8c66b7-2559-4545-8c9b-b7b40dced113"},"vehicle_type_id":"4","last_reported":1758953552,"current_range_meters":17200,"station_id":"","pricing_plan_id":"cebpf4jnsgd1na2vs0mg"},{"bike_id":"3c406417-c9c2-4748-906e-a2fb7326e10c","system_id":"levelo_inurba_marseille","lat":43.28718,"lon":5.39989,"is_reserved":false,"is_disabled":false,"rental_uris":{"android":"levelo://app?vid=3c406417-c9c2-4748-906e-a2fb7326e10c","ios":"levelo://app?vid=3c406417-c9c2-4748-906e-a2fb7326e10c"},"vehicle_type_id":"4","last_reported":1758953552,"current_range_meters":17200,"station_id":"ce4bho92rcd13ifvqh3g","pricing_plan_id":"cebpf4jnsgd1na2vs0mg"},{"bike_id":"7aac2627-6b70-4df7-ad8a-6082bb89c0b7","system_id":"levelo_inurba_marseille","lat":43.25106,"lon":5.40315,"is_reserved":false,"is_disabled":false,"rental_uris":{"android":"levelo://app?vid=7aac2627-6b70-4df7-ad8a-6082bb89c0b7","ios":"levelo://app?vid=7aac2627-6b70-4df7-ad8a-6082bb89c0b7"},"vehicle_type_id":"4","last_reported":1758953552,"current_range_meters":17200,"station_id":"ce4bhlh2rcd13ifvqgig","pricing_plan_id":"cebpf4jnsgd1na2vs0mg"},{"bike_id":"28ee8c09-1dd8-4072-8a3e-fbfd6fb6b45b","system_id":"levelo_inurba_marseille","lat":43.31897,"lon":5.40727,"is_reserved":false,"is_disabled":false,"rental_uris":{"android":"levelo://app?vid=28ee8c09-1dd8-4072-8a3e-fbfd6fb6b45b","ios":"levelo://app?vid=28ee8c09-1dd8-4072-8a3e-fbfd6fb6b45b"},"vehicle_type_id":"4","last_reported":1758953552,"current_range_meters":17600,"station_id":"ce4bhq12rcd13ifvqhig","pricing_plan_id":"cebpf4jnsgd1na2vs0mg"},{"bike_id":"75a1808b-f036-45a0-9b9e-d8442cdf8f90","system_id":"levelo_inurba_marseille","lat":43.24997,"lon":5.38932,"is_reserved":false,"is_disabled":false,"rental_uris":{"android":"levelo://app?vid=75a1808b-f036-45a0-9b9e-d8442cdf8f90","ios":"levelo://app?vid=75a1808b-f036-45a0-9b9e-d8442cdf8f90"},"vehicle_type_id":"4","last_reported":1758953552,"current_range_meters":17600,"station_id":"ce4bhgp2rcd13ifvqfd0","pricing_plan_id":"cebpf4jnsgd1na2vs0mg"},{"bike_id":"f84411c9-d6fb-4874-a3a1-bef02530091d","system_id":"levelo_inurba_marseille","lat":43.28368,"lon":5.43838,"is_reserved":false,"is_disabled":false,"rental_uris":{"android":"levelo://app?vid=f84411c9-d6fb-4874-a3a1-bef02530091d","ios":"levelo://app?vid=f84411c9-d6fb-4874-a3a1-bef02530091d"},"vehicle_type_id":"4","last_reported":1758953552,"current_range_meters":17600,"station_id":"","pricing_plan_id":"cebpf4jnsgd1na2vs0mg"},{"bike_id":"dc4883ea-8f06-44d1-8b3d-6660e39a87ec","system_id":"levelo_inurba_marseille","lat":43.2177,"lon":5.34589,"is_reserved":false,"is_disabled":true,"rental_uris":{"android":"levelo://app?vid=dc4883ea-8f06-44d1-8b3d-6660e39a87ec","ios":"levelo://app?vid=dc4883ea-8f06-44d1-8b3d-6660e39a87ec"},"vehicle_type_id":"4","last_reported":1758953552,"current_range_meters":17600,"station_id":"st_cvj6r9ubvosntc0bgbag","pricing_plan_id":"cebpf4jnsgd1na2vs0mg"},{"bike_id":"4f5a88f0-fd06-4a49-be33-193b1dc49457","system_id":"levelo_inurba_marseille","lat":43.30418,"lon":5.41285,"is_reserved":false,"is_disabled":true,"rental_uris":{"android":"levelo://app?vid=4f5a88f0-fd06-4a49-be33-193b1dc49457","ios":"levelo://app?vid=4f5a88f0-fd06-4a49-be33-193b1dc49457"},"vehicle_type_id":"4","last_reported":1758953552,"current_range_meters":17600,"station_id":"ce4bhop2rcd13ifvqh8g","pricing_plan_id":"cebpf4jnsgd1na2vs0mg"},{"bike_id":"85672f1d-c74d-4b20-af0c-185efd68fa91","system_id":"levelo_inurba_marseille","lat":43.30156,"lon":5.38076,"is_reserved":false,"is_disabled":false,"rental_uris":{"android":"levelo://app?vid=85672f1d-c74d-4b20-af0c-185efd68fa91","ios":"levelo://app?vid=85672f1d-c74d-4b20-af0c-185efd68fa91"},"vehicle_type_id":"4","last_reported":1758953552,"current_range_meters":17600,"station_id":"ce4bgjp2rcd13ifvqbh0","pricing_plan_id":"cebpf4jnsgd1na2vs0mg"},{"bike_id":"71d0631b-eb81-4977-ba97-2d8def997263","system_id":"levelo_inurba_marseille","lat":43.28442,"lon":5.35903,"is_reserved":false,"is_disabled":false,"rental_uris":{"android":"levelo://app?vid=71d0631b-eb81-4977-ba97-2d8def997263","ios":"levelo://app?vid=71d0631b-eb81-4977-ba97-2d8def997263"},"vehicle_type_id":"4","last_reported":1758953552,"current_range_meters":17600,"station_id":"ce4bhah2rcd13ifvqei0","pricing_plan_id":"cebpf4jnsgd1na2vs0mg"},{"bike_id":"809498ec-17c7-4be3-af91-40663913f97a","system_id":"levelo_inurba_marseille","lat":43.251219,"lon":5.403441,"is_reserved":false,"is_disabled":false,"rental_uris":{"android":"levelo://app?vid=809498ec-17c7-4be3-af91-40663913f97a","ios":"levelo://app?vid=809498ec-17c7-4be3-af91-40663913f97a"},"vehicle_type_id":"4","last_reported":1758953552,"current_range_meters":17600,"station_id":"ce4bhlh2rcd13ifvqgig","pricing_plan_id":"cebpf4jnsgd1na2vs0mg"},{"bike_id":"61f72c81-84af-4d24-903d-9a7cb27e68a1","system_id":"levelo_inurba_marseille","lat":43.24637,"lon":5.43156,"is_reserved":false,"is_disabled":false,"rental_uris":{"android":"levelo://app?vid=61f72c81-84af-4d24-903d-9a7cb27e68a1","ios":"levelo://app?vid=61f72c81-84af-4d24-903d-9a7cb27e68a1"},"vehicle_type_id":"4","last_reported":1758953552,"current_range_meters":17600,"station_id":"st_d2m6c4gdas8pm72e190g","pricing_plan_id":"cebpf4jnsgd1na2vs0mg"},{"bike_id":"d66cd03b-dbeb-4aa4-961e-bd97aeefe4a4","system_id":"levelo_inurba_marseille","lat":43.259623,"lon":5.413682,"is_reserved":false,"is_disabled":false,"rental_uris":{"android":"levelo://app?vid=d66cd03b-dbeb-4aa4-961e-bd97aeefe4a4","ios":"levelo://app?vid=d66cd03b-dbeb-4aa4-961e-bd97aeefe4a4"},"vehicle_type_id":"4","last_reported":1758953552,"current_range_meters":17600,"station_id":"","pricing_plan_id":"cebpf4jnsgd1na2vs0mg"},{"bike_id":"9a3f3972-6426-45ed-a084-7f45c8c77358","system_id":"levelo_inurba_marseille","lat":43.27495,"lon":5.42458,"is_reserved":false,"is_disabled":false,"rental_uris":{"android":"levelo://app?vid=9a3f3972-6426-45ed-a084-7f45c8c77358","ios":"levelo://app?vid=9a3f3972-6426-45ed-a084-7f45c8c77358"},"vehicle_type_id":"4","last_reported":1758953552,"current_range_meters":17200,"station_id":"ce4bhn92rcd13ifvqgrg","pricing_plan_id":"cebpf4jnsgd1na2vs0mg"},{"bike_id":"1821ca16-eb33-43f8-9364-58ddce5c102c","system_id":"levelo_inurba_marseille","lat":43.29812,"lon":5.38084,"is_reserved":false,"is_disabled":false,"rental_uris":{"android":"levelo://app?vid=1821ca16-eb33-43f8-9364-58ddce5c102c","ios":"levelo://app?vid=1821ca16-eb33-43f8-9364-58ddce5c102c"},"vehicle_type_id":"4","last_reported":1758953552,"current_range_meters":17600,"station_id":"ce4bgip2rcd13ifvqbb0","pricing_plan_id":"cebpf4jnsgd1na2vs0mg"},{"bike_id":"d55e72cf-944a-4608-8c58-6a41695b302e","system_id":"levelo_inurba_marseille","lat":43.31078,"lon":5.38358,"is_reserved":false,"is_disabled":false,"rental_uris":{"android":"levelo://app?vid=d55e72cf-944a-4608-8c58-6a41695b302e","ios":"levelo://app?vid=d55e72cf-944a-4608-8c58-6a41695b302e"},"vehicle_type_id":"4","last_reported":1758953552,"current_range_meters":18000,"station_id":"ce4bgv92rcd13ifvqcr0","pricing_plan_id":"cebpf4jnsgd1na2vs0mg"},{"bike_id":"976fd36e-2f5c-424c-baa8-068b37f1eb42","system_id":"levelo_inurba_marseille","lat":43.27566,"lon":5.38432,"is_reserved":false,"is_disabled":false,"rental_uris":{"android":"levelo://app?vid=976fd36e-2f5c-424c-baa8-068b37f1eb42","ios":"levelo://app?vid=976fd36e-2f5c-424c-baa8-068b37f1eb42"},"vehicle_type_id":"4","last_reported":1758953552,"current_range_meters":18000,"station_id":"ce4bhh92rcd13ifvqfi0","pricing_plan_id":"cebpf4jnsgd1na2vs0mg"},{"bike_id":"a5ff59a1-1644-4b76-9136-59d47ea9f820","system_id":"levelo_inurba_marseille","lat":43.30935,"lon":5.37484,"is_reserved":false,"is_disabled":false,"rental_uris":{"android":"levelo://app?vid=a5ff59a1-1644-4b76-9136-59d47ea9f820","ios":"levelo://app?vid=a5ff59a1-1644-4b76-9136-59d47ea9f820"},"vehicle_type_id":"4","last_reported":1758953552,"current_range_meters":18000,"station_id":"","pricing_plan_id":"cebpf4jnsgd1na2vs0mg"},{"bike_id":"4d3db327-222a-45ad-802f-f3e647671720","system_id":"levelo_inurba_marseille","lat":43.28215,"lon":5.39086,"is_reserved":false,"is_disabled":false,"rental_uris":{"android":"levelo://app?vid=4d3db327-222a-45ad-802f-f3e647671720","ios":"levelo://app?vid=4d3db327-222a-45ad-802f-f3e647671720"},"vehicle_type_id":"4","last_reported":1758953552,"current_range_meters":18000,"station_id":"ce4bhn92rcd13ifvqgsg","pricing_plan_id":"cebpf4jnsgd1na2vs0mg"},{"bike_id":"c19a096d-6bfd-4347-9445-ece358d57b77","system_id":"levelo_inurba_marseille","lat":43.30673,"lon":5.4025,"is_reserved":false,"is_disabled":false,"rental_uris":{"android":"levelo://app?vid=c19a096d-6bfd-4347-9445-ece358d57b77","ios":"levelo://app?vid=c19a096d-6bfd-4347-9445-ece358d57b77"},"vehicle_type_id":"4","last_reported":1758953552,"current_range_meters":18000,"station_id":"","pricing_plan_id":"cebpf4jnsgd1na2vs0mg"},{"bike_id":"2243febf-ebaf-474b-8e3e-799410e4c867","system_id":"levelo_inurba_marseille","lat":43.32566,"lon":5.3636,"is_reserved":false,"is_disabled":false,"rental_uris":{"android":"levelo://app?vid=2243febf-ebaf-474b-8e3e-799410e4c867","ios":"levelo://app?vid=2243febf-ebaf-474b-8e3e-799410e4c867"},"vehicle_type_id":"4","last_reported":1758953552,"current_range_meters":18000,"station_id":"","pricing_plan_id":"cebpf4jnsgd1na2vs0mg"},{"bike_id":"54e7e81f-be08-40ef-af55-88274545b504","system_id":"levelo_inurba_marseille","lat":43.30319,"lon":5.40442,"is_reserved":false,"is_disabled":false,"rental_uris":{"android":"levelo://app?vid=54e7e81f-be08-40ef-af55-88274545b504","ios":"levelo://app?vid=54e7e81f-be08-40ef-af55-88274545b504"},"vehicle_type_id":"4","last_reported":1758953552,"current_range_meters":18000,"station_id":"ce4bh012rcd13ifvqd10","pricing_plan_id":"cebpf4jnsgd1na2vs0mg"},{"bike_id":"54fff988-c74f-45fc-a0eb-29489bfa1777","system_id":"levelo_inurba_marseille","lat":43.2465,"lon":5.38888,"is_reserved":false,"is_disabled":false,"rental_uris":{"android":"levelo://app?vid=54fff988-c74f-45fc-a0eb-29489bfa1777","ios":"levelo://app?vid=54fff988-c74f-45fc-a0eb-29489bfa1777"},"vehicle_type_id":"4","last_reported":1758953552,"current_range_meters":18000,"station_id":"ce4bhg12rcd13ifvqf60","pricing_plan_id":"cebpf4jnsgd1na2vs0mg"},{"bike_id":"91f03681-11bd-4a24-811a-6c09a89c8efe","system_id":"levelo_inurba_marseille","lat":43.24998,"lon":5.38911,"is_reserved":false,"is_disabled":false,"rental_uris":{"android":"levelo://app?vid=91f03681-11bd-4a24-811a-6c09a89c8efe","ios":"levelo://app?vid=91f03681-11bd-4a24-811a-6c09a89c8efe"},"vehicle_type_id":"4","last_reported":1758953552,"current_range_meters":18000,"station_id":"ce4bhgp2rcd13ifvqfd0","pricing_plan_id":"cebpf4jnsgd1na2vs0mg"},{"bike_id":"8ba5e33b-48f1-42b5-a531-76085f7229c8","system_id":"levelo_inurba_marseille","lat":43.24634,"lon":5.4314,"is_reserved":false,"is_disabled":false,"rental_uris":{"android":"levelo://app?vid=8ba5e33b-48f1-42b5-a531-76085f7229c8","ios":"levelo://app?vid=8ba5e33b-48f1-42b5-a531-76085f7229c8"},"vehicle_type_id":"4","last_reported":1758953552,"current_range_meters":18000,"station_id":"st_d2m6c4gdas8pm72e190g","pricing_plan_id":"cebpf4jnsgd1na2vs0mg"},{"bike_id":"9d9cb4e9-d21a-4a45-b390-b7b55c6d9b4d","system_id":"levelo_inurba_marseille","lat":43.270593,"lon":5.402572,"is_reserved":false,"is_disabled":false,"rental_uris":{"android":"levelo://app?vid=9d9cb4e9-d21a-4a45-b390-b7b55c6d9b4d","ios":"levelo://app?vid=9d9cb4e9-d21a-4a45-b390-b7b55c6d9b4d"},"vehicle_type_id":"4","last_reported":1758953552,"current_range_meters":18000,"station_id":"","pricing_plan_id":"cebpf4jnsgd1na2vs0mg"},{"bike_id":"78bed11f-2b62-4758-9489-c09980e15071","system_id":"levelo_inurba_marseille","lat":43.29276,"lon":5.40152,"is_reserved":false,"is_disabled":false,"rental_uris":{"android":"levelo://app?vid=78bed11f-2b62-4758-9489-c09980e15071","ios":"levelo://app?vid=78bed11f-2b62-4758-9489-c09980e15071"},"vehicle_type_id":"4","last_reported":1758953552,"current_range_meters":18000,"station_id":"ce4bh312rcd13ifvqdk0","pricing_plan_id":"cebpf4jnsgd1na2vs0mg"},{"bike_id":"fc62ca95-ba02-46ec-b5e5-746d25efa6ec","system_id":"levelo_inurba_marseille","lat":43.30642,"lon":5.40108,"is_reserved":false,"is_disabled":false,"rental_uris":{"android":"levelo://app?vid=fc62ca95-ba02-46ec-b5e5-746d25efa6ec","ios":"levelo://app?vid=fc62ca95-ba02-46ec-b5e5-746d25efa6ec"},"vehicle_type_id":"4","last_reported":1758953552,"current_range_meters":18000,"station_id":"ce4bh112rcd13ifvqda0","pricing_plan_id":"cebpf4jnsgd1na2vs0mg"},{"bike_id":"49cc1930-269d-4bd6-8804-0c6869823a2d","system_id":"levelo_inurba_marseille","lat":43.24174,"lon":5.39728,"is_reserved":false,"is_disabled":false,"rental_uris":{"android":"levelo://app?vid=49cc1930-269d-4bd6-8804-0c6869823a2d","ios":"levelo://app?vid=49cc1930-269d-4bd6-8804-0c6869823a2d"},"vehicle_type_id":"4","last_reported":1758953552,"current_range_meters":18000,"station_id":"ce4bhn12rcd13ifvqgpg","pricing_plan_id":"cebpf4jnsgd1na2vs0mg"},{"bike_id":"9a819dc8-447d-4df7-8b5f-0b18332a26a7","system_id":"levelo_inurba_marseille","lat":43.2903,"lon":5.3868,"is_reserved":false,"is_disabled":true,"rental_uris":{"android":"levelo://app?vid=9a819dc8-447d-4df7-8b5f-0b18332a26a7","ios":"levelo://app?vid=9a819dc8-447d-4df7-8b5f-0b18332a26a7"},"vehicle_type_id":"4","last_reported":1758953552,"current_range_meters":18000,"station_id":"ce4bh4p2rcd13ifvqe0g","pricing_plan_id":"cebpf4jnsgd1na2vs0mg"},{"bike_id":"258ab053-1083-4ca9-a32a-1e85f085fc22","system_id":"levelo_inurba_marseille","lat":43.337444,"lon":5.374475,"is_reserved":false,"is_disabled":false,"rental_uris":{"android":"levelo://app?vid=258ab053-1083-4ca9-a32a-1e85f085fc22","ios":"levelo://app?vid=258ab053-1083-4ca9-a32a-1e85f085fc22"},"vehicle_type_id":"4","last_reported":1758953552,"current_range_meters":18000,"station_id":"","pricing_plan_id":"cebpf4jnsgd1na2vs0mg"},{"bike_id":"4f5f9b8a-cf53-40f1-bb39-f7718febf450","system_id":"levelo_inurba_marseille","lat":43.28943,"lon":5.36392,"is_reserved":false,"is_disabled":false,"rental_uris":{"android":"levelo://app?vid=4f5f9b8a-cf53-40f1-bb39-f7718febf450","ios":"levelo://app?vid=4f5f9b8a-cf53-40f1-bb39-f7718febf450"},"vehicle_type_id":"4","last_reported":1758953552,"current_range_meters":18800,"station_id":"ce4bhc92rcd13ifvqetg","pricing_plan_id":"cebpf4jnsgd1na2vs0mg"},{"bike_id":"fcb39673-3ef9-4ca1-b91f-f8431a34419e","system_id":"levelo_inurba_marseille","lat":43.24648,"lon":5.38903,"is_reserved":false,"is_disabled":false,"rental_uris":{"android":"levelo://app?vid=fcb39673-3ef9-4ca1-b91f-f8431a34419e","ios":"levelo://app?vid=fcb39673-3ef9-4ca1-b91f-f8431a34419e"},"vehicle_type_id":"4","last_reported":1758953552,"current_range_meters":18800,"station_id":"ce4bhg12rcd13ifvqf60","pricing_plan_id":"cebpf4jnsgd1na2vs0mg"},{"bike_id":"1b5850eb-1f21-46c1-84ef-fe3b307a5211","system_id":"levelo_inurba_marseille","lat":43.33595,"lon":5.41023,"is_reserved":false,"is_disabled":false,"rental_uris":{"android":"levelo://app?vid=1b5850eb-1f21-46c1-84ef-fe3b307a5211","ios":"levelo://app?vid=1b5850eb-1f21-46c1-84ef-fe3b307a5211"},"vehicle_type_id":"4","last_reported":1758953552,"current_range_meters":18800,"station_id":"ce4bhqh2rcd13ifvqhmg","pricing_plan_id":"cebpf4jnsgd1na2vs0mg"},{"bike_id":"c3540d4b-6b27-44ad-8e52-a31bb0e59238","system_id":"levelo_inurba_marseille","lat":43.28725,"lon":5.40035,"is_reserved":false,"is_disabled":false,"rental_uris":{"android":"levelo://app?vid=c3540d4b-6b27-44ad-8e52-a31bb0e59238","ios":"levelo://app?vid=c3540d4b-6b27-44ad-8e52-a31bb0e59238"},"vehicle_type_id":"4","last_reported":1758953552,"current_range_meters":18800,"station_id":"ce4bho92rcd13ifvqh3g","pricing_plan_id":"cebpf4jnsgd1na2vs0mg"},{"bike_id":"4bc5ce2a-a943-49ff-b51f-ff13b97e7de5","system_id":"levelo_inurba_marseille","lat":43.288536,"lon":5.35857,"is_reserved":false,"is_disabled":false,"rental_uris":{"android":"levelo://app?vid=4bc5ce2a-a943-49ff-b51f-ff13b97e7de5","ios":"levelo://app?vid=4bc5ce2a-a943-49ff-b51f-ff13b97e7de5"},"vehicle_type_id":"4","last_reported":1758953552,"current_range_meters":18800,"station_id":"ce4bhb12rcd13ifvqem0","pricing_plan_id":"cebpf4jnsgd1na2vs0mg"},{"bike_id":"20947a55-e0d6-4d75-b673-1fc8e34c39fa","system_id":"levelo_inurba_marseille","lat":43.25116,"lon":5.40311,"is_reserved":false,"is_disabled":false,"rental_uris":{"android":"levelo://app?vid=20947a55-e0d6-4d75-b673-1fc8e34c39fa","ios":"levelo://app?vid=20947a55-e0d6-4d75-b673-1fc8e34c39fa"},"vehicle_type_id":"4","last_reported":1758953552,"current_range_meters":18800,"station_id":"ce4bhlh2rcd13ifvqgig","pricing_plan_id":"cebpf4jnsgd1na2vs0mg"},{"bike_id":"d04d69ab-b81a-4e04-b105-360a2ca4e5b6","system_id":"levelo_inurba_marseille","lat":43.23185,"lon":5.40005,"is_reserved":false,"is_disabled":false,"rental_uris":{"android":"levelo://app?vid=d04d69ab-b81a-4e04-b105-360a2ca4e5b6","ios":"levelo://app?vid=d04d69ab-b81a-4e04-b105-360a2ca4e5b6"},"vehicle_type_id":"4","last_reported":1758953552,"current_range_meters":18800,"station_id":"ce4bhn12rcd13ifvqgqg","pricing_plan_id":"cebpf4jnsgd1na2vs0mg"},{"bike_id":"88417ecf-3b45-4a85-b3ba-a098b1b6b1ed","system_id":"levelo_inurba_marseille","lat":43.27333,"lon":5.38569,"is_reserved":false,"is_disabled":false,"rental_uris":{"android":"levelo://app?vid=88417ecf-3b45-4a85-b3ba-a098b1b6b1ed","ios":"levelo://app?vid=88417ecf-3b45-4a85-b3ba-a098b1b6b1ed"},"vehicle_type_id":"4","last_reported":1758953552,"current_range_meters":18800,"station_id":"","pricing_plan_id":"cebpf4jnsgd1na2vs0mg"},