{"last_updated":1732223295,"ttl":60,"version":"2.2","data":{"bikes":[{"bike_id":"8d981110-c75c-4211-b83a-d26c6951c5ab","system_id":"levelo_inurba_marseille","lat":43.29195,"lon":5.35819,"is_reserved":false,"is_disabled":false,"rental_uris":{"android":"levelo://app?vid=8d981110-c75c-4211-b83a-d26c6951c5ab","ios":"levelo://app?vid=8d981110-c75c-4211-b83a-d26c6951c5ab"},"vehicle_type_id":"4","last_reported":1732223295,"current_range_meters":38800,"station_id":"ce4bhb12rcd13ifvqel0","pricing_plan_id":"cebpf4jnsgd1na2vs0mg"},{"bike_id":"a10be396-1705-483a-9984-718f9d010c8e","system_id":"levelo_inurba_marseille","lat":43.298681,"lon":5.397419,"is_reserved":false,"is_disabled":true,"rental_uris":{"android":"levelo://app?vid=a10be396-1705-483a-9984-718f9d010c8e","ios":"levelo://app?vid=a10be396-1705-483a-9984-718f9d010c8e"},"vehicle_type_id":"4","last_reported":1732223295,"current_range_meters":0,"station_id":"ce4bh0h2rcd13ifvqd50","pricing_plan_id":"cebpf4jnsgd1na2vs0mg"},{"bike_id":"156320ae-cdf1-448d-a5dd-5f82d48b8bf7","system_id":"levelo_inurba_marseille","lat":43.28613,"lon":5.35101,"is_reserved":false,"is_disabled":false,"rental_uris":{"android":"levelo://app?vid=156320ae-cdf1-448d-a5dd-5f82d48b8bf7","ios":"levelo://app?vid=156320ae-cdf1-448d-a5dd-5f82d48b8bf7"},"vehicle_type_id":"4","last_reported":1732223295,"current_range_meters":35600,"station_id":"ce4bhch2rcd13ifvqeug","pricing_plan_id":"cebpf4jnsgd1na2vs0mg"},{"bike_id":"9903085d-c2d5-4e51-9142-a76cb5b64c42","system_id":"levelo_inurba_marseille","lat":43.29037,"lon":5.39952,"is_reserved":false,"is_disabled":true,"rental_uris":{"android":"levelo://app?vid=9903085d-c2d5-4e51-9142-a76cb5b64c42","ios":"levelo://app?vid=9903085d-c2d5-4e51-9142-a76cb5b64c42"},"vehicle_type_id":"4","last_reported":1732223295,"current_range_meters":38800,"station_id":"ce4bh392rcd13ifvqdm0","pricing_plan_id":"cebpf4jnsgd1na2vs0mg"},{"bike_id":"8527133f-e94b-41ef-9b16-c99901d73e95","system_id":"levelo_inurba_marseille","lat":43.25579,"lon":5.38232,"is_reserved":false,"is_disabled":false,"rental_uris":{"android":"levelo://app?vid=8527133f-e94b-41ef-9b16-c99901d73e95","ios":"levelo://app?vid=8527133f-e94b-41ef-9b16-c99901d73e95"},"vehicle_type_id":"4","last_reported":1732223295,"current_range_meters":36800,"station_id":"ce4bhih2rcd13ifvqfs0","pricing_plan_id":"cebpf4jnsgd1na2vs0mg"},{"bike_id":"eadecdba-eeca-443b-a99c-ad2fb22d0bbc","system_id":"levelo_inurba_marseille","lat":43.26576,"lon":5.39013,"is_reserved":false,"is_disabled":false,"rental_uris":{"android":"levelo://app?vid=eadecdba-eeca-443b-a99c-ad2fb22d0bbc","ios":"levelo://app?vid=eadecdba-eeca-443b-a99c-ad2fb22d0bbc"},"vehicle_type_id":"4","last_reported":1732223295,"current_range_meters":38800,"station_id":"ce4bhe12rcd13ifvqf30","pricing_plan_id":"cebpf4jnsgd1na2vs0mg"},{"bike_id":"edc6a23f-6d3d-4a4a-baa7-9de3350b5a8a","system_id":"levelo_inurba_marseille","lat":43.27964,"lon":5.38726,"is_reserved":false,"is_disabled":false,"rental_uris":{"android":"levelo://app?vid=edc6a23f-6d3d-4a4a-baa7-9de3350b5a8a","ios":"levelo://app?vid=edc6a23f-6d3d-4a4a-baa7-9de3350b5a8a"},"vehicle_type_id":"4","last_reported":1732223295,"current_range_meters":38000,"station_id":"ce4bhg12rcd13ifvqf80","pricing_plan_id":"cebpf4jnsgd1na2vs0mg"},{"bike_id":"7553df50-78c0-4fea-a805-5199e6814e47","system_id":"levelo_inurba_marseille","lat":43.29209,"lon":5.39472,"is_reserved":false,"is_disabled":false,"rental_uris":{"android":"levelo://app?vid=7553df50-78c0-4fea-a805-5199e6814e47","ios":"levelo://app?vid=7553df50-78c0-4fea-a805-5199e6814e47"},"vehicle_type_id":"4","last_reported":1732223295,"current_range_meters":14800,"station_id":"ce4bh192rcd13ifvqdd0","pricing_plan_id":"cebpf4jnsgd1na2vs0mg"},{"bike_id":"00249599-2873-4411-8e6b-9d1fb221012c","system_id":"levelo_inurba_marseille","lat":43.29002,"lon":5.3562,"is_reserved":false,"is_disabled":false,"rental_uris":{"android":"levelo://app?vid=00249599-2873-4411-8e6b-9d1fb221012c","ios":"levelo://app?vid=00249599-2873-4411-8e6b-9d1fb221012c"},"vehicle_type_id":"4","last_reported":1732223295,"current_range_meters":30400,"station_id":"ce4bhb92rcd13ifvqen0","pricing_plan_id":"cebpf4jnsgd1na2vs0mg"},{"bike_id":"54aaffa4-3b5a-4b20-98be-cf6af0d90cf7","system_id":"levelo_inurba_marseille","lat":43.30798,"lon":5.43522,"is_reserved":false,"is_disabled":false,"rental_uris":{"android":"levelo://app?vid=54aaffa4-3b5a-4b20-98be-cf6af0d90cf7","ios":"levelo://app?vid=54aaffa4-3b5a-4b20-98be-cf6af0d90cf7"},"vehicle_type_id":"4","last_reported":1732223295,"current_range_meters":38800,"station_id":"ce4bhph2rcd13ifvqheg","pricing_plan_id":"cebpf4jnsgd1na2vs0mg"},{"bike_id":"1f203897-1164-43c5-8a36-2a35df13aaf6","system_id":"levelo_inurba_marseille","lat":43.23148,"lon":5.43716,"is_reserved":false,"is_disabled":false,"rental_uris":{"android":"levelo://app?vid=1f203897-1164-43c5-8a36-2a35df13aaf6","ios":"levelo://app?vid=1f203897-1164-43c5-8a36-2a35df13aaf6"},"vehicle_type_id":"4","last_reported":1732223295,"current_range_meters":38800,"station_id":"ce4bhmp2rcd13ifvqgog","pricing_plan_id":"cebpf4jnsgd1na2vs0mg"},{"bike_id":"3a076054-5799-4ac5-82a3-cb0f017ae5a2","system_id":"levelo_inurba_marseille","lat":43.29261,"lon":5.38441,"is_reserved":false,"is_disabled":false,"rental_uris":{"android":"levelo://app?vid=3a076054-5799-4ac5-82a3-cb0f017ae5a2","ios":"levelo://app?vid=3a076054-5799-4ac5-82a3-cb0f017ae5a2"},"vehicle_type_id":"4","last_reported":1732223295,"current_range_meters":38800,"station_id":"ce4bh692rcd13ifvqea0","pricing_plan_id":"cebpf4jnsgd1na2vs0mg"},{"bike_id":"428d72ce-47cc-4c94-841a-e3c923cc1cb6","system_id":"levelo_inurba_marseille","lat":43.28701,"lon":5.37397,"is_reserved":false,"is_disabled":true,"rental_uris":{"android":"levelo://app?vid=428d72ce-47cc-4c94-841a-e3c923cc1cb6","ios":"levelo://app?vid=428d72ce-47cc-4c94-841a-e3c923cc1cb6"},"vehicle_type_id":"4","last_reported":1732223295,"current_range_meters":31200,"station_id":"ce4bh3p2rcd13ifvqdq0","pricing_plan_id":"cebpf4jnsgd1na2vs0mg"},{"bike_id":"cc45001e-86ba-42cc-9993-ed5261abbfe0","system_id":"levelo_inurba_marseille","lat":43.32364,"lon":5.38882,"is_reserved":false,"is_disabled":false,"rental_uris":{"android":"levelo://app?vid=cc45001e-86ba-42cc-9993-ed5261abbfe0","ios":"levelo://app?vid=cc45001e-86ba-42cc-9993-ed5261abbfe0"},"vehicle_type_id":"4","last_reported":1732223295,"current_range_meters":17600,"station_id":"ce4bhqp2rcd13ifvqhog","pricing_plan_id":"cebpf4jnsgd1na2vs0mg"},{"bike_id":"aaa2852c-700e-4ada-8901-55f0605f0952","system_id":"levelo_inurba_marseille","lat":43.30938,"lon":5.40147,"is_reserved":false,"is_disabled":false,"rental_uris":{"android":"levelo://app?vid=aaa2852c-700e-4ada-8901-55f0605f0952","ios":"levelo://app?vid=aaa2852c-700e-4ada-8901-55f0605f0952"},"vehicle_type_id":"4","last_reported":1732223295,"current_range_meters":37600,"station_id":"ce4bgvp2rcd13ifvqct0","pricing_plan_id":"cebpf4jnsgd1na2vs0mg"},{"bike_id":"84d41b0c-0ba6-41dd-8633-cfab459da693","system_id":"levelo_inurba_marseille","lat":43.24802,"lon":5.37452,"is_reserved":false,"is_disabled":false,"rental_uris":{"android":"levelo://app?vid=84d41b0c-0ba6-41dd-8633-cfab459da693","ios":"levelo://app?vid=84d41b0c-0ba6-41dd-8633-cfab459da693"},"vehicle_type_id":"4","last_reported":1732223295,"current_range_meters":25200,"station_id":"ce4bhgh2rcd13ifvqfb0","pricing_plan_id":"cebpf4jnsgd1na2vs0mg"},{"bike_id":"c0755ad7-8353-40d1-98a4-bba43ca0e3ab","system_id":"levelo_inurba_marseille","lat":43.33717,"lon":5.39177,"is_reserved":false,"is_disabled":false,"rental_uris":{"android":"levelo://app?vid=c0755ad7-8353-40d1-98a4-bba43ca0e3ab","ios":"levelo://app?vid=c0755ad7-8353-40d1-98a4-bba43ca0e3ab"},"vehicle_type_id":"4","last_reported":1732223295,"current_range_meters":16800,"station_id":"ce4bhr92rcd13ifvqhsg","pricing_plan_id":"cebpf4jnsgd1na2vs0mg"},{"bike_id":"a9a4af61-0fd7-4a8f-8c37-b9e8613d2302","system_id":"levelo_inurba_marseille","lat":43.23185,"lon":5.39987,"is_reserved":false,"is_disabled":false,"rental_uris":{"android":"levelo://app?vid=a9a4af61-0fd7-4a8f-8c37-b9e8613d2302","ios":"levelo://app?vid=a9a4af61-0fd7-4a8f-8c37-b9e8613d2302"},"vehicle_type_id":"4","last_reported":1732223295,"current_range_meters":38400,"station_id":"ce4bhn12rcd13ifvqgqg","pricing_plan_id":"cebpf4jnsgd1na2vs0mg"},{"bike_id":"8181d04a-7f0e-4ec6-bb31-c9a42248f31c","system_id":"levelo_inurba_marseille","lat":43.30144,"lon":5.38782,"is_reserved":false,"is_disabled":true,"rental_uris":{"android":"levelo://app?vid=8181d04a-7f0e-4ec6-bb31-c9a42248f31c","ios":"levelo://app?vid=8181d04a-7f0e-4ec6-bb31-c9a42248f31c"},"vehicle_type_id":"4","last_reported":1732223295,"current_range_meters":32000,"station_id":"ce4bghh2rcd13ifvqb60","pricing_plan_id":"cebpf4jnsgd1na2vs0mg"},{"bike_id":"78bb5da4-eb26-47d4-a1b5-b4f21cccc3d3","system_id":"levelo_inurba_marseille","lat":43.30364,"lon":5.41879,"is_reserved":false,"is_disabled":false,"rental_uris":{"android":"levelo://app?vid=78bb5da4-eb26-47d4-a1b5-b4f21cccc3d3","ios":"levelo://app?vid=78bb5da4-eb26-47d4-a1b5-b4f21cccc3d3"},"vehicle_type_id":"4","last_reported":1732223295,"current_range_meters":16800,"station_id":"ce4bhop2rcd13ifvqh7g","pricing_plan_id":"cebpf4jnsgd1na2vs0mg"},{"bike_id":"baee7a83-e826-4645-b2d4-9c90c3a42021","system_id":"levelo_inurba_marseille","lat":43.30307,"lon":5.39204,"is_reserved":false,"is_disabled":false,"rental_uris":{"android":"levelo://app?vid=baee7a83-e826-4645-b2d4-9c90c3a42021","ios":"levelo://app?vid=baee7a83-e826-4645-b2d4-9c90c3a42021"},"vehicle_type_id":"4","last_reported":1732223295,"current_range_meters":38800,"station_id":"ce4bgkh2rcd13ifvqbk0","pricing_plan_id":"cebpf4jnsgd1na2vs0mg"},{"bike_id":"fd1e905e-0070-4395-8279-72b1c9e566e2","system_id":"levelo_inurba_marseille","lat":43.28727,"lon":5.37943,"is_reserved":false,"is_disabled":false,"rental_uris":{"android":"levelo://app?vid=fd1e905e-0070-4395-8279-72b1c9e566e2","ios":"levelo://app?vid=fd1e905e-0070-4395-8279-72b1c9e566e2"},"vehicle_type_id":"4","last_reported":1732223295,"current_range_meters":36800,"station_id":"ce4bh9p2rcd13ifvqec0","pricing_plan_id":"cebpf4jnsgd1na2vs0mg"},{"bike_id":"d2321b4c-ae3a-4b43-8bcd-12cb7984481d","system_id":"levelo_inurba_marseille","lat":43.30751,"lon":5.37007,"is_reserved":false,"is_disabled":true,"rental_uris":{"android":"levelo://app?vid=d2321b4c-ae3a-4b43-8bcd-12cb7984481d","ios":"levelo://app?vid=d2321b4c-ae3a-4b43-8bcd-12cb7984481d"},"vehicle_type_id":"4","last_reported":1732223295,"current_range_meters":21600,"station_id":"","pricing_plan_id":"cebpf4jnsgd1na2vs0mg"},{"bike_id":"b82c6aca-0424-472d-aecd-3a5f68babc21","system_id":"levelo_inurba_marseille","lat":43.28869,"lon":5.3583,"is_reserved":false,"is_disabled":false,"rental_uris":{"android":"levelo://app?vid=b82c6aca-0424-472d-aecd-3a5f68babc21","ios":"levelo://app?vid=b82c6aca-0424-472d-aecd-3a5f68babc21"},"vehicle_type_id":"4","last_reported":1732223295,"current_range_meters":19600,"station_id":"ce4bhb12rcd13ifvqem0","pricing_plan_id":"cebpf4jnsgd1na2vs0mg"},{"bike_id":"3b5522a7-bb84-4ac5-a874-8e3392f525c4","system_id":"levelo_inurba_marseille","lat":43.26487,"lon":5.39549,"is_reserved":false,"is_disabled":false,"rental_uris":{"android":"levelo://app?vid=3b5522a7-bb84-4ac5-a874-8e3392f525c4","ios":"levelo://app?vid=3b5522a7-bb84-4ac5-a874-8e3392f525c4"},"vehicle_type_id":"4","last_reported":1732223295,"current_range_meters":8000,"station_id":"ce4bhi12rcd13ifvqfq0","pricing_plan_id":"cebpf4jnsgd1na2vs0mg"},{"bike_id":"a1b98c93-ef7e-45de-9f91-96e2bc6df935","system_id":"levelo_inurba_marseille","lat":43.34559,"lon":5.37824,"is_reserved":false,"is_disabled":false,"rental_uris":{"android":"levelo://app?vid=a1b98c93-ef7e-45de-9f91-96e2bc6df935","ios":"levelo://app?vid=a1b98c93-ef7e-45de-9f91-96e2bc6df935"},"vehicle_type_id":"4","last_reported":1732223295,"current_range_meters":9200,"station_id":"","pricing_plan_id":"cebpf4jnsgd1na2vs0mg"},{"bike_id":"5c3000a0-a190-4007-a723-aa2707fd1ce3","system_id":"levelo_inurba_marseille","lat":43.22946,"lon":5.35363,"is_reserved":false,"is_disabled":false,"rental_uris":{"android":"levelo://app?vid=5c3000a0-a190-4007-a723-aa2707fd1ce3","ios":"levelo://app?vid=5c3000a0-a190-4007-a723-aa2707fd1ce3"},"vehicle_type_id":"4","last_reported":1732223295,"current_range_meters":38800,"station_id":"cpo3532slgdg3j2ikp40","pricing_plan_id":"cebpf4jnsgd1na2vs0mg"},{"bike_id":"1dfae490-765e-4848-8139-658504715027","system_id":"levelo_inurba_marseille","lat":43.2657,"lon":5.39013,"is_reserved":false,"is_disabled":false,"rental_uris":{"android":"levelo://app?vid=1dfae490-765e-4848-8139-658504715027","ios":"levelo://app?vid=1dfae490-765e-4848-8139-658504715027"},"vehicle_type_id":"4","last_reported":1732223295,"current_range_meters":28000,"station_id":"ce4bhe12rcd13ifvqf30","pricing_plan_id":"cebpf4jnsgd1na2vs0mg"},{"bike_id":"870d0647-4397-4511-973f-b89d4a2f146e","system_id":"levelo_inurba_marseille","lat":43.28614,"lon":5.35107,"is_reserved":false,"is_disabled":false,"rental_uris":{"android":"levelo://app?vid=870d0647-4397-4511-973f-b89d4a2f146e","ios":"levelo://app?vid=870d0647-4397-4511-973f-b89d4a2f146e"},"vehicle_type_id":"4","last_reported":1732223295,"current_range_meters":38800,"station_id":"ce4bhch2rcd13ifvqeug","pricing_plan_id":"cebpf4jnsgd1na2vs0mg"},{"bike_id":"9bf00278-281e-45df-b9cb-0f55e5af1df2","system_id":"levelo_inurba_marseille","lat":43.25579,"lon":5.38213,"is_reserved":false,"is_disabled":false,"rental_uris":{"android":"levelo://app?vid=9bf00278-281e-45df-b9cb-0f55e5af1df2","ios":"levelo://app?vid=9bf00278-281e-45df-b9cb-0f55e5af1df2"},"vehicle_type_id":"4","last_reported":1732223295,"current_range_meters":38400,"station_id":"ce4bhih2rcd13ifvqfs0","pricing_plan_id":"cebpf4jnsgd1na2vs0mg"},{"bike_id":"64aac697-8144-4703-9ea7-a64091dd4f62","system_id":"levelo_inurba_marseille","lat":43.28615,"lon":5.35109,"is_reserved":false,"is_disabled":false,"rental_uris":{"android":"levelo://app?vid=64aac697-8144-4703-9ea7-a64091dd4f62","ios":"levelo://app?vid=64aac697-8144-4703-9ea7-a64091dd4f62"},"vehicle_type_id":"4","last_reported":1732223295,"current_range_meters":22000,"station_id":"ce4bhch2rcd13ifvqeug","pricing_plan_id":"cebpf4jnsgd1na2vs0mg"},{"bike_id":"922bd877-8ef2-4e72-a9c2-b448135ba6e2","system_id":"levelo_inurba_marseille","lat":43.232,"lon":5.35541,"is_reserved":false,"is_disabled":false,"rental_uris":{"android":"levelo://app?vid=922bd877-8ef2-4e72-a9c2-b448135ba6e2","ios":"levelo://app?vid=922bd877-8ef2-4e72-a9c2-b448135ba6e2"},"vehicle_type_id":"4","last_reported":1732223295,"current_range_meters":17600,"station_id":"ce4bhu92rcd13ifvqi70","pricing_plan_id":"cebpf4jnsgd1na2vs0mg"},{"bike_id":"0e16ab20-72d4-4355-aebe-6b64480b2cae","system_id":"levelo_inurba_marseille","lat":43.288573,"lon":5.393123,"is_reserved":false,"is_disabled":false,"rental_uris":{"android":"levelo://app?vid=0e16ab20-72d4-4355-aebe-6b64480b2cae","ios":"levelo://app?vid=0e16ab20-72d4-4355-aebe-6b64480b2cae"},"vehicle_type_id":"4","last_reported":1732223295,"current_range_meters":8400,"station_id":"","pricing_plan_id":"cebpf4jnsgd1na2vs0mg"},{"bike_id":"895dae95-9dde-4a45-9252-bfb2ffb1ef60","system_id":"levelo_inurba_marseille","lat":43.29844,"lon":5.36267,"is_reserved":false,"is_disabled":false,"rental_uris":{"android":"levelo://app?vid=895dae95-9dde-4a45-9252-bfb2ffb1ef60","ios":"levelo://app?vid=895dae95-9dde-4a45-9252-bfb2ffb1ef60"},"vehicle_type_id":"4","last_reported":1732223295,"current_range_meters":38800,"station_id":"ce4bgpp2rcd13ifvqc3g","pricing_plan_id":"cebpf4jnsgd1na2vs0mg"},{"bike_id":"658c5d79-4e85-4acb-a4e7-dacf17f5b11a","system_id":"levelo_inurba_marseille","lat":43.2756,"lon":5.38422,"is_reserved":false,"is_disabled":false,"rental_uris":{"android":"levelo://app?vid=658c5d79-4e85-4acb-a4e7-dacf17f5b11a","ios":"levelo://app?vid=658c5d79-4e85-4acb-a4e7-dacf17f5b11a"},"vehicle_type_id":"4","last_reported":1732223295,"current_range_meters":5600,"station_id":"ce4bhh92rcd13ifvqfi0","pricing_plan_id":"cebpf4jnsgd1na2vs0mg"},{"bike_id":"48cd0835-aecf-4328-9ec2-0085c18d7831","system_id":"levelo_inurba_marseille","lat":43.27566,"lon":5.38412,"is_reserved":false,"is_disabled":true,"rental_uris":{"android":"levelo://app?vid=48cd0835-aecf-4328-9ec2-0085c18d7831","ios":"levelo://app?vid=48cd0835-aecf-4328-9ec2-0085c18d7831"},"vehicle_type_id":"4","last_reported":1732223295,"current_range_meters":39200,"station_id":"ce4bhh92rcd13ifvqfi0","pricing_plan_id":"cebpf4jnsgd1na2vs0mg"},{"bike_id":"1cd0daee-d68a-4e66-9883-fbe67fd8260f","system_id":"levelo_inurba_marseille","lat":43.30574,"lon":5.37077,"is_reserved":false,"is_disabled":true,"rental_uris":{"android":"levelo://app?vid=1cd0daee-d68a-4e66-9883-fbe67fd8260f","ios":"levelo://app?vid=1cd0daee-d68a-4e66-9883-fbe67fd8260f"},"vehicle_type_id":"4","last_reported":1732223295,"current_range_meters":0,"station_id":"","pricing_plan_id":"cebpf4jnsgd1na2vs0mg"},{"bike_id":"3a11edf9-2f9c-46fe-a084-17228f7b3136","system_id":"levelo_inurba_marseille","lat":43.29938,"lon":5.36544,"is_reserved":false,"is_disabled":false,"rental_uris":{"android":"levelo://app?vid=3a11edf9-2f9c-46fe-a084-17228f7b3136","ios":"levelo://app?vid=3a11edf9-2f9c-46fe-a084-17228f7b3136"},"vehicle_type_id":"4","last_reported":1732223295,"current_range_meters":22800,"station_id":"ce4bgm92rcd13ifvqbr0","pricing_plan_id":"cebpf4jnsgd1na2vs0mg"},{"bike_id":"2bf3ff34-3127-4666-9da0-d6ff76bb6a0d","system_id":"levelo_inurba_marseille","lat":43.28454,"lon":5.35899,"is_reserved":false,"is_disabled":false,"rental_uris":{"android":"levelo://app?vid=2bf3ff34-3127-4666-9da0-d6ff76bb6a0d","ios":"levelo://app?vid=2bf3ff34-3127-4666-9da0-d6ff76bb6a0d"},"vehicle_type_id":"4","last_reported":1732223295,"current_range_meters":9600,"station_id":"ce4bhah2rcd13ifvqei0","pricing_plan_id":"cebpf4jnsgd1na2vs0mg"},{"bike_id":"3a70b51d-b225-4756-966b-05a9a99c041a","system_id":"levelo_inurba_marseille","lat":43.32337,"lon":5.40624,"is_reserved":false,"is_disabled":false,"rental_uris":{"android":"levelo://app?vid=3a70b51d-b225-4756-966b-05a9a99c041a","ios":"levelo://app?vid=3a70b51d-b225-4756-966b-05a9a99c041a"},"vehicle_type_id":"4","last_reported":1732223295,"current_range_meters":29600,"station_id":"ce4bhq92rcd13ifvqhjg","pricing_plan_id":"cebpf4jnsgd1na2vs0mg"},{"bike_id":"e651a064-df8b-4f96-8f09-ab621b1ad80c","system_id":"levelo_inurba_marseille","lat":43.30323,"lon":5.40431,"is_reserved":false,"is_disabled":false,"rental_uris":{"android":"levelo://app?vid=e651a064-df8b-4f96-8f09-ab621b1ad80c","ios":"levelo://app?vid=e651a064-df8b-4f96-8f09-ab621b1ad80c"},"vehicle_type_id":"4","last_reported":1732223295,"current_range_meters":38800,"station_id":"ce4bh012rcd13ifvqd10","pricing_plan_id":"cebpf4jnsgd1na2vs0mg"},{"bike_id":"e4d1110f-959b-40b4-88a0-d41c994c54f7","system_id":"levelo_inurba_marseille","lat":43.24669,"lon":5.38158,"is_reserved":false,"is_disabled":false,"rental_uris":{"android":"levelo://app?vid=e4d1110f-959b-40b4-88a0-d41c994c54f7","ios":"levelo://app?vid=e4d1110f-959b-40b4-88a0-d41c994c54f7"},"vehicle_type_id":"4","last_reported":1732223295,"current_range_meters":6400,"station_id":"ce4bhih2rcd13ifvqfr0","pricing_plan_id":"cebpf4jnsgd1na2vs0mg"},{"bike_id":"93c41fb7-e4d2-473a-b7e1-4a5a649c5649","system_id":"levelo_inurba_marseille","lat":43.32536,"lon":5.41438,"is_reserved":false,"is_disabled":false,"rental_uris":{"android":"levelo://app?vid=93c41fb7-e4d2-473a-b7e1-4a5a649c5649","ios":"levelo://app?vid=93c41fb7-e4d2-473a-b7e1-4a5a649c5649"},"vehicle_type_id":"4","last_reported":1732223295,"current_range_meters":38000,"station_id":"ce4bhq12rcd13ifvqhhg","pricing_plan_id":"cebpf4jnsgd1na2vs0mg"},{"bike_id":"7031949b-0101-4f89-afc2-44bca8b43791","system_id":"levelo_inurba_marseille","lat":43.28711,"lon":5.37928,"is_reserved":false,"is_disabled":false,"rental_uris":{"android":"levelo://app?vid=7031949b-0101-4f89-afc2-44bca8b43791","ios":"levelo://app?vid=7031949b-0101-4f89-afc2-44bca8b43791"},"vehicle_type_id":"4","last_reported":1732223295,"current_range_meters":36000,"station_id":"ce4bh9p2rcd13ifvqec0","pricing_plan_id":"cebpf4jnsgd1na2vs0mg"},{"bike_id":"cbc9f3c1-4348-4707-b560-0243bcecad2d","system_id":"levelo_inurba_marseille","lat":43.28037,"lon":5.36941,"is_reserved":false,"is_disabled":false,"rental_uris":{"android":"levelo://app?vid=cbc9f3c1-4348-4707-b560-0243bcecad2d","ios":"levelo://app?vid=cbc9f3c1-4348-4707-b560-0243bcecad2d"},"vehicle_type_id":"4","last_reported":1732223295,"current_range_meters":32000,"station_id":"ce4bha12rcd13ifvqef0","pricing_plan_id":"cebpf4jnsgd1na2vs0mg"},{"bike_id":"bf582172-3c4e-42ea-8f93-6ffe4dd2de70","system_id":"levelo_inurba_marseille","lat":43.29423,"lon":5.38622,"is_reserved":false,"is_disabled":false,"rental_uris":{"android":"levelo://app?vid=bf582172-3c4e-42ea-8f93-6ffe4dd2de70","ios":"levelo://app?vid=bf582172-3c4e-42ea-8f93-6ffe4dd2de70"},"vehicle_type_id":"4","last_reported":1732223295,"current_range_meters":8400,"station_id":"ce4bh2h2rcd13ifvqdh0","pricing_plan_id":"cebpf4jnsgd1na2vs0mg"},{"bike_id":"cbd6d88c-3a6a-45bb-9f95-2756c09de0b8","system_id":"levelo_inurba_marseille","lat":43.2761,"lon":5.41743,"is_reserved":false,"is_disabled":true,"rental_uris":{"android":"levelo://app?vid=cbd6d88c-3a6a-45bb-9f95-2756c09de0b8","ios":"levelo://app?vid=cbd6d88c-3a6a-45bb-9f95-2756c09de0b8"},"vehicle_type_id":"4","last_reported":1732223295,"current_range_meters":25200,"station_id":"","pricing_plan_id":"cebpf4jnsgd1na2vs0mg"},{"bike_id":"708f6428-5d3d-4d57-9495-9961639aa047","system_id":"levelo_inurba_marseille","lat":43.29783,"lon":5.39342,"is_reserved":false,"is_disabled":false,"rental_uris":{"android":"levelo://app?vid=708f6428-5d3d-4d57-9495-9961639aa047","ios":"levelo://app?vid=708f6428-5d3d-4d57-9495-9961639aa047"},"vehicle_type_id":"4","last_reported":1732223295,"current_range_meters":13600,"station_id":"chh1huq6cuj3fo74tm60","pricing_plan_id":"cebpf4jnsgd1na2vs0mg"},{"bike_id":"478beee7-0d9b-4d4c-a2fc-ced293c0b226","system_id":"levelo_inurba_marseille","lat":43.28746,"lon":5.36082,"is_reserved":false,"is_disabled":false,"rental_uris":{"android":"levelo://app?vid=478beee7-0d9b-4d4c-a2fc-ced293c0b226","ios":"levelo://app?vid=478beee7-0d9b-4d4c-a2fc-ced293c0b226"},"vehicle_type_id":"4","last_reported":1732223295,"current_range_meters":20400,"station_id":"cki0cbj6b192h4jlfktg","pricing_plan_id":"cebpf4jnsgd1na2vs0mg"},{"bike_id":"12559c2f-f57a-4ebc-8974-e4ff8151954f","system_id":"levelo_inurba_marseille","lat":43.275721,"lon":5.384323,"is_reserved":false,"is_disabled":false,"rental_uris":{"android":"levelo://app?vid=12559c2f-f57a-4ebc-8974-e4ff8151954f","ios":"levelo://app?vid=12559c2f-f57a-4ebc-8974-e4ff8151954f"},"vehicle_type_id":"4","last_reported":1732223295,"current_range_meters":16000,"station_id":"ce4bhh92rcd13ifvqfi0","pricing_plan_id":"cebpf4jnsgd1na2vs0mg"},{"bike_id":"45a83c4e-4b08-4e7d-9aa7-ce2060830b65","system_id":"levelo_inurba_marseille","lat":43.29415,"lon":5.38604,"is_reserved":false,"is_disabled":false,"rental_uris":{"android":"levelo://app?vid=45a83c4e-4b08-4e7d-9aa7-ce2060830b65","ios":"levelo://app?vid=45a83c4e-4b08-4e7d-9aa7-ce2060830b65"},"vehicle_type_id":"4","last_reported":1732223295,"current_range_meters":36800,"station_id":"ce4bh2h2rcd13ifvqdh0","pricing_plan_id":"cebpf4jnsgd1na2vs0mg"},{"bike_id":"6121e704-2ad8-44a9-85b3-645d99065972","system_id":"levelo_inurba_marseille","lat":43.27611,"lon":5.36109,"is_reserved":false,"is_disabled":false,"rental_uris":{"android":"levelo://app?vid=6121e704-2ad8-44a9-85b3-645d99065972","ios":"levelo://app?vid=6121e704-2ad8-44a9-85b3-645d99065972"},"vehicle_type_id":"4","last_reported":1732223295,"current_range_meters":38000,"station_id":"ce4bgj92rcd13ifvqbe0","pricing_plan_id":"cebpf4jnsgd1na2vs0mg"},{"bike_id":"98dfa1d5-89c5-4fe3-ab9b-0189f2021f1f","system_id":"levelo_inurba_marseille","lat":43.26952,"lon":5.3863,"is_reserved":false,"is_disabled":false,"rental_uris":{"android":"levelo://app?vid=98dfa1d5-89c5-4fe3-ab9b-0189f2021f1f","ios":"levelo://app?vid=98dfa1d5-89c5-4fe3-ab9b-0189f2021f1f"},"vehicle_type_id":"4","last_reported":1732223295,"current_range_meters":27200,"station_id":"ce4bhh92rcd13ifvqfh0","pricing_plan_id":"cebpf4jnsgd1na2vs0mg"},{"bike_id":"0661744c-b366-418a-a5da-eacf7215a7a7","system_id":"levelo_inurba_marseille","lat":43.32336,"lon":5.40625,"is_reserved":false,"is_disabled":false,"rental_uris":{"android":"levelo://app?vid=0661744c-b366-418a-a5da-eacf7215a7a7","ios":"levelo://app?vid=0661744c-b366-418a-a5da-eacf7215a7a7"},"vehicle_type_id":"4","last_reported":1732223295,"current_range_meters":14000,"station_id":"ce4bhq92rcd13ifvqhjg","pricing_plan_id":"cebpf4jnsgd1na2vs0mg"},{"bike_id":"34c69495-450d-44c2-b0ce-9efc22d4bdb7","system_id":"levelo_inurba_marseille","lat":43.28033,"lon":5.36941,"is_reserved":false,"is_disabled":false,"rental_uris":{"android":"levelo://app?vid=34c69495-450d-44c2-b0ce-9efc22d4bdb7","ios":"levelo://app?vid=34c69495-450d-44c2-b0ce-9efc22d4bdb7"},"vehicle_type_id":"4","last_reported":1732223295,"current_range_meters":10800,"station_id":"ce4bha12rcd13ifvqef0","pricing_plan_id":"cebpf4jnsgd1na2vs0mg"},{"bike_id":"3501b69b-284e-4de9-9b51-7292ad8f3d91","system_id":"levelo_inurba_marseille","lat":43.25821,"lon":5.39437,"is_reserved":false,"is_disabled":false,"rental_uris":{"android":"levelo://app?vid=3501b69b-284e-4de9-9b51-7292ad8f3d91","ios":"levelo://app?vid=3501b69b-284e-4de9-9b51-7292ad8f3d91"},"vehicle_type_id":"4","last_reported":1732223295,"current_range_meters":8000,"station_id":"ce4bhip2rcd13ifvqft0","pricing_plan_id":"cebpf4jnsgd1na2vs0mg"},{"bike_id":"584349bc-2591-4018-b108-13dd4f4a1bfa","system_id":"levelo_inurba_marseille","lat":43.30929,"lon":5.40142,"is_reserved":false,"is_disabled":false,"rental_uris":{"android":"levelo://app?vid=584349bc-2591-4018-b108-13dd4f4a1bfa","ios":"levelo://app?vid=584349bc-2591-4018-b108-13dd4f4a1bfa"},"vehicle_type_id":"4","last_reported":1732223295,"current_range_meters":34800,"station_id":"ce4bgvp2rcd13ifvqct0","pricing_plan_id":"cebpf4jnsgd1na2vs0mg"},{"bike_id":"82ec0dbf-08ef-4b4a-bde8-06ca2a7fa449","system_id":"levelo_inurba_marseille","lat":43.29796,"lon":5.37075,"is_reserved":false,"is_disabled":false,"rental_uris":{"android":"levelo://app?vid=82ec0dbf-08ef-4b4a-bde8-06ca2a7fa449","ios":"levelo://app?vid=82ec0dbf-08ef-4b4a-bde8-06ca2a7fa449"},"vehicle_type_id":"4","last_reported":1732223295,"current_range_meters":6400,"station_id":"ce4bgop2rcd13ifvqc1g","pricing_plan_id":"cebpf4jnsgd1na2vs0mg"},{"bike_id":"a94a95d7-db67-4c65-b8e3-41b86b5deb09","system_id":"levelo_inurba_marseille","lat":43.29304,"lon":5.37456,"is_reserved":false,"is_disabled":false,"rental_uris":{"android":"levelo://app?vid=a94a95d7-db67-4c65-b8e3-41b86b5deb09","ios":"levelo://app?vid=a94a95d7-db67-4c65-b8e3-41b86b5deb09"},"vehicle_type_id":"4","last_reported":1732223295,"current_range_meters":38800,"station_id":"ce4bgi12rcd13ifvqb70","pricing_plan_id":"cebpf4jnsgd1na2vs0mg"},{"bike_id":"567b5bec-6f69-4097-9d92-252add5a5c8a","system_id":"levelo_inurba_marseille","lat":43.25581,"lon":5.38241,"is_reserved":false,"is_disabled":false,"rental_uris":{"android":"levelo://app?vid=567b5bec-6f69-4097-9d92-252add5a5c8a","ios":"levelo://app?vid=567b5bec-6f69-4097-9d92-252add5a5c8a"},"vehicle_type_id":"4","last_reported":1732223295,"current_range_meters":38800,"station_id":"ce4bhih2rcd13ifvqfs0","pricing_plan_id":"cebpf4jnsgd1na2vs0mg"},{"bike_id":"50797971-4d6c-4d44-97df-20b0ab4a9889","system_id":"levelo_inurba_marseille","lat":43.26058,"lon":5.39388,"is_reserved":false,"is_disabled":false,"rental_uris":{"android":"levelo://app?vid=50797971-4d6c-4d44-97df-20b0ab4a9889","ios":"levelo://app?vid=50797971-4d6c-4d44-97df-20b0ab4a9889"},"vehicle_type_id":"4","last_reported":1732223295,"current_range_meters":37600,"station_id":"ce4bhh92rcd13ifvqfj0","pricing_plan_id":"cebpf4jnsgd1na2vs0mg"},{"bike_id":"7d5ba0aa-0f48-4a7f-82de-9d26e1521cfb","system_id":"levelo_inurba_marseille","lat":43.32293,"lon":5.38271,"is_reserved":false,"is_disabled":false,"rental_uris":{"android":"levelo://app?vid=7d5ba0aa-0f48-4a7f-82de-9d26e1521cfb","ios":"levelo://app?vid=7d5ba0aa-0f48-4a7f-82de-9d26e1521cfb"},"vehicle_type_id":"4","last_reported":1732223295,"current_range_meters":25200,"station_id":"ce4bhr12rcd13ifvqhqg","pricing_plan_id":"cebpf4jnsgd1na2vs0mg"},{"bike_id":"550f0269-af81-4f74-bed5-fe17c4459dfd","system_id":"levelo_inurba_marseille","lat":43.25931,"lon":5.4091,"is_reserved":false,"is_disabled":false,"rental_uris":{"android":"levelo://app?vid=550f0269-af81-4f74-bed5-fe17c4459dfd","ios":"levelo://app?vid=550f0269-af81-4f74-bed5-fe17c4459dfd"},"vehicle_type_id":"4","last_reported":1732223295,"current_range_meters":38800,"station_id":"ce4bhm92rcd13ifvqglg","pricing_plan_id":"cebpf4jnsgd1na2vs0mg"},{"bike_id":"9c37a5af-6b01-4e75-9657-7ef6bddc1bc6","system_id":"levelo_inurba_marseille","lat":43.33024,"lon":5.39041,"is_reserved":false,"is_disabled":false,"rental_uris":{"android":"levelo://app?vid=9c37a5af-6b01-4e75-9657-7ef6bddc1bc6","ios":"levelo://app?vid=9c37a5af-6b01-4e75-9657-7ef6bddc1bc6"},"vehicle_type_id":"4","last_reported":1732223295,"current_range_meters":26000,"station_id":"ce4bhr92rcd13ifvqhrg","pricing_plan_id":"cebpf4jnsgd1na2vs0mg"},{"bike_id":"d6d41b2e-30ea-4987-8625-f242318469f8","system_id":"levelo_inurba_marseille","lat":43.28847,"lon":5.35856,"is_reserved":false,"is_disabled":false,"rental_uris":{"android":"levelo://app?vid=d6d41b2e-30ea-4987-8625-f242318469f8","ios":"levelo://app?vid=d6d41b2e-30ea-4987-8625-f242318469f8"},"vehicle_type_id":"4","last_reported":1732223295,"current_range_meters":38800,"station_id":"ce4bhb12rcd13ifvqem0","pricing_plan_id":"cebpf4jnsgd1na2vs0mg"},{"bike_id":"9f934346-12ba-4a28-9c95-5f1cd22e3880","system_id":"levelo_inurba_marseille","lat":43.3032,"lon":5.40431,"is_reserved":false,"is_disabled":false,"rental_uris":{"android":"levelo://app?vid=9f934346-12ba-4a28-9c95-5f1cd22e3880","ios":"levelo://app?vid=9f934346-12ba-4a28-9c95-5f1cd22e3880"},"vehicle_type_id":"4","last_reported":1732223295,"current_range_meters":10000,"station_id":"ce4bh012rcd13ifvqd10","pricing_plan_id":"cebpf4jnsgd1na2vs0mg"},{"bike_id":"3585d018-4b66-4cf5-bca5-17fcec2fef21","system_id":"levelo_inurba_marseille","lat":43.23191,"lon":5.35563,"is_reserved":false,"is_disabled":false,"rental_uris":{"android":"levelo://app?vid=3585d018-4b66-4cf5-bca5-17fcec2fef21","ios":"levelo://app?vid=3585d018-4b66-4cf5-bca5-17fcec2fef21"},"vehicle_type_id":"4","last_reported":1732223295,"current_range_meters":30800,"station_id":"ce4bhu92rcd13ifvqi70","pricing_plan_id":"cebpf4jnsgd1na2vs0mg"},{"bike_id":"a3938afa-a654-428c-a5fd-d0947961cd45","system_id":"levelo_inurba_marseille","lat":43.27813,"lon":5.40708,"is_reserved":false,"is_disabled":false,"rental_uris":{"android":"levelo://app?vid=a3938afa-a654-428c-a5fd-d0947961cd45","ios":"levelo://app?vid=a3938afa-a654-428c-a5fd-d0947961cd45"},"vehicle_type_id":"4","last_reported":1732223295,"current_range_meters":24000,"station_id":"ce4bhnh2rcd13ifvqgtg","pricing_plan_id":"cebpf4jnsgd1na2vs0mg"},{"bike_id":"823803fc-2257-422c-9ff7-21a7e108f1ae","system_id":"levelo_inurba_marseille","lat":43.31757,"lon":5.39015,"is_reserved":false,"is_disabled":false,"rental_uris":{"android":"levelo://app?vid=823803fc-2257-422c-9ff7-21a7e108f1ae","ios":"levelo://app?vid=823803fc-2257-422c-9ff7-21a7e108f1ae"},"vehicle_type_id":"4","last_reported":1732223295,"current_range_meters":35200,"station_id":"ce4bhqp2rcd13ifvqhng","pricing_plan_id":"cebpf4jnsgd1na2vs0mg"},{"bike_id":"7254d504-261a-48ba-a6a7-e761459385cd","system_id":"levelo_inurba_marseille","lat":43.28616,"lon":5.3511,"is_reserved":false,"is_disabled":false,"rental_uris":{"android":"levelo://app?vid=7254d504-261a-48ba-a6a7-e761459385cd","ios":"levelo://app?vid=7254d504-261a-48ba-a6a7-e761459385cd"},"vehicle_type_id":"4","last_reported":1732223295,"current_range_meters":38800,"station_id":"ce4bhch2rcd13ifvqeug","pricing_plan_id":"cebpf4jnsgd1na2vs0mg"},{"bike_id":"e57590cc-a844-462b-b95c-023047b497c3","system_id":"levelo_inurba_marseille","lat":43.26027,"lon":5.3755,"is_reserved":false,"is_disabled":false,"rental_uris":{"android":"levelo://app?vid=e57590cc-a844-462b-b95c-023047b497c3","ios":"levelo://app?vid=e57590cc-a844-462b-b95c-023047b497c3"},"vehicle_type_id":"4","last_reported":1732223295,"current_range_meters":36800,"station_id":"ce4bhgh2rcd13ifvqfa0","pricing_plan_id":"cebpf4jnsgd1na2vs0mg"},{"bike_id":"d979d12e-0952-4b0d-a112-f005022fbbe4","system_id":"levelo_inurba_marseille","lat":43.26197,"lon":5.37926,"is_reserved":false,"is_disabled":false,"rental_uris":{"android":"levelo://app?vid=d979d12e-0952-4b0d-a112-f005022fbbe4","ios":"levelo://app?vid=d979d12e-0952-4b0d-a112-f005022fbbe4"},"vehicle_type_id":"4","last_reported":1732223295,"current_range_meters":27600,"station_id":"ce4bhjp2rcd13ifvqg90","pricing_plan_id":"cebpf4jnsgd1na2vs0mg"},{"bike_id":"46474b26-4a68-4e5d-9e97-c5c9729111a1","system_id":"levelo_inurba_marseille","lat":43.27944,"lon":5.42363,"is_reserved":false,"is_disabled":true,"rental_uris":{"android":"levelo://app?vid=46474b26-4a68-4e5d-9e97-c5c9729111a1","ios":"levelo://app?vid=46474b26-4a68-4e5d-9e97-c5c9729111a1"},"vehicle_type_id":"4","last_reported":1732223295,"current_range_meters":0,"station_id":"","pricing_plan_id":"cebpf4jnsgd1na2vs0mg"},{"bike_id":"01fade1f-4c0e-41f5-a847-3ee1ed0ae04c","system_id":"levelo_inurba_marseille","lat":43.31325,"lon":5.39693,"is_reserved":false,"is_disabled":false,"rental_uris":{"android":"levelo://app?vid=01fade1f-4c0e-41f5-a847-3ee1ed0ae04c","ios":"levelo://app?vid=01fade1f-4c0e-41f5-a847-3ee1ed0ae04c"},"vehicle_type_id":"4","last_reported":1732223295,"current_range_meters":38800,"station_id":"ce4bgvp2rcd13ifvqcu0","pricing_plan_id":"cebpf4jnsgd1na2vs0mg"},{"bike_id":"7ef9a5ef-b3b2-4ff2-82cc-f161ced30464","system_id":"levelo_inurba_marseille","lat":43.29415,"lon":5.38614,"is_reserved":false,"is_disabled":true,"rental_uris":{"android":"levelo://app?vid=7ef9a5ef-b3b2-4ff2-82cc-f161ced30464","ios":"levelo://app?vid=7ef9a5ef-b3b2-4ff2-82cc-f161ced30464"},"vehicle_type_id":"4","last_reported":1732223295,"current_range_meters":32400,"station_id":"ce4bh2h2rcd13ifvqdh0","pricing_plan_id":"cebpf4jnsgd1na2vs0mg"},{"bike_id":"2ae74145-02d7-4416-8abc-01f8337bbc09","system_id":"levelo_inurba_marseille","lat":43.30612,"lon":5.37222,"is_reserved":false,"is_disabled":false,"rental_uris":{"android":"levelo://app?vid=2ae74145-02d7-4416-8abc-01f8337bbc09","ios":"levelo://app?vid=2ae74145-02d7-4416-8abc-01f8337bbc09"},"vehicle_type_id":"4","last_reported":1732223295,"current_range_meters":36400,"station_id":"ce4bgqh2rcd13ifvqc4g","pricing_plan_id":"cebpf4jnsgd1na2vs0mg"},{"bike_id":"ca830116-b4f0-46a6-89c4-00566a1ee122","system_id":"levelo_inurba_marseille","lat":43.30349,"lon":5.41879,"is_reserved":false,"is_disabled":false,"rental_uris":{"android":"levelo://app?vid=ca830116-b4f0-46a6-89c4-00566a1ee122","ios":"levelo://app?vid=ca830116-b4f0-46a6-89c4-00566a1ee122"},"vehicle_type_id":"4","last_reported":1732223295,"current_range_meters":21600,"station_id":"ce4bhop2rcd13ifvqh7g","pricing_plan_id":"cebpf4jnsgd1na2vs0mg"},{"bike_id":"3a0abff8-e4e5-422e-b944-1e043dd140db","system_id":"levelo_inurba_marseille","lat":43.31326,"lon":5.39692,"is_reserved":false,"is_disabled":false,"rental_uris":{"android":"levelo://app?vid=3a0abff8-e4e5-422e-b944-1e043dd140db","ios":"levelo://app?vid=3a0abff8-e4e5-422e-b944-1e043dd140db"},"vehicle_type_id":"4","last_reported":1732223295,"current_range_meters":25200,"station_id":"ce4bgvp2rcd13ifvqcu0","pricing_plan_id":"cebpf4jnsgd1na2vs0mg"},{"bike_id":"a30f0ff5-ec5b-4999-a895-256801a96742","system_id":"levelo_inurba_marseille","lat":43.26954,"lon":5.38638,"is_reserved":false,"is_disabled":false,"rental_uris":{"android":"levelo://app?vid=a30f0ff5-ec5b-4999-a895-256801a96742","ios":"levelo://app?vid=a30f0ff5-ec5b-4999-a895-256801a96742"},"vehicle_type_id":"4","last_reported":1732223295,"current_range_meters":17600,"station_id":"ce4bhh92rcd13ifvqfh0","pricing_plan_id":"cebpf4jnsgd1na2vs0mg"},{"bike_id":"844cb461-f780-45f5-88b2-3951b51e6462","system_id":"levelo_inurba_marseille","lat":43.30119,"lon":5.37823,"is_reserved":false,"is_disabled":true,"rental_uris":{"android":"levelo://app?vid=844cb461-f780-45f5-88b2-3951b51e6462","ios":"levelo://app?vid=844cb461-f780-45f5-88b2-3951b51e6462"},"vehicle_type_id":"4","last_reported":1732223295,"current_range_meters":0,"station_id":"","pricing_plan_id":"cebpf4jnsgd1na2vs0mg"},{"bike_id":"d4efb85e-c230-4eed-b6e2-3485fcccf8fe","system_id":"levelo_inurba_marseille","lat":43.2397,"lon":5.36624,"is_reserved":false,"is_disabled":false,"rental_uris":{"android":"levelo://app?vid=d4efb85e-c230-4eed-b6e2-3485fcccf8fe","ios":"levelo://app?vid=d4efb85e-c230-4eed-b6e2-3485fcccf8fe"},"vehicle_type_id":"4","last_reported":1732223295,"current_range_meters":9600,"station_id":"ce4bhi12rcd13ifvqfp0","pricing_plan_id":"cebpf4jnsgd1na2vs0mg"},{"bike_id":"b3ff0223-9f3b-40c9-ba64-b1074cf27420","system_id":"levelo_inurba_marseille","lat":43.28039,"lon":5.36948,"is_reserved":false,"is_disabled":false,"rental_uris":{"android":"levelo://app?vid=b3ff0223-9f3b-40c9-ba64-b1074cf27420","ios":"levelo://app?vid=b3ff0223-9f3b-40c9-ba64-b1074cf27420"},"vehicle_type_id":"4","last_reported":1732223295,"current_range_meters":38800,"station_id":"ce4bha12rcd13ifvqef0","pricing_plan_id":"cebpf4jnsgd1na2vs0mg"},{"bike_id":"8f7f94ba-f2e9-4b09-b796-810787973207","system_id":"levelo_inurba_marseille","lat":43.24073,"lon":5.3776,"is_reserved":false,"is_disabled":false,"rental_uris":{"android":"levelo://app?vid=8f7f94ba-f2e9-4b09-b796-810787973207","ios":"levelo://app?vid=8f7f94ba-f2e9-4b09-b796-810787973207"},"vehicle_type_id":"4","last_reported":1732223295,"current_range_meters":37600,"station_id":"ce4bhnp2rcd13ifvqgvg","pricing_plan_id":"cebpf4jnsgd1na2vs0mg"},{"bike_id":"786329d4-a364-4aee-bb86-124298f7a780","system_id":"levelo_inurba_marseille","lat":43.25823,"lon":5.39423,"is_reserved":false,"is_disabled":false,"rental_uris":{"android":"levelo://app?vid=786329d4-a364-4aee-bb86-124298f7a780","ios":"levelo://app?vid=786329d4-a364-4aee-bb86-124298f7a780"},"vehicle_type_id":"4","last_reported":1732223295,"current_range_meters":20000,"station_id":"ce4bhip2rcd13ifvqft0","pricing_plan_id":"cebpf4jnsgd1na2vs0mg"},{"bike_id":"72998ba3-d1e0-40d5-bf1d-4005fb8033c8","system_id":"levelo_inurba_marseille","lat":43.29139,"lon":5.40003,"is_reserved":false,"is_disabled":false,"rental_uris":{"android":"levelo://app?vid=72998ba3-d1e0-40d5-bf1d-4005fb8033c8","ios":"levelo://app?vid=72998ba3-d1e0-40d5-bf1d-4005fb8033c8"},"vehicle_type_id":"4","last_reported":1732223295,"current_range_meters":9600,"station_id":"","pricing_plan_id":"cebpf4jnsgd1na2vs0mg"},{"bike_id":"41dbd5f3-8a01-4852-94e9-96d27b88c515","system_id":"levelo_inurba_marseille","lat":43.29264,"lon":5.38439,"is_reserved":false,"is_disabled":false,"rental_uris":{"android":"levelo://app?vid=41dbd5f3-8a01-4852-94e9-96d27b88c515","ios":"levelo://app?vid=41dbd5f3-8a01-4852-94e9-96d27b88c515"},"vehicle_type_id":"4","last_reported":1732223295,"current_range_meters":33200,"station_id":"ce4bh692rcd13ifvqea0","pricing_plan_id":"cebpf4jnsgd1na2vs0mg"},{"bike_id":"cdaafd2d-0da1-4fac-9881-15c66a7cd7c0","system_id":"levelo_inurba_marseille","lat":43.23154,"lon":5.4371,"is_reserved":false,"is_disabled":false,"rental_uris":{"android":"levelo://app?vid=cdaafd2d-0da1-4fac-9881-15c66a7cd7c0","ios":"levelo://app?vid=cdaafd2d-0da1-4fac-9881-15c66a7cd7c0"},"vehicle_type_id":"4","last_reported":1732223295,"current_range_meters":38800,"station_id":"ce4bhmp2rcd13ifvqgog","pricing_plan_id":"cebpf4jnsgd1na2vs0mg"},{"bike_id":"c1024338-3a35-4c5d-8621-6f53a0a7a406","system_id":"levelo_inurba_marseille","lat":43.336669,"lon":5.39812,"is_reserved":false,"is_disabled":false,"rental_uris":{"android":"levelo://app?vid=c1024338-3a35-4c5d-8621-6f53a0a7a406","ios":"levelo://app?vid=c1024338-3a35-4c5d-8621-6f53a0a7a406"},"vehicle_type_id":"4","last_reported":1732223295,"current_range_meters":36400,"station_id":"","pricing_plan_id":"cebpf4jnsgd1na2vs0mg"},{"bike_id":"b03f69f7-b71a-4f20-b004-cac08d3d55e5","system_id":"levelo_inurba_marseille","lat":43.32363,"lon":5.38884,"is_reserved":false,"is_disabled":false,"rental_uris":{"android":"levelo://app?vid=b03f69f7-b71a-4f20-b004-cac08d3d55e5","ios":"levelo://app?vid=b03f69f7-b71a-4f20-b004-cac08d3d55e5"},"vehicle_type_id":"4","last_reported":1732223295,"current_range_meters":33600,"station_id":"ce4bhqp2rcd13ifvqhog","pricing_plan_id":"cebpf4jnsgd1na2vs0mg"},{"bike_id":"8d5ad0a8-268e-4afd-be61-7919f93826c7","system_id":"levelo_inurba_marseille","lat":43.29926,"lon":5.37468,"is_reserved":false,"is_disabled":true,"rental_uris":{"android":"levelo://app?vid=8d5ad0a8-268e-4afd-be61-7919f93826c7","ios":"levelo://app?vid=8d5ad0a8-268e-4afd-be61-7919f93826c7"},"vehicle_type_id":"4","last_reported":1732223295,"current_range_meters":31200,"station_id":"ce4bgjh2rcd13ifvqbg0","pricing_plan_id":"cebpf4jnsgd1na2vs0mg"},{"bike_id":"87363c45-56a9-4339-998d-46c1938a7631","system_id":"levelo_inurba_marseille","lat":43.29825,"lon":5.36241,"is_reserved":false,"is_disabled":false,"rental_uris":{"android":"levelo://app?vid=87363c45-56a9-4339-998d-46c1938a7631","ios":"levelo://app?vid=87363c45-56a9-4339-998d-46c1938a7631"},"vehicle_type_id":"4","last_reported":1732223295,"current_range_meters":25600,"station_id":"ce4bgpp2rcd13ifvqc3g","pricing_plan_id":"cebpf4jnsgd1na2vs0mg"},{"bike_id":"4e4ec322-b955-43e8-a380-810b55932567","system_id":"levelo_inurba_marseille","lat":43.31113,"lon":5.37771,"is_reserved":false,"is_disabled":false,"rental_uris":{"android":"levelo://app?vid=4e4ec322-b955-43e8-a380-810b55932567","ios":"levelo://app?vid=4e4ec322-b955-43e8-a380-810b55932567"},"vehicle_type_id":"4","last_reported":1732223295,"current_range_meters":38000,"station_id":"ce4bgt92rcd13ifvqcg0","pricing_plan_id":"cebpf4jnsgd1na2vs0mg"},{"bike_id":"4abceb4b-50dd-4447-bbda-92fdabe65b5f","system_id":"levelo_inurba_marseille","lat":43.29416,"lon":5.38622,"is_reserved":false,"is_disabled":false,"rental_uris":{"android":"levelo://app?vid=4abceb4b-50dd-4447-bbda-92fdabe65b5f","ios":"levelo://app?vid=4abceb4b-50dd-4447-bbda-92fdabe65b5f"},"vehicle_type_id":"4","last_reported":1732223295,"current_range_meters":37600,"station_id":"ce4bh2h2rcd13ifvqdh0","pricing_plan_id":"cebpf4jnsgd1na2vs0mg"},{"bike_id":"a08b9ee5-a034-42cb-8f16-d2d4243992ea","system_id":"levelo_inurba_marseille","lat":43.33726,"lon":5.39189,"is_reserved":false,"is_disabled":false,"rental_uris":{"android":"levelo://app?vid=a08b9ee5-a034-42cb-8f16-d2d4243992ea","ios":"levelo://app?vid=a08b9ee5-a034-42cb-8f16-d2d4243992ea"},"vehicle_type_id":"4","last_reported":1732223295,"current_range_meters":26000,"station_id":"ce4bhr92rcd13ifvqhsg","pricing_plan_id":"cebpf4jnsgd1na2vs0mg"},{"bike_id":"30402539-de08-49ae-9afb-c71a1a7abe65","system_id":"levelo_inurba_marseille","lat":43.28716,"lon":5.37934,"is_reserved":false,"is_disabled":false,"rental_uris":{"android":"levelo://app?vid=30402539-de08-49ae-9afb-c71a1a7abe65","ios":"levelo://app?vid=30402539-de08-49ae-9afb-c71a1a7abe65"},"vehicle_type_id":"4","last_reported":1732223295,"current_range_meters":31200,"station_id":"ce4bh9p2rcd13ifvqec0","pricing_plan_id":"cebpf4jnsgd1na2vs0mg"},{"bike_id":"b6265fe2-d010-46a6-8660-f7b7f1c807be","system_id":"levelo_inurba_marseille","lat":43.2619,"lon":5.3745,"is_reserved":false,"is_disabled":true,"rental_uris":{"android":"levelo://app?vid=b6265fe2-d010-46a6-8660-f7b7f1c807be","ios":"levelo://app?vid=b6265fe2-d010-46a6-8660-f7b7f1c807be"},"vehicle_type_id":"4","last_reported":1732223295,"current_range_meters":36400,"station_id":"ce4bhgp2rcd13ifvqfc0","pricing_plan_id":"cebpf4jnsgd1na2vs0mg"},{"bike_id":"319639f6-c364-407e-9612-56f449d4d076","system_id":"levelo_inurba_marseille","lat":43.28075,"lon":5.39657,"is_reserved":false,"is_disabled":true,"rental_uris":{"android":"levelo://app?vid=319639f6-c364-407e-9612-56f449d4d076","ios":"levelo://app?vid=319639f6-c364-407e-9612-56f449d4d076"},"vehicle_type_id":"4","last_reported":1732223295,"current_range_meters":0,"station_id":"ce4bho12rcd13ifvqh2g","pricing_plan_id":"cebpf4jnsgd1na2vs0mg"},{"bike_id":"23e1e7fb-447a-4af5-9504-fd7579cff1bf","system_id":"levelo_inurba_marseille","lat":43.29532,"lon":5.38537,"is_reserved":false,"is_disabled":false,"rental_uris":{"android":"levelo://app?vid=23e1e7fb-447a-4af5-9504-fd7579cff1bf","ios":"levelo://app?vid=23e1e7fb-447a-4af5-9504-fd7579cff1bf"},"vehicle_type_id":"4","last_reported":1732223295,"current_range_meters":38400,"station_id":"ce4bgih2rcd13ifvqba0","pricing_plan_id":"cebpf4jnsgd1na2vs0mg"},{"bike_id":"2a7a0b28-3cc2-4755-a0ae-9658cfa55e32","system_id":"levelo_inurba_marseille","lat":43.28929,"lon":5.36402,"is_reserved":false,"is_disabled":false,"rental_uris":{"android":"levelo://app?vid=2a7a0b28-3cc2-4755-a0ae-9658cfa55e32","ios":"levelo://app?vid=2a7a0b28-3cc2-4755-a0ae-9658cfa55e32"},"vehicle_type_id":"4","last_reported":1732223295,"current_range_meters":36800,"station_id":"ce4bhc92rcd13ifvqetg","pricing_plan_id":"cebpf4jnsgd1na2vs0mg"},{"bike_id":"fe794dd6-f756-4811-aa11-559ab05f9a29","system_id":"levelo_inurba_marseille","lat":43.288495,"lon":5.393225,"is_reserved":false,"is_disabled":false,"rental_uris":{"android":"levelo://app?vid=fe794dd6-f756-4811-aa11-559ab05f9a29","ios":"levelo://app?vid=fe794dd6-f756-4811-aa11-559ab05f9a29"},"vehicle_type_id":"4","last_reported":1732223295,"current_range_meters":8800,"station_id":"ce4bh2p2rcd13ifvqdi0","pricing_plan_id":"cebpf4jnsgd1na2vs0mg"},{"bike_id":"45dec922-f467-4f7c-b62a-bccf4896d5f9","system_id":"levelo_inurba_marseille","lat":43.27068,"lon":5.42278,"is_reserved":false,"is_disabled":false,"rental_uris":{"android":"levelo://app?vid=45dec922-f467-4f7c-b62a-bccf4896d5f9","ios":"levelo://app?vid=45dec922-f467-4f7c-b62a-bccf4896d5f9"},"vehicle_type_id":"4","last_reported":1732223295,"current_range_meters":38800,"station_id":"ce4bhk92rcd13ifvqgb0","pricing_plan_id":"cebpf4jnsgd1na2vs0mg"},{"bike_id":"11c5ed7c-dad2-4605-8db8-4918d0818190","system_id":"levelo_inurba_marseille","lat":43.31722,"lon":5.42402,"is_reserved":false,"is_disabled":false,"rental_uris":{"android":"levelo://app?vid=11c5ed7c-dad2-4605-8db8-4918d0818190","ios":"levelo://app?vid=11c5ed7c-dad2-4605-8db8-4918d0818190"},"vehicle_type_id":"4","last_reported":1732223295,"current_range_meters":38000,"station_id":"ce4bhp92rcd13ifvqhbg","pricing_plan_id":"cebpf4jnsgd1na2vs0mg"},{"bike_id":"53bbdfc0-4d63-4cc4-86e6-4ec910061123","system_id":"levelo_inurba_marseille","lat":43.30915,"lon":5.36704,"is_reserved":false,"is_disabled":true,"rental_uris":{"android":"levelo://app?vid=53bbdfc0-4d63-4cc4-86e6-4ec910061123","ios":"levelo://app?vid=53bbdfc0-4d63-4cc4-86e6-4ec910061123"},"vehicle_type_id":"4","last_reported":1732223295,"current_range_meters":0,"station_id":"","pricing_plan_id":"cebpf4jnsgd1na2vs0mg"},{"bike_id":"9f45cfa7-be04-48c8-90f0-8104aae5328f","system_id":"levelo_inurba_marseille","lat":43.25719,"lon":5.41112,"is_reserved":false,"is_disabled":false,"rental_uris":{"android":"levelo://app?vid=9f45cfa7-be04-48c8-90f0-8104aae5328f","ios":"levelo://app?vid=9f45cfa7-be04-48c8-90f0-8104aae5328f"},"vehicle_type_id":"4","last_reported":1732223295,"current_range_meters":28800,"station_id":"ce4bhkp2rcd13ifvqgd0","pricing_plan_id":"cebpf4jnsgd1na2vs0mg"},{"bike_id":"29ebef88-6687-4f8d-8962-17568fa53980","system_id":"levelo_inurba_marseille","lat":43.28268,"lon":5.35064,"is_reserved":false,"is_disabled":true,"rental_uris":{"android":"levelo://app?vid=29ebef88-6687-4f8d-8962-17568fa53980","ios":"levelo://app?vid=29ebef88-6687-4f8d-8962-17568fa53980"},"vehicle_type_id":"4","last_reported":1732223295,"current_range_meters":0,"station_id":"ce4bhbp2rcd13ifvqerg","pricing_plan_id":"cebpf4jnsgd1na2vs0mg"},{"bike_id":"dfca3e23-b1dd-40cd-81b2-441e5e82c803","system_id":"levelo_inurba_marseille","lat":43.24164,"lon":5.36395,"is_reserved":false,"is_disabled":false,"rental_uris":{"android":"levelo://app?vid=dfca3e23-b1dd-40cd-81b2-441e5e82c803","ios":"levelo://app?vid=dfca3e23-b1dd-40cd-81b2-441e5e82c803"},"vehicle_type_id":"4","last_reported":1732223295,"current_range_meters":38800,"station_id":"cpo36qri1sfpv3e86is0","pricing_plan_id":"cebpf4jnsgd1na2vs0mg"},{"bike_id":"ebdc19b1-e245-45d0-8760-0022425191cf","system_id":"levelo_inurba_marseille","lat":43.29304,"lon":5.37177,"is_reserved":false,"is_disabled":false,"rental_uris":{"android":"levelo://app?vid=ebdc19b1-e245-45d0-8760-0022425191cf","ios":"levelo://app?vid=ebdc19b1-e245-45d0-8760-0022425191cf"},"vehicle_type_id":"4","last_reported":1732223295,"current_range_meters":25200,"station_id":"ce4bgh92rcd13ifvqb40","pricing_plan_id":"cebpf4jnsgd1na2vs0mg"},{"bike_id":"3193222d-584b-4642-a1d8-0c04b2309736","system_id":"levelo_inurba_marseille","lat":43.33729,"lon":5.39187,"is_reserved":false,"is_disabled":false,"rental_uris":{"android":"levelo://app?vid=3193222d-584b-4642-a1d8-0c04b2309736","ios":"levelo://app?vid=3193222d-584b-4642-a1d8-0c04b2309736"},"vehicle_type_id":"4","last_reported":1732223295,"current_range_meters":38800,"station_id":"ce4bhr92rcd13ifvqhsg","pricing_plan_id":"cebpf4jnsgd1na2vs0mg"},{"bike_id":"658c3854-26a4-41ff-9653-548532b80604","system_id":"levelo_inurba_marseille","lat":43.29198,"lon":5.39324,"is_reserved":false,"is_disabled":false,"rental_uris":{"android":"levelo://app?vid=658c3854-26a4-41ff-9653-548532b80604","ios":"levelo://app?vid=658c3854-26a4-41ff-9653-548532b80604"},"vehicle_type_id":"4","last_reported":1732223295,"current_range_meters":25200,"station_id":"ce4bh192rcd13ifvqdd0","pricing_plan_id":"cebpf4jnsgd1na2vs0mg"},{"bike_id":"09fd5406-a3f4-429c-ba24-3bf1a01994b6","system_id":"levelo_inurba_marseille","lat":43.30882,"lon":5.39633,"is_reserved":false,"is_disabled":false,"rental_uris":{"android":"levelo://app?vid=09fd5406-a3f4-429c-ba24-3bf1a01994b6","ios":"levelo://app?vid=09fd5406-a3f4-429c-ba24-3bf1a01994b6"},"vehicle_type_id":"4","last_reported":1732223295,"current_range_meters":39200,"station_id":"ce4bh012rcd13ifvqcv0","pricing_plan_id":"cebpf4jnsgd1na2vs0mg"},{"bike_id":"c77ae0d8-60c9-4550-9e96-9edda77212c2","system_id":"levelo_inurba_marseille","lat":43.2957,"lon":5.39976,"is_reserved":false,"is_disabled":false,"rental_uris":{"android":"levelo://app?vid=c77ae0d8-60c9-4550-9e96-9edda77212c2","ios":"levelo://app?vid=c77ae0d8-60c9-4550-9e96-9edda77212c2"},"vehicle_type_id":"4","last_reported":1732223295,"current_range_meters":32400,"station_id":"ce4bh312rcd13ifvqdj0","pricing_plan_id":"cebpf4jnsgd1na2vs0mg"},{"bike_id":"9a092c72-3381-4a02-b1c9-6e779405e1af","system_id":"levelo_inurba_marseille","lat":43.30775,"lon":5.37654,"is_reserved":false,"is_disabled":false,"rental_uris":{"android":"levelo://app?vid=9a092c72-3381-4a02-b1c9-6e779405e1af","ios":"levelo://app?vid=9a092c72-3381-4a02-b1c9-6e779405e1af"},"vehicle_type_id":"4","last_reported":1732223295,"current_range_meters":31200,"station_id":"ce4bgv92rcd13ifvqcq0","pricing_plan_id":"cebpf4jnsgd1na2vs0mg"},{"bike_id":"36b670a5-88a4-4791-8e46-829fcedcb23e","system_id":"levelo_inurba_marseille","lat":43.24998,"lon":5.38935,"is_reserved":false,"is_disabled":false,"rental_uris":{"android":"levelo://app?vid=36b670a5-88a4-4791-8e46-829fcedcb23e","ios":"levelo://app?vid=36b670a5-88a4-4791-8e46-829fcedcb23e"},"vehicle_type_id":"4","last_reported":1732223295,"current_range_meters":38800,"station_id":"ce4bhgp2rcd13ifvqfd0","pricing_plan_id":"cebpf4jnsgd1na2vs0mg"},{"bike_id":"86e1e6d1-3dc3-41a8-9a0b-a1b98636a4af","system_id":"levelo_inurba_marseille","lat":43.29304,"lon":5.37165,"is_reserved":false,"is_disabled":false,"rental_uris":{"android":"levelo://app?vid=86e1e6d1-3dc3-41a8-9a0b-a1b98636a4af","ios":"levelo://app?vid=86e1e6d1-3dc3-41a8-9a0b-a1b98636a4af"},"vehicle_type_id":"4","last_reported":1732223295,"current_range_meters":24800,"station_id":"ce4bgh92rcd13ifvqb40","pricing_plan_id":"cebpf4jnsgd1na2vs0mg"},{"bike_id":"fe800231-f754-4357-b0e8-21adda987125","system_id":"levelo_inurba_marseille","lat":43.29361,"lon":5.37851,"is_reserved":false,"is_disabled":false,"rental_uris":{"android":"levelo://app?vid=fe800231-f754-4357-b0e8-21adda987125","ios":"levelo://app?vid=fe800231-f754-4357-b0e8-21adda987125"},"vehicle_type_id":"4","last_reported":1732223295,"current_range_meters":20800,"station_id":"ce4bgjh2rcd13ifvqbf0","pricing_plan_id":"cebpf4jnsgd1na2vs0mg"},{"bike_id":"0cf6324e-3dc1-42b4-a88e-ea6f78bbab63","system_id":"levelo_inurba_marseille","lat":43.24072,"lon":5.37759,"is_reserved":false,"is_disabled":false,"rental_uris":{"android":"levelo://app?vid=0cf6324e-3dc1-42b4-a88e-ea6f78bbab63","ios":"levelo://app?vid=0cf6324e-3dc1-42b4-a88e-ea6f78bbab63"},"vehicle_type_id":"4","last_reported":1732223295,"current_range_meters":38800,"station_id":"ce4bhnp2rcd13ifvqgvg","pricing_plan_id":"cebpf4jnsgd1na2vs0mg"},{"bike_id":"9e5c3fb9-610f-4d6b-bd84-3d569f02c245","system_id":"levelo_inurba_marseille","lat":43.30137,"lon":5.38781,"is_reserved":false,"is_disabled":false,"rental_uris":{"android":"levelo://app?vid=9e5c3fb9-610f-4d6b-bd84-3d569f02c245","ios":"levelo://app?vid=9e5c3fb9-610f-4d6b-bd84-3d569f02c245"},"vehicle_type_id":"4","last_reported":1732223295,"current_range_meters":37600,"station_id":"ce4bghh2rcd13ifvqb60","pricing_plan_id":"cebpf4jnsgd1na2vs0mg"},{"bike_id":"fa3219f5-4dff-4643-87f9-3461cb850ce0","system_id":"levelo_inurba_marseille","lat":43.28694,"lon":5.37413,"is_reserved":false,"is_disabled":false,"rental_uris":{"android":"levelo://app?vid=fa3219f5-4dff-4643-87f9-3461cb850ce0","ios":"levelo://app?vid=fa3219f5-4dff-4643-87f9-3461cb850ce0"},"vehicle_type_id":"4","last_reported":1732223295,"current_range_meters":30400,"station_id":"ce4bh3p2rcd13ifvqdq0","pricing_plan_id":"cebpf4jnsgd1na2vs0mg"},{"bike_id":"50aec0e1-686a-4d53-8dfa-1370658fcf6a","system_id":"levelo_inurba_marseille","lat":43.29276,"lon":5.38429,"is_reserved":false,"is_disabled":false,"rental_uris":{"android":"levelo://app?vid=50aec0e1-686a-4d53-8dfa-1370658fcf6a","ios":"levelo://app?vid=50aec0e1-686a-4d53-8dfa-1370658fcf6a"},"vehicle_type_id":"4","last_reported":1732223295,"current_range_meters":23200,"station_id":"ce4bh692rcd13ifvqea0","pricing_plan_id":"cebpf4jnsgd1na2vs0mg"},{"bike_id":"24618c6c-9f3e-4480-ac3f-3dfa9b93dc99","system_id":"levelo_inurba_marseille","lat":43.27956,"lon":5.41041,"is_reserved":false,"is_disabled":false,"rental_uris":{"android":"levelo://app?vid=24618c6c-9f3e-4480-ac3f-3dfa9b93dc99","ios":"levelo://app?vid=24618c6c-9f3e-4480-ac3f-3dfa9b93dc99"},"vehicle_type_id":"4","last_reported":1732223295,"current_range_meters":38800,"station_id":"ce4bhnp2rcd13ifvqh0g","pricing_plan_id":"cebpf4jnsgd1na2vs0mg"},{"bike_id":"1310d138-ddbc-4d0f-88d2-3c1b1270ab56","system_id":"levelo_inurba_marseille","lat":43.29909,"lon":5.37477,"is_reserved":false,"is_disabled":false,"rental_uris":{"android":"levelo://app?vid=1310d138-ddbc-4d0f-88d2-3c1b1270ab56","ios":"levelo://app?vid=1310d138-ddbc-4d0f-88d2-3c1b1270ab56"},"vehicle_type_id":"4","last_reported":1732223295,"current_range_meters":33600,"station_id":"ce4bgjh2rcd13ifvqbg0","pricing_plan_id":"cebpf4jnsgd1na2vs0mg"},{"bike_id":"fdb7a3bc-5896-43f3-98aa-938faed825b8","system_id":"levelo_inurba_marseille","lat":43.29417,"lon":5.38621,"is_reserved":false,"is_disabled":false,"rental_uris":{"android":"levelo://app?vid=fdb7a3bc-5896-43f3-98aa-938faed825b8","ios":"levelo://app?vid=fdb7a3bc-5896-43f3-98aa-938faed825b8"},"vehicle_type_id":"4","last_reported":1732223295,"current_range_meters":38400,"station_id":"ce4bh2h2rcd13ifvqdh0","pricing_plan_id":"cebpf4jnsgd1na2vs0mg"},{"bike_id":"beb72136-9e08-4a80-a39b-b95d75825578","system_id":"levelo_inurba_marseille","lat":43.28729,"lon":5.36082,"is_reserved":false,"is_disabled":false,"rental_uris":{"android":"levelo://app?vid=beb72136-9e08-4a80-a39b-b95d75825578","ios":"levelo://app?vid=beb72136-9e08-4a80-a39b-b95d75825578"},"vehicle_type_id":"4","last_reported":1732223295,"current_range_meters":10800,"station_id":"cki0cbj6b192h4jlfktg","pricing_plan_id":"cebpf4jnsgd1na2vs0mg"},{"bike_id":"547f0bff-d26b-4849-b94d-77cf4a5a869f","system_id":"levelo_inurba_marseille","lat":43.23961,"lon":5.36626,"is_reserved":false,"is_disabled":false,"rental_uris":{"android":"levelo://app?vid=547f0bff-d26b-4849-b94d-77cf4a5a869f","ios":"levelo://app?vid=547f0bff-d26b-4849-b94d-77cf4a5a869f"},"vehicle_type_id":"4","last_reported":1732223295,"current_range_meters":37600,"station_id":"ce4bhi12rcd13ifvqfp0","pricing_plan_id":"cebpf4jnsgd1na2vs0mg"},{"bike_id":"c610b329-5202-4d05-a2b3-b243749bba54","system_id":"levelo_inurba_marseille","lat":43.24802,"lon":5.37456,"is_reserved":false,"is_disabled":false,"rental_uris":{"android":"levelo://app?vid=c610b329-5202-4d05-a2b3-b243749bba54","ios":"levelo://app?vid=c610b329-5202-4d05-a2b3-b243749bba54"},"vehicle_type_id":"4","last_reported":1732223295,"current_range_meters":40000,"station_id":"ce4bhgh2rcd13ifvqfb0","pricing_plan_id":"cebpf4jnsgd1na2vs0mg"},{"bike_id":"d05b8e41-dec1-4669-af10-1f34995f6bf4","system_id":"levelo_inurba_marseille","lat":43.29029,"lon":5.37549,"is_reserved":false,"is_disabled":true,"rental_uris":{"android":"levelo://app?vid=d05b8e41-dec1-4669-af10-1f34995f6bf4","ios":"levelo://app?vid=d05b8e41-dec1-4669-af10-1f34995f6bf4"},"vehicle_type_id":"4","last_reported":1732223295,"current_range_meters":30800,"station_id":"ce4bh692rcd13ifvqe90","pricing_plan_id":"cebpf4jnsgd1na2vs0mg"},{"bike_id":"c25e406f-ba46-48ab-8112-28c25f9c53c5","system_id":"levelo_inurba_marseille","lat":43.28162,"lon":5.4265,"is_reserved":false,"is_disabled":false,"rental_uris":{"android":"levelo://app?vid=c25e406f-ba46-48ab-8112-28c25f9c53c5","ios":"levelo://app?vid=c25e406f-ba46-48ab-8112-28c25f9c53c5"},"vehicle_type_id":"4","last_reported":1732223295,"current_range_meters":38400,"station_id":"ce4bhnh2rcd13ifvqgug","pricing_plan_id":"cebpf4jnsgd1na2vs0mg"},{"bike_id":"679d559c-672c-425e-b42c-aed386205b80","system_id":"levelo_inurba_marseille","lat":43.28847,"lon":5.35844,"is_reserved":false,"is_disabled":false,"rental_uris":{"android":"levelo://app?vid=679d559c-672c-425e-b42c-aed386205b80","ios":"levelo://app?vid=679d559c-672c-425e-b42c-aed386205b80"},"vehicle_type_id":"4","last_reported":1732223295,"current_range_meters":10000,"station_id":"ce4bhb12rcd13ifvqem0","pricing_plan_id":"cebpf4jnsgd1na2vs0mg"},{"bike_id":"db2d8c31-1351-4d05-909b-99793e4c179b","system_id":"levelo_inurba_marseille","lat":43.28705,"lon":5.39992,"is_reserved":false,"is_disabled":false,"rental_uris":{"android":"levelo://app?vid=db2d8c31-1351-4d05-909b-99793e4c179b","ios":"levelo://app?vid=db2d8c31-1351-4d05-909b-99793e4c179b"},"vehicle_type_id":"4","last_reported":1732223295,"current_range_meters":27200,"station_id":"ce4bho92rcd13ifvqh3g","pricing_plan_id":"cebpf4jnsgd1na2vs0mg"},{"bike_id":"2f09e16b-7298-426a-b658-c69e68fd6700","system_id":"levelo_inurba_marseille","lat":43.24074,"lon":5.37761,"is_reserved":false,"is_disabled":false,"rental_uris":{"android":"levelo://app?vid=2f09e16b-7298-426a-b658-c69e68fd6700","ios":"levelo://app?vid=2f09e16b-7298-426a-b658-c69e68fd6700"},"vehicle_type_id":"4","last_reported":1732223295,"current_range_meters":34800,"station_id":"ce4bhnp2rcd13ifvqgvg","pricing_plan_id":"cebpf4jnsgd1na2vs0mg"},{"bike_id":"1904e4d6-e1e0-456f-9800-8b0e0e7107b4","system_id":"levelo_inurba_marseille","lat":43.23151,"lon":5.43707,"is_reserved":false,"is_disabled":false,"rental_uris":{"android":"levelo://app?vid=1904e4d6-e1e0-456f-9800-8b0e0e7107b4","ios":"levelo://app?vid=1904e4d6-e1e0-456f-9800-8b0e0e7107b4"},"vehicle_type_id":"4","last_reported":1732223295,"current_range_meters":38800,"station_id":"ce4bhmp2rcd13ifvqgog","pricing_plan_id":"cebpf4jnsgd1na2vs0mg"},{"bike_id":"51654fed-9c06-4ccc-8baa-01fb71e67e1e","system_id":"levelo_inurba_marseille","lat":43.23182,"lon":5.39989,"is_reserved":false,"is_disabled":false,"rental_uris":{"android":"levelo://app?vid=51654fed-9c06-4ccc-8baa-01fb71e67e1e","ios":"levelo://app?vid=51654fed-9c06-4ccc-8baa-01fb71e67e1e"},"vehicle_type_id":"4","last_reported":1732223295,"current_range_meters":32400,"station_id":"ce4bhn12rcd13ifvqgqg","pricing_plan_id":"cebpf4jnsgd1na2vs0mg"},{"bike_id":"e94847c3-2715-4d68-85bf-7c27c4a0b356","system_id":"levelo_inurba_marseille","lat":43.29934,"lon":5.36537,"is_reserved":false,"is_disabled":false,"rental_uris":{"android":"levelo://app?vid=e94847c3-2715-4d68-85bf-7c27c4a0b356","ios":"levelo://app?vid=e94847c3-2715-4d68-85bf-7c27c4a0b356"},"vehicle_type_id":"4","last_reported":1732223295,"current_range_meters":20800,"station_id":"ce4bgm92rcd13ifvqbr0","pricing_plan_id":"cebpf4jnsgd1na2vs0mg"},{"bike_id":"c3f49b43-97fd-4f8b-98a1-94bd890101a8","system_id":"levelo_inurba_marseille","lat":43.28719,"lon":5.36093,"is_reserved":false,"is_disabled":false,"rental_uris":{"android":"levelo://app?vid=c3f49b43-97fd-4f8b-98a1-94bd890101a8","ios":"levelo://app?vid=c3f49b43-97fd-4f8b-98a1-94bd890101a8"},"vehicle_type_id":"4","last_reported":1732223295,"current_range_meters":32400,"station_id":"cki0cbj6b192h4jlfktg","pricing_plan_id":"cebpf4jnsgd1na2vs0mg"},{"bike_id":"f6d7c493-a0c0-43f8-b476-04a60b09fa64","system_id":"levelo_inurba_marseille","lat":43.29791,"lon":5.37099,"is_reserved":false,"is_disabled":false,"rental_uris":{"android":"levelo://app?vid=f6d7c493-a0c0-43f8-b476-04a60b09fa64","ios":"levelo://app?vid=f6d7c493-a0c0-43f8-b476-04a60b09fa64"},"vehicle_type_id":"4","last_reported":1732223295,"current_range_meters":28800,"station_id":"ce4bgop2rcd13ifvqc1g","pricing_plan_id":"cebpf4jnsgd1na2vs0mg"},{"bike_id":"1eff5ce5-2d56-4465-a12c-60db9ec2175a","system_id":"levelo_inurba_marseille","lat":43.22927,"lon":5.35378,"is_reserved":false,"is_disabled":false,"rental_uris":{"android":"levelo://app?vid=1eff5ce5-2d56-4465-a12c-60db9ec2175a","ios":"levelo://app?vid=1eff5ce5-2d56-4465-a12c-60db9ec2175a"},"vehicle_type_id":"4","last_reported":1732223295,"current_range_meters":8400,"station_id":"cpo3532slgdg3j2ikp40","pricing_plan_id":"cebpf4jnsgd1na2vs0mg"},{"bike_id":"f0b7cdc7-f3ab-4af1-9087-701ebf5745e3","system_id":"levelo_inurba_marseille","lat":43.24081,"lon":5.3775,"is_reserved":false,"is_disabled":true,"rental_uris":{"android":"levelo://app?vid=f0b7cdc7-f3ab-4af1-9087-701ebf5745e3","ios":"levelo://app?vid=f0b7cdc7-f3ab-4af1-9087-701ebf5745e3"},"vehicle_type_id":"4","last_reported":1732223295,"current_range_meters":21600,"station_id":"ce4bhnp2rcd13ifvqgvg","pricing_plan_id":"cebpf4jnsgd1na2vs0mg"},{"bike_id":"ce6d46e5-4223-4bce-a0db-85f63ca84039","system_id":"levelo_inurba_marseille","lat":43.30176,"lon":5.40055,"is_reserved":false,"is_disabled":true,"rental_uris":{"android":"levelo://app?vid=ce6d46e5-4223-4bce-a0db-85f63ca84039","ios":"levelo://app?vid=ce6d46e5-4223-4bce-a0db-85f63ca84039"},"vehicle_type_id":"4","last_reported":1732223295,"current_range_meters":800,"station_id":"","pricing_plan_id":"cebpf4jnsgd1na2vs0mg"},{"bike_id":"dc815649-e3e3-48aa-b0fd-022cdb8ac58a","system_id":"levelo_inurba_marseille","lat":43.32362,"lon":5.38887,"is_reserved":false,"is_disabled":false,"rental_uris":{"android":"levelo://app?vid=dc815649-e3e3-48aa-b0fd-022cdb8ac58a","ios":"levelo://app?vid=dc815649-e3e3-48aa-b0fd-022cdb8ac58a"},"vehicle_type_id":"4","last_reported":1732223295,"current_range_meters":38800,"station_id":"ce4bhqp2rcd13ifvqhog","pricing_plan_id":"cebpf4jnsgd1na2vs0mg"},{"bike_id":"8f941307-282d-45a5-9bc6-11f807f2b2d5","system_id":"levelo_inurba_marseille","lat":43.2903,"lon":5.38638,"is_reserved":false,"is_disabled":false,"rental_uris":{"android":"levelo://app?vid=8f941307-282d-45a5-9bc6-11f807f2b2d5","ios":"levelo://app?vid=8f941307-282d-45a5-9bc6-11f807f2b2d5"},"vehicle_type_id":"4","last_reported":1732223295,"current_range_meters":28000,"station_id":"ce4bh4p2rcd13ifvqe0g","pricing_plan_id":"cebpf4jnsgd1na2vs0mg"},{"bike_id":"9c264191-d8b8-4c46-873c-5cf549aa0cc7","system_id":"levelo_inurba_marseille","lat":43.27376,"lon":5.408,"is_reserved":false,"is_disabled":false,"rental_uris":{"android":"levelo://app?vid=9c264191-d8b8-4c46-873c-5cf549aa0cc7","ios":"levelo://app?vid=9c264191-d8b8-4c46-873c-5cf549aa0cc7"},"vehicle_type_id":"4","last_reported":1732223295,"current_range_meters":9600,"station_id":"ce4bhl12rcd13ifvqgf0","pricing_plan_id":"cebpf4jnsgd1na2vs0mg"},{"bike_id":"623cb655-d37d-4c1c-92a3-1dbd173968d5","system_id":"levelo_inurba_marseille","lat":43.26803,"lon":5.4027,"is_reserved":false,"is_disabled":false,"rental_uris":{"android":"levelo://app?vid=623cb655-d37d-4c1c-92a3-1dbd173968d5","ios":"levelo://app?vid=623cb655-d37d-4c1c-92a3-1dbd173968d5"},"vehicle_type_id":"4","last_reported":1732223295,"current_range_meters":28800,"station_id":"ce501612rcd8frsf0b60","pricing_plan_id":"cebpf4jnsgd1na2vs0mg"},{"bike_id":"070a4e3a-ff3e-4b5d-91f1-497d8af78fbb","system_id":"levelo_inurba_marseille","lat":43.26804,"lon":5.40259,"is_reserved":false,"is_disabled":false,"rental_uris":{"android":"levelo://app?vid=070a4e3a-ff3e-4b5d-91f1-497d8af78fbb","ios":"levelo://app?vid=070a4e3a-ff3e-4b5d-91f1-497d8af78fbb"},"vehicle_type_id":"4","last_reported":1732223295,"current_range_meters":38800,"station_id":"ce501612rcd8frsf0b60","pricing_plan_id":"cebpf4jnsgd1na2vs0mg"},{"bike_id":"7f3bce79-8a74-4a58-8bcc-33b5f95f049b","system_id":"levelo_inurba_marseille","lat":43.27491,"lon":5.42456,"is_reserved":false,"is_disabled":false,"rental_uris":{"android":"levelo://app?vid=7f3bce79-8a74-4a58-8bcc-33b5f95f049b","ios":"levelo://app?vid=7f3bce79-8a74-4a58-8bcc-33b5f95f049b"},"vehicle_type_id":"4","last_reported":1732223295,"current_range_meters":18800,"station_id":"ce4bhn92rcd13ifvqgrg","pricing_plan_id":"cebpf4jnsgd1na2vs0mg"},{"bike_id":"88fb266f-d72a-433a-af30-62485258d74f","system_id":"levelo_inurba_marseille","lat":43.27176,"lon":5.40999,"is_reserved":false,"is_disabled":false,"rental_uris":{"android":"levelo://app?vid=88fb266f-d72a-433a-af30-62485258d74f","ios":"levelo://app?vid=88fb266f-d72a-433a-af30-62485258d74f"},"vehicle_type_id":"4","last_reported":1732223295,"current_range_meters":3600,"station_id":"ce4bhl12rcd13ifvqgf0","pricing_plan_id":"cebpf4jnsgd1na2vs0mg"},{"bike_id":"a35de2ce-28c4-4e9e-95f8-d6073aaf220f","system_id":"levelo_inurba_marseille","lat":43.2781,"lon":5.40715,"is_reserved":false,"is_disabled":false,"rental_uris":{"android":"levelo://app?vid=a35de2ce-28c4-4e9e-95f8-d6073aaf220f","ios":"levelo://app?vid=a35de2ce-28c4-4e9e-95f8-d6073aaf220f"},"vehicle_type_id":"4","last_reported":1732223295,"current_range_meters":39200,"station_id":"ce4bhnh2rcd13ifvqgtg","pricing_plan_id":"cebpf4jnsgd1na2vs0mg"},{"bike_id":"e2d10b90-b316-452c-843f-45e0c49d0ebf","system_id":"levelo_inurba_marseille","lat":43.27981,"lon":5.38741,"is_reserved":false,"is_disabled":false,"rental_uris":{"android":"levelo://app?vid=e2d10b90-b316-452c-843f-45e0c49d0ebf","ios":"levelo://app?vid=e2d10b90-b316-452c-843f-45e0c49d0ebf"},"vehicle_type_id":"4","last_reported":1732223295,"current_range_meters":32000,"station_id":"ce4bhg12rcd13ifvqf80","pricing_plan_id":"cebpf4jnsgd1na2vs0mg"},{"bike_id":"3fbe99a9-12ca-4576-a9f7-40446b8230d0","system_id":"levelo_inurba_marseille","lat":43.23154,"lon":5.43705,"is_reserved":false,"is_disabled":false,"rental_uris":{"android":"levelo://app?vid=3fbe99a9-12ca-4576-a9f7-40446b8230d0","ios":"levelo://app?vid=3fbe99a9-12ca-4576-a9f7-40446b8230d0"},"vehicle_type_id":"4","last_reported":1732223295,"current_range_meters":37600,"station_id":"ce4bhmp2rcd13ifvqgog","pricing_plan_id":"cebpf4jnsgd1na2vs0mg"},{"bike_id":"dadf9fb8-8d4e-41c8-a7da-47f3e81f6099","system_id":"levelo_inurba_marseille","lat":43.29602,"lon":5.38105,"is_reserved":false,"is_disabled":false,"rental_uris":{"android":"levelo://app?vid=dadf9fb8-8d4e-41c8-a7da-47f3e81f6099","ios":"levelo://app?vid=dadf9fb8-8d4e-41c8-a7da-47f3e81f6099"},"vehicle_type_id":"4","last_reported":1732223295,"current_range_meters":34800,"station_id":"ce4bgl12rcd13ifvqbo0","pricing_plan_id":"cebpf4jnsgd1na2vs0mg"},{"bike_id":"8e5f7d32-6613-4d7e-b53d-b5ddff5cb6c6","system_id":"levelo_inurba_marseille","lat":43.23965,"lon":5.36632,"is_reserved":false,"is_disabled":false,"rental_uris":{"android":"levelo://app?vid=8e5f7d32-6613-4d7e-b53d-b5ddff5cb6c6","ios":"levelo://app?vid=8e5f7d32-6613-4d7e-b53d-b5ddff5cb6c6"},"vehicle_type_id":"4","last_reported":1732223295,"current_range_meters":12800,"station_id":"ce4bhi12rcd13ifvqfp0","pricing_plan_id":"cebpf4jnsgd1na2vs0mg"},{"bike_id":"3550ca9f-f9dc-4710-8460-62e8bf214dc4","system_id":"levelo_inurba_marseille","lat":43.28831,"lon":5.39319,"is_reserved":false,"is_disabled":false,"rental_uris":{"android":"levelo://app?vid=3550ca9f-f9dc-4710-8460-62e8bf214dc4","ios":"levelo://app?vid=3550ca9f-f9dc-4710-8460-62e8bf214dc4"},"vehicle_type_id":"4","last_reported":1732223295,"current_range_meters":16400,"station_id":"ce4bh2p2rcd13ifvqdi0","pricing_plan_id":"cebpf4jnsgd1na2vs0mg"},{"bike_id":"350d2c68-8cc3-4c16-b473-096c40f4275a","system_id":"levelo_inurba_marseille","lat":43.31899,"lon":5.37916,"is_reserved":false,"is_disabled":false,"rental_uris":{"android":"levelo://app?vid=350d2c68-8cc3-4c16-b473-096c40f4275a","ios":"levelo://app?vid=350d2c68-8cc3-4c16-b473-096c40f4275a"},"vehicle_type_id":"4","last_reported":1732223295,"current_range_meters":4400,"station_id":"","pricing_plan_id":"cebpf4jnsgd1na2vs0mg"},{"bike_id":"1714412b-7690-49f6-a4c8-27c145c9b61c","system_id":"levelo_inurba_marseille","lat":43.27971,"lon":5.38742,"is_reserved":false,"is_disabled":false,"rental_uris":{"android":"levelo://app?vid=1714412b-7690-49f6-a4c8-27c145c9b61c","ios":"levelo://app?vid=1714412b-7690-49f6-a4c8-27c145c9b61c"},"vehicle_type_id":"4","last_reported":1732223295,"current_range_meters":28400,"station_id":"ce4bhg12rcd13ifvqf80","pricing_plan_id":"cebpf4jnsgd1na2vs0mg"},{"bike_id":"adcbd199-b708-407d-a409-d2dcec00b06e","system_id":"levelo_inurba_marseille","lat":43.30432,"lon":5.38898,"is_reserved":false,"is_disabled":false,"rental_uris":{"android":"levelo://app?vid=adcbd199-b708-407d-a409-d2dcec00b06e","ios":"levelo://app?vid=adcbd199-b708-407d-a409-d2dcec00b06e"},"vehicle_type_id":"4","last_reported":1732223295,"current_range_meters":27200,"station_id":"ce4bgk12rcd13ifvqbi0","pricing_plan_id":"cebpf4jnsgd1na2vs0mg"},{"bike_id":"42d6fa67-3d3d-427c-a63a-15e267a4a6ee","system_id":"levelo_inurba_marseille","lat":43.27946,"lon":5.41054,"is_reserved":false,"is_disabled":true,"rental_uris":{"android":"levelo://app?vid=42d6fa67-3d3d-427c-a63a-15e267a4a6ee","ios":"levelo://app?vid=42d6fa67-3d3d-427c-a63a-15e267a4a6ee"},"vehicle_type_id":"4","last_reported":1732223295,"current_range_meters":21600,"station_id":"ce4bhnp2rcd13ifvqh0g","pricing_plan_id":"cebpf4jnsgd1na2vs0mg"},{"bike_id":"0ba888a0-c52c-4d85-83b4-26e1c455b252","system_id":"levelo_inurba_marseille","lat":43.29525,"lon":5.39039,"is_reserved":false,"is_disabled":false,"rental_uris":{"android":"levelo://app?vid=0ba888a0-c52c-4d85-83b4-26e1c455b252","ios":"levelo://app?vid=0ba888a0-c52c-4d85-83b4-26e1c455b252"},"vehicle_type_id":"4","last_reported":1732223295,"current_range_meters":39200,"station_id":"ce4bh3p2rcd13ifvqdp0","pricing_plan_id":"cebpf4jnsgd1na2vs0mg"},{"bike_id":"5129f989-2d72-493b-a66b-d07c1baf719d","system_id":"levelo_inurba_marseille","lat":43.24804,"lon":5.37451,"is_reserved":false,"is_disabled":false,"rental_uris":{"android":"levelo://app?vid=5129f989-2d72-493b-a66b-d07c1baf719d","ios":"levelo://app?vid=5129f989-2d72-493b-a66b-d07c1baf719d"},"vehicle_type_id":"4","last_reported":1732223295,"current_range_meters":40000,"station_id":"ce4bhgh2rcd13ifvqfb0","pricing_plan_id":"cebpf4jnsgd1na2vs0mg"},{"bike_id":"63339ce0-1b14-41a7-8a3d-adff0912dfe7","system_id":"levelo_inurba_marseille","lat":43.28724,"lon":5.361,"is_reserved":false,"is_disabled":false,"rental_uris":{"android":"levelo://app?vid=63339ce0-1b14-41a7-8a3d-adff0912dfe7","ios":"levelo://app?vid=63339ce0-1b14-41a7-8a3d-adff0912dfe7"},"vehicle_type_id":"4","last_reported":1732223295,"current_range_meters":38000,"station_id":"cki0cbj6b192h4jlfktg","pricing_plan_id":"cebpf4jnsgd1na2vs0mg"},{"bike_id":"1961bc51-373a-428c-96e7-5732c1bba3d1","system_id":"levelo_inurba_marseille","lat":43.32284,"lon":5.38268,"is_reserved":false,"is_disabled":false,"rental_uris":{"android":"levelo://app?vid=1961bc51-373a-428c-96e7-5732c1bba3d1","ios":"levelo://app?vid=1961bc51-373a-428c-96e7-5732c1bba3d1"},"vehicle_type_id":"4","last_reported":1732223295,"current_range_meters":38000,"station_id":"ce4bhr12rcd13ifvqhqg","pricing_plan_id":"cebpf4jnsgd1na2vs0mg"},{"bike_id":"99aa7099-227e-4b1c-86ca-1ad3dcac5426","system_id":"levelo_inurba_marseille","lat":43.29258,"lon":5.409072,"is_reserved":false,"is_disabled":true,"rental_uris":{"android":"levelo://app?vid=99aa7099-227e-4b1c-86ca-1ad3dcac5426","ios":"levelo://app?vid=99aa7099-227e-4b1c-86ca-1ad3dcac5426"},"vehicle_type_id":"4","last_reported":1732223295,"current_range_meters":32800,"station_id":"ce4bh192rcd13ifvqdc0","pricing_plan_id":"cebpf4jnsgd1na2vs0mg"},{"bike_id":"a34469a4-3f93-463c-a935-bcf02d926a1a","system_id":"levelo_inurba_marseille","lat":43.29257,"lon":5.38451,"is_reserved":false,"is_disabled":false,"rental_uris":{"android":"levelo://app?vid=a34469a4-3f93-463c-a935-bcf02d926a1a","ios":"levelo://app?vid=a34469a4-3f93-463c-a935-bcf02d926a1a"},"vehicle_type_id":"4","last_reported":1732223295,"current_range_meters":13600,"station_id":"ce4bh692rcd13ifvqea0","pricing_plan_id":"cebpf4jnsgd1na2vs0mg"},{"bike_id":"b40ede3d-3df1-4e75-aa7c-f784505f0ad9","system_id":"levelo_inurba_marseille","lat":43.31999,"lon":5.3815,"is_reserved":false,"is_disabled":false,"rental_uris":{"android":"levelo://app?vid=b40ede3d-3df1-4e75-aa7c-f784505f0ad9","ios":"levelo://app?vid=b40ede3d-3df1-4e75-aa7c-f784505f0ad9"},"vehicle_type_id":"4","last_reported":1732223295,"current_range_meters":38800,"station_id":"ce4bhr12rcd13ifvqhpg","pricing_plan_id":"cebpf4jnsgd1na2vs0mg"},{"bike_id":"94778b22-ba52-4096-b5b4-96317763dfce","system_id":"levelo_inurba_marseille","lat":43.25725,"lon":5.4111,"is_reserved":false,"is_disabled":true,"rental_uris":{"android":"levelo://app?vid=94778b22-ba52-4096-b5b4-96317763dfce","ios":"levelo://app?vid=94778b22-ba52-4096-b5b4-96317763dfce"},"vehicle_type_id":"4","last_reported":1732223295,"current_range_meters":38800,"station_id":"ce4bhkp2rcd13ifvqgd0","pricing_plan_id":"cebpf4jnsgd1na2vs0mg"},{"bike_id":"f18a5045-ab35-4048-aa48-991860e858c3","system_id":"levelo_inurba_marseille","lat":43.28561,"lon":5.39502,"is_reserved":false,"is_disabled":false,"rental_uris":{"android":"levelo://app?vid=f18a5045-ab35-4048-aa48-991860e858c3","ios":"levelo://app?vid=f18a5045-ab35-4048-aa48-991860e858c3"},"vehicle_type_id":"4","last_reported":1732223295,"current_range_meters":23200,"station_id":"ce4bh292rcd13ifvqdg0","pricing_plan_id":"cebpf4jnsgd1na2vs0mg"},{"bike_id":"b83ba039-4808-4ecf-9d6d-b29f14cc62aa","system_id":"levelo_inurba_marseille","lat":43.29626,"lon":5.40599,"is_reserved":false,"is_disabled":false,"rental_uris":{"android":"levelo://app?vid=b83ba039-4808-4ecf-9d6d-b29f14cc62aa","ios":"levelo://app?vid=b83ba039-4808-4ecf-9d6d-b29f14cc62aa"},"vehicle_type_id":"4","last_reported":1732223295,"current_range_meters":32800,"station_id":"ce4bgvp2rcd13ifvqcu0","pricing_plan_id":"cebpf4jnsgd1na2vs0mg"},{"bike_id":"3b6decf1-6cd1-4587-af40-637cd78965e7","system_id":"levelo_inurba_marseille","lat":43.29792,"lon":5.39347,"is_reserved":false,"is_disabled":false,"rental_uris":{"android":"levelo://app?vid=3b6decf1-6cd1-4587-af40-637cd78965e7","ios":"levelo://app?vid=3b6decf1-6cd1-4587-af40-637cd78965e7"},"vehicle_type_id":"4","last_reported":1732223295,"current_range_meters":35200,"station_id":"chh1huq6cuj3fo74tm60","pricing_plan_id":"cebpf4jnsgd1na2vs0mg"},{"bike_id":"552ae1f9-34eb-4d70-a19b-3616d3661778","system_id":"levelo_inurba_marseille","lat":43.33713,"lon":5.39182,"is_reserved":false,"is_disabled":false,"rental_uris":{"android":"levelo://app?vid=552ae1f9-34eb-4d70-a19b-3616d3661778","ios":"levelo://app?vid=552ae1f9-34eb-4d70-a19b-3616d3661778"},"vehicle_type_id":"4","last_reported":1732223295,"current_range_meters":28000,"station_id":"ce4bhr92rcd13ifvqhsg","pricing_plan_id":"cebpf4jnsgd1na2vs0mg"},{"bike_id":"1bf91585-1655-41ca-aa3f-ff0ba6e8cc52","system_id":"levelo_inurba_marseille","lat":43.33027,"lon":5.3904,"is_reserved":false,"is_disabled":false,"rental_uris":{"android":"levelo://app?vid=1bf91585-1655-41ca-aa3f-ff0ba6e8cc52","ios":"levelo://app?vid=1bf91585-1655-41ca-aa3f-ff0ba6e8cc52"},"vehicle_type_id":"4","last_reported":1732223295,"current_range_meters":38800,"station_id":"ce4bhr92rcd13ifvqhrg","pricing_plan_id":"cebpf4jnsgd1na2vs0mg"},{"bike_id":"29f7b58e-155f-4050-9eff-1bf18d789fb9","system_id":"levelo_inurba_marseille","lat":43.30184,"lon":5.36612,"is_reserved":false,"is_disabled":false,"rental_uris":{"android":"levelo://app?vid=29f7b58e-155f-4050-9eff-1bf18d789fb9","ios":"levelo://app?vid=29f7b58e-155f-4050-9eff-1bf18d789fb9"},"vehicle_type_id":"4","last_reported":1732223295,"current_range_meters":38800,"station_id":"ce4bgrh2rcd13ifvqc8g","pricing_plan_id":"cebpf4jnsgd1na2vs0mg"},{"bike_id":"6178f234-9efb-45f7-9365-bc8bed638c43","system_id":"levelo_inurba_marseille","lat":43.23175,"lon":5.39992,"is_reserved":false,"is_disabled":false,"rental_uris":{"android":"levelo://app?vid=6178f234-9efb-45f7-9365-bc8bed638c43","ios":"levelo://app?vid=6178f234-9efb-45f7-9365-bc8bed638c43"},"vehicle_type_id":"4","last_reported":1732223295,"current_range_meters":9200,"station_id":"ce4bhn12rcd13ifvqgqg","pricing_plan_id":"cebpf4jnsgd1na2vs0mg"},{"bike_id":"7a942108-16ea-4f98-9d80-82c238759071","system_id":"levelo_inurba_marseille","lat":43.2957,"lon":5.39967,"is_reserved":false,"is_disabled":true,"rental_uris":{"android":"levelo://app?vid=7a942108-16ea-4f98-9d80-82c238759071","ios":"levelo://app?vid=7a942108-16ea-4f98-9d80-82c238759071"},"vehicle_type_id":"4","last_reported":1732223295,"current_range_meters":32000,"station_id":"ce4bh312rcd13ifvqdj0","pricing_plan_id":"cebpf4jnsgd1na2vs0mg"},{"bike_id":"028e5427-36e2-49e1-b3db-260058fffb58","system_id":"levelo_inurba_marseille","lat":43.25581,"lon":5.38222,"is_reserved":false,"is_disabled":false,"rental_uris":{"android":"levelo://app?vid=028e5427-36e2-49e1-b3db-260058fffb58","ios":"levelo://app?vid=028e5427-36e2-49e1-b3db-260058fffb58"},"vehicle_type_id":"4","last_reported":1732223295,"current_range_meters":20800,"station_id":"ce4bhih2rcd13ifvqfs0","pricing_plan_id":"cebpf4jnsgd1na2vs0mg"},{"bike_id":"fa3c2a67-3c72-4134-8f36-02be37b0b8ed","system_id":"levelo_inurba_marseille","lat":43.24803,"lon":5.37455,"is_reserved":false,"is_disabled":false,"rental_uris":{"android":"levelo://app?vid=fa3c2a67-3c72-4134-8f36-02be37b0b8ed","ios":"levelo://app?vid=fa3c2a67-3c72-4134-8f36-02be37b0b8ed"},"vehicle_type_id":"4","last_reported":1732223295,"current_range_meters":9600,"station_id":"ce4bhgh2rcd13ifvqfb0","pricing_plan_id":"cebpf4jnsgd1na2vs0mg"},{"bike_id":"1453fddf-c64f-4c02-ace1-55caffeaf55e","system_id":"levelo_inurba_marseille","lat":43.32292,"lon":5.38273,"is_reserved":false,"is_disabled":false,"rental_uris":{"android":"levelo://app?vid=1453fddf-c64f-4c02-ace1-55caffeaf55e","ios":"levelo://app?vid=1453fddf-c64f-4c02-ace1-55caffeaf55e"},"vehicle_type_id":"4","last_reported":1732223295,"current_range_meters":36800,"station_id":"ce4bhr12rcd13ifvqhqg","pricing_plan_id":"cebpf4jnsgd1na2vs0mg"},{"bike_id":"7e17a81f-3b24-49e1-a5fc-e88f9462d78d","system_id":"levelo_inurba_marseille","lat":43.28416,"lon":5.40942,"is_reserved":false,"is_disabled":false,"rental_uris":{"android":"levelo://app?vid=7e17a81f-3b24-49e1-a5fc-e88f9462d78d","ios":"levelo://app?vid=7e17a81f-3b24-49e1-a5fc-e88f9462d78d"},"vehicle_type_id":"4","last_reported":1732223295,"current_range_meters":8000,"station_id":"","pricing_plan_id":"cebpf4jnsgd1na2vs0mg"},{"bike_id":"0d5efe48-32bd-461f-be09-c1d5e2d6ef37","system_id":"levelo_inurba_marseille","lat":43.32368,"lon":5.38876,"is_reserved":false,"is_disabled":false,"rental_uris":{"android":"levelo://app?vid=0d5efe48-32bd-461f-be09-c1d5e2d6ef37","ios":"levelo://app?vid=0d5efe48-32bd-461f-be09-c1d5e2d6ef37"},"vehicle_type_id":"4","last_reported":1732223295,"current_range_meters":36800,"station_id":"ce4bhqp2rcd13ifvqhog","pricing_plan_id":"cebpf4jnsgd1na2vs0mg"},{"bike_id":"9cb25104-a344-44e1-b011-ee0babb96f44","system_id":"levelo_inurba_marseille","lat":43.25573,"lon":5.38236,"is_reserved":false,"is_disabled":false,"rental_uris":{"android":"levelo://app?vid=9cb25104-a344-44e1-b011-ee0babb96f44","ios":"levelo://app?vid=9cb25104-a344-44e1-b011-ee0babb96f44"},"vehicle_type_id":"4","last_reported":1732223295,"current_range_meters":36800,"station_id":"ce4bhih2rcd13ifvqfs0","pricing_plan_id":"cebpf4jnsgd1na2vs0mg"},{"bike_id":"61f0e660-3916-460b-ac79-c18b9b1dd5f0","system_id":"levelo_inurba_marseille","lat":43.29031,"lon":5.37554,"is_reserved":false,"is_disabled":true,"rental_uris":{"android":"levelo://app?vid=61f0e660-3916-460b-ac79-c18b9b1dd5f0","ios":"levelo://app?vid=61f0e660-3916-460b-ac79-c18b9b1dd5f0"},"vehicle_type_id":"4","last_reported":1732223295,"current_range_meters":12000,"station_id":"ce4bh692rcd13ifvqe90","pricing_plan_id":"cebpf4jnsgd1na2vs0mg"},{"bike_id":"c95a1230-de1e-4680-ad86-c65bce0c1904","system_id":"levelo_inurba_marseille","lat":43.295258,"lon":5.385384,"is_reserved":false,"is_disabled":false,"rental_uris":{"android":"levelo://app?vid=c95a1230-de1e-4680-ad86-c65bce0c1904","ios":"levelo://app?vid=c95a1230-de1e-4680-ad86-c65bce0c1904"},"vehicle_type_id":"4","last_reported":1732223295,"current_range_meters":38800,"station_id":"ce4bgih2rcd13ifvqba0","pricing_plan_id":"cebpf4jnsgd1na2vs0mg"},{"bike_id":"3e5e44a0-047e-494d-afeb-778b9a81b0c5","system_id":"levelo_inurba_marseille","lat":43.29037,"lon":5.37573,"is_reserved":false,"is_disabled":false,"rental_uris":{"android":"levelo://app?vid=3e5e44a0-047e-494d-afeb-778b9a81b0c5","ios":"levelo://app?vid=3e5e44a0-047e-494d-afeb-778b9a81b0c5"},"vehicle_type_id":"4","last_reported":1732223295,"current_range_meters":39200,"station_id":"ce4bh692rcd13ifvqe90","pricing_plan_id":"cebpf4jnsgd1na2vs0mg"},{"bike_id":"e55d8d07-0d5b-4450-843b-285eb54fc378","system_id":"levelo_inurba_marseille","lat":43.29248,"lon":5.38433,"is_reserved":false,"is_disabled":false,"rental_uris":{"android":"levelo://app?vid=e55d8d07-0d5b-4450-843b-285eb54fc378","ios":"levelo://app?vid=e55d8d07-0d5b-4450-843b-285eb54fc378"},"vehicle_type_id":"4","last_reported":1732223295,"current_range_meters":27600,"station_id":"ce4bh692rcd13ifvqea0","pricing_plan_id":"cebpf4jnsgd1na2vs0mg"},{"bike_id":"fc59e254-553b-4bd2-a6ba-f3f7ddf82c0a","system_id":"levelo_inurba_marseille","lat":43.26954,"lon":5.3863,"is_reserved":false,"is_disabled":false,"rental_uris":{"android":"levelo://app?vid=fc59e254-553b-4bd2-a6ba-f3f7ddf82c0a","ios":"levelo://app?vid=fc59e254-553b-4bd2-a6ba-f3f7ddf82c0a"},"vehicle_type_id":"4","last_reported":1732223295,"current_range_meters":25600,"station_id":"ce4bhh92rcd13ifvqfh0","pricing_plan_id":"cebpf4jnsgd1na2vs0mg"},{"bike_id":"6a9c5bb1-a14b-4355-b199-4a65364f214b","system_id":"levelo_inurba_marseille","lat":43.30874,"lon":5.39639,"is_reserved":false,"is_disabled":false,"rental_uris":{"android":"levelo://app?vid=6a9c5bb1-a14b-4355-b199-4a65364f214b","ios":"levelo://app?vid=6a9c5bb1-a14b-4355-b199-4a65364f214b"},"vehicle_type_id":"4","last_reported":1732223295,"current_range_meters":8800,"station_id":"ce4bh012rcd13ifvqcv0","pricing_plan_id":"cebpf4jnsgd1na2vs0mg"},{"bike_id":"9ac88085-11e3-4095-8047-0941b32ce284","system_id":"levelo_inurba_marseille","lat":43.29296,"lon":5.37146,"is_reserved":false,"is_disabled":false,"rental_uris":{"android":"levelo://app?vid=9ac88085-11e3-4095-8047-0941b32ce284","ios":"levelo://app?vid=9ac88085-11e3-4095-8047-0941b32ce284"},"vehicle_type_id":"4","last_reported":1732223295,"current_range_meters":34800,"station_id":"ce4bgh92rcd13ifvqb40","pricing_plan_id":"cebpf4jnsgd1na2vs0mg"},{"bike_id":"0aeb214c-fde7-45c8-b020-03be17efcbb9","system_id":"levelo_inurba_marseille","lat":43.33028,"lon":5.390394,"is_reserved":false,"is_disabled":false,"rental_uris":{"android":"levelo://app?vid=0aeb214c-fde7-45c8-b020-03be17efcbb9","ios":"levelo://app?vid=0aeb214c-fde7-45c8-b020-03be17efcbb9"},"vehicle_type_id":"4","last_reported":1732223295,"current_range_meters":27600,"station_id":"ce4bhr92rcd13ifvqhrg","pricing_plan_id":"cebpf4jnsgd1na2vs0mg"},{"bike_id":"796dac1e-b92c-478b-8572-8a73fdc202b8","system_id":"levelo_inurba_marseille","lat":43.24264,"lon":5.37961,"is_reserved":false,"is_disabled":true,"rental_uris":{"android":"levelo://app?vid=796dac1e-b92c-478b-8572-8a73fdc202b8","ios":"levelo://app?vid=796dac1e-b92c-478b-8572-8a73fdc202b8"},"vehicle_type_id":"4","last_reported":1732223295,"current_range_meters":400,"station_id":"","pricing_plan_id":"cebpf4jnsgd1na2vs0mg"},{"bike_id":"755a1e58-5b8e-4c76-b603-686b1a21f371","system_id":"levelo_inurba_marseille","lat":43.29261,"lon":5.38443,"is_reserved":false,"is_disabled":false,"rental_uris":{"android":"levelo://app?vid=755a1e58-5b8e-4c76-b603-686b1a21f371","ios":"levelo://app?vid=755a1e58-5b8e-4c76-b603-686b1a21f371"},"vehicle_type_id":"4","last_reported":1732223295,"current_range_meters":30400,"station_id":"ce4bh692rcd13ifvqea0","pricing_plan_id":"cebpf4jnsgd1na2vs0mg"},{"bike_id":"e4e3495c-9d93-4eff-a4ab-712e0ae01181","system_id":"levelo_inurba_marseille","lat":43.26564,"lon":5.39008,"is_reserved":false,"is_disabled":false,"rental_uris":{"android":"levelo://app?vid=e4e3495c-9d93-4eff-a4ab-712e0ae01181","ios":"levelo://app?vid=e4e3495c-9d93-4eff-a4ab-712e0ae01181"},"vehicle_type_id":"4","last_reported":1732223295,"current_range_meters":38800,"station_id":"ce4bhe12rcd13ifvqf30","pricing_plan_id":"cebpf4jnsgd1na2vs0mg"},{"bike_id":"75e0492c-743e-4643-b8c4-0f017c0549fd","system_id":"levelo_inurba_marseille","lat":43.2649,"lon":5.39554,"is_reserved":false,"is_disabled":false,"rental_uris":{"android":"levelo://app?vid=75e0492c-743e-4643-b8c4-0f017c0549fd","ios":"levelo://app?vid=75e0492c-743e-4643-b8c4-0f017c0549fd"},"vehicle_type_id":"4","last_reported":1732223295,"current_range_meters":38400,"station_id":"ce4bhi12rcd13ifvqfq0","pricing_plan_id":"cebpf4jnsgd1na2vs0mg"},{"bike_id":"d293b19b-b815-422b-9263-cae9f1348ca7","system_id":"levelo_inurba_marseille","lat":43.29799,"lon":5.404,"is_reserved":false,"is_disabled":false,"rental_uris":{"android":"levelo://app?vid=d293b19b-b815-422b-9263-cae9f1348ca7","ios":"levelo://app?vid=d293b19b-b815-422b-9263-cae9f1348ca7"},"vehicle_type_id":"4","last_reported":1732223295,"current_range_meters":38400,"station_id":"ce4bh112rcd13ifvqd90","pricing_plan_id":"cebpf4jnsgd1na2vs0mg"},{"bike_id":"cf8ec0e4-16b7-4f8d-afb1-0c33b9d8cf77","system_id":"levelo_inurba_marseille","lat":43.29784,"lon":5.37099,"is_reserved":false,"is_disabled":false,"rental_uris":{"android":"levelo://app?vid=cf8ec0e4-16b7-4f8d-afb1-0c33b9d8cf77","ios":"levelo://app?vid=cf8ec0e4-16b7-4f8d-afb1-0c33b9d8cf77"},"vehicle_type_id":"4","last_reported":1732223295,"current_range_meters":39200,"station_id":"ce4bgop2rcd13ifvqc1g","pricing_plan_id":"cebpf4jnsgd1na2vs0mg"},{"bike_id":"e5951ee3-4a5a-4ebb-b469-096c5188dfa3","system_id":"levelo_inurba_marseille","lat":43.23192,"lon":5.35556,"is_reserved":false,"is_disabled":false,"rental_uris":{"android":"levelo://app?vid=e5951ee3-4a5a-4ebb-b469-096c5188dfa3","ios":"levelo://app?vid=e5951ee3-4a5a-4ebb-b469-096c5188dfa3"},"vehicle_type_id":"4","last_reported":1732223295,"current_range_meters":32400,"station_id":"ce4bhu92rcd13ifvqi70","pricing_plan_id":"cebpf4jnsgd1na2vs0mg"},{"bike_id":"541f6f56-903d-491c-af80-83443f79e57e","system_id":"levelo_inurba_marseille","lat":43.27835,"lon":5.39209,"is_reserved":false,"is_disabled":false,"rental_uris":{"android":"levelo://app?vid=541f6f56-903d-491c-af80-83443f79e57e","ios":"levelo://app?vid=541f6f56-903d-491c-af80-83443f79e57e"},"vehicle_type_id":"4","last_reported":1732223295,"current_range_meters":38000,"station_id":"ce4bhjp2rcd13ifvqga0","pricing_plan_id":"cebpf4jnsgd1na2vs0mg"},{"bike_id":"8d13985d-3bdf-49ab-9373-fe6216716dff","system_id":"levelo_inurba_marseille","lat":43.27435,"lon":5.38998,"is_reserved":false,"is_disabled":false,"rental_uris":{"android":"levelo://app?vid=8d13985d-3bdf-49ab-9373-fe6216716dff","ios":"levelo://app?vid=8d13985d-3bdf-49ab-9373-fe6216716dff"},"vehicle_type_id":"4","last_reported":1732223295,"current_range_meters":34000,"station_id":"","pricing_plan_id":"cebpf4jnsgd1na2vs0mg"},{"bike_id":"abaf64ce-5f3c-4124-8c8b-890739590c72","system_id":"levelo_inurba_marseille","lat":43.251157,"lon":5.403223,"is_reserved":false,"is_disabled":false,"rental_uris":{"android":"levelo://app?vid=abaf64ce-5f3c-4124-8c8b-890739590c72","ios":"levelo://app?vid=abaf64ce-5f3c-4124-8c8b-890739590c72"},"vehicle_type_id":"4","last_reported":1732223295,"current_range_meters":38400,"station_id":"ce4bhlp2rcd13ifvqgjg","pricing_plan_id":"cebpf4jnsgd1na2vs0mg"},{"bike_id":"598543c3-4504-4ea3-976e-b45e767de5ed","system_id":"levelo_inurba_marseille","lat":43.32362,"lon":5.38878,"is_reserved":false,"is_disabled":false,"rental_uris":{"android":"levelo://app?vid=598543c3-4504-4ea3-976e-b45e767de5ed","ios":"levelo://app?vid=598543c3-4504-4ea3-976e-b45e767de5ed"},"vehicle_type_id":"4","last_reported":1732223295,"current_range_meters":38400,"station_id":"ce4bhqp2rcd13ifvqhog","pricing_plan_id":"cebpf4jnsgd1na2vs0mg"},{"bike_id":"fe1f871c-a7a4-4864-8781-9bd2743909f5","system_id":"levelo_inurba_marseille","lat":43.24475,"lon":5.36912,"is_reserved":false,"is_disabled":true,"rental_uris":{"android":"levelo://app?vid=fe1f871c-a7a4-4864-8781-9bd2743909f5","ios":"levelo://app?vid=fe1f871c-a7a4-4864-8781-9bd2743909f5"},"vehicle_type_id":"4","last_reported":1732223295,"current_range_meters":28400,"station_id":"","pricing_plan_id":"cebpf4jnsgd1na2vs0mg"},{"bike_id":"6c948e9c-d5b3-4fe5-a918-1bd2f7c83b02","system_id":"levelo_inurba_marseille","lat":43.32114,"lon":5.36774,"is_reserved":false,"is_disabled":false,"rental_uris":{"android":"levelo://app?vid=6c948e9c-d5b3-4fe5-a918-1bd2f7c83b02","ios":"levelo://app?vid=6c948e9c-d5b3-4fe5-a918-1bd2f7c83b02"},"vehicle_type_id":"4","last_reported":1732223295,"current_range_meters":38800,"station_id":"ce4bhrh2rcd13ifvqhug","pricing_plan_id":"cebpf4jnsgd1na2vs0mg"},{"bike_id":"9e620abf-d324-4f99-84fc-d67e71109f2a","system_id":"levelo_inurba_marseille","lat":43.31075,"lon":5.42434,"is_reserved":false,"is_disabled":true,"rental_uris":{"android":"levelo://app?vid=9e620abf-d324-4f99-84fc-d67e71109f2a","ios":"levelo://app?vid=9e620abf-d324-4f99-84fc-d67e71109f2a"},"vehicle_type_id":"4","last_reported":1732223295,"current_range_meters":8800,"station_id":"ce4bhp92rcd13ifvqhag","pricing_plan_id":"cebpf4jnsgd1na2vs0mg"},{"bike_id":"4cf39b57-ddad-4f72-aa0d-4c6a23f9e10c","system_id":"levelo_inurba_marseille","lat":43.30932,"lon":5.40143,"is_reserved":false,"is_disabled":false,"rental_uris":{"android":"levelo://app?vid=4cf39b57-ddad-4f72-aa0d-4c6a23f9e10c","ios":"levelo://app?vid=4cf39b57-ddad-4f72-aa0d-4c6a23f9e10c"},"vehicle_type_id":"4","last_reported":1732223295,"current_range_meters":34800,"station_id":"ce4bgvp2rcd13ifvqct0","pricing_plan_id":"cebpf4jnsgd1na2vs0mg"},{"bike_id":"b8ee6a54-6c0b-4a59-9e0b-51a2cc6a9f13","system_id":"levelo_inurba_marseille","lat":43.31323,"lon":5.39694,"is_reserved":false,"is_disabled":false,"rental_uris":{"android":"levelo://app?vid=b8ee6a54-6c0b-4a59-9e0b-51a2cc6a9f13","ios":"levelo://app?vid=b8ee6a54-6c0b-4a59-9e0b-51a2cc6a9f13"},"vehicle_type_id":"4","last_reported":1732223295,"current_range_meters":20800,"station_id":"ce4bgvp2rcd13ifvqcu0","pricing_plan_id":"cebpf4jnsgd1na2vs0mg"},{"bike_id":"97e5627d-d937-44c6-a208-4c28d738ddf5","system_id":"levelo_inurba_marseille","lat":43.28568,"lon":5.39498,"is_reserved":false,"is_disabled":false,"rental_uris":{"android":"levelo://app?vid=97e5627d-d937-44c6-a208-4c28d738ddf5","ios":"levelo://app?vid=97e5627d-d937-44c6-a208-4c28d738ddf5"},"vehicle_type_id":"4","last_reported":1732223295,"current_range_meters":38800,"station_id":"ce4bh292rcd13ifvqdg0","pricing_plan_id":"cebpf4jnsgd1na2vs0mg"},{"bike_id":"7073b1ab-16ae-4a15-9f35-08d42cf799ed","system_id":"levelo_inurba_marseille","lat":43.32294,"lon":5.38267,"is_reserved":false,"is_disabled":false,"rental_uris":{"android":"levelo://app?vid=7073b1ab-16ae-4a15-9f35-08d42cf799ed","ios":"levelo://app?vid=7073b1ab-16ae-4a15-9f35-08d42cf799ed"},"vehicle_type_id":"4","last_reported":1732223295,"current_range_meters":37600,"station_id":"ce4bhr12rcd13ifvqhqg","pricing_plan_id":"cebpf4jnsgd1na2vs0mg"},{"bike_id":"5cd2d7b5-4959-4d71-9d2a-069c3bc2c144","system_id":"levelo_inurba_marseille","lat":43.29593,"lon":5.381,"is_reserved":false,"is_disabled":false,"rental_uris":{"android":"levelo://app?vid=5cd2d7b5-4959-4d71-9d2a-069c3bc2c144","ios":"levelo://app?vid=5cd2d7b5-4959-4d71-9d2a-069c3bc2c144"},"vehicle_type_id":"4","last_reported":1732223295,"current_range_meters":31200,"station_id":"ce4bgl12rcd13ifvqbo0","pricing_plan_id":"cebpf4jnsgd1na2vs0mg"},{"bike_id":"bd00794b-1129-4bdf-848e-d8127829ecbf","system_id":"levelo_inurba_marseille","lat":43.337444,"lon":5.374475,"is_reserved":false,"is_disabled":false,"rental_uris":{"android":"levelo://app?vid=bd00794b-1129-4bdf-848e-d8127829ecbf","ios":"levelo://app?vid=bd00794b-1129-4bdf-848e-d8127829ecbf"},"vehicle_type_id":"4","last_reported":1732223295,"current_range_meters":11200,"station_id":"","pricing_plan_id":"cebpf4jnsgd1na2vs0mg"},{"bike_id":"5c53cfbd-2547-413a-b79a-f8cc3b1ca992","system_id":"levelo_inurba_marseille","lat":43.32111,"lon":5.36769,"is_reserved":false,"is_disabled":false,"rental_uris":{"android":"levelo://app?vid=5c53cfbd-2547-413a-b79a-f8cc3b1ca992","ios":"levelo://app?vid=5c53cfbd-2547-413a-b79a-f8cc3b1ca992"},"vehicle_type_id":"4","last_reported":1732223295,"current_range_meters":20000,"station_id":"ce4bhrh2rcd13ifvqhug","pricing_plan_id":"cebpf4jnsgd1na2vs0mg"},{"bike_id":"b33f4fd9-c52d-41e8-8ede-bcce78dbc1c5","system_id":"levelo_inurba_marseille","lat":43.29252,"lon":5.38441,"is_reserved":false,"is_disabled":false,"rental_uris":{"android":"levelo://app?vid=b33f4fd9-c52d-41e8-8ede-bcce78dbc1c5","ios":"levelo://app?vid=b33f4fd9-c52d-41e8-8ede-bcce78dbc1c5"},"vehicle_type_id":"4","last_reported":1732223295,"current_range_meters":18000,"station_id":"ce4bh692rcd13ifvqea0","pricing_plan_id":"cebpf4jnsgd1na2vs0mg"},{"bike_id":"a10124f4-c389-40e4-8f2e-a96ea7d155cf","system_id":"levelo_inurba_marseille","lat":43.27506,"lon":5.42439,"is_reserved":false,"is_disabled":false,"rental_uris":{"android":"levelo://app?vid=a10124f4-c389-40e4-8f2e-a96ea7d155cf","ios":"levelo://app?vid=a10124f4-c389-40e4-8f2e-a96ea7d155cf"},"vehicle_type_id":"4","last_reported":1732223295,"current_range_meters":24000,"station_id":"ce4bhn92rcd13ifvqgrg","pricing_plan_id":"cebpf4jnsgd1na2vs0mg"},{"bike_id":"64a75ebc-6c77-4dc5-9f55-5914e5ae238c","system_id":"levelo_inurba_marseille","lat":43.29262,"lon":5.40898,"is_reserved":false,"is_disabled":false,"rental_uris":{"android":"levelo://app?vid=64a75ebc-6c77-4dc5-9f55-5914e5ae238c","ios":"levelo://app?vid=64a75ebc-6c77-4dc5-9f55-5914e5ae238c"},"vehicle_type_id":"4","last_reported":1732223295,"current_range_meters":24400,"station_id":"ce4bh192rcd13ifvqdc0","pricing_plan_id":"cebpf4jnsgd1na2vs0mg"},{"bike_id":"5995f872-7f6e-4ba0-97e0-97f3674b69a7","system_id":"levelo_inurba_marseille","lat":43.33604,"lon":5.41035,"is_reserved":false,"is_disabled":false,"rental_uris":{"android":"levelo://app?vid=5995f872-7f6e-4ba0-97e0-97f3674b69a7","ios":"levelo://app?vid=5995f872-7f6e-4ba0-97e0-97f3674b69a7"},"vehicle_type_id":"4","last_reported":1732223295,"current_range_meters":8400,"station_id":"ce4bhqh2rcd13ifvqhmg","pricing_plan_id":"cebpf4jnsgd1na2vs0mg"},{"bike_id":"ced939b2-a2ab-40e5-b140-575509bab6d1","system_id":"levelo_inurba_marseille","lat":43.33023,"lon":5.39037,"is_reserved":false,"is_disabled":false,"rental_uris":{"android":"levelo://app?vid=ced939b2-a2ab-40e5-b140-575509bab6d1","ios":"levelo://app?vid=ced939b2-a2ab-40e5-b140-575509bab6d1"},"vehicle_type_id":"4","last_reported":1732223295,"current_range_meters":19600,"station_id":"ce4bhr92rcd13ifvqhrg","pricing_plan_id":"cebpf4jnsgd1na2vs0mg"},{"bike_id":"4674a573-a71e-41c0-a925-5c021c5e6c25","system_id":"levelo_inurba_marseille","lat":43.29436,"lon":5.37455,"is_reserved":false,"is_disabled":true,"rental_uris":{"android":"levelo://app?vid=4674a573-a71e-41c0-a925-5c021c5e6c25","ios":"levelo://app?vid=4674a573-a71e-41c0-a925-5c021c5e6c25"},"vehicle_type_id":"4","last_reported":1732223295,"current_range_meters":0,"station_id":"","pricing_plan_id":"cebpf4jnsgd1na2vs0mg"},{"bike_id":"25d0a4e8-912f-4592-9f3e-34cb99ab45f8","system_id":"levelo_inurba_marseille","lat":43.24659,"lon":5.38159,"is_reserved":false,"is_disabled":false,"rental_uris":{"android":"levelo://app?vid=25d0a4e8-912f-4592-9f3e-34cb99ab45f8","ios":"levelo://app?vid=25d0a4e8-912f-4592-9f3e-34cb99ab45f8"},"vehicle_type_id":"4","last_reported":1732223295,"current_range_meters":19600,"station_id":"ce4bhih2rcd13ifvqfr0","pricing_plan_id":"cebpf4jnsgd1na2vs0mg"},{"bike_id":"cde5eb04-35f5-4971-aec4-8004f9b2dcd9","system_id":"levelo_inurba_marseille","lat":43.2828,"lon":5.35063,"is_reserved":false,"is_disabled":true,"rental_uris":{"android":"levelo://app?vid=cde5eb04-35f5-4971-aec4-8004f9b2dcd9","ios":"levelo://app?vid=cde5eb04-35f5-4971-aec4-8004f9b2dcd9"},"vehicle_type_id":"4","last_reported":1732223295,"current_range_meters":0,"station_id":"ce4bhbp2rcd13ifvqerg","pricing_plan_id":"cebpf4jnsgd1na2vs0mg"},{"bike_id":"9ceff896-1ce2-4d53-b4b1-bea020d781f7","system_id":"levelo_inurba_marseille","lat":43.29521,"lon":5.39042,"is_reserved":false,"is_disabled":false,"rental_uris":{"android":"levelo://app?vid=9ceff896-1ce2-4d53-b4b1-bea020d781f7","ios":"levelo://app?vid=9ceff896-1ce2-4d53-b4b1-bea020d781f7"},"vehicle_type_id":"4","last_reported":1732223295,"current_range_meters":14400,"station_id":"ce4bh3p2rcd13ifvqdp0","pricing_plan_id":"cebpf4jnsgd1na2vs0mg"},{"bike_id":"4024c177-e689-450a-884b-5392fcf58a24","system_id":"levelo_inurba_marseille","lat":43.3229,"lon":5.38264,"is_reserved":false,"is_disabled":false,"rental_uris":{"android":"levelo://app?vid=4024c177-e689-450a-884b-5392fcf58a24","ios":"levelo://app?vid=4024c177-e689-450a-884b-5392fcf58a24"},"vehicle_type_id":"4","last_reported":1732223295,"current_range_meters":8800,"station_id":"ce4bhr12rcd13ifvqhqg","pricing_plan_id":"cebpf4jnsgd1na2vs0mg"},{"bike_id":"97f99a2c-3959-4ad3-8977-6f6c50d7080b","system_id":"levelo_inurba_marseille","lat":43.29371,"lon":5.37863,"is_reserved":false,"is_disabled":false,"rental_uris":{"android":"levelo://app?vid=97f99a2c-3959-4ad3-8977-6f6c50d7080b","ios":"levelo://app?vid=97f99a2c-3959-4ad3-8977-6f6c50d7080b"},"vehicle_type_id":"4","last_reported":1732223295,"current_range_meters":31200,"station_id":"ce4bgjh2rcd13ifvqbf0","pricing_plan_id":"cebpf4jnsgd1na2vs0mg"},{"bike_id":"83237ff9-1428-4076-8a80-8e455b4bccf3","system_id":"levelo_inurba_marseille","lat":43.30888,"lon":5.39631,"is_reserved":false,"is_disabled":true,"rental_uris":{"android":"levelo://app?vid=83237ff9-1428-4076-8a80-8e455b4bccf3","ios":"levelo://app?vid=83237ff9-1428-4076-8a80-8e455b4bccf3"},"vehicle_type_id":"4","last_reported":1732223295,"current_range_meters":26800,"station_id":"ce4bh012rcd13ifvqcv0","pricing_plan_id":"cebpf4jnsgd1na2vs0mg"},{"bike_id":"3326086a-ed46-4163-8be7-04fb24d4a06c","system_id":"levelo_inurba_marseille","lat":43.24072,"lon":5.37764,"is_reserved":false,"is_disabled":false,"rental_uris":{"android":"levelo://app?vid=3326086a-ed46-4163-8be7-04fb24d4a06c","ios":"levelo://app?vid=3326086a-ed46-4163-8be7-04fb24d4a06c"},"vehicle_type_id":"4","last_reported":1732223295,"current_range_meters":30400,"station_id":"ce4bhnp2rcd13ifvqgvg","pricing_plan_id":"cebpf4jnsgd1na2vs0mg"},{"bike_id":"80099150-f9b6-42ec-9172-e34309c8d1f5","system_id":"levelo_inurba_marseille","lat":43.3266,"lon":5.40989,"is_reserved":false,"is_disabled":false,"rental_uris":{"android":"levelo://app?vid=80099150-f9b6-42ec-9172-e34309c8d1f5","ios":"levelo://app?vid=80099150-f9b6-42ec-9172-e34309c8d1f5"},