{"last_updated":1707073575,"ttl":30,"version":"2.2","data":{"bikes":[{"bike_id":"712e43bd-0300-4434-8783-4a6d4f16e26f","system_id":"levelo_inurba_marseille","lat":43.312239,"lon":5.368562,"is_reserved":false,"is_disabled":false,"rental_uris":{"android":"levelo://app?vid=712e43bd-0300-4434-8783-4a6d4f16e26f","ios":"levelo://app?vid=712e43bd-0300-4434-8783-4a6d4f16e26f"},"vehicle_type_id":"4","last_reported":1707073575,"current_range_meters":6400,"station_id":"ce4bgl92rcd13ifvqbq0","pricing_plan_id":"free"},{"bike_id":"b4b6a667-ae02-4a88-917c-84cd3a82782b","system_id":"levelo_inurba_marseille","lat":43.314811,"lon":5.373103,"is_reserved":false,"is_disabled":false,"rental_uris":{"android":"levelo://app?vid=b4b6a667-ae02-4a88-917c-84cd3a82782b","ios":"levelo://app?vid=b4b6a667-ae02-4a88-917c-84cd3a82782b"},"vehicle_type_id":"4","last_reported":1707073575,"current_range_meters":5600,"station_id":"ce4bgt12rcd13ifvqcd0","pricing_plan_id":"free"},{"bike_id":"6124e754-1150-4556-9cd9-6c011e117cf1","system_id":"levelo_inurba_marseille","lat":43.314811,"lon":5.373103,"is_reserved":false,"is_disabled":false,"rental_uris":{"android":"levelo://app?vid=6124e754-1150-4556-9cd9-6c011e117cf1","ios":"levelo://app?vid=6124e754-1150-4556-9cd9-6c011e117cf1"},"vehicle_type_id":"4","last_reported":1707073575,"current_range_meters":6000,"station_id":"ce4bgt12rcd13ifvqcd0","pricing_plan_id":"free"},{"bike_id":"2c2b6af4-1ba7-45c5-a86d-83a42ced0592","system_id":"levelo_inurba_marseille","lat":43.314811,"lon":5.373103,"is_reserved":false,"is_disabled":false,"rental_uris":{"android":"levelo://app?vid=2c2b6af4-1ba7-45c5-a86d-83a42ced0592","ios":"levelo://app?vid=2c2b6af4-1ba7-45c5-a86d-83a42ced0592"},"vehicle_type_id":"4","last_reported":1707073575,"current_range_meters":27600,"station_id":"ce4bgt12rcd13ifvqcd0","pricing_plan_id":"free"},{"bike_id":"6facdba3-169d-4ca1-a1b5-2a4c8348b835","system_id":"levelo_inurba_marseille","lat":43.314811,"lon":5.373104,"is_reserved":false,"is_disabled":false,"rental_uris":{"android":"levelo://app?vid=6facdba3-169d-4ca1-a1b5-2a4c8348b835","ios":"levelo://app?vid=6facdba3-169d-4ca1-a1b5-2a4c8348b835"},"vehicle_type_id":"4","last_reported":1707073575,"current_range_meters":16400,"station_id":"ce4bgt12rcd13ifvqcd0","pricing_plan_id":"free"},{"bike_id":"61938224-cbba-49a2-bc00-ecfb658c497a","system_id":"levelo_inurba_marseille","lat":43.309039,"lon":5.371797,"is_reserved":false,"is_disabled":false,"rental_uris":{"android":"levelo://app?vid=61938224-cbba-49a2-bc00-ecfb658c497a","ios":"levelo://app?vid=61938224-cbba-49a2-bc00-ecfb658c497a"},"vehicle_type_id":"4","last_reported":1707073575,"current_range_meters":0,"station_id":"ce4bguh2rcd13ifvqckg","pricing_plan_id":"free"},{"bike_id":"ef755315-c283-4045-851b-bbf39cf7b7e8","system_id":"levelo_inurba_marseille","lat":43.309039,"lon":5.371797,"is_reserved":false,"is_disabled":false,"rental_uris":{"android":"levelo://app?vid=ef755315-c283-4045-851b-bbf39cf7b7e8","ios":"levelo://app?vid=ef755315-c283-4045-851b-bbf39cf7b7e8"},"vehicle_type_id":"4","last_reported":1707073575,"current_range_meters":20000,"station_id":"ce4bguh2rcd13ifvqckg","pricing_plan_id":"free"},{"bike_id":"3a2412bb-739b-4f4a-9e45-d3e584381306","system_id":"levelo_inurba_marseille","lat":43.306978,"lon":5.373008,"is_reserved":false,"is_disabled":false,"rental_uris":{"android":"levelo://app?vid=3a2412bb-739b-4f4a-9e45-d3e584381306","ios":"levelo://app?vid=3a2412bb-739b-4f4a-9e45-d3e584381306"},"vehicle_type_id":"4","last_reported":1707073575,"current_range_meters":0,"station_id":"","pricing_plan_id":"free"},{"bike_id":"79284593-56a9-413f-aed6-878f88b10e61","system_id":"levelo_inurba_marseille","lat":43.305706,"lon":5.365654,"is_reserved":false,"is_disabled":false,"rental_uris":{"android":"levelo://app?vid=79284593-56a9-413f-aed6-878f88b10e61","ios":"levelo://app?vid=79284593-56a9-413f-aed6-878f88b10e61"},"vehicle_type_id":"4","last_reported":1707073575,"current_range_meters":9200,"station_id":"ce4bgs12rcd13ifvqcag","pricing_plan_id":"free"},{"bike_id":"f06957f8-2379-46aa-8c50-1bb33815d89b","system_id":"levelo_inurba_marseille","lat":43.311131,"lon":5.377651,"is_reserved":false,"is_disabled":false,"rental_uris":{"android":"levelo://app?vid=f06957f8-2379-46aa-8c50-1bb33815d89b","ios":"levelo://app?vid=f06957f8-2379-46aa-8c50-1bb33815d89b"},"vehicle_type_id":"4","last_reported":1707073575,"current_range_meters":20800,"station_id":"ce4bgt92rcd13ifvqcg0","pricing_plan_id":"free"},{"bike_id":"c60e7252-bcc2-4201-a624-aec62d3d6b5d","system_id":"levelo_inurba_marseille","lat":43.316473,"lon":5.376847,"is_reserved":false,"is_disabled":false,"rental_uris":{"android":"levelo://app?vid=c60e7252-bcc2-4201-a624-aec62d3d6b5d","ios":"levelo://app?vid=c60e7252-bcc2-4201-a624-aec62d3d6b5d"},"vehicle_type_id":"4","last_reported":1707073575,"current_range_meters":800,"station_id":"","pricing_plan_id":"free"},{"bike_id":"f2ec09c8-7b9c-41f4-941f-dca2aa8f5a76","system_id":"levelo_inurba_marseille","lat":43.307945,"lon":5.376487,"is_reserved":false,"is_disabled":false,"rental_uris":{"android":"levelo://app?vid=f2ec09c8-7b9c-41f4-941f-dca2aa8f5a76","ios":"levelo://app?vid=f2ec09c8-7b9c-41f4-941f-dca2aa8f5a76"},"vehicle_type_id":"4","last_reported":1707073575,"current_range_meters":13600,"station_id":"ce4bgv92rcd13ifvqcq0","pricing_plan_id":"free"},{"bike_id":"0ef47422-aed9-4612-bf70-7d4b2c3bc7f0","system_id":"levelo_inurba_marseille","lat":43.317075,"lon":5.377367,"is_reserved":false,"is_disabled":false,"rental_uris":{"android":"levelo://app?vid=0ef47422-aed9-4612-bf70-7d4b2c3bc7f0","ios":"levelo://app?vid=0ef47422-aed9-4612-bf70-7d4b2c3bc7f0"},"vehicle_type_id":"4","last_reported":1707073575,"current_range_meters":28000,"station_id":"ce4bgth2rcd13ifvqch0","pricing_plan_id":"free"},{"bike_id":"481e547a-96e3-403a-a376-e43994032a97","system_id":"levelo_inurba_marseille","lat":43.317075,"lon":5.377367,"is_reserved":false,"is_disabled":false,"rental_uris":{"android":"levelo://app?vid=481e547a-96e3-403a-a376-e43994032a97","ios":"levelo://app?vid=481e547a-96e3-403a-a376-e43994032a97"},"vehicle_type_id":"4","last_reported":1707073575,"current_range_meters":31200,"station_id":"ce4bgth2rcd13ifvqch0","pricing_plan_id":"free"},{"bike_id":"2929d663-c47c-4a1f-9a9d-dd59b929e6df","system_id":"levelo_inurba_marseille","lat":43.30304,"lon":5.368987,"is_reserved":false,"is_disabled":false,"rental_uris":{"android":"levelo://app?vid=2929d663-c47c-4a1f-9a9d-dd59b929e6df","ios":"levelo://app?vid=2929d663-c47c-4a1f-9a9d-dd59b929e6df"},"vehicle_type_id":"4","last_reported":1707073575,"current_range_meters":18000,"station_id":"ce4bgqh2rcd13ifvqc5g","pricing_plan_id":"free"},{"bike_id":"89ecb38f-a81f-4d86-aa7c-79ca2c7fbaad","system_id":"levelo_inurba_marseille","lat":43.30304,"lon":5.368987,"is_reserved":false,"is_disabled":false,"rental_uris":{"android":"levelo://app?vid=89ecb38f-a81f-4d86-aa7c-79ca2c7fbaad","ios":"levelo://app?vid=89ecb38f-a81f-4d86-aa7c-79ca2c7fbaad"},"vehicle_type_id":"4","last_reported":1707073575,"current_range_meters":5200,"station_id":"ce4bgqh2rcd13ifvqc5g","pricing_plan_id":"free"},{"bike_id":"296f7d10-84e2-4311-917f-8b89c51d5302","system_id":"levelo_inurba_marseille","lat":43.301939,"lon":5.366286,"is_reserved":false,"is_disabled":false,"rental_uris":{"android":"levelo://app?vid=296f7d10-84e2-4311-917f-8b89c51d5302","ios":"levelo://app?vid=296f7d10-84e2-4311-917f-8b89c51d5302"},"vehicle_type_id":"4","last_reported":1707073575,"current_range_meters":27600,"station_id":"ce4bgrh2rcd13ifvqc8g","pricing_plan_id":"free"},{"bike_id":"20c51132-7ead-4088-9f0e-af0214de56be","system_id":"levelo_inurba_marseille","lat":43.314811,"lon":5.373103,"is_reserved":false,"is_disabled":false,"rental_uris":{"android":"levelo://app?vid=20c51132-7ead-4088-9f0e-af0214de56be","ios":"levelo://app?vid=20c51132-7ead-4088-9f0e-af0214de56be"},"vehicle_type_id":"4","last_reported":1707073575,"current_range_meters":13600,"station_id":"ce4bgt12rcd13ifvqcd0","pricing_plan_id":"free"},{"bike_id":"66003cf2-9137-425a-b37f-5a79c2993083","system_id":"levelo_inurba_marseille","lat":43.308012,"lon":5.381511,"is_reserved":false,"is_disabled":false,"rental_uris":{"android":"levelo://app?vid=66003cf2-9137-425a-b37f-5a79c2993083","ios":"levelo://app?vid=66003cf2-9137-425a-b37f-5a79c2993083"},"vehicle_type_id":"4","last_reported":1707073575,"current_range_meters":2800,"station_id":"ce4bgt12rcd13ifvqce0","pricing_plan_id":"free"},{"bike_id":"1f24e349-70e1-464e-a1bb-5cc593302560","system_id":"levelo_inurba_marseille","lat":43.308012,"lon":5.381511,"is_reserved":false,"is_disabled":false,"rental_uris":{"android":"levelo://app?vid=1f24e349-70e1-464e-a1bb-5cc593302560","ios":"levelo://app?vid=1f24e349-70e1-464e-a1bb-5cc593302560"},"vehicle_type_id":"4","last_reported":1707073575,"current_range_meters":25200,"station_id":"ce4bgt12rcd13ifvqce0","pricing_plan_id":"free"},{"bike_id":"6596ee75-3763-41f2-b837-c7da74449e66","system_id":"levelo_inurba_marseille","lat":43.308012,"lon":5.381511,"is_reserved":false,"is_disabled":false,"rental_uris":{"android":"levelo://app?vid=6596ee75-3763-41f2-b837-c7da74449e66","ios":"levelo://app?vid=6596ee75-3763-41f2-b837-c7da74449e66"},"vehicle_type_id":"4","last_reported":1707073575,"current_range_meters":9600,"station_id":"ce4bgt12rcd13ifvqce0","pricing_plan_id":"free"},{"bike_id":"e4c42458-47b7-4f06-a2ef-4ee0d35fd1be","system_id":"levelo_inurba_marseille","lat":43.304606,"lon":5.379026,"is_reserved":false,"is_disabled":false,"rental_uris":{"android":"levelo://app?vid=e4c42458-47b7-4f06-a2ef-4ee0d35fd1be","ios":"levelo://app?vid=e4c42458-47b7-4f06-a2ef-4ee0d35fd1be"},"vehicle_type_id":"4","last_reported":1707073575,"current_range_meters":26800,"station_id":"ce4bgup2rcd13ifvqcn0","pricing_plan_id":"free"},{"bike_id":"d857196a-a759-4aba-9437-ba57d1dceab9","system_id":"levelo_inurba_marseille","lat":43.324771,"lon":5.36557,"is_reserved":false,"is_disabled":false,"rental_uris":{"android":"levelo://app?vid=d857196a-a759-4aba-9437-ba57d1dceab9","ios":"levelo://app?vid=d857196a-a759-4aba-9437-ba57d1dceab9"},"vehicle_type_id":"4","last_reported":1707073575,"current_range_meters":400,"station_id":"ce4bhs12rcd13ifvqhvg","pricing_plan_id":"free"},{"bike_id":"bc974708-dcbd-4a8a-ac0d-164e8d7c65dc","system_id":"levelo_inurba_marseille","lat":43.32481,"lon":5.36566,"is_reserved":false,"is_disabled":false,"rental_uris":{"android":"levelo://app?vid=bc974708-dcbd-4a8a-ac0d-164e8d7c65dc","ios":"levelo://app?vid=bc974708-dcbd-4a8a-ac0d-164e8d7c65dc"},"vehicle_type_id":"4","last_reported":1707073575,"current_range_meters":20800,"station_id":"ce4bhs12rcd13ifvqhvg","pricing_plan_id":"free"},{"bike_id":"cc1f1f55-cfe9-4d66-88ed-570dd139ade7","system_id":"levelo_inurba_marseille","lat":43.324913,"lon":5.365726,"is_reserved":false,"is_disabled":false,"rental_uris":{"android":"levelo://app?vid=cc1f1f55-cfe9-4d66-88ed-570dd139ade7","ios":"levelo://app?vid=cc1f1f55-cfe9-4d66-88ed-570dd139ade7"},"vehicle_type_id":"4","last_reported":1707073575,"current_range_meters":3600,"station_id":"ce4bhs12rcd13ifvqhvg","pricing_plan_id":"free"},{"bike_id":"ed525504-c6e4-4dcb-afab-b1d02cda983b","system_id":"levelo_inurba_marseille","lat":43.31073,"lon":5.38351,"is_reserved":false,"is_disabled":false,"rental_uris":{"android":"levelo://app?vid=ed525504-c6e4-4dcb-afab-b1d02cda983b","ios":"levelo://app?vid=ed525504-c6e4-4dcb-afab-b1d02cda983b"},"vehicle_type_id":"4","last_reported":1707073575,"current_range_meters":0,"station_id":"ce4bgv92rcd13ifvqcr0","pricing_plan_id":"free"},{"bike_id":"6cd5e01f-64b2-499f-b7b3-fe09456ae19d","system_id":"levelo_inurba_marseille","lat":43.31074,"lon":5.38352,"is_reserved":false,"is_disabled":false,"rental_uris":{"android":"levelo://app?vid=6cd5e01f-64b2-499f-b7b3-fe09456ae19d","ios":"levelo://app?vid=6cd5e01f-64b2-499f-b7b3-fe09456ae19d"},"vehicle_type_id":"4","last_reported":1707073575,"current_range_meters":10400,"station_id":"ce4bgv92rcd13ifvqcr0","pricing_plan_id":"free"},{"bike_id":"0ca91c92-c7c2-4055-bf1b-07d2914cf37b","system_id":"levelo_inurba_marseille","lat":43.31077,"lon":5.38353,"is_reserved":false,"is_disabled":false,"rental_uris":{"android":"levelo://app?vid=0ca91c92-c7c2-4055-bf1b-07d2914cf37b","ios":"levelo://app?vid=0ca91c92-c7c2-4055-bf1b-07d2914cf37b"},"vehicle_type_id":"4","last_reported":1707073575,"current_range_meters":28000,"station_id":"ce4bgv92rcd13ifvqcr0","pricing_plan_id":"free"},{"bike_id":"5de8a454-050f-49f2-ac40-81f654e7671e","system_id":"levelo_inurba_marseille","lat":43.31073,"lon":5.38356,"is_reserved":false,"is_disabled":false,"rental_uris":{"android":"levelo://app?vid=5de8a454-050f-49f2-ac40-81f654e7671e","ios":"levelo://app?vid=5de8a454-050f-49f2-ac40-81f654e7671e"},"vehicle_type_id":"4","last_reported":1707073575,"current_range_meters":9600,"station_id":"ce4bgv92rcd13ifvqcr0","pricing_plan_id":"free"},{"bike_id":"41f36db4-ce90-4ac0-910f-db7d977875b4","system_id":"levelo_inurba_marseille","lat":43.31074,"lon":5.38358,"is_reserved":false,"is_disabled":false,"rental_uris":{"android":"levelo://app?vid=41f36db4-ce90-4ac0-910f-db7d977875b4","ios":"levelo://app?vid=41f36db4-ce90-4ac0-910f-db7d977875b4"},"vehicle_type_id":"4","last_reported":1707073575,"current_range_meters":0,"station_id":"ce4bgv92rcd13ifvqcr0","pricing_plan_id":"free"},{"bike_id":"f3cf5a27-dedf-4953-9170-31e366c331b1","system_id":"levelo_inurba_marseille","lat":43.31073,"lon":5.38358,"is_reserved":false,"is_disabled":false,"rental_uris":{"android":"levelo://app?vid=f3cf5a27-dedf-4953-9170-31e366c331b1","ios":"levelo://app?vid=f3cf5a27-dedf-4953-9170-31e366c331b1"},"vehicle_type_id":"4","last_reported":1707073575,"current_range_meters":16400,"station_id":"ce4bgv92rcd13ifvqcr0","pricing_plan_id":"free"},{"bike_id":"e24f2181-fda1-4bc6-9c11-f93b67281b8f","system_id":"levelo_inurba_marseille","lat":43.31082,"lon":5.38367,"is_reserved":false,"is_disabled":false,"rental_uris":{"android":"levelo://app?vid=e24f2181-fda1-4bc6-9c11-f93b67281b8f","ios":"levelo://app?vid=e24f2181-fda1-4bc6-9c11-f93b67281b8f"},"vehicle_type_id":"4","last_reported":1707073575,"current_range_meters":12000,"station_id":"ce4bgv92rcd13ifvqcr0","pricing_plan_id":"free"},{"bike_id":"7ab3f1c0-5e1f-4d1c-9104-38b168e3a08c","system_id":"levelo_inurba_marseille","lat":43.31077,"lon":5.38368,"is_reserved":false,"is_disabled":false,"rental_uris":{"android":"levelo://app?vid=7ab3f1c0-5e1f-4d1c-9104-38b168e3a08c","ios":"levelo://app?vid=7ab3f1c0-5e1f-4d1c-9104-38b168e3a08c"},"vehicle_type_id":"4","last_reported":1707073575,"current_range_meters":2800,"station_id":"ce4bgv92rcd13ifvqcr0","pricing_plan_id":"free"},{"bike_id":"72996073-5953-4222-b7d2-9518f4dadde7","system_id":"levelo_inurba_marseille","lat":43.30135,"lon":5.37423,"is_reserved":false,"is_disabled":false,"rental_uris":{"android":"levelo://app?vid=72996073-5953-4222-b7d2-9518f4dadde7","ios":"levelo://app?vid=72996073-5953-4222-b7d2-9518f4dadde7"},"vehicle_type_id":"4","last_reported":1707073575,"current_range_meters":19200,"station_id":"ce4bgs92rcd13ifvqcc0","pricing_plan_id":"free"},{"bike_id":"f4722360-683c-4330-a41f-ae15de548a95","system_id":"levelo_inurba_marseille","lat":43.319935,"lon":5.381699,"is_reserved":false,"is_disabled":false,"rental_uris":{"android":"levelo://app?vid=f4722360-683c-4330-a41f-ae15de548a95","ios":"levelo://app?vid=f4722360-683c-4330-a41f-ae15de548a95"},"vehicle_type_id":"4","last_reported":1707073575,"current_range_meters":29200,"station_id":"ce4bhr12rcd13ifvqhpg","pricing_plan_id":"free"},{"bike_id":"b7c0f36a-baf5-460f-bbf4-55378820706b","system_id":"levelo_inurba_marseille","lat":43.299724,"lon":5.371829,"is_reserved":false,"is_disabled":false,"rental_uris":{"android":"levelo://app?vid=b7c0f36a-baf5-460f-bbf4-55378820706b","ios":"levelo://app?vid=b7c0f36a-baf5-460f-bbf4-55378820706b"},"vehicle_type_id":"4","last_reported":1707073575,"current_range_meters":0,"station_id":"ce4bgr92rcd13ifvqc7g","pricing_plan_id":"free"},{"bike_id":"6b6cec55-8e41-4bbc-a9f3-758d7a658a3a","system_id":"levelo_inurba_marseille","lat":43.299724,"lon":5.371829,"is_reserved":false,"is_disabled":false,"rental_uris":{"android":"levelo://app?vid=6b6cec55-8e41-4bbc-a9f3-758d7a658a3a","ios":"levelo://app?vid=6b6cec55-8e41-4bbc-a9f3-758d7a658a3a"},"vehicle_type_id":"4","last_reported":1707073575,"current_range_meters":13200,"station_id":"ce4bgr92rcd13ifvqc7g","pricing_plan_id":"free"},{"bike_id":"d73908e2-2bfd-489b-804e-d4e95fac72d2","system_id":"levelo_inurba_marseille","lat":43.326525,"lon":5.36078,"is_reserved":false,"is_disabled":false,"rental_uris":{"android":"levelo://app?vid=d73908e2-2bfd-489b-804e-d4e95fac72d2","ios":"levelo://app?vid=d73908e2-2bfd-489b-804e-d4e95fac72d2"},"vehicle_type_id":"4","last_reported":1707073575,"current_range_meters":21200,"station_id":"","pricing_plan_id":"free"},{"bike_id":"bdd7670c-11b8-4dd5-abd7-9484b90c5ec4","system_id":"levelo_inurba_marseille","lat":43.305364,"lon":5.384119,"is_reserved":false,"is_disabled":false,"rental_uris":{"android":"levelo://app?vid=bdd7670c-11b8-4dd5-abd7-9484b90c5ec4","ios":"levelo://app?vid=bdd7670c-11b8-4dd5-abd7-9484b90c5ec4"},"vehicle_type_id":"4","last_reported":1707073575,"current_range_meters":28800,"station_id":"ce4bgg92rcd13ifvqb30","pricing_plan_id":"free"},{"bike_id":"2185039a-2e44-4ea4-a511-68f38d8b40c6","system_id":"levelo_inurba_marseille","lat":43.298433,"lon":5.362774,"is_reserved":false,"is_disabled":false,"rental_uris":{"android":"levelo://app?vid=2185039a-2e44-4ea4-a511-68f38d8b40c6","ios":"levelo://app?vid=2185039a-2e44-4ea4-a511-68f38d8b40c6"},"vehicle_type_id":"4","last_reported":1707073575,"current_range_meters":2000,"station_id":"ce4bgpp2rcd13ifvqc3g","pricing_plan_id":"free"},{"bike_id":"e88448bd-f1bf-48e2-a5b8-47647accb95e","system_id":"levelo_inurba_marseille","lat":43.305364,"lon":5.384119,"is_reserved":false,"is_disabled":false,"rental_uris":{"android":"levelo://app?vid=e88448bd-f1bf-48e2-a5b8-47647accb95e","ios":"levelo://app?vid=e88448bd-f1bf-48e2-a5b8-47647accb95e"},"vehicle_type_id":"4","last_reported":1707073575,"current_range_meters":26400,"station_id":"ce4bgg92rcd13ifvqb30","pricing_plan_id":"free"},{"bike_id":"e442cf19-6928-4e63-99cc-de3ee424f330","system_id":"levelo_inurba_marseille","lat":43.305364,"lon":5.384119,"is_reserved":false,"is_disabled":false,"rental_uris":{"android":"levelo://app?vid=e442cf19-6928-4e63-99cc-de3ee424f330","ios":"levelo://app?vid=e442cf19-6928-4e63-99cc-de3ee424f330"},"vehicle_type_id":"4","last_reported":1707073575,"current_range_meters":24400,"station_id":"ce4bgg92rcd13ifvqb30","pricing_plan_id":"free"},{"bike_id":"edab3b5a-cfba-4474-8e65-fdad51aad472","system_id":"levelo_inurba_marseille","lat":43.305364,"lon":5.384119,"is_reserved":false,"is_disabled":false,"rental_uris":{"android":"levelo://app?vid=edab3b5a-cfba-4474-8e65-fdad51aad472","ios":"levelo://app?vid=edab3b5a-cfba-4474-8e65-fdad51aad472"},"vehicle_type_id":"4","last_reported":1707073575,"current_range_meters":5200,"station_id":"ce4bgg92rcd13ifvqb30","pricing_plan_id":"free"},{"bike_id":"d253abdd-3c81-4bb3-8bf8-ba89284f8d72","system_id":"levelo_inurba_marseille","lat":43.311722,"lon":5.387247,"is_reserved":false,"is_disabled":false,"rental_uris":{"android":"levelo://app?vid=d253abdd-3c81-4bb3-8bf8-ba89284f8d72","ios":"levelo://app?vid=d253abdd-3c81-4bb3-8bf8-ba89284f8d72"},"vehicle_type_id":"4","last_reported":1707073575,"current_range_meters":25600,"station_id":"ce4bgv12rcd13ifvqcp0","pricing_plan_id":"free"},{"bike_id":"ef01ec51-be4d-4a71-bebd-40e3b2904bf4","system_id":"levelo_inurba_marseille","lat":43.297794,"lon":5.370888,"is_reserved":false,"is_disabled":false,"rental_uris":{"android":"levelo://app?vid=ef01ec51-be4d-4a71-bebd-40e3b2904bf4","ios":"levelo://app?vid=ef01ec51-be4d-4a71-bebd-40e3b2904bf4"},"vehicle_type_id":"4","last_reported":1707073575,"current_range_meters":27200,"station_id":"ce4bgop2rcd13ifvqc1g","pricing_plan_id":"free"},{"bike_id":"5045d5a2-5324-409f-93df-20162b8fa475","system_id":"levelo_inurba_marseille","lat":43.297774,"lon":5.370875,"is_reserved":false,"is_disabled":false,"rental_uris":{"android":"levelo://app?vid=5045d5a2-5324-409f-93df-20162b8fa475","ios":"levelo://app?vid=5045d5a2-5324-409f-93df-20162b8fa475"},"vehicle_type_id":"4","last_reported":1707073575,"current_range_meters":12000,"station_id":"ce4bgop2rcd13ifvqc1g","pricing_plan_id":"free"},{"bike_id":"dda919da-b4cd-4a9f-a180-9e8be61d124e","system_id":"levelo_inurba_marseille","lat":43.322872,"lon":5.382756,"is_reserved":false,"is_disabled":false,"rental_uris":{"android":"levelo://app?vid=dda919da-b4cd-4a9f-a180-9e8be61d124e","ios":"levelo://app?vid=dda919da-b4cd-4a9f-a180-9e8be61d124e"},"vehicle_type_id":"4","last_reported":1707073575,"current_range_meters":9200,"station_id":"ce4bhr12rcd13ifvqhqg","pricing_plan_id":"free"},{"bike_id":"8b023912-5267-4e1c-a403-4d70b425cebe","system_id":"levelo_inurba_marseille","lat":43.32287,"lon":5.38275,"is_reserved":false,"is_disabled":false,"rental_uris":{"android":"levelo://app?vid=8b023912-5267-4e1c-a403-4d70b425cebe","ios":"levelo://app?vid=8b023912-5267-4e1c-a403-4d70b425cebe"},"vehicle_type_id":"4","last_reported":1707073575,"current_range_meters":28400,"station_id":"ce4bhr12rcd13ifvqhqg","pricing_plan_id":"free"},{"bike_id":"1900e2ea-9239-49b1-933e-57903fa99707","system_id":"levelo_inurba_marseille","lat":43.32826,"lon":5.36695,"is_reserved":false,"is_disabled":false,"rental_uris":{"android":"levelo://app?vid=1900e2ea-9239-49b1-933e-57903fa99707","ios":"levelo://app?vid=1900e2ea-9239-49b1-933e-57903fa99707"},"vehicle_type_id":"4","last_reported":1707073575,"current_range_meters":10000,"station_id":"ce4bhs92rcd13ifvqi0g","pricing_plan_id":"free"},{"bike_id":"536f5307-f798-4ec9-86a8-2c183333a95a","system_id":"levelo_inurba_marseille","lat":43.32828,"lon":5.36689,"is_reserved":false,"is_disabled":false,"rental_uris":{"android":"levelo://app?vid=536f5307-f798-4ec9-86a8-2c183333a95a","ios":"levelo://app?vid=536f5307-f798-4ec9-86a8-2c183333a95a"},"vehicle_type_id":"4","last_reported":1707073575,"current_range_meters":12400,"station_id":"ce4bhs92rcd13ifvqi0g","pricing_plan_id":"free"},{"bike_id":"0c67a4c0-65a3-4545-98f1-5ee9ddb7f5c7","system_id":"levelo_inurba_marseille","lat":43.328371,"lon":5.366909,"is_reserved":false,"is_disabled":false,"rental_uris":{"android":"levelo://app?vid=0c67a4c0-65a3-4545-98f1-5ee9ddb7f5c7","ios":"levelo://app?vid=0c67a4c0-65a3-4545-98f1-5ee9ddb7f5c7"},"vehicle_type_id":"4","last_reported":1707073575,"current_range_meters":31200,"station_id":"ce4bhs92rcd13ifvqi0g","pricing_plan_id":"free"},{"bike_id":"3ce17abc-6e52-4fd4-a4a8-c47eb9e2533e","system_id":"levelo_inurba_marseille","lat":43.297163,"lon":5.365866,"is_reserved":false,"is_disabled":false,"rental_uris":{"android":"levelo://app?vid=3ce17abc-6e52-4fd4-a4a8-c47eb9e2533e","ios":"levelo://app?vid=3ce17abc-6e52-4fd4-a4a8-c47eb9e2533e"},"vehicle_type_id":"4","last_reported":1707073575,"current_range_meters":6400,"station_id":"ce4bgn12rcd13ifvqbt0","pricing_plan_id":"free"},{"bike_id":"092f70a3-ee49-43d8-9f37-d83d1ed80150","system_id":"levelo_inurba_marseille","lat":43.297163,"lon":5.365866,"is_reserved":false,"is_disabled":false,"rental_uris":{"android":"levelo://app?vid=092f70a3-ee49-43d8-9f37-d83d1ed80150","ios":"levelo://app?vid=092f70a3-ee49-43d8-9f37-d83d1ed80150"},"vehicle_type_id":"4","last_reported":1707073575,"current_range_meters":26400,"station_id":"ce4bgn12rcd13ifvqbt0","pricing_plan_id":"free"},{"bike_id":"8bea6ee2-bb12-4611-84ff-9527b54da0c8","system_id":"levelo_inurba_marseille","lat":43.29672,"lon":5.36794,"is_reserved":false,"is_disabled":false,"rental_uris":{"android":"levelo://app?vid=8bea6ee2-bb12-4611-84ff-9527b54da0c8","ios":"levelo://app?vid=8bea6ee2-bb12-4611-84ff-9527b54da0c8"},"vehicle_type_id":"4","last_reported":1707073575,"current_range_meters":28000,"station_id":"","pricing_plan_id":"free"},{"bike_id":"62d378d5-0f8f-451a-83e1-03606cdd4bf8","system_id":"levelo_inurba_marseille","lat":43.29573,"lon":5.367355,"is_reserved":false,"is_disabled":false,"rental_uris":{"android":"levelo://app?vid=62d378d5-0f8f-451a-83e1-03606cdd4bf8","ios":"levelo://app?vid=62d378d5-0f8f-451a-83e1-03606cdd4bf8"},"vehicle_type_id":"4","last_reported":1707073575,"current_range_meters":2000,"station_id":"ce4bgph2rcd13ifvqc2g","pricing_plan_id":"free"},{"bike_id":"27587aa3-88c3-4080-a123-81e53f7ba500","system_id":"levelo_inurba_marseille","lat":43.29573,"lon":5.367355,"is_reserved":false,"is_disabled":false,"rental_uris":{"android":"levelo://app?vid=27587aa3-88c3-4080-a123-81e53f7ba500","ios":"levelo://app?vid=27587aa3-88c3-4080-a123-81e53f7ba500"},"vehicle_type_id":"4","last_reported":1707073575,"current_range_meters":30000,"station_id":"ce4bgph2rcd13ifvqc2g","pricing_plan_id":"free"},{"bike_id":"11797203-6594-4d90-a7e8-818eb25439db","system_id":"levelo_inurba_marseille","lat":43.296921,"lon":5.376579,"is_reserved":false,"is_disabled":false,"rental_uris":{"android":"levelo://app?vid=11797203-6594-4d90-a7e8-818eb25439db","ios":"levelo://app?vid=11797203-6594-4d90-a7e8-818eb25439db"},"vehicle_type_id":"4","last_reported":1707073575,"current_range_meters":0,"station_id":"ce4bgkh2rcd13ifvqbl0","pricing_plan_id":"free"},{"bike_id":"e71dbeb2-bdcd-41a9-9e92-b0477debf34d","system_id":"levelo_inurba_marseille","lat":43.296439,"lon":5.374518,"is_reserved":false,"is_disabled":false,"rental_uris":{"android":"levelo://app?vid=e71dbeb2-bdcd-41a9-9e92-b0477debf34d","ios":"levelo://app?vid=e71dbeb2-bdcd-41a9-9e92-b0477debf34d"},"vehicle_type_id":"4","last_reported":1707073575,"current_range_meters":11600,"station_id":"","pricing_plan_id":"free"},{"bike_id":"c8044525-f354-4238-94bb-e96e9edd4140","system_id":"levelo_inurba_marseille","lat":43.299028,"lon":5.381509,"is_reserved":false,"is_disabled":false,"rental_uris":{"android":"levelo://app?vid=c8044525-f354-4238-94bb-e96e9edd4140","ios":"levelo://app?vid=c8044525-f354-4238-94bb-e96e9edd4140"},"vehicle_type_id":"4","last_reported":1707073575,"current_range_meters":3600,"station_id":"ce4bgj12rcd13ifvqbc0","pricing_plan_id":"free"},{"bike_id":"e69596bb-4231-461d-afd1-0b5b425fe8e9","system_id":"levelo_inurba_marseille","lat":43.309589,"lon":5.390258,"is_reserved":false,"is_disabled":false,"rental_uris":{"android":"levelo://app?vid=e69596bb-4231-461d-afd1-0b5b425fe8e9","ios":"levelo://app?vid=e69596bb-4231-461d-afd1-0b5b425fe8e9"},"vehicle_type_id":"4","last_reported":1707073575,"current_range_meters":6800,"station_id":"ce4bgup2rcd13ifvqco0","pricing_plan_id":"free"},{"bike_id":"046447fa-7bf4-4be8-9b99-99a633c47a0b","system_id":"levelo_inurba_marseille","lat":43.299028,"lon":5.381509,"is_reserved":false,"is_disabled":false,"rental_uris":{"android":"levelo://app?vid=046447fa-7bf4-4be8-9b99-99a633c47a0b","ios":"levelo://app?vid=046447fa-7bf4-4be8-9b99-99a633c47a0b"},"vehicle_type_id":"4","last_reported":1707073575,"current_range_meters":26800,"station_id":"ce4bgj12rcd13ifvqbc0","pricing_plan_id":"free"},{"bike_id":"c5bfcb26-a759-40ae-b92a-b3202258d126","system_id":"levelo_inurba_marseille","lat":43.309589,"lon":5.390258,"is_reserved":false,"is_disabled":false,"rental_uris":{"android":"levelo://app?vid=c5bfcb26-a759-40ae-b92a-b3202258d126","ios":"levelo://app?vid=c5bfcb26-a759-40ae-b92a-b3202258d126"},"vehicle_type_id":"4","last_reported":1707073575,"current_range_meters":12400,"station_id":"ce4bgup2rcd13ifvqco0","pricing_plan_id":"free"},{"bike_id":"5667a9b8-2b04-44cd-a729-68a187e8e579","system_id":"levelo_inurba_marseille","lat":43.317557,"lon":5.390173,"is_reserved":false,"is_disabled":false,"rental_uris":{"android":"levelo://app?vid=5667a9b8-2b04-44cd-a729-68a187e8e579","ios":"levelo://app?vid=5667a9b8-2b04-44cd-a729-68a187e8e579"},"vehicle_type_id":"4","last_reported":1707073575,"current_range_meters":19200,"station_id":"ce4bhqp2rcd13ifvqhng","pricing_plan_id":"free"},{"bike_id":"2a286b63-3c4a-4893-8f11-dd6a58a41ee4","system_id":"levelo_inurba_marseille","lat":43.31758,"lon":5.3902,"is_reserved":false,"is_disabled":false,"rental_uris":{"android":"levelo://app?vid=2a286b63-3c4a-4893-8f11-dd6a58a41ee4","ios":"levelo://app?vid=2a286b63-3c4a-4893-8f11-dd6a58a41ee4"},"vehicle_type_id":"4","last_reported":1707073575,"current_range_meters":9600,"station_id":"ce4bhqp2rcd13ifvqhng","pricing_plan_id":"free"},{"bike_id":"1033b78d-f901-4cfa-8cae-54cb1e173be4","system_id":"levelo_inurba_marseille","lat":43.317557,"lon":5.390173,"is_reserved":false,"is_disabled":false,"rental_uris":{"android":"levelo://app?vid=1033b78d-f901-4cfa-8cae-54cb1e173be4","ios":"levelo://app?vid=1033b78d-f901-4cfa-8cae-54cb1e173be4"},"vehicle_type_id":"4","last_reported":1707073575,"current_range_meters":30000,"station_id":"ce4bhqp2rcd13ifvqhng","pricing_plan_id":"free"},{"bike_id":"40a85205-af79-43c2-bdc9-257280312aae","system_id":"levelo_inurba_marseille","lat":43.317548,"lon":5.39026,"is_reserved":false,"is_disabled":false,"rental_uris":{"android":"levelo://app?vid=40a85205-af79-43c2-bdc9-257280312aae","ios":"levelo://app?vid=40a85205-af79-43c2-bdc9-257280312aae"},"vehicle_type_id":"4","last_reported":1707073575,"current_range_meters":28000,"station_id":"ce4bhqp2rcd13ifvqhng","pricing_plan_id":"free"},{"bike_id":"86eba5ee-3f3e-465e-879d-a26eca611b6f","system_id":"levelo_inurba_marseille","lat":43.318289,"lon":5.390274,"is_reserved":false,"is_disabled":false,"rental_uris":{"android":"levelo://app?vid=86eba5ee-3f3e-465e-879d-a26eca611b6f","ios":"levelo://app?vid=86eba5ee-3f3e-465e-879d-a26eca611b6f"},"vehicle_type_id":"4","last_reported":1707073575,"current_range_meters":16400,"station_id":"","pricing_plan_id":"free"},{"bike_id":"5532ff4f-a3e2-4d6e-8445-b7f2fa1696f3","system_id":"levelo_inurba_marseille","lat":43.298037,"lon":5.381066,"is_reserved":false,"is_disabled":false,"rental_uris":{"android":"levelo://app?vid=5532ff4f-a3e2-4d6e-8445-b7f2fa1696f3","ios":"levelo://app?vid=5532ff4f-a3e2-4d6e-8445-b7f2fa1696f3"},"vehicle_type_id":"4","last_reported":1707073575,"current_range_meters":6800,"station_id":"ce4bgip2rcd13ifvqbb0","pricing_plan_id":"free"},{"bike_id":"31d42a40-9727-440d-ad8e-e22e340934c6","system_id":"levelo_inurba_marseille","lat":43.298037,"lon":5.381066,"is_reserved":false,"is_disabled":false,"rental_uris":{"android":"levelo://app?vid=31d42a40-9727-440d-ad8e-e22e340934c6","ios":"levelo://app?vid=31d42a40-9727-440d-ad8e-e22e340934c6"},"vehicle_type_id":"4","last_reported":1707073575,"current_range_meters":6000,"station_id":"ce4bgip2rcd13ifvqbb0","pricing_plan_id":"free"},{"bike_id":"50ad4e9a-02fa-4150-b4de-34eede7b3ad0","system_id":"levelo_inurba_marseille","lat":43.296263,"lon":5.377094,"is_reserved":false,"is_disabled":false,"rental_uris":{"android":"levelo://app?vid=50ad4e9a-02fa-4150-b4de-34eede7b3ad0","ios":"levelo://app?vid=50ad4e9a-02fa-4150-b4de-34eede7b3ad0"},"vehicle_type_id":"4","last_reported":1707073575,"current_range_meters":24400,"station_id":"ce4bgi92rcd13ifvqb90","pricing_plan_id":"free"},{"bike_id":"b0bec928-6af8-43cf-b4ea-4769b8006427","system_id":"levelo_inurba_marseille","lat":43.295279,"lon":5.375048,"is_reserved":false,"is_disabled":false,"rental_uris":{"android":"levelo://app?vid=b0bec928-6af8-43cf-b4ea-4769b8006427","ios":"levelo://app?vid=b0bec928-6af8-43cf-b4ea-4769b8006427"},"vehicle_type_id":"4","last_reported":1707073575,"current_range_meters":0,"station_id":"ce4bgkp2rcd13ifvqbmg","pricing_plan_id":"free"},{"bike_id":"19a147dc-802e-413d-918b-2a824624287d","system_id":"levelo_inurba_marseille","lat":43.299707,"lon":5.384859,"is_reserved":false,"is_disabled":false,"rental_uris":{"android":"levelo://app?vid=19a147dc-802e-413d-918b-2a824624287d","ios":"levelo://app?vid=19a147dc-802e-413d-918b-2a824624287d"},"vehicle_type_id":"4","last_reported":1707073575,"current_range_meters":0,"station_id":"ce4bgj92rcd13ifvqbd0","pricing_plan_id":"free"},{"bike_id":"e4df9eaa-e526-406f-a60b-b1e7ce7fa341","system_id":"levelo_inurba_marseille","lat":43.299707,"lon":5.384859,"is_reserved":false,"is_disabled":false,"rental_uris":{"android":"levelo://app?vid=e4df9eaa-e526-406f-a60b-b1e7ce7fa341","ios":"levelo://app?vid=e4df9eaa-e526-406f-a60b-b1e7ce7fa341"},"vehicle_type_id":"4","last_reported":1707073575,"current_range_meters":5200,"station_id":"ce4bgj92rcd13ifvqbd0","pricing_plan_id":"free"},{"bike_id":"cf2f2173-ea51-4d1b-b8b9-fc9ca1eaca3c","system_id":"levelo_inurba_marseille","lat":43.2997,"lon":5.38499,"is_reserved":false,"is_disabled":false,"rental_uris":{"android":"levelo://app?vid=cf2f2173-ea51-4d1b-b8b9-fc9ca1eaca3c","ios":"levelo://app?vid=cf2f2173-ea51-4d1b-b8b9-fc9ca1eaca3c"},"vehicle_type_id":"4","last_reported":1707073575,"current_range_meters":31200,"station_id":"ce4bgj92rcd13ifvqbd0","pricing_plan_id":"free"},{"bike_id":"b6467ac4-2a34-43de-8309-e07a0385183b","system_id":"levelo_inurba_marseille","lat":43.29963,"lon":5.38502,"is_reserved":false,"is_disabled":false,"rental_uris":{"android":"levelo://app?vid=b6467ac4-2a34-43de-8309-e07a0385183b","ios":"levelo://app?vid=b6467ac4-2a34-43de-8309-e07a0385183b"},"vehicle_type_id":"4","last_reported":1707073575,"current_range_meters":1200,"station_id":"ce4bgj92rcd13ifvqbd0","pricing_plan_id":"free"},{"bike_id":"73ccd575-1524-4076-8af4-db92a3db6a47","system_id":"levelo_inurba_marseille","lat":43.299313,"lon":5.384918,"is_reserved":false,"is_disabled":false,"rental_uris":{"android":"levelo://app?vid=73ccd575-1524-4076-8af4-db92a3db6a47","ios":"levelo://app?vid=73ccd575-1524-4076-8af4-db92a3db6a47"},"vehicle_type_id":"4","last_reported":1707073575,"current_range_meters":1600,"station_id":"ce4bgj92rcd13ifvqbd0","pricing_plan_id":"free"},{"bike_id":"f459bcc8-96d9-431d-bb45-ce1f50e6d398","system_id":"levelo_inurba_marseille","lat":43.32359,"lon":5.388828,"is_reserved":false,"is_disabled":false,"rental_uris":{"android":"levelo://app?vid=f459bcc8-96d9-431d-bb45-ce1f50e6d398","ios":"levelo://app?vid=f459bcc8-96d9-431d-bb45-ce1f50e6d398"},"vehicle_type_id":"4","last_reported":1707073575,"current_range_meters":1600,"station_id":"ce4bhqp2rcd13ifvqhog","pricing_plan_id":"free"},{"bike_id":"e7a95a5a-7d13-48ff-a856-827ce0771044","system_id":"levelo_inurba_marseille","lat":43.32362,"lon":5.3888,"is_reserved":false,"is_disabled":false,"rental_uris":{"android":"levelo://app?vid=e7a95a5a-7d13-48ff-a856-827ce0771044","ios":"levelo://app?vid=e7a95a5a-7d13-48ff-a856-827ce0771044"},"vehicle_type_id":"4","last_reported":1707073575,"current_range_meters":25200,"station_id":"ce4bhqp2rcd13ifvqhog","pricing_plan_id":"free"},{"bike_id":"999af2fa-7743-40b1-ad5a-09d74cc1efed","system_id":"levelo_inurba_marseille","lat":43.32364,"lon":5.38881,"is_reserved":false,"is_disabled":false,"rental_uris":{"android":"levelo://app?vid=999af2fa-7743-40b1-ad5a-09d74cc1efed","ios":"levelo://app?vid=999af2fa-7743-40b1-ad5a-09d74cc1efed"},"vehicle_type_id":"4","last_reported":1707073575,"current_range_meters":22000,"station_id":"ce4bhqp2rcd13ifvqhog","pricing_plan_id":"free"},{"bike_id":"804c846d-7579-41be-807b-e26f98b87b61","system_id":"levelo_inurba_marseille","lat":43.29602,"lon":5.381084,"is_reserved":false,"is_disabled":false,"rental_uris":{"android":"levelo://app?vid=804c846d-7579-41be-807b-e26f98b87b61","ios":"levelo://app?vid=804c846d-7579-41be-807b-e26f98b87b61"},"vehicle_type_id":"4","last_reported":1707073575,"current_range_meters":11200,"station_id":"ce4bgl12rcd13ifvqbo0","pricing_plan_id":"free"},{"bike_id":"11b2ff84-0922-45f3-a024-496c98d9bbfe","system_id":"levelo_inurba_marseille","lat":43.29592,"lon":5.38099,"is_reserved":false,"is_disabled":false,"rental_uris":{"android":"levelo://app?vid=11b2ff84-0922-45f3-a024-496c98d9bbfe","ios":"levelo://app?vid=11b2ff84-0922-45f3-a024-496c98d9bbfe"},"vehicle_type_id":"4","last_reported":1707073575,"current_range_meters":0,"station_id":"ce4bgl12rcd13ifvqbo0","pricing_plan_id":"free"},{"bike_id":"592c7a19-b3b7-49f1-ae4e-6ed7b4fb8a88","system_id":"levelo_inurba_marseille","lat":43.293249,"lon":5.371578,"is_reserved":false,"is_disabled":false,"rental_uris":{"android":"levelo://app?vid=592c7a19-b3b7-49f1-ae4e-6ed7b4fb8a88","ios":"levelo://app?vid=592c7a19-b3b7-49f1-ae4e-6ed7b4fb8a88"},"vehicle_type_id":"4","last_reported":1707073575,"current_range_meters":7200,"station_id":"ce4bgh92rcd13ifvqb40","pricing_plan_id":"free"},{"bike_id":"b8fdf4b4-a5cc-4d26-80c9-4c272e2f4a0c","system_id":"levelo_inurba_marseille","lat":43.29306,"lon":5.37174,"is_reserved":false,"is_disabled":false,"rental_uris":{"android":"levelo://app?vid=b8fdf4b4-a5cc-4d26-80c9-4c272e2f4a0c","ios":"levelo://app?vid=b8fdf4b4-a5cc-4d26-80c9-4c272e2f4a0c"},"vehicle_type_id":"4","last_reported":1707073575,"current_range_meters":11200,"station_id":"ce4bgh92rcd13ifvqb40","pricing_plan_id":"free"},{"bike_id":"5389274c-a774-41c4-aaae-1ce28e7c71db","system_id":"levelo_inurba_marseille","lat":43.29304,"lon":5.37177,"is_reserved":false,"is_disabled":false,"rental_uris":{"android":"levelo://app?vid=5389274c-a774-41c4-aaae-1ce28e7c71db","ios":"levelo://app?vid=5389274c-a774-41c4-aaae-1ce28e7c71db"},"vehicle_type_id":"4","last_reported":1707073575,"current_range_meters":5600,"station_id":"ce4bgh92rcd13ifvqb40","pricing_plan_id":"free"},{"bike_id":"0f90d953-2b5d-4548-9aee-1fb6d84320c1","system_id":"levelo_inurba_marseille","lat":43.29272,"lon":5.3684,"is_reserved":false,"is_disabled":false,"rental_uris":{"android":"levelo://app?vid=0f90d953-2b5d-4548-9aee-1fb6d84320c1","ios":"levelo://app?vid=0f90d953-2b5d-4548-9aee-1fb6d84320c1"},"vehicle_type_id":"4","last_reported":1707073575,"current_range_meters":0,"station_id":"ce4bhbp2rcd13ifvqesg","pricing_plan_id":"free"},{"bike_id":"9ae61289-e0b5-4282-a0bb-f8d7f2c694cb","system_id":"levelo_inurba_marseille","lat":43.293023,"lon":5.37449,"is_reserved":false,"is_disabled":false,"rental_uris":{"android":"levelo://app?vid=9ae61289-e0b5-4282-a0bb-f8d7f2c694cb","ios":"levelo://app?vid=9ae61289-e0b5-4282-a0bb-f8d7f2c694cb"},"vehicle_type_id":"4","last_reported":1707073575,"current_range_meters":0,"station_id":"ce4bgi12rcd13ifvqb70","pricing_plan_id":"free"},{"bike_id":"cbe71edd-3f53-4515-abba-5f061462d524","system_id":"levelo_inurba_marseille","lat":43.306106,"lon":5.393551,"is_reserved":false,"is_disabled":false,"rental_uris":{"android":"levelo://app?vid=cbe71edd-3f53-4515-abba-5f061462d524","ios":"levelo://app?vid=cbe71edd-3f53-4515-abba-5f061462d524"},"vehicle_type_id":"4","last_reported":1707073575,"current_range_meters":28000,"station_id":"ce4bh0p2rcd13ifvqd80","pricing_plan_id":"free"},{"bike_id":"8850f306-8faa-47ab-947d-0c1e11a7efaf","system_id":"levelo_inurba_marseille","lat":43.293009,"lon":5.374584,"is_reserved":false,"is_disabled":false,"rental_uris":{"android":"levelo://app?vid=8850f306-8faa-47ab-947d-0c1e11a7efaf","ios":"levelo://app?vid=8850f306-8faa-47ab-947d-0c1e11a7efaf"},"vehicle_type_id":"4","last_reported":1707073575,"current_range_meters":19200,"station_id":"ce4bgi12rcd13ifvqb70","pricing_plan_id":"free"},{"bike_id":"d3df372e-6b0e-482c-b10e-487dab3ab99e","system_id":"levelo_inurba_marseille","lat":43.30594,"lon":5.39356,"is_reserved":false,"is_disabled":false,"rental_uris":{"android":"levelo://app?vid=d3df372e-6b0e-482c-b10e-487dab3ab99e","ios":"levelo://app?vid=d3df372e-6b0e-482c-b10e-487dab3ab99e"},"vehicle_type_id":"4","last_reported":1707073575,"current_range_meters":1200,"station_id":"ce4bh0p2rcd13ifvqd80","pricing_plan_id":"free"},{"bike_id":"23d7ba28-37cd-45b7-8fc1-1d4764243323","system_id":"levelo_inurba_marseille","lat":43.305994,"lon":5.393687,"is_reserved":false,"is_disabled":false,"rental_uris":{"android":"levelo://app?vid=23d7ba28-37cd-45b7-8fc1-1d4764243323","ios":"levelo://app?vid=23d7ba28-37cd-45b7-8fc1-1d4764243323"},"vehicle_type_id":"4","last_reported":1707073575,"current_range_meters":400,"station_id":"ce4bh0p2rcd13ifvqd80","pricing_plan_id":"free"},{"bike_id":"7473e499-ea70-46aa-9e18-f327688d74ef","system_id":"levelo_inurba_marseille","lat":43.30591,"lon":5.39356,"is_reserved":false,"is_disabled":false,"rental_uris":{"android":"levelo://app?vid=7473e499-ea70-46aa-9e18-f327688d74ef","ios":"levelo://app?vid=7473e499-ea70-46aa-9e18-f327688d74ef"},"vehicle_type_id":"4","last_reported":1707073575,"current_range_meters":25200,"station_id":"ce4bh0p2rcd13ifvqd80","pricing_plan_id":"free"},{"bike_id":"beb1d294-ec7c-46bb-9d7b-bb19e3dcca54","system_id":"levelo_inurba_marseille","lat":43.305994,"lon":5.393687,"is_reserved":false,"is_disabled":false,"rental_uris":{"android":"levelo://app?vid=beb1d294-ec7c-46bb-9d7b-bb19e3dcca54","ios":"levelo://app?vid=beb1d294-ec7c-46bb-9d7b-bb19e3dcca54"},"vehicle_type_id":"4","last_reported":1707073575,"current_range_meters":16400,"station_id":"ce4bh0p2rcd13ifvqd80","pricing_plan_id":"free"},{"bike_id":"2c174866-960d-4bca-9772-10dd37273ca7","system_id":"levelo_inurba_marseille","lat":43.302992,"lon":5.392136,"is_reserved":false,"is_disabled":false,"rental_uris":{"android":"levelo://app?vid=2c174866-960d-4bca-9772-10dd37273ca7","ios":"levelo://app?vid=2c174866-960d-4bca-9772-10dd37273ca7"},"vehicle_type_id":"4","last_reported":1707073575,"current_range_meters":1200,"station_id":"ce4bgkh2rcd13ifvqbk0","pricing_plan_id":"free"},{"bike_id":"c54095a1-6ff5-4d36-843a-4c84435d2730","system_id":"levelo_inurba_marseille","lat":43.2936,"lon":5.37835,"is_reserved":false,"is_disabled":false,"rental_uris":{"android":"levelo://app?vid=c54095a1-6ff5-4d36-843a-4c84435d2730","ios":"levelo://app?vid=c54095a1-6ff5-4d36-843a-4c84435d2730"},"vehicle_type_id":"4","last_reported":1707073575,"current_range_meters":14400,"station_id":"ce4bgjh2rcd13ifvqbf0","pricing_plan_id":"free"},{"bike_id":"cabe351d-d7c5-4093-86c2-4ce7ab110c79","system_id":"levelo_inurba_marseille","lat":43.2936,"lon":5.37835,"is_reserved":false,"is_disabled":false,"rental_uris":{"android":"levelo://app?vid=cabe351d-d7c5-4093-86c2-4ce7ab110c79","ios":"levelo://app?vid=cabe351d-d7c5-4093-86c2-4ce7ab110c79"},"vehicle_type_id":"4","last_reported":1707073575,"current_range_meters":2800,"station_id":"ce4bgjh2rcd13ifvqbf0","pricing_plan_id":"free"},{"bike_id":"e87ffc37-c93b-4c3d-81de-406d1c0f7c87","system_id":"levelo_inurba_marseille","lat":43.300852,"lon":5.390859,"is_reserved":false,"is_disabled":false,"rental_uris":{"android":"levelo://app?vid=e87ffc37-c93b-4c3d-81de-406d1c0f7c87","ios":"levelo://app?vid=e87ffc37-c93b-4c3d-81de-406d1c0f7c87"},"vehicle_type_id":"4","last_reported":1707073575,"current_range_meters":28400,"station_id":"ce4bh192rcd13ifvqdb0","pricing_plan_id":"free"},{"bike_id":"3c7edcc7-ed00-48fa-8257-f6ccca95111e","system_id":"levelo_inurba_marseille","lat":43.2923,"lon":5.36065,"is_reserved":false,"is_disabled":false,"rental_uris":{"android":"levelo://app?vid=3c7edcc7-ed00-48fa-8257-f6ccca95111e","ios":"levelo://app?vid=3c7edcc7-ed00-48fa-8257-f6ccca95111e"},"vehicle_type_id":"4","last_reported":1707073575,"current_range_meters":0,"station_id":"ce4bhbh2rcd13ifvqeqg","pricing_plan_id":"free"},{"bike_id":"91903973-c2f7-40fe-8410-eb6682056b4e","system_id":"levelo_inurba_marseille","lat":43.30085,"lon":5.390856,"is_reserved":false,"is_disabled":false,"rental_uris":{"android":"levelo://app?vid=91903973-c2f7-40fe-8410-eb6682056b4e","ios":"levelo://app?vid=91903973-c2f7-40fe-8410-eb6682056b4e"},"vehicle_type_id":"4","last_reported":1707073575,"current_range_meters":1200,"station_id":"ce4bh192rcd13ifvqdb0","pricing_plan_id":"free"},{"bike_id":"10765507-56bf-4013-8a80-290ec7525965","system_id":"levelo_inurba_marseille","lat":43.30085,"lon":5.390856,"is_reserved":false,"is_disabled":false,"rental_uris":{"android":"levelo://app?vid=10765507-56bf-4013-8a80-290ec7525965","ios":"levelo://app?vid=10765507-56bf-4013-8a80-290ec7525965"},"vehicle_type_id":"4","last_reported":1707073575,"current_range_meters":1600,"station_id":"ce4bh192rcd13ifvqdb0","pricing_plan_id":"free"},{"bike_id":"b46e9818-e930-4133-adf9-66257c3f17cc","system_id":"levelo_inurba_marseille","lat":43.303002,"lon":5.392142,"is_reserved":false,"is_disabled":false,"rental_uris":{"android":"levelo://app?vid=b46e9818-e930-4133-adf9-66257c3f17cc","ios":"levelo://app?vid=b46e9818-e930-4133-adf9-66257c3f17cc"},"vehicle_type_id":"4","last_reported":1707073575,"current_range_meters":18400,"station_id":"ce4bgkh2rcd13ifvqbk0","pricing_plan_id":"free"},{"bike_id":"c3d83095-a8af-4d82-b9f8-1120a8a857f9","system_id":"levelo_inurba_marseille","lat":43.298764,"lon":5.388973,"is_reserved":false,"is_disabled":false,"rental_uris":{"android":"levelo://app?vid=c3d83095-a8af-4d82-b9f8-1120a8a857f9","ios":"levelo://app?vid=c3d83095-a8af-4d82-b9f8-1120a8a857f9"},"vehicle_type_id":"4","last_reported":1707073575,"current_range_meters":0,"station_id":"ce4bh392rcd13ifvqdl0","pricing_plan_id":"free"},{"bike_id":"6ef51a8f-1eea-46d3-b835-ac52293b7b21","system_id":"levelo_inurba_marseille","lat":43.298764,"lon":5.388973,"is_reserved":false,"is_disabled":false,"rental_uris":{"android":"levelo://app?vid=6ef51a8f-1eea-46d3-b835-ac52293b7b21","ios":"levelo://app?vid=6ef51a8f-1eea-46d3-b835-ac52293b7b21"},"vehicle_type_id":"4","last_reported":1707073575,"current_range_meters":22800,"station_id":"ce4bh392rcd13ifvqdl0","pricing_plan_id":"free"},{"bike_id":"68b66ed8-d53a-4783-98b3-c2a2966d2153","system_id":"levelo_inurba_marseille","lat":43.300852,"lon":5.390859,"is_reserved":false,"is_disabled":false,"rental_uris":{"android":"levelo://app?vid=68b66ed8-d53a-4783-98b3-c2a2966d2153","ios":"levelo://app?vid=68b66ed8-d53a-4783-98b3-c2a2966d2153"},"vehicle_type_id":"4","last_reported":1707073575,"current_range_meters":10800,"station_id":"ce4bh192rcd13ifvqdb0","pricing_plan_id":"free"},{"bike_id":"644c46c7-90e1-4280-ab6d-68e38567eeb4","system_id":"levelo_inurba_marseille","lat":43.293009,"lon":5.374584,"is_reserved":false,"is_disabled":false,"rental_uris":{"android":"levelo://app?vid=644c46c7-90e1-4280-ab6d-68e38567eeb4","ios":"levelo://app?vid=644c46c7-90e1-4280-ab6d-68e38567eeb4"},"vehicle_type_id":"4","last_reported":1707073575,"current_range_meters":26400,"station_id":"ce4bgi12rcd13ifvqb70","pricing_plan_id":"free"},{"bike_id":"02cd431b-6da1-4212-95a2-65d2e3802688","system_id":"levelo_inurba_marseille","lat":43.298764,"lon":5.388973,"is_reserved":false,"is_disabled":false,"rental_uris":{"android":"levelo://app?vid=02cd431b-6da1-4212-95a2-65d2e3802688","ios":"levelo://app?vid=02cd431b-6da1-4212-95a2-65d2e3802688"},"vehicle_type_id":"4","last_reported":1707073575,"current_range_meters":0,"station_id":"ce4bh392rcd13ifvqdl0","pricing_plan_id":"free"},{"bike_id":"a1bbfb50-b8f0-4e3c-9a75-1092c4d73bcd","system_id":"levelo_inurba_marseille","lat":43.298764,"lon":5.388973,"is_reserved":false,"is_disabled":false,"rental_uris":{"android":"levelo://app?vid=a1bbfb50-b8f0-4e3c-9a75-1092c4d73bcd","ios":"levelo://app?vid=a1bbfb50-b8f0-4e3c-9a75-1092c4d73bcd"},"vehicle_type_id":"4","last_reported":1707073575,"current_range_meters":18400,"station_id":"ce4bh392rcd13ifvqdl0","pricing_plan_id":"free"},{"bike_id":"71f4efac-4e7d-4887-8cd9-0a5a18531a30","system_id":"levelo_inurba_marseille","lat":43.298764,"lon":5.388973,"is_reserved":false,"is_disabled":false,"rental_uris":{"android":"levelo://app?vid=71f4efac-4e7d-4887-8cd9-0a5a18531a30","ios":"levelo://app?vid=71f4efac-4e7d-4887-8cd9-0a5a18531a30"},"vehicle_type_id":"4","last_reported":1707073575,"current_range_meters":4000,"station_id":"ce4bh392rcd13ifvqdl0","pricing_plan_id":"free"},{"bike_id":"183b2b80-bd5e-4fb7-b370-e3a322d4c493","system_id":"levelo_inurba_marseille","lat":43.291675,"lon":5.371583,"is_reserved":false,"is_disabled":false,"rental_uris":{"android":"levelo://app?vid=183b2b80-bd5e-4fb7-b370-e3a322d4c493","ios":"levelo://app?vid=183b2b80-bd5e-4fb7-b370-e3a322d4c493"},"vehicle_type_id":"4","last_reported":1707073575,"current_range_meters":11600,"station_id":"ce4bha92rcd13ifvqeh0","pricing_plan_id":"free"},{"bike_id":"2d45e3cd-6f45-4c74-b04f-0769da455530","system_id":"levelo_inurba_marseille","lat":43.298764,"lon":5.388973,"is_reserved":false,"is_disabled":false,"rental_uris":{"android":"levelo://app?vid=2d45e3cd-6f45-4c74-b04f-0769da455530","ios":"levelo://app?vid=2d45e3cd-6f45-4c74-b04f-0769da455530"},"vehicle_type_id":"4","last_reported":1707073575,"current_range_meters":0,"station_id":"ce4bh392rcd13ifvqdl0","pricing_plan_id":"free"},{"bike_id":"c47fe0d2-89c4-47a7-9f3d-0b7b4c72bca2","system_id":"levelo_inurba_marseille","lat":43.298764,"lon":5.388973,"is_reserved":false,"is_disabled":false,"rental_uris":{"android":"levelo://app?vid=c47fe0d2-89c4-47a7-9f3d-0b7b4c72bca2","ios":"levelo://app?vid=c47fe0d2-89c4-47a7-9f3d-0b7b4c72bca2"},"vehicle_type_id":"4","last_reported":1707073575,"current_range_meters":18400,"station_id":"ce4bh392rcd13ifvqdl0","pricing_plan_id":"free"},{"bike_id":"9d9534b4-a890-4d08-9bc6-c010182cbdf9","system_id":"levelo_inurba_marseille","lat":43.291994,"lon":5.357886,"is_reserved":false,"is_disabled":false,"rental_uris":{"android":"levelo://app?vid=9d9534b4-a890-4d08-9bc6-c010182cbdf9","ios":"levelo://app?vid=9d9534b4-a890-4d08-9bc6-c010182cbdf9"},"vehicle_type_id":"4","last_reported":1707073575,"current_range_meters":20000,"station_id":"ce4bhb12rcd13ifvqel0","pricing_plan_id":"free"},{"bike_id":"c866460d-6855-419d-bf1d-2acd1d91df69","system_id":"levelo_inurba_marseille","lat":43.29194,"lon":5.35815,"is_reserved":false,"is_disabled":false,"rental_uris":{"android":"levelo://app?vid=c866460d-6855-419d-bf1d-2acd1d91df69","ios":"levelo://app?vid=c866460d-6855-419d-bf1d-2acd1d91df69"},"vehicle_type_id":"4","last_reported":1707073575,"current_range_meters":31200,"station_id":"ce4bhb12rcd13ifvqel0","pricing_plan_id":"free"},{"bike_id":"b7aa9589-86bd-4597-9f72-a05af4f017b5","system_id":"levelo_inurba_marseille","lat":43.291994,"lon":5.357886,"is_reserved":false,"is_disabled":false,"rental_uris":{"android":"levelo://app?vid=b7aa9589-86bd-4597-9f72-a05af4f017b5","ios":"levelo://app?vid=b7aa9589-86bd-4597-9f72-a05af4f017b5"},"vehicle_type_id":"4","last_reported":1707073575,"current_range_meters":31200,"station_id":"ce4bhb12rcd13ifvqel0","pricing_plan_id":"free"},{"bike_id":"399d86b7-e68d-449a-b212-10271aecf020","system_id":"levelo_inurba_marseille","lat":43.291994,"lon":5.357886,"is_reserved":false,"is_disabled":false,"rental_uris":{"android":"levelo://app?vid=399d86b7-e68d-449a-b212-10271aecf020","ios":"levelo://app?vid=399d86b7-e68d-449a-b212-10271aecf020"},"vehicle_type_id":"4","last_reported":1707073575,"current_range_meters":30000,"station_id":"ce4bhb12rcd13ifvqel0","pricing_plan_id":"free"},{"bike_id":"8c605089-0b47-4239-9a3f-eb622dc559d0","system_id":"levelo_inurba_marseille","lat":43.313291,"lon":5.396838,"is_reserved":false,"is_disabled":false,"rental_uris":{"android":"levelo://app?vid=8c605089-0b47-4239-9a3f-eb622dc559d0","ios":"levelo://app?vid=8c605089-0b47-4239-9a3f-eb622dc559d0"},"vehicle_type_id":"4","last_reported":1707073575,"current_range_meters":10400,"station_id":"ce4bgvp2rcd13ifvqcu0","pricing_plan_id":"free"},{"bike_id":"6c874cfe-4464-4696-afa3-480e01c3a358","system_id":"levelo_inurba_marseille","lat":43.29194,"lon":5.35799,"is_reserved":false,"is_disabled":false,"rental_uris":{"android":"levelo://app?vid=6c874cfe-4464-4696-afa3-480e01c3a358","ios":"levelo://app?vid=6c874cfe-4464-4696-afa3-480e01c3a358"},"vehicle_type_id":"4","last_reported":1707073575,"current_range_meters":24000,"station_id":"ce4bhb12rcd13ifvqel0","pricing_plan_id":"free"},{"bike_id":"98fb478c-2c90-4367-b2fe-e3ba20dfacae","system_id":"levelo_inurba_marseille","lat":43.313291,"lon":5.396838,"is_reserved":false,"is_disabled":false,"rental_uris":{"android":"levelo://app?vid=98fb478c-2c90-4367-b2fe-e3ba20dfacae","ios":"levelo://app?vid=98fb478c-2c90-4367-b2fe-e3ba20dfacae"},"vehicle_type_id":"4","last_reported":1707073575,"current_range_meters":16000,"station_id":"ce4bgvp2rcd13ifvqcu0","pricing_plan_id":"free"},{"bike_id":"f3a2864a-68bf-45cb-a563-c2398c508bec","system_id":"levelo_inurba_marseille","lat":43.313291,"lon":5.396838,"is_reserved":false,"is_disabled":false,"rental_uris":{"android":"levelo://app?vid=f3a2864a-68bf-45cb-a563-c2398c508bec","ios":"levelo://app?vid=f3a2864a-68bf-45cb-a563-c2398c508bec"},"vehicle_type_id":"4","last_reported":1707073575,"current_range_meters":14000,"station_id":"ce4bgvp2rcd13ifvqcu0","pricing_plan_id":"free"},{"bike_id":"f01de221-560a-4283-a985-c193c29d281e","system_id":"levelo_inurba_marseille","lat":43.309038,"lon":5.396546,"is_reserved":false,"is_disabled":false,"rental_uris":{"android":"levelo://app?vid=f01de221-560a-4283-a985-c193c29d281e","ios":"levelo://app?vid=f01de221-560a-4283-a985-c193c29d281e"},"vehicle_type_id":"4","last_reported":1707073575,"current_range_meters":30400,"station_id":"ce4bh012rcd13ifvqcv0","pricing_plan_id":"free"},{"bike_id":"f79b3125-7a67-4727-af67-06b004a67391","system_id":"levelo_inurba_marseille","lat":43.29192,"lon":5.35798,"is_reserved":false,"is_disabled":false,"rental_uris":{"android":"levelo://app?vid=f79b3125-7a67-4727-af67-06b004a67391","ios":"levelo://app?vid=f79b3125-7a67-4727-af67-06b004a67391"},"vehicle_type_id":"4","last_reported":1707073575,"current_range_meters":11200,"station_id":"ce4bhb12rcd13ifvqel0","pricing_plan_id":"free"},{"bike_id":"cb0adc17-b24c-4353-9bb7-6064290cd099","system_id":"levelo_inurba_marseille","lat":43.309047,"lon":5.396551,"is_reserved":false,"is_disabled":false,"rental_uris":{"android":"levelo://app?vid=cb0adc17-b24c-4353-9bb7-6064290cd099","ios":"levelo://app?vid=cb0adc17-b24c-4353-9bb7-6064290cd099"},"vehicle_type_id":"4","last_reported":1707073575,"current_range_meters":29600,"station_id":"ce4bh012rcd13ifvqcv0","pricing_plan_id":"free"},{"bike_id":"c898ef4a-617f-46e2-8929-feaad6092a07","system_id":"levelo_inurba_marseille","lat":43.309038,"lon":5.396546,"is_reserved":false,"is_disabled":false,"rental_uris":{"android":"levelo://app?vid=c898ef4a-617f-46e2-8929-feaad6092a07","ios":"levelo://app?vid=c898ef4a-617f-46e2-8929-feaad6092a07"},"vehicle_type_id":"4","last_reported":1707073575,"current_range_meters":22800,"station_id":"ce4bh012rcd13ifvqcv0","pricing_plan_id":"free"},{"bike_id":"579fc067-862b-4dd0-a941-fc509ea115a5","system_id":"levelo_inurba_marseille","lat":43.309047,"lon":5.396551,"is_reserved":false,"is_disabled":false,"rental_uris":{"android":"levelo://app?vid=579fc067-862b-4dd0-a941-fc509ea115a5","ios":"levelo://app?vid=579fc067-862b-4dd0-a941-fc509ea115a5"},"vehicle_type_id":"4","last_reported":1707073575,"current_range_meters":23600,"station_id":"ce4bh012rcd13ifvqcv0","pricing_plan_id":"free"},{"bike_id":"76debd98-f9f4-4ead-b7ea-f1cd59031c65","system_id":"levelo_inurba_marseille","lat":43.309038,"lon":5.396546,"is_reserved":false,"is_disabled":false,"rental_uris":{"android":"levelo://app?vid=76debd98-f9f4-4ead-b7ea-f1cd59031c65","ios":"levelo://app?vid=76debd98-f9f4-4ead-b7ea-f1cd59031c65"},"vehicle_type_id":"4","last_reported":1707073575,"current_range_meters":9200,"station_id":"ce4bh012rcd13ifvqcv0","pricing_plan_id":"free"},{"bike_id":"66edd7ba-de69-441c-9323-0a4b6c020232","system_id":"levelo_inurba_marseille","lat":43.313291,"lon":5.396838,"is_reserved":false,"is_disabled":false,"rental_uris":{"android":"levelo://app?vid=66edd7ba-de69-441c-9323-0a4b6c020232","ios":"levelo://app?vid=66edd7ba-de69-441c-9323-0a4b6c020232"},"vehicle_type_id":"4","last_reported":1707073575,"current_range_meters":17600,"station_id":"ce4bgvp2rcd13ifvqcu0","pricing_plan_id":"free"},{"bike_id":"6b9e30aa-bb59-400a-bb19-9a7017d73ce6","system_id":"levelo_inurba_marseille","lat":43.309038,"lon":5.396546,"is_reserved":false,"is_disabled":false,"rental_uris":{"android":"levelo://app?vid=6b9e30aa-bb59-400a-bb19-9a7017d73ce6","ios":"levelo://app?vid=6b9e30aa-bb59-400a-bb19-9a7017d73ce6"},"vehicle_type_id":"4","last_reported":1707073575,"current_range_meters":31200,"station_id":"ce4bh012rcd13ifvqcv0","pricing_plan_id":"free"},{"bike_id":"e7189582-81a4-4866-90b6-f1957663c419","system_id":"levelo_inurba_marseille","lat":43.308862,"lon":5.396592,"is_reserved":false,"is_disabled":false,"rental_uris":{"android":"levelo://app?vid=e7189582-81a4-4866-90b6-f1957663c419","ios":"levelo://app?vid=e7189582-81a4-4866-90b6-f1957663c419"},"vehicle_type_id":"4","last_reported":1707073575,"current_range_meters":0,"station_id":"ce4bh012rcd13ifvqcv0","pricing_plan_id":"free"},{"bike_id":"a15513d3-db72-40ad-bdf3-bd40afb81704","system_id":"levelo_inurba_marseille","lat":43.29529,"lon":5.385581,"is_reserved":false,"is_disabled":false,"rental_uris":{"android":"levelo://app?vid=a15513d3-db72-40ad-bdf3-bd40afb81704","ios":"levelo://app?vid=a15513d3-db72-40ad-bdf3-bd40afb81704"},"vehicle_type_id":"4","last_reported":1707073575,"current_range_meters":3200,"station_id":"ce4bgih2rcd13ifvqba0","pricing_plan_id":"free"},{"bike_id":"4419a724-5255-4916-9ab6-08c2c5ae2fc3","system_id":"levelo_inurba_marseille","lat":43.31638,"lon":5.39678,"is_reserved":false,"is_disabled":false,"rental_uris":{"android":"levelo://app?vid=4419a724-5255-4916-9ab6-08c2c5ae2fc3","ios":"levelo://app?vid=4419a724-5255-4916-9ab6-08c2c5ae2fc3"},"vehicle_type_id":"4","last_reported":1707073575,"current_range_meters":27600,"station_id":"","pricing_plan_id":"free"},{"bike_id":"44f4cdd2-bf2d-4be9-881f-34e4b95ae472","system_id":"levelo_inurba_marseille","lat":43.29535,"lon":5.38553,"is_reserved":false,"is_disabled":false,"rental_uris":{"android":"levelo://app?vid=44f4cdd2-bf2d-4be9-881f-34e4b95ae472","ios":"levelo://app?vid=44f4cdd2-bf2d-4be9-881f-34e4b95ae472"},"vehicle_type_id":"4","last_reported":1707073575,"current_range_meters":0,"station_id":"ce4bgih2rcd13ifvqba0","pricing_plan_id":"free"},{"bike_id":"d417c8e2-0918-4527-adbe-ffc6355f5f58","system_id":"levelo_inurba_marseille","lat":43.312609,"lon":5.401662,"is_reserved":false,"is_disabled":false,"rental_uris":{"android":"levelo://app?vid=d417c8e2-0918-4527-adbe-ffc6355f5f58","ios":"levelo://app?vid=d417c8e2-0918-4527-adbe-ffc6355f5f58"},"vehicle_type_id":"4","last_reported":1707073575,"current_range_meters":10000,"station_id":"ce4bh092rcd13ifvqd30","pricing_plan_id":"free"},{"bike_id":"61217771-c159-4cc4-933e-c7c7e0bc2f73","system_id":"levelo_inurba_marseille","lat":43.30207,"lon":5.3947,"is_reserved":false,"is_disabled":false,"rental_uris":{"android":"levelo://app?vid=61217771-c159-4cc4-933e-c7c7e0bc2f73","ios":"levelo://app?vid=61217771-c159-4cc4-933e-c7c7e0bc2f73"},"vehicle_type_id":"4","last_reported":1707073575,"current_range_meters":28400,"station_id":"ce4bh0p2rcd13ifvqd70","pricing_plan_id":"free"},{"bike_id":"4a848189-bd42-4e10-8699-d4f4e027ca65","system_id":"levelo_inurba_marseille","lat":43.290631,"lon":5.359244,"is_reserved":false,"is_disabled":false,"rental_uris":{"android":"levelo://app?vid=4a848189-bd42-4e10-8699-d4f4e027ca65","ios":"levelo://app?vid=4a848189-bd42-4e10-8699-d4f4e027ca65"},"vehicle_type_id":"4","last_reported":1707073575,"current_range_meters":25600,"station_id":"ce4bha92rcd13ifvqeg0","pricing_plan_id":"free"},{"bike_id":"3fbf1e07-bed2-4ceb-94b0-b99cc7e05d64","system_id":"levelo_inurba_marseille","lat":43.290631,"lon":5.359244,"is_reserved":false,"is_disabled":false,"rental_uris":{"android":"levelo://app?vid=3fbf1e07-bed2-4ceb-94b0-b99cc7e05d64","ios":"levelo://app?vid=3fbf1e07-bed2-4ceb-94b0-b99cc7e05d64"},"vehicle_type_id":"4","last_reported":1707073575,"current_range_meters":23600,"station_id":"ce4bha92rcd13ifvqeg0","pricing_plan_id":"free"},{"bike_id":"fc2a0728-719b-461a-8a6a-92ec177f2d2b","system_id":"levelo_inurba_marseille","lat":43.294153,"lon":5.386305,"is_reserved":false,"is_disabled":false,"rental_uris":{"android":"levelo://app?vid=fc2a0728-719b-461a-8a6a-92ec177f2d2b","ios":"levelo://app?vid=fc2a0728-719b-461a-8a6a-92ec177f2d2b"},"vehicle_type_id":"4","last_reported":1707073575,"current_range_meters":17600,"station_id":"ce4bh2h2rcd13ifvqdh0","pricing_plan_id":"free"},{"bike_id":"f52928ff-13c7-4869-8a9b-3b2cc0310b78","system_id":"levelo_inurba_marseille","lat":43.29421,"lon":5.38622,"is_reserved":false,"is_disabled":false,"rental_uris":{"android":"levelo://app?vid=f52928ff-13c7-4869-8a9b-3b2cc0310b78","ios":"levelo://app?vid=f52928ff-13c7-4869-8a9b-3b2cc0310b78"},"vehicle_type_id":"4","last_reported":1707073575,"current_range_meters":20000,"station_id":"ce4bh2h2rcd13ifvqdh0","pricing_plan_id":"free"},{"bike_id":"146d3f1a-7678-4317-b2c2-0b785ffd321c","system_id":"levelo_inurba_marseille","lat":43.294153,"lon":5.386305,"is_reserved":false,"is_disabled":false,"rental_uris":{"android":"levelo://app?vid=146d3f1a-7678-4317-b2c2-0b785ffd321c","ios":"levelo://app?vid=146d3f1a-7678-4317-b2c2-0b785ffd321c"},"vehicle_type_id":"4","last_reported":1707073575,"current_range_meters":15200,"station_id":"ce4bh2h2rcd13ifvqdh0","pricing_plan_id":"free"},{"bike_id":"3586158b-ae47-466d-adaf-c9b367c3de2d","system_id":"levelo_inurba_marseille","lat":43.289468,"lon":5.363719,"is_reserved":false,"is_disabled":false,"rental_uris":{"android":"levelo://app?vid=3586158b-ae47-466d-adaf-c9b367c3de2d","ios":"levelo://app?vid=3586158b-ae47-466d-adaf-c9b367c3de2d"},"vehicle_type_id":"4","last_reported":1707073575,"current_range_meters":3200,"station_id":"ce4bhc92rcd13ifvqetg","pricing_plan_id":"free"},{"bike_id":"2584d4c4-c7d4-46c3-bcf6-8c2bc723ffc1","system_id":"levelo_inurba_marseille","lat":43.294162,"lon":5.386292,"is_reserved":false,"is_disabled":false,"rental_uris":{"android":"levelo://app?vid=2584d4c4-c7d4-46c3-bcf6-8c2bc723ffc1","ios":"levelo://app?vid=2584d4c4-c7d4-46c3-bcf6-8c2bc723ffc1"},"vehicle_type_id":"4","last_reported":1707073575,"current_range_meters":24000,"station_id":"ce4bh2h2rcd13ifvqdh0","pricing_plan_id":"free"},{"bike_id":"800df3b4-0056-4430-9dce-21c6c32d97ab","system_id":"levelo_inurba_marseille","lat":43.294153,"lon":5.386305,"is_reserved":false,"is_disabled":false,"rental_uris":{"android":"levelo://app?vid=800df3b4-0056-4430-9dce-21c6c32d97ab","ios":"levelo://app?vid=800df3b4-0056-4430-9dce-21c6c32d97ab"},"vehicle_type_id":"4","last_reported":1707073575,"current_range_meters":24400,"station_id":"ce4bh2h2rcd13ifvqdh0","pricing_plan_id":"free"},{"bike_id":"bbad7026-fcbe-41cc-80d9-8c34e10a8f3c","system_id":"levelo_inurba_marseille","lat":43.289184,"lon":5.366408,"is_reserved":false,"is_disabled":false,"rental_uris":{"android":"levelo://app?vid=bbad7026-fcbe-41cc-80d9-8c34e10a8f3c","ios":"levelo://app?vid=bbad7026-fcbe-41cc-80d9-8c34e10a8f3c"},"vehicle_type_id":"4","last_reported":1707073575,"current_range_meters":21200,"station_id":"ce4bhap2rcd13ifvqek0","pricing_plan_id":"free"},{"bike_id":"0a9f7c81-0a38-496e-8694-29b92f17cb72","system_id":"levelo_inurba_marseille","lat":43.289184,"lon":5.366408,"is_reserved":false,"is_disabled":false,"rental_uris":{"android":"levelo://app?vid=0a9f7c81-0a38-496e-8694-29b92f17cb72","ios":"levelo://app?vid=0a9f7c81-0a38-496e-8694-29b92f17cb72"},"vehicle_type_id":"4","last_reported":1707073575,"current_range_meters":22000,"station_id":"ce4bhap2rcd13ifvqek0","pricing_plan_id":"free"},{"bike_id":"5e8324c2-71cf-48a6-bd2f-80380a07032e","system_id":"levelo_inurba_marseille","lat":43.294162,"lon":5.386292,"is_reserved":false,"is_disabled":false,"rental_uris":{"android":"levelo://app?vid=5e8324c2-71cf-48a6-bd2f-80380a07032e","ios":"levelo://app?vid=5e8324c2-71cf-48a6-bd2f-80380a07032e"},"vehicle_type_id":"4","last_reported":1707073575,"current_range_meters":20000,"station_id":"ce4bh2h2rcd13ifvqdh0","pricing_plan_id":"free"},{"bike_id":"ccd6edbe-1b3e-488f-9448-9f482b9cb38f","system_id":"levelo_inurba_marseille","lat":43.294162,"lon":5.386292,"is_reserved":false,"is_disabled":false,"rental_uris":{"android":"levelo://app?vid=ccd6edbe-1b3e-488f-9448-9f482b9cb38f","ios":"levelo://app?vid=ccd6edbe-1b3e-488f-9448-9f482b9cb38f"},"vehicle_type_id":"4","last_reported":1707073575,"current_range_meters":10800,"station_id":"ce4bh2h2rcd13ifvqdh0","pricing_plan_id":"free"},{"bike_id":"3eb580ec-a883-4e51-9ba4-dfd1a102687b","system_id":"levelo_inurba_marseille","lat":43.289184,"lon":5.366408,"is_reserved":false,"is_disabled":false,"rental_uris":{"android":"levelo://app?vid=3eb580ec-a883-4e51-9ba4-dfd1a102687b","ios":"levelo://app?vid=3eb580ec-a883-4e51-9ba4-dfd1a102687b"},"vehicle_type_id":"4","last_reported":1707073575,"current_range_meters":22800,"station_id":"ce4bhap2rcd13ifvqek0","pricing_plan_id":"free"},{"bike_id":"f673f2a8-3dbe-4ac8-9669-033a3a0233bf","system_id":"levelo_inurba_marseille","lat":43.289184,"lon":5.366408,"is_reserved":false,"is_disabled":false,"rental_uris":{"android":"levelo://app?vid=f673f2a8-3dbe-4ac8-9669-033a3a0233bf","ios":"levelo://app?vid=f673f2a8-3dbe-4ac8-9669-033a3a0233bf"},"vehicle_type_id":"4","last_reported":1707073575,"current_range_meters":4000,"station_id":"ce4bhap2rcd13ifvqek0","pricing_plan_id":"free"},{"bike_id":"590f3f0b-5400-4e56-82b4-fc2d4a04df9d","system_id":"levelo_inurba_marseille","lat":43.290104,"lon":5.356111,"is_reserved":false,"is_disabled":false,"rental_uris":{"android":"levelo://app?vid=590f3f0b-5400-4e56-82b4-fc2d4a04df9d","ios":"levelo://app?vid=590f3f0b-5400-4e56-82b4-fc2d4a04df9d"},"vehicle_type_id":"4","last_reported":1707073575,"current_range_meters":2800,"station_id":"ce4bhb92rcd13ifvqen0","pricing_plan_id":"free"},{"bike_id":"e280a1b8-8d79-4333-a025-5c081f374c60","system_id":"levelo_inurba_marseille","lat":43.292642,"lon":5.384254,"is_reserved":false,"is_disabled":false,"rental_uris":{"android":"levelo://app?vid=e280a1b8-8d79-4333-a025-5c081f374c60","ios":"levelo://app?vid=e280a1b8-8d79-4333-a025-5c081f374c60"},"vehicle_type_id":"4","last_reported":1707073575,"current_range_meters":31200,"station_id":"ce4bh692rcd13ifvqea0","pricing_plan_id":"free"},{"bike_id":"7555fb5e-9f62-448a-9ce0-44a6cd417f82","system_id":"levelo_inurba_marseille","lat":43.292642,"lon":5.384254,"is_reserved":false,"is_disabled":false,"rental_uris":{"android":"levelo://app?vid=7555fb5e-9f62-448a-9ce0-44a6cd417f82","ios":"levelo://app?vid=7555fb5e-9f62-448a-9ce0-44a6cd417f82"},"vehicle_type_id":"4","last_reported":1707073575,"current_range_meters":24400,"station_id":"ce4bh692rcd13ifvqea0","pricing_plan_id":"free"},{"bike_id":"ccd4812b-b8f4-431c-a0d1-2bab05f1d67f","system_id":"levelo_inurba_marseille","lat":43.304274,"lon":5.397513,"is_reserved":false,"is_disabled":false,"rental_uris":{"android":"levelo://app?vid=ccd4812b-b8f4-431c-a0d1-2bab05f1d67f","ios":"levelo://app?vid=ccd4812b-b8f4-431c-a0d1-2bab05f1d67f"},"vehicle_type_id":"4","last_reported":1707073575,"current_range_meters":16800,"station_id":"ce4bh092rcd13ifvqd20","pricing_plan_id":"free"},{"bike_id":"9f2fef40-571f-407e-8cb1-f9c03f63482d","system_id":"levelo_inurba_marseille","lat":43.29263,"lon":5.38436,"is_reserved":false,"is_disabled":false,"rental_uris":{"android":"levelo://app?vid=9f2fef40-571f-407e-8cb1-f9c03f63482d","ios":"levelo://app?vid=9f2fef40-571f-407e-8cb1-f9c03f63482d"},"vehicle_type_id":"4","last_reported":1707073575,"current_range_meters":5600,"station_id":"ce4bh692rcd13ifvqea0","pricing_plan_id":"free"},{"bike_id":"75c26767-4d83-4196-9184-16e3b3999c1a","system_id":"levelo_inurba_marseille","lat":43.29247,"lon":5.38403,"is_reserved":false,"is_disabled":false,"rental_uris":{"android":"levelo://app?vid=75c26767-4d83-4196-9184-16e3b3999c1a","ios":"levelo://app?vid=75c26767-4d83-4196-9184-16e3b3999c1a"},"vehicle_type_id":"4","last_reported":1707073575,"current_range_meters":27200,"station_id":"ce4bh692rcd13ifvqea0","pricing_plan_id":"free"},{"bike_id":"08128a37-407c-493f-a86f-67a034111734","system_id":"levelo_inurba_marseille","lat":43.292628,"lon":5.384408,"is_reserved":false,"is_disabled":false,"rental_uris":{"android":"levelo://app?vid=08128a37-407c-493f-a86f-67a034111734","ios":"levelo://app?vid=08128a37-407c-493f-a86f-67a034111734"},"vehicle_type_id":"4","last_reported":1707073575,"current_range_meters":31200,"station_id":"ce4bh692rcd13ifvqea0","pricing_plan_id":"free"},{"bike_id":"47977dcd-35d9-4902-97d7-cb119ec4da5b","system_id":"levelo_inurba_marseille","lat":43.292649,"lon":5.384513,"is_reserved":false,"is_disabled":false,"rental_uris":{"android":"levelo://app?vid=47977dcd-35d9-4902-97d7-cb119ec4da5b","ios":"levelo://app?vid=47977dcd-35d9-4902-97d7-cb119ec4da5b"},"vehicle_type_id":"4","last_reported":1707073575,"current_range_meters":31200,"station_id":"ce4bh692rcd13ifvqea0","pricing_plan_id":"free"},{"bike_id":"08dd0f49-c5d4-4cf0-9996-9227e29b539d","system_id":"levelo_inurba_marseille","lat":43.29261,"lon":5.3845,"is_reserved":false,"is_disabled":false,"rental_uris":{"android":"levelo://app?vid=08dd0f49-c5d4-4cf0-9996-9227e29b539d","ios":"levelo://app?vid=08dd0f49-c5d4-4cf0-9996-9227e29b539d"},"vehicle_type_id":"4","last_reported":1707073575,"current_range_meters":29200,"station_id":"ce4bh692rcd13ifvqea0","pricing_plan_id":"free"},{"bike_id":"7c206cca-a361-4f40-b7e4-4ca501cd770a","system_id":"levelo_inurba_marseille","lat":43.29258,"lon":5.38447,"is_reserved":false,"is_disabled":false,"rental_uris":{"android":"levelo://app?vid=7c206cca-a361-4f40-b7e4-4ca501cd770a","ios":"levelo://app?vid=7c206cca-a361-4f40-b7e4-4ca501cd770a"},"vehicle_type_id":"4","last_reported":1707073575,"current_range_meters":31600,"station_id":"ce4bh692rcd13ifvqea0","pricing_plan_id":"free"},{"bike_id":"a414ea05-2955-4f5c-ad76-d9d4a581a15a","system_id":"levelo_inurba_marseille","lat":43.290995,"lon":5.381361,"is_reserved":false,"is_disabled":false,"rental_uris":{"android":"levelo://app?vid=a414ea05-2955-4f5c-ad76-d9d4a581a15a","ios":"levelo://app?vid=a414ea05-2955-4f5c-ad76-d9d4a581a15a"},"vehicle_type_id":"4","last_reported":1707073575,"current_range_meters":28000,"station_id":"ce4bh512rcd13ifvqe2g","pricing_plan_id":"free"},{"bike_id":"36e59899-6392-44b3-b0eb-b94f6ed5199a","system_id":"levelo_inurba_marseille","lat":43.297815,"lon":5.393548,"is_reserved":false,"is_disabled":false,"rental_uris":{"android":"levelo://app?vid=36e59899-6392-44b3-b0eb-b94f6ed5199a","ios":"levelo://app?vid=36e59899-6392-44b3-b0eb-b94f6ed5199a"},"vehicle_type_id":"4","last_reported":1707073575,"current_range_meters":23600,"station_id":"chh1huq6cuj3fo74tm60","pricing_plan_id":"free"},{"bike_id":"c8110a85-2b90-4121-9adc-19018cc13fe5","system_id":"levelo_inurba_marseille","lat":43.297815,"lon":5.393548,"is_reserved":false,"is_disabled":false,"rental_uris":{"android":"levelo://app?vid=c8110a85-2b90-4121-9adc-19018cc13fe5","ios":"levelo://app?vid=c8110a85-2b90-4121-9adc-19018cc13fe5"},"vehicle_type_id":"4","last_reported":1707073575,"current_range_meters":13600,"station_id":"chh1huq6cuj3fo74tm60","pricing_plan_id":"free"},{"bike_id":"b2d64768-2663-4e45-af21-b425e1e93f02","system_id":"levelo_inurba_marseille","lat":43.2979,"lon":5.39344,"is_reserved":false,"is_disabled":false,"rental_uris":{"android":"levelo://app?vid=b2d64768-2663-4e45-af21-b425e1e93f02","ios":"levelo://app?vid=b2d64768-2663-4e45-af21-b425e1e93f02"},"vehicle_type_id":"4","last_reported":1707073575,"current_range_meters":12400,"station_id":"chh1huq6cuj3fo74tm60","pricing_plan_id":"free"},{"bike_id":"a0862b5e-ec05-43fb-9519-70a6e3731506","system_id":"levelo_inurba_marseille","lat":43.295245,"lon":5.390229,"is_reserved":false,"is_disabled":false,"rental_uris":{"android":"levelo://app?vid=a0862b5e-ec05-43fb-9519-70a6e3731506","ios":"levelo://app?vid=a0862b5e-ec05-43fb-9519-70a6e3731506"},"vehicle_type_id":"4","last_reported":1707073575,"current_range_meters":5200,"station_id":"ce4bh0h2rcd13ifvqd50","pricing_plan_id":"free"},{"bike_id":"383724b6-bd12-4a20-b684-4d58d786ee6a","system_id":"levelo_inurba_marseille","lat":43.297815,"lon":5.393548,"is_reserved":false,"is_disabled":false,"rental_uris":{"android":"levelo://app?vid=383724b6-bd12-4a20-b684-4d58d786ee6a","ios":"levelo://app?vid=383724b6-bd12-4a20-b684-4d58d786ee6a"},"vehicle_type_id":"4","last_reported":1707073575,"current_range_meters":14000,"station_id":"chh1huq6cuj3fo74tm60","pricing_plan_id":"free"},{"bike_id":"70264658-2e92-4dd1-81e1-255da50e5aa3","system_id":"levelo_inurba_marseille","lat":43.297815,"lon":5.393548,"is_reserved":false,"is_disabled":false,"rental_uris":{"android":"levelo://app?vid=70264658-2e92-4dd1-81e1-255da50e5aa3","ios":"levelo://app?vid=70264658-2e92-4dd1-81e1-255da50e5aa3"},"vehicle_type_id":"4","last_reported":1707073575,"current_range_meters":10800,"station_id":"chh1huq6cuj3fo74tm60","pricing_plan_id":"free"},{"bike_id":"fcfc6361-5024-4e2a-ae18-9e03ec4a09d2","system_id":"levelo_inurba_marseille","lat":43.297815,"lon":5.393548,"is_reserved":false,"is_disabled":false,"rental_uris":{"android":"levelo://app?vid=fcfc6361-5024-4e2a-ae18-9e03ec4a09d2","ios":"levelo://app?vid=fcfc6361-5024-4e2a-ae18-9e03ec4a09d2"},"vehicle_type_id":"4","last_reported":1707073575,"current_range_meters":9200,"station_id":"chh1huq6cuj3fo74tm60","pricing_plan_id":"free"},{"bike_id":"48bdcb4f-8d71-452e-99ff-6171ea5b9651","system_id":"levelo_inurba_marseille","lat":43.297815,"lon":5.393548,"is_reserved":false,"is_disabled":false,"rental_uris":{"android":"levelo://app?vid=48bdcb4f-8d71-452e-99ff-6171ea5b9651","ios":"levelo://app?vid=48bdcb4f-8d71-452e-99ff-6171ea5b9651"},"vehicle_type_id":"4","last_reported":1707073575,"current_range_meters":10800,"station_id":"chh1huq6cuj3fo74tm60","pricing_plan_id":"free"},{"bike_id":"36dcf795-21eb-42cc-a480-af859cb90eab","system_id":"levelo_inurba_marseille","lat":43.330442,"lon":5.389148,"is_reserved":false,"is_disabled":false,"rental_uris":{"android":"levelo://app?vid=36dcf795-21eb-42cc-a480-af859cb90eab","ios":"levelo://app?vid=36dcf795-21eb-42cc-a480-af859cb90eab"},"vehicle_type_id":"4","last_reported":1707073575,"current_range_meters":31200,"station_id":"ce4bhr92rcd13ifvqhrg","pricing_plan_id":"free"},{"bike_id":"0c96d0b5-97db-4cc9-8a5a-d96ca1072be4","system_id":"levelo_inurba_marseille","lat":43.33022,"lon":5.39036,"is_reserved":false,"is_disabled":false,"rental_uris":{"android":"levelo://app?vid=0c96d0b5-97db-4cc9-8a5a-d96ca1072be4","ios":"levelo://app?vid=0c96d0b5-97db-4cc9-8a5a-d96ca1072be4"},"vehicle_type_id":"4","last_reported":1707073575,"current_range_meters":22800,"station_id":"ce4bhr92rcd13ifvqhrg","pricing_plan_id":"free"},{"bike_id":"afbd84a6-16b4-457e-a524-5916acf0d4ff","system_id":"levelo_inurba_marseille","lat":43.33025,"lon":5.39033,"is_reserved":false,"is_disabled":false,"rental_uris":{"android":"levelo://app?vid=afbd84a6-16b4-457e-a524-5916acf0d4ff","ios":"levelo://app?vid=afbd84a6-16b4-457e-a524-5916acf0d4ff"},"vehicle_type_id":"4","last_reported":1707073575,"current_range_meters":15600,"station_id":"ce4bhr92rcd13ifvqhrg","pricing_plan_id":"free"},{"bike_id":"4270893e-7646-43e8-9278-a14d6af412e0","system_id":"levelo_inurba_marseille","lat":43.330442,"lon":5.389148,"is_reserved":false,"is_disabled":false,"rental_uris":{"android":"levelo://app?vid=4270893e-7646-43e8-9278-a14d6af412e0","ios":"levelo://app?vid=4270893e-7646-43e8-9278-a14d6af412e0"},"vehicle_type_id":"4","last_reported":1707073575,"current_range_meters":28000,"station_id":"ce4bhr92rcd13ifvqhrg","pricing_plan_id":"free"},{"bike_id":"22c3a3b0-3c0e-4e41-9903-4efd3eb0b0a3","system_id":"levelo_inurba_marseille","lat":43.295169,"lon":5.390426,"is_reserved":false,"is_disabled":false,"rental_uris":{"android":"levelo://app?vid=22c3a3b0-3c0e-4e41-9903-4efd3eb0b0a3","ios":"levelo://app?vid=22c3a3b0-3c0e-4e41-9903-4efd3eb0b0a3"},"vehicle_type_id":"4","last_reported":1707073575,"current_range_meters":31200,"station_id":"ce4bh3p2rcd13ifvqdp0","pricing_plan_id":"free"},{"bike_id":"291aaf63-a488-43b5-8680-f0c35b710160","system_id":"levelo_inurba_marseille","lat":43.33025,"lon":5.39045,"is_reserved":false,"is_disabled":false,"rental_uris":{"android":"levelo://app?vid=291aaf63-a488-43b5-8680-f0c35b710160","ios":"levelo://app?vid=291aaf63-a488-43b5-8680-f0c35b710160"},"vehicle_type_id":"4","last_reported":1707073575,"current_range_meters":23600,"station_id":"ce4bhr92rcd13ifvqhrg","pricing_plan_id":"free"},{"bike_id":"ebc0af46-e3c0-494a-986f-a2f706fa443c","system_id":"levelo_inurba_marseille","lat":43.295169,"lon":5.390426,"is_reserved":false,"is_disabled":false,"rental_uris":{"android":"levelo://app?vid=ebc0af46-e3c0-494a-986f-a2f706fa443c","ios":"levelo://app?vid=ebc0af46-e3c0-494a-986f-a2f706fa443c"},"vehicle_type_id":"4","last_reported":1707073575,"current_range_meters":20400,"station_id":"ce4bh3p2rcd13ifvqdp0","pricing_plan_id":"free"},{"bike_id":"3719b771-444d-455e-9c33-0b9b6e0646c8","system_id":"levelo_inurba_marseille","lat":43.29093,"lon":5.383322,"is_reserved":false,"is_disabled":false,"rental_uris":{"android":"levelo://app?vid=3719b771-444d-455e-9c33-0b9b6e0646c8","ios":"levelo://app?vid=3719b771-444d-455e-9c33-0b9b6e0646c8"},"vehicle_type_id":"4","last_reported":1707073575,"current_range_meters":10000,"station_id":"ce4bh612rcd13ifvqe6g","pricing_plan_id":"free"},{"bike_id":"83ba999c-e089-415f-b2d3-3e81da60599f","system_id":"levelo_inurba_marseille","lat":43.312609,"lon":5.401662,"is_reserved":false,"is_disabled":false,"rental_uris":{"android":"levelo://app?vid=83ba999c-e089-415f-b2d3-3e81da60599f","ios":"levelo://app?vid=83ba999c-e089-415f-b2d3-3e81da60599f"},"vehicle_type_id":"4","last_reported":1707073575,"current_range_meters":19200,"station_id":"ce4bh092rcd13ifvqd30","pricing_plan_id":"free"},{"bike_id":"eb6c9c7c-a7a4-491d-a668-be71616a9703","system_id":"levelo_inurba_marseille","lat":43.288543,"lon":5.358237,"is_reserved":false,"is_disabled":false,"rental_uris":{"android":"levelo://app?vid=eb6c9c7c-a7a4-491d-a668-be71616a9703","ios":"levelo://app?vid=eb6c9c7c-a7a4-491d-a668-be71616a9703"},"vehicle_type_id":"4","last_reported":1707073575,"current_range_meters":26800,"station_id":"ce4bhb12rcd13ifvqem0","pricing_plan_id":"free"},{"bike_id":"a5669c53-0a26-4ba6-b086-36278082f5ba","system_id":"levelo_inurba_marseille","lat":43.288433,"lon":5.35832,"is_reserved":false,"is_disabled":false,"rental_uris":{"android":"levelo://app?vid=a5669c53-0a26-4ba6-b086-36278082f5ba","ios":"levelo://app?vid=a5669c53-0a26-4ba6-b086-36278082f5ba"},"vehicle_type_id":"4","last_reported":1707073575,"current_range_meters":23600,"station_id":"ce4bhb12rcd13ifvqem0","pricing_plan_id":"free"},{"bike_id":"296e808c-ba05-425b-a9c5-c67549dafece","system_id":"levelo_inurba_marseille","lat":43.28836,"lon":5.35834,"is_reserved":false,"is_disabled":false,"rental_uris":{"android":"levelo://app?vid=296e808c-ba05-425b-a9c5-c67549dafece","ios":"levelo://app?vid=296e808c-ba05-425b-a9c5-c67549dafece"},"vehicle_type_id":"4","last_reported":1707073575,"current_range_meters":31200,"station_id":"ce4bhb12rcd13ifvqem0","pricing_plan_id":"free"},{"bike_id":"c88b544a-7d5f-44cd-9e90-26ffcf31651a","system_id":"levelo_inurba_marseille","lat":43.32686,"lon":5.39586,"is_reserved":false,"is_disabled":false,"rental_uris":{"android":"levelo://app?vid=c88b544a-7d5f-44cd-9e90-26ffcf31651a","ios":"levelo://app?vid=c88b544a-7d5f-44cd-9e90-26ffcf31651a"},"vehicle_type_id":"4","last_reported":1707073575,"current_range_meters":12800,"station_id":"","pricing_plan_id":"free"},{"bike_id":"e40f2dcd-3a10-488d-aca7-83ac660c3df4","system_id":"levelo_inurba_marseille","lat":43.30931,"lon":5.40145,"is_reserved":false,"is_disabled":false,"rental_uris":{"android":"levelo://app?vid=e40f2dcd-3a10-488d-aca7-83ac660c3df4","ios":"levelo://app?vid=e40f2dcd-3a10-488d-aca7-83ac660c3df4"},"vehicle_type_id":"4","last_reported":1707073575,"current_range_meters":0,"station_id":"ce4bgvp2rcd13ifvqct0","pricing_plan_id":"free"},{"bike_id":"9e75d545-e976-4a5a-bf87-15c88614b5f2","system_id":"levelo_inurba_marseille","lat":43.309371,"lon":5.401449,"is_reserved":false,"is_disabled":false,"rental_uris":{"android":"levelo://app?vid=9e75d545-e976-4a5a-bf87-15c88614b5f2","ios":"levelo://app?vid=9e75d545-e976-4a5a-bf87-15c88614b5f2"},"vehicle_type_id":"4","last_reported":1707073575,"current_range_meters":16000,"station_id":"ce4bgvp2rcd13ifvqct0","pricing_plan_id":"free"},{"bike_id":"32258fa7-13e8-4e66-875e-93e46fd28aed","system_id":"levelo_inurba_marseille","lat":43.30928,"lon":5.40145,"is_reserved":false,"is_disabled":false,"rental_uris":{"android":"levelo://app?vid=32258fa7-13e8-4e66-875e-93e46fd28aed","ios":"levelo://app?vid=32258fa7-13e8-4e66-875e-93e46fd28aed"},"vehicle_type_id":"4","last_reported":1707073575,"current_range_meters":30000,"station_id":"ce4bgvp2rcd13ifvqct0","pricing_plan_id":"free"},{"bike_id":"0af38d84-b449-4fe9-8d3a-bb549e971224","system_id":"levelo_inurba_marseille","lat":43.309371,"lon":5.401449,"is_reserved":false,"is_disabled":false,"rental_uris":{"android":"levelo://app?vid=0af38d84-b449-4fe9-8d3a-bb549e971224","ios":"levelo://app?vid=0af38d84-b449-4fe9-8d3a-bb549e971224"},"vehicle_type_id":"4","last_reported":1707073575,"current_range_meters":5600,"station_id":"ce4bgvp2rcd13ifvqct0","pricing_plan_id":"free"},{"bike_id":"77808c9a-b998-4658-aedb-b25e3472d80a","system_id":"levelo_inurba_marseille","lat":43.309371,"lon":5.401449,"is_reserved":false,"is_disabled":false,"rental_uris":{"android":"levelo://app?vid=77808c9a-b998-4658-aedb-b25e3472d80a","ios":"levelo://app?vid=77808c9a-b998-4658-aedb-b25e3472d80a"},"vehicle_type_id":"4","last_reported":1707073575,"current_range_meters":29200,"station_id":"ce4bgvp2rcd13ifvqct0","pricing_plan_id":"free"},{"bike_id":"8440e124-6ba5-462e-ac35-1ecd2f79562a","system_id":"levelo_inurba_marseille","lat":43.312609,"lon":5.401662,"is_reserved":false,"is_disabled":false,"rental_uris":{"android":"levelo://app?vid=8440e124-6ba5-462e-ac35-1ecd2f79562a","ios":"levelo://app?vid=8440e124-6ba5-462e-ac35-1ecd2f79562a"},"vehicle_type_id":"4","last_reported":1707073575,"current_range_meters":23200,"station_id":"ce4bh092rcd13ifvqd30","pricing_plan_id":"free"},{"bike_id":"8b30fa3c-5a27-4c53-9779-dbab1f913024","system_id":"levelo_inurba_marseille","lat":43.306412,"lon":5.401035,"is_reserved":false,"is_disabled":false,"rental_uris":{"android":"levelo://app?vid=8b30fa3c-5a27-4c53-9779-dbab1f913024","ios":"levelo://app?vid=8b30fa3c-5a27-4c53-9779-dbab1f913024"},"vehicle_type_id":"4","last_reported":1707073575,"current_range_meters":20000,"station_id":"ce4bh112rcd13ifvqda0","pricing_plan_id":"free"},{"bike_id":"d5dcde49-b4e7-46c7-a9fc-d5e75d6f184a","system_id":"levelo_inurba_marseille","lat":43.309371,"lon":5.401449,"is_reserved":false,"is_disabled":false,"rental_uris":{"android":"levelo://app?vid=d5dcde49-b4e7-46c7-a9fc-d5e75d6f184a","ios":"levelo://app?vid=d5dcde49-b4e7-46c7-a9fc-d5e75d6f184a"},"vehicle_type_id":"4","last_reported":1707073575,"current_range_meters":800,"station_id":"ce4bgvp2rcd13ifvqct0","pricing_plan_id":"free"},{"bike_id":"405a7b1a-290f-4975-98e3-174af0693012","system_id":"levelo_inurba_marseille","lat":43.306412,"lon":5.401035,"is_reserved":false,"is_disabled":false,"rental_uris":{"android":"levelo://app?vid=405a7b1a-290f-4975-98e3-174af0693012","ios":"levelo://app?vid=405a7b1a-290f-4975-98e3-174af0693012"},"vehicle_type_id":"4","last_reported":1707073575,"current_range_meters":4800,"station_id":"ce4bh112rcd13ifvqda0","pricing_plan_id":"free"},{"bike_id":"1102d98b-339a-4a02-92f9-c2b546a75d32","system_id":"levelo_inurba_marseille","lat":43.306412,"lon":5.401035,"is_reserved":false,"is_disabled":false,"rental_uris":{"android":"levelo://app?vid=1102d98b-339a-4a02-92f9-c2b546a75d32","ios":"levelo://app?vid=1102d98b-339a-4a02-92f9-c2b546a75d32"},"vehicle_type_id":"4","last_reported":1707073575,"current_range_meters":23200,"station_id":"ce4bh112rcd13ifvqda0","pricing_plan_id":"free"},{"bike_id":"63fb55b5-1897-41e1-b3c4-3273acbbb106","system_id":"levelo_inurba_marseille","lat":43.306546,"lon":5.400965,"is_reserved":false,"is_disabled":false,"rental_uris":{"android":"levelo://app?vid=63fb55b5-1897-41e1-b3c4-3273acbbb106","ios":"levelo://app?vid=63fb55b5-1897-41e1-b3c4-3273acbbb106"},"vehicle_type_id":"4","last_reported":1707073575,"current_range_meters":31200,"station_id":"ce4bh112rcd13ifvqda0","pricing_plan_id":"free"},{"bike_id":"4cabda34-5a81-4b0e-bcf6-5903a8a18333","system_id":"levelo_inurba_marseille","lat":43.306412,"lon":5.401035,"is_reserved":false,"is_disabled":false,"rental_uris":{"android":"levelo://app?vid=4cabda34-5a81-4b0e-bcf6-5903a8a18333","ios":"levelo://app?vid=4cabda34-5a81-4b0e-bcf6-5903a8a18333"},"vehicle_type_id":"4","last_reported":1707073575,"current_range_meters":15600,"station_id":"ce4bh112rcd13ifvqda0","pricing_plan_id":"free"},{"bike_id":"1b9cf5b6-c08c-4112-8225-f01d16098a9b","system_id":"levelo_inurba_marseille","lat":43.306412,"lon":5.401035,"is_reserved":false,"is_disabled":false,"rental_uris":{"android":"levelo://app?vid=1b9cf5b6-c08c-4112-8225-f01d16098a9b","ios":"levelo://app?vid=1b9cf5b6-c08c-4112-8225-f01d16098a9b"},"vehicle_type_id":"4","last_reported":1707073575,"current_range_meters":23200,"station_id":"ce4bh112rcd13ifvqda0","pricing_plan_id":"free"},{"bike_id":"b5c8cd35-34dd-45ee-b3e7-3050ef3cbe6a","system_id":"levelo_inurba_marseille","lat":43.337673,"lon":5.374918,"is_reserved":false,"is_disabled":false,"rental_uris":{"android":"levelo://app?vid=b5c8cd35-34dd-45ee-b3e7-3050ef3cbe6a","ios":"levelo://app?vid=b5c8cd35-34dd-45ee-b3e7-3050ef3cbe6a"},"vehicle_type_id":"4","last_reported":1707073575,"current_range_meters":11200,"station_id":"","pricing_plan_id":"free"},{"bike_id":"b817514d-6161-4355-996d-169e2dece9d3","system_id":"levelo_inurba_marseille","lat":43.301117,"lon":5.398795,"is_reserved":false,"is_disabled":false,"rental_uris":{"android":"levelo://app?vid=b817514d-6161-4355-996d-169e2dece9d3","ios":"levelo://app?vid=b817514d-6161-4355-996d-169e2dece9d3"},"vehicle_type_id":"4","last_reported":1707073575,"current_range_meters":6800,"station_id":"ce4bh0h2rcd13ifvqd40","pricing_plan_id":"free"},{"bike_id":"35448a9d-3c2e-466d-b025-e7831d6f8b57","system_id":"levelo_inurba_marseille","lat":43.301117,"lon":5.398795,"is_reserved":false,"is_disabled":false,"rental_uris":{"android":"levelo://app?vid=35448a9d-3c2e-466d-b025-e7831d6f8b57","ios":"levelo://app?vid=35448a9d-3c2e-466d-b025-e7831d6f8b57"},"vehicle_type_id":"4","last_reported":1707073575,"current_range_meters":1600,"station_id":"ce4bh0h2rcd13ifvqd40","pricing_plan_id":"free"},{"bike_id":"0982a2b6-343c-4ed5-bf51-ce215f3e295b","system_id":"levelo_inurba_marseille","lat":43.301117,"lon":5.398795,"is_reserved":false,"is_disabled":false,"rental_uris":{"android":"levelo://app?vid=0982a2b6-343c-4ed5-bf51-ce215f3e295b","ios":"levelo://app?vid=0982a2b6-343c-4ed5-bf51-ce215f3e295b"},"vehicle_type_id":"4","last_reported":1707073575,"current_range_meters":21200,"station_id":"ce4bh0h2rcd13ifvqd40","pricing_plan_id":"free"},{"bike_id":"b184a70c-1ff2-444c-90a0-c3f4aed2d263","system_id":"levelo_inurba_marseille","lat":43.301117,"lon":5.398795,"is_reserved":false,"is_disabled":false,"rental_uris":{"android":"levelo://app?vid=b184a70c-1ff2-444c-90a0-c3f4aed2d263","ios":"levelo://app?vid=b184a70c-1ff2-444c-90a0-c3f4aed2d263"},"vehicle_type_id":"4","last_reported":1707073575,"current_range_meters":7200,"station_id":"ce4bh0h2rcd13ifvqd40","pricing_plan_id":"free"},{"bike_id":"60f39e86-b013-4048-b97a-38c9a914fe01","system_id":"levelo_inurba_marseille","lat":43.286961,"lon":5.373785,"is_reserved":false,"is_disabled":false,"rental_uris":{"android":"levelo://app?vid=60f39e86-b013-4048-b97a-38c9a914fe01","ios":"levelo://app?vid=60f39e86-b013-4048-b97a-38c9a914fe01"},"vehicle_type_id":"4","last_reported":1707073575,"current_range_meters":0,"station_id":"ce4bh3p2rcd13ifvqdq0","pricing_plan_id":"free"},{"bike_id":"f1ad9eb9-b72a-4c3e-ada6-a185e3c30c7c","system_id":"levelo_inurba_marseille","lat":43.286591,"lon":5.363346,"is_reserved":false,"is_disabled":false,"rental_uris":{"android":"levelo://app?vid=f1ad9eb9-b72a-4c3e-ada6-a185e3c30c7c","ios":"levelo://app?vid=f1ad9eb9-b72a-4c3e-ada6-a185e3c30c7c"},"vehicle_type_id":"4","last_reported":1707073575,"current_range_meters":29200,"station_id":"ce4bhah2rcd13ifvqej0","pricing_plan_id":"free"},{"bike_id":"d31b4f00-b310-4a2a-ac4c-ec3f7ea37043","system_id":"levelo_inurba_marseille","lat":43.286961,"lon":5.373785,"is_reserved":false,"is_disabled":false,"rental_uris":{"android":"levelo://app?vid=d31b4f00-b310-4a2a-ac4c-ec3f7ea37043","ios":"levelo://app?vid=d31b4f00-b310-4a2a-ac4c-ec3f7ea37043"},"vehicle_type_id":"4","last_reported":1707073575,"current_range_meters":26800,"station_id":"ce4bh3p2rcd13ifvqdq0","pricing_plan_id":"free"},{"bike_id":"f9ee7bb1-3915-4a9d-b9f6-5d2efe95427c","system_id":"levelo_inurba_marseille","lat":43.286961,"lon":5.373785,"is_reserved":false,"is_disabled":false,"rental_uris":{"android":"levelo://app?vid=f9ee7bb1-3915-4a9d-b9f6-5d2efe95427c","ios":"levelo://app?vid=f9ee7bb1-3915-4a9d-b9f6-5d2efe95427c"},"vehicle_type_id":"4","last_reported":1707073575,"current_range_meters":400,"station_id":"ce4bh3p2rcd13ifvqdq0","pricing_plan_id":"free"},{"bike_id":"d305468d-3382-4123-b4a1-2a15b35d942c","system_id":"levelo_inurba_marseille","lat":43.28667,"lon":5.36351,"is_reserved":false,"is_disabled":false,"rental_uris":{"android":"levelo://app?vid=d305468d-3382-4123-b4a1-2a15b35d942c","ios":"levelo://app?vid=d305468d-3382-4123-b4a1-2a15b35d942c"},"vehicle_type_id":"4","last_reported":1707073575,"current_range_meters":8400,"station_id":"ce4bhah2rcd13ifvqej0","pricing_plan_id":"free"},{"bike_id":"d3c77141-db99-4e33-9afb-da595021ea08","system_id":"levelo_inurba_marseille","lat":43.286961,"lon":5.373785,"is_reserved":false,"is_disabled":false,"rental_uris":{"android":"levelo://app?vid=d3c77141-db99-4e33-9afb-da595021ea08","ios":"levelo://app?vid=d3c77141-db99-4e33-9afb-da595021ea08"},"vehicle_type_id":"4","last_reported":1707073575,"current_range_meters":5600,"station_id":"ce4bh3p2rcd13ifvqdq0","pricing_plan_id":"free"},{"bike_id":"a409a350-c4c6-49d8-af92-98f847538709","system_id":"levelo_inurba_marseille","lat":43.286961,"lon":5.373785,"is_reserved":false,"is_disabled":false,"rental_uris":{"android":"levelo://app?vid=a409a350-c4c6-49d8-af92-98f847538709","ios":"levelo://app?vid=a409a350-c4c6-49d8-af92-98f847538709"},"vehicle_type_id":"4","last_reported":1707073575,"current_range_meters":11200,"station_id":"ce4bh3p2rcd13ifvqdq0","pricing_plan_id":"free"},{"bike_id":"9bda60c6-45a0-4bb5-8b4c-340948fcf543","system_id":"levelo_inurba_marseille","lat":43.295196,"lon":5.39397,"is_reserved":false,"is_disabled":false,"rental_uris":{"android":"levelo://app?vid=9bda60c6-45a0-4bb5-8b4c-340948fcf543","ios":"levelo://app?vid=9bda60c6-45a0-4bb5-8b4c-340948fcf543"},"vehicle_type_id":"4","last_reported":1707073575,"current_range_meters":4400,"station_id":"ce4bh292rcd13ifvqdf0","pricing_plan_id":"free"},{"bike_id":"3a8dd1df-10c8-4ff4-b632-8d1f14e7c20d","system_id":"levelo_inurba_marseille","lat":43.286593,"lon":5.363346,"is_reserved":false,"is_disabled":false,"rental_uris":{"android":"levelo://app?vid=3a8dd1df-10c8-4ff4-b632-8d1f14e7c20d","ios":"levelo://app?vid=3a8dd1df-10c8-4ff4-b632-8d1f14e7c20d"},"vehicle_type_id":"4","last_reported":1707073575,"current_range_meters":26400,"station_id":"ce4bhah2rcd13ifvqej0","pricing_plan_id":"free"},{"bike_id":"ee7e9941-90f7-4d10-8674-980ac4819b47","system_id":"levelo_inurba_marseille","lat":43.290285,"lon":5.386355,"is_reserved":false,"is_disabled":false,"rental_uris":{"android":"levelo://app?vid=ee7e9941-90f7-4d10-8674-980ac4819b47","ios":"levelo://app?vid=ee7e9941-90f7-4d10-8674-980ac4819b47"},"vehicle_type_id":"4","last_reported":1707073575,"current_range_meters":20800,"station_id":"ce4bh4p2rcd13ifvqe0g","pricing_plan_id":"free"},{"bike_id":"fb63d027-8c1b-4690-81ca-b2b484626035","system_id":"levelo_inurba_marseille","lat":43.290336,"lon":5.386425,"is_reserved":false,"is_disabled":false,"rental_uris":{"android":"levelo://app?vid=fb63d027-8c1b-4690-81ca-b2b484626035","ios":"levelo://app?vid=fb63d027-8c1b-4690-81ca-b2b484626035"},"vehicle_type_id":"4","last_reported":1707073575,"current_range_meters":26400,"station_id":"ce4bh4p2rcd13ifvqe0g","pricing_plan_id":"free"},{"bike_id":"fdc9cf39-8133-473d-b3f5-0bbb6e430f5f","system_id":"levelo_inurba_marseille","lat":43.290237,"lon":5.386464,"is_reserved":false,"is_disabled":false,"rental_uris":{"android":"levelo://app?vid=fdc9cf39-8133-473d-b3f5-0bbb6e430f5f","ios":"levelo://app?vid=fdc9cf39-8133-473d-b3f5-0bbb6e430f5f"},"vehicle_type_id":"4","last_reported":1707073575,"current_range_meters":25600,"station_id":"ce4bh4p2rcd13ifvqe0g","pricing_plan_id":"free"},{"bike_id":"51d8c230-4da0-447b-afdd-fccfd7282a00","system_id":"levelo_inurba_marseille","lat":43.302759,"lon":5.400793,"is_reserved":false,"is_disabled":false,"rental_uris":{"android":"levelo://app?vid=51d8c230-4da0-447b-afdd-fccfd7282a00","ios":"levelo://app?vid=51d8c230-4da0-447b-afdd-fccfd7282a00"},"vehicle_type_id":"4","last_reported":1707073575,"current_range_meters":31200,"station_id":"ce4bgvh2rcd13ifvqcs0","pricing_plan_id":"free"},{"bike_id":"c5f1ea3e-04f1-4468-92f8-a73294a12cab","system_id":"levelo_inurba_marseille","lat":43.287185,"lon":5.379373,"is_reserved":false,"is_disabled":false,"rental_uris":{"android":"levelo://app?vid=c5f1ea3e-04f1-4468-92f8-a73294a12cab","ios":"levelo://app?vid=c5f1ea3e-04f1-4468-92f8-a73294a12cab"},"vehicle_type_id":"4","last_reported":1707073575,"current_range_meters":7600,"station_id":"ce4bh9p2rcd13ifvqec0","pricing_plan_id":"free"},{"bike_id":"b090e656-c7a4-44b9-bc19-504ba8521091","system_id":"levelo_inurba_marseille","lat":43.287184,"lon":5.37937,"is_reserved":false,"is_disabled":false,"rental_uris":{"android":"levelo://app?vid=b090e656-c7a4-44b9-bc19-504ba8521091","ios":"levelo://app?vid=b090e656-c7a4-44b9-bc19-504ba8521091"},"vehicle_type_id":"4","last_reported":1707073575,"current_range_meters":30400,"station_id":"ce4bh9p2rcd13ifvqec0","pricing_plan_id":"free"},{"bike_id":"8791f8bf-17d4-4b02-bca1-6582caaa2e8c","system_id":"levelo_inurba_marseille","lat":43.287184,"lon":5.37937,"is_reserved":false,"is_disabled":false,"rental_uris":{"android":"levelo://app?vid=8791f8bf-17d4-4b02-bca1-6582caaa2e8c","ios":"levelo://app?vid=8791f8bf-17d4-4b02-bca1-6582caaa2e8c"},"vehicle_type_id":"4","last_reported":1707073575,"current_range_meters":6400,"station_id":"ce4bh9p2rcd13ifvqec0","pricing_plan_id":"free"},{"bike_id":"333226f8-aaeb-48dd-b6bc-ee0a4d5be7b5","system_id":"levelo_inurba_marseille","lat":43.287492,"lon":5.352178,"is_reserved":false,"is_disabled":false,"rental_uris":{"android":"levelo://app?vid=333226f8-aaeb-48dd-b6bc-ee0a4d5be7b5","ios":"levelo://app?vid=333226f8-aaeb-48dd-b6bc-ee0a4d5be7b5"},"vehicle_type_id":"4","last_reported":1707073575,"current_range_meters":0,"station_id":"","pricing_plan_id":"free"},{"bike_id":"3468834e-403e-476a-96cc-b80fd9b608d9","system_id":"levelo_inurba_marseille","lat":43.295194,"lon":5.39397,"is_reserved":false,"is_disabled":false,"rental_uris":{"android":"levelo://app?vid=3468834e-403e-476a-96cc-b80fd9b608d9","ios":"levelo://app?vid=3468834e-403e-476a-96cc-b80fd9b608d9"},"vehicle_type_id":"4","last_reported":1707073575,"current_range_meters":16400,"station_id":"ce4bh292rcd13ifvqdf0","pricing_plan_id":"free"},{"bike_id":"0c2164e6-9270-4137-ab4d-a8f9ca4c5514","system_id":"levelo_inurba_marseille","lat":43.316828,"lon":5.404723,"is_reserved":false,"is_disabled":false,"rental_uris":{"android":"levelo://app?vid=0c2164e6-9270-4137-ab4d-a8f9ca4c5514","ios":"levelo://app?vid=0c2164e6-9270-4137-ab4d-a8f9ca4c5514"},"vehicle_type_id":"4","last_reported":1707073575,"current_range_meters":20800,"station_id":"ce4bh012rcd13ifvqd00","pricing_plan_id":"free"},{"bike_id":"a7cd7ba1-03f2-4e0f-8a65-6363fa717d53","system_id":"levelo_inurba_marseille","lat":43.316821,"lon":5.404737,"is_reserved":false,"is_disabled":false,"rental_uris":{"android":"levelo://app?vid=a7cd7ba1-03f2-4e0f-8a65-6363fa717d53","ios":"levelo://app?vid=a7cd7ba1-03f2-4e0f-8a65-6363fa717d53"},"vehicle_type_id":"4","last_reported":1707073575,"current_range_meters":14000,"station_id":"ce4bh012rcd13ifvqd00","pricing_plan_id":"free"},{"bike_id":"b1252978-b2d4-410e-815f-b83cd02c402b","system_id":"levelo_inurba_marseille","lat":43.31709,"lon":5.40471,"is_reserved":false,"is_disabled":false,"rental_uris":{"android":"levelo://app?vid=b1252978-b2d4-410e-815f-b83cd02c402b","ios":"levelo://app?vid=b1252978-b2d4-410e-815f-b83cd02c402b"},"vehicle_type_id":"4","last_reported":1707073575,"current_range_meters":31200,"station_id":"ce4bh012rcd13ifvqd00","pricing_plan_id":"free"},{"bike_id":"799d91a4-4aa3-4677-9398-69c6644e1413","system_id":"levelo_inurba_marseille","lat":43.291994,"lon":5.392907,"is_reserved":false,"is_disabled":false,"rental_uris":{"android":"levelo://app?vid=799d91a4-4aa3-4677-9398-69c6644e1413","ios":"levelo://app?vid=799d91a4-4aa3-4677-9398-69c6644e1413"},"vehicle_type_id":"4","last_reported":1707073575,"current_range_meters":28800,"station_id":"ce4bh192rcd13ifvqdd0","pricing_plan_id":"free"},{"bike_id":"1cd45315-a4dc-452b-80e1-1cba5f2bc2f1","system_id":"levelo_inurba_marseille","lat":43.291994,"lon":5.392907,"is_reserved":false,"is_disabled":false,"rental_uris":{"android":"levelo://app?vid=1cd45315-a4dc-452b-80e1-1cba5f2bc2f1","ios":"levelo://app?vid=1cd45315-a4dc-452b-80e1-1cba5f2bc2f1"},"vehicle_type_id":"4","last_reported":1707073575,"current_range_meters":0,"station_id":"ce4bh192rcd13ifvqdd0","pricing_plan_id":"free"},{"bike_id":"e6453c4f-4e0c-45d5-b41d-423455c85e10","system_id":"levelo_inurba_marseille","lat":43.291994,"lon":5.392907,"is_reserved":false,"is_disabled":false,"rental_uris":{"android":"levelo://app?vid=e6453c4f-4e0c-45d5-b41d-423455c85e10","ios":"levelo://app?vid=e6453c4f-4e0c-45d5-b41d-423455c85e10"},"vehicle_type_id":"4","last_reported":1707073575,"current_range_meters":12000,"station_id":"ce4bh192rcd13ifvqdd0","pricing_plan_id":"free"},{"bike_id":"fda0b6ae-3c71-4e21-90b3-71c1a3a19cdc","system_id":"levelo_inurba_marseille","lat":43.291994,"lon":5.392907,"is_reserved":false,"is_disabled":false,"rental_uris":{"android":"levelo://app?vid=fda0b6ae-3c71-4e21-90b3-71c1a3a19cdc","ios":"levelo://app?vid=fda0b6ae-3c71-4e21-90b3-71c1a3a19cdc"},"vehicle_type_id":"4","last_reported":1707073575,"current_range_meters":26000,"station_id":"ce4bh192rcd13ifvqdd0","pricing_plan_id":"free"},{"bike_id":"880c1adf-4dff-4872-befc-7c059d295e6c","system_id":"levelo_inurba_marseille","lat":43.291994,"lon":5.392907,"is_reserved":false,"is_disabled":false,"rental_uris":{"android":"levelo://app?vid=880c1adf-4dff-4872-befc-7c059d295e6c","ios":"levelo://app?vid=880c1adf-4dff-4872-befc-7c059d295e6c"},"vehicle_type_id":"4","last_reported":1707073575,"current_range_meters":12800,"station_id":"ce4bh192rcd13ifvqdd0","pricing_plan_id":"free"},{"bike_id":"139abce9-2bf8-48ea-a8e4-3b7a4995be61","system_id":"levelo_inurba_marseille","lat":43.284534,"lon":5.358662,"is_reserved":false,"is_disabled":false,"rental_uris":{"android":"levelo://app?vid=139abce9-2bf8-48ea-a8e4-3b7a4995be61","ios":"levelo://app?vid=139abce9-2bf8-48ea-a8e4-3b7a4995be61"},"vehicle_type_id":"4","last_reported":1707073575,"current_range_meters":3600,"station_id":"ce4bhah2rcd13ifvqei0","pricing_plan_id":"free"},{"bike_id":"8daf7553-8e9d-4e1f-8077-3a55595f10ee","system_id":"levelo_inurba_marseille","lat":43.28466,"lon":5.35877,"is_reserved":false,"is_disabled":false,"rental_uris":{"android":"levelo://app?vid=8daf7553-8e9d-4e1f-8077-3a55595f10ee","ios":"levelo://app?vid=8daf7553-8e9d-4e1f-8077-3a55595f10ee"},"vehicle_type_id":"4","last_reported":1707073575,"current_range_meters":10400,"station_id":"ce4bhah2rcd13ifvqei0","pricing_plan_id":"free"},{"bike_id":"dedec121-7ead-47e2-a1e4-839d56304e5b","system_id":"levelo_inurba_marseille","lat":43.284534,"lon":5.358662,"is_reserved":false,"is_disabled":false,"rental_uris":{"android":"levelo://app?vid=dedec121-7ead-47e2-a1e4-839d56304e5b","ios":"levelo://app?vid=dedec121-7ead-47e2-a1e4-839d56304e5b"},"vehicle_type_id":"4","last_reported":1707073575,"current_range_meters":28000,"station_id":"ce4bhah2rcd13ifvqei0","pricing_plan_id":"free"},{"bike_id":"560a4fed-44dc-4de8-801f-9faece6a965b","system_id":"levelo_inurba_marseille","lat":43.284538,"lon":5.358657,"is_reserved":false,"is_disabled":false,"rental_uris":{"android":"levelo://app?vid=560a4fed-44dc-4de8-801f-9faece6a965b","ios":"levelo://app?vid=560a4fed-44dc-4de8-801f-9faece6a965b"},"vehicle_type_id":"4","last_reported":1707073575,"current_range_meters":0,"station_id":"ce4bhah2rcd13ifvqei0","pricing_plan_id":"free"},