{"last_updated":1731175802,"ttl":60,"version":"2.2","data":{"bikes":[{"bike_id":"dcd8b508-2c18-4839-ab68-7b52cc2d3fb7","system_id":"levelo_inurba_marseille","lat":43.27072,"lon":5.42279,"is_reserved":false,"is_disabled":false,"rental_uris":{"android":"levelo://app?vid=dcd8b508-2c18-4839-ab68-7b52cc2d3fb7","ios":"levelo://app?vid=dcd8b508-2c18-4839-ab68-7b52cc2d3fb7"},"vehicle_type_id":"4","last_reported":1731175802,"current_range_meters":35200,"station_id":"ce4bhk92rcd13ifvqgb0","pricing_plan_id":"cebpf4jnsgd1na2vs0mg"},{"bike_id":"e94e2327-9eaf-4d26-bd7f-903afa708be6","system_id":"levelo_inurba_marseille","lat":43.33762,"lon":5.392,"is_reserved":false,"is_disabled":false,"rental_uris":{"android":"levelo://app?vid=e94e2327-9eaf-4d26-bd7f-903afa708be6","ios":"levelo://app?vid=e94e2327-9eaf-4d26-bd7f-903afa708be6"},"vehicle_type_id":"4","last_reported":1731175802,"current_range_meters":18000,"station_id":"ce4bhr92rcd13ifvqhsg","pricing_plan_id":"cebpf4jnsgd1na2vs0mg"},{"bike_id":"b0f42332-bc18-4d94-9a5f-fb485178dd42","system_id":"levelo_inurba_marseille","lat":43.31762,"lon":5.39022,"is_reserved":false,"is_disabled":false,"rental_uris":{"android":"levelo://app?vid=b0f42332-bc18-4d94-9a5f-fb485178dd42","ios":"levelo://app?vid=b0f42332-bc18-4d94-9a5f-fb485178dd42"},"vehicle_type_id":"4","last_reported":1731175802,"current_range_meters":11200,"station_id":"ce4bhqp2rcd13ifvqhng","pricing_plan_id":"cebpf4jnsgd1na2vs0mg"},{"bike_id":"8d618ad3-e42f-4b7f-961b-1ad00e2aa17c","system_id":"levelo_inurba_marseille","lat":43.25018,"lon":5.38924,"is_reserved":false,"is_disabled":false,"rental_uris":{"android":"levelo://app?vid=8d618ad3-e42f-4b7f-961b-1ad00e2aa17c","ios":"levelo://app?vid=8d618ad3-e42f-4b7f-961b-1ad00e2aa17c"},"vehicle_type_id":"4","last_reported":1731175802,"current_range_meters":38800,"station_id":"ce4bhgp2rcd13ifvqfd0","pricing_plan_id":"cebpf4jnsgd1na2vs0mg"},{"bike_id":"68bb9078-c705-4e4c-81de-7ae7c7d86c43","system_id":"levelo_inurba_marseille","lat":43.31683,"lon":5.37744,"is_reserved":false,"is_disabled":false,"rental_uris":{"android":"levelo://app?vid=68bb9078-c705-4e4c-81de-7ae7c7d86c43","ios":"levelo://app?vid=68bb9078-c705-4e4c-81de-7ae7c7d86c43"},"vehicle_type_id":"4","last_reported":1731175802,"current_range_meters":27600,"station_id":"ce4bgth2rcd13ifvqch0","pricing_plan_id":"cebpf4jnsgd1na2vs0mg"},{"bike_id":"b1b45304-85de-47be-a140-b98549ece647","system_id":"levelo_inurba_marseille","lat":43.29795,"lon":5.38097,"is_reserved":false,"is_disabled":false,"rental_uris":{"android":"levelo://app?vid=b1b45304-85de-47be-a140-b98549ece647","ios":"levelo://app?vid=b1b45304-85de-47be-a140-b98549ece647"},"vehicle_type_id":"4","last_reported":1731175802,"current_range_meters":32000,"station_id":"ce4bgip2rcd13ifvqbb0","pricing_plan_id":"cebpf4jnsgd1na2vs0mg"},{"bike_id":"5daf7e81-adca-4c69-ac49-7439dac41928","system_id":"levelo_inurba_marseille","lat":43.29553,"lon":5.42297,"is_reserved":false,"is_disabled":false,"rental_uris":{"android":"levelo://app?vid=5daf7e81-adca-4c69-ac49-7439dac41928","ios":"levelo://app?vid=5daf7e81-adca-4c69-ac49-7439dac41928"},"vehicle_type_id":"4","last_reported":1731175802,"current_range_meters":26000,"station_id":"ce4bhph2rcd13ifvqhdg","pricing_plan_id":"cebpf4jnsgd1na2vs0mg"},{"bike_id":"d2e1cafa-93f9-4198-bc9f-060d3369275a","system_id":"levelo_inurba_marseille","lat":43.27055,"lon":5.40259,"is_reserved":false,"is_disabled":false,"rental_uris":{"android":"levelo://app?vid=d2e1cafa-93f9-4198-bc9f-060d3369275a","ios":"levelo://app?vid=d2e1cafa-93f9-4198-bc9f-060d3369275a"},"vehicle_type_id":"4","last_reported":1731175802,"current_range_meters":5600,"station_id":"ce4bhk92rcd13ifvqgc0","pricing_plan_id":"cebpf4jnsgd1na2vs0mg"},{"bike_id":"284a2762-477c-40af-9c9c-5a2104d3dfcd","system_id":"levelo_inurba_marseille","lat":43.29249,"lon":5.4091,"is_reserved":false,"is_disabled":false,"rental_uris":{"android":"levelo://app?vid=284a2762-477c-40af-9c9c-5a2104d3dfcd","ios":"levelo://app?vid=284a2762-477c-40af-9c9c-5a2104d3dfcd"},"vehicle_type_id":"4","last_reported":1731175802,"current_range_meters":17200,"station_id":"ce4bh192rcd13ifvqdc0","pricing_plan_id":"cebpf4jnsgd1na2vs0mg"},{"bike_id":"99de9021-fe05-4906-918a-8dc4ea877b87","system_id":"levelo_inurba_marseille","lat":43.29622,"lon":5.37158,"is_reserved":false,"is_disabled":false,"rental_uris":{"android":"levelo://app?vid=99de9021-fe05-4906-918a-8dc4ea877b87","ios":"levelo://app?vid=99de9021-fe05-4906-918a-8dc4ea877b87"},"vehicle_type_id":"4","last_reported":1731175802,"current_range_meters":38800,"station_id":"ce4bgnh2rcd13ifvqc0g","pricing_plan_id":"cebpf4jnsgd1na2vs0mg"},{"bike_id":"f7024a57-282d-40c5-9770-7ddc58b5279e","system_id":"levelo_inurba_marseille","lat":43.29312,"lon":5.37191,"is_reserved":false,"is_disabled":false,"rental_uris":{"android":"levelo://app?vid=f7024a57-282d-40c5-9770-7ddc58b5279e","ios":"levelo://app?vid=f7024a57-282d-40c5-9770-7ddc58b5279e"},"vehicle_type_id":"4","last_reported":1731175802,"current_range_meters":20800,"station_id":"ce4bgh92rcd13ifvqb40","pricing_plan_id":"cebpf4jnsgd1na2vs0mg"},{"bike_id":"25a016db-5934-4bcc-b160-867ba2a800ae","system_id":"levelo_inurba_marseille","lat":43.29417,"lon":5.38629,"is_reserved":false,"is_disabled":false,"rental_uris":{"android":"levelo://app?vid=25a016db-5934-4bcc-b160-867ba2a800ae","ios":"levelo://app?vid=25a016db-5934-4bcc-b160-867ba2a800ae"},"vehicle_type_id":"4","last_reported":1731175802,"current_range_meters":25600,"station_id":"ce4bh2h2rcd13ifvqdh0","pricing_plan_id":"cebpf4jnsgd1na2vs0mg"},{"bike_id":"3340f91c-4d27-4488-8e44-e461acea8322","system_id":"levelo_inurba_marseille","lat":43.28802,"lon":5.3894,"is_reserved":false,"is_disabled":false,"rental_uris":{"android":"levelo://app?vid=3340f91c-4d27-4488-8e44-e461acea8322","ios":"levelo://app?vid=3340f91c-4d27-4488-8e44-e461acea8322"},"vehicle_type_id":"4","last_reported":1731175802,"current_range_meters":37600,"station_id":"ce4bh2p2rcd13ifvqdi0","pricing_plan_id":"cebpf4jnsgd1na2vs0mg"},{"bike_id":"b067ae9b-8f45-4e88-b6f7-faba74e7e1fe","system_id":"levelo_inurba_marseille","lat":43.25001,"lon":5.38926,"is_reserved":false,"is_disabled":false,"rental_uris":{"android":"levelo://app?vid=b067ae9b-8f45-4e88-b6f7-faba74e7e1fe","ios":"levelo://app?vid=b067ae9b-8f45-4e88-b6f7-faba74e7e1fe"},"vehicle_type_id":"4","last_reported":1731175802,"current_range_meters":38400,"station_id":"ce4bhgp2rcd13ifvqfd0","pricing_plan_id":"cebpf4jnsgd1na2vs0mg"},{"bike_id":"d837986e-5fa7-4d8e-86b8-6f18fdf3dd83","system_id":"levelo_inurba_marseille","lat":43.26034,"lon":5.37549,"is_reserved":false,"is_disabled":false,"rental_uris":{"android":"levelo://app?vid=d837986e-5fa7-4d8e-86b8-6f18fdf3dd83","ios":"levelo://app?vid=d837986e-5fa7-4d8e-86b8-6f18fdf3dd83"},"vehicle_type_id":"4","last_reported":1731175802,"current_range_meters":20400,"station_id":"ce4bhgh2rcd13ifvqfa0","pricing_plan_id":"cebpf4jnsgd1na2vs0mg"},{"bike_id":"39e0a0f0-a251-4d13-8a4f-a6eb6721037b","system_id":"levelo_inurba_marseille","lat":43.29866,"lon":5.39749,"is_reserved":false,"is_disabled":false,"rental_uris":{"android":"levelo://app?vid=39e0a0f0-a251-4d13-8a4f-a6eb6721037b","ios":"levelo://app?vid=39e0a0f0-a251-4d13-8a4f-a6eb6721037b"},"vehicle_type_id":"4","last_reported":1731175802,"current_range_meters":34800,"station_id":"ce4bh0h2rcd13ifvqd50","pricing_plan_id":"cebpf4jnsgd1na2vs0mg"},{"bike_id":"01395e8d-07a5-4c06-9686-09447f9b23a0","system_id":"levelo_inurba_marseille","lat":43.28038,"lon":5.36949,"is_reserved":false,"is_disabled":false,"rental_uris":{"android":"levelo://app?vid=01395e8d-07a5-4c06-9686-09447f9b23a0","ios":"levelo://app?vid=01395e8d-07a5-4c06-9686-09447f9b23a0"},"vehicle_type_id":"4","last_reported":1731175802,"current_range_meters":31200,"station_id":"ce4bha12rcd13ifvqef0","pricing_plan_id":"cebpf4jnsgd1na2vs0mg"},{"bike_id":"e4741e83-8d7f-4eba-a939-6b9a195f55bd","system_id":"levelo_inurba_marseille","lat":43.30361,"lon":5.38584,"is_reserved":false,"is_disabled":false,"rental_uris":{"android":"levelo://app?vid=e4741e83-8d7f-4eba-a939-6b9a195f55bd","ios":"levelo://app?vid=e4741e83-8d7f-4eba-a939-6b9a195f55bd"},"vehicle_type_id":"4","last_reported":1731175802,"current_range_meters":25600,"station_id":"","pricing_plan_id":"cebpf4jnsgd1na2vs0mg"},{"bike_id":"b9dd3f64-d7fc-4baa-82e1-95d09a6c0b85","system_id":"levelo_inurba_marseille","lat":43.30305,"lon":5.39214,"is_reserved":false,"is_disabled":false,"rental_uris":{"android":"levelo://app?vid=b9dd3f64-d7fc-4baa-82e1-95d09a6c0b85","ios":"levelo://app?vid=b9dd3f64-d7fc-4baa-82e1-95d09a6c0b85"},"vehicle_type_id":"4","last_reported":1731175802,"current_range_meters":38800,"station_id":"ce4bgkh2rcd13ifvqbk0","pricing_plan_id":"cebpf4jnsgd1na2vs0mg"},{"bike_id":"b9059161-bc2a-4853-8231-de961bd5f1e7","system_id":"levelo_inurba_marseille","lat":43.33714,"lon":5.39178,"is_reserved":false,"is_disabled":false,"rental_uris":{"android":"levelo://app?vid=b9059161-bc2a-4853-8231-de961bd5f1e7","ios":"levelo://app?vid=b9059161-bc2a-4853-8231-de961bd5f1e7"},"vehicle_type_id":"4","last_reported":1731175802,"current_range_meters":22000,"station_id":"ce4bhr92rcd13ifvqhsg","pricing_plan_id":"cebpf4jnsgd1na2vs0mg"},{"bike_id":"7ac36c98-5f7b-4304-a286-ea6f9baa0e94","system_id":"levelo_inurba_marseille","lat":43.24669,"lon":5.38173,"is_reserved":false,"is_disabled":false,"rental_uris":{"android":"levelo://app?vid=7ac36c98-5f7b-4304-a286-ea6f9baa0e94","ios":"levelo://app?vid=7ac36c98-5f7b-4304-a286-ea6f9baa0e94"},"vehicle_type_id":"4","last_reported":1731175802,"current_range_meters":38800,"station_id":"ce4bhih2rcd13ifvqfr0","pricing_plan_id":"cebpf4jnsgd1na2vs0mg"},{"bike_id":"842b65f8-a3af-443b-8d42-37ce5a79ba02","system_id":"levelo_inurba_marseille","lat":43.23962,"lon":5.36631,"is_reserved":false,"is_disabled":false,"rental_uris":{"android":"levelo://app?vid=842b65f8-a3af-443b-8d42-37ce5a79ba02","ios":"levelo://app?vid=842b65f8-a3af-443b-8d42-37ce5a79ba02"},"vehicle_type_id":"4","last_reported":1731175802,"current_range_meters":6000,"station_id":"ce4bhi12rcd13ifvqfp0","pricing_plan_id":"cebpf4jnsgd1na2vs0mg"},{"bike_id":"9e00ae8d-b3a9-4d4b-a691-62debbf0e14c","system_id":"levelo_inurba_marseille","lat":43.231918,"lon":5.399798,"is_reserved":false,"is_disabled":false,"rental_uris":{"android":"levelo://app?vid=9e00ae8d-b3a9-4d4b-a691-62debbf0e14c","ios":"levelo://app?vid=9e00ae8d-b3a9-4d4b-a691-62debbf0e14c"},"vehicle_type_id":"4","last_reported":1731175802,"current_range_meters":38800,"station_id":"ce4bhn12rcd13ifvqgqg","pricing_plan_id":"cebpf4jnsgd1na2vs0mg"},{"bike_id":"3e09356d-842a-4c31-9cc1-46c2d49b70cc","system_id":"levelo_inurba_marseille","lat":43.32363,"lon":5.38883,"is_reserved":false,"is_disabled":false,"rental_uris":{"android":"levelo://app?vid=3e09356d-842a-4c31-9cc1-46c2d49b70cc","ios":"levelo://app?vid=3e09356d-842a-4c31-9cc1-46c2d49b70cc"},"vehicle_type_id":"4","last_reported":1731175802,"current_range_meters":4000,"station_id":"ce4bhqp2rcd13ifvqhog","pricing_plan_id":"cebpf4jnsgd1na2vs0mg"},{"bike_id":"9d060b47-c978-4432-b622-c8056cdba2bd","system_id":"levelo_inurba_marseille","lat":43.27071,"lon":5.42275,"is_reserved":false,"is_disabled":false,"rental_uris":{"android":"levelo://app?vid=9d060b47-c978-4432-b622-c8056cdba2bd","ios":"levelo://app?vid=9d060b47-c978-4432-b622-c8056cdba2bd"},"vehicle_type_id":"4","last_reported":1731175802,"current_range_meters":16000,"station_id":"ce4bhk92rcd13ifvqgb0","pricing_plan_id":"cebpf4jnsgd1na2vs0mg"},{"bike_id":"7f6039b9-3968-4840-8062-3d5a572ce874","system_id":"levelo_inurba_marseille","lat":43.29633,"lon":5.38779,"is_reserved":false,"is_disabled":false,"rental_uris":{"android":"levelo://app?vid=7f6039b9-3968-4840-8062-3d5a572ce874","ios":"levelo://app?vid=7f6039b9-3968-4840-8062-3d5a572ce874"},"vehicle_type_id":"4","last_reported":1731175802,"current_range_meters":36800,"station_id":"","pricing_plan_id":"cebpf4jnsgd1na2vs0mg"},{"bike_id":"aee581a6-7cbd-44ff-b0df-3940d9080323","system_id":"levelo_inurba_marseille","lat":43.292596,"lon":5.408883,"is_reserved":false,"is_disabled":false,"rental_uris":{"android":"levelo://app?vid=aee581a6-7cbd-44ff-b0df-3940d9080323","ios":"levelo://app?vid=aee581a6-7cbd-44ff-b0df-3940d9080323"},"vehicle_type_id":"4","last_reported":1731175802,"current_range_meters":17600,"station_id":"ce4bh192rcd13ifvqdc0","pricing_plan_id":"cebpf4jnsgd1na2vs0mg"},{"bike_id":"6b2fec53-d320-499d-a701-474718b57da0","system_id":"levelo_inurba_marseille","lat":43.24193,"lon":5.39719,"is_reserved":false,"is_disabled":false,"rental_uris":{"android":"levelo://app?vid=6b2fec53-d320-499d-a701-474718b57da0","ios":"levelo://app?vid=6b2fec53-d320-499d-a701-474718b57da0"},"vehicle_type_id":"4","last_reported":1731175802,"current_range_meters":38800,"station_id":"ce4bhn12rcd13ifvqgpg","pricing_plan_id":"cebpf4jnsgd1na2vs0mg"},{"bike_id":"26a5d99a-ebd8-4781-87fa-4dda2ba270f0","system_id":"levelo_inurba_marseille","lat":43.30558,"lon":5.38428,"is_reserved":false,"is_disabled":false,"rental_uris":{"android":"levelo://app?vid=26a5d99a-ebd8-4781-87fa-4dda2ba270f0","ios":"levelo://app?vid=26a5d99a-ebd8-4781-87fa-4dda2ba270f0"},"vehicle_type_id":"4","last_reported":1731175802,"current_range_meters":38400,"station_id":"ce4bha92rcd13ifvqeh0","pricing_plan_id":"cebpf4jnsgd1na2vs0mg"},{"bike_id":"e6bfa2bc-9542-4691-95db-edae2daff427","system_id":"levelo_inurba_marseille","lat":43.28715,"lon":5.37394,"is_reserved":false,"is_disabled":false,"rental_uris":{"android":"levelo://app?vid=e6bfa2bc-9542-4691-95db-edae2daff427","ios":"levelo://app?vid=e6bfa2bc-9542-4691-95db-edae2daff427"},"vehicle_type_id":"4","last_reported":1731175802,"current_range_meters":28000,"station_id":"ce4bh3p2rcd13ifvqdq0","pricing_plan_id":"cebpf4jnsgd1na2vs0mg"},{"bike_id":"22c1039a-3f92-4394-9c5d-93bfb30a65e0","system_id":"levelo_inurba_marseille","lat":43.255,"lon":5.37651,"is_reserved":false,"is_disabled":false,"rental_uris":{"android":"levelo://app?vid=22c1039a-3f92-4394-9c5d-93bfb30a65e0","ios":"levelo://app?vid=22c1039a-3f92-4394-9c5d-93bfb30a65e0"},"vehicle_type_id":"4","last_reported":1731175802,"current_range_meters":20000,"station_id":"ce4bhh12rcd13ifvqff0","pricing_plan_id":"cebpf4jnsgd1na2vs0mg"},{"bike_id":"022a6c3f-2c40-4cbf-9753-f6fa44b0f843","system_id":"levelo_inurba_marseille","lat":43.31263,"lon":5.40172,"is_reserved":false,"is_disabled":false,"rental_uris":{"android":"levelo://app?vid=022a6c3f-2c40-4cbf-9753-f6fa44b0f843","ios":"levelo://app?vid=022a6c3f-2c40-4cbf-9753-f6fa44b0f843"},"vehicle_type_id":"4","last_reported":1731175802,"current_range_meters":38400,"station_id":"ce4bh092rcd13ifvqd30","pricing_plan_id":"cebpf4jnsgd1na2vs0mg"},{"bike_id":"a3693754-13b8-42b0-a61f-95073828f459","system_id":"levelo_inurba_marseille","lat":43.29972,"lon":5.38498,"is_reserved":false,"is_disabled":false,"rental_uris":{"android":"levelo://app?vid=a3693754-13b8-42b0-a61f-95073828f459","ios":"levelo://app?vid=a3693754-13b8-42b0-a61f-95073828f459"},"vehicle_type_id":"4","last_reported":1731175802,"current_range_meters":27600,"station_id":"ce4bgj92rcd13ifvqbd0","pricing_plan_id":"cebpf4jnsgd1na2vs0mg"},{"bike_id":"d82d88ba-b920-48dc-a79d-4cf82547c07a","system_id":"levelo_inurba_marseille","lat":43.26783,"lon":5.39422,"is_reserved":false,"is_disabled":false,"rental_uris":{"android":"levelo://app?vid=d82d88ba-b920-48dc-a79d-4cf82547c07a","ios":"levelo://app?vid=d82d88ba-b920-48dc-a79d-4cf82547c07a"},"vehicle_type_id":"4","last_reported":1731175802,"current_range_meters":24000,"station_id":"ce4bhh12rcd13ifvqfg0","pricing_plan_id":"cebpf4jnsgd1na2vs0mg"},{"bike_id":"f02d1200-952c-40e4-9f6c-736ac33cf164","system_id":"levelo_inurba_marseille","lat":43.24078,"lon":5.3775,"is_reserved":false,"is_disabled":false,"rental_uris":{"android":"levelo://app?vid=f02d1200-952c-40e4-9f6c-736ac33cf164","ios":"levelo://app?vid=f02d1200-952c-40e4-9f6c-736ac33cf164"},"vehicle_type_id":"4","last_reported":1731175802,"current_range_meters":27600,"station_id":"ce4bhnp2rcd13ifvqgvg","pricing_plan_id":"cebpf4jnsgd1na2vs0mg"},{"bike_id":"ada784b4-03b4-468c-9d09-9fc5fe9a5fab","system_id":"levelo_inurba_marseille","lat":43.30398,"lon":5.39872,"is_reserved":false,"is_disabled":false,"rental_uris":{"android":"levelo://app?vid=ada784b4-03b4-468c-9d09-9fc5fe9a5fab","ios":"levelo://app?vid=ada784b4-03b4-468c-9d09-9fc5fe9a5fab"},"vehicle_type_id":"4","last_reported":1731175802,"current_range_meters":24800,"station_id":"","pricing_plan_id":"cebpf4jnsgd1na2vs0mg"},{"bike_id":"3e424db8-c595-49f7-a54b-a04c0f740835","system_id":"levelo_inurba_marseille","lat":43.29283,"lon":5.36836,"is_reserved":false,"is_disabled":false,"rental_uris":{"android":"levelo://app?vid=3e424db8-c595-49f7-a54b-a04c0f740835","ios":"levelo://app?vid=3e424db8-c595-49f7-a54b-a04c0f740835"},"vehicle_type_id":"4","last_reported":1731175802,"current_range_meters":33600,"station_id":"ce4bhbp2rcd13ifvqesg","pricing_plan_id":"cebpf4jnsgd1na2vs0mg"},{"bike_id":"e931dbea-a637-4f2a-b715-63e0aded4802","system_id":"levelo_inurba_marseille","lat":43.31173,"lon":5.38709,"is_reserved":false,"is_disabled":false,"rental_uris":{"android":"levelo://app?vid=e931dbea-a637-4f2a-b715-63e0aded4802","ios":"levelo://app?vid=e931dbea-a637-4f2a-b715-63e0aded4802"},"vehicle_type_id":"4","last_reported":1731175802,"current_range_meters":38400,"station_id":"ce4bgv12rcd13ifvqcp0","pricing_plan_id":"cebpf4jnsgd1na2vs0mg"},{"bike_id":"71bb50a1-6cdb-4a6f-b24c-1cbd7c603ad3","system_id":"levelo_inurba_marseille","lat":43.3144,"lon":5.37406,"is_reserved":false,"is_disabled":false,"rental_uris":{"android":"levelo://app?vid=71bb50a1-6cdb-4a6f-b24c-1cbd7c603ad3","ios":"levelo://app?vid=71bb50a1-6cdb-4a6f-b24c-1cbd7c603ad3"},"vehicle_type_id":"4","last_reported":1731175802,"current_range_meters":26800,"station_id":"","pricing_plan_id":"cebpf4jnsgd1na2vs0mg"},{"bike_id":"c94909dd-e782-4a49-bf66-6d27f36ac2ee","system_id":"levelo_inurba_marseille","lat":43.29644,"lon":5.38079,"is_reserved":false,"is_disabled":false,"rental_uris":{"android":"levelo://app?vid=c94909dd-e782-4a49-bf66-6d27f36ac2ee","ios":"levelo://app?vid=c94909dd-e782-4a49-bf66-6d27f36ac2ee"},"vehicle_type_id":"4","last_reported":1731175802,"current_range_meters":33600,"station_id":"","pricing_plan_id":"cebpf4jnsgd1na2vs0mg"},{"bike_id":"9f51a749-48f6-4c83-926f-f65864ee1b77","system_id":"levelo_inurba_marseille","lat":43.32058,"lon":5.41557,"is_reserved":false,"is_disabled":false,"rental_uris":{"android":"levelo://app?vid=9f51a749-48f6-4c83-926f-f65864ee1b77","ios":"levelo://app?vid=9f51a749-48f6-4c83-926f-f65864ee1b77"},"vehicle_type_id":"4","last_reported":1731175802,"current_range_meters":20400,"station_id":"ce4bhq92rcd13ifvqhkg","pricing_plan_id":"cebpf4jnsgd1na2vs0mg"},{"bike_id":"b8fdd341-0697-41ca-82c9-e4253415f4e6","system_id":"levelo_inurba_marseille","lat":43.23062,"lon":5.35493,"is_reserved":false,"is_disabled":false,"rental_uris":{"android":"levelo://app?vid=b8fdd341-0697-41ca-82c9-e4253415f4e6","ios":"levelo://app?vid=b8fdd341-0697-41ca-82c9-e4253415f4e6"},"vehicle_type_id":"4","last_reported":1731175802,"current_range_meters":31200,"station_id":"cpo3342slgdg3j2ifvpg","pricing_plan_id":"cebpf4jnsgd1na2vs0mg"},{"bike_id":"45222e14-800e-4a81-a088-3aee390adcf8","system_id":"levelo_inurba_marseille","lat":43.31488,"lon":5.37312,"is_reserved":false,"is_disabled":false,"rental_uris":{"android":"levelo://app?vid=45222e14-800e-4a81-a088-3aee390adcf8","ios":"levelo://app?vid=45222e14-800e-4a81-a088-3aee390adcf8"},"vehicle_type_id":"4","last_reported":1731175802,"current_range_meters":13600,"station_id":"ce4bgt12rcd13ifvqcd0","pricing_plan_id":"cebpf4jnsgd1na2vs0mg"},{"bike_id":"1093d2a5-b6c8-4cc6-b161-5bc1ad36b2da","system_id":"levelo_inurba_marseille","lat":43.30458,"lon":5.37906,"is_reserved":false,"is_disabled":false,"rental_uris":{"android":"levelo://app?vid=1093d2a5-b6c8-4cc6-b161-5bc1ad36b2da","ios":"levelo://app?vid=1093d2a5-b6c8-4cc6-b161-5bc1ad36b2da"},"vehicle_type_id":"4","last_reported":1731175802,"current_range_meters":28400,"station_id":"ce4bgup2rcd13ifvqcn0","pricing_plan_id":"cebpf4jnsgd1na2vs0mg"},{"bike_id":"1049c20a-f07b-43f2-b77d-e0d97a7509ae","system_id":"levelo_inurba_marseille","lat":43.28457,"lon":5.35897,"is_reserved":false,"is_disabled":false,"rental_uris":{"android":"levelo://app?vid=1049c20a-f07b-43f2-b77d-e0d97a7509ae","ios":"levelo://app?vid=1049c20a-f07b-43f2-b77d-e0d97a7509ae"},"vehicle_type_id":"4","last_reported":1731175802,"current_range_meters":30400,"station_id":"ce4bhah2rcd13ifvqei0","pricing_plan_id":"cebpf4jnsgd1na2vs0mg"},{"bike_id":"9273fa3f-8051-4693-b481-186e59c04091","system_id":"levelo_inurba_marseille","lat":43.29421,"lon":5.38622,"is_reserved":false,"is_disabled":false,"rental_uris":{"android":"levelo://app?vid=9273fa3f-8051-4693-b481-186e59c04091","ios":"levelo://app?vid=9273fa3f-8051-4693-b481-186e59c04091"},"vehicle_type_id":"4","last_reported":1731175802,"current_range_meters":17200,"station_id":"ce4bh2h2rcd13ifvqdh0","pricing_plan_id":"cebpf4jnsgd1na2vs0mg"},{"bike_id":"46f71ed4-8058-4c9f-9a21-1e5526aaf931","system_id":"levelo_inurba_marseille","lat":43.29925,"lon":5.37493,"is_reserved":false,"is_disabled":false,"rental_uris":{"android":"levelo://app?vid=46f71ed4-8058-4c9f-9a21-1e5526aaf931","ios":"levelo://app?vid=46f71ed4-8058-4c9f-9a21-1e5526aaf931"},"vehicle_type_id":"4","last_reported":1731175802,"current_range_meters":16800,"station_id":"ce4bgjh2rcd13ifvqbg0","pricing_plan_id":"cebpf4jnsgd1na2vs0mg"},{"bike_id":"b9d0bc02-8b8d-46ee-bb6e-da3b365f1431","system_id":"levelo_inurba_marseille","lat":43.30152,"lon":5.38086,"is_reserved":false,"is_disabled":false,"rental_uris":{"android":"levelo://app?vid=b9d0bc02-8b8d-46ee-bb6e-da3b365f1431","ios":"levelo://app?vid=b9d0bc02-8b8d-46ee-bb6e-da3b365f1431"},"vehicle_type_id":"4","last_reported":1731175802,"current_range_meters":38800,"station_id":"ce4bgjp2rcd13ifvqbh0","pricing_plan_id":"cebpf4jnsgd1na2vs0mg"},{"bike_id":"c0d15291-a7fa-4318-ab8f-8b751d3a2256","system_id":"levelo_inurba_marseille","lat":43.26789,"lon":5.39418,"is_reserved":false,"is_disabled":false,"rental_uris":{"android":"levelo://app?vid=c0d15291-a7fa-4318-ab8f-8b751d3a2256","ios":"levelo://app?vid=c0d15291-a7fa-4318-ab8f-8b751d3a2256"},"vehicle_type_id":"4","last_reported":1731175802,"current_range_meters":38800,"station_id":"ce4bhh12rcd13ifvqfg0","pricing_plan_id":"cebpf4jnsgd1na2vs0mg"},{"bike_id":"8e142e05-1678-41f8-bee1-bb9730e0b329","system_id":"levelo_inurba_marseille","lat":43.26209,"lon":5.37444,"is_reserved":false,"is_disabled":false,"rental_uris":{"android":"levelo://app?vid=8e142e05-1678-41f8-bee1-bb9730e0b329","ios":"levelo://app?vid=8e142e05-1678-41f8-bee1-bb9730e0b329"},"vehicle_type_id":"4","last_reported":1731175802,"current_range_meters":29600,"station_id":"ce4bhgp2rcd13ifvqfc0","pricing_plan_id":"cebpf4jnsgd1na2vs0mg"},{"bike_id":"dfbb28fc-c896-4657-8e7c-6e7602442646","system_id":"levelo_inurba_marseille","lat":43.2894,"lon":5.39641,"is_reserved":false,"is_disabled":false,"rental_uris":{"android":"levelo://app?vid=dfbb28fc-c896-4657-8e7c-6e7602442646","ios":"levelo://app?vid=dfbb28fc-c896-4657-8e7c-6e7602442646"},"vehicle_type_id":"4","last_reported":1731175802,"current_range_meters":16800,"station_id":"ce4bh3h2rcd13ifvqdn0","pricing_plan_id":"cebpf4jnsgd1na2vs0mg"},{"bike_id":"d2a7d86a-0890-4311-bcc6-70de1aeddd49","system_id":"levelo_inurba_marseille","lat":43.25487,"lon":5.37655,"is_reserved":false,"is_disabled":false,"rental_uris":{"android":"levelo://app?vid=d2a7d86a-0890-4311-bcc6-70de1aeddd49","ios":"levelo://app?vid=d2a7d86a-0890-4311-bcc6-70de1aeddd49"},"vehicle_type_id":"4","last_reported":1731175802,"current_range_meters":17200,"station_id":"ce4bhh12rcd13ifvqff0","pricing_plan_id":"cebpf4jnsgd1na2vs0mg"},{"bike_id":"376f7ba2-3107-4f30-bdf4-91320c91f434","system_id":"levelo_inurba_marseille","lat":43.2928,"lon":5.40119,"is_reserved":false,"is_disabled":false,"rental_uris":{"android":"levelo://app?vid=376f7ba2-3107-4f30-bdf4-91320c91f434","ios":"levelo://app?vid=376f7ba2-3107-4f30-bdf4-91320c91f434"},"vehicle_type_id":"4","last_reported":1731175802,"current_range_meters":31200,"station_id":"ce4bh312rcd13ifvqdk0","pricing_plan_id":"cebpf4jnsgd1na2vs0mg"},{"bike_id":"2972f759-c98e-4fe7-9758-85d215895273","system_id":"levelo_inurba_marseille","lat":43.23955,"lon":5.36629,"is_reserved":false,"is_disabled":false,"rental_uris":{"android":"levelo://app?vid=2972f759-c98e-4fe7-9758-85d215895273","ios":"levelo://app?vid=2972f759-c98e-4fe7-9758-85d215895273"},"vehicle_type_id":"4","last_reported":1731175802,"current_range_meters":38800,"station_id":"ce4bhi12rcd13ifvqfp0","pricing_plan_id":"cebpf4jnsgd1na2vs0mg"},{"bike_id":"8bb1867a-1fa0-4a39-92bc-2409d12ff513","system_id":"levelo_inurba_marseille","lat":43.27073,"lon":5.42278,"is_reserved":false,"is_disabled":false,"rental_uris":{"android":"levelo://app?vid=8bb1867a-1fa0-4a39-92bc-2409d12ff513","ios":"levelo://app?vid=8bb1867a-1fa0-4a39-92bc-2409d12ff513"},"vehicle_type_id":"4","last_reported":1731175802,"current_range_meters":2800,"station_id":"ce4bhk92rcd13ifvqgb0","pricing_plan_id":"cebpf4jnsgd1na2vs0mg"},{"bike_id":"010d3bc6-1da9-4e2e-9558-6436a5780c21","system_id":"levelo_inurba_marseille","lat":43.23197,"lon":5.35551,"is_reserved":false,"is_disabled":false,"rental_uris":{"android":"levelo://app?vid=010d3bc6-1da9-4e2e-9558-6436a5780c21","ios":"levelo://app?vid=010d3bc6-1da9-4e2e-9558-6436a5780c21"},"vehicle_type_id":"4","last_reported":1731175802,"current_range_meters":36400,"station_id":"ce4bhu92rcd13ifvqi70","pricing_plan_id":"cebpf4jnsgd1na2vs0mg"},{"bike_id":"f4bc439b-2fb4-4f25-9d68-34c9244d4003","system_id":"levelo_inurba_marseille","lat":43.27813,"lon":5.40707,"is_reserved":false,"is_disabled":false,"rental_uris":{"android":"levelo://app?vid=f4bc439b-2fb4-4f25-9d68-34c9244d4003","ios":"levelo://app?vid=f4bc439b-2fb4-4f25-9d68-34c9244d4003"},"vehicle_type_id":"4","last_reported":1731175802,"current_range_meters":39200,"station_id":"ce4bhnh2rcd13ifvqgtg","pricing_plan_id":"cebpf4jnsgd1na2vs0mg"},{"bike_id":"2e6144d9-506a-46f9-befc-103cdabdb5e0","system_id":"levelo_inurba_marseille","lat":43.30138,"lon":5.38779,"is_reserved":false,"is_disabled":false,"rental_uris":{"android":"levelo://app?vid=2e6144d9-506a-46f9-befc-103cdabdb5e0","ios":"levelo://app?vid=2e6144d9-506a-46f9-befc-103cdabdb5e0"},"vehicle_type_id":"4","last_reported":1731175802,"current_range_meters":36400,"station_id":"ce4bghh2rcd13ifvqb60","pricing_plan_id":"cebpf4jnsgd1na2vs0mg"},{"bike_id":"9e7444ca-5dca-4eb2-b556-9854acf5fcd9","system_id":"levelo_inurba_marseille","lat":43.24548,"lon":5.39524,"is_reserved":false,"is_disabled":false,"rental_uris":{"android":"levelo://app?vid=9e7444ca-5dca-4eb2-b556-9854acf5fcd9","ios":"levelo://app?vid=9e7444ca-5dca-4eb2-b556-9854acf5fcd9"},"vehicle_type_id":"4","last_reported":1731175802,"current_range_meters":19200,"station_id":"ce4bhlp2rcd13ifvqgjg","pricing_plan_id":"cebpf4jnsgd1na2vs0mg"},{"bike_id":"7e61b767-2b53-4323-b6fe-a0f8c71399cb","system_id":"levelo_inurba_marseille","lat":43.3112,"lon":5.37772,"is_reserved":false,"is_disabled":false,"rental_uris":{"android":"levelo://app?vid=7e61b767-2b53-4323-b6fe-a0f8c71399cb","ios":"levelo://app?vid=7e61b767-2b53-4323-b6fe-a0f8c71399cb"},"vehicle_type_id":"4","last_reported":1731175802,"current_range_meters":38800,"station_id":"ce4bgt92rcd13ifvqcg0","pricing_plan_id":"cebpf4jnsgd1na2vs0mg"},{"bike_id":"0cb8e656-4523-429e-9a26-eb1ed5dd12a9","system_id":"levelo_inurba_marseille","lat":43.29412,"lon":5.38628,"is_reserved":false,"is_disabled":false,"rental_uris":{"android":"levelo://app?vid=0cb8e656-4523-429e-9a26-eb1ed5dd12a9","ios":"levelo://app?vid=0cb8e656-4523-429e-9a26-eb1ed5dd12a9"},"vehicle_type_id":"4","last_reported":1731175802,"current_range_meters":23200,"station_id":"ce4bh2h2rcd13ifvqdh0","pricing_plan_id":"cebpf4jnsgd1na2vs0mg"},{"bike_id":"2aa491d1-ca5b-443c-a1f2-c27d6d489eac","system_id":"levelo_inurba_marseille","lat":43.29194,"lon":5.39327,"is_reserved":false,"is_disabled":false,"rental_uris":{"android":"levelo://app?vid=2aa491d1-ca5b-443c-a1f2-c27d6d489eac","ios":"levelo://app?vid=2aa491d1-ca5b-443c-a1f2-c27d6d489eac"},"vehicle_type_id":"4","last_reported":1731175802,"current_range_meters":16000,"station_id":"ce4bh192rcd13ifvqdd0","pricing_plan_id":"cebpf4jnsgd1na2vs0mg"},{"bike_id":"49ce0533-aa65-4719-aee6-e3982b0750c0","system_id":"levelo_inurba_marseille","lat":43.27375,"lon":5.36263,"is_reserved":false,"is_disabled":false,"rental_uris":{"android":"levelo://app?vid=49ce0533-aa65-4719-aee6-e3982b0750c0","ios":"levelo://app?vid=49ce0533-aa65-4719-aee6-e3982b0750c0"},"vehicle_type_id":"4","last_reported":1731175802,"current_range_meters":38800,"station_id":"ce4bhbh2rcd13ifvqeo0","pricing_plan_id":"cebpf4jnsgd1na2vs0mg"},{"bike_id":"702250d1-acb3-4694-8e8c-2cd88f9ed1d6","system_id":"levelo_inurba_marseille","lat":43.27494,"lon":5.42449,"is_reserved":false,"is_disabled":false,"rental_uris":{"android":"levelo://app?vid=702250d1-acb3-4694-8e8c-2cd88f9ed1d6","ios":"levelo://app?vid=702250d1-acb3-4694-8e8c-2cd88f9ed1d6"},"vehicle_type_id":"4","last_reported":1731175802,"current_range_meters":20000,"station_id":"ce4bhn92rcd13ifvqgrg","pricing_plan_id":"cebpf4jnsgd1na2vs0mg"},{"bike_id":"7412918f-e852-4734-ac8b-c4b5d62b6217","system_id":"levelo_inurba_marseille","lat":43.31362,"lon":5.385,"is_reserved":false,"is_disabled":false,"rental_uris":{"android":"levelo://app?vid=7412918f-e852-4734-ac8b-c4b5d62b6217","ios":"levelo://app?vid=7412918f-e852-4734-ac8b-c4b5d62b6217"},"vehicle_type_id":"4","last_reported":1731175802,"current_range_meters":19600,"station_id":"ce4bgt92rcd13ifvqcf0","pricing_plan_id":"cebpf4jnsgd1na2vs0mg"},{"bike_id":"2ad361b6-540e-4873-9e5b-6b5de9b52523","system_id":"levelo_inurba_marseille","lat":43.23963,"lon":5.36622,"is_reserved":false,"is_disabled":false,"rental_uris":{"android":"levelo://app?vid=2ad361b6-540e-4873-9e5b-6b5de9b52523","ios":"levelo://app?vid=2ad361b6-540e-4873-9e5b-6b5de9b52523"},"vehicle_type_id":"4","last_reported":1731175802,"current_range_meters":6800,"station_id":"ce4bhi12rcd13ifvqfp0","pricing_plan_id":"cebpf4jnsgd1na2vs0mg"},{"bike_id":"9f877289-3917-4b61-8be8-68297b264ebc","system_id":"levelo_inurba_marseille","lat":43.32367,"lon":5.38882,"is_reserved":false,"is_disabled":false,"rental_uris":{"android":"levelo://app?vid=9f877289-3917-4b61-8be8-68297b264ebc","ios":"levelo://app?vid=9f877289-3917-4b61-8be8-68297b264ebc"},"vehicle_type_id":"4","last_reported":1731175802,"current_range_meters":36000,"station_id":"ce4bhqp2rcd13ifvqhog","pricing_plan_id":"cebpf4jnsgd1na2vs0mg"},{"bike_id":"3f3b4e34-63c4-4ff0-8df0-289a2e6bd500","system_id":"levelo_inurba_marseille","lat":43.2319,"lon":5.39984,"is_reserved":false,"is_disabled":false,"rental_uris":{"android":"levelo://app?vid=3f3b4e34-63c4-4ff0-8df0-289a2e6bd500","ios":"levelo://app?vid=3f3b4e34-63c4-4ff0-8df0-289a2e6bd500"},"vehicle_type_id":"4","last_reported":1731175802,"current_range_meters":11600,"station_id":"ce4bhn12rcd13ifvqgqg","pricing_plan_id":"cebpf4jnsgd1na2vs0mg"},{"bike_id":"39f17349-ada4-4402-b2d4-f4683db56d2d","system_id":"levelo_inurba_marseille","lat":43.27497,"lon":5.42449,"is_reserved":false,"is_disabled":false,"rental_uris":{"android":"levelo://app?vid=39f17349-ada4-4402-b2d4-f4683db56d2d","ios":"levelo://app?vid=39f17349-ada4-4402-b2d4-f4683db56d2d"},"vehicle_type_id":"4","last_reported":1731175802,"current_range_meters":38800,"station_id":"ce4bhn92rcd13ifvqgrg","pricing_plan_id":"cebpf4jnsgd1na2vs0mg"},{"bike_id":"90960903-6332-423a-a484-6d60489c5254","system_id":"levelo_inurba_marseille","lat":43.29257,"lon":5.38439,"is_reserved":false,"is_disabled":false,"rental_uris":{"android":"levelo://app?vid=90960903-6332-423a-a484-6d60489c5254","ios":"levelo://app?vid=90960903-6332-423a-a484-6d60489c5254"},"vehicle_type_id":"4","last_reported":1731175802,"current_range_meters":22000,"station_id":"ce4bh692rcd13ifvqea0","pricing_plan_id":"cebpf4jnsgd1na2vs0mg"},{"bike_id":"b9478b1d-79e3-44c9-ae60-496dd5151f62","system_id":"levelo_inurba_marseille","lat":43.29164,"lon":5.3715,"is_reserved":false,"is_disabled":false,"rental_uris":{"android":"levelo://app?vid=b9478b1d-79e3-44c9-ae60-496dd5151f62","ios":"levelo://app?vid=b9478b1d-79e3-44c9-ae60-496dd5151f62"},"vehicle_type_id":"4","last_reported":1731175802,"current_range_meters":36000,"station_id":"ce4bha92rcd13ifvqeh0","pricing_plan_id":"cebpf4jnsgd1na2vs0mg"},{"bike_id":"b0ddf9b4-5e10-4df8-a49e-eaf62a5f5034","system_id":"levelo_inurba_marseille","lat":43.30139,"lon":5.3807,"is_reserved":false,"is_disabled":false,"rental_uris":{"android":"levelo://app?vid=b0ddf9b4-5e10-4df8-a49e-eaf62a5f5034","ios":"levelo://app?vid=b0ddf9b4-5e10-4df8-a49e-eaf62a5f5034"},"vehicle_type_id":"4","last_reported":1731175802,"current_range_meters":28400,"station_id":"ce4bgjp2rcd13ifvqbh0","pricing_plan_id":"cebpf4jnsgd1na2vs0mg"},{"bike_id":"4204c697-9142-4d6f-a64b-20f319f8c9a7","system_id":"levelo_inurba_marseille","lat":43.27063,"lon":5.42282,"is_reserved":false,"is_disabled":false,"rental_uris":{"android":"levelo://app?vid=4204c697-9142-4d6f-a64b-20f319f8c9a7","ios":"levelo://app?vid=4204c697-9142-4d6f-a64b-20f319f8c9a7"},"vehicle_type_id":"4","last_reported":1731175802,"current_range_meters":12800,"station_id":"ce4bhk92rcd13ifvqgb0","pricing_plan_id":"cebpf4jnsgd1na2vs0mg"},{"bike_id":"be64923b-9a6b-4619-89ba-5854a132c672","system_id":"levelo_inurba_marseille","lat":43.26809,"lon":5.4027,"is_reserved":false,"is_disabled":false,"rental_uris":{"android":"levelo://app?vid=be64923b-9a6b-4619-89ba-5854a132c672","ios":"levelo://app?vid=be64923b-9a6b-4619-89ba-5854a132c672"},"vehicle_type_id":"4","last_reported":1731175802,"current_range_meters":14000,"station_id":"ce501612rcd8frsf0b60","pricing_plan_id":"cebpf4jnsgd1na2vs0mg"},{"bike_id":"de15f00a-25b1-4b9b-a102-3b4e4c3a83ba","system_id":"levelo_inurba_marseille","lat":43.30151,"lon":5.38085,"is_reserved":false,"is_disabled":false,"rental_uris":{"android":"levelo://app?vid=de15f00a-25b1-4b9b-a102-3b4e4c3a83ba","ios":"levelo://app?vid=de15f00a-25b1-4b9b-a102-3b4e4c3a83ba"},"vehicle_type_id":"4","last_reported":1731175802,"current_range_meters":29600,"station_id":"ce4bgjp2rcd13ifvqbh0","pricing_plan_id":"cebpf4jnsgd1na2vs0mg"},{"bike_id":"2dd2ff6e-9ad3-416c-b567-116bbc0a9ffb","system_id":"levelo_inurba_marseille","lat":43.30909,"lon":5.3685,"is_reserved":false,"is_disabled":false,"rental_uris":{"android":"levelo://app?vid=2dd2ff6e-9ad3-416c-b567-116bbc0a9ffb","ios":"levelo://app?vid=2dd2ff6e-9ad3-416c-b567-116bbc0a9ffb"},"vehicle_type_id":"4","last_reported":1731175802,"current_range_meters":6800,"station_id":"ce4bgn92rcd13ifvqbvg","pricing_plan_id":"cebpf4jnsgd1na2vs0mg"},{"bike_id":"50f5a73d-144a-4f4b-8b0c-653d5a2eb847","system_id":"levelo_inurba_marseille","lat":43.28408,"lon":5.37513,"is_reserved":false,"is_disabled":false,"rental_uris":{"android":"levelo://app?vid=50f5a73d-144a-4f4b-8b0c-653d5a2eb847","ios":"levelo://app?vid=50f5a73d-144a-4f4b-8b0c-653d5a2eb847"},"vehicle_type_id":"4","last_reported":1731175802,"current_range_meters":23200,"station_id":"ce4bh412rcd13ifvqds0","pricing_plan_id":"cebpf4jnsgd1na2vs0mg"},{"bike_id":"71c19fdb-8f4d-41db-8667-87fe8ca83f13","system_id":"levelo_inurba_marseille","lat":43.28619,"lon":5.35107,"is_reserved":false,"is_disabled":false,"rental_uris":{"android":"levelo://app?vid=71c19fdb-8f4d-41db-8667-87fe8ca83f13","ios":"levelo://app?vid=71c19fdb-8f4d-41db-8667-87fe8ca83f13"},"vehicle_type_id":"4","last_reported":1731175802,"current_range_meters":24800,"station_id":"ce4bhch2rcd13ifvqeug","pricing_plan_id":"cebpf4jnsgd1na2vs0mg"},{"bike_id":"5652f708-2c31-48d0-8d85-95e3b45d3fc2","system_id":"levelo_inurba_marseille","lat":43.28669,"lon":5.38663,"is_reserved":false,"is_disabled":false,"rental_uris":{"android":"levelo://app?vid=5652f708-2c31-48d0-8d85-95e3b45d3fc2","ios":"levelo://app?vid=5652f708-2c31-48d0-8d85-95e3b45d3fc2"},"vehicle_type_id":"4","last_reported":1731175802,"current_range_meters":16000,"station_id":"ce4bh492rcd13ifvqdug","pricing_plan_id":"cebpf4jnsgd1na2vs0mg"},{"bike_id":"b4de7b9a-6515-49e3-b4f0-3d8149400129","system_id":"levelo_inurba_marseille","lat":43.30155,"lon":5.38093,"is_reserved":false,"is_disabled":false,"rental_uris":{"android":"levelo://app?vid=b4de7b9a-6515-49e3-b4f0-3d8149400129","ios":"levelo://app?vid=b4de7b9a-6515-49e3-b4f0-3d8149400129"},"vehicle_type_id":"4","last_reported":1731175802,"current_range_meters":36000,"station_id":"ce4bgjp2rcd13ifvqbh0","pricing_plan_id":"cebpf4jnsgd1na2vs0mg"},{"bike_id":"e1facb4c-9595-4607-8fe3-9f96106d6c98","system_id":"levelo_inurba_marseille","lat":43.29307,"lon":5.37453,"is_reserved":false,"is_disabled":false,"rental_uris":{"android":"levelo://app?vid=e1facb4c-9595-4607-8fe3-9f96106d6c98","ios":"levelo://app?vid=e1facb4c-9595-4607-8fe3-9f96106d6c98"},"vehicle_type_id":"4","last_reported":1731175802,"current_range_meters":38800,"station_id":"ce4bgi12rcd13ifvqb70","pricing_plan_id":"cebpf4jnsgd1na2vs0mg"},{"bike_id":"adc05974-b623-46c0-a3cd-9f58e223e9ed","system_id":"levelo_inurba_marseille","lat":43.296539,"lon":5.379875,"is_reserved":false,"is_disabled":false,"rental_uris":{"android":"levelo://app?vid=adc05974-b623-46c0-a3cd-9f58e223e9ed","ios":"levelo://app?vid=adc05974-b623-46c0-a3cd-9f58e223e9ed"},"vehicle_type_id":"4","last_reported":1731175802,"current_range_meters":10000,"station_id":"ce4bgl12rcd13ifvqbo0","pricing_plan_id":"cebpf4jnsgd1na2vs0mg"},{"bike_id":"ef288286-229d-4b9a-a189-8d61840dcffb","system_id":"levelo_inurba_marseille","lat":43.23198,"lon":5.35561,"is_reserved":false,"is_disabled":false,"rental_uris":{"android":"levelo://app?vid=ef288286-229d-4b9a-a189-8d61840dcffb","ios":"levelo://app?vid=ef288286-229d-4b9a-a189-8d61840dcffb"},"vehicle_type_id":"4","last_reported":1731175802,"current_range_meters":32400,"station_id":"ce4bhu92rcd13ifvqi70","pricing_plan_id":"cebpf4jnsgd1na2vs0mg"},{"bike_id":"383359ea-2a72-44f7-b02e-86e668e7b5dc","system_id":"levelo_inurba_marseille","lat":43.2706,"lon":5.40257,"is_reserved":false,"is_disabled":false,"rental_uris":{"android":"levelo://app?vid=383359ea-2a72-44f7-b02e-86e668e7b5dc","ios":"levelo://app?vid=383359ea-2a72-44f7-b02e-86e668e7b5dc"},"vehicle_type_id":"4","last_reported":1731175802,"current_range_meters":38000,"station_id":"ce4bhk92rcd13ifvqgc0","pricing_plan_id":"cebpf4jnsgd1na2vs0mg"},{"bike_id":"ddbef1a1-6ee4-4f31-970b-6f055a90804e","system_id":"levelo_inurba_marseille","lat":43.32657,"lon":5.41004,"is_reserved":false,"is_disabled":false,"rental_uris":{"android":"levelo://app?vid=ddbef1a1-6ee4-4f31-970b-6f055a90804e","ios":"levelo://app?vid=ddbef1a1-6ee4-4f31-970b-6f055a90804e"},"vehicle_type_id":"4","last_reported":1731175802,"current_range_meters":38800,"station_id":"ce4bhpp2rcd13ifvqhgg","pricing_plan_id":"cebpf4jnsgd1na2vs0mg"},{"bike_id":"6d50f610-349e-4e1c-bad3-c13bf362ef91","system_id":"levelo_inurba_marseille","lat":43.26217,"lon":5.37441,"is_reserved":false,"is_disabled":false,"rental_uris":{"android":"levelo://app?vid=6d50f610-349e-4e1c-bad3-c13bf362ef91","ios":"levelo://app?vid=6d50f610-349e-4e1c-bad3-c13bf362ef91"},"vehicle_type_id":"4","last_reported":1731175802,"current_range_meters":26800,"station_id":"ce4bhgp2rcd13ifvqfc0","pricing_plan_id":"cebpf4jnsgd1na2vs0mg"},{"bike_id":"1b273681-a149-4b44-af0d-27ca962351bc","system_id":"levelo_inurba_marseille","lat":43.29961,"lon":5.41331,"is_reserved":false,"is_disabled":false,"rental_uris":{"android":"levelo://app?vid=1b273681-a149-4b44-af0d-27ca962351bc","ios":"levelo://app?vid=1b273681-a149-4b44-af0d-27ca962351bc"},"vehicle_type_id":"4","last_reported":1731175802,"current_range_meters":35600,"station_id":"ce4bhp12rcd13ifvqh9g","pricing_plan_id":"cebpf4jnsgd1na2vs0mg"},{"bike_id":"2656a373-2fd2-49c8-897a-4aca1972f0f2","system_id":"levelo_inurba_marseille","lat":43.299103,"lon":5.374737,"is_reserved":false,"is_disabled":false,"rental_uris":{"android":"levelo://app?vid=2656a373-2fd2-49c8-897a-4aca1972f0f2","ios":"levelo://app?vid=2656a373-2fd2-49c8-897a-4aca1972f0f2"},"vehicle_type_id":"4","last_reported":1731175802,"current_range_meters":36000,"station_id":"ce4bgj92rcd13ifvqbd0","pricing_plan_id":"cebpf4jnsgd1na2vs0mg"},{"bike_id":"81d75b94-235f-4d66-95b8-a1c86584fb9a","system_id":"levelo_inurba_marseille","lat":43.29911,"lon":5.38067,"is_reserved":false,"is_disabled":false,"rental_uris":{"android":"levelo://app?vid=81d75b94-235f-4d66-95b8-a1c86584fb9a","ios":"levelo://app?vid=81d75b94-235f-4d66-95b8-a1c86584fb9a"},"vehicle_type_id":"4","last_reported":1731175802,"current_range_meters":8400,"station_id":"","pricing_plan_id":"cebpf4jnsgd1na2vs0mg"},{"bike_id":"6bec49a3-dcaf-474a-8731-ba5d5031f744","system_id":"levelo_inurba_marseille","lat":43.29063,"lon":5.37173,"is_reserved":false,"is_disabled":false,"rental_uris":{"android":"levelo://app?vid=6bec49a3-dcaf-474a-8731-ba5d5031f744","ios":"levelo://app?vid=6bec49a3-dcaf-474a-8731-ba5d5031f744"},"vehicle_type_id":"4","last_reported":1731175802,"current_range_meters":28000,"station_id":"ce4bh5p2rcd13ifvqe4g","pricing_plan_id":"cebpf4jnsgd1na2vs0mg"},{"bike_id":"18a5f517-df3c-430f-b99e-f490b1c10037","system_id":"levelo_inurba_marseille","lat":43.29793,"lon":5.38113,"is_reserved":false,"is_disabled":false,"rental_uris":{"android":"levelo://app?vid=18a5f517-df3c-430f-b99e-f490b1c10037","ios":"levelo://app?vid=18a5f517-df3c-430f-b99e-f490b1c10037"},"vehicle_type_id":"4","last_reported":1731175802,"current_range_meters":36400,"station_id":"ce4bgip2rcd13ifvqbb0","pricing_plan_id":"cebpf4jnsgd1na2vs0mg"},{"bike_id":"1db6f4f2-6d35-4a39-9a3c-7f9d64a10f58","system_id":"levelo_inurba_marseille","lat":43.30301,"lon":5.39215,"is_reserved":false,"is_disabled":false,"rental_uris":{"android":"levelo://app?vid=1db6f4f2-6d35-4a39-9a3c-7f9d64a10f58","ios":"levelo://app?vid=1db6f4f2-6d35-4a39-9a3c-7f9d64a10f58"},"vehicle_type_id":"4","last_reported":1731175802,"current_range_meters":30800,"station_id":"ce4bgkh2rcd13ifvqbk0","pricing_plan_id":"cebpf4jnsgd1na2vs0mg"},{"bike_id":"acfc4c88-f0d5-497e-86c1-c566b23c1747","system_id":"levelo_inurba_marseille","lat":43.24811,"lon":5.3746,"is_reserved":false,"is_disabled":false,"rental_uris":{"android":"levelo://app?vid=acfc4c88-f0d5-497e-86c1-c566b23c1747","ios":"levelo://app?vid=acfc4c88-f0d5-497e-86c1-c566b23c1747"},"vehicle_type_id":"4","last_reported":1731175802,"current_range_meters":8800,"station_id":"ce4bhgh2rcd13ifvqfb0","pricing_plan_id":"cebpf4jnsgd1na2vs0mg"},{"bike_id":"d8b069df-29e1-4273-99b0-c9104446d9c3","system_id":"levelo_inurba_marseille","lat":43.232,"lon":5.35556,"is_reserved":false,"is_disabled":false,"rental_uris":{"android":"levelo://app?vid=d8b069df-29e1-4273-99b0-c9104446d9c3","ios":"levelo://app?vid=d8b069df-29e1-4273-99b0-c9104446d9c3"},"vehicle_type_id":"4","last_reported":1731175802,"current_range_meters":9200,"station_id":"ce4bhu92rcd13ifvqi70","pricing_plan_id":"cebpf4jnsgd1na2vs0mg"},{"bike_id":"64105fe8-c743-4875-8f2b-77b2465fde83","system_id":"levelo_inurba_marseille","lat":43.26509,"lon":5.39534,"is_reserved":false,"is_disabled":false,"rental_uris":{"android":"levelo://app?vid=64105fe8-c743-4875-8f2b-77b2465fde83","ios":"levelo://app?vid=64105fe8-c743-4875-8f2b-77b2465fde83"},"vehicle_type_id":"4","last_reported":1731175802,"current_range_meters":11200,"station_id":"ce4bhi12rcd13ifvqfq0","pricing_plan_id":"cebpf4jnsgd1na2vs0mg"},{"bike_id":"e4ef474c-eef5-4a70-ae42-93a84d95d451","system_id":"levelo_inurba_marseille","lat":43.28155,"lon":5.42647,"is_reserved":false,"is_disabled":false,"rental_uris":{"android":"levelo://app?vid=e4ef474c-eef5-4a70-ae42-93a84d95d451","ios":"levelo://app?vid=e4ef474c-eef5-4a70-ae42-93a84d95d451"},"vehicle_type_id":"4","last_reported":1731175802,"current_range_meters":30000,"station_id":"ce4bhnh2rcd13ifvqgug","pricing_plan_id":"cebpf4jnsgd1na2vs0mg"},{"bike_id":"fbbe362b-7b29-4c8f-b506-484f07761f02","system_id":"levelo_inurba_marseille","lat":43.29915,"lon":5.37461,"is_reserved":false,"is_disabled":false,"rental_uris":{"android":"levelo://app?vid=fbbe362b-7b29-4c8f-b506-484f07761f02","ios":"levelo://app?vid=fbbe362b-7b29-4c8f-b506-484f07761f02"},"vehicle_type_id":"4","last_reported":1731175802,"current_range_meters":37600,"station_id":"ce4bgjh2rcd13ifvqbg0","pricing_plan_id":"cebpf4jnsgd1na2vs0mg"},{"bike_id":"018a5969-48d6-493e-abbb-cd5d32841d3f","system_id":"levelo_inurba_marseille","lat":43.28275,"lon":5.35072,"is_reserved":false,"is_disabled":false,"rental_uris":{"android":"levelo://app?vid=018a5969-48d6-493e-abbb-cd5d32841d3f","ios":"levelo://app?vid=018a5969-48d6-493e-abbb-cd5d32841d3f"},"vehicle_type_id":"4","last_reported":1731175802,"current_range_meters":38800,"station_id":"ce4bhbp2rcd13ifvqerg","pricing_plan_id":"cebpf4jnsgd1na2vs0mg"},{"bike_id":"f9aeacdd-bf01-432f-bf4e-03e65cef4bbd","system_id":"levelo_inurba_marseille","lat":43.29553,"lon":5.42296,"is_reserved":false,"is_disabled":false,"rental_uris":{"android":"levelo://app?vid=f9aeacdd-bf01-432f-bf4e-03e65cef4bbd","ios":"levelo://app?vid=f9aeacdd-bf01-432f-bf4e-03e65cef4bbd"},"vehicle_type_id":"4","last_reported":1731175802,"current_range_meters":16000,"station_id":"ce4bhph2rcd13ifvqhdg","pricing_plan_id":"cebpf4jnsgd1na2vs0mg"},{"bike_id":"15960287-54f7-422f-8523-edbf26f011a0","system_id":"levelo_inurba_marseille","lat":43.23971,"lon":5.36629,"is_reserved":false,"is_disabled":false,"rental_uris":{"android":"levelo://app?vid=15960287-54f7-422f-8523-edbf26f011a0","ios":"levelo://app?vid=15960287-54f7-422f-8523-edbf26f011a0"},"vehicle_type_id":"4","last_reported":1731175802,"current_range_meters":16000,"station_id":"ce4bhi12rcd13ifvqfp0","pricing_plan_id":"cebpf4jnsgd1na2vs0mg"},{"bike_id":"492319d4-a89a-41d6-97d8-f42f5881f6a8","system_id":"levelo_inurba_marseille","lat":43.31168,"lon":5.38727,"is_reserved":false,"is_disabled":false,"rental_uris":{"android":"levelo://app?vid=492319d4-a89a-41d6-97d8-f42f5881f6a8","ios":"levelo://app?vid=492319d4-a89a-41d6-97d8-f42f5881f6a8"},"vehicle_type_id":"4","last_reported":1731175802,"current_range_meters":23200,"station_id":"ce4bgv12rcd13ifvqcp0","pricing_plan_id":"cebpf4jnsgd1na2vs0mg"},{"bike_id":"a2af0eca-530d-4954-b538-26140aa97bc7","system_id":"levelo_inurba_marseille","lat":43.27492,"lon":5.42455,"is_reserved":false,"is_disabled":false,"rental_uris":{"android":"levelo://app?vid=a2af0eca-530d-4954-b538-26140aa97bc7","ios":"levelo://app?vid=a2af0eca-530d-4954-b538-26140aa97bc7"},"vehicle_type_id":"4","last_reported":1731175802,"current_range_meters":27600,"station_id":"ce4bhn92rcd13ifvqgrg","pricing_plan_id":"cebpf4jnsgd1na2vs0mg"},{"bike_id":"ba4e9b3f-2a8e-4431-b57f-f6a1ee8edd37","system_id":"levelo_inurba_marseille","lat":43.30155,"lon":5.38089,"is_reserved":false,"is_disabled":false,"rental_uris":{"android":"levelo://app?vid=ba4e9b3f-2a8e-4431-b57f-f6a1ee8edd37","ios":"levelo://app?vid=ba4e9b3f-2a8e-4431-b57f-f6a1ee8edd37"},"vehicle_type_id":"4","last_reported":1731175802,"current_range_meters":19200,"station_id":"ce4bgjp2rcd13ifvqbh0","pricing_plan_id":"cebpf4jnsgd1na2vs0mg"},{"bike_id":"d1e43cd6-5953-4553-bc5e-bf62b3c0865a","system_id":"levelo_inurba_marseille","lat":43.29163,"lon":5.37156,"is_reserved":false,"is_disabled":false,"rental_uris":{"android":"levelo://app?vid=d1e43cd6-5953-4553-bc5e-bf62b3c0865a","ios":"levelo://app?vid=d1e43cd6-5953-4553-bc5e-bf62b3c0865a"},"vehicle_type_id":"4","last_reported":1731175802,"current_range_meters":38000,"station_id":"ce4bha92rcd13ifvqeh0","pricing_plan_id":"cebpf4jnsgd1na2vs0mg"},{"bike_id":"07f8866d-073f-45b7-9ea8-7bd7327f7f86","system_id":"levelo_inurba_marseille","lat":43.314884,"lon":5.373099,"is_reserved":false,"is_disabled":false,"rental_uris":{"android":"levelo://app?vid=07f8866d-073f-45b7-9ea8-7bd7327f7f86","ios":"levelo://app?vid=07f8866d-073f-45b7-9ea8-7bd7327f7f86"},"vehicle_type_id":"4","last_reported":1731175802,"current_range_meters":0,"station_id":"ce4bgt12rcd13ifvqcd0","pricing_plan_id":"cebpf4jnsgd1na2vs0mg"},{"bike_id":"ae6ee6df-5779-49bd-a122-e5a8ebd03b7d","system_id":"levelo_inurba_marseille","lat":43.29312,"lon":5.37164,"is_reserved":false,"is_disabled":false,"rental_uris":{"android":"levelo://app?vid=ae6ee6df-5779-49bd-a122-e5a8ebd03b7d","ios":"levelo://app?vid=ae6ee6df-5779-49bd-a122-e5a8ebd03b7d"},"vehicle_type_id":"4","last_reported":1731175802,"current_range_meters":38800,"station_id":"ce4bgh92rcd13ifvqb40","pricing_plan_id":"cebpf4jnsgd1na2vs0mg"},{"bike_id":"d2bbd794-e0cd-44a3-b43c-ccd57d322c8b","system_id":"levelo_inurba_marseille","lat":43.30932,"lon":5.40146,"is_reserved":false,"is_disabled":false,"rental_uris":{"android":"levelo://app?vid=d2bbd794-e0cd-44a3-b43c-ccd57d322c8b","ios":"levelo://app?vid=d2bbd794-e0cd-44a3-b43c-ccd57d322c8b"},"vehicle_type_id":"4","last_reported":1731175802,"current_range_meters":27200,"station_id":"ce4bgvp2rcd13ifvqct0","pricing_plan_id":"cebpf4jnsgd1na2vs0mg"},{"bike_id":"19868c66-5db3-4e2c-b4b1-83376a58b502","system_id":"levelo_inurba_marseille","lat":43.299027,"lon":5.381441,"is_reserved":false,"is_disabled":false,"rental_uris":{"android":"levelo://app?vid=19868c66-5db3-4e2c-b4b1-83376a58b502","ios":"levelo://app?vid=19868c66-5db3-4e2c-b4b1-83376a58b502"},"vehicle_type_id":"4","last_reported":1731175802,"current_range_meters":28000,"station_id":"ce4bgj12rcd13ifvqbc0","pricing_plan_id":"cebpf4jnsgd1na2vs0mg"},{"bike_id":"37007f88-d192-4e59-8952-345fdf2fd50a","system_id":"levelo_inurba_marseille","lat":43.24662,"lon":5.38167,"is_reserved":false,"is_disabled":false,"rental_uris":{"android":"levelo://app?vid=37007f88-d192-4e59-8952-345fdf2fd50a","ios":"levelo://app?vid=37007f88-d192-4e59-8952-345fdf2fd50a"},"vehicle_type_id":"4","last_reported":1731175802,"current_range_meters":18800,"station_id":"ce4bhih2rcd13ifvqfr0","pricing_plan_id":"cebpf4jnsgd1na2vs0mg"},{"bike_id":"48a5c018-2c8a-4185-b049-1c96e973e571","system_id":"levelo_inurba_marseille","lat":43.255,"lon":5.37652,"is_reserved":false,"is_disabled":false,"rental_uris":{"android":"levelo://app?vid=48a5c018-2c8a-4185-b049-1c96e973e571","ios":"levelo://app?vid=48a5c018-2c8a-4185-b049-1c96e973e571"},"vehicle_type_id":"4","last_reported":1731175802,"current_range_meters":35200,"station_id":"ce4bhh12rcd13ifvqff0","pricing_plan_id":"cebpf4jnsgd1na2vs0mg"},{"bike_id":"e6ad734b-3114-4387-8542-5313acc06e1f","system_id":"levelo_inurba_marseille","lat":43.246643,"lon":5.381621,"is_reserved":false,"is_disabled":false,"rental_uris":{"android":"levelo://app?vid=e6ad734b-3114-4387-8542-5313acc06e1f","ios":"levelo://app?vid=e6ad734b-3114-4387-8542-5313acc06e1f"},"vehicle_type_id":"4","last_reported":1731175802,"current_range_meters":20800,"station_id":"ce4bhih2rcd13ifvqfr0","pricing_plan_id":"cebpf4jnsgd1na2vs0mg"},{"bike_id":"51afe667-83d4-4639-96c1-72cdd7537c31","system_id":"levelo_inurba_marseille","lat":43.29297,"lon":5.37447,"is_reserved":false,"is_disabled":false,"rental_uris":{"android":"levelo://app?vid=51afe667-83d4-4639-96c1-72cdd7537c31","ios":"levelo://app?vid=51afe667-83d4-4639-96c1-72cdd7537c31"},"vehicle_type_id":"4","last_reported":1731175802,"current_range_meters":37600,"station_id":"ce4bgi12rcd13ifvqb70","pricing_plan_id":"cebpf4jnsgd1na2vs0mg"},{"bike_id":"1514fbcc-aeaf-4b85-a4b2-5c80f80e1eaa","system_id":"levelo_inurba_marseille","lat":43.31369,"lon":5.38491,"is_reserved":false,"is_disabled":false,"rental_uris":{"android":"levelo://app?vid=1514fbcc-aeaf-4b85-a4b2-5c80f80e1eaa","ios":"levelo://app?vid=1514fbcc-aeaf-4b85-a4b2-5c80f80e1eaa"},"vehicle_type_id":"4","last_reported":1731175802,"current_range_meters":6800,"station_id":"ce4bgt92rcd13ifvqcf0","pricing_plan_id":"cebpf4jnsgd1na2vs0mg"},{"bike_id":"f2448cf2-c872-46d8-8aee-0426615722bd","system_id":"levelo_inurba_marseille","lat":43.26032,"lon":5.37548,"is_reserved":false,"is_disabled":false,"rental_uris":{"android":"levelo://app?vid=f2448cf2-c872-46d8-8aee-0426615722bd","ios":"levelo://app?vid=f2448cf2-c872-46d8-8aee-0426615722bd"},"vehicle_type_id":"4","last_reported":1731175802,"current_range_meters":16000,"station_id":"ce4bhgh2rcd13ifvqfa0","pricing_plan_id":"cebpf4jnsgd1na2vs0mg"},{"bike_id":"00d4f856-d261-4777-9e78-1bf537357790","system_id":"levelo_inurba_marseille","lat":43.25876,"lon":5.39897,"is_reserved":false,"is_disabled":false,"rental_uris":{"android":"levelo://app?vid=00d4f856-d261-4777-9e78-1bf537357790","ios":"levelo://app?vid=00d4f856-d261-4777-9e78-1bf537357790"},"vehicle_type_id":"4","last_reported":1731175802,"current_range_meters":11200,"station_id":"ce4bhl92rcd13ifvqghg","pricing_plan_id":"cebpf4jnsgd1na2vs0mg"},{"bike_id":"000ea6d2-0ff6-4e72-bfea-7e6b67264784","system_id":"levelo_inurba_marseille","lat":43.29358,"lon":5.37841,"is_reserved":false,"is_disabled":false,"rental_uris":{"android":"levelo://app?vid=000ea6d2-0ff6-4e72-bfea-7e6b67264784","ios":"levelo://app?vid=000ea6d2-0ff6-4e72-bfea-7e6b67264784"},"vehicle_type_id":"4","last_reported":1731175802,"current_range_meters":38800,"station_id":"ce4bgjh2rcd13ifvqbf0","pricing_plan_id":"cebpf4jnsgd1na2vs0mg"},{"bike_id":"a51d56de-6266-48f0-9ece-8f1d0d87e960","system_id":"levelo_inurba_marseille","lat":43.27369,"lon":5.36263,"is_reserved":false,"is_disabled":false,"rental_uris":{"android":"levelo://app?vid=a51d56de-6266-48f0-9ece-8f1d0d87e960","ios":"levelo://app?vid=a51d56de-6266-48f0-9ece-8f1d0d87e960"},"vehicle_type_id":"4","last_reported":1731175802,"current_range_meters":9200,"station_id":"ce4bhbh2rcd13ifvqeo0","pricing_plan_id":"cebpf4jnsgd1na2vs0mg"},{"bike_id":"96aef8c1-f007-442e-b872-036e6f6c58ad","system_id":"levelo_inurba_marseille","lat":43.31749,"lon":5.39016,"is_reserved":false,"is_disabled":false,"rental_uris":{"android":"levelo://app?vid=96aef8c1-f007-442e-b872-036e6f6c58ad","ios":"levelo://app?vid=96aef8c1-f007-442e-b872-036e6f6c58ad"},"vehicle_type_id":"4","last_reported":1731175802,"current_range_meters":38800,"station_id":"ce4bhqp2rcd13ifvqhng","pricing_plan_id":"cebpf4jnsgd1na2vs0mg"},{"bike_id":"e68d4664-4f4a-4319-865e-2bed64bd7d5b","system_id":"levelo_inurba_marseille","lat":43.3093,"lon":5.40142,"is_reserved":false,"is_disabled":false,"rental_uris":{"android":"levelo://app?vid=e68d4664-4f4a-4319-865e-2bed64bd7d5b","ios":"levelo://app?vid=e68d4664-4f4a-4319-865e-2bed64bd7d5b"},"vehicle_type_id":"4","last_reported":1731175802,"current_range_meters":22000,"station_id":"ce4bgvp2rcd13ifvqct0","pricing_plan_id":"cebpf4jnsgd1na2vs0mg"},{"bike_id":"6c988f55-f79e-4981-a9ea-2c322d27ade5","system_id":"levelo_inurba_marseille","lat":43.27915,"lon":5.39579,"is_reserved":false,"is_disabled":false,"rental_uris":{"android":"levelo://app?vid=6c988f55-f79e-4981-a9ea-2c322d27ade5","ios":"levelo://app?vid=6c988f55-f79e-4981-a9ea-2c322d27ade5"},"vehicle_type_id":"4","last_reported":1731175802,"current_range_meters":9200,"station_id":"ce4bhf92rcd13ifvqf40","pricing_plan_id":"cebpf4jnsgd1na2vs0mg"},{"bike_id":"c21768f5-7c25-4d41-ab9d-61489aeb0814","system_id":"levelo_inurba_marseille","lat":43.29521,"lon":5.39047,"is_reserved":false,"is_disabled":false,"rental_uris":{"android":"levelo://app?vid=c21768f5-7c25-4d41-ab9d-61489aeb0814","ios":"levelo://app?vid=c21768f5-7c25-4d41-ab9d-61489aeb0814"},"vehicle_type_id":"4","last_reported":1731175802,"current_range_meters":30000,"station_id":"ce4bh3p2rcd13ifvqdp0","pricing_plan_id":"cebpf4jnsgd1na2vs0mg"},{"bike_id":"f43eeab5-361f-4d76-bb77-54a1ab6d430f","system_id":"levelo_inurba_marseille","lat":43.33023,"lon":5.39046,"is_reserved":false,"is_disabled":false,"rental_uris":{"android":"levelo://app?vid=f43eeab5-361f-4d76-bb77-54a1ab6d430f","ios":"levelo://app?vid=f43eeab5-361f-4d76-bb77-54a1ab6d430f"},"vehicle_type_id":"4","last_reported":1731175802,"current_range_meters":12400,"station_id":"ce4bhr92rcd13ifvqhrg","pricing_plan_id":"cebpf4jnsgd1na2vs0mg"},{"bike_id":"181fa628-fd06-4339-88f4-5d411c857699","system_id":"levelo_inurba_marseille","lat":43.270676,"lon":5.422827,"is_reserved":false,"is_disabled":false,"rental_uris":{"android":"levelo://app?vid=181fa628-fd06-4339-88f4-5d411c857699","ios":"levelo://app?vid=181fa628-fd06-4339-88f4-5d411c857699"},"vehicle_type_id":"4","last_reported":1731175802,"current_range_meters":12800,"station_id":"ce4bhk92rcd13ifvqgb0","pricing_plan_id":"cebpf4jnsgd1na2vs0mg"},{"bike_id":"764ab749-70ca-4b73-a35f-c0abe15547f3","system_id":"levelo_inurba_marseille","lat":43.30152,"lon":5.38089,"is_reserved":false,"is_disabled":false,"rental_uris":{"android":"levelo://app?vid=764ab749-70ca-4b73-a35f-c0abe15547f3","ios":"levelo://app?vid=764ab749-70ca-4b73-a35f-c0abe15547f3"},"vehicle_type_id":"4","last_reported":1731175802,"current_range_meters":33600,"station_id":"ce4bgjp2rcd13ifvqbh0","pricing_plan_id":"cebpf4jnsgd1na2vs0mg"},{"bike_id":"ded6ed61-e517-4deb-86f0-5cfada375fc9","system_id":"levelo_inurba_marseille","lat":43.27211,"lon":5.39184,"is_reserved":false,"is_disabled":false,"rental_uris":{"android":"levelo://app?vid=ded6ed61-e517-4deb-86f0-5cfada375fc9","ios":"levelo://app?vid=ded6ed61-e517-4deb-86f0-5cfada375fc9"},"vehicle_type_id":"4","last_reported":1731175802,"current_range_meters":38000,"station_id":"ce4bhhp2rcd13ifvqfm0","pricing_plan_id":"cebpf4jnsgd1na2vs0mg"},{"bike_id":"e662ba77-e6b8-4482-8937-6e11fab5b336","system_id":"levelo_inurba_marseille","lat":43.33026,"lon":5.39042,"is_reserved":false,"is_disabled":false,"rental_uris":{"android":"levelo://app?vid=e662ba77-e6b8-4482-8937-6e11fab5b336","ios":"levelo://app?vid=e662ba77-e6b8-4482-8937-6e11fab5b336"},"vehicle_type_id":"4","last_reported":1731175802,"current_range_meters":10000,"station_id":"ce4bhr92rcd13ifvqhrg","pricing_plan_id":"cebpf4jnsgd1na2vs0mg"},{"bike_id":"27e15419-d9b0-4647-890e-e21a7149b1cd","system_id":"levelo_inurba_marseille","lat":43.27063,"lon":5.4228,"is_reserved":false,"is_disabled":false,"rental_uris":{"android":"levelo://app?vid=27e15419-d9b0-4647-890e-e21a7149b1cd","ios":"levelo://app?vid=27e15419-d9b0-4647-890e-e21a7149b1cd"},"vehicle_type_id":"4","last_reported":1731175802,"current_range_meters":10800,"station_id":"ce4bhk92rcd13ifvqgb0","pricing_plan_id":"cebpf4jnsgd1na2vs0mg"},{"bike_id":"55f47cbb-4cd2-4214-9965-9e0698b16e2e","system_id":"levelo_inurba_marseille","lat":43.32363,"lon":5.36747,"is_reserved":false,"is_disabled":false,"rental_uris":{"android":"levelo://app?vid=55f47cbb-4cd2-4214-9965-9e0698b16e2e","ios":"levelo://app?vid=55f47cbb-4cd2-4214-9965-9e0698b16e2e"},"vehicle_type_id":"4","last_reported":1731175802,"current_range_meters":38800,"station_id":"ce4bhsh2rcd13ifvqi2g","pricing_plan_id":"cebpf4jnsgd1na2vs0mg"},{"bike_id":"d4d2039d-7616-4c0c-910c-0f5355caf5da","system_id":"levelo_inurba_marseille","lat":43.30155,"lon":5.38091,"is_reserved":false,"is_disabled":false,"rental_uris":{"android":"levelo://app?vid=d4d2039d-7616-4c0c-910c-0f5355caf5da","ios":"levelo://app?vid=d4d2039d-7616-4c0c-910c-0f5355caf5da"},"vehicle_type_id":"4","last_reported":1731175802,"current_range_meters":38800,"station_id":"ce4bgjp2rcd13ifvqbh0","pricing_plan_id":"cebpf4jnsgd1na2vs0mg"},{"bike_id":"2c7572a8-3967-4a1c-b532-f23907f4ed0b","system_id":"levelo_inurba_marseille","lat":43.26949,"lon":5.38629,"is_reserved":false,"is_disabled":false,"rental_uris":{"android":"levelo://app?vid=2c7572a8-3967-4a1c-b532-f23907f4ed0b","ios":"levelo://app?vid=2c7572a8-3967-4a1c-b532-f23907f4ed0b"},"vehicle_type_id":"4","last_reported":1731175802,"current_range_meters":16800,"station_id":"ce4bhh92rcd13ifvqfh0","pricing_plan_id":"cebpf4jnsgd1na2vs0mg"},{"bike_id":"0d93b31b-854a-4c31-b287-70df5cbe7d07","system_id":"levelo_inurba_marseille","lat":43.24076,"lon":5.37737,"is_reserved":false,"is_disabled":false,"rental_uris":{"android":"levelo://app?vid=0d93b31b-854a-4c31-b287-70df5cbe7d07","ios":"levelo://app?vid=0d93b31b-854a-4c31-b287-70df5cbe7d07"},"vehicle_type_id":"4","last_reported":1731175802,"current_range_meters":15200,"station_id":"ce4bhnp2rcd13ifvqgvg","pricing_plan_id":"cebpf4jnsgd1na2vs0mg"},{"bike_id":"85c204c1-37d6-4b73-b6e0-dc44c53e6048","system_id":"levelo_inurba_marseille","lat":43.25502,"lon":5.37649,"is_reserved":false,"is_disabled":false,"rental_uris":{"android":"levelo://app?vid=85c204c1-37d6-4b73-b6e0-dc44c53e6048","ios":"levelo://app?vid=85c204c1-37d6-4b73-b6e0-dc44c53e6048"},"vehicle_type_id":"4","last_reported":1731175802,"current_range_meters":8000,"station_id":"ce4bhh12rcd13ifvqff0","pricing_plan_id":"cebpf4jnsgd1na2vs0mg"},{"bike_id":"e2abec00-3ef2-41a5-b9f5-46bbbaa02e60","system_id":"levelo_inurba_marseille","lat":43.25497,"lon":5.37654,"is_reserved":false,"is_disabled":false,"rental_uris":{"android":"levelo://app?vid=e2abec00-3ef2-41a5-b9f5-46bbbaa02e60","ios":"levelo://app?vid=e2abec00-3ef2-41a5-b9f5-46bbbaa02e60"},"vehicle_type_id":"4","last_reported":1731175802,"current_range_meters":6400,"station_id":"ce4bhh12rcd13ifvqff0","pricing_plan_id":"cebpf4jnsgd1na2vs0mg"},{"bike_id":"a05f6093-2e60-4227-87bb-95241619c447","system_id":"levelo_inurba_marseille","lat":43.28345,"lon":5.381,"is_reserved":false,"is_disabled":false,"rental_uris":{"android":"levelo://app?vid=a05f6093-2e60-4227-87bb-95241619c447","ios":"levelo://app?vid=a05f6093-2e60-4227-87bb-95241619c447"},"vehicle_type_id":"4","last_reported":1731175802,"current_range_meters":6000,"station_id":"ce4bh412rcd13ifvqdr0","pricing_plan_id":"cebpf4jnsgd1na2vs0mg"},{"bike_id":"eeec543b-f8fc-4b1e-98e2-4ca064d89fd7","system_id":"levelo_inurba_marseille","lat":43.3042,"lon":5.412854,"is_reserved":false,"is_disabled":false,"rental_uris":{"android":"levelo://app?vid=eeec543b-f8fc-4b1e-98e2-4ca064d89fd7","ios":"levelo://app?vid=eeec543b-f8fc-4b1e-98e2-4ca064d89fd7"},"vehicle_type_id":"4","last_reported":1731175802,"current_range_meters":17200,"station_id":"ce4bhop2rcd13ifvqh8g","pricing_plan_id":"cebpf4jnsgd1na2vs0mg"},{"bike_id":"90621bbd-90aa-4473-9ffe-cceb8a6e7a9f","system_id":"levelo_inurba_marseille","lat":43.23177,"lon":5.39993,"is_reserved":false,"is_disabled":false,"rental_uris":{"android":"levelo://app?vid=90621bbd-90aa-4473-9ffe-cceb8a6e7a9f","ios":"levelo://app?vid=90621bbd-90aa-4473-9ffe-cceb8a6e7a9f"},"vehicle_type_id":"4","last_reported":1731175802,"current_range_meters":14400,"station_id":"ce4bhn12rcd13ifvqgqg","pricing_plan_id":"cebpf4jnsgd1na2vs0mg"},{"bike_id":"c7057ba6-697b-4814-876e-11ed214bec97","system_id":"levelo_inurba_marseille","lat":43.30311,"lon":5.37708,"is_reserved":false,"is_disabled":false,"rental_uris":{"android":"levelo://app?vid=c7057ba6-697b-4814-876e-11ed214bec97","ios":"levelo://app?vid=c7057ba6-697b-4814-876e-11ed214bec97"},"vehicle_type_id":"4","last_reported":1731175802,"current_range_meters":38800,"station_id":"ce4bguh2rcd13ifvqcj0","pricing_plan_id":"cebpf4jnsgd1na2vs0mg"},{"bike_id":"99ee7c5d-6e65-4a9b-a86a-ad54643ebf7a","system_id":"levelo_inurba_marseille","lat":43.31374,"lon":5.38498,"is_reserved":false,"is_disabled":false,"rental_uris":{"android":"levelo://app?vid=99ee7c5d-6e65-4a9b-a86a-ad54643ebf7a","ios":"levelo://app?vid=99ee7c5d-6e65-4a9b-a86a-ad54643ebf7a"},"vehicle_type_id":"4","last_reported":1731175802,"current_range_meters":38800,"station_id":"ce4bgt92rcd13ifvqcf0","pricing_plan_id":"cebpf4jnsgd1na2vs0mg"},{"bike_id":"cb0207d1-a359-4257-9c1b-bdbf3d283b94","system_id":"levelo_inurba_marseille","lat":43.31269,"lon":5.40175,"is_reserved":false,"is_disabled":false,"rental_uris":{"android":"levelo://app?vid=cb0207d1-a359-4257-9c1b-bdbf3d283b94","ios":"levelo://app?vid=cb0207d1-a359-4257-9c1b-bdbf3d283b94"},"vehicle_type_id":"4","last_reported":1731175802,"current_range_meters":16800,"station_id":"ce4bh092rcd13ifvqd30","pricing_plan_id":"cebpf4jnsgd1na2vs0mg"},{"bike_id":"1b641421-2e55-46f2-aa52-a5bd61345632","system_id":"levelo_inurba_marseille","lat":43.24169,"lon":5.36398,"is_reserved":false,"is_disabled":false,"rental_uris":{"android":"levelo://app?vid=1b641421-2e55-46f2-aa52-a5bd61345632","ios":"levelo://app?vid=1b641421-2e55-46f2-aa52-a5bd61345632"},"vehicle_type_id":"4","last_reported":1731175802,"current_range_meters":16400,"station_id":"cpo36qri1sfpv3e86is0","pricing_plan_id":"cebpf4jnsgd1na2vs0mg"},{"bike_id":"88ac3795-4001-4f01-b318-1436fe517659","system_id":"levelo_inurba_marseille","lat":43.29517,"lon":5.39048,"is_reserved":false,"is_disabled":false,"rental_uris":{"android":"levelo://app?vid=88ac3795-4001-4f01-b318-1436fe517659","ios":"levelo://app?vid=88ac3795-4001-4f01-b318-1436fe517659"},"vehicle_type_id":"4","last_reported":1731175802,"current_range_meters":24800,"station_id":"ce4bh3p2rcd13ifvqdp0","pricing_plan_id":"cebpf4jnsgd1na2vs0mg"},{"bike_id":"0977e77d-e820-44f3-97e9-717906dea1a6","system_id":"levelo_inurba_marseille","lat":43.32369,"lon":5.38883,"is_reserved":false,"is_disabled":false,"rental_uris":{"android":"levelo://app?vid=0977e77d-e820-44f3-97e9-717906dea1a6","ios":"levelo://app?vid=0977e77d-e820-44f3-97e9-717906dea1a6"},"vehicle_type_id":"4","last_reported":1731175802,"current_range_meters":5600,"station_id":"ce4bhqp2rcd13ifvqhog","pricing_plan_id":"cebpf4jnsgd1na2vs0mg"},{"bike_id":"ca967b26-5608-4d10-847d-0e41c30c926b","system_id":"levelo_inurba_marseille","lat":43.32335,"lon":5.40627,"is_reserved":false,"is_disabled":false,"rental_uris":{"android":"levelo://app?vid=ca967b26-5608-4d10-847d-0e41c30c926b","ios":"levelo://app?vid=ca967b26-5608-4d10-847d-0e41c30c926b"},"vehicle_type_id":"4","last_reported":1731175802,"current_range_meters":30400,"station_id":"ce4bhq92rcd13ifvqhjg","pricing_plan_id":"cebpf4jnsgd1na2vs0mg"},{"bike_id":"74c499f1-8d02-4202-8cc2-f037263f08f1","system_id":"levelo_inurba_marseille","lat":43.24995,"lon":5.38939,"is_reserved":false,"is_disabled":false,"rental_uris":{"android":"levelo://app?vid=74c499f1-8d02-4202-8cc2-f037263f08f1","ios":"levelo://app?vid=74c499f1-8d02-4202-8cc2-f037263f08f1"},"vehicle_type_id":"4","last_reported":1731175802,"current_range_meters":38800,"station_id":"ce4bhgp2rcd13ifvqfd0","pricing_plan_id":"cebpf4jnsgd1na2vs0mg"},{"bike_id":"07704a86-dbed-425a-854d-11b1a4e3d84c","system_id":"levelo_inurba_marseille","lat":43.33759,"lon":5.37448,"is_reserved":false,"is_disabled":false,"rental_uris":{"android":"levelo://app?vid=07704a86-dbed-425a-854d-11b1a4e3d84c","ios":"levelo://app?vid=07704a86-dbed-425a-854d-11b1a4e3d84c"},"vehicle_type_id":"4","last_reported":1731175802,"current_range_meters":35600,"station_id":"","pricing_plan_id":"cebpf4jnsgd1na2vs0mg"},{"bike_id":"79b39923-b687-4420-a58b-1f85feafef16","system_id":"levelo_inurba_marseille","lat":43.29874,"lon":5.37327,"is_reserved":false,"is_disabled":false,"rental_uris":{"android":"levelo://app?vid=79b39923-b687-4420-a58b-1f85feafef16","ios":"levelo://app?vid=79b39923-b687-4420-a58b-1f85feafef16"},"vehicle_type_id":"4","last_reported":1731175802,"current_range_meters":38800,"station_id":"","pricing_plan_id":"cebpf4jnsgd1na2vs0mg"},{"bike_id":"c11f080c-5307-4e15-a713-ab6d36da54d6","system_id":"levelo_inurba_marseille","lat":43.29522,"lon":5.37503,"is_reserved":false,"is_disabled":false,"rental_uris":{"android":"levelo://app?vid=c11f080c-5307-4e15-a713-ab6d36da54d6","ios":"levelo://app?vid=c11f080c-5307-4e15-a713-ab6d36da54d6"},"vehicle_type_id":"4","last_reported":1731175802,"current_range_meters":23200,"station_id":"ce4bgkp2rcd13ifvqbmg","pricing_plan_id":"cebpf4jnsgd1na2vs0mg"},{"bike_id":"81abc5b8-f7c3-49f1-865e-3d42da567318","system_id":"levelo_inurba_marseille","lat":43.29533,"lon":5.38545,"is_reserved":false,"is_disabled":false,"rental_uris":{"android":"levelo://app?vid=81abc5b8-f7c3-49f1-865e-3d42da567318","ios":"levelo://app?vid=81abc5b8-f7c3-49f1-865e-3d42da567318"},"vehicle_type_id":"4","last_reported":1731175802,"current_range_meters":25200,"station_id":"ce4bgih2rcd13ifvqba0","pricing_plan_id":"cebpf4jnsgd1na2vs0mg"},{"bike_id":"0b74ce83-e6b1-4485-8ca6-3897f29a426e","system_id":"levelo_inurba_marseille","lat":43.23956,"lon":5.36631,"is_reserved":false,"is_disabled":false,"rental_uris":{"android":"levelo://app?vid=0b74ce83-e6b1-4485-8ca6-3897f29a426e","ios":"levelo://app?vid=0b74ce83-e6b1-4485-8ca6-3897f29a426e"},"vehicle_type_id":"4","last_reported":1731175802,"current_range_meters":14800,"station_id":"ce4bhi12rcd13ifvqfp0","pricing_plan_id":"cebpf4jnsgd1na2vs0mg"},{"bike_id":"07f9b435-5419-44a2-af45-de29c62dc426","system_id":"levelo_inurba_marseille","lat":43.30294,"lon":5.39209,"is_reserved":false,"is_disabled":false,"rental_uris":{"android":"levelo://app?vid=07f9b435-5419-44a2-af45-de29c62dc426","ios":"levelo://app?vid=07f9b435-5419-44a2-af45-de29c62dc426"},"vehicle_type_id":"4","last_reported":1731175802,"current_range_meters":38800,"station_id":"ce4bgkh2rcd13ifvqbk0","pricing_plan_id":"cebpf4jnsgd1na2vs0mg"},{"bike_id":"90dd26e5-75c2-482d-a0c4-8ef1c0b6d93f","system_id":"levelo_inurba_marseille","lat":43.29006,"lon":5.3561,"is_reserved":false,"is_disabled":false,"rental_uris":{"android":"levelo://app?vid=90dd26e5-75c2-482d-a0c4-8ef1c0b6d93f","ios":"levelo://app?vid=90dd26e5-75c2-482d-a0c4-8ef1c0b6d93f"},"vehicle_type_id":"4","last_reported":1731175802,"current_range_meters":22400,"station_id":"ce4bhb92rcd13ifvqen0","pricing_plan_id":"cebpf4jnsgd1na2vs0mg"},{"bike_id":"c765c516-0596-4fab-b4f5-1f634584ac75","system_id":"levelo_inurba_marseille","lat":43.28423,"lon":5.37514,"is_reserved":false,"is_disabled":false,"rental_uris":{"android":"levelo://app?vid=c765c516-0596-4fab-b4f5-1f634584ac75","ios":"levelo://app?vid=c765c516-0596-4fab-b4f5-1f634584ac75"},"vehicle_type_id":"4","last_reported":1731175802,"current_range_meters":2800,"station_id":"ce4bh412rcd13ifvqds0","pricing_plan_id":"cebpf4jnsgd1na2vs0mg"},{"bike_id":"548cdcbd-588c-45e6-a8b3-0b5449513d53","system_id":"levelo_inurba_marseille","lat":43.29202,"lon":5.39316,"is_reserved":false,"is_disabled":false,"rental_uris":{"android":"levelo://app?vid=548cdcbd-588c-45e6-a8b3-0b5449513d53","ios":"levelo://app?vid=548cdcbd-588c-45e6-a8b3-0b5449513d53"},"vehicle_type_id":"4","last_reported":1731175802,"current_range_meters":16000,"station_id":"ce4bh192rcd13ifvqdd0","pricing_plan_id":"cebpf4jnsgd1na2vs0mg"},{"bike_id":"5ac771a0-9dd5-41c1-9d5a-e162148fe515","system_id":"levelo_inurba_marseille","lat":43.25502,"lon":5.37648,"is_reserved":false,"is_disabled":false,"rental_uris":{"android":"levelo://app?vid=5ac771a0-9dd5-41c1-9d5a-e162148fe515","ios":"levelo://app?vid=5ac771a0-9dd5-41c1-9d5a-e162148fe515"},"vehicle_type_id":"4","last_reported":1731175802,"current_range_meters":13600,"station_id":"ce4bhh12rcd13ifvqff0","pricing_plan_id":"cebpf4jnsgd1na2vs0mg"},{"bike_id":"737e318d-f108-4c95-991e-c706599395c0","system_id":"levelo_inurba_marseille","lat":43.30148,"lon":5.38089,"is_reserved":false,"is_disabled":false,"rental_uris":{"android":"levelo://app?vid=737e318d-f108-4c95-991e-c706599395c0","ios":"levelo://app?vid=737e318d-f108-4c95-991e-c706599395c0"},"vehicle_type_id":"4","last_reported":1731175802,"current_range_meters":33200,"station_id":"ce4bgjp2rcd13ifvqbh0","pricing_plan_id":"cebpf4jnsgd1na2vs0mg"},{"bike_id":"896a2ba9-5285-4686-975d-79ddd9cd99a3","system_id":"levelo_inurba_marseille","lat":43.25824,"lon":5.39439,"is_reserved":false,"is_disabled":false,"rental_uris":{"android":"levelo://app?vid=896a2ba9-5285-4686-975d-79ddd9cd99a3","ios":"levelo://app?vid=896a2ba9-5285-4686-975d-79ddd9cd99a3"},"vehicle_type_id":"4","last_reported":1731175802,"current_range_meters":37600,"station_id":"ce4bhip2rcd13ifvqft0","pricing_plan_id":"cebpf4jnsgd1na2vs0mg"},{"bike_id":"5b6dea88-f16c-47ef-86fd-96cd6dc272af","system_id":"levelo_inurba_marseille","lat":43.31225,"lon":5.36856,"is_reserved":false,"is_disabled":false,"rental_uris":{"android":"levelo://app?vid=5b6dea88-f16c-47ef-86fd-96cd6dc272af","ios":"levelo://app?vid=5b6dea88-f16c-47ef-86fd-96cd6dc272af"},"vehicle_type_id":"4","last_reported":1731175802,"current_range_meters":12800,"station_id":"ce4bgl92rcd13ifvqbq0","pricing_plan_id":"cebpf4jnsgd1na2vs0mg"},{"bike_id":"45f48c8e-1d3f-4da1-92c4-20cac06d6dd6","system_id":"levelo_inurba_marseille","lat":43.28708,"lon":5.37393,"is_reserved":false,"is_disabled":false,"rental_uris":{"android":"levelo://app?vid=45f48c8e-1d3f-4da1-92c4-20cac06d6dd6","ios":"levelo://app?vid=45f48c8e-1d3f-4da1-92c4-20cac06d6dd6"},"vehicle_type_id":"4","last_reported":1731175802,"current_range_meters":17200,"station_id":"ce4bh3p2rcd13ifvqdq0","pricing_plan_id":"cebpf4jnsgd1na2vs0mg"},{"bike_id":"a73c1509-60fb-4a1f-acdc-f1f9e200ecaa","system_id":"levelo_inurba_marseille","lat":43.32659,"lon":5.40997,"is_reserved":false,"is_disabled":false,"rental_uris":{"android":"levelo://app?vid=a73c1509-60fb-4a1f-acdc-f1f9e200ecaa","ios":"levelo://app?vid=a73c1509-60fb-4a1f-acdc-f1f9e200ecaa"},"vehicle_type_id":"4","last_reported":1731175802,"current_range_meters":28400,"station_id":"ce4bhpp2rcd13ifvqhgg","pricing_plan_id":"cebpf4jnsgd1na2vs0mg"},{"bike_id":"baac3be3-010c-4ab7-b814-2af962c842f8","system_id":"levelo_inurba_marseille","lat":43.28347,"lon":5.37529,"is_reserved":false,"is_disabled":false,"rental_uris":{"android":"levelo://app?vid=baac3be3-010c-4ab7-b814-2af962c842f8","ios":"levelo://app?vid=baac3be3-010c-4ab7-b814-2af962c842f8"},"vehicle_type_id":"4","last_reported":1731175802,"current_range_meters":30000,"station_id":"","pricing_plan_id":"cebpf4jnsgd1na2vs0mg"},{"bike_id":"c24ec8d3-f88c-45b1-8d9c-1cc03e97149a","system_id":"levelo_inurba_marseille","lat":43.30119,"lon":5.39837,"is_reserved":false,"is_disabled":false,"rental_uris":{"android":"levelo://app?vid=c24ec8d3-f88c-45b1-8d9c-1cc03e97149a","ios":"levelo://app?vid=c24ec8d3-f88c-45b1-8d9c-1cc03e97149a"},"vehicle_type_id":"4","last_reported":1731175802,"current_range_meters":24400,"station_id":"ce4bh0h2rcd13ifvqd40","pricing_plan_id":"cebpf4jnsgd1na2vs0mg"},{"bike_id":"153b7ff0-4860-49f2-baf2-71c24452214b","system_id":"levelo_inurba_marseille","lat":43.29789,"lon":5.38117,"is_reserved":false,"is_disabled":false,"rental_uris":{"android":"levelo://app?vid=153b7ff0-4860-49f2-baf2-71c24452214b","ios":"levelo://app?vid=153b7ff0-4860-49f2-baf2-71c24452214b"},"vehicle_type_id":"4","last_reported":1731175802,"current_range_meters":19200,"station_id":"ce4bgip2rcd13ifvqbb0","pricing_plan_id":"cebpf4jnsgd1na2vs0mg"},{"bike_id":"1e070a10-692a-47fb-9137-a879ffe75cf0","system_id":"levelo_inurba_marseille","lat":43.29789,"lon":5.3934,"is_reserved":false,"is_disabled":false,"rental_uris":{"android":"levelo://app?vid=1e070a10-692a-47fb-9137-a879ffe75cf0","ios":"levelo://app?vid=1e070a10-692a-47fb-9137-a879ffe75cf0"},"vehicle_type_id":"4","last_reported":1731175802,"current_range_meters":16800,"station_id":"chh1huq6cuj3fo74tm60","pricing_plan_id":"cebpf4jnsgd1na2vs0mg"},{"bike_id":"651525a9-9541-42c5-a26d-932929a74330","system_id":"levelo_inurba_marseille","lat":43.2749,"lon":5.42459,"is_reserved":false,"is_disabled":false,"rental_uris":{"android":"levelo://app?vid=651525a9-9541-42c5-a26d-932929a74330","ios":"levelo://app?vid=651525a9-9541-42c5-a26d-932929a74330"},"vehicle_type_id":"4","last_reported":1731175802,"current_range_meters":27200,"station_id":"ce4bhn92rcd13ifvqgrg","pricing_plan_id":"cebpf4jnsgd1na2vs0mg"},{"bike_id":"c48eca37-84d8-445e-b66f-c452247de6b7","system_id":"levelo_inurba_marseille","lat":43.25501,"lon":5.37655,"is_reserved":false,"is_disabled":false,"rental_uris":{"android":"levelo://app?vid=c48eca37-84d8-445e-b66f-c452247de6b7","ios":"levelo://app?vid=c48eca37-84d8-445e-b66f-c452247de6b7"},"vehicle_type_id":"4","last_reported":1731175802,"current_range_meters":8000,"station_id":"ce4bhh12rcd13ifvqff0","pricing_plan_id":"cebpf4jnsgd1na2vs0mg"},{"bike_id":"40f593b1-c6b4-4056-9082-85c23863896b","system_id":"levelo_inurba_marseille","lat":43.25486,"lon":5.37648,"is_reserved":false,"is_disabled":false,"rental_uris":{"android":"levelo://app?vid=40f593b1-c6b4-4056-9082-85c23863896b","ios":"levelo://app?vid=40f593b1-c6b4-4056-9082-85c23863896b"},"vehicle_type_id":"4","last_reported":1731175802,"current_range_meters":38800,"station_id":"ce4bhh12rcd13ifvqff0","pricing_plan_id":"cebpf4jnsgd1na2vs0mg"},{"bike_id":"5e6225c0-2d39-469c-8147-59151b03250f","system_id":"levelo_inurba_marseille","lat":43.31689,"lon":5.40484,"is_reserved":false,"is_disabled":false,"rental_uris":{"android":"levelo://app?vid=5e6225c0-2d39-469c-8147-59151b03250f","ios":"levelo://app?vid=5e6225c0-2d39-469c-8147-59151b03250f"},"vehicle_type_id":"4","last_reported":1731175802,"current_range_meters":38800,"station_id":"ce4bh012rcd13ifvqd00","pricing_plan_id":"cebpf4jnsgd1na2vs0mg"},{"bike_id":"31ba1574-58e8-4c23-889d-e3a00b1f4e1c","system_id":"levelo_inurba_marseille","lat":43.29038,"lon":5.3592,"is_reserved":false,"is_disabled":false,"rental_uris":{"android":"levelo://app?vid=31ba1574-58e8-4c23-889d-e3a00b1f4e1c","ios":"levelo://app?vid=31ba1574-58e8-4c23-889d-e3a00b1f4e1c"},"vehicle_type_id":"4","last_reported":1731175802,"current_range_meters":37600,"station_id":"ce4bha92rcd13ifvqeg0","pricing_plan_id":"cebpf4jnsgd1na2vs0mg"},{"bike_id":"25845ab9-1181-480c-b25b-a96b7f2023da","system_id":"levelo_inurba_marseille","lat":43.29916,"lon":5.37455,"is_reserved":false,"is_disabled":false,"rental_uris":{"android":"levelo://app?vid=25845ab9-1181-480c-b25b-a96b7f2023da","ios":"levelo://app?vid=25845ab9-1181-480c-b25b-a96b7f2023da"},"vehicle_type_id":"4","last_reported":1731175802,"current_range_meters":32800,"station_id":"ce4bgjh2rcd13ifvqbg0","pricing_plan_id":"cebpf4jnsgd1na2vs0mg"},{"bike_id":"b4eb30bc-dd09-4cbf-8ece-3b8ada662aaf","system_id":"levelo_inurba_marseille","lat":43.2501,"lon":5.38915,"is_reserved":false,"is_disabled":false,"rental_uris":{"android":"levelo://app?vid=b4eb30bc-dd09-4cbf-8ece-3b8ada662aaf","ios":"levelo://app?vid=b4eb30bc-dd09-4cbf-8ece-3b8ada662aaf"},"vehicle_type_id":"4","last_reported":1731175802,"current_range_meters":18800,"station_id":"ce4bhgp2rcd13ifvqfd0","pricing_plan_id":"cebpf4jnsgd1na2vs0mg"},{"bike_id":"801dc6fd-756b-4a2b-886f-9c75586e96d1","system_id":"levelo_inurba_marseille","lat":43.2981,"lon":5.381,"is_reserved":false,"is_disabled":false,"rental_uris":{"android":"levelo://app?vid=801dc6fd-756b-4a2b-886f-9c75586e96d1","ios":"levelo://app?vid=801dc6fd-756b-4a2b-886f-9c75586e96d1"},"vehicle_type_id":"4","last_reported":1731175802,"current_range_meters":2800,"station_id":"ce4bgip2rcd13ifvqbb0","pricing_plan_id":"cebpf4jnsgd1na2vs0mg"},{"bike_id":"d19d38e7-34df-44f8-bbe6-4862f8fbaa71","system_id":"levelo_inurba_marseille","lat":43.24076,"lon":5.37761,"is_reserved":false,"is_disabled":false,"rental_uris":{"android":"levelo://app?vid=d19d38e7-34df-44f8-bbe6-4862f8fbaa71","ios":"levelo://app?vid=d19d38e7-34df-44f8-bbe6-4862f8fbaa71"},"vehicle_type_id":"4","last_reported":1731175802,"current_range_meters":27200,"station_id":"ce4bhnp2rcd13ifvqgvg","pricing_plan_id":"cebpf4jnsgd1na2vs0mg"},{"bike_id":"be94c940-c56d-4132-af66-fedb762b3e0f","system_id":"levelo_inurba_marseille","lat":43.23197,"lon":5.35559,"is_reserved":false,"is_disabled":false,"rental_uris":{"android":"levelo://app?vid=be94c940-c56d-4132-af66-fedb762b3e0f","ios":"levelo://app?vid=be94c940-c56d-4132-af66-fedb762b3e0f"},"vehicle_type_id":"4","last_reported":1731175802,"current_range_meters":36400,"station_id":"ce4bhu92rcd13ifvqi70","pricing_plan_id":"cebpf4jnsgd1na2vs0mg"},{"bike_id":"fd108837-4c91-404c-94d8-21c89b824b67","system_id":"levelo_inurba_marseille","lat":43.23179,"lon":5.39991,"is_reserved":false,"is_disabled":false,"rental_uris":{"android":"levelo://app?vid=fd108837-4c91-404c-94d8-21c89b824b67","ios":"levelo://app?vid=fd108837-4c91-404c-94d8-21c89b824b67"},"vehicle_type_id":"4","last_reported":1731175802,"current_range_meters":10000,"station_id":"ce4bhn12rcd13ifvqgqg","pricing_plan_id":"cebpf4jnsgd1na2vs0mg"},{"bike_id":"f7e92503-8855-4008-ac2f-46268d913f5e","system_id":"levelo_inurba_marseille","lat":43.31482,"lon":5.37303,"is_reserved":false,"is_disabled":false,"rental_uris":{"android":"levelo://app?vid=f7e92503-8855-4008-ac2f-46268d913f5e","ios":"levelo://app?vid=f7e92503-8855-4008-ac2f-46268d913f5e"},"vehicle_type_id":"4","last_reported":1731175802,"current_range_meters":36800,"station_id":"ce4bgt12rcd13ifvqcd0","pricing_plan_id":"cebpf4jnsgd1na2vs0mg"},{"bike_id":"e8e72c3f-e6d0-4772-a0a8-532a0f1821d6","system_id":"levelo_inurba_marseille","lat":43.2848,"lon":5.38405,"is_reserved":false,"is_disabled":false,"rental_uris":{"android":"levelo://app?vid=e8e72c3f-e6d0-4772-a0a8-532a0f1821d6","ios":"levelo://app?vid=e8e72c3f-e6d0-4772-a0a8-532a0f1821d6"},"vehicle_type_id":"4","last_reported":1731175802,"current_range_meters":38800,"station_id":"ce4bh512rcd13ifvqe3g","pricing_plan_id":"cebpf4jnsgd1na2vs0mg"},{"bike_id":"59868b42-de70-478e-a32f-dc4c32a312ba","system_id":"levelo_inurba_marseille","lat":43.26939,"lon":5.40252,"is_reserved":false,"is_disabled":false,"rental_uris":{"android":"levelo://app?vid=59868b42-de70-478e-a32f-dc4c32a312ba","ios":"levelo://app?vid=59868b42-de70-478e-a32f-dc4c32a312ba"},"vehicle_type_id":"4","last_reported":1731175802,"current_range_meters":13600,"station_id":"cjm6bp8fraef2m0cb0m0","pricing_plan_id":"cebpf4jnsgd1na2vs0mg"},{"bike_id":"799051fd-d983-438d-b1a6-f94aa3428752","system_id":"levelo_inurba_marseille","lat":43.29551,"lon":5.42287,"is_reserved":false,"is_disabled":false,"rental_uris":{"android":"levelo://app?vid=799051fd-d983-438d-b1a6-f94aa3428752","ios":"levelo://app?vid=799051fd-d983-438d-b1a6-f94aa3428752"},"vehicle_type_id":"4","last_reported":1731175802,"current_range_meters":38800,"station_id":"ce4bhph2rcd13ifvqhdg","pricing_plan_id":"cebpf4jnsgd1na2vs0mg"},{"bike_id":"9e60e4b8-d515-48d1-bbb0-5937e88eab57","system_id":"levelo_inurba_marseille","lat":43.2847,"lon":5.38423,"is_reserved":false,"is_disabled":false,"rental_uris":{"android":"levelo://app?vid=9e60e4b8-d515-48d1-bbb0-5937e88eab57","ios":"levelo://app?vid=9e60e4b8-d515-48d1-bbb0-5937e88eab57"},"vehicle_type_id":"4","last_reported":1731175802,"current_range_meters":0,"station_id":"ce4bh512rcd13ifvqe3g","pricing_plan_id":"cebpf4jnsgd1na2vs0mg"},{"bike_id":"9ef01f07-60f4-4549-b938-9e1a900efe81","system_id":"levelo_inurba_marseille","lat":43.26795,"lon":5.39407,"is_reserved":false,"is_disabled":false,"rental_uris":{"android":"levelo://app?vid=9ef01f07-60f4-4549-b938-9e1a900efe81","ios":"levelo://app?vid=9ef01f07-60f4-4549-b938-9e1a900efe81"},"vehicle_type_id":"4","last_reported":1731175802,"current_range_meters":18000,"station_id":"ce4bhh12rcd13ifvqfg0","pricing_plan_id":"cebpf4jnsgd1na2vs0mg"},{"bike_id":"2635b9e4-af08-477f-84fb-d06cd3006ce9","system_id":"levelo_inurba_marseille","lat":43.29033,"lon":5.37571,"is_reserved":false,"is_disabled":false,"rental_uris":{"android":"levelo://app?vid=2635b9e4-af08-477f-84fb-d06cd3006ce9","ios":"levelo://app?vid=2635b9e4-af08-477f-84fb-d06cd3006ce9"},"vehicle_type_id":"4","last_reported":1731175802,"current_range_meters":14000,"station_id":"ce4bh692rcd13ifvqe90","pricing_plan_id":"cebpf4jnsgd1na2vs0mg"},{"bike_id":"e88390ed-9b8a-46d8-8c93-37fd4498fc79","system_id":"levelo_inurba_marseille","lat":43.30794,"lon":5.43519,"is_reserved":false,"is_disabled":false,"rental_uris":{"android":"levelo://app?vid=e88390ed-9b8a-46d8-8c93-37fd4498fc79","ios":"levelo://app?vid=e88390ed-9b8a-46d8-8c93-37fd4498fc79"},"vehicle_type_id":"4","last_reported":1731175802,"current_range_meters":38800,"station_id":"ce4bhph2rcd13ifvqheg","pricing_plan_id":"cebpf4jnsgd1na2vs0mg"},{"bike_id":"8443ae58-8ec5-46e9-8c3e-0cb15f825d1f","system_id":"levelo_inurba_marseille","lat":43.27454,"lon":5.39406,"is_reserved":false,"is_disabled":false,"rental_uris":{"android":"levelo://app?vid=8443ae58-8ec5-46e9-8c3e-0cb15f825d1f","ios":"levelo://app?vid=8443ae58-8ec5-46e9-8c3e-0cb15f825d1f"},"vehicle_type_id":"4","last_reported":1731175802,"current_range_meters":6800,"station_id":"ce4bhdp2rcd13ifvqf20","pricing_plan_id":"cebpf4jnsgd1na2vs0mg"},{"bike_id":"a3face73-d158-4a00-ad27-d5fd5dbb7c72","system_id":"levelo_inurba_marseille","lat":43.3302,"lon":5.39039,"is_reserved":false,"is_disabled":false,"rental_uris":{"android":"levelo://app?vid=a3face73-d158-4a00-ad27-d5fd5dbb7c72","ios":"levelo://app?vid=a3face73-d158-4a00-ad27-d5fd5dbb7c72"},"vehicle_type_id":"4","last_reported":1731175802,"current_range_meters":26800,"station_id":"ce4bhr92rcd13ifvqhrg","pricing_plan_id":"cebpf4jnsgd1na2vs0mg"},{"bike_id":"d093e9cc-50ae-42f0-ae68-56f4a914edc5","system_id":"levelo_inurba_marseille","lat":43.292511,"lon":5.384169,"is_reserved":false,"is_disabled":false,"rental_uris":{"android":"levelo://app?vid=d093e9cc-50ae-42f0-ae68-56f4a914edc5","ios":"levelo://app?vid=d093e9cc-50ae-42f0-ae68-56f4a914edc5"},"vehicle_type_id":"4","last_reported":1731175802,"current_range_meters":28000,"station_id":"ce4bh692rcd13ifvqea0","pricing_plan_id":"cebpf4jnsgd1na2vs0mg"},{"bike_id":"e2172126-2a21-4930-80a8-c56122ffa730","system_id":"levelo_inurba_marseille","lat":43.27219,"lon":5.39188,"is_reserved":false,"is_disabled":false,"rental_uris":{"android":"levelo://app?vid=e2172126-2a21-4930-80a8-c56122ffa730","ios":"levelo://app?vid=e2172126-2a21-4930-80a8-c56122ffa730"},"vehicle_type_id":"4","last_reported":1731175802,"current_range_meters":21600,"station_id":"ce4bhhp2rcd13ifvqfm0","pricing_plan_id":"cebpf4jnsgd1na2vs0mg"},{"bike_id":"c84bdf7d-f195-474d-a873-253302579b9e","system_id":"levelo_inurba_marseille","lat":43.2583,"lon":5.39433,"is_reserved":false,"is_disabled":false,"rental_uris":{"android":"levelo://app?vid=c84bdf7d-f195-474d-a873-253302579b9e","ios":"levelo://app?vid=c84bdf7d-f195-474d-a873-253302579b9e"},"vehicle_type_id":"4","last_reported":1731175802,"current_range_meters":13600,"station_id":"ce4bhip2rcd13ifvqft0","pricing_plan_id":"cebpf4jnsgd1na2vs0mg"},{"bike_id":"0fc4e702-8d0c-4c90-89e8-98609788b6f0","system_id":"levelo_inurba_marseille","lat":43.29507,"lon":5.37507,"is_reserved":false,"is_disabled":false,"rental_uris":{"android":"levelo://app?vid=0fc4e702-8d0c-4c90-89e8-98609788b6f0","ios":"levelo://app?vid=0fc4e702-8d0c-4c90-89e8-98609788b6f0"},"vehicle_type_id":"4","last_reported":1731175802,"current_range_meters":37600,"station_id":"ce4bhb92rcd13ifvqen0","pricing_plan_id":"cebpf4jnsgd1na2vs0mg"},{"bike_id":"b6778b5b-579b-419a-8491-6086cf783779","system_id":"levelo_inurba_marseille","lat":43.29789,"lon":5.39343,"is_reserved":false,"is_disabled":false,"rental_uris":{"android":"levelo://app?vid=b6778b5b-579b-419a-8491-6086cf783779","ios":"levelo://app?vid=b6778b5b-579b-419a-8491-6086cf783779"},"vehicle_type_id":"4","last_reported":1731175802,"current_range_meters":33600,"station_id":"chh1huq6cuj3fo74tm60","pricing_plan_id":"cebpf4jnsgd1na2vs0mg"},{"bike_id":"7e7be88e-2387-4ac1-8672-4e3f2accb589","system_id":"levelo_inurba_marseille","lat":43.23194,"lon":5.3556,"is_reserved":false,"is_disabled":false,"rental_uris":{"android":"levelo://app?vid=7e7be88e-2387-4ac1-8672-4e3f2accb589","ios":"levelo://app?vid=7e7be88e-2387-4ac1-8672-4e3f2accb589"},"vehicle_type_id":"4","last_reported":1731175802,"current_range_meters":14000,"station_id":"ce4bhu92rcd13ifvqi70","pricing_plan_id":"cebpf4jnsgd1na2vs0mg"},{"bike_id":"d3ddac6b-acf6-477b-8daf-ad49aba87662","system_id":"levelo_inurba_marseille","lat":43.27063,"lon":5.42279,"is_reserved":false,"is_disabled":false,"rental_uris":{"android":"levelo://app?vid=d3ddac6b-acf6-477b-8daf-ad49aba87662","ios":"levelo://app?vid=d3ddac6b-acf6-477b-8daf-ad49aba87662"},"vehicle_type_id":"4","last_reported":1731175802,"current_range_meters":24800,"station_id":"ce4bhk92rcd13ifvqgb0","pricing_plan_id":"cebpf4jnsgd1na2vs0mg"},{"bike_id":"9d202f0a-a150-4d3b-bee1-9d2ea521a15d","system_id":"levelo_inurba_marseille","lat":43.32331,"lon":5.40621,"is_reserved":false,"is_disabled":false,"rental_uris":{"android":"levelo://app?vid=9d202f0a-a150-4d3b-bee1-9d2ea521a15d","ios":"levelo://app?vid=9d202f0a-a150-4d3b-bee1-9d2ea521a15d"},"vehicle_type_id":"4","last_reported":1731175802,"current_range_meters":3600,"station_id":"ce4bhq92rcd13ifvqhjg","pricing_plan_id":"cebpf4jnsgd1na2vs0mg"},{"bike_id":"8243846b-33e4-4a6c-baba-b722a14fc8bc","system_id":"levelo_inurba_marseille","lat":43.29622,"lon":5.37165,"is_reserved":false,"is_disabled":false,"rental_uris":{"android":"levelo://app?vid=8243846b-33e4-4a6c-baba-b722a14fc8bc","ios":"levelo://app?vid=8243846b-33e4-4a6c-baba-b722a14fc8bc"},"vehicle_type_id":"4","last_reported":1731175802,"current_range_meters":14400,"station_id":"ce4bgnh2rcd13ifvqc0g","pricing_plan_id":"cebpf4jnsgd1na2vs0mg"},{"bike_id":"38913476-0c41-4caf-8474-ad691206a74f","system_id":"levelo_inurba_marseille","lat":43.29163,"lon":5.37154,"is_reserved":false,"is_disabled":false,"rental_uris":{"android":"levelo://app?vid=38913476-0c41-4caf-8474-ad691206a74f","ios":"levelo://app?vid=38913476-0c41-4caf-8474-ad691206a74f"},"vehicle_type_id":"4","last_reported":1731175802,"current_range_meters":20000,"station_id":"ce4bha92rcd13ifvqeh0","pricing_plan_id":"cebpf4jnsgd1na2vs0mg"},{"bike_id":"c2bf881a-f020-4e0e-819d-ec6a7c5dac04","system_id":"levelo_inurba_marseille","lat":43.31701,"lon":5.37735,"is_reserved":false,"is_disabled":false,"rental_uris":{"android":"levelo://app?vid=c2bf881a-f020-4e0e-819d-ec6a7c5dac04","ios":"levelo://app?vid=c2bf881a-f020-4e0e-819d-ec6a7c5dac04"},"vehicle_type_id":"4","last_reported":1731175802,"current_range_meters":24800,"station_id":"ce4bgth2rcd13ifvqch0","pricing_plan_id":"cebpf4jnsgd1na2vs0mg"},{"bike_id":"0e6a6c25-5c0b-4fd1-a3cb-27845c0907f9","system_id":"levelo_inurba_marseille","lat":43.29909,"lon":5.38155,"is_reserved":false,"is_disabled":false,"rental_uris":{"android":"levelo://app?vid=0e6a6c25-5c0b-4fd1-a3cb-27845c0907f9","ios":"levelo://app?vid=0e6a6c25-5c0b-4fd1-a3cb-27845c0907f9"},"vehicle_type_id":"4","last_reported":1731175802,"current_range_meters":38000,"station_id":"ce4bgj12rcd13ifvqbc0","pricing_plan_id":"cebpf4jnsgd1na2vs0mg"},{"bike_id":"fa2a5e5c-6495-412b-a165-472e0f27db6f","system_id":"levelo_inurba_marseille","lat":43.25499,"lon":5.37653,"is_reserved":false,"is_disabled":false,"rental_uris":{"android":"levelo://app?vid=fa2a5e5c-6495-412b-a165-472e0f27db6f","ios":"levelo://app?vid=fa2a5e5c-6495-412b-a165-472e0f27db6f"},"vehicle_type_id":"4","last_reported":1731175802,"current_range_meters":21600,"station_id":"ce4bhh12rcd13ifvqff0","pricing_plan_id":"cebpf4jnsgd1na2vs0mg"},{"bike_id":"1dd2a330-9944-44c5-8293-357ff0760b31","system_id":"levelo_inurba_marseille","lat":43.2743,"lon":5.39417,"is_reserved":false,"is_disabled":false,"rental_uris":{"android":"levelo://app?vid=1dd2a330-9944-44c5-8293-357ff0760b31","ios":"levelo://app?vid=1dd2a330-9944-44c5-8293-357ff0760b31"},"vehicle_type_id":"4","last_reported":1731175802,"current_range_meters":6800,"station_id":"ce4bhdp2rcd13ifvqf20","pricing_plan_id":"cebpf4jnsgd1na2vs0mg"},{"bike_id":"12e8b14c-bc42-4790-9dcd-6ecd2e54a95f","system_id":"levelo_inurba_marseille","lat":43.28668,"lon":5.38662,"is_reserved":false,"is_disabled":false,"rental_uris":{"android":"levelo://app?vid=12e8b14c-bc42-4790-9dcd-6ecd2e54a95f","ios":"levelo://app?vid=12e8b14c-bc42-4790-9dcd-6ecd2e54a95f"},"vehicle_type_id":"4","last_reported":1731175802,"current_range_meters":19200,"station_id":"ce4bh492rcd13ifvqdug","pricing_plan_id":"cebpf4jnsgd1na2vs0mg"},{"bike_id":"aa9906b6-1607-45b4-ae0e-eae05e3a5145","system_id":"levelo_inurba_marseille","lat":43.29535,"lon":5.38541,"is_reserved":false,"is_disabled":false,"rental_uris":{"android":"levelo://app?vid=aa9906b6-1607-45b4-ae0e-eae05e3a5145","ios":"levelo://app?vid=aa9906b6-1607-45b4-ae0e-eae05e3a5145"},"vehicle_type_id":"4","last_reported":1731175802,"current_range_meters":17600,"station_id":"ce4bgih2rcd13ifvqba0","pricing_plan_id":"cebpf4jnsgd1na2vs0mg"},{"bike_id":"1b60ede5-bcb8-410b-b647-ed1a2295fb11","system_id":"levelo_inurba_marseille","lat":43.26202,"lon":5.37934,"is_reserved":false,"is_disabled":false,"rental_uris":{"android":"levelo://app?vid=1b60ede5-bcb8-410b-b647-ed1a2295fb11","ios":"levelo://app?vid=1b60ede5-bcb8-410b-b647-ed1a2295fb11"},"vehicle_type_id":"4","last_reported":1731175802,"current_range_meters":38800,"station_id":"ce4bhjp2rcd13ifvqg90","pricing_plan_id":"cebpf4jnsgd1na2vs0mg"},{"bike_id":"d79c975e-55c1-4db7-abab-e834ff828d00","system_id":"levelo_inurba_marseille","lat":43.30139,"lon":5.37424,"is_reserved":false,"is_disabled":false,"rental_uris":{"android":"levelo://app?vid=d79c975e-55c1-4db7-abab-e834ff828d00","ios":"levelo://app?vid=d79c975e-55c1-4db7-abab-e834ff828d00"},"vehicle_type_id":"4","last_reported":1731175802,"current_range_meters":35200,"station_id":"ce4bgs92rcd13ifvqcc0","pricing_plan_id":"cebpf4jnsgd1na2vs0mg"},{"bike_id":"14a0a6d6-6325-4f5f-b8d4-faa7246100e8","system_id":"levelo_inurba_marseille","lat":43.29422,"lon":5.38624,"is_reserved":false,"is_disabled":false,"rental_uris":{"android":"levelo://app?vid=14a0a6d6-6325-4f5f-b8d4-faa7246100e8","ios":"levelo://app?vid=14a0a6d6-6325-4f5f-b8d4-faa7246100e8"},"vehicle_type_id":"4","last_reported":1731175802,"current_range_meters":35200,"station_id":"ce4bh2h2rcd13ifvqdh0","pricing_plan_id":"cebpf4jnsgd1na2vs0mg"},{"bike_id":"053a223c-047a-41de-90f6-e6e21c8d970a","system_id":"levelo_inurba_marseille","lat":43.28728,"lon":5.3608,"is_reserved":false,"is_disabled":false,"rental_uris":{"android":"levelo://app?vid=053a223c-047a-41de-90f6-e6e21c8d970a","ios":"levelo://app?vid=053a223c-047a-41de-90f6-e6e21c8d970a"},"vehicle_type_id":"4","last_reported":1731175802,"current_range_meters":22000,"station_id":"cki0cbj6b192h4jlfktg","pricing_plan_id":"cebpf4jnsgd1na2vs0mg"},{"bike_id":"4c71e4c3-a397-4163-80a4-f8e331487e4d","system_id":"levelo_inurba_marseille","lat":43.25001,"lon":5.38933,"is_reserved":false,"is_disabled":false,"rental_uris":{"android":"levelo://app?vid=4c71e4c3-a397-4163-80a4-f8e331487e4d","ios":"levelo://app?vid=4c71e4c3-a397-4163-80a4-f8e331487e4d"},"vehicle_type_id":"4","last_reported":1731175802,"current_range_meters":16800,"station_id":"ce4bhgp2rcd13ifvqfd0","pricing_plan_id":"cebpf4jnsgd1na2vs0mg"},{"bike_id":"894a3d60-72a8-4614-b5fa-75750cf313b5","system_id":"levelo_inurba_marseille","lat":43.29966,"lon":5.38501,"is_reserved":false,"is_disabled":false,"rental_uris":{"android":"levelo://app?vid=894a3d60-72a8-4614-b5fa-75750cf313b5","ios":"levelo://app?vid=894a3d60-72a8-4614-b5fa-75750cf313b5"},"vehicle_type_id":"4","last_reported":1731175802,"current_range_meters":37600,"station_id":"ce4bgj92rcd13ifvqbd0","pricing_plan_id":"cebpf4jnsgd1na2vs0mg"},{"bike_id":"c83e6567-31aa-4e82-a61c-fd0a2a078a29","system_id":"levelo_inurba_marseille","lat":43.30152,"lon":5.38065,"is_reserved":false,"is_disabled":false,"rental_uris":{"android":"levelo://app?vid=c83e6567-31aa-4e82-a61c-fd0a2a078a29","ios":"levelo://app?vid=c83e6567-31aa-4e82-a61c-fd0a2a078a29"},"vehicle_type_id":"4","last_reported":1731175802,"current_range_meters":14800,"station_id":"ce4bgjp2rcd13ifvqbh0","pricing_plan_id":"cebpf4jnsgd1na2vs0mg"},{"bike_id":"b9d72fb3-628b-4221-8a22-168f934375cb","system_id":"levelo_inurba_marseille","lat":43.2954,"lon":5.38542,"is_reserved":false,"is_disabled":false,"rental_uris":{"android":"levelo://app?vid=b9d72fb3-628b-4221-8a22-168f934375cb","ios":"levelo://app?vid=b9d72fb3-628b-4221-8a22-168f934375cb"},"vehicle_type_id":"4","last_reported":1731175802,"current_range_meters":28400,"station_id":"ce4bgih2rcd13ifvqba0","pricing_plan_id":"cebpf4jnsgd1na2vs0mg"},{"bike_id":"993cfec3-726b-442f-962d-e0f2012e30e3","system_id":"levelo_inurba_marseille","lat":43.25489,"lon":5.37649,"is_reserved":false,"is_disabled":false,"rental_uris":{"android":"levelo://app?vid=993cfec3-726b-442f-962d-e0f2012e30e3","ios":"levelo://app?vid=993cfec3-726b-442f-962d-e0f2012e30e3"},"vehicle_type_id":"4","last_reported":1731175802,"current_range_meters":25600,"station_id":"ce4bhh12rcd13ifvqff0","pricing_plan_id":"cebpf4jnsgd1na2vs0mg"},{"bike_id":"660763c2-85b8-4741-9aa4-6d6c7555d280","system_id":"levelo_inurba_marseille","lat":43.31362,"lon":5.38497,"is_reserved":false,"is_disabled":false,"rental_uris":{"android":"levelo://app?vid=660763c2-85b8-4741-9aa4-6d6c7555d280","ios":"levelo://app?vid=660763c2-85b8-4741-9aa4-6d6c7555d280"},"vehicle_type_id":"4","last_reported":1731175802,"current_range_meters":11600,"station_id":"ce4bgt92rcd13ifvqcf0","pricing_plan_id":"cebpf4jnsgd1na2vs0mg"},{"bike_id":"16edd5e5-0497-4831-bb6b-d18eb7e92293","system_id":"levelo_inurba_marseille","lat":43.24814,"lon":5.3746,"is_reserved":false,"is_disabled":false,"rental_uris":{"android":"levelo://app?vid=16edd5e5-0497-4831-bb6b-d18eb7e92293","ios":"levelo://app?vid=16edd5e5-0497-4831-bb6b-d18eb7e92293"},"vehicle_type_id":"4","last_reported":1731175802,"current_range_meters":34000,"station_id":"ce4bhgh2rcd13ifvqfb0","pricing_plan_id":"cebpf4jnsgd1na2vs0mg"},{"bike_id":"bb1293f7-c52f-4305-8701-3cf16592a28c","system_id":"levelo_inurba_marseille","lat":43.297821,"lon":5.380898,"is_reserved":false,"is_disabled":false,"rental_uris":{"android":"levelo://app?vid=bb1293f7-c52f-4305-8701-3cf16592a28c","ios":"levelo://app?vid=bb1293f7-c52f-4305-8701-3cf16592a28c"},"vehicle_type_id":"4","last_reported":1731175802,"current_range_meters":38800,"station_id":"ce4bgip2rcd13ifvqbb0","pricing_plan_id":"cebpf4jnsgd1na2vs0mg"},{"bike_id":"fefa82e0-7137-4251-99d5-7443c07b02d0","system_id":"levelo_inurba_marseille","lat":43.317065,"lon":5.437055,"is_reserved":false,"is_disabled":false,"rental_uris":{"android":"levelo://app?vid=fefa82e0-7137-4251-99d5-7443c07b02d0","ios":"levelo://app?vid=fefa82e0-7137-4251-99d5-7443c07b02d0"},"vehicle_type_id":"4","last_reported":1731175802,"current_range_meters":38400,"station_id":"ce4bhp92rcd13ifvqhcg","pricing_plan_id":"cebpf4jnsgd1na2vs0mg"},{"bike_id":"2f00bb70-00ff-495e-9928-0c3f232d7580","system_id":"levelo_inurba_marseille","lat":43.29035,"lon":5.38652,"is_reserved":false,"is_disabled":false,"rental_uris":{"android":"levelo://app?vid=2f00bb70-00ff-495e-9928-0c3f232d7580","ios":"levelo://app?vid=2f00bb70-00ff-495e-9928-0c3f232d7580"},"vehicle_type_id":"4","last_reported":1731175802,"current_range_meters":10800,"station_id":"ce4bh4p2rcd13ifvqe0g","pricing_plan_id":"cebpf4jnsgd1na2vs0mg"},{"bike_id":"8a357d01-2f83-4bd9-b1cb-c49e2828437a","system_id":"levelo_inurba_marseille","lat":43.29525,"lon":5.38537,"is_reserved":false,"is_disabled":false,"rental_uris":{"android":"levelo://app?vid=8a357d01-2f83-4bd9-b1cb-c49e2828437a","ios":"levelo://app?vid=8a357d01-2f83-4bd9-b1cb-c49e2828437a"},"vehicle_type_id":"4","last_reported":1731175802,"current_range_meters":38800,"station_id":"ce4bgih2rcd13ifvqba0","pricing_plan_id":"cebpf4jnsgd1na2vs0mg"},{"bike_id":"6874fa63-e82b-4935-9f67-766f32f04844","system_id":"levelo_inurba_marseille","lat":43.29912,"lon":5.37471,"is_reserved":false,"is_disabled":false,"rental_uris":{"android":"levelo://app?vid=6874fa63-e82b-4935-9f67-766f32f04844","ios":"levelo://app?vid=6874fa63-e82b-4935-9f67-766f32f04844"},"vehicle_type_id":"4","last_reported":1731175802,"current_range_meters":38000,"station_id":"ce4bgjh2rcd13ifvqbg0","pricing_plan_id":"cebpf4jnsgd1na2vs0mg"},{"bike_id":"3eab29fa-384d-42b3-8a97-9582e857ca12","system_id":"levelo_inurba_marseille","lat":43.255,"lon":5.37647,"is_reserved":false,"is_disabled":false,"rental_uris":{"android":"levelo://app?vid=3eab29fa-384d-42b3-8a97-9582e857ca12","ios":"levelo://app?vid=3eab29fa-384d-42b3-8a97-9582e857ca12"},"vehicle_type_id":"4","last_reported":1731175802,"current_range_meters":38800,"station_id":"ce4bhh12rcd13ifvqff0","pricing_plan_id":"cebpf4jnsgd1na2vs0mg"},{"bike_id":"4b41a89b-c106-4d9a-9d16-1ec0070fd951","system_id":"levelo_inurba_marseille","lat":43.27315,"lon":5.39085,"is_reserved":false,"is_disabled":false,"rental_uris":{"android":"levelo://app?vid=4b41a89b-c106-4d9a-9d16-1ec0070fd951","ios":"levelo://app?vid=4b41a89b-c106-4d9a-9d16-1ec0070fd951"},"vehicle_type_id":"4","last_reported":1731175802,"current_range_meters":22800,"station_id":"ce4bhgp2rcd13ifvqfe0","pricing_plan_id":"cebpf4jnsgd1na2vs0mg"},{"bike_id":"8e378a70-1cbf-4c5e-ae91-1dfc9f8110e2","system_id":"levelo_inurba_marseille","lat":43.302519,"lon":5.40063,"is_reserved":false,"is_disabled":false,"rental_uris":{"android":"levelo://app?vid=8e378a70-1cbf-4c5e-ae91-1dfc9f8110e2","ios":"levelo://app?vid=8e378a70-1cbf-4c5e-ae91-1dfc9f8110e2"},"vehicle_type_id":"4","last_reported":1731175802,"current_range_meters":32800,"station_id":"ce4bhp92rcd13ifvqhbg","pricing_plan_id":"cebpf4jnsgd1na2vs0mg"},