{"last_updated":1716732384,"ttl":30,"version":"2.2","data":{"bikes":[{"bike_id":"8e0f648f-eee9-4719-a93c-9efbb370a5db","system_id":"levelo_inurba_marseille","lat":43.31341,"lon":5.367098,"is_reserved":false,"is_disabled":false,"rental_uris":{"android":"levelo://app?vid=8e0f648f-eee9-4719-a93c-9efbb370a5db","ios":"levelo://app?vid=8e0f648f-eee9-4719-a93c-9efbb370a5db"},"vehicle_type_id":"4","last_reported":1716732384,"current_range_meters":22800,"station_id":"ce4bgr92rcd13ifvqc6g","pricing_plan_id":"cebpf4jnsgd1na2vs0mg"},{"bike_id":"dfe77dfa-8cb6-4e75-9211-9b8039266f5c","system_id":"levelo_inurba_marseille","lat":43.312239,"lon":5.368562,"is_reserved":false,"is_disabled":false,"rental_uris":{"android":"levelo://app?vid=dfe77dfa-8cb6-4e75-9211-9b8039266f5c","ios":"levelo://app?vid=dfe77dfa-8cb6-4e75-9211-9b8039266f5c"},"vehicle_type_id":"4","last_reported":1716732384,"current_range_meters":26800,"station_id":"ce4bgl92rcd13ifvqbq0","pricing_plan_id":"cebpf4jnsgd1na2vs0mg"},{"bike_id":"5da5cc95-8200-4d95-a78b-3559d754f93a","system_id":"levelo_inurba_marseille","lat":43.312239,"lon":5.368562,"is_reserved":false,"is_disabled":false,"rental_uris":{"android":"levelo://app?vid=5da5cc95-8200-4d95-a78b-3559d754f93a","ios":"levelo://app?vid=5da5cc95-8200-4d95-a78b-3559d754f93a"},"vehicle_type_id":"4","last_reported":1716732384,"current_range_meters":3600,"station_id":"ce4bgl92rcd13ifvqbq0","pricing_plan_id":"cebpf4jnsgd1na2vs0mg"},{"bike_id":"51c97649-0a8a-4a26-a6b0-74e93ea3751e","system_id":"levelo_inurba_marseille","lat":43.309076,"lon":5.368465,"is_reserved":false,"is_disabled":false,"rental_uris":{"android":"levelo://app?vid=51c97649-0a8a-4a26-a6b0-74e93ea3751e","ios":"levelo://app?vid=51c97649-0a8a-4a26-a6b0-74e93ea3751e"},"vehicle_type_id":"4","last_reported":1716732384,"current_range_meters":20400,"station_id":"ce4bgn92rcd13ifvqbvg","pricing_plan_id":"cebpf4jnsgd1na2vs0mg"},{"bike_id":"88223317-d308-4c7e-bc58-dd7fb122bc25","system_id":"levelo_inurba_marseille","lat":43.309076,"lon":5.368465,"is_reserved":false,"is_disabled":false,"rental_uris":{"android":"levelo://app?vid=88223317-d308-4c7e-bc58-dd7fb122bc25","ios":"levelo://app?vid=88223317-d308-4c7e-bc58-dd7fb122bc25"},"vehicle_type_id":"4","last_reported":1716732384,"current_range_meters":9600,"station_id":"ce4bgn92rcd13ifvqbvg","pricing_plan_id":"cebpf4jnsgd1na2vs0mg"},{"bike_id":"79fe80b2-393c-4eeb-bf10-3d4dc08824dd","system_id":"levelo_inurba_marseille","lat":43.309034,"lon":5.371783,"is_reserved":false,"is_disabled":false,"rental_uris":{"android":"levelo://app?vid=79fe80b2-393c-4eeb-bf10-3d4dc08824dd","ios":"levelo://app?vid=79fe80b2-393c-4eeb-bf10-3d4dc08824dd"},"vehicle_type_id":"4","last_reported":1716732384,"current_range_meters":0,"station_id":"ce4bguh2rcd13ifvqckg","pricing_plan_id":"cebpf4jnsgd1na2vs0mg"},{"bike_id":"60b9aa92-fbce-4e03-940e-78e11f9c6f84","system_id":"levelo_inurba_marseille","lat":43.305712,"lon":5.365641,"is_reserved":false,"is_disabled":false,"rental_uris":{"android":"levelo://app?vid=60b9aa92-fbce-4e03-940e-78e11f9c6f84","ios":"levelo://app?vid=60b9aa92-fbce-4e03-940e-78e11f9c6f84"},"vehicle_type_id":"4","last_reported":1716732384,"current_range_meters":11600,"station_id":"ce4bgs12rcd13ifvqcag","pricing_plan_id":"cebpf4jnsgd1na2vs0mg"},{"bike_id":"c5947333-5098-4a6a-9670-8e701ef3a1be","system_id":"levelo_inurba_marseille","lat":43.305714,"lon":5.365633,"is_reserved":false,"is_disabled":false,"rental_uris":{"android":"levelo://app?vid=c5947333-5098-4a6a-9670-8e701ef3a1be","ios":"levelo://app?vid=c5947333-5098-4a6a-9670-8e701ef3a1be"},"vehicle_type_id":"4","last_reported":1716732384,"current_range_meters":21200,"station_id":"ce4bgs12rcd13ifvqcag","pricing_plan_id":"cebpf4jnsgd1na2vs0mg"},{"bike_id":"ff59a20d-c7dc-47ea-9f2f-bb1bb29728d5","system_id":"levelo_inurba_marseille","lat":43.305714,"lon":5.365633,"is_reserved":false,"is_disabled":false,"rental_uris":{"android":"levelo://app?vid=ff59a20d-c7dc-47ea-9f2f-bb1bb29728d5","ios":"levelo://app?vid=ff59a20d-c7dc-47ea-9f2f-bb1bb29728d5"},"vehicle_type_id":"4","last_reported":1716732384,"current_range_meters":21600,"station_id":"ce4bgs12rcd13ifvqcag","pricing_plan_id":"cebpf4jnsgd1na2vs0mg"},{"bike_id":"357d0d7e-edeb-46dd-8e89-cb867b0c5823","system_id":"levelo_inurba_marseille","lat":43.305706,"lon":5.365654,"is_reserved":false,"is_disabled":false,"rental_uris":{"android":"levelo://app?vid=357d0d7e-edeb-46dd-8e89-cb867b0c5823","ios":"levelo://app?vid=357d0d7e-edeb-46dd-8e89-cb867b0c5823"},"vehicle_type_id":"4","last_reported":1716732384,"current_range_meters":19200,"station_id":"ce4bgs12rcd13ifvqcag","pricing_plan_id":"cebpf4jnsgd1na2vs0mg"},{"bike_id":"8fe1e0a5-1f93-4bc2-9493-dda15af2aebe","system_id":"levelo_inurba_marseille","lat":43.305368,"lon":5.367343,"is_reserved":false,"is_disabled":false,"rental_uris":{"android":"levelo://app?vid=8fe1e0a5-1f93-4bc2-9493-dda15af2aebe","ios":"levelo://app?vid=8fe1e0a5-1f93-4bc2-9493-dda15af2aebe"},"vehicle_type_id":"4","last_reported":1716732384,"current_range_meters":0,"station_id":"ce4bgrp2rcd13ifvqc9g","pricing_plan_id":"cebpf4jnsgd1na2vs0mg"},{"bike_id":"8a57921b-01d2-4d52-ba4c-c37d6fd76b9d","system_id":"levelo_inurba_marseille","lat":43.305706,"lon":5.365654,"is_reserved":false,"is_disabled":false,"rental_uris":{"android":"levelo://app?vid=8a57921b-01d2-4d52-ba4c-c37d6fd76b9d","ios":"levelo://app?vid=8a57921b-01d2-4d52-ba4c-c37d6fd76b9d"},"vehicle_type_id":"4","last_reported":1716732384,"current_range_meters":22000,"station_id":"ce4bgs12rcd13ifvqcag","pricing_plan_id":"cebpf4jnsgd1na2vs0mg"},{"bike_id":"b062c8c7-9892-4177-91b2-94f944bb907f","system_id":"levelo_inurba_marseille","lat":43.305237,"lon":5.36531,"is_reserved":false,"is_disabled":false,"rental_uris":{"android":"levelo://app?vid=b062c8c7-9892-4177-91b2-94f944bb907f","ios":"levelo://app?vid=b062c8c7-9892-4177-91b2-94f944bb907f"},"vehicle_type_id":"4","last_reported":1716732384,"current_range_meters":0,"station_id":"ce4bgs12rcd13ifvqcag","pricing_plan_id":"cebpf4jnsgd1na2vs0mg"},{"bike_id":"085f8808-1d82-4a31-a42a-8e58df7e3717","system_id":"levelo_inurba_marseille","lat":43.305989,"lon":5.37225,"is_reserved":false,"is_disabled":false,"rental_uris":{"android":"levelo://app?vid=085f8808-1d82-4a31-a42a-8e58df7e3717","ios":"levelo://app?vid=085f8808-1d82-4a31-a42a-8e58df7e3717"},"vehicle_type_id":"4","last_reported":1716732384,"current_range_meters":31600,"station_id":"ce4bgqh2rcd13ifvqc4g","pricing_plan_id":"cebpf4jnsgd1na2vs0mg"},{"bike_id":"63f9a371-f32f-48e0-86f2-fc4bd1f7c60f","system_id":"levelo_inurba_marseille","lat":43.311131,"lon":5.377651,"is_reserved":false,"is_disabled":false,"rental_uris":{"android":"levelo://app?vid=63f9a371-f32f-48e0-86f2-fc4bd1f7c60f","ios":"levelo://app?vid=63f9a371-f32f-48e0-86f2-fc4bd1f7c60f"},"vehicle_type_id":"4","last_reported":1716732384,"current_range_meters":12000,"station_id":"ce4bgt92rcd13ifvqcg0","pricing_plan_id":"cebpf4jnsgd1na2vs0mg"},{"bike_id":"e72ed740-4f16-4e49-ac6a-12b4f738c216","system_id":"levelo_inurba_marseille","lat":43.307945,"lon":5.376487,"is_reserved":false,"is_disabled":false,"rental_uris":{"android":"levelo://app?vid=e72ed740-4f16-4e49-ac6a-12b4f738c216","ios":"levelo://app?vid=e72ed740-4f16-4e49-ac6a-12b4f738c216"},"vehicle_type_id":"4","last_reported":1716732384,"current_range_meters":21200,"station_id":"ce4bgv92rcd13ifvqcq0","pricing_plan_id":"cebpf4jnsgd1na2vs0mg"},{"bike_id":"dc5fbe47-cd87-4033-9f51-6bb12feee579","system_id":"levelo_inurba_marseille","lat":43.307945,"lon":5.376487,"is_reserved":false,"is_disabled":false,"rental_uris":{"android":"levelo://app?vid=dc5fbe47-cd87-4033-9f51-6bb12feee579","ios":"levelo://app?vid=dc5fbe47-cd87-4033-9f51-6bb12feee579"},"vehicle_type_id":"4","last_reported":1716732384,"current_range_meters":0,"station_id":"ce4bgv92rcd13ifvqcq0","pricing_plan_id":"cebpf4jnsgd1na2vs0mg"},{"bike_id":"b1889f18-5edc-4b61-89af-571b4fb408ed","system_id":"levelo_inurba_marseille","lat":43.317075,"lon":5.377367,"is_reserved":false,"is_disabled":false,"rental_uris":{"android":"levelo://app?vid=b1889f18-5edc-4b61-89af-571b4fb408ed","ios":"levelo://app?vid=b1889f18-5edc-4b61-89af-571b4fb408ed"},"vehicle_type_id":"4","last_reported":1716732384,"current_range_meters":12000,"station_id":"ce4bgth2rcd13ifvqch0","pricing_plan_id":"cebpf4jnsgd1na2vs0mg"},{"bike_id":"6a102d3e-f5c3-49ff-aa4b-d291cd263dc0","system_id":"levelo_inurba_marseille","lat":43.317075,"lon":5.377367,"is_reserved":false,"is_disabled":false,"rental_uris":{"android":"levelo://app?vid=6a102d3e-f5c3-49ff-aa4b-d291cd263dc0","ios":"levelo://app?vid=6a102d3e-f5c3-49ff-aa4b-d291cd263dc0"},"vehicle_type_id":"4","last_reported":1716732384,"current_range_meters":28000,"station_id":"ce4bgth2rcd13ifvqch0","pricing_plan_id":"cebpf4jnsgd1na2vs0mg"},{"bike_id":"ffb84285-738c-4cb9-aef8-6e997c1422bf","system_id":"levelo_inurba_marseille","lat":43.317075,"lon":5.377367,"is_reserved":false,"is_disabled":false,"rental_uris":{"android":"levelo://app?vid=ffb84285-738c-4cb9-aef8-6e997c1422bf","ios":"levelo://app?vid=ffb84285-738c-4cb9-aef8-6e997c1422bf"},"vehicle_type_id":"4","last_reported":1716732384,"current_range_meters":6800,"station_id":"ce4bgth2rcd13ifvqch0","pricing_plan_id":"cebpf4jnsgd1na2vs0mg"},{"bike_id":"2a656012-66bf-494f-85a8-3c1701e2735a","system_id":"levelo_inurba_marseille","lat":43.317075,"lon":5.377367,"is_reserved":false,"is_disabled":false,"rental_uris":{"android":"levelo://app?vid=2a656012-66bf-494f-85a8-3c1701e2735a","ios":"levelo://app?vid=2a656012-66bf-494f-85a8-3c1701e2735a"},"vehicle_type_id":"4","last_reported":1716732384,"current_range_meters":7200,"station_id":"ce4bgth2rcd13ifvqch0","pricing_plan_id":"cebpf4jnsgd1na2vs0mg"},{"bike_id":"5a010d4a-ba75-495d-9933-064f3f34443b","system_id":"levelo_inurba_marseille","lat":43.317075,"lon":5.377367,"is_reserved":false,"is_disabled":false,"rental_uris":{"android":"levelo://app?vid=5a010d4a-ba75-495d-9933-064f3f34443b","ios":"levelo://app?vid=5a010d4a-ba75-495d-9933-064f3f34443b"},"vehicle_type_id":"4","last_reported":1716732384,"current_range_meters":26400,"station_id":"ce4bgth2rcd13ifvqch0","pricing_plan_id":"cebpf4jnsgd1na2vs0mg"},{"bike_id":"e8fa6716-2e70-491b-885a-466fab29e48b","system_id":"levelo_inurba_marseille","lat":43.317075,"lon":5.377367,"is_reserved":false,"is_disabled":false,"rental_uris":{"android":"levelo://app?vid=e8fa6716-2e70-491b-885a-466fab29e48b","ios":"levelo://app?vid=e8fa6716-2e70-491b-885a-466fab29e48b"},"vehicle_type_id":"4","last_reported":1716732384,"current_range_meters":1200,"station_id":"ce4bgth2rcd13ifvqch0","pricing_plan_id":"cebpf4jnsgd1na2vs0mg"},{"bike_id":"6d752b6f-9f7a-483c-8e7d-0223c45f4b27","system_id":"levelo_inurba_marseille","lat":43.30314,"lon":5.36889,"is_reserved":false,"is_disabled":false,"rental_uris":{"android":"levelo://app?vid=6d752b6f-9f7a-483c-8e7d-0223c45f4b27","ios":"levelo://app?vid=6d752b6f-9f7a-483c-8e7d-0223c45f4b27"},"vehicle_type_id":"4","last_reported":1716732384,"current_range_meters":2800,"station_id":"ce4bgqh2rcd13ifvqc5g","pricing_plan_id":"cebpf4jnsgd1na2vs0mg"},{"bike_id":"edadceef-508d-4a5d-8edb-39a0d97be142","system_id":"levelo_inurba_marseille","lat":43.315369,"lon":5.380329,"is_reserved":false,"is_disabled":false,"rental_uris":{"android":"levelo://app?vid=edadceef-508d-4a5d-8edb-39a0d97be142","ios":"levelo://app?vid=edadceef-508d-4a5d-8edb-39a0d97be142"},"vehicle_type_id":"4","last_reported":1716732384,"current_range_meters":27200,"station_id":"ce4bhsp2rcd13ifvqi50","pricing_plan_id":"cebpf4jnsgd1na2vs0mg"},{"bike_id":"ed38837c-dc88-46db-90f8-799b290a007b","system_id":"levelo_inurba_marseille","lat":43.30817,"lon":5.3815,"is_reserved":false,"is_disabled":false,"rental_uris":{"android":"levelo://app?vid=ed38837c-dc88-46db-90f8-799b290a007b","ios":"levelo://app?vid=ed38837c-dc88-46db-90f8-799b290a007b"},"vehicle_type_id":"4","last_reported":1716732384,"current_range_meters":18400,"station_id":"ce4bgt12rcd13ifvqce0","pricing_plan_id":"cebpf4jnsgd1na2vs0mg"},{"bike_id":"f1033792-4e18-4789-bf37-371cbaf8e94a","system_id":"levelo_inurba_marseille","lat":43.304606,"lon":5.379026,"is_reserved":false,"is_disabled":false,"rental_uris":{"android":"levelo://app?vid=f1033792-4e18-4789-bf37-371cbaf8e94a","ios":"levelo://app?vid=f1033792-4e18-4789-bf37-371cbaf8e94a"},"vehicle_type_id":"4","last_reported":1716732384,"current_range_meters":2400,"station_id":"ce4bgup2rcd13ifvqcn0","pricing_plan_id":"cebpf4jnsgd1na2vs0mg"},{"bike_id":"ad5a9552-9ca7-4bf5-886f-3658df6ca37d","system_id":"levelo_inurba_marseille","lat":43.304606,"lon":5.379026,"is_reserved":false,"is_disabled":false,"rental_uris":{"android":"levelo://app?vid=ad5a9552-9ca7-4bf5-886f-3658df6ca37d","ios":"levelo://app?vid=ad5a9552-9ca7-4bf5-886f-3658df6ca37d"},"vehicle_type_id":"4","last_reported":1716732384,"current_range_meters":20400,"station_id":"ce4bgup2rcd13ifvqcn0","pricing_plan_id":"cebpf4jnsgd1na2vs0mg"},{"bike_id":"5ba57246-381c-42a7-888f-31ff2c231548","system_id":"levelo_inurba_marseille","lat":43.324771,"lon":5.36557,"is_reserved":false,"is_disabled":false,"rental_uris":{"android":"levelo://app?vid=5ba57246-381c-42a7-888f-31ff2c231548","ios":"levelo://app?vid=5ba57246-381c-42a7-888f-31ff2c231548"},"vehicle_type_id":"4","last_reported":1716732384,"current_range_meters":30400,"station_id":"ce4bhs12rcd13ifvqhvg","pricing_plan_id":"cebpf4jnsgd1na2vs0mg"},{"bike_id":"72ba4090-3817-4ac9-a00a-506384b53c7f","system_id":"levelo_inurba_marseille","lat":43.324795,"lon":5.365841,"is_reserved":false,"is_disabled":false,"rental_uris":{"android":"levelo://app?vid=72ba4090-3817-4ac9-a00a-506384b53c7f","ios":"levelo://app?vid=72ba4090-3817-4ac9-a00a-506384b53c7f"},"vehicle_type_id":"4","last_reported":1716732384,"current_range_meters":30400,"station_id":"ce4bhs12rcd13ifvqhvg","pricing_plan_id":"cebpf4jnsgd1na2vs0mg"},{"bike_id":"0fe1c741-31ef-4c42-ae4f-9fc5e42ec0c2","system_id":"levelo_inurba_marseille","lat":43.324771,"lon":5.36557,"is_reserved":false,"is_disabled":false,"rental_uris":{"android":"levelo://app?vid=0fe1c741-31ef-4c42-ae4f-9fc5e42ec0c2","ios":"levelo://app?vid=0fe1c741-31ef-4c42-ae4f-9fc5e42ec0c2"},"vehicle_type_id":"4","last_reported":1716732384,"current_range_meters":22000,"station_id":"ce4bhs12rcd13ifvqhvg","pricing_plan_id":"cebpf4jnsgd1na2vs0mg"},{"bike_id":"4b71860f-08ca-44c4-8e6f-d2cf30cc0add","system_id":"levelo_inurba_marseille","lat":43.324771,"lon":5.36557,"is_reserved":false,"is_disabled":false,"rental_uris":{"android":"levelo://app?vid=4b71860f-08ca-44c4-8e6f-d2cf30cc0add","ios":"levelo://app?vid=4b71860f-08ca-44c4-8e6f-d2cf30cc0add"},"vehicle_type_id":"4","last_reported":1716732384,"current_range_meters":20000,"station_id":"ce4bhs12rcd13ifvqhvg","pricing_plan_id":"cebpf4jnsgd1na2vs0mg"},{"bike_id":"99a35186-da9f-462a-b777-ca5d239a806c","system_id":"levelo_inurba_marseille","lat":43.324771,"lon":5.36557,"is_reserved":false,"is_disabled":false,"rental_uris":{"android":"levelo://app?vid=99a35186-da9f-462a-b777-ca5d239a806c","ios":"levelo://app?vid=99a35186-da9f-462a-b777-ca5d239a806c"},"vehicle_type_id":"4","last_reported":1716732384,"current_range_meters":19600,"station_id":"ce4bhs12rcd13ifvqhvg","pricing_plan_id":"cebpf4jnsgd1na2vs0mg"},{"bike_id":"1e27f010-3bdb-4762-a3d2-70f5517cc08d","system_id":"levelo_inurba_marseille","lat":43.324771,"lon":5.36557,"is_reserved":false,"is_disabled":false,"rental_uris":{"android":"levelo://app?vid=1e27f010-3bdb-4762-a3d2-70f5517cc08d","ios":"levelo://app?vid=1e27f010-3bdb-4762-a3d2-70f5517cc08d"},"vehicle_type_id":"4","last_reported":1716732384,"current_range_meters":28000,"station_id":"ce4bhs12rcd13ifvqhvg","pricing_plan_id":"cebpf4jnsgd1na2vs0mg"},{"bike_id":"71a56a80-db24-465f-af67-8ee54602e2c2","system_id":"levelo_inurba_marseille","lat":43.324771,"lon":5.36557,"is_reserved":false,"is_disabled":false,"rental_uris":{"android":"levelo://app?vid=71a56a80-db24-465f-af67-8ee54602e2c2","ios":"levelo://app?vid=71a56a80-db24-465f-af67-8ee54602e2c2"},"vehicle_type_id":"4","last_reported":1716732384,"current_range_meters":18000,"station_id":"ce4bhs12rcd13ifvqhvg","pricing_plan_id":"cebpf4jnsgd1na2vs0mg"},{"bike_id":"27e218a8-538f-4c3f-9de3-25438fba3434","system_id":"levelo_inurba_marseille","lat":43.324771,"lon":5.36557,"is_reserved":false,"is_disabled":false,"rental_uris":{"android":"levelo://app?vid=27e218a8-538f-4c3f-9de3-25438fba3434","ios":"levelo://app?vid=27e218a8-538f-4c3f-9de3-25438fba3434"},"vehicle_type_id":"4","last_reported":1716732384,"current_range_meters":29200,"station_id":"ce4bhs12rcd13ifvqhvg","pricing_plan_id":"cebpf4jnsgd1na2vs0mg"},{"bike_id":"11afafd0-4eff-440f-850c-1e17bea26cdf","system_id":"levelo_inurba_marseille","lat":43.324771,"lon":5.36557,"is_reserved":false,"is_disabled":false,"rental_uris":{"android":"levelo://app?vid=11afafd0-4eff-440f-850c-1e17bea26cdf","ios":"levelo://app?vid=11afafd0-4eff-440f-850c-1e17bea26cdf"},"vehicle_type_id":"4","last_reported":1716732384,"current_range_meters":17200,"station_id":"ce4bhs12rcd13ifvqhvg","pricing_plan_id":"cebpf4jnsgd1na2vs0mg"},{"bike_id":"dfa9439d-0f11-4a7d-b3c7-f7baef6141f9","system_id":"levelo_inurba_marseille","lat":43.310804,"lon":5.38359,"is_reserved":false,"is_disabled":false,"rental_uris":{"android":"levelo://app?vid=dfa9439d-0f11-4a7d-b3c7-f7baef6141f9","ios":"levelo://app?vid=dfa9439d-0f11-4a7d-b3c7-f7baef6141f9"},"vehicle_type_id":"4","last_reported":1716732384,"current_range_meters":0,"station_id":"ce4bgv92rcd13ifvqcr0","pricing_plan_id":"cebpf4jnsgd1na2vs0mg"},{"bike_id":"80ad6110-7ce3-47c6-96d5-38190816e3e2","system_id":"levelo_inurba_marseille","lat":43.30143,"lon":5.37413,"is_reserved":false,"is_disabled":false,"rental_uris":{"android":"levelo://app?vid=80ad6110-7ce3-47c6-96d5-38190816e3e2","ios":"levelo://app?vid=80ad6110-7ce3-47c6-96d5-38190816e3e2"},"vehicle_type_id":"4","last_reported":1716732384,"current_range_meters":21600,"station_id":"ce4bgs92rcd13ifvqcc0","pricing_plan_id":"cebpf4jnsgd1na2vs0mg"},{"bike_id":"ea774e16-bce0-4525-a492-6183d27e7801","system_id":"levelo_inurba_marseille","lat":43.319935,"lon":5.381699,"is_reserved":false,"is_disabled":false,"rental_uris":{"android":"levelo://app?vid=ea774e16-bce0-4525-a492-6183d27e7801","ios":"levelo://app?vid=ea774e16-bce0-4525-a492-6183d27e7801"},"vehicle_type_id":"4","last_reported":1716732384,"current_range_meters":8800,"station_id":"ce4bhr12rcd13ifvqhpg","pricing_plan_id":"cebpf4jnsgd1na2vs0mg"},{"bike_id":"71c0bf64-c068-46c9-b655-2f269fa7e0f2","system_id":"levelo_inurba_marseille","lat":43.3139,"lon":5.38483,"is_reserved":false,"is_disabled":false,"rental_uris":{"android":"levelo://app?vid=71c0bf64-c068-46c9-b655-2f269fa7e0f2","ios":"levelo://app?vid=71c0bf64-c068-46c9-b655-2f269fa7e0f2"},"vehicle_type_id":"4","last_reported":1716732384,"current_range_meters":14400,"station_id":"ce4bgt92rcd13ifvqcf0","pricing_plan_id":"cebpf4jnsgd1na2vs0mg"},{"bike_id":"87374979-db06-4f9c-be3e-d0f7e1aa87f5","system_id":"levelo_inurba_marseille","lat":43.299222,"lon":5.365554,"is_reserved":false,"is_disabled":false,"rental_uris":{"android":"levelo://app?vid=87374979-db06-4f9c-be3e-d0f7e1aa87f5","ios":"levelo://app?vid=87374979-db06-4f9c-be3e-d0f7e1aa87f5"},"vehicle_type_id":"4","last_reported":1716732384,"current_range_meters":1600,"station_id":"ce4bgm92rcd13ifvqbr0","pricing_plan_id":"cebpf4jnsgd1na2vs0mg"},{"bike_id":"dd695629-a667-4593-b071-f5d9202fd371","system_id":"levelo_inurba_marseille","lat":43.299222,"lon":5.365554,"is_reserved":false,"is_disabled":false,"rental_uris":{"android":"levelo://app?vid=dd695629-a667-4593-b071-f5d9202fd371","ios":"levelo://app?vid=dd695629-a667-4593-b071-f5d9202fd371"},"vehicle_type_id":"4","last_reported":1716732384,"current_range_meters":8400,"station_id":"ce4bgm92rcd13ifvqbr0","pricing_plan_id":"cebpf4jnsgd1na2vs0mg"},{"bike_id":"2095a58d-6dc8-4b4e-b42c-3d585b1bac6e","system_id":"levelo_inurba_marseille","lat":43.299222,"lon":5.365554,"is_reserved":false,"is_disabled":false,"rental_uris":{"android":"levelo://app?vid=2095a58d-6dc8-4b4e-b42c-3d585b1bac6e","ios":"levelo://app?vid=2095a58d-6dc8-4b4e-b42c-3d585b1bac6e"},"vehicle_type_id":"4","last_reported":1716732384,"current_range_meters":16800,"station_id":"ce4bgm92rcd13ifvqbr0","pricing_plan_id":"cebpf4jnsgd1na2vs0mg"},{"bike_id":"fbf79680-cb97-4e10-947f-9ebd153d0b98","system_id":"levelo_inurba_marseille","lat":43.29936,"lon":5.3655,"is_reserved":false,"is_disabled":false,"rental_uris":{"android":"levelo://app?vid=fbf79680-cb97-4e10-947f-9ebd153d0b98","ios":"levelo://app?vid=fbf79680-cb97-4e10-947f-9ebd153d0b98"},"vehicle_type_id":"4","last_reported":1716732384,"current_range_meters":18800,"station_id":"","pricing_plan_id":"cebpf4jnsgd1na2vs0mg"},{"bike_id":"7c0279c4-785e-41cc-9875-11b1aa5697b0","system_id":"levelo_inurba_marseille","lat":43.298433,"lon":5.362774,"is_reserved":false,"is_disabled":false,"rental_uris":{"android":"levelo://app?vid=7c0279c4-785e-41cc-9875-11b1aa5697b0","ios":"levelo://app?vid=7c0279c4-785e-41cc-9875-11b1aa5697b0"},"vehicle_type_id":"4","last_reported":1716732384,"current_range_meters":31600,"station_id":"ce4bgpp2rcd13ifvqc3g","pricing_plan_id":"cebpf4jnsgd1na2vs0mg"},{"bike_id":"01fbb70d-5366-4b8f-b6c5-28db2919ac3e","system_id":"levelo_inurba_marseille","lat":43.30544,"lon":5.38427,"is_reserved":false,"is_disabled":false,"rental_uris":{"android":"levelo://app?vid=01fbb70d-5366-4b8f-b6c5-28db2919ac3e","ios":"levelo://app?vid=01fbb70d-5366-4b8f-b6c5-28db2919ac3e"},"vehicle_type_id":"4","last_reported":1716732384,"current_range_meters":0,"station_id":"ce4bgg92rcd13ifvqb30","pricing_plan_id":"cebpf4jnsgd1na2vs0mg"},{"bike_id":"f9593944-692d-4343-9acc-3c62a9102c54","system_id":"levelo_inurba_marseille","lat":43.29847,"lon":5.36277,"is_reserved":false,"is_disabled":false,"rental_uris":{"android":"levelo://app?vid=f9593944-692d-4343-9acc-3c62a9102c54","ios":"levelo://app?vid=f9593944-692d-4343-9acc-3c62a9102c54"},"vehicle_type_id":"4","last_reported":1716732384,"current_range_meters":0,"station_id":"ce4bgpp2rcd13ifvqc3g","pricing_plan_id":"cebpf4jnsgd1na2vs0mg"},{"bike_id":"f02c314d-049f-43dd-aa68-3dd7b88a2cf7","system_id":"levelo_inurba_marseille","lat":43.298433,"lon":5.362774,"is_reserved":false,"is_disabled":false,"rental_uris":{"android":"levelo://app?vid=f02c314d-049f-43dd-aa68-3dd7b88a2cf7","ios":"levelo://app?vid=f02c314d-049f-43dd-aa68-3dd7b88a2cf7"},"vehicle_type_id":"4","last_reported":1716732384,"current_range_meters":24400,"station_id":"ce4bgpp2rcd13ifvqc3g","pricing_plan_id":"cebpf4jnsgd1na2vs0mg"},{"bike_id":"ed492a4e-944e-43b3-bd26-4581a8e6f7a8","system_id":"levelo_inurba_marseille","lat":43.297774,"lon":5.370875,"is_reserved":false,"is_disabled":false,"rental_uris":{"android":"levelo://app?vid=ed492a4e-944e-43b3-bd26-4581a8e6f7a8","ios":"levelo://app?vid=ed492a4e-944e-43b3-bd26-4581a8e6f7a8"},"vehicle_type_id":"4","last_reported":1716732384,"current_range_meters":30000,"station_id":"ce4bgop2rcd13ifvqc1g","pricing_plan_id":"cebpf4jnsgd1na2vs0mg"},{"bike_id":"82170d8f-f8de-4a52-9f65-954450a0a9c9","system_id":"levelo_inurba_marseille","lat":43.297774,"lon":5.370875,"is_reserved":false,"is_disabled":false,"rental_uris":{"android":"levelo://app?vid=82170d8f-f8de-4a52-9f65-954450a0a9c9","ios":"levelo://app?vid=82170d8f-f8de-4a52-9f65-954450a0a9c9"},"vehicle_type_id":"4","last_reported":1716732384,"current_range_meters":6400,"station_id":"ce4bgop2rcd13ifvqc1g","pricing_plan_id":"cebpf4jnsgd1na2vs0mg"},{"bike_id":"426d3889-a3c2-4bbc-9786-c04941e7261d","system_id":"levelo_inurba_marseille","lat":43.2997,"lon":5.379656,"is_reserved":false,"is_disabled":false,"rental_uris":{"android":"levelo://app?vid=426d3889-a3c2-4bbc-9786-c04941e7261d","ios":"levelo://app?vid=426d3889-a3c2-4bbc-9786-c04941e7261d"},"vehicle_type_id":"4","last_reported":1716732384,"current_range_meters":25200,"station_id":"","pricing_plan_id":"cebpf4jnsgd1na2vs0mg"},{"bike_id":"b0181dbd-d16d-4347-9382-b450da867146","system_id":"levelo_inurba_marseille","lat":43.29657,"lon":5.36162,"is_reserved":false,"is_disabled":false,"rental_uris":{"android":"levelo://app?vid=b0181dbd-d16d-4347-9382-b450da867146","ios":"levelo://app?vid=b0181dbd-d16d-4347-9382-b450da867146"},"vehicle_type_id":"4","last_reported":1716732384,"current_range_meters":4800,"station_id":"","pricing_plan_id":"cebpf4jnsgd1na2vs0mg"},{"bike_id":"e4f319a3-c161-467f-8ef7-4e3ae83f4d1d","system_id":"levelo_inurba_marseille","lat":43.299028,"lon":5.381509,"is_reserved":false,"is_disabled":false,"rental_uris":{"android":"levelo://app?vid=e4f319a3-c161-467f-8ef7-4e3ae83f4d1d","ios":"levelo://app?vid=e4f319a3-c161-467f-8ef7-4e3ae83f4d1d"},"vehicle_type_id":"4","last_reported":1716732384,"current_range_meters":21200,"station_id":"ce4bgj12rcd13ifvqbc0","pricing_plan_id":"cebpf4jnsgd1na2vs0mg"},{"bike_id":"21c3c783-9809-45c2-8f17-8dc950e24abe","system_id":"levelo_inurba_marseille","lat":43.317557,"lon":5.390173,"is_reserved":false,"is_disabled":false,"rental_uris":{"android":"levelo://app?vid=21c3c783-9809-45c2-8f17-8dc950e24abe","ios":"levelo://app?vid=21c3c783-9809-45c2-8f17-8dc950e24abe"},"vehicle_type_id":"4","last_reported":1716732384,"current_range_meters":27600,"station_id":"ce4bhqp2rcd13ifvqhng","pricing_plan_id":"cebpf4jnsgd1na2vs0mg"},{"bike_id":"c51e897c-f700-483b-90ca-c1146b9ec313","system_id":"levelo_inurba_marseille","lat":43.295748,"lon":5.37522,"is_reserved":false,"is_disabled":false,"rental_uris":{"android":"levelo://app?vid=c51e897c-f700-483b-90ca-c1146b9ec313","ios":"levelo://app?vid=c51e897c-f700-483b-90ca-c1146b9ec313"},"vehicle_type_id":"4","last_reported":1716732384,"current_range_meters":800,"station_id":"ce4bgh92rcd13ifvqb50","pricing_plan_id":"cebpf4jnsgd1na2vs0mg"},{"bike_id":"58aec018-f81a-4a5d-905f-263c1a4e0fdc","system_id":"levelo_inurba_marseille","lat":43.304278,"lon":5.388868,"is_reserved":false,"is_disabled":false,"rental_uris":{"android":"levelo://app?vid=58aec018-f81a-4a5d-905f-263c1a4e0fdc","ios":"levelo://app?vid=58aec018-f81a-4a5d-905f-263c1a4e0fdc"},"vehicle_type_id":"4","last_reported":1716732384,"current_range_meters":2800,"station_id":"ce4bgk12rcd13ifvqbi0","pricing_plan_id":"cebpf4jnsgd1na2vs0mg"},{"bike_id":"341b5379-6adb-412f-9dc8-21956a3e7313","system_id":"levelo_inurba_marseille","lat":43.295748,"lon":5.37522,"is_reserved":false,"is_disabled":false,"rental_uris":{"android":"levelo://app?vid=341b5379-6adb-412f-9dc8-21956a3e7313","ios":"levelo://app?vid=341b5379-6adb-412f-9dc8-21956a3e7313"},"vehicle_type_id":"4","last_reported":1716732384,"current_range_meters":0,"station_id":"ce4bgh92rcd13ifvqb50","pricing_plan_id":"cebpf4jnsgd1na2vs0mg"},{"bike_id":"ea5c8d42-c861-4802-a2ac-9f57d3bd183f","system_id":"levelo_inurba_marseille","lat":43.299717,"lon":5.384845,"is_reserved":false,"is_disabled":false,"rental_uris":{"android":"levelo://app?vid=ea5c8d42-c861-4802-a2ac-9f57d3bd183f","ios":"levelo://app?vid=ea5c8d42-c861-4802-a2ac-9f57d3bd183f"},"vehicle_type_id":"4","last_reported":1716732384,"current_range_meters":31600,"station_id":"ce4bgj92rcd13ifvqbd0","pricing_plan_id":"cebpf4jnsgd1na2vs0mg"},{"bike_id":"581c9993-159b-4c49-a7a5-e774d3987193","system_id":"levelo_inurba_marseille","lat":43.29978,"lon":5.38497,"is_reserved":false,"is_disabled":false,"rental_uris":{"android":"levelo://app?vid=581c9993-159b-4c49-a7a5-e774d3987193","ios":"levelo://app?vid=581c9993-159b-4c49-a7a5-e774d3987193"},"vehicle_type_id":"4","last_reported":1716732384,"current_range_meters":0,"station_id":"ce4bgj92rcd13ifvqbd0","pricing_plan_id":"cebpf4jnsgd1na2vs0mg"},{"bike_id":"d014cf3e-048b-41f0-8f75-4b7171a47831","system_id":"levelo_inurba_marseille","lat":43.299724,"lon":5.384848,"is_reserved":false,"is_disabled":false,"rental_uris":{"android":"levelo://app?vid=d014cf3e-048b-41f0-8f75-4b7171a47831","ios":"levelo://app?vid=d014cf3e-048b-41f0-8f75-4b7171a47831"},"vehicle_type_id":"4","last_reported":1716732384,"current_range_meters":31600,"station_id":"ce4bgj92rcd13ifvqbd0","pricing_plan_id":"cebpf4jnsgd1na2vs0mg"},{"bike_id":"e145f7a0-387c-4568-89d7-29fc9b7eaeff","system_id":"levelo_inurba_marseille","lat":43.29602,"lon":5.381084,"is_reserved":false,"is_disabled":false,"rental_uris":{"android":"levelo://app?vid=e145f7a0-387c-4568-89d7-29fc9b7eaeff","ios":"levelo://app?vid=e145f7a0-387c-4568-89d7-29fc9b7eaeff"},"vehicle_type_id":"4","last_reported":1716732384,"current_range_meters":15200,"station_id":"ce4bgl12rcd13ifvqbo0","pricing_plan_id":"cebpf4jnsgd1na2vs0mg"},{"bike_id":"850b7ccd-631e-4849-aa3c-cebe8368d51e","system_id":"levelo_inurba_marseille","lat":43.295991,"lon":5.381005,"is_reserved":false,"is_disabled":false,"rental_uris":{"android":"levelo://app?vid=850b7ccd-631e-4849-aa3c-cebe8368d51e","ios":"levelo://app?vid=850b7ccd-631e-4849-aa3c-cebe8368d51e"},"vehicle_type_id":"4","last_reported":1716732384,"current_range_meters":21600,"station_id":"","pricing_plan_id":"cebpf4jnsgd1na2vs0mg"},{"bike_id":"1fb8839d-2eee-42ab-a186-54e11c78744f","system_id":"levelo_inurba_marseille","lat":43.293259,"lon":5.371586,"is_reserved":false,"is_disabled":false,"rental_uris":{"android":"levelo://app?vid=1fb8839d-2eee-42ab-a186-54e11c78744f","ios":"levelo://app?vid=1fb8839d-2eee-42ab-a186-54e11c78744f"},"vehicle_type_id":"4","last_reported":1716732384,"current_range_meters":24000,"station_id":"ce4bgh92rcd13ifvqb40","pricing_plan_id":"cebpf4jnsgd1na2vs0mg"},{"bike_id":"1414ae49-36f8-43c8-882e-9e8c80c6020d","system_id":"levelo_inurba_marseille","lat":43.293249,"lon":5.371578,"is_reserved":false,"is_disabled":false,"rental_uris":{"android":"levelo://app?vid=1414ae49-36f8-43c8-882e-9e8c80c6020d","ios":"levelo://app?vid=1414ae49-36f8-43c8-882e-9e8c80c6020d"},"vehicle_type_id":"4","last_reported":1716732384,"current_range_meters":16000,"station_id":"ce4bgh92rcd13ifvqb40","pricing_plan_id":"cebpf4jnsgd1na2vs0mg"},{"bike_id":"31854d19-b50f-44dd-b5c8-6b02eb4403de","system_id":"levelo_inurba_marseille","lat":43.305994,"lon":5.393687,"is_reserved":false,"is_disabled":false,"rental_uris":{"android":"levelo://app?vid=31854d19-b50f-44dd-b5c8-6b02eb4403de","ios":"levelo://app?vid=31854d19-b50f-44dd-b5c8-6b02eb4403de"},"vehicle_type_id":"4","last_reported":1716732384,"current_range_meters":7600,"station_id":"ce4bh0p2rcd13ifvqd80","pricing_plan_id":"cebpf4jnsgd1na2vs0mg"},{"bike_id":"ba396ec4-895c-42e2-9264-ac6db1e9a0de","system_id":"levelo_inurba_marseille","lat":43.30593,"lon":5.39355,"is_reserved":false,"is_disabled":false,"rental_uris":{"android":"levelo://app?vid=ba396ec4-895c-42e2-9264-ac6db1e9a0de","ios":"levelo://app?vid=ba396ec4-895c-42e2-9264-ac6db1e9a0de"},"vehicle_type_id":"4","last_reported":1716732384,"current_range_meters":17600,"station_id":"ce4bh0p2rcd13ifvqd80","pricing_plan_id":"cebpf4jnsgd1na2vs0mg"},{"bike_id":"c4f5d147-6147-4317-b91c-6d594b1f8a66","system_id":"levelo_inurba_marseille","lat":43.305994,"lon":5.393687,"is_reserved":false,"is_disabled":false,"rental_uris":{"android":"levelo://app?vid=c4f5d147-6147-4317-b91c-6d594b1f8a66","ios":"levelo://app?vid=c4f5d147-6147-4317-b91c-6d594b1f8a66"},"vehicle_type_id":"4","last_reported":1716732384,"current_range_meters":12800,"station_id":"ce4bh0p2rcd13ifvqd80","pricing_plan_id":"cebpf4jnsgd1na2vs0mg"},{"bike_id":"0334005a-6f8d-444a-b4ee-13b6e3e28ed9","system_id":"levelo_inurba_marseille","lat":43.2936,"lon":5.37835,"is_reserved":false,"is_disabled":false,"rental_uris":{"android":"levelo://app?vid=0334005a-6f8d-444a-b4ee-13b6e3e28ed9","ios":"levelo://app?vid=0334005a-6f8d-444a-b4ee-13b6e3e28ed9"},"vehicle_type_id":"4","last_reported":1716732384,"current_range_meters":24400,"station_id":"ce4bgjh2rcd13ifvqbf0","pricing_plan_id":"cebpf4jnsgd1na2vs0mg"},{"bike_id":"330d23c7-c262-4e91-aa56-158b7517e30a","system_id":"levelo_inurba_marseille","lat":43.30101,"lon":5.39073,"is_reserved":false,"is_disabled":false,"rental_uris":{"android":"levelo://app?vid=330d23c7-c262-4e91-aa56-158b7517e30a","ios":"levelo://app?vid=330d23c7-c262-4e91-aa56-158b7517e30a"},"vehicle_type_id":"4","last_reported":1716732384,"current_range_meters":1200,"station_id":"ce4bh192rcd13ifvqdb0","pricing_plan_id":"cebpf4jnsgd1na2vs0mg"},{"bike_id":"7c603f3a-4693-47bb-9c60-a226e392bb09","system_id":"levelo_inurba_marseille","lat":43.300852,"lon":5.390859,"is_reserved":false,"is_disabled":false,"rental_uris":{"android":"levelo://app?vid=7c603f3a-4693-47bb-9c60-a226e392bb09","ios":"levelo://app?vid=7c603f3a-4693-47bb-9c60-a226e392bb09"},"vehicle_type_id":"4","last_reported":1716732384,"current_range_meters":0,"station_id":"ce4bh192rcd13ifvqdb0","pricing_plan_id":"cebpf4jnsgd1na2vs0mg"},{"bike_id":"4e822c66-d799-418b-af6b-05b88db76ee9","system_id":"levelo_inurba_marseille","lat":43.3008,"lon":5.39097,"is_reserved":false,"is_disabled":false,"rental_uris":{"android":"levelo://app?vid=4e822c66-d799-418b-af6b-05b88db76ee9","ios":"levelo://app?vid=4e822c66-d799-418b-af6b-05b88db76ee9"},"vehicle_type_id":"4","last_reported":1716732384,"current_range_meters":10800,"station_id":"ce4bh192rcd13ifvqdb0","pricing_plan_id":"cebpf4jnsgd1na2vs0mg"},{"bike_id":"025af8c7-3525-40fc-97ac-3a526e05318a","system_id":"levelo_inurba_marseille","lat":43.298764,"lon":5.388973,"is_reserved":false,"is_disabled":false,"rental_uris":{"android":"levelo://app?vid=025af8c7-3525-40fc-97ac-3a526e05318a","ios":"levelo://app?vid=025af8c7-3525-40fc-97ac-3a526e05318a"},"vehicle_type_id":"4","last_reported":1716732384,"current_range_meters":0,"station_id":"ce4bh392rcd13ifvqdl0","pricing_plan_id":"cebpf4jnsgd1na2vs0mg"},{"bike_id":"874a5268-8643-48e5-91d2-4dfc6bad19e1","system_id":"levelo_inurba_marseille","lat":43.239588,"lon":5.366238,"is_reserved":false,"is_disabled":false,"rental_uris":{"android":"levelo://app?vid=874a5268-8643-48e5-91d2-4dfc6bad19e1","ios":"levelo://app?vid=874a5268-8643-48e5-91d2-4dfc6bad19e1"},"vehicle_type_id":"4","last_reported":1716732384,"current_range_meters":17600,"station_id":"ce4bhi12rcd13ifvqfp0","pricing_plan_id":"cebpf4jnsgd1na2vs0mg"},{"bike_id":"d585e2e9-4587-49b9-9105-5941cc74527c","system_id":"levelo_inurba_marseille","lat":43.292005,"lon":5.357875,"is_reserved":false,"is_disabled":false,"rental_uris":{"android":"levelo://app?vid=d585e2e9-4587-49b9-9105-5941cc74527c","ios":"levelo://app?vid=d585e2e9-4587-49b9-9105-5941cc74527c"},"vehicle_type_id":"4","last_reported":1716732384,"current_range_meters":5600,"station_id":"ce4bhb12rcd13ifvqel0","pricing_plan_id":"cebpf4jnsgd1na2vs0mg"},{"bike_id":"7ed4abe6-cd4b-41d0-9743-1f600bb5d725","system_id":"levelo_inurba_marseille","lat":43.313291,"lon":5.396838,"is_reserved":false,"is_disabled":false,"rental_uris":{"android":"levelo://app?vid=7ed4abe6-cd4b-41d0-9743-1f600bb5d725","ios":"levelo://app?vid=7ed4abe6-cd4b-41d0-9743-1f600bb5d725"},"vehicle_type_id":"4","last_reported":1716732384,"current_range_meters":20800,"station_id":"ce4bgvp2rcd13ifvqcu0","pricing_plan_id":"cebpf4jnsgd1na2vs0mg"},{"bike_id":"0d63165a-fd9d-403d-b464-f81fb6c55dd2","system_id":"levelo_inurba_marseille","lat":43.313291,"lon":5.396838,"is_reserved":false,"is_disabled":false,"rental_uris":{"android":"levelo://app?vid=0d63165a-fd9d-403d-b464-f81fb6c55dd2","ios":"levelo://app?vid=0d63165a-fd9d-403d-b464-f81fb6c55dd2"},"vehicle_type_id":"4","last_reported":1716732384,"current_range_meters":24800,"station_id":"ce4bgvp2rcd13ifvqcu0","pricing_plan_id":"cebpf4jnsgd1na2vs0mg"},{"bike_id":"db3e49f9-89c7-4b58-b84c-7241633caf6b","system_id":"levelo_inurba_marseille","lat":43.313291,"lon":5.396838,"is_reserved":false,"is_disabled":false,"rental_uris":{"android":"levelo://app?vid=db3e49f9-89c7-4b58-b84c-7241633caf6b","ios":"levelo://app?vid=db3e49f9-89c7-4b58-b84c-7241633caf6b"},"vehicle_type_id":"4","last_reported":1716732384,"current_range_meters":12800,"station_id":"ce4bgvp2rcd13ifvqcu0","pricing_plan_id":"cebpf4jnsgd1na2vs0mg"},{"bike_id":"170bc9af-3000-44c9-8eda-5390de789294","system_id":"levelo_inurba_marseille","lat":43.313291,"lon":5.396838,"is_reserved":false,"is_disabled":false,"rental_uris":{"android":"levelo://app?vid=170bc9af-3000-44c9-8eda-5390de789294","ios":"levelo://app?vid=170bc9af-3000-44c9-8eda-5390de789294"},"vehicle_type_id":"4","last_reported":1716732384,"current_range_meters":20000,"station_id":"ce4bgvp2rcd13ifvqcu0","pricing_plan_id":"cebpf4jnsgd1na2vs0mg"},{"bike_id":"7932c0e4-02d2-43e2-a5d6-3604233adabf","system_id":"levelo_inurba_marseille","lat":43.313291,"lon":5.396838,"is_reserved":false,"is_disabled":false,"rental_uris":{"android":"levelo://app?vid=7932c0e4-02d2-43e2-a5d6-3604233adabf","ios":"levelo://app?vid=7932c0e4-02d2-43e2-a5d6-3604233adabf"},"vehicle_type_id":"4","last_reported":1716732384,"current_range_meters":4800,"station_id":"ce4bgvp2rcd13ifvqcu0","pricing_plan_id":"cebpf4jnsgd1na2vs0mg"},{"bike_id":"473fbf30-ba80-4c8d-b0cd-02a725289d1d","system_id":"levelo_inurba_marseille","lat":43.309038,"lon":5.396546,"is_reserved":false,"is_disabled":false,"rental_uris":{"android":"levelo://app?vid=473fbf30-ba80-4c8d-b0cd-02a725289d1d","ios":"levelo://app?vid=473fbf30-ba80-4c8d-b0cd-02a725289d1d"},"vehicle_type_id":"4","last_reported":1716732384,"current_range_meters":20000,"station_id":"ce4bh012rcd13ifvqcv0","pricing_plan_id":"cebpf4jnsgd1na2vs0mg"},{"bike_id":"63b8f969-3802-48d0-acc6-369f8ff262c0","system_id":"levelo_inurba_marseille","lat":43.29529,"lon":5.385581,"is_reserved":false,"is_disabled":false,"rental_uris":{"android":"levelo://app?vid=63b8f969-3802-48d0-acc6-369f8ff262c0","ios":"levelo://app?vid=63b8f969-3802-48d0-acc6-369f8ff262c0"},"vehicle_type_id":"4","last_reported":1716732384,"current_range_meters":4000,"station_id":"ce4bgih2rcd13ifvqba0","pricing_plan_id":"cebpf4jnsgd1na2vs0mg"},{"bike_id":"6bafd691-fad0-4fa8-98f5-be1d037c1427","system_id":"levelo_inurba_marseille","lat":43.29531,"lon":5.38545,"is_reserved":false,"is_disabled":false,"rental_uris":{"android":"levelo://app?vid=6bafd691-fad0-4fa8-98f5-be1d037c1427","ios":"levelo://app?vid=6bafd691-fad0-4fa8-98f5-be1d037c1427"},"vehicle_type_id":"4","last_reported":1716732384,"current_range_meters":0,"station_id":"ce4bgih2rcd13ifvqba0","pricing_plan_id":"cebpf4jnsgd1na2vs0mg"},{"bike_id":"7f3d1734-d426-4c9b-aac1-d75a602ddd83","system_id":"levelo_inurba_marseille","lat":43.290779,"lon":5.371482,"is_reserved":false,"is_disabled":false,"rental_uris":{"android":"levelo://app?vid=7f3d1734-d426-4c9b-aac1-d75a602ddd83","ios":"levelo://app?vid=7f3d1734-d426-4c9b-aac1-d75a602ddd83"},"vehicle_type_id":"4","last_reported":1716732384,"current_range_meters":8000,"station_id":"ce4bh5p2rcd13ifvqe4g","pricing_plan_id":"cebpf4jnsgd1na2vs0mg"},{"bike_id":"703a74de-419c-4183-a76a-cb6d6ec6ee1b","system_id":"levelo_inurba_marseille","lat":43.290631,"lon":5.359244,"is_reserved":false,"is_disabled":false,"rental_uris":{"android":"levelo://app?vid=703a74de-419c-4183-a76a-cb6d6ec6ee1b","ios":"levelo://app?vid=703a74de-419c-4183-a76a-cb6d6ec6ee1b"},"vehicle_type_id":"4","last_reported":1716732384,"current_range_meters":14800,"station_id":"ce4bha92rcd13ifvqeg0","pricing_plan_id":"cebpf4jnsgd1na2vs0mg"},{"bike_id":"bbc67190-f754-4679-b816-f91a5bf9e741","system_id":"levelo_inurba_marseille","lat":43.28951,"lon":5.366378,"is_reserved":false,"is_disabled":false,"rental_uris":{"android":"levelo://app?vid=bbc67190-f754-4679-b816-f91a5bf9e741","ios":"levelo://app?vid=bbc67190-f754-4679-b816-f91a5bf9e741"},"vehicle_type_id":"4","last_reported":1716732384,"current_range_meters":7200,"station_id":"ce4bhap2rcd13ifvqek0","pricing_plan_id":"cebpf4jnsgd1na2vs0mg"},{"bike_id":"66592630-7a3f-4366-a36a-5b2f65cdb9dd","system_id":"levelo_inurba_marseille","lat":43.290327,"lon":5.375711,"is_reserved":false,"is_disabled":false,"rental_uris":{"android":"levelo://app?vid=66592630-7a3f-4366-a36a-5b2f65cdb9dd","ios":"levelo://app?vid=66592630-7a3f-4366-a36a-5b2f65cdb9dd"},"vehicle_type_id":"4","last_reported":1716732384,"current_range_meters":2400,"station_id":"ce4bh692rcd13ifvqe90","pricing_plan_id":"cebpf4jnsgd1na2vs0mg"},{"bike_id":"b09cd1df-d13b-4862-b3e2-3b8e00d9dcdc","system_id":"levelo_inurba_marseille","lat":43.29415,"lon":5.38625,"is_reserved":false,"is_disabled":false,"rental_uris":{"android":"levelo://app?vid=b09cd1df-d13b-4862-b3e2-3b8e00d9dcdc","ios":"levelo://app?vid=b09cd1df-d13b-4862-b3e2-3b8e00d9dcdc"},"vehicle_type_id":"4","last_reported":1716732384,"current_range_meters":4800,"station_id":"ce4bh2h2rcd13ifvqdh0","pricing_plan_id":"cebpf4jnsgd1na2vs0mg"},{"bike_id":"b1288499-9d12-4b6a-9990-7ce2b7b55bcd","system_id":"levelo_inurba_marseille","lat":43.2894,"lon":5.36631,"is_reserved":false,"is_disabled":false,"rental_uris":{"android":"levelo://app?vid=b1288499-9d12-4b6a-9990-7ce2b7b55bcd","ios":"levelo://app?vid=b1288499-9d12-4b6a-9990-7ce2b7b55bcd"},"vehicle_type_id":"4","last_reported":1716732384,"current_range_meters":0,"station_id":"ce4bhap2rcd13ifvqek0","pricing_plan_id":"cebpf4jnsgd1na2vs0mg"},{"bike_id":"21659584-35f2-48b5-9999-fb2c76e34595","system_id":"levelo_inurba_marseille","lat":43.292642,"lon":5.384254,"is_reserved":false,"is_disabled":false,"rental_uris":{"android":"levelo://app?vid=21659584-35f2-48b5-9999-fb2c76e34595","ios":"levelo://app?vid=21659584-35f2-48b5-9999-fb2c76e34595"},"vehicle_type_id":"4","last_reported":1716732384,"current_range_meters":1600,"station_id":"ce4bh692rcd13ifvqea0","pricing_plan_id":"cebpf4jnsgd1na2vs0mg"},{"bike_id":"f54a1541-05d0-42d7-96bf-8a74a83e9854","system_id":"levelo_inurba_marseille","lat":43.292642,"lon":5.384254,"is_reserved":false,"is_disabled":false,"rental_uris":{"android":"levelo://app?vid=f54a1541-05d0-42d7-96bf-8a74a83e9854","ios":"levelo://app?vid=f54a1541-05d0-42d7-96bf-8a74a83e9854"},"vehicle_type_id":"4","last_reported":1716732384,"current_range_meters":4400,"station_id":"ce4bh692rcd13ifvqea0","pricing_plan_id":"cebpf4jnsgd1na2vs0mg"},{"bike_id":"bf3180f2-7516-4d06-8f0d-bc08645ff01a","system_id":"levelo_inurba_marseille","lat":43.29265,"lon":5.38446,"is_reserved":false,"is_disabled":false,"rental_uris":{"android":"levelo://app?vid=bf3180f2-7516-4d06-8f0d-bc08645ff01a","ios":"levelo://app?vid=bf3180f2-7516-4d06-8f0d-bc08645ff01a"},"vehicle_type_id":"4","last_reported":1716732384,"current_range_meters":400,"station_id":"ce4bh692rcd13ifvqea0","pricing_plan_id":"cebpf4jnsgd1na2vs0mg"},{"bike_id":"b81d3a00-b724-4ebd-a1aa-d1290d1a3951","system_id":"levelo_inurba_marseille","lat":43.291052,"lon":5.381488,"is_reserved":false,"is_disabled":false,"rental_uris":{"android":"levelo://app?vid=b81d3a00-b724-4ebd-a1aa-d1290d1a3951","ios":"levelo://app?vid=b81d3a00-b724-4ebd-a1aa-d1290d1a3951"},"vehicle_type_id":"4","last_reported":1716732384,"current_range_meters":0,"station_id":"ce4bh512rcd13ifvqe2g","pricing_plan_id":"cebpf4jnsgd1na2vs0mg"},{"bike_id":"be1af20c-a30c-447e-8ff3-c23845a04909","system_id":"levelo_inurba_marseille","lat":43.330442,"lon":5.389148,"is_reserved":false,"is_disabled":false,"rental_uris":{"android":"levelo://app?vid=be1af20c-a30c-447e-8ff3-c23845a04909","ios":"levelo://app?vid=be1af20c-a30c-447e-8ff3-c23845a04909"},"vehicle_type_id":"4","last_reported":1716732384,"current_range_meters":28800,"station_id":"ce4bhr92rcd13ifvqhrg","pricing_plan_id":"cebpf4jnsgd1na2vs0mg"},{"bike_id":"b037168f-63b3-4bc7-9ff8-b06bd320381e","system_id":"levelo_inurba_marseille","lat":43.295247,"lon":5.390413,"is_reserved":false,"is_disabled":false,"rental_uris":{"android":"levelo://app?vid=b037168f-63b3-4bc7-9ff8-b06bd320381e","ios":"levelo://app?vid=b037168f-63b3-4bc7-9ff8-b06bd320381e"},"vehicle_type_id":"4","last_reported":1716732384,"current_range_meters":0,"station_id":"ce4bh3p2rcd13ifvqdp0","pricing_plan_id":"cebpf4jnsgd1na2vs0mg"},{"bike_id":"750bff4e-03c8-425d-bf0a-e11e63e583a0","system_id":"levelo_inurba_marseille","lat":43.330442,"lon":5.389148,"is_reserved":false,"is_disabled":false,"rental_uris":{"android":"levelo://app?vid=750bff4e-03c8-425d-bf0a-e11e63e583a0","ios":"levelo://app?vid=750bff4e-03c8-425d-bf0a-e11e63e583a0"},"vehicle_type_id":"4","last_reported":1716732384,"current_range_meters":9600,"station_id":"ce4bhr92rcd13ifvqhrg","pricing_plan_id":"cebpf4jnsgd1na2vs0mg"},{"bike_id":"ba7bba16-c57b-44f6-9f9c-c9839289854f","system_id":"levelo_inurba_marseille","lat":43.31065,"lon":5.40081,"is_reserved":false,"is_disabled":false,"rental_uris":{"android":"levelo://app?vid=ba7bba16-c57b-44f6-9f9c-c9839289854f","ios":"levelo://app?vid=ba7bba16-c57b-44f6-9f9c-c9839289854f"},"vehicle_type_id":"4","last_reported":1716732384,"current_range_meters":10000,"station_id":"","pricing_plan_id":"cebpf4jnsgd1na2vs0mg"},{"bike_id":"56e27e36-16e4-428a-8b64-9787eb2e52c3","system_id":"levelo_inurba_marseille","lat":43.2901,"lon":5.381269,"is_reserved":false,"is_disabled":false,"rental_uris":{"android":"levelo://app?vid=56e27e36-16e4-428a-8b64-9787eb2e52c3","ios":"levelo://app?vid=56e27e36-16e4-428a-8b64-9787eb2e52c3"},"vehicle_type_id":"4","last_reported":1716732384,"current_range_meters":0,"station_id":"ce4bh4p2rcd13ifvqe1g","pricing_plan_id":"cebpf4jnsgd1na2vs0mg"},{"bike_id":"1a1505af-a805-4e97-b6c5-ef86c8ad33ae","system_id":"levelo_inurba_marseille","lat":43.310735,"lon":5.401007,"is_reserved":false,"is_disabled":false,"rental_uris":{"android":"levelo://app?vid=1a1505af-a805-4e97-b6c5-ef86c8ad33ae","ios":"levelo://app?vid=1a1505af-a805-4e97-b6c5-ef86c8ad33ae"},"vehicle_type_id":"4","last_reported":1716732384,"current_range_meters":400,"station_id":"","pricing_plan_id":"cebpf4jnsgd1na2vs0mg"},{"bike_id":"ef6cff95-76b2-4180-940e-02d84d5c53df","system_id":"levelo_inurba_marseille","lat":43.28856,"lon":5.358371,"is_reserved":false,"is_disabled":false,"rental_uris":{"android":"levelo://app?vid=ef6cff95-76b2-4180-940e-02d84d5c53df","ios":"levelo://app?vid=ef6cff95-76b2-4180-940e-02d84d5c53df"},"vehicle_type_id":"4","last_reported":1716732384,"current_range_meters":5200,"station_id":"ce4bhb12rcd13ifvqem0","pricing_plan_id":"cebpf4jnsgd1na2vs0mg"},{"bike_id":"48fad4ea-4f41-4a18-a2ad-5197b0ed3de4","system_id":"levelo_inurba_marseille","lat":43.28854,"lon":5.3585,"is_reserved":false,"is_disabled":false,"rental_uris":{"android":"levelo://app?vid=48fad4ea-4f41-4a18-a2ad-5197b0ed3de4","ios":"levelo://app?vid=48fad4ea-4f41-4a18-a2ad-5197b0ed3de4"},"vehicle_type_id":"4","last_reported":1716732384,"current_range_meters":20800,"station_id":"ce4bhb12rcd13ifvqem0","pricing_plan_id":"cebpf4jnsgd1na2vs0mg"},{"bike_id":"2d38ebd7-2ad2-4f85-a160-500cf469d6a8","system_id":"levelo_inurba_marseille","lat":43.28856,"lon":5.358371,"is_reserved":false,"is_disabled":false,"rental_uris":{"android":"levelo://app?vid=2d38ebd7-2ad2-4f85-a160-500cf469d6a8","ios":"levelo://app?vid=2d38ebd7-2ad2-4f85-a160-500cf469d6a8"},"vehicle_type_id":"4","last_reported":1716732384,"current_range_meters":20800,"station_id":"ce4bhb12rcd13ifvqem0","pricing_plan_id":"cebpf4jnsgd1na2vs0mg"},{"bike_id":"ea9bb357-d6a0-4bf7-b0e6-3ff848dc28e2","system_id":"levelo_inurba_marseille","lat":43.28856,"lon":5.358371,"is_reserved":false,"is_disabled":false,"rental_uris":{"android":"levelo://app?vid=ea9bb357-d6a0-4bf7-b0e6-3ff848dc28e2","ios":"levelo://app?vid=ea9bb357-d6a0-4bf7-b0e6-3ff848dc28e2"},"vehicle_type_id":"4","last_reported":1716732384,"current_range_meters":24000,"station_id":"ce4bhb12rcd13ifvqem0","pricing_plan_id":"cebpf4jnsgd1na2vs0mg"},{"bike_id":"c817be8a-4d3f-428e-9e83-fb97be659edc","system_id":"levelo_inurba_marseille","lat":43.33739,"lon":5.37443,"is_reserved":false,"is_disabled":false,"rental_uris":{"android":"levelo://app?vid=c817be8a-4d3f-428e-9e83-fb97be659edc","ios":"levelo://app?vid=c817be8a-4d3f-428e-9e83-fb97be659edc"},"vehicle_type_id":"4","last_reported":1716732384,"current_range_meters":20800,"station_id":"","pricing_plan_id":"cebpf4jnsgd1na2vs0mg"},{"bike_id":"5e08015a-b315-49d5-b067-121fc243166b","system_id":"levelo_inurba_marseille","lat":43.33752,"lon":5.37436,"is_reserved":false,"is_disabled":false,"rental_uris":{"android":"levelo://app?vid=5e08015a-b315-49d5-b067-121fc243166b","ios":"levelo://app?vid=5e08015a-b315-49d5-b067-121fc243166b"},"vehicle_type_id":"4","last_reported":1716732384,"current_range_meters":15600,"station_id":"","pricing_plan_id":"cebpf4jnsgd1na2vs0mg"},{"bike_id":"4baa171a-6f41-4b4c-bcc1-759d97c52644","system_id":"levelo_inurba_marseille","lat":43.337567,"lon":5.374574,"is_reserved":false,"is_disabled":false,"rental_uris":{"android":"levelo://app?vid=4baa171a-6f41-4b4c-bcc1-759d97c52644","ios":"levelo://app?vid=4baa171a-6f41-4b4c-bcc1-759d97c52644"},"vehicle_type_id":"4","last_reported":1716732384,"current_range_meters":18800,"station_id":"","pricing_plan_id":"cebpf4jnsgd1na2vs0mg"},{"bike_id":"4d476eee-4013-46a3-be70-3fc5198fa0f9","system_id":"levelo_inurba_marseille","lat":43.33763,"lon":5.374318,"is_reserved":false,"is_disabled":false,"rental_uris":{"android":"levelo://app?vid=4d476eee-4013-46a3-be70-3fc5198fa0f9","ios":"levelo://app?vid=4d476eee-4013-46a3-be70-3fc5198fa0f9"},"vehicle_type_id":"4","last_reported":1716732384,"current_range_meters":12400,"station_id":"","pricing_plan_id":"cebpf4jnsgd1na2vs0mg"},{"bike_id":"732798ba-2b9a-45ce-babd-a4bca6a10e63","system_id":"levelo_inurba_marseille","lat":43.337625,"lon":5.374405,"is_reserved":false,"is_disabled":false,"rental_uris":{"android":"levelo://app?vid=732798ba-2b9a-45ce-babd-a4bca6a10e63","ios":"levelo://app?vid=732798ba-2b9a-45ce-babd-a4bca6a10e63"},"vehicle_type_id":"4","last_reported":1716732384,"current_range_meters":12400,"station_id":"","pricing_plan_id":"cebpf4jnsgd1na2vs0mg"},{"bike_id":"85cd11f6-f41c-42ab-af69-73b9ed82e9c9","system_id":"levelo_inurba_marseille","lat":43.306412,"lon":5.401035,"is_reserved":false,"is_disabled":false,"rental_uris":{"android":"levelo://app?vid=85cd11f6-f41c-42ab-af69-73b9ed82e9c9","ios":"levelo://app?vid=85cd11f6-f41c-42ab-af69-73b9ed82e9c9"},"vehicle_type_id":"4","last_reported":1716732384,"current_range_meters":10000,"station_id":"ce4bh112rcd13ifvqda0","pricing_plan_id":"cebpf4jnsgd1na2vs0mg"},{"bike_id":"772d272b-d069-4ea0-af54-df45987443da","system_id":"levelo_inurba_marseille","lat":43.301117,"lon":5.398795,"is_reserved":false,"is_disabled":false,"rental_uris":{"android":"levelo://app?vid=772d272b-d069-4ea0-af54-df45987443da","ios":"levelo://app?vid=772d272b-d069-4ea0-af54-df45987443da"},"vehicle_type_id":"4","last_reported":1716732384,"current_range_meters":20800,"station_id":"ce4bh0h2rcd13ifvqd40","pricing_plan_id":"cebpf4jnsgd1na2vs0mg"},{"bike_id":"de609f3b-f2e7-4b37-96b4-3315c7ebe8bb","system_id":"levelo_inurba_marseille","lat":43.33764,"lon":5.37471,"is_reserved":false,"is_disabled":false,"rental_uris":{"android":"levelo://app?vid=de609f3b-f2e7-4b37-96b4-3315c7ebe8bb","ios":"levelo://app?vid=de609f3b-f2e7-4b37-96b4-3315c7ebe8bb"},"vehicle_type_id":"4","last_reported":1716732384,"current_range_meters":14800,"station_id":"","pricing_plan_id":"cebpf4jnsgd1na2vs0mg"},{"bike_id":"825fa8d8-f677-44ea-959e-e28a76bf9c1f","system_id":"levelo_inurba_marseille","lat":43.33781,"lon":5.37472,"is_reserved":false,"is_disabled":false,"rental_uris":{"android":"levelo://app?vid=825fa8d8-f677-44ea-959e-e28a76bf9c1f","ios":"levelo://app?vid=825fa8d8-f677-44ea-959e-e28a76bf9c1f"},"vehicle_type_id":"4","last_reported":1716732384,"current_range_meters":16000,"station_id":"","pricing_plan_id":"cebpf4jnsgd1na2vs0mg"},{"bike_id":"67e9bb2f-5c4a-4359-b813-7346aa0f5efc","system_id":"levelo_inurba_marseille","lat":43.28727,"lon":5.36078,"is_reserved":false,"is_disabled":false,"rental_uris":{"android":"levelo://app?vid=67e9bb2f-5c4a-4359-b813-7346aa0f5efc","ios":"levelo://app?vid=67e9bb2f-5c4a-4359-b813-7346aa0f5efc"},"vehicle_type_id":"4","last_reported":1716732384,"current_range_meters":20800,"station_id":"cki0cbj6b192h4jlfktg","pricing_plan_id":"cebpf4jnsgd1na2vs0mg"},{"bike_id":"2de0d129-600b-40d1-a40b-2b6aa51669e4","system_id":"levelo_inurba_marseille","lat":43.28727,"lon":5.36078,"is_reserved":false,"is_disabled":false,"rental_uris":{"android":"levelo://app?vid=2de0d129-600b-40d1-a40b-2b6aa51669e4","ios":"levelo://app?vid=2de0d129-600b-40d1-a40b-2b6aa51669e4"},"vehicle_type_id":"4","last_reported":1716732384,"current_range_meters":0,"station_id":"cki0cbj6b192h4jlfktg","pricing_plan_id":"cebpf4jnsgd1na2vs0mg"},{"bike_id":"7a4ce54e-168d-4652-8745-6a96920821de","system_id":"levelo_inurba_marseille","lat":43.286593,"lon":5.363346,"is_reserved":false,"is_disabled":false,"rental_uris":{"android":"levelo://app?vid=7a4ce54e-168d-4652-8745-6a96920821de","ios":"levelo://app?vid=7a4ce54e-168d-4652-8745-6a96920821de"},"vehicle_type_id":"4","last_reported":1716732384,"current_range_meters":9200,"station_id":"ce4bhah2rcd13ifvqej0","pricing_plan_id":"cebpf4jnsgd1na2vs0mg"},{"bike_id":"1b168460-89d9-4e97-b7a1-40011a5eaf54","system_id":"levelo_inurba_marseille","lat":43.289307,"lon":5.38406,"is_reserved":false,"is_disabled":false,"rental_uris":{"android":"levelo://app?vid=1b168460-89d9-4e97-b7a1-40011a5eaf54","ios":"levelo://app?vid=1b168460-89d9-4e97-b7a1-40011a5eaf54"},"vehicle_type_id":"4","last_reported":1716732384,"current_range_meters":19200,"station_id":"ce4bh612rcd13ifvqe6g","pricing_plan_id":"cebpf4jnsgd1na2vs0mg"},{"bike_id":"5de83157-4ab6-4bd0-b5d0-14bb1a507dad","system_id":"levelo_inurba_marseille","lat":43.302759,"lon":5.400793,"is_reserved":false,"is_disabled":false,"rental_uris":{"android":"levelo://app?vid=5de83157-4ab6-4bd0-b5d0-14bb1a507dad","ios":"levelo://app?vid=5de83157-4ab6-4bd0-b5d0-14bb1a507dad"},"vehicle_type_id":"4","last_reported":1716732384,"current_range_meters":0,"station_id":"ce4bgvh2rcd13ifvqcs0","pricing_plan_id":"cebpf4jnsgd1na2vs0mg"},{"bike_id":"a34963c3-cf05-4f69-a012-3f020410e9b2","system_id":"levelo_inurba_marseille","lat":43.290336,"lon":5.386425,"is_reserved":false,"is_disabled":false,"rental_uris":{"android":"levelo://app?vid=a34963c3-cf05-4f69-a012-3f020410e9b2","ios":"levelo://app?vid=a34963c3-cf05-4f69-a012-3f020410e9b2"},"vehicle_type_id":"4","last_reported":1716732384,"current_range_meters":3200,"station_id":"ce4bh4p2rcd13ifvqe0g","pricing_plan_id":"cebpf4jnsgd1na2vs0mg"},{"bike_id":"73e85dc6-3d1f-4deb-921a-b7cd83dbacd6","system_id":"levelo_inurba_marseille","lat":43.287185,"lon":5.379373,"is_reserved":false,"is_disabled":false,"rental_uris":{"android":"levelo://app?vid=73e85dc6-3d1f-4deb-921a-b7cd83dbacd6","ios":"levelo://app?vid=73e85dc6-3d1f-4deb-921a-b7cd83dbacd6"},"vehicle_type_id":"4","last_reported":1716732384,"current_range_meters":12400,"station_id":"ce4bh9p2rcd13ifvqec0","pricing_plan_id":"cebpf4jnsgd1na2vs0mg"},{"bike_id":"fc5d79a9-980f-4a3d-9e13-156c55858555","system_id":"levelo_inurba_marseille","lat":43.31701,"lon":5.40464,"is_reserved":false,"is_disabled":false,"rental_uris":{"android":"levelo://app?vid=fc5d79a9-980f-4a3d-9e13-156c55858555","ios":"levelo://app?vid=fc5d79a9-980f-4a3d-9e13-156c55858555"},"vehicle_type_id":"4","last_reported":1716732384,"current_range_meters":0,"station_id":"ce4bh012rcd13ifvqd00","pricing_plan_id":"cebpf4jnsgd1na2vs0mg"},{"bike_id":"96dce153-9f22-4c99-9d1e-fc4721036fb9","system_id":"levelo_inurba_marseille","lat":43.3169,"lon":5.40481,"is_reserved":false,"is_disabled":false,"rental_uris":{"android":"levelo://app?vid=96dce153-9f22-4c99-9d1e-fc4721036fb9","ios":"levelo://app?vid=96dce153-9f22-4c99-9d1e-fc4721036fb9"},"vehicle_type_id":"4","last_reported":1716732384,"current_range_meters":10400,"station_id":"ce4bh012rcd13ifvqd00","pricing_plan_id":"cebpf4jnsgd1na2vs0mg"},{"bike_id":"c00bc09d-3481-4065-9d5b-33840d41fe20","system_id":"levelo_inurba_marseille","lat":43.284534,"lon":5.358662,"is_reserved":false,"is_disabled":false,"rental_uris":{"android":"levelo://app?vid=c00bc09d-3481-4065-9d5b-33840d41fe20","ios":"levelo://app?vid=c00bc09d-3481-4065-9d5b-33840d41fe20"},"vehicle_type_id":"4","last_reported":1716732384,"current_range_meters":2800,"station_id":"ce4bhah2rcd13ifvqei0","pricing_plan_id":"cebpf4jnsgd1na2vs0mg"},{"bike_id":"cfdcb2df-5f31-4964-a2e6-4b2f75fe2130","system_id":"levelo_inurba_marseille","lat":43.284538,"lon":5.358657,"is_reserved":false,"is_disabled":false,"rental_uris":{"android":"levelo://app?vid=cfdcb2df-5f31-4964-a2e6-4b2f75fe2130","ios":"levelo://app?vid=cfdcb2df-5f31-4964-a2e6-4b2f75fe2130"},"vehicle_type_id":"4","last_reported":1716732384,"current_range_meters":26800,"station_id":"ce4bhah2rcd13ifvqei0","pricing_plan_id":"cebpf4jnsgd1na2vs0mg"},{"bike_id":"106eea90-dac9-46ba-ab45-7c200a4e9611","system_id":"levelo_inurba_marseille","lat":43.284534,"lon":5.358662,"is_reserved":false,"is_disabled":false,"rental_uris":{"android":"levelo://app?vid=106eea90-dac9-46ba-ab45-7c200a4e9611","ios":"levelo://app?vid=106eea90-dac9-46ba-ab45-7c200a4e9611"},"vehicle_type_id":"4","last_reported":1716732384,"current_range_meters":20400,"station_id":"ce4bhah2rcd13ifvqei0","pricing_plan_id":"cebpf4jnsgd1na2vs0mg"},{"bike_id":"8cacc0f2-90a2-473d-8985-a26d115e2058","system_id":"levelo_inurba_marseille","lat":43.28621,"lon":5.35108,"is_reserved":false,"is_disabled":false,"rental_uris":{"android":"levelo://app?vid=8cacc0f2-90a2-473d-8985-a26d115e2058","ios":"levelo://app?vid=8cacc0f2-90a2-473d-8985-a26d115e2058"},"vehicle_type_id":"4","last_reported":1716732384,"current_range_meters":22400,"station_id":"ce4bhch2rcd13ifvqeug","pricing_plan_id":"cebpf4jnsgd1na2vs0mg"},{"bike_id":"ca1e9fed-3bba-4a26-8a02-69f6b4f27aa5","system_id":"levelo_inurba_marseille","lat":43.28619,"lon":5.35106,"is_reserved":false,"is_disabled":false,"rental_uris":{"android":"levelo://app?vid=ca1e9fed-3bba-4a26-8a02-69f6b4f27aa5","ios":"levelo://app?vid=ca1e9fed-3bba-4a26-8a02-69f6b4f27aa5"},"vehicle_type_id":"4","last_reported":1716732384,"current_range_meters":3600,"station_id":"ce4bhch2rcd13ifvqeug","pricing_plan_id":"cebpf4jnsgd1na2vs0mg"},{"bike_id":"0552d5e0-c8cc-4aba-937b-b80775d6e267","system_id":"levelo_inurba_marseille","lat":43.285848,"lon":5.350787,"is_reserved":false,"is_disabled":false,"rental_uris":{"android":"levelo://app?vid=0552d5e0-c8cc-4aba-937b-b80775d6e267","ios":"levelo://app?vid=0552d5e0-c8cc-4aba-937b-b80775d6e267"},"vehicle_type_id":"4","last_reported":1716732384,"current_range_meters":28800,"station_id":"ce4bhch2rcd13ifvqeug","pricing_plan_id":"cebpf4jnsgd1na2vs0mg"},{"bike_id":"22377483-c99c-40f2-8f43-4bea2bfb3c15","system_id":"levelo_inurba_marseille","lat":43.28618,"lon":5.35106,"is_reserved":false,"is_disabled":false,"rental_uris":{"android":"levelo://app?vid=22377483-c99c-40f2-8f43-4bea2bfb3c15","ios":"levelo://app?vid=22377483-c99c-40f2-8f43-4bea2bfb3c15"},"vehicle_type_id":"4","last_reported":1716732384,"current_range_meters":21200,"station_id":"ce4bhch2rcd13ifvqeug","pricing_plan_id":"cebpf4jnsgd1na2vs0mg"},{"bike_id":"9525d49b-137b-4f41-97b3-748fa38849e4","system_id":"levelo_inurba_marseille","lat":43.286186,"lon":5.351034,"is_reserved":false,"is_disabled":false,"rental_uris":{"android":"levelo://app?vid=9525d49b-137b-4f41-97b3-748fa38849e4","ios":"levelo://app?vid=9525d49b-137b-4f41-97b3-748fa38849e4"},"vehicle_type_id":"4","last_reported":1716732384,"current_range_meters":22800,"station_id":"ce4bhch2rcd13ifvqeug","pricing_plan_id":"cebpf4jnsgd1na2vs0mg"},{"bike_id":"4e1c7995-c129-4b25-841c-f2d0672e2043","system_id":"levelo_inurba_marseille","lat":43.28617,"lon":5.35103,"is_reserved":false,"is_disabled":false,"rental_uris":{"android":"levelo://app?vid=4e1c7995-c129-4b25-841c-f2d0672e2043","ios":"levelo://app?vid=4e1c7995-c129-4b25-841c-f2d0672e2043"},"vehicle_type_id":"4","last_reported":1716732384,"current_range_meters":5200,"station_id":"ce4bhch2rcd13ifvqeug","pricing_plan_id":"cebpf4jnsgd1na2vs0mg"},{"bike_id":"0d1fd9da-8a1c-4734-8d9b-110c489aa56f","system_id":"levelo_inurba_marseille","lat":43.285856,"lon":5.350771,"is_reserved":false,"is_disabled":false,"rental_uris":{"android":"levelo://app?vid=0d1fd9da-8a1c-4734-8d9b-110c489aa56f","ios":"levelo://app?vid=0d1fd9da-8a1c-4734-8d9b-110c489aa56f"},"vehicle_type_id":"4","last_reported":1716732384,"current_range_meters":15600,"station_id":"ce4bhch2rcd13ifvqeug","pricing_plan_id":"cebpf4jnsgd1na2vs0mg"},{"bike_id":"656300b1-4f85-44f5-8079-d58cbad3fdf4","system_id":"levelo_inurba_marseille","lat":43.285848,"lon":5.350787,"is_reserved":false,"is_disabled":false,"rental_uris":{"android":"levelo://app?vid=656300b1-4f85-44f5-8079-d58cbad3fdf4","ios":"levelo://app?vid=656300b1-4f85-44f5-8079-d58cbad3fdf4"},"vehicle_type_id":"4","last_reported":1716732384,"current_range_meters":18000,"station_id":"ce4bhch2rcd13ifvqeug","pricing_plan_id":"cebpf4jnsgd1na2vs0mg"},{"bike_id":"78fa18ef-4109-4c14-be4b-dbe183225dfc","system_id":"levelo_inurba_marseille","lat":43.285848,"lon":5.350787,"is_reserved":false,"is_disabled":false,"rental_uris":{"android":"levelo://app?vid=78fa18ef-4109-4c14-be4b-dbe183225dfc","ios":"levelo://app?vid=78fa18ef-4109-4c14-be4b-dbe183225dfc"},"vehicle_type_id":"4","last_reported":1716732384,"current_range_meters":23200,"station_id":"ce4bhch2rcd13ifvqeug","pricing_plan_id":"cebpf4jnsgd1na2vs0mg"},{"bike_id":"6525a131-25b4-4af9-b341-2f2b36285849","system_id":"levelo_inurba_marseille","lat":43.28615,"lon":5.35103,"is_reserved":false,"is_disabled":false,"rental_uris":{"android":"levelo://app?vid=6525a131-25b4-4af9-b341-2f2b36285849","ios":"levelo://app?vid=6525a131-25b4-4af9-b341-2f2b36285849"},"vehicle_type_id":"4","last_reported":1716732384,"current_range_meters":31200,"station_id":"ce4bhch2rcd13ifvqeug","pricing_plan_id":"cebpf4jnsgd1na2vs0mg"},{"bike_id":"269443b2-8c01-46a4-af98-8d859a0b5f97","system_id":"levelo_inurba_marseille","lat":43.285848,"lon":5.350787,"is_reserved":false,"is_disabled":false,"rental_uris":{"android":"levelo://app?vid=269443b2-8c01-46a4-af98-8d859a0b5f97","ios":"levelo://app?vid=269443b2-8c01-46a4-af98-8d859a0b5f97"},"vehicle_type_id":"4","last_reported":1716732384,"current_range_meters":2000,"station_id":"ce4bhch2rcd13ifvqeug","pricing_plan_id":"cebpf4jnsgd1na2vs0mg"},{"bike_id":"55c068b4-930d-41c6-87da-264819fd9ce5","system_id":"levelo_inurba_marseille","lat":43.286143,"lon":5.351033,"is_reserved":false,"is_disabled":false,"rental_uris":{"android":"levelo://app?vid=55c068b4-930d-41c6-87da-264819fd9ce5","ios":"levelo://app?vid=55c068b4-930d-41c6-87da-264819fd9ce5"},"vehicle_type_id":"4","last_reported":1716732384,"current_range_meters":16000,"station_id":"ce4bhch2rcd13ifvqeug","pricing_plan_id":"cebpf4jnsgd1na2vs0mg"},{"bike_id":"b6e4373d-4ff1-4836-9960-050e87be5f91","system_id":"levelo_inurba_marseille","lat":43.28616,"lon":5.35096,"is_reserved":false,"is_disabled":false,"rental_uris":{"android":"levelo://app?vid=b6e4373d-4ff1-4836-9960-050e87be5f91","ios":"levelo://app?vid=b6e4373d-4ff1-4836-9960-050e87be5f91"},"vehicle_type_id":"4","last_reported":1716732384,"current_range_meters":26000,"station_id":"ce4bhch2rcd13ifvqeug","pricing_plan_id":"cebpf4jnsgd1na2vs0mg"},{"bike_id":"26a9ac5d-7e41-4196-8729-33863f2b5779","system_id":"levelo_inurba_marseille","lat":43.28614,"lon":5.35101,"is_reserved":false,"is_disabled":false,"rental_uris":{"android":"levelo://app?vid=26a9ac5d-7e41-4196-8729-33863f2b5779","ios":"levelo://app?vid=26a9ac5d-7e41-4196-8729-33863f2b5779"},"vehicle_type_id":"4","last_reported":1716732384,"current_range_meters":24400,"station_id":"ce4bhch2rcd13ifvqeug","pricing_plan_id":"cebpf4jnsgd1na2vs0mg"},{"bike_id":"d2690009-6013-4227-ad21-fd2967d9e61d","system_id":"levelo_inurba_marseille","lat":43.28612,"lon":5.35105,"is_reserved":false,"is_disabled":false,"rental_uris":{"android":"levelo://app?vid=d2690009-6013-4227-ad21-fd2967d9e61d","ios":"levelo://app?vid=d2690009-6013-4227-ad21-fd2967d9e61d"},"vehicle_type_id":"4","last_reported":1716732384,"current_range_meters":27600,"station_id":"ce4bhch2rcd13ifvqeug","pricing_plan_id":"cebpf4jnsgd1na2vs0mg"},{"bike_id":"5b8d5f61-5572-49a1-b919-38d22904c52d","system_id":"levelo_inurba_marseille","lat":43.28614,"lon":5.35096,"is_reserved":false,"is_disabled":false,"rental_uris":{"android":"levelo://app?vid=5b8d5f61-5572-49a1-b919-38d22904c52d","ios":"levelo://app?vid=5b8d5f61-5572-49a1-b919-38d22904c52d"},"vehicle_type_id":"4","last_reported":1716732384,"current_range_meters":20400,"station_id":"ce4bhch2rcd13ifvqeug","pricing_plan_id":"cebpf4jnsgd1na2vs0mg"},{"bike_id":"fccc4f54-9243-44e9-8965-f31072501ca1","system_id":"levelo_inurba_marseille","lat":43.29984,"lon":5.40274,"is_reserved":false,"is_disabled":false,"rental_uris":{"android":"levelo://app?vid=fccc4f54-9243-44e9-8965-f31072501ca1","ios":"levelo://app?vid=fccc4f54-9243-44e9-8965-f31072501ca1"},"vehicle_type_id":"4","last_reported":1716732384,"current_range_meters":18800,"station_id":"","pricing_plan_id":"cebpf4jnsgd1na2vs0mg"},{"bike_id":"660f09cf-52f4-4063-b765-ab78c2b7336f","system_id":"levelo_inurba_marseille","lat":43.29955,"lon":5.40261,"is_reserved":false,"is_disabled":false,"rental_uris":{"android":"levelo://app?vid=660f09cf-52f4-4063-b765-ab78c2b7336f","ios":"levelo://app?vid=660f09cf-52f4-4063-b765-ab78c2b7336f"},"vehicle_type_id":"4","last_reported":1716732384,"current_range_meters":18800,"station_id":"","pricing_plan_id":"cebpf4jnsgd1na2vs0mg"},{"bike_id":"4bcdbeb6-699f-40ca-87d3-9d73a2e1764d","system_id":"levelo_inurba_marseille","lat":43.29957,"lon":5.40293,"is_reserved":false,"is_disabled":false,"rental_uris":{"android":"levelo://app?vid=4bcdbeb6-699f-40ca-87d3-9d73a2e1764d","ios":"levelo://app?vid=4bcdbeb6-699f-40ca-87d3-9d73a2e1764d"},"vehicle_type_id":"4","last_reported":1716732384,"current_range_meters":10400,"station_id":"","pricing_plan_id":"cebpf4jnsgd1na2vs0mg"},{"bike_id":"36fb3490-a76c-4542-9cbf-99d28c86583e","system_id":"levelo_inurba_marseille","lat":43.29945,"lon":5.40293,"is_reserved":false,"is_disabled":false,"rental_uris":{"android":"levelo://app?vid=36fb3490-a76c-4542-9cbf-99d28c86583e","ios":"levelo://app?vid=36fb3490-a76c-4542-9cbf-99d28c86583e"},"vehicle_type_id":"4","last_reported":1716732384,"current_range_meters":10400,"station_id":"","pricing_plan_id":"cebpf4jnsgd1na2vs0mg"},{"bike_id":"26879562-a620-4492-9fea-8aefe63ff97d","system_id":"levelo_inurba_marseille","lat":43.286595,"lon":5.386795,"is_reserved":false,"is_disabled":false,"rental_uris":{"android":"levelo://app?vid=26879562-a620-4492-9fea-8aefe63ff97d","ios":"levelo://app?vid=26879562-a620-4492-9fea-8aefe63ff97d"},"vehicle_type_id":"4","last_reported":1716732384,"current_range_meters":31200,"station_id":"ce4bh492rcd13ifvqdug","pricing_plan_id":"cebpf4jnsgd1na2vs0mg"},{"bike_id":"30c71d2a-594d-4aba-af43-404301bb57ea","system_id":"levelo_inurba_marseille","lat":43.29587,"lon":5.40047,"is_reserved":false,"is_disabled":false,"rental_uris":{"android":"levelo://app?vid=30c71d2a-594d-4aba-af43-404301bb57ea","ios":"levelo://app?vid=30c71d2a-594d-4aba-af43-404301bb57ea"},"vehicle_type_id":"4","last_reported":1716732384,"current_range_meters":8000,"station_id":"","pricing_plan_id":"cebpf4jnsgd1na2vs0mg"},{"bike_id":"3049060c-386c-489a-a2d6-4b69a00487d9","system_id":"levelo_inurba_marseille","lat":43.286595,"lon":5.386795,"is_reserved":false,"is_disabled":false,"rental_uris":{"android":"levelo://app?vid=3049060c-386c-489a-a2d6-4b69a00487d9","ios":"levelo://app?vid=3049060c-386c-489a-a2d6-4b69a00487d9"},"vehicle_type_id":"4","last_reported":1716732384,"current_range_meters":0,"station_id":"ce4bh492rcd13ifvqdug","pricing_plan_id":"cebpf4jnsgd1na2vs0mg"},{"bike_id":"5df5652e-a340-413b-a1f2-7a466147657a","system_id":"levelo_inurba_marseille","lat":43.33723,"lon":5.39175,"is_reserved":false,"is_disabled":false,"rental_uris":{"android":"levelo://app?vid=5df5652e-a340-413b-a1f2-7a466147657a","ios":"levelo://app?vid=5df5652e-a340-413b-a1f2-7a466147657a"},"vehicle_type_id":"4","last_reported":1716732384,"current_range_meters":19600,"station_id":"ce4bhr92rcd13ifvqhsg","pricing_plan_id":"cebpf4jnsgd1na2vs0mg"},{"bike_id":"98412d5e-893d-434c-805f-a2f3356fb4d6","system_id":"levelo_inurba_marseille","lat":43.32289,"lon":5.40636,"is_reserved":false,"is_disabled":false,"rental_uris":{"android":"levelo://app?vid=98412d5e-893d-434c-805f-a2f3356fb4d6","ios":"levelo://app?vid=98412d5e-893d-434c-805f-a2f3356fb4d6"},"vehicle_type_id":"4","last_reported":1716732384,"current_range_meters":9600,"station_id":"","pricing_plan_id":"cebpf4jnsgd1na2vs0mg"},{"bike_id":"d29c87be-c1ed-47ba-a406-0ea460677331","system_id":"levelo_inurba_marseille","lat":43.33717,"lon":5.391857,"is_reserved":false,"is_disabled":false,"rental_uris":{"android":"levelo://app?vid=d29c87be-c1ed-47ba-a406-0ea460677331","ios":"levelo://app?vid=d29c87be-c1ed-47ba-a406-0ea460677331"},"vehicle_type_id":"4","last_reported":1716732384,"current_range_meters":27600,"station_id":"ce4bhr92rcd13ifvqhsg","pricing_plan_id":"cebpf4jnsgd1na2vs0mg"},{"bike_id":"f98e1806-7000-4877-836b-8d9e2d5e1d4f","system_id":"levelo_inurba_marseille","lat":43.33726,"lon":5.39185,"is_reserved":false,"is_disabled":false,"rental_uris":{"android":"levelo://app?vid=f98e1806-7000-4877-836b-8d9e2d5e1d4f","ios":"levelo://app?vid=f98e1806-7000-4877-836b-8d9e2d5e1d4f"},"vehicle_type_id":"4","last_reported":1716732384,"current_range_meters":400,"station_id":"ce4bhr92rcd13ifvqhsg","pricing_plan_id":"cebpf4jnsgd1na2vs0mg"},{"bike_id":"0699c668-980b-44ad-827c-edcd0a94f2b8","system_id":"levelo_inurba_marseille","lat":43.323464,"lon":5.406297,"is_reserved":false,"is_disabled":false,"rental_uris":{"android":"levelo://app?vid=0699c668-980b-44ad-827c-edcd0a94f2b8","ios":"levelo://app?vid=0699c668-980b-44ad-827c-edcd0a94f2b8"},"vehicle_type_id":"4","last_reported":1716732384,"current_range_meters":24000,"station_id":"ce4bhq92rcd13ifvqhjg","pricing_plan_id":"cebpf4jnsgd1na2vs0mg"},{"bike_id":"be110534-ab1b-4662-aeff-05ef7c4acf56","system_id":"levelo_inurba_marseille","lat":43.323464,"lon":5.406297,"is_reserved":false,"is_disabled":false,"rental_uris":{"android":"levelo://app?vid=be110534-ab1b-4662-aeff-05ef7c4acf56","ios":"levelo://app?vid=be110534-ab1b-4662-aeff-05ef7c4acf56"},"vehicle_type_id":"4","last_reported":1716732384,"current_range_meters":29600,"station_id":"ce4bhq92rcd13ifvqhjg","pricing_plan_id":"cebpf4jnsgd1na2vs0mg"},{"bike_id":"a4756ad6-5371-4d03-8d46-7c3d98a7e259","system_id":"levelo_inurba_marseille","lat":43.323464,"lon":5.406297,"is_reserved":false,"is_disabled":false,"rental_uris":{"android":"levelo://app?vid=a4756ad6-5371-4d03-8d46-7c3d98a7e259","ios":"levelo://app?vid=a4756ad6-5371-4d03-8d46-7c3d98a7e259"},"vehicle_type_id":"4","last_reported":1716732384,"current_range_meters":31200,"station_id":"ce4bhq92rcd13ifvqhjg","pricing_plan_id":"cebpf4jnsgd1na2vs0mg"},{"bike_id":"f0fc7b35-1f13-4177-a483-7e36733dfa33","system_id":"levelo_inurba_marseille","lat":43.33717,"lon":5.391857,"is_reserved":false,"is_disabled":false,"rental_uris":{"android":"levelo://app?vid=f0fc7b35-1f13-4177-a483-7e36733dfa33","ios":"levelo://app?vid=f0fc7b35-1f13-4177-a483-7e36733dfa33"},"vehicle_type_id":"4","last_reported":1716732384,"current_range_meters":15600,"station_id":"ce4bhr92rcd13ifvqhsg","pricing_plan_id":"cebpf4jnsgd1na2vs0mg"},{"bike_id":"4dde6174-5f7b-49c4-9d04-2eb6efc7d0ed","system_id":"levelo_inurba_marseille","lat":43.32342,"lon":5.40626,"is_reserved":false,"is_disabled":false,"rental_uris":{"android":"levelo://app?vid=4dde6174-5f7b-49c4-9d04-2eb6efc7d0ed","ios":"levelo://app?vid=4dde6174-5f7b-49c4-9d04-2eb6efc7d0ed"},"vehicle_type_id":"4","last_reported":1716732384,"current_range_meters":0,"station_id":"ce4bhq92rcd13ifvqhjg","pricing_plan_id":"cebpf4jnsgd1na2vs0mg"},{"bike_id":"322e67d1-3149-4d83-9990-e371e22cc699","system_id":"levelo_inurba_marseille","lat":43.337168,"lon":5.391825,"is_reserved":false,"is_disabled":false,"rental_uris":{"android":"levelo://app?vid=322e67d1-3149-4d83-9990-e371e22cc699","ios":"levelo://app?vid=322e67d1-3149-4d83-9990-e371e22cc699"},"vehicle_type_id":"4","last_reported":1716732384,"current_range_meters":7600,"station_id":"ce4bhr92rcd13ifvqhsg","pricing_plan_id":"cebpf4jnsgd1na2vs0mg"},{"bike_id":"7c55e56a-57b1-4530-a5f7-47b638aac826","system_id":"levelo_inurba_marseille","lat":43.284219,"lon":5.3497,"is_reserved":false,"is_disabled":false,"rental_uris":{"android":"levelo://app?vid=7c55e56a-57b1-4530-a5f7-47b638aac826","ios":"levelo://app?vid=7c55e56a-57b1-4530-a5f7-47b638aac826"},"vehicle_type_id":"4","last_reported":1716732384,"current_range_meters":7200,"station_id":"ce4bhbh2rcd13ifvqepg","pricing_plan_id":"cebpf4jnsgd1na2vs0mg"},{"bike_id":"b2c8bdef-e089-4cbf-816c-55c16464fc30","system_id":"levelo_inurba_marseille","lat":43.28776,"lon":5.39147,"is_reserved":false,"is_disabled":false,"rental_uris":{"android":"levelo://app?vid=b2c8bdef-e089-4cbf-816c-55c16464fc30","ios":"levelo://app?vid=b2c8bdef-e089-4cbf-816c-55c16464fc30"},"vehicle_type_id":"4","last_reported":1716732384,"current_range_meters":0,"station_id":"","pricing_plan_id":"cebpf4jnsgd1na2vs0mg"},{"bike_id":"3b54d70b-6e92-47e9-9470-268f4a9bfd21","system_id":"levelo_inurba_marseille","lat":43.297946,"lon":5.404063,"is_reserved":false,"is_disabled":false,"rental_uris":{"android":"levelo://app?vid=3b54d70b-6e92-47e9-9470-268f4a9bfd21","ios":"levelo://app?vid=3b54d70b-6e92-47e9-9470-268f4a9bfd21"},"vehicle_type_id":"4","last_reported":1716732384,"current_range_meters":0,"station_id":"ce4bh112rcd13ifvqd90","pricing_plan_id":"cebpf4jnsgd1na2vs0mg"},{"bike_id":"09b02cdb-23c7-42a3-a02c-2025b80f0e4d","system_id":"levelo_inurba_marseille","lat":43.288497,"lon":5.393089,"is_reserved":false,"is_disabled":false,"rental_uris":{"android":"levelo://app?vid=09b02cdb-23c7-42a3-a02c-2025b80f0e4d","ios":"levelo://app?vid=09b02cdb-23c7-42a3-a02c-2025b80f0e4d"},"vehicle_type_id":"4","last_reported":1716732384,"current_range_meters":4000,"station_id":"ce4bh2p2rcd13ifvqdi0","pricing_plan_id":"cebpf4jnsgd1na2vs0mg"},{"bike_id":"c7dfe25f-f8ae-40da-95ca-94a2f0516814","system_id":"levelo_inurba_marseille","lat":43.283494,"lon":5.380945,"is_reserved":false,"is_disabled":false,"rental_uris":{"android":"levelo://app?vid=c7dfe25f-f8ae-40da-95ca-94a2f0516814","ios":"levelo://app?vid=c7dfe25f-f8ae-40da-95ca-94a2f0516814"},"vehicle_type_id":"4","last_reported":1716732384,"current_range_meters":4800,"station_id":"ce4bh412rcd13ifvqdr0","pricing_plan_id":"cebpf4jnsgd1na2vs0mg"},{"bike_id":"bfb96d80-73aa-4876-bb24-33faf8086fd6","system_id":"levelo_inurba_marseille","lat":43.28426,"lon":5.34994,"is_reserved":false,"is_disabled":false,"rental_uris":{"android":"levelo://app?vid=bfb96d80-73aa-4876-bb24-33faf8086fd6","ios":"levelo://app?vid=bfb96d80-73aa-4876-bb24-33faf8086fd6"},"vehicle_type_id":"4","last_reported":1716732384,"current_range_meters":29600,"station_id":"ce4bhbh2rcd13ifvqepg","pricing_plan_id":"cebpf4jnsgd1na2vs0mg"},{"bike_id":"3be0e910-e44f-4654-a5b4-12a040955ebd","system_id":"levelo_inurba_marseille","lat":43.28425,"lon":5.34997,"is_reserved":false,"is_disabled":false,"rental_uris":{"android":"levelo://app?vid=3be0e910-e44f-4654-a5b4-12a040955ebd","ios":"levelo://app?vid=3be0e910-e44f-4654-a5b4-12a040955ebd"},"vehicle_type_id":"4","last_reported":1716732384,"current_range_meters":3600,"station_id":"ce4bhbh2rcd13ifvqepg","pricing_plan_id":"cebpf4jnsgd1na2vs0mg"},{"bike_id":"7590c274-d145-4748-a0de-2b6a13924199","system_id":"levelo_inurba_marseille","lat":43.284214,"lon":5.349706,"is_reserved":false,"is_disabled":false,"rental_uris":{"android":"levelo://app?vid=7590c274-d145-4748-a0de-2b6a13924199","ios":"levelo://app?vid=7590c274-d145-4748-a0de-2b6a13924199"},"vehicle_type_id":"4","last_reported":1716732384,"current_range_meters":10000,"station_id":"ce4bhbh2rcd13ifvqepg","pricing_plan_id":"cebpf4jnsgd1na2vs0mg"},{"bike_id":"fefcf908-596f-4145-a992-6637d851e6f0","system_id":"levelo_inurba_marseille","lat":43.28423,"lon":5.3499,"is_reserved":false,"is_disabled":false,"rental_uris":{"android":"levelo://app?vid=fefcf908-596f-4145-a992-6637d851e6f0","ios":"levelo://app?vid=fefcf908-596f-4145-a992-6637d851e6f0"},"vehicle_type_id":"4","last_reported":1716732384,"current_range_meters":17600,"station_id":"ce4bhbh2rcd13ifvqepg","pricing_plan_id":"cebpf4jnsgd1na2vs0mg"},{"bike_id":"ebae7cce-c222-4a13-972c-5f3abf2c8b4e","system_id":"levelo_inurba_marseille","lat":43.284219,"lon":5.3497,"is_reserved":false,"is_disabled":false,"rental_uris":{"android":"levelo://app?vid=ebae7cce-c222-4a13-972c-5f3abf2c8b4e","ios":"levelo://app?vid=ebae7cce-c222-4a13-972c-5f3abf2c8b4e"},"vehicle_type_id":"4","last_reported":1716732384,"current_range_meters":31200,"station_id":"ce4bhbh2rcd13ifvqepg","pricing_plan_id":"cebpf4jnsgd1na2vs0mg"},{"bike_id":"47afeaa0-99de-4000-bcad-6bd3d4b5d859","system_id":"levelo_inurba_marseille","lat":43.284214,"lon":5.349706,"is_reserved":false,"is_disabled":false,"rental_uris":{"android":"levelo://app?vid=47afeaa0-99de-4000-bcad-6bd3d4b5d859","ios":"levelo://app?vid=47afeaa0-99de-4000-bcad-6bd3d4b5d859"},"vehicle_type_id":"4","last_reported":1716732384,"current_range_meters":30000,"station_id":"ce4bhbh2rcd13ifvqepg","pricing_plan_id":"cebpf4jnsgd1na2vs0mg"},{"bike_id":"7fd42170-d4f7-47bd-8d4e-4026fa9adfdc","system_id":"levelo_inurba_marseille","lat":43.284219,"lon":5.3497,"is_reserved":false,"is_disabled":false,"rental_uris":{"android":"levelo://app?vid=7fd42170-d4f7-47bd-8d4e-4026fa9adfdc","ios":"levelo://app?vid=7fd42170-d4f7-47bd-8d4e-4026fa9adfdc"},"vehicle_type_id":"4","last_reported":1716732384,"current_range_meters":7600,"station_id":"ce4bhbh2rcd13ifvqepg","pricing_plan_id":"cebpf4jnsgd1na2vs0mg"},{"bike_id":"e68a0d8e-7644-4921-936c-721aabaef914","system_id":"levelo_inurba_marseille","lat":43.284219,"lon":5.3497,"is_reserved":false,"is_disabled":false,"rental_uris":{"android":"levelo://app?vid=e68a0d8e-7644-4921-936c-721aabaef914","ios":"levelo://app?vid=e68a0d8e-7644-4921-936c-721aabaef914"},"vehicle_type_id":"4","last_reported":1716732384,"current_range_meters":12400,"station_id":"ce4bhbh2rcd13ifvqepg","pricing_plan_id":"cebpf4jnsgd1na2vs0mg"},{"bike_id":"a27a8566-003d-4a02-9bb2-4ab6e7a45b6c","system_id":"levelo_inurba_marseille","lat":43.28419,"lon":5.34997,"is_reserved":false,"is_disabled":false,"rental_uris":{"android":"levelo://app?vid=a27a8566-003d-4a02-9bb2-4ab6e7a45b6c","ios":"levelo://app?vid=a27a8566-003d-4a02-9bb2-4ab6e7a45b6c"},"vehicle_type_id":"4","last_reported":1716732384,"current_range_meters":19200,"station_id":"ce4bhbh2rcd13ifvqepg","pricing_plan_id":"cebpf4jnsgd1na2vs0mg"},{"bike_id":"49a3eda2-9069-4d03-987b-6e0c5b23a7e7","system_id":"levelo_inurba_marseille","lat":43.284219,"lon":5.3497,"is_reserved":false,"is_disabled":false,"rental_uris":{"android":"levelo://app?vid=49a3eda2-9069-4d03-987b-6e0c5b23a7e7","ios":"levelo://app?vid=49a3eda2-9069-4d03-987b-6e0c5b23a7e7"},"vehicle_type_id":"4","last_reported":1716732384,"current_range_meters":7200,"station_id":"ce4bhbh2rcd13ifvqepg","pricing_plan_id":"cebpf4jnsgd1na2vs0mg"},{"bike_id":"3b34952f-ed2f-4533-8558-6a3472d268c0","system_id":"levelo_inurba_marseille","lat":43.284219,"lon":5.3497,"is_reserved":false,"is_disabled":false,"rental_uris":{"android":"levelo://app?vid=3b34952f-ed2f-4533-8558-6a3472d268c0","ios":"levelo://app?vid=3b34952f-ed2f-4533-8558-6a3472d268c0"},"vehicle_type_id":"4","last_reported":1716732384,"current_range_meters":15600,"station_id":"ce4bhbh2rcd13ifvqepg","pricing_plan_id":"cebpf4jnsgd1na2vs0mg"},{"bike_id":"b269eb4e-30e0-4b6e-8390-a6e9c98ed217","system_id":"levelo_inurba_marseille","lat":43.284214,"lon":5.349706,"is_reserved":false,"is_disabled":false,"rental_uris":{"android":"levelo://app?vid=b269eb4e-30e0-4b6e-8390-a6e9c98ed217","ios":"levelo://app?vid=b269eb4e-30e0-4b6e-8390-a6e9c98ed217"},"vehicle_type_id":"4","last_reported":1716732384,"current_range_meters":16400,"station_id":"ce4bhbh2rcd13ifvqepg","pricing_plan_id":"cebpf4jnsgd1na2vs0mg"},{"bike_id":"e57ff1e8-ea5f-4d48-a5c3-cb4644014357","system_id":"levelo_inurba_marseille","lat":43.284219,"lon":5.3497,"is_reserved":false,"is_disabled":false,"rental_uris":{"android":"levelo://app?vid=e57ff1e8-ea5f-4d48-a5c3-cb4644014357","ios":"levelo://app?vid=e57ff1e8-ea5f-4d48-a5c3-cb4644014357"},"vehicle_type_id":"4","last_reported":1716732384,"current_range_meters":27200,"station_id":"ce4bhbh2rcd13ifvqepg","pricing_plan_id":"cebpf4jnsgd1na2vs0mg"},{"bike_id":"7b9c2377-f376-4f82-9079-c7aa4f523288","system_id":"levelo_inurba_marseille","lat":43.284219,"lon":5.3497,"is_reserved":false,"is_disabled":false,"rental_uris":{"android":"levelo://app?vid=7b9c2377-f376-4f82-9079-c7aa4f523288","ios":"levelo://app?vid=7b9c2377-f376-4f82-9079-c7aa4f523288"},"vehicle_type_id":"4","last_reported":1716732384,"current_range_meters":27600,"station_id":"ce4bhbh2rcd13ifvqepg","pricing_plan_id":"cebpf4jnsgd1na2vs0mg"},{"bike_id":"aabb32e4-beef-410b-801a-ae1e6a802cde","system_id":"levelo_inurba_marseille","lat":43.284219,"lon":5.3497,"is_reserved":false,"is_disabled":false,"rental_uris":{"android":"levelo://app?vid=aabb32e4-beef-410b-801a-ae1e6a802cde","ios":"levelo://app?vid=aabb32e4-beef-410b-801a-ae1e6a802cde"},"vehicle_type_id":"4","last_reported":1716732384,"current_range_meters":22800,"station_id":"ce4bhbh2rcd13ifvqepg","pricing_plan_id":"cebpf4jnsgd1na2vs0mg"},{"bike_id":"dca364f8-6b5b-4a18-86d0-c180131df755","system_id":"levelo_inurba_marseille","lat":43.28421,"lon":5.34983,"is_reserved":false,"is_disabled":false,"rental_uris":{"android":"levelo://app?vid=dca364f8-6b5b-4a18-86d0-c180131df755","ios":"levelo://app?vid=dca364f8-6b5b-4a18-86d0-c180131df755"},"vehicle_type_id":"4","last_reported":1716732384,"current_range_meters":10800,"station_id":"ce4bhbh2rcd13ifvqepg","pricing_plan_id":"cebpf4jnsgd1na2vs0mg"},{"bike_id":"2b8c3848-6959-4bcb-9d50-05ee88f19c8a","system_id":"levelo_inurba_marseille","lat":43.284214,"lon":5.349706,"is_reserved":false,"is_disabled":false,"rental_uris":{"android":"levelo://app?vid=2b8c3848-6959-4bcb-9d50-05ee88f19c8a","ios":"levelo://app?vid=2b8c3848-6959-4bcb-9d50-05ee88f19c8a"},"vehicle_type_id":"4","last_reported":1716732384,"current_range_meters":28400,"station_id":"ce4bhbh2rcd13ifvqepg","pricing_plan_id":"cebpf4jnsgd1na2vs0mg"},{"bike_id":"30c4ec97-8e3d-4b08-aa2b-a78721cdd752","system_id":"levelo_inurba_marseille","lat":43.284194,"lon":5.349856,"is_reserved":false,"is_disabled":false,"rental_uris":{"android":"levelo://app?vid=30c4ec97-8e3d-4b08-aa2b-a78721cdd752","ios":"levelo://app?vid=30c4ec97-8e3d-4b08-aa2b-a78721cdd752"},"vehicle_type_id":"4","last_reported":1716732384,"current_range_meters":5200,"station_id":"ce4bhbh2rcd13ifvqepg","pricing_plan_id":"cebpf4jnsgd1na2vs0mg"},{"bike_id":"60420a63-0810-4ff5-b8b7-f17762f75fa8","system_id":"levelo_inurba_marseille","lat":43.28418,"lon":5.3499,"is_reserved":false,"is_disabled":false,"rental_uris":{"android":"levelo://app?vid=60420a63-0810-4ff5-b8b7-f17762f75fa8","ios":"levelo://app?vid=60420a63-0810-4ff5-b8b7-f17762f75fa8"},"vehicle_type_id":"4","last_reported":1716732384,"current_range_meters":16800,"station_id":"ce4bhbh2rcd13ifvqepg","pricing_plan_id":"cebpf4jnsgd1na2vs0mg"},{"bike_id":"8120279e-4661-4929-b849-0be72037f6db","system_id":"levelo_inurba_marseille","lat":43.284219,"lon":5.3497,"is_reserved":false,"is_disabled":false,"rental_uris":{"android":"levelo://app?vid=8120279e-4661-4929-b849-0be72037f6db","ios":"levelo://app?vid=8120279e-4661-4929-b849-0be72037f6db"},"vehicle_type_id":"4","last_reported":1716732384,"current_range_meters":21200,"station_id":"ce4bhbh2rcd13ifvqepg","pricing_plan_id":"cebpf4jnsgd1na2vs0mg"},{"bike_id":"9a22781a-1892-4768-8caf-e6382667a7de","system_id":"levelo_inurba_marseille","lat":43.284219,"lon":5.3497,"is_reserved":false,"is_disabled":false,"rental_uris":{"android":"levelo://app?vid=9a22781a-1892-4768-8caf-e6382667a7de","ios":"levelo://app?vid=9a22781a-1892-4768-8caf-e6382667a7de"},"vehicle_type_id":"4","last_reported":1716732384,"current_range_meters":15600,"station_id":"ce4bhbh2rcd13ifvqepg","pricing_plan_id":"cebpf4jnsgd1na2vs0mg"},{"bike_id":"04c2fcc4-8195-4a83-889b-1606c449b753","system_id":"levelo_inurba_marseille","lat":43.284219,"lon":5.3497,"is_reserved":false,"is_disabled":false,"rental_uris":{"android":"levelo://app?vid=04c2fcc4-8195-4a83-889b-1606c449b753","ios":"levelo://app?vid=04c2fcc4-8195-4a83-889b-1606c449b753"},"vehicle_type_id":"4","last_reported":1716732384,"current_range_meters":11200,"station_id":"ce4bhbh2rcd13ifvqepg","pricing_plan_id":"cebpf4jnsgd1na2vs0mg"},{"bike_id":"693bcb21-ba41-452e-9e46-25aae1cbc4ad","system_id":"levelo_inurba_marseille","lat":43.284214,"lon":5.349706,"is_reserved":false,"is_disabled":false,"rental_uris":{"android":"levelo://app?vid=693bcb21-ba41-452e-9e46-25aae1cbc4ad","ios":"levelo://app?vid=693bcb21-ba41-452e-9e46-25aae1cbc4ad"},"vehicle_type_id":"4","last_reported":1716732384,"current_range_meters":28000,"station_id":"ce4bhbh2rcd13ifvqepg","pricing_plan_id":"cebpf4jnsgd1na2vs0mg"},{"bike_id":"11d028d9-c30b-4b33-a7e1-bf83864ffb60","system_id":"levelo_inurba_marseille","lat":43.28418,"lon":5.34986,"is_reserved":false,"is_disabled":false,"rental_uris":{"android":"levelo://app?vid=11d028d9-c30b-4b33-a7e1-bf83864ffb60","ios":"levelo://app?vid=11d028d9-c30b-4b33-a7e1-bf83864ffb60"},"vehicle_type_id":"4","last_reported":1716732384,"current_range_meters":4800,"station_id":"ce4bhbh2rcd13ifvqepg","pricing_plan_id":"cebpf4jnsgd1na2vs0mg"},{"bike_id":"13b84602-9c18-4593-a7ea-c82cf57268fd","system_id":"levelo_inurba_marseille","lat":43.284162,"lon":5.349905,"is_reserved":false,"is_disabled":false,"rental_uris":{"android":"levelo://app?vid=13b84602-9c18-4593-a7ea-c82cf57268fd","ios":"levelo://app?vid=13b84602-9c18-4593-a7ea-c82cf57268fd"},"vehicle_type_id":"4","last_reported":1716732384,"current_range_meters":31200,"station_id":"ce4bhbh2rcd13ifvqepg","pricing_plan_id":"cebpf4jnsgd1na2vs0mg"},{"bike_id":"76e6cc0f-a02c-417f-a7da-ab0ab8b9236c","system_id":"levelo_inurba_marseille","lat":43.284214,"lon":5.349706,"is_reserved":false,"is_disabled":false,"rental_uris":{"android":"levelo://app?vid=76e6cc0f-a02c-417f-a7da-ab0ab8b9236c","ios":"levelo://app?vid=76e6cc0f-a02c-417f-a7da-ab0ab8b9236c"},"vehicle_type_id":"4","last_reported":1716732384,"current_range_meters":21600,"station_id":"ce4bhbh2rcd13ifvqepg","pricing_plan_id":"cebpf4jnsgd1na2vs0mg"},{"bike_id":"c03c580c-bec8-47e6-8a2b-b72a4d85dadd","system_id":"levelo_inurba_marseille","lat":43.284157,"lon":5.349898,"is_reserved":false,"is_disabled":false,"rental_uris":{"android":"levelo://app?vid=c03c580c-bec8-47e6-8a2b-b72a4d85dadd","ios":"levelo://app?vid=c03c580c-bec8-47e6-8a2b-b72a4d85dadd"},"vehicle_type_id":"4","last_reported":1716732384,"current_range_meters":27600,"station_id":"ce4bhbh2rcd13ifvqepg","pricing_plan_id":"cebpf4jnsgd1na2vs0mg"},{"bike_id":"af810153-ce71-498f-b57e-7adf3d062734","system_id":"levelo_inurba_marseille","lat":43.28414,"lon":5.34995,"is_reserved":false,"is_disabled":false,"rental_uris":{"android":"levelo://app?vid=af810153-ce71-498f-b57e-7adf3d062734","ios":"levelo://app?vid=af810153-ce71-498f-b57e-7adf3d062734"},"vehicle_type_id":"4","last_reported":1716732384,"current_range_meters":30000,"station_id":"ce4bhbh2rcd13ifvqepg","pricing_plan_id":"cebpf4jnsgd1na2vs0mg"},{"bike_id":"62f06ef0-f780-472e-9fe1-3f432bc3969c","system_id":"levelo_inurba_marseille","lat":43.284219,"lon":5.3497,"is_reserved":false,"is_disabled":false,"rental_uris":{"android":"levelo://app?vid=62f06ef0-f780-472e-9fe1-3f432bc3969c","ios":"levelo://app?vid=62f06ef0-f780-472e-9fe1-3f432bc3969c"},"vehicle_type_id":"4","last_reported":1716732384,"current_range_meters":5600,"station_id":"ce4bhbh2rcd13ifvqepg","pricing_plan_id":"cebpf4jnsgd1na2vs0mg"},{"bike_id":"81e7a9c9-a1df-4735-abb4-9c944b560ebe","system_id":"levelo_inurba_marseille","lat":43.284219,"lon":5.3497,"is_reserved":false,"is_disabled":false,"rental_uris":{"android":"levelo://app?vid=81e7a9c9-a1df-4735-abb4-9c944b560ebe","ios":"levelo://app?vid=81e7a9c9-a1df-4735-abb4-9c944b560ebe"},"vehicle_type_id":"4","last_reported":1716732384,"current_range_meters":18000,"station_id":"ce4bhbh2rcd13ifvqepg","pricing_plan_id":"cebpf4jnsgd1na2vs0mg"},{"bike_id":"d9d72634-fc65-46a7-bd3b-74ede3ba3fb5","system_id":"levelo_inurba_marseille","lat":43.28415,"lon":5.349903,"is_reserved":false,"is_disabled":false,"rental_uris":{"android":"levelo://app?vid=d9d72634-fc65-46a7-bd3b-74ede3ba3fb5","ios":"levelo://app?vid=d9d72634-fc65-46a7-bd3b-74ede3ba3fb5"},"vehicle_type_id":"4","last_reported":1716732384,"current_range_meters":31200,"station_id":"ce4bhbh2rcd13ifvqepg","pricing_plan_id":"cebpf4jnsgd1na2vs0mg"},{"bike_id":"4a64ab84-79b3-4b9b-938c-a310ff2c995f","system_id":"levelo_inurba_marseille","lat":43.28414,"lon":5.34988,"is_reserved":false,"is_disabled":false,"rental_uris":{"android":"levelo://app?vid=4a64ab84-79b3-4b9b-938c-a310ff2c995f","ios":"levelo://app?vid=4a64ab84-79b3-4b9b-938c-a310ff2c995f"},"vehicle_type_id":"4","last_reported":1716732384,"current_range_meters":13200,"station_id":"ce4bhbh2rcd13ifvqepg","pricing_plan_id":"cebpf4jnsgd1na2vs0mg"},{"bike_id":"3e3dcfb8-cc2e-4824-9218-1a31770cce59","system_id":"levelo_inurba_marseille","lat":43.284129,"lon":5.349909,"is_reserved":false,"is_disabled":false,"rental_uris":{"android":"levelo://app?vid=3e3dcfb8-cc2e-4824-9218-1a31770cce59","ios":"levelo://app?vid=3e3dcfb8-cc2e-4824-9218-1a31770cce59"},"vehicle_type_id":"4","last_reported":1716732384,"current_range_meters":21600,"station_id":"ce4bhbh2rcd13ifvqepg","pricing_plan_id":"cebpf4jnsgd1na2vs0mg"},{"bike_id":"37f5146f-1cfc-451d-8752-420e8ad8d262","system_id":"levelo_inurba_marseille","lat":43.284137,"lon":5.349875,"is_reserved":false,"is_disabled":false,"rental_uris":{"android":"levelo://app?vid=37f5146f-1cfc-451d-8752-420e8ad8d262","ios":"levelo://app?vid=37f5146f-1cfc-451d-8752-420e8ad8d262"},"vehicle_type_id":"4","last_reported":1716732384,"current_range_meters":11200,"station_id":"ce4bhbh2rcd13ifvqepg","pricing_plan_id":"cebpf4jnsgd1na2vs0mg"},{"bike_id":"67bfca46-163f-4832-b560-b667bda44ee5","system_id":"levelo_inurba_marseille","lat":43.284219,"lon":5.3497,"is_reserved":false,"is_disabled":false,"rental_uris":{"android":"levelo://app?vid=67bfca46-163f-4832-b560-b667bda44ee5","ios":"levelo://app?vid=67bfca46-163f-4832-b560-b667bda44ee5"},"vehicle_type_id":"4","last_reported":1716732384,"current_range_meters":19200,"station_id":"ce4bhbh2rcd13ifvqepg","pricing_plan_id":"cebpf4jnsgd1na2vs0mg"},{"bike_id":"eab23e1e-b09e-43dd-9dac-bc87712ce3d4","system_id":"levelo_inurba_marseille","lat":43.28417,"lon":5.34977,"is_reserved":false,"is_disabled":false,"rental_uris":{"android":"levelo://app?vid=eab23e1e-b09e-43dd-9dac-bc87712ce3d4","ios":"levelo://app?vid=eab23e1e-b09e-43dd-9dac-bc87712ce3d4"},"vehicle_type_id":"4","last_reported":1716732384,"current_range_meters":18000,"station_id":"ce4bhbh2rcd13ifvqepg","pricing_plan_id":"cebpf4jnsgd1na2vs0mg"},{"bike_id":"66aece53-46c7-4341-bbf0-d9f2ea3f6289","system_id":"levelo_inurba_marseille","lat":43.28416,"lon":5.3498,"is_reserved":false,"is_disabled":false,"rental_uris":{"android":"levelo://app?vid=66aece53-46c7-4341-bbf0-d9f2ea3f6289","ios":"levelo://app?vid=66aece53-46c7-4341-bbf0-d9f2ea3f6289"},"vehicle_type_id":"4","last_reported":1716732384,"current_range_meters":13200,"station_id":"ce4bhbh2rcd13ifvqepg","pricing_plan_id":"cebpf4jnsgd1na2vs0mg"},{"bike_id":"3e5da4be-37d4-4e39-8098-16d4c8945424","system_id":"levelo_inurba_marseille","lat":43.28415,"lon":5.34977,"is_reserved":false,"is_disabled":false,"rental_uris":{"android":"levelo://app?vid=3e5da4be-37d4-4e39-8098-16d4c8945424","ios":"levelo://app?vid=3e5da4be-37d4-4e39-8098-16d4c8945424"},"vehicle_type_id":"4","last_reported":1716732384,"current_range_meters":17600,"station_id":"ce4bhbh2rcd13ifvqepg","pricing_plan_id":"cebpf4jnsgd1na2vs0mg"},{"bike_id":"b405a564-a8b7-41b7-bfd2-7b1dfdfc2cc0","system_id":"levelo_inurba_marseille","lat":43.284077,"lon":5.349957,"is_reserved":false,"is_disabled":false,"rental_uris":{"android":"levelo://app?vid=b405a564-a8b7-41b7-bfd2-7b1dfdfc2cc0","ios":"levelo://app?vid=b405a564-a8b7-41b7-bfd2-7b1dfdfc2cc0"},"vehicle_type_id":"4","last_reported":1716732384,"current_range_meters":19200,"station_id":"ce4bhbh2rcd13ifvqepg","pricing_plan_id":"cebpf4jnsgd1na2vs0mg"},{"bike_id":"83a6b424-36d0-46f4-b7ec-f3d866964af2","system_id":"levelo_inurba_marseille","lat":43.28411,"lon":5.34984,"is_reserved":false,"is_disabled":false,"rental_uris":{"android":"levelo://app?vid=83a6b424-36d0-46f4-b7ec-f3d866964af2","ios":"levelo://app?vid=83a6b424-36d0-46f4-b7ec-f3d866964af2"},"vehicle_type_id":"4","last_reported":1716732384,"current_range_meters":13600,"station_id":"ce4bhbh2rcd13ifvqepg","pricing_plan_id":"cebpf4jnsgd1na2vs0mg"},{"bike_id":"5864ffae-6678-4fba-9787-3f3d2f6fbf35","system_id":"levelo_inurba_marseille","lat":43.28413,"lon":5.34975,"is_reserved":false,"is_disabled":false,"rental_uris":{"android":"levelo://app?vid=5864ffae-6678-4fba-9787-3f3d2f6fbf35","ios":"levelo://app?vid=5864ffae-6678-4fba-9787-3f3d2f6fbf35"},"vehicle_type_id":"4","last_reported":1716732384,"current_range_meters":9600,"station_id":"ce4bhbh2rcd13ifvqepg","pricing_plan_id":"cebpf4jnsgd1na2vs0mg"},{"bike_id":"c56b0ab8-7748-4aae-bd4e-bae21b1b15ca","system_id":"levelo_inurba_marseille","lat":43.284217,"lon":5.349697,"is_reserved":false,"is_disabled":false,"rental_uris":{"android":"levelo://app?vid=c56b0ab8-7748-4aae-bd4e-bae21b1b15ca","ios":"levelo://app?vid=c56b0ab8-7748-4aae-bd4e-bae21b1b15ca"},"vehicle_type_id":"4","last_reported":1716732384,"current_range_meters":30400,"station_id":"ce4bhbh2rcd13ifvqepg","pricing_plan_id":"cebpf4jnsgd1na2vs0mg"},{"bike_id":"0e00133e-78ff-4320-a35c-c7068d43c6d1","system_id":"levelo_inurba_marseille","lat":43.28408,"lon":5.34989,"is_reserved":false,"is_disabled":false,"rental_uris":{"android":"levelo://app?vid=0e00133e-78ff-4320-a35c-c7068d43c6d1","ios":"levelo://app?vid=0e00133e-78ff-4320-a35c-c7068d43c6d1"},"vehicle_type_id":"4","last_reported":1716732384,"current_range_meters":10000,"station_id":"ce4bhbh2rcd13ifvqepg","pricing_plan_id":"cebpf4jnsgd1na2vs0mg"},{"bike_id":"43412fe3-9d09-4c99-a455-f2e079d10fa5","system_id":"levelo_inurba_marseille","lat":43.28405,"lon":5.34988,"is_reserved":false,"is_disabled":false,"rental_uris":{"android":"levelo://app?vid=43412fe3-9d09-4c99-a455-f2e079d10fa5","ios":"levelo://app?vid=43412fe3-9d09-4c99-a455-f2e079d10fa5"},"vehicle_type_id":"4","last_reported":1716732384,"current_range_meters":24800,"station_id":"ce4bhbh2rcd13ifvqepg","pricing_plan_id":"cebpf4jnsgd1na2vs0mg"},{"bike_id":"00ab7552-060f-47a8-94af-2706ee1bfb86","system_id":"levelo_inurba_marseille","lat":43.28404,"lon":5.34981,"is_reserved":false,"is_disabled":false,"rental_uris":{"android":"levelo://app?vid=00ab7552-060f-47a8-94af-2706ee1bfb86","ios":"levelo://app?vid=00ab7552-060f-47a8-94af-2706ee1bfb86"},"vehicle_type_id":"4","last_reported":1716732384,"current_range_meters":5600,"station_id":"ce4bhbh2rcd13ifvqepg","pricing_plan_id":"cebpf4jnsgd1na2vs0mg"},{"bike_id":"d3454b54-ffd7-49c6-8dde-3e2383356a7e","system_id":"levelo_inurba_marseille","lat":43.282744,"lon":5.350533,"is_reserved":false,"is_disabled":false,"rental_uris":{"android":"levelo://app?vid=d3454b54-ffd7-49c6-8dde-3e2383356a7e","ios":"levelo://app?vid=d3454b54-ffd7-49c6-8dde-3e2383356a7e"},"vehicle_type_id":"4","last_reported":1716732384,"current_range_meters":28000,"station_id":"ce4bhbp2rcd13ifvqerg","pricing_plan_id":"cebpf4jnsgd1na2vs0mg"},{"bike_id":"bce41de6-a1ed-4ae4-82c6-b79265312a88","system_id":"levelo_inurba_marseille","lat":43.28274,"lon":5.35062,"is_reserved":false,"is_disabled":false,"rental_uris":{"android":"levelo://app?vid=bce41de6-a1ed-4ae4-82c6-b79265312a88","ios":"levelo://app?vid=bce41de6-a1ed-4ae4-82c6-b79265312a88"},"vehicle_type_id":"4","last_reported":1716732384,"current_range_meters":2400,"station_id":"ce4bhbp2rcd13ifvqerg","pricing_plan_id":"cebpf4jnsgd1na2vs0mg"},{"bike_id":"2e72d685-393f-4d60-89c7-f77ade3254d1","system_id":"levelo_inurba_marseille","lat":43.282754,"lon":5.350519,"is_reserved":false,"is_disabled":false,"rental_uris":{"android":"levelo://app?vid=2e72d685-393f-4d60-89c7-f77ade3254d1","ios":"levelo://app?vid=2e72d685-393f-4d60-89c7-f77ade3254d1"},"vehicle_type_id":"4","last_reported":1716732384,"current_range_meters":11600,"station_id":"ce4bhbp2rcd13ifvqerg","pricing_plan_id":"cebpf4jnsgd1na2vs0mg"},{"bike_id":"9c325014-8536-451f-a11e-041db02ef0a5","system_id":"levelo_inurba_marseille","lat":43.28271,"lon":5.35063,"is_reserved":false,"is_disabled":false,"rental_uris":{"android":"levelo://app?vid=9c325014-8536-451f-a11e-041db02ef0a5","ios":"levelo://app?vid=9c325014-8536-451f-a11e-041db02ef0a5"},"vehicle_type_id":"4","last_reported":1716732384,"current_range_meters":13200,"station_id":"ce4bhbp2rcd13ifvqerg","pricing_plan_id":"cebpf4jnsgd1na2vs0mg"},{"bike_id":"3d2f892c-f8c3-4d09-a754-8c6f46a5972d","system_id":"levelo_inurba_marseille","lat":43.2827,"lon":5.35065,"is_reserved":false,"is_disabled":false,"rental_uris":{"android":"levelo://app?vid=3d2f892c-f8c3-4d09-a754-8c6f46a5972d","ios":"levelo://app?vid=3d2f892c-f8c3-4d09-a754-8c6f46a5972d"},"vehicle_type_id":"4","last_reported":1716732384,"current_range_meters":400,"station_id":"ce4bhbp2rcd13ifvqerg","pricing_plan_id":"cebpf4jnsgd1na2vs0mg"},{"bike_id":"f7ae89ac-5535-4bf7-beeb-42cf92d1636c","system_id":"levelo_inurba_marseille","lat":43.282754,"lon":5.350519,"is_reserved":false,"is_disabled":false,"rental_uris":{"android":"levelo://app?vid=f7ae89ac-5535-4bf7-beeb-42cf92d1636c","ios":"levelo://app?vid=f7ae89ac-5535-4bf7-beeb-42cf92d1636c"},"vehicle_type_id":"4","last_reported":1716732384,"current_range_meters":10800,"station_id":"ce4bhbp2rcd13ifvqerg","pricing_plan_id":"cebpf4jnsgd1na2vs0mg"},{"bike_id":"d8bae6f6-7c0b-4ccb-b212-4d575386b3c6","system_id":"levelo_inurba_marseille","lat":43.282744,"lon":5.350533,"is_reserved":false,"is_disabled":false,"rental_uris":{"android":"levelo://app?vid=d8bae6f6-7c0b-4ccb-b212-4d575386b3c6","ios":"levelo://app?vid=d8bae6f6-7c0b-4ccb-b212-4d575386b3c6"},"vehicle_type_id":"4","last_reported":1716732384,"current_range_meters":21600,"station_id":"ce4bhbp2rcd13ifvqerg","pricing_plan_id":"cebpf4jnsgd1na2vs0mg"},{"bike_id":"79da0b8d-5a09-41ba-9f6c-ee88774ebdb3","system_id":"levelo_inurba_marseille","lat":43.28269,"lon":5.35058,"is_reserved":false,"is_disabled":false,"rental_uris":{"android":"levelo://app?vid=79da0b8d-5a09-41ba-9f6c-ee88774ebdb3","ios":"levelo://app?vid=79da0b8d-5a09-41ba-9f6c-ee88774ebdb3"},"vehicle_type_id":"4","last_reported":1716732384,"current_range_meters":0,"station_id":"ce4bhbp2rcd13ifvqerg","pricing_plan_id":"cebpf4jnsgd1na2vs0mg"},{"bike_id":"50b1e613-4e76-46e5-af0d-3ce7a5bd6411","system_id":"levelo_inurba_marseille","lat":43.282744,"lon":5.350533,"is_reserved":false,"is_disabled":false,"rental_uris":{"android":"levelo://app?vid=50b1e613-4e76-46e5-af0d-3ce7a5bd6411","ios":"levelo://app?vid=50b1e613-4e76-46e5-af0d-3ce7a5bd6411"},"vehicle_type_id":"4","last_reported":1716732384,"current_range_meters":1200,"station_id":"ce4bhbp2rcd13ifvqerg","pricing_plan_id":"cebpf4jnsgd1na2vs0mg"},{"bike_id":"6cf5593a-e25a-4a9c-bfcc-0bd1627cd8d2","system_id":"levelo_inurba_marseille","lat":43.28266,"lon":5.3506,"is_reserved":false,"is_disabled":false,"rental_uris":{"android":"levelo://app?vid=6cf5593a-e25a-4a9c-bfcc-0bd1627cd8d2","ios":"levelo://app?vid=6cf5593a-e25a-4a9c-bfcc-0bd1627cd8d2"},"vehicle_type_id":"4","last_reported":1716732384,"current_range_meters":400,"station_id":"ce4bhbp2rcd13ifvqerg","pricing_plan_id":"cebpf4jnsgd1na2vs0mg"},{"bike_id":"779d4401-a3d4-479e-8d02-206f5f8c57c5","system_id":"levelo_inurba_marseille","lat":43.28039,"lon":5.369297,"is_reserved":false,"is_disabled":false,"rental_uris":{"android":"levelo://app?vid=779d4401-a3d4-479e-8d02-206f5f8c57c5","ios":"levelo://app?vid=779d4401-a3d4-479e-8d02-206f5f8c57c5"},"vehicle_type_id":"4","last_reported":1716732384,"current_range_meters":8000,"station_id":"ce4bha12rcd13ifvqef0","pricing_plan_id":"cebpf4jnsgd1na2vs0mg"},{"bike_id":"c4e2ac76-9a87-47d8-8ef8-32366d29469e","system_id":"levelo_inurba_marseille","lat":43.28039,"lon":5.369297,"is_reserved":false,"is_disabled":false,"rental_uris":{"android":"levelo://app?vid=c4e2ac76-9a87-47d8-8ef8-32366d29469e","ios":"levelo://app?vid=c4e2ac76-9a87-47d8-8ef8-32366d29469e"},"vehicle_type_id":"4","last_reported":1716732384,"current_range_meters":14000,"station_id":"ce4bha12rcd13ifvqef0","pricing_plan_id":"cebpf4jnsgd1na2vs0mg"},