{"last_updated":1778957340,"ttl":60,"version":"2.2","data":{"bikes":[{"bike_id":"83c6512c-86f4-4573-aeb5-dd13dd897141","system_id":"levelo_inurba_marseille","lat":43.23191,"lon":5.39988,"is_reserved":false,"is_disabled":false,"rental_uris":{"android":"levelo://app?vid=83c6512c-86f4-4573-aeb5-dd13dd897141","ios":"levelo://app?vid=83c6512c-86f4-4573-aeb5-dd13dd897141"},"vehicle_type_id":"4","last_reported":1778957341,"current_range_meters":2800,"station_id":"ce4bhn12rcd13ifvqgqg","pricing_plan_id":"cebpf4jnsgd1na2vs0mg"},{"bike_id":"ad750824-ed83-43fb-a161-584da9ecf8df","system_id":"levelo_inurba_marseille","lat":43.29602,"lon":5.3673,"is_reserved":false,"is_disabled":false,"rental_uris":{"android":"levelo://app?vid=ad750824-ed83-43fb-a161-584da9ecf8df","ios":"levelo://app?vid=ad750824-ed83-43fb-a161-584da9ecf8df"},"vehicle_type_id":"4","last_reported":1778957341,"current_range_meters":2800,"station_id":"ce4bgph2rcd13ifvqc2g","pricing_plan_id":"cebpf4jnsgd1na2vs0mg"},{"bike_id":"197f8590-4140-4e11-8b87-67ad98bb4bca","system_id":"levelo_inurba_marseille","lat":43.28612,"lon":5.37068,"is_reserved":false,"is_disabled":true,"rental_uris":{"android":"levelo://app?vid=197f8590-4140-4e11-8b87-67ad98bb4bca","ios":"levelo://app?vid=197f8590-4140-4e11-8b87-67ad98bb4bca"},"vehicle_type_id":"4","last_reported":1778957341,"current_range_meters":2800,"station_id":"ce4bht12rcd13ifvqi60","pricing_plan_id":"cebpf4jnsgd1na2vs0mg"},{"bike_id":"863d2a1d-6ae1-4856-8b89-54987fbf1ef0","system_id":"levelo_inurba_marseille","lat":43.300849,"lon":5.390633,"is_reserved":false,"is_disabled":false,"rental_uris":{"android":"levelo://app?vid=863d2a1d-6ae1-4856-8b89-54987fbf1ef0","ios":"levelo://app?vid=863d2a1d-6ae1-4856-8b89-54987fbf1ef0"},"vehicle_type_id":"4","last_reported":1778957341,"current_range_meters":2800,"station_id":"ce4bh192rcd13ifvqdb0","pricing_plan_id":"cebpf4jnsgd1na2vs0mg"},{"bike_id":"417bd26b-1701-485b-b896-bb7adc98bac9","system_id":"levelo_inurba_marseille","lat":43.23962,"lon":5.36627,"is_reserved":false,"is_disabled":true,"rental_uris":{"android":"levelo://app?vid=417bd26b-1701-485b-b896-bb7adc98bac9","ios":"levelo://app?vid=417bd26b-1701-485b-b896-bb7adc98bac9"},"vehicle_type_id":"4","last_reported":1778957341,"current_range_meters":2800,"station_id":"ce4bhi12rcd13ifvqfp0","pricing_plan_id":"cebpf4jnsgd1na2vs0mg"},{"bike_id":"9852dac5-be21-4980-af78-9f3baf6ad910","system_id":"levelo_inurba_marseille","lat":43.225315,"lon":5.348287,"is_reserved":false,"is_disabled":false,"rental_uris":{"android":"levelo://app?vid=9852dac5-be21-4980-af78-9f3baf6ad910","ios":"levelo://app?vid=9852dac5-be21-4980-af78-9f3baf6ad910"},"vehicle_type_id":"4","last_reported":1778957341,"current_range_meters":2800,"station_id":"st_cvj5dfep6f1abm77gieg","pricing_plan_id":"cebpf4jnsgd1na2vs0mg"},{"bike_id":"594cb93a-5d1d-4e33-94d4-76143e0bd10b","system_id":"levelo_inurba_marseille","lat":43.211914,"lon":5.350759,"is_reserved":false,"is_disabled":false,"rental_uris":{"android":"levelo://app?vid=594cb93a-5d1d-4e33-94d4-76143e0bd10b","ios":"levelo://app?vid=594cb93a-5d1d-4e33-94d4-76143e0bd10b"},"vehicle_type_id":"4","last_reported":1778957341,"current_range_meters":2800,"station_id":"st_cvj6sg6p6f1abm77japg","pricing_plan_id":"cebpf4jnsgd1na2vs0mg"},{"bike_id":"c15b7d9d-4d2e-4558-9fe7-1ee3f2efc7ae","system_id":"levelo_inurba_marseille","lat":43.29493,"lon":5.43304,"is_reserved":false,"is_disabled":false,"rental_uris":{"android":"levelo://app?vid=c15b7d9d-4d2e-4558-9fe7-1ee3f2efc7ae","ios":"levelo://app?vid=c15b7d9d-4d2e-4558-9fe7-1ee3f2efc7ae"},"vehicle_type_id":"4","last_reported":1778957341,"current_range_meters":2800,"station_id":"st_d3j5ugp08ojc73fj9d10","pricing_plan_id":"cebpf4jnsgd1na2vs0mg"},{"bike_id":"5249d832-2405-48ad-9463-8e57d5d711d2","system_id":"levelo_inurba_marseille","lat":43.31903,"lon":5.36793,"is_reserved":false,"is_disabled":false,"rental_uris":{"android":"levelo://app?vid=5249d832-2405-48ad-9463-8e57d5d711d2","ios":"levelo://app?vid=5249d832-2405-48ad-9463-8e57d5d711d2"},"vehicle_type_id":"4","last_reported":1778957341,"current_range_meters":2800,"station_id":"st_d6o2h0d0559c73evc1b0","pricing_plan_id":"cebpf4jnsgd1na2vs0mg"},{"bike_id":"8ef382b9-b95d-49be-a7f1-d40723b7b4b3","system_id":"levelo_inurba_marseille","lat":43.286621,"lon":5.363516,"is_reserved":false,"is_disabled":false,"rental_uris":{"android":"levelo://app?vid=8ef382b9-b95d-49be-a7f1-d40723b7b4b3","ios":"levelo://app?vid=8ef382b9-b95d-49be-a7f1-d40723b7b4b3"},"vehicle_type_id":"4","last_reported":1778957341,"current_range_meters":2800,"station_id":"ce4bhah2rcd13ifvqej0","pricing_plan_id":"cebpf4jnsgd1na2vs0mg"},{"bike_id":"6a2e6a54-2283-40b2-a4b4-ea1b84dcd8af","system_id":"levelo_inurba_marseille","lat":43.29521,"lon":5.39042,"is_reserved":false,"is_disabled":false,"rental_uris":{"android":"levelo://app?vid=6a2e6a54-2283-40b2-a4b4-ea1b84dcd8af","ios":"levelo://app?vid=6a2e6a54-2283-40b2-a4b4-ea1b84dcd8af"},"vehicle_type_id":"4","last_reported":1778957341,"current_range_meters":2800,"station_id":"ce4bh3p2rcd13ifvqdp0","pricing_plan_id":"cebpf4jnsgd1na2vs0mg"},{"bike_id":"f29af64b-2db6-4cc1-840f-6c15a0bff93c","system_id":"levelo_inurba_marseille","lat":43.27947,"lon":5.41046,"is_reserved":false,"is_disabled":false,"rental_uris":{"android":"levelo://app?vid=f29af64b-2db6-4cc1-840f-6c15a0bff93c","ios":"levelo://app?vid=f29af64b-2db6-4cc1-840f-6c15a0bff93c"},"vehicle_type_id":"4","last_reported":1778957341,"current_range_meters":3200,"station_id":"ce4bhnp2rcd13ifvqh0g","pricing_plan_id":"cebpf4jnsgd1na2vs0mg"},{"bike_id":"69a4de94-ae1f-4385-aa61-58a2336f8cb8","system_id":"levelo_inurba_marseille","lat":43.29993,"lon":5.43062,"is_reserved":false,"is_disabled":false,"rental_uris":{"android":"levelo://app?vid=69a4de94-ae1f-4385-aa61-58a2336f8cb8","ios":"levelo://app?vid=69a4de94-ae1f-4385-aa61-58a2336f8cb8"},"vehicle_type_id":"4","last_reported":1778957341,"current_range_meters":3200,"station_id":"","pricing_plan_id":"cebpf4jnsgd1na2vs0mg"},{"bike_id":"4c1456b4-c5f4-49ed-bd33-6f63525d7c4f","system_id":"levelo_inurba_marseille","lat":43.27962,"lon":5.38704,"is_reserved":false,"is_disabled":true,"rental_uris":{"android":"levelo://app?vid=4c1456b4-c5f4-49ed-bd33-6f63525d7c4f","ios":"levelo://app?vid=4c1456b4-c5f4-49ed-bd33-6f63525d7c4f"},"vehicle_type_id":"4","last_reported":1778957341,"current_range_meters":3200,"station_id":"ce4bhg12rcd13ifvqf80","pricing_plan_id":"cebpf4jnsgd1na2vs0mg"},{"bike_id":"c500eb69-3792-4fb7-bdf6-d7a4bb5b071e","system_id":"levelo_inurba_marseille","lat":43.26781,"lon":5.3941,"is_reserved":false,"is_disabled":false,"rental_uris":{"android":"levelo://app?vid=c500eb69-3792-4fb7-bdf6-d7a4bb5b071e","ios":"levelo://app?vid=c500eb69-3792-4fb7-bdf6-d7a4bb5b071e"},"vehicle_type_id":"4","last_reported":1778957341,"current_range_meters":3200,"station_id":"ce4bhh12rcd13ifvqfg0","pricing_plan_id":"cebpf4jnsgd1na2vs0mg"},{"bike_id":"7b64bf60-0aa5-4402-b524-02a2dc55ea99","system_id":"levelo_inurba_marseille","lat":43.25578,"lon":5.38242,"is_reserved":false,"is_disabled":true,"rental_uris":{"android":"levelo://app?vid=7b64bf60-0aa5-4402-b524-02a2dc55ea99","ios":"levelo://app?vid=7b64bf60-0aa5-4402-b524-02a2dc55ea99"},"vehicle_type_id":"4","last_reported":1778957341,"current_range_meters":3200,"station_id":"ce4bhih2rcd13ifvqfs0","pricing_plan_id":"cebpf4jnsgd1na2vs0mg"},{"bike_id":"4a2c3714-352c-4346-85dd-db30f79950fd","system_id":"levelo_inurba_marseille","lat":43.24864,"lon":5.37479,"is_reserved":false,"is_disabled":false,"rental_uris":{"android":"levelo://app?vid=4a2c3714-352c-4346-85dd-db30f79950fd","ios":"levelo://app?vid=4a2c3714-352c-4346-85dd-db30f79950fd"},"vehicle_type_id":"4","last_reported":1778957341,"current_range_meters":3200,"station_id":"","pricing_plan_id":"cebpf4jnsgd1na2vs0mg"},{"bike_id":"e5548365-1a4d-4417-a375-d0d3c226770b","system_id":"levelo_inurba_marseille","lat":43.29475,"lon":5.38575,"is_reserved":false,"is_disabled":false,"rental_uris":{"android":"levelo://app?vid=e5548365-1a4d-4417-a375-d0d3c226770b","ios":"levelo://app?vid=e5548365-1a4d-4417-a375-d0d3c226770b"},"vehicle_type_id":"4","last_reported":1778957341,"current_range_meters":3600,"station_id":"","pricing_plan_id":"cebpf4jnsgd1na2vs0mg"},{"bike_id":"305f8012-853c-4e5c-b4a3-badea1215a44","system_id":"levelo_inurba_marseille","lat":43.33754,"lon":5.37506,"is_reserved":false,"is_disabled":false,"rental_uris":{"android":"levelo://app?vid=305f8012-853c-4e5c-b4a3-badea1215a44","ios":"levelo://app?vid=305f8012-853c-4e5c-b4a3-badea1215a44"},"vehicle_type_id":"4","last_reported":1778957341,"current_range_meters":3600,"station_id":"","pricing_plan_id":"cebpf4jnsgd1na2vs0mg"},{"bike_id":"9683986e-4314-40de-86a1-59846036f2cb","system_id":"levelo_inurba_marseille","lat":43.29037,"lon":5.37551,"is_reserved":false,"is_disabled":false,"rental_uris":{"android":"levelo://app?vid=9683986e-4314-40de-86a1-59846036f2cb","ios":"levelo://app?vid=9683986e-4314-40de-86a1-59846036f2cb"},"vehicle_type_id":"4","last_reported":1778957341,"current_range_meters":3600,"station_id":"ce4bh692rcd13ifvqe90","pricing_plan_id":"cebpf4jnsgd1na2vs0mg"},{"bike_id":"1dd062c7-ad8c-427e-993b-b4f16bf5ceff","system_id":"levelo_inurba_marseille","lat":43.295284,"lon":5.38545,"is_reserved":false,"is_disabled":false,"rental_uris":{"android":"levelo://app?vid=1dd062c7-ad8c-427e-993b-b4f16bf5ceff","ios":"levelo://app?vid=1dd062c7-ad8c-427e-993b-b4f16bf5ceff"},"vehicle_type_id":"4","last_reported":1778957341,"current_range_meters":3600,"station_id":"ce4bgih2rcd13ifvqba0","pricing_plan_id":"cebpf4jnsgd1na2vs0mg"},{"bike_id":"42d3e92a-ccaf-4b11-a2a0-ed37118f5959","system_id":"levelo_inurba_marseille","lat":43.27964,"lon":5.41041,"is_reserved":false,"is_disabled":false,"rental_uris":{"android":"levelo://app?vid=42d3e92a-ccaf-4b11-a2a0-ed37118f5959","ios":"levelo://app?vid=42d3e92a-ccaf-4b11-a2a0-ed37118f5959"},"vehicle_type_id":"4","last_reported":1778957341,"current_range_meters":3600,"station_id":"ce4bhnp2rcd13ifvqh0g","pricing_plan_id":"cebpf4jnsgd1na2vs0mg"},{"bike_id":"af291f23-0964-4b6f-b635-d8b7e4293ab0","system_id":"levelo_inurba_marseille","lat":43.27249,"lon":5.39102,"is_reserved":false,"is_disabled":false,"rental_uris":{"android":"levelo://app?vid=af291f23-0964-4b6f-b635-d8b7e4293ab0","ios":"levelo://app?vid=af291f23-0964-4b6f-b635-d8b7e4293ab0"},"vehicle_type_id":"4","last_reported":1778957341,"current_range_meters":3600,"station_id":"","pricing_plan_id":"cebpf4jnsgd1na2vs0mg"},{"bike_id":"52fb7434-896e-4c97-817e-ac9657918ab4","system_id":"levelo_inurba_marseille","lat":43.33543,"lon":5.37492,"is_reserved":false,"is_disabled":false,"rental_uris":{"android":"levelo://app?vid=52fb7434-896e-4c97-817e-ac9657918ab4","ios":"levelo://app?vid=52fb7434-896e-4c97-817e-ac9657918ab4"},"vehicle_type_id":"4","last_reported":1778957341,"current_range_meters":3600,"station_id":"st_d46tts09ee8s73dlu43g","pricing_plan_id":"cebpf4jnsgd1na2vs0mg"},{"bike_id":"b9238b47-d218-4666-86a0-bd08504a74d8","system_id":"levelo_inurba_marseille","lat":43.301417,"lon":5.387765,"is_reserved":false,"is_disabled":false,"rental_uris":{"android":"levelo://app?vid=b9238b47-d218-4666-86a0-bd08504a74d8","ios":"levelo://app?vid=b9238b47-d218-4666-86a0-bd08504a74d8"},"vehicle_type_id":"4","last_reported":1778957341,"current_range_meters":3600,"station_id":"ce4bghh2rcd13ifvqb60","pricing_plan_id":"cebpf4jnsgd1na2vs0mg"},{"bike_id":"53daa16a-cacc-44a2-9374-e25d7ab5f911","system_id":"levelo_inurba_marseille","lat":43.31043,"lon":5.37181,"is_reserved":false,"is_disabled":false,"rental_uris":{"android":"levelo://app?vid=53daa16a-cacc-44a2-9374-e25d7ab5f911","ios":"levelo://app?vid=53daa16a-cacc-44a2-9374-e25d7ab5f911"},"vehicle_type_id":"4","last_reported":1778957341,"current_range_meters":4000,"station_id":"st_d4kl2rp97mjs73e7tdfg","pricing_plan_id":"cebpf4jnsgd1na2vs0mg"},{"bike_id":"4fdf485c-8461-406f-8152-f602e1a5bbca","system_id":"levelo_inurba_marseille","lat":43.2849,"lon":5.38537,"is_reserved":false,"is_disabled":true,"rental_uris":{"android":"levelo://app?vid=4fdf485c-8461-406f-8152-f602e1a5bbca","ios":"levelo://app?vid=4fdf485c-8461-406f-8152-f602e1a5bbca"},"vehicle_type_id":"4","last_reported":1778957341,"current_range_meters":4000,"station_id":"ce4bh8p2rcd13ifvqeb0","pricing_plan_id":"cebpf4jnsgd1na2vs0mg"},{"bike_id":"47167c10-7cc9-4a94-85b3-abc53b285180","system_id":"levelo_inurba_marseille","lat":43.3078,"lon":5.3765,"is_reserved":false,"is_disabled":false,"rental_uris":{"android":"levelo://app?vid=47167c10-7cc9-4a94-85b3-abc53b285180","ios":"levelo://app?vid=47167c10-7cc9-4a94-85b3-abc53b285180"},"vehicle_type_id":"4","last_reported":1778957341,"current_range_meters":4000,"station_id":"ce4bgv92rcd13ifvqcq0","pricing_plan_id":"cebpf4jnsgd1na2vs0mg"},{"bike_id":"ff5af636-5e8f-4fe0-a7d9-70a25d86e069","system_id":"levelo_inurba_marseille","lat":43.21203,"lon":5.35056,"is_reserved":false,"is_disabled":false,"rental_uris":{"android":"levelo://app?vid=ff5af636-5e8f-4fe0-a7d9-70a25d86e069","ios":"levelo://app?vid=ff5af636-5e8f-4fe0-a7d9-70a25d86e069"},"vehicle_type_id":"4","last_reported":1778957341,"current_range_meters":4000,"station_id":"st_cvj6sg6p6f1abm77japg","pricing_plan_id":"cebpf4jnsgd1na2vs0mg"},{"bike_id":"db5ef7bc-1934-45c3-8160-80ea71746812","system_id":"levelo_inurba_marseille","lat":43.26225,"lon":5.40454,"is_reserved":false,"is_disabled":false,"rental_uris":{"android":"levelo://app?vid=db5ef7bc-1934-45c3-8160-80ea71746812","ios":"levelo://app?vid=db5ef7bc-1934-45c3-8160-80ea71746812"},"vehicle_type_id":"4","last_reported":1778957341,"current_range_meters":4000,"station_id":"ce4bhmh2rcd13ifvqgmg","pricing_plan_id":"cebpf4jnsgd1na2vs0mg"},{"bike_id":"1f27b9c7-f593-4ee3-b394-7ce199ed2756","system_id":"levelo_inurba_marseille","lat":43.309018,"lon":5.37188,"is_reserved":false,"is_disabled":false,"rental_uris":{"android":"levelo://app?vid=1f27b9c7-f593-4ee3-b394-7ce199ed2756","ios":"levelo://app?vid=1f27b9c7-f593-4ee3-b394-7ce199ed2756"},"vehicle_type_id":"4","last_reported":1778957341,"current_range_meters":4000,"station_id":"","pricing_plan_id":"cebpf4jnsgd1na2vs0mg"},{"bike_id":"76e33348-6a4a-4160-8477-e9650ddfdc10","system_id":"levelo_inurba_marseille","lat":43.29545,"lon":5.42296,"is_reserved":false,"is_disabled":false,"rental_uris":{"android":"levelo://app?vid=76e33348-6a4a-4160-8477-e9650ddfdc10","ios":"levelo://app?vid=76e33348-6a4a-4160-8477-e9650ddfdc10"},"vehicle_type_id":"4","last_reported":1778957341,"current_range_meters":4000,"station_id":"ce4bhph2rcd13ifvqhdg","pricing_plan_id":"cebpf4jnsgd1na2vs0mg"},{"bike_id":"d5e3c6e2-8ed8-4e44-b652-fd65531262d7","system_id":"levelo_inurba_marseille","lat":43.260254,"lon":5.375423,"is_reserved":false,"is_disabled":false,"rental_uris":{"android":"levelo://app?vid=d5e3c6e2-8ed8-4e44-b652-fd65531262d7","ios":"levelo://app?vid=d5e3c6e2-8ed8-4e44-b652-fd65531262d7"},"vehicle_type_id":"4","last_reported":1778957341,"current_range_meters":4000,"station_id":"ce4bhgh2rcd13ifvqfa0","pricing_plan_id":"cebpf4jnsgd1na2vs0mg"},{"bike_id":"ca01c33c-99c8-4ff8-a274-d065c7262a1a","system_id":"levelo_inurba_marseille","lat":43.26412,"lon":5.38824,"is_reserved":false,"is_disabled":false,"rental_uris":{"android":"levelo://app?vid=ca01c33c-99c8-4ff8-a274-d065c7262a1a","ios":"levelo://app?vid=ca01c33c-99c8-4ff8-a274-d065c7262a1a"},"vehicle_type_id":"4","last_reported":1778957341,"current_range_meters":4000,"station_id":"","pricing_plan_id":"cebpf4jnsgd1na2vs0mg"},{"bike_id":"157e6e14-8cca-4625-8895-d54e9100a2a8","system_id":"levelo_inurba_marseille","lat":43.28348,"lon":5.38098,"is_reserved":false,"is_disabled":false,"rental_uris":{"android":"levelo://app?vid=157e6e14-8cca-4625-8895-d54e9100a2a8","ios":"levelo://app?vid=157e6e14-8cca-4625-8895-d54e9100a2a8"},"vehicle_type_id":"4","last_reported":1778957341,"current_range_meters":4000,"station_id":"ce4bh412rcd13ifvqdr0","pricing_plan_id":"cebpf4jnsgd1na2vs0mg"},{"bike_id":"35265a51-6659-4638-8039-6906941ef3ca","system_id":"levelo_inurba_marseille","lat":43.32286,"lon":5.3828,"is_reserved":false,"is_disabled":false,"rental_uris":{"android":"levelo://app?vid=35265a51-6659-4638-8039-6906941ef3ca","ios":"levelo://app?vid=35265a51-6659-4638-8039-6906941ef3ca"},"vehicle_type_id":"4","last_reported":1778957341,"current_range_meters":4000,"station_id":"ce4bhr12rcd13ifvqhqg","pricing_plan_id":"cebpf4jnsgd1na2vs0mg"},{"bike_id":"bc5f6c7a-e88e-4994-b3dd-6bba60982b5d","system_id":"levelo_inurba_marseille","lat":43.29632,"lon":5.37736,"is_reserved":false,"is_disabled":false,"rental_uris":{"android":"levelo://app?vid=bc5f6c7a-e88e-4994-b3dd-6bba60982b5d","ios":"levelo://app?vid=bc5f6c7a-e88e-4994-b3dd-6bba60982b5d"},"vehicle_type_id":"4","last_reported":1778957341,"current_range_meters":4000,"station_id":"ce4bgi92rcd13ifvqb90","pricing_plan_id":"cebpf4jnsgd1na2vs0mg"},{"bike_id":"b732ed5f-cb76-41f2-9635-2f8437e492f4","system_id":"levelo_inurba_marseille","lat":43.29257,"lon":5.38455,"is_reserved":false,"is_disabled":false,"rental_uris":{"android":"levelo://app?vid=b732ed5f-cb76-41f2-9635-2f8437e492f4","ios":"levelo://app?vid=b732ed5f-cb76-41f2-9635-2f8437e492f4"},"vehicle_type_id":"4","last_reported":1778957341,"current_range_meters":4400,"station_id":"ce4bh692rcd13ifvqea0","pricing_plan_id":"cebpf4jnsgd1na2vs0mg"},{"bike_id":"fc3434ec-3f12-4fe2-a883-c7406c4652f9","system_id":"levelo_inurba_marseille","lat":43.29488,"lon":5.43299,"is_reserved":false,"is_disabled":false,"rental_uris":{"android":"levelo://app?vid=fc3434ec-3f12-4fe2-a883-c7406c4652f9","ios":"levelo://app?vid=fc3434ec-3f12-4fe2-a883-c7406c4652f9"},"vehicle_type_id":"4","last_reported":1778957341,"current_range_meters":4400,"station_id":"st_d3j5ugp08ojc73fj9d10","pricing_plan_id":"cebpf4jnsgd1na2vs0mg"},{"bike_id":"310313f9-4c8b-458d-834b-81e71f22dc3f","system_id":"levelo_inurba_marseille","lat":43.27905,"lon":5.39585,"is_reserved":false,"is_disabled":true,"rental_uris":{"android":"levelo://app?vid=310313f9-4c8b-458d-834b-81e71f22dc3f","ios":"levelo://app?vid=310313f9-4c8b-458d-834b-81e71f22dc3f"},"vehicle_type_id":"4","last_reported":1778957341,"current_range_meters":4400,"station_id":"ce4bhf92rcd13ifvqf40","pricing_plan_id":"cebpf4jnsgd1na2vs0mg"},{"bike_id":"fe51d235-289e-443a-8eab-faa4747a6bf1","system_id":"levelo_inurba_marseille","lat":43.27569,"lon":5.38444,"is_reserved":false,"is_disabled":false,"rental_uris":{"android":"levelo://app?vid=fe51d235-289e-443a-8eab-faa4747a6bf1","ios":"levelo://app?vid=fe51d235-289e-443a-8eab-faa4747a6bf1"},"vehicle_type_id":"4","last_reported":1778957341,"current_range_meters":4400,"station_id":"ce4bhh92rcd13ifvqfi0","pricing_plan_id":"cebpf4jnsgd1na2vs0mg"},{"bike_id":"12b36be0-89f0-4a2c-8b28-e9a5384ff386","system_id":"levelo_inurba_marseille","lat":43.29989,"lon":5.37166,"is_reserved":false,"is_disabled":false,"rental_uris":{"android":"levelo://app?vid=12b36be0-89f0-4a2c-8b28-e9a5384ff386","ios":"levelo://app?vid=12b36be0-89f0-4a2c-8b28-e9a5384ff386"},"vehicle_type_id":"4","last_reported":1778957341,"current_range_meters":4400,"station_id":"ce4bgr92rcd13ifvqc7g","pricing_plan_id":"cebpf4jnsgd1na2vs0mg"},{"bike_id":"1466b7ae-2359-4d90-ab96-165b69381d7c","system_id":"levelo_inurba_marseille","lat":43.31215,"lon":5.36864,"is_reserved":false,"is_disabled":false,"rental_uris":{"android":"levelo://app?vid=1466b7ae-2359-4d90-ab96-165b69381d7c","ios":"levelo://app?vid=1466b7ae-2359-4d90-ab96-165b69381d7c"},"vehicle_type_id":"4","last_reported":1778957341,"current_range_meters":4400,"station_id":"ce4bgl92rcd13ifvqbq0","pricing_plan_id":"cebpf4jnsgd1na2vs0mg"},{"bike_id":"2e5f930c-c71d-4906-af65-f03e519c5bb9","system_id":"levelo_inurba_marseille","lat":43.24649,"lon":5.37979,"is_reserved":false,"is_disabled":false,"rental_uris":{"android":"levelo://app?vid=2e5f930c-c71d-4906-af65-f03e519c5bb9","ios":"levelo://app?vid=2e5f930c-c71d-4906-af65-f03e519c5bb9"},"vehicle_type_id":"4","last_reported":1778957341,"current_range_meters":4400,"station_id":"","pricing_plan_id":"cebpf4jnsgd1na2vs0mg"},{"bike_id":"23a914aa-59be-4ad4-b36e-93bb95c60437","system_id":"levelo_inurba_marseille","lat":43.29512,"lon":5.37685,"is_reserved":false,"is_disabled":false,"rental_uris":{"android":"levelo://app?vid=23a914aa-59be-4ad4-b36e-93bb95c60437","ios":"levelo://app?vid=23a914aa-59be-4ad4-b36e-93bb95c60437"},"vehicle_type_id":"4","last_reported":1778957341,"current_range_meters":4400,"station_id":"ce4bgi92rcd13ifvqb90","pricing_plan_id":"cebpf4jnsgd1na2vs0mg"},{"bike_id":"5a2f2d67-581c-46de-a21e-6f4a28b01e9e","system_id":"levelo_inurba_marseille","lat":43.295309,"lon":5.385695,"is_reserved":false,"is_disabled":false,"rental_uris":{"android":"levelo://app?vid=5a2f2d67-581c-46de-a21e-6f4a28b01e9e","ios":"levelo://app?vid=5a2f2d67-581c-46de-a21e-6f4a28b01e9e"},"vehicle_type_id":"4","last_reported":1778957341,"current_range_meters":4400,"station_id":"ce4bgih2rcd13ifvqba0","pricing_plan_id":"cebpf4jnsgd1na2vs0mg"},{"bike_id":"d94f3644-7565-4b25-9c25-77d5970b0c3a","system_id":"levelo_inurba_marseille","lat":43.281058,"lon":5.378187,"is_reserved":false,"is_disabled":false,"rental_uris":{"android":"levelo://app?vid=d94f3644-7565-4b25-9c25-77d5970b0c3a","ios":"levelo://app?vid=d94f3644-7565-4b25-9c25-77d5970b0c3a"},"vehicle_type_id":"4","last_reported":1778957341,"current_range_meters":4400,"station_id":"ce4bha12rcd13ifvqee0","pricing_plan_id":"cebpf4jnsgd1na2vs0mg"},{"bike_id":"1c155cb8-50aa-4ad8-95d4-a32cca5f7a07","system_id":"levelo_inurba_marseille","lat":43.24465,"lon":5.42536,"is_reserved":false,"is_disabled":false,"rental_uris":{"android":"levelo://app?vid=1c155cb8-50aa-4ad8-95d4-a32cca5f7a07","ios":"levelo://app?vid=1c155cb8-50aa-4ad8-95d4-a32cca5f7a07"},"vehicle_type_id":"4","last_reported":1778957341,"current_range_meters":4400,"station_id":"st_d4a3vfp97mjs738cd8kg","pricing_plan_id":"cebpf4jnsgd1na2vs0mg"},{"bike_id":"e8b49b5c-a065-481b-a88e-3165b8526f84","system_id":"levelo_inurba_marseille","lat":43.29276,"lon":5.36841,"is_reserved":false,"is_disabled":false,"rental_uris":{"android":"levelo://app?vid=e8b49b5c-a065-481b-a88e-3165b8526f84","ios":"levelo://app?vid=e8b49b5c-a065-481b-a88e-3165b8526f84"},"vehicle_type_id":"4","last_reported":1778957341,"current_range_meters":4400,"station_id":"ce4bhbp2rcd13ifvqesg","pricing_plan_id":"cebpf4jnsgd1na2vs0mg"},{"bike_id":"b99255d8-2cb4-4c40-80a8-f34ddf79c7aa","system_id":"levelo_inurba_marseille","lat":43.33487,"lon":5.37472,"is_reserved":false,"is_disabled":false,"rental_uris":{"android":"levelo://app?vid=b99255d8-2cb4-4c40-80a8-f34ddf79c7aa","ios":"levelo://app?vid=b99255d8-2cb4-4c40-80a8-f34ddf79c7aa"},"vehicle_type_id":"4","last_reported":1778957341,"current_range_meters":4400,"station_id":"st_d46tts09ee8s73dlu43g","pricing_plan_id":"cebpf4jnsgd1na2vs0mg"},{"bike_id":"dcd07351-6b1f-485b-9250-6562a6618350","system_id":"levelo_inurba_marseille","lat":43.29009,"lon":5.35604,"is_reserved":false,"is_disabled":false,"rental_uris":{"android":"levelo://app?vid=dcd07351-6b1f-485b-9250-6562a6618350","ios":"levelo://app?vid=dcd07351-6b1f-485b-9250-6562a6618350"},"vehicle_type_id":"4","last_reported":1778957341,"current_range_meters":4400,"station_id":"ce4bhb92rcd13ifvqen0","pricing_plan_id":"cebpf4jnsgd1na2vs0mg"},{"bike_id":"9a02e8b4-ff77-410e-a4f3-2916c88fb28e","system_id":"levelo_inurba_marseille","lat":43.32496,"lon":5.38303,"is_reserved":false,"is_disabled":false,"rental_uris":{"android":"levelo://app?vid=9a02e8b4-ff77-410e-a4f3-2916c88fb28e","ios":"levelo://app?vid=9a02e8b4-ff77-410e-a4f3-2916c88fb28e"},"vehicle_type_id":"4","last_reported":1778957341,"current_range_meters":4400,"station_id":"st_d4asgbiv49dc73anf9m0","pricing_plan_id":"cebpf4jnsgd1na2vs0mg"},{"bike_id":"2cf5f668-e939-4e74-a32d-57b1ffdfc530","system_id":"levelo_inurba_marseille","lat":43.275897,"lon":5.429193,"is_reserved":false,"is_disabled":false,"rental_uris":{"android":"levelo://app?vid=2cf5f668-e939-4e74-a32d-57b1ffdfc530","ios":"levelo://app?vid=2cf5f668-e939-4e74-a32d-57b1ffdfc530"},"vehicle_type_id":"4","last_reported":1778957341,"current_range_meters":4400,"station_id":"","pricing_plan_id":"cebpf4jnsgd1na2vs0mg"},{"bike_id":"d68b029d-5819-4477-bfbc-0fd6ebf04e79","system_id":"levelo_inurba_marseille","lat":43.29516,"lon":5.39178,"is_reserved":false,"is_disabled":false,"rental_uris":{"android":"levelo://app?vid=d68b029d-5819-4477-bfbc-0fd6ebf04e79","ios":"levelo://app?vid=d68b029d-5819-4477-bfbc-0fd6ebf04e79"},"vehicle_type_id":"4","last_reported":1778957341,"current_range_meters":4400,"station_id":"","pricing_plan_id":"cebpf4jnsgd1na2vs0mg"},{"bike_id":"4dbbf5b6-00a7-412a-a5bd-9051f33d50bf","system_id":"levelo_inurba_marseille","lat":43.29002,"lon":5.3561,"is_reserved":false,"is_disabled":false,"rental_uris":{"android":"levelo://app?vid=4dbbf5b6-00a7-412a-a5bd-9051f33d50bf","ios":"levelo://app?vid=4dbbf5b6-00a7-412a-a5bd-9051f33d50bf"},"vehicle_type_id":"4","last_reported":1778957341,"current_range_meters":4400,"station_id":"ce4bhb92rcd13ifvqen0","pricing_plan_id":"cebpf4jnsgd1na2vs0mg"},{"bike_id":"cc7b8ac4-74f8-414b-9882-9540c8f2f28a","system_id":"levelo_inurba_marseille","lat":43.22559,"lon":5.41622,"is_reserved":false,"is_disabled":false,"rental_uris":{"android":"levelo://app?vid=cc7b8ac4-74f8-414b-9882-9540c8f2f28a","ios":"levelo://app?vid=cc7b8ac4-74f8-414b-9882-9540c8f2f28a"},"vehicle_type_id":"4","last_reported":1778957341,"current_range_meters":4400,"station_id":"st_d2o4gvlbi1j2169b742g","pricing_plan_id":"cebpf4jnsgd1na2vs0mg"},{"bike_id":"d9140709-4601-47f0-bf89-6412b8b813c9","system_id":"levelo_inurba_marseille","lat":43.29279,"lon":5.36831,"is_reserved":false,"is_disabled":false,"rental_uris":{"android":"levelo://app?vid=d9140709-4601-47f0-bf89-6412b8b813c9","ios":"levelo://app?vid=d9140709-4601-47f0-bf89-6412b8b813c9"},"vehicle_type_id":"4","last_reported":1778957341,"current_range_meters":4800,"station_id":"ce4bhbp2rcd13ifvqesg","pricing_plan_id":"cebpf4jnsgd1na2vs0mg"},{"bike_id":"de3cb1fe-3070-4a3f-a8ef-b2d61bb9b970","system_id":"levelo_inurba_marseille","lat":43.28616,"lon":5.37075,"is_reserved":false,"is_disabled":false,"rental_uris":{"android":"levelo://app?vid=de3cb1fe-3070-4a3f-a8ef-b2d61bb9b970","ios":"levelo://app?vid=de3cb1fe-3070-4a3f-a8ef-b2d61bb9b970"},"vehicle_type_id":"4","last_reported":1778957341,"current_range_meters":4800,"station_id":"ce4bht12rcd13ifvqi60","pricing_plan_id":"cebpf4jnsgd1na2vs0mg"},{"bike_id":"5e975752-7963-4fa2-95f5-49bad7ef850e","system_id":"levelo_inurba_marseille","lat":43.24391,"lon":5.37038,"is_reserved":false,"is_disabled":false,"rental_uris":{"android":"levelo://app?vid=5e975752-7963-4fa2-95f5-49bad7ef850e","ios":"levelo://app?vid=5e975752-7963-4fa2-95f5-49bad7ef850e"},"vehicle_type_id":"4","last_reported":1778957341,"current_range_meters":4800,"station_id":"ce4bhhh2rcd13ifvqfk0","pricing_plan_id":"cebpf4jnsgd1na2vs0mg"},{"bike_id":"1f2ef142-0059-4ee6-9c3b-bbdf112f236b","system_id":"levelo_inurba_marseille","lat":43.30545,"lon":5.36696,"is_reserved":false,"is_disabled":false,"rental_uris":{"android":"levelo://app?vid=1f2ef142-0059-4ee6-9c3b-bbdf112f236b","ios":"levelo://app?vid=1f2ef142-0059-4ee6-9c3b-bbdf112f236b"},"vehicle_type_id":"4","last_reported":1778957341,"current_range_meters":4800,"station_id":"ce4bgrp2rcd13ifvqc9g","pricing_plan_id":"cebpf4jnsgd1na2vs0mg"},{"bike_id":"6ed28fa0-f20b-450d-a789-f0b565e64f1b","system_id":"levelo_inurba_marseille","lat":43.29846,"lon":5.38293,"is_reserved":false,"is_disabled":false,"rental_uris":{"android":"levelo://app?vid=6ed28fa0-f20b-450d-a789-f0b565e64f1b","ios":"levelo://app?vid=6ed28fa0-f20b-450d-a789-f0b565e64f1b"},"vehicle_type_id":"4","last_reported":1778957341,"current_range_meters":4800,"station_id":"","pricing_plan_id":"cebpf4jnsgd1na2vs0mg"},{"bike_id":"61e23c81-2984-49d4-ab37-4dd425daeecc","system_id":"levelo_inurba_marseille","lat":43.30126,"lon":5.3879,"is_reserved":false,"is_disabled":false,"rental_uris":{"android":"levelo://app?vid=61e23c81-2984-49d4-ab37-4dd425daeecc","ios":"levelo://app?vid=61e23c81-2984-49d4-ab37-4dd425daeecc"},"vehicle_type_id":"4","last_reported":1778957341,"current_range_meters":4800,"station_id":"ce4bghh2rcd13ifvqb60","pricing_plan_id":"cebpf4jnsgd1na2vs0mg"},{"bike_id":"fdacafe5-c916-488b-b87c-f84be7c88524","system_id":"levelo_inurba_marseille","lat":43.284142,"lon":5.380726,"is_reserved":false,"is_disabled":false,"rental_uris":{"android":"levelo://app?vid=fdacafe5-c916-488b-b87c-f84be7c88524","ios":"levelo://app?vid=fdacafe5-c916-488b-b87c-f84be7c88524"},"vehicle_type_id":"4","last_reported":1778957341,"current_range_meters":4800,"station_id":"ce4bh412rcd13ifvqdr0","pricing_plan_id":"cebpf4jnsgd1na2vs0mg"},{"bike_id":"16c63326-b9b4-4ebf-82e7-e800135e9a1c","system_id":"levelo_inurba_marseille","lat":43.29226,"lon":5.36074,"is_reserved":false,"is_disabled":false,"rental_uris":{"android":"levelo://app?vid=16c63326-b9b4-4ebf-82e7-e800135e9a1c","ios":"levelo://app?vid=16c63326-b9b4-4ebf-82e7-e800135e9a1c"},"vehicle_type_id":"4","last_reported":1778957341,"current_range_meters":4800,"station_id":"ce4bhbh2rcd13ifvqeqg","pricing_plan_id":"cebpf4jnsgd1na2vs0mg"},{"bike_id":"4e977fdb-8b03-4f58-8a2f-db317feb0152","system_id":"levelo_inurba_marseille","lat":43.26211,"lon":5.37441,"is_reserved":false,"is_disabled":false,"rental_uris":{"android":"levelo://app?vid=4e977fdb-8b03-4f58-8a2f-db317feb0152","ios":"levelo://app?vid=4e977fdb-8b03-4f58-8a2f-db317feb0152"},"vehicle_type_id":"4","last_reported":1778957341,"current_range_meters":4800,"station_id":"ce4bhgp2rcd13ifvqfc0","pricing_plan_id":"cebpf4jnsgd1na2vs0mg"},{"bike_id":"3e43ef94-de2b-4b30-a291-e73c21cd05c4","system_id":"levelo_inurba_marseille","lat":43.29005,"lon":5.35617,"is_reserved":false,"is_disabled":false,"rental_uris":{"android":"levelo://app?vid=3e43ef94-de2b-4b30-a291-e73c21cd05c4","ios":"levelo://app?vid=3e43ef94-de2b-4b30-a291-e73c21cd05c4"},"vehicle_type_id":"4","last_reported":1778957341,"current_range_meters":4800,"station_id":"ce4bhb92rcd13ifvqen0","pricing_plan_id":"cebpf4jnsgd1na2vs0mg"},{"bike_id":"5f112bb1-c4d5-405e-86a6-03c0cd20bb89","system_id":"levelo_inurba_marseille","lat":43.28005,"lon":5.40009,"is_reserved":false,"is_disabled":false,"rental_uris":{"android":"levelo://app?vid=5f112bb1-c4d5-405e-86a6-03c0cd20bb89","ios":"levelo://app?vid=5f112bb1-c4d5-405e-86a6-03c0cd20bb89"},"vehicle_type_id":"4","last_reported":1778957341,"current_range_meters":4800,"station_id":"ce4bho92rcd13ifvqh4g","pricing_plan_id":"cebpf4jnsgd1na2vs0mg"},{"bike_id":"04ea3f89-d526-46df-8866-3a77acf0c254","system_id":"levelo_inurba_marseille","lat":43.282662,"lon":5.350656,"is_reserved":false,"is_disabled":true,"rental_uris":{"android":"levelo://app?vid=04ea3f89-d526-46df-8866-3a77acf0c254","ios":"levelo://app?vid=04ea3f89-d526-46df-8866-3a77acf0c254"},"vehicle_type_id":"4","last_reported":1778957341,"current_range_meters":4800,"station_id":"ce4bhbp2rcd13ifvqerg","pricing_plan_id":"cebpf4jnsgd1na2vs0mg"},{"bike_id":"8f567236-4eb6-4ad7-ad79-98046e2b1f82","system_id":"levelo_inurba_marseille","lat":43.297064,"lon":5.366064,"is_reserved":false,"is_disabled":false,"rental_uris":{"android":"levelo://app?vid=8f567236-4eb6-4ad7-ad79-98046e2b1f82","ios":"levelo://app?vid=8f567236-4eb6-4ad7-ad79-98046e2b1f82"},"vehicle_type_id":"4","last_reported":1778957341,"current_range_meters":4800,"station_id":"ce4bgn12rcd13ifvqbt0","pricing_plan_id":"cebpf4jnsgd1na2vs0mg"},{"bike_id":"c29bfe21-caf3-4bdf-9e0e-65c86808287d","system_id":"levelo_inurba_marseille","lat":43.30929,"lon":5.40144,"is_reserved":false,"is_disabled":false,"rental_uris":{"android":"levelo://app?vid=c29bfe21-caf3-4bdf-9e0e-65c86808287d","ios":"levelo://app?vid=c29bfe21-caf3-4bdf-9e0e-65c86808287d"},"vehicle_type_id":"4","last_reported":1778957341,"current_range_meters":5600,"station_id":"ce4bgvp2rcd13ifvqct0","pricing_plan_id":"cebpf4jnsgd1na2vs0mg"},{"bike_id":"2a7de907-abeb-40b6-8b2a-8f5f4d5ef28e","system_id":"levelo_inurba_marseille","lat":43.28666,"lon":5.37091,"is_reserved":false,"is_disabled":false,"rental_uris":{"android":"levelo://app?vid=2a7de907-abeb-40b6-8b2a-8f5f4d5ef28e","ios":"levelo://app?vid=2a7de907-abeb-40b6-8b2a-8f5f4d5ef28e"},"vehicle_type_id":"4","last_reported":1778957341,"current_range_meters":5600,"station_id":"","pricing_plan_id":"cebpf4jnsgd1na2vs0mg"},{"bike_id":"2c4e2c80-7a7f-49e7-8a11-230c3e37ee87","system_id":"levelo_inurba_marseille","lat":43.22579,"lon":5.41626,"is_reserved":false,"is_disabled":false,"rental_uris":{"android":"levelo://app?vid=2c4e2c80-7a7f-49e7-8a11-230c3e37ee87","ios":"levelo://app?vid=2c4e2c80-7a7f-49e7-8a11-230c3e37ee87"},"vehicle_type_id":"4","last_reported":1778957341,"current_range_meters":5600,"station_id":"st_d2o4gvlbi1j2169b742g","pricing_plan_id":"cebpf4jnsgd1na2vs0mg"},{"bike_id":"a56a8a0c-3ab9-465a-bdae-f5897ec1f98a","system_id":"levelo_inurba_marseille","lat":43.24166,"lon":5.36411,"is_reserved":false,"is_disabled":false,"rental_uris":{"android":"levelo://app?vid=a56a8a0c-3ab9-465a-bdae-f5897ec1f98a","ios":"levelo://app?vid=a56a8a0c-3ab9-465a-bdae-f5897ec1f98a"},"vehicle_type_id":"4","last_reported":1778957341,"current_range_meters":5600,"station_id":"cpo36qri1sfpv3e86is0","pricing_plan_id":"cebpf4jnsgd1na2vs0mg"},{"bike_id":"e191454c-916c-4e6d-bb9a-b71fe6d913bf","system_id":"levelo_inurba_marseille","lat":43.23187,"lon":5.35567,"is_reserved":false,"is_disabled":false,"rental_uris":{"android":"levelo://app?vid=e191454c-916c-4e6d-bb9a-b71fe6d913bf","ios":"levelo://app?vid=e191454c-916c-4e6d-bb9a-b71fe6d913bf"},"vehicle_type_id":"4","last_reported":1778957341,"current_range_meters":5600,"station_id":"ce4bhu92rcd13ifvqi70","pricing_plan_id":"cebpf4jnsgd1na2vs0mg"},{"bike_id":"23ecd78c-cd67-4d96-a473-8acd3218fef4","system_id":"levelo_inurba_marseille","lat":43.29193,"lon":5.35805,"is_reserved":false,"is_disabled":true,"rental_uris":{"android":"levelo://app?vid=23ecd78c-cd67-4d96-a473-8acd3218fef4","ios":"levelo://app?vid=23ecd78c-cd67-4d96-a473-8acd3218fef4"},"vehicle_type_id":"4","last_reported":1778957341,"current_range_meters":5600,"station_id":"ce4bhb12rcd13ifvqel0","pricing_plan_id":"cebpf4jnsgd1na2vs0mg"},{"bike_id":"3833573d-d2cc-425d-897a-0cff0c0d7a8d","system_id":"levelo_inurba_marseille","lat":43.23895,"lon":5.37459,"is_reserved":false,"is_disabled":false,"rental_uris":{"android":"levelo://app?vid=3833573d-d2cc-425d-897a-0cff0c0d7a8d","ios":"levelo://app?vid=3833573d-d2cc-425d-897a-0cff0c0d7a8d"},"vehicle_type_id":"4","last_reported":1778957341,"current_range_meters":5600,"station_id":"st_d6sm7csbq4hs73f8fpjg","pricing_plan_id":"cebpf4jnsgd1na2vs0mg"},{"bike_id":"40d52630-dac1-4e9c-ba9e-de16ed28d9c3","system_id":"levelo_inurba_marseille","lat":43.2481,"lon":5.37459,"is_reserved":false,"is_disabled":false,"rental_uris":{"android":"levelo://app?vid=40d52630-dac1-4e9c-ba9e-de16ed28d9c3","ios":"levelo://app?vid=40d52630-dac1-4e9c-ba9e-de16ed28d9c3"},"vehicle_type_id":"4","last_reported":1778957341,"current_range_meters":5600,"station_id":"ce4bhgh2rcd13ifvqfb0","pricing_plan_id":"cebpf4jnsgd1na2vs0mg"},{"bike_id":"255a8db9-6ac5-445d-8da2-584280160595","system_id":"levelo_inurba_marseille","lat":43.29976,"lon":5.36738,"is_reserved":false,"is_disabled":false,"rental_uris":{"android":"levelo://app?vid=255a8db9-6ac5-445d-8da2-584280160595","ios":"levelo://app?vid=255a8db9-6ac5-445d-8da2-584280160595"},"vehicle_type_id":"4","last_reported":1778957341,"current_range_meters":5600,"station_id":"","pricing_plan_id":"cebpf4jnsgd1na2vs0mg"},{"bike_id":"3503bf35-0dbb-4905-9735-01a3a20b61e3","system_id":"levelo_inurba_marseille","lat":43.28269,"lon":5.35055,"is_reserved":false,"is_disabled":false,"rental_uris":{"android":"levelo://app?vid=3503bf35-0dbb-4905-9735-01a3a20b61e3","ios":"levelo://app?vid=3503bf35-0dbb-4905-9735-01a3a20b61e3"},"vehicle_type_id":"4","last_reported":1778957341,"current_range_meters":5600,"station_id":"ce4bhbp2rcd13ifvqerg","pricing_plan_id":"cebpf4jnsgd1na2vs0mg"},{"bike_id":"a138f308-9702-4f03-aafd-186c8acd82cd","system_id":"levelo_inurba_marseille","lat":43.28945,"lon":5.36634,"is_reserved":false,"is_disabled":false,"rental_uris":{"android":"levelo://app?vid=a138f308-9702-4f03-aafd-186c8acd82cd","ios":"levelo://app?vid=a138f308-9702-4f03-aafd-186c8acd82cd"},"vehicle_type_id":"4","last_reported":1778957341,"current_range_meters":5600,"station_id":"ce4bhap2rcd13ifvqek0","pricing_plan_id":"cebpf4jnsgd1na2vs0mg"},{"bike_id":"8c6e71ab-d6f2-4401-b36d-da7a375e2edf","system_id":"levelo_inurba_marseille","lat":43.24551,"lon":5.39513,"is_reserved":false,"is_disabled":false,"rental_uris":{"android":"levelo://app?vid=8c6e71ab-d6f2-4401-b36d-da7a375e2edf","ios":"levelo://app?vid=8c6e71ab-d6f2-4401-b36d-da7a375e2edf"},"vehicle_type_id":"4","last_reported":1778957341,"current_range_meters":5600,"station_id":"ce4bhlp2rcd13ifvqgjg","pricing_plan_id":"cebpf4jnsgd1na2vs0mg"},{"bike_id":"c60e5f42-27e6-4dfb-911a-3f1d717c08e4","system_id":"levelo_inurba_marseille","lat":43.29617,"lon":5.37159,"is_reserved":false,"is_disabled":false,"rental_uris":{"android":"levelo://app?vid=c60e5f42-27e6-4dfb-911a-3f1d717c08e4","ios":"levelo://app?vid=c60e5f42-27e6-4dfb-911a-3f1d717c08e4"},"vehicle_type_id":"4","last_reported":1778957341,"current_range_meters":6000,"station_id":"ce4bgnh2rcd13ifvqc0g","pricing_plan_id":"cebpf4jnsgd1na2vs0mg"},{"bike_id":"dbf94776-63a1-426f-85ae-41abd5903310","system_id":"levelo_inurba_marseille","lat":43.30961,"lon":5.37653,"is_reserved":false,"is_disabled":false,"rental_uris":{"android":"levelo://app?vid=dbf94776-63a1-426f-85ae-41abd5903310","ios":"levelo://app?vid=dbf94776-63a1-426f-85ae-41abd5903310"},"vehicle_type_id":"4","last_reported":1778957341,"current_range_meters":6000,"station_id":"","pricing_plan_id":"cebpf4jnsgd1na2vs0mg"},{"bike_id":"74f12a6d-7a94-4ce3-8725-e3fbbe23ae70","system_id":"levelo_inurba_marseille","lat":43.33552,"lon":5.37472,"is_reserved":false,"is_disabled":false,"rental_uris":{"android":"levelo://app?vid=74f12a6d-7a94-4ce3-8725-e3fbbe23ae70","ios":"levelo://app?vid=74f12a6d-7a94-4ce3-8725-e3fbbe23ae70"},"vehicle_type_id":"4","last_reported":1778957341,"current_range_meters":6000,"station_id":"st_d46tts09ee8s73dlu43g","pricing_plan_id":"cebpf4jnsgd1na2vs0mg"},{"bike_id":"f9743d47-4013-4d70-9eba-505aeb7a6cad","system_id":"levelo_inurba_marseille","lat":43.23199,"lon":5.35544,"is_reserved":false,"is_disabled":false,"rental_uris":{"android":"levelo://app?vid=f9743d47-4013-4d70-9eba-505aeb7a6cad","ios":"levelo://app?vid=f9743d47-4013-4d70-9eba-505aeb7a6cad"},"vehicle_type_id":"4","last_reported":1778957341,"current_range_meters":6000,"station_id":"ce4bhu92rcd13ifvqi70","pricing_plan_id":"cebpf4jnsgd1na2vs0mg"},{"bike_id":"015aad6e-f7c0-4598-9ad7-38c4d3fee62c","system_id":"levelo_inurba_marseille","lat":43.28627,"lon":5.35105,"is_reserved":false,"is_disabled":false,"rental_uris":{"android":"levelo://app?vid=015aad6e-f7c0-4598-9ad7-38c4d3fee62c","ios":"levelo://app?vid=015aad6e-f7c0-4598-9ad7-38c4d3fee62c"},"vehicle_type_id":"4","last_reported":1778957341,"current_range_meters":6000,"station_id":"ce4bhch2rcd13ifvqeug","pricing_plan_id":"cebpf4jnsgd1na2vs0mg"},{"bike_id":"4d31ed6e-13e0-4959-aa6c-cce6ffc3f7ff","system_id":"levelo_inurba_marseille","lat":43.27506,"lon":5.41586,"is_reserved":false,"is_disabled":false,"rental_uris":{"android":"levelo://app?vid=4d31ed6e-13e0-4959-aa6c-cce6ffc3f7ff","ios":"levelo://app?vid=4d31ed6e-13e0-4959-aa6c-cce6ffc3f7ff"},"vehicle_type_id":"4","last_reported":1778957341,"current_range_meters":6000,"station_id":"st_d6im8g6chgec73a5pndg","pricing_plan_id":"cebpf4jnsgd1na2vs0mg"},{"bike_id":"54b83430-1bd0-4ce7-8e17-0321935d2a20","system_id":"levelo_inurba_marseille","lat":43.3055,"lon":5.3653,"is_reserved":false,"is_disabled":false,"rental_uris":{"android":"levelo://app?vid=54b83430-1bd0-4ce7-8e17-0321935d2a20","ios":"levelo://app?vid=54b83430-1bd0-4ce7-8e17-0321935d2a20"},"vehicle_type_id":"4","last_reported":1778957341,"current_range_meters":6000,"station_id":"ce4bgs12rcd13ifvqcag","pricing_plan_id":"cebpf4jnsgd1na2vs0mg"},{"bike_id":"0e3fc9c6-e9e8-4d3e-ba41-a00d0e757b16","system_id":"levelo_inurba_marseille","lat":43.29251,"lon":5.38454,"is_reserved":false,"is_disabled":false,"rental_uris":{"android":"levelo://app?vid=0e3fc9c6-e9e8-4d3e-ba41-a00d0e757b16","ios":"levelo://app?vid=0e3fc9c6-e9e8-4d3e-ba41-a00d0e757b16"},"vehicle_type_id":"4","last_reported":1778957341,"current_range_meters":6000,"station_id":"ce4bh692rcd13ifvqea0","pricing_plan_id":"cebpf4jnsgd1na2vs0mg"},{"bike_id":"2943fbe3-a159-4981-a389-c56caa3b261f","system_id":"levelo_inurba_marseille","lat":43.24817,"lon":5.37465,"is_reserved":false,"is_disabled":false,"rental_uris":{"android":"levelo://app?vid=2943fbe3-a159-4981-a389-c56caa3b261f","ios":"levelo://app?vid=2943fbe3-a159-4981-a389-c56caa3b261f"},"vehicle_type_id":"4","last_reported":1778957341,"current_range_meters":6000,"station_id":"ce4bhgh2rcd13ifvqfb0","pricing_plan_id":"cebpf4jnsgd1na2vs0mg"},{"bike_id":"3c62498b-0f88-412a-966d-48807f9c55e0","system_id":"levelo_inurba_marseille","lat":43.23198,"lon":5.35553,"is_reserved":false,"is_disabled":false,"rental_uris":{"android":"levelo://app?vid=3c62498b-0f88-412a-966d-48807f9c55e0","ios":"levelo://app?vid=3c62498b-0f88-412a-966d-48807f9c55e0"},"vehicle_type_id":"4","last_reported":1778957341,"current_range_meters":6000,"station_id":"ce4bhu92rcd13ifvqi70","pricing_plan_id":"cebpf4jnsgd1na2vs0mg"},{"bike_id":"be9124c3-c48d-4f5d-a024-0d40838ca254","system_id":"levelo_inurba_marseille","lat":43.21752,"lon":5.34611,"is_reserved":false,"is_disabled":false,"rental_uris":{"android":"levelo://app?vid=be9124c3-c48d-4f5d-a024-0d40838ca254","ios":"levelo://app?vid=be9124c3-c48d-4f5d-a024-0d40838ca254"},"vehicle_type_id":"4","last_reported":1778957341,"current_range_meters":6000,"station_id":"st_cvj6r9ubvosntc0bgbag","pricing_plan_id":"cebpf4jnsgd1na2vs0mg"},{"bike_id":"b645593d-f67c-4f1b-b9f9-f8e1b08f24ee","system_id":"levelo_inurba_marseille","lat":43.25052,"lon":5.41372,"is_reserved":false,"is_disabled":false,"rental_uris":{"android":"levelo://app?vid=b645593d-f67c-4f1b-b9f9-f8e1b08f24ee","ios":"levelo://app?vid=b645593d-f67c-4f1b-b9f9-f8e1b08f24ee"},"vehicle_type_id":"4","last_reported":1778957341,"current_range_meters":6000,"station_id":"","pricing_plan_id":"cebpf4jnsgd1na2vs0mg"},{"bike_id":"dc437964-578c-4f7a-be1e-9a5b7abec9f5","system_id":"levelo_inurba_marseille","lat":43.24528,"lon":5.37616,"is_reserved":false,"is_disabled":false,"rental_uris":{"android":"levelo://app?vid=dc437964-578c-4f7a-be1e-9a5b7abec9f5","ios":"levelo://app?vid=dc437964-578c-4f7a-be1e-9a5b7abec9f5"},"vehicle_type_id":"4","last_reported":1778957341,"current_range_meters":6000,"station_id":"","pricing_plan_id":"cebpf4jnsgd1na2vs0mg"},{"bike_id":"3bc3e170-b70d-464e-a0fc-26e24f8aea12","system_id":"levelo_inurba_marseille","lat":43.23962,"lon":5.36631,"is_reserved":false,"is_disabled":false,"rental_uris":{"android":"levelo://app?vid=3bc3e170-b70d-464e-a0fc-26e24f8aea12","ios":"levelo://app?vid=3bc3e170-b70d-464e-a0fc-26e24f8aea12"},"vehicle_type_id":"4","last_reported":1778957341,"current_range_meters":6000,"station_id":"ce4bhi12rcd13ifvqfp0","pricing_plan_id":"cebpf4jnsgd1na2vs0mg"},{"bike_id":"d7381411-2783-4d7c-8fb7-55cc29c58a43","system_id":"levelo_inurba_marseille","lat":43.30263,"lon":5.40081,"is_reserved":false,"is_disabled":false,"rental_uris":{"android":"levelo://app?vid=d7381411-2783-4d7c-8fb7-55cc29c58a43","ios":"levelo://app?vid=d7381411-2783-4d7c-8fb7-55cc29c58a43"},"vehicle_type_id":"4","last_reported":1778957341,"current_range_meters":6000,"station_id":"ce4bgvh2rcd13ifvqcs0","pricing_plan_id":"cebpf4jnsgd1na2vs0mg"},{"bike_id":"489a1706-c3ea-4b0e-8e98-c2ee70717ba8","system_id":"levelo_inurba_marseille","lat":43.22553,"lon":5.41621,"is_reserved":false,"is_disabled":false,"rental_uris":{"android":"levelo://app?vid=489a1706-c3ea-4b0e-8e98-c2ee70717ba8","ios":"levelo://app?vid=489a1706-c3ea-4b0e-8e98-c2ee70717ba8"},"vehicle_type_id":"4","last_reported":1778957341,"current_range_meters":6000,"station_id":"st_d2o4gvlbi1j2169b742g","pricing_plan_id":"cebpf4jnsgd1na2vs0mg"},{"bike_id":"f7543221-24ce-49d7-9e9a-813368b633f9","system_id":"levelo_inurba_marseille","lat":43.24636,"lon":5.38202,"is_reserved":false,"is_disabled":false,"rental_uris":{"android":"levelo://app?vid=f7543221-24ce-49d7-9e9a-813368b633f9","ios":"levelo://app?vid=f7543221-24ce-49d7-9e9a-813368b633f9"},"vehicle_type_id":"4","last_reported":1778957341,"current_range_meters":6000,"station_id":"ce4bhih2rcd13ifvqfr0","pricing_plan_id":"cebpf4jnsgd1na2vs0mg"},{"bike_id":"b78a5007-a3f9-4d4f-b4e5-799aa180d7f8","system_id":"levelo_inurba_marseille","lat":43.3203,"lon":5.41594,"is_reserved":false,"is_disabled":true,"rental_uris":{"android":"levelo://app?vid=b78a5007-a3f9-4d4f-b4e5-799aa180d7f8","ios":"levelo://app?vid=b78a5007-a3f9-4d4f-b4e5-799aa180d7f8"},"vehicle_type_id":"4","last_reported":1778957341,"current_range_meters":6000,"station_id":"ce4bhq92rcd13ifvqhkg","pricing_plan_id":"cebpf4jnsgd1na2vs0mg"},{"bike_id":"11cfcfb7-7cef-4ca3-94fd-d649299b0219","system_id":"levelo_inurba_marseille","lat":43.31714,"lon":5.42416,"is_reserved":false,"is_disabled":false,"rental_uris":{"android":"levelo://app?vid=11cfcfb7-7cef-4ca3-94fd-d649299b0219","ios":"levelo://app?vid=11cfcfb7-7cef-4ca3-94fd-d649299b0219"},"vehicle_type_id":"4","last_reported":1778957341,"current_range_meters":6000,"station_id":"ce4bhp92rcd13ifvqhbg","pricing_plan_id":"cebpf4jnsgd1na2vs0mg"},{"bike_id":"6b5f5f89-ab34-448a-b2c7-ae8a3e9a30f4","system_id":"levelo_inurba_marseille","lat":43.31895,"lon":5.4073,"is_reserved":false,"is_disabled":true,"rental_uris":{"android":"levelo://app?vid=6b5f5f89-ab34-448a-b2c7-ae8a3e9a30f4","ios":"levelo://app?vid=6b5f5f89-ab34-448a-b2c7-ae8a3e9a30f4"},"vehicle_type_id":"4","last_reported":1778957341,"current_range_meters":6000,"station_id":"ce4bhq12rcd13ifvqhig","pricing_plan_id":"cebpf4jnsgd1na2vs0mg"},{"bike_id":"9d9da9b1-62c5-4232-8888-7d36c96bb153","system_id":"levelo_inurba_marseille","lat":43.27504,"lon":5.4158,"is_reserved":false,"is_disabled":false,"rental_uris":{"android":"levelo://app?vid=9d9da9b1-62c5-4232-8888-7d36c96bb153","ios":"levelo://app?vid=9d9da9b1-62c5-4232-8888-7d36c96bb153"},"vehicle_type_id":"4","last_reported":1778957341,"current_range_meters":6400,"station_id":"st_d6im8g6chgec73a5pndg","pricing_plan_id":"cebpf4jnsgd1na2vs0mg"},{"bike_id":"9328df09-7c77-4ef9-a326-cd1cda9dd29d","system_id":"levelo_inurba_marseille","lat":43.30766,"lon":5.38512,"is_reserved":false,"is_disabled":false,"rental_uris":{"android":"levelo://app?vid=9328df09-7c77-4ef9-a326-cd1cda9dd29d","ios":"levelo://app?vid=9328df09-7c77-4ef9-a326-cd1cda9dd29d"},"vehicle_type_id":"4","last_reported":1778957341,"current_range_meters":6400,"station_id":"","pricing_plan_id":"cebpf4jnsgd1na2vs0mg"},{"bike_id":"b9fc383d-7675-4ac1-96a8-b14863e064c9","system_id":"levelo_inurba_marseille","lat":43.31293,"lon":5.37259,"is_reserved":false,"is_disabled":false,"rental_uris":{"android":"levelo://app?vid=b9fc383d-7675-4ac1-96a8-b14863e064c9","ios":"levelo://app?vid=b9fc383d-7675-4ac1-96a8-b14863e064c9"},"vehicle_type_id":"4","last_reported":1778957341,"current_range_meters":6400,"station_id":"","pricing_plan_id":"cebpf4jnsgd1na2vs0mg"},{"bike_id":"6309bb83-16de-49b5-b945-ff87fed43bc6","system_id":"levelo_inurba_marseille","lat":43.211903,"lon":5.350775,"is_reserved":false,"is_disabled":false,"rental_uris":{"android":"levelo://app?vid=6309bb83-16de-49b5-b945-ff87fed43bc6","ios":"levelo://app?vid=6309bb83-16de-49b5-b945-ff87fed43bc6"},"vehicle_type_id":"4","last_reported":1778957341,"current_range_meters":6400,"station_id":"st_cvj6sg6p6f1abm77japg","pricing_plan_id":"cebpf4jnsgd1na2vs0mg"},{"bike_id":"8e9e3a50-d8b1-4ff9-876a-6fdf349604d8","system_id":"levelo_inurba_marseille","lat":43.24807,"lon":5.37453,"is_reserved":false,"is_disabled":false,"rental_uris":{"android":"levelo://app?vid=8e9e3a50-d8b1-4ff9-876a-6fdf349604d8","ios":"levelo://app?vid=8e9e3a50-d8b1-4ff9-876a-6fdf349604d8"},"vehicle_type_id":"4","last_reported":1778957341,"current_range_meters":6400,"station_id":"ce4bhgh2rcd13ifvqfb0","pricing_plan_id":"cebpf4jnsgd1na2vs0mg"},{"bike_id":"dca08c5c-65aa-4be5-b882-b94870c8a90e","system_id":"levelo_inurba_marseille","lat":43.30402,"lon":5.41321,"is_reserved":false,"is_disabled":true,"rental_uris":{"android":"levelo://app?vid=dca08c5c-65aa-4be5-b882-b94870c8a90e","ios":"levelo://app?vid=dca08c5c-65aa-4be5-b882-b94870c8a90e"},"vehicle_type_id":"4","last_reported":1778957341,"current_range_meters":6400,"station_id":"ce4bhop2rcd13ifvqh8g","pricing_plan_id":"cebpf4jnsgd1na2vs0mg"},{"bike_id":"e3731a1c-7390-4a6e-b1bd-d37a705f0a37","system_id":"levelo_inurba_marseille","lat":43.25085,"lon":5.39525,"is_reserved":false,"is_disabled":false,"rental_uris":{"android":"levelo://app?vid=e3731a1c-7390-4a6e-b1bd-d37a705f0a37","ios":"levelo://app?vid=e3731a1c-7390-4a6e-b1bd-d37a705f0a37"},"vehicle_type_id":"4","last_reported":1778957341,"current_range_meters":6400,"station_id":"ce4bhm12rcd13ifvqgkg","pricing_plan_id":"cebpf4jnsgd1na2vs0mg"},{"bike_id":"810ef53a-5aff-49f3-99db-34213da1b1cf","system_id":"levelo_inurba_marseille","lat":43.28702,"lon":5.46685,"is_reserved":false,"is_disabled":false,"rental_uris":{"android":"levelo://app?vid=810ef53a-5aff-49f3-99db-34213da1b1cf","ios":"levelo://app?vid=810ef53a-5aff-49f3-99db-34213da1b1cf"},"vehicle_type_id":"4","last_reported":1778957341,"current_range_meters":6400,"station_id":"st_d6tc3vkotcvc738tfjhg","pricing_plan_id":"cebpf4jnsgd1na2vs0mg"},{"bike_id":"ec218d25-e51c-4ca9-a8c9-80136c734899","system_id":"levelo_inurba_marseille","lat":43.2437,"lon":5.37086,"is_reserved":false,"is_disabled":false,"rental_uris":{"android":"levelo://app?vid=ec218d25-e51c-4ca9-a8c9-80136c734899","ios":"levelo://app?vid=ec218d25-e51c-4ca9-a8c9-80136c734899"},"vehicle_type_id":"4","last_reported":1778957341,"current_range_meters":6400,"station_id":"ce4bhhh2rcd13ifvqfk0","pricing_plan_id":"cebpf4jnsgd1na2vs0mg"},{"bike_id":"5b61ad3d-c4b3-4bf0-9170-da55ed29dbbb","system_id":"levelo_inurba_marseille","lat":43.30767,"lon":5.39339,"is_reserved":false,"is_disabled":false,"rental_uris":{"android":"levelo://app?vid=5b61ad3d-c4b3-4bf0-9170-da55ed29dbbb","ios":"levelo://app?vid=5b61ad3d-c4b3-4bf0-9170-da55ed29dbbb"},"vehicle_type_id":"4","last_reported":1778957341,"current_range_meters":6400,"station_id":"","pricing_plan_id":"cebpf4jnsgd1na2vs0mg"},{"bike_id":"4a139587-4dd8-47fc-9a14-cc9e233d8ec9","system_id":"levelo_inurba_marseille","lat":43.32365,"lon":5.38119,"is_reserved":false,"is_disabled":false,"rental_uris":{"android":"levelo://app?vid=4a139587-4dd8-47fc-9a14-cc9e233d8ec9","ios":"levelo://app?vid=4a139587-4dd8-47fc-9a14-cc9e233d8ec9"},"vehicle_type_id":"4","last_reported":1778957341,"current_range_meters":6400,"station_id":"","pricing_plan_id":"cebpf4jnsgd1na2vs0mg"},{"bike_id":"e6c047b4-71f7-452e-a1e6-79760ef39919","system_id":"levelo_inurba_marseille","lat":43.2378,"lon":5.36639,"is_reserved":false,"is_disabled":false,"rental_uris":{"android":"levelo://app?vid=e6c047b4-71f7-452e-a1e6-79760ef39919","ios":"levelo://app?vid=e6c047b4-71f7-452e-a1e6-79760ef39919"},"vehicle_type_id":"4","last_reported":1778957341,"current_range_meters":6400,"station_id":"st_d3nk18o9ro0c73en2l3g","pricing_plan_id":"cebpf4jnsgd1na2vs0mg"},{"bike_id":"36341c1f-74e9-49c5-9176-f3e724ab8daa","system_id":"levelo_inurba_marseille","lat":43.28611,"lon":5.37064,"is_reserved":false,"is_disabled":false,"rental_uris":{"android":"levelo://app?vid=36341c1f-74e9-49c5-9176-f3e724ab8daa","ios":"levelo://app?vid=36341c1f-74e9-49c5-9176-f3e724ab8daa"},"vehicle_type_id":"4","last_reported":1778957341,"current_range_meters":6400,"station_id":"ce4bht12rcd13ifvqi60","pricing_plan_id":"cebpf4jnsgd1na2vs0mg"},{"bike_id":"f3afa4cf-fc4f-4960-b4ba-dcee7a8ed209","system_id":"levelo_inurba_marseille","lat":43.31363,"lon":5.38496,"is_reserved":false,"is_disabled":false,"rental_uris":{"android":"levelo://app?vid=f3afa4cf-fc4f-4960-b4ba-dcee7a8ed209","ios":"levelo://app?vid=f3afa4cf-fc4f-4960-b4ba-dcee7a8ed209"},"vehicle_type_id":"4","last_reported":1778957341,"current_range_meters":6400,"station_id":"ce4bgt92rcd13ifvqcf0","pricing_plan_id":"cebpf4jnsgd1na2vs0mg"},{"bike_id":"c183f127-bba7-4b6d-afc6-7c12fb879d32","system_id":"levelo_inurba_marseille","lat":43.30154,"lon":5.37405,"is_reserved":false,"is_disabled":false,"rental_uris":{"android":"levelo://app?vid=c183f127-bba7-4b6d-afc6-7c12fb879d32","ios":"levelo://app?vid=c183f127-bba7-4b6d-afc6-7c12fb879d32"},"vehicle_type_id":"4","last_reported":1778957341,"current_range_meters":6400,"station_id":"ce4bgs92rcd13ifvqcc0","pricing_plan_id":"cebpf4jnsgd1na2vs0mg"},{"bike_id":"f44e1e35-93ab-48d3-a892-5530dae404d2","system_id":"levelo_inurba_marseille","lat":43.29224,"lon":5.36064,"is_reserved":false,"is_disabled":false,"rental_uris":{"android":"levelo://app?vid=f44e1e35-93ab-48d3-a892-5530dae404d2","ios":"levelo://app?vid=f44e1e35-93ab-48d3-a892-5530dae404d2"},"vehicle_type_id":"4","last_reported":1778957341,"current_range_meters":6400,"station_id":"ce4bhbh2rcd13ifvqeqg","pricing_plan_id":"cebpf4jnsgd1na2vs0mg"},{"bike_id":"7fd7c1bb-0ed2-4eb7-959c-daab2eec52f3","system_id":"levelo_inurba_marseille","lat":43.24545,"lon":5.39533,"is_reserved":false,"is_disabled":false,"rental_uris":{"android":"levelo://app?vid=7fd7c1bb-0ed2-4eb7-959c-daab2eec52f3","ios":"levelo://app?vid=7fd7c1bb-0ed2-4eb7-959c-daab2eec52f3"},"vehicle_type_id":"4","last_reported":1778957341,"current_range_meters":6800,"station_id":"ce4bhlp2rcd13ifvqgjg","pricing_plan_id":"cebpf4jnsgd1na2vs0mg"},{"bike_id":"4098dc24-1687-4bf4-bf34-a5a5cfed27be","system_id":"levelo_inurba_marseille","lat":43.25003,"lon":5.38919,"is_reserved":false,"is_disabled":false,"rental_uris":{"android":"levelo://app?vid=4098dc24-1687-4bf4-bf34-a5a5cfed27be","ios":"levelo://app?vid=4098dc24-1687-4bf4-bf34-a5a5cfed27be"},"vehicle_type_id":"4","last_reported":1778957341,"current_range_meters":6800,"station_id":"ce4bhgp2rcd13ifvqfd0","pricing_plan_id":"cebpf4jnsgd1na2vs0mg"},{"bike_id":"b3d3f46d-8b61-4048-a49d-46db42a99359","system_id":"levelo_inurba_marseille","lat":43.24805,"lon":5.37458,"is_reserved":false,"is_disabled":false,"rental_uris":{"android":"levelo://app?vid=b3d3f46d-8b61-4048-a49d-46db42a99359","ios":"levelo://app?vid=b3d3f46d-8b61-4048-a49d-46db42a99359"},"vehicle_type_id":"4","last_reported":1778957341,"current_range_meters":6800,"station_id":"ce4bhgh2rcd13ifvqfb0","pricing_plan_id":"cebpf4jnsgd1na2vs0mg"},{"bike_id":"3e7c9db3-7780-4c32-83eb-5d17b151f1e1","system_id":"levelo_inurba_marseille","lat":43.24959,"lon":5.40489,"is_reserved":false,"is_disabled":false,"rental_uris":{"android":"levelo://app?vid=3e7c9db3-7780-4c32-83eb-5d17b151f1e1","ios":"levelo://app?vid=3e7c9db3-7780-4c32-83eb-5d17b151f1e1"},"vehicle_type_id":"4","last_reported":1778957341,"current_range_meters":6800,"station_id":"st_d2ngiaodas8pm72gd1h0","pricing_plan_id":"cebpf4jnsgd1na2vs0mg"},{"bike_id":"4af3696e-2ae8-4984-b332-72a8f5f0d687","system_id":"levelo_inurba_marseille","lat":43.28427,"lon":5.39203,"is_reserved":false,"is_disabled":false,"rental_uris":{"android":"levelo://app?vid=4af3696e-2ae8-4984-b332-72a8f5f0d687","ios":"levelo://app?vid=4af3696e-2ae8-4984-b332-72a8f5f0d687"},"vehicle_type_id":"4","last_reported":1778957341,"current_range_meters":6800,"station_id":"ce4bhoh2rcd13ifvqh5g","pricing_plan_id":"cebpf4jnsgd1na2vs0mg"},{"bike_id":"616353f1-4754-4f57-9465-e46d49d24354","system_id":"levelo_inurba_marseille","lat":43.33636,"lon":5.36291,"is_reserved":false,"is_disabled":false,"rental_uris":{"android":"levelo://app?vid=616353f1-4754-4f57-9465-e46d49d24354","ios":"levelo://app?vid=616353f1-4754-4f57-9465-e46d49d24354"},"vehicle_type_id":"4","last_reported":1778957341,"current_range_meters":6800,"station_id":"","pricing_plan_id":"cebpf4jnsgd1na2vs0mg"},{"bike_id":"3fc3c44e-8e86-4a32-a94c-dffc19e84835","system_id":"levelo_inurba_marseille","lat":43.30558,"lon":5.36542,"is_reserved":false,"is_disabled":false,"rental_uris":{"android":"levelo://app?vid=3fc3c44e-8e86-4a32-a94c-dffc19e84835","ios":"levelo://app?vid=3fc3c44e-8e86-4a32-a94c-dffc19e84835"},"vehicle_type_id":"4","last_reported":1778957341,"current_range_meters":6800,"station_id":"ce4bgs12rcd13ifvqcag","pricing_plan_id":"cebpf4jnsgd1na2vs0mg"},{"bike_id":"73b1154b-5b41-475e-9e09-73a9a766d8c0","system_id":"levelo_inurba_marseille","lat":43.29884,"lon":5.38906,"is_reserved":false,"is_disabled":false,"rental_uris":{"android":"levelo://app?vid=73b1154b-5b41-475e-9e09-73a9a766d8c0","ios":"levelo://app?vid=73b1154b-5b41-475e-9e09-73a9a766d8c0"},"vehicle_type_id":"4","last_reported":1778957341,"current_range_meters":6800,"station_id":"ce4bh392rcd13ifvqdl0","pricing_plan_id":"cebpf4jnsgd1na2vs0mg"},{"bike_id":"95d4bd31-b89c-4cb2-afa3-9e6e4ba15e30","system_id":"levelo_inurba_marseille","lat":43.25468,"lon":5.3764,"is_reserved":false,"is_disabled":false,"rental_uris":{"android":"levelo://app?vid=95d4bd31-b89c-4cb2-afa3-9e6e4ba15e30","ios":"levelo://app?vid=95d4bd31-b89c-4cb2-afa3-9e6e4ba15e30"},"vehicle_type_id":"4","last_reported":1778957341,"current_range_meters":6800,"station_id":"ce4bhh12rcd13ifvqff0","pricing_plan_id":"cebpf4jnsgd1na2vs0mg"},{"bike_id":"323d3ace-559a-4f41-a6cd-7437e0501e13","system_id":"levelo_inurba_marseille","lat":43.29726,"lon":5.36631,"is_reserved":false,"is_disabled":false,"rental_uris":{"android":"levelo://app?vid=323d3ace-559a-4f41-a6cd-7437e0501e13","ios":"levelo://app?vid=323d3ace-559a-4f41-a6cd-7437e0501e13"},"vehicle_type_id":"4","last_reported":1778957341,"current_range_meters":6800,"station_id":"ce4bgn12rcd13ifvqbt0","pricing_plan_id":"cebpf4jnsgd1na2vs0mg"},{"bike_id":"1124e8ed-181a-445d-9220-36e963831e6c","system_id":"levelo_inurba_marseille","lat":43.23906,"lon":5.37464,"is_reserved":false,"is_disabled":true,"rental_uris":{"android":"levelo://app?vid=1124e8ed-181a-445d-9220-36e963831e6c","ios":"levelo://app?vid=1124e8ed-181a-445d-9220-36e963831e6c"},"vehicle_type_id":"4","last_reported":1778957341,"current_range_meters":6800,"station_id":"st_d6sm7csbq4hs73f8fpjg","pricing_plan_id":"cebpf4jnsgd1na2vs0mg"},{"bike_id":"dec38191-5710-48c9-b2eb-92e0519a1f4c","system_id":"levelo_inurba_marseille","lat":43.29263,"lon":5.40151,"is_reserved":false,"is_disabled":false,"rental_uris":{"android":"levelo://app?vid=dec38191-5710-48c9-b2eb-92e0519a1f4c","ios":"levelo://app?vid=dec38191-5710-48c9-b2eb-92e0519a1f4c"},"vehicle_type_id":"4","last_reported":1778957341,"current_range_meters":6800,"station_id":"ce4bh312rcd13ifvqdk0","pricing_plan_id":"cebpf4jnsgd1na2vs0mg"},{"bike_id":"62229565-84ad-4fd2-8087-5f7f524ac55d","system_id":"levelo_inurba_marseille","lat":43.28728,"lon":5.37937,"is_reserved":false,"is_disabled":false,"rental_uris":{"android":"levelo://app?vid=62229565-84ad-4fd2-8087-5f7f524ac55d","ios":"levelo://app?vid=62229565-84ad-4fd2-8087-5f7f524ac55d"},"vehicle_type_id":"4","last_reported":1778957341,"current_range_meters":6800,"station_id":"ce4bh9p2rcd13ifvqec0","pricing_plan_id":"cebpf4jnsgd1na2vs0mg"},{"bike_id":"275452fa-49c7-4ee3-b3e6-44621052e7fd","system_id":"levelo_inurba_marseille","lat":43.28419,"lon":5.35001,"is_reserved":false,"is_disabled":false,"rental_uris":{"android":"levelo://app?vid=275452fa-49c7-4ee3-b3e6-44621052e7fd","ios":"levelo://app?vid=275452fa-49c7-4ee3-b3e6-44621052e7fd"},"vehicle_type_id":"4","last_reported":1778957341,"current_range_meters":6800,"station_id":"ce4bhbh2rcd13ifvqepg","pricing_plan_id":"cebpf4jnsgd1na2vs0mg"},{"bike_id":"476ec896-6aed-448d-84e8-cbea548b3e3b","system_id":"levelo_inurba_marseille","lat":43.24464,"lon":5.4253,"is_reserved":false,"is_disabled":false,"rental_uris":{"android":"levelo://app?vid=476ec896-6aed-448d-84e8-cbea548b3e3b","ios":"levelo://app?vid=476ec896-6aed-448d-84e8-cbea548b3e3b"},"vehicle_type_id":"4","last_reported":1778957341,"current_range_meters":6800,"station_id":"st_d4a3vfp97mjs738cd8kg","pricing_plan_id":"cebpf4jnsgd1na2vs0mg"},{"bike_id":"b5700011-a486-4e56-b8fb-207aaf85d4db","system_id":"levelo_inurba_marseille","lat":43.31907,"lon":5.36817,"is_reserved":false,"is_disabled":false,"rental_uris":{"android":"levelo://app?vid=b5700011-a486-4e56-b8fb-207aaf85d4db","ios":"levelo://app?vid=b5700011-a486-4e56-b8fb-207aaf85d4db"},"vehicle_type_id":"4","last_reported":1778957341,"current_range_meters":6800,"station_id":"st_d6o2h0d0559c73evc1b0","pricing_plan_id":"cebpf4jnsgd1na2vs0mg"},{"bike_id":"d1f3b13b-a61c-41fc-b986-79acc9b16fe8","system_id":"levelo_inurba_marseille","lat":43.28535,"lon":5.44097,"is_reserved":false,"is_disabled":false,"rental_uris":{"android":"levelo://app?vid=d1f3b13b-a61c-41fc-b986-79acc9b16fe8","ios":"levelo://app?vid=d1f3b13b-a61c-41fc-b986-79acc9b16fe8"},"vehicle_type_id":"4","last_reported":1778957341,"current_range_meters":6800,"station_id":"st_d3j3df2ikq2c7380ej80","pricing_plan_id":"cebpf4jnsgd1na2vs0mg"},{"bike_id":"ee15264c-c5fd-4c69-a06f-329fd6fb9d0d","system_id":"levelo_inurba_marseille","lat":43.30127,"lon":5.43122,"is_reserved":false,"is_disabled":false,"rental_uris":{"android":"levelo://app?vid=ee15264c-c5fd-4c69-a06f-329fd6fb9d0d","ios":"levelo://app?vid=ee15264c-c5fd-4c69-a06f-329fd6fb9d0d"},"vehicle_type_id":"4","last_reported":1778957341,"current_range_meters":6800,"station_id":"st_d3js3co5814s73ftftug","pricing_plan_id":"cebpf4jnsgd1na2vs0mg"},{"bike_id":"00480880-79e5-4a67-b696-233f0844d881","system_id":"levelo_inurba_marseille","lat":43.29976,"lon":5.37176,"is_reserved":false,"is_disabled":true,"rental_uris":{"android":"levelo://app?vid=00480880-79e5-4a67-b696-233f0844d881","ios":"levelo://app?vid=00480880-79e5-4a67-b696-233f0844d881"},"vehicle_type_id":"4","last_reported":1778957341,"current_range_meters":6800,"station_id":"ce4bgr92rcd13ifvqc7g","pricing_plan_id":"cebpf4jnsgd1na2vs0mg"},{"bike_id":"ec7fdaaa-0e9a-4c21-967e-3248b27d7d9a","system_id":"levelo_inurba_marseille","lat":43.29446,"lon":5.39743,"is_reserved":false,"is_disabled":false,"rental_uris":{"android":"levelo://app?vid=ec7fdaaa-0e9a-4c21-967e-3248b27d7d9a","ios":"levelo://app?vid=ec7fdaaa-0e9a-4c21-967e-3248b27d7d9a"},"vehicle_type_id":"4","last_reported":1778957341,"current_range_meters":6800,"station_id":"ce4bh3h2rcd13ifvqdo0","pricing_plan_id":"cebpf4jnsgd1na2vs0mg"},{"bike_id":"10537d83-7308-4519-8bf3-ad7abb836cf5","system_id":"levelo_inurba_marseille","lat":43.29239,"lon":5.36083,"is_reserved":false,"is_disabled":false,"rental_uris":{"android":"levelo://app?vid=10537d83-7308-4519-8bf3-ad7abb836cf5","ios":"levelo://app?vid=10537d83-7308-4519-8bf3-ad7abb836cf5"},"vehicle_type_id":"4","last_reported":1778957341,"current_range_meters":7200,"station_id":"ce4bhbh2rcd13ifvqeqg","pricing_plan_id":"cebpf4jnsgd1na2vs0mg"},{"bike_id":"2a3ac7f8-64fc-4afa-850e-4502c0fce337","system_id":"levelo_inurba_marseille","lat":43.22538,"lon":5.41659,"is_reserved":false,"is_disabled":false,"rental_uris":{"android":"levelo://app?vid=2a3ac7f8-64fc-4afa-850e-4502c0fce337","ios":"levelo://app?vid=2a3ac7f8-64fc-4afa-850e-4502c0fce337"},"vehicle_type_id":"4","last_reported":1778957341,"current_range_meters":7200,"station_id":"st_d2o4gvlbi1j2169b742g","pricing_plan_id":"cebpf4jnsgd1na2vs0mg"},{"bike_id":"b467cf52-e84d-42b9-ad71-bed97235ec79","system_id":"levelo_inurba_marseille","lat":43.29745,"lon":5.37688,"is_reserved":false,"is_disabled":false,"rental_uris":{"android":"levelo://app?vid=b467cf52-e84d-42b9-ad71-bed97235ec79","ios":"levelo://app?vid=b467cf52-e84d-42b9-ad71-bed97235ec79"},"vehicle_type_id":"4","last_reported":1778957341,"current_range_meters":7200,"station_id":"ce4bgkh2rcd13ifvqbl0","pricing_plan_id":"cebpf4jnsgd1na2vs0mg"},{"bike_id":"2da545b9-bb8e-4ab5-b671-d95a0178bece","system_id":"levelo_inurba_marseille","lat":43.290188,"lon":5.3813,"is_reserved":false,"is_disabled":false,"rental_uris":{"android":"levelo://app?vid=2da545b9-bb8e-4ab5-b671-d95a0178bece","ios":"levelo://app?vid=2da545b9-bb8e-4ab5-b671-d95a0178bece"},"vehicle_type_id":"4","last_reported":1778957341,"current_range_meters":7200,"station_id":"ce4bh4p2rcd13ifvqe1g","pricing_plan_id":"cebpf4jnsgd1na2vs0mg"},{"bike_id":"c091a819-21d8-46ac-8161-23f60b78cf02","system_id":"levelo_inurba_marseille","lat":43.27627,"lon":5.36124,"is_reserved":false,"is_disabled":true,"rental_uris":{"android":"levelo://app?vid=c091a819-21d8-46ac-8161-23f60b78cf02","ios":"levelo://app?vid=c091a819-21d8-46ac-8161-23f60b78cf02"},"vehicle_type_id":"4","last_reported":1778957341,"current_range_meters":7200,"station_id":"ce4bgj92rcd13ifvqbe0","pricing_plan_id":"cebpf4jnsgd1na2vs0mg"},{"bike_id":"614528d5-0976-4229-bef8-a4abb36ca88d","system_id":"levelo_inurba_marseille","lat":43.29229,"lon":5.36071,"is_reserved":false,"is_disabled":false,"rental_uris":{"android":"levelo://app?vid=614528d5-0976-4229-bef8-a4abb36ca88d","ios":"levelo://app?vid=614528d5-0976-4229-bef8-a4abb36ca88d"},"vehicle_type_id":"4","last_reported":1778957341,"current_range_meters":7200,"station_id":"ce4bhbh2rcd13ifvqeqg","pricing_plan_id":"cebpf4jnsgd1na2vs0mg"},{"bike_id":"016d0dc0-9df3-4062-86c6-9ad14f810408","system_id":"levelo_inurba_marseille","lat":43.28709,"lon":5.37926,"is_reserved":false,"is_disabled":false,"rental_uris":{"android":"levelo://app?vid=016d0dc0-9df3-4062-86c6-9ad14f810408","ios":"levelo://app?vid=016d0dc0-9df3-4062-86c6-9ad14f810408"},"vehicle_type_id":"4","last_reported":1778957341,"current_range_meters":7200,"station_id":"ce4bh9p2rcd13ifvqec0","pricing_plan_id":"cebpf4jnsgd1na2vs0mg"},{"bike_id":"4b22f082-7087-497e-a55a-c049ceb5380b","system_id":"levelo_inurba_marseille","lat":43.29317,"lon":5.37192,"is_reserved":false,"is_disabled":false,"rental_uris":{"android":"levelo://app?vid=4b22f082-7087-497e-a55a-c049ceb5380b","ios":"levelo://app?vid=4b22f082-7087-497e-a55a-c049ceb5380b"},"vehicle_type_id":"4","last_reported":1778957341,"current_range_meters":7200,"station_id":"ce4bgh92rcd13ifvqb40","pricing_plan_id":"cebpf4jnsgd1na2vs0mg"},{"bike_id":"0d193018-0254-4f96-b88b-a21a7585d4b9","system_id":"levelo_inurba_marseille","lat":43.29031,"lon":5.38635,"is_reserved":false,"is_disabled":false,"rental_uris":{"android":"levelo://app?vid=0d193018-0254-4f96-b88b-a21a7585d4b9","ios":"levelo://app?vid=0d193018-0254-4f96-b88b-a21a7585d4b9"},"vehicle_type_id":"4","last_reported":1778957341,"current_range_meters":7200,"station_id":"ce4bh4p2rcd13ifvqe0g","pricing_plan_id":"cebpf4jnsgd1na2vs0mg"},{"bike_id":"5c5f46c4-4783-4db3-849d-213c32a00419","system_id":"levelo_inurba_marseille","lat":43.30417,"lon":5.41299,"is_reserved":false,"is_disabled":false,"rental_uris":{"android":"levelo://app?vid=5c5f46c4-4783-4db3-849d-213c32a00419","ios":"levelo://app?vid=5c5f46c4-4783-4db3-849d-213c32a00419"},"vehicle_type_id":"4","last_reported":1778957341,"current_range_meters":7200,"station_id":"ce4bhop2rcd13ifvqh8g","pricing_plan_id":"cebpf4jnsgd1na2vs0mg"},{"bike_id":"9af6fe0c-8929-4ad0-aec8-aa13b9c3d6ee","system_id":"levelo_inurba_marseille","lat":43.28939,"lon":5.3663,"is_reserved":false,"is_disabled":false,"rental_uris":{"android":"levelo://app?vid=9af6fe0c-8929-4ad0-aec8-aa13b9c3d6ee","ios":"levelo://app?vid=9af6fe0c-8929-4ad0-aec8-aa13b9c3d6ee"},"vehicle_type_id":"4","last_reported":1778957341,"current_range_meters":7200,"station_id":"ce4bhap2rcd13ifvqek0","pricing_plan_id":"cebpf4jnsgd1na2vs0mg"},{"bike_id":"606ead28-943b-47c7-855d-741d94f3ec92","system_id":"levelo_inurba_marseille","lat":43.291945,"lon":5.393264,"is_reserved":false,"is_disabled":false,"rental_uris":{"android":"levelo://app?vid=606ead28-943b-47c7-855d-741d94f3ec92","ios":"levelo://app?vid=606ead28-943b-47c7-855d-741d94f3ec92"},"vehicle_type_id":"4","last_reported":1778957341,"current_range_meters":7200,"station_id":"ce4bh192rcd13ifvqdd0","pricing_plan_id":"cebpf4jnsgd1na2vs0mg"},{"bike_id":"378770a7-1a4e-4a1d-b694-214d3bfb3be7","system_id":"levelo_inurba_marseille","lat":43.28432,"lon":5.37528,"is_reserved":false,"is_disabled":false,"rental_uris":{"android":"levelo://app?vid=378770a7-1a4e-4a1d-b694-214d3bfb3be7","ios":"levelo://app?vid=378770a7-1a4e-4a1d-b694-214d3bfb3be7"},"vehicle_type_id":"4","last_reported":1778957341,"current_range_meters":7200,"station_id":"ce4bh412rcd13ifvqds0","pricing_plan_id":"cebpf4jnsgd1na2vs0mg"},{"bike_id":"6eefb60b-473f-48ba-9992-fcd9ff6e512c","system_id":"levelo_inurba_marseille","lat":43.29619,"lon":5.37729,"is_reserved":false,"is_disabled":false,"rental_uris":{"android":"levelo://app?vid=6eefb60b-473f-48ba-9992-fcd9ff6e512c","ios":"levelo://app?vid=6eefb60b-473f-48ba-9992-fcd9ff6e512c"},"vehicle_type_id":"4","last_reported":1778957341,"current_range_meters":7200,"station_id":"ce4bgi92rcd13ifvqb90","pricing_plan_id":"cebpf4jnsgd1na2vs0mg"},{"bike_id":"ef20a65f-19f4-4491-8360-61efaea0f2fe","system_id":"levelo_inurba_marseille","lat":43.27676,"lon":5.41409,"is_reserved":false,"is_disabled":false,"rental_uris":{"android":"levelo://app?vid=ef20a65f-19f4-4491-8360-61efaea0f2fe","ios":"levelo://app?vid=ef20a65f-19f4-4491-8360-61efaea0f2fe"},"vehicle_type_id":"4","last_reported":1778957341,"current_range_meters":7200,"station_id":"","pricing_plan_id":"cebpf4jnsgd1na2vs0mg"},{"bike_id":"82be4d5d-870e-4f9e-a871-131cc8383c06","system_id":"levelo_inurba_marseille","lat":43.292628,"lon":5.376239,"is_reserved":false,"is_disabled":false,"rental_uris":{"android":"levelo://app?vid=82be4d5d-870e-4f9e-a871-131cc8383c06","ios":"levelo://app?vid=82be4d5d-870e-4f9e-a871-131cc8383c06"},"vehicle_type_id":"4","last_reported":1778957341,"current_range_meters":7200,"station_id":"ce4bgi12rcd13ifvqb80","pricing_plan_id":"cebpf4jnsgd1na2vs0mg"},{"bike_id":"654c1863-cd9c-43ef-bfd4-ea2dd2f77909","system_id":"levelo_inurba_marseille","lat":43.29039,"lon":5.35916,"is_reserved":false,"is_disabled":false,"rental_uris":{"android":"levelo://app?vid=654c1863-cd9c-43ef-bfd4-ea2dd2f77909","ios":"levelo://app?vid=654c1863-cd9c-43ef-bfd4-ea2dd2f77909"},"vehicle_type_id":"4","last_reported":1778957341,"current_range_meters":7200,"station_id":"ce4bha92rcd13ifvqeg0","pricing_plan_id":"cebpf4jnsgd1na2vs0mg"},{"bike_id":"4ee69d41-30d6-469e-829a-74d2ce79aff4","system_id":"levelo_inurba_marseille","lat":43.33539,"lon":5.37465,"is_reserved":false,"is_disabled":false,"rental_uris":{"android":"levelo://app?vid=4ee69d41-30d6-469e-829a-74d2ce79aff4","ios":"levelo://app?vid=4ee69d41-30d6-469e-829a-74d2ce79aff4"},"vehicle_type_id":"4","last_reported":1778957341,"current_range_meters":7200,"station_id":"st_d46tts09ee8s73dlu43g","pricing_plan_id":"cebpf4jnsgd1na2vs0mg"},{"bike_id":"e5cb3494-ae6c-4e85-ae29-4626bb8c8a92","system_id":"levelo_inurba_marseille","lat":43.28654,"lon":5.36358,"is_reserved":false,"is_disabled":false,"rental_uris":{"android":"levelo://app?vid=e5cb3494-ae6c-4e85-ae29-4626bb8c8a92","ios":"levelo://app?vid=e5cb3494-ae6c-4e85-ae29-4626bb8c8a92"},"vehicle_type_id":"4","last_reported":1778957341,"current_range_meters":7200,"station_id":"ce4bhah2rcd13ifvqej0","pricing_plan_id":"cebpf4jnsgd1na2vs0mg"},{"bike_id":"c83b10ba-3d1b-4a9d-91eb-88d3d34af951","system_id":"levelo_inurba_marseille","lat":43.23792,"lon":5.36631,"is_reserved":false,"is_disabled":false,"rental_uris":{"android":"levelo://app?vid=c83b10ba-3d1b-4a9d-91eb-88d3d34af951","ios":"levelo://app?vid=c83b10ba-3d1b-4a9d-91eb-88d3d34af951"},"vehicle_type_id":"4","last_reported":1778957341,"current_range_meters":7200,"station_id":"st_d3nk18o9ro0c73en2l3g","pricing_plan_id":"cebpf4jnsgd1na2vs0mg"},{"bike_id":"edd5c786-8d24-46bc-bdcd-f0f00a11c1c1","system_id":"levelo_inurba_marseille","lat":43.25526,"lon":5.37655,"is_reserved":false,"is_disabled":true,"rental_uris":{"android":"levelo://app?vid=edd5c786-8d24-46bc-bdcd-f0f00a11c1c1","ios":"levelo://app?vid=edd5c786-8d24-46bc-bdcd-f0f00a11c1c1"},"vehicle_type_id":"4","last_reported":1778957341,"current_range_meters":7200,"station_id":"ce4bhh12rcd13ifvqff0","pricing_plan_id":"cebpf4jnsgd1na2vs0mg"},{"bike_id":"d3433423-a3cd-451e-bde2-27a5d2dcb262","system_id":"levelo_inurba_marseille","lat":43.29979,"lon":5.38484,"is_reserved":false,"is_disabled":false,"rental_uris":{"android":"levelo://app?vid=d3433423-a3cd-451e-bde2-27a5d2dcb262","ios":"levelo://app?vid=d3433423-a3cd-451e-bde2-27a5d2dcb262"},"vehicle_type_id":"4","last_reported":1778957341,"current_range_meters":7200,"station_id":"ce4bgj92rcd13ifvqbd0","pricing_plan_id":"cebpf4jnsgd1na2vs0mg"},{"bike_id":"b3b2d3bc-1d07-4e3c-a756-d626100f1929","system_id":"levelo_inurba_marseille","lat":43.29581,"lon":5.36738,"is_reserved":false,"is_disabled":false,"rental_uris":{"android":"levelo://app?vid=b3b2d3bc-1d07-4e3c-a756-d626100f1929","ios":"levelo://app?vid=b3b2d3bc-1d07-4e3c-a756-d626100f1929"},"vehicle_type_id":"4","last_reported":1778957341,"current_range_meters":7200,"station_id":"ce4bgph2rcd13ifvqc2g","pricing_plan_id":"cebpf4jnsgd1na2vs0mg"},{"bike_id":"cf49e217-dd6a-44e6-988a-25281bc6d03c","system_id":"levelo_inurba_marseille","lat":43.29267,"lon":5.38431,"is_reserved":false,"is_disabled":false,"rental_uris":{"android":"levelo://app?vid=cf49e217-dd6a-44e6-988a-25281bc6d03c","ios":"levelo://app?vid=cf49e217-dd6a-44e6-988a-25281bc6d03c"},"vehicle_type_id":"4","last_reported":1778957341,"current_range_meters":7200,"station_id":"ce4bh692rcd13ifvqea0","pricing_plan_id":"cebpf4jnsgd1na2vs0mg"},{"bike_id":"2e7d538e-9902-49c9-8f58-12bd165e01ab","system_id":"levelo_inurba_marseille","lat":43.281559,"lon":5.42642,"is_reserved":false,"is_disabled":false,"rental_uris":{"android":"levelo://app?vid=2e7d538e-9902-49c9-8f58-12bd165e01ab","ios":"levelo://app?vid=2e7d538e-9902-49c9-8f58-12bd165e01ab"},"vehicle_type_id":"4","last_reported":1778957341,"current_range_meters":7200,"station_id":"ce4bhnh2rcd13ifvqgug","pricing_plan_id":"cebpf4jnsgd1na2vs0mg"},{"bike_id":"1be47044-a515-4b7f-9fb0-44745bcacda2","system_id":"levelo_inurba_marseille","lat":43.22559,"lon":5.41649,"is_reserved":false,"is_disabled":false,"rental_uris":{"android":"levelo://app?vid=1be47044-a515-4b7f-9fb0-44745bcacda2","ios":"levelo://app?vid=1be47044-a515-4b7f-9fb0-44745bcacda2"},"vehicle_type_id":"4","last_reported":1778957341,"current_range_meters":7200,"station_id":"st_d2o4gvlbi1j2169b742g","pricing_plan_id":"cebpf4jnsgd1na2vs0mg"},{"bike_id":"97a62986-9365-4ea0-b0c6-9da7bdc97eda","system_id":"levelo_inurba_marseille","lat":43.24172,"lon":5.36378,"is_reserved":false,"is_disabled":false,"rental_uris":{"android":"levelo://app?vid=97a62986-9365-4ea0-b0c6-9da7bdc97eda","ios":"levelo://app?vid=97a62986-9365-4ea0-b0c6-9da7bdc97eda"},"vehicle_type_id":"4","last_reported":1778957341,"current_range_meters":7200,"station_id":"cpo36qri1sfpv3e86is0","pricing_plan_id":"cebpf4jnsgd1na2vs0mg"},{"bike_id":"fea54104-bb98-4d6d-b765-f71a537f5666","system_id":"levelo_inurba_marseille","lat":43.23536,"lon":5.40701,"is_reserved":false,"is_disabled":false,"rental_uris":{"android":"levelo://app?vid=fea54104-bb98-4d6d-b765-f71a537f5666","ios":"levelo://app?vid=fea54104-bb98-4d6d-b765-f71a537f5666"},"vehicle_type_id":"4","last_reported":1778957341,"current_range_meters":7200,"station_id":"","pricing_plan_id":"cebpf4jnsgd1na2vs0mg"},{"bike_id":"60c6a935-1a0e-4830-a2ad-3ab2b2e13e2d","system_id":"levelo_inurba_marseille","lat":43.30887,"lon":5.39651,"is_reserved":false,"is_disabled":false,"rental_uris":{"android":"levelo://app?vid=60c6a935-1a0e-4830-a2ad-3ab2b2e13e2d","ios":"levelo://app?vid=60c6a935-1a0e-4830-a2ad-3ab2b2e13e2d"},"vehicle_type_id":"4","last_reported":1778957341,"current_range_meters":7200,"station_id":"ce4bh012rcd13ifvqcv0","pricing_plan_id":"cebpf4jnsgd1na2vs0mg"},{"bike_id":"08ebbe47-56d6-4f1e-84ce-a00857dd8c93","system_id":"levelo_inurba_marseille","lat":43.27947,"lon":5.41042,"is_reserved":false,"is_disabled":false,"rental_uris":{"android":"levelo://app?vid=08ebbe47-56d6-4f1e-84ce-a00857dd8c93","ios":"levelo://app?vid=08ebbe47-56d6-4f1e-84ce-a00857dd8c93"},"vehicle_type_id":"4","last_reported":1778957341,"current_range_meters":7200,"station_id":"ce4bhnp2rcd13ifvqh0g","pricing_plan_id":"cebpf4jnsgd1na2vs0mg"},{"bike_id":"4ba23e49-cfc6-492f-907f-3849598ef453","system_id":"levelo_inurba_marseille","lat":43.24642,"lon":5.38909,"is_reserved":false,"is_disabled":false,"rental_uris":{"android":"levelo://app?vid=4ba23e49-cfc6-492f-907f-3849598ef453","ios":"levelo://app?vid=4ba23e49-cfc6-492f-907f-3849598ef453"},"vehicle_type_id":"4","last_reported":1778957341,"current_range_meters":7200,"station_id":"ce4bhg12rcd13ifvqf60","pricing_plan_id":"cebpf4jnsgd1na2vs0mg"},{"bike_id":"c81abe82-26e7-4139-8c31-76d965e54652","system_id":"levelo_inurba_marseille","lat":43.2927,"lon":5.3685,"is_reserved":false,"is_disabled":false,"rental_uris":{"android":"levelo://app?vid=c81abe82-26e7-4139-8c31-76d965e54652","ios":"levelo://app?vid=c81abe82-26e7-4139-8c31-76d965e54652"},"vehicle_type_id":"4","last_reported":1778957341,"current_range_meters":7200,"station_id":"ce4bhbp2rcd13ifvqesg","pricing_plan_id":"cebpf4jnsgd1na2vs0mg"},{"bike_id":"4444a3e5-48bf-4476-a5dd-a76d05e5982c","system_id":"levelo_inurba_marseille","lat":43.281,"lon":5.37837,"is_reserved":false,"is_disabled":false,"rental_uris":{"android":"levelo://app?vid=4444a3e5-48bf-4476-a5dd-a76d05e5982c","ios":"levelo://app?vid=4444a3e5-48bf-4476-a5dd-a76d05e5982c"},"vehicle_type_id":"4","last_reported":1778957341,"current_range_meters":8000,"station_id":"ce4bha12rcd13ifvqee0","pricing_plan_id":"cebpf4jnsgd1na2vs0mg"},{"bike_id":"a773650a-7c22-432a-a05a-af2b3f7af6fb","system_id":"levelo_inurba_marseille","lat":43.29589,"lon":5.37505,"is_reserved":false,"is_disabled":true,"rental_uris":{"android":"levelo://app?vid=a773650a-7c22-432a-a05a-af2b3f7af6fb","ios":"levelo://app?vid=a773650a-7c22-432a-a05a-af2b3f7af6fb"},"vehicle_type_id":"4","last_reported":1778957341,"current_range_meters":8000,"station_id":"ce4bgh92rcd13ifvqb50","pricing_plan_id":"cebpf4jnsgd1na2vs0mg"},{"bike_id":"df3b4c65-b594-43d2-9619-bf34b1560986","system_id":"levelo_inurba_marseille","lat":43.33553,"lon":5.37466,"is_reserved":false,"is_disabled":false,"rental_uris":{"android":"levelo://app?vid=df3b4c65-b594-43d2-9619-bf34b1560986","ios":"levelo://app?vid=df3b4c65-b594-43d2-9619-bf34b1560986"},"vehicle_type_id":"4","last_reported":1778957341,"current_range_meters":8000,"station_id":"st_d46tts09ee8s73dlu43g","pricing_plan_id":"cebpf4jnsgd1na2vs0mg"},{"bike_id":"e35689ba-9ae6-4446-b4fc-af710d9d9cf0","system_id":"levelo_inurba_marseille","lat":43.29007,"lon":5.35612,"is_reserved":false,"is_disabled":false,"rental_uris":{"android":"levelo://app?vid=e35689ba-9ae6-4446-b4fc-af710d9d9cf0","ios":"levelo://app?vid=e35689ba-9ae6-4446-b4fc-af710d9d9cf0"},"vehicle_type_id":"4","last_reported":1778957341,"current_range_meters":8000,"station_id":"ce4bhb92rcd13ifvqen0","pricing_plan_id":"cebpf4jnsgd1na2vs0mg"},{"bike_id":"a1475d99-48d4-492a-9346-7b6c84ba6610","system_id":"levelo_inurba_marseille","lat":43.25097,"lon":5.39507,"is_reserved":false,"is_disabled":false,"rental_uris":{"android":"levelo://app?vid=a1475d99-48d4-492a-9346-7b6c84ba6610","ios":"levelo://app?vid=a1475d99-48d4-492a-9346-7b6c84ba6610"},"vehicle_type_id":"4","last_reported":1778957341,"current_range_meters":8000,"station_id":"ce4bhm12rcd13ifvqgkg","pricing_plan_id":"cebpf4jnsgd1na2vs0mg"},{"bike_id":"7c9517e3-38cb-4a87-948b-926583eebece","system_id":"levelo_inurba_marseille","lat":43.21207,"lon":5.35075,"is_reserved":false,"is_disabled":false,"rental_uris":{"android":"levelo://app?vid=7c9517e3-38cb-4a87-948b-926583eebece","ios":"levelo://app?vid=7c9517e3-38cb-4a87-948b-926583eebece"},"vehicle_type_id":"4","last_reported":1778957341,"current_range_meters":8000,"station_id":"st_cvj6sg6p6f1abm77japg","pricing_plan_id":"cebpf4jnsgd1na2vs0mg"},{"bike_id":"47fc4f53-d3e1-4e95-9bb3-3f4376a680be","system_id":"levelo_inurba_marseille","lat":43.3012,"lon":5.43124,"is_reserved":false,"is_disabled":false,"rental_uris":{"android":"levelo://app?vid=47fc4f53-d3e1-4e95-9bb3-3f4376a680be","ios":"levelo://app?vid=47fc4f53-d3e1-4e95-9bb3-3f4376a680be"},"vehicle_type_id":"4","last_reported":1778957341,"current_range_meters":8000,"station_id":"st_d3js3co5814s73ftftug","pricing_plan_id":"cebpf4jnsgd1na2vs0mg"},{"bike_id":"49dadafa-c6e9-4f0e-9d08-d33924079b0d","system_id":"levelo_inurba_marseille","lat":43.29962,"lon":5.38494,"is_reserved":false,"is_disabled":false,"rental_uris":{"android":"levelo://app?vid=49dadafa-c6e9-4f0e-9d08-d33924079b0d","ios":"levelo://app?vid=49dadafa-c6e9-4f0e-9d08-d33924079b0d"},"vehicle_type_id":"4","last_reported":1778957341,"current_range_meters":8000,"station_id":"ce4bgj92rcd13ifvqbd0","pricing_plan_id":"cebpf4jnsgd1na2vs0mg"},{"bike_id":"838dedee-4cbd-4997-9d32-b652b1084416","system_id":"levelo_inurba_marseille","lat":43.28611,"lon":5.35103,"is_reserved":false,"is_disabled":false,"rental_uris":{"android":"levelo://app?vid=838dedee-4cbd-4997-9d32-b652b1084416","ios":"levelo://app?vid=838dedee-4cbd-4997-9d32-b652b1084416"},"vehicle_type_id":"4","last_reported":1778957341,"current_range_meters":8000,"station_id":"ce4bhch2rcd13ifvqeug","pricing_plan_id":"cebpf4jnsgd1na2vs0mg"},{"bike_id":"48d53d2f-d2f3-4cf3-a9a1-cf377d0919ac","system_id":"levelo_inurba_marseille","lat":43.28624,"lon":5.37056,"is_reserved":false,"is_disabled":false,"rental_uris":{"android":"levelo://app?vid=48d53d2f-d2f3-4cf3-a9a1-cf377d0919ac","ios":"levelo://app?vid=48d53d2f-d2f3-4cf3-a9a1-cf377d0919ac"},"vehicle_type_id":"4","last_reported":1778957341,"current_range_meters":8000,"station_id":"ce4bht12rcd13ifvqi60","pricing_plan_id":"cebpf4jnsgd1na2vs0mg"},{"bike_id":"1e99e74e-015a-4ce3-a1c2-3e0cc973a8f3","system_id":"levelo_inurba_marseille","lat":43.25497,"lon":5.37651,"is_reserved":false,"is_disabled":false,"rental_uris":{"android":"levelo://app?vid=1e99e74e-015a-4ce3-a1c2-3e0cc973a8f3","ios":"levelo://app?vid=1e99e74e-015a-4ce3-a1c2-3e0cc973a8f3"},"vehicle_type_id":"4","last_reported":1778957341,"current_range_meters":8000,"station_id":"ce4bhh12rcd13ifvqff0","pricing_plan_id":"cebpf4jnsgd1na2vs0mg"},{"bike_id":"85c9b3bc-3349-474f-9928-8405bc9bc24d","system_id":"levelo_inurba_marseille","lat":43.28622,"lon":5.35102,"is_reserved":false,"is_disabled":false,"rental_uris":{"android":"levelo://app?vid=85c9b3bc-3349-474f-9928-8405bc9bc24d","ios":"levelo://app?vid=85c9b3bc-3349-474f-9928-8405bc9bc24d"},"vehicle_type_id":"4","last_reported":1778957341,"current_range_meters":8000,"station_id":"ce4bhch2rcd13ifvqeug","pricing_plan_id":"cebpf4jnsgd1na2vs0mg"},{"bike_id":"82322331-56b4-44d1-be28-7c65c872a888","system_id":"levelo_inurba_marseille","lat":43.25,"lon":5.38925,"is_reserved":false,"is_disabled":false,"rental_uris":{"android":"levelo://app?vid=82322331-56b4-44d1-be28-7c65c872a888","ios":"levelo://app?vid=82322331-56b4-44d1-be28-7c65c872a888"},"vehicle_type_id":"4","last_reported":1778957341,"current_range_meters":8000,"station_id":"ce4bhgp2rcd13ifvqfd0","pricing_plan_id":"cebpf4jnsgd1na2vs0mg"},{"bike_id":"fbd708f6-ed41-4a19-88a2-03178efd9995","system_id":"levelo_inurba_marseille","lat":43.29973,"lon":5.38474,"is_reserved":false,"is_disabled":false,"rental_uris":{"android":"levelo://app?vid=fbd708f6-ed41-4a19-88a2-03178efd9995","ios":"levelo://app?vid=fbd708f6-ed41-4a19-88a2-03178efd9995"},"vehicle_type_id":"4","last_reported":1778957341,"current_range_meters":8000,"station_id":"ce4bgj92rcd13ifvqbd0","pricing_plan_id":"cebpf4jnsgd1na2vs0mg"},{"bike_id":"183ecbf2-1487-4e31-a0b0-97fce68bdb3c","system_id":"levelo_inurba_marseille","lat":43.31364,"lon":5.38499,"is_reserved":false,"is_disabled":false,"rental_uris":{"android":"levelo://app?vid=183ecbf2-1487-4e31-a0b0-97fce68bdb3c","ios":"levelo://app?vid=183ecbf2-1487-4e31-a0b0-97fce68bdb3c"},"vehicle_type_id":"4","last_reported":1778957341,"current_range_meters":8000,"station_id":"ce4bgt92rcd13ifvqcf0","pricing_plan_id":"cebpf4jnsgd1na2vs0mg"},{"bike_id":"e6de9889-d490-4a2a-86a6-518caa757cec","system_id":"levelo_inurba_marseille","lat":43.25086,"lon":5.3952,"is_reserved":false,"is_disabled":false,"rental_uris":{"android":"levelo://app?vid=e6de9889-d490-4a2a-86a6-518caa757cec","ios":"levelo://app?vid=e6de9889-d490-4a2a-86a6-518caa757cec"},"vehicle_type_id":"4","last_reported":1778957341,"current_range_meters":8000,"station_id":"ce4bhm12rcd13ifvqgkg","pricing_plan_id":"cebpf4jnsgd1na2vs0mg"},{"bike_id":"dace259d-e3eb-491e-95dc-863daa176674","system_id":"levelo_inurba_marseille","lat":43.2417,"lon":5.36392,"is_reserved":false,"is_disabled":false,"rental_uris":{"android":"levelo://app?vid=dace259d-e3eb-491e-95dc-863daa176674","ios":"levelo://app?vid=dace259d-e3eb-491e-95dc-863daa176674"},"vehicle_type_id":"4","last_reported":1778957341,"current_range_meters":8000,"station_id":"cpo36qri1sfpv3e86is0","pricing_plan_id":"cebpf4jnsgd1na2vs0mg"},{"bike_id":"72ffcce3-98f7-4d69-8e98-22fece3ee328","system_id":"levelo_inurba_marseille","lat":43.23199,"lon":5.35543,"is_reserved":false,"is_disabled":false,"rental_uris":{"android":"levelo://app?vid=72ffcce3-98f7-4d69-8e98-22fece3ee328","ios":"levelo://app?vid=72ffcce3-98f7-4d69-8e98-22fece3ee328"},"vehicle_type_id":"4","last_reported":1778957341,"current_range_meters":8000,"station_id":"ce4bhu92rcd13ifvqi70","pricing_plan_id":"cebpf4jnsgd1na2vs0mg"},{"bike_id":"a6b3f9d9-0754-4195-826c-0c4f741d86fd","system_id":"levelo_inurba_marseille","lat":43.24393,"lon":5.37056,"is_reserved":false,"is_disabled":false,"rental_uris":{"android":"levelo://app?vid=a6b3f9d9-0754-4195-826c-0c4f741d86fd","ios":"levelo://app?vid=a6b3f9d9-0754-4195-826c-0c4f741d86fd"},"vehicle_type_id":"4","last_reported":1778957341,"current_range_meters":8000,"station_id":"ce4bhhh2rcd13ifvqfk0","pricing_plan_id":"cebpf4jnsgd1na2vs0mg"},{"bike_id":"0f3bf8ee-36cb-4513-a4d9-aa1087f3791b","system_id":"levelo_inurba_marseille","lat":43.29906,"lon":5.37471,"is_reserved":false,"is_disabled":false,"rental_uris":{"android":"levelo://app?vid=0f3bf8ee-36cb-4513-a4d9-aa1087f3791b","ios":"levelo://app?vid=0f3bf8ee-36cb-4513-a4d9-aa1087f3791b"},"vehicle_type_id":"4","last_reported":1778957341,"current_range_meters":8000,"station_id":"ce4bgjh2rcd13ifvqbg0","pricing_plan_id":"cebpf4jnsgd1na2vs0mg"},{"bike_id":"5cce7bec-405f-4dd8-9c99-39fd91625b45","system_id":"levelo_inurba_marseille","lat":43.28613,"lon":5.35084,"is_reserved":false,"is_disabled":false,"rental_uris":{"android":"levelo://app?vid=5cce7bec-405f-4dd8-9c99-39fd91625b45","ios":"levelo://app?vid=5cce7bec-405f-4dd8-9c99-39fd91625b45"},"vehicle_type_id":"4","last_reported":1778957341,"current_range_meters":8000,"station_id":"ce4bhch2rcd13ifvqeug","pricing_plan_id":"cebpf4jnsgd1na2vs0mg"},{"bike_id":"9ff57922-59f8-44bb-8618-6ddadf8235bc","system_id":"levelo_inurba_marseille","lat":43.30164,"lon":5.37378,"is_reserved":false,"is_disabled":false,"rental_uris":{"android":"levelo://app?vid=9ff57922-59f8-44bb-8618-6ddadf8235bc","ios":"levelo://app?vid=9ff57922-59f8-44bb-8618-6ddadf8235bc"},"vehicle_type_id":"4","last_reported":1778957341,"current_range_meters":8000,"station_id":"ce4bgs92rcd13ifvqcc0","pricing_plan_id":"cebpf4jnsgd1na2vs0mg"},{"bike_id":"23c89db2-3379-4954-bc52-79e3a03adb59","system_id":"levelo_inurba_marseille","lat":43.27367,"lon":5.36248,"is_reserved":false,"is_disabled":false,"rental_uris":{"android":"levelo://app?vid=23c89db2-3379-4954-bc52-79e3a03adb59","ios":"levelo://app?vid=23c89db2-3379-4954-bc52-79e3a03adb59"},"vehicle_type_id":"4","last_reported":1778957341,"current_range_meters":8000,"station_id":"ce4bhbh2rcd13ifvqeo0","pricing_plan_id":"cebpf4jnsgd1na2vs0mg"},{"bike_id":"0ffdfa76-348b-4766-a53b-889a0cc53c17","system_id":"levelo_inurba_marseille","lat":43.3245,"lon":5.36622,"is_reserved":false,"is_disabled":false,"rental_uris":{"android":"levelo://app?vid=0ffdfa76-348b-4766-a53b-889a0cc53c17","ios":"levelo://app?vid=0ffdfa76-348b-4766-a53b-889a0cc53c17"},"vehicle_type_id":"4","last_reported":1778957341,"current_range_meters":8000,"station_id":"","pricing_plan_id":"cebpf4jnsgd1na2vs0mg"},{"bike_id":"3df61ade-730f-4881-8a94-144499573d58","system_id":"levelo_inurba_marseille","lat":43.28348,"lon":5.38101,"is_reserved":false,"is_disabled":false,"rental_uris":{"android":"levelo://app?vid=3df61ade-730f-4881-8a94-144499573d58","ios":"levelo://app?vid=3df61ade-730f-4881-8a94-144499573d58"},"vehicle_type_id":"4","last_reported":1778957341,"current_range_meters":8000,"station_id":"ce4bh412rcd13ifvqdr0","pricing_plan_id":"cebpf4jnsgd1na2vs0mg"},{"bike_id":"98e7b7fe-6647-4a9e-8605-fac04f87e942","system_id":"levelo_inurba_marseille","lat":43.29592,"lon":5.37732,"is_reserved":false,"is_disabled":false,"rental_uris":{"android":"levelo://app?vid=98e7b7fe-6647-4a9e-8605-fac04f87e942","ios":"levelo://app?vid=98e7b7fe-6647-4a9e-8605-fac04f87e942"},"vehicle_type_id":"4","last_reported":1778957341,"current_range_meters":8400,"station_id":"ce4bgi92rcd13ifvqb90","pricing_plan_id":"cebpf4jnsgd1na2vs0mg"},{"bike_id":"d2e9e508-7d37-4da5-aa69-479dffead3b5","system_id":"levelo_inurba_marseille","lat":43.29537,"lon":5.38546,"is_reserved":false,"is_disabled":false,"rental_uris":{"android":"levelo://app?vid=d2e9e508-7d37-4da5-aa69-479dffead3b5","ios":"levelo://app?vid=d2e9e508-7d37-4da5-aa69-479dffead3b5"},"vehicle_type_id":"4","last_reported":1778957341,"current_range_meters":8400,"station_id":"ce4bgih2rcd13ifvqba0","pricing_plan_id":"cebpf4jnsgd1na2vs0mg"},{"bike_id":"ed8b9caf-da29-4c6c-b8b8-2bb3a2494930","system_id":"levelo_inurba_marseille","lat":43.22562,"lon":5.41649,"is_reserved":false,"is_disabled":false,"rental_uris":{"android":"levelo://app?vid=ed8b9caf-da29-4c6c-b8b8-2bb3a2494930","ios":"levelo://app?vid=ed8b9caf-da29-4c6c-b8b8-2bb3a2494930"},"vehicle_type_id":"4","last_reported":1778957341,"current_range_meters":8400,"station_id":"st_d2o4gvlbi1j2169b742g","pricing_plan_id":"cebpf4jnsgd1na2vs0mg"},{"bike_id":"03b692ed-27df-4348-8e38-0c47a75d5d57","system_id":"levelo_inurba_marseille","lat":43.29536,"lon":5.3853,"is_reserved":false,"is_disabled":false,"rental_uris":{"android":"levelo://app?vid=03b692ed-27df-4348-8e38-0c47a75d5d57","ios":"levelo://app?vid=03b692ed-27df-4348-8e38-0c47a75d5d57"},"vehicle_type_id":"4","last_reported":1778957341,"current_range_meters":8400,"station_id":"ce4bgih2rcd13ifvqba0","pricing_plan_id":"cebpf4jnsgd1na2vs0mg"},{"bike_id":"31810c35-18ad-4ea3-9c10-af8cc483949c","system_id":"levelo_inurba_marseille","lat":43.25532,"lon":5.38272,"is_reserved":false,"is_disabled":false,"rental_uris":{"android":"levelo://app?vid=31810c35-18ad-4ea3-9c10-af8cc483949c","ios":"levelo://app?vid=31810c35-18ad-4ea3-9c10-af8cc483949c"},"vehicle_type_id":"4","last_reported":1778957341,"current_range_meters":8400,"station_id":"","pricing_plan_id":"cebpf4jnsgd1na2vs0mg"},{"bike_id":"898ea1b1-38c7-4a45-9b94-20d8ecc43cb6","system_id":"levelo_inurba_marseille","lat":43.24807,"lon":5.37468,"is_reserved":false,"is_disabled":false,"rental_uris":{"android":"levelo://app?vid=898ea1b1-38c7-4a45-9b94-20d8ecc43cb6","ios":"levelo://app?vid=898ea1b1-38c7-4a45-9b94-20d8ecc43cb6"},"vehicle_type_id":"4","last_reported":1778957341,"current_range_meters":8400,"station_id":"ce4bhgh2rcd13ifvqfb0","pricing_plan_id":"cebpf4jnsgd1na2vs0mg"},{"bike_id":"046b7506-82fe-4d87-823a-3d7d55ff0981","system_id":"levelo_inurba_marseille","lat":43.28842,"lon":5.3585,"is_reserved":false,"is_disabled":false,"rental_uris":{"android":"levelo://app?vid=046b7506-82fe-4d87-823a-3d7d55ff0981","ios":"levelo://app?vid=046b7506-82fe-4d87-823a-3d7d55ff0981"},"vehicle_type_id":"4","last_reported":1778957341,"current_range_meters":8400,"station_id":"ce4bhb12rcd13ifvqem0","pricing_plan_id":"cebpf4jnsgd1na2vs0mg"},{"bike_id":"0d50daf1-0ebe-4070-a3f4-50a2aaf9e668","system_id":"levelo_inurba_marseille","lat":43.24543,"lon":5.39529,"is_reserved":false,"is_disabled":true,"rental_uris":{"android":"levelo://app?vid=0d50daf1-0ebe-4070-a3f4-50a2aaf9e668","ios":"levelo://app?vid=0d50daf1-0ebe-4070-a3f4-50a2aaf9e668"},"vehicle_type_id":"4","last_reported":1778957341,"current_range_meters":8400,"station_id":"ce4bhlp2rcd13ifvqgjg","pricing_plan_id":"cebpf4jnsgd1na2vs0mg"},{"bike_id":"37ca5b86-b3d0-4bc0-80e9-3ce47d4dd8d3","system_id":"levelo_inurba_marseille","lat":43.23898,"lon":5.37456,"is_reserved":false,"is_disabled":false,"rental_uris":{"android":"levelo://app?vid=37ca5b86-b3d0-4bc0-80e9-3ce47d4dd8d3","ios":"levelo://app?vid=37ca5b86-b3d0-4bc0-80e9-3ce47d4dd8d3"},"vehicle_type_id":"4","last_reported":1778957341,"current_range_meters":8400,"station_id":"st_d6sm7csbq4hs73f8fpjg","pricing_plan_id":"cebpf4jnsgd1na2vs0mg"},{"bike_id":"6ea257e9-ce11-4d49-a2f8-fd99dac0cf24","system_id":"levelo_inurba_marseille","lat":43.24637,"lon":5.38175,"is_reserved":false,"is_disabled":false,"rental_uris":{"android":"levelo://app?vid=6ea257e9-ce11-4d49-a2f8-fd99dac0cf24","ios":"levelo://app?vid=6ea257e9-ce11-4d49-a2f8-fd99dac0cf24"},"vehicle_type_id":"4","last_reported":1778957341,"current_range_meters":8400,"station_id":"ce4bhih2rcd13ifvqfr0","pricing_plan_id":"cebpf4jnsgd1na2vs0mg"},{"bike_id":"67ccb857-92da-48d4-97af-9df5ebe29c07","system_id":"levelo_inurba_marseille","lat":43.32503,"lon":5.3831,"is_reserved":false,"is_disabled":false,"rental_uris":{"android":"levelo://app?vid=67ccb857-92da-48d4-97af-9df5ebe29c07","ios":"levelo://app?vid=67ccb857-92da-48d4-97af-9df5ebe29c07"},"vehicle_type_id":"4","last_reported":1778957341,"current_range_meters":8400,"station_id":"st_d4asgbiv49dc73anf9m0","pricing_plan_id":"cebpf4jnsgd1na2vs0mg"},{"bike_id":"39f5e5e3-bdaa-431e-ab82-46a06c8cb2ae","system_id":"levelo_inurba_marseille","lat":43.24481,"lon":5.4254,"is_reserved":false,"is_disabled":false,"rental_uris":{"android":"levelo://app?vid=39f5e5e3-bdaa-431e-ab82-46a06c8cb2ae","ios":"levelo://app?vid=39f5e5e3-bdaa-431e-ab82-46a06c8cb2ae"},"vehicle_type_id":"4","last_reported":1778957341,"current_range_meters":8400,"station_id":"st_d4a3vfp97mjs738cd8kg","pricing_plan_id":"cebpf4jnsgd1na2vs0mg"},{"bike_id":"c84fc4bd-7af5-4e21-a39e-4276acf5ede9","system_id":"levelo_inurba_marseille","lat":43.23195,"lon":5.39985,"is_reserved":false,"is_disabled":false,"rental_uris":{"android":"levelo://app?vid=c84fc4bd-7af5-4e21-a39e-4276acf5ede9","ios":"levelo://app?vid=c84fc4bd-7af5-4e21-a39e-4276acf5ede9"},"vehicle_type_id":"4","last_reported":1778957341,"current_range_meters":8400,"station_id":"ce4bhn12rcd13ifvqgqg","pricing_plan_id":"cebpf4jnsgd1na2vs0mg"},{"bike_id":"07bb602c-b651-44d3-b1b7-43a373bab30c","system_id":"levelo_inurba_marseille","lat":43.30794,"lon":5.37646,"is_reserved":false,"is_disabled":false,"rental_uris":{"android":"levelo://app?vid=07bb602c-b651-44d3-b1b7-43a373bab30c","ios":"levelo://app?vid=07bb602c-b651-44d3-b1b7-43a373bab30c"},"vehicle_type_id":"4","last_reported":1778957341,"current_range_meters":8400,"station_id":"ce4bgv92rcd13ifvqcq0","pricing_plan_id":"cebpf4jnsgd1na2vs0mg"},{"bike_id":"1f255333-0dee-46a8-8f6a-ce22f3ff59bd","system_id":"levelo_inurba_marseille","lat":43.22532,"lon":5.34833,"is_reserved":false,"is_disabled":true,"rental_uris":{"android":"levelo://app?vid=1f255333-0dee-46a8-8f6a-ce22f3ff59bd","ios":"levelo://app?vid=1f255333-0dee-46a8-8f6a-ce22f3ff59bd"},"vehicle_type_id":"4","last_reported":1778957341,"current_range_meters":8400,"station_id":"st_cvj5dfep6f1abm77gieg","pricing_plan_id":"cebpf4jnsgd1na2vs0mg"},{"bike_id":"ee51b083-ba62-43a1-8a0a-7eff9e26d1d2","system_id":"levelo_inurba_marseille","lat":43.24666,"lon":5.38153,"is_reserved":false,"is_disabled":false,"rental_uris":{"android":"levelo://app?vid=ee51b083-ba62-43a1-8a0a-7eff9e26d1d2","ios":"levelo://app?vid=ee51b083-ba62-43a1-8a0a-7eff9e26d1d2"},"vehicle_type_id":"4","last_reported":1778957341,"current_range_meters":8400,"station_id":"ce4bhih2rcd13ifvqfr0","pricing_plan_id":"cebpf4jnsgd1na2vs0mg"},{"bike_id":"41ed03a9-ce21-4903-a810-ca307a88c332","system_id":"levelo_inurba_marseille","lat":43.26181,"lon":5.40462,"is_reserved":false,"is_disabled":false,"rental_uris":{"android":"levelo://app?vid=41ed03a9-ce21-4903-a810-ca307a88c332","ios":"levelo://app?vid=41ed03a9-ce21-4903-a810-ca307a88c332"},"vehicle_type_id":"4","last_reported":1778957341,"current_range_meters":8400,"station_id":"ce4bhmh2rcd13ifvqgmg","pricing_plan_id":"cebpf4jnsgd1na2vs0mg"},{"bike_id":"5777b242-d980-4abe-980a-715bb7d2be51","system_id":"levelo_inurba_marseille","lat":43.23972,"lon":5.36629,"is_reserved":false,"is_disabled":false,"rental_uris":{"android":"levelo://app?vid=5777b242-d980-4abe-980a-715bb7d2be51","ios":"levelo://app?vid=5777b242-d980-4abe-980a-715bb7d2be51"},"vehicle_type_id":"4","last_reported":1778957341,"current_range_meters":8400,"station_id":"ce4bhi12rcd13ifvqfp0","pricing_plan_id":"cebpf4jnsgd1na2vs0mg"},{"bike_id":"797f77b6-8d32-444c-9e6c-9923efe757ff","system_id":"levelo_inurba_marseille","lat":43.29254,"lon":5.38452,"is_reserved":false,"is_disabled":false,"rental_uris":{"android":"levelo://app?vid=797f77b6-8d32-444c-9e6c-9923efe757ff","ios":"levelo://app?vid=797f77b6-8d32-444c-9e6c-9923efe757ff"},"vehicle_type_id":"4","last_reported":1778957341,"current_range_meters":8400,"station_id":"ce4bh692rcd13ifvqea0","pricing_plan_id":"cebpf4jnsgd1na2vs0mg"},{"bike_id":"f0908256-e45c-4db8-a608-0c759cabd932","system_id":"levelo_inurba_marseille","lat":43.2835,"lon":5.38104,"is_reserved":false,"is_disabled":false,"rental_uris":{"android":"levelo://app?vid=f0908256-e45c-4db8-a608-0c759cabd932","ios":"levelo://app?vid=f0908256-e45c-4db8-a608-0c759cabd932"},"vehicle_type_id":"4","last_reported":1778957341,"current_range_meters":8400,"station_id":"ce4bh412rcd13ifvqdr0","pricing_plan_id":"cebpf4jnsgd1na2vs0mg"},{"bike_id":"764d1c91-017a-41c6-ae1e-736f718f8def","system_id":"levelo_inurba_marseille","lat":43.28616,"lon":5.37072,"is_reserved":false,"is_disabled":false,"rental_uris":{"android":"levelo://app?vid=764d1c91-017a-41c6-ae1e-736f718f8def","ios":"levelo://app?vid=764d1c91-017a-41c6-ae1e-736f718f8def"},"vehicle_type_id":"4","last_reported":1778957341,"current_range_meters":8400,"station_id":"ce4bht12rcd13ifvqi60","pricing_plan_id":"cebpf4jnsgd1na2vs0mg"},{"bike_id":"244ac71c-a0f8-4632-b8b1-678b0e1b864d","system_id":"levelo_inurba_marseille","lat":43.30571,"lon":5.38412,"is_reserved":false,"is_disabled":false,"rental_uris":{"android":"levelo://app?vid=244ac71c-a0f8-4632-b8b1-678b0e1b864d","ios":"levelo://app?vid=244ac71c-a0f8-4632-b8b1-678b0e1b864d"},"vehicle_type_id":"4","last_reported":1778957341,"current_range_meters":8400,"station_id":"ce4bgg92rcd13ifvqb30","pricing_plan_id":"cebpf4jnsgd1na2vs0mg"},{"bike_id":"a543d30c-44a1-42ad-aa01-ca660ea8aca4","system_id":"levelo_inurba_marseille","lat":43.27492,"lon":5.40813,"is_reserved":false,"is_disabled":false,"rental_uris":{"android":"levelo://app?vid=a543d30c-44a1-42ad-aa01-ca660ea8aca4","ios":"levelo://app?vid=a543d30c-44a1-42ad-aa01-ca660ea8aca4"},"vehicle_type_id":"4","last_reported":1778957341,"current_range_meters":8400,"station_id":"","pricing_plan_id":"cebpf4jnsgd1na2vs0mg"},{"bike_id":"a9c4cf58-eff3-46f4-8aa3-83491b171b4a","system_id":"levelo_inurba_marseille","lat":43.2738,"lon":5.36275,"is_reserved":false,"is_disabled":false,"rental_uris":{"android":"levelo://app?vid=a9c4cf58-eff3-46f4-8aa3-83491b171b4a","ios":"levelo://app?vid=a9c4cf58-eff3-46f4-8aa3-83491b171b4a"},"vehicle_type_id":"4","last_reported":1778957341,"current_range_meters":8400,"station_id":"ce4bhbh2rcd13ifvqeo0","pricing_plan_id":"cebpf4jnsgd1na2vs0mg"},{"bike_id":"1d8c5450-b560-44ab-b318-4a0a4198ea39","system_id":"levelo_inurba_marseille","lat":43.29532,"lon":5.38552,"is_reserved":false,"is_disabled":false,"rental_uris":{"android":"levelo://app?vid=1d8c5450-b560-44ab-b318-4a0a4198ea39","ios":"levelo://app?vid=1d8c5450-b560-44ab-b318-4a0a4198ea39"},"vehicle_type_id":"4","last_reported":1778957341,"current_range_meters":8400,"station_id":"ce4bgih2rcd13ifvqba0","pricing_plan_id":"cebpf4jnsgd1na2vs0mg"},{"bike_id":"3f1faf73-9b66-43db-85c9-aba80f1258f7","system_id":"levelo_inurba_marseille","lat":43.29849,"lon":5.36286,"is_reserved":false,"is_disabled":false,"rental_uris":{"android":"levelo://app?vid=3f1faf73-9b66-43db-85c9-aba80f1258f7","ios":"levelo://app?vid=3f1faf73-9b66-43db-85c9-aba80f1258f7"},"vehicle_type_id":"4","last_reported":1778957341,"current_range_meters":8400,"station_id":"ce4bgpp2rcd13ifvqc3g","pricing_plan_id":"cebpf4jnsgd1na2vs0mg"},