{"last_updated":1737475854,"ttl":60,"version":"2.2","data":{"bikes":[{"bike_id":"b74b855a-0a8e-44e1-aa63-99dc34613857","system_id":"levelo_inurba_marseille","lat":43.29891,"lon":5.43664,"is_reserved":false,"is_disabled":false,"rental_uris":{"android":"levelo://app?vid=b74b855a-0a8e-44e1-aa63-99dc34613857","ios":"levelo://app?vid=b74b855a-0a8e-44e1-aa63-99dc34613857"},"vehicle_type_id":"4","last_reported":1737475854,"current_range_meters":28400,"station_id":"ce4bhpp2rcd13ifvqhfg","pricing_plan_id":"cebpf4jnsgd1na2vs0mg"},{"bike_id":"689dda7a-7032-4dcd-8149-6c95173bb231","system_id":"levelo_inurba_marseille","lat":43.30493,"lon":5.36564,"is_reserved":false,"is_disabled":false,"rental_uris":{"android":"levelo://app?vid=689dda7a-7032-4dcd-8149-6c95173bb231","ios":"levelo://app?vid=689dda7a-7032-4dcd-8149-6c95173bb231"},"vehicle_type_id":"4","last_reported":1737475854,"current_range_meters":38000,"station_id":"","pricing_plan_id":"cebpf4jnsgd1na2vs0mg"},{"bike_id":"cb6f3294-2e7a-408e-b3c1-e68ed843ba85","system_id":"levelo_inurba_marseille","lat":43.30648,"lon":5.40068,"is_reserved":false,"is_disabled":false,"rental_uris":{"android":"levelo://app?vid=cb6f3294-2e7a-408e-b3c1-e68ed843ba85","ios":"levelo://app?vid=cb6f3294-2e7a-408e-b3c1-e68ed843ba85"},"vehicle_type_id":"4","last_reported":1737475854,"current_range_meters":33200,"station_id":"ce4bh112rcd13ifvqda0","pricing_plan_id":"cebpf4jnsgd1na2vs0mg"},{"bike_id":"af64160c-1ddf-442c-aba8-bfd72e2963c6","system_id":"levelo_inurba_marseille","lat":43.28458,"lon":5.35893,"is_reserved":false,"is_disabled":false,"rental_uris":{"android":"levelo://app?vid=af64160c-1ddf-442c-aba8-bfd72e2963c6","ios":"levelo://app?vid=af64160c-1ddf-442c-aba8-bfd72e2963c6"},"vehicle_type_id":"4","last_reported":1737475854,"current_range_meters":26000,"station_id":"ce4bhah2rcd13ifvqei0","pricing_plan_id":"cebpf4jnsgd1na2vs0mg"},{"bike_id":"d3702038-bd9f-4bca-898b-6971e8b60969","system_id":"levelo_inurba_marseille","lat":43.27616,"lon":5.36099,"is_reserved":false,"is_disabled":false,"rental_uris":{"android":"levelo://app?vid=d3702038-bd9f-4bca-898b-6971e8b60969","ios":"levelo://app?vid=d3702038-bd9f-4bca-898b-6971e8b60969"},"vehicle_type_id":"4","last_reported":1737475854,"current_range_meters":38800,"station_id":"ce4bgj92rcd13ifvqbe0","pricing_plan_id":"cebpf4jnsgd1na2vs0mg"},{"bike_id":"db7d33f6-1676-4961-be7e-7d1fef015396","system_id":"levelo_inurba_marseille","lat":43.30134,"lon":5.37434,"is_reserved":false,"is_disabled":false,"rental_uris":{"android":"levelo://app?vid=db7d33f6-1676-4961-be7e-7d1fef015396","ios":"levelo://app?vid=db7d33f6-1676-4961-be7e-7d1fef015396"},"vehicle_type_id":"4","last_reported":1737475854,"current_range_meters":39200,"station_id":"ce4bgs92rcd13ifvqcc0","pricing_plan_id":"cebpf4jnsgd1na2vs0mg"},{"bike_id":"dbfc6bbb-0554-4b09-9ba3-6a0d99a97020","system_id":"levelo_inurba_marseille","lat":43.30532,"lon":5.38421,"is_reserved":false,"is_disabled":false,"rental_uris":{"android":"levelo://app?vid=dbfc6bbb-0554-4b09-9ba3-6a0d99a97020","ios":"levelo://app?vid=dbfc6bbb-0554-4b09-9ba3-6a0d99a97020"},"vehicle_type_id":"4","last_reported":1737475854,"current_range_meters":38800,"station_id":"ce4bgg92rcd13ifvqb30","pricing_plan_id":"cebpf4jnsgd1na2vs0mg"},{"bike_id":"87612091-a603-4962-ae1b-4cca76d8553b","system_id":"levelo_inurba_marseille","lat":43.27983,"lon":5.38742,"is_reserved":false,"is_disabled":false,"rental_uris":{"android":"levelo://app?vid=87612091-a603-4962-ae1b-4cca76d8553b","ios":"levelo://app?vid=87612091-a603-4962-ae1b-4cca76d8553b"},"vehicle_type_id":"4","last_reported":1737475854,"current_range_meters":28800,"station_id":"ce4bhg12rcd13ifvqf80","pricing_plan_id":"cebpf4jnsgd1na2vs0mg"},{"bike_id":"c0a09ef6-6edd-48e2-8010-d57602985f00","system_id":"levelo_inurba_marseille","lat":43.32346,"lon":5.36738,"is_reserved":false,"is_disabled":false,"rental_uris":{"android":"levelo://app?vid=c0a09ef6-6edd-48e2-8010-d57602985f00","ios":"levelo://app?vid=c0a09ef6-6edd-48e2-8010-d57602985f00"},"vehicle_type_id":"4","last_reported":1737475854,"current_range_meters":17200,"station_id":"ce4bhsh2rcd13ifvqi2g","pricing_plan_id":"cebpf4jnsgd1na2vs0mg"},{"bike_id":"0efcb19d-a5d5-4cbb-a0ba-146fb16ac38e","system_id":"levelo_inurba_marseille","lat":43.30573,"lon":5.36528,"is_reserved":false,"is_disabled":false,"rental_uris":{"android":"levelo://app?vid=0efcb19d-a5d5-4cbb-a0ba-146fb16ac38e","ios":"levelo://app?vid=0efcb19d-a5d5-4cbb-a0ba-146fb16ac38e"},"vehicle_type_id":"4","last_reported":1737475854,"current_range_meters":38800,"station_id":"ce4bgs12rcd13ifvqcag","pricing_plan_id":"cebpf4jnsgd1na2vs0mg"},{"bike_id":"d828c6c0-2857-4d4f-a9aa-7c7d934ecae7","system_id":"levelo_inurba_marseille","lat":43.2509,"lon":5.39516,"is_reserved":false,"is_disabled":true,"rental_uris":{"android":"levelo://app?vid=d828c6c0-2857-4d4f-a9aa-7c7d934ecae7","ios":"levelo://app?vid=d828c6c0-2857-4d4f-a9aa-7c7d934ecae7"},"vehicle_type_id":"4","last_reported":1737475854,"current_range_meters":0,"station_id":"ce4bhm12rcd13ifvqgkg","pricing_plan_id":"cebpf4jnsgd1na2vs0mg"},{"bike_id":"48a4db89-2f72-4ee8-b0ea-b0bc6e5aab84","system_id":"levelo_inurba_marseille","lat":43.26067,"lon":5.39385,"is_reserved":false,"is_disabled":false,"rental_uris":{"android":"levelo://app?vid=48a4db89-2f72-4ee8-b0ea-b0bc6e5aab84","ios":"levelo://app?vid=48a4db89-2f72-4ee8-b0ea-b0bc6e5aab84"},"vehicle_type_id":"4","last_reported":1737475854,"current_range_meters":38800,"station_id":"ce4bhh92rcd13ifvqfj0","pricing_plan_id":"cebpf4jnsgd1na2vs0mg"},{"bike_id":"06cfd958-c471-4dfe-8613-29275f91d3d2","system_id":"levelo_inurba_marseille","lat":43.29056,"lon":5.37151,"is_reserved":false,"is_disabled":false,"rental_uris":{"android":"levelo://app?vid=06cfd958-c471-4dfe-8613-29275f91d3d2","ios":"levelo://app?vid=06cfd958-c471-4dfe-8613-29275f91d3d2"},"vehicle_type_id":"4","last_reported":1737475854,"current_range_meters":6800,"station_id":"ce4bh5p2rcd13ifvqe4g","pricing_plan_id":"cebpf4jnsgd1na2vs0mg"},{"bike_id":"c8a28f96-df33-43da-82ae-db15b09bec3e","system_id":"levelo_inurba_marseille","lat":43.26493,"lon":5.39541,"is_reserved":false,"is_disabled":true,"rental_uris":{"android":"levelo://app?vid=c8a28f96-df33-43da-82ae-db15b09bec3e","ios":"levelo://app?vid=c8a28f96-df33-43da-82ae-db15b09bec3e"},"vehicle_type_id":"4","last_reported":1737475854,"current_range_meters":0,"station_id":"ce4bhi12rcd13ifvqfq0","pricing_plan_id":"cebpf4jnsgd1na2vs0mg"},{"bike_id":"a2771881-b956-4a9a-9bc9-a89642d437c9","system_id":"levelo_inurba_marseille","lat":43.23203,"lon":5.35543,"is_reserved":false,"is_disabled":false,"rental_uris":{"android":"levelo://app?vid=a2771881-b956-4a9a-9bc9-a89642d437c9","ios":"levelo://app?vid=a2771881-b956-4a9a-9bc9-a89642d437c9"},"vehicle_type_id":"4","last_reported":1737475854,"current_range_meters":38800,"station_id":"ce4bhu92rcd13ifvqi70","pricing_plan_id":"cebpf4jnsgd1na2vs0mg"},{"bike_id":"38deec00-54a4-4647-b71a-a7db3d6a1353","system_id":"levelo_inurba_marseille","lat":43.32102,"lon":5.36769,"is_reserved":false,"is_disabled":false,"rental_uris":{"android":"levelo://app?vid=38deec00-54a4-4647-b71a-a7db3d6a1353","ios":"levelo://app?vid=38deec00-54a4-4647-b71a-a7db3d6a1353"},"vehicle_type_id":"4","last_reported":1737475854,"current_range_meters":12400,"station_id":"ce4bhrh2rcd13ifvqhug","pricing_plan_id":"cebpf4jnsgd1na2vs0mg"},{"bike_id":"4d071c99-59bc-4138-8b76-2f04d780bbaa","system_id":"levelo_inurba_marseille","lat":43.26237,"lon":5.4045,"is_reserved":false,"is_disabled":false,"rental_uris":{"android":"levelo://app?vid=4d071c99-59bc-4138-8b76-2f04d780bbaa","ios":"levelo://app?vid=4d071c99-59bc-4138-8b76-2f04d780bbaa"},"vehicle_type_id":"4","last_reported":1737475854,"current_range_meters":17600,"station_id":"","pricing_plan_id":"cebpf4jnsgd1na2vs0mg"},{"bike_id":"d07b2279-a1f4-4e07-a311-73b4f7f2bf4b","system_id":"levelo_inurba_marseille","lat":43.29036,"lon":5.37571,"is_reserved":false,"is_disabled":false,"rental_uris":{"android":"levelo://app?vid=d07b2279-a1f4-4e07-a311-73b4f7f2bf4b","ios":"levelo://app?vid=d07b2279-a1f4-4e07-a311-73b4f7f2bf4b"},"vehicle_type_id":"4","last_reported":1737475854,"current_range_meters":39200,"station_id":"ce4bh692rcd13ifvqe90","pricing_plan_id":"cebpf4jnsgd1na2vs0mg"},{"bike_id":"8e397219-ab21-4c6f-9c63-ad326c41c0fa","system_id":"levelo_inurba_marseille","lat":43.28074,"lon":5.39645,"is_reserved":false,"is_disabled":false,"rental_uris":{"android":"levelo://app?vid=8e397219-ab21-4c6f-9c63-ad326c41c0fa","ios":"levelo://app?vid=8e397219-ab21-4c6f-9c63-ad326c41c0fa"},"vehicle_type_id":"4","last_reported":1737475854,"current_range_meters":33200,"station_id":"ce4bho12rcd13ifvqh2g","pricing_plan_id":"cebpf4jnsgd1na2vs0mg"},{"bike_id":"f927862b-a9a0-4d1d-be64-143392c27d77","system_id":"levelo_inurba_marseille","lat":43.31267,"lon":5.36871,"is_reserved":false,"is_disabled":false,"rental_uris":{"android":"levelo://app?vid=f927862b-a9a0-4d1d-be64-143392c27d77","ios":"levelo://app?vid=f927862b-a9a0-4d1d-be64-143392c27d77"},"vehicle_type_id":"4","last_reported":1737475854,"current_range_meters":28400,"station_id":"ce4bgl92rcd13ifvqbq0","pricing_plan_id":"cebpf4jnsgd1na2vs0mg"},{"bike_id":"4f3eb2e1-a1f8-4468-95fc-ccd5e7a262af","system_id":"levelo_inurba_marseille","lat":43.28851,"lon":5.39339,"is_reserved":false,"is_disabled":false,"rental_uris":{"android":"levelo://app?vid=4f3eb2e1-a1f8-4468-95fc-ccd5e7a262af","ios":"levelo://app?vid=4f3eb2e1-a1f8-4468-95fc-ccd5e7a262af"},"vehicle_type_id":"4","last_reported":1737475854,"current_range_meters":38800,"station_id":"ce4bh2p2rcd13ifvqdi0","pricing_plan_id":"cebpf4jnsgd1na2vs0mg"},{"bike_id":"677cf86a-dfba-4517-994d-2b90ba76fadf","system_id":"levelo_inurba_marseille","lat":43.3059,"lon":5.37228,"is_reserved":false,"is_disabled":false,"rental_uris":{"android":"levelo://app?vid=677cf86a-dfba-4517-994d-2b90ba76fadf","ios":"levelo://app?vid=677cf86a-dfba-4517-994d-2b90ba76fadf"},"vehicle_type_id":"4","last_reported":1737475854,"current_range_meters":24400,"station_id":"ce4bgqh2rcd13ifvqc4g","pricing_plan_id":"cebpf4jnsgd1na2vs0mg"},{"bike_id":"47de7424-8c1f-4497-acd8-75f3a9c13d9e","system_id":"levelo_inurba_marseille","lat":43.29575,"lon":5.39968,"is_reserved":false,"is_disabled":false,"rental_uris":{"android":"levelo://app?vid=47de7424-8c1f-4497-acd8-75f3a9c13d9e","ios":"levelo://app?vid=47de7424-8c1f-4497-acd8-75f3a9c13d9e"},"vehicle_type_id":"4","last_reported":1737475854,"current_range_meters":24400,"station_id":"ce4bh312rcd13ifvqdj0","pricing_plan_id":"cebpf4jnsgd1na2vs0mg"},{"bike_id":"188e09b2-ccb8-432b-be6f-8dbc57a72e1a","system_id":"levelo_inurba_marseille","lat":43.31277,"lon":5.40142,"is_reserved":false,"is_disabled":false,"rental_uris":{"android":"levelo://app?vid=188e09b2-ccb8-432b-be6f-8dbc57a72e1a","ios":"levelo://app?vid=188e09b2-ccb8-432b-be6f-8dbc57a72e1a"},"vehicle_type_id":"4","last_reported":1737475854,"current_range_meters":27200,"station_id":"ce4bh092rcd13ifvqd30","pricing_plan_id":"cebpf4jnsgd1na2vs0mg"},{"bike_id":"63ac8898-13b7-41ff-9418-e58ae0dbf1ba","system_id":"levelo_inurba_marseille","lat":43.27816,"lon":5.40714,"is_reserved":false,"is_disabled":true,"rental_uris":{"android":"levelo://app?vid=63ac8898-13b7-41ff-9418-e58ae0dbf1ba","ios":"levelo://app?vid=63ac8898-13b7-41ff-9418-e58ae0dbf1ba"},"vehicle_type_id":"4","last_reported":1737475854,"current_range_meters":27600,"station_id":"ce4bhnh2rcd13ifvqgtg","pricing_plan_id":"cebpf4jnsgd1na2vs0mg"},{"bike_id":"d91be513-c350-4df2-80c9-9eac41eaf470","system_id":"levelo_inurba_marseille","lat":43.27951,"lon":5.38714,"is_reserved":false,"is_disabled":true,"rental_uris":{"android":"levelo://app?vid=d91be513-c350-4df2-80c9-9eac41eaf470","ios":"levelo://app?vid=d91be513-c350-4df2-80c9-9eac41eaf470"},"vehicle_type_id":"4","last_reported":1737475854,"current_range_meters":0,"station_id":"ce4bhg12rcd13ifvqf80","pricing_plan_id":"cebpf4jnsgd1na2vs0mg"},{"bike_id":"33b7e64b-7938-492c-84ef-225217826278","system_id":"levelo_inurba_marseille","lat":43.274998,"lon":5.389627,"is_reserved":false,"is_disabled":false,"rental_uris":{"android":"levelo://app?vid=33b7e64b-7938-492c-84ef-225217826278","ios":"levelo://app?vid=33b7e64b-7938-492c-84ef-225217826278"},"vehicle_type_id":"4","last_reported":1737475854,"current_range_meters":20000,"station_id":"ce4bhhp2rcd13ifvqfm0","pricing_plan_id":"cebpf4jnsgd1na2vs0mg"},{"bike_id":"bda5c3c5-1ce2-40be-87ca-14619f5b97ef","system_id":"levelo_inurba_marseille","lat":43.31327,"lon":5.39695,"is_reserved":false,"is_disabled":false,"rental_uris":{"android":"levelo://app?vid=bda5c3c5-1ce2-40be-87ca-14619f5b97ef","ios":"levelo://app?vid=bda5c3c5-1ce2-40be-87ca-14619f5b97ef"},"vehicle_type_id":"4","last_reported":1737475854,"current_range_meters":24800,"station_id":"ce4bgvp2rcd13ifvqcu0","pricing_plan_id":"cebpf4jnsgd1na2vs0mg"},{"bike_id":"5c16bae4-e0ec-4e3f-b617-c418bc437fd1","system_id":"levelo_inurba_marseille","lat":43.24806,"lon":5.37458,"is_reserved":false,"is_disabled":true,"rental_uris":{"android":"levelo://app?vid=5c16bae4-e0ec-4e3f-b617-c418bc437fd1","ios":"levelo://app?vid=5c16bae4-e0ec-4e3f-b617-c418bc437fd1"},"vehicle_type_id":"4","last_reported":1737475854,"current_range_meters":400,"station_id":"ce4bhgh2rcd13ifvqfb0","pricing_plan_id":"cebpf4jnsgd1na2vs0mg"},{"bike_id":"90d77481-937d-49b4-96eb-ef8e70d5eecc","system_id":"levelo_inurba_marseille","lat":43.27548,"lon":5.42384,"is_reserved":false,"is_disabled":false,"rental_uris":{"android":"levelo://app?vid=90d77481-937d-49b4-96eb-ef8e70d5eecc","ios":"levelo://app?vid=90d77481-937d-49b4-96eb-ef8e70d5eecc"},"vehicle_type_id":"4","last_reported":1737475854,"current_range_meters":12400,"station_id":"","pricing_plan_id":"cebpf4jnsgd1na2vs0mg"},{"bike_id":"1e993a0d-3f6b-4cc6-9a49-239383b427a6","system_id":"levelo_inurba_marseille","lat":43.30129,"lon":5.39864,"is_reserved":false,"is_disabled":false,"rental_uris":{"android":"levelo://app?vid=1e993a0d-3f6b-4cc6-9a49-239383b427a6","ios":"levelo://app?vid=1e993a0d-3f6b-4cc6-9a49-239383b427a6"},"vehicle_type_id":"4","last_reported":1737475854,"current_range_meters":38800,"station_id":"ce4bh0h2rcd13ifvqd40","pricing_plan_id":"cebpf4jnsgd1na2vs0mg"},{"bike_id":"5abf3f81-8b66-4826-861d-55abbb651539","system_id":"levelo_inurba_marseille","lat":43.337444,"lon":5.374475,"is_reserved":false,"is_disabled":true,"rental_uris":{"android":"levelo://app?vid=5abf3f81-8b66-4826-861d-55abbb651539","ios":"levelo://app?vid=5abf3f81-8b66-4826-861d-55abbb651539"},"vehicle_type_id":"4","last_reported":1737475854,"current_range_meters":0,"station_id":"","pricing_plan_id":"cebpf4jnsgd1na2vs0mg"},{"bike_id":"69598e26-b8ea-49ad-bb1b-4a77f690581c","system_id":"levelo_inurba_marseille","lat":43.28714,"lon":5.39979,"is_reserved":false,"is_disabled":false,"rental_uris":{"android":"levelo://app?vid=69598e26-b8ea-49ad-bb1b-4a77f690581c","ios":"levelo://app?vid=69598e26-b8ea-49ad-bb1b-4a77f690581c"},"vehicle_type_id":"4","last_reported":1737475854,"current_range_meters":36000,"station_id":"ce4bho92rcd13ifvqh3g","pricing_plan_id":"cebpf4jnsgd1na2vs0mg"},{"bike_id":"9bc726c4-f0ae-46a7-9894-3042b33f1aaf","system_id":"levelo_inurba_marseille","lat":43.23155,"lon":5.43698,"is_reserved":false,"is_disabled":false,"rental_uris":{"android":"levelo://app?vid=9bc726c4-f0ae-46a7-9894-3042b33f1aaf","ios":"levelo://app?vid=9bc726c4-f0ae-46a7-9894-3042b33f1aaf"},"vehicle_type_id":"4","last_reported":1737475854,"current_range_meters":8000,"station_id":"ce4bhmp2rcd13ifvqgog","pricing_plan_id":"cebpf4jnsgd1na2vs0mg"},{"bike_id":"04656797-d164-454b-8244-55edc7fec428","system_id":"levelo_inurba_marseille","lat":43.31096,"lon":5.40965,"is_reserved":false,"is_disabled":false,"rental_uris":{"android":"levelo://app?vid=04656797-d164-454b-8244-55edc7fec428","ios":"levelo://app?vid=04656797-d164-454b-8244-55edc7fec428"},"vehicle_type_id":"4","last_reported":1737475854,"current_range_meters":27200,"station_id":"ce4bhp92rcd13ifvqhbg","pricing_plan_id":"cebpf4jnsgd1na2vs0mg"},{"bike_id":"1f16ad06-6773-4946-8305-97dc88287b9f","system_id":"levelo_inurba_marseille","lat":43.30816,"lon":5.37366,"is_reserved":false,"is_disabled":false,"rental_uris":{"android":"levelo://app?vid=1f16ad06-6773-4946-8305-97dc88287b9f","ios":"levelo://app?vid=1f16ad06-6773-4946-8305-97dc88287b9f"},"vehicle_type_id":"4","last_reported":1737475854,"current_range_meters":24000,"station_id":"","pricing_plan_id":"cebpf4jnsgd1na2vs0mg"},{"bike_id":"4cd94fe6-1b4a-4d1f-823c-15f201673572","system_id":"levelo_inurba_marseille","lat":43.27992,"lon":5.40009,"is_reserved":false,"is_disabled":false,"rental_uris":{"android":"levelo://app?vid=4cd94fe6-1b4a-4d1f-823c-15f201673572","ios":"levelo://app?vid=4cd94fe6-1b4a-4d1f-823c-15f201673572"},"vehicle_type_id":"4","last_reported":1737475854,"current_range_meters":38800,"station_id":"ce4bho92rcd13ifvqh4g","pricing_plan_id":"cebpf4jnsgd1na2vs0mg"},{"bike_id":"fdc6b13c-c790-4476-8ebe-f3bf21ed1d60","system_id":"levelo_inurba_marseille","lat":43.28854,"lon":5.35857,"is_reserved":false,"is_disabled":false,"rental_uris":{"android":"levelo://app?vid=fdc6b13c-c790-4476-8ebe-f3bf21ed1d60","ios":"levelo://app?vid=fdc6b13c-c790-4476-8ebe-f3bf21ed1d60"},"vehicle_type_id":"4","last_reported":1737475854,"current_range_meters":34800,"station_id":"ce4bhb12rcd13ifvqem0","pricing_plan_id":"cebpf4jnsgd1na2vs0mg"},{"bike_id":"7e4c7ea3-48f8-4aac-8b08-3e4fa595f4e5","system_id":"levelo_inurba_marseille","lat":43.28699,"lon":5.3742,"is_reserved":false,"is_disabled":false,"rental_uris":{"android":"levelo://app?vid=7e4c7ea3-48f8-4aac-8b08-3e4fa595f4e5","ios":"levelo://app?vid=7e4c7ea3-48f8-4aac-8b08-3e4fa595f4e5"},"vehicle_type_id":"4","last_reported":1737475854,"current_range_meters":18000,"station_id":"ce4bh3p2rcd13ifvqdq0","pricing_plan_id":"cebpf4jnsgd1na2vs0mg"},{"bike_id":"dc858b51-5246-4933-a09a-e6cfbf05237b","system_id":"levelo_inurba_marseille","lat":43.28568,"lon":5.39495,"is_reserved":false,"is_disabled":false,"rental_uris":{"android":"levelo://app?vid=dc858b51-5246-4933-a09a-e6cfbf05237b","ios":"levelo://app?vid=dc858b51-5246-4933-a09a-e6cfbf05237b"},"vehicle_type_id":"4","last_reported":1737475854,"current_range_meters":17200,"station_id":"ce4bh292rcd13ifvqdg0","pricing_plan_id":"cebpf4jnsgd1na2vs0mg"},{"bike_id":"324a7318-dc59-4c9f-8262-0b260deab003","system_id":"levelo_inurba_marseille","lat":43.28847,"lon":5.39308,"is_reserved":false,"is_disabled":false,"rental_uris":{"android":"levelo://app?vid=324a7318-dc59-4c9f-8262-0b260deab003","ios":"levelo://app?vid=324a7318-dc59-4c9f-8262-0b260deab003"},"vehicle_type_id":"4","last_reported":1737475854,"current_range_meters":39200,"station_id":"ce4bh2p2rcd13ifvqdi0","pricing_plan_id":"cebpf4jnsgd1na2vs0mg"},{"bike_id":"1f6dc155-db14-4993-a445-66a4306b1945","system_id":"levelo_inurba_marseille","lat":43.28404,"lon":5.37479,"is_reserved":false,"is_disabled":false,"rental_uris":{"android":"levelo://app?vid=1f6dc155-db14-4993-a445-66a4306b1945","ios":"levelo://app?vid=1f6dc155-db14-4993-a445-66a4306b1945"},"vehicle_type_id":"4","last_reported":1737475854,"current_range_meters":28000,"station_id":"ce4bh412rcd13ifvqds0","pricing_plan_id":"cebpf4jnsgd1na2vs0mg"},{"bike_id":"57089681-4dfb-4ed4-9d3a-5124dafb4159","system_id":"levelo_inurba_marseille","lat":43.27062,"lon":5.42279,"is_reserved":false,"is_disabled":false,"rental_uris":{"android":"levelo://app?vid=57089681-4dfb-4ed4-9d3a-5124dafb4159","ios":"levelo://app?vid=57089681-4dfb-4ed4-9d3a-5124dafb4159"},"vehicle_type_id":"4","last_reported":1737475854,"current_range_meters":38800,"station_id":"ce4bhk92rcd13ifvqgb0","pricing_plan_id":"cebpf4jnsgd1na2vs0mg"},{"bike_id":"9b8700d2-60e8-4534-bc41-e3ebf8c7bc9d","system_id":"levelo_inurba_marseille","lat":43.291,"lon":5.38138,"is_reserved":false,"is_disabled":false,"rental_uris":{"android":"levelo://app?vid=9b8700d2-60e8-4534-bc41-e3ebf8c7bc9d","ios":"levelo://app?vid=9b8700d2-60e8-4534-bc41-e3ebf8c7bc9d"},"vehicle_type_id":"4","last_reported":1737475854,"current_range_meters":35600,"station_id":"ce4bh512rcd13ifvqe2g","pricing_plan_id":"cebpf4jnsgd1na2vs0mg"},{"bike_id":"a036d79a-5d90-4c7f-ae02-024da4f1b856","system_id":"levelo_inurba_marseille","lat":43.30777,"lon":5.37659,"is_reserved":false,"is_disabled":false,"rental_uris":{"android":"levelo://app?vid=a036d79a-5d90-4c7f-ae02-024da4f1b856","ios":"levelo://app?vid=a036d79a-5d90-4c7f-ae02-024da4f1b856"},"vehicle_type_id":"4","last_reported":1737475854,"current_range_meters":38800,"station_id":"ce4bgv92rcd13ifvqcq0","pricing_plan_id":"cebpf4jnsgd1na2vs0mg"},{"bike_id":"580fd682-a63d-4470-bd40-a527c3d7e682","system_id":"levelo_inurba_marseille","lat":43.25003,"lon":5.38919,"is_reserved":false,"is_disabled":false,"rental_uris":{"android":"levelo://app?vid=580fd682-a63d-4470-bd40-a527c3d7e682","ios":"levelo://app?vid=580fd682-a63d-4470-bd40-a527c3d7e682"},"vehicle_type_id":"4","last_reported":1737475854,"current_range_meters":38800,"station_id":"ce4bhgp2rcd13ifvqfd0","pricing_plan_id":"cebpf4jnsgd1na2vs0mg"},{"bike_id":"853adf7d-7ed3-4fc6-8e3d-794e1d39f42e","system_id":"levelo_inurba_marseille","lat":43.28859,"lon":5.39312,"is_reserved":false,"is_disabled":false,"rental_uris":{"android":"levelo://app?vid=853adf7d-7ed3-4fc6-8e3d-794e1d39f42e","ios":"levelo://app?vid=853adf7d-7ed3-4fc6-8e3d-794e1d39f42e"},"vehicle_type_id":"4","last_reported":1737475854,"current_range_meters":39200,"station_id":"ce4bh2p2rcd13ifvqdi0","pricing_plan_id":"cebpf4jnsgd1na2vs0mg"},{"bike_id":"bcd175e1-1fd1-4b01-ba8a-35156c99c1cc","system_id":"levelo_inurba_marseille","lat":43.31275,"lon":5.40176,"is_reserved":false,"is_disabled":false,"rental_uris":{"android":"levelo://app?vid=bcd175e1-1fd1-4b01-ba8a-35156c99c1cc","ios":"levelo://app?vid=bcd175e1-1fd1-4b01-ba8a-35156c99c1cc"},"vehicle_type_id":"4","last_reported":1737475854,"current_range_meters":38800,"station_id":"ce4bh092rcd13ifvqd30","pricing_plan_id":"cebpf4jnsgd1na2vs0mg"},{"bike_id":"89d12cd8-f184-4864-80fb-ae587f301e19","system_id":"levelo_inurba_marseille","lat":43.27832,"lon":5.39197,"is_reserved":false,"is_disabled":true,"rental_uris":{"android":"levelo://app?vid=89d12cd8-f184-4864-80fb-ae587f301e19","ios":"levelo://app?vid=89d12cd8-f184-4864-80fb-ae587f301e19"},"vehicle_type_id":"4","last_reported":1737475854,"current_range_meters":0,"station_id":"ce4bhjp2rcd13ifvqga0","pricing_plan_id":"cebpf4jnsgd1na2vs0mg"},{"bike_id":"25cce461-9c2a-4621-ab6f-7612add39744","system_id":"levelo_inurba_marseille","lat":43.31322,"lon":5.39702,"is_reserved":false,"is_disabled":false,"rental_uris":{"android":"levelo://app?vid=25cce461-9c2a-4621-ab6f-7612add39744","ios":"levelo://app?vid=25cce461-9c2a-4621-ab6f-7612add39744"},"vehicle_type_id":"4","last_reported":1737475854,"current_range_meters":34800,"station_id":"ce4bgvp2rcd13ifvqcu0","pricing_plan_id":"cebpf4jnsgd1na2vs0mg"},{"bike_id":"890f5e27-5a54-4b2c-bcef-2d6479fe6229","system_id":"levelo_inurba_marseille","lat":43.2962,"lon":5.37167,"is_reserved":false,"is_disabled":false,"rental_uris":{"android":"levelo://app?vid=890f5e27-5a54-4b2c-bcef-2d6479fe6229","ios":"levelo://app?vid=890f5e27-5a54-4b2c-bcef-2d6479fe6229"},"vehicle_type_id":"4","last_reported":1737475854,"current_range_meters":38000,"station_id":"ce4bgnh2rcd13ifvqc0g","pricing_plan_id":"cebpf4jnsgd1na2vs0mg"},{"bike_id":"b7cbae11-2f9a-455e-aad2-e4e037e925a5","system_id":"levelo_inurba_marseille","lat":43.25567,"lon":5.38258,"is_reserved":false,"is_disabled":false,"rental_uris":{"android":"levelo://app?vid=b7cbae11-2f9a-455e-aad2-e4e037e925a5","ios":"levelo://app?vid=b7cbae11-2f9a-455e-aad2-e4e037e925a5"},"vehicle_type_id":"4","last_reported":1737475854,"current_range_meters":32400,"station_id":"ce4bhih2rcd13ifvqfs0","pricing_plan_id":"cebpf4jnsgd1na2vs0mg"},{"bike_id":"a91fac62-b9be-4476-973e-13c1a6d67821","system_id":"levelo_inurba_marseille","lat":43.31181,"lon":5.38711,"is_reserved":false,"is_disabled":false,"rental_uris":{"android":"levelo://app?vid=a91fac62-b9be-4476-973e-13c1a6d67821","ios":"levelo://app?vid=a91fac62-b9be-4476-973e-13c1a6d67821"},"vehicle_type_id":"4","last_reported":1737475854,"current_range_meters":15200,"station_id":"ce4bgv12rcd13ifvqcp0","pricing_plan_id":"cebpf4jnsgd1na2vs0mg"},{"bike_id":"670ac4b0-6b16-4fd3-b7e2-1a38a75e38aa","system_id":"levelo_inurba_marseille","lat":43.30321,"lon":5.4044,"is_reserved":false,"is_disabled":false,"rental_uris":{"android":"levelo://app?vid=670ac4b0-6b16-4fd3-b7e2-1a38a75e38aa","ios":"levelo://app?vid=670ac4b0-6b16-4fd3-b7e2-1a38a75e38aa"},"vehicle_type_id":"4","last_reported":1737475854,"current_range_meters":32000,"station_id":"ce4bh012rcd13ifvqd10","pricing_plan_id":"cebpf4jnsgd1na2vs0mg"},{"bike_id":"d168c0d2-7e9c-4281-8287-adba8eeb5dcf","system_id":"levelo_inurba_marseille","lat":43.3032,"lon":5.40433,"is_reserved":false,"is_disabled":false,"rental_uris":{"android":"levelo://app?vid=d168c0d2-7e9c-4281-8287-adba8eeb5dcf","ios":"levelo://app?vid=d168c0d2-7e9c-4281-8287-adba8eeb5dcf"},"vehicle_type_id":"4","last_reported":1737475854,"current_range_meters":38800,"station_id":"ce4bh012rcd13ifvqd10","pricing_plan_id":"cebpf4jnsgd1na2vs0mg"},{"bike_id":"d2d8e450-ceb4-4e79-abe9-ded25f1a7625","system_id":"levelo_inurba_marseille","lat":43.286377,"lon":5.365603,"is_reserved":false,"is_disabled":false,"rental_uris":{"android":"levelo://app?vid=d2d8e450-ceb4-4e79-abe9-ded25f1a7625","ios":"levelo://app?vid=d2d8e450-ceb4-4e79-abe9-ded25f1a7625"},"vehicle_type_id":"4","last_reported":1737475854,"current_range_meters":22000,"station_id":"ce4bhah2rcd13ifvqej0","pricing_plan_id":"cebpf4jnsgd1na2vs0mg"},{"bike_id":"b6cc31be-151e-4d56-8839-e71a9cd45b18","system_id":"levelo_inurba_marseille","lat":43.23184,"lon":5.3555,"is_reserved":false,"is_disabled":false,"rental_uris":{"android":"levelo://app?vid=b6cc31be-151e-4d56-8839-e71a9cd45b18","ios":"levelo://app?vid=b6cc31be-151e-4d56-8839-e71a9cd45b18"},"vehicle_type_id":"4","last_reported":1737475854,"current_range_meters":36400,"station_id":"ce4bhu92rcd13ifvqi70","pricing_plan_id":"cebpf4jnsgd1na2vs0mg"},{"bike_id":"fe64966a-e343-4da5-b7d8-a247430a1c88","system_id":"levelo_inurba_marseille","lat":43.33001,"lon":5.39263,"is_reserved":false,"is_disabled":false,"rental_uris":{"android":"levelo://app?vid=fe64966a-e343-4da5-b7d8-a247430a1c88","ios":"levelo://app?vid=fe64966a-e343-4da5-b7d8-a247430a1c88"},"vehicle_type_id":"4","last_reported":1737475854,"current_range_meters":28000,"station_id":"","pricing_plan_id":"cebpf4jnsgd1na2vs0mg"},{"bike_id":"15524234-5401-4aa4-b353-f94ac2bcdc0d","system_id":"levelo_inurba_marseille","lat":43.29419,"lon":5.38635,"is_reserved":false,"is_disabled":false,"rental_uris":{"android":"levelo://app?vid=15524234-5401-4aa4-b353-f94ac2bcdc0d","ios":"levelo://app?vid=15524234-5401-4aa4-b353-f94ac2bcdc0d"},"vehicle_type_id":"4","last_reported":1737475854,"current_range_meters":38800,"station_id":"ce4bh2h2rcd13ifvqdh0","pricing_plan_id":"cebpf4jnsgd1na2vs0mg"},{"bike_id":"3c65f2b4-cac1-43d3-b771-59045afddcab","system_id":"levelo_inurba_marseille","lat":43.26561,"lon":5.37308,"is_reserved":false,"is_disabled":false,"rental_uris":{"android":"levelo://app?vid=3c65f2b4-cac1-43d3-b771-59045afddcab","ios":"levelo://app?vid=3c65f2b4-cac1-43d3-b771-59045afddcab"},"vehicle_type_id":"4","last_reported":1737475854,"current_range_meters":35600,"station_id":"ce4bhg12rcd13ifvqf70","pricing_plan_id":"cebpf4jnsgd1na2vs0mg"},{"bike_id":"bf04cb94-1bb7-4539-a87b-98c1f139ab50","system_id":"levelo_inurba_marseille","lat":43.299268,"lon":5.374883,"is_reserved":false,"is_disabled":false,"rental_uris":{"android":"levelo://app?vid=bf04cb94-1bb7-4539-a87b-98c1f139ab50","ios":"levelo://app?vid=bf04cb94-1bb7-4539-a87b-98c1f139ab50"},"vehicle_type_id":"4","last_reported":1737475854,"current_range_meters":24400,"station_id":"ce4bgjh2rcd13ifvqbg0","pricing_plan_id":"cebpf4jnsgd1na2vs0mg"},{"bike_id":"973357c8-dead-42ca-92e9-500225bc994c","system_id":"levelo_inurba_marseille","lat":43.33021,"lon":5.39049,"is_reserved":false,"is_disabled":false,"rental_uris":{"android":"levelo://app?vid=973357c8-dead-42ca-92e9-500225bc994c","ios":"levelo://app?vid=973357c8-dead-42ca-92e9-500225bc994c"},"vehicle_type_id":"4","last_reported":1737475854,"current_range_meters":39200,"station_id":"ce4bhr92rcd13ifvqhrg","pricing_plan_id":"cebpf4jnsgd1na2vs0mg"},{"bike_id":"46c98903-b2fd-46dd-8b3f-e5dc5b4e7497","system_id":"levelo_inurba_marseille","lat":43.26935,"lon":5.40262,"is_reserved":false,"is_disabled":false,"rental_uris":{"android":"levelo://app?vid=46c98903-b2fd-46dd-8b3f-e5dc5b4e7497","ios":"levelo://app?vid=46c98903-b2fd-46dd-8b3f-e5dc5b4e7497"},"vehicle_type_id":"4","last_reported":1737475854,"current_range_meters":3200,"station_id":"cjm6bp8fraef2m0cb0m0","pricing_plan_id":"cebpf4jnsgd1na2vs0mg"},{"bike_id":"6a1143c1-9481-4010-9a3c-a188f45a6d51","system_id":"levelo_inurba_marseille","lat":43.31493,"lon":5.37308,"is_reserved":false,"is_disabled":false,"rental_uris":{"android":"levelo://app?vid=6a1143c1-9481-4010-9a3c-a188f45a6d51","ios":"levelo://app?vid=6a1143c1-9481-4010-9a3c-a188f45a6d51"},"vehicle_type_id":"4","last_reported":1737475854,"current_range_meters":11600,"station_id":"ce4bgt12rcd13ifvqcd0","pricing_plan_id":"cebpf4jnsgd1na2vs0mg"},{"bike_id":"e1b86826-a513-4fa0-8111-6fab965861d5","system_id":"levelo_inurba_marseille","lat":43.31696,"lon":5.43701,"is_reserved":false,"is_disabled":false,"rental_uris":{"android":"levelo://app?vid=e1b86826-a513-4fa0-8111-6fab965861d5","ios":"levelo://app?vid=e1b86826-a513-4fa0-8111-6fab965861d5"},"vehicle_type_id":"4","last_reported":1737475854,"current_range_meters":14400,"station_id":"ce4bhp92rcd13ifvqhcg","pricing_plan_id":"cebpf4jnsgd1na2vs0mg"},{"bike_id":"cfb7bb33-106d-4ac0-9223-5a80bd6716f4","system_id":"levelo_inurba_marseille","lat":43.29535,"lon":5.38556,"is_reserved":false,"is_disabled":false,"rental_uris":{"android":"levelo://app?vid=cfb7bb33-106d-4ac0-9223-5a80bd6716f4","ios":"levelo://app?vid=cfb7bb33-106d-4ac0-9223-5a80bd6716f4"},"vehicle_type_id":"4","last_reported":1737475854,"current_range_meters":36000,"station_id":"ce4bgih2rcd13ifvqba0","pricing_plan_id":"cebpf4jnsgd1na2vs0mg"},{"bike_id":"2512448d-137b-4c58-a2dc-a8485ce50ee5","system_id":"levelo_inurba_marseille","lat":43.27812,"lon":5.40712,"is_reserved":false,"is_disabled":true,"rental_uris":{"android":"levelo://app?vid=2512448d-137b-4c58-a2dc-a8485ce50ee5","ios":"levelo://app?vid=2512448d-137b-4c58-a2dc-a8485ce50ee5"},"vehicle_type_id":"4","last_reported":1737475854,"current_range_meters":0,"station_id":"ce4bhnh2rcd13ifvqgtg","pricing_plan_id":"cebpf4jnsgd1na2vs0mg"},{"bike_id":"7a48fafb-0d96-4d0c-bcea-b1aeacd1391f","system_id":"levelo_inurba_marseille","lat":43.31074,"lon":5.3836,"is_reserved":false,"is_disabled":false,"rental_uris":{"android":"levelo://app?vid=7a48fafb-0d96-4d0c-bcea-b1aeacd1391f","ios":"levelo://app?vid=7a48fafb-0d96-4d0c-bcea-b1aeacd1391f"},"vehicle_type_id":"4","last_reported":1737475854,"current_range_meters":28000,"station_id":"ce4bgv92rcd13ifvqcr0","pricing_plan_id":"cebpf4jnsgd1na2vs0mg"},{"bike_id":"ad297e0b-d4f6-47b7-bdc6-a6e241b6164b","system_id":"levelo_inurba_marseille","lat":43.30545,"lon":5.3654,"is_reserved":false,"is_disabled":false,"rental_uris":{"android":"levelo://app?vid=ad297e0b-d4f6-47b7-bdc6-a6e241b6164b","ios":"levelo://app?vid=ad297e0b-d4f6-47b7-bdc6-a6e241b6164b"},"vehicle_type_id":"4","last_reported":1737475854,"current_range_meters":38800,"station_id":"ce4bgs12rcd13ifvqcag","pricing_plan_id":"cebpf4jnsgd1na2vs0mg"},{"bike_id":"bbca38f4-68c8-4403-8e2c-3c210a8bf670","system_id":"levelo_inurba_marseille","lat":43.30784,"lon":5.37662,"is_reserved":false,"is_disabled":false,"rental_uris":{"android":"levelo://app?vid=bbca38f4-68c8-4403-8e2c-3c210a8bf670","ios":"levelo://app?vid=bbca38f4-68c8-4403-8e2c-3c210a8bf670"},"vehicle_type_id":"4","last_reported":1737475854,"current_range_meters":28400,"station_id":"ce4bgv92rcd13ifvqcq0","pricing_plan_id":"cebpf4jnsgd1na2vs0mg"},{"bike_id":"5aa7df0b-7ec0-4fbb-a0e8-1bb369be22c7","system_id":"levelo_inurba_marseille","lat":43.29057,"lon":5.35915,"is_reserved":false,"is_disabled":false,"rental_uris":{"android":"levelo://app?vid=5aa7df0b-7ec0-4fbb-a0e8-1bb369be22c7","ios":"levelo://app?vid=5aa7df0b-7ec0-4fbb-a0e8-1bb369be22c7"},"vehicle_type_id":"4","last_reported":1737475854,"current_range_meters":36400,"station_id":"ce4bha92rcd13ifvqeg0","pricing_plan_id":"cebpf4jnsgd1na2vs0mg"},{"bike_id":"1f5cb474-798b-4357-9d76-fbb42e648fb5","system_id":"levelo_inurba_marseille","lat":43.28623,"lon":5.35102,"is_reserved":false,"is_disabled":false,"rental_uris":{"android":"levelo://app?vid=1f5cb474-798b-4357-9d76-fbb42e648fb5","ios":"levelo://app?vid=1f5cb474-798b-4357-9d76-fbb42e648fb5"},"vehicle_type_id":"4","last_reported":1737475854,"current_range_meters":14400,"station_id":"ce4bhch2rcd13ifvqeug","pricing_plan_id":"cebpf4jnsgd1na2vs0mg"},{"bike_id":"8184f931-93ee-4229-af73-a8be024fe9a6","system_id":"levelo_inurba_marseille","lat":43.27375,"lon":5.36254,"is_reserved":false,"is_disabled":false,"rental_uris":{"android":"levelo://app?vid=8184f931-93ee-4229-af73-a8be024fe9a6","ios":"levelo://app?vid=8184f931-93ee-4229-af73-a8be024fe9a6"},"vehicle_type_id":"4","last_reported":1737475854,"current_range_meters":6800,"station_id":"ce4bhbh2rcd13ifvqeo0","pricing_plan_id":"cebpf4jnsgd1na2vs0mg"},{"bike_id":"6efe31cc-0992-44f6-9461-e1e3f6c96fc9","system_id":"levelo_inurba_marseille","lat":43.29616,"lon":5.37169,"is_reserved":false,"is_disabled":false,"rental_uris":{"android":"levelo://app?vid=6efe31cc-0992-44f6-9461-e1e3f6c96fc9","ios":"levelo://app?vid=6efe31cc-0992-44f6-9461-e1e3f6c96fc9"},"vehicle_type_id":"4","last_reported":1737475854,"current_range_meters":10800,"station_id":"ce4bgnh2rcd13ifvqc0g","pricing_plan_id":"cebpf4jnsgd1na2vs0mg"},{"bike_id":"e0dd1ce8-6598-45f9-b4fe-9d8cc08f1d88","system_id":"levelo_inurba_marseille","lat":43.28422,"lon":5.3499,"is_reserved":false,"is_disabled":true,"rental_uris":{"android":"levelo://app?vid=e0dd1ce8-6598-45f9-b4fe-9d8cc08f1d88","ios":"levelo://app?vid=e0dd1ce8-6598-45f9-b4fe-9d8cc08f1d88"},"vehicle_type_id":"4","last_reported":1737475854,"current_range_meters":0,"station_id":"ce4bhbh2rcd13ifvqepg","pricing_plan_id":"cebpf4jnsgd1na2vs0mg"},{"bike_id":"7b2b96b7-8723-423b-bc80-b7103e400bb0","system_id":"levelo_inurba_marseille","lat":43.2718,"lon":5.40975,"is_reserved":false,"is_disabled":false,"rental_uris":{"android":"levelo://app?vid=7b2b96b7-8723-423b-bc80-b7103e400bb0","ios":"levelo://app?vid=7b2b96b7-8723-423b-bc80-b7103e400bb0"},"vehicle_type_id":"4","last_reported":1737475854,"current_range_meters":38800,"station_id":"ce4bhl12rcd13ifvqgf0","pricing_plan_id":"cebpf4jnsgd1na2vs0mg"},{"bike_id":"b1e7c0e3-f276-47c4-8832-08cec6a6eeae","system_id":"levelo_inurba_marseille","lat":43.30549,"lon":5.36695,"is_reserved":false,"is_disabled":false,"rental_uris":{"android":"levelo://app?vid=b1e7c0e3-f276-47c4-8832-08cec6a6eeae","ios":"levelo://app?vid=b1e7c0e3-f276-47c4-8832-08cec6a6eeae"},"vehicle_type_id":"4","last_reported":1737475854,"current_range_meters":37600,"station_id":"ce4bgrp2rcd13ifvqc9g","pricing_plan_id":"cebpf4jnsgd1na2vs0mg"},{"bike_id":"613b0804-4941-40be-8b1d-9a62d4903254","system_id":"levelo_inurba_marseille","lat":43.297,"lon":5.37696,"is_reserved":false,"is_disabled":false,"rental_uris":{"android":"levelo://app?vid=613b0804-4941-40be-8b1d-9a62d4903254","ios":"levelo://app?vid=613b0804-4941-40be-8b1d-9a62d4903254"},"vehicle_type_id":"4","last_reported":1737475854,"current_range_meters":18000,"station_id":"ce4bgkh2rcd13ifvqbl0","pricing_plan_id":"cebpf4jnsgd1na2vs0mg"},{"bike_id":"0145248c-30cf-4f2d-86de-5896525609bc","system_id":"levelo_inurba_marseille","lat":43.338,"lon":5.37433,"is_reserved":false,"is_disabled":false,"rental_uris":{"android":"levelo://app?vid=0145248c-30cf-4f2d-86de-5896525609bc","ios":"levelo://app?vid=0145248c-30cf-4f2d-86de-5896525609bc"},"vehicle_type_id":"4","last_reported":1737475854,"current_range_meters":38800,"station_id":"","pricing_plan_id":"cebpf4jnsgd1na2vs0mg"},{"bike_id":"1b1acf8d-54ac-4efe-96ff-66c901f3aba1","system_id":"levelo_inurba_marseille","lat":43.30533,"lon":5.3655,"is_reserved":false,"is_disabled":false,"rental_uris":{"android":"levelo://app?vid=1b1acf8d-54ac-4efe-96ff-66c901f3aba1","ios":"levelo://app?vid=1b1acf8d-54ac-4efe-96ff-66c901f3aba1"},"vehicle_type_id":"4","last_reported":1737475854,"current_range_meters":38800,"station_id":"ce4bgs12rcd13ifvqcag","pricing_plan_id":"cebpf4jnsgd1na2vs0mg"},{"bike_id":"784a4db8-b523-44fa-863a-df01fcaa4721","system_id":"levelo_inurba_marseille","lat":43.2397,"lon":5.36634,"is_reserved":false,"is_disabled":false,"rental_uris":{"android":"levelo://app?vid=784a4db8-b523-44fa-863a-df01fcaa4721","ios":"levelo://app?vid=784a4db8-b523-44fa-863a-df01fcaa4721"},"vehicle_type_id":"4","last_reported":1737475854,"current_range_meters":16400,"station_id":"ce4bhi12rcd13ifvqfp0","pricing_plan_id":"cebpf4jnsgd1na2vs0mg"},{"bike_id":"565b608d-76f1-4b0e-8b96-1edfb19a2b5c","system_id":"levelo_inurba_marseille","lat":43.33602,"lon":5.41018,"is_reserved":false,"is_disabled":true,"rental_uris":{"android":"levelo://app?vid=565b608d-76f1-4b0e-8b96-1edfb19a2b5c","ios":"levelo://app?vid=565b608d-76f1-4b0e-8b96-1edfb19a2b5c"},"vehicle_type_id":"4","last_reported":1737475854,"current_range_meters":19600,"station_id":"ce4bhqh2rcd13ifvqhmg","pricing_plan_id":"cebpf4jnsgd1na2vs0mg"},{"bike_id":"86d1a769-f88d-4a86-a0d6-7babb2b59cf4","system_id":"levelo_inurba_marseille","lat":43.30096,"lon":5.39069,"is_reserved":false,"is_disabled":false,"rental_uris":{"android":"levelo://app?vid=86d1a769-f88d-4a86-a0d6-7babb2b59cf4","ios":"levelo://app?vid=86d1a769-f88d-4a86-a0d6-7babb2b59cf4"},"vehicle_type_id":"4","last_reported":1737475854,"current_range_meters":38800,"station_id":"ce4bh192rcd13ifvqdb0","pricing_plan_id":"cebpf4jnsgd1na2vs0mg"},{"bike_id":"cb33197b-e426-4634-8e46-bbf41a0bbbd8","system_id":"levelo_inurba_marseille","lat":43.31378,"lon":5.36685,"is_reserved":false,"is_disabled":false,"rental_uris":{"android":"levelo://app?vid=cb33197b-e426-4634-8e46-bbf41a0bbbd8","ios":"levelo://app?vid=cb33197b-e426-4634-8e46-bbf41a0bbbd8"},"vehicle_type_id":"4","last_reported":1737475854,"current_range_meters":39200,"station_id":"ce4bgr92rcd13ifvqc6g","pricing_plan_id":"cebpf4jnsgd1na2vs0mg"},{"bike_id":"6e1433da-ca9f-4090-b658-fb877339609a","system_id":"levelo_inurba_marseille","lat":43.2781,"lon":5.40709,"is_reserved":false,"is_disabled":false,"rental_uris":{"android":"levelo://app?vid=6e1433da-ca9f-4090-b658-fb877339609a","ios":"levelo://app?vid=6e1433da-ca9f-4090-b658-fb877339609a"},"vehicle_type_id":"4","last_reported":1737475854,"current_range_meters":37600,"station_id":"ce4bhnh2rcd13ifvqgtg","pricing_plan_id":"cebpf4jnsgd1na2vs0mg"},{"bike_id":"af6d5d8d-79e6-4aa3-b664-b8e2ded40f3b","system_id":"levelo_inurba_marseille","lat":43.28456,"lon":5.35895,"is_reserved":false,"is_disabled":false,"rental_uris":{"android":"levelo://app?vid=af6d5d8d-79e6-4aa3-b664-b8e2ded40f3b","ios":"levelo://app?vid=af6d5d8d-79e6-4aa3-b664-b8e2ded40f3b"},"vehicle_type_id":"4","last_reported":1737475854,"current_range_meters":11200,"station_id":"ce4bhah2rcd13ifvqei0","pricing_plan_id":"cebpf4jnsgd1na2vs0mg"},{"bike_id":"b139363b-c968-4f65-881a-a116e48041e7","system_id":"levelo_inurba_marseille","lat":43.30133,"lon":5.39877,"is_reserved":false,"is_disabled":false,"rental_uris":{"android":"levelo://app?vid=b139363b-c968-4f65-881a-a116e48041e7","ios":"levelo://app?vid=b139363b-c968-4f65-881a-a116e48041e7"},"vehicle_type_id":"4","last_reported":1737475854,"current_range_meters":26800,"station_id":"ce4bh0h2rcd13ifvqd40","pricing_plan_id":"cebpf4jnsgd1na2vs0mg"},{"bike_id":"f0f2a603-9395-4e08-a7bd-6c5c14acdff0","system_id":"levelo_inurba_marseille","lat":43.29261,"lon":5.409,"is_reserved":false,"is_disabled":false,"rental_uris":{"android":"levelo://app?vid=f0f2a603-9395-4e08-a7bd-6c5c14acdff0","ios":"levelo://app?vid=f0f2a603-9395-4e08-a7bd-6c5c14acdff0"},"vehicle_type_id":"4","last_reported":1737475854,"current_range_meters":16000,"station_id":"ce4bh192rcd13ifvqdc0","pricing_plan_id":"cebpf4jnsgd1na2vs0mg"},{"bike_id":"9ca4de9a-cfca-4937-bf4d-f360d7c8f7f5","system_id":"levelo_inurba_marseille","lat":43.3054,"lon":5.36529,"is_reserved":false,"is_disabled":false,"rental_uris":{"android":"levelo://app?vid=9ca4de9a-cfca-4937-bf4d-f360d7c8f7f5","ios":"levelo://app?vid=9ca4de9a-cfca-4937-bf4d-f360d7c8f7f5"},"vehicle_type_id":"4","last_reported":1737475854,"current_range_meters":37600,"station_id":"ce4bgs12rcd13ifvqcag","pricing_plan_id":"cebpf4jnsgd1na2vs0mg"},{"bike_id":"3e2413f1-be2a-4539-9db1-7ce3307c11de","system_id":"levelo_inurba_marseille","lat":43.30644,"lon":5.40101,"is_reserved":false,"is_disabled":false,"rental_uris":{"android":"levelo://app?vid=3e2413f1-be2a-4539-9db1-7ce3307c11de","ios":"levelo://app?vid=3e2413f1-be2a-4539-9db1-7ce3307c11de"},"vehicle_type_id":"4","last_reported":1737475854,"current_range_meters":38000,"station_id":"ce4bh112rcd13ifvqda0","pricing_plan_id":"cebpf4jnsgd1na2vs0mg"},{"bike_id":"33bcfb1d-eabe-46d9-9751-10aaf1b1a389","system_id":"levelo_inurba_marseille","lat":43.30933,"lon":5.40143,"is_reserved":false,"is_disabled":false,"rental_uris":{"android":"levelo://app?vid=33bcfb1d-eabe-46d9-9751-10aaf1b1a389","ios":"levelo://app?vid=33bcfb1d-eabe-46d9-9751-10aaf1b1a389"},"vehicle_type_id":"4","last_reported":1737475854,"current_range_meters":14400,"station_id":"ce4bgvp2rcd13ifvqct0","pricing_plan_id":"cebpf4jnsgd1na2vs0mg"},{"bike_id":"82b9fcb3-21e7-403c-b9c6-7c15b2e435d8","system_id":"levelo_inurba_marseille","lat":43.28152,"lon":5.42638,"is_reserved":false,"is_disabled":false,"rental_uris":{"android":"levelo://app?vid=82b9fcb3-21e7-403c-b9c6-7c15b2e435d8","ios":"levelo://app?vid=82b9fcb3-21e7-403c-b9c6-7c15b2e435d8"},"vehicle_type_id":"4","last_reported":1737475854,"current_range_meters":16400,"station_id":"ce4bhnh2rcd13ifvqgug","pricing_plan_id":"cebpf4jnsgd1na2vs0mg"},{"bike_id":"27b04229-9a0e-44f3-9e2a-786353579687","system_id":"levelo_inurba_marseille","lat":43.30535,"lon":5.36709,"is_reserved":false,"is_disabled":false,"rental_uris":{"android":"levelo://app?vid=27b04229-9a0e-44f3-9e2a-786353579687","ios":"levelo://app?vid=27b04229-9a0e-44f3-9e2a-786353579687"},"vehicle_type_id":"4","last_reported":1737475854,"current_range_meters":22000,"station_id":"ce4bgrp2rcd13ifvqc9g","pricing_plan_id":"cebpf4jnsgd1na2vs0mg"},{"bike_id":"fb351521-7339-453e-ad06-c068124edeec","system_id":"levelo_inurba_marseille","lat":43.23183,"lon":5.39989,"is_reserved":false,"is_disabled":false,"rental_uris":{"android":"levelo://app?vid=fb351521-7339-453e-ad06-c068124edeec","ios":"levelo://app?vid=fb351521-7339-453e-ad06-c068124edeec"},"vehicle_type_id":"4","last_reported":1737475854,"current_range_meters":13600,"station_id":"ce4bhn12rcd13ifvqgqg","pricing_plan_id":"cebpf4jnsgd1na2vs0mg"},{"bike_id":"b86a3e1d-3f83-41ea-bb2d-340a69ea0c88","system_id":"levelo_inurba_marseille","lat":43.31713,"lon":5.37746,"is_reserved":false,"is_disabled":false,"rental_uris":{"android":"levelo://app?vid=b86a3e1d-3f83-41ea-bb2d-340a69ea0c88","ios":"levelo://app?vid=b86a3e1d-3f83-41ea-bb2d-340a69ea0c88"},"vehicle_type_id":"4","last_reported":1737475854,"current_range_meters":27600,"station_id":"ce4bgth2rcd13ifvqch0","pricing_plan_id":"cebpf4jnsgd1na2vs0mg"},{"bike_id":"3cac9ee3-d705-4a27-9246-651358b27028","system_id":"levelo_inurba_marseille","lat":43.27535,"lon":5.42404,"is_reserved":false,"is_disabled":false,"rental_uris":{"android":"levelo://app?vid=3cac9ee3-d705-4a27-9246-651358b27028","ios":"levelo://app?vid=3cac9ee3-d705-4a27-9246-651358b27028"},"vehicle_type_id":"4","last_reported":1737475854,"current_range_meters":6800,"station_id":"","pricing_plan_id":"cebpf4jnsgd1na2vs0mg"},{"bike_id":"8802c560-57c3-46ed-b0e1-5dca94363b4c","system_id":"levelo_inurba_marseille","lat":43.2834,"lon":5.38112,"is_reserved":false,"is_disabled":false,"rental_uris":{"android":"levelo://app?vid=8802c560-57c3-46ed-b0e1-5dca94363b4c","ios":"levelo://app?vid=8802c560-57c3-46ed-b0e1-5dca94363b4c"},"vehicle_type_id":"4","last_reported":1737475854,"current_range_meters":12000,"station_id":"ce4bh412rcd13ifvqdr0","pricing_plan_id":"cebpf4jnsgd1na2vs0mg"},{"bike_id":"9dbf2120-11c2-4fc9-9979-1cf3f4226e51","system_id":"levelo_inurba_marseille","lat":43.2797,"lon":5.38755,"is_reserved":false,"is_disabled":true,"rental_uris":{"android":"levelo://app?vid=9dbf2120-11c2-4fc9-9979-1cf3f4226e51","ios":"levelo://app?vid=9dbf2120-11c2-4fc9-9979-1cf3f4226e51"},"vehicle_type_id":"4","last_reported":1737475854,"current_range_meters":2000,"station_id":"ce4bhg12rcd13ifvqf80","pricing_plan_id":"cebpf4jnsgd1na2vs0mg"},{"bike_id":"3251b621-179f-437f-84f8-9d5f1f665e8e","system_id":"levelo_inurba_marseille","lat":43.28419,"lon":5.37507,"is_reserved":false,"is_disabled":false,"rental_uris":{"android":"levelo://app?vid=3251b621-179f-437f-84f8-9d5f1f665e8e","ios":"levelo://app?vid=3251b621-179f-437f-84f8-9d5f1f665e8e"},"vehicle_type_id":"4","last_reported":1737475854,"current_range_meters":8000,"station_id":"ce4bh412rcd13ifvqds0","pricing_plan_id":"cebpf4jnsgd1na2vs0mg"},{"bike_id":"49e863e7-823e-4e9b-9150-30a232f530d5","system_id":"levelo_inurba_marseille","lat":43.28448,"lon":5.35896,"is_reserved":false,"is_disabled":false,"rental_uris":{"android":"levelo://app?vid=49e863e7-823e-4e9b-9150-30a232f530d5","ios":"levelo://app?vid=49e863e7-823e-4e9b-9150-30a232f530d5"},"vehicle_type_id":"4","last_reported":1737475854,"current_range_meters":28000,"station_id":"ce4bhah2rcd13ifvqei0","pricing_plan_id":"cebpf4jnsgd1na2vs0mg"},{"bike_id":"8e37d5a1-5a26-42a5-8fbe-c99733a808dd","system_id":"levelo_inurba_marseille","lat":43.260605,"lon":5.393946,"is_reserved":false,"is_disabled":false,"rental_uris":{"android":"levelo://app?vid=8e37d5a1-5a26-42a5-8fbe-c99733a808dd","ios":"levelo://app?vid=8e37d5a1-5a26-42a5-8fbe-c99733a808dd"},"vehicle_type_id":"4","last_reported":1737475854,"current_range_meters":38800,"station_id":"ce4bhh92rcd13ifvqfj0","pricing_plan_id":"cebpf4jnsgd1na2vs0mg"},{"bike_id":"a546c9b0-986b-47f8-b1d7-665e2fa1229f","system_id":"levelo_inurba_marseille","lat":43.281,"lon":5.37839,"is_reserved":false,"is_disabled":true,"rental_uris":{"android":"levelo://app?vid=a546c9b0-986b-47f8-b1d7-665e2fa1229f","ios":"levelo://app?vid=a546c9b0-986b-47f8-b1d7-665e2fa1229f"},"vehicle_type_id":"4","last_reported":1737475854,"current_range_meters":38800,"station_id":"ce4bha12rcd13ifvqee0","pricing_plan_id":"cebpf4jnsgd1na2vs0mg"},{"bike_id":"2be7681a-1057-4ffe-b516-5eee806943ad","system_id":"levelo_inurba_marseille","lat":43.29797,"lon":5.38093,"is_reserved":false,"is_disabled":false,"rental_uris":{"android":"levelo://app?vid=2be7681a-1057-4ffe-b516-5eee806943ad","ios":"levelo://app?vid=2be7681a-1057-4ffe-b516-5eee806943ad"},"vehicle_type_id":"4","last_reported":1737475854,"current_range_meters":16400,"station_id":"ce4bgip2rcd13ifvqbb0","pricing_plan_id":"cebpf4jnsgd1na2vs0mg"},{"bike_id":"206500f1-ba44-4810-981b-2b2ae8a5232a","system_id":"levelo_inurba_marseille","lat":43.31486,"lon":5.37316,"is_reserved":false,"is_disabled":false,"rental_uris":{"android":"levelo://app?vid=206500f1-ba44-4810-981b-2b2ae8a5232a","ios":"levelo://app?vid=206500f1-ba44-4810-981b-2b2ae8a5232a"},"vehicle_type_id":"4","last_reported":1737475854,"current_range_meters":6800,"station_id":"ce4bgt12rcd13ifvqcd0","pricing_plan_id":"cebpf4jnsgd1na2vs0mg"},{"bike_id":"86f4fd3a-df74-4ea3-b27a-9a7eabcc817d","system_id":"levelo_inurba_marseille","lat":43.28268,"lon":5.35058,"is_reserved":false,"is_disabled":false,"rental_uris":{"android":"levelo://app?vid=86f4fd3a-df74-4ea3-b27a-9a7eabcc817d","ios":"levelo://app?vid=86f4fd3a-df74-4ea3-b27a-9a7eabcc817d"},"vehicle_type_id":"4","last_reported":1737475854,"current_range_meters":24800,"station_id":"ce4bhbp2rcd13ifvqerg","pricing_plan_id":"cebpf4jnsgd1na2vs0mg"},{"bike_id":"64dd059b-ecf7-48ee-8d07-a03165f684e7","system_id":"levelo_inurba_marseille","lat":43.29917,"lon":5.37467,"is_reserved":false,"is_disabled":false,"rental_uris":{"android":"levelo://app?vid=64dd059b-ecf7-48ee-8d07-a03165f684e7","ios":"levelo://app?vid=64dd059b-ecf7-48ee-8d07-a03165f684e7"},"vehicle_type_id":"4","last_reported":1737475854,"current_range_meters":38800,"station_id":"ce4bgjh2rcd13ifvqbg0","pricing_plan_id":"cebpf4jnsgd1na2vs0mg"},{"bike_id":"2d335020-e07e-41c0-a676-feeee39749e2","system_id":"levelo_inurba_marseille","lat":43.289415,"lon":5.363915,"is_reserved":false,"is_disabled":false,"rental_uris":{"android":"levelo://app?vid=2d335020-e07e-41c0-a676-feeee39749e2","ios":"levelo://app?vid=2d335020-e07e-41c0-a676-feeee39749e2"},"vehicle_type_id":"4","last_reported":1737475854,"current_range_meters":11200,"station_id":"ce4bhc92rcd13ifvqetg","pricing_plan_id":"cebpf4jnsgd1na2vs0mg"},{"bike_id":"9504b7e0-2f20-49ea-814e-e380f0d8ec79","system_id":"levelo_inurba_marseille","lat":43.3211,"lon":5.36776,"is_reserved":false,"is_disabled":false,"rental_uris":{"android":"levelo://app?vid=9504b7e0-2f20-49ea-814e-e380f0d8ec79","ios":"levelo://app?vid=9504b7e0-2f20-49ea-814e-e380f0d8ec79"},"vehicle_type_id":"4","last_reported":1737475854,"current_range_meters":37600,"station_id":"ce4bhrh2rcd13ifvqhug","pricing_plan_id":"cebpf4jnsgd1na2vs0mg"},{"bike_id":"bad89572-4124-4d55-8739-0123a898daf5","system_id":"levelo_inurba_marseille","lat":43.29413,"lon":5.38616,"is_reserved":false,"is_disabled":false,"rental_uris":{"android":"levelo://app?vid=bad89572-4124-4d55-8739-0123a898daf5","ios":"levelo://app?vid=bad89572-4124-4d55-8739-0123a898daf5"},"vehicle_type_id":"4","last_reported":1737475854,"current_range_meters":27200,"station_id":"ce4bh2h2rcd13ifvqdh0","pricing_plan_id":"cebpf4jnsgd1na2vs0mg"},{"bike_id":"ca0adf89-d03d-4ba4-ab18-b3bc7ebf13a2","system_id":"levelo_inurba_marseille","lat":43.29614,"lon":5.37722,"is_reserved":false,"is_disabled":false,"rental_uris":{"android":"levelo://app?vid=ca0adf89-d03d-4ba4-ab18-b3bc7ebf13a2","ios":"levelo://app?vid=ca0adf89-d03d-4ba4-ab18-b3bc7ebf13a2"},"vehicle_type_id":"4","last_reported":1737475854,"current_range_meters":38800,"station_id":"ce4bgi92rcd13ifvqb90","pricing_plan_id":"cebpf4jnsgd1na2vs0mg"},{"bike_id":"732f6a5f-7f4f-46d6-a1d7-0e5df1ebf234","system_id":"levelo_inurba_marseille","lat":43.27061,"lon":5.42271,"is_reserved":false,"is_disabled":false,"rental_uris":{"android":"levelo://app?vid=732f6a5f-7f4f-46d6-a1d7-0e5df1ebf234","ios":"levelo://app?vid=732f6a5f-7f4f-46d6-a1d7-0e5df1ebf234"},"vehicle_type_id":"4","last_reported":1737475854,"current_range_meters":16800,"station_id":"ce4bhk92rcd13ifvqgb0","pricing_plan_id":"cebpf4jnsgd1na2vs0mg"},{"bike_id":"f6739e0b-e46e-4674-9e0d-fc72c68e35b6","system_id":"levelo_inurba_marseille","lat":43.29034,"lon":5.38646,"is_reserved":false,"is_disabled":false,"rental_uris":{"android":"levelo://app?vid=f6739e0b-e46e-4674-9e0d-fc72c68e35b6","ios":"levelo://app?vid=f6739e0b-e46e-4674-9e0d-fc72c68e35b6"},"vehicle_type_id":"4","last_reported":1737475854,"current_range_meters":32000,"station_id":"ce4bh4p2rcd13ifvqe0g","pricing_plan_id":"cebpf4jnsgd1na2vs0mg"},{"bike_id":"f9e64d67-e799-49f8-afc1-5daa04f1147d","system_id":"levelo_inurba_marseille","lat":43.29321,"lon":5.41146,"is_reserved":false,"is_disabled":false,"rental_uris":{"android":"levelo://app?vid=f9e64d67-e799-49f8-afc1-5daa04f1147d","ios":"levelo://app?vid=f9e64d67-e799-49f8-afc1-5daa04f1147d"},"vehicle_type_id":"4","last_reported":1737475854,"current_range_meters":16800,"station_id":"","pricing_plan_id":"cebpf4jnsgd1na2vs0mg"},{"bike_id":"2fc90e2b-7bc3-4c1c-b9a1-54e988a74917","system_id":"levelo_inurba_marseille","lat":43.279439,"lon":5.389008,"is_reserved":false,"is_disabled":true,"rental_uris":{"android":"levelo://app?vid=2fc90e2b-7bc3-4c1c-b9a1-54e988a74917","ios":"levelo://app?vid=2fc90e2b-7bc3-4c1c-b9a1-54e988a74917"},"vehicle_type_id":"4","last_reported":1737475854,"current_range_meters":33200,"station_id":"","pricing_plan_id":"cebpf4jnsgd1na2vs0mg"},{"bike_id":"6afeeefa-11c0-4f74-82c2-cb592a43a0b2","system_id":"levelo_inurba_marseille","lat":43.281562,"lon":5.4264,"is_reserved":false,"is_disabled":false,"rental_uris":{"android":"levelo://app?vid=6afeeefa-11c0-4f74-82c2-cb592a43a0b2","ios":"levelo://app?vid=6afeeefa-11c0-4f74-82c2-cb592a43a0b2"},"vehicle_type_id":"4","last_reported":1737475854,"current_range_meters":36000,"station_id":"ce4bhnh2rcd13ifvqgug","pricing_plan_id":"cebpf4jnsgd1na2vs0mg"},{"bike_id":"1973aef5-1149-4822-864e-6ed3ce806518","system_id":"levelo_inurba_marseille","lat":43.27426,"lon":5.39416,"is_reserved":false,"is_disabled":false,"rental_uris":{"android":"levelo://app?vid=1973aef5-1149-4822-864e-6ed3ce806518","ios":"levelo://app?vid=1973aef5-1149-4822-864e-6ed3ce806518"},"vehicle_type_id":"4","last_reported":1737475854,"current_range_meters":38800,"station_id":"ce4bhdp2rcd13ifvqf20","pricing_plan_id":"cebpf4jnsgd1na2vs0mg"},{"bike_id":"85bf1b0d-be05-4b2c-8189-fd14eee69f20","system_id":"levelo_inurba_marseille","lat":43.27433,"lon":5.39402,"is_reserved":false,"is_disabled":false,"rental_uris":{"android":"levelo://app?vid=85bf1b0d-be05-4b2c-8189-fd14eee69f20","ios":"levelo://app?vid=85bf1b0d-be05-4b2c-8189-fd14eee69f20"},"vehicle_type_id":"4","last_reported":1737475854,"current_range_meters":30400,"station_id":"ce4bhdp2rcd13ifvqf20","pricing_plan_id":"cebpf4jnsgd1na2vs0mg"},{"bike_id":"227e78bf-cdca-4dfa-9c62-95921093e4a7","system_id":"levelo_inurba_marseille","lat":43.28423,"lon":5.349817,"is_reserved":false,"is_disabled":false,"rental_uris":{"android":"levelo://app?vid=227e78bf-cdca-4dfa-9c62-95921093e4a7","ios":"levelo://app?vid=227e78bf-cdca-4dfa-9c62-95921093e4a7"},"vehicle_type_id":"4","last_reported":1737475854,"current_range_meters":15200,"station_id":"ce4bhbh2rcd13ifvqepg","pricing_plan_id":"cebpf4jnsgd1na2vs0mg"},{"bike_id":"840187ec-e5d1-4619-9b46-01c17593ea11","system_id":"levelo_inurba_marseille","lat":43.30787,"lon":5.37646,"is_reserved":false,"is_disabled":false,"rental_uris":{"android":"levelo://app?vid=840187ec-e5d1-4619-9b46-01c17593ea11","ios":"levelo://app?vid=840187ec-e5d1-4619-9b46-01c17593ea11"},"vehicle_type_id":"4","last_reported":1737475854,"current_range_meters":16400,"station_id":"ce4bgv92rcd13ifvqcq0","pricing_plan_id":"cebpf4jnsgd1na2vs0mg"},{"bike_id":"14bf62af-c950-435b-82dd-0bca67231add","system_id":"levelo_inurba_marseille","lat":43.25721,"lon":5.41111,"is_reserved":false,"is_disabled":false,"rental_uris":{"android":"levelo://app?vid=14bf62af-c950-435b-82dd-0bca67231add","ios":"levelo://app?vid=14bf62af-c950-435b-82dd-0bca67231add"},"vehicle_type_id":"4","last_reported":1737475854,"current_range_meters":38800,"station_id":"ce4bhkp2rcd13ifvqgd0","pricing_plan_id":"cebpf4jnsgd1na2vs0mg"},{"bike_id":"509edcb3-c5bb-4913-aeae-8110c0663740","system_id":"levelo_inurba_marseille","lat":43.29551,"lon":5.39984,"is_reserved":false,"is_disabled":true,"rental_uris":{"android":"levelo://app?vid=509edcb3-c5bb-4913-aeae-8110c0663740","ios":"levelo://app?vid=509edcb3-c5bb-4913-aeae-8110c0663740"},"vehicle_type_id":"4","last_reported":1737475854,"current_range_meters":24800,"station_id":"ce4bh312rcd13ifvqdj0","pricing_plan_id":"cebpf4jnsgd1na2vs0mg"},{"bike_id":"bb2aa27c-d314-433f-a134-98756fdc47bc","system_id":"levelo_inurba_marseille","lat":43.31361,"lon":5.36698,"is_reserved":false,"is_disabled":false,"rental_uris":{"android":"levelo://app?vid=bb2aa27c-d314-433f-a134-98756fdc47bc","ios":"levelo://app?vid=bb2aa27c-d314-433f-a134-98756fdc47bc"},"vehicle_type_id":"4","last_reported":1737475854,"current_range_meters":38800,"station_id":"ce4bgr92rcd13ifvqc6g","pricing_plan_id":"cebpf4jnsgd1na2vs0mg"},{"bike_id":"43c1045d-42c6-4217-82f7-db4724270b65","system_id":"levelo_inurba_marseille","lat":43.30528,"lon":5.36711,"is_reserved":false,"is_disabled":false,"rental_uris":{"android":"levelo://app?vid=43c1045d-42c6-4217-82f7-db4724270b65","ios":"levelo://app?vid=43c1045d-42c6-4217-82f7-db4724270b65"},"vehicle_type_id":"4","last_reported":1737475854,"current_range_meters":25600,"station_id":"ce4bgrp2rcd13ifvqc9g","pricing_plan_id":"cebpf4jnsgd1na2vs0mg"},{"bike_id":"774c49af-4b32-4e17-a3ad-310f020200f9","system_id":"levelo_inurba_marseille","lat":43.29571,"lon":5.39975,"is_reserved":false,"is_disabled":false,"rental_uris":{"android":"levelo://app?vid=774c49af-4b32-4e17-a3ad-310f020200f9","ios":"levelo://app?vid=774c49af-4b32-4e17-a3ad-310f020200f9"},"vehicle_type_id":"4","last_reported":1737475854,"current_range_meters":16800,"station_id":"ce4bh312rcd13ifvqdj0","pricing_plan_id":"cebpf4jnsgd1na2vs0mg"},{"bike_id":"c577a03d-f1dd-4538-8da3-6c74be9b9c02","system_id":"levelo_inurba_marseille","lat":43.3153,"lon":5.38034,"is_reserved":false,"is_disabled":false,"rental_uris":{"android":"levelo://app?vid=c577a03d-f1dd-4538-8da3-6c74be9b9c02","ios":"levelo://app?vid=c577a03d-f1dd-4538-8da3-6c74be9b9c02"},"vehicle_type_id":"4","last_reported":1737475854,"current_range_meters":38800,"station_id":"ce4bhsp2rcd13ifvqi50","pricing_plan_id":"cebpf4jnsgd1na2vs0mg"},{"bike_id":"87605047-ceb4-4b39-a737-645a88af3d67","system_id":"levelo_inurba_marseille","lat":43.30316,"lon":5.40439,"is_reserved":false,"is_disabled":false,"rental_uris":{"android":"levelo://app?vid=87605047-ceb4-4b39-a737-645a88af3d67","ios":"levelo://app?vid=87605047-ceb4-4b39-a737-645a88af3d67"},"vehicle_type_id":"4","last_reported":1737475854,"current_range_meters":39200,"station_id":"ce4bh012rcd13ifvqd10","pricing_plan_id":"cebpf4jnsgd1na2vs0mg"},{"bike_id":"1e12dc50-0aa4-4395-8656-ca5ee75a5f3e","system_id":"levelo_inurba_marseille","lat":43.305416,"lon":5.368213,"is_reserved":false,"is_disabled":false,"rental_uris":{"android":"levelo://app?vid=1e12dc50-0aa4-4395-8656-ca5ee75a5f3e","ios":"levelo://app?vid=1e12dc50-0aa4-4395-8656-ca5ee75a5f3e"},"vehicle_type_id":"4","last_reported":1737475854,"current_range_meters":38800,"station_id":"ce4bgrp2rcd13ifvqc9g","pricing_plan_id":"cebpf4jnsgd1na2vs0mg"},{"bike_id":"df90c92f-8518-4b37-830b-ee8251062f9f","system_id":"levelo_inurba_marseille","lat":43.27564,"lon":5.38417,"is_reserved":false,"is_disabled":false,"rental_uris":{"android":"levelo://app?vid=df90c92f-8518-4b37-830b-ee8251062f9f","ios":"levelo://app?vid=df90c92f-8518-4b37-830b-ee8251062f9f"},"vehicle_type_id":"4","last_reported":1737475854,"current_range_meters":26800,"station_id":"ce4bhh92rcd13ifvqfi0","pricing_plan_id":"cebpf4jnsgd1na2vs0mg"},{"bike_id":"8036bdc9-79b5-48c8-8fa8-6a131970f95a","system_id":"levelo_inurba_marseille","lat":43.25726,"lon":5.41106,"is_reserved":false,"is_disabled":false,"rental_uris":{"android":"levelo://app?vid=8036bdc9-79b5-48c8-8fa8-6a131970f95a","ios":"levelo://app?vid=8036bdc9-79b5-48c8-8fa8-6a131970f95a"},"vehicle_type_id":"4","last_reported":1737475854,"current_range_meters":31200,"station_id":"ce4bhkp2rcd13ifvqgd0","pricing_plan_id":"cebpf4jnsgd1na2vs0mg"},{"bike_id":"84a7d486-83f1-44a8-8bae-fd056d6abbcd","system_id":"levelo_inurba_marseille","lat":43.31273,"lon":5.40163,"is_reserved":false,"is_disabled":false,"rental_uris":{"android":"levelo://app?vid=84a7d486-83f1-44a8-8bae-fd056d6abbcd","ios":"levelo://app?vid=84a7d486-83f1-44a8-8bae-fd056d6abbcd"},"vehicle_type_id":"4","last_reported":1737475854,"current_range_meters":31200,"station_id":"ce4bh092rcd13ifvqd30","pricing_plan_id":"cebpf4jnsgd1na2vs0mg"},{"bike_id":"40e5a64d-65b5-4754-b8f6-3564af0d8c58","system_id":"levelo_inurba_marseille","lat":43.23145,"lon":5.43721,"is_reserved":false,"is_disabled":false,"rental_uris":{"android":"levelo://app?vid=40e5a64d-65b5-4754-b8f6-3564af0d8c58","ios":"levelo://app?vid=40e5a64d-65b5-4754-b8f6-3564af0d8c58"},"vehicle_type_id":"4","last_reported":1737475854,"current_range_meters":4800,"station_id":"ce4bhmp2rcd13ifvqgog","pricing_plan_id":"cebpf4jnsgd1na2vs0mg"},{"bike_id":"4fe3808d-3506-4d3f-8378-de61384e97b4","system_id":"levelo_inurba_marseille","lat":43.28847,"lon":5.35855,"is_reserved":false,"is_disabled":false,"rental_uris":{"android":"levelo://app?vid=4fe3808d-3506-4d3f-8378-de61384e97b4","ios":"levelo://app?vid=4fe3808d-3506-4d3f-8378-de61384e97b4"},"vehicle_type_id":"4","last_reported":1737475854,"current_range_meters":14000,"station_id":"ce4bhb12rcd13ifvqem0","pricing_plan_id":"cebpf4jnsgd1na2vs0mg"},{"bike_id":"301ad218-79fc-4f77-96f2-3aac2d1a8ccf","system_id":"levelo_inurba_marseille","lat":43.25926,"lon":5.39426,"is_reserved":false,"is_disabled":true,"rental_uris":{"android":"levelo://app?vid=301ad218-79fc-4f77-96f2-3aac2d1a8ccf","ios":"levelo://app?vid=301ad218-79fc-4f77-96f2-3aac2d1a8ccf"},"vehicle_type_id":"4","last_reported":1737475854,"current_range_meters":6800,"station_id":"","pricing_plan_id":"cebpf4jnsgd1na2vs0mg"},{"bike_id":"ee3909c5-90d0-4cea-a9bc-e09fd5c7b11b","system_id":"levelo_inurba_marseille","lat":43.2668,"lon":5.40282,"is_reserved":false,"is_disabled":false,"rental_uris":{"android":"levelo://app?vid=ee3909c5-90d0-4cea-a9bc-e09fd5c7b11b","ios":"levelo://app?vid=ee3909c5-90d0-4cea-a9bc-e09fd5c7b11b"},"vehicle_type_id":"4","last_reported":1737475854,"current_range_meters":36400,"station_id":"ce501612rcd8frsf0b60","pricing_plan_id":"cebpf4jnsgd1na2vs0mg"},{"bike_id":"23379a95-72b4-449c-abbd-5871cdaaa4bd","system_id":"levelo_inurba_marseille","lat":43.30533,"lon":5.36706,"is_reserved":false,"is_disabled":false,"rental_uris":{"android":"levelo://app?vid=23379a95-72b4-449c-abbd-5871cdaaa4bd","ios":"levelo://app?vid=23379a95-72b4-449c-abbd-5871cdaaa4bd"},"vehicle_type_id":"4","last_reported":1737475854,"current_range_meters":36400,"station_id":"ce4bgrp2rcd13ifvqc9g","pricing_plan_id":"cebpf4jnsgd1na2vs0mg"},{"bike_id":"73271825-f317-42ef-98ec-53e0d2a4165e","system_id":"levelo_inurba_marseille","lat":43.27064,"lon":5.40252,"is_reserved":false,"is_disabled":false,"rental_uris":{"android":"levelo://app?vid=73271825-f317-42ef-98ec-53e0d2a4165e","ios":"levelo://app?vid=73271825-f317-42ef-98ec-53e0d2a4165e"},"vehicle_type_id":"4","last_reported":1737475854,"current_range_meters":38800,"station_id":"ce4bhk92rcd13ifvqgc0","pricing_plan_id":"cebpf4jnsgd1na2vs0mg"},{"bike_id":"009e4e21-eaff-4df3-a6cd-96d6c5c81fda","system_id":"levelo_inurba_marseille","lat":43.3055,"lon":5.36521,"is_reserved":false,"is_disabled":false,"rental_uris":{"android":"levelo://app?vid=009e4e21-eaff-4df3-a6cd-96d6c5c81fda","ios":"levelo://app?vid=009e4e21-eaff-4df3-a6cd-96d6c5c81fda"},"vehicle_type_id":"4","last_reported":1737475854,"current_range_meters":23200,"station_id":"ce4bgs12rcd13ifvqcag","pricing_plan_id":"cebpf4jnsgd1na2vs0mg"},{"bike_id":"a478c8e4-70f7-4330-80af-a80f08fe66b3","system_id":"levelo_inurba_marseille","lat":43.25729,"lon":5.41106,"is_reserved":false,"is_disabled":false,"rental_uris":{"android":"levelo://app?vid=a478c8e4-70f7-4330-80af-a80f08fe66b3","ios":"levelo://app?vid=a478c8e4-70f7-4330-80af-a80f08fe66b3"},"vehicle_type_id":"4","last_reported":1737475854,"current_range_meters":24000,"station_id":"ce4bhkp2rcd13ifvqgd0","pricing_plan_id":"cebpf4jnsgd1na2vs0mg"},{"bike_id":"9ea35a92-1564-493c-991c-f92a347b776b","system_id":"levelo_inurba_marseille","lat":43.30542,"lon":5.36536,"is_reserved":false,"is_disabled":false,"rental_uris":{"android":"levelo://app?vid=9ea35a92-1564-493c-991c-f92a347b776b","ios":"levelo://app?vid=9ea35a92-1564-493c-991c-f92a347b776b"},"vehicle_type_id":"4","last_reported":1737475854,"current_range_meters":24800,"station_id":"ce4bgs12rcd13ifvqcag","pricing_plan_id":"cebpf4jnsgd1na2vs0mg"},{"bike_id":"e70ef129-9269-4977-88ab-de087f1ca58a","system_id":"levelo_inurba_marseille","lat":43.28459,"lon":5.35899,"is_reserved":false,"is_disabled":false,"rental_uris":{"android":"levelo://app?vid=e70ef129-9269-4977-88ab-de087f1ca58a","ios":"levelo://app?vid=e70ef129-9269-4977-88ab-de087f1ca58a"},"vehicle_type_id":"4","last_reported":1737475854,"current_range_meters":9200,"station_id":"ce4bhah2rcd13ifvqei0","pricing_plan_id":"cebpf4jnsgd1na2vs0mg"},{"bike_id":"308cc682-94fd-427f-a7f4-c7ad2e8f89c9","system_id":"levelo_inurba_marseille","lat":43.284595,"lon":5.358943,"is_reserved":false,"is_disabled":false,"rental_uris":{"android":"levelo://app?vid=308cc682-94fd-427f-a7f4-c7ad2e8f89c9","ios":"levelo://app?vid=308cc682-94fd-427f-a7f4-c7ad2e8f89c9"},"vehicle_type_id":"4","last_reported":1737475854,"current_range_meters":30000,"station_id":"ce4bhah2rcd13ifvqei0","pricing_plan_id":"cebpf4jnsgd1na2vs0mg"},{"bike_id":"b834a014-a9be-4559-bbaa-15aa5f1cbaa1","system_id":"levelo_inurba_marseille","lat":43.23183,"lon":5.35558,"is_reserved":false,"is_disabled":false,"rental_uris":{"android":"levelo://app?vid=b834a014-a9be-4559-bbaa-15aa5f1cbaa1","ios":"levelo://app?vid=b834a014-a9be-4559-bbaa-15aa5f1cbaa1"},"vehicle_type_id":"4","last_reported":1737475854,"current_range_meters":37600,"station_id":"ce4bhu92rcd13ifvqi70","pricing_plan_id":"cebpf4jnsgd1na2vs0mg"},{"bike_id":"5f776b34-b727-4c57-9619-656fb56904de","system_id":"levelo_inurba_marseille","lat":43.31721,"lon":5.42393,"is_reserved":false,"is_disabled":false,"rental_uris":{"android":"levelo://app?vid=5f776b34-b727-4c57-9619-656fb56904de","ios":"levelo://app?vid=5f776b34-b727-4c57-9619-656fb56904de"},"vehicle_type_id":"4","last_reported":1737475854,"current_range_meters":33200,"station_id":"ce4bhp92rcd13ifvqhbg","pricing_plan_id":"cebpf4jnsgd1na2vs0mg"},{"bike_id":"10d27098-69e9-48b1-9d26-115b0af1cc68","system_id":"levelo_inurba_marseille","lat":43.30546,"lon":5.36529,"is_reserved":false,"is_disabled":false,"rental_uris":{"android":"levelo://app?vid=10d27098-69e9-48b1-9d26-115b0af1cc68","ios":"levelo://app?vid=10d27098-69e9-48b1-9d26-115b0af1cc68"},"vehicle_type_id":"4","last_reported":1737475854,"current_range_meters":30800,"station_id":"ce4bgs12rcd13ifvqcag","pricing_plan_id":"cebpf4jnsgd1na2vs0mg"},{"bike_id":"81cf9bde-8e9c-45bb-ad93-555cd5062e27","system_id":"levelo_inurba_marseille","lat":43.296,"lon":5.38086,"is_reserved":false,"is_disabled":false,"rental_uris":{"android":"levelo://app?vid=81cf9bde-8e9c-45bb-ad93-555cd5062e27","ios":"levelo://app?vid=81cf9bde-8e9c-45bb-ad93-555cd5062e27"},"vehicle_type_id":"4","last_reported":1737475854,"current_range_meters":38800,"station_id":"ce4bgl12rcd13ifvqbo0","pricing_plan_id":"cebpf4jnsgd1na2vs0mg"},{"bike_id":"d0a33a41-0d51-4900-8e45-cabd24c823ed","system_id":"levelo_inurba_marseille","lat":43.28922,"lon":5.36626,"is_reserved":false,"is_disabled":false,"rental_uris":{"android":"levelo://app?vid=d0a33a41-0d51-4900-8e45-cabd24c823ed","ios":"levelo://app?vid=d0a33a41-0d51-4900-8e45-cabd24c823ed"},"vehicle_type_id":"4","last_reported":1737475854,"current_range_meters":29600,"station_id":"ce4bhap2rcd13ifvqek0","pricing_plan_id":"cebpf4jnsgd1na2vs0mg"},{"bike_id":"d8b49f42-144a-4cb8-8172-0b5099baab4f","system_id":"levelo_inurba_marseille","lat":43.23954,"lon":5.3664,"is_reserved":false,"is_disabled":false,"rental_uris":{"android":"levelo://app?vid=d8b49f42-144a-4cb8-8172-0b5099baab4f","ios":"levelo://app?vid=d8b49f42-144a-4cb8-8172-0b5099baab4f"},"vehicle_type_id":"4","last_reported":1737475854,"current_range_meters":25200,"station_id":"ce4bhi12rcd13ifvqfp0","pricing_plan_id":"cebpf4jnsgd1na2vs0mg"},{"bike_id":"4d195e05-6a2a-4423-b191-9522870638ce","system_id":"levelo_inurba_marseille","lat":43.26587,"lon":5.39034,"is_reserved":false,"is_disabled":false,"rental_uris":{"android":"levelo://app?vid=4d195e05-6a2a-4423-b191-9522870638ce","ios":"levelo://app?vid=4d195e05-6a2a-4423-b191-9522870638ce"},"vehicle_type_id":"4","last_reported":1737475854,"current_range_meters":33600,"station_id":"ce4bhe12rcd13ifvqf30","pricing_plan_id":"cebpf4jnsgd1na2vs0mg"},{"bike_id":"b1f5111e-e8d5-4e28-9287-78feb11fbe79","system_id":"levelo_inurba_marseille","lat":43.28931,"lon":5.3664,"is_reserved":false,"is_disabled":false,"rental_uris":{"android":"levelo://app?vid=b1f5111e-e8d5-4e28-9287-78feb11fbe79","ios":"levelo://app?vid=b1f5111e-e8d5-4e28-9287-78feb11fbe79"},"vehicle_type_id":"4","last_reported":1737475854,"current_range_meters":20400,"station_id":"ce4bhap2rcd13ifvqek0","pricing_plan_id":"cebpf4jnsgd1na2vs0mg"},{"bike_id":"66ce096e-2d59-4d30-bb68-6329fea7fe13","system_id":"levelo_inurba_marseille","lat":43.32123,"lon":5.36789,"is_reserved":false,"is_disabled":false,"rental_uris":{"android":"levelo://app?vid=66ce096e-2d59-4d30-bb68-6329fea7fe13","ios":"levelo://app?vid=66ce096e-2d59-4d30-bb68-6329fea7fe13"},"vehicle_type_id":"4","last_reported":1737475854,"current_range_meters":27200,"station_id":"ce4bhrh2rcd13ifvqhug","pricing_plan_id":"cebpf4jnsgd1na2vs0mg"},{"bike_id":"db0fdaaf-d4fe-42e8-9e1e-221689f83cd8","system_id":"levelo_inurba_marseille","lat":43.28038,"lon":5.36945,"is_reserved":false,"is_disabled":false,"rental_uris":{"android":"levelo://app?vid=db0fdaaf-d4fe-42e8-9e1e-221689f83cd8","ios":"levelo://app?vid=db0fdaaf-d4fe-42e8-9e1e-221689f83cd8"},"vehicle_type_id":"4","last_reported":1737475854,"current_range_meters":38800,"station_id":"ce4bha12rcd13ifvqef0","pricing_plan_id":"cebpf4jnsgd1na2vs0mg"},{"bike_id":"b82839b5-5b15-4dc7-9f03-a684a2a0edde","system_id":"levelo_inurba_marseille","lat":43.31079,"lon":5.42456,"is_reserved":false,"is_disabled":false,"rental_uris":{"android":"levelo://app?vid=b82839b5-5b15-4dc7-9f03-a684a2a0edde","ios":"levelo://app?vid=b82839b5-5b15-4dc7-9f03-a684a2a0edde"},"vehicle_type_id":"4","last_reported":1737475854,"current_range_meters":18800,"station_id":"ce4bhp92rcd13ifvqhag","pricing_plan_id":"cebpf4jnsgd1na2vs0mg"},{"bike_id":"e8a90894-bf94-4131-8e7e-635abd998083","system_id":"levelo_inurba_marseille","lat":43.31077,"lon":5.3836,"is_reserved":false,"is_disabled":false,"rental_uris":{"android":"levelo://app?vid=e8a90894-bf94-4131-8e7e-635abd998083","ios":"levelo://app?vid=e8a90894-bf94-4131-8e7e-635abd998083"},"vehicle_type_id":"4","last_reported":1737475854,"current_range_meters":30400,"station_id":"ce4bgv92rcd13ifvqcr0","pricing_plan_id":"cebpf4jnsgd1na2vs0mg"},{"bike_id":"2e4d714f-9daa-4c59-84e1-38ee951dadae","system_id":"levelo_inurba_marseille","lat":43.25857,"lon":5.39906,"is_reserved":false,"is_disabled":false,"rental_uris":{"android":"levelo://app?vid=2e4d714f-9daa-4c59-84e1-38ee951dadae","ios":"levelo://app?vid=2e4d714f-9daa-4c59-84e1-38ee951dadae"},"vehicle_type_id":"4","last_reported":1737475854,"current_range_meters":38800,"station_id":"ce4bhl92rcd13ifvqghg","pricing_plan_id":"cebpf4jnsgd1na2vs0mg"},{"bike_id":"b2598b4d-9a68-478b-8e42-9c332ae2a893","system_id":"levelo_inurba_marseille","lat":43.28722,"lon":5.3609,"is_reserved":false,"is_disabled":false,"rental_uris":{"android":"levelo://app?vid=b2598b4d-9a68-478b-8e42-9c332ae2a893","ios":"levelo://app?vid=b2598b4d-9a68-478b-8e42-9c332ae2a893"},"vehicle_type_id":"4","last_reported":1737475854,"current_range_meters":36000,"station_id":"cki0cbj6b192h4jlfktg","pricing_plan_id":"cebpf4jnsgd1na2vs0mg"},{"bike_id":"748b55dc-03e4-432e-b6ac-585716a6c350","system_id":"levelo_inurba_marseille","lat":43.26574,"lon":5.3904,"is_reserved":false,"is_disabled":false,"rental_uris":{"android":"levelo://app?vid=748b55dc-03e4-432e-b6ac-585716a6c350","ios":"levelo://app?vid=748b55dc-03e4-432e-b6ac-585716a6c350"},"vehicle_type_id":"4","last_reported":1737475854,"current_range_meters":35200,"station_id":"ce4bhe12rcd13ifvqf30","pricing_plan_id":"cebpf4jnsgd1na2vs0mg"},{"bike_id":"a64d2809-91be-4c20-83b2-9f7439ed4c4c","system_id":"levelo_inurba_marseille","lat":43.27054,"lon":5.40258,"is_reserved":false,"is_disabled":false,"rental_uris":{"android":"levelo://app?vid=a64d2809-91be-4c20-83b2-9f7439ed4c4c","ios":"levelo://app?vid=a64d2809-91be-4c20-83b2-9f7439ed4c4c"},"vehicle_type_id":"4","last_reported":1737475854,"current_range_meters":16800,"station_id":"ce4bhk92rcd13ifvqgc0","pricing_plan_id":"cebpf4jnsgd1na2vs0mg"},{"bike_id":"f29197b7-892b-4656-99c5-484d8091a1b7","system_id":"levelo_inurba_marseille","lat":43.30536,"lon":5.36706,"is_reserved":false,"is_disabled":false,"rental_uris":{"android":"levelo://app?vid=f29197b7-892b-4656-99c5-484d8091a1b7","ios":"levelo://app?vid=f29197b7-892b-4656-99c5-484d8091a1b7"},"vehicle_type_id":"4","last_reported":1737475854,"current_range_meters":38800,"station_id":"ce4bgrp2rcd13ifvqc9g","pricing_plan_id":"cebpf4jnsgd1na2vs0mg"},{"bike_id":"c63545a7-0958-43b8-9a12-90a8d5922737","system_id":"levelo_inurba_marseille","lat":43.24183,"lon":5.39733,"is_reserved":false,"is_disabled":false,"rental_uris":{"android":"levelo://app?vid=c63545a7-0958-43b8-9a12-90a8d5922737","ios":"levelo://app?vid=c63545a7-0958-43b8-9a12-90a8d5922737"},"vehicle_type_id":"4","last_reported":1737475854,"current_range_meters":38800,"station_id":"ce4bhn12rcd13ifvqgpg","pricing_plan_id":"cebpf4jnsgd1na2vs0mg"},{"bike_id":"5434439c-80a7-45ef-8e7d-a897cb833684","system_id":"levelo_inurba_marseille","lat":43.32363,"lon":5.36771,"is_reserved":false,"is_disabled":false,"rental_uris":{"android":"levelo://app?vid=5434439c-80a7-45ef-8e7d-a897cb833684","ios":"levelo://app?vid=5434439c-80a7-45ef-8e7d-a897cb833684"},"vehicle_type_id":"4","last_reported":1737475854,"current_range_meters":38800,"station_id":"ce4bhsh2rcd13ifvqi2g","pricing_plan_id":"cebpf4jnsgd1na2vs0mg"},{"bike_id":"ba19dae0-538a-461d-b2d8-022275484795","system_id":"levelo_inurba_marseille","lat":43.26782,"lon":5.39409,"is_reserved":false,"is_disabled":false,"rental_uris":{"android":"levelo://app?vid=ba19dae0-538a-461d-b2d8-022275484795","ios":"levelo://app?vid=ba19dae0-538a-461d-b2d8-022275484795"},"vehicle_type_id":"4","last_reported":1737475854,"current_range_meters":9600,"station_id":"ce4bhl92rcd13ifvqghg","pricing_plan_id":"cebpf4jnsgd1na2vs0mg"},{"bike_id":"ef1fc9d5-d036-4f48-874b-f910389f6d84","system_id":"levelo_inurba_marseille","lat":43.29974,"lon":5.37168,"is_reserved":false,"is_disabled":false,"rental_uris":{"android":"levelo://app?vid=ef1fc9d5-d036-4f48-874b-f910389f6d84","ios":"levelo://app?vid=ef1fc9d5-d036-4f48-874b-f910389f6d84"},"vehicle_type_id":"4","last_reported":1737475854,"current_range_meters":20000,"station_id":"ce4bgr92rcd13ifvqc7g","pricing_plan_id":"cebpf4jnsgd1na2vs0mg"},{"bike_id":"c8845c15-7916-4a20-9dee-dd00666a36d3","system_id":"levelo_inurba_marseille","lat":43.32363,"lon":5.38885,"is_reserved":false,"is_disabled":false,"rental_uris":{"android":"levelo://app?vid=c8845c15-7916-4a20-9dee-dd00666a36d3","ios":"levelo://app?vid=c8845c15-7916-4a20-9dee-dd00666a36d3"},"vehicle_type_id":"4","last_reported":1737475854,"current_range_meters":30000,"station_id":"ce4bhqp2rcd13ifvqhog","pricing_plan_id":"cebpf4jnsgd1na2vs0mg"},{"bike_id":"42707e4f-fc86-4055-94d3-267e0305077b","system_id":"levelo_inurba_marseille","lat":43.29868,"lon":5.36284,"is_reserved":false,"is_disabled":false,"rental_uris":{"android":"levelo://app?vid=42707e4f-fc86-4055-94d3-267e0305077b","ios":"levelo://app?vid=42707e4f-fc86-4055-94d3-267e0305077b"},"vehicle_type_id":"4","last_reported":1737475854,"current_range_meters":38800,"station_id":"ce4bgpp2rcd13ifvqc3g","pricing_plan_id":"cebpf4jnsgd1na2vs0mg"},{"bike_id":"64db208d-9ab5-46dc-9520-677ec4de5654","system_id":"levelo_inurba_marseille","lat":43.27568,"lon":5.38412,"is_reserved":false,"is_disabled":false,"rental_uris":{"android":"levelo://app?vid=64db208d-9ab5-46dc-9520-677ec4de5654","ios":"levelo://app?vid=64db208d-9ab5-46dc-9520-677ec4de5654"},"vehicle_type_id":"4","last_reported":1737475854,"current_range_meters":32800,"station_id":"ce4bhh92rcd13ifvqfi0","pricing_plan_id":"cebpf4jnsgd1na2vs0mg"},{"bike_id":"25a450b2-f97e-4b98-a100-ad338c5b031f","system_id":"levelo_inurba_marseille","lat":43.29623,"lon":5.37174,"is_reserved":false,"is_disabled":false,"rental_uris":{"android":"levelo://app?vid=25a450b2-f97e-4b98-a100-ad338c5b031f","ios":"levelo://app?vid=25a450b2-f97e-4b98-a100-ad338c5b031f"},"vehicle_type_id":"4","last_reported":1737475854,"current_range_meters":26000,"station_id":"ce4bgnh2rcd13ifvqc0g","pricing_plan_id":"cebpf4jnsgd1na2vs0mg"},{"bike_id":"b50806dd-b99e-4570-ab12-335c9bd89c63","system_id":"levelo_inurba_marseille","lat":43.28846,"lon":5.39303,"is_reserved":false,"is_disabled":false,"rental_uris":{"android":"levelo://app?vid=b50806dd-b99e-4570-ab12-335c9bd89c63","ios":"levelo://app?vid=b50806dd-b99e-4570-ab12-335c9bd89c63"},"vehicle_type_id":"4","last_reported":1737475854,"current_range_meters":16400,"station_id":"ce4bh2p2rcd13ifvqdi0","pricing_plan_id":"cebpf4jnsgd1na2vs0mg"},{"bike_id":"e204cd14-a6ca-4af8-a249-8eb199ff24f0","system_id":"levelo_inurba_marseille","lat":43.2867,"lon":5.38669,"is_reserved":false,"is_disabled":false,"rental_uris":{"android":"levelo://app?vid=e204cd14-a6ca-4af8-a249-8eb199ff24f0","ios":"levelo://app?vid=e204cd14-a6ca-4af8-a249-8eb199ff24f0"},"vehicle_type_id":"4","last_reported":1737475854,"current_range_meters":30800,"station_id":"ce4bh492rcd13ifvqdug","pricing_plan_id":"cebpf4jnsgd1na2vs0mg"},{"bike_id":"5248507d-584c-4bdf-b4e3-a7339c0ecad3","system_id":"levelo_inurba_marseille","lat":43.3031,"lon":5.39191,"is_reserved":false,"is_disabled":false,"rental_uris":{"android":"levelo://app?vid=5248507d-584c-4bdf-b4e3-a7339c0ecad3","ios":"levelo://app?vid=5248507d-584c-4bdf-b4e3-a7339c0ecad3"},"vehicle_type_id":"4","last_reported":1737475854,"current_range_meters":36400,"station_id":"ce4bgkh2rcd13ifvqbk0","pricing_plan_id":"cebpf4jnsgd1na2vs0mg"},{"bike_id":"622702ca-d1ab-4b3f-9f10-46a5beff017c","system_id":"levelo_inurba_marseille","lat":43.2844,"lon":5.392,"is_reserved":false,"is_disabled":false,"rental_uris":{"android":"levelo://app?vid=622702ca-d1ab-4b3f-9f10-46a5beff017c","ios":"levelo://app?vid=622702ca-d1ab-4b3f-9f10-46a5beff017c"},"vehicle_type_id":"4","last_reported":1737475854,"current_range_meters":10000,"station_id":"ce4bhoh2rcd13ifvqh5g","pricing_plan_id":"cebpf4jnsgd1na2vs0mg"},{"bike_id":"01cd13ee-681d-4a61-8609-68d170d4511a","system_id":"levelo_inurba_marseille","lat":43.29623,"lon":5.37165,"is_reserved":false,"is_disabled":true,"rental_uris":{"android":"levelo://app?vid=01cd13ee-681d-4a61-8609-68d170d4511a","ios":"levelo://app?vid=01cd13ee-681d-4a61-8609-68d170d4511a"},"vehicle_type_id":"4","last_reported":1737475854,"current_range_meters":800,"station_id":"ce4bgnh2rcd13ifvqc0g","pricing_plan_id":"cebpf4jnsgd1na2vs0mg"},{"bike_id":"a86a6700-765e-49cb-a89a-158a0b203e3f","system_id":"levelo_inurba_marseille","lat":43.2467,"lon":5.38141,"is_reserved":false,"is_disabled":false,"rental_uris":{"android":"levelo://app?vid=a86a6700-765e-49cb-a89a-158a0b203e3f","ios":"levelo://app?vid=a86a6700-765e-49cb-a89a-158a0b203e3f"},"vehicle_type_id":"4","last_reported":1737475854,"current_range_meters":35200,"station_id":"ce4bhih2rcd13ifvqfr0","pricing_plan_id":"cebpf4jnsgd1na2vs0mg"},{"bike_id":"60b7d049-237a-4dbd-ad0c-436ecde1802f","system_id":"levelo_inurba_marseille","lat":43.23192,"lon":5.35555,"is_reserved":false,"is_disabled":false,"rental_uris":{"android":"levelo://app?vid=60b7d049-237a-4dbd-ad0c-436ecde1802f","ios":"levelo://app?vid=60b7d049-237a-4dbd-ad0c-436ecde1802f"},"vehicle_type_id":"4","last_reported":1737475854,"current_range_meters":20000,"station_id":"ce4bhu92rcd13ifvqi70","pricing_plan_id":"cebpf4jnsgd1na2vs0mg"},{"bike_id":"fe7011bb-5454-4247-a00a-90c1b444d493","system_id":"levelo_inurba_marseille","lat":43.23966,"lon":5.36628,"is_reserved":false,"is_disabled":false,"rental_uris":{"android":"levelo://app?vid=fe7011bb-5454-4247-a00a-90c1b444d493","ios":"levelo://app?vid=fe7011bb-5454-4247-a00a-90c1b444d493"},"vehicle_type_id":"4","last_reported":1737475854,"current_range_meters":12400,"station_id":"ce4bhi12rcd13ifvqfp0","pricing_plan_id":"cebpf4jnsgd1na2vs0mg"},{"bike_id":"baf4e478-9382-48ff-85de-1e0ecb65cad1","system_id":"levelo_inurba_marseille","lat":43.30544,"lon":5.36533,"is_reserved":false,"is_disabled":false,"rental_uris":{"android":"levelo://app?vid=baf4e478-9382-48ff-85de-1e0ecb65cad1","ios":"levelo://app?vid=baf4e478-9382-48ff-85de-1e0ecb65cad1"},"vehicle_type_id":"4","last_reported":1737475854,"current_range_meters":30400,"station_id":"ce4bgs12rcd13ifvqcag","pricing_plan_id":"cebpf4jnsgd1na2vs0mg"},{"bike_id":"86d67274-3f7f-4b7f-936e-b73e7a0da0d3","system_id":"levelo_inurba_marseille","lat":43.30542,"lon":5.36665,"is_reserved":false,"is_disabled":false,"rental_uris":{"android":"levelo://app?vid=86d67274-3f7f-4b7f-936e-b73e7a0da0d3","ios":"levelo://app?vid=86d67274-3f7f-4b7f-936e-b73e7a0da0d3"},"vehicle_type_id":"4","last_reported":1737475854,"current_range_meters":38800,"station_id":"ce4bgrp2rcd13ifvqc9g","pricing_plan_id":"cebpf4jnsgd1na2vs0mg"},{"bike_id":"742dd643-dd04-4556-9878-b664dbab227c","system_id":"levelo_inurba_marseille","lat":43.30302,"lon":5.39208,"is_reserved":false,"is_disabled":false,"rental_uris":{"android":"levelo://app?vid=742dd643-dd04-4556-9878-b664dbab227c","ios":"levelo://app?vid=742dd643-dd04-4556-9878-b664dbab227c"},"vehicle_type_id":"4","last_reported":1737475854,"current_range_meters":10000,"station_id":"ce4bgkh2rcd13ifvqbk0","pricing_plan_id":"cebpf4jnsgd1na2vs0mg"},{"bike_id":"cea541d4-3f8e-4079-91ad-02075f617536","system_id":"levelo_inurba_marseille","lat":43.27369,"lon":5.36251,"is_reserved":false,"is_disabled":false,"rental_uris":{"android":"levelo://app?vid=cea541d4-3f8e-4079-91ad-02075f617536","ios":"levelo://app?vid=cea541d4-3f8e-4079-91ad-02075f617536"},"vehicle_type_id":"4","last_reported":1737475854,"current_range_meters":38800,"station_id":"ce4bhbh2rcd13ifvqeo0","pricing_plan_id":"cebpf4jnsgd1na2vs0mg"},{"bike_id":"e87debe1-dd81-4477-a1cc-0f387a2af601","system_id":"levelo_inurba_marseille","lat":43.29921,"lon":5.37466,"is_reserved":false,"is_disabled":false,"rental_uris":{"android":"levelo://app?vid=e87debe1-dd81-4477-a1cc-0f387a2af601","ios":"levelo://app?vid=e87debe1-dd81-4477-a1cc-0f387a2af601"},"vehicle_type_id":"4","last_reported":1737475854,"current_range_meters":28400,"station_id":"ce4bgjh2rcd13ifvqbg0","pricing_plan_id":"cebpf4jnsgd1na2vs0mg"},{"bike_id":"4f990209-04d5-4ce5-bcf6-1abc31b5d30d","system_id":"levelo_inurba_marseille","lat":43.30532,"lon":5.36549,"is_reserved":false,"is_disabled":false,"rental_uris":{"android":"levelo://app?vid=4f990209-04d5-4ce5-bcf6-1abc31b5d30d","ios":"levelo://app?vid=4f990209-04d5-4ce5-bcf6-1abc31b5d30d"},"vehicle_type_id":"4","last_reported":1737475854,"current_range_meters":38800,"station_id":"ce4bgs12rcd13ifvqcag","pricing_plan_id":"cebpf4jnsgd1na2vs0mg"},{"bike_id":"f10b2b9b-9195-407d-bfbb-b2eb8f9fdb32","system_id":"levelo_inurba_marseille","lat":43.24545,"lon":5.39525,"is_reserved":false,"is_disabled":false,"rental_uris":{"android":"levelo://app?vid=f10b2b9b-9195-407d-bfbb-b2eb8f9fdb32","ios":"levelo://app?vid=f10b2b9b-9195-407d-bfbb-b2eb8f9fdb32"},"vehicle_type_id":"4","last_reported":1737475854,"current_range_meters":12800,"station_id":"ce4bhlp2rcd13ifvqgjg","pricing_plan_id":"cebpf4jnsgd1na2vs0mg"},{"bike_id":"25725921-574e-48a7-bc60-c7e88e736cea","system_id":"levelo_inurba_marseille","lat":43.23965,"lon":5.36634,"is_reserved":false,"is_disabled":false,"rental_uris":{"android":"levelo://app?vid=25725921-574e-48a7-bc60-c7e88e736cea","ios":"levelo://app?vid=25725921-574e-48a7-bc60-c7e88e736cea"},"vehicle_type_id":"4","last_reported":1737475854,"current_range_meters":36400,"station_id":"ce4bhi12rcd13ifvqfp0","pricing_plan_id":"cebpf4jnsgd1na2vs0mg"},{"bike_id":"6d7fe95a-e88d-4fb7-a96e-3e6d5f428771","system_id":"levelo_inurba_marseille","lat":43.28725,"lon":5.36071,"is_reserved":false,"is_disabled":false,"rental_uris":{"android":"levelo://app?vid=6d7fe95a-e88d-4fb7-a96e-3e6d5f428771","ios":"levelo://app?vid=6d7fe95a-e88d-4fb7-a96e-3e6d5f428771"},"vehicle_type_id":"4","last_reported":1737475854,"current_range_meters":22000,"station_id":"cki0cbj6b192h4jlfktg","pricing_plan_id":"cebpf4jnsgd1na2vs0mg"},{"bike_id":"b1178cb4-439f-49c8-944f-b5adf4637300","system_id":"levelo_inurba_marseille","lat":43.28157,"lon":5.4264,"is_reserved":false,"is_disabled":false,"rental_uris":{"android":"levelo://app?vid=b1178cb4-439f-49c8-944f-b5adf4637300","ios":"levelo://app?vid=b1178cb4-439f-49c8-944f-b5adf4637300"},"vehicle_type_id":"4","last_reported":1737475854,"current_range_meters":24000,"station_id":"ce4bhnh2rcd13ifvqgug","pricing_plan_id":"cebpf4jnsgd1na2vs0mg"},{"bike_id":"64b084cb-bee9-4bf3-b5f1-99ae8fc22268","system_id":"levelo_inurba_marseille","lat":43.2417,"lon":5.39717,"is_reserved":false,"is_disabled":false,"rental_uris":{"android":"levelo://app?vid=64b084cb-bee9-4bf3-b5f1-99ae8fc22268","ios":"levelo://app?vid=64b084cb-bee9-4bf3-b5f1-99ae8fc22268"},"vehicle_type_id":"4","last_reported":1737475854,"current_range_meters":26800,"station_id":"ce4bhn12rcd13ifvqgpg","pricing_plan_id":"cebpf4jnsgd1na2vs0mg"},{"bike_id":"c3b02245-62fa-4dcf-8ecb-784215d26708","system_id":"levelo_inurba_marseille","lat":43.276638,"lon":5.388772,"is_reserved":false,"is_disabled":false,"rental_uris":{"android":"levelo://app?vid=c3b02245-62fa-4dcf-8ecb-784215d26708","ios":"levelo://app?vid=c3b02245-62fa-4dcf-8ecb-784215d26708"},"vehicle_type_id":"4","last_reported":1737475854,"current_range_meters":35200,"station_id":"ce4bhi12rcd13ifvqfo0","pricing_plan_id":"cebpf4jnsgd1na2vs0mg"},{"bike_id":"f608b382-76f1-4146-82dc-6c379612bba7","system_id":"levelo_inurba_marseille","lat":43.32486,"lon":5.36563,"is_reserved":false,"is_disabled":false,"rental_uris":{"android":"levelo://app?vid=f608b382-76f1-4146-82dc-6c379612bba7","ios":"levelo://app?vid=f608b382-76f1-4146-82dc-6c379612bba7"},"vehicle_type_id":"4","last_reported":1737475854,"current_range_meters":28000,"station_id":"ce4bhs12rcd13ifvqhvg","pricing_plan_id":"cebpf4jnsgd1na2vs0mg"},{"bike_id":"0aaedd18-95c7-458b-bb63-6504ef2e11ba","system_id":"levelo_inurba_marseille","lat":43.32106,"lon":5.36773,"is_reserved":false,"is_disabled":false,"rental_uris":{"android":"levelo://app?vid=0aaedd18-95c7-458b-bb63-6504ef2e11ba","ios":"levelo://app?vid=0aaedd18-95c7-458b-bb63-6504ef2e11ba"},"vehicle_type_id":"4","last_reported":1737475854,"current_range_meters":33200,"station_id":"ce4bhrh2rcd13ifvqhug","pricing_plan_id":"cebpf4jnsgd1na2vs0mg"},{"bike_id":"de695776-f513-4e38-9108-fb33192a39fb","system_id":"levelo_inurba_marseille","lat":43.23968,"lon":5.36623,"is_reserved":false,"is_disabled":false,"rental_uris":{"android":"levelo://app?vid=de695776-f513-4e38-9108-fb33192a39fb","ios":"levelo://app?vid=de695776-f513-4e38-9108-fb33192a39fb"},"vehicle_type_id":"4","last_reported":1737475854,"current_range_meters":38800,"station_id":"ce4bhi12rcd13ifvqfp0","pricing_plan_id":"cebpf4jnsgd1na2vs0mg"},{"bike_id":"58d9dcaa-b771-4291-bcdd-8cd15f76564e","system_id":"levelo_inurba_marseille","lat":43.31081,"lon":5.4243,"is_reserved":false,"is_disabled":false,"rental_uris":{"android":"levelo://app?vid=58d9dcaa-b771-4291-bcdd-8cd15f76564e","ios":"levelo://app?vid=58d9dcaa-b771-4291-bcdd-8cd15f76564e"},"vehicle_type_id":"4","last_reported":1737475854,"current_range_meters":32800,"station_id":"ce4bhp92rcd13ifvqhag","pricing_plan_id":"cebpf4jnsgd1na2vs0mg"},{"bike_id":"a00f9d10-2df3-4a8a-9537-639a60aaa7db","system_id":"levelo_inurba_marseille","lat":43.32499,"lon":5.3656,"is_reserved":false,"is_disabled":false,"rental_uris":{"android":"levelo://app?vid=a00f9d10-2df3-4a8a-9537-639a60aaa7db","ios":"levelo://app?vid=a00f9d10-2df3-4a8a-9537-639a60aaa7db"},"vehicle_type_id":"4","last_reported":1737475854,"current_range_meters":34800,"station_id":"ce4bhs12rcd13ifvqhvg","pricing_plan_id":"cebpf4jnsgd1na2vs0mg"},{"bike_id":"ecf47b9b-8cb9-4d55-8ba3-b285b5d2196b","system_id":"levelo_inurba_marseille","lat":43.25865,"lon":5.39894,"is_reserved":false,"is_disabled":false,"rental_uris":{"android":"levelo://app?vid=ecf47b9b-8cb9-4d55-8ba3-b285b5d2196b","ios":"levelo://app?vid=ecf47b9b-8cb9-4d55-8ba3-b285b5d2196b"},"vehicle_type_id":"4","last_reported":1737475854,"current_range_meters":12000,"station_id":"ce4bhl92rcd13ifvqghg","pricing_plan_id":"cebpf4jnsgd1na2vs0mg"},{"bike_id":"08a0aa4a-0e05-4b52-b7fe-41d5430ca038","system_id":"levelo_inurba_marseille","lat":43.30778,"lon":5.37654,"is_reserved":false,"is_disabled":false,"rental_uris":{"android":"levelo://app?vid=08a0aa4a-0e05-4b52-b7fe-41d5430ca038","ios":"levelo://app?vid=08a0aa4a-0e05-4b52-b7fe-41d5430ca038"},"vehicle_type_id":"4","last_reported":1737475854,"current_range_meters":38800,"station_id":"ce4bgv92rcd13ifvqcq0","pricing_plan_id":"cebpf4jnsgd1na2vs0mg"},{"bike_id":"9878a93c-bec9-42b8-bcf0-67f3ea4d1b2c","system_id":"levelo_inurba_marseille","lat":43.28661,"lon":5.36346,"is_reserved":false,"is_disabled":false,"rental_uris":{"android":"levelo://app?vid=9878a93c-bec9-42b8-bcf0-67f3ea4d1b2c","ios":"levelo://app?vid=9878a93c-bec9-42b8-bcf0-67f3ea4d1b2c"},"vehicle_type_id":"4","last_reported":1737475854,"current_range_meters":7200,"station_id":"ce4bhah2rcd13ifvqej0","pricing_plan_id":"cebpf4jnsgd1na2vs0mg"},{"bike_id":"c70c7955-2cfd-40c0-86b7-a19179005842","system_id":"levelo_inurba_marseille","lat":43.27615,"lon":5.3611,"is_reserved":false,"is_disabled":false,"rental_uris":{"android":"levelo://app?vid=c70c7955-2cfd-40c0-86b7-a19179005842","ios":"levelo://app?vid=c70c7955-2cfd-40c0-86b7-a19179005842"},"vehicle_type_id":"4","last_reported":1737475854,"current_range_meters":38800,"station_id":"ce4bgj92rcd13ifvqbe0","pricing_plan_id":"cebpf4jnsgd1na2vs0mg"},{"bike_id":"ee6e0e16-8f11-4dfe-aeb2-64af820c3bcb","system_id":"levelo_inurba_marseille","lat":43.27677,"lon":5.38882,"is_reserved":false,"is_disabled":false,"rental_uris":{"android":"levelo://app?vid=ee6e0e16-8f11-4dfe-aeb2-64af820c3bcb","ios":"levelo://app?vid=ee6e0e16-8f11-4dfe-aeb2-64af820c3bcb"},"vehicle_type_id":"4","last_reported":1737475854,"current_range_meters":37600,"station_id":"ce4bhi12rcd13ifvqfo0","pricing_plan_id":"cebpf4jnsgd1na2vs0mg"},{"bike_id":"6f4eff95-7e98-465f-a583-6e026ebf0934","system_id":"levelo_inurba_marseille","lat":43.23956,"lon":5.3664,"is_reserved":false,"is_disabled":false,"rental_uris":{"android":"levelo://app?vid=6f4eff95-7e98-465f-a583-6e026ebf0934","ios":"levelo://app?vid=6f4eff95-7e98-465f-a583-6e026ebf0934"},"vehicle_type_id":"4","last_reported":1737475854,"current_range_meters":35600,"station_id":"ce4bhi12rcd13ifvqfp0","pricing_plan_id":"cebpf4jnsgd1na2vs0mg"},{"bike_id":"d7e117ca-16bf-4121-a8b8-c81a7896ce47","system_id":"levelo_inurba_marseille","lat":43.28151,"lon":5.42634,"is_reserved":false,"is_disabled":false,"rental_uris":{"android":"levelo://app?vid=d7e117ca-16bf-4121-a8b8-c81a7896ce47","ios":"levelo://app?vid=d7e117ca-16bf-4121-a8b8-c81a7896ce47"},"vehicle_type_id":"4","last_reported":1737475854,"current_range_meters":38800,"station_id":"ce4bhnh2rcd13ifvqgug","pricing_plan_id":"cebpf4jnsgd1na2vs0mg"},{"bike_id":"2e7017ed-6b8d-41cc-90f2-0210a427423b","system_id":"levelo_inurba_marseille","lat":43.25492,"lon":5.37643,"is_reserved":false,"is_disabled":false,"rental_uris":{"android":"levelo://app?vid=2e7017ed-6b8d-41cc-90f2-0210a427423b","ios":"levelo://app?vid=2e7017ed-6b8d-41cc-90f2-0210a427423b"},"vehicle_type_id":"4","last_reported":1737475854,"current_range_meters":14800,"station_id":"ce4bhh12rcd13ifvqff0","pricing_plan_id":"cebpf4jnsgd1na2vs0mg"},{"bike_id":"61e05fcf-cc9f-4183-b89f-b9be3a0ee65d","system_id":"levelo_inurba_marseille","lat":43.29416,"lon":5.38633,"is_reserved":false,"is_disabled":false,"rental_uris":{"android":"levelo://app?vid=61e05fcf-cc9f-4183-b89f-b9be3a0ee65d","ios":"levelo://app?vid=61e05fcf-cc9f-4183-b89f-b9be3a0ee65d"},"vehicle_type_id":"4","last_reported":1737475854,"current_range_meters":35200,"station_id":"ce4bh2h2rcd13ifvqdh0","pricing_plan_id":"cebpf4jnsgd1na2vs0mg"},{"bike_id":"d1240c7b-8b57-4edb-aca1-5aa88715f444","system_id":"levelo_inurba_marseille","lat":43.29575,"lon":5.37527,"is_reserved":false,"is_disabled":false,"rental_uris":{"android":"levelo://app?vid=d1240c7b-8b57-4edb-aca1-5aa88715f444","ios":"levelo://app?vid=d1240c7b-8b57-4edb-aca1-5aa88715f444"},"vehicle_type_id":"4","last_reported":1737475854,"current_range_meters":22000,"station_id":"ce4bgh92rcd13ifvqb50","pricing_plan_id":"cebpf4jnsgd1na2vs0mg"},{"bike_id":"b90f28b1-131a-404f-9a27-407f14a30e88","system_id":"levelo_inurba_marseille","lat":43.301386,"lon":5.388232,"is_reserved":false,"is_disabled":false,"rental_uris":{"android":"levelo://app?vid=b90f28b1-131a-404f-9a27-407f14a30e88","ios":"levelo://app?vid=b90f28b1-131a-404f-9a27-407f14a30e88"},"vehicle_type_id":"4","last_reported":1737475854,"current_range_meters":17600,"station_id":"ce4bghh2rcd13ifvqb60","pricing_plan_id":"cebpf4jnsgd1na2vs0mg"},{"bike_id":"c3442b2d-b955-4c03-bfff-a247d38a969c","system_id":"levelo_inurba_marseille","lat":43.30321,"lon":5.4045,"is_reserved":false,"is_disabled":false,"rental_uris":{"android":"levelo://app?vid=c3442b2d-b955-4c03-bfff-a247d38a969c","ios":"levelo://app?vid=c3442b2d-b955-4c03-bfff-a247d38a969c"},"vehicle_type_id":"4","last_reported":1737475854,"current_range_meters":20800,"station_id":"ce4bh012rcd13ifvqd10","pricing_plan_id":"cebpf4jnsgd1na2vs0mg"},{"bike_id":"11be017f-c9e1-4bbc-8d3c-102bfa9f6029","system_id":"levelo_inurba_marseille","lat":43.29371,"lon":5.37846,"is_reserved":false,"is_disabled":false,"rental_uris":{"android":"levelo://app?vid=11be017f-c9e1-4bbc-8d3c-102bfa9f6029","ios":"levelo://app?vid=11be017f-c9e1-4bbc-8d3c-102bfa9f6029"},"vehicle_type_id":"4","last_reported":1737475854,"current_range_meters":19600,"station_id":"ce4bgjh2rcd13ifvqbf0","pricing_plan_id":"cebpf4jnsgd1na2vs0mg"},{"bike_id":"c204e372-d7e5-4950-be0d-c707ee8be5f1","system_id":"levelo_inurba_marseille","lat":43.3065,"lon":5.40089,"is_reserved":false,"is_disabled":false,"rental_uris":{"android":"levelo://app?vid=c204e372-d7e5-4950-be0d-c707ee8be5f1","ios":"levelo://app?vid=c204e372-d7e5-4950-be0d-c707ee8be5f1"},"vehicle_type_id":"4","last_reported":1737475854,"current_range_meters":20800,"station_id":"ce4bh112rcd13ifvqda0","pricing_plan_id":"cebpf4jnsgd1na2vs0mg"},{"bike_id":"840b11d9-00af-4d74-bcc0-a5fee41ef4a8","system_id":"levelo_inurba_marseille","lat":43.30555,"lon":5.36542,"is_reserved":false,"is_disabled":false,"rental_uris":{"android":"levelo://app?vid=840b11d9-00af-4d74-bcc0-a5fee41ef4a8","ios":"levelo://app?vid=840b11d9-00af-4d74-bcc0-a5fee41ef4a8"},"vehicle_type_id":"4","last_reported":1737475854,"current_range_meters":38800,"station_id":"ce4bgs12rcd13ifvqcag","pricing_plan_id":"cebpf4jnsgd1na2vs0mg"},{"bike_id":"962f52af-1433-4c7e-a498-418863676973","system_id":"levelo_inurba_marseille","lat":43.31991,"lon":5.38166,"is_reserved":false,"is_disabled":false,"rental_uris":{"android":"levelo://app?vid=962f52af-1433-4c7e-a498-418863676973","ios":"levelo://app?vid=962f52af-1433-4c7e-a498-418863676973"},"vehicle_type_id":"4","last_reported":1737475854,"current_range_meters":24400,"station_id":"ce4bhr12rcd13ifvqhpg","pricing_plan_id":"cebpf4jnsgd1na2vs0mg"},{"bike_id":"56a6aa43-c357-4ea1-b52b-0a377397f7b6","system_id":"levelo_inurba_marseille","lat":43.29581,"lon":5.36749,"is_reserved":false,"is_disabled":false,"rental_uris":{"android":"levelo://app?vid=56a6aa43-c357-4ea1-b52b-0a377397f7b6","ios":"levelo://app?vid=56a6aa43-c357-4ea1-b52b-0a377397f7b6"},"vehicle_type_id":"4","last_reported":1737475854,"current_range_meters":38800,"station_id":"ce4bgph2rcd13ifvqc2g","pricing_plan_id":"cebpf4jnsgd1na2vs0mg"},{"bike_id":"07fcc505-96e0-4e0e-9712-6fe641bf1871","system_id":"levelo_inurba_marseille","lat":43.27613,"lon":5.36113,"is_reserved":false,"is_disabled":false,"rental_uris":{"android":"levelo://app?vid=07fcc505-96e0-4e0e-9712-6fe641bf1871","ios":"levelo://app?vid=07fcc505-96e0-4e0e-9712-6fe641bf1871"},"vehicle_type_id":"4","last_reported":1737475854,"current_range_meters":39200,"station_id":"ce4bgj92rcd13ifvqbe0","pricing_plan_id":"cebpf4jnsgd1na2vs0mg"},{"bike_id":"fb588ad3-5464-496b-9dad-fa98efa75544","system_id":"levelo_inurba_marseille","lat":43.29887,"lon":5.39713,"is_reserved":false,"is_disabled":false,"rental_uris":{"android":"levelo://app?vid=fb588ad3-5464-496b-9dad-fa98efa75544","ios":"levelo://app?vid=fb588ad3-5464-496b-9dad-fa98efa75544"},"vehicle_type_id":"4","last_reported":1737475854,"current_range_meters":39200,"station_id":"ce4bh0h2rcd13ifvqd50","pricing_plan_id":"cebpf4jnsgd1na2vs0mg"},{"bike_id":"4962d515-587f-4d4d-969c-ebc96f288e6d","system_id":"levelo_inurba_marseille","lat":43.26195,"lon":5.37439,"is_reserved":false,"is_disabled":false,"rental_uris":{"android":"levelo://app?vid=4962d515-587f-4d4d-969c-ebc96f288e6d","ios":"levelo://app?vid=4962d515-587f-4d4d-969c-ebc96f288e6d"},"vehicle_type_id":"4","last_reported":1737475854,"current_range_meters":2000,"station_id":"ce4bhgp2rcd13ifvqfc0","pricing_plan_id":"cebpf4jnsgd1na2vs0mg"},{"bike_id":"1e5ba2b4-d877-4efb-a1c0-39fb4949f9fa","system_id":"levelo_inurba_marseille","lat":43.31183,"lon":5.3871,"is_reserved":false,"is_disabled":false,"rental_uris":{"android":"levelo://app?vid=1e5ba2b4-d877-4efb-a1c0-39fb4949f9fa","ios":"levelo://app?vid=1e5ba2b4-d877-4efb-a1c0-39fb4949f9fa"},"vehicle_type_id":"4","last_reported":1737475854,"current_range_meters":38000,"station_id":"ce4bgv12rcd13ifvqcp0","pricing_plan_id":"cebpf4jnsgd1na2vs0mg"},{"bike_id":"22f9f06c-5eb6-4b8c-a53a-908c25862bfe","system_id":"levelo_inurba_marseille","lat":43.27956,"lon":5.38691,"is_reserved":false,"is_disabled":false,"rental_uris":{"android":"levelo://app?vid=22f9f06c-5eb6-4b8c-a53a-908c25862bfe","ios":"levelo://app?vid=22f9f06c-5eb6-4b8c-a53a-908c25862bfe"},"vehicle_type_id":"4","last_reported":1737475854,"current_range_meters":38800,"station_id":"ce4bhg12rcd13ifvqf80","pricing_plan_id":"cebpf4jnsgd1na2vs0mg"},{"bike_id":"39b4c2e3-0832-4c97-8ebd-7e6cefe03dd9","system_id":"levelo_inurba_marseille","lat":43.283719,"lon":5.386511,"is_reserved":false,"is_disabled":false,"rental_uris":{"android":"levelo://app?vid=39b4c2e3-0832-4c97-8ebd-7e6cefe03dd9","ios":"levelo://app?vid=39b4c2e3-0832-4c97-8ebd-7e6cefe03dd9"},"vehicle_type_id":"4","last_reported":1737475854,"current_range_meters":38400,"station_id":"ce4bh492rcd13ifvqdvg","pricing_plan_id":"cebpf4jnsgd1na2vs0mg"},{"bike_id":"6959c018-625d-4491-a180-ea1b97d3d4ed","system_id":"levelo_inurba_marseille","lat":43.27828,"lon":5.40706,"is_reserved":false,"is_disabled":false,"rental_uris":{"android":"levelo://app?vid=6959c018-625d-4491-a180-ea1b97d3d4ed","ios":"levelo://app?vid=6959c018-625d-4491-a180-ea1b97d3d4ed"},"vehicle_type_id":"4","last_reported":1737475854,"current_range_meters":38800,"station_id":"ce4bhnh2rcd13ifvqgtg","pricing_plan_id":"cebpf4jnsgd1na2vs0mg"},{"bike_id":"361f95ee-8077-47e9-98b3-ec3a14b48caf","system_id":"levelo_inurba_marseille","lat":43.30243,"lon":5.40048,"is_reserved":false,"is_disabled":false,"rental_uris":{"android":"levelo://app?vid=361f95ee-8077-47e9-98b3-ec3a14b48caf","ios":"levelo://app?vid=361f95ee-8077-47e9-98b3-ec3a14b48caf"},"vehicle_type_id":"4","last_reported":1737475854,"current_range_meters":4800,"station_id":"ce4bgvh2rcd13ifvqcs0","pricing_plan_id":"cebpf4jnsgd1na2vs0mg"},{"bike_id":"35657e2a-d530-4c66-ae21-0b5a598d564b","system_id":"levelo_inurba_marseille","lat":43.26571,"lon":5.39008,"is_reserved":false,"is_disabled":false,"rental_uris":{"android":"levelo://app?vid=35657e2a-d530-4c66-ae21-0b5a598d564b","ios":"levelo://app?vid=35657e2a-d530-4c66-ae21-0b5a598d564b"},"vehicle_type_id":"4","last_reported":1737475854,"current_range_meters":18000,"station_id":"ce4bhe12rcd13ifvqf30","pricing_plan_id":"cebpf4jnsgd1na2vs0mg"},{"bike_id":"b2d30e66-4397-402a-9206-56154ec33012","system_id":"levelo_inurba_marseille","lat":43.28421,"lon":5.34984,"is_reserved":false,"is_disabled":true,"rental_uris":{"android":"levelo://app?vid=b2d30e66-4397-402a-9206-56154ec33012","ios":"levelo://app?vid=b2d30e66-4397-402a-9206-56154ec33012"},"vehicle_type_id":"4","last_reported":1737475854,"current_range_meters":0,"station_id":"ce4bhbh2rcd13ifvqepg","pricing_plan_id":"cebpf4jnsgd1na2vs0mg"},{"bike_id":"83f2816a-b6b8-40a8-a314-229162203283","system_id":"levelo_inurba_marseille","lat":43.29352,"lon":5.40117,"is_reserved":false,"is_disabled":true,"rental_uris":{"android":"levelo://app?vid=83f2816a-b6b8-40a8-a314-229162203283","ios":"levelo://app?vid=83f2816a-b6b8-40a8-a314-229162203283"},"vehicle_type_id":"4","last_reported":1737475854,"current_range_meters":0,"station_id":"","pricing_plan_id":"cebpf4jnsgd1na2vs0mg"},