{"last_updated":1733926184,"ttl":60,"version":"2.2","data":{"bikes":[{"bike_id":"15abf248-f1ac-47c7-8842-d6916bd89c27","system_id":"levelo_inurba_marseille","lat":43.26678,"lon":5.38276,"is_reserved":false,"is_disabled":false,"rental_uris":{"android":"levelo://app?vid=15abf248-f1ac-47c7-8842-d6916bd89c27","ios":"levelo://app?vid=15abf248-f1ac-47c7-8842-d6916bd89c27"},"vehicle_type_id":"4","last_reported":1733926184,"current_range_meters":38800,"station_id":"ce4bhg92rcd13ifvqf90","pricing_plan_id":"cebpf4jnsgd1na2vs0mg"},{"bike_id":"0bc591cc-9a07-4dec-b970-f33b72b60956","system_id":"levelo_inurba_marseille","lat":43.28303,"lon":5.35078,"is_reserved":false,"is_disabled":false,"rental_uris":{"android":"levelo://app?vid=0bc591cc-9a07-4dec-b970-f33b72b60956","ios":"levelo://app?vid=0bc591cc-9a07-4dec-b970-f33b72b60956"},"vehicle_type_id":"4","last_reported":1733926184,"current_range_meters":38800,"station_id":"ce4bhbp2rcd13ifvqerg","pricing_plan_id":"cebpf4jnsgd1na2vs0mg"},{"bike_id":"2a1c1258-1dc9-4d0f-a91e-59ce2c659bf8","system_id":"levelo_inurba_marseille","lat":43.30212,"lon":5.39471,"is_reserved":false,"is_disabled":false,"rental_uris":{"android":"levelo://app?vid=2a1c1258-1dc9-4d0f-a91e-59ce2c659bf8","ios":"levelo://app?vid=2a1c1258-1dc9-4d0f-a91e-59ce2c659bf8"},"vehicle_type_id":"4","last_reported":1733926184,"current_range_meters":38000,"station_id":"chh1huq6cuj3fo74tm60","pricing_plan_id":"cebpf4jnsgd1na2vs0mg"},{"bike_id":"15b6f56a-fad1-4f70-a7fb-6fe1c65798e2","system_id":"levelo_inurba_marseille","lat":43.32472,"lon":5.36584,"is_reserved":false,"is_disabled":false,"rental_uris":{"android":"levelo://app?vid=15b6f56a-fad1-4f70-a7fb-6fe1c65798e2","ios":"levelo://app?vid=15b6f56a-fad1-4f70-a7fb-6fe1c65798e2"},"vehicle_type_id":"4","last_reported":1733926184,"current_range_meters":38800,"station_id":"ce4bhs12rcd13ifvqhvg","pricing_plan_id":"cebpf4jnsgd1na2vs0mg"},{"bike_id":"b266efff-3a14-4d1a-a25a-c68ad062a1f4","system_id":"levelo_inurba_marseille","lat":43.24162,"lon":5.36396,"is_reserved":false,"is_disabled":false,"rental_uris":{"android":"levelo://app?vid=b266efff-3a14-4d1a-a25a-c68ad062a1f4","ios":"levelo://app?vid=b266efff-3a14-4d1a-a25a-c68ad062a1f4"},"vehicle_type_id":"4","last_reported":1733926184,"current_range_meters":9200,"station_id":"cpo36qri1sfpv3e86is0","pricing_plan_id":"cebpf4jnsgd1na2vs0mg"},{"bike_id":"a75d4dd4-ddd5-4eba-a98a-762c43283593","system_id":"levelo_inurba_marseille","lat":43.26047,"lon":5.39402,"is_reserved":false,"is_disabled":false,"rental_uris":{"android":"levelo://app?vid=a75d4dd4-ddd5-4eba-a98a-762c43283593","ios":"levelo://app?vid=a75d4dd4-ddd5-4eba-a98a-762c43283593"},"vehicle_type_id":"4","last_reported":1733926184,"current_range_meters":39200,"station_id":"ce4bhh92rcd13ifvqfj0","pricing_plan_id":"cebpf4jnsgd1na2vs0mg"},{"bike_id":"2211ee04-fdf6-42b9-bc83-47e14425660f","system_id":"levelo_inurba_marseille","lat":43.28463,"lon":5.35897,"is_reserved":false,"is_disabled":false,"rental_uris":{"android":"levelo://app?vid=2211ee04-fdf6-42b9-bc83-47e14425660f","ios":"levelo://app?vid=2211ee04-fdf6-42b9-bc83-47e14425660f"},"vehicle_type_id":"4","last_reported":1733926184,"current_range_meters":23200,"station_id":"ce4bhah2rcd13ifvqei0","pricing_plan_id":"cebpf4jnsgd1na2vs0mg"},{"bike_id":"21a7376e-5c33-4a56-91a8-da4065619153","system_id":"levelo_inurba_marseille","lat":43.30121,"lon":5.37464,"is_reserved":false,"is_disabled":false,"rental_uris":{"android":"levelo://app?vid=21a7376e-5c33-4a56-91a8-da4065619153","ios":"levelo://app?vid=21a7376e-5c33-4a56-91a8-da4065619153"},"vehicle_type_id":"4","last_reported":1733926184,"current_range_meters":24000,"station_id":"ce4bgs92rcd13ifvqcc0","pricing_plan_id":"cebpf4jnsgd1na2vs0mg"},{"bike_id":"2525bf92-7c3a-4f73-8ffa-805f23bcd7ed","system_id":"levelo_inurba_marseille","lat":43.29461,"lon":5.37524,"is_reserved":false,"is_disabled":false,"rental_uris":{"android":"levelo://app?vid=2525bf92-7c3a-4f73-8ffa-805f23bcd7ed","ios":"levelo://app?vid=2525bf92-7c3a-4f73-8ffa-805f23bcd7ed"},"vehicle_type_id":"4","last_reported":1733926184,"current_range_meters":24800,"station_id":"","pricing_plan_id":"cebpf4jnsgd1na2vs0mg"},{"bike_id":"980f96eb-32c9-4906-98f6-c44dbf4c84a1","system_id":"levelo_inurba_marseille","lat":43.27455,"lon":5.40073,"is_reserved":false,"is_disabled":true,"rental_uris":{"android":"levelo://app?vid=980f96eb-32c9-4906-98f6-c44dbf4c84a1","ios":"levelo://app?vid=980f96eb-32c9-4906-98f6-c44dbf4c84a1"},"vehicle_type_id":"4","last_reported":1733926184,"current_range_meters":0,"station_id":"","pricing_plan_id":"cebpf4jnsgd1na2vs0mg"},{"bike_id":"9bf40631-ec60-42a1-bd49-b216ed3f8cbc","system_id":"levelo_inurba_marseille","lat":43.25707,"lon":5.4111,"is_reserved":false,"is_disabled":false,"rental_uris":{"android":"levelo://app?vid=9bf40631-ec60-42a1-bd49-b216ed3f8cbc","ios":"levelo://app?vid=9bf40631-ec60-42a1-bd49-b216ed3f8cbc"},"vehicle_type_id":"4","last_reported":1733926184,"current_range_meters":9200,"station_id":"ce4bhkp2rcd13ifvqgd0","pricing_plan_id":"cebpf4jnsgd1na2vs0mg"},{"bike_id":"5c36ca5f-5c78-4dc7-b423-b0177ab150a5","system_id":"levelo_inurba_marseille","lat":43.24389,"lon":5.37069,"is_reserved":false,"is_disabled":false,"rental_uris":{"android":"levelo://app?vid=5c36ca5f-5c78-4dc7-b423-b0177ab150a5","ios":"levelo://app?vid=5c36ca5f-5c78-4dc7-b423-b0177ab150a5"},"vehicle_type_id":"4","last_reported":1733926184,"current_range_meters":33600,"station_id":"ce4bhhh2rcd13ifvqfk0","pricing_plan_id":"cebpf4jnsgd1na2vs0mg"},{"bike_id":"f13bfc2b-74bb-4227-8236-6cc51258b5ec","system_id":"levelo_inurba_marseille","lat":43.26508,"lon":5.3736,"is_reserved":false,"is_disabled":false,"rental_uris":{"android":"levelo://app?vid=f13bfc2b-74bb-4227-8236-6cc51258b5ec","ios":"levelo://app?vid=f13bfc2b-74bb-4227-8236-6cc51258b5ec"},"vehicle_type_id":"4","last_reported":1733926184,"current_range_meters":17200,"station_id":"","pricing_plan_id":"cebpf4jnsgd1na2vs0mg"},{"bike_id":"2345c1d5-ecd5-415a-a3bb-1097d59496c4","system_id":"levelo_inurba_marseille","lat":43.26803,"lon":5.40272,"is_reserved":false,"is_disabled":false,"rental_uris":{"android":"levelo://app?vid=2345c1d5-ecd5-415a-a3bb-1097d59496c4","ios":"levelo://app?vid=2345c1d5-ecd5-415a-a3bb-1097d59496c4"},"vehicle_type_id":"4","last_reported":1733926184,"current_range_meters":26000,"station_id":"ce501612rcd8frsf0b60","pricing_plan_id":"cebpf4jnsgd1na2vs0mg"},{"bike_id":"ef2560f1-5cd6-4cab-8ac3-57e65f0f14ac","system_id":"levelo_inurba_marseille","lat":43.29711,"lon":5.37715,"is_reserved":false,"is_disabled":false,"rental_uris":{"android":"levelo://app?vid=ef2560f1-5cd6-4cab-8ac3-57e65f0f14ac","ios":"levelo://app?vid=ef2560f1-5cd6-4cab-8ac3-57e65f0f14ac"},"vehicle_type_id":"4","last_reported":1733926184,"current_range_meters":11600,"station_id":"ce4bgkh2rcd13ifvqbl0","pricing_plan_id":"cebpf4jnsgd1na2vs0mg"},{"bike_id":"33561521-ea4b-4c87-8727-1ee958d724ff","system_id":"levelo_inurba_marseille","lat":43.28444,"lon":5.392,"is_reserved":false,"is_disabled":false,"rental_uris":{"android":"levelo://app?vid=33561521-ea4b-4c87-8727-1ee958d724ff","ios":"levelo://app?vid=33561521-ea4b-4c87-8727-1ee958d724ff"},"vehicle_type_id":"4","last_reported":1733926184,"current_range_meters":16800,"station_id":"ce4bhoh2rcd13ifvqh5g","pricing_plan_id":"cebpf4jnsgd1na2vs0mg"},{"bike_id":"5c1c1719-b8a5-4276-aace-14f638d727ae","system_id":"levelo_inurba_marseille","lat":43.29872,"lon":5.39732,"is_reserved":false,"is_disabled":false,"rental_uris":{"android":"levelo://app?vid=5c1c1719-b8a5-4276-aace-14f638d727ae","ios":"levelo://app?vid=5c1c1719-b8a5-4276-aace-14f638d727ae"},"vehicle_type_id":"4","last_reported":1733926184,"current_range_meters":36800,"station_id":"ce4bh0h2rcd13ifvqd50","pricing_plan_id":"cebpf4jnsgd1na2vs0mg"},{"bike_id":"d0f16804-9f44-459c-b581-a0126d94719e","system_id":"levelo_inurba_marseille","lat":43.293,"lon":5.37462,"is_reserved":false,"is_disabled":false,"rental_uris":{"android":"levelo://app?vid=d0f16804-9f44-459c-b581-a0126d94719e","ios":"levelo://app?vid=d0f16804-9f44-459c-b581-a0126d94719e"},"vehicle_type_id":"4","last_reported":1733926184,"current_range_meters":34800,"station_id":"ce4bgi12rcd13ifvqb70","pricing_plan_id":"cebpf4jnsgd1na2vs0mg"},{"bike_id":"540c0837-0aea-4654-a816-770284c86fe9","system_id":"levelo_inurba_marseille","lat":43.30151,"lon":5.37417,"is_reserved":false,"is_disabled":false,"rental_uris":{"android":"levelo://app?vid=540c0837-0aea-4654-a816-770284c86fe9","ios":"levelo://app?vid=540c0837-0aea-4654-a816-770284c86fe9"},"vehicle_type_id":"4","last_reported":1733926184,"current_range_meters":23200,"station_id":"ce4bgs92rcd13ifvqcc0","pricing_plan_id":"cebpf4jnsgd1na2vs0mg"},{"bike_id":"c3f74569-dfbf-4f50-8768-aafadfe54a75","system_id":"levelo_inurba_marseille","lat":43.289932,"lon":5.3817,"is_reserved":false,"is_disabled":false,"rental_uris":{"android":"levelo://app?vid=c3f74569-dfbf-4f50-8768-aafadfe54a75","ios":"levelo://app?vid=c3f74569-dfbf-4f50-8768-aafadfe54a75"},"vehicle_type_id":"4","last_reported":1733926184,"current_range_meters":26000,"station_id":"ce4bh4p2rcd13ifvqe1g","pricing_plan_id":"cebpf4jnsgd1na2vs0mg"},{"bike_id":"c83b6b3e-5296-41f7-938d-6e972ea88b24","system_id":"levelo_inurba_marseille","lat":43.31241,"lon":5.36848,"is_reserved":false,"is_disabled":false,"rental_uris":{"android":"levelo://app?vid=c83b6b3e-5296-41f7-938d-6e972ea88b24","ios":"levelo://app?vid=c83b6b3e-5296-41f7-938d-6e972ea88b24"},"vehicle_type_id":"4","last_reported":1733926184,"current_range_meters":37600,"station_id":"ce4bgl92rcd13ifvqbq0","pricing_plan_id":"cebpf4jnsgd1na2vs0mg"},{"bike_id":"5f14e3fa-7de6-431c-95fa-876d02368dcf","system_id":"levelo_inurba_marseille","lat":43.29675,"lon":5.37303,"is_reserved":false,"is_disabled":true,"rental_uris":{"android":"levelo://app?vid=5f14e3fa-7de6-431c-95fa-876d02368dcf","ios":"levelo://app?vid=5f14e3fa-7de6-431c-95fa-876d02368dcf"},"vehicle_type_id":"4","last_reported":1733926184,"current_range_meters":1600,"station_id":"ce4bgk12rcd13ifvqbj0","pricing_plan_id":"cebpf4jnsgd1na2vs0mg"},{"bike_id":"3660a68e-019e-40c8-a98b-d1f56975d36b","system_id":"levelo_inurba_marseille","lat":43.26957,"lon":5.38625,"is_reserved":false,"is_disabled":false,"rental_uris":{"android":"levelo://app?vid=3660a68e-019e-40c8-a98b-d1f56975d36b","ios":"levelo://app?vid=3660a68e-019e-40c8-a98b-d1f56975d36b"},"vehicle_type_id":"4","last_reported":1733926184,"current_range_meters":9600,"station_id":"ce4bhn12rcd13ifvqgqg","pricing_plan_id":"cebpf4jnsgd1na2vs0mg"},{"bike_id":"09711f44-6989-4446-b8a6-e708f49d50ff","system_id":"levelo_inurba_marseille","lat":43.27911,"lon":5.38003,"is_reserved":false,"is_disabled":false,"rental_uris":{"android":"levelo://app?vid=09711f44-6989-4446-b8a6-e708f49d50ff","ios":"levelo://app?vid=09711f44-6989-4446-b8a6-e708f49d50ff"},"vehicle_type_id":"4","last_reported":1733926184,"current_range_meters":38800,"station_id":"ce4bhf92rcd13ifvqf50","pricing_plan_id":"cebpf4jnsgd1na2vs0mg"},{"bike_id":"1b502474-2e11-43a3-922a-75f5113deb81","system_id":"levelo_inurba_marseille","lat":43.25939,"lon":5.40912,"is_reserved":false,"is_disabled":false,"rental_uris":{"android":"levelo://app?vid=1b502474-2e11-43a3-922a-75f5113deb81","ios":"levelo://app?vid=1b502474-2e11-43a3-922a-75f5113deb81"},"vehicle_type_id":"4","last_reported":1733926184,"current_range_meters":28400,"station_id":"ce4bhm92rcd13ifvqglg","pricing_plan_id":"cebpf4jnsgd1na2vs0mg"},{"bike_id":"fe4cab58-ba30-4c78-b62f-d4434eea7628","system_id":"levelo_inurba_marseille","lat":43.29442,"lon":5.39766,"is_reserved":false,"is_disabled":true,"rental_uris":{"android":"levelo://app?vid=fe4cab58-ba30-4c78-b62f-d4434eea7628","ios":"levelo://app?vid=fe4cab58-ba30-4c78-b62f-d4434eea7628"},"vehicle_type_id":"4","last_reported":1733926184,"current_range_meters":35600,"station_id":"ce4bh3h2rcd13ifvqdo0","pricing_plan_id":"cebpf4jnsgd1na2vs0mg"},{"bike_id":"187a9cac-9fe7-4437-bc4f-beab8d1e51ae","system_id":"levelo_inurba_marseille","lat":43.29557,"lon":5.42277,"is_reserved":false,"is_disabled":false,"rental_uris":{"android":"levelo://app?vid=187a9cac-9fe7-4437-bc4f-beab8d1e51ae","ios":"levelo://app?vid=187a9cac-9fe7-4437-bc4f-beab8d1e51ae"},"vehicle_type_id":"4","last_reported":1733926184,"current_range_meters":38400,"station_id":"ce4bhph2rcd13ifvqhdg","pricing_plan_id":"cebpf4jnsgd1na2vs0mg"},{"bike_id":"82732914-0270-4313-988e-aff4ee85b69c","system_id":"levelo_inurba_marseille","lat":43.26684,"lon":5.38265,"is_reserved":false,"is_disabled":false,"rental_uris":{"android":"levelo://app?vid=82732914-0270-4313-988e-aff4ee85b69c","ios":"levelo://app?vid=82732914-0270-4313-988e-aff4ee85b69c"},"vehicle_type_id":"4","last_reported":1733926184,"current_range_meters":22400,"station_id":"ce4bhm12rcd13ifvqgkg","pricing_plan_id":"cebpf4jnsgd1na2vs0mg"},{"bike_id":"8f0149a9-093b-4975-bff8-ca7f7f3f8eb6","system_id":"levelo_inurba_marseille","lat":43.31365,"lon":5.36711,"is_reserved":false,"is_disabled":false,"rental_uris":{"android":"levelo://app?vid=8f0149a9-093b-4975-bff8-ca7f7f3f8eb6","ios":"levelo://app?vid=8f0149a9-093b-4975-bff8-ca7f7f3f8eb6"},"vehicle_type_id":"4","last_reported":1733926184,"current_range_meters":16000,"station_id":"ce4bgr92rcd13ifvqc6g","pricing_plan_id":"cebpf4jnsgd1na2vs0mg"},{"bike_id":"75052bfa-918d-4a31-83e0-d5491c3908ab","system_id":"levelo_inurba_marseille","lat":43.34146,"lon":5.40901,"is_reserved":false,"is_disabled":false,"rental_uris":{"android":"levelo://app?vid=75052bfa-918d-4a31-83e0-d5491c3908ab","ios":"levelo://app?vid=75052bfa-918d-4a31-83e0-d5491c3908ab"},"vehicle_type_id":"4","last_reported":1733926184,"current_range_meters":29600,"station_id":"ce4bhqh2rcd13ifvqhlg","pricing_plan_id":"cebpf4jnsgd1na2vs0mg"},{"bike_id":"8979b88b-e0c9-465c-b920-54c929607786","system_id":"levelo_inurba_marseille","lat":43.30394,"lon":5.36793,"is_reserved":false,"is_disabled":false,"rental_uris":{"android":"levelo://app?vid=8979b88b-e0c9-465c-b920-54c929607786","ios":"levelo://app?vid=8979b88b-e0c9-465c-b920-54c929607786"},"vehicle_type_id":"4","last_reported":1733926184,"current_range_meters":19200,"station_id":"","pricing_plan_id":"cebpf4jnsgd1na2vs0mg"},{"bike_id":"37fce55d-3ed1-4982-9def-954e6c833bd8","system_id":"levelo_inurba_marseille","lat":43.26591,"lon":5.38995,"is_reserved":false,"is_disabled":true,"rental_uris":{"android":"levelo://app?vid=37fce55d-3ed1-4982-9def-954e6c833bd8","ios":"levelo://app?vid=37fce55d-3ed1-4982-9def-954e6c833bd8"},"vehicle_type_id":"4","last_reported":1733926184,"current_range_meters":1200,"station_id":"ce4bhe12rcd13ifvqf30","pricing_plan_id":"cebpf4jnsgd1na2vs0mg"},{"bike_id":"7ef97a84-dfe5-460d-9f07-1129f5fa87f4","system_id":"levelo_inurba_marseille","lat":43.2467,"lon":5.38163,"is_reserved":false,"is_disabled":false,"rental_uris":{"android":"levelo://app?vid=7ef97a84-dfe5-460d-9f07-1129f5fa87f4","ios":"levelo://app?vid=7ef97a84-dfe5-460d-9f07-1129f5fa87f4"},"vehicle_type_id":"4","last_reported":1733926184,"current_range_meters":38800,"station_id":"ce4bhih2rcd13ifvqfr0","pricing_plan_id":"cebpf4jnsgd1na2vs0mg"},{"bike_id":"87568ae6-6aa5-4498-9232-a7f6ef51d115","system_id":"levelo_inurba_marseille","lat":43.31718,"lon":5.37727,"is_reserved":false,"is_disabled":false,"rental_uris":{"android":"levelo://app?vid=87568ae6-6aa5-4498-9232-a7f6ef51d115","ios":"levelo://app?vid=87568ae6-6aa5-4498-9232-a7f6ef51d115"},"vehicle_type_id":"4","last_reported":1733926184,"current_range_meters":14400,"station_id":"ce4bgth2rcd13ifvqch0","pricing_plan_id":"cebpf4jnsgd1na2vs0mg"},{"bike_id":"4f27d113-d5a6-4b7e-aecf-cd263ab10057","system_id":"levelo_inurba_marseille","lat":43.32474,"lon":5.36567,"is_reserved":false,"is_disabled":false,"rental_uris":{"android":"levelo://app?vid=4f27d113-d5a6-4b7e-aecf-cd263ab10057","ios":"levelo://app?vid=4f27d113-d5a6-4b7e-aecf-cd263ab10057"},"vehicle_type_id":"4","last_reported":1733926184,"current_range_meters":38800,"station_id":"ce4bhs12rcd13ifvqhvg","pricing_plan_id":"cebpf4jnsgd1na2vs0mg"},{"bike_id":"eedaa0dc-42dc-491d-9600-c264f7e3bd7d","system_id":"levelo_inurba_marseille","lat":43.25587,"lon":5.38239,"is_reserved":false,"is_disabled":false,"rental_uris":{"android":"levelo://app?vid=eedaa0dc-42dc-491d-9600-c264f7e3bd7d","ios":"levelo://app?vid=eedaa0dc-42dc-491d-9600-c264f7e3bd7d"},"vehicle_type_id":"4","last_reported":1733926184,"current_range_meters":29600,"station_id":"ce4bhih2rcd13ifvqfs0","pricing_plan_id":"cebpf4jnsgd1na2vs0mg"},{"bike_id":"ee366efc-1a8d-4e1d-bb50-d74e53d740ad","system_id":"levelo_inurba_marseille","lat":43.31714,"lon":5.37744,"is_reserved":false,"is_disabled":false,"rental_uris":{"android":"levelo://app?vid=ee366efc-1a8d-4e1d-bb50-d74e53d740ad","ios":"levelo://app?vid=ee366efc-1a8d-4e1d-bb50-d74e53d740ad"},"vehicle_type_id":"4","last_reported":1733926184,"current_range_meters":28000,"station_id":"ce4bgth2rcd13ifvqch0","pricing_plan_id":"cebpf4jnsgd1na2vs0mg"},{"bike_id":"65f1ad8d-c377-4759-b223-96071d352a31","system_id":"levelo_inurba_marseille","lat":43.23167,"lon":5.43711,"is_reserved":false,"is_disabled":false,"rental_uris":{"android":"levelo://app?vid=65f1ad8d-c377-4759-b223-96071d352a31","ios":"levelo://app?vid=65f1ad8d-c377-4759-b223-96071d352a31"},"vehicle_type_id":"4","last_reported":1733926184,"current_range_meters":22000,"station_id":"ce4bhmp2rcd13ifvqgog","pricing_plan_id":"cebpf4jnsgd1na2vs0mg"},{"bike_id":"2cbb7eea-3dcb-41d0-809e-24f454a1c1c7","system_id":"levelo_inurba_marseille","lat":43.30163,"lon":5.3808,"is_reserved":false,"is_disabled":false,"rental_uris":{"android":"levelo://app?vid=2cbb7eea-3dcb-41d0-809e-24f454a1c1c7","ios":"levelo://app?vid=2cbb7eea-3dcb-41d0-809e-24f454a1c1c7"},"vehicle_type_id":"4","last_reported":1733926184,"current_range_meters":24000,"station_id":"ce4bgjp2rcd13ifvqbh0","pricing_plan_id":"cebpf4jnsgd1na2vs0mg"},{"bike_id":"90324b92-2d52-4f43-bd59-91b2038c3497","system_id":"levelo_inurba_marseille","lat":43.2894,"lon":5.36629,"is_reserved":false,"is_disabled":true,"rental_uris":{"android":"levelo://app?vid=90324b92-2d52-4f43-bd59-91b2038c3497","ios":"levelo://app?vid=90324b92-2d52-4f43-bd59-91b2038c3497"},"vehicle_type_id":"4","last_reported":1733926184,"current_range_meters":30400,"station_id":"ce4bhap2rcd13ifvqek0","pricing_plan_id":"cebpf4jnsgd1na2vs0mg"},{"bike_id":"b40867c7-bcb3-440b-af50-8beabff870ee","system_id":"levelo_inurba_marseille","lat":43.28106,"lon":5.37829,"is_reserved":false,"is_disabled":false,"rental_uris":{"android":"levelo://app?vid=b40867c7-bcb3-440b-af50-8beabff870ee","ios":"levelo://app?vid=b40867c7-bcb3-440b-af50-8beabff870ee"},"vehicle_type_id":"4","last_reported":1733926184,"current_range_meters":9600,"station_id":"ce4bha12rcd13ifvqee0","pricing_plan_id":"cebpf4jnsgd1na2vs0mg"},{"bike_id":"11f4eb75-4c3b-4d6b-9ad8-3d48fed1d4f5","system_id":"levelo_inurba_marseille","lat":43.28698,"lon":5.3999,"is_reserved":false,"is_disabled":false,"rental_uris":{"android":"levelo://app?vid=11f4eb75-4c3b-4d6b-9ad8-3d48fed1d4f5","ios":"levelo://app?vid=11f4eb75-4c3b-4d6b-9ad8-3d48fed1d4f5"},"vehicle_type_id":"4","last_reported":1733926184,"current_range_meters":27600,"station_id":"ce4bho92rcd13ifvqh3g","pricing_plan_id":"cebpf4jnsgd1na2vs0mg"},{"bike_id":"c8adfc07-b220-45fc-b8d2-2c34000cd717","system_id":"levelo_inurba_marseille","lat":43.27614,"lon":5.3612,"is_reserved":false,"is_disabled":false,"rental_uris":{"android":"levelo://app?vid=c8adfc07-b220-45fc-b8d2-2c34000cd717","ios":"levelo://app?vid=c8adfc07-b220-45fc-b8d2-2c34000cd717"},"vehicle_type_id":"4","last_reported":1733926184,"current_range_meters":16800,"station_id":"ce4bgj92rcd13ifvqbe0","pricing_plan_id":"cebpf4jnsgd1na2vs0mg"},{"bike_id":"6faa6ee7-a588-4286-8e0c-a7deeaae5bab","system_id":"levelo_inurba_marseille","lat":43.2737,"lon":5.36269,"is_reserved":false,"is_disabled":false,"rental_uris":{"android":"levelo://app?vid=6faa6ee7-a588-4286-8e0c-a7deeaae5bab","ios":"levelo://app?vid=6faa6ee7-a588-4286-8e0c-a7deeaae5bab"},"vehicle_type_id":"4","last_reported":1733926184,"current_range_meters":38800,"station_id":"ce4bhbh2rcd13ifvqeo0","pricing_plan_id":"cebpf4jnsgd1na2vs0mg"},{"bike_id":"65ec1fbe-1744-4dfc-9781-955e0bc89a2b","system_id":"levelo_inurba_marseille","lat":43.32476,"lon":5.36568,"is_reserved":false,"is_disabled":false,"rental_uris":{"android":"levelo://app?vid=65ec1fbe-1744-4dfc-9781-955e0bc89a2b","ios":"levelo://app?vid=65ec1fbe-1744-4dfc-9781-955e0bc89a2b"},"vehicle_type_id":"4","last_reported":1733926184,"current_range_meters":17600,"station_id":"ce4bhs12rcd13ifvqhvg","pricing_plan_id":"cebpf4jnsgd1na2vs0mg"},{"bike_id":"bd05107f-2a5c-4806-b9cd-b0bf3ac0f1cb","system_id":"levelo_inurba_marseille","lat":43.30538,"lon":5.38423,"is_reserved":false,"is_disabled":false,"rental_uris":{"android":"levelo://app?vid=bd05107f-2a5c-4806-b9cd-b0bf3ac0f1cb","ios":"levelo://app?vid=bd05107f-2a5c-4806-b9cd-b0bf3ac0f1cb"},"vehicle_type_id":"4","last_reported":1733926184,"current_range_meters":36400,"station_id":"ce4bgg92rcd13ifvqb30","pricing_plan_id":"cebpf4jnsgd1na2vs0mg"},{"bike_id":"30b7f7b0-cffb-44e8-9e23-86428fe1183d","system_id":"levelo_inurba_marseille","lat":43.23039,"lon":5.35484,"is_reserved":false,"is_disabled":false,"rental_uris":{"android":"levelo://app?vid=30b7f7b0-cffb-44e8-9e23-86428fe1183d","ios":"levelo://app?vid=30b7f7b0-cffb-44e8-9e23-86428fe1183d"},"vehicle_type_id":"4","last_reported":1733926184,"current_range_meters":14000,"station_id":"cpo3342slgdg3j2ifvpg","pricing_plan_id":"cebpf4jnsgd1na2vs0mg"},{"bike_id":"a8b664e8-08b7-4cc9-b971-a063618684ea","system_id":"levelo_inurba_marseille","lat":43.27808,"lon":5.40721,"is_reserved":false,"is_disabled":false,"rental_uris":{"android":"levelo://app?vid=a8b664e8-08b7-4cc9-b971-a063618684ea","ios":"levelo://app?vid=a8b664e8-08b7-4cc9-b971-a063618684ea"},"vehicle_type_id":"4","last_reported":1733926184,"current_range_meters":38800,"station_id":"ce4bhnh2rcd13ifvqgtg","pricing_plan_id":"cebpf4jnsgd1na2vs0mg"},{"bike_id":"3525db53-1a03-423d-94da-dfa27d380ac3","system_id":"levelo_inurba_marseille","lat":43.25946,"lon":5.39871,"is_reserved":false,"is_disabled":false,"rental_uris":{"android":"levelo://app?vid=3525db53-1a03-423d-94da-dfa27d380ac3","ios":"levelo://app?vid=3525db53-1a03-423d-94da-dfa27d380ac3"},"vehicle_type_id":"4","last_reported":1733926184,"current_range_meters":34000,"station_id":"ce4bhl92rcd13ifvqghg","pricing_plan_id":"cebpf4jnsgd1na2vs0mg"},{"bike_id":"2fef9f63-9e56-4b2f-a6b8-cc399944377e","system_id":"levelo_inurba_marseille","lat":43.30119,"lon":5.39841,"is_reserved":false,"is_disabled":false,"rental_uris":{"android":"levelo://app?vid=2fef9f63-9e56-4b2f-a6b8-cc399944377e","ios":"levelo://app?vid=2fef9f63-9e56-4b2f-a6b8-cc399944377e"},"vehicle_type_id":"4","last_reported":1733926184,"current_range_meters":36800,"station_id":"ce4bh0h2rcd13ifvqd40","pricing_plan_id":"cebpf4jnsgd1na2vs0mg"},{"bike_id":"28b43e7f-c027-4b66-a5d2-226aee404559","system_id":"levelo_inurba_marseille","lat":43.29907,"lon":5.37475,"is_reserved":false,"is_disabled":false,"rental_uris":{"android":"levelo://app?vid=28b43e7f-c027-4b66-a5d2-226aee404559","ios":"levelo://app?vid=28b43e7f-c027-4b66-a5d2-226aee404559"},"vehicle_type_id":"4","last_reported":1733926184,"current_range_meters":9600,"station_id":"ce4bgjh2rcd13ifvqbg0","pricing_plan_id":"cebpf4jnsgd1na2vs0mg"},{"bike_id":"9d860c86-487a-42eb-8b60-3a66c2c0657d","system_id":"levelo_inurba_marseille","lat":43.28721,"lon":5.37931,"is_reserved":false,"is_disabled":true,"rental_uris":{"android":"levelo://app?vid=9d860c86-487a-42eb-8b60-3a66c2c0657d","ios":"levelo://app?vid=9d860c86-487a-42eb-8b60-3a66c2c0657d"},"vehicle_type_id":"4","last_reported":1733926184,"current_range_meters":800,"station_id":"ce4bh9p2rcd13ifvqec0","pricing_plan_id":"cebpf4jnsgd1na2vs0mg"},{"bike_id":"b02856df-01ac-43b3-a395-8c9e82533979","system_id":"levelo_inurba_marseille","lat":43.29871,"lon":5.39728,"is_reserved":false,"is_disabled":false,"rental_uris":{"android":"levelo://app?vid=b02856df-01ac-43b3-a395-8c9e82533979","ios":"levelo://app?vid=b02856df-01ac-43b3-a395-8c9e82533979"},"vehicle_type_id":"4","last_reported":1733926184,"current_range_meters":37600,"station_id":"ce4bh0h2rcd13ifvqd50","pricing_plan_id":"cebpf4jnsgd1na2vs0mg"},{"bike_id":"c6931cc8-5b71-4525-bd74-c1b3d269520a","system_id":"levelo_inurba_marseille","lat":43.30131,"lon":5.39869,"is_reserved":false,"is_disabled":false,"rental_uris":{"android":"levelo://app?vid=c6931cc8-5b71-4525-bd74-c1b3d269520a","ios":"levelo://app?vid=c6931cc8-5b71-4525-bd74-c1b3d269520a"},"vehicle_type_id":"4","last_reported":1733926184,"current_range_meters":12000,"station_id":"ce4bh0h2rcd13ifvqd40","pricing_plan_id":"cebpf4jnsgd1na2vs0mg"},{"bike_id":"91367fd3-f8f7-4399-a648-438069efa926","system_id":"levelo_inurba_marseille","lat":43.30606,"lon":5.37227,"is_reserved":false,"is_disabled":false,"rental_uris":{"android":"levelo://app?vid=91367fd3-f8f7-4399-a648-438069efa926","ios":"levelo://app?vid=91367fd3-f8f7-4399-a648-438069efa926"},"vehicle_type_id":"4","last_reported":1733926184,"current_range_meters":2800,"station_id":"ce4bgqh2rcd13ifvqc4g","pricing_plan_id":"cebpf4jnsgd1na2vs0mg"},{"bike_id":"2e36a5ec-85ce-44ac-a1d9-54a8e609efa1","system_id":"levelo_inurba_marseille","lat":43.24169,"lon":5.3641,"is_reserved":false,"is_disabled":false,"rental_uris":{"android":"levelo://app?vid=2e36a5ec-85ce-44ac-a1d9-54a8e609efa1","ios":"levelo://app?vid=2e36a5ec-85ce-44ac-a1d9-54a8e609efa1"},"vehicle_type_id":"4","last_reported":1733926184,"current_range_meters":16800,"station_id":"cpo36qri1sfpv3e86is0","pricing_plan_id":"cebpf4jnsgd1na2vs0mg"},{"bike_id":"3d11050f-c7e6-4b3e-8d57-0003784d67cf","system_id":"levelo_inurba_marseille","lat":43.291962,"lon":5.357958,"is_reserved":false,"is_disabled":false,"rental_uris":{"android":"levelo://app?vid=3d11050f-c7e6-4b3e-8d57-0003784d67cf","ios":"levelo://app?vid=3d11050f-c7e6-4b3e-8d57-0003784d67cf"},"vehicle_type_id":"4","last_reported":1733926184,"current_range_meters":30000,"station_id":"ce4bhb12rcd13ifvqel0","pricing_plan_id":"cebpf4jnsgd1na2vs0mg"},{"bike_id":"0f17d2c4-bf96-42e6-978b-f52d4d5288cd","system_id":"levelo_inurba_marseille","lat":43.30316,"lon":5.40451,"is_reserved":false,"is_disabled":true,"rental_uris":{"android":"levelo://app?vid=0f17d2c4-bf96-42e6-978b-f52d4d5288cd","ios":"levelo://app?vid=0f17d2c4-bf96-42e6-978b-f52d4d5288cd"},"vehicle_type_id":"4","last_reported":1733926184,"current_range_meters":33600,"station_id":"ce4bh012rcd13ifvqd10","pricing_plan_id":"cebpf4jnsgd1na2vs0mg"},{"bike_id":"64e739b5-b26f-47e7-9278-7eb302faa0d2","system_id":"levelo_inurba_marseille","lat":43.290052,"lon":5.356155,"is_reserved":false,"is_disabled":false,"rental_uris":{"android":"levelo://app?vid=64e739b5-b26f-47e7-9278-7eb302faa0d2","ios":"levelo://app?vid=64e739b5-b26f-47e7-9278-7eb302faa0d2"},"vehicle_type_id":"4","last_reported":1733926184,"current_range_meters":38800,"station_id":"ce4bhb92rcd13ifvqen0","pricing_plan_id":"cebpf4jnsgd1na2vs0mg"},{"bike_id":"79263867-ab0b-431e-89dc-246e72ff457f","system_id":"levelo_inurba_marseille","lat":43.28665,"lon":5.38665,"is_reserved":false,"is_disabled":true,"rental_uris":{"android":"levelo://app?vid=79263867-ab0b-431e-89dc-246e72ff457f","ios":"levelo://app?vid=79263867-ab0b-431e-89dc-246e72ff457f"},"vehicle_type_id":"4","last_reported":1733926184,"current_range_meters":38800,"station_id":"ce4bh492rcd13ifvqdug","pricing_plan_id":"cebpf4jnsgd1na2vs0mg"},{"bike_id":"9f97bc61-e7eb-4861-8880-368545206066","system_id":"levelo_inurba_marseille","lat":43.27418,"lon":5.39403,"is_reserved":false,"is_disabled":false,"rental_uris":{"android":"levelo://app?vid=9f97bc61-e7eb-4861-8880-368545206066","ios":"levelo://app?vid=9f97bc61-e7eb-4861-8880-368545206066"},"vehicle_type_id":"4","last_reported":1733926184,"current_range_meters":38400,"station_id":"ce4bhdp2rcd13ifvqf20","pricing_plan_id":"cebpf4jnsgd1na2vs0mg"},{"bike_id":"72d634b6-1cb1-4064-981e-760137611038","system_id":"levelo_inurba_marseille","lat":43.30905,"lon":5.3685,"is_reserved":false,"is_disabled":false,"rental_uris":{"android":"levelo://app?vid=72d634b6-1cb1-4064-981e-760137611038","ios":"levelo://app?vid=72d634b6-1cb1-4064-981e-760137611038"},"vehicle_type_id":"4","last_reported":1733926184,"current_range_meters":38800,"station_id":"ce4bgn92rcd13ifvqbvg","pricing_plan_id":"cebpf4jnsgd1na2vs0mg"},{"bike_id":"e9b08cca-37ab-4633-8ff7-2d0a0a0131fe","system_id":"levelo_inurba_marseille","lat":43.26806,"lon":5.40257,"is_reserved":false,"is_disabled":false,"rental_uris":{"android":"levelo://app?vid=e9b08cca-37ab-4633-8ff7-2d0a0a0131fe","ios":"levelo://app?vid=e9b08cca-37ab-4633-8ff7-2d0a0a0131fe"},"vehicle_type_id":"4","last_reported":1733926184,"current_range_meters":27600,"station_id":"ce501612rcd8frsf0b60","pricing_plan_id":"cebpf4jnsgd1na2vs0mg"},{"bike_id":"b1704e06-3ae3-4455-a517-a4600fc51933","system_id":"levelo_inurba_marseille","lat":43.30535,"lon":5.36557,"is_reserved":false,"is_disabled":false,"rental_uris":{"android":"levelo://app?vid=b1704e06-3ae3-4455-a517-a4600fc51933","ios":"levelo://app?vid=b1704e06-3ae3-4455-a517-a4600fc51933"},"vehicle_type_id":"4","last_reported":1733926184,"current_range_meters":27200,"station_id":"ce4bgs12rcd13ifvqcag","pricing_plan_id":"cebpf4jnsgd1na2vs0mg"},{"bike_id":"af67ac53-ba21-4ff0-8334-95679e9ff2cc","system_id":"levelo_inurba_marseille","lat":43.278805,"lon":5.388003,"is_reserved":false,"is_disabled":true,"rental_uris":{"android":"levelo://app?vid=af67ac53-ba21-4ff0-8334-95679e9ff2cc","ios":"levelo://app?vid=af67ac53-ba21-4ff0-8334-95679e9ff2cc"},"vehicle_type_id":"4","last_reported":1733926184,"current_range_meters":0,"station_id":"","pricing_plan_id":"cebpf4jnsgd1na2vs0mg"},{"bike_id":"ab6bb814-6be0-4a23-8be0-7c219c550454","system_id":"levelo_inurba_marseille","lat":43.2944,"lon":5.39766,"is_reserved":false,"is_disabled":true,"rental_uris":{"android":"levelo://app?vid=ab6bb814-6be0-4a23-8be0-7c219c550454","ios":"levelo://app?vid=ab6bb814-6be0-4a23-8be0-7c219c550454"},"vehicle_type_id":"4","last_reported":1733926184,"current_range_meters":800,"station_id":"ce4bh3h2rcd13ifvqdo0","pricing_plan_id":"cebpf4jnsgd1na2vs0mg"},{"bike_id":"459d99e6-a4ad-4998-aebb-382a6f9a855f","system_id":"levelo_inurba_marseille","lat":43.29003,"lon":5.35608,"is_reserved":false,"is_disabled":false,"rental_uris":{"android":"levelo://app?vid=459d99e6-a4ad-4998-aebb-382a6f9a855f","ios":"levelo://app?vid=459d99e6-a4ad-4998-aebb-382a6f9a855f"},"vehicle_type_id":"4","last_reported":1733926184,"current_range_meters":35600,"station_id":"ce4bhb92rcd13ifvqen0","pricing_plan_id":"cebpf4jnsgd1na2vs0mg"},{"bike_id":"18ada20a-4ef8-4428-90ba-1063b2ab4fb7","system_id":"levelo_inurba_marseille","lat":43.29565,"lon":5.39975,"is_reserved":false,"is_disabled":true,"rental_uris":{"android":"levelo://app?vid=18ada20a-4ef8-4428-90ba-1063b2ab4fb7","ios":"levelo://app?vid=18ada20a-4ef8-4428-90ba-1063b2ab4fb7"},"vehicle_type_id":"4","last_reported":1733926184,"current_range_meters":36400,"station_id":"ce4bh312rcd13ifvqdj0","pricing_plan_id":"cebpf4jnsgd1na2vs0mg"},{"bike_id":"309c6ca2-0724-4df4-b751-fca7c30f4de6","system_id":"levelo_inurba_marseille","lat":43.2572,"lon":5.41111,"is_reserved":false,"is_disabled":false,"rental_uris":{"android":"levelo://app?vid=309c6ca2-0724-4df4-b751-fca7c30f4de6","ios":"levelo://app?vid=309c6ca2-0724-4df4-b751-fca7c30f4de6"},"vehicle_type_id":"4","last_reported":1733926184,"current_range_meters":24400,"station_id":"ce4bhkp2rcd13ifvqgd0","pricing_plan_id":"cebpf4jnsgd1na2vs0mg"},{"bike_id":"512311c6-8e27-4752-8fc0-b8cbde613e6b","system_id":"levelo_inurba_marseille","lat":43.26186,"lon":5.37453,"is_reserved":false,"is_disabled":false,"rental_uris":{"android":"levelo://app?vid=512311c6-8e27-4752-8fc0-b8cbde613e6b","ios":"levelo://app?vid=512311c6-8e27-4752-8fc0-b8cbde613e6b"},"vehicle_type_id":"4","last_reported":1733926184,"current_range_meters":16000,"station_id":"ce4bhgp2rcd13ifvqfc0","pricing_plan_id":"cebpf4jnsgd1na2vs0mg"},{"bike_id":"c3f87c2d-f647-4d71-89d3-fc010d8ba668","system_id":"levelo_inurba_marseille","lat":43.28486,"lon":5.38433,"is_reserved":false,"is_disabled":true,"rental_uris":{"android":"levelo://app?vid=c3f87c2d-f647-4d71-89d3-fc010d8ba668","ios":"levelo://app?vid=c3f87c2d-f647-4d71-89d3-fc010d8ba668"},"vehicle_type_id":"4","last_reported":1733926184,"current_range_meters":0,"station_id":"ce4bh512rcd13ifvqe3g","pricing_plan_id":"cebpf4jnsgd1na2vs0mg"},{"bike_id":"ad53aee5-a729-48be-8206-ea00c2981c19","system_id":"levelo_inurba_marseille","lat":43.30516,"lon":5.36532,"is_reserved":false,"is_disabled":true,"rental_uris":{"android":"levelo://app?vid=ad53aee5-a729-48be-8206-ea00c2981c19","ios":"levelo://app?vid=ad53aee5-a729-48be-8206-ea00c2981c19"},"vehicle_type_id":"4","last_reported":1733926184,"current_range_meters":0,"station_id":"","pricing_plan_id":"cebpf4jnsgd1na2vs0mg"},{"bike_id":"c18696d2-787a-4b87-ace0-5cc7ed46dc99","system_id":"levelo_inurba_marseille","lat":43.30542,"lon":5.38425,"is_reserved":false,"is_disabled":false,"rental_uris":{"android":"levelo://app?vid=c18696d2-787a-4b87-ace0-5cc7ed46dc99","ios":"levelo://app?vid=c18696d2-787a-4b87-ace0-5cc7ed46dc99"},"vehicle_type_id":"4","last_reported":1733926184,"current_range_meters":17600,"station_id":"ce4bgg92rcd13ifvqb30","pricing_plan_id":"cebpf4jnsgd1na2vs0mg"},{"bike_id":"0b3eeec8-03fc-4ec9-a747-da2e101f987f","system_id":"levelo_inurba_marseille","lat":43.2396,"lon":5.36631,"is_reserved":false,"is_disabled":false,"rental_uris":{"android":"levelo://app?vid=0b3eeec8-03fc-4ec9-a747-da2e101f987f","ios":"levelo://app?vid=0b3eeec8-03fc-4ec9-a747-da2e101f987f"},"vehicle_type_id":"4","last_reported":1733926184,"current_range_meters":30800,"station_id":"ce4bhi12rcd13ifvqfp0","pricing_plan_id":"cebpf4jnsgd1na2vs0mg"},{"bike_id":"bf685501-15c9-48c5-9dc4-de72909678bb","system_id":"levelo_inurba_marseille","lat":43.28101,"lon":5.37837,"is_reserved":false,"is_disabled":false,"rental_uris":{"android":"levelo://app?vid=bf685501-15c9-48c5-9dc4-de72909678bb","ios":"levelo://app?vid=bf685501-15c9-48c5-9dc4-de72909678bb"},"vehicle_type_id":"4","last_reported":1733926184,"current_range_meters":38800,"station_id":"ce4bha12rcd13ifvqee0","pricing_plan_id":"cebpf4jnsgd1na2vs0mg"},{"bike_id":"e48d11a8-2fa3-466d-a01e-e802f216b7be","system_id":"levelo_inurba_marseille","lat":43.30539,"lon":5.36529,"is_reserved":false,"is_disabled":false,"rental_uris":{"android":"levelo://app?vid=e48d11a8-2fa3-466d-a01e-e802f216b7be","ios":"levelo://app?vid=e48d11a8-2fa3-466d-a01e-e802f216b7be"},"vehicle_type_id":"4","last_reported":1733926184,"current_range_meters":38800,"station_id":"ce4bgs12rcd13ifvqcag","pricing_plan_id":"cebpf4jnsgd1na2vs0mg"},{"bike_id":"a9f39281-9aa5-4463-bd15-b9d4ce4aff4f","system_id":"levelo_inurba_marseille","lat":43.30291,"lon":5.36876,"is_reserved":false,"is_disabled":false,"rental_uris":{"android":"levelo://app?vid=a9f39281-9aa5-4463-bd15-b9d4ce4aff4f","ios":"levelo://app?vid=a9f39281-9aa5-4463-bd15-b9d4ce4aff4f"},"vehicle_type_id":"4","last_reported":1733926184,"current_range_meters":37600,"station_id":"ce4bgqh2rcd13ifvqc5g","pricing_plan_id":"cebpf4jnsgd1na2vs0mg"},{"bike_id":"b28878b5-db89-4926-af43-89dc62f49c5f","system_id":"levelo_inurba_marseille","lat":43.24166,"lon":5.36392,"is_reserved":false,"is_disabled":false,"rental_uris":{"android":"levelo://app?vid=b28878b5-db89-4926-af43-89dc62f49c5f","ios":"levelo://app?vid=b28878b5-db89-4926-af43-89dc62f49c5f"},"vehicle_type_id":"4","last_reported":1733926184,"current_range_meters":24800,"station_id":"cpo36qri1sfpv3e86is0","pricing_plan_id":"cebpf4jnsgd1na2vs0mg"},{"bike_id":"85fd0803-e120-4b4f-84c7-38ea6d07d0a2","system_id":"levelo_inurba_marseille","lat":43.27944,"lon":5.4105,"is_reserved":false,"is_disabled":false,"rental_uris":{"android":"levelo://app?vid=85fd0803-e120-4b4f-84c7-38ea6d07d0a2","ios":"levelo://app?vid=85fd0803-e120-4b4f-84c7-38ea6d07d0a2"},"vehicle_type_id":"4","last_reported":1733926184,"current_range_meters":19200,"station_id":"ce4bhnp2rcd13ifvqh0g","pricing_plan_id":"cebpf4jnsgd1na2vs0mg"},{"bike_id":"cefa54cb-a0bd-4d51-b13e-03ea2047e36f","system_id":"levelo_inurba_marseille","lat":43.29589,"lon":5.37505,"is_reserved":false,"is_disabled":true,"rental_uris":{"android":"levelo://app?vid=cefa54cb-a0bd-4d51-b13e-03ea2047e36f","ios":"levelo://app?vid=cefa54cb-a0bd-4d51-b13e-03ea2047e36f"},"vehicle_type_id":"4","last_reported":1733926184,"current_range_meters":32400,"station_id":"ce4bgh92rcd13ifvqb50","pricing_plan_id":"cebpf4jnsgd1na2vs0mg"},{"bike_id":"0af1466e-bb15-4b7b-a481-9e52ac8458d7","system_id":"levelo_inurba_marseille","lat":43.31994,"lon":5.3814,"is_reserved":false,"is_disabled":false,"rental_uris":{"android":"levelo://app?vid=0af1466e-bb15-4b7b-a481-9e52ac8458d7","ios":"levelo://app?vid=0af1466e-bb15-4b7b-a481-9e52ac8458d7"},"vehicle_type_id":"4","last_reported":1733926184,"current_range_meters":32000,"station_id":"ce4bhr12rcd13ifvqhpg","pricing_plan_id":"cebpf4jnsgd1na2vs0mg"},{"bike_id":"74a68be5-6cc7-4533-80e9-bbe3d4842c40","system_id":"levelo_inurba_marseille","lat":43.30466,"lon":5.41828,"is_reserved":false,"is_disabled":false,"rental_uris":{"android":"levelo://app?vid=74a68be5-6cc7-4533-80e9-bbe3d4842c40","ios":"levelo://app?vid=74a68be5-6cc7-4533-80e9-bbe3d4842c40"},"vehicle_type_id":"4","last_reported":1733926184,"current_range_meters":23200,"station_id":"","pricing_plan_id":"cebpf4jnsgd1na2vs0mg"},{"bike_id":"b8e3a311-f02b-4399-af7b-1bfb5506fa2a","system_id":"levelo_inurba_marseille","lat":43.24646,"lon":5.38897,"is_reserved":false,"is_disabled":false,"rental_uris":{"android":"levelo://app?vid=b8e3a311-f02b-4399-af7b-1bfb5506fa2a","ios":"levelo://app?vid=b8e3a311-f02b-4399-af7b-1bfb5506fa2a"},"vehicle_type_id":"4","last_reported":1733926184,"current_range_meters":28400,"station_id":"ce4bhg12rcd13ifvqf60","pricing_plan_id":"cebpf4jnsgd1na2vs0mg"},{"bike_id":"0819c574-c550-4f68-9dac-3c1b3fdf0d04","system_id":"levelo_inurba_marseille","lat":43.322866,"lon":5.382756,"is_reserved":false,"is_disabled":false,"rental_uris":{"android":"levelo://app?vid=0819c574-c550-4f68-9dac-3c1b3fdf0d04","ios":"levelo://app?vid=0819c574-c550-4f68-9dac-3c1b3fdf0d04"},"vehicle_type_id":"4","last_reported":1733926184,"current_range_meters":38800,"station_id":"ce4bhr12rcd13ifvqhqg","pricing_plan_id":"cebpf4jnsgd1na2vs0mg"},{"bike_id":"583471b5-0613-401c-a343-3a0a090b4aef","system_id":"levelo_inurba_marseille","lat":43.26934,"lon":5.38925,"is_reserved":false,"is_disabled":false,"rental_uris":{"android":"levelo://app?vid=583471b5-0613-401c-a343-3a0a090b4aef","ios":"levelo://app?vid=583471b5-0613-401c-a343-3a0a090b4aef"},"vehicle_type_id":"4","last_reported":1733926184,"current_range_meters":27600,"station_id":"ce4bhhh2rcd13ifvqfl0","pricing_plan_id":"cebpf4jnsgd1na2vs0mg"},{"bike_id":"40aa3401-ee50-4d6d-8cdb-064bb29e5ead","system_id":"levelo_inurba_marseille","lat":43.32478,"lon":5.36577,"is_reserved":false,"is_disabled":false,"rental_uris":{"android":"levelo://app?vid=40aa3401-ee50-4d6d-8cdb-064bb29e5ead","ios":"levelo://app?vid=40aa3401-ee50-4d6d-8cdb-064bb29e5ead"},"vehicle_type_id":"4","last_reported":1733926184,"current_range_meters":38800,"station_id":"ce4bhs12rcd13ifvqhvg","pricing_plan_id":"cebpf4jnsgd1na2vs0mg"},{"bike_id":"c8000abf-7b04-4aa2-881e-f0c5fefdd95b","system_id":"levelo_inurba_marseille","lat":43.31985,"lon":5.38155,"is_reserved":false,"is_disabled":false,"rental_uris":{"android":"levelo://app?vid=c8000abf-7b04-4aa2-881e-f0c5fefdd95b","ios":"levelo://app?vid=c8000abf-7b04-4aa2-881e-f0c5fefdd95b"},"vehicle_type_id":"4","last_reported":1733926184,"current_range_meters":19600,"station_id":"ce4bhr12rcd13ifvqhpg","pricing_plan_id":"cebpf4jnsgd1na2vs0mg"},{"bike_id":"bd393d88-e1e3-46cc-b1c3-c084bb1b7910","system_id":"levelo_inurba_marseille","lat":43.31072,"lon":5.38353,"is_reserved":false,"is_disabled":false,"rental_uris":{"android":"levelo://app?vid=bd393d88-e1e3-46cc-b1c3-c084bb1b7910","ios":"levelo://app?vid=bd393d88-e1e3-46cc-b1c3-c084bb1b7910"},"vehicle_type_id":"4","last_reported":1733926184,"current_range_meters":28800,"station_id":"ce4bgv92rcd13ifvqcr0","pricing_plan_id":"cebpf4jnsgd1na2vs0mg"},{"bike_id":"13df45f9-c399-4e50-abaa-b4c4fcea5e2b","system_id":"levelo_inurba_marseille","lat":43.29245,"lon":5.40899,"is_reserved":false,"is_disabled":false,"rental_uris":{"android":"levelo://app?vid=13df45f9-c399-4e50-abaa-b4c4fcea5e2b","ios":"levelo://app?vid=13df45f9-c399-4e50-abaa-b4c4fcea5e2b"},"vehicle_type_id":"4","last_reported":1733926184,"current_range_meters":32000,"station_id":"ce4bh192rcd13ifvqdc0","pricing_plan_id":"cebpf4jnsgd1na2vs0mg"},{"bike_id":"7415e546-3b44-4c09-ab81-67543def4c63","system_id":"levelo_inurba_marseille","lat":43.30647,"lon":5.40077,"is_reserved":false,"is_disabled":false,"rental_uris":{"android":"levelo://app?vid=7415e546-3b44-4c09-ab81-67543def4c63","ios":"levelo://app?vid=7415e546-3b44-4c09-ab81-67543def4c63"},"vehicle_type_id":"4","last_reported":1733926184,"current_range_meters":37600,"station_id":"ce4bh112rcd13ifvqda0","pricing_plan_id":"cebpf4jnsgd1na2vs0mg"},{"bike_id":"6effa2b2-fcd2-4282-90bc-a0986a819336","system_id":"levelo_inurba_marseille","lat":43.24386,"lon":5.37061,"is_reserved":false,"is_disabled":false,"rental_uris":{"android":"levelo://app?vid=6effa2b2-fcd2-4282-90bc-a0986a819336","ios":"levelo://app?vid=6effa2b2-fcd2-4282-90bc-a0986a819336"},"vehicle_type_id":"4","last_reported":1733926184,"current_range_meters":22400,"station_id":"ce4bhhh2rcd13ifvqfk0","pricing_plan_id":"cebpf4jnsgd1na2vs0mg"},{"bike_id":"50b714ae-96e6-4593-bfba-7d9f49fa5482","system_id":"levelo_inurba_marseille","lat":43.23966,"lon":5.36641,"is_reserved":false,"is_disabled":false,"rental_uris":{"android":"levelo://app?vid=50b714ae-96e6-4593-bfba-7d9f49fa5482","ios":"levelo://app?vid=50b714ae-96e6-4593-bfba-7d9f49fa5482"},"vehicle_type_id":"4","last_reported":1733926184,"current_range_meters":38800,"station_id":"ce4bhi12rcd13ifvqfp0","pricing_plan_id":"cebpf4jnsgd1na2vs0mg"},{"bike_id":"338411d9-dcc3-4ff8-b277-679a00a24582","system_id":"levelo_inurba_marseille","lat":43.313527,"lon":5.367199,"is_reserved":false,"is_disabled":false,"rental_uris":{"android":"levelo://app?vid=338411d9-dcc3-4ff8-b277-679a00a24582","ios":"levelo://app?vid=338411d9-dcc3-4ff8-b277-679a00a24582"},"vehicle_type_id":"4","last_reported":1733926184,"current_range_meters":38800,"station_id":"ce4bgr92rcd13ifvqc6g","pricing_plan_id":"cebpf4jnsgd1na2vs0mg"},{"bike_id":"c4ffcec5-ef17-4ecd-b998-e80f1c382481","system_id":"levelo_inurba_marseille","lat":43.30361,"lon":5.38591,"is_reserved":false,"is_disabled":false,"rental_uris":{"android":"levelo://app?vid=c4ffcec5-ef17-4ecd-b998-e80f1c382481","ios":"levelo://app?vid=c4ffcec5-ef17-4ecd-b998-e80f1c382481"},"vehicle_type_id":"4","last_reported":1733926184,"current_range_meters":6800,"station_id":"ce4bghh2rcd13ifvqb60","pricing_plan_id":"cebpf4jnsgd1na2vs0mg"},{"bike_id":"250d98e8-7030-41dd-8b5a-61da505d0feb","system_id":"levelo_inurba_marseille","lat":43.29871,"lon":5.39738,"is_reserved":false,"is_disabled":false,"rental_uris":{"android":"levelo://app?vid=250d98e8-7030-41dd-8b5a-61da505d0feb","ios":"levelo://app?vid=250d98e8-7030-41dd-8b5a-61da505d0feb"},"vehicle_type_id":"4","last_reported":1733926184,"current_range_meters":12800,"station_id":"ce4bh0h2rcd13ifvqd50","pricing_plan_id":"cebpf4jnsgd1na2vs0mg"},{"bike_id":"440c0882-719b-4b38-aba1-872c74c75218","system_id":"levelo_inurba_marseille","lat":43.32288,"lon":5.38269,"is_reserved":false,"is_disabled":false,"rental_uris":{"android":"levelo://app?vid=440c0882-719b-4b38-aba1-872c74c75218","ios":"levelo://app?vid=440c0882-719b-4b38-aba1-872c74c75218"},"vehicle_type_id":"4","last_reported":1733926184,"current_range_meters":38800,"station_id":"ce4bhr12rcd13ifvqhqg","pricing_plan_id":"cebpf4jnsgd1na2vs0mg"},{"bike_id":"043b6990-a2d9-4323-9fb9-2f90f599ded1","system_id":"levelo_inurba_marseille","lat":43.26041,"lon":5.37564,"is_reserved":false,"is_disabled":false,"rental_uris":{"android":"levelo://app?vid=043b6990-a2d9-4323-9fb9-2f90f599ded1","ios":"levelo://app?vid=043b6990-a2d9-4323-9fb9-2f90f599ded1"},"vehicle_type_id":"4","last_reported":1733926184,"current_range_meters":38800,"station_id":"ce4bhgh2rcd13ifvqfa0","pricing_plan_id":"cebpf4jnsgd1na2vs0mg"},{"bike_id":"accc15c2-75c8-4823-a61f-1d4d7e399167","system_id":"levelo_inurba_marseille","lat":43.2942,"lon":5.38612,"is_reserved":false,"is_disabled":true,"rental_uris":{"android":"levelo://app?vid=accc15c2-75c8-4823-a61f-1d4d7e399167","ios":"levelo://app?vid=accc15c2-75c8-4823-a61f-1d4d7e399167"},"vehicle_type_id":"4","last_reported":1733926184,"current_range_meters":11200,"station_id":"ce4bh2h2rcd13ifvqdh0","pricing_plan_id":"cebpf4jnsgd1na2vs0mg"},{"bike_id":"1dcb3730-1dbc-4158-85c7-65de2c8645d2","system_id":"levelo_inurba_marseille","lat":43.29551,"lon":5.42283,"is_reserved":false,"is_disabled":false,"rental_uris":{"android":"levelo://app?vid=1dcb3730-1dbc-4158-85c7-65de2c8645d2","ios":"levelo://app?vid=1dcb3730-1dbc-4158-85c7-65de2c8645d2"},"vehicle_type_id":"4","last_reported":1733926184,"current_range_meters":36800,"station_id":"ce4bhph2rcd13ifvqhdg","pricing_plan_id":"cebpf4jnsgd1na2vs0mg"},{"bike_id":"d64e89d0-0747-4c85-9f1e-f1a7d9b3369d","system_id":"levelo_inurba_marseille","lat":43.30283,"lon":5.36882,"is_reserved":false,"is_disabled":false,"rental_uris":{"android":"levelo://app?vid=d64e89d0-0747-4c85-9f1e-f1a7d9b3369d","ios":"levelo://app?vid=d64e89d0-0747-4c85-9f1e-f1a7d9b3369d"},"vehicle_type_id":"4","last_reported":1733926184,"current_range_meters":34800,"station_id":"ce4bgqh2rcd13ifvqc5g","pricing_plan_id":"cebpf4jnsgd1na2vs0mg"},{"bike_id":"60734774-8feb-4f26-ae06-1961079ba00d","system_id":"levelo_inurba_marseille","lat":43.29165,"lon":5.3716,"is_reserved":false,"is_disabled":false,"rental_uris":{"android":"levelo://app?vid=60734774-8feb-4f26-ae06-1961079ba00d","ios":"levelo://app?vid=60734774-8feb-4f26-ae06-1961079ba00d"},"vehicle_type_id":"4","last_reported":1733926184,"current_range_meters":38000,"station_id":"ce4bha92rcd13ifvqeh0","pricing_plan_id":"cebpf4jnsgd1na2vs0mg"},{"bike_id":"e966d2c7-c9e1-4cb1-9a39-6325607b0be4","system_id":"levelo_inurba_marseille","lat":43.337444,"lon":5.374475,"is_reserved":false,"is_disabled":true,"rental_uris":{"android":"levelo://app?vid=e966d2c7-c9e1-4cb1-9a39-6325607b0be4","ios":"levelo://app?vid=e966d2c7-c9e1-4cb1-9a39-6325607b0be4"},"vehicle_type_id":"4","last_reported":1733926184,"current_range_meters":0,"station_id":"","pricing_plan_id":"cebpf4jnsgd1na2vs0mg"},{"bike_id":"2959d5d4-47f0-4d97-9053-e5d67719a7f5","system_id":"levelo_inurba_marseille","lat":43.24391,"lon":5.37075,"is_reserved":false,"is_disabled":false,"rental_uris":{"android":"levelo://app?vid=2959d5d4-47f0-4d97-9053-e5d67719a7f5","ios":"levelo://app?vid=2959d5d4-47f0-4d97-9053-e5d67719a7f5"},"vehicle_type_id":"4","last_reported":1733926184,"current_range_meters":38800,"station_id":"ce4bhhh2rcd13ifvqfk0","pricing_plan_id":"cebpf4jnsgd1na2vs0mg"},{"bike_id":"07968f93-630f-4d2e-97ee-db54ee39d8e3","system_id":"levelo_inurba_marseille","lat":43.30827,"lon":5.39646,"is_reserved":false,"is_disabled":false,"rental_uris":{"android":"levelo://app?vid=07968f93-630f-4d2e-97ee-db54ee39d8e3","ios":"levelo://app?vid=07968f93-630f-4d2e-97ee-db54ee39d8e3"},"vehicle_type_id":"4","last_reported":1733926184,"current_range_meters":36800,"station_id":"","pricing_plan_id":"cebpf4jnsgd1na2vs0mg"},{"bike_id":"f0a4f587-2333-4a7a-8819-09121e495e1b","system_id":"levelo_inurba_marseille","lat":43.22927,"lon":5.35403,"is_reserved":false,"is_disabled":false,"rental_uris":{"android":"levelo://app?vid=f0a4f587-2333-4a7a-8819-09121e495e1b","ios":"levelo://app?vid=f0a4f587-2333-4a7a-8819-09121e495e1b"},"vehicle_type_id":"4","last_reported":1733926184,"current_range_meters":14000,"station_id":"cpo3532slgdg3j2ikp40","pricing_plan_id":"cebpf4jnsgd1na2vs0mg"},{"bike_id":"e9c68315-5aef-4847-8fca-b0791cecb7b8","system_id":"levelo_inurba_marseille","lat":43.29706,"lon":5.37705,"is_reserved":false,"is_disabled":false,"rental_uris":{"android":"levelo://app?vid=e9c68315-5aef-4847-8fca-b0791cecb7b8","ios":"levelo://app?vid=e9c68315-5aef-4847-8fca-b0791cecb7b8"},"vehicle_type_id":"4","last_reported":1733926184,"current_range_meters":12800,"station_id":"ce4bgkh2rcd13ifvqbl0","pricing_plan_id":"cebpf4jnsgd1na2vs0mg"},{"bike_id":"17f59de1-b3ce-4e3a-95ec-402199b35e46","system_id":"levelo_inurba_marseille","lat":43.24642,"lon":5.38921,"is_reserved":false,"is_disabled":false,"rental_uris":{"android":"levelo://app?vid=17f59de1-b3ce-4e3a-95ec-402199b35e46","ios":"levelo://app?vid=17f59de1-b3ce-4e3a-95ec-402199b35e46"},"vehicle_type_id":"4","last_reported":1733926184,"current_range_meters":31200,"station_id":"ce4bhg12rcd13ifvqf60","pricing_plan_id":"cebpf4jnsgd1na2vs0mg"},{"bike_id":"7b6aa142-ca01-40d6-b323-bb3f666c0a85","system_id":"levelo_inurba_marseille","lat":43.28483,"lon":5.38411,"is_reserved":false,"is_disabled":true,"rental_uris":{"android":"levelo://app?vid=7b6aa142-ca01-40d6-b323-bb3f666c0a85","ios":"levelo://app?vid=7b6aa142-ca01-40d6-b323-bb3f666c0a85"},"vehicle_type_id":"4","last_reported":1733926184,"current_range_meters":400,"station_id":"ce4bh512rcd13ifvqe3g","pricing_plan_id":"cebpf4jnsgd1na2vs0mg"},{"bike_id":"ba8161c7-4a94-40c7-998e-0e585e2c4d1b","system_id":"levelo_inurba_marseille","lat":43.27067,"lon":5.42273,"is_reserved":false,"is_disabled":false,"rental_uris":{"android":"levelo://app?vid=ba8161c7-4a94-40c7-998e-0e585e2c4d1b","ios":"levelo://app?vid=ba8161c7-4a94-40c7-998e-0e585e2c4d1b"},"vehicle_type_id":"4","last_reported":1733926184,"current_range_meters":37600,"station_id":"ce4bhk92rcd13ifvqgb0","pricing_plan_id":"cebpf4jnsgd1na2vs0mg"},{"bike_id":"fa64b457-c3f8-4ea2-96b4-667a13e51db1","system_id":"levelo_inurba_marseille","lat":43.30534,"lon":5.36552,"is_reserved":false,"is_disabled":false,"rental_uris":{"android":"levelo://app?vid=fa64b457-c3f8-4ea2-96b4-667a13e51db1","ios":"levelo://app?vid=fa64b457-c3f8-4ea2-96b4-667a13e51db1"},"vehicle_type_id":"4","last_reported":1733926184,"current_range_meters":18000,"station_id":"ce4bgs12rcd13ifvqcag","pricing_plan_id":"cebpf4jnsgd1na2vs0mg"},{"bike_id":"fe4d47c1-dfb5-4e68-bfe4-126efd20c0c3","system_id":"levelo_inurba_marseille","lat":43.30789,"lon":5.37374,"is_reserved":false,"is_disabled":false,"rental_uris":{"android":"levelo://app?vid=fe4d47c1-dfb5-4e68-bfe4-126efd20c0c3","ios":"levelo://app?vid=fe4d47c1-dfb5-4e68-bfe4-126efd20c0c3"},"vehicle_type_id":"4","last_reported":1733926184,"current_range_meters":26000,"station_id":"","pricing_plan_id":"cebpf4jnsgd1na2vs0mg"},{"bike_id":"05a25ed4-2e6a-4c18-bb82-1b033bbb0d61","system_id":"levelo_inurba_marseille","lat":43.27549,"lon":5.40903,"is_reserved":false,"is_disabled":true,"rental_uris":{"android":"levelo://app?vid=05a25ed4-2e6a-4c18-bb82-1b033bbb0d61","ios":"levelo://app?vid=05a25ed4-2e6a-4c18-bb82-1b033bbb0d61"},"vehicle_type_id":"4","last_reported":1733926184,"current_range_meters":1200,"station_id":"","pricing_plan_id":"cebpf4jnsgd1na2vs0mg"},{"bike_id":"587ab355-fbe7-47eb-becd-0127e923d688","system_id":"levelo_inurba_marseille","lat":43.261883,"lon":5.374613,"is_reserved":false,"is_disabled":false,"rental_uris":{"android":"levelo://app?vid=587ab355-fbe7-47eb-becd-0127e923d688","ios":"levelo://app?vid=587ab355-fbe7-47eb-becd-0127e923d688"},"vehicle_type_id":"4","last_reported":1733926184,"current_range_meters":4800,"station_id":"ce4bhgp2rcd13ifvqfc0","pricing_plan_id":"cebpf4jnsgd1na2vs0mg"},{"bike_id":"02004a0a-91ff-403c-bc3e-4321d6d47f2c","system_id":"levelo_inurba_marseille","lat":43.29008,"lon":5.356193,"is_reserved":false,"is_disabled":false,"rental_uris":{"android":"levelo://app?vid=02004a0a-91ff-403c-bc3e-4321d6d47f2c","ios":"levelo://app?vid=02004a0a-91ff-403c-bc3e-4321d6d47f2c"},"vehicle_type_id":"4","last_reported":1733926184,"current_range_meters":35600,"station_id":"ce4bhb92rcd13ifvqen0","pricing_plan_id":"cebpf4jnsgd1na2vs0mg"},{"bike_id":"9249ab9a-62cc-4612-8f2c-fdb8358fa3cb","system_id":"levelo_inurba_marseille","lat":43.26029,"lon":5.37553,"is_reserved":false,"is_disabled":false,"rental_uris":{"android":"levelo://app?vid=9249ab9a-62cc-4612-8f2c-fdb8358fa3cb","ios":"levelo://app?vid=9249ab9a-62cc-4612-8f2c-fdb8358fa3cb"},"vehicle_type_id":"4","last_reported":1733926184,"current_range_meters":36000,"station_id":"ce4bhgh2rcd13ifvqfa0","pricing_plan_id":"cebpf4jnsgd1na2vs0mg"},{"bike_id":"3728ed47-afe6-49a5-94ed-946f2c9c0a0c","system_id":"levelo_inurba_marseille","lat":43.24802,"lon":5.37455,"is_reserved":false,"is_disabled":false,"rental_uris":{"android":"levelo://app?vid=3728ed47-afe6-49a5-94ed-946f2c9c0a0c","ios":"levelo://app?vid=3728ed47-afe6-49a5-94ed-946f2c9c0a0c"},"vehicle_type_id":"4","last_reported":1733926184,"current_range_meters":38000,"station_id":"ce4bhgh2rcd13ifvqfb0","pricing_plan_id":"cebpf4jnsgd1na2vs0mg"},{"bike_id":"097a41bf-6635-41a6-b7a7-1173cae29ada","system_id":"levelo_inurba_marseille","lat":43.22921,"lon":5.35403,"is_reserved":false,"is_disabled":false,"rental_uris":{"android":"levelo://app?vid=097a41bf-6635-41a6-b7a7-1173cae29ada","ios":"levelo://app?vid=097a41bf-6635-41a6-b7a7-1173cae29ada"},"vehicle_type_id":"4","last_reported":1733926184,"current_range_meters":39200,"station_id":"cpo3532slgdg3j2ikp40","pricing_plan_id":"cebpf4jnsgd1na2vs0mg"},{"bike_id":"a90ab59e-9775-4bc6-a3e9-285e464122de","system_id":"levelo_inurba_marseille","lat":43.24649,"lon":5.3889,"is_reserved":false,"is_disabled":false,"rental_uris":{"android":"levelo://app?vid=a90ab59e-9775-4bc6-a3e9-285e464122de","ios":"levelo://app?vid=a90ab59e-9775-4bc6-a3e9-285e464122de"},"vehicle_type_id":"4","last_reported":1733926184,"current_range_meters":38800,"station_id":"ce4bhg12rcd13ifvqf60","pricing_plan_id":"cebpf4jnsgd1na2vs0mg"},{"bike_id":"376f2b68-1f59-4b7d-9e21-d9e16058592a","system_id":"levelo_inurba_marseille","lat":43.31362,"lon":5.36776,"is_reserved":false,"is_disabled":false,"rental_uris":{"android":"levelo://app?vid=376f2b68-1f59-4b7d-9e21-d9e16058592a","ios":"levelo://app?vid=376f2b68-1f59-4b7d-9e21-d9e16058592a"},"vehicle_type_id":"4","last_reported":1733926184,"current_range_meters":38800,"station_id":"ce4bgr92rcd13ifvqc6g","pricing_plan_id":"cebpf4jnsgd1na2vs0mg"},{"bike_id":"e08a3c45-9a07-474f-9717-a27fa81c4ce9","system_id":"levelo_inurba_marseille","lat":43.30362,"lon":5.38616,"is_reserved":false,"is_disabled":true,"rental_uris":{"android":"levelo://app?vid=e08a3c45-9a07-474f-9717-a27fa81c4ce9","ios":"levelo://app?vid=e08a3c45-9a07-474f-9717-a27fa81c4ce9"},"vehicle_type_id":"4","last_reported":1733926184,"current_range_meters":1200,"station_id":"","pricing_plan_id":"cebpf4jnsgd1na2vs0mg"},{"bike_id":"b527fb3a-beee-43ab-ad58-3d1f3e829bc3","system_id":"levelo_inurba_marseille","lat":43.3055,"lon":5.36542,"is_reserved":false,"is_disabled":false,"rental_uris":{"android":"levelo://app?vid=b527fb3a-beee-43ab-ad58-3d1f3e829bc3","ios":"levelo://app?vid=b527fb3a-beee-43ab-ad58-3d1f3e829bc3"},"vehicle_type_id":"4","last_reported":1733926184,"current_range_meters":26800,"station_id":"ce4bgs12rcd13ifvqcag","pricing_plan_id":"cebpf4jnsgd1na2vs0mg"},{"bike_id":"f953bc9a-0ca6-4ad8-8152-5b35bb6cec97","system_id":"levelo_inurba_marseille","lat":43.29533,"lon":5.3855,"is_reserved":false,"is_disabled":false,"rental_uris":{"android":"levelo://app?vid=f953bc9a-0ca6-4ad8-8152-5b35bb6cec97","ios":"levelo://app?vid=f953bc9a-0ca6-4ad8-8152-5b35bb6cec97"},"vehicle_type_id":"4","last_reported":1733926184,"current_range_meters":32000,"station_id":"ce4bgih2rcd13ifvqba0","pricing_plan_id":"cebpf4jnsgd1na2vs0mg"},{"bike_id":"e4cb8bd5-a099-4059-b35e-b61eff301434","system_id":"levelo_inurba_marseille","lat":43.28115,"lon":5.37875,"is_reserved":false,"is_disabled":false,"rental_uris":{"android":"levelo://app?vid=e4cb8bd5-a099-4059-b35e-b61eff301434","ios":"levelo://app?vid=e4cb8bd5-a099-4059-b35e-b61eff301434"},"vehicle_type_id":"4","last_reported":1733926184,"current_range_meters":38800,"station_id":"ce4bha12rcd13ifvqee0","pricing_plan_id":"cebpf4jnsgd1na2vs0mg"},{"bike_id":"0d514f68-29b7-4049-844a-493370863f98","system_id":"levelo_inurba_marseille","lat":43.28337,"lon":5.38114,"is_reserved":false,"is_disabled":true,"rental_uris":{"android":"levelo://app?vid=0d514f68-29b7-4049-844a-493370863f98","ios":"levelo://app?vid=0d514f68-29b7-4049-844a-493370863f98"},"vehicle_type_id":"4","last_reported":1733926184,"current_range_meters":25600,"station_id":"ce4bh412rcd13ifvqdr0","pricing_plan_id":"cebpf4jnsgd1na2vs0mg"},{"bike_id":"acd24011-2e36-48fd-a475-73f1f754a91c","system_id":"levelo_inurba_marseille","lat":43.29867,"lon":5.39743,"is_reserved":false,"is_disabled":true,"rental_uris":{"android":"levelo://app?vid=acd24011-2e36-48fd-a475-73f1f754a91c","ios":"levelo://app?vid=acd24011-2e36-48fd-a475-73f1f754a91c"},"vehicle_type_id":"4","last_reported":1733926184,"current_range_meters":38800,"station_id":"ce4bh0h2rcd13ifvqd50","pricing_plan_id":"cebpf4jnsgd1na2vs0mg"},{"bike_id":"bc119752-b234-4c77-b416-1126eb4f816b","system_id":"levelo_inurba_marseille","lat":43.25576,"lon":5.38224,"is_reserved":false,"is_disabled":false,"rental_uris":{"android":"levelo://app?vid=bc119752-b234-4c77-b416-1126eb4f816b","ios":"levelo://app?vid=bc119752-b234-4c77-b416-1126eb4f816b"},"vehicle_type_id":"4","last_reported":1733926184,"current_range_meters":38400,"station_id":"ce4bhih2rcd13ifvqfs0","pricing_plan_id":"cebpf4jnsgd1na2vs0mg"},{"bike_id":"2fbde132-3a47-40a7-9385-74ee2a460d35","system_id":"levelo_inurba_marseille","lat":43.2936,"lon":5.37451,"is_reserved":false,"is_disabled":false,"rental_uris":{"android":"levelo://app?vid=2fbde132-3a47-40a7-9385-74ee2a460d35","ios":"levelo://app?vid=2fbde132-3a47-40a7-9385-74ee2a460d35"},"vehicle_type_id":"4","last_reported":1733926184,"current_range_meters":38000,"station_id":"","pricing_plan_id":"cebpf4jnsgd1na2vs0mg"},{"bike_id":"a56f9de4-6a91-4720-9e75-282f862dc823","system_id":"levelo_inurba_marseille","lat":43.24179,"lon":5.39733,"is_reserved":false,"is_disabled":false,"rental_uris":{"android":"levelo://app?vid=a56f9de4-6a91-4720-9e75-282f862dc823","ios":"levelo://app?vid=a56f9de4-6a91-4720-9e75-282f862dc823"},"vehicle_type_id":"4","last_reported":1733926184,"current_range_meters":22800,"station_id":"ce4bhn12rcd13ifvqgpg","pricing_plan_id":"cebpf4jnsgd1na2vs0mg"},{"bike_id":"9a6253bb-0476-45c3-afc7-3df49d8ed73c","system_id":"levelo_inurba_marseille","lat":43.32549,"lon":5.41456,"is_reserved":false,"is_disabled":false,"rental_uris":{"android":"levelo://app?vid=9a6253bb-0476-45c3-afc7-3df49d8ed73c","ios":"levelo://app?vid=9a6253bb-0476-45c3-afc7-3df49d8ed73c"},"vehicle_type_id":"4","last_reported":1733926184,"current_range_meters":28800,"station_id":"ce4bhq12rcd13ifvqhhg","pricing_plan_id":"cebpf4jnsgd1na2vs0mg"},{"bike_id":"4d2c4b99-bb1d-46b2-9c5c-b8bbc0e2178a","system_id":"levelo_inurba_marseille","lat":43.29535,"lon":5.3855,"is_reserved":false,"is_disabled":false,"rental_uris":{"android":"levelo://app?vid=4d2c4b99-bb1d-46b2-9c5c-b8bbc0e2178a","ios":"levelo://app?vid=4d2c4b99-bb1d-46b2-9c5c-b8bbc0e2178a"},"vehicle_type_id":"4","last_reported":1733926184,"current_range_meters":33200,"station_id":"ce4bgih2rcd13ifvqba0","pricing_plan_id":"cebpf4jnsgd1na2vs0mg"},{"bike_id":"e2a77f5d-1d63-4243-bf72-8b9ec30686b1","system_id":"levelo_inurba_marseille","lat":43.28704,"lon":5.37944,"is_reserved":false,"is_disabled":true,"rental_uris":{"android":"levelo://app?vid=e2a77f5d-1d63-4243-bf72-8b9ec30686b1","ios":"levelo://app?vid=e2a77f5d-1d63-4243-bf72-8b9ec30686b1"},"vehicle_type_id":"4","last_reported":1733926184,"current_range_meters":35600,"station_id":"ce4bh9p2rcd13ifvqec0","pricing_plan_id":"cebpf4jnsgd1na2vs0mg"},{"bike_id":"1a6c2e40-cc83-4202-a877-31ef6d077395","system_id":"levelo_inurba_marseille","lat":43.27168,"lon":5.41003,"is_reserved":false,"is_disabled":false,"rental_uris":{"android":"levelo://app?vid=1a6c2e40-cc83-4202-a877-31ef6d077395","ios":"levelo://app?vid=1a6c2e40-cc83-4202-a877-31ef6d077395"},"vehicle_type_id":"4","last_reported":1733926184,"current_range_meters":36800,"station_id":"ce4bhl12rcd13ifvqgf0","pricing_plan_id":"cebpf4jnsgd1na2vs0mg"},{"bike_id":"86c0fe76-178f-4b7b-a24b-b84b0e524a24","system_id":"levelo_inurba_marseille","lat":43.3061,"lon":5.37227,"is_reserved":false,"is_disabled":false,"rental_uris":{"android":"levelo://app?vid=86c0fe76-178f-4b7b-a24b-b84b0e524a24","ios":"levelo://app?vid=86c0fe76-178f-4b7b-a24b-b84b0e524a24"},"vehicle_type_id":"4","last_reported":1733926184,"current_range_meters":24400,"station_id":"ce4bgqh2rcd13ifvqc4g","pricing_plan_id":"cebpf4jnsgd1na2vs0mg"},{"bike_id":"f447d706-dbb9-46ec-9668-0542ba72dcba","system_id":"levelo_inurba_marseille","lat":43.30541,"lon":5.36552,"is_reserved":false,"is_disabled":false,"rental_uris":{"android":"levelo://app?vid=f447d706-dbb9-46ec-9668-0542ba72dcba","ios":"levelo://app?vid=f447d706-dbb9-46ec-9668-0542ba72dcba"},"vehicle_type_id":"4","last_reported":1733926184,"current_range_meters":38000,"station_id":"ce4bgs12rcd13ifvqcag","pricing_plan_id":"cebpf4jnsgd1na2vs0mg"},{"bike_id":"013d3f10-8d73-4ff3-bc3c-a63b0b5dfd79","system_id":"levelo_inurba_marseille","lat":43.28417,"lon":5.34982,"is_reserved":false,"is_disabled":false,"rental_uris":{"android":"levelo://app?vid=013d3f10-8d73-4ff3-bc3c-a63b0b5dfd79","ios":"levelo://app?vid=013d3f10-8d73-4ff3-bc3c-a63b0b5dfd79"},"vehicle_type_id":"4","last_reported":1733926184,"current_range_meters":26000,"station_id":"ce4bhbh2rcd13ifvqepg","pricing_plan_id":"cebpf4jnsgd1na2vs0mg"},{"bike_id":"a66c4b95-337e-4b9a-950c-e8c8d8e7a3a1","system_id":"levelo_inurba_marseille","lat":43.324799,"lon":5.365716,"is_reserved":false,"is_disabled":true,"rental_uris":{"android":"levelo://app?vid=a66c4b95-337e-4b9a-950c-e8c8d8e7a3a1","ios":"levelo://app?vid=a66c4b95-337e-4b9a-950c-e8c8d8e7a3a1"},"vehicle_type_id":"4","last_reported":1733926184,"current_range_meters":0,"station_id":"","pricing_plan_id":"cebpf4jnsgd1na2vs0mg"},{"bike_id":"b8a8e903-358c-4853-81b0-e99aeaec8699","system_id":"levelo_inurba_marseille","lat":43.24175,"lon":5.36396,"is_reserved":false,"is_disabled":false,"rental_uris":{"android":"levelo://app?vid=b8a8e903-358c-4853-81b0-e99aeaec8699","ios":"levelo://app?vid=b8a8e903-358c-4853-81b0-e99aeaec8699"},"vehicle_type_id":"4","last_reported":1733926184,"current_range_meters":25600,"station_id":"cpo36qri1sfpv3e86is0","pricing_plan_id":"cebpf4jnsgd1na2vs0mg"},{"bike_id":"2ed7839b-5815-46ec-8288-ac8ac565f4e7","system_id":"levelo_inurba_marseille","lat":43.3372,"lon":5.39179,"is_reserved":false,"is_disabled":false,"rental_uris":{"android":"levelo://app?vid=2ed7839b-5815-46ec-8288-ac8ac565f4e7","ios":"levelo://app?vid=2ed7839b-5815-46ec-8288-ac8ac565f4e7"},"vehicle_type_id":"4","last_reported":1733926184,"current_range_meters":37600,"station_id":"ce4bhr92rcd13ifvqhsg","pricing_plan_id":"cebpf4jnsgd1na2vs0mg"},{"bike_id":"bfc76370-fa16-482e-83b3-587225c23f25","system_id":"levelo_inurba_marseille","lat":43.28938,"lon":5.36566,"is_reserved":false,"is_disabled":false,"rental_uris":{"android":"levelo://app?vid=bfc76370-fa16-482e-83b3-587225c23f25","ios":"levelo://app?vid=bfc76370-fa16-482e-83b3-587225c23f25"},"vehicle_type_id":"4","last_reported":1733926184,"current_range_meters":38800,"station_id":"","pricing_plan_id":"cebpf4jnsgd1na2vs0mg"},{"bike_id":"78446110-5bc9-4782-9951-0004299f66bc","system_id":"levelo_inurba_marseille","lat":43.241497,"lon":5.364197,"is_reserved":false,"is_disabled":false,"rental_uris":{"android":"levelo://app?vid=78446110-5bc9-4782-9951-0004299f66bc","ios":"levelo://app?vid=78446110-5bc9-4782-9951-0004299f66bc"},"vehicle_type_id":"4","last_reported":1733926184,"current_range_meters":32000,"station_id":"cpo36qri1sfpv3e86is0","pricing_plan_id":"cebpf4jnsgd1na2vs0mg"},{"bike_id":"68e9f2e8-7f58-4282-a6a3-bce0647110f9","system_id":"levelo_inurba_marseille","lat":43.2396,"lon":5.3663,"is_reserved":false,"is_disabled":false,"rental_uris":{"android":"levelo://app?vid=68e9f2e8-7f58-4282-a6a3-bce0647110f9","ios":"levelo://app?vid=68e9f2e8-7f58-4282-a6a3-bce0647110f9"},"vehicle_type_id":"4","last_reported":1733926184,"current_range_meters":22400,"station_id":"ce4bhi12rcd13ifvqfp0","pricing_plan_id":"cebpf4jnsgd1na2vs0mg"},{"bike_id":"8ec868c2-d9c6-42aa-9907-dd2a0df6bde8","system_id":"levelo_inurba_marseille","lat":43.30952,"lon":5.39036,"is_reserved":false,"is_disabled":false,"rental_uris":{"android":"levelo://app?vid=8ec868c2-d9c6-42aa-9907-dd2a0df6bde8","ios":"levelo://app?vid=8ec868c2-d9c6-42aa-9907-dd2a0df6bde8"},"vehicle_type_id":"4","last_reported":1733926184,"current_range_meters":38800,"station_id":"ce4bgup2rcd13ifvqco0","pricing_plan_id":"cebpf4jnsgd1na2vs0mg"},{"bike_id":"3c7d8956-07af-4408-ae94-63514d5e362d","system_id":"levelo_inurba_marseille","lat":43.24648,"lon":5.38891,"is_reserved":false,"is_disabled":false,"rental_uris":{"android":"levelo://app?vid=3c7d8956-07af-4408-ae94-63514d5e362d","ios":"levelo://app?vid=3c7d8956-07af-4408-ae94-63514d5e362d"},"vehicle_type_id":"4","last_reported":1733926184,"current_range_meters":38800,"station_id":"ce4bhg12rcd13ifvqf60","pricing_plan_id":"cebpf4jnsgd1na2vs0mg"},{"bike_id":"089f28aa-f5df-4829-81ad-55d7b094e527","system_id":"levelo_inurba_marseille","lat":43.24082,"lon":5.37761,"is_reserved":false,"is_disabled":false,"rental_uris":{"android":"levelo://app?vid=089f28aa-f5df-4829-81ad-55d7b094e527","ios":"levelo://app?vid=089f28aa-f5df-4829-81ad-55d7b094e527"},"vehicle_type_id":"4","last_reported":1733926184,"current_range_meters":37600,"station_id":"ce4bhnp2rcd13ifvqgvg","pricing_plan_id":"cebpf4jnsgd1na2vs0mg"},{"bike_id":"85f12006-9c5e-4595-9d81-849d2efd8ebd","system_id":"levelo_inurba_marseille","lat":43.32658,"lon":5.40991,"is_reserved":false,"is_disabled":false,"rental_uris":{"android":"levelo://app?vid=85f12006-9c5e-4595-9d81-849d2efd8ebd","ios":"levelo://app?vid=85f12006-9c5e-4595-9d81-849d2efd8ebd"},"vehicle_type_id":"4","last_reported":1733926184,"current_range_meters":38000,"station_id":"ce4bhpp2rcd13ifvqhgg","pricing_plan_id":"cebpf4jnsgd1na2vs0mg"},{"bike_id":"24458f39-080f-419e-bcea-bfe1005d81b0","system_id":"levelo_inurba_marseille","lat":43.26554,"lon":5.37287,"is_reserved":false,"is_disabled":false,"rental_uris":{"android":"levelo://app?vid=24458f39-080f-419e-bcea-bfe1005d81b0","ios":"levelo://app?vid=24458f39-080f-419e-bcea-bfe1005d81b0"},"vehicle_type_id":"4","last_reported":1733926184,"current_range_meters":24800,"station_id":"ce4bhg12rcd13ifvqf70","pricing_plan_id":"cebpf4jnsgd1na2vs0mg"},{"bike_id":"94d02e27-426a-4af3-a7d0-6a707ab36bbe","system_id":"levelo_inurba_marseille","lat":43.28708,"lon":5.39988,"is_reserved":false,"is_disabled":false,"rental_uris":{"android":"levelo://app?vid=94d02e27-426a-4af3-a7d0-6a707ab36bbe","ios":"levelo://app?vid=94d02e27-426a-4af3-a7d0-6a707ab36bbe"},"vehicle_type_id":"4","last_reported":1733926184,"current_range_meters":22800,"station_id":"ce4bho92rcd13ifvqh3g","pricing_plan_id":"cebpf4jnsgd1na2vs0mg"},{"bike_id":"36e3167a-8293-418c-b384-6536090e3648","system_id":"levelo_inurba_marseille","lat":43.23957,"lon":5.36633,"is_reserved":false,"is_disabled":false,"rental_uris":{"android":"levelo://app?vid=36e3167a-8293-418c-b384-6536090e3648","ios":"levelo://app?vid=36e3167a-8293-418c-b384-6536090e3648"},"vehicle_type_id":"4","last_reported":1733926184,"current_range_meters":38400,"station_id":"ce4bhi12rcd13ifvqfp0","pricing_plan_id":"cebpf4jnsgd1na2vs0mg"},{"bike_id":"97bbbaf5-9a2e-483d-9312-63f8ea177b90","system_id":"levelo_inurba_marseille","lat":43.30157,"lon":5.37428,"is_reserved":false,"is_disabled":false,"rental_uris":{"android":"levelo://app?vid=97bbbaf5-9a2e-483d-9312-63f8ea177b90","ios":"levelo://app?vid=97bbbaf5-9a2e-483d-9312-63f8ea177b90"},"vehicle_type_id":"4","last_reported":1733926184,"current_range_meters":18000,"station_id":"ce4bgs92rcd13ifvqcc0","pricing_plan_id":"cebpf4jnsgd1na2vs0mg"},{"bike_id":"62dc3d6f-14e9-4572-8025-9eaf9b53e0fb","system_id":"levelo_inurba_marseille","lat":43.286536,"lon":5.370093,"is_reserved":false,"is_disabled":false,"rental_uris":{"android":"levelo://app?vid=62dc3d6f-14e9-4572-8025-9eaf9b53e0fb","ios":"levelo://app?vid=62dc3d6f-14e9-4572-8025-9eaf9b53e0fb"},"vehicle_type_id":"4","last_reported":1733926184,"current_range_meters":39200,"station_id":"ce4bht12rcd13ifvqi60","pricing_plan_id":"cebpf4jnsgd1na2vs0mg"},{"bike_id":"9de685e0-ba91-4e9f-9fcf-9f463cc6c282","system_id":"levelo_inurba_marseille","lat":43.30909,"lon":5.37155,"is_reserved":false,"is_disabled":false,"rental_uris":{"android":"levelo://app?vid=9de685e0-ba91-4e9f-9fcf-9f463cc6c282","ios":"levelo://app?vid=9de685e0-ba91-4e9f-9fcf-9f463cc6c282"},"vehicle_type_id":"4","last_reported":1733926184,"current_range_meters":4400,"station_id":"ce4bguh2rcd13ifvqckg","pricing_plan_id":"cebpf4jnsgd1na2vs0mg"},{"bike_id":"ab1c6a12-19ac-4afb-af5f-776c48efacd2","system_id":"levelo_inurba_marseille","lat":43.23189,"lon":5.35557,"is_reserved":false,"is_disabled":false,"rental_uris":{"android":"levelo://app?vid=ab1c6a12-19ac-4afb-af5f-776c48efacd2","ios":"levelo://app?vid=ab1c6a12-19ac-4afb-af5f-776c48efacd2"},"vehicle_type_id":"4","last_reported":1733926184,"current_range_meters":20000,"station_id":"ce4bhu92rcd13ifvqi70","pricing_plan_id":"cebpf4jnsgd1na2vs0mg"},{"bike_id":"2f827028-5d3f-4047-a1dd-6ad1d2f3b3a6","system_id":"levelo_inurba_marseille","lat":43.28933,"lon":5.36632,"is_reserved":false,"is_disabled":false,"rental_uris":{"android":"levelo://app?vid=2f827028-5d3f-4047-a1dd-6ad1d2f3b3a6","ios":"levelo://app?vid=2f827028-5d3f-4047-a1dd-6ad1d2f3b3a6"},"vehicle_type_id":"4","last_reported":1733926184,"current_range_meters":35200,"station_id":"ce4bhap2rcd13ifvqek0","pricing_plan_id":"cebpf4jnsgd1na2vs0mg"},{"bike_id":"bfeaa8f2-1b87-4fae-9867-4c752a3577ac","system_id":"levelo_inurba_marseille","lat":43.27308,"lon":5.39073,"is_reserved":false,"is_disabled":true,"rental_uris":{"android":"levelo://app?vid=bfeaa8f2-1b87-4fae-9867-4c752a3577ac","ios":"levelo://app?vid=bfeaa8f2-1b87-4fae-9867-4c752a3577ac"},"vehicle_type_id":"4","last_reported":1733926184,"current_range_meters":800,"station_id":"ce4bhgp2rcd13ifvqfe0","pricing_plan_id":"cebpf4jnsgd1na2vs0mg"},{"bike_id":"034afd89-7884-46aa-947a-c5f301e52728","system_id":"levelo_inurba_marseille","lat":43.30874,"lon":5.39645,"is_reserved":false,"is_disabled":true,"rental_uris":{"android":"levelo://app?vid=034afd89-7884-46aa-947a-c5f301e52728","ios":"levelo://app?vid=034afd89-7884-46aa-947a-c5f301e52728"},"vehicle_type_id":"4","last_reported":1733926184,"current_range_meters":24000,"station_id":"ce4bh012rcd13ifvqcv0","pricing_plan_id":"cebpf4jnsgd1na2vs0mg"},{"bike_id":"8a2a88c2-141e-4ddf-8ddd-f8286e039c11","system_id":"levelo_inurba_marseille","lat":43.25478,"lon":5.37688,"is_reserved":false,"is_disabled":false,"rental_uris":{"android":"levelo://app?vid=8a2a88c2-141e-4ddf-8ddd-f8286e039c11","ios":"levelo://app?vid=8a2a88c2-141e-4ddf-8ddd-f8286e039c11"},"vehicle_type_id":"4","last_reported":1733926184,"current_range_meters":38400,"station_id":"ce4bhh12rcd13ifvqff0","pricing_plan_id":"cebpf4jnsgd1na2vs0mg"},{"bike_id":"81b6c4a9-91e3-4880-b813-0f09b303e51c","system_id":"levelo_inurba_marseille","lat":43.284063,"lon":5.37514,"is_reserved":false,"is_disabled":false,"rental_uris":{"android":"levelo://app?vid=81b6c4a9-91e3-4880-b813-0f09b303e51c","ios":"levelo://app?vid=81b6c4a9-91e3-4880-b813-0f09b303e51c"},"vehicle_type_id":"4","last_reported":1733926184,"current_range_meters":11200,"station_id":"ce4bh412rcd13ifvqds0","pricing_plan_id":"cebpf4jnsgd1na2vs0mg"},{"bike_id":"235a27c5-32a3-4841-a68d-f35363ff4e8b","system_id":"levelo_inurba_marseille","lat":43.26543,"lon":5.37304,"is_reserved":false,"is_disabled":false,"rental_uris":{"android":"levelo://app?vid=235a27c5-32a3-4841-a68d-f35363ff4e8b","ios":"levelo://app?vid=235a27c5-32a3-4841-a68d-f35363ff4e8b"},"vehicle_type_id":"4","last_reported":1733926184,"current_range_meters":28000,"station_id":"ce4bhg12rcd13ifvqf70","pricing_plan_id":"cebpf4jnsgd1na2vs0mg"},{"bike_id":"fda630f2-b49c-4edb-82f5-a87f4ff6bfb5","system_id":"levelo_inurba_marseille","lat":43.24669,"lon":5.38167,"is_reserved":false,"is_disabled":false,"rental_uris":{"android":"levelo://app?vid=fda630f2-b49c-4edb-82f5-a87f4ff6bfb5","ios":"levelo://app?vid=fda630f2-b49c-4edb-82f5-a87f4ff6bfb5"},"vehicle_type_id":"4","last_reported":1733926184,"current_range_meters":38800,"station_id":"ce4bhih2rcd13ifvqfr0","pricing_plan_id":"cebpf4jnsgd1na2vs0mg"},{"bike_id":"a50c814f-db67-44ee-8e17-3276e8cc4f09","system_id":"levelo_inurba_marseille","lat":43.34147,"lon":5.40909,"is_reserved":false,"is_disabled":false,"rental_uris":{"android":"levelo://app?vid=a50c814f-db67-44ee-8e17-3276e8cc4f09","ios":"levelo://app?vid=a50c814f-db67-44ee-8e17-3276e8cc4f09"},"vehicle_type_id":"4","last_reported":1733926184,"current_range_meters":25200,"station_id":"ce4bhqh2rcd13ifvqhlg","pricing_plan_id":"cebpf4jnsgd1na2vs0mg"},{"bike_id":"285b8f17-d68e-4b4d-ad40-bd0e09d7c577","system_id":"levelo_inurba_marseille","lat":43.24675,"lon":5.38852,"is_reserved":false,"is_disabled":false,"rental_uris":{"android":"levelo://app?vid=285b8f17-d68e-4b4d-ad40-bd0e09d7c577","ios":"levelo://app?vid=285b8f17-d68e-4b4d-ad40-bd0e09d7c577"},"vehicle_type_id":"4","last_reported":1733926184,"current_range_meters":20400,"station_id":"ce4bhg12rcd13ifvqf60","pricing_plan_id":"cebpf4jnsgd1na2vs0mg"},{"bike_id":"a6ff5efe-d8eb-49fc-b94c-dd923c55a52e","system_id":"levelo_inurba_marseille","lat":43.29784,"lon":5.39341,"is_reserved":false,"is_disabled":false,"rental_uris":{"android":"levelo://app?vid=a6ff5efe-d8eb-49fc-b94c-dd923c55a52e","ios":"levelo://app?vid=a6ff5efe-d8eb-49fc-b94c-dd923c55a52e"},"vehicle_type_id":"4","last_reported":1733926184,"current_range_meters":36800,"station_id":"chh1huq6cuj3fo74tm60","pricing_plan_id":"cebpf4jnsgd1na2vs0mg"},{"bike_id":"3da93476-9d75-48f5-809e-7aed5a43e98a","system_id":"levelo_inurba_marseille","lat":43.25901,"lon":5.40911,"is_reserved":false,"is_disabled":false,"rental_uris":{"android":"levelo://app?vid=3da93476-9d75-48f5-809e-7aed5a43e98a","ios":"levelo://app?vid=3da93476-9d75-48f5-809e-7aed5a43e98a"},"vehicle_type_id":"4","last_reported":1733926184,"current_range_meters":26800,"station_id":"ce4bhm92rcd13ifvqglg","pricing_plan_id":"cebpf4jnsgd1na2vs0mg"},{"bike_id":"eb3701d5-0c2b-4e17-b89f-3436e512ea59","system_id":"levelo_inurba_marseille","lat":43.24169,"lon":5.3975,"is_reserved":false,"is_disabled":false,"rental_uris":{"android":"levelo://app?vid=eb3701d5-0c2b-4e17-b89f-3436e512ea59","ios":"levelo://app?vid=eb3701d5-0c2b-4e17-b89f-3436e512ea59"},"vehicle_type_id":"4","last_reported":1733926184,"current_range_meters":24000,"station_id":"ce4bhn12rcd13ifvqgpg","pricing_plan_id":"cebpf4jnsgd1na2vs0mg"},{"bike_id":"881524d6-1030-4172-9fdc-ca6a0fc65d03","system_id":"levelo_inurba_marseille","lat":43.2593,"lon":5.40917,"is_reserved":false,"is_disabled":false,"rental_uris":{"android":"levelo://app?vid=881524d6-1030-4172-9fdc-ca6a0fc65d03","ios":"levelo://app?vid=881524d6-1030-4172-9fdc-ca6a0fc65d03"},"vehicle_type_id":"4","last_reported":1733926184,"current_range_meters":24800,"station_id":"ce4bhm92rcd13ifvqglg","pricing_plan_id":"cebpf4jnsgd1na2vs0mg"},{"bike_id":"75b81e26-cdc9-41cd-9644-bd0f8a17c137","system_id":"levelo_inurba_marseille","lat":43.30141,"lon":5.37421,"is_reserved":false,"is_disabled":false,"rental_uris":{"android":"levelo://app?vid=75b81e26-cdc9-41cd-9644-bd0f8a17c137","ios":"levelo://app?vid=75b81e26-cdc9-41cd-9644-bd0f8a17c137"},"vehicle_type_id":"4","last_reported":1733926184,"current_range_meters":28800,"station_id":"ce4bgs92rcd13ifvqcc0","pricing_plan_id":"cebpf4jnsgd1na2vs0mg"},{"bike_id":"44d51fde-212f-4eb7-b1c0-456cea9c506c","system_id":"levelo_inurba_marseille","lat":43.26205,"lon":5.37445,"is_reserved":false,"is_disabled":false,"rental_uris":{"android":"levelo://app?vid=44d51fde-212f-4eb7-b1c0-456cea9c506c","ios":"levelo://app?vid=44d51fde-212f-4eb7-b1c0-456cea9c506c"},"vehicle_type_id":"4","last_reported":1733926184,"current_range_meters":37600,"station_id":"ce4bhgp2rcd13ifvqfc0","pricing_plan_id":"cebpf4jnsgd1na2vs0mg"},{"bike_id":"ee0186ce-5ee6-443a-aa7c-853a1e294ff2","system_id":"levelo_inurba_marseille","lat":43.29596,"lon":5.37716,"is_reserved":false,"is_disabled":true,"rental_uris":{"android":"levelo://app?vid=ee0186ce-5ee6-443a-aa7c-853a1e294ff2","ios":"levelo://app?vid=ee0186ce-5ee6-443a-aa7c-853a1e294ff2"},"vehicle_type_id":"4","last_reported":1733926184,"current_range_meters":24000,"station_id":"ce4bgi92rcd13ifvqb90","pricing_plan_id":"cebpf4jnsgd1na2vs0mg"},{"bike_id":"63a95d1b-8259-4572-b537-2eb5387788e4","system_id":"levelo_inurba_marseille","lat":43.30556,"lon":5.36535,"is_reserved":false,"is_disabled":false,"rental_uris":{"android":"levelo://app?vid=63a95d1b-8259-4572-b537-2eb5387788e4","ios":"levelo://app?vid=63a95d1b-8259-4572-b537-2eb5387788e4"},"vehicle_type_id":"4","last_reported":1733926184,"current_range_meters":38400,"station_id":"ce4bgs12rcd13ifvqcag","pricing_plan_id":"cebpf4jnsgd1na2vs0mg"},{"bike_id":"d05cd6e1-9059-4514-aa69-901bf51c6e72","system_id":"levelo_inurba_marseille","lat":43.28335,"lon":5.38113,"is_reserved":false,"is_disabled":false,"rental_uris":{"android":"levelo://app?vid=d05cd6e1-9059-4514-aa69-901bf51c6e72","ios":"levelo://app?vid=d05cd6e1-9059-4514-aa69-901bf51c6e72"},"vehicle_type_id":"4","last_reported":1733926184,"current_range_meters":38800,"station_id":"ce4bh412rcd13ifvqdr0","pricing_plan_id":"cebpf4jnsgd1na2vs0mg"},{"bike_id":"922b1f7a-1f93-498e-90f4-e7a54d8a9ec1","system_id":"levelo_inurba_marseille","lat":43.23061,"lon":5.3549,"is_reserved":false,"is_disabled":false,"rental_uris":{"android":"levelo://app?vid=922b1f7a-1f93-498e-90f4-e7a54d8a9ec1","ios":"levelo://app?vid=922b1f7a-1f93-498e-90f4-e7a54d8a9ec1"},"vehicle_type_id":"4","last_reported":1733926184,"current_range_meters":30800,"station_id":"cpo3342slgdg3j2ifvpg","pricing_plan_id":"cebpf4jnsgd1na2vs0mg"},{"bike_id":"6c3daed3-956a-4f39-8398-6bfefdf309bd","system_id":"levelo_inurba_marseille","lat":43.3027,"lon":5.37718,"is_reserved":false,"is_disabled":false,"rental_uris":{"android":"levelo://app?vid=6c3daed3-956a-4f39-8398-6bfefdf309bd","ios":"levelo://app?vid=6c3daed3-956a-4f39-8398-6bfefdf309bd"},"vehicle_type_id":"4","last_reported":1733926184,"current_range_meters":9200,"station_id":"ce4bguh2rcd13ifvqcj0","pricing_plan_id":"cebpf4jnsgd1na2vs0mg"},{"bike_id":"d8f87c40-31af-42e8-a733-67c5f9d41d59","system_id":"levelo_inurba_marseille","lat":43.29553,"lon":5.37491,"is_reserved":false,"is_disabled":false,"rental_uris":{"android":"levelo://app?vid=d8f87c40-31af-42e8-a733-67c5f9d41d59","ios":"levelo://app?vid=d8f87c40-31af-42e8-a733-67c5f9d41d59"},"vehicle_type_id":"4","last_reported":1733926184,"current_range_meters":35600,"station_id":"ce4bgkp2rcd13ifvqbmg","pricing_plan_id":"cebpf4jnsgd1na2vs0mg"},{"bike_id":"4f515456-ddcc-4d0c-8899-e0b1ea8475c1","system_id":"levelo_inurba_marseille","lat":43.28063,"lon":5.39641,"is_reserved":false,"is_disabled":false,"rental_uris":{"android":"levelo://app?vid=4f515456-ddcc-4d0c-8899-e0b1ea8475c1","ios":"levelo://app?vid=4f515456-ddcc-4d0c-8899-e0b1ea8475c1"},"vehicle_type_id":"4","last_reported":1733926184,"current_range_meters":38400,"station_id":"ce4bho12rcd13ifvqh2g","pricing_plan_id":"cebpf4jnsgd1na2vs0mg"},{"bike_id":"ddaf425f-0b35-49c2-a4a7-24dfe0c7d446","system_id":"levelo_inurba_marseille","lat":43.23159,"lon":5.43723,"is_reserved":false,"is_disabled":true,"rental_uris":{"android":"levelo://app?vid=ddaf425f-0b35-49c2-a4a7-24dfe0c7d446","ios":"levelo://app?vid=ddaf425f-0b35-49c2-a4a7-24dfe0c7d446"},"vehicle_type_id":"4","last_reported":1733926184,"current_range_meters":0,"station_id":"ce4bhmp2rcd13ifvqgog","pricing_plan_id":"cebpf4jnsgd1na2vs0mg"},{"bike_id":"ff4b8db3-5e4b-4c03-b1ad-aafa3601a9d2","system_id":"levelo_inurba_marseille","lat":43.25816,"lon":5.3943,"is_reserved":false,"is_disabled":false,"rental_uris":{"android":"levelo://app?vid=ff4b8db3-5e4b-4c03-b1ad-aafa3601a9d2","ios":"levelo://app?vid=ff4b8db3-5e4b-4c03-b1ad-aafa3601a9d2"},"vehicle_type_id":"4","last_reported":1733926184,"current_range_meters":32800,"station_id":"ce4bhip2rcd13ifvqft0","pricing_plan_id":"cebpf4jnsgd1na2vs0mg"},{"bike_id":"76a900bb-7dc9-4429-932c-6a92dbc95a5c","system_id":"levelo_inurba_marseille","lat":43.29559,"lon":5.42268,"is_reserved":false,"is_disabled":false,"rental_uris":{"android":"levelo://app?vid=76a900bb-7dc9-4429-932c-6a92dbc95a5c","ios":"levelo://app?vid=76a900bb-7dc9-4429-932c-6a92dbc95a5c"},"vehicle_type_id":"4","last_reported":1733926184,"current_range_meters":37600,"station_id":"ce4bhph2rcd13ifvqhdg","pricing_plan_id":"cebpf4jnsgd1na2vs0mg"},{"bike_id":"1c8a7a3b-20eb-480b-b246-0084b61e8baa","system_id":"levelo_inurba_marseille","lat":43.26212,"lon":5.39701,"is_reserved":false,"is_disabled":false,"rental_uris":{"android":"levelo://app?vid=1c8a7a3b-20eb-480b-b246-0084b61e8baa","ios":"levelo://app?vid=1c8a7a3b-20eb-480b-b246-0084b61e8baa"},"vehicle_type_id":"4","last_reported":1733926184,"current_range_meters":14800,"station_id":"ce4bhm12rcd13ifvqgkg","pricing_plan_id":"cebpf4jnsgd1na2vs0mg"},{"bike_id":"7f78d3b9-e667-4961-b65a-d10def7fe2a0","system_id":"levelo_inurba_marseille","lat":43.29537,"lon":5.3855,"is_reserved":false,"is_disabled":false,"rental_uris":{"android":"levelo://app?vid=7f78d3b9-e667-4961-b65a-d10def7fe2a0","ios":"levelo://app?vid=7f78d3b9-e667-4961-b65a-d10def7fe2a0"},"vehicle_type_id":"4","last_reported":1733926184,"current_range_meters":2800,"station_id":"ce4bgih2rcd13ifvqba0","pricing_plan_id":"cebpf4jnsgd1na2vs0mg"},{"bike_id":"16492b5b-37d8-452f-8923-009b71c8397d","system_id":"levelo_inurba_marseille","lat":43.25578,"lon":5.38239,"is_reserved":false,"is_disabled":false,"rental_uris":{"android":"levelo://app?vid=16492b5b-37d8-452f-8923-009b71c8397d","ios":"levelo://app?vid=16492b5b-37d8-452f-8923-009b71c8397d"},"vehicle_type_id":"4","last_reported":1733926184,"current_range_meters":30400,"station_id":"ce4bhih2rcd13ifvqfs0","pricing_plan_id":"cebpf4jnsgd1na2vs0mg"},{"bike_id":"11df489c-50c5-425a-83f7-eabdec0ad821","system_id":"levelo_inurba_marseille","lat":43.27499,"lon":5.42458,"is_reserved":false,"is_disabled":true,"rental_uris":{"android":"levelo://app?vid=11df489c-50c5-425a-83f7-eabdec0ad821","ios":"levelo://app?vid=11df489c-50c5-425a-83f7-eabdec0ad821"},"vehicle_type_id":"4","last_reported":1733926184,"current_range_meters":0,"station_id":"ce4bhn92rcd13ifvqgrg","pricing_plan_id":"cebpf4jnsgd1na2vs0mg"},{"bike_id":"4d9975b2-8caf-4dfe-9202-9f11fbd0b727","system_id":"levelo_inurba_marseille","lat":43.29522,"lon":5.37501,"is_reserved":false,"is_disabled":true,"rental_uris":{"android":"levelo://app?vid=4d9975b2-8caf-4dfe-9202-9f11fbd0b727","ios":"levelo://app?vid=4d9975b2-8caf-4dfe-9202-9f11fbd0b727"},"vehicle_type_id":"4","last_reported":1733926184,"current_range_meters":22000,"station_id":"ce4bgkp2rcd13ifvqbmg","pricing_plan_id":"cebpf4jnsgd1na2vs0mg"},{"bike_id":"a5589391-a7e4-412b-9a87-f917b2322580","system_id":"levelo_inurba_marseille","lat":43.23066,"lon":5.35491,"is_reserved":false,"is_disabled":false,"rental_uris":{"android":"levelo://app?vid=a5589391-a7e4-412b-9a87-f917b2322580","ios":"levelo://app?vid=a5589391-a7e4-412b-9a87-f917b2322580"},"vehicle_type_id":"4","last_reported":1733926184,"current_range_meters":20800,"station_id":"cpo3342slgdg3j2ifvpg","pricing_plan_id":"cebpf4jnsgd1na2vs0mg"},{"bike_id":"6cc0d4fa-1597-4908-97bd-4249a4f0d6ef","system_id":"levelo_inurba_marseille","lat":43.29265,"lon":5.40155,"is_reserved":false,"is_disabled":true,"rental_uris":{"android":"levelo://app?vid=6cc0d4fa-1597-4908-97bd-4249a4f0d6ef","ios":"levelo://app?vid=6cc0d4fa-1597-4908-97bd-4249a4f0d6ef"},"vehicle_type_id":"4","last_reported":1733926184,"current_range_meters":0,"station_id":"ce4bh312rcd13ifvqdk0","pricing_plan_id":"cebpf4jnsgd1na2vs0mg"},{"bike_id":"3ce63487-f42b-418a-9b3f-bc2742aa1aea","system_id":"levelo_inurba_marseille","lat":43.257294,"lon":5.411094,"is_reserved":false,"is_disabled":false,"rental_uris":{"android":"levelo://app?vid=3ce63487-f42b-418a-9b3f-bc2742aa1aea","ios":"levelo://app?vid=3ce63487-f42b-418a-9b3f-bc2742aa1aea"},"vehicle_type_id":"4","last_reported":1733926184,"current_range_meters":28800,"station_id":"ce4bhkp2rcd13ifvqgd0","pricing_plan_id":"cebpf4jnsgd1na2vs0mg"},{"bike_id":"fa15d8a2-28b7-498f-924f-f222c63b613c","system_id":"levelo_inurba_marseille","lat":43.286182,"lon":5.35107,"is_reserved":false,"is_disabled":true,"rental_uris":{"android":"levelo://app?vid=fa15d8a2-28b7-498f-924f-f222c63b613c","ios":"levelo://app?vid=fa15d8a2-28b7-498f-924f-f222c63b613c"},"vehicle_type_id":"4","last_reported":1733926184,"current_range_meters":0,"station_id":"ce4bhch2rcd13ifvqeug","pricing_plan_id":"cebpf4jnsgd1na2vs0mg"},{"bike_id":"948c160f-a22d-4fb8-8409-29fd7eb6f178","system_id":"levelo_inurba_marseille","lat":43.28466,"lon":5.3589,"is_reserved":false,"is_disabled":false,"rental_uris":{"android":"levelo://app?vid=948c160f-a22d-4fb8-8409-29fd7eb6f178","ios":"levelo://app?vid=948c160f-a22d-4fb8-8409-29fd7eb6f178"},"vehicle_type_id":"4","last_reported":1733926184,"current_range_meters":11200,"station_id":"ce4bhah2rcd13ifvqei0","pricing_plan_id":"cebpf4jnsgd1na2vs0mg"},{"bike_id":"f0c464ce-39f8-467b-b4d1-563eae914556","system_id":"levelo_inurba_marseille","lat":43.27612,"lon":5.36118,"is_reserved":false,"is_disabled":false,"rental_uris":{"android":"levelo://app?vid=f0c464ce-39f8-467b-b4d1-563eae914556","ios":"levelo://app?vid=f0c464ce-39f8-467b-b4d1-563eae914556"},"vehicle_type_id":"4","last_reported":1733926184,"current_range_meters":18800,"station_id":"ce4bgj92rcd13ifvqbe0","pricing_plan_id":"cebpf4jnsgd1na2vs0mg"},{"bike_id":"872290f2-fce4-4df8-9f05-b188d70223da","system_id":"levelo_inurba_marseille","lat":43.2803,"lon":5.36945,"is_reserved":false,"is_disabled":false,"rental_uris":{"android":"levelo://app?vid=872290f2-fce4-4df8-9f05-b188d70223da","ios":"levelo://app?vid=872290f2-fce4-4df8-9f05-b188d70223da"},"vehicle_type_id":"4","last_reported":1733926184,"current_range_meters":33600,"station_id":"ce4bha12rcd13ifvqef0","pricing_plan_id":"cebpf4jnsgd1na2vs0mg"},{"bike_id":"7ef9847d-f3b6-456d-87c0-f83e38ef6c83","system_id":"levelo_inurba_marseille","lat":43.298,"lon":5.3935,"is_reserved":false,"is_disabled":false,"rental_uris":{"android":"levelo://app?vid=7ef9847d-f3b6-456d-87c0-f83e38ef6c83","ios":"levelo://app?vid=7ef9847d-f3b6-456d-87c0-f83e38ef6c83"},"vehicle_type_id":"4","last_reported":1733926184,"current_range_meters":36000,"station_id":"chh1huq6cuj3fo74tm60","pricing_plan_id":"cebpf4jnsgd1na2vs0mg"},{"bike_id":"c817a008-82e7-4827-b128-ad4b94c4a148","system_id":"levelo_inurba_marseille","lat":43.2396,"lon":5.36638,"is_reserved":false,"is_disabled":false,"rental_uris":{"android":"levelo://app?vid=c817a008-82e7-4827-b128-ad4b94c4a148","ios":"levelo://app?vid=c817a008-82e7-4827-b128-ad4b94c4a148"},"vehicle_type_id":"4","last_reported":1733926184,"current_range_meters":23200,"station_id":"ce4bhi12rcd13ifvqfp0","pricing_plan_id":"cebpf4jnsgd1na2vs0mg"},{"bike_id":"5fee01e0-a9ce-45a3-a2bf-0cdd473fe63e","system_id":"levelo_inurba_marseille","lat":43.3108,"lon":5.42433,"is_reserved":false,"is_disabled":false,"rental_uris":{"android":"levelo://app?vid=5fee01e0-a9ce-45a3-a2bf-0cdd473fe63e","ios":"levelo://app?vid=5fee01e0-a9ce-45a3-a2bf-0cdd473fe63e"},"vehicle_type_id":"4","last_reported":1733926184,"current_range_meters":15200,"station_id":"ce4bhp92rcd13ifvqhag","pricing_plan_id":"cebpf4jnsgd1na2vs0mg"},{"bike_id":"ca3bf6a0-806c-4046-b219-bbea4c2ba646","system_id":"levelo_inurba_marseille","lat":43.23195,"lon":5.35548,"is_reserved":false,"is_disabled":false,"rental_uris":{"android":"levelo://app?vid=ca3bf6a0-806c-4046-b219-bbea4c2ba646","ios":"levelo://app?vid=ca3bf6a0-806c-4046-b219-bbea4c2ba646"},"vehicle_type_id":"4","last_reported":1733926184,"current_range_meters":24400,"station_id":"ce4bhu92rcd13ifvqi70","pricing_plan_id":"cebpf4jnsgd1na2vs0mg"},{"bike_id":"e26cabe1-b06d-463e-aab8-18f9f075ea99","system_id":"levelo_inurba_marseille","lat":43.30634,"lon":5.40074,"is_reserved":false,"is_disabled":false,"rental_uris":{"android":"levelo://app?vid=e26cabe1-b06d-463e-aab8-18f9f075ea99","ios":"levelo://app?vid=e26cabe1-b06d-463e-aab8-18f9f075ea99"},"vehicle_type_id":"4","last_reported":1733926184,"current_range_meters":36800,"station_id":"ce4bh112rcd13ifvqda0","pricing_plan_id":"cebpf4jnsgd1na2vs0mg"},{"bike_id":"46b2fdec-0870-4ae2-84dc-b1f57512351e","system_id":"levelo_inurba_marseille","lat":43.337444,"lon":5.374475,"is_reserved":false,"is_disabled":true,"rental_uris":{"android":"levelo://app?vid=46b2fdec-0870-4ae2-84dc-b1f57512351e","ios":"levelo://app?vid=46b2fdec-0870-4ae2-84dc-b1f57512351e"},"vehicle_type_id":"4","last_reported":1733926184,"current_range_meters":0,"station_id":"","pricing_plan_id":"cebpf4jnsgd1na2vs0mg"},{"bike_id":"fbc71618-f8a7-49e0-b90f-194ba1dacbf5","system_id":"levelo_inurba_marseille","lat":43.27806,"lon":5.40716,"is_reserved":false,"is_disabled":false,"rental_uris":{"android":"levelo://app?vid=fbc71618-f8a7-49e0-b90f-194ba1dacbf5","ios":"levelo://app?vid=fbc71618-f8a7-49e0-b90f-194ba1dacbf5"},"vehicle_type_id":"4","last_reported":1733926184,"current_range_meters":38800,"station_id":"ce4bhnh2rcd13ifvqgtg","pricing_plan_id":"cebpf4jnsgd1na2vs0mg"},{"bike_id":"337797a7-1537-4b43-9691-41e98958283d","system_id":"levelo_inurba_marseille","lat":43.30565,"lon":5.36519,"is_reserved":false,"is_disabled":false,"rental_uris":{"android":"levelo://app?vid=337797a7-1537-4b43-9691-41e98958283d","ios":"levelo://app?vid=337797a7-1537-4b43-9691-41e98958283d"},"vehicle_type_id":"4","last_reported":1733926184,"current_range_meters":35200,"station_id":"ce4bgs12rcd13ifvqcag","pricing_plan_id":"cebpf4jnsgd1na2vs0mg"},{"bike_id":"fa35d2a3-74a0-4945-9b04-061824848898","system_id":"levelo_inurba_marseille","lat":43.31366,"lon":5.36719,"is_reserved":false,"is_disabled":false,"rental_uris":{"android":"levelo://app?vid=fa35d2a3-74a0-4945-9b04-061824848898","ios":"levelo://app?vid=fa35d2a3-74a0-4945-9b04-061824848898"},"vehicle_type_id":"4","last_reported":1733926184,"current_range_meters":17600,"station_id":"ce4bgr92rcd13ifvqc6g","pricing_plan_id":"cebpf4jnsgd1na2vs0mg"},{"bike_id":"8b93c002-91eb-48ca-a3ec-47514fa292b3","system_id":"levelo_inurba_marseille","lat":43.30192,"lon":5.39455,"is_reserved":false,"is_disabled":true,"rental_uris":{"android":"levelo://app?vid=8b93c002-91eb-48ca-a3ec-47514fa292b3","ios":"levelo://app?vid=8b93c002-91eb-48ca-a3ec-47514fa292b3"},"vehicle_type_id":"4","last_reported":1733926184,"current_range_meters":0,"station_id":"ce4bh0p2rcd13ifvqd70","pricing_plan_id":"cebpf4jnsgd1na2vs0mg"},{"bike_id":"a75d3fb5-03a9-40bd-a1a8-05e40514d572","system_id":"levelo_inurba_marseille","lat":43.27198,"lon":5.40976,"is_reserved":false,"is_disabled":false,"rental_uris":{"android":"levelo://app?vid=a75d3fb5-03a9-40bd-a1a8-05e40514d572","ios":"levelo://app?vid=a75d3fb5-03a9-40bd-a1a8-05e40514d572"},"vehicle_type_id":"4","last_reported":1733926184,"current_range_meters":36800,"station_id":"ce4bhl12rcd13ifvqgf0","pricing_plan_id":"cebpf4jnsgd1na2vs0mg"},{"bike_id":"1e8fe257-e2eb-41d7-88a1-7895d02e6cad","system_id":"levelo_inurba_marseille","lat":43.27378,"lon":5.36256,"is_reserved":false,"is_disabled":false,"rental_uris":{"android":"levelo://app?vid=1e8fe257-e2eb-41d7-88a1-7895d02e6cad","ios":"levelo://app?vid=1e8fe257-e2eb-41d7-88a1-7895d02e6cad"},"vehicle_type_id":"4","last_reported":1733926184,"current_range_meters":33200,"station_id":"ce4bhbh2rcd13ifvqeo0","pricing_plan_id":"cebpf4jnsgd1na2vs0mg"},{"bike_id":"2ebd2fc6-13ac-4b60-8a2e-07cab16d51cc","system_id":"levelo_inurba_marseille","lat":43.24645,"lon":5.38891,"is_reserved":false,"is_disabled":false,"rental_uris":{"android":"levelo://app?vid=2ebd2fc6-13ac-4b60-8a2e-07cab16d51cc","ios":"levelo://app?vid=2ebd2fc6-13ac-4b60-8a2e-07cab16d51cc"},"vehicle_type_id":"4","last_reported":1733926184,"current_range_meters":23200,"station_id":"ce4bhg12rcd13ifvqf60","pricing_plan_id":"cebpf4jnsgd1na2vs0mg"},{"bike_id":"55721269-6850-4ddc-a6e4-24d5b3426ec9","system_id":"levelo_inurba_marseille","lat":43.2972,"lon":5.37714,"is_reserved":false,"is_disabled":false,"rental_uris":{"android":"levelo://app?vid=55721269-6850-4ddc-a6e4-24d5b3426ec9","ios":"levelo://app?vid=55721269-6850-4ddc-a6e4-24d5b3426ec9"},"vehicle_type_id":"4","last_reported":1733926184,"current_range_meters":38800,"station_id":"ce4bgkh2rcd13ifvqbl0","pricing_plan_id":"cebpf4jnsgd1na2vs0mg"},{"bike_id":"fde47c74-48b7-42f3-bbc4-822a8ba605d1","system_id":"levelo_inurba_marseille","lat":43.29965,"lon":5.37243,"is_reserved":false,"is_disabled":false,"rental_uris":{"android":"levelo://app?vid=fde47c74-48b7-42f3-bbc4-822a8ba605d1","ios":"levelo://app?vid=fde47c74-48b7-42f3-bbc4-822a8ba605d1"},"vehicle_type_id":"4","last_reported":1733926184,"current_range_meters":3600,"station_id":"ce4bgr92rcd13ifvqc7g","pricing_plan_id":"cebpf4jnsgd1na2vs0mg"},{"bike_id":"cfeef1d2-86d9-4c1b-8076-adb2f0d09c18","system_id":"levelo_inurba_marseille","lat":43.2947,"lon":5.37699,"is_reserved":false,"is_disabled":true,"rental_uris":{"android":"levelo://app?vid=cfeef1d2-86d9-4c1b-8076-adb2f0d09c18","ios":"levelo://app?vid=cfeef1d2-86d9-4c1b-8076-adb2f0d09c18"},"vehicle_type_id":"4","last_reported":1733926184,"current_range_meters":0,"station_id":"","pricing_plan_id":"cebpf4jnsgd1na2vs0mg"},{"bike_id":"6d05f7ba-808a-4403-b1f3-f8483fec843c","system_id":"levelo_inurba_marseille","lat":43.23183,"lon":5.35563,"is_reserved":false,"is_disabled":false,"rental_uris":{"android":"levelo://app?vid=6d05f7ba-808a-4403-b1f3-f8483fec843c","ios":"levelo://app?vid=6d05f7ba-808a-4403-b1f3-f8483fec843c"},"vehicle_type_id":"4","last_reported":1733926184,"current_range_meters":36800,"station_id":"ce4bhu92rcd13ifvqi70","pricing_plan_id":"cebpf4jnsgd1na2vs0mg"},{"bike_id":"d8138bec-6809-4742-8fb5-ef5f3dade222","system_id":"levelo_inurba_marseille","lat":43.30148,"lon":5.37407,"is_reserved":false,"is_disabled":false,"rental_uris":{"android":"levelo://app?vid=d8138bec-6809-4742-8fb5-ef5f3dade222","ios":"levelo://app?vid=d8138bec-6809-4742-8fb5-ef5f3dade222"},"vehicle_type_id":"4","last_reported":1733926184,"current_range_meters":8800,"station_id":"ce4bgs92rcd13ifvqcc0","pricing_plan_id":"cebpf4jnsgd1na2vs0mg"},{"bike_id":"96e66a6a-1e3c-4b1f-a1df-4459527d9d5f","system_id":"levelo_inurba_marseille","lat":43.25722,"lon":5.41111,"is_reserved":false,"is_disabled":false,"rental_uris":{"android":"levelo://app?vid=96e66a6a-1e3c-4b1f-a1df-4459527d9d5f","ios":"levelo://app?vid=96e66a6a-1e3c-4b1f-a1df-4459527d9d5f"},"vehicle_type_id":"4","last_reported":1733926184,"current_range_meters":28000,"station_id":"ce4bhkp2rcd13ifvqgd0","pricing_plan_id":"cebpf4jnsgd1na2vs0mg"},{"bike_id":"5137b643-f444-4318-a66b-2b2970621c82","system_id":"levelo_inurba_marseille","lat":43.30153,"lon":5.38095,"is_reserved":false,"is_disabled":false,"rental_uris":{"android":"levelo://app?vid=5137b643-f444-4318-a66b-2b2970621c82","ios":"levelo://app?vid=5137b643-f444-4318-a66b-2b2970621c82"},"vehicle_type_id":"4","last_reported":1733926184,"current_range_meters":18800,"station_id":"ce4bgjp2rcd13ifvqbh0","pricing_plan_id":"cebpf4jnsgd1na2vs0mg"},{"bike_id":"d71b38ac-dbdb-4c24-b925-3c039303eff8","system_id":"levelo_inurba_marseille","lat":43.27179,"lon":5.41001,"is_reserved":false,"is_disabled":false,"rental_uris":{"android":"levelo://app?vid=d71b38ac-dbdb-4c24-b925-3c039303eff8","ios":"levelo://app?vid=d71b38ac-dbdb-4c24-b925-3c039303eff8"},"vehicle_type_id":"4","last_reported":1733926184,"current_range_meters":14400,"station_id":"ce4bhl12rcd13ifvqgf0","pricing_plan_id":"cebpf4jnsgd1na2vs0mg"},{"bike_id":"08595f37-404a-46f2-b805-853a25c1ebe7","system_id":"levelo_inurba_marseille","lat":43.26553,"lon":5.37301,"is_reserved":false,"is_disabled":false,"rental_uris":{"android":"levelo://app?vid=08595f37-404a-46f2-b805-853a25c1ebe7","ios":"levelo://app?vid=08595f37-404a-46f2-b805-853a25c1ebe7"},"vehicle_type_id":"4","last_reported":1733926184,"current_range_meters":17600,"station_id":"ce4bhg12rcd13ifvqf70","pricing_plan_id":"cebpf4jnsgd1na2vs0mg"},{"bike_id":"e0a50d23-0a53-4c49-ad62-97e7ec633924","system_id":"levelo_inurba_marseille","lat":43.28707,"lon":5.39988,"is_reserved":false,"is_disabled":false,"rental_uris":{"android":"levelo://app?vid=e0a50d23-0a53-4c49-ad62-97e7ec633924","ios":"levelo://app?vid=e0a50d23-0a53-4c49-ad62-97e7ec633924"},"vehicle_type_id":"4","last_reported":1733926184,"current_range_meters":6400,"station_id":"ce4bho92rcd13ifvqh3g","pricing_plan_id":"cebpf4jnsgd1na2vs0mg"},{"bike_id":"9d5fa22f-b349-42f6-abc1-dcec0a7eafbf","system_id":"levelo_inurba_marseille","lat":43.29846,"lon":5.36288,"is_reserved":false,"is_disabled":false,"rental_uris":{"android":"levelo://app?vid=9d5fa22f-b349-42f6-abc1-dcec0a7eafbf","ios":"levelo://app?vid=9d5fa22f-b349-42f6-abc1-dcec0a7eafbf"},"vehicle_type_id":"4","last_reported":1733926184,"current_range_meters":6400,"station_id":"ce4bgpp2rcd13ifvqc3g","pricing_plan_id":"cebpf4jnsgd1na2vs0mg"},{"bike_id":"9c8c1480-9ffa-4086-913c-c2125a6eb848","system_id":"levelo_inurba_marseille","lat":43.22933,"lon":5.35379,"is_reserved":false,"is_disabled":true,"rental_uris":{"android":"levelo://app?vid=9c8c1480-9ffa-4086-913c-c2125a6eb848","ios":"levelo://app?vid=9c8c1480-9ffa-4086-913c-c2125a6eb848"},"vehicle_type_id":"4","last_reported":1733926184,"current_range_meters":800,"station_id":"cpo3532slgdg3j2ikp40","pricing_plan_id":"cebpf4jnsgd1na2vs0mg"},{"bike_id":"388f57e0-5c04-439d-98c9-a7e0e8bc121d","system_id":"levelo_inurba_marseille","lat":43.25495,"lon":5.37651,"is_reserved":false,"is_disabled":false,"rental_uris":{"android":"levelo://app?vid=388f57e0-5c04-439d-98c9-a7e0e8bc121d","ios":"levelo://app?vid=388f57e0-5c04-439d-98c9-a7e0e8bc121d"},"vehicle_type_id":"4","last_reported":1733926184,"current_range_meters":3200,"station_id":"ce4bhh12rcd13ifvqff0","pricing_plan_id":"cebpf4jnsgd1na2vs0mg"},{"bike_id":"9ee18792-72aa-45dd-8c33-87cda588ffa1","system_id":"levelo_inurba_marseille","lat":43.30141,"lon":5.38094,"is_reserved":false,"is_disabled":false,"rental_uris":{"android":"levelo://app?vid=9ee18792-72aa-45dd-8c33-87cda588ffa1","ios":"levelo://app?vid=9ee18792-72aa-45dd-8c33-87cda588ffa1"},"vehicle_type_id":"4","last_reported":1733926184,"current_range_meters":38800,"station_id":"ce4bgjp2rcd13ifvqbh0","pricing_plan_id":"cebpf4jnsgd1na2vs0mg"},{"bike_id":"4a75e9ca-d37c-45ce-a857-00e6f30dd711","system_id":"levelo_inurba_marseille","lat":43.25123,"lon":5.40321,"is_reserved":false,"is_disabled":false,"rental_uris":{"android":"levelo://app?vid=4a75e9ca-d37c-45ce-a857-00e6f30dd711","ios":"levelo://app?vid=4a75e9ca-d37c-45ce-a857-00e6f30dd711"},"vehicle_type_id":"4","last_reported":1733926184,"current_range_meters":24800,"station_id":"ce4bhlh2rcd13ifvqgig","pricing_plan_id":"cebpf4jnsgd1na2vs0mg"},{"bike_id":"2b419b1f-6ce5-466f-812b-808a9151124c","system_id":"levelo_inurba_marseille","lat":43.29618,"lon":5.37158,"is_reserved":false,"is_disabled":false,"rental_uris":{"android":"levelo://app?vid=2b419b1f-6ce5-466f-812b-808a9151124c","ios":"levelo://app?vid=2b419b1f-6ce5-466f-812b-808a9151124c"},"vehicle_type_id":"4","last_reported":1733926184,"current_range_meters":37600,"station_id":"ce4bgnh2rcd13ifvqc0g","pricing_plan_id":"cebpf4jnsgd1na2vs0mg"},{"bike_id":"98e9ebba-4e72-46ea-bd66-839b267911f3","system_id":"levelo_inurba_marseille","lat":43.28699,"lon":5.37379,"is_reserved":false,"is_disabled":false,"rental_uris":{"android":"levelo://app?vid=98e9ebba-4e72-46ea-bd66-839b267911f3","ios":"levelo://app?vid=98e9ebba-4e72-46ea-bd66-839b267911f3"},"vehicle_type_id":"4","last_reported":1733926184,"current_range_meters":4800,"station_id":"ce4bh3p2rcd13ifvqdq0","pricing_plan_id":"cebpf4jnsgd1na2vs0mg"},{"bike_id":"9ac7fa6e-2578-4832-8168-ade341fdc585","system_id":"levelo_inurba_marseille","lat":43.2841,"lon":5.428961,"is_reserved":false,"is_disabled":true,"rental_uris":{"android":"levelo://app?vid=9ac7fa6e-2578-4832-8168-ade341fdc585","ios":"levelo://app?vid=9ac7fa6e-2578-4832-8168-ade341fdc585"},