{"last_updated":1742047693,"ttl":60,"version":"2.2","data":{"bikes":[{"bike_id":"2bb6910c-fd7e-4b46-a773-d0a5e8c26166","system_id":"levelo_inurba_marseille","lat":43.3096,"lon":5.39042,"is_reserved":false,"is_disabled":false,"rental_uris":{"android":"levelo://app?vid=2bb6910c-fd7e-4b46-a773-d0a5e8c26166","ios":"levelo://app?vid=2bb6910c-fd7e-4b46-a773-d0a5e8c26166"},"vehicle_type_id":"4","last_reported":1742047693,"current_range_meters":3200,"station_id":"ce4bgup2rcd13ifvqco0","pricing_plan_id":"cebpf4jnsgd1na2vs0mg"},{"bike_id":"3d7c6a03-e7df-4851-8623-e21cfa9ff686","system_id":"levelo_inurba_marseille","lat":43.2903,"lon":5.38655,"is_reserved":false,"is_disabled":false,"rental_uris":{"android":"levelo://app?vid=3d7c6a03-e7df-4851-8623-e21cfa9ff686","ios":"levelo://app?vid=3d7c6a03-e7df-4851-8623-e21cfa9ff686"},"vehicle_type_id":"4","last_reported":1742047693,"current_range_meters":3200,"station_id":"ce4bh4p2rcd13ifvqe0g","pricing_plan_id":"cebpf4jnsgd1na2vs0mg"},{"bike_id":"6b2ef6d4-7ac3-4d5a-8f14-88170bc7abb3","system_id":"levelo_inurba_marseille","lat":43.24638,"lon":5.38885,"is_reserved":false,"is_disabled":false,"rental_uris":{"android":"levelo://app?vid=6b2ef6d4-7ac3-4d5a-8f14-88170bc7abb3","ios":"levelo://app?vid=6b2ef6d4-7ac3-4d5a-8f14-88170bc7abb3"},"vehicle_type_id":"4","last_reported":1742047693,"current_range_meters":3200,"station_id":"ce4bhg12rcd13ifvqf60","pricing_plan_id":"cebpf4jnsgd1na2vs0mg"},{"bike_id":"4eacd84f-522c-467d-9ad2-1278dc2d0f60","system_id":"levelo_inurba_marseille","lat":43.25937,"lon":5.40896,"is_reserved":false,"is_disabled":false,"rental_uris":{"android":"levelo://app?vid=4eacd84f-522c-467d-9ad2-1278dc2d0f60","ios":"levelo://app?vid=4eacd84f-522c-467d-9ad2-1278dc2d0f60"},"vehicle_type_id":"4","last_reported":1742047693,"current_range_meters":3200,"station_id":"ce4bhm92rcd13ifvqglg","pricing_plan_id":"cebpf4jnsgd1na2vs0mg"},{"bike_id":"fb25c0f6-5882-4734-a76a-2aeb0b117f9b","system_id":"levelo_inurba_marseille","lat":43.31784,"lon":5.3905,"is_reserved":false,"is_disabled":false,"rental_uris":{"android":"levelo://app?vid=fb25c0f6-5882-4734-a76a-2aeb0b117f9b","ios":"levelo://app?vid=fb25c0f6-5882-4734-a76a-2aeb0b117f9b"},"vehicle_type_id":"4","last_reported":1742047693,"current_range_meters":3600,"station_id":"ce4bhqp2rcd13ifvqhng","pricing_plan_id":"cebpf4jnsgd1na2vs0mg"},{"bike_id":"662cc029-d933-4792-aa92-025864207f89","system_id":"levelo_inurba_marseille","lat":43.25114,"lon":5.40321,"is_reserved":false,"is_disabled":false,"rental_uris":{"android":"levelo://app?vid=662cc029-d933-4792-aa92-025864207f89","ios":"levelo://app?vid=662cc029-d933-4792-aa92-025864207f89"},"vehicle_type_id":"4","last_reported":1742047693,"current_range_meters":4000,"station_id":"ce4bhlh2rcd13ifvqgig","pricing_plan_id":"cebpf4jnsgd1na2vs0mg"},{"bike_id":"9b00ebca-4135-45e2-8b29-0da199956f03","system_id":"levelo_inurba_marseille","lat":43.22917,"lon":5.35376,"is_reserved":false,"is_disabled":false,"rental_uris":{"android":"levelo://app?vid=9b00ebca-4135-45e2-8b29-0da199956f03","ios":"levelo://app?vid=9b00ebca-4135-45e2-8b29-0da199956f03"},"vehicle_type_id":"4","last_reported":1742047693,"current_range_meters":4000,"station_id":"cpo3532slgdg3j2ikp40","pricing_plan_id":"cebpf4jnsgd1na2vs0mg"},{"bike_id":"36ec5a15-215b-4367-a3ca-336aadd9a251","system_id":"levelo_inurba_marseille","lat":43.33746,"lon":5.3745,"is_reserved":false,"is_disabled":false,"rental_uris":{"android":"levelo://app?vid=36ec5a15-215b-4367-a3ca-336aadd9a251","ios":"levelo://app?vid=36ec5a15-215b-4367-a3ca-336aadd9a251"},"vehicle_type_id":"4","last_reported":1742047693,"current_range_meters":4000,"station_id":"","pricing_plan_id":"cebpf4jnsgd1na2vs0mg"},{"bike_id":"2168aa05-f0ba-4de0-b358-59889dbbf4ad","system_id":"levelo_inurba_marseille","lat":43.309479,"lon":5.390305,"is_reserved":false,"is_disabled":false,"rental_uris":{"android":"levelo://app?vid=2168aa05-f0ba-4de0-b358-59889dbbf4ad","ios":"levelo://app?vid=2168aa05-f0ba-4de0-b358-59889dbbf4ad"},"vehicle_type_id":"4","last_reported":1742047693,"current_range_meters":4400,"station_id":"ce4bgup2rcd13ifvqcn0","pricing_plan_id":"cebpf4jnsgd1na2vs0mg"},{"bike_id":"4d26d788-f578-401a-a77d-fdf2c2b23fa1","system_id":"levelo_inurba_marseille","lat":43.22932,"lon":5.35358,"is_reserved":false,"is_disabled":false,"rental_uris":{"android":"levelo://app?vid=4d26d788-f578-401a-a77d-fdf2c2b23fa1","ios":"levelo://app?vid=4d26d788-f578-401a-a77d-fdf2c2b23fa1"},"vehicle_type_id":"4","last_reported":1742047693,"current_range_meters":4400,"station_id":"cpo3532slgdg3j2ikp40","pricing_plan_id":"cebpf4jnsgd1na2vs0mg"},{"bike_id":"c66c2ecd-9117-4cc6-bc54-ae5cdca8e22c","system_id":"levelo_inurba_marseille","lat":43.24669,"lon":5.38156,"is_reserved":false,"is_disabled":false,"rental_uris":{"android":"levelo://app?vid=c66c2ecd-9117-4cc6-bc54-ae5cdca8e22c","ios":"levelo://app?vid=c66c2ecd-9117-4cc6-bc54-ae5cdca8e22c"},"vehicle_type_id":"4","last_reported":1742047693,"current_range_meters":4800,"station_id":"ce4bhih2rcd13ifvqfr0","pricing_plan_id":"cebpf4jnsgd1na2vs0mg"},{"bike_id":"4bbb5f37-b7e5-4555-92a2-14639343fcc1","system_id":"levelo_inurba_marseille","lat":43.28268,"lon":5.35069,"is_reserved":false,"is_disabled":false,"rental_uris":{"android":"levelo://app?vid=4bbb5f37-b7e5-4555-92a2-14639343fcc1","ios":"levelo://app?vid=4bbb5f37-b7e5-4555-92a2-14639343fcc1"},"vehicle_type_id":"4","last_reported":1742047693,"current_range_meters":4800,"station_id":"ce4bhbp2rcd13ifvqerg","pricing_plan_id":"cebpf4jnsgd1na2vs0mg"},{"bike_id":"0d9f0cd5-f18b-4f54-8c81-9abf1ecddef1","system_id":"levelo_inurba_marseille","lat":43.31717,"lon":5.42403,"is_reserved":false,"is_disabled":false,"rental_uris":{"android":"levelo://app?vid=0d9f0cd5-f18b-4f54-8c81-9abf1ecddef1","ios":"levelo://app?vid=0d9f0cd5-f18b-4f54-8c81-9abf1ecddef1"},"vehicle_type_id":"4","last_reported":1742047693,"current_range_meters":4800,"station_id":"","pricing_plan_id":"cebpf4jnsgd1na2vs0mg"},{"bike_id":"703a27ab-78c1-4da2-9977-9c24f54834c8","system_id":"levelo_inurba_marseille","lat":43.32505,"lon":5.36556,"is_reserved":false,"is_disabled":false,"rental_uris":{"android":"levelo://app?vid=703a27ab-78c1-4da2-9977-9c24f54834c8","ios":"levelo://app?vid=703a27ab-78c1-4da2-9977-9c24f54834c8"},"vehicle_type_id":"4","last_reported":1742047693,"current_range_meters":4800,"station_id":"ce4bhs12rcd13ifvqhvg","pricing_plan_id":"cebpf4jnsgd1na2vs0mg"},{"bike_id":"af856d98-87ee-4212-a267-f7a971ff571e","system_id":"levelo_inurba_marseille","lat":43.29874,"lon":5.39738,"is_reserved":false,"is_disabled":false,"rental_uris":{"android":"levelo://app?vid=af856d98-87ee-4212-a267-f7a971ff571e","ios":"levelo://app?vid=af856d98-87ee-4212-a267-f7a971ff571e"},"vehicle_type_id":"4","last_reported":1742047693,"current_range_meters":4400,"station_id":"ce4bh0h2rcd13ifvqd50","pricing_plan_id":"cebpf4jnsgd1na2vs0mg"},{"bike_id":"cb6ff553-cf2e-470f-b260-f6066168e71d","system_id":"levelo_inurba_marseille","lat":43.27209,"lon":5.39213,"is_reserved":false,"is_disabled":false,"rental_uris":{"android":"levelo://app?vid=cb6ff553-cf2e-470f-b260-f6066168e71d","ios":"levelo://app?vid=cb6ff553-cf2e-470f-b260-f6066168e71d"},"vehicle_type_id":"4","last_reported":1742047693,"current_range_meters":4800,"station_id":"ce4bhhp2rcd13ifvqfm0","pricing_plan_id":"cebpf4jnsgd1na2vs0mg"},{"bike_id":"00da616f-0600-4e71-9056-8a4a77cabe02","system_id":"levelo_inurba_marseille","lat":43.26191,"lon":5.37453,"is_reserved":false,"is_disabled":false,"rental_uris":{"android":"levelo://app?vid=00da616f-0600-4e71-9056-8a4a77cabe02","ios":"levelo://app?vid=00da616f-0600-4e71-9056-8a4a77cabe02"},"vehicle_type_id":"4","last_reported":1742047693,"current_range_meters":5600,"station_id":"ce4bhgp2rcd13ifvqfc0","pricing_plan_id":"cebpf4jnsgd1na2vs0mg"},{"bike_id":"aa687ff3-b56b-43f1-8a5f-62972ae5368b","system_id":"levelo_inurba_marseille","lat":43.24074,"lon":5.37761,"is_reserved":false,"is_disabled":false,"rental_uris":{"android":"levelo://app?vid=aa687ff3-b56b-43f1-8a5f-62972ae5368b","ios":"levelo://app?vid=aa687ff3-b56b-43f1-8a5f-62972ae5368b"},"vehicle_type_id":"4","last_reported":1742047693,"current_range_meters":5600,"station_id":"ce4bhnp2rcd13ifvqgvg","pricing_plan_id":"cebpf4jnsgd1na2vs0mg"},{"bike_id":"dd2006d3-ed39-40f8-a3fd-b517c8987982","system_id":"levelo_inurba_marseille","lat":43.32101,"lon":5.36783,"is_reserved":false,"is_disabled":false,"rental_uris":{"android":"levelo://app?vid=dd2006d3-ed39-40f8-a3fd-b517c8987982","ios":"levelo://app?vid=dd2006d3-ed39-40f8-a3fd-b517c8987982"},"vehicle_type_id":"4","last_reported":1742047693,"current_range_meters":5600,"station_id":"ce4bhrh2rcd13ifvqhug","pricing_plan_id":"cebpf4jnsgd1na2vs0mg"},{"bike_id":"ade53a34-81eb-4e31-9243-e0344e30829c","system_id":"levelo_inurba_marseille","lat":43.28924,"lon":5.35768,"is_reserved":false,"is_disabled":false,"rental_uris":{"android":"levelo://app?vid=ade53a34-81eb-4e31-9243-e0344e30829c","ios":"levelo://app?vid=ade53a34-81eb-4e31-9243-e0344e30829c"},"vehicle_type_id":"4","last_reported":1742047693,"current_range_meters":5600,"station_id":"","pricing_plan_id":"cebpf4jnsgd1na2vs0mg"},{"bike_id":"6d36487a-cbc5-4e46-9d62-5deaee455bae","system_id":"levelo_inurba_marseille","lat":43.23966,"lon":5.3664,"is_reserved":false,"is_disabled":false,"rental_uris":{"android":"levelo://app?vid=6d36487a-cbc5-4e46-9d62-5deaee455bae","ios":"levelo://app?vid=6d36487a-cbc5-4e46-9d62-5deaee455bae"},"vehicle_type_id":"4","last_reported":1742047693,"current_range_meters":6000,"station_id":"ce4bhi12rcd13ifvqfp0","pricing_plan_id":"cebpf4jnsgd1na2vs0mg"},{"bike_id":"48de0efc-461c-48c9-a345-06473ce7bd44","system_id":"levelo_inurba_marseille","lat":43.26203,"lon":5.37934,"is_reserved":false,"is_disabled":false,"rental_uris":{"android":"levelo://app?vid=48de0efc-461c-48c9-a345-06473ce7bd44","ios":"levelo://app?vid=48de0efc-461c-48c9-a345-06473ce7bd44"},"vehicle_type_id":"4","last_reported":1742047693,"current_range_meters":6000,"station_id":"ce4bhjp2rcd13ifvqg90","pricing_plan_id":"cebpf4jnsgd1na2vs0mg"},{"bike_id":"dfb1890d-a53d-42f7-a687-0bca1634d203","system_id":"levelo_inurba_marseille","lat":43.26377,"lon":5.37794,"is_reserved":false,"is_disabled":false,"rental_uris":{"android":"levelo://app?vid=dfb1890d-a53d-42f7-a687-0bca1634d203","ios":"levelo://app?vid=dfb1890d-a53d-42f7-a687-0bca1634d203"},"vehicle_type_id":"4","last_reported":1742047693,"current_range_meters":6400,"station_id":"","pricing_plan_id":"cebpf4jnsgd1na2vs0mg"},{"bike_id":"14686cda-0d1d-43d1-a7b7-3476257757d8","system_id":"levelo_inurba_marseille","lat":43.244,"lon":5.37069,"is_reserved":false,"is_disabled":false,"rental_uris":{"android":"levelo://app?vid=14686cda-0d1d-43d1-a7b7-3476257757d8","ios":"levelo://app?vid=14686cda-0d1d-43d1-a7b7-3476257757d8"},"vehicle_type_id":"4","last_reported":1742047693,"current_range_meters":6400,"station_id":"ce4bhhh2rcd13ifvqfk0","pricing_plan_id":"cebpf4jnsgd1na2vs0mg"},{"bike_id":"e7b412e9-0d29-43d4-b032-5f7dda59d95e","system_id":"levelo_inurba_marseille","lat":43.29032,"lon":5.399747,"is_reserved":false,"is_disabled":false,"rental_uris":{"android":"levelo://app?vid=e7b412e9-0d29-43d4-b032-5f7dda59d95e","ios":"levelo://app?vid=e7b412e9-0d29-43d4-b032-5f7dda59d95e"},"vehicle_type_id":"4","last_reported":1742047693,"current_range_meters":6400,"station_id":"ce4bh392rcd13ifvqdm0","pricing_plan_id":"cebpf4jnsgd1na2vs0mg"},{"bike_id":"faf4c27a-d7eb-4435-bbca-3d07a59b2d3c","system_id":"levelo_inurba_marseille","lat":43.31257,"lon":5.4017,"is_reserved":false,"is_disabled":false,"rental_uris":{"android":"levelo://app?vid=faf4c27a-d7eb-4435-bbca-3d07a59b2d3c","ios":"levelo://app?vid=faf4c27a-d7eb-4435-bbca-3d07a59b2d3c"},"vehicle_type_id":"4","last_reported":1742047693,"current_range_meters":6400,"station_id":"ce4bh092rcd13ifvqd30","pricing_plan_id":"cebpf4jnsgd1na2vs0mg"},{"bike_id":"c3072cf0-63d5-4526-871b-875836888b5c","system_id":"levelo_inurba_marseille","lat":43.26208,"lon":5.37449,"is_reserved":false,"is_disabled":false,"rental_uris":{"android":"levelo://app?vid=c3072cf0-63d5-4526-871b-875836888b5c","ios":"levelo://app?vid=c3072cf0-63d5-4526-871b-875836888b5c"},"vehicle_type_id":"4","last_reported":1742047693,"current_range_meters":6800,"station_id":"ce4bhgp2rcd13ifvqfc0","pricing_plan_id":"cebpf4jnsgd1na2vs0mg"},{"bike_id":"5723fe13-3d33-4a4e-a4e7-2d840fee8938","system_id":"levelo_inurba_marseille","lat":43.26062,"lon":5.39401,"is_reserved":false,"is_disabled":false,"rental_uris":{"android":"levelo://app?vid=5723fe13-3d33-4a4e-a4e7-2d840fee8938","ios":"levelo://app?vid=5723fe13-3d33-4a4e-a4e7-2d840fee8938"},"vehicle_type_id":"4","last_reported":1742047693,"current_range_meters":6800,"station_id":"ce4bhh92rcd13ifvqfj0","pricing_plan_id":"cebpf4jnsgd1na2vs0mg"},{"bike_id":"322d1f09-6aab-4287-b78e-b6d1403f7da9","system_id":"levelo_inurba_marseille","lat":43.23072,"lon":5.35493,"is_reserved":false,"is_disabled":false,"rental_uris":{"android":"levelo://app?vid=322d1f09-6aab-4287-b78e-b6d1403f7da9","ios":"levelo://app?vid=322d1f09-6aab-4287-b78e-b6d1403f7da9"},"vehicle_type_id":"4","last_reported":1742047693,"current_range_meters":6800,"station_id":"cpo3342slgdg3j2ifvpg","pricing_plan_id":"cebpf4jnsgd1na2vs0mg"},{"bike_id":"10bfbf93-f469-4c3a-81e0-401668958ed6","system_id":"levelo_inurba_marseille","lat":43.2842,"lon":5.34984,"is_reserved":false,"is_disabled":false,"rental_uris":{"android":"levelo://app?vid=10bfbf93-f469-4c3a-81e0-401668958ed6","ios":"levelo://app?vid=10bfbf93-f469-4c3a-81e0-401668958ed6"},"vehicle_type_id":"4","last_reported":1742047693,"current_range_meters":6800,"station_id":"ce4bhbh2rcd13ifvqepg","pricing_plan_id":"cebpf4jnsgd1na2vs0mg"},{"bike_id":"e0123f1c-e147-4c28-b515-0f8695ea0189","system_id":"levelo_inurba_marseille","lat":43.30613,"lon":5.37239,"is_reserved":false,"is_disabled":false,"rental_uris":{"android":"levelo://app?vid=e0123f1c-e147-4c28-b515-0f8695ea0189","ios":"levelo://app?vid=e0123f1c-e147-4c28-b515-0f8695ea0189"},"vehicle_type_id":"4","last_reported":1742047693,"current_range_meters":6400,"station_id":"ce4bgqh2rcd13ifvqc4g","pricing_plan_id":"cebpf4jnsgd1na2vs0mg"},{"bike_id":"36a3e1de-637f-4b0a-8fe3-76d5fcf4ea17","system_id":"levelo_inurba_marseille","lat":43.29166,"lon":5.37163,"is_reserved":false,"is_disabled":true,"rental_uris":{"android":"levelo://app?vid=36a3e1de-637f-4b0a-8fe3-76d5fcf4ea17","ios":"levelo://app?vid=36a3e1de-637f-4b0a-8fe3-76d5fcf4ea17"},"vehicle_type_id":"4","last_reported":1742047693,"current_range_meters":7200,"station_id":"ce4bha92rcd13ifvqeh0","pricing_plan_id":"cebpf4jnsgd1na2vs0mg"},{"bike_id":"48f968e9-2670-450c-9a50-b12a7ac1907f","system_id":"levelo_inurba_marseille","lat":43.25744,"lon":5.41091,"is_reserved":false,"is_disabled":false,"rental_uris":{"android":"levelo://app?vid=48f968e9-2670-450c-9a50-b12a7ac1907f","ios":"levelo://app?vid=48f968e9-2670-450c-9a50-b12a7ac1907f"},"vehicle_type_id":"4","last_reported":1742047693,"current_range_meters":7200,"station_id":"ce4bhkp2rcd13ifvqgd0","pricing_plan_id":"cebpf4jnsgd1na2vs0mg"},{"bike_id":"6811b1f5-a78b-4509-9110-e57e671863e9","system_id":"levelo_inurba_marseille","lat":43.27217,"lon":5.39179,"is_reserved":false,"is_disabled":false,"rental_uris":{"android":"levelo://app?vid=6811b1f5-a78b-4509-9110-e57e671863e9","ios":"levelo://app?vid=6811b1f5-a78b-4509-9110-e57e671863e9"},"vehicle_type_id":"4","last_reported":1742047693,"current_range_meters":7200,"station_id":"ce4bhhp2rcd13ifvqfm0","pricing_plan_id":"cebpf4jnsgd1na2vs0mg"},{"bike_id":"d882c2cb-643d-40cc-90cd-6dae95d36961","system_id":"levelo_inurba_marseille","lat":43.29307,"lon":5.37173,"is_reserved":false,"is_disabled":false,"rental_uris":{"android":"levelo://app?vid=d882c2cb-643d-40cc-90cd-6dae95d36961","ios":"levelo://app?vid=d882c2cb-643d-40cc-90cd-6dae95d36961"},"vehicle_type_id":"4","last_reported":1742047693,"current_range_meters":7200,"station_id":"ce4bgh92rcd13ifvqb40","pricing_plan_id":"cebpf4jnsgd1na2vs0mg"},{"bike_id":"c6b2e8e1-a9f2-4fdc-b2fb-e9795807d18f","system_id":"levelo_inurba_marseille","lat":43.28418,"lon":5.34988,"is_reserved":false,"is_disabled":false,"rental_uris":{"android":"levelo://app?vid=c6b2e8e1-a9f2-4fdc-b2fb-e9795807d18f","ios":"levelo://app?vid=c6b2e8e1-a9f2-4fdc-b2fb-e9795807d18f"},"vehicle_type_id":"4","last_reported":1742047693,"current_range_meters":7200,"station_id":"ce4bhbh2rcd13ifvqepg","pricing_plan_id":"cebpf4jnsgd1na2vs0mg"},{"bike_id":"355fb77e-22da-4ed4-bab8-f395a5c5d15a","system_id":"levelo_inurba_marseille","lat":43.24651,"lon":5.38177,"is_reserved":false,"is_disabled":false,"rental_uris":{"android":"levelo://app?vid=355fb77e-22da-4ed4-bab8-f395a5c5d15a","ios":"levelo://app?vid=355fb77e-22da-4ed4-bab8-f395a5c5d15a"},"vehicle_type_id":"4","last_reported":1742047693,"current_range_meters":7200,"station_id":"ce4bhih2rcd13ifvqfr0","pricing_plan_id":"cebpf4jnsgd1na2vs0mg"},{"bike_id":"a8e67676-89ba-43e0-82dc-5ef4b0a5e328","system_id":"levelo_inurba_marseille","lat":43.31622,"lon":5.38621,"is_reserved":false,"is_disabled":false,"rental_uris":{"android":"levelo://app?vid=a8e67676-89ba-43e0-82dc-5ef4b0a5e328","ios":"levelo://app?vid=a8e67676-89ba-43e0-82dc-5ef4b0a5e328"},"vehicle_type_id":"4","last_reported":1742047693,"current_range_meters":7200,"station_id":"","pricing_plan_id":"cebpf4jnsgd1na2vs0mg"},{"bike_id":"77f0430f-3350-4963-ac6b-e35c49a943e2","system_id":"levelo_inurba_marseille","lat":43.316665,"lon":5.39576,"is_reserved":false,"is_disabled":false,"rental_uris":{"android":"levelo://app?vid=77f0430f-3350-4963-ac6b-e35c49a943e2","ios":"levelo://app?vid=77f0430f-3350-4963-ac6b-e35c49a943e2"},"vehicle_type_id":"4","last_reported":1742047693,"current_range_meters":7200,"station_id":"","pricing_plan_id":"cebpf4jnsgd1na2vs0mg"},{"bike_id":"2ec0f046-4e68-4150-a618-5c892d6b2cb5","system_id":"levelo_inurba_marseille","lat":43.262413,"lon":5.404458,"is_reserved":false,"is_disabled":false,"rental_uris":{"android":"levelo://app?vid=2ec0f046-4e68-4150-a618-5c892d6b2cb5","ios":"levelo://app?vid=2ec0f046-4e68-4150-a618-5c892d6b2cb5"},"vehicle_type_id":"4","last_reported":1742047693,"current_range_meters":7200,"station_id":"ce4bhmh2rcd13ifvqgmg","pricing_plan_id":"cebpf4jnsgd1na2vs0mg"},{"bike_id":"2f65ed80-6c16-4426-b63c-1981c1c225b9","system_id":"levelo_inurba_marseille","lat":43.29572,"lon":5.42281,"is_reserved":false,"is_disabled":false,"rental_uris":{"android":"levelo://app?vid=2f65ed80-6c16-4426-b63c-1981c1c225b9","ios":"levelo://app?vid=2f65ed80-6c16-4426-b63c-1981c1c225b9"},"vehicle_type_id":"4","last_reported":1742047693,"current_range_meters":8000,"station_id":"ce4bhph2rcd13ifvqhdg","pricing_plan_id":"cebpf4jnsgd1na2vs0mg"},{"bike_id":"f145fb8a-76ed-4610-9aa2-4cd4bb3e0bc9","system_id":"levelo_inurba_marseille","lat":43.28076,"lon":5.39648,"is_reserved":false,"is_disabled":false,"rental_uris":{"android":"levelo://app?vid=f145fb8a-76ed-4610-9aa2-4cd4bb3e0bc9","ios":"levelo://app?vid=f145fb8a-76ed-4610-9aa2-4cd4bb3e0bc9"},"vehicle_type_id":"4","last_reported":1742047693,"current_range_meters":8000,"station_id":"ce4bho12rcd13ifvqh2g","pricing_plan_id":"cebpf4jnsgd1na2vs0mg"},{"bike_id":"1c944097-c351-4c77-acee-d4540e5f0a94","system_id":"levelo_inurba_marseille","lat":43.23065,"lon":5.35491,"is_reserved":false,"is_disabled":false,"rental_uris":{"android":"levelo://app?vid=1c944097-c351-4c77-acee-d4540e5f0a94","ios":"levelo://app?vid=1c944097-c351-4c77-acee-d4540e5f0a94"},"vehicle_type_id":"4","last_reported":1742047693,"current_range_meters":8000,"station_id":"cpo3342slgdg3j2ifvpg","pricing_plan_id":"cebpf4jnsgd1na2vs0mg"},{"bike_id":"3be20453-c79d-4afe-94d9-791c7b756a71","system_id":"levelo_inurba_marseille","lat":43.29735,"lon":5.37704,"is_reserved":false,"is_disabled":false,"rental_uris":{"android":"levelo://app?vid=3be20453-c79d-4afe-94d9-791c7b756a71","ios":"levelo://app?vid=3be20453-c79d-4afe-94d9-791c7b756a71"},"vehicle_type_id":"4","last_reported":1742047693,"current_range_meters":8000,"station_id":"ce4bgkh2rcd13ifvqbl0","pricing_plan_id":"cebpf4jnsgd1na2vs0mg"},{"bike_id":"bd7fb638-a561-41df-90ca-f32685780427","system_id":"levelo_inurba_marseille","lat":43.22927,"lon":5.35377,"is_reserved":false,"is_disabled":false,"rental_uris":{"android":"levelo://app?vid=bd7fb638-a561-41df-90ca-f32685780427","ios":"levelo://app?vid=bd7fb638-a561-41df-90ca-f32685780427"},"vehicle_type_id":"4","last_reported":1742047693,"current_range_meters":8000,"station_id":"cpo3532slgdg3j2ikp40","pricing_plan_id":"cebpf4jnsgd1na2vs0mg"},{"bike_id":"9309b0f2-f3fb-47db-a35a-e122919446ef","system_id":"levelo_inurba_marseille","lat":43.28499,"lon":5.38558,"is_reserved":false,"is_disabled":false,"rental_uris":{"android":"levelo://app?vid=9309b0f2-f3fb-47db-a35a-e122919446ef","ios":"levelo://app?vid=9309b0f2-f3fb-47db-a35a-e122919446ef"},"vehicle_type_id":"4","last_reported":1742047693,"current_range_meters":8000,"station_id":"ce4bh8p2rcd13ifvqeb0","pricing_plan_id":"cebpf4jnsgd1na2vs0mg"},{"bike_id":"8a5bd971-61c1-4475-933b-dffdb284dd01","system_id":"levelo_inurba_marseille","lat":43.25016,"lon":5.38924,"is_reserved":false,"is_disabled":false,"rental_uris":{"android":"levelo://app?vid=8a5bd971-61c1-4475-933b-dffdb284dd01","ios":"levelo://app?vid=8a5bd971-61c1-4475-933b-dffdb284dd01"},"vehicle_type_id":"4","last_reported":1742047693,"current_range_meters":8400,"station_id":"ce4bhgp2rcd13ifvqfd0","pricing_plan_id":"cebpf4jnsgd1na2vs0mg"},{"bike_id":"50fba46a-cea7-4cc0-a16e-d18a265e1cbe","system_id":"levelo_inurba_marseille","lat":43.25496,"lon":5.37646,"is_reserved":false,"is_disabled":false,"rental_uris":{"android":"levelo://app?vid=50fba46a-cea7-4cc0-a16e-d18a265e1cbe","ios":"levelo://app?vid=50fba46a-cea7-4cc0-a16e-d18a265e1cbe"},"vehicle_type_id":"4","last_reported":1742047693,"current_range_meters":8400,"station_id":"ce4bhh12rcd13ifvqff0","pricing_plan_id":"cebpf4jnsgd1na2vs0mg"},{"bike_id":"d649794e-d6ce-4918-b1d2-049e8d9f0723","system_id":"levelo_inurba_marseille","lat":43.24386,"lon":5.370655,"is_reserved":false,"is_disabled":false,"rental_uris":{"android":"levelo://app?vid=d649794e-d6ce-4918-b1d2-049e8d9f0723","ios":"levelo://app?vid=d649794e-d6ce-4918-b1d2-049e8d9f0723"},"vehicle_type_id":"4","last_reported":1742047693,"current_range_meters":8000,"station_id":"ce4bhhh2rcd13ifvqfk0","pricing_plan_id":"cebpf4jnsgd1na2vs0mg"},{"bike_id":"df48a089-94a3-490f-a103-5b0bdd546183","system_id":"levelo_inurba_marseille","lat":43.26192,"lon":5.37452,"is_reserved":false,"is_disabled":false,"rental_uris":{"android":"levelo://app?vid=df48a089-94a3-490f-a103-5b0bdd546183","ios":"levelo://app?vid=df48a089-94a3-490f-a103-5b0bdd546183"},"vehicle_type_id":"4","last_reported":1742047693,"current_range_meters":8400,"station_id":"ce4bhgp2rcd13ifvqfc0","pricing_plan_id":"cebpf4jnsgd1na2vs0mg"},{"bike_id":"782efdaf-2c70-4dcb-9d72-72a66a298053","system_id":"levelo_inurba_marseille","lat":43.24806,"lon":5.37447,"is_reserved":false,"is_disabled":false,"rental_uris":{"android":"levelo://app?vid=782efdaf-2c70-4dcb-9d72-72a66a298053","ios":"levelo://app?vid=782efdaf-2c70-4dcb-9d72-72a66a298053"},"vehicle_type_id":"4","last_reported":1742047693,"current_range_meters":8400,"station_id":"ce4bhgh2rcd13ifvqfb0","pricing_plan_id":"cebpf4jnsgd1na2vs0mg"},{"bike_id":"e997a9a8-dd56-40b8-b60c-099854a6eff6","system_id":"levelo_inurba_marseille","lat":43.23943,"lon":5.37485,"is_reserved":false,"is_disabled":false,"rental_uris":{"android":"levelo://app?vid=e997a9a8-dd56-40b8-b60c-099854a6eff6","ios":"levelo://app?vid=e997a9a8-dd56-40b8-b60c-099854a6eff6"},"vehicle_type_id":"4","last_reported":1742047693,"current_range_meters":8400,"station_id":"ce4bhnp2rcd13ifvqgvg","pricing_plan_id":"cebpf4jnsgd1na2vs0mg"},{"bike_id":"9085bc9b-c962-47c8-afb9-3e8b21e30bc4","system_id":"levelo_inurba_marseille","lat":43.28416,"lon":5.34991,"is_reserved":false,"is_disabled":false,"rental_uris":{"android":"levelo://app?vid=9085bc9b-c962-47c8-afb9-3e8b21e30bc4","ios":"levelo://app?vid=9085bc9b-c962-47c8-afb9-3e8b21e30bc4"},"vehicle_type_id":"4","last_reported":1742047693,"current_range_meters":8400,"station_id":"ce4bhbh2rcd13ifvqepg","pricing_plan_id":"cebpf4jnsgd1na2vs0mg"},{"bike_id":"70c64b6f-bec2-46ae-b5e9-8c0c29541837","system_id":"levelo_inurba_marseille","lat":43.27064,"lon":5.40263,"is_reserved":false,"is_disabled":false,"rental_uris":{"android":"levelo://app?vid=70c64b6f-bec2-46ae-b5e9-8c0c29541837","ios":"levelo://app?vid=70c64b6f-bec2-46ae-b5e9-8c0c29541837"},"vehicle_type_id":"4","last_reported":1742047693,"current_range_meters":8800,"station_id":"ce4bhk92rcd13ifvqgc0","pricing_plan_id":"cebpf4jnsgd1na2vs0mg"},{"bike_id":"f9e2118e-09cb-41c2-b8cf-6aa7e2d3ff39","system_id":"levelo_inurba_marseille","lat":43.25117,"lon":5.40326,"is_reserved":false,"is_disabled":false,"rental_uris":{"android":"levelo://app?vid=f9e2118e-09cb-41c2-b8cf-6aa7e2d3ff39","ios":"levelo://app?vid=f9e2118e-09cb-41c2-b8cf-6aa7e2d3ff39"},"vehicle_type_id":"4","last_reported":1742047693,"current_range_meters":8800,"station_id":"ce4bhlh2rcd13ifvqgig","pricing_plan_id":"cebpf4jnsgd1na2vs0mg"},{"bike_id":"ad69bf74-3369-48f6-bbbc-12a03c23a31d","system_id":"levelo_inurba_marseille","lat":43.30249,"lon":5.40082,"is_reserved":false,"is_disabled":false,"rental_uris":{"android":"levelo://app?vid=ad69bf74-3369-48f6-bbbc-12a03c23a31d","ios":"levelo://app?vid=ad69bf74-3369-48f6-bbbc-12a03c23a31d"},"vehicle_type_id":"4","last_reported":1742047693,"current_range_meters":8800,"station_id":"ce4bgvh2rcd13ifvqcs0","pricing_plan_id":"cebpf4jnsgd1na2vs0mg"},{"bike_id":"1ee71dce-d48d-4af5-99c2-09ee17edd7a0","system_id":"levelo_inurba_marseille","lat":43.2467,"lon":5.38154,"is_reserved":false,"is_disabled":false,"rental_uris":{"android":"levelo://app?vid=1ee71dce-d48d-4af5-99c2-09ee17edd7a0","ios":"levelo://app?vid=1ee71dce-d48d-4af5-99c2-09ee17edd7a0"},"vehicle_type_id":"4","last_reported":1742047693,"current_range_meters":8800,"station_id":"ce4bhih2rcd13ifvqfr0","pricing_plan_id":"cebpf4jnsgd1na2vs0mg"},{"bike_id":"4c838b2f-a493-4ce1-b299-fba96d85e9d5","system_id":"levelo_inurba_marseille","lat":43.23198,"lon":5.3555,"is_reserved":false,"is_disabled":false,"rental_uris":{"android":"levelo://app?vid=4c838b2f-a493-4ce1-b299-fba96d85e9d5","ios":"levelo://app?vid=4c838b2f-a493-4ce1-b299-fba96d85e9d5"},"vehicle_type_id":"4","last_reported":1742047693,"current_range_meters":8800,"station_id":"ce4bhu92rcd13ifvqi70","pricing_plan_id":"cebpf4jnsgd1na2vs0mg"},{"bike_id":"70bac634-3759-4f93-be9a-cd70e85d257f","system_id":"levelo_inurba_marseille","lat":43.28076,"lon":5.39656,"is_reserved":false,"is_disabled":false,"rental_uris":{"android":"levelo://app?vid=70bac634-3759-4f93-be9a-cd70e85d257f","ios":"levelo://app?vid=70bac634-3759-4f93-be9a-cd70e85d257f"},"vehicle_type_id":"4","last_reported":1742047693,"current_range_meters":8400,"station_id":"ce4bho12rcd13ifvqh2g","pricing_plan_id":"cebpf4jnsgd1na2vs0mg"},{"bike_id":"1fa2c054-0357-481f-bf32-afbe27f59e33","system_id":"levelo_inurba_marseille","lat":43.23152,"lon":5.437103,"is_reserved":false,"is_disabled":false,"rental_uris":{"android":"levelo://app?vid=1fa2c054-0357-481f-bf32-afbe27f59e33","ios":"levelo://app?vid=1fa2c054-0357-481f-bf32-afbe27f59e33"},"vehicle_type_id":"4","last_reported":1742047693,"current_range_meters":8800,"station_id":"ce4bhmp2rcd13ifvqgog","pricing_plan_id":"cebpf4jnsgd1na2vs0mg"},{"bike_id":"4d8ded7c-feae-48d6-bd81-235bc0484734","system_id":"levelo_inurba_marseille","lat":43.28609,"lon":5.35106,"is_reserved":false,"is_disabled":false,"rental_uris":{"android":"levelo://app?vid=4d8ded7c-feae-48d6-bd81-235bc0484734","ios":"levelo://app?vid=4d8ded7c-feae-48d6-bd81-235bc0484734"},"vehicle_type_id":"4","last_reported":1742047693,"current_range_meters":8800,"station_id":"ce4bhch2rcd13ifvqeug","pricing_plan_id":"cebpf4jnsgd1na2vs0mg"},{"bike_id":"18393934-271b-46ff-a7d1-8c250cd24dd5","system_id":"levelo_inurba_marseille","lat":43.31334,"lon":5.39687,"is_reserved":false,"is_disabled":false,"rental_uris":{"android":"levelo://app?vid=18393934-271b-46ff-a7d1-8c250cd24dd5","ios":"levelo://app?vid=18393934-271b-46ff-a7d1-8c250cd24dd5"},"vehicle_type_id":"4","last_reported":1742047693,"current_range_meters":9200,"station_id":"ce4bgvp2rcd13ifvqcu0","pricing_plan_id":"cebpf4jnsgd1na2vs0mg"},{"bike_id":"9fd8a695-1141-48a7-a275-ae03aade4f9e","system_id":"levelo_inurba_marseille","lat":43.2455,"lon":5.39523,"is_reserved":false,"is_disabled":false,"rental_uris":{"android":"levelo://app?vid=9fd8a695-1141-48a7-a275-ae03aade4f9e","ios":"levelo://app?vid=9fd8a695-1141-48a7-a275-ae03aade4f9e"},"vehicle_type_id":"4","last_reported":1742047693,"current_range_meters":9200,"station_id":"ce4bhlp2rcd13ifvqgjg","pricing_plan_id":"cebpf4jnsgd1na2vs0mg"},{"bike_id":"16009208-6452-416c-9299-97de97a55533","system_id":"levelo_inurba_marseille","lat":43.30438,"lon":5.38887,"is_reserved":false,"is_disabled":false,"rental_uris":{"android":"levelo://app?vid=16009208-6452-416c-9299-97de97a55533","ios":"levelo://app?vid=16009208-6452-416c-9299-97de97a55533"},"vehicle_type_id":"4","last_reported":1742047693,"current_range_meters":9200,"station_id":"ce4bgk12rcd13ifvqbi0","pricing_plan_id":"cebpf4jnsgd1na2vs0mg"},{"bike_id":"5c16ca36-178f-458b-a6a5-9aa0f940a129","system_id":"levelo_inurba_marseille","lat":43.2439,"lon":5.37064,"is_reserved":false,"is_disabled":false,"rental_uris":{"android":"levelo://app?vid=5c16ca36-178f-458b-a6a5-9aa0f940a129","ios":"levelo://app?vid=5c16ca36-178f-458b-a6a5-9aa0f940a129"},"vehicle_type_id":"4","last_reported":1742047693,"current_range_meters":9200,"station_id":"ce4bhhh2rcd13ifvqfk0","pricing_plan_id":"cebpf4jnsgd1na2vs0mg"},{"bike_id":"adcfcf3a-4d2a-4756-9614-56f9a7b093cb","system_id":"levelo_inurba_marseille","lat":43.23194,"lon":5.39999,"is_reserved":false,"is_disabled":false,"rental_uris":{"android":"levelo://app?vid=adcfcf3a-4d2a-4756-9614-56f9a7b093cb","ios":"levelo://app?vid=adcfcf3a-4d2a-4756-9614-56f9a7b093cb"},"vehicle_type_id":"4","last_reported":1742047693,"current_range_meters":9200,"station_id":"ce4bhn12rcd13ifvqgqg","pricing_plan_id":"cebpf4jnsgd1na2vs0mg"},{"bike_id":"1999cecf-f38c-4961-9580-ef6a50d3e0be","system_id":"levelo_inurba_marseille","lat":43.24167,"lon":5.36402,"is_reserved":false,"is_disabled":false,"rental_uris":{"android":"levelo://app?vid=1999cecf-f38c-4961-9580-ef6a50d3e0be","ios":"levelo://app?vid=1999cecf-f38c-4961-9580-ef6a50d3e0be"},"vehicle_type_id":"4","last_reported":1742047693,"current_range_meters":9200,"station_id":"cpo36qri1sfpv3e86is0","pricing_plan_id":"cebpf4jnsgd1na2vs0mg"},{"bike_id":"385ae15c-2c3c-4490-a507-5eb20fb883a5","system_id":"levelo_inurba_marseille","lat":43.25942,"lon":5.409,"is_reserved":false,"is_disabled":false,"rental_uris":{"android":"levelo://app?vid=385ae15c-2c3c-4490-a507-5eb20fb883a5","ios":"levelo://app?vid=385ae15c-2c3c-4490-a507-5eb20fb883a5"},"vehicle_type_id":"4","last_reported":1742047693,"current_range_meters":9200,"station_id":"ce4bhm92rcd13ifvqglg","pricing_plan_id":"cebpf4jnsgd1na2vs0mg"},{"bike_id":"f937bf83-77f7-4713-a126-1fa5addf18b5","system_id":"levelo_inurba_marseille","lat":43.27214,"lon":5.39181,"is_reserved":false,"is_disabled":false,"rental_uris":{"android":"levelo://app?vid=f937bf83-77f7-4713-a126-1fa5addf18b5","ios":"levelo://app?vid=f937bf83-77f7-4713-a126-1fa5addf18b5"},"vehicle_type_id":"4","last_reported":1742047693,"current_range_meters":9200,"station_id":"ce4bhhp2rcd13ifvqfm0","pricing_plan_id":"cebpf4jnsgd1na2vs0mg"},{"bike_id":"66f7e32f-3c95-41de-a44e-cd8857d1a810","system_id":"levelo_inurba_marseille","lat":43.2722,"lon":5.39204,"is_reserved":false,"is_disabled":false,"rental_uris":{"android":"levelo://app?vid=66f7e32f-3c95-41de-a44e-cd8857d1a810","ios":"levelo://app?vid=66f7e32f-3c95-41de-a44e-cd8857d1a810"},"vehicle_type_id":"4","last_reported":1742047693,"current_range_meters":9200,"station_id":"ce4bhhp2rcd13ifvqfm0","pricing_plan_id":"cebpf4jnsgd1na2vs0mg"},{"bike_id":"1ac0ebad-6828-4242-99b2-14a9f8209f79","system_id":"levelo_inurba_marseille","lat":43.23194,"lon":5.3555,"is_reserved":false,"is_disabled":false,"rental_uris":{"android":"levelo://app?vid=1ac0ebad-6828-4242-99b2-14a9f8209f79","ios":"levelo://app?vid=1ac0ebad-6828-4242-99b2-14a9f8209f79"},"vehicle_type_id":"4","last_reported":1742047693,"current_range_meters":9600,"station_id":"ce4bhu92rcd13ifvqi70","pricing_plan_id":"cebpf4jnsgd1na2vs0mg"},{"bike_id":"676e66c6-8e50-404c-b512-5f94c7d6a8fc","system_id":"levelo_inurba_marseille","lat":43.24167,"lon":5.36405,"is_reserved":false,"is_disabled":false,"rental_uris":{"android":"levelo://app?vid=676e66c6-8e50-404c-b512-5f94c7d6a8fc","ios":"levelo://app?vid=676e66c6-8e50-404c-b512-5f94c7d6a8fc"},"vehicle_type_id":"4","last_reported":1742047693,"current_range_meters":9600,"station_id":"cpo36qri1sfpv3e86is0","pricing_plan_id":"cebpf4jnsgd1na2vs0mg"},{"bike_id":"86fb93cf-ca27-4922-bb11-b2ead7e83bae","system_id":"levelo_inurba_marseille","lat":43.29069,"lon":5.37784,"is_reserved":false,"is_disabled":false,"rental_uris":{"android":"levelo://app?vid=86fb93cf-ca27-4922-bb11-b2ead7e83bae","ios":"levelo://app?vid=86fb93cf-ca27-4922-bb11-b2ead7e83bae"},"vehicle_type_id":"4","last_reported":1742047693,"current_range_meters":10000,"station_id":"","pricing_plan_id":"cebpf4jnsgd1na2vs0mg"},{"bike_id":"c5c42370-0952-4dff-aa04-9a7f1a752c47","system_id":"levelo_inurba_marseille","lat":43.26189,"lon":5.37461,"is_reserved":false,"is_disabled":false,"rental_uris":{"android":"levelo://app?vid=c5c42370-0952-4dff-aa04-9a7f1a752c47","ios":"levelo://app?vid=c5c42370-0952-4dff-aa04-9a7f1a752c47"},"vehicle_type_id":"4","last_reported":1742047693,"current_range_meters":9600,"station_id":"ce4bhgp2rcd13ifvqfc0","pricing_plan_id":"cebpf4jnsgd1na2vs0mg"},{"bike_id":"b4616406-2d58-4f02-abf1-373bd2ebeed9","system_id":"levelo_inurba_marseille","lat":43.24404,"lon":5.37065,"is_reserved":false,"is_disabled":false,"rental_uris":{"android":"levelo://app?vid=b4616406-2d58-4f02-abf1-373bd2ebeed9","ios":"levelo://app?vid=b4616406-2d58-4f02-abf1-373bd2ebeed9"},"vehicle_type_id":"4","last_reported":1742047693,"current_range_meters":9600,"station_id":"ce4bhhh2rcd13ifvqfk0","pricing_plan_id":"cebpf4jnsgd1na2vs0mg"},{"bike_id":"98d79f20-98cc-421a-8f6c-75ffdbfbf050","system_id":"levelo_inurba_marseille","lat":43.28274,"lon":5.35085,"is_reserved":false,"is_disabled":false,"rental_uris":{"android":"levelo://app?vid=98d79f20-98cc-421a-8f6c-75ffdbfbf050","ios":"levelo://app?vid=98d79f20-98cc-421a-8f6c-75ffdbfbf050"},"vehicle_type_id":"4","last_reported":1742047693,"current_range_meters":9600,"station_id":"ce4bhbp2rcd13ifvqerg","pricing_plan_id":"cebpf4jnsgd1na2vs0mg"},{"bike_id":"cd2eb4ba-77cf-40ae-a991-34cec5701430","system_id":"levelo_inurba_marseille","lat":43.23155,"lon":5.43696,"is_reserved":false,"is_disabled":false,"rental_uris":{"android":"levelo://app?vid=cd2eb4ba-77cf-40ae-a991-34cec5701430","ios":"levelo://app?vid=cd2eb4ba-77cf-40ae-a991-34cec5701430"},"vehicle_type_id":"4","last_reported":1742047693,"current_range_meters":9600,"station_id":"ce4bhmp2rcd13ifvqgog","pricing_plan_id":"cebpf4jnsgd1na2vs0mg"},{"bike_id":"2ada218c-4e3e-433b-a33e-91e0fed6090b","system_id":"levelo_inurba_marseille","lat":43.29443,"lon":5.39755,"is_reserved":false,"is_disabled":true,"rental_uris":{"android":"levelo://app?vid=2ada218c-4e3e-433b-a33e-91e0fed6090b","ios":"levelo://app?vid=2ada218c-4e3e-433b-a33e-91e0fed6090b"},"vehicle_type_id":"4","last_reported":1742047693,"current_range_meters":9600,"station_id":"ce4bh3h2rcd13ifvqdo0","pricing_plan_id":"cebpf4jnsgd1na2vs0mg"},{"bike_id":"92bd2e8f-197b-47ad-8530-ee4394b2ecce","system_id":"levelo_inurba_marseille","lat":43.2416,"lon":5.36416,"is_reserved":false,"is_disabled":false,"rental_uris":{"android":"levelo://app?vid=92bd2e8f-197b-47ad-8530-ee4394b2ecce","ios":"levelo://app?vid=92bd2e8f-197b-47ad-8530-ee4394b2ecce"},"vehicle_type_id":"4","last_reported":1742047693,"current_range_meters":9600,"station_id":"cpo36qri1sfpv3e86is0","pricing_plan_id":"cebpf4jnsgd1na2vs0mg"},{"bike_id":"4cfb9403-a958-47c0-9509-57cd574a8da9","system_id":"levelo_inurba_marseille","lat":43.33027,"lon":5.3904,"is_reserved":false,"is_disabled":false,"rental_uris":{"android":"levelo://app?vid=4cfb9403-a958-47c0-9509-57cd574a8da9","ios":"levelo://app?vid=4cfb9403-a958-47c0-9509-57cd574a8da9"},"vehicle_type_id":"4","last_reported":1742047693,"current_range_meters":9600,"station_id":"ce4bhr92rcd13ifvqhrg","pricing_plan_id":"cebpf4jnsgd1na2vs0mg"},{"bike_id":"34e9e697-ffec-4d84-beb9-0ca724397c49","system_id":"levelo_inurba_marseille","lat":43.29196,"lon":5.35799,"is_reserved":false,"is_disabled":false,"rental_uris":{"android":"levelo://app?vid=34e9e697-ffec-4d84-beb9-0ca724397c49","ios":"levelo://app?vid=34e9e697-ffec-4d84-beb9-0ca724397c49"},"vehicle_type_id":"4","last_reported":1742047693,"current_range_meters":10000,"station_id":"ce4bhb12rcd13ifvqel0","pricing_plan_id":"cebpf4jnsgd1na2vs0mg"},{"bike_id":"b4f48f83-76f0-4a85-aa64-4a2026ea2e7c","system_id":"levelo_inurba_marseille","lat":43.28609,"lon":5.35107,"is_reserved":false,"is_disabled":false,"rental_uris":{"android":"levelo://app?vid=b4f48f83-76f0-4a85-aa64-4a2026ea2e7c","ios":"levelo://app?vid=b4f48f83-76f0-4a85-aa64-4a2026ea2e7c"},"vehicle_type_id":"4","last_reported":1742047693,"current_range_meters":10000,"station_id":"ce4bhch2rcd13ifvqeug","pricing_plan_id":"cebpf4jnsgd1na2vs0mg"},{"bike_id":"50c97caa-ca8a-4b03-99d5-4678c955e14d","system_id":"levelo_inurba_marseille","lat":43.24808,"lon":5.37456,"is_reserved":false,"is_disabled":false,"rental_uris":{"android":"levelo://app?vid=50c97caa-ca8a-4b03-99d5-4678c955e14d","ios":"levelo://app?vid=50c97caa-ca8a-4b03-99d5-4678c955e14d"},"vehicle_type_id":"4","last_reported":1742047693,"current_range_meters":10000,"station_id":"ce4bhgh2rcd13ifvqfb0","pricing_plan_id":"cebpf4jnsgd1na2vs0mg"},{"bike_id":"3034db0c-7cfa-4361-a8e5-85d8b0635402","system_id":"levelo_inurba_marseille","lat":43.23972,"lon":5.36611,"is_reserved":false,"is_disabled":false,"rental_uris":{"android":"levelo://app?vid=3034db0c-7cfa-4361-a8e5-85d8b0635402","ios":"levelo://app?vid=3034db0c-7cfa-4361-a8e5-85d8b0635402"},"vehicle_type_id":"4","last_reported":1742047693,"current_range_meters":10000,"station_id":"ce4bhi12rcd13ifvqfp0","pricing_plan_id":"cebpf4jnsgd1na2vs0mg"},{"bike_id":"d0915976-a2a8-41f1-a9d9-b0708b870040","system_id":"levelo_inurba_marseille","lat":43.23151,"lon":5.43715,"is_reserved":false,"is_disabled":false,"rental_uris":{"android":"levelo://app?vid=d0915976-a2a8-41f1-a9d9-b0708b870040","ios":"levelo://app?vid=d0915976-a2a8-41f1-a9d9-b0708b870040"},"vehicle_type_id":"4","last_reported":1742047693,"current_range_meters":10000,"station_id":"ce4bhmp2rcd13ifvqgog","pricing_plan_id":"cebpf4jnsgd1na2vs0mg"},{"bike_id":"49a173d9-c0ae-4f30-8906-a1ef20c838ce","system_id":"levelo_inurba_marseille","lat":43.29621,"lon":5.37721,"is_reserved":false,"is_disabled":false,"rental_uris":{"android":"levelo://app?vid=49a173d9-c0ae-4f30-8906-a1ef20c838ce","ios":"levelo://app?vid=49a173d9-c0ae-4f30-8906-a1ef20c838ce"},"vehicle_type_id":"4","last_reported":1742047693,"current_range_meters":10000,"station_id":"ce4bgi92rcd13ifvqb90","pricing_plan_id":"cebpf4jnsgd1na2vs0mg"},{"bike_id":"5d6094b2-9f25-47f0-8873-3ce1d1d2b4bf","system_id":"levelo_inurba_marseille","lat":43.30574,"lon":5.366,"is_reserved":false,"is_disabled":false,"rental_uris":{"android":"levelo://app?vid=5d6094b2-9f25-47f0-8873-3ce1d1d2b4bf","ios":"levelo://app?vid=5d6094b2-9f25-47f0-8873-3ce1d1d2b4bf"},"vehicle_type_id":"4","last_reported":1742047693,"current_range_meters":10000,"station_id":"ce4bgs12rcd13ifvqcag","pricing_plan_id":"cebpf4jnsgd1na2vs0mg"},{"bike_id":"92470e55-9ef4-4e62-8ace-777e6d5a53c4","system_id":"levelo_inurba_marseille","lat":43.25868,"lon":5.3988,"is_reserved":false,"is_disabled":false,"rental_uris":{"android":"levelo://app?vid=92470e55-9ef4-4e62-8ace-777e6d5a53c4","ios":"levelo://app?vid=92470e55-9ef4-4e62-8ace-777e6d5a53c4"},"vehicle_type_id":"4","last_reported":1742047693,"current_range_meters":10800,"station_id":"ce4bhl92rcd13ifvqghg","pricing_plan_id":"cebpf4jnsgd1na2vs0mg"},{"bike_id":"0b7bfdb8-fd03-4687-9225-8085184f929c","system_id":"levelo_inurba_marseille","lat":43.32266,"lon":5.3661,"is_reserved":false,"is_disabled":false,"rental_uris":{"android":"levelo://app?vid=0b7bfdb8-fd03-4687-9225-8085184f929c","ios":"levelo://app?vid=0b7bfdb8-fd03-4687-9225-8085184f929c"},"vehicle_type_id":"4","last_reported":1742047693,"current_range_meters":10800,"station_id":"","pricing_plan_id":"cebpf4jnsgd1na2vs0mg"},{"bike_id":"e52b41b5-52df-4c67-a85c-3cebb3bf7504","system_id":"levelo_inurba_marseille","lat":43.32367,"lon":5.36782,"is_reserved":false,"is_disabled":false,"rental_uris":{"android":"levelo://app?vid=e52b41b5-52df-4c67-a85c-3cebb3bf7504","ios":"levelo://app?vid=e52b41b5-52df-4c67-a85c-3cebb3bf7504"},"vehicle_type_id":"4","last_reported":1742047693,"current_range_meters":10800,"station_id":"ce4bhsh2rcd13ifvqi2g","pricing_plan_id":"cebpf4jnsgd1na2vs0mg"},{"bike_id":"0119b0cf-8d35-466b-aaf2-fb3518f448eb","system_id":"levelo_inurba_marseille","lat":43.29278,"lon":5.36837,"is_reserved":false,"is_disabled":false,"rental_uris":{"android":"levelo://app?vid=0119b0cf-8d35-466b-aaf2-fb3518f448eb","ios":"levelo://app?vid=0119b0cf-8d35-466b-aaf2-fb3518f448eb"},"vehicle_type_id":"4","last_reported":1742047693,"current_range_meters":10800,"station_id":"ce4bhbp2rcd13ifvqesg","pricing_plan_id":"cebpf4jnsgd1na2vs0mg"},{"bike_id":"910a8371-9a50-4c82-8084-91fe0969f39f","system_id":"levelo_inurba_marseille","lat":43.2407,"lon":5.37769,"is_reserved":false,"is_disabled":false,"rental_uris":{"android":"levelo://app?vid=910a8371-9a50-4c82-8084-91fe0969f39f","ios":"levelo://app?vid=910a8371-9a50-4c82-8084-91fe0969f39f"},"vehicle_type_id":"4","last_reported":1742047693,"current_range_meters":10800,"station_id":"ce4bhnp2rcd13ifvqgvg","pricing_plan_id":"cebpf4jnsgd1na2vs0mg"},{"bike_id":"83783ead-721f-4d82-86e9-a8ac641b2edd","system_id":"levelo_inurba_marseille","lat":43.26224,"lon":5.40459,"is_reserved":false,"is_disabled":false,"rental_uris":{"android":"levelo://app?vid=83783ead-721f-4d82-86e9-a8ac641b2edd","ios":"levelo://app?vid=83783ead-721f-4d82-86e9-a8ac641b2edd"},"vehicle_type_id":"4","last_reported":1742047693,"current_range_meters":10800,"station_id":"ce4bhmh2rcd13ifvqgmg","pricing_plan_id":"cebpf4jnsgd1na2vs0mg"},{"bike_id":"c449f288-d53c-4ce3-9509-ca265a9ab3d5","system_id":"levelo_inurba_marseille","lat":43.26789,"lon":5.39425,"is_reserved":false,"is_disabled":false,"rental_uris":{"android":"levelo://app?vid=c449f288-d53c-4ce3-9509-ca265a9ab3d5","ios":"levelo://app?vid=c449f288-d53c-4ce3-9509-ca265a9ab3d5"},"vehicle_type_id":"4","last_reported":1742047693,"current_range_meters":10000,"station_id":"ce4bhh12rcd13ifvqfg0","pricing_plan_id":"cebpf4jnsgd1na2vs0mg"},{"bike_id":"0162ff87-7148-49d2-82e1-db37eca7d49d","system_id":"levelo_inurba_marseille","lat":43.28613,"lon":5.35099,"is_reserved":false,"is_disabled":false,"rental_uris":{"android":"levelo://app?vid=0162ff87-7148-49d2-82e1-db37eca7d49d","ios":"levelo://app?vid=0162ff87-7148-49d2-82e1-db37eca7d49d"},"vehicle_type_id":"4","last_reported":1742047693,"current_range_meters":10800,"station_id":"ce4bhch2rcd13ifvqeug","pricing_plan_id":"cebpf4jnsgd1na2vs0mg"},{"bike_id":"efb53dda-871b-483c-8dec-e716116f9234","system_id":"levelo_inurba_marseille","lat":43.31004,"lon":5.36761,"is_reserved":false,"is_disabled":false,"rental_uris":{"android":"levelo://app?vid=efb53dda-871b-483c-8dec-e716116f9234","ios":"levelo://app?vid=efb53dda-871b-483c-8dec-e716116f9234"},"vehicle_type_id":"4","last_reported":1742047693,"current_range_meters":10800,"station_id":"","pricing_plan_id":"cebpf4jnsgd1na2vs0mg"},{"bike_id":"71630a11-9911-4310-a4dd-5209bcdde92e","system_id":"levelo_inurba_marseille","lat":43.28261,"lon":5.3508,"is_reserved":false,"is_disabled":false,"rental_uris":{"android":"levelo://app?vid=71630a11-9911-4310-a4dd-5209bcdde92e","ios":"levelo://app?vid=71630a11-9911-4310-a4dd-5209bcdde92e"},"vehicle_type_id":"4","last_reported":1742047693,"current_range_meters":10800,"station_id":"ce4bhbp2rcd13ifvqerg","pricing_plan_id":"cebpf4jnsgd1na2vs0mg"},{"bike_id":"a479ce67-eff7-41a8-9be1-436cb25c6ffd","system_id":"levelo_inurba_marseille","lat":43.2762,"lon":5.36111,"is_reserved":false,"is_disabled":false,"rental_uris":{"android":"levelo://app?vid=a479ce67-eff7-41a8-9be1-436cb25c6ffd","ios":"levelo://app?vid=a479ce67-eff7-41a8-9be1-436cb25c6ffd"},"vehicle_type_id":"4","last_reported":1742047693,"current_range_meters":10800,"station_id":"ce4bgj92rcd13ifvqbe0","pricing_plan_id":"cebpf4jnsgd1na2vs0mg"},{"bike_id":"7c5f1502-63c8-4daa-994a-c3d2258588bf","system_id":"levelo_inurba_marseille","lat":43.22934,"lon":5.35375,"is_reserved":false,"is_disabled":false,"rental_uris":{"android":"levelo://app?vid=7c5f1502-63c8-4daa-994a-c3d2258588bf","ios":"levelo://app?vid=7c5f1502-63c8-4daa-994a-c3d2258588bf"},"vehicle_type_id":"4","last_reported":1742047693,"current_range_meters":11200,"station_id":"cpo3532slgdg3j2ikp40","pricing_plan_id":"cebpf4jnsgd1na2vs0mg"},{"bike_id":"48477812-6202-4fcd-8dbb-a6ebfa6749c4","system_id":"levelo_inurba_marseille","lat":43.29028,"lon":5.37567,"is_reserved":false,"is_disabled":true,"rental_uris":{"android":"levelo://app?vid=48477812-6202-4fcd-8dbb-a6ebfa6749c4","ios":"levelo://app?vid=48477812-6202-4fcd-8dbb-a6ebfa6749c4"},"vehicle_type_id":"4","last_reported":1742047693,"current_range_meters":11600,"station_id":"ce4bh692rcd13ifvqe90","pricing_plan_id":"cebpf4jnsgd1na2vs0mg"},{"bike_id":"4d4d369d-2512-437b-af0b-688ede98d99e","system_id":"levelo_inurba_marseille","lat":43.30933,"lon":5.40147,"is_reserved":false,"is_disabled":false,"rental_uris":{"android":"levelo://app?vid=4d4d369d-2512-437b-af0b-688ede98d99e","ios":"levelo://app?vid=4d4d369d-2512-437b-af0b-688ede98d99e"},"vehicle_type_id":"4","last_reported":1742047693,"current_range_meters":11200,"station_id":"ce4bgvp2rcd13ifvqct0","pricing_plan_id":"cebpf4jnsgd1na2vs0mg"},{"bike_id":"70345284-0bf4-47d3-8bb0-ee385b355379","system_id":"levelo_inurba_marseille","lat":43.26198,"lon":5.37455,"is_reserved":false,"is_disabled":false,"rental_uris":{"android":"levelo://app?vid=70345284-0bf4-47d3-8bb0-ee385b355379","ios":"levelo://app?vid=70345284-0bf4-47d3-8bb0-ee385b355379"},"vehicle_type_id":"4","last_reported":1742047693,"current_range_meters":11600,"station_id":"ce4bhgp2rcd13ifvqfc0","pricing_plan_id":"cebpf4jnsgd1na2vs0mg"},{"bike_id":"62d42f48-a591-4fb9-bba6-53f98633cf23","system_id":"levelo_inurba_marseille","lat":43.28711,"lon":5.39991,"is_reserved":false,"is_disabled":false,"rental_uris":{"android":"levelo://app?vid=62d42f48-a591-4fb9-bba6-53f98633cf23","ios":"levelo://app?vid=62d42f48-a591-4fb9-bba6-53f98633cf23"},"vehicle_type_id":"4","last_reported":1742047693,"current_range_meters":11600,"station_id":"ce4bho92rcd13ifvqh3g","pricing_plan_id":"cebpf4jnsgd1na2vs0mg"},{"bike_id":"35170032-9fbd-466b-b080-21388ed7720a","system_id":"levelo_inurba_marseille","lat":43.25101,"lon":5.3952,"is_reserved":false,"is_disabled":false,"rental_uris":{"android":"levelo://app?vid=35170032-9fbd-466b-b080-21388ed7720a","ios":"levelo://app?vid=35170032-9fbd-466b-b080-21388ed7720a"},"vehicle_type_id":"4","last_reported":1742047693,"current_range_meters":12000,"station_id":"ce4bhm12rcd13ifvqgkg","pricing_plan_id":"cebpf4jnsgd1na2vs0mg"},{"bike_id":"1742665e-3cf5-4d91-9f4d-8afacbb37c97","system_id":"levelo_inurba_marseille","lat":43.30319,"lon":5.39244,"is_reserved":false,"is_disabled":false,"rental_uris":{"android":"levelo://app?vid=1742665e-3cf5-4d91-9f4d-8afacbb37c97","ios":"levelo://app?vid=1742665e-3cf5-4d91-9f4d-8afacbb37c97"},"vehicle_type_id":"4","last_reported":1742047693,"current_range_meters":12000,"station_id":"ce4bgkh2rcd13ifvqbk0","pricing_plan_id":"cebpf4jnsgd1na2vs0mg"},{"bike_id":"5f7f03a2-add7-44f0-9ebb-8428c5f0e58a","system_id":"levelo_inurba_marseille","lat":43.25938,"lon":5.40897,"is_reserved":false,"is_disabled":false,"rental_uris":{"android":"levelo://app?vid=5f7f03a2-add7-44f0-9ebb-8428c5f0e58a","ios":"levelo://app?vid=5f7f03a2-add7-44f0-9ebb-8428c5f0e58a"},"vehicle_type_id":"4","last_reported":1742047693,"current_range_meters":12000,"station_id":"ce4bhm92rcd13ifvqglg","pricing_plan_id":"cebpf4jnsgd1na2vs0mg"},{"bike_id":"57f16d46-9a26-4a0f-bbd4-4019fba41bd5","system_id":"levelo_inurba_marseille","lat":43.23965,"lon":5.36654,"is_reserved":false,"is_disabled":false,"rental_uris":{"android":"levelo://app?vid=57f16d46-9a26-4a0f-bbd4-4019fba41bd5","ios":"levelo://app?vid=57f16d46-9a26-4a0f-bbd4-4019fba41bd5"},"vehicle_type_id":"4","last_reported":1742047693,"current_range_meters":12000,"station_id":"ce4bhi12rcd13ifvqfp0","pricing_plan_id":"cebpf4jnsgd1na2vs0mg"},{"bike_id":"46ff52d3-5d32-4156-8670-e873addbe3c7","system_id":"levelo_inurba_marseille","lat":43.2924,"lon":5.36062,"is_reserved":false,"is_disabled":false,"rental_uris":{"android":"levelo://app?vid=46ff52d3-5d32-4156-8670-e873addbe3c7","ios":"levelo://app?vid=46ff52d3-5d32-4156-8670-e873addbe3c7"},"vehicle_type_id":"4","last_reported":1742047693,"current_range_meters":12000,"station_id":"ce4bhbh2rcd13ifvqeqg","pricing_plan_id":"cebpf4jnsgd1na2vs0mg"},{"bike_id":"3b004741-7683-4cd9-a9e4-276a9e3e0326","system_id":"levelo_inurba_marseille","lat":43.27617,"lon":5.36109,"is_reserved":false,"is_disabled":false,"rental_uris":{"android":"levelo://app?vid=3b004741-7683-4cd9-a9e4-276a9e3e0326","ios":"levelo://app?vid=3b004741-7683-4cd9-a9e4-276a9e3e0326"},"vehicle_type_id":"4","last_reported":1742047693,"current_range_meters":12000,"station_id":"ce4bgj92rcd13ifvqbe0","pricing_plan_id":"cebpf4jnsgd1na2vs0mg"},{"bike_id":"191c260e-5c88-427c-b9aa-a22c60adeca4","system_id":"levelo_inurba_marseille","lat":43.27375,"lon":5.3626,"is_reserved":false,"is_disabled":false,"rental_uris":{"android":"levelo://app?vid=191c260e-5c88-427c-b9aa-a22c60adeca4","ios":"levelo://app?vid=191c260e-5c88-427c-b9aa-a22c60adeca4"},"vehicle_type_id":"4","last_reported":1742047693,"current_range_meters":12000,"station_id":"ce4bhbh2rcd13ifvqeo0","pricing_plan_id":"cebpf4jnsgd1na2vs0mg"},{"bike_id":"ee2044ca-4740-4a20-96c6-a189636c645f","system_id":"levelo_inurba_marseille","lat":43.23068,"lon":5.35496,"is_reserved":false,"is_disabled":false,"rental_uris":{"android":"levelo://app?vid=ee2044ca-4740-4a20-96c6-a189636c645f","ios":"levelo://app?vid=ee2044ca-4740-4a20-96c6-a189636c645f"},"vehicle_type_id":"4","last_reported":1742047693,"current_range_meters":12000,"station_id":"cpo3342slgdg3j2ifvpg","pricing_plan_id":"cebpf4jnsgd1na2vs0mg"},{"bike_id":"f9859109-5268-4270-9e80-3a9b80dc123b","system_id":"levelo_inurba_marseille","lat":43.27665,"lon":5.38885,"is_reserved":false,"is_disabled":false,"rental_uris":{"android":"levelo://app?vid=f9859109-5268-4270-9e80-3a9b80dc123b","ios":"levelo://app?vid=f9859109-5268-4270-9e80-3a9b80dc123b"},"vehicle_type_id":"4","last_reported":1742047693,"current_range_meters":12000,"station_id":"ce4bhi12rcd13ifvqfo0","pricing_plan_id":"cebpf4jnsgd1na2vs0mg"},{"bike_id":"31710fca-ccfa-43a5-ac6f-5ec923018ebf","system_id":"levelo_inurba_marseille","lat":43.27417,"lon":5.42059,"is_reserved":false,"is_disabled":false,"rental_uris":{"android":"levelo://app?vid=31710fca-ccfa-43a5-ac6f-5ec923018ebf","ios":"levelo://app?vid=31710fca-ccfa-43a5-ac6f-5ec923018ebf"},"vehicle_type_id":"4","last_reported":1742047693,"current_range_meters":12000,"station_id":"","pricing_plan_id":"cebpf4jnsgd1na2vs0mg"},{"bike_id":"d320a4c8-0f37-4f66-8663-79277424b97b","system_id":"levelo_inurba_marseille","lat":43.27316,"lon":5.39078,"is_reserved":false,"is_disabled":false,"rental_uris":{"android":"levelo://app?vid=d320a4c8-0f37-4f66-8663-79277424b97b","ios":"levelo://app?vid=d320a4c8-0f37-4f66-8663-79277424b97b"},"vehicle_type_id":"4","last_reported":1742047693,"current_range_meters":12400,"station_id":"ce4bhgp2rcd13ifvqfe0","pricing_plan_id":"cebpf4jnsgd1na2vs0mg"},{"bike_id":"3f51f1f5-7a39-4364-adc9-c4c0ef6e90b0","system_id":"levelo_inurba_marseille","lat":43.28616,"lon":5.35099,"is_reserved":false,"is_disabled":false,"rental_uris":{"android":"levelo://app?vid=3f51f1f5-7a39-4364-adc9-c4c0ef6e90b0","ios":"levelo://app?vid=3f51f1f5-7a39-4364-adc9-c4c0ef6e90b0"},"vehicle_type_id":"4","last_reported":1742047693,"current_range_meters":12400,"station_id":"ce4bhch2rcd13ifvqeug","pricing_plan_id":"cebpf4jnsgd1na2vs0mg"},{"bike_id":"0ae3592b-68a1-48e4-a20c-864f2d68cf48","system_id":"levelo_inurba_marseille","lat":43.29309,"lon":5.36849,"is_reserved":false,"is_disabled":false,"rental_uris":{"android":"levelo://app?vid=0ae3592b-68a1-48e4-a20c-864f2d68cf48","ios":"levelo://app?vid=0ae3592b-68a1-48e4-a20c-864f2d68cf48"},"vehicle_type_id":"4","last_reported":1742047693,"current_range_meters":12400,"station_id":"ce4bhbp2rcd13ifvqesg","pricing_plan_id":"cebpf4jnsgd1na2vs0mg"},{"bike_id":"11b545ed-bd54-4cbe-b1e3-b87b5b1869ef","system_id":"levelo_inurba_marseille","lat":43.3136,"lon":5.38492,"is_reserved":false,"is_disabled":false,"rental_uris":{"android":"levelo://app?vid=11b545ed-bd54-4cbe-b1e3-b87b5b1869ef","ios":"levelo://app?vid=11b545ed-bd54-4cbe-b1e3-b87b5b1869ef"},"vehicle_type_id":"4","last_reported":1742047693,"current_range_meters":12400,"station_id":"ce4bgt92rcd13ifvqcf0","pricing_plan_id":"cebpf4jnsgd1na2vs0mg"},{"bike_id":"d2012836-9ca3-4205-8a48-f49871473207","system_id":"levelo_inurba_marseille","lat":43.30807,"lon":5.38166,"is_reserved":false,"is_disabled":false,"rental_uris":{"android":"levelo://app?vid=d2012836-9ca3-4205-8a48-f49871473207","ios":"levelo://app?vid=d2012836-9ca3-4205-8a48-f49871473207"},"vehicle_type_id":"4","last_reported":1742047693,"current_range_meters":11200,"station_id":"ce4bgt12rcd13ifvqce0","pricing_plan_id":"cebpf4jnsgd1na2vs0mg"},{"bike_id":"e2461e35-53b7-42f4-97f1-da527f694ed0","system_id":"levelo_inurba_marseille","lat":43.28422,"lon":5.34968,"is_reserved":false,"is_disabled":false,"rental_uris":{"android":"levelo://app?vid=e2461e35-53b7-42f4-97f1-da527f694ed0","ios":"levelo://app?vid=e2461e35-53b7-42f4-97f1-da527f694ed0"},"vehicle_type_id":"4","last_reported":1742047693,"current_range_meters":12400,"station_id":"ce4bhbh2rcd13ifvqepg","pricing_plan_id":"cebpf4jnsgd1na2vs0mg"},{"bike_id":"d751a31e-a518-44cc-8641-315d036d1e06","system_id":"levelo_inurba_marseille","lat":43.29891,"lon":5.3976,"is_reserved":false,"is_disabled":false,"rental_uris":{"android":"levelo://app?vid=d751a31e-a518-44cc-8641-315d036d1e06","ios":"levelo://app?vid=d751a31e-a518-44cc-8641-315d036d1e06"},"vehicle_type_id":"4","last_reported":1742047693,"current_range_meters":12800,"station_id":"ce4bh0h2rcd13ifvqd50","pricing_plan_id":"cebpf4jnsgd1na2vs0mg"},{"bike_id":"89f21cf4-6be4-490b-80c5-7191ca5dbe44","system_id":"levelo_inurba_marseille","lat":43.25494,"lon":5.37648,"is_reserved":false,"is_disabled":false,"rental_uris":{"android":"levelo://app?vid=89f21cf4-6be4-490b-80c5-7191ca5dbe44","ios":"levelo://app?vid=89f21cf4-6be4-490b-80c5-7191ca5dbe44"},"vehicle_type_id":"4","last_reported":1742047693,"current_range_meters":12800,"station_id":"ce4bhh12rcd13ifvqff0","pricing_plan_id":"cebpf4jnsgd1na2vs0mg"},{"bike_id":"1f1cde58-d2bc-4e7e-a0cc-2a5c2f9da795","system_id":"levelo_inurba_marseille","lat":43.2656,"lon":5.37286,"is_reserved":false,"is_disabled":false,"rental_uris":{"android":"levelo://app?vid=1f1cde58-d2bc-4e7e-a0cc-2a5c2f9da795","ios":"levelo://app?vid=1f1cde58-d2bc-4e7e-a0cc-2a5c2f9da795"},"vehicle_type_id":"4","last_reported":1742047693,"current_range_meters":12800,"station_id":"ce4bhg12rcd13ifvqf70","pricing_plan_id":"cebpf4jnsgd1na2vs0mg"},{"bike_id":"74f2950d-f639-4809-bff2-7e52cd116e06","system_id":"levelo_inurba_marseille","lat":43.2315,"lon":5.43715,"is_reserved":false,"is_disabled":false,"rental_uris":{"android":"levelo://app?vid=74f2950d-f639-4809-bff2-7e52cd116e06","ios":"levelo://app?vid=74f2950d-f639-4809-bff2-7e52cd116e06"},"vehicle_type_id":"4","last_reported":1742047693,"current_range_meters":13600,"station_id":"ce4bhmp2rcd13ifvqgog","pricing_plan_id":"cebpf4jnsgd1na2vs0mg"},{"bike_id":"8ef3bd33-4588-4bf2-aac3-6b69436a10ca","system_id":"levelo_inurba_marseille","lat":43.2827,"lon":5.35067,"is_reserved":false,"is_disabled":false,"rental_uris":{"android":"levelo://app?vid=8ef3bd33-4588-4bf2-aac3-6b69436a10ca","ios":"levelo://app?vid=8ef3bd33-4588-4bf2-aac3-6b69436a10ca"},"vehicle_type_id":"4","last_reported":1742047693,"current_range_meters":13600,"station_id":"ce4bhbp2rcd13ifvqerg","pricing_plan_id":"cebpf4jnsgd1na2vs0mg"},{"bike_id":"fc071de1-2cc0-488a-a43e-f8037a5a9a49","system_id":"levelo_inurba_marseille","lat":43.230631,"lon":5.354936,"is_reserved":false,"is_disabled":false,"rental_uris":{"android":"levelo://app?vid=fc071de1-2cc0-488a-a43e-f8037a5a9a49","ios":"levelo://app?vid=fc071de1-2cc0-488a-a43e-f8037a5a9a49"},"vehicle_type_id":"4","last_reported":1742047693,"current_range_meters":13600,"station_id":"cpo3342slgdg3j2ifvpg","pricing_plan_id":"cebpf4jnsgd1na2vs0mg"},{"bike_id":"5040a28b-2948-44a5-b2ab-78cb99e37b1a","system_id":"levelo_inurba_marseille","lat":43.26496,"lon":5.39555,"is_reserved":false,"is_disabled":false,"rental_uris":{"android":"levelo://app?vid=5040a28b-2948-44a5-b2ab-78cb99e37b1a","ios":"levelo://app?vid=5040a28b-2948-44a5-b2ab-78cb99e37b1a"},"vehicle_type_id":"4","last_reported":1742047693,"current_range_meters":13600,"station_id":"ce4bhi12rcd13ifvqfq0","pricing_plan_id":"cebpf4jnsgd1na2vs0mg"},{"bike_id":"bc142d78-53d0-4a78-be96-1ee80394d030","system_id":"levelo_inurba_marseille","lat":43.27316,"lon":5.39088,"is_reserved":false,"is_disabled":false,"rental_uris":{"android":"levelo://app?vid=bc142d78-53d0-4a78-be96-1ee80394d030","ios":"levelo://app?vid=bc142d78-53d0-4a78-be96-1ee80394d030"},"vehicle_type_id":"4","last_reported":1742047693,"current_range_meters":13600,"station_id":"ce4bhgp2rcd13ifvqfe0","pricing_plan_id":"cebpf4jnsgd1na2vs0mg"},{"bike_id":"b1749b95-948e-48a3-828f-fc1248c6d71c","system_id":"levelo_inurba_marseille","lat":43.23967,"lon":5.36633,"is_reserved":false,"is_disabled":false,"rental_uris":{"android":"levelo://app?vid=b1749b95-948e-48a3-828f-fc1248c6d71c","ios":"levelo://app?vid=b1749b95-948e-48a3-828f-fc1248c6d71c"},"vehicle_type_id":"4","last_reported":1742047693,"current_range_meters":13600,"station_id":"ce4bhi12rcd13ifvqfp0","pricing_plan_id":"cebpf4jnsgd1na2vs0mg"},{"bike_id":"308caf01-1ffd-4b59-9b33-1a8cae2cad4b","system_id":"levelo_inurba_marseille","lat":43.24391,"lon":5.37065,"is_reserved":false,"is_disabled":false,"rental_uris":{"android":"levelo://app?vid=308caf01-1ffd-4b59-9b33-1a8cae2cad4b","ios":"levelo://app?vid=308caf01-1ffd-4b59-9b33-1a8cae2cad4b"},"vehicle_type_id":"4","last_reported":1742047693,"current_range_meters":13600,"station_id":"ce4bhhh2rcd13ifvqfk0","pricing_plan_id":"cebpf4jnsgd1na2vs0mg"},{"bike_id":"7711086b-3ec1-4609-9af3-b653dd5d44b7","system_id":"levelo_inurba_marseille","lat":43.2981,"lon":5.36252,"is_reserved":false,"is_disabled":false,"rental_uris":{"android":"levelo://app?vid=7711086b-3ec1-4609-9af3-b653dd5d44b7","ios":"levelo://app?vid=7711086b-3ec1-4609-9af3-b653dd5d44b7"},"vehicle_type_id":"4","last_reported":1742047693,"current_range_meters":13600,"station_id":"ce4bgpp2rcd13ifvqc3g","pricing_plan_id":"cebpf4jnsgd1na2vs0mg"},{"bike_id":"a6e16d89-00b3-4733-a59a-580ed6d32f89","system_id":"levelo_inurba_marseille","lat":43.26201,"lon":5.37935,"is_reserved":false,"is_disabled":false,"rental_uris":{"android":"levelo://app?vid=a6e16d89-00b3-4733-a59a-580ed6d32f89","ios":"levelo://app?vid=a6e16d89-00b3-4733-a59a-580ed6d32f89"},"vehicle_type_id":"4","last_reported":1742047693,"current_range_meters":13600,"station_id":"ce4bhjp2rcd13ifvqg90","pricing_plan_id":"cebpf4jnsgd1na2vs0mg"},{"bike_id":"3a89315b-62de-4a2c-a0ba-c40dd86a913d","system_id":"levelo_inurba_marseille","lat":43.27064,"lon":5.40259,"is_reserved":false,"is_disabled":false,"rental_uris":{"android":"levelo://app?vid=3a89315b-62de-4a2c-a0ba-c40dd86a913d","ios":"levelo://app?vid=3a89315b-62de-4a2c-a0ba-c40dd86a913d"},"vehicle_type_id":"4","last_reported":1742047693,"current_range_meters":13600,"station_id":"ce4bhk92rcd13ifvqgc0","pricing_plan_id":"cebpf4jnsgd1na2vs0mg"},{"bike_id":"f7e67be8-6c8f-4368-b291-48661d02a411","system_id":"levelo_inurba_marseille","lat":43.27625,"lon":5.36109,"is_reserved":false,"is_disabled":false,"rental_uris":{"android":"levelo://app?vid=f7e67be8-6c8f-4368-b291-48661d02a411","ios":"levelo://app?vid=f7e67be8-6c8f-4368-b291-48661d02a411"},"vehicle_type_id":"4","last_reported":1742047693,"current_range_meters":14000,"station_id":"ce4bgj92rcd13ifvqbe0","pricing_plan_id":"cebpf4jnsgd1na2vs0mg"},{"bike_id":"a3ce399e-6803-44f4-a5da-ebc3a05bd7be","system_id":"levelo_inurba_marseille","lat":43.29297,"lon":5.4275,"is_reserved":false,"is_disabled":false,"rental_uris":{"android":"levelo://app?vid=a3ce399e-6803-44f4-a5da-ebc3a05bd7be","ios":"levelo://app?vid=a3ce399e-6803-44f4-a5da-ebc3a05bd7be"},"vehicle_type_id":"4","last_reported":1742047693,"current_range_meters":14000,"station_id":"","pricing_plan_id":"cebpf4jnsgd1na2vs0mg"},{"bike_id":"71b342b8-694b-40d5-99e8-310baf77a970","system_id":"levelo_inurba_marseille","lat":43.23067,"lon":5.3548,"is_reserved":false,"is_disabled":false,"rental_uris":{"android":"levelo://app?vid=71b342b8-694b-40d5-99e8-310baf77a970","ios":"levelo://app?vid=71b342b8-694b-40d5-99e8-310baf77a970"},"vehicle_type_id":"4","last_reported":1742047693,"current_range_meters":14000,"station_id":"cpo3342slgdg3j2ifvpg","pricing_plan_id":"cebpf4jnsgd1na2vs0mg"},{"bike_id":"90c707aa-0edc-4e94-a911-252e6bd4d4c2","system_id":"levelo_inurba_marseille","lat":43.28627,"lon":5.35089,"is_reserved":false,"is_disabled":false,"rental_uris":{"android":"levelo://app?vid=90c707aa-0edc-4e94-a911-252e6bd4d4c2","ios":"levelo://app?vid=90c707aa-0edc-4e94-a911-252e6bd4d4c2"},"vehicle_type_id":"4","last_reported":1742047693,"current_range_meters":14000,"station_id":"ce4bhch2rcd13ifvqeug","pricing_plan_id":"cebpf4jnsgd1na2vs0mg"},{"bike_id":"174c9c66-b172-484e-b7f9-5752aa18aabf","system_id":"levelo_inurba_marseille","lat":43.23068,"lon":5.35493,"is_reserved":false,"is_disabled":false,"rental_uris":{"android":"levelo://app?vid=174c9c66-b172-484e-b7f9-5752aa18aabf","ios":"levelo://app?vid=174c9c66-b172-484e-b7f9-5752aa18aabf"},"vehicle_type_id":"4","last_reported":1742047693,"current_range_meters":14000,"station_id":"cpo3342slgdg3j2ifvpg","pricing_plan_id":"cebpf4jnsgd1na2vs0mg"},{"bike_id":"e1bc5517-89cc-4fbd-afdb-e8d3c61b8e55","system_id":"levelo_inurba_marseille","lat":43.32359,"lon":5.3676,"is_reserved":false,"is_disabled":false,"rental_uris":{"android":"levelo://app?vid=e1bc5517-89cc-4fbd-afdb-e8d3c61b8e55","ios":"levelo://app?vid=e1bc5517-89cc-4fbd-afdb-e8d3c61b8e55"},"vehicle_type_id":"4","last_reported":1742047693,"current_range_meters":14000,"station_id":"ce4bhsh2rcd13ifvqi2g","pricing_plan_id":"cebpf4jnsgd1na2vs0mg"},{"bike_id":"df2bd365-182b-4a07-b573-1593f98b410a","system_id":"levelo_inurba_marseille","lat":43.287245,"lon":5.360888,"is_reserved":false,"is_disabled":true,"rental_uris":{"android":"levelo://app?vid=df2bd365-182b-4a07-b573-1593f98b410a","ios":"levelo://app?vid=df2bd365-182b-4a07-b573-1593f98b410a"},"vehicle_type_id":"4","last_reported":1742047693,"current_range_meters":14000,"station_id":"cki0cbj6b192h4jlfktg","pricing_plan_id":"cebpf4jnsgd1na2vs0mg"},{"bike_id":"c79bb127-8198-4096-96ea-1444569e00c1","system_id":"levelo_inurba_marseille","lat":43.23959,"lon":5.36622,"is_reserved":false,"is_disabled":true,"rental_uris":{"android":"levelo://app?vid=c79bb127-8198-4096-96ea-1444569e00c1","ios":"levelo://app?vid=c79bb127-8198-4096-96ea-1444569e00c1"},"vehicle_type_id":"4","last_reported":1742047693,"current_range_meters":14000,"station_id":"ce4bhi12rcd13ifvqfp0","pricing_plan_id":"cebpf4jnsgd1na2vs0mg"},{"bike_id":"084e9cd0-ba7b-4410-911b-bd29122b16f6","system_id":"levelo_inurba_marseille","lat":43.24167,"lon":5.36405,"is_reserved":false,"is_disabled":false,"rental_uris":{"android":"levelo://app?vid=084e9cd0-ba7b-4410-911b-bd29122b16f6","ios":"levelo://app?vid=084e9cd0-ba7b-4410-911b-bd29122b16f6"},"vehicle_type_id":"4","last_reported":1742047693,"current_range_meters":14000,"station_id":"cpo36qri1sfpv3e86is0","pricing_plan_id":"cebpf4jnsgd1na2vs0mg"},{"bike_id":"89a491e8-90e5-4fc7-86c6-436c53a5f27a","system_id":"levelo_inurba_marseille","lat":43.28265,"lon":5.35072,"is_reserved":false,"is_disabled":false,"rental_uris":{"android":"levelo://app?vid=89a491e8-90e5-4fc7-86c6-436c53a5f27a","ios":"levelo://app?vid=89a491e8-90e5-4fc7-86c6-436c53a5f27a"},"vehicle_type_id":"4","last_reported":1742047693,"current_range_meters":14400,"station_id":"ce4bhbp2rcd13ifvqerg","pricing_plan_id":"cebpf4jnsgd1na2vs0mg"},{"bike_id":"c5ea78ab-58fe-43fb-a4a4-ad42e31cba7e","system_id":"levelo_inurba_marseille","lat":43.2886,"lon":5.35883,"is_reserved":false,"is_disabled":false,"rental_uris":{"android":"levelo://app?vid=c5ea78ab-58fe-43fb-a4a4-ad42e31cba7e","ios":"levelo://app?vid=c5ea78ab-58fe-43fb-a4a4-ad42e31cba7e"},"vehicle_type_id":"4","last_reported":1742047693,"current_range_meters":14000,"station_id":"ce4bhb12rcd13ifvqem0","pricing_plan_id":"cebpf4jnsgd1na2vs0mg"},{"bike_id":"b2df1f7e-e516-4cd0-ba32-607fb2e17d3a","system_id":"levelo_inurba_marseille","lat":43.25496,"lon":5.37647,"is_reserved":false,"is_disabled":false,"rental_uris":{"android":"levelo://app?vid=b2df1f7e-e516-4cd0-ba32-607fb2e17d3a","ios":"levelo://app?vid=b2df1f7e-e516-4cd0-ba32-607fb2e17d3a"},"vehicle_type_id":"4","last_reported":1742047693,"current_range_meters":14800,"station_id":"ce4bhh12rcd13ifvqff0","pricing_plan_id":"cebpf4jnsgd1na2vs0mg"},{"bike_id":"57b47c59-4336-4c9d-9aff-2a9d5c092678","system_id":"levelo_inurba_marseille","lat":43.29006,"lon":5.35618,"is_reserved":false,"is_disabled":false,"rental_uris":{"android":"levelo://app?vid=57b47c59-4336-4c9d-9aff-2a9d5c092678","ios":"levelo://app?vid=57b47c59-4336-4c9d-9aff-2a9d5c092678"},"vehicle_type_id":"4","last_reported":1742047693,"current_range_meters":14800,"station_id":"ce4bhb92rcd13ifvqen0","pricing_plan_id":"cebpf4jnsgd1na2vs0mg"},{"bike_id":"f238c0df-d3c9-4577-a186-a5d3f05e229a","system_id":"levelo_inurba_marseille","lat":43.25835,"lon":5.39446,"is_reserved":false,"is_disabled":false,"rental_uris":{"android":"levelo://app?vid=f238c0df-d3c9-4577-a186-a5d3f05e229a","ios":"levelo://app?vid=f238c0df-d3c9-4577-a186-a5d3f05e229a"},"vehicle_type_id":"4","last_reported":1742047693,"current_range_meters":14800,"station_id":"ce4bhip2rcd13ifvqft0","pricing_plan_id":"cebpf4jnsgd1na2vs0mg"},{"bike_id":"efa182c5-e8bb-4316-9ac4-4d06270b10d4","system_id":"levelo_inurba_marseille","lat":43.32363,"lon":5.38903,"is_reserved":false,"is_disabled":false,"rental_uris":{"android":"levelo://app?vid=efa182c5-e8bb-4316-9ac4-4d06270b10d4","ios":"levelo://app?vid=efa182c5-e8bb-4316-9ac4-4d06270b10d4"},"vehicle_type_id":"4","last_reported":1742047693,"current_range_meters":14800,"station_id":"ce4bhqp2rcd13ifvqhog","pricing_plan_id":"cebpf4jnsgd1na2vs0mg"},{"bike_id":"46d3c2d9-1401-49e9-abbd-72fb88572b1c","system_id":"levelo_inurba_marseille","lat":43.29835,"lon":5.36283,"is_reserved":false,"is_disabled":false,"rental_uris":{"android":"levelo://app?vid=46d3c2d9-1401-49e9-abbd-72fb88572b1c","ios":"levelo://app?vid=46d3c2d9-1401-49e9-abbd-72fb88572b1c"},"vehicle_type_id":"4","last_reported":1742047693,"current_range_meters":15200,"station_id":"ce4bgpp2rcd13ifvqc3g","pricing_plan_id":"cebpf4jnsgd1na2vs0mg"},{"bike_id":"33fb1097-b7f6-4a5c-b763-d764fa37617d","system_id":"levelo_inurba_marseille","lat":43.2928,"lon":5.36848,"is_reserved":false,"is_disabled":false,"rental_uris":{"android":"levelo://app?vid=33fb1097-b7f6-4a5c-b763-d764fa37617d","ios":"levelo://app?vid=33fb1097-b7f6-4a5c-b763-d764fa37617d"},"vehicle_type_id":"4","last_reported":1742047693,"current_range_meters":15200,"station_id":"ce4bhbp2rcd13ifvqesg","pricing_plan_id":"cebpf4jnsgd1na2vs0mg"},{"bike_id":"f709cb7e-4bd4-4503-ab85-447b0bd380b5","system_id":"levelo_inurba_marseille","lat":43.32375,"lon":5.38892,"is_reserved":false,"is_disabled":false,"rental_uris":{"android":"levelo://app?vid=f709cb7e-4bd4-4503-ab85-447b0bd380b5","ios":"levelo://app?vid=f709cb7e-4bd4-4503-ab85-447b0bd380b5"},"vehicle_type_id":"4","last_reported":1742047693,"current_range_meters":15200,"station_id":"ce4bhqp2rcd13ifvqhog","pricing_plan_id":"cebpf4jnsgd1na2vs0mg"},{"bike_id":"8c040b46-fae8-466e-b505-560ba2300a4e","system_id":"levelo_inurba_marseille","lat":43.28421,"lon":5.34982,"is_reserved":false,"is_disabled":false,"rental_uris":{"android":"levelo://app?vid=8c040b46-fae8-466e-b505-560ba2300a4e","ios":"levelo://app?vid=8c040b46-fae8-466e-b505-560ba2300a4e"},"vehicle_type_id":"4","last_reported":1742047693,"current_range_meters":15200,"station_id":"ce4bhbh2rcd13ifvqepg","pricing_plan_id":"cebpf4jnsgd1na2vs0mg"},{"bike_id":"6144d780-e005-4e1e-89a2-c8c45184763c","system_id":"levelo_inurba_marseille","lat":43.33026,"lon":5.39042,"is_reserved":false,"is_disabled":false,"rental_uris":{"android":"levelo://app?vid=6144d780-e005-4e1e-89a2-c8c45184763c","ios":"levelo://app?vid=6144d780-e005-4e1e-89a2-c8c45184763c"},"vehicle_type_id":"4","last_reported":1742047693,"current_range_meters":15200,"station_id":"ce4bhr92rcd13ifvqhrg","pricing_plan_id":"cebpf4jnsgd1na2vs0mg"},{"bike_id":"67ca7154-5ce7-4bfd-a5d8-c4711c5cc893","system_id":"levelo_inurba_marseille","lat":43.26808,"lon":5.40268,"is_reserved":false,"is_disabled":false,"rental_uris":{"android":"levelo://app?vid=67ca7154-5ce7-4bfd-a5d8-c4711c5cc893","ios":"levelo://app?vid=67ca7154-5ce7-4bfd-a5d8-c4711c5cc893"},"vehicle_type_id":"4","last_reported":1742047693,"current_range_meters":15200,"station_id":"ce501612rcd8frsf0b60","pricing_plan_id":"cebpf4jnsgd1na2vs0mg"},{"bike_id":"4d20b878-6603-4328-ab6e-4a7ae0b08224","system_id":"levelo_inurba_marseille","lat":43.25962,"lon":5.40901,"is_reserved":false,"is_disabled":false,"rental_uris":{"android":"levelo://app?vid=4d20b878-6603-4328-ab6e-4a7ae0b08224","ios":"levelo://app?vid=4d20b878-6603-4328-ab6e-4a7ae0b08224"},"vehicle_type_id":"4","last_reported":1742047693,"current_range_meters":16000,"station_id":"ce4bhm92rcd13ifvqglg","pricing_plan_id":"cebpf4jnsgd1na2vs0mg"},{"bike_id":"9b58a3d5-5d1a-4b7b-bd03-4c18297d7097","system_id":"levelo_inurba_marseille","lat":43.29229,"lon":5.36065,"is_reserved":false,"is_disabled":false,"rental_uris":{"android":"levelo://app?vid=9b58a3d5-5d1a-4b7b-bd03-4c18297d7097","ios":"levelo://app?vid=9b58a3d5-5d1a-4b7b-bd03-4c18297d7097"},"vehicle_type_id":"4","last_reported":1742047693,"current_range_meters":16000,"station_id":"ce4bhbh2rcd13ifvqeqg","pricing_plan_id":"cebpf4jnsgd1na2vs0mg"},{"bike_id":"25d0c1d8-6764-49ef-a6d8-1bed49df9fbd","system_id":"levelo_inurba_marseille","lat":43.251085,"lon":5.403265,"is_reserved":false,"is_disabled":false,"rental_uris":{"android":"levelo://app?vid=25d0c1d8-6764-49ef-a6d8-1bed49df9fbd","ios":"levelo://app?vid=25d0c1d8-6764-49ef-a6d8-1bed49df9fbd"},"vehicle_type_id":"4","last_reported":1742047693,"current_range_meters":16000,"station_id":"ce4bhlh2rcd13ifvqgig","pricing_plan_id":"cebpf4jnsgd1na2vs0mg"},{"bike_id":"e047eb05-c84e-4eb9-a430-24d024850b6f","system_id":"levelo_inurba_marseille","lat":43.22934,"lon":5.35382,"is_reserved":false,"is_disabled":false,"rental_uris":{"android":"levelo://app?vid=e047eb05-c84e-4eb9-a430-24d024850b6f","ios":"levelo://app?vid=e047eb05-c84e-4eb9-a430-24d024850b6f"},"vehicle_type_id":"4","last_reported":1742047693,"current_range_meters":16000,"station_id":"cpo3532slgdg3j2ikp40","pricing_plan_id":"cebpf4jnsgd1na2vs0mg"},{"bike_id":"2885af77-5903-4adc-8dfd-72f019bd263c","system_id":"levelo_inurba_marseille","lat":43.28626,"lon":5.35105,"is_reserved":false,"is_disabled":false,"rental_uris":{"android":"levelo://app?vid=2885af77-5903-4adc-8dfd-72f019bd263c","ios":"levelo://app?vid=2885af77-5903-4adc-8dfd-72f019bd263c"},"vehicle_type_id":"4","last_reported":1742047693,"current_range_meters":16000,"station_id":"ce4bhch2rcd13ifvqeug","pricing_plan_id":"cebpf4jnsgd1na2vs0mg"},{"bike_id":"0f54ff47-3839-4752-8369-f91384a4aa25","system_id":"levelo_inurba_marseille","lat":43.31072,"lon":5.38366,"is_reserved":false,"is_disabled":false,"rental_uris":{"android":"levelo://app?vid=0f54ff47-3839-4752-8369-f91384a4aa25","ios":"levelo://app?vid=0f54ff47-3839-4752-8369-f91384a4aa25"},"vehicle_type_id":"4","last_reported":1742047693,"current_range_meters":16000,"station_id":"ce4bgv92rcd13ifvqcr0","pricing_plan_id":"cebpf4jnsgd1na2vs0mg"},{"bike_id":"21ad9322-1064-49ce-881f-b98a92db1bc0","system_id":"levelo_inurba_marseille","lat":43.27451,"lon":5.39424,"is_reserved":false,"is_disabled":false,"rental_uris":{"android":"levelo://app?vid=21ad9322-1064-49ce-881f-b98a92db1bc0","ios":"levelo://app?vid=21ad9322-1064-49ce-881f-b98a92db1bc0"},"vehicle_type_id":"4","last_reported":1742047693,"current_range_meters":16000,"station_id":"ce4bhdp2rcd13ifvqf20","pricing_plan_id":"cebpf4jnsgd1na2vs0mg"},{"bike_id":"713488da-5161-49f4-b40c-f705aad5b061","system_id":"levelo_inurba_marseille","lat":43.29783,"lon":5.38115,"is_reserved":false,"is_disabled":true,"rental_uris":{"android":"levelo://app?vid=713488da-5161-49f4-b40c-f705aad5b061","ios":"levelo://app?vid=713488da-5161-49f4-b40c-f705aad5b061"},"vehicle_type_id":"4","last_reported":1742047693,"current_range_meters":16000,"station_id":"ce4bgip2rcd13ifvqbb0","pricing_plan_id":"cebpf4jnsgd1na2vs0mg"},{"bike_id":"1d7f8ff5-bcc8-4b92-a03a-ea3818b4617e","system_id":"levelo_inurba_marseille","lat":43.29018,"lon":5.38645,"is_reserved":false,"is_disabled":true,"rental_uris":{"android":"levelo://app?vid=1d7f8ff5-bcc8-4b92-a03a-ea3818b4617e","ios":"levelo://app?vid=1d7f8ff5-bcc8-4b92-a03a-ea3818b4617e"},"vehicle_type_id":"4","last_reported":1742047693,"current_range_meters":16400,"station_id":"ce4bh4p2rcd13ifvqe0g","pricing_plan_id":"cebpf4jnsgd1na2vs0mg"},{"bike_id":"3e685809-8a98-470b-b8d1-c028716361a7","system_id":"levelo_inurba_marseille","lat":43.23963,"lon":5.36629,"is_reserved":false,"is_disabled":false,"rental_uris":{"android":"levelo://app?vid=3e685809-8a98-470b-b8d1-c028716361a7","ios":"levelo://app?vid=3e685809-8a98-470b-b8d1-c028716361a7"},"vehicle_type_id":"4","last_reported":1742047693,"current_range_meters":16400,"station_id":"ce4bhi12rcd13ifvqfp0","pricing_plan_id":"cebpf4jnsgd1na2vs0mg"},{"bike_id":"b881a216-a8e0-47ad-9c6d-ce879391627c","system_id":"levelo_inurba_marseille","lat":43.29942,"lon":5.36546,"is_reserved":false,"is_disabled":true,"rental_uris":{"android":"levelo://app?vid=b881a216-a8e0-47ad-9c6d-ce879391627c","ios":"levelo://app?vid=b881a216-a8e0-47ad-9c6d-ce879391627c"},"vehicle_type_id":"4","last_reported":1742047693,"current_range_meters":16400,"station_id":"ce4bgm92rcd13ifvqbr0","pricing_plan_id":"cebpf4jnsgd1na2vs0mg"},{"bike_id":"9532dbbb-a4e4-4835-9b08-1a712cc3f75f","system_id":"levelo_inurba_marseille","lat":43.25117,"lon":5.40325,"is_reserved":false,"is_disabled":false,"rental_uris":{"android":"levelo://app?vid=9532dbbb-a4e4-4835-9b08-1a712cc3f75f","ios":"levelo://app?vid=9532dbbb-a4e4-4835-9b08-1a712cc3f75f"},"vehicle_type_id":"4","last_reported":1742047693,"current_range_meters":16400,"station_id":"ce4bhlh2rcd13ifvqgig","pricing_plan_id":"cebpf4jnsgd1na2vs0mg"},{"bike_id":"96744a18-3316-43e0-9153-7a6032ab1b09","system_id":"levelo_inurba_marseille","lat":43.25011,"lon":5.38917,"is_reserved":false,"is_disabled":false,"rental_uris":{"android":"levelo://app?vid=96744a18-3316-43e0-9153-7a6032ab1b09","ios":"levelo://app?vid=96744a18-3316-43e0-9153-7a6032ab1b09"},"vehicle_type_id":"4","last_reported":1742047693,"current_range_meters":16400,"station_id":"ce4bhgp2rcd13ifvqfd0","pricing_plan_id":"cebpf4jnsgd1na2vs0mg"},{"bike_id":"fd99b38e-f5be-4a9b-a98b-725cd824819e","system_id":"levelo_inurba_marseille","lat":43.28575,"lon":5.395,"is_reserved":false,"is_disabled":false,"rental_uris":{"android":"levelo://app?vid=fd99b38e-f5be-4a9b-a98b-725cd824819e","ios":"levelo://app?vid=fd99b38e-f5be-4a9b-a98b-725cd824819e"},"vehicle_type_id":"4","last_reported":1742047693,"current_range_meters":16000,"station_id":"ce4bh292rcd13ifvqdg0","pricing_plan_id":"cebpf4jnsgd1na2vs0mg"},{"bike_id":"c9423b00-6659-479b-a3d2-149dabea63c9","system_id":"levelo_inurba_marseille","lat":43.304783,"lon":5.431899,"is_reserved":false,"is_disabled":false,"rental_uris":{"android":"levelo://app?vid=c9423b00-6659-479b-a3d2-149dabea63c9","ios":"levelo://app?vid=c9423b00-6659-479b-a3d2-149dabea63c9"},"vehicle_type_id":"4","last_reported":1742047693,"current_range_meters":16400,"station_id":"ce4bhph2rcd13ifvqheg","pricing_plan_id":"cebpf4jnsgd1na2vs0mg"},{"bike_id":"10a5dfbf-3aa3-4cf3-ac17-cd4d12fd6782","system_id":"levelo_inurba_marseille","lat":43.32362,"lon":5.36765,"is_reserved":false,"is_disabled":false,"rental_uris":{"android":"levelo://app?vid=10a5dfbf-3aa3-4cf3-ac17-cd4d12fd6782","ios":"levelo://app?vid=10a5dfbf-3aa3-4cf3-ac17-cd4d12fd6782"},"vehicle_type_id":"4","last_reported":1742047693,"current_range_meters":16400,"station_id":"ce4bhsh2rcd13ifvqi2g","pricing_plan_id":"cebpf4jnsgd1na2vs0mg"},{"bike_id":"72e0b978-d2df-4180-a272-35356a966f65","system_id":"levelo_inurba_marseille","lat":43.30921,"lon":5.37192,"is_reserved":false,"is_disabled":false,"rental_uris":{"android":"levelo://app?vid=72e0b978-d2df-4180-a272-35356a966f65","ios":"levelo://app?vid=72e0b978-d2df-4180-a272-35356a966f65"},"vehicle_type_id":"4","last_reported":1742047693,"current_range_meters":16400,"station_id":"ce4bguh2rcd13ifvqckg","pricing_plan_id":"cebpf4jnsgd1na2vs0mg"},{"bike_id":"26f91158-7e3e-41fe-830b-736465375502","system_id":"levelo_inurba_marseille","lat":43.27619,"lon":5.36119,"is_reserved":false,"is_disabled":false,"rental_uris":{"android":"levelo://app?vid=26f91158-7e3e-41fe-830b-736465375502","ios":"levelo://app?vid=26f91158-7e3e-41fe-830b-736465375502"},"vehicle_type_id":"4","last_reported":1742047693,"current_range_meters":16400,"station_id":"ce4bgj92rcd13ifvqbe0","pricing_plan_id":"cebpf4jnsgd1na2vs0mg"},{"bike_id":"99c2d230-b794-4259-b025-8a2cd466930a","system_id":"levelo_inurba_marseille","lat":43.2467,"lon":5.38173,"is_reserved":false,"is_disabled":false,"rental_uris":{"android":"levelo://app?vid=99c2d230-b794-4259-b025-8a2cd466930a","ios":"levelo://app?vid=99c2d230-b794-4259-b025-8a2cd466930a"},"vehicle_type_id":"4","last_reported":1742047693,"current_range_meters":16400,"station_id":"ce4bhih2rcd13ifvqfr0","pricing_plan_id":"cebpf4jnsgd1na2vs0mg"},{"bike_id":"be35cd0a-d434-4cec-9731-085508cb9d5a","system_id":"levelo_inurba_marseille","lat":43.2842,"lon":5.34999,"is_reserved":false,"is_disabled":false,"rental_uris":{"android":"levelo://app?vid=be35cd0a-d434-4cec-9731-085508cb9d5a","ios":"levelo://app?vid=be35cd0a-d434-4cec-9731-085508cb9d5a"},"vehicle_type_id":"4","last_reported":1742047693,"current_range_meters":16400,"station_id":"ce4bhbh2rcd13ifvqepg","pricing_plan_id":"cebpf4jnsgd1na2vs0mg"},{"bike_id":"7099c38a-2986-4dc9-9398-307b562f7d30","system_id":"levelo_inurba_marseille","lat":43.25919,"lon":5.4087,"is_reserved":false,"is_disabled":false,"rental_uris":{"android":"levelo://app?vid=7099c38a-2986-4dc9-9398-307b562f7d30","ios":"levelo://app?vid=7099c38a-2986-4dc9-9398-307b562f7d30"},"vehicle_type_id":"4","last_reported":1742047693,"current_range_meters":16400,"station_id":"ce4bhm92rcd13ifvqglg","pricing_plan_id":"cebpf4jnsgd1na2vs0mg"},{"bike_id":"3c528f7f-712c-435c-b5d4-a5694a485d73","system_id":"levelo_inurba_marseille","lat":43.29893,"lon":5.43666,"is_reserved":false,"is_disabled":false,"rental_uris":{"android":"levelo://app?vid=3c528f7f-712c-435c-b5d4-a5694a485d73","ios":"levelo://app?vid=3c528f7f-712c-435c-b5d4-a5694a485d73"},"vehicle_type_id":"4","last_reported":1742047693,"current_range_meters":16400,"station_id":"ce4bhpp2rcd13ifvqhfg","pricing_plan_id":"cebpf4jnsgd1na2vs0mg"},{"bike_id":"551e6ea4-b2c3-4b91-bd65-a5ffe8a40a3b","system_id":"levelo_inurba_marseille","lat":43.29282,"lon":5.36839,"is_reserved":false,"is_disabled":false,"rental_uris":{"android":"levelo://app?vid=551e6ea4-b2c3-4b91-bd65-a5ffe8a40a3b","ios":"levelo://app?vid=551e6ea4-b2c3-4b91-bd65-a5ffe8a40a3b"},"vehicle_type_id":"4","last_reported":1742047693,"current_range_meters":16400,"station_id":"ce4bhbp2rcd13ifvqesg","pricing_plan_id":"cebpf4jnsgd1na2vs0mg"},{"bike_id":"81ee246f-1f57-4d9f-80d6-a6a8a0c42a0e","system_id":"levelo_inurba_marseille","lat":43.2621,"lon":5.37479,"is_reserved":false,"is_disabled":false,"rental_uris":{"android":"levelo://app?vid=81ee246f-1f57-4d9f-80d6-a6a8a0c42a0e","ios":"levelo://app?vid=81ee246f-1f57-4d9f-80d6-a6a8a0c42a0e"},"vehicle_type_id":"4","last_reported":1742047693,"current_range_meters":16400,"station_id":"ce4bhgp2rcd13ifvqfc0","pricing_plan_id":"cebpf4jnsgd1na2vs0mg"},{"bike_id":"0da1c770-5687-4af1-9877-11ab2a164fbc","system_id":"levelo_inurba_marseille","lat":43.28278,"lon":5.35079,"is_reserved":false,"is_disabled":false,"rental_uris":{"android":"levelo://app?vid=0da1c770-5687-4af1-9877-11ab2a164fbc","ios":"levelo://app?vid=0da1c770-5687-4af1-9877-11ab2a164fbc"},"vehicle_type_id":"4","last_reported":1742047693,"current_range_meters":16400,"station_id":"ce4bhbp2rcd13ifvqerg","pricing_plan_id":"cebpf4jnsgd1na2vs0mg"},{"bike_id":"d56abcb0-78f8-401e-aa00-cd0fdc6bb985","system_id":"levelo_inurba_marseille","lat":43.29852,"lon":5.36286,"is_reserved":false,"is_disabled":false,"rental_uris":{"android":"levelo://app?vid=d56abcb0-78f8-401e-aa00-cd0fdc6bb985","ios":"levelo://app?vid=d56abcb0-78f8-401e-aa00-cd0fdc6bb985"},"vehicle_type_id":"4","last_reported":1742047693,"current_range_meters":16800,"station_id":"ce4bgpp2rcd13ifvqc3g","pricing_plan_id":"cebpf4jnsgd1na2vs0mg"},{"bike_id":"b724093a-27fd-4355-abbd-8a0904cfcf7c","system_id":"levelo_inurba_marseille","lat":43.29968,"lon":5.38508,"is_reserved":false,"is_disabled":false,"rental_uris":{"android":"levelo://app?vid=b724093a-27fd-4355-abbd-8a0904cfcf7c","ios":"levelo://app?vid=b724093a-27fd-4355-abbd-8a0904cfcf7c"},"vehicle_type_id":"4","last_reported":1742047693,"current_range_meters":16800,"station_id":"ce4bgj92rcd13ifvqbd0","pricing_plan_id":"cebpf4jnsgd1na2vs0mg"},{"bike_id":"bafd57f9-42ca-4d51-b0a0-95f66f340e25","system_id":"levelo_inurba_marseille","lat":43.2584,"lon":5.39435,"is_reserved":false,"is_disabled":false,"rental_uris":{"android":"levelo://app?vid=bafd57f9-42ca-4d51-b0a0-95f66f340e25","ios":"levelo://app?vid=bafd57f9-42ca-4d51-b0a0-95f66f340e25"},"vehicle_type_id":"4","last_reported":1742047693,"current_range_meters":16800,"station_id":"ce4bhip2rcd13ifvqft0","pricing_plan_id":"cebpf4jnsgd1na2vs0mg"},{"bike_id":"72b150f7-d48c-49c0-8c26-b7424d817d08","system_id":"levelo_inurba_marseille","lat":43.26784,"lon":5.39415,"is_reserved":false,"is_disabled":false,"rental_uris":{"android":"levelo://app?vid=72b150f7-d48c-49c0-8c26-b7424d817d08","ios":"levelo://app?vid=72b150f7-d48c-49c0-8c26-b7424d817d08"},"vehicle_type_id":"4","last_reported":1742047693,"current_range_meters":16400,"station_id":"ce4bhh12rcd13ifvqfg0","pricing_plan_id":"cebpf4jnsgd1na2vs0mg"},{"bike_id":"24eabb97-bbbd-4071-946e-7be7578ed00c","system_id":"levelo_inurba_marseille","lat":43.2657,"lon":5.39005,"is_reserved":false,"is_disabled":false,"rental_uris":{"android":"levelo://app?vid=24eabb97-bbbd-4071-946e-7be7578ed00c","ios":"levelo://app?vid=24eabb97-bbbd-4071-946e-7be7578ed00c"},"vehicle_type_id":"4","last_reported":1742047693,"current_range_meters":16800,"station_id":"ce4bhe12rcd13ifvqf30","pricing_plan_id":"cebpf4jnsgd1na2vs0mg"},{"bike_id":"5efcdc6d-0fad-43e0-9e69-5807f2e3baf5","system_id":"levelo_inurba_marseille","lat":43.24805,"lon":5.37455,"is_reserved":false,"is_disabled":false,"rental_uris":{"android":"levelo://app?vid=5efcdc6d-0fad-43e0-9e69-5807f2e3baf5","ios":"levelo://app?vid=5efcdc6d-0fad-43e0-9e69-5807f2e3baf5"},"vehicle_type_id":"4","last_reported":1742047693,"current_range_meters":16800,"station_id":"ce4bhgh2rcd13ifvqfb0","pricing_plan_id":"cebpf4jnsgd1na2vs0mg"},{"bike_id":"5a61a616-683f-484d-83ae-d7f61143d634","system_id":"levelo_inurba_marseille","lat":43.29527,"lon":5.42466,"is_reserved":false,"is_disabled":false,"rental_uris":{"android":"levelo://app?vid=5a61a616-683f-484d-83ae-d7f61143d634","ios":"levelo://app?vid=5a61a616-683f-484d-83ae-d7f61143d634"},"vehicle_type_id":"4","last_reported":1742047693,"current_range_meters":17200,"station_id":"","pricing_plan_id":"cebpf4jnsgd1na2vs0mg"},{"bike_id":"36790528-948e-478f-9cee-4c4bced6bbc0","system_id":"levelo_inurba_marseille","lat":43.2827,"lon":5.35065,"is_reserved":false,"is_disabled":false,"rental_uris":{"android":"levelo://app?vid=36790528-948e-478f-9cee-4c4bced6bbc0","ios":"levelo://app?vid=36790528-948e-478f-9cee-4c4bced6bbc0"},"vehicle_type_id":"4","last_reported":1742047693,"current_range_meters":17200,"station_id":"ce4bhbp2rcd13ifvqerg","pricing_plan_id":"cebpf4jnsgd1na2vs0mg"},{"bike_id":"1992154a-c251-4624-b081-4d6c3e4978c8","system_id":"levelo_inurba_marseille","lat":43.31073,"lon":5.38357,"is_reserved":false,"is_disabled":false,"rental_uris":{"android":"levelo://app?vid=1992154a-c251-4624-b081-4d6c3e4978c8","ios":"levelo://app?vid=1992154a-c251-4624-b081-4d6c3e4978c8"},"vehicle_type_id":"4","last_reported":1742047693,"current_range_meters":17200,"station_id":"ce4bgv92rcd13ifvqcr0","pricing_plan_id":"cebpf4jnsgd1na2vs0mg"},{"bike_id":"6ced5b02-77c4-4c4b-8f2e-53ab9053f6f6","system_id":"levelo_inurba_marseille","lat":43.30606,"lon":5.37229,"is_reserved":false,"is_disabled":false,"rental_uris":{"android":"levelo://app?vid=6ced5b02-77c4-4c4b-8f2e-53ab9053f6f6","ios":"levelo://app?vid=6ced5b02-77c4-4c4b-8f2e-53ab9053f6f6"},"vehicle_type_id":"4","last_reported":1742047693,"current_range_meters":17200,"station_id":"ce4bgqh2rcd13ifvqc4g","pricing_plan_id":"cebpf4jnsgd1na2vs0mg"},{"bike_id":"ea3faa2e-2727-4cd3-a354-57574da4893b","system_id":"levelo_inurba_marseille","lat":43.24158,"lon":5.36408,"is_reserved":false,"is_disabled":false,"rental_uris":{"android":"levelo://app?vid=ea3faa2e-2727-4cd3-a354-57574da4893b","ios":"levelo://app?vid=ea3faa2e-2727-4cd3-a354-57574da4893b"},"vehicle_type_id":"4","last_reported":1742047693,"current_range_meters":17200,"station_id":"cpo36qri1sfpv3e86is0","pricing_plan_id":"cebpf4jnsgd1na2vs0mg"},{"bike_id":"9ce5b388-1538-4835-afbc-4423419dbdd8","system_id":"levelo_inurba_marseille","lat":43.231821,"lon":5.399891,"is_reserved":false,"is_disabled":false,"rental_uris":{"android":"levelo://app?vid=9ce5b388-1538-4835-afbc-4423419dbdd8","ios":"levelo://app?vid=9ce5b388-1538-4835-afbc-4423419dbdd8"},"vehicle_type_id":"4","last_reported":1742047693,"current_range_meters":17600,"station_id":"ce4bhh12rcd13ifvqfg0","pricing_plan_id":"cebpf4jnsgd1na2vs0mg"},{"bike_id":"ced7c84c-140e-4427-979d-4c9daef35f06","system_id":"levelo_inurba_marseille","lat":43.292297,"lon":5.38336,"is_reserved":false,"is_disabled":false,"rental_uris":{"android":"levelo://app?vid=ced7c84c-140e-4427-979d-4c9daef35f06","ios":"levelo://app?vid=ced7c84c-140e-4427-979d-4c9daef35f06"},"vehicle_type_id":"4","last_reported":1742047693,"current_range_meters":17600,"station_id":"ce4bh612rcd13ifvqe6g","pricing_plan_id":"cebpf4jnsgd1na2vs0mg"},{"bike_id":"9c31444e-2c00-4fed-8631-1d4d7cf706af","system_id":"levelo_inurba_marseille","lat":43.26497,"lon":5.39558,"is_reserved":false,"is_disabled":false,"rental_uris":{"android":"levelo://app?vid=9c31444e-2c00-4fed-8631-1d4d7cf706af","ios":"levelo://app?vid=9c31444e-2c00-4fed-8631-1d4d7cf706af"},"vehicle_type_id":"4","last_reported":1742047693,"current_range_meters":17600,"station_id":"ce4bhi12rcd13ifvqfq0","pricing_plan_id":"cebpf4jnsgd1na2vs0mg"},{"bike_id":"d261395a-d173-485a-98fd-3bc6c9cddfe8","system_id":"levelo_inurba_marseille","lat":43.25722,"lon":5.41109,"is_reserved":false,"is_disabled":false,"rental_uris":{"android":"levelo://app?vid=d261395a-d173-485a-98fd-3bc6c9cddfe8","ios":"levelo://app?vid=d261395a-d173-485a-98fd-3bc6c9cddfe8"},"vehicle_type_id":"4","last_reported":1742047693,"current_range_meters":17600,"station_id":"ce4bhkp2rcd13ifvqgd0","pricing_plan_id":"cebpf4jnsgd1na2vs0mg"},{"bike_id":"9f5de5f9-4a07-4ddf-a9ab-376de3aea109","system_id":"levelo_inurba_marseille","lat":43.3079,"lon":5.3764,"is_reserved":false,"is_disabled":false,"rental_uris":{"android":"levelo://app?vid=9f5de5f9-4a07-4ddf-a9ab-376de3aea109","ios":"levelo://app?vid=9f5de5f9-4a07-4ddf-a9ab-376de3aea109"},"vehicle_type_id":"4","last_reported":1742047693,"current_range_meters":17200,"station_id":"ce4bgv92rcd13ifvqcq0","pricing_plan_id":"cebpf4jnsgd1na2vs0mg"},{"bike_id":"869d6f04-490e-4aac-b78c-91d5502ba58c","system_id":"levelo_inurba_marseille","lat":43.25584,"lon":5.38228,"is_reserved":false,"is_disabled":false,"rental_uris":{"android":"levelo://app?vid=869d6f04-490e-4aac-b78c-91d5502ba58c","ios":"levelo://app?vid=869d6f04-490e-4aac-b78c-91d5502ba58c"},"vehicle_type_id":"4","last_reported":1742047693,"current_range_meters":17200,"station_id":"ce4bhih2rcd13ifvqfs0","pricing_plan_id":"cebpf4jnsgd1na2vs0mg"},{"bike_id":"19d9ce3c-8bc6-4336-96d5-f5a8f0d3c924","system_id":"levelo_inurba_marseille","lat":43.28609,"lon":5.37061,"is_reserved":false,"is_disabled":false,"rental_uris":{"android":"levelo://app?vid=19d9ce3c-8bc6-4336-96d5-f5a8f0d3c924","ios":"levelo://app?vid=19d9ce3c-8bc6-4336-96d5-f5a8f0d3c924"},"vehicle_type_id":"4","last_reported":1742047693,"current_range_meters":17600,"station_id":"ce4bht12rcd13ifvqi60","pricing_plan_id":"cebpf4jnsgd1na2vs0mg"},{"bike_id":"69eaeb80-b98d-4ca3-9967-4261adfdb393","system_id":"levelo_inurba_marseille","lat":43.27916,"lon":5.39579,"is_reserved":false,"is_disabled":false,"rental_uris":{"android":"levelo://app?vid=69eaeb80-b98d-4ca3-9967-4261adfdb393","ios":"levelo://app?vid=69eaeb80-b98d-4ca3-9967-4261adfdb393"},"vehicle_type_id":"4","last_reported":1742047693,"current_range_meters":17600,"station_id":"ce4bhf92rcd13ifvqf40","pricing_plan_id":"cebpf4jnsgd1na2vs0mg"},{"bike_id":"5add3064-8388-4e9f-88f4-44eba9984748","system_id":"levelo_inurba_marseille","lat":43.29033,"lon":5.38668,"is_reserved":false,"is_disabled":false,"rental_uris":{"android":"levelo://app?vid=5add3064-8388-4e9f-88f4-44eba9984748","ios":"levelo://app?vid=5add3064-8388-4e9f-88f4-44eba9984748"},"vehicle_type_id":"4","last_reported":1742047693,"current_range_meters":17600,"station_id":"ce4bh4p2rcd13ifvqe0g","pricing_plan_id":"cebpf4jnsgd1na2vs0mg"},{"bike_id":"e431f6e7-c256-4a03-81b2-9044257b3488","system_id":"levelo_inurba_marseille","lat":43.23975,"lon":5.36616,"is_reserved":false,"is_disabled":false,"rental_uris":{"android":"levelo://app?vid=e431f6e7-c256-4a03-81b2-9044257b3488","ios":"levelo://app?vid=e431f6e7-c256-4a03-81b2-9044257b3488"},"vehicle_type_id":"4","last_reported":1742047693,"current_range_meters":17600,"station_id":"ce4bhi12rcd13ifvqfp0","pricing_plan_id":"cebpf4jnsgd1na2vs0mg"},{"bike_id":"53ebb5d4-620d-4d5e-be51-076c0178dde1","system_id":"levelo_inurba_marseille","lat":43.24663,"lon":5.38161,"is_reserved":false,"is_disabled":false,"rental_uris":{"android":"levelo://app?vid=53ebb5d4-620d-4d5e-be51-076c0178dde1","ios":"levelo://app?vid=53ebb5d4-620d-4d5e-be51-076c0178dde1"},"vehicle_type_id":"4","last_reported":1742047693,"current_range_meters":17600,"station_id":"ce4bhih2rcd13ifvqfr0","pricing_plan_id":"cebpf4jnsgd1na2vs0mg"},{"bike_id":"41d856e8-014d-42b4-85e9-2a0a980f469f","system_id":"levelo_inurba_marseille","lat":43.23191,"lon":5.35556,"is_reserved":false,"is_disabled":false,"rental_uris":{"android":"levelo://app?vid=41d856e8-014d-42b4-85e9-2a0a980f469f","ios":"levelo://app?vid=41d856e8-014d-42b4-85e9-2a0a980f469f"},"vehicle_type_id":"4","last_reported":1742047693,"current_range_meters":18000,"station_id":"ce4bhu92rcd13ifvqi70","pricing_plan_id":"cebpf4jnsgd1na2vs0mg"},{"bike_id":"04724086-8598-4fa8-a8d4-02f8e382588d","system_id":"levelo_inurba_marseille","lat":43.28615,"lon":5.3511,"is_reserved":false,"is_disabled":false,"rental_uris":{"android":"levelo://app?vid=04724086-8598-4fa8-a8d4-02f8e382588d","ios":"levelo://app?vid=04724086-8598-4fa8-a8d4-02f8e382588d"},"vehicle_type_id":"4","last_reported":1742047693,"current_range_meters":18000,"station_id":"ce4bhch2rcd13ifvqeug","pricing_plan_id":"cebpf4jnsgd1na2vs0mg"},{"bike_id":"a61335b0-7268-4dc8-a76a-999c46e7e649","system_id":"levelo_inurba_marseille","lat":43.26568,"lon":5.39004,"is_reserved":false,"is_disabled":false,"rental_uris":{"android":"levelo://app?vid=a61335b0-7268-4dc8-a76a-999c46e7e649","ios":"levelo://app?vid=a61335b0-7268-4dc8-a76a-999c46e7e649"},"vehicle_type_id":"4","last_reported":1742047693,"current_range_meters":18000,"station_id":"ce4bhe12rcd13ifvqf30","pricing_plan_id":"cebpf4jnsgd1na2vs0mg"},{"bike_id":"9fb11dda-dcd5-4b41-b556-eaba24efbe9b","system_id":"levelo_inurba_marseille","lat":43.31081,"lon":5.42422,"is_reserved":false,"is_disabled":false,"rental_uris":{"android":"levelo://app?vid=9fb11dda-dcd5-4b41-b556-eaba24efbe9b","ios":"levelo://app?vid=9fb11dda-dcd5-4b41-b556-eaba24efbe9b"},"vehicle_type_id":"4","last_reported":1742047693,"current_range_meters":18000,"station_id":"ce4bhp92rcd13ifvqhag","pricing_plan_id":"cebpf4jnsgd1na2vs0mg"},{"bike_id":"c7bc90cf-55d8-412b-833a-b7e3874ead48","system_id":"levelo_inurba_marseille","lat":43.28937,"lon":5.36647,"is_reserved":false,"is_disabled":false,"rental_uris":{"android":"levelo://app?vid=c7bc90cf-55d8-412b-833a-b7e3874ead48","ios":"levelo://app?vid=c7bc90cf-55d8-412b-833a-b7e3874ead48"},"vehicle_type_id":"4","last_reported":1742047693,"current_range_meters":18000,"station_id":"ce4bhap2rcd13ifvqek0","pricing_plan_id":"cebpf4jnsgd1na2vs0mg"},{"bike_id":"15114da5-30fb-4fb1-9632-866a9f4be863","system_id":"levelo_inurba_marseille","lat":43.29652,"lon":5.36535,"is_reserved":false,"is_disabled":false,"rental_uris":{"android":"levelo://app?vid=15114da5-30fb-4fb1-9632-866a9f4be863","ios":"levelo://app?vid=15114da5-30fb-4fb1-9632-866a9f4be863"},"vehicle_type_id":"4","last_reported":1742047693,"current_range_meters":18000,"station_id":"","pricing_plan_id":"cebpf4jnsgd1na2vs0mg"},{"bike_id":"08312652-cb2b-4a81-b98a-c6922cb118b3","system_id":"levelo_inurba_marseille","lat":43.28263,"lon":5.35066,"is_reserved":false,"is_disabled":false,"rental_uris":{"android":"levelo://app?vid=08312652-cb2b-4a81-b98a-c6922cb118b3","ios":"levelo://app?vid=08312652-cb2b-4a81-b98a-c6922cb118b3"},"vehicle_type_id":"4","last_reported":1742047693,"current_range_meters":18800,"station_id":"ce4bhbp2rcd13ifvqerg","pricing_plan_id":"cebpf4jnsgd1na2vs0mg"},{"bike_id":"afbb2afe-b65d-4f6e-bf3f-b29ba40c094b","system_id":"levelo_inurba_marseille","lat":43.272146,"lon":5.391909,"is_reserved":false,"is_disabled":false,"rental_uris":{"android":"levelo://app?vid=afbb2afe-b65d-4f6e-bf3f-b29ba40c094b","ios":"levelo://app?vid=afbb2afe-b65d-4f6e-bf3f-b29ba40c094b"},"vehicle_type_id":"4","last_reported":1742047693,"current_range_meters":18800,"station_id":"ce4bhhp2rcd13ifvqfm0","pricing_plan_id":"cebpf4jnsgd1na2vs0mg"},{"bike_id":"be774072-f85a-4f4c-bd93-a39ad8a34ec1","system_id":"levelo_inurba_marseille","lat":43.31819,"lon":5.37252,"is_reserved":false,"is_disabled":false,"rental_uris":{"android":"levelo://app?vid=be774072-f85a-4f4c-bd93-a39ad8a34ec1","ios":"levelo://app?vid=be774072-f85a-4f4c-bd93-a39ad8a34ec1"},"vehicle_type_id":"4","last_reported":1742047693,"current_range_meters":18800,"station_id":"","pricing_plan_id":"cebpf4jnsgd1na2vs0mg"},{"bike_id":"ce461d73-d5ef-47e5-bd96-066feda10ed7","system_id":"levelo_inurba_marseille","lat":43.23199,"lon":5.3555,"is_reserved":false,"is_disabled":false,"rental_uris":{"android":"levelo://app?vid=ce461d73-d5ef-47e5-bd96-066feda10ed7","ios":"levelo://app?vid=ce461d73-d5ef-47e5-bd96-066feda10ed7"},"vehicle_type_id":"4","last_reported":1742047693,"current_range_meters":18800,"station_id":"ce4bhu92rcd13ifvqi70","pricing_plan_id":"cebpf4jnsgd1na2vs0mg"},{"bike_id":"286213bd-2c68-4f42-997e-cbba0e1aa1a9","system_id":"levelo_inurba_marseille","lat":43.29444,"lon":5.39763,"is_reserved":false,"is_disabled":false,"rental_uris":{"android":"levelo://app?vid=286213bd-2c68-4f42-997e-cbba0e1aa1a9","ios":"levelo://app?vid=286213bd-2c68-4f42-997e-cbba0e1aa1a9"},"vehicle_type_id":"4","last_reported":1742047693,"current_range_meters":19200,"station_id":"ce4bh3h2rcd13ifvqdo0","pricing_plan_id":"cebpf4jnsgd1na2vs0mg"},{"bike_id":"86f39889-c968-43c3-a75d-eddfb40c159a","system_id":"levelo_inurba_marseille","lat":43.29255,"lon":5.40916,"is_reserved":false,"is_disabled":false,"rental_uris":{"android":"levelo://app?vid=86f39889-c968-43c3-a75d-eddfb40c159a","ios":"levelo://app?vid=86f39889-c968-43c3-a75d-eddfb40c159a"},"vehicle_type_id":"4","last_reported":1742047693,"current_range_meters":18800,"station_id":"ce4bh192rcd13ifvqdc0","pricing_plan_id":"cebpf4jnsgd1na2vs0mg"},{"bike_id":"7fdaba83-9e71-4d79-962d-8e9bcb4ba61b","system_id":"levelo_inurba_marseille","lat":43.23195,"lon":5.35553,"is_reserved":false,"is_disabled":false,"rental_uris":{"android":"levelo://app?vid=7fdaba83-9e71-4d79-962d-8e9bcb4ba61b","ios":"levelo://app?vid=7fdaba83-9e71-4d79-962d-8e9bcb4ba61b"},"vehicle_type_id":"4","last_reported":1742047693,"current_range_meters":18800,"station_id":"ce4bhu92rcd13ifvqi70","pricing_plan_id":"cebpf4jnsgd1na2vs0mg"},{"bike_id":"70aa6974-dc0c-4fe9-9f60-f6d0efdb33ad","system_id":"levelo_inurba_marseille","lat":43.29307,"lon":5.37459,"is_reserved":false,"is_disabled":false,"rental_uris":{"android":"levelo://app?vid=70aa6974-dc0c-4fe9-9f60-f6d0efdb33ad","ios":"levelo://app?vid=70aa6974-dc0c-4fe9-9f60-f6d0efdb33ad"},"vehicle_type_id":"4","last_reported":1742047693,"current_range_meters":18800,"station_id":"ce4bgi12rcd13ifvqb70","pricing_plan_id":"cebpf4jnsgd1na2vs0mg"},{"bike_id":"7c2af7af-f88a-470c-9c8c-4d70b931fe99","system_id":"levelo_inurba_marseille","lat":43.29285,"lon":5.36843,"is_reserved":false,"is_disabled":false,"rental_uris":{"android":"levelo://app?vid=7c2af7af-f88a-470c-9c8c-4d70b931fe99","ios":"levelo://app?vid=7c2af7af-f88a-470c-9c8c-4d70b931fe99"},"vehicle_type_id":"4","last_reported":1742047693,"current_range_meters":18800,"station_id":"ce4bhbp2rcd13ifvqesg","pricing_plan_id":"cebpf4jnsgd1na2vs0mg"},{"bike_id":"2d3ba28c-a642-4e22-b1f3-d6257978e1ff","system_id":"levelo_inurba_marseille","lat":43.28615,"lon":5.35109,"is_reserved":false,"is_disabled":false,"rental_uris":{"android":"levelo://app?vid=2d3ba28c-a642-4e22-b1f3-d6257978e1ff","ios":"levelo://app?vid=2d3ba28c-a642-4e22-b1f3-d6257978e1ff"},"vehicle_type_id":"4","last_reported":1742047693,"current_range_meters":18800,"station_id":"ce4bhch2rcd13ifvqeug","pricing_plan_id":"cebpf4jnsgd1na2vs0mg"},{"bike_id":"21c3a2d0-9cfc-4e59-8b86-d2bafeea2019","system_id":"levelo_inurba_marseille","lat":43.31706,"lon":5.40465,"is_reserved":false,"is_disabled":false,"rental_uris":{"android":"levelo://app?vid=21c3a2d0-9cfc-4e59-8b86-d2bafeea2019","ios":"levelo://app?vid=21c3a2d0-9cfc-4e59-8b86-d2bafeea2019"},"vehicle_type_id":"4","last_reported":1742047693,"current_range_meters":18800,"station_id":"ce4bh012rcd13ifvqd00","pricing_plan_id":"cebpf4jnsgd1na2vs0mg"},{"bike_id":"5b8c5759-a035-4474-8e41-b545ad5d3451","system_id":"levelo_inurba_marseille","lat":43.23153,"lon":5.43714,"is_reserved":false,"is_disabled":false,"rental_uris":{"android":"levelo://app?vid=5b8c5759-a035-4474-8e41-b545ad5d3451","ios":"levelo://app?vid=5b8c5759-a035-4474-8e41-b545ad5d3451"},"vehicle_type_id":"4","last_reported":1742047693,"current_range_meters":18800,"station_id":"ce4bhmp2rcd13ifvqgog","pricing_plan_id":"cebpf4jnsgd1na2vs0mg"},{"bike_id":"8aef3c32-1862-4a3d-92d6-b5b12b9075e6","system_id":"levelo_inurba_marseille","lat":43.2922,"lon":5.36066,"is_reserved":false,"is_disabled":false,"rental_uris":{"android":"levelo://app?vid=8aef3c32-1862-4a3d-92d6-b5b12b9075e6","ios":"levelo://app?vid=8aef3c32-1862-4a3d-92d6-b5b12b9075e6"},"vehicle_type_id":"4","last_reported":1742047693,"current_range_meters":18800,"station_id":"ce4bhbh2rcd13ifvqeqg","pricing_plan_id":"cebpf4jnsgd1na2vs0mg"},