{"last_updated":1753607481,"ttl":60,"version":"2.2","data":{"bikes":[{"bike_id":"ff30a5ee-0e9d-4bfa-a593-c7beaf9df463","system_id":"levelo_inurba_marseille","lat":43.335387,"lon":5.362052,"is_reserved":false,"is_disabled":false,"rental_uris":{"android":"levelo://app?vid=ff30a5ee-0e9d-4bfa-a593-c7beaf9df463","ios":"levelo://app?vid=ff30a5ee-0e9d-4bfa-a593-c7beaf9df463"},"vehicle_type_id":"4","last_reported":1753607481,"current_range_meters":2800,"station_id":"","pricing_plan_id":"cebpf4jnsgd1na2vs0mg"},{"bike_id":"1a522a76-af21-4404-9a34-f386a47763db","system_id":"levelo_inurba_marseille","lat":43.26203,"lon":5.3793,"is_reserved":false,"is_disabled":false,"rental_uris":{"android":"levelo://app?vid=1a522a76-af21-4404-9a34-f386a47763db","ios":"levelo://app?vid=1a522a76-af21-4404-9a34-f386a47763db"},"vehicle_type_id":"4","last_reported":1753607481,"current_range_meters":3200,"station_id":"ce4bhjp2rcd13ifvqg90","pricing_plan_id":"cebpf4jnsgd1na2vs0mg"},{"bike_id":"796678ba-3ab3-4652-be44-e3648a2990ed","system_id":"levelo_inurba_marseille","lat":43.30179,"lon":5.38066,"is_reserved":false,"is_disabled":false,"rental_uris":{"android":"levelo://app?vid=796678ba-3ab3-4652-be44-e3648a2990ed","ios":"levelo://app?vid=796678ba-3ab3-4652-be44-e3648a2990ed"},"vehicle_type_id":"4","last_reported":1753607481,"current_range_meters":3200,"station_id":"ce4bgjp2rcd13ifvqbh0","pricing_plan_id":"cebpf4jnsgd1na2vs0mg"},{"bike_id":"659696a2-3854-4019-bdd0-5ad56ba4750d","system_id":"levelo_inurba_marseille","lat":43.28159,"lon":5.42637,"is_reserved":false,"is_disabled":true,"rental_uris":{"android":"levelo://app?vid=659696a2-3854-4019-bdd0-5ad56ba4750d","ios":"levelo://app?vid=659696a2-3854-4019-bdd0-5ad56ba4750d"},"vehicle_type_id":"4","last_reported":1753607481,"current_range_meters":3600,"station_id":"ce4bhnh2rcd13ifvqgug","pricing_plan_id":"cebpf4jnsgd1na2vs0mg"},{"bike_id":"b9d90a33-242e-4108-916f-926fe59baba6","system_id":"levelo_inurba_marseille","lat":43.286252,"lon":5.383543,"is_reserved":false,"is_disabled":false,"rental_uris":{"android":"levelo://app?vid=b9d90a33-242e-4108-916f-926fe59baba6","ios":"levelo://app?vid=b9d90a33-242e-4108-916f-926fe59baba6"},"vehicle_type_id":"4","last_reported":1753607481,"current_range_meters":3600,"station_id":"","pricing_plan_id":"cebpf4jnsgd1na2vs0mg"},{"bike_id":"8b454f8e-a2cc-4f8a-9b75-defe6a01169e","system_id":"levelo_inurba_marseille","lat":43.287208,"lon":5.375053,"is_reserved":false,"is_disabled":false,"rental_uris":{"android":"levelo://app?vid=8b454f8e-a2cc-4f8a-9b75-defe6a01169e","ios":"levelo://app?vid=8b454f8e-a2cc-4f8a-9b75-defe6a01169e"},"vehicle_type_id":"4","last_reported":1753607481,"current_range_meters":4000,"station_id":"","pricing_plan_id":"cebpf4jnsgd1na2vs0mg"},{"bike_id":"3880f549-e9a8-4e14-91a6-528ce8b1c22a","system_id":"levelo_inurba_marseille","lat":43.330244,"lon":5.390267,"is_reserved":false,"is_disabled":false,"rental_uris":{"android":"levelo://app?vid=3880f549-e9a8-4e14-91a6-528ce8b1c22a","ios":"levelo://app?vid=3880f549-e9a8-4e14-91a6-528ce8b1c22a"},"vehicle_type_id":"4","last_reported":1753607481,"current_range_meters":4400,"station_id":"ce4bhr92rcd13ifvqhrg","pricing_plan_id":"cebpf4jnsgd1na2vs0mg"},{"bike_id":"5892f4b3-56e1-4764-9ca3-16e354139cdb","system_id":"levelo_inurba_marseille","lat":43.29868,"lon":5.38901,"is_reserved":false,"is_disabled":false,"rental_uris":{"android":"levelo://app?vid=5892f4b3-56e1-4764-9ca3-16e354139cdb","ios":"levelo://app?vid=5892f4b3-56e1-4764-9ca3-16e354139cdb"},"vehicle_type_id":"4","last_reported":1753607481,"current_range_meters":4800,"station_id":"ce4bh392rcd13ifvqdl0","pricing_plan_id":"cebpf4jnsgd1na2vs0mg"},{"bike_id":"078febbd-6d49-4abf-8b46-d33f87f8da46","system_id":"levelo_inurba_marseille","lat":43.25452,"lon":5.38007,"is_reserved":false,"is_disabled":true,"rental_uris":{"android":"levelo://app?vid=078febbd-6d49-4abf-8b46-d33f87f8da46","ios":"levelo://app?vid=078febbd-6d49-4abf-8b46-d33f87f8da46"},"vehicle_type_id":"4","last_reported":1753607481,"current_range_meters":4800,"station_id":"","pricing_plan_id":"cebpf4jnsgd1na2vs0mg"},{"bike_id":"2325751d-867b-49df-8863-056e8656ae73","system_id":"levelo_inurba_marseille","lat":43.3027,"lon":5.40054,"is_reserved":false,"is_disabled":false,"rental_uris":{"android":"levelo://app?vid=2325751d-867b-49df-8863-056e8656ae73","ios":"levelo://app?vid=2325751d-867b-49df-8863-056e8656ae73"},"vehicle_type_id":"4","last_reported":1753607481,"current_range_meters":5600,"station_id":"ce4bgvh2rcd13ifvqcs0","pricing_plan_id":"cebpf4jnsgd1na2vs0mg"},{"bike_id":"f123af25-f5e1-4535-bf9a-e453fb7322cc","system_id":"levelo_inurba_marseille","lat":43.27532,"lon":5.40921,"is_reserved":false,"is_disabled":true,"rental_uris":{"android":"levelo://app?vid=f123af25-f5e1-4535-bf9a-e453fb7322cc","ios":"levelo://app?vid=f123af25-f5e1-4535-bf9a-e453fb7322cc"},"vehicle_type_id":"4","last_reported":1753607481,"current_range_meters":6000,"station_id":"","pricing_plan_id":"cebpf4jnsgd1na2vs0mg"},{"bike_id":"8aec49e9-2a7c-473f-936a-01f180d46c56","system_id":"levelo_inurba_marseille","lat":43.224962,"lon":5.34796,"is_reserved":false,"is_disabled":false,"rental_uris":{"android":"levelo://app?vid=8aec49e9-2a7c-473f-936a-01f180d46c56","ios":"levelo://app?vid=8aec49e9-2a7c-473f-936a-01f180d46c56"},"vehicle_type_id":"4","last_reported":1753607481,"current_range_meters":6000,"station_id":"st_cvj5dfep6f1abm77gieg","pricing_plan_id":"cebpf4jnsgd1na2vs0mg"},{"bike_id":"ba06f5a1-4ae2-4e44-8893-00e7cba36d40","system_id":"levelo_inurba_marseille","lat":43.29195,"lon":5.39338,"is_reserved":false,"is_disabled":false,"rental_uris":{"android":"levelo://app?vid=ba06f5a1-4ae2-4e44-8893-00e7cba36d40","ios":"levelo://app?vid=ba06f5a1-4ae2-4e44-8893-00e7cba36d40"},"vehicle_type_id":"4","last_reported":1753607481,"current_range_meters":6000,"station_id":"ce4bh192rcd13ifvqdd0","pricing_plan_id":"cebpf4jnsgd1na2vs0mg"},{"bike_id":"10b56f0a-b893-4b08-b87f-1ca575285c1c","system_id":"levelo_inurba_marseille","lat":43.29048,"lon":5.37179,"is_reserved":false,"is_disabled":false,"rental_uris":{"android":"levelo://app?vid=10b56f0a-b893-4b08-b87f-1ca575285c1c","ios":"levelo://app?vid=10b56f0a-b893-4b08-b87f-1ca575285c1c"},"vehicle_type_id":"4","last_reported":1753607481,"current_range_meters":6000,"station_id":"ce4bh5p2rcd13ifvqe4g","pricing_plan_id":"cebpf4jnsgd1na2vs0mg"},{"bike_id":"e66ee824-6a62-4974-99a8-34cafcecb590","system_id":"levelo_inurba_marseille","lat":43.27311,"lon":5.39081,"is_reserved":false,"is_disabled":false,"rental_uris":{"android":"levelo://app?vid=e66ee824-6a62-4974-99a8-34cafcecb590","ios":"levelo://app?vid=e66ee824-6a62-4974-99a8-34cafcecb590"},"vehicle_type_id":"4","last_reported":1753607481,"current_range_meters":6400,"station_id":"ce4bhgp2rcd13ifvqfe0","pricing_plan_id":"cebpf4jnsgd1na2vs0mg"},{"bike_id":"acdc15f3-f881-4795-bd43-7b1b297ebaa4","system_id":"levelo_inurba_marseille","lat":43.2708,"lon":5.42278,"is_reserved":false,"is_disabled":true,"rental_uris":{"android":"levelo://app?vid=acdc15f3-f881-4795-bd43-7b1b297ebaa4","ios":"levelo://app?vid=acdc15f3-f881-4795-bd43-7b1b297ebaa4"},"vehicle_type_id":"4","last_reported":1753607481,"current_range_meters":6400,"station_id":"ce4bhk92rcd13ifvqgb0","pricing_plan_id":"cebpf4jnsgd1na2vs0mg"},{"bike_id":"3b17c3d5-8dc4-4295-ba70-b1f153ad89d1","system_id":"levelo_inurba_marseille","lat":43.30137,"lon":5.38063,"is_reserved":false,"is_disabled":false,"rental_uris":{"android":"levelo://app?vid=3b17c3d5-8dc4-4295-ba70-b1f153ad89d1","ios":"levelo://app?vid=3b17c3d5-8dc4-4295-ba70-b1f153ad89d1"},"vehicle_type_id":"4","last_reported":1753607481,"current_range_meters":6400,"station_id":"ce4bgjp2rcd13ifvqbh0","pricing_plan_id":"cebpf4jnsgd1na2vs0mg"},{"bike_id":"27baf994-6808-43b7-a590-71798e12bd65","system_id":"levelo_inurba_marseille","lat":43.29791,"lon":5.37094,"is_reserved":false,"is_disabled":false,"rental_uris":{"android":"levelo://app?vid=27baf994-6808-43b7-a590-71798e12bd65","ios":"levelo://app?vid=27baf994-6808-43b7-a590-71798e12bd65"},"vehicle_type_id":"4","last_reported":1753607481,"current_range_meters":6400,"station_id":"ce4bgop2rcd13ifvqc1g","pricing_plan_id":"cebpf4jnsgd1na2vs0mg"},{"bike_id":"f2184493-17fc-43eb-baa2-c5af709ef3a0","system_id":"levelo_inurba_marseille","lat":43.30936,"lon":5.40151,"is_reserved":false,"is_disabled":false,"rental_uris":{"android":"levelo://app?vid=f2184493-17fc-43eb-baa2-c5af709ef3a0","ios":"levelo://app?vid=f2184493-17fc-43eb-baa2-c5af709ef3a0"},"vehicle_type_id":"4","last_reported":1753607481,"current_range_meters":6800,"station_id":"ce4bgvp2rcd13ifvqct0","pricing_plan_id":"cebpf4jnsgd1na2vs0mg"},{"bike_id":"47dba6f9-a813-46aa-a47e-33063f264a67","system_id":"levelo_inurba_marseille","lat":43.302451,"lon":5.400659,"is_reserved":false,"is_disabled":false,"rental_uris":{"android":"levelo://app?vid=47dba6f9-a813-46aa-a47e-33063f264a67","ios":"levelo://app?vid=47dba6f9-a813-46aa-a47e-33063f264a67"},"vehicle_type_id":"4","last_reported":1753607481,"current_range_meters":6800,"station_id":"ce4bgvh2rcd13ifvqcs0","pricing_plan_id":"cebpf4jnsgd1na2vs0mg"},{"bike_id":"b7ed9571-0d35-4df5-9ba8-fcfa0cd8d52b","system_id":"levelo_inurba_marseille","lat":43.32597,"lon":5.37879,"is_reserved":false,"is_disabled":false,"rental_uris":{"android":"levelo://app?vid=b7ed9571-0d35-4df5-9ba8-fcfa0cd8d52b","ios":"levelo://app?vid=b7ed9571-0d35-4df5-9ba8-fcfa0cd8d52b"},"vehicle_type_id":"4","last_reported":1753607481,"current_range_meters":6800,"station_id":"","pricing_plan_id":"cebpf4jnsgd1na2vs0mg"},{"bike_id":"83a67c65-7f9b-4a81-a80c-c007cd448d24","system_id":"levelo_inurba_marseille","lat":43.292531,"lon":5.384314,"is_reserved":false,"is_disabled":false,"rental_uris":{"android":"levelo://app?vid=83a67c65-7f9b-4a81-a80c-c007cd448d24","ios":"levelo://app?vid=83a67c65-7f9b-4a81-a80c-c007cd448d24"},"vehicle_type_id":"4","last_reported":1753607481,"current_range_meters":6800,"station_id":"","pricing_plan_id":"cebpf4jnsgd1na2vs0mg"},{"bike_id":"9ecd9ef7-e07c-47cd-a7c3-5ed0d84c5b67","system_id":"levelo_inurba_marseille","lat":43.29143,"lon":5.37449,"is_reserved":false,"is_disabled":false,"rental_uris":{"android":"levelo://app?vid=9ecd9ef7-e07c-47cd-a7c3-5ed0d84c5b67","ios":"levelo://app?vid=9ecd9ef7-e07c-47cd-a7c3-5ed0d84c5b67"},"vehicle_type_id":"4","last_reported":1753607481,"current_range_meters":7200,"station_id":"","pricing_plan_id":"cebpf4jnsgd1na2vs0mg"},{"bike_id":"8414c65a-e2b6-4cab-b8f8-536a15b6717a","system_id":"levelo_inurba_marseille","lat":43.275883,"lon":5.360845,"is_reserved":false,"is_disabled":true,"rental_uris":{"android":"levelo://app?vid=8414c65a-e2b6-4cab-b8f8-536a15b6717a","ios":"levelo://app?vid=8414c65a-e2b6-4cab-b8f8-536a15b6717a"},"vehicle_type_id":"4","last_reported":1753607481,"current_range_meters":7200,"station_id":"ce4bgj92rcd13ifvqbe0","pricing_plan_id":"cebpf4jnsgd1na2vs0mg"},{"bike_id":"fc3e6120-f0f4-48c5-b584-9c2dcd5b3cc2","system_id":"levelo_inurba_marseille","lat":43.29278,"lon":5.36839,"is_reserved":false,"is_disabled":false,"rental_uris":{"android":"levelo://app?vid=fc3e6120-f0f4-48c5-b584-9c2dcd5b3cc2","ios":"levelo://app?vid=fc3e6120-f0f4-48c5-b584-9c2dcd5b3cc2"},"vehicle_type_id":"4","last_reported":1753607481,"current_range_meters":7200,"station_id":"ce4bhbp2rcd13ifvqesg","pricing_plan_id":"cebpf4jnsgd1na2vs0mg"},{"bike_id":"75a52d90-a84e-49e8-9197-7fd3f8d0259a","system_id":"levelo_inurba_marseille","lat":43.261943,"lon":5.374573,"is_reserved":false,"is_disabled":true,"rental_uris":{"android":"levelo://app?vid=75a52d90-a84e-49e8-9197-7fd3f8d0259a","ios":"levelo://app?vid=75a52d90-a84e-49e8-9197-7fd3f8d0259a"},"vehicle_type_id":"4","last_reported":1753607481,"current_range_meters":7200,"station_id":"ce4bhgp2rcd13ifvqfc0","pricing_plan_id":"cebpf4jnsgd1na2vs0mg"},{"bike_id":"8fc0b8f5-b4ad-4c04-b5f3-dd12c83de1f8","system_id":"levelo_inurba_marseille","lat":43.28033,"lon":5.36958,"is_reserved":false,"is_disabled":false,"rental_uris":{"android":"levelo://app?vid=8fc0b8f5-b4ad-4c04-b5f3-dd12c83de1f8","ios":"levelo://app?vid=8fc0b8f5-b4ad-4c04-b5f3-dd12c83de1f8"},"vehicle_type_id":"4","last_reported":1753607481,"current_range_meters":6800,"station_id":"ce4bha12rcd13ifvqef0","pricing_plan_id":"cebpf4jnsgd1na2vs0mg"},{"bike_id":"22dca147-1260-44d8-822d-d9d1d50cce31","system_id":"levelo_inurba_marseille","lat":43.27454,"lon":5.39581,"is_reserved":false,"is_disabled":true,"rental_uris":{"android":"levelo://app?vid=22dca147-1260-44d8-822d-d9d1d50cce31","ios":"levelo://app?vid=22dca147-1260-44d8-822d-d9d1d50cce31"},"vehicle_type_id":"4","last_reported":1753607481,"current_range_meters":8000,"station_id":"","pricing_plan_id":"cebpf4jnsgd1na2vs0mg"},{"bike_id":"01919711-51c0-4b9e-863e-584f9a31b4ec","system_id":"levelo_inurba_marseille","lat":43.29898,"lon":5.39743,"is_reserved":false,"is_disabled":true,"rental_uris":{"android":"levelo://app?vid=01919711-51c0-4b9e-863e-584f9a31b4ec","ios":"levelo://app?vid=01919711-51c0-4b9e-863e-584f9a31b4ec"},"vehicle_type_id":"4","last_reported":1753607481,"current_range_meters":8000,"station_id":"ce4bh0h2rcd13ifvqd50","pricing_plan_id":"cebpf4jnsgd1na2vs0mg"},{"bike_id":"0b6e37e1-db39-4d64-9941-7e484c9ea038","system_id":"levelo_inurba_marseille","lat":43.30153,"lon":5.38091,"is_reserved":false,"is_disabled":true,"rental_uris":{"android":"levelo://app?vid=0b6e37e1-db39-4d64-9941-7e484c9ea038","ios":"levelo://app?vid=0b6e37e1-db39-4d64-9941-7e484c9ea038"},"vehicle_type_id":"4","last_reported":1753607481,"current_range_meters":8000,"station_id":"ce4bgjp2rcd13ifvqbh0","pricing_plan_id":"cebpf4jnsgd1na2vs0mg"},{"bike_id":"a3fe9995-2e3e-423b-9540-429a92fa997e","system_id":"levelo_inurba_marseille","lat":43.3019,"lon":5.371673,"is_reserved":false,"is_disabled":false,"rental_uris":{"android":"levelo://app?vid=a3fe9995-2e3e-423b-9540-429a92fa997e","ios":"levelo://app?vid=a3fe9995-2e3e-423b-9540-429a92fa997e"},"vehicle_type_id":"4","last_reported":1753607481,"current_range_meters":8000,"station_id":"","pricing_plan_id":"cebpf4jnsgd1na2vs0mg"},{"bike_id":"6ab0b13c-2ff1-417a-acfd-489d6800d4c9","system_id":"levelo_inurba_marseille","lat":43.273753,"lon":5.362472,"is_reserved":false,"is_disabled":true,"rental_uris":{"android":"levelo://app?vid=6ab0b13c-2ff1-417a-acfd-489d6800d4c9","ios":"levelo://app?vid=6ab0b13c-2ff1-417a-acfd-489d6800d4c9"},"vehicle_type_id":"4","last_reported":1753607481,"current_range_meters":8000,"station_id":"ce4bhbh2rcd13ifvqeo0","pricing_plan_id":"cebpf4jnsgd1na2vs0mg"},{"bike_id":"8e878e8f-5d80-490d-b86c-324c23d42717","system_id":"levelo_inurba_marseille","lat":43.29195,"lon":5.40731,"is_reserved":false,"is_disabled":false,"rental_uris":{"android":"levelo://app?vid=8e878e8f-5d80-490d-b86c-324c23d42717","ios":"levelo://app?vid=8e878e8f-5d80-490d-b86c-324c23d42717"},"vehicle_type_id":"4","last_reported":1753607481,"current_range_meters":8400,"station_id":"","pricing_plan_id":"cebpf4jnsgd1na2vs0mg"},{"bike_id":"a520741a-dcb6-494d-9d43-0ad113907acb","system_id":"levelo_inurba_marseille","lat":43.29151,"lon":5.40162,"is_reserved":false,"is_disabled":false,"rental_uris":{"android":"levelo://app?vid=a520741a-dcb6-494d-9d43-0ad113907acb","ios":"levelo://app?vid=a520741a-dcb6-494d-9d43-0ad113907acb"},"vehicle_type_id":"4","last_reported":1753607481,"current_range_meters":8400,"station_id":"","pricing_plan_id":"cebpf4jnsgd1na2vs0mg"},{"bike_id":"dfe47d69-6adb-481f-ab6f-2e7a79e7b948","system_id":"levelo_inurba_marseille","lat":43.30942,"lon":5.40142,"is_reserved":false,"is_disabled":false,"rental_uris":{"android":"levelo://app?vid=dfe47d69-6adb-481f-ab6f-2e7a79e7b948","ios":"levelo://app?vid=dfe47d69-6adb-481f-ab6f-2e7a79e7b948"},"vehicle_type_id":"4","last_reported":1753607481,"current_range_meters":8400,"station_id":"ce4bgvp2rcd13ifvqct0","pricing_plan_id":"cebpf4jnsgd1na2vs0mg"},{"bike_id":"de99b14c-9afd-4bdd-bc56-50354c110c3d","system_id":"levelo_inurba_marseille","lat":43.25467,"lon":5.37687,"is_reserved":false,"is_disabled":false,"rental_uris":{"android":"levelo://app?vid=de99b14c-9afd-4bdd-bc56-50354c110c3d","ios":"levelo://app?vid=de99b14c-9afd-4bdd-bc56-50354c110c3d"},"vehicle_type_id":"4","last_reported":1753607481,"current_range_meters":8800,"station_id":"","pricing_plan_id":"cebpf4jnsgd1na2vs0mg"},{"bike_id":"36011d2f-d5c6-47fe-8f19-38d5d3126547","system_id":"levelo_inurba_marseille","lat":43.29897,"lon":5.383,"is_reserved":false,"is_disabled":false,"rental_uris":{"android":"levelo://app?vid=36011d2f-d5c6-47fe-8f19-38d5d3126547","ios":"levelo://app?vid=36011d2f-d5c6-47fe-8f19-38d5d3126547"},"vehicle_type_id":"4","last_reported":1753607481,"current_range_meters":8800,"station_id":"","pricing_plan_id":"cebpf4jnsgd1na2vs0mg"},{"bike_id":"57755280-973c-4ff3-9c25-8f15e2c5b510","system_id":"levelo_inurba_marseille","lat":43.31872,"lon":5.37373,"is_reserved":false,"is_disabled":true,"rental_uris":{"android":"levelo://app?vid=57755280-973c-4ff3-9c25-8f15e2c5b510","ios":"levelo://app?vid=57755280-973c-4ff3-9c25-8f15e2c5b510"},"vehicle_type_id":"4","last_reported":1753607481,"current_range_meters":8800,"station_id":"","pricing_plan_id":"cebpf4jnsgd1na2vs0mg"},{"bike_id":"1e555c6b-044c-4bd1-a690-5b7bdd1ff5ab","system_id":"levelo_inurba_marseille","lat":43.30951,"lon":5.3902,"is_reserved":false,"is_disabled":true,"rental_uris":{"android":"levelo://app?vid=1e555c6b-044c-4bd1-a690-5b7bdd1ff5ab","ios":"levelo://app?vid=1e555c6b-044c-4bd1-a690-5b7bdd1ff5ab"},"vehicle_type_id":"4","last_reported":1753607481,"current_range_meters":9200,"station_id":"ce4bgup2rcd13ifvqco0","pricing_plan_id":"cebpf4jnsgd1na2vs0mg"},{"bike_id":"c21b0d89-fca4-4808-bc4b-fb006ecadc1d","system_id":"levelo_inurba_marseille","lat":43.29625,"lon":5.3717,"is_reserved":false,"is_disabled":false,"rental_uris":{"android":"levelo://app?vid=c21b0d89-fca4-4808-bc4b-fb006ecadc1d","ios":"levelo://app?vid=c21b0d89-fca4-4808-bc4b-fb006ecadc1d"},"vehicle_type_id":"4","last_reported":1753607481,"current_range_meters":9200,"station_id":"ce4bgnh2rcd13ifvqc0g","pricing_plan_id":"cebpf4jnsgd1na2vs0mg"},{"bike_id":"f2c0d178-a474-46a0-b002-379a7a30c411","system_id":"levelo_inurba_marseille","lat":43.29429,"lon":5.37577,"is_reserved":false,"is_disabled":false,"rental_uris":{"android":"levelo://app?vid=f2c0d178-a474-46a0-b002-379a7a30c411","ios":"levelo://app?vid=f2c0d178-a474-46a0-b002-379a7a30c411"},"vehicle_type_id":"4","last_reported":1753607481,"current_range_meters":9600,"station_id":"","pricing_plan_id":"cebpf4jnsgd1na2vs0mg"},{"bike_id":"5c242e90-8d77-4fb8-9280-2175f93cec77","system_id":"levelo_inurba_marseille","lat":43.30242,"lon":5.40056,"is_reserved":false,"is_disabled":false,"rental_uris":{"android":"levelo://app?vid=5c242e90-8d77-4fb8-9280-2175f93cec77","ios":"levelo://app?vid=5c242e90-8d77-4fb8-9280-2175f93cec77"},"vehicle_type_id":"4","last_reported":1753607481,"current_range_meters":9600,"station_id":"ce4bgvh2rcd13ifvqcs0","pricing_plan_id":"cebpf4jnsgd1na2vs0mg"},{"bike_id":"52859a08-51f2-4403-afb6-16e93cbfb11f","system_id":"levelo_inurba_marseille","lat":43.317157,"lon":5.404447,"is_reserved":false,"is_disabled":false,"rental_uris":{"android":"levelo://app?vid=52859a08-51f2-4403-afb6-16e93cbfb11f","ios":"levelo://app?vid=52859a08-51f2-4403-afb6-16e93cbfb11f"},"vehicle_type_id":"4","last_reported":1753607481,"current_range_meters":9600,"station_id":"ce4bh012rcd13ifvqd00","pricing_plan_id":"cebpf4jnsgd1na2vs0mg"},{"bike_id":"80cda384-a0de-4854-88d7-81c5eb0a10d1","system_id":"levelo_inurba_marseille","lat":43.28941,"lon":5.36404,"is_reserved":false,"is_disabled":true,"rental_uris":{"android":"levelo://app?vid=80cda384-a0de-4854-88d7-81c5eb0a10d1","ios":"levelo://app?vid=80cda384-a0de-4854-88d7-81c5eb0a10d1"},"vehicle_type_id":"4","last_reported":1753607481,"current_range_meters":9600,"station_id":"ce4bhc92rcd13ifvqetg","pricing_plan_id":"cebpf4jnsgd1na2vs0mg"},{"bike_id":"76874c93-4196-48c1-b4ce-9dc79e3034f2","system_id":"levelo_inurba_marseille","lat":43.31755,"lon":5.39016,"is_reserved":false,"is_disabled":false,"rental_uris":{"android":"levelo://app?vid=76874c93-4196-48c1-b4ce-9dc79e3034f2","ios":"levelo://app?vid=76874c93-4196-48c1-b4ce-9dc79e3034f2"},"vehicle_type_id":"4","last_reported":1753607481,"current_range_meters":10000,"station_id":"ce4bhqp2rcd13ifvqhng","pricing_plan_id":"cebpf4jnsgd1na2vs0mg"},{"bike_id":"d00b6abc-174d-48a1-8e37-47955a519e3f","system_id":"levelo_inurba_marseille","lat":43.22938,"lon":5.354,"is_reserved":false,"is_disabled":false,"rental_uris":{"android":"levelo://app?vid=d00b6abc-174d-48a1-8e37-47955a519e3f","ios":"levelo://app?vid=d00b6abc-174d-48a1-8e37-47955a519e3f"},"vehicle_type_id":"4","last_reported":1753607481,"current_range_meters":10000,"station_id":"cpo3532slgdg3j2ikp40","pricing_plan_id":"cebpf4jnsgd1na2vs0mg"},{"bike_id":"92ca95e4-1f4f-4e07-a0d4-0fafab4727a2","system_id":"levelo_inurba_marseille","lat":43.30887,"lon":5.37189,"is_reserved":false,"is_disabled":false,"rental_uris":{"android":"levelo://app?vid=92ca95e4-1f4f-4e07-a0d4-0fafab4727a2","ios":"levelo://app?vid=92ca95e4-1f4f-4e07-a0d4-0fafab4727a2"},"vehicle_type_id":"4","last_reported":1753607481,"current_range_meters":10000,"station_id":"ce4bguh2rcd13ifvqckg","pricing_plan_id":"cebpf4jnsgd1na2vs0mg"},{"bike_id":"ad676354-5f32-402a-ace7-3af7e2297b05","system_id":"levelo_inurba_marseille","lat":43.3236,"lon":5.3667,"is_reserved":false,"is_disabled":false,"rental_uris":{"android":"levelo://app?vid=ad676354-5f32-402a-ace7-3af7e2297b05","ios":"levelo://app?vid=ad676354-5f32-402a-ace7-3af7e2297b05"},"vehicle_type_id":"4","last_reported":1753607481,"current_range_meters":10000,"station_id":"ce4bhsh2rcd13ifvqi2g","pricing_plan_id":"cebpf4jnsgd1na2vs0mg"},{"bike_id":"3d386717-1249-4a94-b26e-53992c039cc5","system_id":"levelo_inurba_marseille","lat":43.21189,"lon":5.35069,"is_reserved":false,"is_disabled":false,"rental_uris":{"android":"levelo://app?vid=3d386717-1249-4a94-b26e-53992c039cc5","ios":"levelo://app?vid=3d386717-1249-4a94-b26e-53992c039cc5"},"vehicle_type_id":"4","last_reported":1753607481,"current_range_meters":10000,"station_id":"st_cvj6sg6p6f1abm77japg","pricing_plan_id":"cebpf4jnsgd1na2vs0mg"},{"bike_id":"dd5b3db2-62f9-4716-992d-435138b6493d","system_id":"levelo_inurba_marseille","lat":43.3081,"lon":5.3814,"is_reserved":false,"is_disabled":true,"rental_uris":{"android":"levelo://app?vid=dd5b3db2-62f9-4716-992d-435138b6493d","ios":"levelo://app?vid=dd5b3db2-62f9-4716-992d-435138b6493d"},"vehicle_type_id":"4","last_reported":1753607481,"current_range_meters":10000,"station_id":"ce4bgt12rcd13ifvqce0","pricing_plan_id":"cebpf4jnsgd1na2vs0mg"},{"bike_id":"2fa9dd39-7ea8-42db-9ead-ca5e3675e815","system_id":"levelo_inurba_marseille","lat":43.302147,"lon":5.394578,"is_reserved":false,"is_disabled":true,"rental_uris":{"android":"levelo://app?vid=2fa9dd39-7ea8-42db-9ead-ca5e3675e815","ios":"levelo://app?vid=2fa9dd39-7ea8-42db-9ead-ca5e3675e815"},"vehicle_type_id":"4","last_reported":1753607481,"current_range_meters":10000,"station_id":"ce4bh0p2rcd13ifvqd70","pricing_plan_id":"cebpf4jnsgd1na2vs0mg"},{"bike_id":"12a45ca9-7886-46ae-84f0-860774294d3a","system_id":"levelo_inurba_marseille","lat":43.29258,"lon":5.36855,"is_reserved":false,"is_disabled":false,"rental_uris":{"android":"levelo://app?vid=12a45ca9-7886-46ae-84f0-860774294d3a","ios":"levelo://app?vid=12a45ca9-7886-46ae-84f0-860774294d3a"},"vehicle_type_id":"4","last_reported":1753607481,"current_range_meters":10800,"station_id":"ce4bhbp2rcd13ifvqesg","pricing_plan_id":"cebpf4jnsgd1na2vs0mg"},{"bike_id":"c3c2652b-f2d7-4ed4-89ec-9559feb01451","system_id":"levelo_inurba_marseille","lat":43.29226,"lon":5.360481,"is_reserved":false,"is_disabled":true,"rental_uris":{"android":"levelo://app?vid=c3c2652b-f2d7-4ed4-89ec-9559feb01451","ios":"levelo://app?vid=c3c2652b-f2d7-4ed4-89ec-9559feb01451"},"vehicle_type_id":"4","last_reported":1753607481,"current_range_meters":10800,"station_id":"ce4bhbh2rcd13ifvqeqg","pricing_plan_id":"cebpf4jnsgd1na2vs0mg"},{"bike_id":"b6751497-a40a-45f8-83f1-ad7426e2abbb","system_id":"levelo_inurba_marseille","lat":43.31115,"lon":5.37788,"is_reserved":false,"is_disabled":false,"rental_uris":{"android":"levelo://app?vid=b6751497-a40a-45f8-83f1-ad7426e2abbb","ios":"levelo://app?vid=b6751497-a40a-45f8-83f1-ad7426e2abbb"},"vehicle_type_id":"4","last_reported":1753607481,"current_range_meters":10800,"station_id":"ce4bgt92rcd13ifvqcg0","pricing_plan_id":"cebpf4jnsgd1na2vs0mg"},{"bike_id":"61cd7fe3-237f-4708-afc7-dd8a81b4454c","system_id":"levelo_inurba_marseille","lat":43.229377,"lon":5.35366,"is_reserved":false,"is_disabled":false,"rental_uris":{"android":"levelo://app?vid=61cd7fe3-237f-4708-afc7-dd8a81b4454c","ios":"levelo://app?vid=61cd7fe3-237f-4708-afc7-dd8a81b4454c"},"vehicle_type_id":"4","last_reported":1753607481,"current_range_meters":10800,"station_id":"cpo3532slgdg3j2ikp40","pricing_plan_id":"cebpf4jnsgd1na2vs0mg"},{"bike_id":"02cab979-ccb2-40ce-bd89-cd624415fc04","system_id":"levelo_inurba_marseille","lat":43.27791,"lon":5.39946,"is_reserved":false,"is_disabled":false,"rental_uris":{"android":"levelo://app?vid=02cab979-ccb2-40ce-bd89-cd624415fc04","ios":"levelo://app?vid=02cab979-ccb2-40ce-bd89-cd624415fc04"},"vehicle_type_id":"4","last_reported":1753607481,"current_range_meters":10800,"station_id":"","pricing_plan_id":"cebpf4jnsgd1na2vs0mg"},{"bike_id":"3e7f512d-c1e0-49b1-a237-1dd2b80e25e7","system_id":"levelo_inurba_marseille","lat":43.2411,"lon":5.37748,"is_reserved":false,"is_disabled":false,"rental_uris":{"android":"levelo://app?vid=3e7f512d-c1e0-49b1-a237-1dd2b80e25e7","ios":"levelo://app?vid=3e7f512d-c1e0-49b1-a237-1dd2b80e25e7"},"vehicle_type_id":"4","last_reported":1753607481,"current_range_meters":10800,"station_id":"ce4bhnp2rcd13ifvqgvg","pricing_plan_id":"cebpf4jnsgd1na2vs0mg"},{"bike_id":"4e97a19b-88ac-4646-bb67-c4e1763b513d","system_id":"levelo_inurba_marseille","lat":43.29247,"lon":5.38446,"is_reserved":false,"is_disabled":true,"rental_uris":{"android":"levelo://app?vid=4e97a19b-88ac-4646-bb67-c4e1763b513d","ios":"levelo://app?vid=4e97a19b-88ac-4646-bb67-c4e1763b513d"},"vehicle_type_id":"4","last_reported":1753607481,"current_range_meters":10800,"station_id":"ce4bh692rcd13ifvqea0","pricing_plan_id":"cebpf4jnsgd1na2vs0mg"},{"bike_id":"30133404-7504-46d1-a210-93560b553255","system_id":"levelo_inurba_marseille","lat":43.31703,"lon":5.37793,"is_reserved":false,"is_disabled":false,"rental_uris":{"android":"levelo://app?vid=30133404-7504-46d1-a210-93560b553255","ios":"levelo://app?vid=30133404-7504-46d1-a210-93560b553255"},"vehicle_type_id":"4","last_reported":1753607481,"current_range_meters":10800,"station_id":"ce4bgth2rcd13ifvqch0","pricing_plan_id":"cebpf4jnsgd1na2vs0mg"},{"bike_id":"b888a019-55ae-4d0c-99e1-6aa7b213773a","system_id":"levelo_inurba_marseille","lat":43.32042,"lon":5.41547,"is_reserved":false,"is_disabled":false,"rental_uris":{"android":"levelo://app?vid=b888a019-55ae-4d0c-99e1-6aa7b213773a","ios":"levelo://app?vid=b888a019-55ae-4d0c-99e1-6aa7b213773a"},"vehicle_type_id":"4","last_reported":1753607481,"current_range_meters":10800,"station_id":"ce4bhq92rcd13ifvqhkg","pricing_plan_id":"cebpf4jnsgd1na2vs0mg"},{"bike_id":"7e65c5ea-0429-45f5-a396-bd32e67f0744","system_id":"levelo_inurba_marseille","lat":43.3347,"lon":5.40049,"is_reserved":false,"is_disabled":false,"rental_uris":{"android":"levelo://app?vid=7e65c5ea-0429-45f5-a396-bd32e67f0744","ios":"levelo://app?vid=7e65c5ea-0429-45f5-a396-bd32e67f0744"},"vehicle_type_id":"4","last_reported":1753607481,"current_range_meters":10800,"station_id":"","pricing_plan_id":"cebpf4jnsgd1na2vs0mg"},{"bike_id":"229bf7ec-9f7c-473a-af48-6496a1d12f1b","system_id":"levelo_inurba_marseille","lat":43.286621,"lon":5.363464,"is_reserved":false,"is_disabled":true,"rental_uris":{"android":"levelo://app?vid=229bf7ec-9f7c-473a-af48-6496a1d12f1b","ios":"levelo://app?vid=229bf7ec-9f7c-473a-af48-6496a1d12f1b"},"vehicle_type_id":"4","last_reported":1753607481,"current_range_meters":10800,"station_id":"ce4bhah2rcd13ifvqej0","pricing_plan_id":"cebpf4jnsgd1na2vs0mg"},{"bike_id":"9377d52d-7c04-4205-81e5-05265b3eabff","system_id":"levelo_inurba_marseille","lat":43.287101,"lon":5.37928,"is_reserved":false,"is_disabled":true,"rental_uris":{"android":"levelo://app?vid=9377d52d-7c04-4205-81e5-05265b3eabff","ios":"levelo://app?vid=9377d52d-7c04-4205-81e5-05265b3eabff"},"vehicle_type_id":"4","last_reported":1753607481,"current_range_meters":11200,"station_id":"ce4bh9p2rcd13ifvqec0","pricing_plan_id":"cebpf4jnsgd1na2vs0mg"},{"bike_id":"43cf4049-15dd-4e8c-88a8-61cd8dc10bf5","system_id":"levelo_inurba_marseille","lat":43.33274,"lon":5.38008,"is_reserved":false,"is_disabled":true,"rental_uris":{"android":"levelo://app?vid=43cf4049-15dd-4e8c-88a8-61cd8dc10bf5","ios":"levelo://app?vid=43cf4049-15dd-4e8c-88a8-61cd8dc10bf5"},"vehicle_type_id":"4","last_reported":1753607481,"current_range_meters":11200,"station_id":"","pricing_plan_id":"cebpf4jnsgd1na2vs0mg"},{"bike_id":"6ff1496d-d57d-4bc4-80c8-7e954cd22ec5","system_id":"levelo_inurba_marseille","lat":43.29625,"lon":5.37164,"is_reserved":false,"is_disabled":false,"rental_uris":{"android":"levelo://app?vid=6ff1496d-d57d-4bc4-80c8-7e954cd22ec5","ios":"levelo://app?vid=6ff1496d-d57d-4bc4-80c8-7e954cd22ec5"},"vehicle_type_id":"4","last_reported":1753607481,"current_range_meters":11200,"station_id":"ce4bgnh2rcd13ifvqc0g","pricing_plan_id":"cebpf4jnsgd1na2vs0mg"},{"bike_id":"d5a63dee-a415-40f6-88a8-f1d25d6ddaa1","system_id":"levelo_inurba_marseille","lat":43.290311,"lon":5.399895,"is_reserved":false,"is_disabled":true,"rental_uris":{"android":"levelo://app?vid=d5a63dee-a415-40f6-88a8-f1d25d6ddaa1","ios":"levelo://app?vid=d5a63dee-a415-40f6-88a8-f1d25d6ddaa1"},"vehicle_type_id":"4","last_reported":1753607481,"current_range_meters":11200,"station_id":"ce4bh392rcd13ifvqdm0","pricing_plan_id":"cebpf4jnsgd1na2vs0mg"},{"bike_id":"55661540-733b-4bd0-ad5d-bb688398f06e","system_id":"levelo_inurba_marseille","lat":43.225059,"lon":5.347892,"is_reserved":false,"is_disabled":false,"rental_uris":{"android":"levelo://app?vid=55661540-733b-4bd0-ad5d-bb688398f06e","ios":"levelo://app?vid=55661540-733b-4bd0-ad5d-bb688398f06e"},"vehicle_type_id":"4","last_reported":1753607481,"current_range_meters":11200,"station_id":"st_cvj5dfep6f1abm77gieg","pricing_plan_id":"cebpf4jnsgd1na2vs0mg"},{"bike_id":"573c51cb-3b97-449b-8cf3-83f1cf30fc4b","system_id":"levelo_inurba_marseille","lat":43.241684,"lon":5.363962,"is_reserved":false,"is_disabled":false,"rental_uris":{"android":"levelo://app?vid=573c51cb-3b97-449b-8cf3-83f1cf30fc4b","ios":"levelo://app?vid=573c51cb-3b97-449b-8cf3-83f1cf30fc4b"},"vehicle_type_id":"4","last_reported":1753607481,"current_range_meters":11200,"station_id":"cpo36qri1sfpv3e86is0","pricing_plan_id":"cebpf4jnsgd1na2vs0mg"},{"bike_id":"2aed3c9e-e3c8-4480-9b5a-5c5c7d6b18f6","system_id":"levelo_inurba_marseille","lat":43.28621,"lon":5.35103,"is_reserved":false,"is_disabled":false,"rental_uris":{"android":"levelo://app?vid=2aed3c9e-e3c8-4480-9b5a-5c5c7d6b18f6","ios":"levelo://app?vid=2aed3c9e-e3c8-4480-9b5a-5c5c7d6b18f6"},"vehicle_type_id":"4","last_reported":1753607481,"current_range_meters":11200,"station_id":"ce4bhch2rcd13ifvqeug","pricing_plan_id":"cebpf4jnsgd1na2vs0mg"},{"bike_id":"0629e191-9bdb-4f9b-b2c7-fbf450dadc9d","system_id":"levelo_inurba_marseille","lat":43.229321,"lon":5.353717,"is_reserved":false,"is_disabled":false,"rental_uris":{"android":"levelo://app?vid=0629e191-9bdb-4f9b-b2c7-fbf450dadc9d","ios":"levelo://app?vid=0629e191-9bdb-4f9b-b2c7-fbf450dadc9d"},"vehicle_type_id":"4","last_reported":1753607481,"current_range_meters":11200,"station_id":"cpo3532slgdg3j2ikp40","pricing_plan_id":"cebpf4jnsgd1na2vs0mg"},{"bike_id":"9c7aeaec-5df9-4ed5-9a45-96fac68c60c5","system_id":"levelo_inurba_marseille","lat":43.22504,"lon":5.34789,"is_reserved":false,"is_disabled":false,"rental_uris":{"android":"levelo://app?vid=9c7aeaec-5df9-4ed5-9a45-96fac68c60c5","ios":"levelo://app?vid=9c7aeaec-5df9-4ed5-9a45-96fac68c60c5"},"vehicle_type_id":"4","last_reported":1753607481,"current_range_meters":11600,"station_id":"st_cvj5dfep6f1abm77gieg","pricing_plan_id":"cebpf4jnsgd1na2vs0mg"},{"bike_id":"b895b54e-07d8-473e-85aa-63378254c806","system_id":"levelo_inurba_marseille","lat":43.22922,"lon":5.35393,"is_reserved":false,"is_disabled":false,"rental_uris":{"android":"levelo://app?vid=b895b54e-07d8-473e-85aa-63378254c806","ios":"levelo://app?vid=b895b54e-07d8-473e-85aa-63378254c806"},"vehicle_type_id":"4","last_reported":1753607481,"current_range_meters":11600,"station_id":"cpo3532slgdg3j2ikp40","pricing_plan_id":"cebpf4jnsgd1na2vs0mg"},{"bike_id":"f3d9f4e3-18e1-46b0-943e-1414afeca2da","system_id":"levelo_inurba_marseille","lat":43.22932,"lon":5.35437,"is_reserved":false,"is_disabled":false,"rental_uris":{"android":"levelo://app?vid=f3d9f4e3-18e1-46b0-943e-1414afeca2da","ios":"levelo://app?vid=f3d9f4e3-18e1-46b0-943e-1414afeca2da"},"vehicle_type_id":"4","last_reported":1753607481,"current_range_meters":11600,"station_id":"cpo3532slgdg3j2ikp40","pricing_plan_id":"cebpf4jnsgd1na2vs0mg"},{"bike_id":"d10ebd79-240b-473e-922c-e882c64ed5fe","system_id":"levelo_inurba_marseille","lat":43.28618,"lon":5.35105,"is_reserved":false,"is_disabled":false,"rental_uris":{"android":"levelo://app?vid=d10ebd79-240b-473e-922c-e882c64ed5fe","ios":"levelo://app?vid=d10ebd79-240b-473e-922c-e882c64ed5fe"},"vehicle_type_id":"4","last_reported":1753607481,"current_range_meters":11600,"station_id":"ce4bhch2rcd13ifvqeug","pricing_plan_id":"cebpf4jnsgd1na2vs0mg"},{"bike_id":"c5794c7a-bb35-409f-9175-7d8933c8fd68","system_id":"levelo_inurba_marseille","lat":43.31125,"lon":5.39632,"is_reserved":false,"is_disabled":false,"rental_uris":{"android":"levelo://app?vid=c5794c7a-bb35-409f-9175-7d8933c8fd68","ios":"levelo://app?vid=c5794c7a-bb35-409f-9175-7d8933c8fd68"},"vehicle_type_id":"4","last_reported":1753607481,"current_range_meters":11600,"station_id":"","pricing_plan_id":"cebpf4jnsgd1na2vs0mg"},{"bike_id":"9188366a-c6a3-4354-b558-553177316347","system_id":"levelo_inurba_marseille","lat":43.26246,"lon":5.37488,"is_reserved":false,"is_disabled":true,"rental_uris":{"android":"levelo://app?vid=9188366a-c6a3-4354-b558-553177316347","ios":"levelo://app?vid=9188366a-c6a3-4354-b558-553177316347"},"vehicle_type_id":"4","last_reported":1753607481,"current_range_meters":11600,"station_id":"","pricing_plan_id":"cebpf4jnsgd1na2vs0mg"},{"bike_id":"a1d5115b-997f-44a5-8b4b-21cb29757407","system_id":"levelo_inurba_marseille","lat":43.312091,"lon":5.373083,"is_reserved":false,"is_disabled":false,"rental_uris":{"android":"levelo://app?vid=a1d5115b-997f-44a5-8b4b-21cb29757407","ios":"levelo://app?vid=a1d5115b-997f-44a5-8b4b-21cb29757407"},"vehicle_type_id":"4","last_reported":1753607481,"current_range_meters":11600,"station_id":"","pricing_plan_id":"cebpf4jnsgd1na2vs0mg"},{"bike_id":"898d1f8e-e261-4f25-9386-a6825028d102","system_id":"levelo_inurba_marseille","lat":43.29066,"lon":5.47353,"is_reserved":false,"is_disabled":false,"rental_uris":{"android":"levelo://app?vid=898d1f8e-e261-4f25-9386-a6825028d102","ios":"levelo://app?vid=898d1f8e-e261-4f25-9386-a6825028d102"},"vehicle_type_id":"4","last_reported":1753607481,"current_range_meters":12000,"station_id":"","pricing_plan_id":"cebpf4jnsgd1na2vs0mg"},{"bike_id":"54405b04-0f04-4c64-af8f-9ccbb34ae9ba","system_id":"levelo_inurba_marseille","lat":43.280357,"lon":5.369381,"is_reserved":false,"is_disabled":false,"rental_uris":{"android":"levelo://app?vid=54405b04-0f04-4c64-af8f-9ccbb34ae9ba","ios":"levelo://app?vid=54405b04-0f04-4c64-af8f-9ccbb34ae9ba"},"vehicle_type_id":"4","last_reported":1753607481,"current_range_meters":12000,"station_id":"ce4bha12rcd13ifvqef0","pricing_plan_id":"cebpf4jnsgd1na2vs0mg"},{"bike_id":"706555d6-f7d3-481b-bda9-1c4099510dc4","system_id":"levelo_inurba_marseille","lat":43.22928,"lon":5.35383,"is_reserved":false,"is_disabled":false,"rental_uris":{"android":"levelo://app?vid=706555d6-f7d3-481b-bda9-1c4099510dc4","ios":"levelo://app?vid=706555d6-f7d3-481b-bda9-1c4099510dc4"},"vehicle_type_id":"4","last_reported":1753607481,"current_range_meters":12000,"station_id":"cpo3532slgdg3j2ikp40","pricing_plan_id":"cebpf4jnsgd1na2vs0mg"},{"bike_id":"9dfdeb8a-ee13-4931-94b4-ad2b5f23aa4b","system_id":"levelo_inurba_marseille","lat":43.23193,"lon":5.39981,"is_reserved":false,"is_disabled":true,"rental_uris":{"android":"levelo://app?vid=9dfdeb8a-ee13-4931-94b4-ad2b5f23aa4b","ios":"levelo://app?vid=9dfdeb8a-ee13-4931-94b4-ad2b5f23aa4b"},"vehicle_type_id":"4","last_reported":1753607481,"current_range_meters":12000,"station_id":"ce4bhn12rcd13ifvqgqg","pricing_plan_id":"cebpf4jnsgd1na2vs0mg"},{"bike_id":"bdc8ef21-146d-46ff-9c91-249dba0037c7","system_id":"levelo_inurba_marseille","lat":43.22927,"lon":5.35379,"is_reserved":false,"is_disabled":false,"rental_uris":{"android":"levelo://app?vid=bdc8ef21-146d-46ff-9c91-249dba0037c7","ios":"levelo://app?vid=bdc8ef21-146d-46ff-9c91-249dba0037c7"},"vehicle_type_id":"4","last_reported":1753607481,"current_range_meters":12000,"station_id":"cpo3532slgdg3j2ikp40","pricing_plan_id":"cebpf4jnsgd1na2vs0mg"},{"bike_id":"a05343f6-5345-451e-92c9-8d14b4ec04eb","system_id":"levelo_inurba_marseille","lat":43.314919,"lon":5.373082,"is_reserved":false,"is_disabled":false,"rental_uris":{"android":"levelo://app?vid=a05343f6-5345-451e-92c9-8d14b4ec04eb","ios":"levelo://app?vid=a05343f6-5345-451e-92c9-8d14b4ec04eb"},"vehicle_type_id":"4","last_reported":1753607481,"current_range_meters":12000,"station_id":"","pricing_plan_id":"cebpf4jnsgd1na2vs0mg"},{"bike_id":"1e5c96a6-9d0f-4d5f-85ef-5a5f8ac0317a","system_id":"levelo_inurba_marseille","lat":43.33425,"lon":5.39118,"is_reserved":false,"is_disabled":false,"rental_uris":{"android":"levelo://app?vid=1e5c96a6-9d0f-4d5f-85ef-5a5f8ac0317a","ios":"levelo://app?vid=1e5c96a6-9d0f-4d5f-85ef-5a5f8ac0317a"},"vehicle_type_id":"4","last_reported":1753607481,"current_range_meters":12000,"station_id":"","pricing_plan_id":"cebpf4jnsgd1na2vs0mg"},{"bike_id":"43dbc09e-d0e4-4ddb-bafe-4f55874d23a9","system_id":"levelo_inurba_marseille","lat":43.30237,"lon":5.38221,"is_reserved":false,"is_disabled":false,"rental_uris":{"android":"levelo://app?vid=43dbc09e-d0e4-4ddb-bafe-4f55874d23a9","ios":"levelo://app?vid=43dbc09e-d0e4-4ddb-bafe-4f55874d23a9"},"vehicle_type_id":"4","last_reported":1753607481,"current_range_meters":12000,"station_id":"","pricing_plan_id":"cebpf4jnsgd1na2vs0mg"},{"bike_id":"da470e81-4ffc-4fc8-a1ce-aeb7ccfed33c","system_id":"levelo_inurba_marseille","lat":43.29621,"lon":5.37713,"is_reserved":false,"is_disabled":false,"rental_uris":{"android":"levelo://app?vid=da470e81-4ffc-4fc8-a1ce-aeb7ccfed33c","ios":"levelo://app?vid=da470e81-4ffc-4fc8-a1ce-aeb7ccfed33c"},"vehicle_type_id":"4","last_reported":1753607481,"current_range_meters":12000,"station_id":"ce4bgi92rcd13ifvqb90","pricing_plan_id":"cebpf4jnsgd1na2vs0mg"},{"bike_id":"1a8dca22-c656-4807-8819-ff03a2da9bf4","system_id":"levelo_inurba_marseille","lat":43.310789,"lon":5.383506,"is_reserved":false,"is_disabled":false,"rental_uris":{"android":"levelo://app?vid=1a8dca22-c656-4807-8819-ff03a2da9bf4","ios":"levelo://app?vid=1a8dca22-c656-4807-8819-ff03a2da9bf4"},"vehicle_type_id":"4","last_reported":1753607481,"current_range_meters":12400,"station_id":"ce4bgv92rcd13ifvqcr0","pricing_plan_id":"cebpf4jnsgd1na2vs0mg"},{"bike_id":"6744e1b0-8d38-4a10-8a54-06966731d609","system_id":"levelo_inurba_marseille","lat":43.298235,"lon":5.376573,"is_reserved":false,"is_disabled":false,"rental_uris":{"android":"levelo://app?vid=6744e1b0-8d38-4a10-8a54-06966731d609","ios":"levelo://app?vid=6744e1b0-8d38-4a10-8a54-06966731d609"},"vehicle_type_id":"4","last_reported":1753607481,"current_range_meters":12400,"station_id":"","pricing_plan_id":"cebpf4jnsgd1na2vs0mg"},{"bike_id":"1533361c-c8b0-46c4-bb07-47847e110ffc","system_id":"levelo_inurba_marseille","lat":43.28153,"lon":5.42642,"is_reserved":false,"is_disabled":false,"rental_uris":{"android":"levelo://app?vid=1533361c-c8b0-46c4-bb07-47847e110ffc","ios":"levelo://app?vid=1533361c-c8b0-46c4-bb07-47847e110ffc"},"vehicle_type_id":"4","last_reported":1753607481,"current_range_meters":12400,"station_id":"ce4bhnh2rcd13ifvqgug","pricing_plan_id":"cebpf4jnsgd1na2vs0mg"},{"bike_id":"ec370b31-cc55-499b-a9ad-82a32cff8b80","system_id":"levelo_inurba_marseille","lat":43.30314,"lon":5.40474,"is_reserved":false,"is_disabled":false,"rental_uris":{"android":"levelo://app?vid=ec370b31-cc55-499b-a9ad-82a32cff8b80","ios":"levelo://app?vid=ec370b31-cc55-499b-a9ad-82a32cff8b80"},"vehicle_type_id":"4","last_reported":1753607481,"current_range_meters":12800,"station_id":"ce4bh012rcd13ifvqd10","pricing_plan_id":"cebpf4jnsgd1na2vs0mg"},{"bike_id":"2a1ce483-555b-4495-bafd-b582477b876c","system_id":"levelo_inurba_marseille","lat":43.28615,"lon":5.35104,"is_reserved":false,"is_disabled":false,"rental_uris":{"android":"levelo://app?vid=2a1ce483-555b-4495-bafd-b582477b876c","ios":"levelo://app?vid=2a1ce483-555b-4495-bafd-b582477b876c"},"vehicle_type_id":"4","last_reported":1753607481,"current_range_meters":12800,"station_id":"ce4bhch2rcd13ifvqeug","pricing_plan_id":"cebpf4jnsgd1na2vs0mg"},{"bike_id":"cbd3c835-3646-48da-a31a-110bb275e07a","system_id":"levelo_inurba_marseille","lat":43.28606,"lon":5.37062,"is_reserved":false,"is_disabled":false,"rental_uris":{"android":"levelo://app?vid=cbd3c835-3646-48da-a31a-110bb275e07a","ios":"levelo://app?vid=cbd3c835-3646-48da-a31a-110bb275e07a"},"vehicle_type_id":"4","last_reported":1753607481,"current_range_meters":13600,"station_id":"ce4bht12rcd13ifvqi60","pricing_plan_id":"cebpf4jnsgd1na2vs0mg"},{"bike_id":"6a0157f9-1e4d-4729-8e5d-9ab142c0ff1e","system_id":"levelo_inurba_marseille","lat":43.29892,"lon":5.39737,"is_reserved":false,"is_disabled":false,"rental_uris":{"android":"levelo://app?vid=6a0157f9-1e4d-4729-8e5d-9ab142c0ff1e","ios":"levelo://app?vid=6a0157f9-1e4d-4729-8e5d-9ab142c0ff1e"},"vehicle_type_id":"4","last_reported":1753607481,"current_range_meters":13600,"station_id":"ce4bh0h2rcd13ifvqd50","pricing_plan_id":"cebpf4jnsgd1na2vs0mg"},{"bike_id":"63e1804c-7034-4d3a-b7fd-0a9682fa11f7","system_id":"levelo_inurba_marseille","lat":43.30731,"lon":5.42434,"is_reserved":false,"is_disabled":false,"rental_uris":{"android":"levelo://app?vid=63e1804c-7034-4d3a-b7fd-0a9682fa11f7","ios":"levelo://app?vid=63e1804c-7034-4d3a-b7fd-0a9682fa11f7"},"vehicle_type_id":"4","last_reported":1753607481,"current_range_meters":13600,"station_id":"st_cvj6ca6bvosntc0bfgr0","pricing_plan_id":"cebpf4jnsgd1na2vs0mg"},{"bike_id":"e3ed80d3-1465-4162-918b-d2972cea9615","system_id":"levelo_inurba_marseille","lat":43.28277,"lon":5.35089,"is_reserved":false,"is_disabled":false,"rental_uris":{"android":"levelo://app?vid=e3ed80d3-1465-4162-918b-d2972cea9615","ios":"levelo://app?vid=e3ed80d3-1465-4162-918b-d2972cea9615"},"vehicle_type_id":"4","last_reported":1753607481,"current_range_meters":13600,"station_id":"ce4bhbp2rcd13ifvqerg","pricing_plan_id":"cebpf4jnsgd1na2vs0mg"},{"bike_id":"1019dc9c-5bb4-45ae-a354-3d03c8f109a1","system_id":"levelo_inurba_marseille","lat":43.26495,"lon":5.39545,"is_reserved":false,"is_disabled":false,"rental_uris":{"android":"levelo://app?vid=1019dc9c-5bb4-45ae-a354-3d03c8f109a1","ios":"levelo://app?vid=1019dc9c-5bb4-45ae-a354-3d03c8f109a1"},"vehicle_type_id":"4","last_reported":1753607481,"current_range_meters":13600,"station_id":"ce4bhi12rcd13ifvqfq0","pricing_plan_id":"cebpf4jnsgd1na2vs0mg"},{"bike_id":"52e396ea-d41c-4e47-942b-62bd162a18d7","system_id":"levelo_inurba_marseille","lat":43.292838,"lon":5.368403,"is_reserved":false,"is_disabled":false,"rental_uris":{"android":"levelo://app?vid=52e396ea-d41c-4e47-942b-62bd162a18d7","ios":"levelo://app?vid=52e396ea-d41c-4e47-942b-62bd162a18d7"},"vehicle_type_id":"4","last_reported":1753607481,"current_range_meters":13600,"station_id":"ce4bhbp2rcd13ifvqesg","pricing_plan_id":"cebpf4jnsgd1na2vs0mg"},{"bike_id":"8d801f83-3686-49fa-a7fd-3701c57be20d","system_id":"levelo_inurba_marseille","lat":43.24074,"lon":5.37798,"is_reserved":false,"is_disabled":false,"rental_uris":{"android":"levelo://app?vid=8d801f83-3686-49fa-a7fd-3701c57be20d","ios":"levelo://app?vid=8d801f83-3686-49fa-a7fd-3701c57be20d"},"vehicle_type_id":"4","last_reported":1753607481,"current_range_meters":13600,"station_id":"ce4bhnp2rcd13ifvqgvg","pricing_plan_id":"cebpf4jnsgd1na2vs0mg"},{"bike_id":"bb0db1a8-1b0c-444a-bb9a-ea686810084f","system_id":"levelo_inurba_marseille","lat":43.22499,"lon":5.34827,"is_reserved":false,"is_disabled":false,"rental_uris":{"android":"levelo://app?vid=bb0db1a8-1b0c-444a-bb9a-ea686810084f","ios":"levelo://app?vid=bb0db1a8-1b0c-444a-bb9a-ea686810084f"},"vehicle_type_id":"4","last_reported":1753607481,"current_range_meters":13600,"station_id":"st_cvj5dfep6f1abm77gieg","pricing_plan_id":"cebpf4jnsgd1na2vs0mg"},{"bike_id":"447ea2ec-dae4-4df9-9764-59aa36aeb8d1","system_id":"levelo_inurba_marseille","lat":43.29973,"lon":5.38504,"is_reserved":false,"is_disabled":false,"rental_uris":{"android":"levelo://app?vid=447ea2ec-dae4-4df9-9764-59aa36aeb8d1","ios":"levelo://app?vid=447ea2ec-dae4-4df9-9764-59aa36aeb8d1"},"vehicle_type_id":"4","last_reported":1753607481,"current_range_meters":13600,"station_id":"ce4bgj92rcd13ifvqbd0","pricing_plan_id":"cebpf4jnsgd1na2vs0mg"},{"bike_id":"80086cfa-a50c-47a8-8d6f-155134509faf","system_id":"levelo_inurba_marseille","lat":43.28482,"lon":5.38402,"is_reserved":false,"is_disabled":false,"rental_uris":{"android":"levelo://app?vid=80086cfa-a50c-47a8-8d6f-155134509faf","ios":"levelo://app?vid=80086cfa-a50c-47a8-8d6f-155134509faf"},"vehicle_type_id":"4","last_reported":1753607481,"current_range_meters":14400,"station_id":"ce4bh512rcd13ifvqe3g","pricing_plan_id":"cebpf4jnsgd1na2vs0mg"},{"bike_id":"2a199d14-8037-4012-88f7-9f4d4af676b5","system_id":"levelo_inurba_marseille","lat":43.29258,"lon":5.4019,"is_reserved":false,"is_disabled":false,"rental_uris":{"android":"levelo://app?vid=2a199d14-8037-4012-88f7-9f4d4af676b5","ios":"levelo://app?vid=2a199d14-8037-4012-88f7-9f4d4af676b5"},"vehicle_type_id":"4","last_reported":1753607481,"current_range_meters":14000,"station_id":"ce4bh312rcd13ifvqdk0","pricing_plan_id":"cebpf4jnsgd1na2vs0mg"},{"bike_id":"aebdf431-3b97-428a-a9b4-1e35e4b29383","system_id":"levelo_inurba_marseille","lat":43.31697,"lon":5.40495,"is_reserved":false,"is_disabled":false,"rental_uris":{"android":"levelo://app?vid=aebdf431-3b97-428a-a9b4-1e35e4b29383","ios":"levelo://app?vid=aebdf431-3b97-428a-a9b4-1e35e4b29383"},"vehicle_type_id":"4","last_reported":1753607481,"current_range_meters":14000,"station_id":"ce4bh012rcd13ifvqd00","pricing_plan_id":"cebpf4jnsgd1na2vs0mg"},{"bike_id":"c9fcf720-9aa1-454f-a5fe-0fef884d4245","system_id":"levelo_inurba_marseille","lat":43.3168,"lon":5.40484,"is_reserved":false,"is_disabled":false,"rental_uris":{"android":"levelo://app?vid=c9fcf720-9aa1-454f-a5fe-0fef884d4245","ios":"levelo://app?vid=c9fcf720-9aa1-454f-a5fe-0fef884d4245"},"vehicle_type_id":"4","last_reported":1753607481,"current_range_meters":14000,"station_id":"ce4bh012rcd13ifvqd00","pricing_plan_id":"cebpf4jnsgd1na2vs0mg"},{"bike_id":"9f5543b8-8f45-4b07-b495-a9a0f2a356ab","system_id":"levelo_inurba_marseille","lat":43.30154,"lon":5.38104,"is_reserved":false,"is_disabled":false,"rental_uris":{"android":"levelo://app?vid=9f5543b8-8f45-4b07-b495-a9a0f2a356ab","ios":"levelo://app?vid=9f5543b8-8f45-4b07-b495-a9a0f2a356ab"},"vehicle_type_id":"4","last_reported":1753607481,"current_range_meters":14000,"station_id":"ce4bgjp2rcd13ifvqbh0","pricing_plan_id":"cebpf4jnsgd1na2vs0mg"},{"bike_id":"857905f4-fbac-43bd-bfe6-e5e8a2d57bb6","system_id":"levelo_inurba_marseille","lat":43.28704,"lon":5.399802,"is_reserved":false,"is_disabled":false,"rental_uris":{"android":"levelo://app?vid=857905f4-fbac-43bd-bfe6-e5e8a2d57bb6","ios":"levelo://app?vid=857905f4-fbac-43bd-bfe6-e5e8a2d57bb6"},"vehicle_type_id":"4","last_reported":1753607481,"current_range_meters":14000,"station_id":"ce4bho92rcd13ifvqh3g","pricing_plan_id":"cebpf4jnsgd1na2vs0mg"},{"bike_id":"da0dea9a-07a2-4249-aa7c-2489e28d40de","system_id":"levelo_inurba_marseille","lat":43.29686,"lon":5.36239,"is_reserved":false,"is_disabled":false,"rental_uris":{"android":"levelo://app?vid=da0dea9a-07a2-4249-aa7c-2489e28d40de","ios":"levelo://app?vid=da0dea9a-07a2-4249-aa7c-2489e28d40de"},"vehicle_type_id":"4","last_reported":1753607481,"current_range_meters":14400,"station_id":"","pricing_plan_id":"cebpf4jnsgd1na2vs0mg"},{"bike_id":"44c337ff-d3cb-454f-b0c7-9dcbc0b4d638","system_id":"levelo_inurba_marseille","lat":43.211937,"lon":5.350779,"is_reserved":false,"is_disabled":false,"rental_uris":{"android":"levelo://app?vid=44c337ff-d3cb-454f-b0c7-9dcbc0b4d638","ios":"levelo://app?vid=44c337ff-d3cb-454f-b0c7-9dcbc0b4d638"},"vehicle_type_id":"4","last_reported":1753607481,"current_range_meters":14400,"station_id":"st_cvj6sg6p6f1abm77japg","pricing_plan_id":"cebpf4jnsgd1na2vs0mg"},{"bike_id":"f2e73ed9-a948-43ea-ab9d-32368cf8a475","system_id":"levelo_inurba_marseille","lat":43.261989,"lon":5.374346,"is_reserved":false,"is_disabled":true,"rental_uris":{"android":"levelo://app?vid=f2e73ed9-a948-43ea-ab9d-32368cf8a475","ios":"levelo://app?vid=f2e73ed9-a948-43ea-ab9d-32368cf8a475"},"vehicle_type_id":"4","last_reported":1753607481,"current_range_meters":14400,"station_id":"ce4bhgp2rcd13ifvqfc0","pricing_plan_id":"cebpf4jnsgd1na2vs0mg"},{"bike_id":"a940fd59-4ef0-4a43-8b6c-6f24c2dd6526","system_id":"levelo_inurba_marseille","lat":43.3054,"lon":5.38418,"is_reserved":false,"is_disabled":false,"rental_uris":{"android":"levelo://app?vid=a940fd59-4ef0-4a43-8b6c-6f24c2dd6526","ios":"levelo://app?vid=a940fd59-4ef0-4a43-8b6c-6f24c2dd6526"},"vehicle_type_id":"4","last_reported":1753607481,"current_range_meters":14400,"station_id":"ce4bgg92rcd13ifvqb30","pricing_plan_id":"cebpf4jnsgd1na2vs0mg"},{"bike_id":"51ad7dd7-88ab-4eb9-87b7-6c1197faf725","system_id":"levelo_inurba_marseille","lat":43.28602,"lon":5.35093,"is_reserved":false,"is_disabled":false,"rental_uris":{"android":"levelo://app?vid=51ad7dd7-88ab-4eb9-87b7-6c1197faf725","ios":"levelo://app?vid=51ad7dd7-88ab-4eb9-87b7-6c1197faf725"},"vehicle_type_id":"4","last_reported":1753607481,"current_range_meters":14400,"station_id":"ce4bhch2rcd13ifvqeug","pricing_plan_id":"cebpf4jnsgd1na2vs0mg"},{"bike_id":"8512b265-75e1-49d7-bb7d-bd988c357d7c","system_id":"levelo_inurba_marseille","lat":43.287079,"lon":5.399823,"is_reserved":false,"is_disabled":true,"rental_uris":{"android":"levelo://app?vid=8512b265-75e1-49d7-bb7d-bd988c357d7c","ios":"levelo://app?vid=8512b265-75e1-49d7-bb7d-bd988c357d7c"},"vehicle_type_id":"4","last_reported":1753607481,"current_range_meters":14400,"station_id":"ce4bho92rcd13ifvqh3g","pricing_plan_id":"cebpf4jnsgd1na2vs0mg"},{"bike_id":"690e58e2-f4a9-4881-b497-ca12c6a89ba5","system_id":"levelo_inurba_marseille","lat":43.3034,"lon":5.42524,"is_reserved":false,"is_disabled":false,"rental_uris":{"android":"levelo://app?vid=690e58e2-f4a9-4881-b497-ca12c6a89ba5","ios":"levelo://app?vid=690e58e2-f4a9-4881-b497-ca12c6a89ba5"},"vehicle_type_id":"4","last_reported":1753607481,"current_range_meters":14400,"station_id":"","pricing_plan_id":"cebpf4jnsgd1na2vs0mg"},{"bike_id":"77d0b335-eec0-411a-9e03-1bfce0dee70b","system_id":"levelo_inurba_marseille","lat":43.25004,"lon":5.38918,"is_reserved":false,"is_disabled":false,"rental_uris":{"android":"levelo://app?vid=77d0b335-eec0-411a-9e03-1bfce0dee70b","ios":"levelo://app?vid=77d0b335-eec0-411a-9e03-1bfce0dee70b"},"vehicle_type_id":"4","last_reported":1753607481,"current_range_meters":14800,"station_id":"ce4bhgp2rcd13ifvqfd0","pricing_plan_id":"cebpf4jnsgd1na2vs0mg"},{"bike_id":"e666153e-0d94-49fc-a285-a6a2347ef6ad","system_id":"levelo_inurba_marseille","lat":43.2695,"lon":5.38631,"is_reserved":false,"is_disabled":true,"rental_uris":{"android":"levelo://app?vid=e666153e-0d94-49fc-a285-a6a2347ef6ad","ios":"levelo://app?vid=e666153e-0d94-49fc-a285-a6a2347ef6ad"},"vehicle_type_id":"4","last_reported":1753607481,"current_range_meters":14800,"station_id":"ce4bhh92rcd13ifvqfh0","pricing_plan_id":"cebpf4jnsgd1na2vs0mg"},{"bike_id":"860ec3be-f404-4d5b-9e32-d60aefe57cd2","system_id":"levelo_inurba_marseille","lat":43.30143,"lon":5.38086,"is_reserved":false,"is_disabled":false,"rental_uris":{"android":"levelo://app?vid=860ec3be-f404-4d5b-9e32-d60aefe57cd2","ios":"levelo://app?vid=860ec3be-f404-4d5b-9e32-d60aefe57cd2"},"vehicle_type_id":"4","last_reported":1753607481,"current_range_meters":14800,"station_id":"ce4bgjp2rcd13ifvqbh0","pricing_plan_id":"cebpf4jnsgd1na2vs0mg"},{"bike_id":"484ce80f-12be-41fa-9586-784b84db2ffe","system_id":"levelo_inurba_marseille","lat":43.24845,"lon":5.37507,"is_reserved":false,"is_disabled":false,"rental_uris":{"android":"levelo://app?vid=484ce80f-12be-41fa-9586-784b84db2ffe","ios":"levelo://app?vid=484ce80f-12be-41fa-9586-784b84db2ffe"},"vehicle_type_id":"4","last_reported":1753607481,"current_range_meters":15200,"station_id":"","pricing_plan_id":"cebpf4jnsgd1na2vs0mg"},{"bike_id":"e8bc910c-9543-49e0-97f2-036c9a119b32","system_id":"levelo_inurba_marseille","lat":43.29267,"lon":5.38435,"is_reserved":false,"is_disabled":false,"rental_uris":{"android":"levelo://app?vid=e8bc910c-9543-49e0-97f2-036c9a119b32","ios":"levelo://app?vid=e8bc910c-9543-49e0-97f2-036c9a119b32"},"vehicle_type_id":"4","last_reported":1753607481,"current_range_meters":15200,"station_id":"ce4bh692rcd13ifvqea0","pricing_plan_id":"cebpf4jnsgd1na2vs0mg"},{"bike_id":"1ccbbc53-d7f3-4628-90f4-41d8793df8ee","system_id":"levelo_inurba_marseille","lat":43.28623,"lon":5.35099,"is_reserved":false,"is_disabled":false,"rental_uris":{"android":"levelo://app?vid=1ccbbc53-d7f3-4628-90f4-41d8793df8ee","ios":"levelo://app?vid=1ccbbc53-d7f3-4628-90f4-41d8793df8ee"},"vehicle_type_id":"4","last_reported":1753607481,"current_range_meters":15200,"station_id":"ce4bhch2rcd13ifvqeug","pricing_plan_id":"cebpf4jnsgd1na2vs0mg"},{"bike_id":"1417443d-0df7-41d1-96f3-9df4c4d24ab4","system_id":"levelo_inurba_marseille","lat":43.28625,"lon":5.35102,"is_reserved":false,"is_disabled":false,"rental_uris":{"android":"levelo://app?vid=1417443d-0df7-41d1-96f3-9df4c4d24ab4","ios":"levelo://app?vid=1417443d-0df7-41d1-96f3-9df4c4d24ab4"},"vehicle_type_id":"4","last_reported":1753607481,"current_range_meters":15200,"station_id":"ce4bhch2rcd13ifvqeug","pricing_plan_id":"cebpf4jnsgd1na2vs0mg"},{"bike_id":"62e4f384-a69f-4285-9553-29178195efe4","system_id":"levelo_inurba_marseille","lat":43.31064,"lon":5.38366,"is_reserved":false,"is_disabled":false,"rental_uris":{"android":"levelo://app?vid=62e4f384-a69f-4285-9553-29178195efe4","ios":"levelo://app?vid=62e4f384-a69f-4285-9553-29178195efe4"},"vehicle_type_id":"4","last_reported":1753607481,"current_range_meters":16000,"station_id":"ce4bgv92rcd13ifvqcr0","pricing_plan_id":"cebpf4jnsgd1na2vs0mg"},{"bike_id":"d3367d47-c56d-4569-8cf2-bf73ff504e87","system_id":"levelo_inurba_marseille","lat":43.29782,"lon":5.37097,"is_reserved":false,"is_disabled":false,"rental_uris":{"android":"levelo://app?vid=d3367d47-c56d-4569-8cf2-bf73ff504e87","ios":"levelo://app?vid=d3367d47-c56d-4569-8cf2-bf73ff504e87"},"vehicle_type_id":"4","last_reported":1753607481,"current_range_meters":16000,"station_id":"ce4bgop2rcd13ifvqc1g","pricing_plan_id":"cebpf4jnsgd1na2vs0mg"},{"bike_id":"70381b97-b2ee-4f26-8f16-caf046608e7f","system_id":"levelo_inurba_marseille","lat":43.27997,"lon":5.40013,"is_reserved":false,"is_disabled":true,"rental_uris":{"android":"levelo://app?vid=70381b97-b2ee-4f26-8f16-caf046608e7f","ios":"levelo://app?vid=70381b97-b2ee-4f26-8f16-caf046608e7f"},"vehicle_type_id":"4","last_reported":1753607481,"current_range_meters":16000,"station_id":"ce4bho92rcd13ifvqh4g","pricing_plan_id":"cebpf4jnsgd1na2vs0mg"},{"bike_id":"b64dad25-8e0d-4258-bfd2-304c64c6d313","system_id":"levelo_inurba_marseille","lat":43.317307,"lon":5.377287,"is_reserved":false,"is_disabled":false,"rental_uris":{"android":"levelo://app?vid=b64dad25-8e0d-4258-bfd2-304c64c6d313","ios":"levelo://app?vid=b64dad25-8e0d-4258-bfd2-304c64c6d313"},"vehicle_type_id":"4","last_reported":1753607481,"current_range_meters":16000,"station_id":"ce4bgth2rcd13ifvqch0","pricing_plan_id":"cebpf4jnsgd1na2vs0mg"},{"bike_id":"37a5c024-c5d2-470a-ba5d-2631f91bf7cf","system_id":"levelo_inurba_marseille","lat":43.31126,"lon":5.37775,"is_reserved":false,"is_disabled":false,"rental_uris":{"android":"levelo://app?vid=37a5c024-c5d2-470a-ba5d-2631f91bf7cf","ios":"levelo://app?vid=37a5c024-c5d2-470a-ba5d-2631f91bf7cf"},"vehicle_type_id":"4","last_reported":1753607481,"current_range_meters":16000,"station_id":"ce4bgt92rcd13ifvqcg0","pricing_plan_id":"cebpf4jnsgd1na2vs0mg"},{"bike_id":"24b419c4-0f82-4bcc-897a-cdbe8f25e478","system_id":"levelo_inurba_marseille","lat":43.30153,"lon":5.38091,"is_reserved":false,"is_disabled":false,"rental_uris":{"android":"levelo://app?vid=24b419c4-0f82-4bcc-897a-cdbe8f25e478","ios":"levelo://app?vid=24b419c4-0f82-4bcc-897a-cdbe8f25e478"},"vehicle_type_id":"4","last_reported":1753607481,"current_range_meters":16000,"station_id":"ce4bgjp2rcd13ifvqbh0","pricing_plan_id":"cebpf4jnsgd1na2vs0mg"},{"bike_id":"63fbea1b-2b40-4aee-afa7-a9c9dcf79dc3","system_id":"levelo_inurba_marseille","lat":43.23181,"lon":5.4003,"is_reserved":false,"is_disabled":false,"rental_uris":{"android":"levelo://app?vid=63fbea1b-2b40-4aee-afa7-a9c9dcf79dc3","ios":"levelo://app?vid=63fbea1b-2b40-4aee-afa7-a9c9dcf79dc3"},"vehicle_type_id":"4","last_reported":1753607481,"current_range_meters":16000,"station_id":"ce4bhn12rcd13ifvqgqg","pricing_plan_id":"cebpf4jnsgd1na2vs0mg"},{"bike_id":"2414b713-e61f-42f4-878b-ac630e203b8a","system_id":"levelo_inurba_marseille","lat":43.30306,"lon":5.36901,"is_reserved":false,"is_disabled":false,"rental_uris":{"android":"levelo://app?vid=2414b713-e61f-42f4-878b-ac630e203b8a","ios":"levelo://app?vid=2414b713-e61f-42f4-878b-ac630e203b8a"},"vehicle_type_id":"4","last_reported":1753607481,"current_range_meters":16400,"station_id":"","pricing_plan_id":"cebpf4jnsgd1na2vs0mg"},{"bike_id":"5de4d1ff-47cd-40a5-ad2e-4b1052508ef8","system_id":"levelo_inurba_marseille","lat":43.3234,"lon":5.40617,"is_reserved":false,"is_disabled":false,"rental_uris":{"android":"levelo://app?vid=5de4d1ff-47cd-40a5-ad2e-4b1052508ef8","ios":"levelo://app?vid=5de4d1ff-47cd-40a5-ad2e-4b1052508ef8"},"vehicle_type_id":"4","last_reported":1753607481,"current_range_meters":16400,"station_id":"ce4bhq92rcd13ifvqhjg","pricing_plan_id":"cebpf4jnsgd1na2vs0mg"},{"bike_id":"9306cb98-ff63-47ed-9064-9c9a8b611a79","system_id":"levelo_inurba_marseille","lat":43.29626,"lon":5.3739,"is_reserved":false,"is_disabled":false,"rental_uris":{"android":"levelo://app?vid=9306cb98-ff63-47ed-9064-9c9a8b611a79","ios":"levelo://app?vid=9306cb98-ff63-47ed-9064-9c9a8b611a79"},"vehicle_type_id":"4","last_reported":1753607481,"current_range_meters":16400,"station_id":"","pricing_plan_id":"cebpf4jnsgd1na2vs0mg"},{"bike_id":"a9504c9d-7518-4bac-b2a8-fec9ea3d9cd0","system_id":"levelo_inurba_marseille","lat":43.23064,"lon":5.354915,"is_reserved":false,"is_disabled":false,"rental_uris":{"android":"levelo://app?vid=a9504c9d-7518-4bac-b2a8-fec9ea3d9cd0","ios":"levelo://app?vid=a9504c9d-7518-4bac-b2a8-fec9ea3d9cd0"},"vehicle_type_id":"4","last_reported":1753607481,"current_range_meters":16400,"station_id":"cpo3342slgdg3j2ifvpg","pricing_plan_id":"cebpf4jnsgd1na2vs0mg"},{"bike_id":"6f4f77f3-f698-45c8-b168-3bd095af11b2","system_id":"levelo_inurba_marseille","lat":43.29913,"lon":5.3753,"is_reserved":false,"is_disabled":false,"rental_uris":{"android":"levelo://app?vid=6f4f77f3-f698-45c8-b168-3bd095af11b2","ios":"levelo://app?vid=6f4f77f3-f698-45c8-b168-3bd095af11b2"},"vehicle_type_id":"4","last_reported":1753607481,"current_range_meters":16400,"station_id":"ce4bgjh2rcd13ifvqbg0","pricing_plan_id":"cebpf4jnsgd1na2vs0mg"},{"bike_id":"3152576e-d602-4c3f-980e-717f41aed773","system_id":"levelo_inurba_marseille","lat":43.33737,"lon":5.37465,"is_reserved":false,"is_disabled":false,"rental_uris":{"android":"levelo://app?vid=3152576e-d602-4c3f-980e-717f41aed773","ios":"levelo://app?vid=3152576e-d602-4c3f-980e-717f41aed773"},"vehicle_type_id":"4","last_reported":1753607481,"current_range_meters":16400,"station_id":"","pricing_plan_id":"cebpf4jnsgd1na2vs0mg"},{"bike_id":"2b3c19e6-c1fe-41b8-bd8e-8d7ebd8c615e","system_id":"levelo_inurba_marseille","lat":43.3041,"lon":5.41281,"is_reserved":false,"is_disabled":false,"rental_uris":{"android":"levelo://app?vid=2b3c19e6-c1fe-41b8-bd8e-8d7ebd8c615e","ios":"levelo://app?vid=2b3c19e6-c1fe-41b8-bd8e-8d7ebd8c615e"},"vehicle_type_id":"4","last_reported":1753607481,"current_range_meters":16400,"station_id":"ce4bhop2rcd13ifvqh8g","pricing_plan_id":"cebpf4jnsgd1na2vs0mg"},{"bike_id":"5bf3ed1a-1969-409f-8d81-292c7d10a407","system_id":"levelo_inurba_marseille","lat":43.32105,"lon":5.36767,"is_reserved":false,"is_disabled":false,"rental_uris":{"android":"levelo://app?vid=5bf3ed1a-1969-409f-8d81-292c7d10a407","ios":"levelo://app?vid=5bf3ed1a-1969-409f-8d81-292c7d10a407"},"vehicle_type_id":"4","last_reported":1753607481,"current_range_meters":16800,"station_id":"ce4bhrh2rcd13ifvqhug","pricing_plan_id":"cebpf4jnsgd1na2vs0mg"},{"bike_id":"7c5dc5f1-6d19-4bae-8e64-f46388fc2cc5","system_id":"levelo_inurba_marseille","lat":43.30239,"lon":5.40102,"is_reserved":false,"is_disabled":false,"rental_uris":{"android":"levelo://app?vid=7c5dc5f1-6d19-4bae-8e64-f46388fc2cc5","ios":"levelo://app?vid=7c5dc5f1-6d19-4bae-8e64-f46388fc2cc5"},"vehicle_type_id":"4","last_reported":1753607481,"current_range_meters":16800,"station_id":"ce4bgvh2rcd13ifvqcs0","pricing_plan_id":"cebpf4jnsgd1na2vs0mg"},{"bike_id":"489fa661-5560-4418-9975-e02446073e70","system_id":"levelo_inurba_marseille","lat":43.32294,"lon":5.38277,"is_reserved":false,"is_disabled":false,"rental_uris":{"android":"levelo://app?vid=489fa661-5560-4418-9975-e02446073e70","ios":"levelo://app?vid=489fa661-5560-4418-9975-e02446073e70"},"vehicle_type_id":"4","last_reported":1753607481,"current_range_meters":16800,"station_id":"ce4bhr12rcd13ifvqhqg","pricing_plan_id":"cebpf4jnsgd1na2vs0mg"},{"bike_id":"b65f4e3b-a4f8-4bac-b64a-9a35477c4f80","system_id":"levelo_inurba_marseille","lat":43.262097,"lon":5.374356,"is_reserved":false,"is_disabled":false,"rental_uris":{"android":"levelo://app?vid=b65f4e3b-a4f8-4bac-b64a-9a35477c4f80","ios":"levelo://app?vid=b65f4e3b-a4f8-4bac-b64a-9a35477c4f80"},"vehicle_type_id":"4","last_reported":1753607481,"current_range_meters":16800,"station_id":"","pricing_plan_id":"cebpf4jnsgd1na2vs0mg"},{"bike_id":"e347e191-2146-4139-b8f3-fb84c59c2ce7","system_id":"levelo_inurba_marseille","lat":43.23186,"lon":5.39986,"is_reserved":false,"is_disabled":false,"rental_uris":{"android":"levelo://app?vid=e347e191-2146-4139-b8f3-fb84c59c2ce7","ios":"levelo://app?vid=e347e191-2146-4139-b8f3-fb84c59c2ce7"},"vehicle_type_id":"4","last_reported":1753607481,"current_range_meters":16800,"station_id":"ce4bhn12rcd13ifvqgqg","pricing_plan_id":"cebpf4jnsgd1na2vs0mg"},{"bike_id":"48538135-5d0a-49ee-9320-155fbd091354","system_id":"levelo_inurba_marseille","lat":43.25944,"lon":5.40912,"is_reserved":false,"is_disabled":false,"rental_uris":{"android":"levelo://app?vid=48538135-5d0a-49ee-9320-155fbd091354","ios":"levelo://app?vid=48538135-5d0a-49ee-9320-155fbd091354"},"vehicle_type_id":"4","last_reported":1753607481,"current_range_meters":16800,"station_id":"ce4bhm92rcd13ifvqglg","pricing_plan_id":"cebpf4jnsgd1na2vs0mg"},{"bike_id":"702fbc69-7ecf-4ef2-935f-2eb604378010","system_id":"levelo_inurba_marseille","lat":43.30321,"lon":5.40456,"is_reserved":false,"is_disabled":false,"rental_uris":{"android":"levelo://app?vid=702fbc69-7ecf-4ef2-935f-2eb604378010","ios":"levelo://app?vid=702fbc69-7ecf-4ef2-935f-2eb604378010"},"vehicle_type_id":"4","last_reported":1753607481,"current_range_meters":16800,"station_id":"ce4bh012rcd13ifvqd10","pricing_plan_id":"cebpf4jnsgd1na2vs0mg"},{"bike_id":"ed2bf06c-c32a-4646-8100-8731f76f9b06","system_id":"levelo_inurba_marseille","lat":43.2841,"lon":5.34978,"is_reserved":false,"is_disabled":false,"rental_uris":{"android":"levelo://app?vid=ed2bf06c-c32a-4646-8100-8731f76f9b06","ios":"levelo://app?vid=ed2bf06c-c32a-4646-8100-8731f76f9b06"},"vehicle_type_id":"4","last_reported":1753607481,"current_range_meters":16800,"station_id":"ce4bhbh2rcd13ifvqepg","pricing_plan_id":"cebpf4jnsgd1na2vs0mg"},{"bike_id":"d8cd6055-23c8-4622-a5bf-68f9b9ebfe53","system_id":"levelo_inurba_marseille","lat":43.27063,"lon":5.422699,"is_reserved":false,"is_disabled":true,"rental_uris":{"android":"levelo://app?vid=d8cd6055-23c8-4622-a5bf-68f9b9ebfe53","ios":"levelo://app?vid=d8cd6055-23c8-4622-a5bf-68f9b9ebfe53"},"vehicle_type_id":"4","last_reported":1753607481,"current_range_meters":16800,"station_id":"ce4bhk92rcd13ifvqgb0","pricing_plan_id":"cebpf4jnsgd1na2vs0mg"},{"bike_id":"56ec8761-dee0-49c1-aba7-a69ac65d386f","system_id":"levelo_inurba_marseille","lat":43.229371,"lon":5.353749,"is_reserved":false,"is_disabled":false,"rental_uris":{"android":"levelo://app?vid=56ec8761-dee0-49c1-aba7-a69ac65d386f","ios":"levelo://app?vid=56ec8761-dee0-49c1-aba7-a69ac65d386f"},"vehicle_type_id":"4","last_reported":1753607481,"current_range_meters":16800,"station_id":"cpo3532slgdg3j2ikp40","pricing_plan_id":"cebpf4jnsgd1na2vs0mg"},{"bike_id":"09ca65fb-b1a9-4af3-8b38-94a9f629d2db","system_id":"levelo_inurba_marseille","lat":43.24084,"lon":5.37749,"is_reserved":false,"is_disabled":false,"rental_uris":{"android":"levelo://app?vid=09ca65fb-b1a9-4af3-8b38-94a9f629d2db","ios":"levelo://app?vid=09ca65fb-b1a9-4af3-8b38-94a9f629d2db"},"vehicle_type_id":"4","last_reported":1753607481,"current_range_meters":17200,"station_id":"ce4bhnp2rcd13ifvqgvg","pricing_plan_id":"cebpf4jnsgd1na2vs0mg"},{"bike_id":"f9999ec6-9371-4e85-b7d5-6a9f0024b861","system_id":"levelo_inurba_marseille","lat":43.31392,"lon":5.37101,"is_reserved":false,"is_disabled":false,"rental_uris":{"android":"levelo://app?vid=f9999ec6-9371-4e85-b7d5-6a9f0024b861","ios":"levelo://app?vid=f9999ec6-9371-4e85-b7d5-6a9f0024b861"},"vehicle_type_id":"4","last_reported":1753607481,"current_range_meters":17200,"station_id":"","pricing_plan_id":"cebpf4jnsgd1na2vs0mg"},{"bike_id":"cefaf313-76a2-46ed-93b0-1824639624fa","system_id":"levelo_inurba_marseille","lat":43.293068,"lon":5.401396,"is_reserved":false,"is_disabled":false,"rental_uris":{"android":"levelo://app?vid=cefaf313-76a2-46ed-93b0-1824639624fa","ios":"levelo://app?vid=cefaf313-76a2-46ed-93b0-1824639624fa"},"vehicle_type_id":"4","last_reported":1753607481,"current_range_meters":17200,"station_id":"ce4bh312rcd13ifvqdk0","pricing_plan_id":"cebpf4jnsgd1na2vs0mg"},{"bike_id":"87a4d710-c859-4883-a056-db27db09862e","system_id":"levelo_inurba_marseille","lat":43.277585,"lon":5.355971,"is_reserved":false,"is_disabled":false,"rental_uris":{"android":"levelo://app?vid=87a4d710-c859-4883-a056-db27db09862e","ios":"levelo://app?vid=87a4d710-c859-4883-a056-db27db09862e"},"vehicle_type_id":"4","last_reported":1753607481,"current_range_meters":17200,"station_id":"","pricing_plan_id":"cebpf4jnsgd1na2vs0mg"},{"bike_id":"4d5f84b7-a55d-420e-b2eb-d786d198c2f5","system_id":"levelo_inurba_marseille","lat":43.26579,"lon":5.3902,"is_reserved":false,"is_disabled":false,"rental_uris":{"android":"levelo://app?vid=4d5f84b7-a55d-420e-b2eb-d786d198c2f5","ios":"levelo://app?vid=4d5f84b7-a55d-420e-b2eb-d786d198c2f5"},"vehicle_type_id":"4","last_reported":1753607481,"current_range_meters":17200,"station_id":"ce4bhe12rcd13ifvqf30","pricing_plan_id":"cebpf4jnsgd1na2vs0mg"},{"bike_id":"54e8fb3e-625c-491c-98d5-b2da3954c5ac","system_id":"levelo_inurba_marseille","lat":43.28617,"lon":5.3511,"is_reserved":false,"is_disabled":false,"rental_uris":{"android":"levelo://app?vid=54e8fb3e-625c-491c-98d5-b2da3954c5ac","ios":"levelo://app?vid=54e8fb3e-625c-491c-98d5-b2da3954c5ac"},"vehicle_type_id":"4","last_reported":1753607481,"current_range_meters":17200,"station_id":"ce4bhch2rcd13ifvqeug","pricing_plan_id":"cebpf4jnsgd1na2vs0mg"},{"bike_id":"0ecb478d-d04e-40c7-83db-4e066b025b54","system_id":"levelo_inurba_marseille","lat":43.286165,"lon":5.370563,"is_reserved":false,"is_disabled":false,"rental_uris":{"android":"levelo://app?vid=0ecb478d-d04e-40c7-83db-4e066b025b54","ios":"levelo://app?vid=0ecb478d-d04e-40c7-83db-4e066b025b54"},"vehicle_type_id":"4","last_reported":1753607481,"current_range_meters":17200,"station_id":"ce4bht12rcd13ifvqi60","pricing_plan_id":"cebpf4jnsgd1na2vs0mg"},{"bike_id":"220cf17f-9c61-468f-af88-f24ca56003a4","system_id":"levelo_inurba_marseille","lat":43.30581,"lon":5.37234,"is_reserved":false,"is_disabled":false,"rental_uris":{"android":"levelo://app?vid=220cf17f-9c61-468f-af88-f24ca56003a4","ios":"levelo://app?vid=220cf17f-9c61-468f-af88-f24ca56003a4"},"vehicle_type_id":"4","last_reported":1753607481,"current_range_meters":17200,"station_id":"ce4bgqh2rcd13ifvqc4g","pricing_plan_id":"cebpf4jnsgd1na2vs0mg"},{"bike_id":"2edf8151-cb92-46cc-9321-24e397aeed28","system_id":"levelo_inurba_marseille","lat":43.23063,"lon":5.35499,"is_reserved":false,"is_disabled":false,"rental_uris":{"android":"levelo://app?vid=2edf8151-cb92-46cc-9321-24e397aeed28","ios":"levelo://app?vid=2edf8151-cb92-46cc-9321-24e397aeed28"},"vehicle_type_id":"4","last_reported":1753607481,"current_range_meters":17600,"station_id":"cpo3342slgdg3j2ifvpg","pricing_plan_id":"cebpf4jnsgd1na2vs0mg"},{"bike_id":"d6f576dc-ffe7-4ab5-bc96-13103d0759e3","system_id":"levelo_inurba_marseille","lat":43.23965,"lon":5.36633,"is_reserved":false,"is_disabled":false,"rental_uris":{"android":"levelo://app?vid=d6f576dc-ffe7-4ab5-bc96-13103d0759e3","ios":"levelo://app?vid=d6f576dc-ffe7-4ab5-bc96-13103d0759e3"},"vehicle_type_id":"4","last_reported":1753607481,"current_range_meters":17600,"station_id":"ce4bhi12rcd13ifvqfp0","pricing_plan_id":"cebpf4jnsgd1na2vs0mg"},{"bike_id":"f843fcb4-7cb9-4195-8cf9-1ecbe360cf0a","system_id":"levelo_inurba_marseille","lat":43.28415,"lon":5.3502,"is_reserved":false,"is_disabled":false,"rental_uris":{"android":"levelo://app?vid=f843fcb4-7cb9-4195-8cf9-1ecbe360cf0a","ios":"levelo://app?vid=f843fcb4-7cb9-4195-8cf9-1ecbe360cf0a"},"vehicle_type_id":"4","last_reported":1753607481,"current_range_meters":17600,"station_id":"ce4bhbh2rcd13ifvqepg","pricing_plan_id":"cebpf4jnsgd1na2vs0mg"},{"bike_id":"96cb9b33-e675-4586-9193-9f0a3309af58","system_id":"levelo_inurba_marseille","lat":43.248142,"lon":5.374556,"is_reserved":false,"is_disabled":true,"rental_uris":{"android":"levelo://app?vid=96cb9b33-e675-4586-9193-9f0a3309af58","ios":"levelo://app?vid=96cb9b33-e675-4586-9193-9f0a3309af58"},"vehicle_type_id":"4","last_reported":1753607481,"current_range_meters":17600,"station_id":"ce4bhgh2rcd13ifvqfb0","pricing_plan_id":"cebpf4jnsgd1na2vs0mg"},{"bike_id":"21119b74-9092-450b-a780-dc3f5e5aa101","system_id":"levelo_inurba_marseille","lat":43.24072,"lon":5.37816,"is_reserved":false,"is_disabled":false,"rental_uris":{"android":"levelo://app?vid=21119b74-9092-450b-a780-dc3f5e5aa101","ios":"levelo://app?vid=21119b74-9092-450b-a780-dc3f5e5aa101"},"vehicle_type_id":"4","last_reported":1753607481,"current_range_meters":17600,"station_id":"ce4bhnp2rcd13ifvqgvg","pricing_plan_id":"cebpf4jnsgd1na2vs0mg"},{"bike_id":"329681ee-4b7c-4b42-a093-9c4985b10282","system_id":"levelo_inurba_marseille","lat":43.28412,"lon":5.34991,"is_reserved":false,"is_disabled":true,"rental_uris":{"android":"levelo://app?vid=329681ee-4b7c-4b42-a093-9c4985b10282","ios":"levelo://app?vid=329681ee-4b7c-4b42-a093-9c4985b10282"},"vehicle_type_id":"4","last_reported":1753607481,"current_range_meters":17600,"station_id":"ce4bhbh2rcd13ifvqepg","pricing_plan_id":"cebpf4jnsgd1na2vs0mg"},{"bike_id":"21aa107a-bf62-4e00-bfde-e3a216054615","system_id":"levelo_inurba_marseille","lat":43.30163,"lon":5.38089,"is_reserved":false,"is_disabled":false,"rental_uris":{"android":"levelo://app?vid=21aa107a-bf62-4e00-bfde-e3a216054615","ios":"levelo://app?vid=21aa107a-bf62-4e00-bfde-e3a216054615"},"vehicle_type_id":"4","last_reported":1753607481,"current_range_meters":17600,"station_id":"ce4bgjp2rcd13ifvqbh0","pricing_plan_id":"cebpf4jnsgd1na2vs0mg"},{"bike_id":"06b37b78-75ad-42cc-bf01-6fceceed78c5","system_id":"levelo_inurba_marseille","lat":43.23966,"lon":5.36638,"is_reserved":false,"is_disabled":false,"rental_uris":{"android":"levelo://app?vid=06b37b78-75ad-42cc-bf01-6fceceed78c5","ios":"levelo://app?vid=06b37b78-75ad-42cc-bf01-6fceceed78c5"},"vehicle_type_id":"4","last_reported":1753607481,"current_range_meters":18000,"station_id":"ce4bhi12rcd13ifvqfp0","pricing_plan_id":"cebpf4jnsgd1na2vs0mg"},{"bike_id":"20b2993f-2d7d-4ea7-8f0a-38958a8bb82a","system_id":"levelo_inurba_marseille","lat":43.2792,"lon":5.39577,"is_reserved":false,"is_disabled":false,"rental_uris":{"android":"levelo://app?vid=20b2993f-2d7d-4ea7-8f0a-38958a8bb82a","ios":"levelo://app?vid=20b2993f-2d7d-4ea7-8f0a-38958a8bb82a"},"vehicle_type_id":"4","last_reported":1753607481,"current_range_meters":18000,"station_id":"ce4bhf92rcd13ifvqf40","pricing_plan_id":"cebpf4jnsgd1na2vs0mg"},{"bike_id":"f4a8a670-189b-48a4-9dde-b40858d05778","system_id":"levelo_inurba_marseille","lat":43.31698,"lon":5.40425,"is_reserved":false,"is_disabled":false,"rental_uris":{"android":"levelo://app?vid=f4a8a670-189b-48a4-9dde-b40858d05778","ios":"levelo://app?vid=f4a8a670-189b-48a4-9dde-b40858d05778"},"vehicle_type_id":"4","last_reported":1753607481,"current_range_meters":18000,"station_id":"ce4bh012rcd13ifvqd00","pricing_plan_id":"cebpf4jnsgd1na2vs0mg"},{"bike_id":"098b018e-2607-4af2-bc10-8758893e88ea","system_id":"levelo_inurba_marseille","lat":43.240709,"lon":5.377577,"is_reserved":false,"is_disabled":false,"rental_uris":{"android":"levelo://app?vid=098b018e-2607-4af2-bc10-8758893e88ea","ios":"levelo://app?vid=098b018e-2607-4af2-bc10-8758893e88ea"},"vehicle_type_id":"4","last_reported":1753607481,"current_range_meters":18000,"station_id":"ce4bhnp2rcd13ifvqgvg","pricing_plan_id":"cebpf4jnsgd1na2vs0mg"},{"bike_id":"7fd76c9e-4d33-4b7e-95bd-222e0d10502e","system_id":"levelo_inurba_marseille","lat":43.30451,"lon":5.3977,"is_reserved":false,"is_disabled":false,"rental_uris":{"android":"levelo://app?vid=7fd76c9e-4d33-4b7e-95bd-222e0d10502e","ios":"levelo://app?vid=7fd76c9e-4d33-4b7e-95bd-222e0d10502e"},"vehicle_type_id":"4","last_reported":1753607481,"current_range_meters":18000,"station_id":"ce4bh092rcd13ifvqd20","pricing_plan_id":"cebpf4jnsgd1na2vs0mg"},{"bike_id":"33e2c202-62f9-4aec-9348-add733ea8131","system_id":"levelo_inurba_marseille","lat":43.301484,"lon":5.380832,"is_reserved":false,"is_disabled":false,"rental_uris":{"android":"levelo://app?vid=33e2c202-62f9-4aec-9348-add733ea8131","ios":"levelo://app?vid=33e2c202-62f9-4aec-9348-add733ea8131"},"vehicle_type_id":"4","last_reported":1753607481,"current_range_meters":18000,"station_id":"ce4bgjp2rcd13ifvqbh0","pricing_plan_id":"cebpf4jnsgd1na2vs0mg"},{"bike_id":"209c73e6-1f69-4d13-9fed-77cb46eecd05","system_id":"levelo_inurba_marseille","lat":43.34681,"lon":5.38065,"is_reserved":false,"is_disabled":false,"rental_uris":{"android":"levelo://app?vid=209c73e6-1f69-4d13-9fed-77cb46eecd05","ios":"levelo://app?vid=209c73e6-1f69-4d13-9fed-77cb46eecd05"},"vehicle_type_id":"4","last_reported":1753607481,"current_range_meters":18000,"station_id":"","pricing_plan_id":"cebpf4jnsgd1na2vs0mg"},{"bike_id":"e00168b7-a5cc-4782-9fc4-2adde691a41d","system_id":"levelo_inurba_marseille","lat":43.30809,"lon":5.38166,"is_reserved":false,"is_disabled":false,"rental_uris":{"android":"levelo://app?vid=e00168b7-a5cc-4782-9fc4-2adde691a41d","ios":"levelo://app?vid=e00168b7-a5cc-4782-9fc4-2adde691a41d"},"vehicle_type_id":"4","last_reported":1753607481,"current_range_meters":18800,"station_id":"ce4bgt12rcd13ifvqce0","pricing_plan_id":"cebpf4jnsgd1na2vs0mg"},{"bike_id":"f7331053-00f9-4a82-be77-15a848ac5592","system_id":"levelo_inurba_marseille","lat":43.29292,"lon":5.36842,"is_reserved":false,"is_disabled":false,"rental_uris":{"android":"levelo://app?vid=f7331053-00f9-4a82-be77-15a848ac5592","ios":"levelo://app?vid=f7331053-00f9-4a82-be77-15a848ac5592"},"vehicle_type_id":"4","last_reported":1753607481,"current_range_meters":18800,"station_id":"ce4bhbp2rcd13ifvqesg","pricing_plan_id":"cebpf4jnsgd1na2vs0mg"},{"bike_id":"f0cdf0c8-bc5a-4d40-b028-109d2b47cbb8","system_id":"levelo_inurba_marseille","lat":43.31706,"lon":5.4047,"is_reserved":false,"is_disabled":false,"rental_uris":{"android":"levelo://app?vid=f0cdf0c8-bc5a-4d40-b028-109d2b47cbb8","ios":"levelo://app?vid=f0cdf0c8-bc5a-4d40-b028-109d2b47cbb8"},"vehicle_type_id":"4","last_reported":1753607481,"current_range_meters":18800,"station_id":"ce4bh012rcd13ifvqd00","pricing_plan_id":"cebpf4jnsgd1na2vs0mg"},{"bike_id":"95dd70e4-879c-49e7-b318-a6c71b22a43e","system_id":"levelo_inurba_marseille","lat":43.2703,"lon":5.39295,"is_reserved":false,"is_disabled":false,"rental_uris":{"android":"levelo://app?vid=95dd70e4-879c-49e7-b318-a6c71b22a43e","ios":"levelo://app?vid=95dd70e4-879c-49e7-b318-a6c71b22a43e"},"vehicle_type_id":"4","last_reported":1753607481,"current_range_meters":18800,"station_id":"","pricing_plan_id":"cebpf4jnsgd1na2vs0mg"},{"bike_id":"62f0adcc-1f39-4436-99c8-3e0814d46c2f","system_id":"levelo_inurba_marseille","lat":43.25618,"lon":5.37676,"is_reserved":false,"is_disabled":false,"rental_uris":{"android":"levelo://app?vid=62f0adcc-1f39-4436-99c8-3e0814d46c2f","ios":"levelo://app?vid=62f0adcc-1f39-4436-99c8-3e0814d46c2f"},"vehicle_type_id":"4","last_reported":1753607481,"current_range_meters":18800,"station_id":"","pricing_plan_id":"cebpf4jnsgd1na2vs0mg"},{"bike_id":"58bb0d3b-abb7-4bfb-a18d-edc210608014","system_id":"levelo_inurba_marseille","lat":43.22935,"lon":5.35394,"is_reserved":false,"is_disabled":false,"rental_uris":{"android":"levelo://app?vid=58bb0d3b-abb7-4bfb-a18d-edc210608014","ios":"levelo://app?vid=58bb0d3b-abb7-4bfb-a18d-edc210608014"},"vehicle_type_id":"4","last_reported":1753607481,"current_range_meters":18800,"station_id":"cpo3532slgdg3j2ikp40","pricing_plan_id":"cebpf4jnsgd1na2vs0mg"},{"bike_id":"149fbe11-3bce-47a0-b584-c7c7bd6bb12f","system_id":"levelo_inurba_marseille","lat":43.21623,"lon":5.34462,"is_reserved":false,"is_disabled":false,"rental_uris":{"android":"levelo://app?vid=149fbe11-3bce-47a0-b584-c7c7bd6bb12f","ios":"levelo://app?vid=149fbe11-3bce-47a0-b584-c7c7bd6bb12f"},"vehicle_type_id":"4","last_reported":1753607481,"current_range_meters":18800,"station_id":"","pricing_plan_id":"cebpf4jnsgd1na2vs0mg"},{"bike_id":"8fb5a2db-da4c-447d-8305-b6ddf41e048a","system_id":"levelo_inurba_marseille","lat":43.306505,"lon":5.400865,"is_reserved":false,"is_disabled":false,"rental_uris":{"android":"levelo://app?vid=8fb5a2db-da4c-447d-8305-b6ddf41e048a","ios":"levelo://app?vid=8fb5a2db-da4c-447d-8305-b6ddf41e048a"},"vehicle_type_id":"4","last_reported":1753607481,"current_range_meters":18800,"station_id":"ce4bh112rcd13ifvqda0","pricing_plan_id":"cebpf4jnsgd1na2vs0mg"},{"bike_id":"32a747e2-27c2-49de-8556-18e76d1bff8f","system_id":"levelo_inurba_marseille","lat":43.31189,"lon":5.38746,"is_reserved":false,"is_disabled":false,"rental_uris":{"android":"levelo://app?vid=32a747e2-27c2-49de-8556-18e76d1bff8f","ios":"levelo://app?vid=32a747e2-27c2-49de-8556-18e76d1bff8f"},"vehicle_type_id":"4","last_reported":1753607481,"current_range_meters":19200,"station_id":"ce4bgv12rcd13ifvqcp0","pricing_plan_id":"cebpf4jnsgd1na2vs0mg"},{"bike_id":"a7d896f9-ed90-400f-b521-60f094bf2ab7","system_id":"levelo_inurba_marseille","lat":43.21192,"lon":5.35068,"is_reserved":false,"is_disabled":false,"rental_uris":{"android":"levelo://app?vid=a7d896f9-ed90-400f-b521-60f094bf2ab7","ios":"levelo://app?vid=a7d896f9-ed90-400f-b521-60f094bf2ab7"},"vehicle_type_id":"4","last_reported":1753607481,"current_range_meters":19200,"station_id":"st_cvj6sg6p6f1abm77japg","pricing_plan_id":"cebpf4jnsgd1na2vs0mg"},{"bike_id":"8142408b-84ea-4577-9728-f52c3a5f16f1","system_id":"levelo_inurba_marseille","lat":43.241767,"lon":5.36395,"is_reserved":false,"is_disabled":true,"rental_uris":{"android":"levelo://app?vid=8142408b-84ea-4577-9728-f52c3a5f16f1","ios":"levelo://app?vid=8142408b-84ea-4577-9728-f52c3a5f16f1"},"vehicle_type_id":"4","last_reported":1753607481,"current_range_meters":19200,"station_id":"cpo36qri1sfpv3e86is0","pricing_plan_id":"cebpf4jnsgd1na2vs0mg"},{"bike_id":"01b35794-20fb-4187-b35f-b9a047d0835a","system_id":"levelo_inurba_marseille","lat":43.26025,"lon":5.3755,"is_reserved":false,"is_disabled":false,"rental_uris":{"android":"levelo://app?vid=01b35794-20fb-4187-b35f-b9a047d0835a","ios":"levelo://app?vid=01b35794-20fb-4187-b35f-b9a047d0835a"},"vehicle_type_id":"4","last_reported":1753607481,"current_range_meters":19200,"station_id":"ce4bhgh2rcd13ifvqfa0","pricing_plan_id":"cebpf4jnsgd1na2vs0mg"},{"bike_id":"aa6dedf1-17d5-4042-825f-1869b2b8cfe8","system_id":"levelo_inurba_marseille","lat":43.29263,"lon":5.3844,"is_reserved":false,"is_disabled":false,"rental_uris":{"android":"levelo://app?vid=aa6dedf1-17d5-4042-825f-1869b2b8cfe8","ios":"levelo://app?vid=aa6dedf1-17d5-4042-825f-1869b2b8cfe8"},"vehicle_type_id":"4","last_reported":1753607481,"current_range_meters":19200,"station_id":"ce4bh692rcd13ifvqea0","pricing_plan_id":"cebpf4jnsgd1na2vs0mg"},{"bike_id":"48c5b908-7679-4cd4-8220-0ee7540b8e56","system_id":"levelo_inurba_marseille","lat":43.290343,"lon":5.359221,"is_reserved":false,"is_disabled":false,"rental_uris":{"android":"levelo://app?vid=48c5b908-7679-4cd4-8220-0ee7540b8e56","ios":"levelo://app?vid=48c5b908-7679-4cd4-8220-0ee7540b8e56"},"vehicle_type_id":"4","last_reported":1753607481,"current_range_meters":19200,"station_id":"ce4bha92rcd13ifvqeg0","pricing_plan_id":"cebpf4jnsgd1na2vs0mg"},{"bike_id":"3cdf42d1-28cb-4246-b639-77853e7daea8","system_id":"levelo_inurba_marseille","lat":43.30325,"lon":5.40432,"is_reserved":false,"is_disabled":false,"rental_uris":{"android":"levelo://app?vid=3cdf42d1-28cb-4246-b639-77853e7daea8","ios":"levelo://app?vid=3cdf42d1-28cb-4246-b639-77853e7daea8"},"vehicle_type_id":"4","last_reported":1753607481,"current_range_meters":18800,"station_id":"ce4bh012rcd13ifvqd10","pricing_plan_id":"cebpf4jnsgd1na2vs0mg"},{"bike_id":"9d6f4d9f-a761-4ae2-9e4b-00f8fda461c4","system_id":"levelo_inurba_marseille","lat":43.285712,"lon":5.395003,"is_reserved":false,"is_disabled":true,"rental_uris":{"android":"levelo://app?vid=9d6f4d9f-a761-4ae2-9e4b-00f8fda461c4","ios":"levelo://app?vid=9d6f4d9f-a761-4ae2-9e4b-00f8fda461c4"},"vehicle_type_id":"4","last_reported":1753607481,"current_range_meters":19200,"station_id":"ce4bh292rcd13ifvqdg0","pricing_plan_id":"cebpf4jnsgd1na2vs0mg"},{"bike_id":"82f59eb5-85b1-4344-839f-87e2b32d22f4","system_id":"levelo_inurba_marseille","lat":43.29568,"lon":5.37516,"is_reserved":false,"is_disabled":false,"rental_uris":{"android":"levelo://app?vid=82f59eb5-85b1-4344-839f-87e2b32d22f4","ios":"levelo://app?vid=82f59eb5-85b1-4344-839f-87e2b32d22f4"},"vehicle_type_id":"4","last_reported":1753607481,"current_range_meters":19200,"station_id":"ce4bgh92rcd13ifvqb50","pricing_plan_id":"cebpf4jnsgd1na2vs0mg"},{"bike_id":"08713966-3b1f-4bd3-b58a-85250e888375","system_id":"levelo_inurba_marseille","lat":43.231944,"lon":5.355489,"is_reserved":false,"is_disabled":false,"rental_uris":{"android":"levelo://app?vid=08713966-3b1f-4bd3-b58a-85250e888375","ios":"levelo://app?vid=08713966-3b1f-4bd3-b58a-85250e888375"},"vehicle_type_id":"4","last_reported":1753607481,"current_range_meters":17600,"station_id":"ce4bhu92rcd13ifvqi70","pricing_plan_id":"cebpf4jnsgd1na2vs0mg"},{"bike_id":"3ea0d71c-6a33-435d-83f3-4896a9bfd722","system_id":"levelo_inurba_marseille","lat":43.312874,"lon":5.404998,"is_reserved":false,"is_disabled":false,"rental_uris":{"android":"levelo://app?vid=3ea0d71c-6a33-435d-83f3-4896a9bfd722","ios":"levelo://app?vid=3ea0d71c-6a33-435d-83f3-4896a9bfd722"},"vehicle_type_id":"4","last_reported":1753607481,"current_range_meters":19600,"station_id":"","pricing_plan_id":"cebpf4jnsgd1na2vs0mg"},{"bike_id":"308bf59a-da62-48e3-ae19-11fff609b68f","system_id":"levelo_inurba_marseille","lat":43.27987,"lon":5.41595,"is_reserved":false,"is_disabled":false,"rental_uris":{"android":"levelo://app?vid=308bf59a-da62-48e3-ae19-11fff609b68f","ios":"levelo://app?vid=308bf59a-da62-48e3-ae19-11fff609b68f"},"vehicle_type_id":"4","last_reported":1753607481,"current_range_meters":19600,"station_id":"","pricing_plan_id":"cebpf4jnsgd1na2vs0mg"},{"bike_id":"83a31595-3868-49ec-a29c-2f605595c1fb","system_id":"levelo_inurba_marseille","lat":43.29973,"lon":5.38505,"is_reserved":false,"is_disabled":false,"rental_uris":{"android":"levelo://app?vid=83a31595-3868-49ec-a29c-2f605595c1fb","ios":"levelo://app?vid=83a31595-3868-49ec-a29c-2f605595c1fb"},"vehicle_type_id":"4","last_reported":1753607481,"current_range_meters":19600,"station_id":"ce4bgj92rcd13ifvqbd0","pricing_plan_id":"cebpf4jnsgd1na2vs0mg"},{"bike_id":"47eb4bcd-34cb-4441-8fc0-2fa8b9a9f4b2","system_id":"levelo_inurba_marseille","lat":43.24545,"lon":5.402198,"is_reserved":false,"is_disabled":false,"rental_uris":{"android":"levelo://app?vid=47eb4bcd-34cb-4441-8fc0-2fa8b9a9f4b2","ios":"levelo://app?vid=47eb4bcd-34cb-4441-8fc0-2fa8b9a9f4b2"},"vehicle_type_id":"4","last_reported":1753607481,"current_range_meters":19600,"station_id":"","pricing_plan_id":"cebpf4jnsgd1na2vs0mg"},{"bike_id":"69af1056-d53f-49ab-8c7a-36818e893230","system_id":"levelo_inurba_marseille","lat":43.323589,"lon":5.367517,"is_reserved":false,"is_disabled":false,"rental_uris":{"android":"levelo://app?vid=69af1056-d53f-49ab-8c7a-36818e893230","ios":"levelo://app?vid=69af1056-d53f-49ab-8c7a-36818e893230"},"vehicle_type_id":"4","last_reported":1753607481,"current_range_meters":19600,"station_id":"ce4bhsh2rcd13ifvqi2g","pricing_plan_id":"cebpf4jnsgd1na2vs0mg"},{"bike_id":"47e2491f-adeb-40eb-8e20-cffb91682761","system_id":"levelo_inurba_marseille","lat":43.248109,"lon":5.374561,"is_reserved":false,"is_disabled":false,"rental_uris":{"android":"levelo://app?vid=47e2491f-adeb-40eb-8e20-cffb91682761","ios":"levelo://app?vid=47e2491f-adeb-40eb-8e20-cffb91682761"},"vehicle_type_id":"4","last_reported":1753607481,"current_range_meters":19600,"station_id":"ce4bhgh2rcd13ifvqfb0","pricing_plan_id":"cebpf4jnsgd1na2vs0mg"},{"bike_id":"c5d6c16c-667e-4c61-9e09-b5efae6e86bc","system_id":"levelo_inurba_marseille","lat":43.298976,"lon":5.43674,"is_reserved":false,"is_disabled":false,"rental_uris":{"android":"levelo://app?vid=c5d6c16c-667e-4c61-9e09-b5efae6e86bc","ios":"levelo://app?vid=c5d6c16c-667e-4c61-9e09-b5efae6e86bc"},"vehicle_type_id":"4","last_reported":1753607481,"current_range_meters":19600,"station_id":"ce4bhpp2rcd13ifvqhfg","pricing_plan_id":"cebpf4jnsgd1na2vs0mg"},{"bike_id":"e52d8005-6321-424e-b866-9424defdc722","system_id":"levelo_inurba_marseille","lat":43.280341,"lon":5.369299,"is_reserved":false,"is_disabled":false,"rental_uris":{"android":"levelo://app?vid=e52d8005-6321-424e-b866-9424defdc722","ios":"levelo://app?vid=e52d8005-6321-424e-b866-9424defdc722"},"vehicle_type_id":"4","last_reported":1753607481,"current_range_meters":19600,"station_id":"ce4bha12rcd13ifvqef0","pricing_plan_id":"cebpf4jnsgd1na2vs0mg"},{"bike_id":"5b63db3d-8880-4fbe-a700-b9fe4d044b33","system_id":"levelo_inurba_marseille","lat":43.25501,"lon":5.37649,"is_reserved":false,"is_disabled":false,"rental_uris":{"android":"levelo://app?vid=5b63db3d-8880-4fbe-a700-b9fe4d044b33","ios":"levelo://app?vid=5b63db3d-8880-4fbe-a700-b9fe4d044b33"},"vehicle_type_id":"4","last_reported":1753607481,"current_range_meters":19600,"station_id":"ce4bhh12rcd13ifvqff0","pricing_plan_id":"cebpf4jnsgd1na2vs0mg"},{"bike_id":"ecaeca81-f41e-42d9-9bea-01c875315b83","system_id":"levelo_inurba_marseille","lat":43.280343,"lon":5.369279,"is_reserved":false,"is_disabled":false,"rental_uris":{"android":"levelo://app?vid=ecaeca81-f41e-42d9-9bea-01c875315b83","ios":"levelo://app?vid=ecaeca81-f41e-42d9-9bea-01c875315b83"},"vehicle_type_id":"4","last_reported":1753607481,"current_range_meters":20000,"station_id":"ce4bha12rcd13ifvqef0","pricing_plan_id":"cebpf4jnsgd1na2vs0mg"},{"bike_id":"93c33c47-0b37-4bbf-a053-490efa24e020","system_id":"levelo_inurba_marseille","lat":43.281608,"lon":5.426335,"is_reserved":false,"is_disabled":false,"rental_uris":{"android":"levelo://app?vid=93c33c47-0b37-4bbf-a053-490efa24e020","ios":"levelo://app?vid=93c33c47-0b37-4bbf-a053-490efa24e020"},"vehicle_type_id":"4","last_reported":1753607481,"current_range_meters":20000,"station_id":"ce4bhnh2rcd13ifvqgug","pricing_plan_id":"cebpf4jnsgd1na2vs0mg"},{"bike_id":"9ca1dc77-e4e2-4f96-a29c-41de44805d29","system_id":"levelo_inurba_marseille","lat":43.29624,"lon":5.37163,"is_reserved":false,"is_disabled":false,"rental_uris":{"android":"levelo://app?vid=9ca1dc77-e4e2-4f96-a29c-41de44805d29","ios":"levelo://app?vid=9ca1dc77-e4e2-4f96-a29c-41de44805d29"},"vehicle_type_id":"4","last_reported":1753607481,"current_range_meters":20000,"station_id":"ce4bgnh2rcd13ifvqc0g","pricing_plan_id":"cebpf4jnsgd1na2vs0mg"},{"bike_id":"c6354dbe-7447-447b-a791-963bc788f093","system_id":"levelo_inurba_marseille","lat":43.239568,"lon":5.366216,"is_reserved":false,"is_disabled":false,"rental_uris":{"android":"levelo://app?vid=c6354dbe-7447-447b-a791-963bc788f093","ios":"levelo://app?vid=c6354dbe-7447-447b-a791-963bc788f093"},"vehicle_type_id":"4","last_reported":1753607481,"current_range_meters":20000,"station_id":"ce4bhi12rcd13ifvqfp0","pricing_plan_id":"cebpf4jnsgd1na2vs0mg"},{"bike_id":"72e9581e-243c-489b-ac72-946b1381353f","system_id":"levelo_inurba_marseille","lat":43.30622,"lon":5.37666,"is_reserved":false,"is_disabled":false,"rental_uris":{"android":"levelo://app?vid=72e9581e-243c-489b-ac72-946b1381353f","ios":"levelo://app?vid=72e9581e-243c-489b-ac72-946b1381353f"},"vehicle_type_id":"4","last_reported":1753607481,"current_range_meters":20000,"station_id":"","pricing_plan_id":"cebpf4jnsgd1na2vs0mg"},{"bike_id":"a530a3fb-b3a3-4e65-8eeb-d9e4d0214da9","system_id":"levelo_inurba_marseille","lat":43.245491,"lon":5.395198,"is_reserved":false,"is_disabled":false,"rental_uris":{"android":"levelo://app?vid=a530a3fb-b3a3-4e65-8eeb-d9e4d0214da9","ios":"levelo://app?vid=a530a3fb-b3a3-4e65-8eeb-d9e4d0214da9"},"vehicle_type_id":"4","last_reported":1753607481,"current_range_meters":20000,"station_id":"ce4bhlp2rcd13ifvqgjg","pricing_plan_id":"cebpf4jnsgd1na2vs0mg"},{"bike_id":"26327786-2ed5-4d3d-8d89-2ed874c26053","system_id":"levelo_inurba_marseille","lat":43.27209,"lon":5.39177,"is_reserved":false,"is_disabled":false,"rental_uris":{"android":"levelo://app?vid=26327786-2ed5-4d3d-8d89-2ed874c26053","ios":"levelo://app?vid=26327786-2ed5-4d3d-8d89-2ed874c26053"},"vehicle_type_id":"4","last_reported":1753607481,"current_range_meters":19600,"station_id":"ce4bhhp2rcd13ifvqfm0","pricing_plan_id":"cebpf4jnsgd1na2vs0mg"},{"bike_id":"6df251ef-aa5c-4c92-9648-feb2c70ffe59","system_id":"levelo_inurba_marseille","lat":43.277792,"lon":5.387797,"is_reserved":false,"is_disabled":false,"rental_uris":{"android":"levelo://app?vid=6df251ef-aa5c-4c92-9648-feb2c70ffe59","ios":"levelo://app?vid=6df251ef-aa5c-4c92-9648-feb2c70ffe59"},"vehicle_type_id":"4","last_reported":1753607481,"current_range_meters":20000,"station_id":"ce4bgv92rcd13ifvqcr0","pricing_plan_id":"cebpf4jnsgd1na2vs0mg"},{"bike_id":"99ba5b87-34a2-439b-b5de-45c2efaa1138","system_id":"levelo_inurba_marseille","lat":43.286077,"lon":5.37056,"is_reserved":false,"is_disabled":false,"rental_uris":{"android":"levelo://app?vid=99ba5b87-34a2-439b-b5de-45c2efaa1138","ios":"levelo://app?vid=99ba5b87-34a2-439b-b5de-45c2efaa1138"},"vehicle_type_id":"4","last_reported":1753607481,"current_range_meters":20000,"station_id":"ce4bht12rcd13ifvqi60","pricing_plan_id":"cebpf4jnsgd1na2vs0mg"},{"bike_id":"2a3a9f20-00d1-4c95-a093-ba8e28724bc0","system_id":"levelo_inurba_marseille","lat":43.30616,"lon":5.37606,"is_reserved":false,"is_disabled":false,"rental_uris":{"android":"levelo://app?vid=2a3a9f20-00d1-4c95-a093-ba8e28724bc0","ios":"levelo://app?vid=2a3a9f20-00d1-4c95-a093-ba8e28724bc0"},"vehicle_type_id":"4","last_reported":1753607481,"current_range_meters":20000,"station_id":"","pricing_plan_id":"cebpf4jnsgd1na2vs0mg"},{"bike_id":"19eb41ea-612e-4ca2-b6c5-77ccf692bfb8","system_id":"levelo_inurba_marseille","lat":43.26561,"lon":5.39011,"is_reserved":false,"is_disabled":false,"rental_uris":{"android":"levelo://app?vid=19eb41ea-612e-4ca2-b6c5-77ccf692bfb8","ios":"levelo://app?vid=19eb41ea-612e-4ca2-b6c5-77ccf692bfb8"},"vehicle_type_id":"4","last_reported":1753607481,"current_range_meters":20400,"station_id":"ce4bhe12rcd13ifvqf30","pricing_plan_id":"cebpf4jnsgd1na2vs0mg"},{"bike_id":"aff8db83-dedf-41d9-b166-b70a5209e3fb","system_id":"levelo_inurba_marseille","lat":43.30152,"lon":5.38111,"is_reserved":false,"is_disabled":false,"rental_uris":{"android":"levelo://app?vid=aff8db83-dedf-41d9-b166-b70a5209e3fb","ios":"levelo://app?vid=aff8db83-dedf-41d9-b166-b70a5209e3fb"},"vehicle_type_id":"4","last_reported":1753607481,"current_range_meters":20400,"station_id":"ce4bgjp2rcd13ifvqbh0","pricing_plan_id":"cebpf4jnsgd1na2vs0mg"},{"bike_id":"42c2a6b5-5dcf-4886-a712-944f34e33cec","system_id":"levelo_inurba_marseille","lat":43.30383,"lon":5.42499,"is_reserved":false,"is_disabled":false,"rental_uris":{"android":"levelo://app?vid=42c2a6b5-5dcf-4886-a712-944f34e33cec","ios":"levelo://app?vid=42c2a6b5-5dcf-4886-a712-944f34e33cec"},"vehicle_type_id":"4","last_reported":1753607481,"current_range_meters":20400,"station_id":"ce4bhoh2rcd13ifvqh6g","pricing_plan_id":"cebpf4jnsgd1na2vs0mg"},{"bike_id":"c1764372-bac1-42eb-b1e1-8bb34f75b2a7","system_id":"levelo_inurba_marseille","lat":43.24807,"lon":5.37458,"is_reserved":false,"is_disabled":false,"rental_uris":{"android":"levelo://app?vid=c1764372-bac1-42eb-b1e1-8bb34f75b2a7","ios":"levelo://app?vid=c1764372-bac1-42eb-b1e1-8bb34f75b2a7"},"vehicle_type_id":"4","last_reported":1753607481,"current_range_meters":20400,"station_id":"ce4bhgh2rcd13ifvqfb0","pricing_plan_id":"cebpf4jnsgd1na2vs0mg"},{"bike_id":"3dd2b2f9-64bc-4f1c-ad06-386f2ab19894","system_id":"levelo_inurba_marseille","lat":43.29724,"lon":5.36438,"is_reserved":false,"is_disabled":true,"rental_uris":{"android":"levelo://app?vid=3dd2b2f9-64bc-4f1c-ad06-386f2ab19894","ios":"levelo://app?vid=3dd2b2f9-64bc-4f1c-ad06-386f2ab19894"},"vehicle_type_id":"4","last_reported":1753607481,"current_range_meters":20400,"station_id":"","pricing_plan_id":"cebpf4jnsgd1na2vs0mg"},{"bike_id":"8156ba1c-79d1-400d-96a0-33669bb7caeb","system_id":"levelo_inurba_marseille","lat":43.326037,"lon":5.411629,"is_reserved":false,"is_disabled":false,"rental_uris":{"android":"levelo://app?vid=8156ba1c-79d1-400d-96a0-33669bb7caeb","ios":"levelo://app?vid=8156ba1c-79d1-400d-96a0-33669bb7caeb"},"vehicle_type_id":"4","last_reported":1753607481,"current_range_meters":20400,"station_id":"","pricing_plan_id":"cebpf4jnsgd1na2vs0mg"},{"bike_id":"f3a0aef8-cbf6-467d-9d89-44f6f15ab912","system_id":"levelo_inurba_marseille","lat":43.29902,"lon":5.39741,"is_reserved":false,"is_disabled":false,"rental_uris":{"android":"levelo://app?vid=f3a0aef8-cbf6-467d-9d89-44f6f15ab912","ios":"levelo://app?vid=f3a0aef8-cbf6-467d-9d89-44f6f15ab912"},"vehicle_type_id":"4","last_reported":1753607481,"current_range_meters":20400,"station_id":"ce4bh0h2rcd13ifvqd50","pricing_plan_id":"cebpf4jnsgd1na2vs0mg"},{"bike_id":"161f4cfe-46bd-4ac8-a26e-54569435a7d8","system_id":"levelo_inurba_marseille","lat":43.24179,"lon":5.39741,"is_reserved":false,"is_disabled":false,"rental_uris":{"android":"levelo://app?vid=161f4cfe-46bd-4ac8-a26e-54569435a7d8","ios":"levelo://app?vid=161f4cfe-46bd-4ac8-a26e-54569435a7d8"},"vehicle_type_id":"4","last_reported":1753607481,"current_range_meters":20800,"station_id":"ce4bhn12rcd13ifvqgpg","pricing_plan_id":"cebpf4jnsgd1na2vs0mg"},{"bike_id":"291da3ea-97a2-4e5f-83ee-bd4a025ef24c","system_id":"levelo_inurba_marseille","lat":43.31381,"lon":5.38508,"is_reserved":false,"is_disabled":false,"rental_uris":{"android":"levelo://app?vid=291da3ea-97a2-4e5f-83ee-bd4a025ef24c","ios":"levelo://app?vid=291da3ea-97a2-4e5f-83ee-bd4a025ef24c"},"vehicle_type_id":"4","last_reported":1753607481,"current_range_meters":20800,"station_id":"ce4bgt92rcd13ifvqcf0","pricing_plan_id":"cebpf4jnsgd1na2vs0mg"},{"bike_id":"d4b0442d-37e3-4887-8827-87b59f4e9086","system_id":"levelo_inurba_marseille","lat":43.2977,"lon":5.38108,"is_reserved":false,"is_disabled":false,"rental_uris":{"android":"levelo://app?vid=d4b0442d-37e3-4887-8827-87b59f4e9086","ios":"levelo://app?vid=d4b0442d-37e3-4887-8827-87b59f4e9086"},"vehicle_type_id":"4","last_reported":1753607481,"current_range_meters":20800,"station_id":"","pricing_plan_id":"cebpf4jnsgd1na2vs0mg"},{"bike_id":"afeae264-8007-4fa0-95d3-532c844d0883","system_id":"levelo_inurba_marseille","lat":43.31325,"lon":5.39692,"is_reserved":false,"is_disabled":false,"rental_uris":{"android":"levelo://app?vid=afeae264-8007-4fa0-95d3-532c844d0883","ios":"levelo://app?vid=afeae264-8007-4fa0-95d3-532c844d0883"},"vehicle_type_id":"4","last_reported":1753607481,"current_range_meters":20400,"station_id":"ce4bgvp2rcd13ifvqcu0","pricing_plan_id":"cebpf4jnsgd1na2vs0mg"},{"bike_id":"00bfdcd9-2af7-47d2-b953-fc883db8b693","system_id":"levelo_inurba_marseille","lat":43.22929,"lon":5.35396,"is_reserved":false,"is_disabled":false,"rental_uris":{"android":"levelo://app?vid=00bfdcd9-2af7-47d2-b953-fc883db8b693","ios":"levelo://app?vid=00bfdcd9-2af7-47d2-b953-fc883db8b693"},"vehicle_type_id":"4","last_reported":1753607481,"current_range_meters":20800,"station_id":"cpo3532slgdg3j2ikp40","pricing_plan_id":"cebpf4jnsgd1na2vs0mg"},{"bike_id":"9687e83f-c9ee-495d-80f8-c134a43c7e47","system_id":"levelo_inurba_marseille","lat":43.30326,"lon":5.40466,"is_reserved":false,"is_disabled":false,"rental_uris":{"android":"levelo://app?vid=9687e83f-c9ee-495d-80f8-c134a43c7e47","ios":"levelo://app?vid=9687e83f-c9ee-495d-80f8-c134a43c7e47"},"vehicle_type_id":"4","last_reported":1753607481,"current_range_meters":21600,"station_id":"ce4bh012rcd13ifvqd10","pricing_plan_id":"cebpf4jnsgd1na2vs0mg"},{"bike_id":"d8ee6f50-6e27-41cc-aa68-48f0f9a13b42","system_id":"levelo_inurba_marseille","lat":43.25104,"lon":5.40312,"is_reserved":false,"is_disabled":false,"rental_uris":{"android":"levelo://app?vid=d8ee6f50-6e27-41cc-aa68-48f0f9a13b42","ios":"levelo://app?vid=d8ee6f50-6e27-41cc-aa68-48f0f9a13b42"},"vehicle_type_id":"4","last_reported":1753607481,"current_range_meters":21600,"station_id":"ce4bhlh2rcd13ifvqgig","pricing_plan_id":"cebpf4jnsgd1na2vs0mg"},{"bike_id":"2b5ee67d-d785-4d77-b08d-34f7d2762e12","system_id":"levelo_inurba_marseille","lat":43.30552,"lon":5.36561,"is_reserved":false,"is_disabled":false,"rental_uris":{"android":"levelo://app?vid=2b5ee67d-d785-4d77-b08d-34f7d2762e12","ios":"levelo://app?vid=2b5ee67d-d785-4d77-b08d-34f7d2762e12"},"vehicle_type_id":"4","last_reported":1753607481,"current_range_meters":20800,"station_id":"ce4bgs12rcd13ifvqcag","pricing_plan_id":"cebpf4jnsgd1na2vs0mg"},{"bike_id":"b0ab5733-9178-4a59-b514-fcb025ed2b65","system_id":"levelo_inurba_marseille","lat":43.28613,"lon":5.35115,"is_reserved":false,"is_disabled":false,"rental_uris":{"android":"levelo://app?vid=b0ab5733-9178-4a59-b514-fcb025ed2b65","ios":"levelo://app?vid=b0ab5733-9178-4a59-b514-fcb025ed2b65"},"vehicle_type_id":"4","last_reported":1753607481,"current_range_meters":21600,"station_id":"ce4bhch2rcd13ifvqeug","pricing_plan_id":"cebpf4jnsgd1na2vs0mg"},{"bike_id":"0d7c85f5-c17f-4588-92f6-8a96011cddea","system_id":"levelo_inurba_marseille","lat":43.22933,"lon":5.35371,"is_reserved":false,"is_disabled":false,"rental_uris":{"android":"levelo://app?vid=0d7c85f5-c17f-4588-92f6-8a96011cddea","ios":"levelo://app?vid=0d7c85f5-c17f-4588-92f6-8a96011cddea"},"vehicle_type_id":"4","last_reported":1753607481,"current_range_meters":21600,"station_id":"cpo3532slgdg3j2ikp40","pricing_plan_id":"cebpf4jnsgd1na2vs0mg"},{"bike_id":"95444c0e-267e-4da4-afb4-564387f9099b","system_id":"levelo_inurba_marseille","lat":43.311248,"lon":5.372789,"is_reserved":false,"is_disabled":false,"rental_uris":{"android":"levelo://app?vid=95444c0e-267e-4da4-afb4-564387f9099b","ios":"levelo://app?vid=95444c0e-267e-4da4-afb4-564387f9099b"},