{"last_updated":1692723955,"ttl":30,"version":"2.2","data":{"bikes":[{"bike_id":"f22ca441-4e4e-4660-b824-b2f46943e54d","system_id":"levelo_inurba_marseille","lat":43.312239,"lon":5.368562,"is_reserved":false,"is_disabled":false,"rental_uris":{"android":"levelo://app?vid=f22ca441-4e4e-4660-b824-b2f46943e54d","ios":"levelo://app?vid=f22ca441-4e4e-4660-b824-b2f46943e54d"},"vehicle_type_id":"4","last_reported":1692723958,"current_range_meters":31200,"station_id":"ce4bgl92rcd13ifvqbq0","pricing_plan_id":"free"},{"bike_id":"d2be997d-44d2-40a5-bb20-02aeaaf65fa5","system_id":"levelo_inurba_marseille","lat":43.314811,"lon":5.373103,"is_reserved":false,"is_disabled":false,"rental_uris":{"android":"levelo://app?vid=d2be997d-44d2-40a5-bb20-02aeaaf65fa5","ios":"levelo://app?vid=d2be997d-44d2-40a5-bb20-02aeaaf65fa5"},"vehicle_type_id":"4","last_reported":1692723958,"current_range_meters":31200,"station_id":"ce4bgt12rcd13ifvqcd0","pricing_plan_id":"free"},{"bike_id":"0c138e9b-d789-46b1-8546-1f0c28319f8a","system_id":"levelo_inurba_marseille","lat":43.309039,"lon":5.371797,"is_reserved":false,"is_disabled":false,"rental_uris":{"android":"levelo://app?vid=0c138e9b-d789-46b1-8546-1f0c28319f8a","ios":"levelo://app?vid=0c138e9b-d789-46b1-8546-1f0c28319f8a"},"vehicle_type_id":"4","last_reported":1692723958,"current_range_meters":6800,"station_id":"ce4bguh2rcd13ifvqckg","pricing_plan_id":"free"},{"bike_id":"46740717-cd70-47aa-90e0-377232f2cae9","system_id":"levelo_inurba_marseille","lat":43.3099,"lon":5.37506,"is_reserved":false,"is_disabled":false,"rental_uris":{"android":"levelo://app?vid=46740717-cd70-47aa-90e0-377232f2cae9","ios":"levelo://app?vid=46740717-cd70-47aa-90e0-377232f2cae9"},"vehicle_type_id":"4","last_reported":1692723958,"current_range_meters":24400,"station_id":"","pricing_plan_id":"free"},{"bike_id":"9fbe6e18-d192-44c2-98b5-cafb68b41aa4","system_id":"levelo_inurba_marseille","lat":43.30549,"lon":5.36519,"is_reserved":false,"is_disabled":false,"rental_uris":{"android":"levelo://app?vid=9fbe6e18-d192-44c2-98b5-cafb68b41aa4","ios":"levelo://app?vid=9fbe6e18-d192-44c2-98b5-cafb68b41aa4"},"vehicle_type_id":"4","last_reported":1692723958,"current_range_meters":26400,"station_id":"ce4bgs12rcd13ifvqcag","pricing_plan_id":"free"},{"bike_id":"aaa9a9a4-e0d2-4167-a426-4404b9fa5b04","system_id":"levelo_inurba_marseille","lat":43.30608,"lon":5.3723,"is_reserved":false,"is_disabled":false,"rental_uris":{"android":"levelo://app?vid=aaa9a9a4-e0d2-4167-a426-4404b9fa5b04","ios":"levelo://app?vid=aaa9a9a4-e0d2-4167-a426-4404b9fa5b04"},"vehicle_type_id":"4","last_reported":1692723958,"current_range_meters":26000,"station_id":"","pricing_plan_id":"free"},{"bike_id":"37033d89-7799-4440-881a-fd642f17fa21","system_id":"levelo_inurba_marseille","lat":43.30781,"lon":5.37652,"is_reserved":false,"is_disabled":false,"rental_uris":{"android":"levelo://app?vid=37033d89-7799-4440-881a-fd642f17fa21","ios":"levelo://app?vid=37033d89-7799-4440-881a-fd642f17fa21"},"vehicle_type_id":"4","last_reported":1692723958,"current_range_meters":24400,"station_id":"ce4bgv92rcd13ifvqcq0","pricing_plan_id":"free"},{"bike_id":"874e34a8-80c1-4d79-8e18-aa1bd38adad4","system_id":"levelo_inurba_marseille","lat":43.317065,"lon":5.377313,"is_reserved":false,"is_disabled":false,"rental_uris":{"android":"levelo://app?vid=874e34a8-80c1-4d79-8e18-aa1bd38adad4","ios":"levelo://app?vid=874e34a8-80c1-4d79-8e18-aa1bd38adad4"},"vehicle_type_id":"4","last_reported":1692723958,"current_range_meters":0,"station_id":"ce4bgth2rcd13ifvqch0","pricing_plan_id":"free"},{"bike_id":"bf279468-f40f-45e3-8483-1ad96d3dd83b","system_id":"levelo_inurba_marseille","lat":43.315362,"lon":5.380277,"is_reserved":false,"is_disabled":false,"rental_uris":{"android":"levelo://app?vid=bf279468-f40f-45e3-8483-1ad96d3dd83b","ios":"levelo://app?vid=bf279468-f40f-45e3-8483-1ad96d3dd83b"},"vehicle_type_id":"4","last_reported":1692723958,"current_range_meters":11200,"station_id":"ce4bhsp2rcd13ifvqi50","pricing_plan_id":"free"},{"bike_id":"62ad2164-3505-4d14-9d80-5026eb5eae59","system_id":"levelo_inurba_marseille","lat":43.30166,"lon":5.36589,"is_reserved":false,"is_disabled":false,"rental_uris":{"android":"levelo://app?vid=62ad2164-3505-4d14-9d80-5026eb5eae59","ios":"levelo://app?vid=62ad2164-3505-4d14-9d80-5026eb5eae59"},"vehicle_type_id":"4","last_reported":1692723958,"current_range_meters":9600,"station_id":"ce4bgrh2rcd13ifvqc8g","pricing_plan_id":"free"},{"bike_id":"3440c1df-0a89-4693-9840-12676b95c510","system_id":"levelo_inurba_marseille","lat":43.307898,"lon":5.381549,"is_reserved":false,"is_disabled":false,"rental_uris":{"android":"levelo://app?vid=3440c1df-0a89-4693-9840-12676b95c510","ios":"levelo://app?vid=3440c1df-0a89-4693-9840-12676b95c510"},"vehicle_type_id":"4","last_reported":1692723958,"current_range_meters":0,"station_id":"ce4bgt92rcd13ifvqcg0","pricing_plan_id":"free"},{"bike_id":"3a77cc01-0095-43ed-badc-3429941df23f","system_id":"levelo_inurba_marseille","lat":43.299222,"lon":5.365554,"is_reserved":false,"is_disabled":false,"rental_uris":{"android":"levelo://app?vid=3a77cc01-0095-43ed-badc-3429941df23f","ios":"levelo://app?vid=3a77cc01-0095-43ed-badc-3429941df23f"},"vehicle_type_id":"4","last_reported":1692723958,"current_range_meters":20000,"station_id":"ce4bgm92rcd13ifvqbr0","pricing_plan_id":"free"},{"bike_id":"55e0a04c-eff0-4aa3-b2e4-7e6108012ab3","system_id":"levelo_inurba_marseille","lat":43.299724,"lon":5.371829,"is_reserved":false,"is_disabled":false,"rental_uris":{"android":"levelo://app?vid=55e0a04c-eff0-4aa3-b2e4-7e6108012ab3","ios":"levelo://app?vid=55e0a04c-eff0-4aa3-b2e4-7e6108012ab3"},"vehicle_type_id":"4","last_reported":1692723958,"current_range_meters":400,"station_id":"ce4bgr92rcd13ifvqc7g","pricing_plan_id":"free"},{"bike_id":"95dc9ecf-047e-4c3a-bb12-a5676cb36ad4","system_id":"levelo_inurba_marseille","lat":43.3216,"lon":5.38166,"is_reserved":false,"is_disabled":false,"rental_uris":{"android":"levelo://app?vid=95dc9ecf-047e-4c3a-bb12-a5676cb36ad4","ios":"levelo://app?vid=95dc9ecf-047e-4c3a-bb12-a5676cb36ad4"},"vehicle_type_id":"4","last_reported":1692723958,"current_range_meters":6800,"station_id":"","pricing_plan_id":"free"},{"bike_id":"af3d496e-5970-4e9a-b2a2-7aca57842ac5","system_id":"levelo_inurba_marseille","lat":43.299243,"lon":5.374807,"is_reserved":false,"is_disabled":false,"rental_uris":{"android":"levelo://app?vid=af3d496e-5970-4e9a-b2a2-7aca57842ac5","ios":"levelo://app?vid=af3d496e-5970-4e9a-b2a2-7aca57842ac5"},"vehicle_type_id":"4","last_reported":1692723958,"current_range_meters":16000,"station_id":"ce4bgjh2rcd13ifvqbg0","pricing_plan_id":"free"},{"bike_id":"a8e86434-538d-4f86-9498-bbc200e2274d","system_id":"levelo_inurba_marseille","lat":43.29842,"lon":5.36268,"is_reserved":false,"is_disabled":false,"rental_uris":{"android":"levelo://app?vid=a8e86434-538d-4f86-9498-bbc200e2274d","ios":"levelo://app?vid=a8e86434-538d-4f86-9498-bbc200e2274d"},"vehicle_type_id":"4","last_reported":1692723958,"current_range_meters":22800,"station_id":"ce4bgpp2rcd13ifvqc3g","pricing_plan_id":"free"},{"bike_id":"2f9e2def-2173-4eb4-a460-9a385f59debe","system_id":"levelo_inurba_marseille","lat":43.29921,"lon":5.3747,"is_reserved":false,"is_disabled":false,"rental_uris":{"android":"levelo://app?vid=2f9e2def-2173-4eb4-a460-9a385f59debe","ios":"levelo://app?vid=2f9e2def-2173-4eb4-a460-9a385f59debe"},"vehicle_type_id":"4","last_reported":1692723958,"current_range_meters":31200,"station_id":"ce4bgjh2rcd13ifvqbg0","pricing_plan_id":"free"},{"bike_id":"b885f463-e8c5-42cc-902f-7152167ce1c7","system_id":"levelo_inurba_marseille","lat":43.299243,"lon":5.37481,"is_reserved":false,"is_disabled":false,"rental_uris":{"android":"levelo://app?vid=b885f463-e8c5-42cc-902f-7152167ce1c7","ios":"levelo://app?vid=b885f463-e8c5-42cc-902f-7152167ce1c7"},"vehicle_type_id":"4","last_reported":1692723958,"current_range_meters":31200,"station_id":"ce4bgjh2rcd13ifvqbg0","pricing_plan_id":"free"},{"bike_id":"93dd8526-86be-45ec-b3ec-d4b13889db3c","system_id":"levelo_inurba_marseille","lat":43.311722,"lon":5.387247,"is_reserved":false,"is_disabled":false,"rental_uris":{"android":"levelo://app?vid=93dd8526-86be-45ec-b3ec-d4b13889db3c","ios":"levelo://app?vid=93dd8526-86be-45ec-b3ec-d4b13889db3c"},"vehicle_type_id":"4","last_reported":1692723958,"current_range_meters":7600,"station_id":"ce4bgv12rcd13ifvqcp0","pricing_plan_id":"free"},{"bike_id":"48773837-8a01-4137-95bb-600dc54ff51e","system_id":"levelo_inurba_marseille","lat":43.32293,"lon":5.38234,"is_reserved":false,"is_disabled":false,"rental_uris":{"android":"levelo://app?vid=48773837-8a01-4137-95bb-600dc54ff51e","ios":"levelo://app?vid=48773837-8a01-4137-95bb-600dc54ff51e"},"vehicle_type_id":"4","last_reported":1692723958,"current_range_meters":27600,"station_id":"ce4bhr12rcd13ifvqhqg","pricing_plan_id":"free"},{"bike_id":"3cdee853-3932-4f7b-8951-54dc785de0c8","system_id":"levelo_inurba_marseille","lat":43.297794,"lon":5.370888,"is_reserved":false,"is_disabled":false,"rental_uris":{"android":"levelo://app?vid=3cdee853-3932-4f7b-8951-54dc785de0c8","ios":"levelo://app?vid=3cdee853-3932-4f7b-8951-54dc785de0c8"},"vehicle_type_id":"4","last_reported":1692723958,"current_range_meters":16800,"station_id":"ce4bgop2rcd13ifvqc1g","pricing_plan_id":"free"},{"bike_id":"8bcf9cf7-1543-4ae7-aa4b-2516edc50a09","system_id":"levelo_inurba_marseille","lat":43.32826,"lon":5.36692,"is_reserved":false,"is_disabled":false,"rental_uris":{"android":"levelo://app?vid=8bcf9cf7-1543-4ae7-aa4b-2516edc50a09","ios":"levelo://app?vid=8bcf9cf7-1543-4ae7-aa4b-2516edc50a09"},"vehicle_type_id":"4","last_reported":1692723958,"current_range_meters":10800,"station_id":"ce4bhs92rcd13ifvqi0g","pricing_plan_id":"free"},{"bike_id":"eb70974a-c524-46d9-b5be-026bf2b9f1f4","system_id":"levelo_inurba_marseille","lat":43.32832,"lon":5.36696,"is_reserved":false,"is_disabled":false,"rental_uris":{"android":"levelo://app?vid=eb70974a-c524-46d9-b5be-026bf2b9f1f4","ios":"levelo://app?vid=eb70974a-c524-46d9-b5be-026bf2b9f1f4"},"vehicle_type_id":"4","last_reported":1692723958,"current_range_meters":20400,"station_id":"ce4bhs92rcd13ifvqi0g","pricing_plan_id":"free"},{"bike_id":"c4f64bda-f78b-44c7-8bdb-9d067cd420a4","system_id":"levelo_inurba_marseille","lat":43.32833,"lon":5.36677,"is_reserved":false,"is_disabled":false,"rental_uris":{"android":"levelo://app?vid=c4f64bda-f78b-44c7-8bdb-9d067cd420a4","ios":"levelo://app?vid=c4f64bda-f78b-44c7-8bdb-9d067cd420a4"},"vehicle_type_id":"4","last_reported":1692723958,"current_range_meters":24400,"station_id":"ce4bhs92rcd13ifvqi0g","pricing_plan_id":"free"},{"bike_id":"aefdce55-67b1-4457-a8a5-a60c7d3012b1","system_id":"levelo_inurba_marseille","lat":43.29709,"lon":5.36608,"is_reserved":false,"is_disabled":false,"rental_uris":{"android":"levelo://app?vid=aefdce55-67b1-4457-a8a5-a60c7d3012b1","ios":"levelo://app?vid=aefdce55-67b1-4457-a8a5-a60c7d3012b1"},"vehicle_type_id":"4","last_reported":1692723958,"current_range_meters":6000,"station_id":"ce4bgn12rcd13ifvqbt0","pricing_plan_id":"free"},{"bike_id":"dd789220-e7b5-42c1-b9dc-dc4243148021","system_id":"levelo_inurba_marseille","lat":43.297163,"lon":5.365866,"is_reserved":false,"is_disabled":false,"rental_uris":{"android":"levelo://app?vid=dd789220-e7b5-42c1-b9dc-dc4243148021","ios":"levelo://app?vid=dd789220-e7b5-42c1-b9dc-dc4243148021"},"vehicle_type_id":"4","last_reported":1692723958,"current_range_meters":31200,"station_id":"ce4bgn12rcd13ifvqbt0","pricing_plan_id":"free"},{"bike_id":"aae0ee1a-86d8-4cb1-b013-c4dc5ac790b8","system_id":"levelo_inurba_marseille","lat":43.29707,"lon":5.36605,"is_reserved":false,"is_disabled":false,"rental_uris":{"android":"levelo://app?vid=aae0ee1a-86d8-4cb1-b013-c4dc5ac790b8","ios":"levelo://app?vid=aae0ee1a-86d8-4cb1-b013-c4dc5ac790b8"},"vehicle_type_id":"4","last_reported":1692723958,"current_range_meters":19200,"station_id":"ce4bgn12rcd13ifvqbt0","pricing_plan_id":"free"},{"bike_id":"a520c0e4-9a3e-4c8b-a582-27a7a0b5eb34","system_id":"levelo_inurba_marseille","lat":43.3285,"lon":5.36667,"is_reserved":false,"is_disabled":false,"rental_uris":{"android":"levelo://app?vid=a520c0e4-9a3e-4c8b-a582-27a7a0b5eb34","ios":"levelo://app?vid=a520c0e4-9a3e-4c8b-a582-27a7a0b5eb34"},"vehicle_type_id":"4","last_reported":1692723958,"current_range_meters":16800,"station_id":"ce4bhs92rcd13ifvqi0g","pricing_plan_id":"free"},{"bike_id":"bb155e93-116e-494a-9911-2df351c7dae8","system_id":"levelo_inurba_marseille","lat":43.29626,"lon":5.37162,"is_reserved":false,"is_disabled":false,"rental_uris":{"android":"levelo://app?vid=bb155e93-116e-494a-9911-2df351c7dae8","ios":"levelo://app?vid=bb155e93-116e-494a-9911-2df351c7dae8"},"vehicle_type_id":"4","last_reported":1692723958,"current_range_meters":28800,"station_id":"","pricing_plan_id":"free"},{"bike_id":"d3139180-8ba9-4c91-b6e4-8baae3c22113","system_id":"levelo_inurba_marseille","lat":43.296131,"lon":5.370791,"is_reserved":false,"is_disabled":false,"rental_uris":{"android":"levelo://app?vid=d3139180-8ba9-4c91-b6e4-8baae3c22113","ios":"levelo://app?vid=d3139180-8ba9-4c91-b6e4-8baae3c22113"},"vehicle_type_id":"4","last_reported":1692723958,"current_range_meters":30000,"station_id":"ce4bgnh2rcd13ifvqc0g","pricing_plan_id":"free"},{"bike_id":"12cfb083-3918-4c15-9981-4dbd1ba0d300","system_id":"levelo_inurba_marseille","lat":43.295789,"lon":5.367362,"is_reserved":false,"is_disabled":false,"rental_uris":{"android":"levelo://app?vid=12cfb083-3918-4c15-9981-4dbd1ba0d300","ios":"levelo://app?vid=12cfb083-3918-4c15-9981-4dbd1ba0d300"},"vehicle_type_id":"4","last_reported":1692723958,"current_range_meters":1600,"station_id":"","pricing_plan_id":"free"},{"bike_id":"a9885827-2433-475e-b056-df929f9dc203","system_id":"levelo_inurba_marseille","lat":43.29573,"lon":5.367355,"is_reserved":false,"is_disabled":false,"rental_uris":{"android":"levelo://app?vid=a9885827-2433-475e-b056-df929f9dc203","ios":"levelo://app?vid=a9885827-2433-475e-b056-df929f9dc203"},"vehicle_type_id":"4","last_reported":1692723958,"current_range_meters":17600,"station_id":"ce4bgph2rcd13ifvqc2g","pricing_plan_id":"free"},{"bike_id":"2c93ce6f-c5e1-4ec9-9941-ebb7469bb8f2","system_id":"levelo_inurba_marseille","lat":43.31744,"lon":5.39004,"is_reserved":false,"is_disabled":false,"rental_uris":{"android":"levelo://app?vid=2c93ce6f-c5e1-4ec9-9941-ebb7469bb8f2","ios":"levelo://app?vid=2c93ce6f-c5e1-4ec9-9941-ebb7469bb8f2"},"vehicle_type_id":"4","last_reported":1692723958,"current_range_meters":26800,"station_id":"ce4bhqp2rcd13ifvqhng","pricing_plan_id":"free"},{"bike_id":"55dfbf3a-0928-40ee-803b-0abe52db13e5","system_id":"levelo_inurba_marseille","lat":43.31755,"lon":5.39012,"is_reserved":false,"is_disabled":false,"rental_uris":{"android":"levelo://app?vid=55dfbf3a-0928-40ee-803b-0abe52db13e5","ios":"levelo://app?vid=55dfbf3a-0928-40ee-803b-0abe52db13e5"},"vehicle_type_id":"4","last_reported":1692723958,"current_range_meters":16000,"station_id":"ce4bhqp2rcd13ifvqhng","pricing_plan_id":"free"},{"bike_id":"10d49767-eeb5-4e3d-998d-c554e6e933ef","system_id":"levelo_inurba_marseille","lat":43.317557,"lon":5.390173,"is_reserved":false,"is_disabled":false,"rental_uris":{"android":"levelo://app?vid=10d49767-eeb5-4e3d-998d-c554e6e933ef","ios":"levelo://app?vid=10d49767-eeb5-4e3d-998d-c554e6e933ef"},"vehicle_type_id":"4","last_reported":1692723958,"current_range_meters":21200,"station_id":"ce4bhqp2rcd13ifvqhng","pricing_plan_id":"free"},{"bike_id":"43633dd7-323c-48be-9794-eb609a0ff76b","system_id":"levelo_inurba_marseille","lat":43.298037,"lon":5.381066,"is_reserved":false,"is_disabled":false,"rental_uris":{"android":"levelo://app?vid=43633dd7-323c-48be-9794-eb609a0ff76b","ios":"levelo://app?vid=43633dd7-323c-48be-9794-eb609a0ff76b"},"vehicle_type_id":"4","last_reported":1692723958,"current_range_meters":6800,"station_id":"ce4bgip2rcd13ifvqbb0","pricing_plan_id":"free"},{"bike_id":"952a19e7-6602-41c3-942f-79cfb514366f","system_id":"levelo_inurba_marseille","lat":43.29789,"lon":5.38074,"is_reserved":false,"is_disabled":false,"rental_uris":{"android":"levelo://app?vid=952a19e7-6602-41c3-942f-79cfb514366f","ios":"levelo://app?vid=952a19e7-6602-41c3-942f-79cfb514366f"},"vehicle_type_id":"4","last_reported":1692723958,"current_range_meters":22400,"station_id":"ce4bgip2rcd13ifvqbb0","pricing_plan_id":"free"},{"bike_id":"a4df99ce-0488-49dd-a888-94686f562e88","system_id":"levelo_inurba_marseille","lat":43.295748,"lon":5.37522,"is_reserved":false,"is_disabled":false,"rental_uris":{"android":"levelo://app?vid=a4df99ce-0488-49dd-a888-94686f562e88","ios":"levelo://app?vid=a4df99ce-0488-49dd-a888-94686f562e88"},"vehicle_type_id":"4","last_reported":1692723958,"current_range_meters":29600,"station_id":"ce4bgh92rcd13ifvqb50","pricing_plan_id":"free"},{"bike_id":"80367f96-ed24-40d1-b4f2-11a73f5c5cb1","system_id":"levelo_inurba_marseille","lat":43.29972,"lon":5.38488,"is_reserved":false,"is_disabled":false,"rental_uris":{"android":"levelo://app?vid=80367f96-ed24-40d1-b4f2-11a73f5c5cb1","ios":"levelo://app?vid=80367f96-ed24-40d1-b4f2-11a73f5c5cb1"},"vehicle_type_id":"4","last_reported":1692723958,"current_range_meters":0,"station_id":"ce4bgj92rcd13ifvqbd0","pricing_plan_id":"free"},{"bike_id":"30af49c6-1115-4252-820f-94eeca094247","system_id":"levelo_inurba_marseille","lat":43.299724,"lon":5.384848,"is_reserved":false,"is_disabled":false,"rental_uris":{"android":"levelo://app?vid=30af49c6-1115-4252-820f-94eeca094247","ios":"levelo://app?vid=30af49c6-1115-4252-820f-94eeca094247"},"vehicle_type_id":"4","last_reported":1692723958,"current_range_meters":25200,"station_id":"ce4bgj92rcd13ifvqbd0","pricing_plan_id":"free"},{"bike_id":"caf0e033-1893-4154-bde9-83d4a8a3affc","system_id":"levelo_inurba_marseille","lat":43.299717,"lon":5.384845,"is_reserved":false,"is_disabled":false,"rental_uris":{"android":"levelo://app?vid=caf0e033-1893-4154-bde9-83d4a8a3affc","ios":"levelo://app?vid=caf0e033-1893-4154-bde9-83d4a8a3affc"},"vehicle_type_id":"4","last_reported":1692723958,"current_range_meters":26400,"station_id":"ce4bgj92rcd13ifvqbd0","pricing_plan_id":"free"},{"bike_id":"fda6a56c-ccc0-47a8-b0f3-3f50e99c8648","system_id":"levelo_inurba_marseille","lat":43.299717,"lon":5.384845,"is_reserved":false,"is_disabled":false,"rental_uris":{"android":"levelo://app?vid=fda6a56c-ccc0-47a8-b0f3-3f50e99c8648","ios":"levelo://app?vid=fda6a56c-ccc0-47a8-b0f3-3f50e99c8648"},"vehicle_type_id":"4","last_reported":1692723958,"current_range_meters":8800,"station_id":"ce4bgj92rcd13ifvqbd0","pricing_plan_id":"free"},{"bike_id":"f6fc0863-2f56-418a-9962-174f39542d39","system_id":"levelo_inurba_marseille","lat":43.290103,"lon":5.356114,"is_reserved":false,"is_disabled":false,"rental_uris":{"android":"levelo://app?vid=f6fc0863-2f56-418a-9962-174f39542d39","ios":"levelo://app?vid=f6fc0863-2f56-418a-9962-174f39542d39"},"vehicle_type_id":"4","last_reported":1692723958,"current_range_meters":0,"station_id":"ce4bhb92rcd13ifvqen0","pricing_plan_id":"free"},{"bike_id":"00883cd9-a56a-4720-bb55-237d0136a4a1","system_id":"levelo_inurba_marseille","lat":43.32367,"lon":5.38877,"is_reserved":false,"is_disabled":false,"rental_uris":{"android":"levelo://app?vid=00883cd9-a56a-4720-bb55-237d0136a4a1","ios":"levelo://app?vid=00883cd9-a56a-4720-bb55-237d0136a4a1"},"vehicle_type_id":"4","last_reported":1692723958,"current_range_meters":12800,"station_id":"ce4bhqp2rcd13ifvqhog","pricing_plan_id":"free"},{"bike_id":"3109d42e-0d73-425a-93d1-671778c1fbf7","system_id":"levelo_inurba_marseille","lat":43.32367,"lon":5.388836,"is_reserved":false,"is_disabled":false,"rental_uris":{"android":"levelo://app?vid=3109d42e-0d73-425a-93d1-671778c1fbf7","ios":"levelo://app?vid=3109d42e-0d73-425a-93d1-671778c1fbf7"},"vehicle_type_id":"4","last_reported":1692723958,"current_range_meters":18000,"station_id":"ce4bhqp2rcd13ifvqhog","pricing_plan_id":"free"},{"bike_id":"ede6e3c8-5f07-4a14-8e72-56fc53fe2d02","system_id":"levelo_inurba_marseille","lat":43.29602,"lon":5.381084,"is_reserved":false,"is_disabled":false,"rental_uris":{"android":"levelo://app?vid=ede6e3c8-5f07-4a14-8e72-56fc53fe2d02","ios":"levelo://app?vid=ede6e3c8-5f07-4a14-8e72-56fc53fe2d02"},"vehicle_type_id":"4","last_reported":1692723958,"current_range_meters":25600,"station_id":"ce4bgl12rcd13ifvqbo0","pricing_plan_id":"free"},{"bike_id":"9de1e66b-fe90-41db-a5a1-8faf89baecda","system_id":"levelo_inurba_marseille","lat":43.32367,"lon":5.388836,"is_reserved":false,"is_disabled":false,"rental_uris":{"android":"levelo://app?vid=9de1e66b-fe90-41db-a5a1-8faf89baecda","ios":"levelo://app?vid=9de1e66b-fe90-41db-a5a1-8faf89baecda"},"vehicle_type_id":"4","last_reported":1692723958,"current_range_meters":14800,"station_id":"ce4bhqp2rcd13ifvqhog","pricing_plan_id":"free"},{"bike_id":"d8519647-19ce-4c78-b0d1-6a2314908389","system_id":"levelo_inurba_marseille","lat":43.31875,"lon":5.39383,"is_reserved":false,"is_disabled":false,"rental_uris":{"android":"levelo://app?vid=d8519647-19ce-4c78-b0d1-6a2314908389","ios":"levelo://app?vid=d8519647-19ce-4c78-b0d1-6a2314908389"},"vehicle_type_id":"4","last_reported":1692723958,"current_range_meters":26000,"station_id":"","pricing_plan_id":"free"},{"bike_id":"38fef587-7cc5-4800-b069-87b8f296a10a","system_id":"levelo_inurba_marseille","lat":43.29295,"lon":5.3748,"is_reserved":false,"is_disabled":false,"rental_uris":{"android":"levelo://app?vid=38fef587-7cc5-4800-b069-87b8f296a10a","ios":"levelo://app?vid=38fef587-7cc5-4800-b069-87b8f296a10a"},"vehicle_type_id":"4","last_reported":1692723958,"current_range_meters":31200,"station_id":"ce4bgi12rcd13ifvqb70","pricing_plan_id":"free"},{"bike_id":"0724f352-a262-45b7-9b71-9a09ff17d945","system_id":"levelo_inurba_marseille","lat":43.302992,"lon":5.392136,"is_reserved":false,"is_disabled":false,"rental_uris":{"android":"levelo://app?vid=0724f352-a262-45b7-9b71-9a09ff17d945","ios":"levelo://app?vid=0724f352-a262-45b7-9b71-9a09ff17d945"},"vehicle_type_id":"4","last_reported":1692723958,"current_range_meters":30800,"station_id":"ce4bgkh2rcd13ifvqbk0","pricing_plan_id":"free"},{"bike_id":"64a97017-7a36-4ceb-8933-906acf553464","system_id":"levelo_inurba_marseille","lat":43.29179,"lon":5.37132,"is_reserved":false,"is_disabled":false,"rental_uris":{"android":"levelo://app?vid=64a97017-7a36-4ceb-8933-906acf553464","ios":"levelo://app?vid=64a97017-7a36-4ceb-8933-906acf553464"},"vehicle_type_id":"4","last_reported":1692723958,"current_range_meters":400,"station_id":"ce4bha92rcd13ifvqeh0","pricing_plan_id":"free"},{"bike_id":"b3835bac-680c-4ec9-b3f2-ef42c563ef0d","system_id":"levelo_inurba_marseille","lat":43.291675,"lon":5.371583,"is_reserved":false,"is_disabled":false,"rental_uris":{"android":"levelo://app?vid=b3835bac-680c-4ec9-b3f2-ef42c563ef0d","ios":"levelo://app?vid=b3835bac-680c-4ec9-b3f2-ef42c563ef0d"},"vehicle_type_id":"4","last_reported":1692723958,"current_range_meters":24000,"station_id":"ce4bha92rcd13ifvqeh0","pricing_plan_id":"free"},{"bike_id":"887c34b4-fc9c-4dd0-996e-9a28834a9d6f","system_id":"levelo_inurba_marseille","lat":43.298821,"lon":5.389069,"is_reserved":false,"is_disabled":false,"rental_uris":{"android":"levelo://app?vid=887c34b4-fc9c-4dd0-996e-9a28834a9d6f","ios":"levelo://app?vid=887c34b4-fc9c-4dd0-996e-9a28834a9d6f"},"vehicle_type_id":"4","last_reported":1692723958,"current_range_meters":22800,"station_id":"ce4bh392rcd13ifvqdl0","pricing_plan_id":"free"},{"bike_id":"6238f69c-a14a-42fb-9de8-e09fadee3b55","system_id":"levelo_inurba_marseille","lat":43.30889,"lon":5.39657,"is_reserved":false,"is_disabled":false,"rental_uris":{"android":"levelo://app?vid=6238f69c-a14a-42fb-9de8-e09fadee3b55","ios":"levelo://app?vid=6238f69c-a14a-42fb-9de8-e09fadee3b55"},"vehicle_type_id":"4","last_reported":1692723958,"current_range_meters":1600,"station_id":"ce4bh012rcd13ifvqcv0","pricing_plan_id":"free"},{"bike_id":"7a750f35-1ca0-4f56-8d78-c9c2c2ce3f60","system_id":"levelo_inurba_marseille","lat":43.30877,"lon":5.39656,"is_reserved":false,"is_disabled":false,"rental_uris":{"android":"levelo://app?vid=7a750f35-1ca0-4f56-8d78-c9c2c2ce3f60","ios":"levelo://app?vid=7a750f35-1ca0-4f56-8d78-c9c2c2ce3f60"},"vehicle_type_id":"4","last_reported":1692723958,"current_range_meters":5600,"station_id":"ce4bh012rcd13ifvqcv0","pricing_plan_id":"free"},{"bike_id":"9f6226cc-4cfd-4a16-b65e-13c897ea3556","system_id":"levelo_inurba_marseille","lat":43.30809,"lon":5.39641,"is_reserved":false,"is_disabled":false,"rental_uris":{"android":"levelo://app?vid=9f6226cc-4cfd-4a16-b65e-13c897ea3556","ios":"levelo://app?vid=9f6226cc-4cfd-4a16-b65e-13c897ea3556"},"vehicle_type_id":"4","last_reported":1692723958,"current_range_meters":14000,"station_id":"","pricing_plan_id":"free"},{"bike_id":"1cbb7c9a-78af-43f3-a084-122f98eb3fa4","system_id":"levelo_inurba_marseille","lat":43.29529,"lon":5.385581,"is_reserved":false,"is_disabled":false,"rental_uris":{"android":"levelo://app?vid=1cbb7c9a-78af-43f3-a084-122f98eb3fa4","ios":"levelo://app?vid=1cbb7c9a-78af-43f3-a084-122f98eb3fa4"},"vehicle_type_id":"4","last_reported":1692723958,"current_range_meters":24800,"station_id":"ce4bgih2rcd13ifvqba0","pricing_plan_id":"free"},{"bike_id":"67425c33-c370-4fcf-bd34-16813e929649","system_id":"levelo_inurba_marseille","lat":43.29532,"lon":5.38544,"is_reserved":false,"is_disabled":false,"rental_uris":{"android":"levelo://app?vid=67425c33-c370-4fcf-bd34-16813e929649","ios":"levelo://app?vid=67425c33-c370-4fcf-bd34-16813e929649"},"vehicle_type_id":"4","last_reported":1692723958,"current_range_meters":15200,"station_id":"","pricing_plan_id":"free"},{"bike_id":"1d548f1b-89cf-458c-a345-18c399427adf","system_id":"levelo_inurba_marseille","lat":43.29529,"lon":5.385581,"is_reserved":false,"is_disabled":false,"rental_uris":{"android":"levelo://app?vid=1d548f1b-89cf-458c-a345-18c399427adf","ios":"levelo://app?vid=1d548f1b-89cf-458c-a345-18c399427adf"},"vehicle_type_id":"4","last_reported":1692723958,"current_range_meters":17600,"station_id":"ce4bgih2rcd13ifvqba0","pricing_plan_id":"free"},{"bike_id":"af466c77-fb11-416e-9076-080843eeeea0","system_id":"levelo_inurba_marseille","lat":43.29529,"lon":5.385581,"is_reserved":false,"is_disabled":false,"rental_uris":{"android":"levelo://app?vid=af466c77-fb11-416e-9076-080843eeeea0","ios":"levelo://app?vid=af466c77-fb11-416e-9076-080843eeeea0"},"vehicle_type_id":"4","last_reported":1692723958,"current_range_meters":7200,"station_id":"ce4bgih2rcd13ifvqba0","pricing_plan_id":"free"},{"bike_id":"39b5b5cf-86ef-48ea-a176-58e554756417","system_id":"levelo_inurba_marseille","lat":43.302008,"lon":5.394694,"is_reserved":false,"is_disabled":false,"rental_uris":{"android":"levelo://app?vid=39b5b5cf-86ef-48ea-a176-58e554756417","ios":"levelo://app?vid=39b5b5cf-86ef-48ea-a176-58e554756417"},"vehicle_type_id":"4","last_reported":1692723958,"current_range_meters":31200,"station_id":"ce4bh0p2rcd13ifvqd70","pricing_plan_id":"free"},{"bike_id":"2ebce835-53e1-48bd-b5a6-bfa69eb11271","system_id":"levelo_inurba_marseille","lat":43.290631,"lon":5.359244,"is_reserved":false,"is_disabled":false,"rental_uris":{"android":"levelo://app?vid=2ebce835-53e1-48bd-b5a6-bfa69eb11271","ios":"levelo://app?vid=2ebce835-53e1-48bd-b5a6-bfa69eb11271"},"vehicle_type_id":"4","last_reported":1692723958,"current_range_meters":6000,"station_id":"ce4bha92rcd13ifvqeg0","pricing_plan_id":"free"},{"bike_id":"2a95dd69-ede6-4b6a-974c-74f7f2b51fdd","system_id":"levelo_inurba_marseille","lat":43.29044,"lon":5.37555,"is_reserved":false,"is_disabled":false,"rental_uris":{"android":"levelo://app?vid=2a95dd69-ede6-4b6a-974c-74f7f2b51fdd","ios":"levelo://app?vid=2a95dd69-ede6-4b6a-974c-74f7f2b51fdd"},"vehicle_type_id":"4","last_reported":1692723958,"current_range_meters":24000,"station_id":"ce4bh692rcd13ifvqe90","pricing_plan_id":"free"},{"bike_id":"5b281c77-24e2-48a1-9572-a38697f83833","system_id":"levelo_inurba_marseille","lat":43.294153,"lon":5.386305,"is_reserved":false,"is_disabled":false,"rental_uris":{"android":"levelo://app?vid=5b281c77-24e2-48a1-9572-a38697f83833","ios":"levelo://app?vid=5b281c77-24e2-48a1-9572-a38697f83833"},"vehicle_type_id":"4","last_reported":1692723958,"current_range_meters":2400,"station_id":"ce4bh2h2rcd13ifvqdh0","pricing_plan_id":"free"},{"bike_id":"01f591c9-239b-45ad-82a6-12fcee1d2fd1","system_id":"levelo_inurba_marseille","lat":43.29036,"lon":5.37555,"is_reserved":false,"is_disabled":false,"rental_uris":{"android":"levelo://app?vid=01f591c9-239b-45ad-82a6-12fcee1d2fd1","ios":"levelo://app?vid=01f591c9-239b-45ad-82a6-12fcee1d2fd1"},"vehicle_type_id":"4","last_reported":1692723958,"current_range_meters":0,"station_id":"ce4bh692rcd13ifvqe90","pricing_plan_id":"free"},{"bike_id":"545bcd3d-ba70-4b8f-9f7c-76502ff2a6ae","system_id":"levelo_inurba_marseille","lat":43.294153,"lon":5.386305,"is_reserved":false,"is_disabled":false,"rental_uris":{"android":"levelo://app?vid=545bcd3d-ba70-4b8f-9f7c-76502ff2a6ae","ios":"levelo://app?vid=545bcd3d-ba70-4b8f-9f7c-76502ff2a6ae"},"vehicle_type_id":"4","last_reported":1692723958,"current_range_meters":16400,"station_id":"ce4bh2h2rcd13ifvqdh0","pricing_plan_id":"free"},{"bike_id":"da2c9ae6-1d0c-4143-9e87-118429c6f4ba","system_id":"levelo_inurba_marseille","lat":43.289184,"lon":5.366408,"is_reserved":false,"is_disabled":false,"rental_uris":{"android":"levelo://app?vid=da2c9ae6-1d0c-4143-9e87-118429c6f4ba","ios":"levelo://app?vid=da2c9ae6-1d0c-4143-9e87-118429c6f4ba"},"vehicle_type_id":"4","last_reported":1692723958,"current_range_meters":10000,"station_id":"ce4bhap2rcd13ifvqek0","pricing_plan_id":"free"},{"bike_id":"5e70420c-ebb0-4091-8ea7-c3c788335313","system_id":"levelo_inurba_marseille","lat":43.289184,"lon":5.366408,"is_reserved":false,"is_disabled":false,"rental_uris":{"android":"levelo://app?vid=5e70420c-ebb0-4091-8ea7-c3c788335313","ios":"levelo://app?vid=5e70420c-ebb0-4091-8ea7-c3c788335313"},"vehicle_type_id":"4","last_reported":1692723958,"current_range_meters":4400,"station_id":"ce4bhap2rcd13ifvqek0","pricing_plan_id":"free"},{"bike_id":"ca4baf22-2382-4f26-8e7e-1aed7226a7a3","system_id":"levelo_inurba_marseille","lat":43.289468,"lon":5.363719,"is_reserved":false,"is_disabled":false,"rental_uris":{"android":"levelo://app?vid=ca4baf22-2382-4f26-8e7e-1aed7226a7a3","ios":"levelo://app?vid=ca4baf22-2382-4f26-8e7e-1aed7226a7a3"},"vehicle_type_id":"4","last_reported":1692723958,"current_range_meters":28000,"station_id":"ce4bhc92rcd13ifvqetg","pricing_plan_id":"free"},{"bike_id":"3c08f566-b519-47c4-bd24-e89f60b57b2a","system_id":"levelo_inurba_marseille","lat":43.289184,"lon":5.366408,"is_reserved":false,"is_disabled":false,"rental_uris":{"android":"levelo://app?vid=3c08f566-b519-47c4-bd24-e89f60b57b2a","ios":"levelo://app?vid=3c08f566-b519-47c4-bd24-e89f60b57b2a"},"vehicle_type_id":"4","last_reported":1692723958,"current_range_meters":12400,"station_id":"ce4bhap2rcd13ifvqek0","pricing_plan_id":"free"},{"bike_id":"303e84e1-4d05-454a-b6b5-56142241a967","system_id":"levelo_inurba_marseille","lat":43.292644,"lon":5.384257,"is_reserved":false,"is_disabled":false,"rental_uris":{"android":"levelo://app?vid=303e84e1-4d05-454a-b6b5-56142241a967","ios":"levelo://app?vid=303e84e1-4d05-454a-b6b5-56142241a967"},"vehicle_type_id":"4","last_reported":1692723958,"current_range_meters":10400,"station_id":"ce4bh692rcd13ifvqea0","pricing_plan_id":"free"},{"bike_id":"845aae74-d4e3-4b5b-be10-990c1a3c2086","system_id":"levelo_inurba_marseille","lat":43.33044,"lon":5.38909,"is_reserved":false,"is_disabled":false,"rental_uris":{"android":"levelo://app?vid=845aae74-d4e3-4b5b-be10-990c1a3c2086","ios":"levelo://app?vid=845aae74-d4e3-4b5b-be10-990c1a3c2086"},"vehicle_type_id":"4","last_reported":1692723958,"current_range_meters":30000,"station_id":"ce4bhr92rcd13ifvqhrg","pricing_plan_id":"free"},{"bike_id":"443b9856-3bf3-42d5-84d1-086a39d2d11f","system_id":"levelo_inurba_marseille","lat":43.29008,"lon":5.35617,"is_reserved":false,"is_disabled":false,"rental_uris":{"android":"levelo://app?vid=443b9856-3bf3-42d5-84d1-086a39d2d11f","ios":"levelo://app?vid=443b9856-3bf3-42d5-84d1-086a39d2d11f"},"vehicle_type_id":"4","last_reported":1692723958,"current_range_meters":4800,"station_id":"ce4bhb92rcd13ifvqen0","pricing_plan_id":"free"},{"bike_id":"7691d65d-d321-467f-86e8-b26ac6013c5b","system_id":"levelo_inurba_marseille","lat":43.33043,"lon":5.38917,"is_reserved":false,"is_disabled":false,"rental_uris":{"android":"levelo://app?vid=7691d65d-d321-467f-86e8-b26ac6013c5b","ios":"levelo://app?vid=7691d65d-d321-467f-86e8-b26ac6013c5b"},"vehicle_type_id":"4","last_reported":1692723958,"current_range_meters":28000,"station_id":"ce4bhr92rcd13ifvqhrg","pricing_plan_id":"free"},{"bike_id":"8c322d1f-a149-43cf-825d-451a68daa92e","system_id":"levelo_inurba_marseille","lat":43.33044,"lon":5.38916,"is_reserved":false,"is_disabled":false,"rental_uris":{"android":"levelo://app?vid=8c322d1f-a149-43cf-825d-451a68daa92e","ios":"levelo://app?vid=8c322d1f-a149-43cf-825d-451a68daa92e"},"vehicle_type_id":"4","last_reported":1692723958,"current_range_meters":16800,"station_id":"ce4bhr92rcd13ifvqhrg","pricing_plan_id":"free"},{"bike_id":"b0e0ae0a-2bc1-4a56-890f-24dc2485e7d8","system_id":"levelo_inurba_marseille","lat":43.33041,"lon":5.38921,"is_reserved":false,"is_disabled":false,"rental_uris":{"android":"levelo://app?vid=b0e0ae0a-2bc1-4a56-890f-24dc2485e7d8","ios":"levelo://app?vid=b0e0ae0a-2bc1-4a56-890f-24dc2485e7d8"},"vehicle_type_id":"4","last_reported":1692723958,"current_range_meters":25600,"station_id":"ce4bhr92rcd13ifvqhrg","pricing_plan_id":"free"},{"bike_id":"8be21001-047d-4818-a191-231f7375d4a2","system_id":"levelo_inurba_marseille","lat":43.290104,"lon":5.356111,"is_reserved":false,"is_disabled":false,"rental_uris":{"android":"levelo://app?vid=8be21001-047d-4818-a191-231f7375d4a2","ios":"levelo://app?vid=8be21001-047d-4818-a191-231f7375d4a2"},"vehicle_type_id":"4","last_reported":1692723958,"current_range_meters":7200,"station_id":"ce4bhb92rcd13ifvqen0","pricing_plan_id":"free"},{"bike_id":"035fe3f9-e27a-431a-9e6e-7725e01945bc","system_id":"levelo_inurba_marseille","lat":43.290103,"lon":5.356114,"is_reserved":false,"is_disabled":false,"rental_uris":{"android":"levelo://app?vid=035fe3f9-e27a-431a-9e6e-7725e01945bc","ios":"levelo://app?vid=035fe3f9-e27a-431a-9e6e-7725e01945bc"},"vehicle_type_id":"4","last_reported":1692723958,"current_range_meters":6800,"station_id":"ce4bhb92rcd13ifvqen0","pricing_plan_id":"free"},{"bike_id":"f9a6d7f4-a43d-43a6-82f8-8a1402d9c92e","system_id":"levelo_inurba_marseille","lat":43.29002,"lon":5.35618,"is_reserved":false,"is_disabled":false,"rental_uris":{"android":"levelo://app?vid=f9a6d7f4-a43d-43a6-82f8-8a1402d9c92e","ios":"levelo://app?vid=f9a6d7f4-a43d-43a6-82f8-8a1402d9c92e"},"vehicle_type_id":"4","last_reported":1692723958,"current_range_meters":25600,"station_id":"ce4bhb92rcd13ifvqen0","pricing_plan_id":"free"},{"bike_id":"abc45591-4129-412d-8407-824303a4896f","system_id":"levelo_inurba_marseille","lat":43.290103,"lon":5.356114,"is_reserved":false,"is_disabled":false,"rental_uris":{"android":"levelo://app?vid=abc45591-4129-412d-8407-824303a4896f","ios":"levelo://app?vid=abc45591-4129-412d-8407-824303a4896f"},"vehicle_type_id":"4","last_reported":1692723958,"current_range_meters":12000,"station_id":"ce4bhb92rcd13ifvqen0","pricing_plan_id":"free"},{"bike_id":"83ac15d7-17e1-422b-8d55-81b4f4f89fbd","system_id":"levelo_inurba_marseille","lat":43.290104,"lon":5.356111,"is_reserved":false,"is_disabled":false,"rental_uris":{"android":"levelo://app?vid=83ac15d7-17e1-422b-8d55-81b4f4f89fbd","ios":"levelo://app?vid=83ac15d7-17e1-422b-8d55-81b4f4f89fbd"},"vehicle_type_id":"4","last_reported":1692723958,"current_range_meters":0,"station_id":"ce4bhb92rcd13ifvqen0","pricing_plan_id":"free"},{"bike_id":"ad3056f9-b426-48ff-b0df-f8474500f7c6","system_id":"levelo_inurba_marseille","lat":43.295169,"lon":5.390426,"is_reserved":false,"is_disabled":false,"rental_uris":{"android":"levelo://app?vid=ad3056f9-b426-48ff-b0df-f8474500f7c6","ios":"levelo://app?vid=ad3056f9-b426-48ff-b0df-f8474500f7c6"},"vehicle_type_id":"4","last_reported":1692723958,"current_range_meters":0,"station_id":"ce4bh3p2rcd13ifvqdp0","pricing_plan_id":"free"},{"bike_id":"33c6ca27-ccbb-4e34-b6a8-bf823e22bca9","system_id":"levelo_inurba_marseille","lat":43.295389,"lon":5.390441,"is_reserved":false,"is_disabled":false,"rental_uris":{"android":"levelo://app?vid=33c6ca27-ccbb-4e34-b6a8-bf823e22bca9","ios":"levelo://app?vid=33c6ca27-ccbb-4e34-b6a8-bf823e22bca9"},"vehicle_type_id":"4","last_reported":1692723958,"current_range_meters":17200,"station_id":"","pricing_plan_id":"free"},{"bike_id":"13018d12-c8ba-4392-97be-8e4b339d4bc8","system_id":"levelo_inurba_marseille","lat":43.2953,"lon":5.39032,"is_reserved":false,"is_disabled":false,"rental_uris":{"android":"levelo://app?vid=13018d12-c8ba-4392-97be-8e4b339d4bc8","ios":"levelo://app?vid=13018d12-c8ba-4392-97be-8e4b339d4bc8"},"vehicle_type_id":"4","last_reported":1692723958,"current_range_meters":27600,"station_id":"ce4bh3p2rcd13ifvqdp0","pricing_plan_id":"free"},{"bike_id":"a9a8ec7b-b306-4d31-b01b-b1974e88ebed","system_id":"levelo_inurba_marseille","lat":43.295169,"lon":5.390426,"is_reserved":false,"is_disabled":false,"rental_uris":{"android":"levelo://app?vid=a9a8ec7b-b306-4d31-b01b-b1974e88ebed","ios":"levelo://app?vid=a9a8ec7b-b306-4d31-b01b-b1974e88ebed"},"vehicle_type_id":"4","last_reported":1692723958,"current_range_meters":6400,"station_id":"ce4bh3p2rcd13ifvqdp0","pricing_plan_id":"free"},{"bike_id":"def772fe-f9df-481b-9448-0148d6e8772e","system_id":"levelo_inurba_marseille","lat":43.290094,"lon":5.381264,"is_reserved":false,"is_disabled":false,"rental_uris":{"android":"levelo://app?vid=def772fe-f9df-481b-9448-0148d6e8772e","ios":"levelo://app?vid=def772fe-f9df-481b-9448-0148d6e8772e"},"vehicle_type_id":"4","last_reported":1692723958,"current_range_meters":14800,"station_id":"ce4bh4p2rcd13ifvqe1g","pricing_plan_id":"free"},{"bike_id":"097f96fa-8e2a-48d4-afaa-1f69e5b8f7db","system_id":"levelo_inurba_marseille","lat":43.31268,"lon":5.40169,"is_reserved":false,"is_disabled":false,"rental_uris":{"android":"levelo://app?vid=097f96fa-8e2a-48d4-afaa-1f69e5b8f7db","ios":"levelo://app?vid=097f96fa-8e2a-48d4-afaa-1f69e5b8f7db"},"vehicle_type_id":"4","last_reported":1692723958,"current_range_meters":13600,"station_id":"ce4bh092rcd13ifvqd30","pricing_plan_id":"free"},{"bike_id":"ff380be2-4a34-4ca1-81ae-bf31d434048b","system_id":"levelo_inurba_marseille","lat":43.30925,"lon":5.40141,"is_reserved":false,"is_disabled":false,"rental_uris":{"android":"levelo://app?vid=ff380be2-4a34-4ca1-81ae-bf31d434048b","ios":"levelo://app?vid=ff380be2-4a34-4ca1-81ae-bf31d434048b"},"vehicle_type_id":"4","last_reported":1692723958,"current_range_meters":0,"station_id":"ce4bgvp2rcd13ifvqct0","pricing_plan_id":"free"},{"bike_id":"d7c07327-4ebe-4dde-a2b8-a1e8c0a6637e","system_id":"levelo_inurba_marseille","lat":43.301117,"lon":5.398795,"is_reserved":false,"is_disabled":false,"rental_uris":{"android":"levelo://app?vid=d7c07327-4ebe-4dde-a2b8-a1e8c0a6637e","ios":"levelo://app?vid=d7c07327-4ebe-4dde-a2b8-a1e8c0a6637e"},"vehicle_type_id":"4","last_reported":1692723958,"current_range_meters":3200,"station_id":"ce4bh0h2rcd13ifvqd40","pricing_plan_id":"free"},{"bike_id":"87cb9583-335c-4059-bee3-e8ab4f8b5ad9","system_id":"levelo_inurba_marseille","lat":43.301117,"lon":5.398795,"is_reserved":false,"is_disabled":false,"rental_uris":{"android":"levelo://app?vid=87cb9583-335c-4059-bee3-e8ab4f8b5ad9","ios":"levelo://app?vid=87cb9583-335c-4059-bee3-e8ab4f8b5ad9"},"vehicle_type_id":"4","last_reported":1692723958,"current_range_meters":18800,"station_id":"ce4bh0h2rcd13ifvqd40","pricing_plan_id":"free"},{"bike_id":"12980a16-26a4-4a70-94a7-fd381db58392","system_id":"levelo_inurba_marseille","lat":43.298772,"lon":5.397234,"is_reserved":false,"is_disabled":false,"rental_uris":{"android":"levelo://app?vid=12980a16-26a4-4a70-94a7-fd381db58392","ios":"levelo://app?vid=12980a16-26a4-4a70-94a7-fd381db58392"},"vehicle_type_id":"4","last_reported":1692723958,"current_range_meters":19600,"station_id":"","pricing_plan_id":"free"},{"bike_id":"75199276-b705-4ad7-b6a9-49aeaa84628a","system_id":"levelo_inurba_marseille","lat":43.286591,"lon":5.363346,"is_reserved":false,"is_disabled":false,"rental_uris":{"android":"levelo://app?vid=75199276-b705-4ad7-b6a9-49aeaa84628a","ios":"levelo://app?vid=75199276-b705-4ad7-b6a9-49aeaa84628a"},"vehicle_type_id":"4","last_reported":1692723958,"current_range_meters":30400,"station_id":"ce4bhah2rcd13ifvqej0","pricing_plan_id":"free"},{"bike_id":"dfbff935-4ada-463c-aecd-1c38cffe31cb","system_id":"levelo_inurba_marseille","lat":43.298681,"lon":5.397225,"is_reserved":false,"is_disabled":false,"rental_uris":{"android":"levelo://app?vid=dfbff935-4ada-463c-aecd-1c38cffe31cb","ios":"levelo://app?vid=dfbff935-4ada-463c-aecd-1c38cffe31cb"},"vehicle_type_id":"4","last_reported":1692723958,"current_range_meters":31200,"station_id":"ce4bh0h2rcd13ifvqd50","pricing_plan_id":"free"},{"bike_id":"5478f751-e4aa-45ad-a88e-8a6845f26c0c","system_id":"levelo_inurba_marseille","lat":43.28664,"lon":5.36353,"is_reserved":false,"is_disabled":false,"rental_uris":{"android":"levelo://app?vid=5478f751-e4aa-45ad-a88e-8a6845f26c0c","ios":"levelo://app?vid=5478f751-e4aa-45ad-a88e-8a6845f26c0c"},"vehicle_type_id":"4","last_reported":1692723958,"current_range_meters":400,"station_id":"ce4bhah2rcd13ifvqej0","pricing_plan_id":"free"},{"bike_id":"05bc30d4-2a2b-43c5-8b46-98ca90fc775b","system_id":"levelo_inurba_marseille","lat":43.286961,"lon":5.373785,"is_reserved":false,"is_disabled":false,"rental_uris":{"android":"levelo://app?vid=05bc30d4-2a2b-43c5-8b46-98ca90fc775b","ios":"levelo://app?vid=05bc30d4-2a2b-43c5-8b46-98ca90fc775b"},"vehicle_type_id":"4","last_reported":1692723958,"current_range_meters":1200,"station_id":"ce4bh3p2rcd13ifvqdq0","pricing_plan_id":"free"},{"bike_id":"52a0d2dd-6ad3-4421-b684-3e504a3ea0be","system_id":"levelo_inurba_marseille","lat":43.286961,"lon":5.373785,"is_reserved":false,"is_disabled":false,"rental_uris":{"android":"levelo://app?vid=52a0d2dd-6ad3-4421-b684-3e504a3ea0be","ios":"levelo://app?vid=52a0d2dd-6ad3-4421-b684-3e504a3ea0be"},"vehicle_type_id":"4","last_reported":1692723958,"current_range_meters":0,"station_id":"ce4bh3p2rcd13ifvqdq0","pricing_plan_id":"free"},{"bike_id":"c4b3ab3e-efd8-4866-b7db-c0d989e40dd7","system_id":"levelo_inurba_marseille","lat":43.286961,"lon":5.373785,"is_reserved":false,"is_disabled":false,"rental_uris":{"android":"levelo://app?vid=c4b3ab3e-efd8-4866-b7db-c0d989e40dd7","ios":"levelo://app?vid=c4b3ab3e-efd8-4866-b7db-c0d989e40dd7"},"vehicle_type_id":"4","last_reported":1692723958,"current_range_meters":5200,"station_id":"ce4bh3p2rcd13ifvqdq0","pricing_plan_id":"free"},{"bike_id":"d21bdd64-01b8-4486-87ff-eea8a19c7fa3","system_id":"levelo_inurba_marseille","lat":43.295196,"lon":5.39397,"is_reserved":false,"is_disabled":false,"rental_uris":{"android":"levelo://app?vid=d21bdd64-01b8-4486-87ff-eea8a19c7fa3","ios":"levelo://app?vid=d21bdd64-01b8-4486-87ff-eea8a19c7fa3"},"vehicle_type_id":"4","last_reported":1692723958,"current_range_meters":12000,"station_id":"ce4bh292rcd13ifvqdf0","pricing_plan_id":"free"},{"bike_id":"98e3f247-0763-43ef-ac42-774b23ac22c7","system_id":"levelo_inurba_marseille","lat":43.295196,"lon":5.39397,"is_reserved":false,"is_disabled":false,"rental_uris":{"android":"levelo://app?vid=98e3f247-0763-43ef-ac42-774b23ac22c7","ios":"levelo://app?vid=98e3f247-0763-43ef-ac42-774b23ac22c7"},"vehicle_type_id":"4","last_reported":1692723958,"current_range_meters":24000,"station_id":"ce4bh292rcd13ifvqdf0","pricing_plan_id":"free"},{"bike_id":"099883d4-8345-480c-96bf-5e28e919ce78","system_id":"levelo_inurba_marseille","lat":43.28611,"lon":5.36034,"is_reserved":false,"is_disabled":false,"rental_uris":{"android":"levelo://app?vid=099883d4-8345-480c-96bf-5e28e919ce78","ios":"levelo://app?vid=099883d4-8345-480c-96bf-5e28e919ce78"},"vehicle_type_id":"4","last_reported":1692723958,"current_range_meters":28800,"station_id":"","pricing_plan_id":"free"},{"bike_id":"cb42be83-aa59-4413-a247-c4743da3930a","system_id":"levelo_inurba_marseille","lat":43.287185,"lon":5.379373,"is_reserved":false,"is_disabled":false,"rental_uris":{"android":"levelo://app?vid=cb42be83-aa59-4413-a247-c4743da3930a","ios":"levelo://app?vid=cb42be83-aa59-4413-a247-c4743da3930a"},"vehicle_type_id":"4","last_reported":1692723958,"current_range_meters":0,"station_id":"ce4bh9p2rcd13ifvqec0","pricing_plan_id":"free"},{"bike_id":"7da9e437-1e79-4b5f-9ab0-65254ac17dd7","system_id":"levelo_inurba_marseille","lat":43.31648,"lon":5.40434,"is_reserved":false,"is_disabled":false,"rental_uris":{"android":"levelo://app?vid=7da9e437-1e79-4b5f-9ab0-65254ac17dd7","ios":"levelo://app?vid=7da9e437-1e79-4b5f-9ab0-65254ac17dd7"},"vehicle_type_id":"4","last_reported":1692723958,"current_range_meters":31200,"station_id":"ce4bh012rcd13ifvqd00","pricing_plan_id":"free"},{"bike_id":"f4f959dd-d436-4f35-a463-ac81abd524e9","system_id":"levelo_inurba_marseille","lat":43.29196,"lon":5.39314,"is_reserved":false,"is_disabled":false,"rental_uris":{"android":"levelo://app?vid=f4f959dd-d436-4f35-a463-ac81abd524e9","ios":"levelo://app?vid=f4f959dd-d436-4f35-a463-ac81abd524e9"},"vehicle_type_id":"4","last_reported":1692723958,"current_range_meters":28800,"station_id":"ce4bh192rcd13ifvqdd0","pricing_plan_id":"free"},{"bike_id":"4bb91c12-0c86-4726-a76e-6b979d282679","system_id":"levelo_inurba_marseille","lat":43.284729,"lon":5.358936,"is_reserved":false,"is_disabled":false,"rental_uris":{"android":"levelo://app?vid=4bb91c12-0c86-4726-a76e-6b979d282679","ios":"levelo://app?vid=4bb91c12-0c86-4726-a76e-6b979d282679"},"vehicle_type_id":"4","last_reported":1692723958,"current_range_meters":16000,"station_id":"ce4bhah2rcd13ifvqei0","pricing_plan_id":"free"},{"bike_id":"fbc24c2d-d109-4d3b-8c22-fa374c465c0d","system_id":"levelo_inurba_marseille","lat":43.284534,"lon":5.358662,"is_reserved":false,"is_disabled":false,"rental_uris":{"android":"levelo://app?vid=fbc24c2d-d109-4d3b-8c22-fa374c465c0d","ios":"levelo://app?vid=fbc24c2d-d109-4d3b-8c22-fa374c465c0d"},"vehicle_type_id":"4","last_reported":1692723958,"current_range_meters":4000,"station_id":"ce4bhah2rcd13ifvqei0","pricing_plan_id":"free"},{"bike_id":"421ae6f3-b65f-4083-b604-27caef998812","system_id":"levelo_inurba_marseille","lat":43.29453,"lon":5.39744,"is_reserved":false,"is_disabled":false,"rental_uris":{"android":"levelo://app?vid=421ae6f3-b65f-4083-b604-27caef998812","ios":"levelo://app?vid=421ae6f3-b65f-4083-b604-27caef998812"},"vehicle_type_id":"4","last_reported":1692723958,"current_range_meters":4000,"station_id":"ce4bh3h2rcd13ifvqdo0","pricing_plan_id":"free"},{"bike_id":"a4b8f6fd-80ab-4da2-823e-b4cb760a3ac2","system_id":"levelo_inurba_marseille","lat":43.284534,"lon":5.358662,"is_reserved":false,"is_disabled":false,"rental_uris":{"android":"levelo://app?vid=a4b8f6fd-80ab-4da2-823e-b4cb760a3ac2","ios":"levelo://app?vid=a4b8f6fd-80ab-4da2-823e-b4cb760a3ac2"},"vehicle_type_id":"4","last_reported":1692723958,"current_range_meters":22000,"station_id":"ce4bhah2rcd13ifvqei0","pricing_plan_id":"free"},{"bike_id":"77a192fd-d5fe-4596-bfe5-246656eb1056","system_id":"levelo_inurba_marseille","lat":43.284538,"lon":5.358657,"is_reserved":false,"is_disabled":false,"rental_uris":{"android":"levelo://app?vid=77a192fd-d5fe-4596-bfe5-246656eb1056","ios":"levelo://app?vid=77a192fd-d5fe-4596-bfe5-246656eb1056"},"vehicle_type_id":"4","last_reported":1692723958,"current_range_meters":2400,"station_id":"ce4bhah2rcd13ifvqei0","pricing_plan_id":"free"},{"bike_id":"1fb7f5c7-1f01-4d30-aad6-2ce2d0a03a4b","system_id":"levelo_inurba_marseille","lat":43.284534,"lon":5.358662,"is_reserved":false,"is_disabled":false,"rental_uris":{"android":"levelo://app?vid=1fb7f5c7-1f01-4d30-aad6-2ce2d0a03a4b","ios":"levelo://app?vid=1fb7f5c7-1f01-4d30-aad6-2ce2d0a03a4b"},"vehicle_type_id":"4","last_reported":1692723958,"current_range_meters":25200,"station_id":"ce4bhah2rcd13ifvqei0","pricing_plan_id":"free"},{"bike_id":"f5e3149e-03c4-4d54-8c0f-ec90e64fb404","system_id":"levelo_inurba_marseille","lat":43.29443,"lon":5.39745,"is_reserved":false,"is_disabled":false,"rental_uris":{"android":"levelo://app?vid=f5e3149e-03c4-4d54-8c0f-ec90e64fb404","ios":"levelo://app?vid=f5e3149e-03c4-4d54-8c0f-ec90e64fb404"},"vehicle_type_id":"4","last_reported":1692723958,"current_range_meters":16800,"station_id":"ce4bh3h2rcd13ifvqdo0","pricing_plan_id":"free"},{"bike_id":"0d6821ab-9dca-42f2-9888-aef2badebd20","system_id":"levelo_inurba_marseille","lat":43.28621,"lon":5.35106,"is_reserved":false,"is_disabled":false,"rental_uris":{"android":"levelo://app?vid=0d6821ab-9dca-42f2-9888-aef2badebd20","ios":"levelo://app?vid=0d6821ab-9dca-42f2-9888-aef2badebd20"},"vehicle_type_id":"4","last_reported":1692723958,"current_range_meters":30000,"station_id":"ce4bhch2rcd13ifvqeug","pricing_plan_id":"free"},{"bike_id":"0a043e50-bbd8-45c0-9d60-6af03d03922d","system_id":"levelo_inurba_marseille","lat":43.286203,"lon":5.351071,"is_reserved":false,"is_disabled":false,"rental_uris":{"android":"levelo://app?vid=0a043e50-bbd8-45c0-9d60-6af03d03922d","ios":"levelo://app?vid=0a043e50-bbd8-45c0-9d60-6af03d03922d"},"vehicle_type_id":"4","last_reported":1692723958,"current_range_meters":28800,"station_id":"ce4bhch2rcd13ifvqeug","pricing_plan_id":"free"},{"bike_id":"8078e323-ec50-4871-9a9f-fa3b24975a11","system_id":"levelo_inurba_marseille","lat":43.28621,"lon":5.35102,"is_reserved":false,"is_disabled":false,"rental_uris":{"android":"levelo://app?vid=8078e323-ec50-4871-9a9f-fa3b24975a11","ios":"levelo://app?vid=8078e323-ec50-4871-9a9f-fa3b24975a11"},"vehicle_type_id":"4","last_reported":1692723958,"current_range_meters":31200,"station_id":"ce4bhch2rcd13ifvqeug","pricing_plan_id":"free"},{"bike_id":"d30f5672-a273-45c9-82af-a62e50f19e69","system_id":"levelo_inurba_marseille","lat":43.28619,"lon":5.35107,"is_reserved":false,"is_disabled":false,"rental_uris":{"android":"levelo://app?vid=d30f5672-a273-45c9-82af-a62e50f19e69","ios":"levelo://app?vid=d30f5672-a273-45c9-82af-a62e50f19e69"},"vehicle_type_id":"4","last_reported":1692723958,"current_range_meters":14400,"station_id":"ce4bhch2rcd13ifvqeug","pricing_plan_id":"free"},{"bike_id":"1dd6365d-c3bd-4797-80c3-b93766a1fd3c","system_id":"levelo_inurba_marseille","lat":43.28619,"lon":5.35104,"is_reserved":false,"is_disabled":false,"rental_uris":{"android":"levelo://app?vid=1dd6365d-c3bd-4797-80c3-b93766a1fd3c","ios":"levelo://app?vid=1dd6365d-c3bd-4797-80c3-b93766a1fd3c"},"vehicle_type_id":"4","last_reported":1692723958,"current_range_meters":18400,"station_id":"ce4bhch2rcd13ifvqeug","pricing_plan_id":"free"},{"bike_id":"f670e8c9-f8b6-4b4a-897a-e6ffe2931da8","system_id":"levelo_inurba_marseille","lat":43.28617,"lon":5.3511,"is_reserved":false,"is_disabled":false,"rental_uris":{"android":"levelo://app?vid=f670e8c9-f8b6-4b4a-897a-e6ffe2931da8","ios":"levelo://app?vid=f670e8c9-f8b6-4b4a-897a-e6ffe2931da8"},"vehicle_type_id":"4","last_reported":1692723958,"current_range_meters":26000,"station_id":"ce4bhch2rcd13ifvqeug","pricing_plan_id":"free"},{"bike_id":"2e5e6410-1ec8-421e-b891-3427a6f4b54f","system_id":"levelo_inurba_marseille","lat":43.28617,"lon":5.35107,"is_reserved":false,"is_disabled":false,"rental_uris":{"android":"levelo://app?vid=2e5e6410-1ec8-421e-b891-3427a6f4b54f","ios":"levelo://app?vid=2e5e6410-1ec8-421e-b891-3427a6f4b54f"},"vehicle_type_id":"4","last_reported":1692723958,"current_range_meters":18400,"station_id":"ce4bhch2rcd13ifvqeug","pricing_plan_id":"free"},{"bike_id":"25918e11-4dea-4965-9979-d793dd53b173","system_id":"levelo_inurba_marseille","lat":43.28619,"lon":5.351,"is_reserved":false,"is_disabled":false,"rental_uris":{"android":"levelo://app?vid=25918e11-4dea-4965-9979-d793dd53b173","ios":"levelo://app?vid=25918e11-4dea-4965-9979-d793dd53b173"},"vehicle_type_id":"4","last_reported":1692723958,"current_range_meters":31200,"station_id":"ce4bhch2rcd13ifvqeug","pricing_plan_id":"free"},{"bike_id":"6bbe974b-7c27-4a29-a7ee-11a5e4f31584","system_id":"levelo_inurba_marseille","lat":43.28619,"lon":5.351,"is_reserved":false,"is_disabled":false,"rental_uris":{"android":"levelo://app?vid=6bbe974b-7c27-4a29-a7ee-11a5e4f31584","ios":"levelo://app?vid=6bbe974b-7c27-4a29-a7ee-11a5e4f31584"},"vehicle_type_id":"4","last_reported":1692723958,"current_range_meters":24400,"station_id":"ce4bhch2rcd13ifvqeug","pricing_plan_id":"free"},{"bike_id":"6e9823c8-0a53-45b5-918f-d823a31dcac1","system_id":"levelo_inurba_marseille","lat":43.28617,"lon":5.35106,"is_reserved":false,"is_disabled":false,"rental_uris":{"android":"levelo://app?vid=6e9823c8-0a53-45b5-918f-d823a31dcac1","ios":"levelo://app?vid=6e9823c8-0a53-45b5-918f-d823a31dcac1"},"vehicle_type_id":"4","last_reported":1692723958,"current_range_meters":6400,"station_id":"ce4bhch2rcd13ifvqeug","pricing_plan_id":"free"},{"bike_id":"0629c5b9-f673-46ff-a93d-942d4a6f321c","system_id":"levelo_inurba_marseille","lat":43.28619,"lon":5.35099,"is_reserved":false,"is_disabled":false,"rental_uris":{"android":"levelo://app?vid=0629c5b9-f673-46ff-a93d-942d4a6f321c","ios":"levelo://app?vid=0629c5b9-f673-46ff-a93d-942d4a6f321c"},"vehicle_type_id":"4","last_reported":1692723958,"current_range_meters":31200,"station_id":"ce4bhch2rcd13ifvqeug","pricing_plan_id":"free"},{"bike_id":"9a58a3c2-b857-4d86-97a5-0f20b4224ecd","system_id":"levelo_inurba_marseille","lat":43.28616,"lon":5.351059,"is_reserved":false,"is_disabled":false,"rental_uris":{"android":"levelo://app?vid=9a58a3c2-b857-4d86-97a5-0f20b4224ecd","ios":"levelo://app?vid=9a58a3c2-b857-4d86-97a5-0f20b4224ecd"},"vehicle_type_id":"4","last_reported":1692723958,"current_range_meters":12000,"station_id":"ce4bhch2rcd13ifvqeug","pricing_plan_id":"free"},{"bike_id":"52c236de-7130-4d40-a6bf-f0b9e6085659","system_id":"levelo_inurba_marseille","lat":43.28616,"lon":5.35105,"is_reserved":false,"is_disabled":false,"rental_uris":{"android":"levelo://app?vid=52c236de-7130-4d40-a6bf-f0b9e6085659","ios":"levelo://app?vid=52c236de-7130-4d40-a6bf-f0b9e6085659"},"vehicle_type_id":"4","last_reported":1692723958,"current_range_meters":17200,"station_id":"ce4bhch2rcd13ifvqeug","pricing_plan_id":"free"},{"bike_id":"faa9f4c1-9f99-4256-aa53-07103553689a","system_id":"levelo_inurba_marseille","lat":43.28616,"lon":5.35105,"is_reserved":false,"is_disabled":false,"rental_uris":{"android":"levelo://app?vid=faa9f4c1-9f99-4256-aa53-07103553689a","ios":"levelo://app?vid=faa9f4c1-9f99-4256-aa53-07103553689a"},"vehicle_type_id":"4","last_reported":1692723958,"current_range_meters":14400,"station_id":"ce4bhch2rcd13ifvqeug","pricing_plan_id":"free"},{"bike_id":"d79a86d7-a340-4a7e-aa18-9ad75e205767","system_id":"levelo_inurba_marseille","lat":43.28618,"lon":5.35098,"is_reserved":false,"is_disabled":false,"rental_uris":{"android":"levelo://app?vid=d79a86d7-a340-4a7e-aa18-9ad75e205767","ios":"levelo://app?vid=d79a86d7-a340-4a7e-aa18-9ad75e205767"},"vehicle_type_id":"4","last_reported":1692723958,"current_range_meters":29600,"station_id":"ce4bhch2rcd13ifvqeug","pricing_plan_id":"free"},{"bike_id":"f6c2f963-7c69-4af2-9e45-2fbb07c3d575","system_id":"levelo_inurba_marseille","lat":43.28614,"lon":5.35106,"is_reserved":false,"is_disabled":false,"rental_uris":{"android":"levelo://app?vid=f6c2f963-7c69-4af2-9e45-2fbb07c3d575","ios":"levelo://app?vid=f6c2f963-7c69-4af2-9e45-2fbb07c3d575"},"vehicle_type_id":"4","last_reported":1692723958,"current_range_meters":16400,"station_id":"ce4bhch2rcd13ifvqeug","pricing_plan_id":"free"},{"bike_id":"111d18bb-72d4-440a-a602-10dbebf1f0cb","system_id":"levelo_inurba_marseille","lat":43.28616,"lon":5.35098,"is_reserved":false,"is_disabled":false,"rental_uris":{"android":"levelo://app?vid=111d18bb-72d4-440a-a602-10dbebf1f0cb","ios":"levelo://app?vid=111d18bb-72d4-440a-a602-10dbebf1f0cb"},"vehicle_type_id":"4","last_reported":1692723958,"current_range_meters":21600,"station_id":"ce4bhch2rcd13ifvqeug","pricing_plan_id":"free"},{"bike_id":"71b0a20c-e6c5-4df4-a6c3-c04772891bc8","system_id":"levelo_inurba_marseille","lat":43.28614,"lon":5.35104,"is_reserved":false,"is_disabled":false,"rental_uris":{"android":"levelo://app?vid=71b0a20c-e6c5-4df4-a6c3-c04772891bc8","ios":"levelo://app?vid=71b0a20c-e6c5-4df4-a6c3-c04772891bc8"},"vehicle_type_id":"4","last_reported":1692723958,"current_range_meters":19200,"station_id":"ce4bhch2rcd13ifvqeug","pricing_plan_id":"free"},{"bike_id":"35eec3a1-aa54-4990-8eb4-78e6c0dd24d0","system_id":"levelo_inurba_marseille","lat":43.28616,"lon":5.35096,"is_reserved":false,"is_disabled":false,"rental_uris":{"android":"levelo://app?vid=35eec3a1-aa54-4990-8eb4-78e6c0dd24d0","ios":"levelo://app?vid=35eec3a1-aa54-4990-8eb4-78e6c0dd24d0"},"vehicle_type_id":"4","last_reported":1692723958,"current_range_meters":18400,"station_id":"ce4bhch2rcd13ifvqeug","pricing_plan_id":"free"},{"bike_id":"c9d9be77-825b-4479-8062-9363a13e7128","system_id":"levelo_inurba_marseille","lat":43.283998,"lon":5.375062,"is_reserved":false,"is_disabled":false,"rental_uris":{"android":"levelo://app?vid=c9d9be77-825b-4479-8062-9363a13e7128","ios":"levelo://app?vid=c9d9be77-825b-4479-8062-9363a13e7128"},"vehicle_type_id":"4","last_reported":1692723958,"current_range_meters":23200,"station_id":"ce4bh412rcd13ifvqds0","pricing_plan_id":"free"},{"bike_id":"78dcff5c-b6fe-4b54-bc30-90b5cc95887f","system_id":"levelo_inurba_marseille","lat":43.28423,"lon":5.37521,"is_reserved":false,"is_disabled":false,"rental_uris":{"android":"levelo://app?vid=78dcff5c-b6fe-4b54-bc30-90b5cc95887f","ios":"levelo://app?vid=78dcff5c-b6fe-4b54-bc30-90b5cc95887f"},"vehicle_type_id":"4","last_reported":1692723958,"current_range_meters":17200,"station_id":"ce4bh412rcd13ifvqds0","pricing_plan_id":"free"},{"bike_id":"9feeda98-59bc-4417-b4b9-0ba6b87fd99f","system_id":"levelo_inurba_marseille","lat":43.28418,"lon":5.37504,"is_reserved":false,"is_disabled":false,"rental_uris":{"android":"levelo://app?vid=9feeda98-59bc-4417-b4b9-0ba6b87fd99f","ios":"levelo://app?vid=9feeda98-59bc-4417-b4b9-0ba6b87fd99f"},"vehicle_type_id":"4","last_reported":1692723958,"current_range_meters":13600,"station_id":"ce4bh412rcd13ifvqds0","pricing_plan_id":"free"},{"bike_id":"2363d3b5-6c15-401a-a59c-ee80bd4af927","system_id":"levelo_inurba_marseille","lat":43.28415,"lon":5.37522,"is_reserved":false,"is_disabled":false,"rental_uris":{"android":"levelo://app?vid=2363d3b5-6c15-401a-a59c-ee80bd4af927","ios":"levelo://app?vid=2363d3b5-6c15-401a-a59c-ee80bd4af927"},"vehicle_type_id":"4","last_reported":1692723958,"current_range_meters":8800,"station_id":"ce4bh412rcd13ifvqds0","pricing_plan_id":"free"},{"bike_id":"5a286e65-b2e6-4cc4-8b48-c18785cdfd11","system_id":"levelo_inurba_marseille","lat":43.28411,"lon":5.37502,"is_reserved":false,"is_disabled":false,"rental_uris":{"android":"levelo://app?vid=5a286e65-b2e6-4cc4-8b48-c18785cdfd11","ios":"levelo://app?vid=5a286e65-b2e6-4cc4-8b48-c18785cdfd11"},"vehicle_type_id":"4","last_reported":1692723958,"current_range_meters":12400,"station_id":"ce4bh412rcd13ifvqds0","pricing_plan_id":"free"},{"bike_id":"888fed6e-b32d-42ce-b3cf-c01ae2b300f9","system_id":"levelo_inurba_marseille","lat":43.28412,"lon":5.37515,"is_reserved":false,"is_disabled":false,"rental_uris":{"android":"levelo://app?vid=888fed6e-b32d-42ce-b3cf-c01ae2b300f9","ios":"levelo://app?vid=888fed6e-b32d-42ce-b3cf-c01ae2b300f9"},"vehicle_type_id":"4","last_reported":1692723958,"current_range_meters":3200,"station_id":"ce4bh412rcd13ifvqds0","pricing_plan_id":"free"},{"bike_id":"c79fc806-2366-454a-b3bb-184194542a76","system_id":"levelo_inurba_marseille","lat":43.283998,"lon":5.375062,"is_reserved":false,"is_disabled":false,"rental_uris":{"android":"levelo://app?vid=c79fc806-2366-454a-b3bb-184194542a76","ios":"levelo://app?vid=c79fc806-2366-454a-b3bb-184194542a76"},"vehicle_type_id":"4","last_reported":1692723958,"current_range_meters":28000,"station_id":"ce4bh412rcd13ifvqds0","pricing_plan_id":"free"},{"bike_id":"d8a32b93-6620-4a4f-a5d6-b1bc63086aa5","system_id":"levelo_inurba_marseille","lat":43.283998,"lon":5.375062,"is_reserved":false,"is_disabled":false,"rental_uris":{"android":"levelo://app?vid=d8a32b93-6620-4a4f-a5d6-b1bc63086aa5","ios":"levelo://app?vid=d8a32b93-6620-4a4f-a5d6-b1bc63086aa5"},"vehicle_type_id":"4","last_reported":1692723958,"current_range_meters":15200,"station_id":"ce4bh412rcd13ifvqds0","pricing_plan_id":"free"},{"bike_id":"2339fc00-86fd-41f2-943a-266c4e04bd3b","system_id":"levelo_inurba_marseille","lat":43.295713,"lon":5.399639,"is_reserved":false,"is_disabled":false,"rental_uris":{"android":"levelo://app?vid=2339fc00-86fd-41f2-943a-266c4e04bd3b","ios":"levelo://app?vid=2339fc00-86fd-41f2-943a-266c4e04bd3b"},"vehicle_type_id":"4","last_reported":1692723958,"current_range_meters":15600,"station_id":"ce4bh312rcd13ifvqdj0","pricing_plan_id":"free"},{"bike_id":"c7e875c4-dc10-4655-bc12-2c2c23163091","system_id":"levelo_inurba_marseille","lat":43.28595,"lon":5.38351,"is_reserved":false,"is_disabled":false,"rental_uris":{"android":"levelo://app?vid=c7e875c4-dc10-4655-bc12-2c2c23163091","ios":"levelo://app?vid=c7e875c4-dc10-4655-bc12-2c2c23163091"},"vehicle_type_id":"4","last_reported":1692723958,"current_range_meters":8800,"station_id":"","pricing_plan_id":"free"},{"bike_id":"cdb82f4c-b04d-449c-99c2-6949eddc7974","system_id":"levelo_inurba_marseille","lat":43.31883,"lon":5.40731,"is_reserved":false,"is_disabled":false,"rental_uris":{"android":"levelo://app?vid=cdb82f4c-b04d-449c-99c2-6949eddc7974","ios":"levelo://app?vid=cdb82f4c-b04d-449c-99c2-6949eddc7974"},"vehicle_type_id":"4","last_reported":1692723958,"current_range_meters":8000,"station_id":"","pricing_plan_id":"free"},{"bike_id":"4ca4c199-2b71-4416-99ae-754c8af0d44a","system_id":"levelo_inurba_marseille","lat":43.28509,"lon":5.35085,"is_reserved":false,"is_disabled":false,"rental_uris":{"android":"levelo://app?vid=4ca4c199-2b71-4416-99ae-754c8af0d44a","ios":"levelo://app?vid=4ca4c199-2b71-4416-99ae-754c8af0d44a"},"vehicle_type_id":"4","last_reported":1692723958,"current_range_meters":19600,"station_id":"","pricing_plan_id":"free"},{"bike_id":"9b736ed2-d601-448e-bdf6-cae1c14ab18b","system_id":"levelo_inurba_marseille","lat":43.30314,"lon":5.40631,"is_reserved":false,"is_disabled":false,"rental_uris":{"android":"levelo://app?vid=9b736ed2-d601-448e-bdf6-cae1c14ab18b","ios":"levelo://app?vid=9b736ed2-d601-448e-bdf6-cae1c14ab18b"},"vehicle_type_id":"4","last_reported":1692723958,"current_range_meters":7200,"station_id":"","pricing_plan_id":"free"},{"bike_id":"e73595c3-c7a3-494c-a441-dc925776ba8f","system_id":"levelo_inurba_marseille","lat":43.32178,"lon":5.4069,"is_reserved":false,"is_disabled":false,"rental_uris":{"android":"levelo://app?vid=e73595c3-c7a3-494c-a441-dc925776ba8f","ios":"levelo://app?vid=e73595c3-c7a3-494c-a441-dc925776ba8f"},"vehicle_type_id":"4","last_reported":1692723958,"current_range_meters":30000,"station_id":"","pricing_plan_id":"free"},{"bike_id":"0429277a-07f6-4019-88d0-c504b9841cc2","system_id":"levelo_inurba_marseille","lat":43.323464,"lon":5.406297,"is_reserved":false,"is_disabled":false,"rental_uris":{"android":"levelo://app?vid=0429277a-07f6-4019-88d0-c504b9841cc2","ios":"levelo://app?vid=0429277a-07f6-4019-88d0-c504b9841cc2"},"vehicle_type_id":"4","last_reported":1692723958,"current_range_meters":18800,"station_id":"ce4bhq92rcd13ifvqhjg","pricing_plan_id":"free"},{"bike_id":"bf99eff7-f48b-408d-b9ce-e998b753632b","system_id":"levelo_inurba_marseille","lat":43.33717,"lon":5.391857,"is_reserved":false,"is_disabled":false,"rental_uris":{"android":"levelo://app?vid=bf99eff7-f48b-408d-b9ce-e998b753632b","ios":"levelo://app?vid=bf99eff7-f48b-408d-b9ce-e998b753632b"},"vehicle_type_id":"4","last_reported":1692723958,"current_range_meters":8400,"station_id":"ce4bhr92rcd13ifvqhsg","pricing_plan_id":"free"},{"bike_id":"81207e02-e329-4cea-9b6c-33ba9c0267d2","system_id":"levelo_inurba_marseille","lat":43.284793,"lon":5.384119,"is_reserved":false,"is_disabled":false,"rental_uris":{"android":"levelo://app?vid=81207e02-e329-4cea-9b6c-33ba9c0267d2","ios":"levelo://app?vid=81207e02-e329-4cea-9b6c-33ba9c0267d2"},"vehicle_type_id":"4","last_reported":1692723958,"current_range_meters":31200,"station_id":"ce4bh512rcd13ifvqe3g","pricing_plan_id":"free"},{"bike_id":"afd2b11e-6519-46ad-adcc-35ddf3ed1b8a","system_id":"levelo_inurba_marseille","lat":43.288593,"lon":5.393193,"is_reserved":false,"is_disabled":false,"rental_uris":{"android":"levelo://app?vid=afd2b11e-6519-46ad-adcc-35ddf3ed1b8a","ios":"levelo://app?vid=afd2b11e-6519-46ad-adcc-35ddf3ed1b8a"},"vehicle_type_id":"4","last_reported":1692723958,"current_range_meters":25200,"station_id":"","pricing_plan_id":"free"},{"bike_id":"2ea73967-988f-4f1a-aa76-7f33a11c4098","system_id":"levelo_inurba_marseille","lat":43.30674,"lon":5.40846,"is_reserved":false,"is_disabled":false,"rental_uris":{"android":"levelo://app?vid=2ea73967-988f-4f1a-aa76-7f33a11c4098","ios":"levelo://app?vid=2ea73967-988f-4f1a-aa76-7f33a11c4098"},"vehicle_type_id":"4","last_reported":1692723958,"current_range_meters":18800,"station_id":"","pricing_plan_id":"free"},{"bike_id":"536a31fa-4dad-47a2-9dd3-f07d171b9765","system_id":"levelo_inurba_marseille","lat":43.284278,"lon":5.349919,"is_reserved":false,"is_disabled":false,"rental_uris":{"android":"levelo://app?vid=536a31fa-4dad-47a2-9dd3-f07d171b9765","ios":"levelo://app?vid=536a31fa-4dad-47a2-9dd3-f07d171b9765"},"vehicle_type_id":"4","last_reported":1692723958,"current_range_meters":26800,"station_id":"ce4bhbh2rcd13ifvqepg","pricing_plan_id":"free"},{"bike_id":"4bec0b44-8d95-4d7c-9955-d28dad311704","system_id":"levelo_inurba_marseille","lat":43.283498,"lon":5.380948,"is_reserved":false,"is_disabled":false,"rental_uris":{"android":"levelo://app?vid=4bec0b44-8d95-4d7c-9955-d28dad311704","ios":"levelo://app?vid=4bec0b44-8d95-4d7c-9955-d28dad311704"},"vehicle_type_id":"4","last_reported":1692723958,"current_range_meters":4400,"station_id":"ce4bh412rcd13ifvqdr0","pricing_plan_id":"free"},{"bike_id":"caedbf0c-5924-49f2-87f6-20bcf512388b","system_id":"levelo_inurba_marseille","lat":43.28431,"lon":5.34973,"is_reserved":false,"is_disabled":false,"rental_uris":{"android":"levelo://app?vid=caedbf0c-5924-49f2-87f6-20bcf512388b","ios":"levelo://app?vid=caedbf0c-5924-49f2-87f6-20bcf512388b"},"vehicle_type_id":"4","last_reported":1692723958,"current_range_meters":0,"station_id":"ce4bhbh2rcd13ifvqepg","pricing_plan_id":"free"},{"bike_id":"1dad3752-6349-46a0-9b12-57194b8b2ee2","system_id":"levelo_inurba_marseille","lat":43.284216,"lon":5.349916,"is_reserved":false,"is_disabled":false,"rental_uris":{"android":"levelo://app?vid=1dad3752-6349-46a0-9b12-57194b8b2ee2","ios":"levelo://app?vid=1dad3752-6349-46a0-9b12-57194b8b2ee2"},"vehicle_type_id":"4","last_reported":1692723958,"current_range_meters":10800,"station_id":"","pricing_plan_id":"free"},{"bike_id":"3dfe7921-ccd7-4c4b-85f3-ea4b59f7060c","system_id":"levelo_inurba_marseille","lat":43.284219,"lon":5.3497,"is_reserved":false,"is_disabled":false,"rental_uris":{"android":"levelo://app?vid=3dfe7921-ccd7-4c4b-85f3-ea4b59f7060c","ios":"levelo://app?vid=3dfe7921-ccd7-4c4b-85f3-ea4b59f7060c"},"vehicle_type_id":"4","last_reported":1692723958,"current_range_meters":20000,"station_id":"ce4bhbh2rcd13ifvqepg","pricing_plan_id":"free"},{"bike_id":"ac599748-7f3f-4450-89cb-9f3aa8fe3435","system_id":"levelo_inurba_marseille","lat":43.284217,"lon":5.349697,"is_reserved":false,"is_disabled":false,"rental_uris":{"android":"levelo://app?vid=ac599748-7f3f-4450-89cb-9f3aa8fe3435","ios":"levelo://app?vid=ac599748-7f3f-4450-89cb-9f3aa8fe3435"},"vehicle_type_id":"4","last_reported":1692723958,"current_range_meters":21600,"station_id":"ce4bhbh2rcd13ifvqepg","pricing_plan_id":"free"},{"bike_id":"92bf6422-0f8a-42ad-aa77-9ff30a1d32ae","system_id":"levelo_inurba_marseille","lat":43.284219,"lon":5.3497,"is_reserved":false,"is_disabled":false,"rental_uris":{"android":"levelo://app?vid=92bf6422-0f8a-42ad-aa77-9ff30a1d32ae","ios":"levelo://app?vid=92bf6422-0f8a-42ad-aa77-9ff30a1d32ae"},"vehicle_type_id":"4","last_reported":1692723958,"current_range_meters":31200,"station_id":"ce4bhbh2rcd13ifvqepg","pricing_plan_id":"free"},{"bike_id":"57094994-287b-4f91-bbd9-fff810ba02bd","system_id":"levelo_inurba_marseille","lat":43.284219,"lon":5.3497,"is_reserved":false,"is_disabled":false,"rental_uris":{"android":"levelo://app?vid=57094994-287b-4f91-bbd9-fff810ba02bd","ios":"levelo://app?vid=57094994-287b-4f91-bbd9-fff810ba02bd"},"vehicle_type_id":"4","last_reported":1692723958,"current_range_meters":15600,"station_id":"ce4bhbh2rcd13ifvqepg","pricing_plan_id":"free"},{"bike_id":"69f7af38-b6e6-49d0-a607-e66df3369a9c","system_id":"levelo_inurba_marseille","lat":43.284219,"lon":5.3497,"is_reserved":false,"is_disabled":false,"rental_uris":{"android":"levelo://app?vid=69f7af38-b6e6-49d0-a607-e66df3369a9c","ios":"levelo://app?vid=69f7af38-b6e6-49d0-a607-e66df3369a9c"},"vehicle_type_id":"4","last_reported":1692723958,"current_range_meters":28800,"station_id":"ce4bhbh2rcd13ifvqepg","pricing_plan_id":"free"},{"bike_id":"67427477-7a73-4378-bb50-f1edb7a3aecc","system_id":"levelo_inurba_marseille","lat":43.28419,"lon":5.34982,"is_reserved":false,"is_disabled":false,"rental_uris":{"android":"levelo://app?vid=67427477-7a73-4378-bb50-f1edb7a3aecc","ios":"levelo://app?vid=67427477-7a73-4378-bb50-f1edb7a3aecc"},"vehicle_type_id":"4","last_reported":1692723958,"current_range_meters":24800,"station_id":"ce4bhbh2rcd13ifvqepg","pricing_plan_id":"free"},{"bike_id":"3623e3a6-25e0-4c06-b6b0-93e5151846ae","system_id":"levelo_inurba_marseille","lat":43.284217,"lon":5.349697,"is_reserved":false,"is_disabled":false,"rental_uris":{"android":"levelo://app?vid=3623e3a6-25e0-4c06-b6b0-93e5151846ae","ios":"levelo://app?vid=3623e3a6-25e0-4c06-b6b0-93e5151846ae"},"vehicle_type_id":"4","last_reported":1692723958,"current_range_meters":16000,"station_id":"ce4bhbh2rcd13ifvqepg","pricing_plan_id":"free"},{"bike_id":"3ac58c3a-6cdc-4901-a81c-c8142912851c","system_id":"levelo_inurba_marseille","lat":43.284219,"lon":5.3497,"is_reserved":false,"is_disabled":false,"rental_uris":{"android":"levelo://app?vid=3ac58c3a-6cdc-4901-a81c-c8142912851c","ios":"levelo://app?vid=3ac58c3a-6cdc-4901-a81c-c8142912851c"},"vehicle_type_id":"4","last_reported":1692723958,"current_range_meters":22400,"station_id":"ce4bhbh2rcd13ifvqepg","pricing_plan_id":"free"},{"bike_id":"55d7b59e-ed1b-45ae-92d2-021882157486","system_id":"levelo_inurba_marseille","lat":43.28417,"lon":5.34974,"is_reserved":false,"is_disabled":false,"rental_uris":{"android":"levelo://app?vid=55d7b59e-ed1b-45ae-92d2-021882157486","ios":"levelo://app?vid=55d7b59e-ed1b-45ae-92d2-021882157486"},"vehicle_type_id":"4","last_reported":1692723958,"current_range_meters":21200,"station_id":"","pricing_plan_id":"free"},{"bike_id":"78185df8-ac80-4cdb-8066-f895acf1fe5c","system_id":"levelo_inurba_marseille","lat":43.284219,"lon":5.3497,"is_reserved":false,"is_disabled":false,"rental_uris":{"android":"levelo://app?vid=78185df8-ac80-4cdb-8066-f895acf1fe5c","ios":"levelo://app?vid=78185df8-ac80-4cdb-8066-f895acf1fe5c"},"vehicle_type_id":"4","last_reported":1692723958,"current_range_meters":20400,"station_id":"ce4bhbh2rcd13ifvqepg","pricing_plan_id":"free"},{"bike_id":"7e598581-f8a0-4027-b919-b32ae9288629","system_id":"levelo_inurba_marseille","lat":43.284219,"lon":5.3497,"is_reserved":false,"is_disabled":false,"rental_uris":{"android":"levelo://app?vid=7e598581-f8a0-4027-b919-b32ae9288629","ios":"levelo://app?vid=7e598581-f8a0-4027-b919-b32ae9288629"},"vehicle_type_id":"4","last_reported":1692723958,"current_range_meters":30800,"station_id":"ce4bhbh2rcd13ifvqepg","pricing_plan_id":"free"},{"bike_id":"d56e2121-c12b-4411-a2fe-698216b2c7ba","system_id":"levelo_inurba_marseille","lat":43.284219,"lon":5.3497,"is_reserved":false,"is_disabled":false,"rental_uris":{"android":"levelo://app?vid=d56e2121-c12b-4411-a2fe-698216b2c7ba","ios":"levelo://app?vid=d56e2121-c12b-4411-a2fe-698216b2c7ba"},"vehicle_type_id":"4","last_reported":1692723958,"current_range_meters":6000,"station_id":"ce4bhbh2rcd13ifvqepg","pricing_plan_id":"free"},{"bike_id":"39a8b821-81fd-4c27-bddb-47e1308837d6","system_id":"levelo_inurba_marseille","lat":43.284217,"lon":5.349697,"is_reserved":false,"is_disabled":false,"rental_uris":{"android":"levelo://app?vid=39a8b821-81fd-4c27-bddb-47e1308837d6","ios":"levelo://app?vid=39a8b821-81fd-4c27-bddb-47e1308837d6"},"vehicle_type_id":"4","last_reported":1692723958,"current_range_meters":0,"station_id":"ce4bhbh2rcd13ifvqepg","pricing_plan_id":"free"},{"bike_id":"f50aca5f-cf5b-4020-925f-826a2e34874f","system_id":"levelo_inurba_marseille","lat":43.289363,"lon":5.396322,"is_reserved":false,"is_disabled":false,"rental_uris":{"android":"levelo://app?vid=f50aca5f-cf5b-4020-925f-826a2e34874f","ios":"levelo://app?vid=f50aca5f-cf5b-4020-925f-826a2e34874f"},"vehicle_type_id":"4","last_reported":1692723958,"current_range_meters":31200,"station_id":"ce4bh3h2rcd13ifvqdn0","pricing_plan_id":"free"},{"bike_id":"1da6ae77-e487-44d2-98c4-3ee5f1e9961d","system_id":"levelo_inurba_marseille","lat":43.289363,"lon":5.396322,"is_reserved":false,"is_disabled":false,"rental_uris":{"android":"levelo://app?vid=1da6ae77-e487-44d2-98c4-3ee5f1e9961d","ios":"levelo://app?vid=1da6ae77-e487-44d2-98c4-3ee5f1e9961d"},"vehicle_type_id":"4","last_reported":1692723958,"current_range_meters":3600,"station_id":"ce4bh3h2rcd13ifvqdn0","pricing_plan_id":"free"},{"bike_id":"79ae07f7-3d9b-456b-927e-8e880eafedba","system_id":"levelo_inurba_marseille","lat":43.32572,"lon":5.40673,"is_reserved":false,"is_disabled":false,"rental_uris":{"android":"levelo://app?vid=79ae07f7-3d9b-456b-927e-8e880eafedba","ios":"levelo://app?vid=79ae07f7-3d9b-456b-927e-8e880eafedba"},"vehicle_type_id":"4","last_reported":1692723958,"current_range_meters":800,"station_id":"","pricing_plan_id":"free"},{"bike_id":"d72ba8ce-6c81-462d-bed5-2de14975ba92","system_id":"levelo_inurba_marseille","lat":43.292724,"lon":5.401131,"is_reserved":false,"is_disabled":false,"rental_uris":{"android":"levelo://app?vid=d72ba8ce-6c81-462d-bed5-2de14975ba92","ios":"levelo://app?vid=d72ba8ce-6c81-462d-bed5-2de14975ba92"},"vehicle_type_id":"4","last_reported":1692723958,"current_range_meters":12000,"station_id":"ce4bh312rcd13ifvqdk0","pricing_plan_id":"free"},{"bike_id":"941506df-57be-40e8-b017-f1109ac2f449","system_id":"levelo_inurba_marseille","lat":43.292827,"lon":5.401157,"is_reserved":false,"is_disabled":false,"rental_uris":{"android":"levelo://app?vid=941506df-57be-40e8-b017-f1109ac2f449","ios":"levelo://app?vid=941506df-57be-40e8-b017-f1109ac2f449"},"vehicle_type_id":"4","last_reported":1692723958,"current_range_meters":0,"station_id":"","pricing_plan_id":"free"},{"bike_id":"0bb5163f-a5dc-482a-b256-516cebc16337","system_id":"levelo_inurba_marseille","lat":43.282744,"lon":5.350533,"is_reserved":false,"is_disabled":false,"rental_uris":{"android":"levelo://app?vid=0bb5163f-a5dc-482a-b256-516cebc16337","ios":"levelo://app?vid=0bb5163f-a5dc-482a-b256-516cebc16337"},"vehicle_type_id":"4","last_reported":1692723958,"current_range_meters":30000,"station_id":"ce4bhbp2rcd13ifvqerg","pricing_plan_id":"free"},{"bike_id":"838f8530-04ee-4cb8-b624-660ab95b4e06","system_id":"levelo_inurba_marseille","lat":43.28282,"lon":5.35058,"is_reserved":false,"is_disabled":false,"rental_uris":{"android":"levelo://app?vid=838f8530-04ee-4cb8-b624-660ab95b4e06","ios":"levelo://app?vid=838f8530-04ee-4cb8-b624-660ab95b4e06"},"vehicle_type_id":"4","last_reported":1692723958,"current_range_meters":22000,"station_id":"ce4bhbp2rcd13ifvqerg","pricing_plan_id":"free"},{"bike_id":"28851f45-fcdd-4ad6-a884-7271806f58f0","system_id":"levelo_inurba_marseille","lat":43.28279,"lon":5.35066,"is_reserved":false,"is_disabled":false,"rental_uris":{"android":"levelo://app?vid=28851f45-fcdd-4ad6-a884-7271806f58f0","ios":"levelo://app?vid=28851f45-fcdd-4ad6-a884-7271806f58f0"},"vehicle_type_id":"4","last_reported":1692723958,"current_range_meters":30800,"station_id":"ce4bhbp2rcd13ifvqerg","pricing_plan_id":"free"},{"bike_id":"97665d79-dc46-4992-8999-8c7f31b1a802","system_id":"levelo_inurba_marseille","lat":43.28279,"lon":5.35064,"is_reserved":false,"is_disabled":false,"rental_uris":{"android":"levelo://app?vid=97665d79-dc46-4992-8999-8c7f31b1a802","ios":"levelo://app?vid=97665d79-dc46-4992-8999-8c7f31b1a802"},"vehicle_type_id":"4","last_reported":1692723958,"current_range_meters":31200,"station_id":"ce4bhbp2rcd13ifvqerg","pricing_plan_id":"free"},{"bike_id":"765d74f8-405d-4e38-ba5a-392579c5f282","system_id":"levelo_inurba_marseille","lat":43.28278,"lon":5.35065,"is_reserved":false,"is_disabled":false,"rental_uris":{"android":"levelo://app?vid=765d74f8-405d-4e38-ba5a-392579c5f282","ios":"levelo://app?vid=765d74f8-405d-4e38-ba5a-392579c5f282"},"vehicle_type_id":"4","last_reported":1692723958,"current_range_meters":31200,"station_id":"ce4bhbp2rcd13ifvqerg","pricing_plan_id":"free"},{"bike_id":"88940920-727e-47f8-bee6-24feedff1167","system_id":"levelo_inurba_marseille","lat":43.282754,"lon":5.350519,"is_reserved":false,"is_disabled":false,"rental_uris":{"android":"levelo://app?vid=88940920-727e-47f8-bee6-24feedff1167","ios":"levelo://app?vid=88940920-727e-47f8-bee6-24feedff1167"},"vehicle_type_id":"4","last_reported":1692723958,"current_range_meters":29600,"station_id":"ce4bhbp2rcd13ifvqerg","pricing_plan_id":"free"},{"bike_id":"bcf4f588-6ed1-44f6-8caf-e08422e00fcb","system_id":"levelo_inurba_marseille","lat":43.28276,"lon":5.35066,"is_reserved":false,"is_disabled":false,"rental_uris":{"android":"levelo://app?vid=bcf4f588-6ed1-44f6-8caf-e08422e00fcb","ios":"levelo://app?vid=bcf4f588-6ed1-44f6-8caf-e08422e00fcb"},"vehicle_type_id":"4","last_reported":1692723958,"current_range_meters":31200,"station_id":"ce4bhbp2rcd13ifvqerg","pricing_plan_id":"free"},{"bike_id":"a648e4b9-af93-4b28-982e-e42c178ed1d0","system_id":"levelo_inurba_marseille","lat":43.28278,"lon":5.35057,"is_reserved":false,"is_disabled":false,"rental_uris":{"android":"levelo://app?vid=a648e4b9-af93-4b28-982e-e42c178ed1d0","ios":"levelo://app?vid=a648e4b9-af93-4b28-982e-e42c178ed1d0"},"vehicle_type_id":"4","last_reported":1692723958,"current_range_meters":31200,"station_id":"ce4bhbp2rcd13ifvqerg","pricing_plan_id":"free"},{"bike_id":"031212e7-e4dd-47a0-a878-7cf31f5eccd5","system_id":"levelo_inurba_marseille","lat":43.28275,"lon":5.35066,"is_reserved":false,"is_disabled":false,"rental_uris":{"android":"levelo://app?vid=031212e7-e4dd-47a0-a878-7cf31f5eccd5","ios":"levelo://app?vid=031212e7-e4dd-47a0-a878-7cf31f5eccd5"},"vehicle_type_id":"4","last_reported":1692723958,"current_range_meters":31200,"station_id":"ce4bhbp2rcd13ifvqerg","pricing_plan_id":"free"},{"bike_id":"8ba3eac1-39b3-4dad-9912-42885ea7f59d","system_id":"levelo_inurba_marseille","lat":43.28278,"lon":5.35055,"is_reserved":false,"is_disabled":false,"rental_uris":{"android":"levelo://app?vid=8ba3eac1-39b3-4dad-9912-42885ea7f59d","ios":"levelo://app?vid=8ba3eac1-39b3-4dad-9912-42885ea7f59d"},"vehicle_type_id":"4","last_reported":1692723958,"current_range_meters":22800,"station_id":"ce4bhbp2rcd13ifvqerg","pricing_plan_id":"free"},{"bike_id":"1035af15-2745-405b-87fd-84d93eb24a6e","system_id":"levelo_inurba_marseille","lat":43.28273,"lon":5.35072,"is_reserved":false,"is_disabled":false,"rental_uris":{"android":"levelo://app?vid=1035af15-2745-405b-87fd-84d93eb24a6e","ios":"levelo://app?vid=1035af15-2745-405b-87fd-84d93eb24a6e"},"vehicle_type_id":"4","last_reported":1692723958,"current_range_meters":9200,"station_id":"ce4bhbp2rcd13ifvqerg","pricing_plan_id":"free"},{"bike_id":"337b14ff-22ef-44f3-8c73-5e63c215cbf1","system_id":"levelo_inurba_marseille","lat":43.28272,"lon":5.35075,"is_reserved":false,"is_disabled":false,"rental_uris":{"android":"levelo://app?vid=337b14ff-22ef-44f3-8c73-5e63c215cbf1","ios":"levelo://app?vid=337b14ff-22ef-44f3-8c73-5e63c215cbf1"},"vehicle_type_id":"4","last_reported":1692723958,"current_range_meters":2000,"station_id":"ce4bhbp2rcd13ifvqerg","pricing_plan_id":"free"},{"bike_id":"4f76bb8b-534a-4667-99f2-697a723881bd","system_id":"levelo_inurba_marseille","lat":43.28275,"lon":5.35063,"is_reserved":false,"is_disabled":false,"rental_uris":{"android":"levelo://app?vid=4f76bb8b-534a-4667-99f2-697a723881bd","ios":"levelo://app?vid=4f76bb8b-534a-4667-99f2-697a723881bd"},"vehicle_type_id":"4","last_reported":1692723958,"current_range_meters":31200,"station_id":"ce4bhbp2rcd13ifvqerg","pricing_plan_id":"free"},{"bike_id":"adaa526f-ad2d-4256-baaf-a6e5b7a5079d","system_id":"levelo_inurba_marseille","lat":43.28275,"lon":5.35062,"is_reserved":false,"is_disabled":false,"rental_uris":{"android":"levelo://app?vid=adaa526f-ad2d-4256-baaf-a6e5b7a5079d","ios":"levelo://app?vid=adaa526f-ad2d-4256-baaf-a6e5b7a5079d"},"vehicle_type_id":"4","last_reported":1692723958,"current_range_meters":10000,"station_id":"ce4bhbp2rcd13ifvqerg","pricing_plan_id":"free"},{"bike_id":"b0b226d6-c590-42d6-a7d0-c9de4153d77f","system_id":"levelo_inurba_marseille","lat":43.282744,"lon":5.350533,"is_reserved":false,"is_disabled":false,"rental_uris":{"android":"levelo://app?vid=b0b226d6-c590-42d6-a7d0-c9de4153d77f","ios":"levelo://app?vid=b0b226d6-c590-42d6-a7d0-c9de4153d77f"},"vehicle_type_id":"4","last_reported":1692723958,"current_range_meters":31200,"station_id":"ce4bhbp2rcd13ifvqerg","pricing_plan_id":"free"},{"bike_id":"bd124cff-f6b3-48f1-b343-b34bb8f17740","system_id":"levelo_inurba_marseille","lat":43.28275,"lon":5.3506,"is_reserved":false,"is_disabled":false,"rental_uris":{"android":"levelo://app?vid=bd124cff-f6b3-48f1-b343-b34bb8f17740","ios":"levelo://app?vid=bd124cff-f6b3-48f1-b343-b34bb8f17740"},"vehicle_type_id":"4","last_reported":1692723958,"current_range_meters":21600,"station_id":"ce4bhbp2rcd13ifvqerg","pricing_plan_id":"free"},{"bike_id":"a1ecd9b9-d75d-4beb-93c9-16b72c60f041","system_id":"levelo_inurba_marseille","lat":43.28275,"lon":5.35055,"is_reserved":false,"is_disabled":false,"rental_uris":{"android":"levelo://app?vid=a1ecd9b9-d75d-4beb-93c9-16b72c60f041","ios":"levelo://app?vid=a1ecd9b9-d75d-4beb-93c9-16b72c60f041"},"vehicle_type_id":"4","last_reported":1692723958,"current_range_meters":31200,"station_id":"ce4bhbp2rcd13ifvqerg","pricing_plan_id":"free"},{"bike_id":"f621ded8-b170-4083-a60c-f975b682a3ed","system_id":"levelo_inurba_marseille","lat":43.282744,"lon":5.350533,"is_reserved":false,"is_disabled":false,"rental_uris":{"android":"levelo://app?vid=f621ded8-b170-4083-a60c-f975b682a3ed","ios":"levelo://app?vid=f621ded8-b170-4083-a60c-f975b682a3ed"},"vehicle_type_id":"4","last_reported":1692723958,"current_range_meters":28800,"station_id":"ce4bhbp2rcd13ifvqerg","pricing_plan_id":"free"},{"bike_id":"ab62284f-fdec-4ce9-a71a-a48cd2981802","system_id":"levelo_inurba_marseille","lat":43.2827,"lon":5.3507,"is_reserved":false,"is_disabled":false,"rental_uris":{"android":"levelo://app?vid=ab62284f-fdec-4ce9-a71a-a48cd2981802","ios":"levelo://app?vid=ab62284f-fdec-4ce9-a71a-a48cd2981802"},"vehicle_type_id":"4","last_reported":1692723958,"current_range_meters":800,"station_id":"ce4bhbp2rcd13ifvqerg","pricing_plan_id":"free"},{"bike_id":"5a8cf80a-f2f0-40d7-9b2c-918aab18fc5f","system_id":"levelo_inurba_marseille","lat":43.28271,"lon":5.35063,"is_reserved":false,"is_disabled":false,"rental_uris":{"android":"levelo://app?vid=5a8cf80a-f2f0-40d7-9b2c-918aab18fc5f","ios":"levelo://app?vid=5a8cf80a-f2f0-40d7-9b2c-918aab18fc5f"},"vehicle_type_id":"4","last_reported":1692723958,"current_range_meters":10800,"station_id":"ce4bhbp2rcd13ifvqerg","pricing_plan_id":"free"},{"bike_id":"a65e7466-a096-4ee9-8631-2f3590960859","system_id":"levelo_inurba_marseille","lat":43.282744,"lon":5.350533,"is_reserved":false,"is_disabled":false,"rental_uris":{"android":"levelo://app?vid=a65e7466-a096-4ee9-8631-2f3590960859","ios":"levelo://app?vid=a65e7466-a096-4ee9-8631-2f3590960859"},"vehicle_type_id":"4","last_reported":1692723958,"current_range_meters":29600,"station_id":"ce4bhbp2rcd13ifvqerg","pricing_plan_id":"free"},{"bike_id":"ee86c0ed-dff0-48d1-b13b-599a1d9d7d37","system_id":"levelo_inurba_marseille","lat":43.28268,"lon":5.35064,"is_reserved":false,"is_disabled":false,"rental_uris":{"android":"levelo://app?vid=ee86c0ed-dff0-48d1-b13b-599a1d9d7d37","ios":"levelo://app?vid=ee86c0ed-dff0-48d1-b13b-599a1d9d7d37"},"vehicle_type_id":"4","last_reported":1692723958,"current_range_meters":0,"station_id":"ce4bhbp2rcd13ifvqerg","pricing_plan_id":"free"},{"bike_id":"a826fdb1-01b8-4a28-9176-1c8996a96f87","system_id":"levelo_inurba_marseille","lat":43.28044,"lon":5.36946,"is_reserved":false,"is_disabled":false,"rental_uris":{"android":"levelo://app?vid=a826fdb1-01b8-4a28-9176-1c8996a96f87","ios":"levelo://app?vid=a826fdb1-01b8-4a28-9176-1c8996a96f87"},"vehicle_type_id":"4","last_reported":1692723958,"current_range_meters":25200,"station_id":"","pricing_plan_id":"free"},{"bike_id":"ff7fae91-73d9-48ff-8a01-508039ea7b75","system_id":"levelo_inurba_marseille","lat":43.2826,"lon":5.3506,"is_reserved":false,"is_disabled":false,"rental_uris":{"android":"levelo://app?vid=ff7fae91-73d9-48ff-8a01-508039ea7b75","ios":"levelo://app?vid=ff7fae91-73d9-48ff-8a01-508039ea7b75"},"vehicle_type_id":"4","last_reported":1692723958,"current_range_meters":0,"station_id":"ce4bhbp2rcd13ifvqerg","pricing_plan_id":"free"},{"bike_id":"9f46cfde-4f76-4076-bade-5765c2d3d473","system_id":"levelo_inurba_marseille","lat":43.28039,"lon":5.369297,"is_reserved":false,"is_disabled":false,"rental_uris":{"android":"levelo://app?vid=9f46cfde-4f76-4076-bade-5765c2d3d473","ios":"levelo://app?vid=9f46cfde-4f76-4076-bade-5765c2d3d473"},"vehicle_type_id":"4","last_reported":1692723958,"current_range_meters":31600,"station_id":"ce4bha12rcd13ifvqef0","pricing_plan_id":"free"},{"bike_id":"6d176ff5-5c0b-4af6-a53b-85751620743e","system_id":"levelo_inurba_marseille","lat":43.281044,"lon":5.378308,"is_reserved":false,"is_disabled":false,"rental_uris":{"android":"levelo://app?vid=6d176ff5-5c0b-4af6-a53b-85751620743e","ios":"levelo://app?vid=6d176ff5-5c0b-4af6-a53b-85751620743e"},"vehicle_type_id":"4","last_reported":1692723958,"current_range_meters":12000,"station_id":"ce4bha12rcd13ifvqee0","pricing_plan_id":"free"},{"bike_id":"8d598e48-dd89-4b17-accc-76e1eb1d18da","system_id":"levelo_inurba_marseille","lat":43.296263,"lon":5.40601,"is_reserved":false,"is_disabled":false,"rental_uris":{"android":"levelo://app?vid=8d598e48-dd89-4b17-accc-76e1eb1d18da","ios":"levelo://app?vid=8d598e48-dd89-4b17-accc-76e1eb1d18da"},"vehicle_type_id":"4","last_reported":1692723958,"current_range_meters":22400,"station_id":"ce4bh0h2rcd13ifvqd60","pricing_plan_id":"free"},{"bike_id":"3f909ffc-733b-4d84-8ee5-8795defb03cd","system_id":"levelo_inurba_marseille","lat":43.28106,"lon":5.37836,"is_reserved":false,"is_disabled":false,"rental_uris":{"android":"levelo://app?vid=3f909ffc-733b-4d84-8ee5-8795defb03cd","ios":"levelo://app?vid=3f909ffc-733b-4d84-8ee5-8795defb03cd"},"vehicle_type_id":"4","last_reported":1692723958,"current_range_meters":7600,"station_id":"ce4bha12rcd13ifvqee0","pricing_plan_id":"free"},{"bike_id":"f2f21b98-d108-4430-95ec-291498fce7fa","system_id":"levelo_inurba_marseille","lat":43.284462,"lon":5.392121,"is_reserved":false,"is_disabled":false,"rental_uris":{"android":"levelo://app?vid=f2f21b98-d108-4430-95ec-291498fce7fa","ios":"levelo://app?vid=f2f21b98-d108-4430-95ec-291498fce7fa"},"vehicle_type_id":"4","last_reported":1692723958,"current_range_meters":0,"station_id":"ce4bhoh2rcd13ifvqh5g","pricing_plan_id":"free"},{"bike_id":"988e0a01-b67a-4ceb-a87b-41a9cdc216ce","system_id":"levelo_inurba_marseille","lat":43.28442,"lon":5.39185,"is_reserved":false,"is_disabled":false,"rental_uris":{"android":"levelo://app?vid=988e0a01-b67a-4ceb-a87b-41a9cdc216ce","ios":"levelo://app?vid=988e0a01-b67a-4ceb-a87b-41a9cdc216ce"},"vehicle_type_id":"4","last_reported":1692723958,"current_range_meters":31200,"station_id":"","pricing_plan_id":"free"},{"bike_id":"243eeef1-7e88-4077-a63c-4e3ba13d458e","system_id":"levelo_inurba_marseille","lat":43.284462,"lon":5.392121,"is_reserved":false,"is_disabled":false,"rental_uris":{"android":"levelo://app?vid=243eeef1-7e88-4077-a63c-4e3ba13d458e","ios":"levelo://app?vid=243eeef1-7e88-4077-a63c-4e3ba13d458e"},"vehicle_type_id":"4","last_reported":1692723958,"current_range_meters":0,"station_id":"ce4bhoh2rcd13ifvqh5g","pricing_plan_id":"free"},{"bike_id":"66d1fe48-55d1-42db-afda-f87c6273a594","system_id":"levelo_inurba_marseille","lat":43.28573,"lon":5.394992,"is_reserved":false,"is_disabled":false,"rental_uris":{"android":"levelo://app?vid=66d1fe48-55d1-42db-afda-f87c6273a594","ios":"levelo://app?vid=66d1fe48-55d1-42db-afda-f87c6273a594"},"vehicle_type_id":"4","last_reported":1692723958,"current_range_meters":11600,"station_id":"ce4bh292rcd13ifvqdg0","pricing_plan_id":"free"},{"bike_id":"2c71479a-c8a8-4f04-aed4-cb52a806b6b6","system_id":"levelo_inurba_marseille","lat":43.28573,"lon":5.394992,"is_reserved":false,"is_disabled":false,"rental_uris":{"android":"levelo://app?vid=2c71479a-c8a8-4f04-aed4-cb52a806b6b6","ios":"levelo://app?vid=2c71479a-c8a8-4f04-aed4-cb52a806b6b6"},"vehicle_type_id":"4","last_reported":1692723958,"current_range_meters":9600,"station_id":"ce4bh292rcd13ifvqdg0","pricing_plan_id":"free"},{"bike_id":"f43bc893-63a9-4253-a82c-8a8a4db722b6","system_id":"levelo_inurba_marseille","lat":43.28573,"lon":5.394992,"is_reserved":false,"is_disabled":false,"rental_uris":{"android":"levelo://app?vid=f43bc893-63a9-4253-a82c-8a8a4db722b6","ios":"levelo://app?vid=f43bc893-63a9-4253-a82c-8a8a4db722b6"},"vehicle_type_id":"4","last_reported":1692723958,"current_range_meters":15600,"station_id":"ce4bh292rcd13ifvqdg0","pricing_plan_id":"free"},{"bike_id":"6f7d185c-7f14-4fee-a999-cec04cb8e6a2","system_id":"levelo_inurba_marseille","lat":43.285742,"lon":5.395004,"is_reserved":false,"is_disabled":false,"rental_uris":{"android":"levelo://app?vid=6f7d185c-7f14-4fee-a999-cec04cb8e6a2","ios":"levelo://app?vid=6f7d185c-7f14-4fee-a999-cec04cb8e6a2"},"vehicle_type_id":"4","last_reported":1692723958,"current_range_meters":29200,"station_id":"ce4bh292rcd13ifvqdg0","pricing_plan_id":"free"},{"bike_id":"f8ef4f78-badc-40d1-a4a9-077301466e56","system_id":"levelo_inurba_marseille","lat":43.32662,"lon":5.40978,"is_reserved":false,"is_disabled":false,"rental_uris":{"android":"levelo://app?vid=f8ef4f78-badc-40d1-a4a9-077301466e56","ios":"levelo://app?vid=f8ef4f78-badc-40d1-a4a9-077301466e56"},"vehicle_type_id":"4","last_reported":1692723958,"current_range_meters":800,"station_id":"ce4bhpp2rcd13ifvqhgg","pricing_plan_id":"free"},{"bike_id":"f2feafc4-c356-4828-a2ba-b2f129215730","system_id":"levelo_inurba_marseille","lat":43.304188,"lon":5.412904,"is_reserved":false,"is_disabled":false,"rental_uris":{"android":"levelo://app?vid=f2feafc4-c356-4828-a2ba-b2f129215730","ios":"levelo://app?vid=f2feafc4-c356-4828-a2ba-b2f129215730"},"vehicle_type_id":"4","last_reported":1692723958,"current_range_meters":31200,"station_id":"ce4bhop2rcd13ifvqh8g","pricing_plan_id":"free"},{"bike_id":"54cf4a13-6fe9-40ef-804e-5873aed2ee14","system_id":"levelo_inurba_marseille","lat":43.27906,"lon":5.38002,"is_reserved":false,"is_disabled":false,"rental_uris":{"android":"levelo://app?vid=54cf4a13-6fe9-40ef-804e-5873aed2ee14","ios":"levelo://app?vid=54cf4a13-6fe9-40ef-804e-5873aed2ee14"},"vehicle_type_id":"4","last_reported":1692723958,"current_range_meters":18000,"station_id":"","pricing_plan_id":"free"},{"bike_id":"a319f6b9-4da8-446b-a73e-26104ea62877","system_id":"levelo_inurba_marseille","lat":43.287154,"lon":5.399979,"is_reserved":false,"is_disabled":false,"rental_uris":{"android":"levelo://app?vid=a319f6b9-4da8-446b-a73e-26104ea62877","ios":"levelo://app?vid=a319f6b9-4da8-446b-a73e-26104ea62877"},"vehicle_type_id":"4","last_reported":1692723958,"current_range_meters":7200,"station_id":"ce4bho92rcd13ifvqh3g","pricing_plan_id":"free"},{"bike_id":"25be3361-8c5c-4417-8ed8-fa50a9b085f4","system_id":"levelo_inurba_marseille","lat":43.287106,"lon":5.399947,"is_reserved":false,"is_disabled":false,"rental_uris":{"android":"levelo://app?vid=25be3361-8c5c-4417-8ed8-fa50a9b085f4","ios":"levelo://app?vid=25be3361-8c5c-4417-8ed8-fa50a9b085f4"},"vehicle_type_id":"4","last_reported":1692723958,"current_range_meters":23200,"station_id":"","pricing_plan_id":"free"},{"bike_id":"51a51696-7009-4d07-902f-21f7e732c8d7","system_id":"levelo_inurba_marseille","lat":43.32058,"lon":5.41546,"is_reserved":false,"is_disabled":false,"rental_uris":{"android":"levelo://app?vid=51a51696-7009-4d07-902f-21f7e732c8d7","ios":"levelo://app?vid=51a51696-7009-4d07-902f-21f7e732c8d7"},"vehicle_type_id":"4","last_reported":1692723958,"current_range_meters":2800,"station_id":"ce4bhq92rcd13ifvqhkg","pricing_plan_id":"free"},{"bike_id":"c327718a-8fe6-4791-a349-aba0f8f94e82","system_id":"levelo_inurba_marseille","lat":43.279742,"lon":5.38744,"is_reserved":false,"is_disabled":false,"rental_uris":{"android":"levelo://app?vid=c327718a-8fe6-4791-a349-aba0f8f94e82","ios":"levelo://app?vid=c327718a-8fe6-4791-a349-aba0f8f94e82"},"vehicle_type_id":"4","last_reported":1692723958,"current_range_meters":25200,"station_id":"ce4bhg12rcd13ifvqf80","pricing_plan_id":"free"},{"bike_id":"31bf0504-0853-4b02-837a-ef5dba781361","system_id":"levelo_inurba_marseille","lat":43.32043,"lon":5.41558,"is_reserved":false,"is_disabled":false,"rental_uris":{"android":"levelo://app?vid=31bf0504-0853-4b02-837a-ef5dba781361","ios":"levelo://app?vid=31bf0504-0853-4b02-837a-ef5dba781361"},"vehicle_type_id":"4","last_reported":1692723958,"current_range_meters":28800,"station_id":"ce4bhq92rcd13ifvqhkg","pricing_plan_id":"free"},{"bike_id":"969ccb66-5715-427c-9802-87b582b20496","system_id":"levelo_inurba_marseille","lat":43.292571,"lon":5.409107,"is_reserved":false,"is_disabled":false,"rental_uris":{"android":"levelo://app?vid=969ccb66-5715-427c-9802-87b582b20496","ios":"levelo://app?vid=969ccb66-5715-427c-9802-87b582b20496"},"vehicle_type_id":"4","last_reported":1692723958,"current_range_meters":5200,"station_id":"ce4bh192rcd13ifvqdc0","pricing_plan_id":"free"},{"bike_id":"364dd6a5-4704-4696-94c5-831363c8990c","system_id":"levelo_inurba_marseille","lat":43.292571,"lon":5.409107,"is_reserved":false,"is_disabled":false,"rental_uris":{"android":"levelo://app?vid=364dd6a5-4704-4696-94c5-831363c8990c","ios":"levelo://app?vid=364dd6a5-4704-4696-94c5-831363c8990c"},"vehicle_type_id":"4","last_reported":1692723958,"current_range_meters":2800,"station_id":"ce4bh192rcd13ifvqdc0","pricing_plan_id":"free"},{"bike_id":"6c408fe7-cc15-4b75-8bf5-87403a80a90c","system_id":"levelo_inurba_marseille","lat":43.27622,"lon":5.36108,"is_reserved":false,"is_disabled":false,"rental_uris":{"android":"levelo://app?vid=6c408fe7-cc15-4b75-8bf5-87403a80a90c","ios":"levelo://app?vid=6c408fe7-cc15-4b75-8bf5-87403a80a90c"},"vehicle_type_id":"4","last_reported":1692723958,"current_range_meters":2400,"station_id":"ce4bgj92rcd13ifvqbe0","pricing_plan_id":"free"},{"bike_id":"d94bbe13-6239-4e21-98e1-942b44cec5c3","system_id":"levelo_inurba_marseille","lat":43.280784,"lon":5.396622,"is_reserved":false,"is_disabled":false,"rental_uris":{"android":"levelo://app?vid=d94bbe13-6239-4e21-98e1-942b44cec5c3","ios":"levelo://app?vid=d94bbe13-6239-4e21-98e1-942b44cec5c3"},"vehicle_type_id":"4","last_reported":1692723958,"current_range_meters":14400,"station_id":"ce4bho12rcd13ifvqh2g","pricing_plan_id":"free"},{"bike_id":"7b117e37-55ff-4450-a288-365f269d41e7","system_id":"levelo_inurba_marseille","lat":43.278399,"lon":5.392139,"is_reserved":false,"is_disabled":false,"rental_uris":{"android":"levelo://app?vid=7b117e37-55ff-4450-a288-365f269d41e7","ios":"levelo://app?vid=7b117e37-55ff-4450-a288-365f269d41e7"},"vehicle_type_id":"4","last_reported":1692723958,"current_range_meters":3600,"station_id":"ce4bhjp2rcd13ifvqga0","pricing_plan_id":"free"},{"bike_id":"2c7e9417-9d75-4674-973c-0a419441cdeb","system_id":"levelo_inurba_marseille","lat":43.278401,"lon":5.392152,"is_reserved":false,"is_disabled":false,"rental_uris":{"android":"levelo://app?vid=2c7e9417-9d75-4674-973c-0a419441cdeb","ios":"levelo://app?vid=2c7e9417-9d75-4674-973c-0a419441cdeb"},"vehicle_type_id":"4","last_reported":1692723958,"current_range_meters":20800,"station_id":"ce4bhjp2rcd13ifvqga0","pricing_plan_id":"free"},{"bike_id":"473fa2a6-6330-4a19-9017-e939808b0942","system_id":"levelo_inurba_marseille","lat":43.273609,"lon":5.362708,"is_reserved":false,"is_disabled":false,"rental_uris":{"android":"levelo://app?vid=473fa2a6-6330-4a19-9017-e939808b0942","ios":"levelo://app?vid=473fa2a6-6330-4a19-9017-e939808b0942"},"vehicle_type_id":"4","last_reported":1692723958,"current_range_meters":24400,"station_id":"ce4bhbh2rcd13ifvqeo0","pricing_plan_id":"free"},{"bike_id":"c3d6fbd1-1295-4f94-98c4-e10cdc31063b","system_id":"levelo_inurba_marseille","lat":43.2738,"lon":5.36248,"is_reserved":false,"is_disabled":false,"rental_uris":{"android":"levelo://app?vid=c3d6fbd1-1295-4f94-98c4-e10cdc31063b","ios":"levelo://app?vid=c3d6fbd1-1295-4f94-98c4-e10cdc31063b"},"vehicle_type_id":"4","last_reported":1692723958,"current_range_meters":27600,"station_id":"ce4bhbh2rcd13ifvqeo0","pricing_plan_id":"free"},{"bike_id":"30ba4e1f-649a-405f-a548-e054b9ec2f15","system_id":"levelo_inurba_marseille","lat":43.273609,"lon":5.362708,"is_reserved":false,"is_disabled":false,"rental_uris":{"android":"levelo://app?vid=30ba4e1f-649a-405f-a548-e054b9ec2f15","ios":"levelo://app?vid=30ba4e1f-649a-405f-a548-e054b9ec2f15"},"vehicle_type_id":"4","last_reported":1692723958,"current_range_meters":18400,"station_id":"ce4bhbh2rcd13ifvqeo0","pricing_plan_id":"free"},{"bike_id":"fddecc83-d53d-4653-babb-c5672c6d986a","system_id":"levelo_inurba_marseille","lat":43.27377,"lon":5.36254,"is_reserved":false,"is_disabled":false,"rental_uris":{"android":"levelo://app?vid=fddecc83-d53d-4653-babb-c5672c6d986a","ios":"levelo://app?vid=fddecc83-d53d-4653-babb-c5672c6d986a"},"vehicle_type_id":"4","last_reported":1692723958,"current_range_meters":18000,"station_id":"ce4bhbh2rcd13ifvqeo0","pricing_plan_id":"free"},{"bike_id":"e01daa41-e06b-4978-a996-c1cd5843d6c6","system_id":"levelo_inurba_marseille","lat":43.27377,"lon":5.36242,"is_reserved":false,"is_disabled":false,"rental_uris":{"android":"levelo://app?vid=e01daa41-e06b-4978-a996-c1cd5843d6c6","ios":"levelo://app?vid=e01daa41-e06b-4978-a996-c1cd5843d6c6"},"vehicle_type_id":"4","last_reported":1692723958,"current_range_meters":31200,"station_id":"ce4bhbh2rcd13ifvqeo0","pricing_plan_id":"free"},{"bike_id":"208d735f-944b-451a-94a6-b3e905fc5d83","system_id":"levelo_inurba_marseille","lat":43.273609,"lon":5.362708,"is_reserved":false,"is_disabled":false,"rental_uris":{"android":"levelo://app?vid=208d735f-944b-451a-94a6-b3e905fc5d83","ios":"levelo://app?vid=208d735f-944b-451a-94a6-b3e905fc5d83"},"vehicle_type_id":"4","last_reported":1692723958,"current_range_meters":12000,"station_id":"ce4bhbh2rcd13ifvqeo0","pricing_plan_id":"free"},{"bike_id":"6e708c09-ff2c-48cf-a555-a21d67b3a8ac","system_id":"levelo_inurba_marseille","lat":43.273609,"lon":5.362708,"is_reserved":false,"is_disabled":false,"rental_uris":{"android":"levelo://app?vid=6e708c09-ff2c-48cf-a555-a21d67b3a8ac","ios":"levelo://app?vid=6e708c09-ff2c-48cf-a555-a21d67b3a8ac"},"vehicle_type_id":"4","last_reported":1692723958,"current_range_meters":6800,"station_id":"ce4bhbh2rcd13ifvqeo0","pricing_plan_id":"free"},{"bike_id":"8694761a-23b2-4085-8948-1671c2cf9b9f","system_id":"levelo_inurba_marseille","lat":43.273613,"lon":5.362705,"is_reserved":false,"is_disabled":false,"rental_uris":{"android":"levelo://app?vid=8694761a-23b2-4085-8948-1671c2cf9b9f","ios":"levelo://app?vid=8694761a-23b2-4085-8948-1671c2cf9b9f"},"vehicle_type_id":"4","last_reported":1692723958,"current_range_meters":22400,"station_id":"ce4bhbh2rcd13ifvqeo0","pricing_plan_id":"free"},