{"last_updated":1684955109,"ttl":30,"version":"2.2","data":{"bikes":[{"bike_id":"6e4d5393-2c37-4e4b-ac12-1beeab014c16","system_id":"levelo_inurba_marseille","lat":43.312239,"lon":5.368562,"is_reserved":false,"is_disabled":false,"rental_uris":{"android":"levelo://app?vid=6e4d5393-2c37-4e4b-ac12-1beeab014c16","ios":"levelo://app?vid=6e4d5393-2c37-4e4b-ac12-1beeab014c16"},"vehicle_type_id":"4","last_reported":1684955109,"current_range_meters":12800,"station_id":"ce4bgl92rcd13ifvqbq0","pricing_plan_id":"free"},{"bike_id":"72026d82-713f-4095-a939-00bae7e94145","system_id":"levelo_inurba_marseille","lat":43.309076,"lon":5.368465,"is_reserved":false,"is_disabled":false,"rental_uris":{"android":"levelo://app?vid=72026d82-713f-4095-a939-00bae7e94145","ios":"levelo://app?vid=72026d82-713f-4095-a939-00bae7e94145"},"vehicle_type_id":"4","last_reported":1684955109,"current_range_meters":31200,"station_id":"ce4bgn92rcd13ifvqbvg","pricing_plan_id":"free"},{"bike_id":"ac3eb38d-fafb-41e0-be3f-3ed4b758f116","system_id":"levelo_inurba_marseille","lat":43.314811,"lon":5.373103,"is_reserved":false,"is_disabled":false,"rental_uris":{"android":"levelo://app?vid=ac3eb38d-fafb-41e0-be3f-3ed4b758f116","ios":"levelo://app?vid=ac3eb38d-fafb-41e0-be3f-3ed4b758f116"},"vehicle_type_id":"4","last_reported":1684955109,"current_range_meters":16400,"station_id":"ce4bgt12rcd13ifvqcd0","pricing_plan_id":"free"},{"bike_id":"47d88754-c8b0-4c88-b77a-0df4c560e0e1","system_id":"levelo_inurba_marseille","lat":43.308614,"lon":5.372098,"is_reserved":false,"is_disabled":false,"rental_uris":{"android":"levelo://app?vid=47d88754-c8b0-4c88-b77a-0df4c560e0e1","ios":"levelo://app?vid=47d88754-c8b0-4c88-b77a-0df4c560e0e1"},"vehicle_type_id":"4","last_reported":1684955109,"current_range_meters":15600,"station_id":"ce4bguh2rcd13ifvqckg","pricing_plan_id":"free"},{"bike_id":"511886c8-0e3e-413c-a192-d348818e3ead","system_id":"levelo_inurba_marseille","lat":43.305989,"lon":5.37225,"is_reserved":false,"is_disabled":false,"rental_uris":{"android":"levelo://app?vid=511886c8-0e3e-413c-a192-d348818e3ead","ios":"levelo://app?vid=511886c8-0e3e-413c-a192-d348818e3ead"},"vehicle_type_id":"4","last_reported":1684955109,"current_range_meters":0,"station_id":"ce4bgqh2rcd13ifvqc4g","pricing_plan_id":"free"},{"bike_id":"f7ffb530-cf36-4fca-8ef0-7ca3972056fa","system_id":"levelo_inurba_marseille","lat":43.305989,"lon":5.37225,"is_reserved":false,"is_disabled":false,"rental_uris":{"android":"levelo://app?vid=f7ffb530-cf36-4fca-8ef0-7ca3972056fa","ios":"levelo://app?vid=f7ffb530-cf36-4fca-8ef0-7ca3972056fa"},"vehicle_type_id":"4","last_reported":1684955109,"current_range_meters":1600,"station_id":"ce4bgqh2rcd13ifvqc4g","pricing_plan_id":"free"},{"bike_id":"68553df9-2b4c-4244-a834-2447f191355a","system_id":"levelo_inurba_marseille","lat":43.317075,"lon":5.377367,"is_reserved":false,"is_disabled":false,"rental_uris":{"android":"levelo://app?vid=68553df9-2b4c-4244-a834-2447f191355a","ios":"levelo://app?vid=68553df9-2b4c-4244-a834-2447f191355a"},"vehicle_type_id":"4","last_reported":1684955109,"current_range_meters":9600,"station_id":"ce4bgth2rcd13ifvqch0","pricing_plan_id":"free"},{"bike_id":"16e7282a-4eed-47c3-83b3-d7e0dee6c006","system_id":"levelo_inurba_marseille","lat":43.317075,"lon":5.377367,"is_reserved":false,"is_disabled":false,"rental_uris":{"android":"levelo://app?vid=16e7282a-4eed-47c3-83b3-d7e0dee6c006","ios":"levelo://app?vid=16e7282a-4eed-47c3-83b3-d7e0dee6c006"},"vehicle_type_id":"4","last_reported":1684955109,"current_range_meters":25200,"station_id":"ce4bgth2rcd13ifvqch0","pricing_plan_id":"free"},{"bike_id":"b6faf8b3-2a0c-46a6-b739-d70a593e59ae","system_id":"levelo_inurba_marseille","lat":43.317075,"lon":5.377367,"is_reserved":false,"is_disabled":false,"rental_uris":{"android":"levelo://app?vid=b6faf8b3-2a0c-46a6-b739-d70a593e59ae","ios":"levelo://app?vid=b6faf8b3-2a0c-46a6-b739-d70a593e59ae"},"vehicle_type_id":"4","last_reported":1684955109,"current_range_meters":4400,"station_id":"ce4bgth2rcd13ifvqch0","pricing_plan_id":"free"},{"bike_id":"c1e64ba5-f673-404d-a689-e1fb0c714013","system_id":"levelo_inurba_marseille","lat":43.317075,"lon":5.377367,"is_reserved":false,"is_disabled":false,"rental_uris":{"android":"levelo://app?vid=c1e64ba5-f673-404d-a689-e1fb0c714013","ios":"levelo://app?vid=c1e64ba5-f673-404d-a689-e1fb0c714013"},"vehicle_type_id":"4","last_reported":1684955109,"current_range_meters":31200,"station_id":"ce4bgth2rcd13ifvqch0","pricing_plan_id":"free"},{"bike_id":"e0e51ede-c4ac-4630-bc22-0e3c383745d9","system_id":"levelo_inurba_marseille","lat":43.317075,"lon":5.377367,"is_reserved":false,"is_disabled":false,"rental_uris":{"android":"levelo://app?vid=e0e51ede-c4ac-4630-bc22-0e3c383745d9","ios":"levelo://app?vid=e0e51ede-c4ac-4630-bc22-0e3c383745d9"},"vehicle_type_id":"4","last_reported":1684955109,"current_range_meters":28000,"station_id":"ce4bgth2rcd13ifvqch0","pricing_plan_id":"free"},{"bike_id":"fd38c318-e10c-4ea0-8386-140691495f8d","system_id":"levelo_inurba_marseille","lat":43.31713,"lon":5.37832,"is_reserved":false,"is_disabled":false,"rental_uris":{"android":"levelo://app?vid=fd38c318-e10c-4ea0-8386-140691495f8d","ios":"levelo://app?vid=fd38c318-e10c-4ea0-8386-140691495f8d"},"vehicle_type_id":"4","last_reported":1684955109,"current_range_meters":31200,"station_id":"","pricing_plan_id":"free"},{"bike_id":"b89a0158-c52b-4926-aa2f-f5a748acad7a","system_id":"levelo_inurba_marseille","lat":43.303046,"lon":5.368981,"is_reserved":false,"is_disabled":false,"rental_uris":{"android":"levelo://app?vid=b89a0158-c52b-4926-aa2f-f5a748acad7a","ios":"levelo://app?vid=b89a0158-c52b-4926-aa2f-f5a748acad7a"},"vehicle_type_id":"4","last_reported":1684955109,"current_range_meters":6000,"station_id":"ce4bgqh2rcd13ifvqc5g","pricing_plan_id":"free"},{"bike_id":"e6d095ef-2b84-4614-9036-dcde0d40e77b","system_id":"levelo_inurba_marseille","lat":43.315289,"lon":5.380349,"is_reserved":false,"is_disabled":false,"rental_uris":{"android":"levelo://app?vid=e6d095ef-2b84-4614-9036-dcde0d40e77b","ios":"levelo://app?vid=e6d095ef-2b84-4614-9036-dcde0d40e77b"},"vehicle_type_id":"4","last_reported":1684955109,"current_range_meters":20800,"station_id":"ce4bhsp2rcd13ifvqi50","pricing_plan_id":"free"},{"bike_id":"6d6f9f90-e329-45d1-97a2-dad532edd73d","system_id":"levelo_inurba_marseille","lat":43.315293,"lon":5.380349,"is_reserved":false,"is_disabled":false,"rental_uris":{"android":"levelo://app?vid=6d6f9f90-e329-45d1-97a2-dad532edd73d","ios":"levelo://app?vid=6d6f9f90-e329-45d1-97a2-dad532edd73d"},"vehicle_type_id":"4","last_reported":1684955109,"current_range_meters":23600,"station_id":"ce4bhsp2rcd13ifvqi50","pricing_plan_id":"free"},{"bike_id":"de838322-e6ba-492b-95b9-4dd7d4a7e675","system_id":"levelo_inurba_marseille","lat":43.30189,"lon":5.3662,"is_reserved":false,"is_disabled":false,"rental_uris":{"android":"levelo://app?vid=de838322-e6ba-492b-95b9-4dd7d4a7e675","ios":"levelo://app?vid=de838322-e6ba-492b-95b9-4dd7d4a7e675"},"vehicle_type_id":"4","last_reported":1684955109,"current_range_meters":0,"station_id":"ce4bgrh2rcd13ifvqc8g","pricing_plan_id":"free"},{"bike_id":"1c0a44c5-8c96-45e9-8663-e9517b89db4a","system_id":"levelo_inurba_marseille","lat":43.30186,"lon":5.36614,"is_reserved":false,"is_disabled":false,"rental_uris":{"android":"levelo://app?vid=1c0a44c5-8c96-45e9-8663-e9517b89db4a","ios":"levelo://app?vid=1c0a44c5-8c96-45e9-8663-e9517b89db4a"},"vehicle_type_id":"4","last_reported":1684955109,"current_range_meters":31200,"station_id":"ce4bgrh2rcd13ifvqc8g","pricing_plan_id":"free"},{"bike_id":"0485b8a5-c135-4f2d-80c5-946907c8c555","system_id":"levelo_inurba_marseille","lat":43.30184,"lon":5.3661,"is_reserved":false,"is_disabled":false,"rental_uris":{"android":"levelo://app?vid=0485b8a5-c135-4f2d-80c5-946907c8c555","ios":"levelo://app?vid=0485b8a5-c135-4f2d-80c5-946907c8c555"},"vehicle_type_id":"4","last_reported":1684955109,"current_range_meters":31200,"station_id":"ce4bgrh2rcd13ifvqc8g","pricing_plan_id":"free"},{"bike_id":"db01971d-19fa-4d8e-bb14-24bd59665b33","system_id":"levelo_inurba_marseille","lat":43.308012,"lon":5.381511,"is_reserved":false,"is_disabled":false,"rental_uris":{"android":"levelo://app?vid=db01971d-19fa-4d8e-bb14-24bd59665b33","ios":"levelo://app?vid=db01971d-19fa-4d8e-bb14-24bd59665b33"},"vehicle_type_id":"4","last_reported":1684955109,"current_range_meters":4800,"station_id":"ce4bgt12rcd13ifvqce0","pricing_plan_id":"free"},{"bike_id":"61bcc183-b9c2-448f-96c7-48b42f46df8d","system_id":"levelo_inurba_marseille","lat":43.308012,"lon":5.381511,"is_reserved":false,"is_disabled":false,"rental_uris":{"android":"levelo://app?vid=61bcc183-b9c2-448f-96c7-48b42f46df8d","ios":"levelo://app?vid=61bcc183-b9c2-448f-96c7-48b42f46df8d"},"vehicle_type_id":"4","last_reported":1684955109,"current_range_meters":14800,"station_id":"ce4bgt12rcd13ifvqce0","pricing_plan_id":"free"},{"bike_id":"b8994b73-d4df-4a9b-b787-8a37f26bcaf2","system_id":"levelo_inurba_marseille","lat":43.30137,"lon":5.3742,"is_reserved":false,"is_disabled":false,"rental_uris":{"android":"levelo://app?vid=b8994b73-d4df-4a9b-b787-8a37f26bcaf2","ios":"levelo://app?vid=b8994b73-d4df-4a9b-b787-8a37f26bcaf2"},"vehicle_type_id":"4","last_reported":1684955109,"current_range_meters":9600,"station_id":"","pricing_plan_id":"free"},{"bike_id":"ca6734a0-a0ee-4445-bc44-dc7854a1d3b0","system_id":"levelo_inurba_marseille","lat":43.319935,"lon":5.381699,"is_reserved":false,"is_disabled":false,"rental_uris":{"android":"levelo://app?vid=ca6734a0-a0ee-4445-bc44-dc7854a1d3b0","ios":"levelo://app?vid=ca6734a0-a0ee-4445-bc44-dc7854a1d3b0"},"vehicle_type_id":"4","last_reported":1684955109,"current_range_meters":13600,"station_id":"ce4bhr12rcd13ifvqhpg","pricing_plan_id":"free"},{"bike_id":"e5571f58-adb6-49b7-8c86-2d757ae8e1a0","system_id":"levelo_inurba_marseille","lat":43.319935,"lon":5.381699,"is_reserved":false,"is_disabled":false,"rental_uris":{"android":"levelo://app?vid=e5571f58-adb6-49b7-8c86-2d757ae8e1a0","ios":"levelo://app?vid=e5571f58-adb6-49b7-8c86-2d757ae8e1a0"},"vehicle_type_id":"4","last_reported":1684955109,"current_range_meters":25600,"station_id":"ce4bhr12rcd13ifvqhpg","pricing_plan_id":"free"},{"bike_id":"d0086ee5-2c76-40c6-ac41-971c5ff57f75","system_id":"levelo_inurba_marseille","lat":43.319935,"lon":5.381699,"is_reserved":false,"is_disabled":false,"rental_uris":{"android":"levelo://app?vid=d0086ee5-2c76-40c6-ac41-971c5ff57f75","ios":"levelo://app?vid=d0086ee5-2c76-40c6-ac41-971c5ff57f75"},"vehicle_type_id":"4","last_reported":1684955109,"current_range_meters":20000,"station_id":"ce4bhr12rcd13ifvqhpg","pricing_plan_id":"free"},{"bike_id":"b06b8421-bbaa-499d-a461-99fecf739d8f","system_id":"levelo_inurba_marseille","lat":43.319935,"lon":5.381699,"is_reserved":false,"is_disabled":false,"rental_uris":{"android":"levelo://app?vid=b06b8421-bbaa-499d-a461-99fecf739d8f","ios":"levelo://app?vid=b06b8421-bbaa-499d-a461-99fecf739d8f"},"vehicle_type_id":"4","last_reported":1684955109,"current_range_meters":12000,"station_id":"ce4bhr12rcd13ifvqhpg","pricing_plan_id":"free"},{"bike_id":"661cfc4b-ed22-49d2-9523-e0d33b317073","system_id":"levelo_inurba_marseille","lat":43.299222,"lon":5.365554,"is_reserved":false,"is_disabled":false,"rental_uris":{"android":"levelo://app?vid=661cfc4b-ed22-49d2-9523-e0d33b317073","ios":"levelo://app?vid=661cfc4b-ed22-49d2-9523-e0d33b317073"},"vehicle_type_id":"4","last_reported":1684955109,"current_range_meters":20000,"station_id":"ce4bgm92rcd13ifvqbr0","pricing_plan_id":"free"},{"bike_id":"da0c8bb0-9fa1-4d04-b634-34753717fde1","system_id":"levelo_inurba_marseille","lat":43.311722,"lon":5.387247,"is_reserved":false,"is_disabled":false,"rental_uris":{"android":"levelo://app?vid=da0c8bb0-9fa1-4d04-b634-34753717fde1","ios":"levelo://app?vid=da0c8bb0-9fa1-4d04-b634-34753717fde1"},"vehicle_type_id":"4","last_reported":1684955109,"current_range_meters":5200,"station_id":"ce4bgv12rcd13ifvqcp0","pricing_plan_id":"free"},{"bike_id":"fad50468-bff6-4eb0-bc39-08e7203bec60","system_id":"levelo_inurba_marseille","lat":43.328371,"lon":5.366912,"is_reserved":false,"is_disabled":false,"rental_uris":{"android":"levelo://app?vid=fad50468-bff6-4eb0-bc39-08e7203bec60","ios":"levelo://app?vid=fad50468-bff6-4eb0-bc39-08e7203bec60"},"vehicle_type_id":"4","last_reported":1684955109,"current_range_meters":20400,"station_id":"ce4bhs92rcd13ifvqi0g","pricing_plan_id":"free"},{"bike_id":"e5415a7d-d573-4d2c-b68e-9e5973358ec5","system_id":"levelo_inurba_marseille","lat":43.328284,"lon":5.367011,"is_reserved":false,"is_disabled":false,"rental_uris":{"android":"levelo://app?vid=e5415a7d-d573-4d2c-b68e-9e5973358ec5","ios":"levelo://app?vid=e5415a7d-d573-4d2c-b68e-9e5973358ec5"},"vehicle_type_id":"4","last_reported":1684955109,"current_range_meters":15200,"station_id":"ce4bhs92rcd13ifvqi0g","pricing_plan_id":"free"},{"bike_id":"a72cd3ab-e87f-4964-a87c-25d1d90e9843","system_id":"levelo_inurba_marseille","lat":43.328371,"lon":5.366912,"is_reserved":false,"is_disabled":false,"rental_uris":{"android":"levelo://app?vid=a72cd3ab-e87f-4964-a87c-25d1d90e9843","ios":"levelo://app?vid=a72cd3ab-e87f-4964-a87c-25d1d90e9843"},"vehicle_type_id":"4","last_reported":1684955109,"current_range_meters":22000,"station_id":"ce4bhs92rcd13ifvqi0g","pricing_plan_id":"free"},{"bike_id":"83f3f744-359d-493d-a816-556264b34e9c","system_id":"levelo_inurba_marseille","lat":43.328371,"lon":5.366912,"is_reserved":false,"is_disabled":false,"rental_uris":{"android":"levelo://app?vid=83f3f744-359d-493d-a816-556264b34e9c","ios":"levelo://app?vid=83f3f744-359d-493d-a816-556264b34e9c"},"vehicle_type_id":"4","last_reported":1684955109,"current_range_meters":10000,"station_id":"ce4bhs92rcd13ifvqi0g","pricing_plan_id":"free"},{"bike_id":"07d0f5f8-594a-4c99-bd5f-efd86e16327f","system_id":"levelo_inurba_marseille","lat":43.328371,"lon":5.366912,"is_reserved":false,"is_disabled":false,"rental_uris":{"android":"levelo://app?vid=07d0f5f8-594a-4c99-bd5f-efd86e16327f","ios":"levelo://app?vid=07d0f5f8-594a-4c99-bd5f-efd86e16327f"},"vehicle_type_id":"4","last_reported":1684955109,"current_range_meters":15200,"station_id":"ce4bhs92rcd13ifvqi0g","pricing_plan_id":"free"},{"bike_id":"8ed1d8e4-f7e2-4037-9f56-bf16c3e27cb9","system_id":"levelo_inurba_marseille","lat":43.29711,"lon":5.36606,"is_reserved":false,"is_disabled":false,"rental_uris":{"android":"levelo://app?vid=8ed1d8e4-f7e2-4037-9f56-bf16c3e27cb9","ios":"levelo://app?vid=8ed1d8e4-f7e2-4037-9f56-bf16c3e27cb9"},"vehicle_type_id":"4","last_reported":1684955109,"current_range_meters":15600,"station_id":"","pricing_plan_id":"free"},{"bike_id":"362d886b-4607-423a-9e11-51c132f01baa","system_id":"levelo_inurba_marseille","lat":43.296131,"lon":5.370773,"is_reserved":false,"is_disabled":false,"rental_uris":{"android":"levelo://app?vid=362d886b-4607-423a-9e11-51c132f01baa","ios":"levelo://app?vid=362d886b-4607-423a-9e11-51c132f01baa"},"vehicle_type_id":"4","last_reported":1684955109,"current_range_meters":400,"station_id":"ce4bgnh2rcd13ifvqc0g","pricing_plan_id":"free"},{"bike_id":"7187ccfd-8c7a-4cc5-91e7-248a68a678e4","system_id":"levelo_inurba_marseille","lat":43.31672,"lon":5.38953,"is_reserved":false,"is_disabled":false,"rental_uris":{"android":"levelo://app?vid=7187ccfd-8c7a-4cc5-91e7-248a68a678e4","ios":"levelo://app?vid=7187ccfd-8c7a-4cc5-91e7-248a68a678e4"},"vehicle_type_id":"4","last_reported":1684955109,"current_range_meters":4800,"station_id":"","pricing_plan_id":"free"},{"bike_id":"3ed33090-eba0-45f8-aee3-3b6214c01ba8","system_id":"levelo_inurba_marseille","lat":43.299397,"lon":5.381264,"is_reserved":false,"is_disabled":false,"rental_uris":{"android":"levelo://app?vid=3ed33090-eba0-45f8-aee3-3b6214c01ba8","ios":"levelo://app?vid=3ed33090-eba0-45f8-aee3-3b6214c01ba8"},"vehicle_type_id":"4","last_reported":1684955109,"current_range_meters":18800,"station_id":"","pricing_plan_id":"free"},{"bike_id":"9b193546-ed66-4125-9828-1d7a77e84eec","system_id":"levelo_inurba_marseille","lat":43.299028,"lon":5.381509,"is_reserved":false,"is_disabled":false,"rental_uris":{"android":"levelo://app?vid=9b193546-ed66-4125-9828-1d7a77e84eec","ios":"levelo://app?vid=9b193546-ed66-4125-9828-1d7a77e84eec"},"vehicle_type_id":"4","last_reported":1684955109,"current_range_meters":7600,"station_id":"ce4bgj12rcd13ifvqbc0","pricing_plan_id":"free"},{"bike_id":"7bff6092-6ca6-40a3-8cc3-821341d5ad1c","system_id":"levelo_inurba_marseille","lat":43.309589,"lon":5.390258,"is_reserved":false,"is_disabled":false,"rental_uris":{"android":"levelo://app?vid=7bff6092-6ca6-40a3-8cc3-821341d5ad1c","ios":"levelo://app?vid=7bff6092-6ca6-40a3-8cc3-821341d5ad1c"},"vehicle_type_id":"4","last_reported":1684955109,"current_range_meters":13600,"station_id":"ce4bgup2rcd13ifvqco0","pricing_plan_id":"free"},{"bike_id":"53a1f481-ceb5-4af5-92e2-bf231b06a894","system_id":"levelo_inurba_marseille","lat":43.299028,"lon":5.381509,"is_reserved":false,"is_disabled":false,"rental_uris":{"android":"levelo://app?vid=53a1f481-ceb5-4af5-92e2-bf231b06a894","ios":"levelo://app?vid=53a1f481-ceb5-4af5-92e2-bf231b06a894"},"vehicle_type_id":"4","last_reported":1684955109,"current_range_meters":21200,"station_id":"ce4bgj12rcd13ifvqbc0","pricing_plan_id":"free"},{"bike_id":"754ee306-5c95-437c-b0f9-c4c2a571fde5","system_id":"levelo_inurba_marseille","lat":43.309589,"lon":5.390258,"is_reserved":false,"is_disabled":false,"rental_uris":{"android":"levelo://app?vid=754ee306-5c95-437c-b0f9-c4c2a571fde5","ios":"levelo://app?vid=754ee306-5c95-437c-b0f9-c4c2a571fde5"},"vehicle_type_id":"4","last_reported":1684955109,"current_range_meters":18800,"station_id":"ce4bgup2rcd13ifvqco0","pricing_plan_id":"free"},{"bike_id":"c9e12d11-e4cc-4677-a32f-199bf215a4e1","system_id":"levelo_inurba_marseille","lat":43.317557,"lon":5.390173,"is_reserved":false,"is_disabled":false,"rental_uris":{"android":"levelo://app?vid=c9e12d11-e4cc-4677-a32f-199bf215a4e1","ios":"levelo://app?vid=c9e12d11-e4cc-4677-a32f-199bf215a4e1"},"vehicle_type_id":"4","last_reported":1684955109,"current_range_meters":20000,"station_id":"ce4bhqp2rcd13ifvqhng","pricing_plan_id":"free"},{"bike_id":"74654058-b046-4080-8133-10fc46eaff46","system_id":"levelo_inurba_marseille","lat":43.317557,"lon":5.390173,"is_reserved":false,"is_disabled":false,"rental_uris":{"android":"levelo://app?vid=74654058-b046-4080-8133-10fc46eaff46","ios":"levelo://app?vid=74654058-b046-4080-8133-10fc46eaff46"},"vehicle_type_id":"4","last_reported":1684955109,"current_range_meters":19600,"station_id":"ce4bhqp2rcd13ifvqhng","pricing_plan_id":"free"},{"bike_id":"70a5fca8-c00c-454e-bd48-d3179a5de613","system_id":"levelo_inurba_marseille","lat":43.298037,"lon":5.381066,"is_reserved":false,"is_disabled":false,"rental_uris":{"android":"levelo://app?vid=70a5fca8-c00c-454e-bd48-d3179a5de613","ios":"levelo://app?vid=70a5fca8-c00c-454e-bd48-d3179a5de613"},"vehicle_type_id":"4","last_reported":1684955109,"current_range_meters":800,"station_id":"ce4bgip2rcd13ifvqbb0","pricing_plan_id":"free"},{"bike_id":"3cbc55e3-457d-471a-9f53-281575cced79","system_id":"levelo_inurba_marseille","lat":43.298037,"lon":5.381066,"is_reserved":false,"is_disabled":false,"rental_uris":{"android":"levelo://app?vid=3cbc55e3-457d-471a-9f53-281575cced79","ios":"levelo://app?vid=3cbc55e3-457d-471a-9f53-281575cced79"},"vehicle_type_id":"4","last_reported":1684955109,"current_range_meters":4000,"station_id":"ce4bgip2rcd13ifvqbb0","pricing_plan_id":"free"},{"bike_id":"6279edd2-9747-40ba-b699-38098c128597","system_id":"levelo_inurba_marseille","lat":43.298037,"lon":5.381066,"is_reserved":false,"is_disabled":false,"rental_uris":{"android":"levelo://app?vid=6279edd2-9747-40ba-b699-38098c128597","ios":"levelo://app?vid=6279edd2-9747-40ba-b699-38098c128597"},"vehicle_type_id":"4","last_reported":1684955109,"current_range_meters":12800,"station_id":"ce4bgip2rcd13ifvqbb0","pricing_plan_id":"free"},{"bike_id":"06e9625f-70e9-4d07-94bb-33223ceb218f","system_id":"levelo_inurba_marseille","lat":43.298037,"lon":5.381066,"is_reserved":false,"is_disabled":false,"rental_uris":{"android":"levelo://app?vid=06e9625f-70e9-4d07-94bb-33223ceb218f","ios":"levelo://app?vid=06e9625f-70e9-4d07-94bb-33223ceb218f"},"vehicle_type_id":"4","last_reported":1684955109,"current_range_meters":3200,"station_id":"ce4bgip2rcd13ifvqbb0","pricing_plan_id":"free"},{"bike_id":"ac789c6b-2d6c-4a4b-85e1-0f921810e2f4","system_id":"levelo_inurba_marseille","lat":43.304278,"lon":5.388868,"is_reserved":false,"is_disabled":false,"rental_uris":{"android":"levelo://app?vid=ac789c6b-2d6c-4a4b-85e1-0f921810e2f4","ios":"levelo://app?vid=ac789c6b-2d6c-4a4b-85e1-0f921810e2f4"},"vehicle_type_id":"4","last_reported":1684955109,"current_range_meters":16800,"station_id":"ce4bgk12rcd13ifvqbi0","pricing_plan_id":"free"},{"bike_id":"27049835-2e83-4de8-9072-c410ca9b7823","system_id":"levelo_inurba_marseille","lat":43.298037,"lon":5.381066,"is_reserved":false,"is_disabled":false,"rental_uris":{"android":"levelo://app?vid=27049835-2e83-4de8-9072-c410ca9b7823","ios":"levelo://app?vid=27049835-2e83-4de8-9072-c410ca9b7823"},"vehicle_type_id":"4","last_reported":1684955109,"current_range_meters":13200,"station_id":"ce4bgip2rcd13ifvqbb0","pricing_plan_id":"free"},{"bike_id":"ce65f17e-607f-40f7-ade6-3bb93f1d875c","system_id":"levelo_inurba_marseille","lat":43.304278,"lon":5.388868,"is_reserved":false,"is_disabled":false,"rental_uris":{"android":"levelo://app?vid=ce65f17e-607f-40f7-ade6-3bb93f1d875c","ios":"levelo://app?vid=ce65f17e-607f-40f7-ade6-3bb93f1d875c"},"vehicle_type_id":"4","last_reported":1684955109,"current_range_meters":17600,"station_id":"ce4bgk12rcd13ifvqbi0","pricing_plan_id":"free"},{"bike_id":"82b7c08b-ddb8-4bda-b576-9702070374a1","system_id":"levelo_inurba_marseille","lat":43.30438,"lon":5.38896,"is_reserved":false,"is_disabled":false,"rental_uris":{"android":"levelo://app?vid=82b7c08b-ddb8-4bda-b576-9702070374a1","ios":"levelo://app?vid=82b7c08b-ddb8-4bda-b576-9702070374a1"},"vehicle_type_id":"4","last_reported":1684955109,"current_range_meters":12800,"station_id":"ce4bgk12rcd13ifvqbi0","pricing_plan_id":"free"},{"bike_id":"9dae4f2b-e1ad-4699-9c95-b90007315655","system_id":"levelo_inurba_marseille","lat":43.296277,"lon":5.377108,"is_reserved":false,"is_disabled":false,"rental_uris":{"android":"levelo://app?vid=9dae4f2b-e1ad-4699-9c95-b90007315655","ios":"levelo://app?vid=9dae4f2b-e1ad-4699-9c95-b90007315655"},"vehicle_type_id":"4","last_reported":1684955109,"current_range_meters":22800,"station_id":"ce4bgi92rcd13ifvqb90","pricing_plan_id":"free"},{"bike_id":"beedb05f-f82a-4a3d-802a-d1e62a3d9444","system_id":"levelo_inurba_marseille","lat":43.299724,"lon":5.384848,"is_reserved":false,"is_disabled":false,"rental_uris":{"android":"levelo://app?vid=beedb05f-f82a-4a3d-802a-d1e62a3d9444","ios":"levelo://app?vid=beedb05f-f82a-4a3d-802a-d1e62a3d9444"},"vehicle_type_id":"4","last_reported":1684955109,"current_range_meters":16000,"station_id":"ce4bgj92rcd13ifvqbd0","pricing_plan_id":"free"},{"bike_id":"2c55b70e-753d-4d07-abf3-1b3e7231954a","system_id":"levelo_inurba_marseille","lat":43.299724,"lon":5.384848,"is_reserved":false,"is_disabled":false,"rental_uris":{"android":"levelo://app?vid=2c55b70e-753d-4d07-abf3-1b3e7231954a","ios":"levelo://app?vid=2c55b70e-753d-4d07-abf3-1b3e7231954a"},"vehicle_type_id":"4","last_reported":1684955109,"current_range_meters":16800,"station_id":"ce4bgj92rcd13ifvqbd0","pricing_plan_id":"free"},{"bike_id":"9d9e68c5-748d-4dce-a173-d987b73ccd66","system_id":"levelo_inurba_marseille","lat":43.2951,"lon":5.37512,"is_reserved":false,"is_disabled":false,"rental_uris":{"android":"levelo://app?vid=9d9e68c5-748d-4dce-a173-d987b73ccd66","ios":"levelo://app?vid=9d9e68c5-748d-4dce-a173-d987b73ccd66"},"vehicle_type_id":"4","last_reported":1684955109,"current_range_meters":1200,"station_id":"ce4bgkp2rcd13ifvqbmg","pricing_plan_id":"free"},{"bike_id":"1d40c710-f405-41fe-865f-a98553470201","system_id":"levelo_inurba_marseille","lat":43.2939,"lon":5.37302,"is_reserved":false,"is_disabled":false,"rental_uris":{"android":"levelo://app?vid=1d40c710-f405-41fe-865f-a98553470201","ios":"levelo://app?vid=1d40c710-f405-41fe-865f-a98553470201"},"vehicle_type_id":"4","last_reported":1684955109,"current_range_meters":10400,"station_id":"","pricing_plan_id":"free"},{"bike_id":"20138701-68f1-4e4b-9af9-601c0b2c64c2","system_id":"levelo_inurba_marseille","lat":43.29601,"lon":5.381084,"is_reserved":false,"is_disabled":false,"rental_uris":{"android":"levelo://app?vid=20138701-68f1-4e4b-9af9-601c0b2c64c2","ios":"levelo://app?vid=20138701-68f1-4e4b-9af9-601c0b2c64c2"},"vehicle_type_id":"4","last_reported":1684955109,"current_range_meters":6400,"station_id":"ce4bgl12rcd13ifvqbo0","pricing_plan_id":"free"},{"bike_id":"252cb770-39fc-4400-a3ad-c7755c775382","system_id":"levelo_inurba_marseille","lat":43.30085,"lon":5.390856,"is_reserved":false,"is_disabled":false,"rental_uris":{"android":"levelo://app?vid=252cb770-39fc-4400-a3ad-c7755c775382","ios":"levelo://app?vid=252cb770-39fc-4400-a3ad-c7755c775382"},"vehicle_type_id":"4","last_reported":1684955109,"current_range_meters":0,"station_id":"ce4bh192rcd13ifvqdb0","pricing_plan_id":"free"},{"bike_id":"bbe67f9c-f39c-43c9-88ff-d50bb063e2ba","system_id":"levelo_inurba_marseille","lat":43.305994,"lon":5.393687,"is_reserved":false,"is_disabled":false,"rental_uris":{"android":"levelo://app?vid=bbe67f9c-f39c-43c9-88ff-d50bb063e2ba","ios":"levelo://app?vid=bbe67f9c-f39c-43c9-88ff-d50bb063e2ba"},"vehicle_type_id":"4","last_reported":1684955109,"current_range_meters":400,"station_id":"ce4bh0p2rcd13ifvqd80","pricing_plan_id":"free"},{"bike_id":"a9c19bc6-e297-4f1f-a727-8e042ab13574","system_id":"levelo_inurba_marseille","lat":43.302992,"lon":5.392136,"is_reserved":false,"is_disabled":false,"rental_uris":{"android":"levelo://app?vid=a9c19bc6-e297-4f1f-a727-8e042ab13574","ios":"levelo://app?vid=a9c19bc6-e297-4f1f-a727-8e042ab13574"},"vehicle_type_id":"4","last_reported":1684955109,"current_range_meters":10800,"station_id":"ce4bgkh2rcd13ifvqbk0","pricing_plan_id":"free"},{"bike_id":"875fa1f8-7014-4715-b71d-06a2a02febf7","system_id":"levelo_inurba_marseille","lat":43.2936,"lon":5.37835,"is_reserved":false,"is_disabled":false,"rental_uris":{"android":"levelo://app?vid=875fa1f8-7014-4715-b71d-06a2a02febf7","ios":"levelo://app?vid=875fa1f8-7014-4715-b71d-06a2a02febf7"},"vehicle_type_id":"4","last_reported":1684955109,"current_range_meters":11200,"station_id":"ce4bgjh2rcd13ifvqbf0","pricing_plan_id":"free"},{"bike_id":"3477cae9-aa04-4f72-b28e-33ab87f550bf","system_id":"levelo_inurba_marseille","lat":43.2936,"lon":5.37835,"is_reserved":false,"is_disabled":false,"rental_uris":{"android":"levelo://app?vid=3477cae9-aa04-4f72-b28e-33ab87f550bf","ios":"levelo://app?vid=3477cae9-aa04-4f72-b28e-33ab87f550bf"},"vehicle_type_id":"4","last_reported":1684955109,"current_range_meters":8800,"station_id":"ce4bgjh2rcd13ifvqbf0","pricing_plan_id":"free"},{"bike_id":"32b676cf-b1ee-4d2f-a881-1a4fc0cf9857","system_id":"levelo_inurba_marseille","lat":43.29529,"lon":5.385581,"is_reserved":false,"is_disabled":false,"rental_uris":{"android":"levelo://app?vid=32b676cf-b1ee-4d2f-a881-1a4fc0cf9857","ios":"levelo://app?vid=32b676cf-b1ee-4d2f-a881-1a4fc0cf9857"},"vehicle_type_id":"4","last_reported":1684955109,"current_range_meters":3600,"station_id":"ce4bgih2rcd13ifvqba0","pricing_plan_id":"free"},{"bike_id":"cfb48459-2a2b-4f6c-9512-cce8dfaea58a","system_id":"levelo_inurba_marseille","lat":43.292311,"lon":5.360731,"is_reserved":false,"is_disabled":false,"rental_uris":{"android":"levelo://app?vid=cfb48459-2a2b-4f6c-9512-cce8dfaea58a","ios":"levelo://app?vid=cfb48459-2a2b-4f6c-9512-cce8dfaea58a"},"vehicle_type_id":"4","last_reported":1684955109,"current_range_meters":29600,"station_id":"ce4bhbh2rcd13ifvqeqg","pricing_plan_id":"free"},{"bike_id":"3e87c105-d075-477e-98e9-c9e3439a1353","system_id":"levelo_inurba_marseille","lat":43.292311,"lon":5.360731,"is_reserved":false,"is_disabled":false,"rental_uris":{"android":"levelo://app?vid=3e87c105-d075-477e-98e9-c9e3439a1353","ios":"levelo://app?vid=3e87c105-d075-477e-98e9-c9e3439a1353"},"vehicle_type_id":"4","last_reported":1684955109,"current_range_meters":31200,"station_id":"ce4bhbh2rcd13ifvqeqg","pricing_plan_id":"free"},{"bike_id":"fbef27ad-f36a-464b-bfa5-98a76f734b30","system_id":"levelo_inurba_marseille","lat":43.292311,"lon":5.360731,"is_reserved":false,"is_disabled":false,"rental_uris":{"android":"levelo://app?vid=fbef27ad-f36a-464b-bfa5-98a76f734b30","ios":"levelo://app?vid=fbef27ad-f36a-464b-bfa5-98a76f734b30"},"vehicle_type_id":"4","last_reported":1684955109,"current_range_meters":31200,"station_id":"ce4bhbh2rcd13ifvqeqg","pricing_plan_id":"free"},{"bike_id":"15c09edc-4cc6-48d7-bf7d-c5555f13fce8","system_id":"levelo_inurba_marseille","lat":43.292311,"lon":5.360731,"is_reserved":false,"is_disabled":false,"rental_uris":{"android":"levelo://app?vid=15c09edc-4cc6-48d7-bf7d-c5555f13fce8","ios":"levelo://app?vid=15c09edc-4cc6-48d7-bf7d-c5555f13fce8"},"vehicle_type_id":"4","last_reported":1684955109,"current_range_meters":31200,"station_id":"ce4bhbh2rcd13ifvqeqg","pricing_plan_id":"free"},{"bike_id":"b2190aee-f0a1-4750-9da2-58534f86b3d6","system_id":"levelo_inurba_marseille","lat":43.30085,"lon":5.390856,"is_reserved":false,"is_disabled":false,"rental_uris":{"android":"levelo://app?vid=b2190aee-f0a1-4750-9da2-58534f86b3d6","ios":"levelo://app?vid=b2190aee-f0a1-4750-9da2-58534f86b3d6"},"vehicle_type_id":"4","last_reported":1684955109,"current_range_meters":21200,"station_id":"ce4bh192rcd13ifvqdb0","pricing_plan_id":"free"},{"bike_id":"73fab936-370b-4f1e-abe9-1cdb54432a7e","system_id":"levelo_inurba_marseille","lat":43.300852,"lon":5.390859,"is_reserved":false,"is_disabled":false,"rental_uris":{"android":"levelo://app?vid=73fab936-370b-4f1e-abe9-1cdb54432a7e","ios":"levelo://app?vid=73fab936-370b-4f1e-abe9-1cdb54432a7e"},"vehicle_type_id":"4","last_reported":1684955109,"current_range_meters":15600,"station_id":"ce4bh192rcd13ifvqdb0","pricing_plan_id":"free"},{"bike_id":"0869be78-0ab1-461b-9d7a-730a721eddfc","system_id":"levelo_inurba_marseille","lat":43.30085,"lon":5.390856,"is_reserved":false,"is_disabled":false,"rental_uris":{"android":"levelo://app?vid=0869be78-0ab1-461b-9d7a-730a721eddfc","ios":"levelo://app?vid=0869be78-0ab1-461b-9d7a-730a721eddfc"},"vehicle_type_id":"4","last_reported":1684955109,"current_range_meters":20800,"station_id":"ce4bh192rcd13ifvqdb0","pricing_plan_id":"free"},{"bike_id":"2322258f-0e0d-455b-b258-0c6069f3783a","system_id":"levelo_inurba_marseille","lat":43.291671,"lon":5.371575,"is_reserved":false,"is_disabled":false,"rental_uris":{"android":"levelo://app?vid=2322258f-0e0d-455b-b258-0c6069f3783a","ios":"levelo://app?vid=2322258f-0e0d-455b-b258-0c6069f3783a"},"vehicle_type_id":"4","last_reported":1684955109,"current_range_meters":20000,"station_id":"ce4bha92rcd13ifvqeh0","pricing_plan_id":"free"},{"bike_id":"24049559-b20f-4437-b5d2-8fcf6ff3347c","system_id":"levelo_inurba_marseille","lat":43.298764,"lon":5.388973,"is_reserved":false,"is_disabled":false,"rental_uris":{"android":"levelo://app?vid=24049559-b20f-4437-b5d2-8fcf6ff3347c","ios":"levelo://app?vid=24049559-b20f-4437-b5d2-8fcf6ff3347c"},"vehicle_type_id":"4","last_reported":1684955109,"current_range_meters":24400,"station_id":"ce4bh392rcd13ifvqdl0","pricing_plan_id":"free"},{"bike_id":"0f065bf3-b556-413c-b3c4-5f51a5a46338","system_id":"levelo_inurba_marseille","lat":43.29167,"lon":5.371461,"is_reserved":false,"is_disabled":false,"rental_uris":{"android":"levelo://app?vid=0f065bf3-b556-413c-b3c4-5f51a5a46338","ios":"levelo://app?vid=0f065bf3-b556-413c-b3c4-5f51a5a46338"},"vehicle_type_id":"4","last_reported":1684955109,"current_range_meters":400,"station_id":"","pricing_plan_id":"free"},{"bike_id":"2e422209-26d3-47a2-ab75-ab1cb1210a95","system_id":"levelo_inurba_marseille","lat":43.298764,"lon":5.388973,"is_reserved":false,"is_disabled":false,"rental_uris":{"android":"levelo://app?vid=2e422209-26d3-47a2-ab75-ab1cb1210a95","ios":"levelo://app?vid=2e422209-26d3-47a2-ab75-ab1cb1210a95"},"vehicle_type_id":"4","last_reported":1684955109,"current_range_meters":0,"station_id":"ce4bh392rcd13ifvqdl0","pricing_plan_id":"free"},{"bike_id":"b842a883-baab-4aaa-9c22-726d37235f77","system_id":"levelo_inurba_marseille","lat":43.32765,"lon":5.38813,"is_reserved":false,"is_disabled":false,"rental_uris":{"android":"levelo://app?vid=b842a883-baab-4aaa-9c22-726d37235f77","ios":"levelo://app?vid=b842a883-baab-4aaa-9c22-726d37235f77"},"vehicle_type_id":"4","last_reported":1684955109,"current_range_meters":9200,"station_id":"","pricing_plan_id":"free"},{"bike_id":"92ba4792-5ed6-488d-8068-098854203063","system_id":"levelo_inurba_marseille","lat":43.3089,"lon":5.39633,"is_reserved":false,"is_disabled":false,"rental_uris":{"android":"levelo://app?vid=92ba4792-5ed6-488d-8068-098854203063","ios":"levelo://app?vid=92ba4792-5ed6-488d-8068-098854203063"},"vehicle_type_id":"4","last_reported":1684955109,"current_range_meters":0,"station_id":"ce4bh012rcd13ifvqcv0","pricing_plan_id":"free"},{"bike_id":"ce2230b3-5873-4e72-a718-1670e15c2050","system_id":"levelo_inurba_marseille","lat":43.309038,"lon":5.396546,"is_reserved":false,"is_disabled":false,"rental_uris":{"android":"levelo://app?vid=ce2230b3-5873-4e72-a718-1670e15c2050","ios":"levelo://app?vid=ce2230b3-5873-4e72-a718-1670e15c2050"},"vehicle_type_id":"4","last_reported":1684955109,"current_range_meters":6400,"station_id":"ce4bh012rcd13ifvqcv0","pricing_plan_id":"free"},{"bike_id":"40b68277-6f5f-4aac-8216-847d33e7dfd3","system_id":"levelo_inurba_marseille","lat":43.309038,"lon":5.396546,"is_reserved":false,"is_disabled":false,"rental_uris":{"android":"levelo://app?vid=40b68277-6f5f-4aac-8216-847d33e7dfd3","ios":"levelo://app?vid=40b68277-6f5f-4aac-8216-847d33e7dfd3"},"vehicle_type_id":"4","last_reported":1684955109,"current_range_meters":15200,"station_id":"ce4bh012rcd13ifvqcv0","pricing_plan_id":"free"},{"bike_id":"22ceb553-4636-4bf7-9e4f-7a93a3348769","system_id":"levelo_inurba_marseille","lat":43.313291,"lon":5.396838,"is_reserved":false,"is_disabled":false,"rental_uris":{"android":"levelo://app?vid=22ceb553-4636-4bf7-9e4f-7a93a3348769","ios":"levelo://app?vid=22ceb553-4636-4bf7-9e4f-7a93a3348769"},"vehicle_type_id":"4","last_reported":1684955109,"current_range_meters":18000,"station_id":"ce4bgvp2rcd13ifvqcu0","pricing_plan_id":"free"},{"bike_id":"09bc6842-f54e-4bb2-bae1-1a1e5351e19d","system_id":"levelo_inurba_marseille","lat":43.313291,"lon":5.396838,"is_reserved":false,"is_disabled":false,"rental_uris":{"android":"levelo://app?vid=09bc6842-f54e-4bb2-bae1-1a1e5351e19d","ios":"levelo://app?vid=09bc6842-f54e-4bb2-bae1-1a1e5351e19d"},"vehicle_type_id":"4","last_reported":1684955109,"current_range_meters":18800,"station_id":"ce4bgvp2rcd13ifvqcu0","pricing_plan_id":"free"},{"bike_id":"bfdbe81b-a54d-45dc-98c9-4267cc5699fd","system_id":"levelo_inurba_marseille","lat":43.313291,"lon":5.396838,"is_reserved":false,"is_disabled":false,"rental_uris":{"android":"levelo://app?vid=bfdbe81b-a54d-45dc-98c9-4267cc5699fd","ios":"levelo://app?vid=bfdbe81b-a54d-45dc-98c9-4267cc5699fd"},"vehicle_type_id":"4","last_reported":1684955109,"current_range_meters":5600,"station_id":"ce4bgvp2rcd13ifvqcu0","pricing_plan_id":"free"},{"bike_id":"11f1ef6a-329e-4508-89a0-ab2f3fa417fc","system_id":"levelo_inurba_marseille","lat":43.313291,"lon":5.396838,"is_reserved":false,"is_disabled":false,"rental_uris":{"android":"levelo://app?vid=11f1ef6a-329e-4508-89a0-ab2f3fa417fc","ios":"levelo://app?vid=11f1ef6a-329e-4508-89a0-ab2f3fa417fc"},"vehicle_type_id":"4","last_reported":1684955109,"current_range_meters":20400,"station_id":"ce4bgvp2rcd13ifvqcu0","pricing_plan_id":"free"},{"bike_id":"31ad45cc-cd55-4fa4-8819-4f1a25288b6a","system_id":"levelo_inurba_marseille","lat":43.313291,"lon":5.396838,"is_reserved":false,"is_disabled":false,"rental_uris":{"android":"levelo://app?vid=31ad45cc-cd55-4fa4-8819-4f1a25288b6a","ios":"levelo://app?vid=31ad45cc-cd55-4fa4-8819-4f1a25288b6a"},"vehicle_type_id":"4","last_reported":1684955109,"current_range_meters":8800,"station_id":"ce4bgvp2rcd13ifvqcu0","pricing_plan_id":"free"},{"bike_id":"b7dc8e89-3981-4ab7-afd2-3b69403ee522","system_id":"levelo_inurba_marseille","lat":43.313291,"lon":5.396838,"is_reserved":false,"is_disabled":false,"rental_uris":{"android":"levelo://app?vid=b7dc8e89-3981-4ab7-afd2-3b69403ee522","ios":"levelo://app?vid=b7dc8e89-3981-4ab7-afd2-3b69403ee522"},"vehicle_type_id":"4","last_reported":1684955109,"current_range_meters":17200,"station_id":"ce4bgvp2rcd13ifvqcu0","pricing_plan_id":"free"},{"bike_id":"5afb875f-309c-48b4-aac4-19a2f4e8983f","system_id":"levelo_inurba_marseille","lat":43.313291,"lon":5.396838,"is_reserved":false,"is_disabled":false,"rental_uris":{"android":"levelo://app?vid=5afb875f-309c-48b4-aac4-19a2f4e8983f","ios":"levelo://app?vid=5afb875f-309c-48b4-aac4-19a2f4e8983f"},"vehicle_type_id":"4","last_reported":1684955109,"current_range_meters":26000,"station_id":"ce4bgvp2rcd13ifvqcu0","pricing_plan_id":"free"},{"bike_id":"07955834-0802-4708-9847-138d2e792e2e","system_id":"levelo_inurba_marseille","lat":43.308956,"lon":5.396575,"is_reserved":false,"is_disabled":false,"rental_uris":{"android":"levelo://app?vid=07955834-0802-4708-9847-138d2e792e2e","ios":"levelo://app?vid=07955834-0802-4708-9847-138d2e792e2e"},"vehicle_type_id":"4","last_reported":1684955109,"current_range_meters":0,"station_id":"","pricing_plan_id":"free"},{"bike_id":"e2e73489-b7bf-43dd-98e2-f9f8338c7ac6","system_id":"levelo_inurba_marseille","lat":43.29187,"lon":5.35669,"is_reserved":false,"is_disabled":false,"rental_uris":{"android":"levelo://app?vid=e2e73489-b7bf-43dd-98e2-f9f8338c7ac6","ios":"levelo://app?vid=e2e73489-b7bf-43dd-98e2-f9f8338c7ac6"},"vehicle_type_id":"4","last_reported":1684955109,"current_range_meters":4800,"station_id":"ce4bgih2rcd13ifvqba0","pricing_plan_id":"free"},{"bike_id":"09096f91-5354-4d20-b20a-bcff491b168c","system_id":"levelo_inurba_marseille","lat":43.290624,"lon":5.359245,"is_reserved":false,"is_disabled":false,"rental_uris":{"android":"levelo://app?vid=09096f91-5354-4d20-b20a-bcff491b168c","ios":"levelo://app?vid=09096f91-5354-4d20-b20a-bcff491b168c"},"vehicle_type_id":"4","last_reported":1684955109,"current_range_meters":1200,"station_id":"ce4bha92rcd13ifvqeg0","pricing_plan_id":"free"},{"bike_id":"d83e40fd-b300-43f1-be87-1683f8b05b62","system_id":"levelo_inurba_marseille","lat":43.302008,"lon":5.394694,"is_reserved":false,"is_disabled":false,"rental_uris":{"android":"levelo://app?vid=d83e40fd-b300-43f1-be87-1683f8b05b62","ios":"levelo://app?vid=d83e40fd-b300-43f1-be87-1683f8b05b62"},"vehicle_type_id":"4","last_reported":1684955109,"current_range_meters":24000,"station_id":"ce4bh0p2rcd13ifvqd70","pricing_plan_id":"free"},{"bike_id":"3b9adc66-a730-49fb-9306-df96e3557362","system_id":"levelo_inurba_marseille","lat":43.294153,"lon":5.386305,"is_reserved":false,"is_disabled":false,"rental_uris":{"android":"levelo://app?vid=3b9adc66-a730-49fb-9306-df96e3557362","ios":"levelo://app?vid=3b9adc66-a730-49fb-9306-df96e3557362"},"vehicle_type_id":"4","last_reported":1684955109,"current_range_meters":3600,"station_id":"ce4bh2h2rcd13ifvqdh0","pricing_plan_id":"free"},{"bike_id":"6dc96112-2613-4dbf-9f0e-2cfe15a95390","system_id":"levelo_inurba_marseille","lat":43.294162,"lon":5.386292,"is_reserved":false,"is_disabled":false,"rental_uris":{"android":"levelo://app?vid=6dc96112-2613-4dbf-9f0e-2cfe15a95390","ios":"levelo://app?vid=6dc96112-2613-4dbf-9f0e-2cfe15a95390"},"vehicle_type_id":"4","last_reported":1684955109,"current_range_meters":8400,"station_id":"ce4bh2h2rcd13ifvqdh0","pricing_plan_id":"free"},{"bike_id":"c8733add-ffbd-436e-81db-827bc2bdfd02","system_id":"levelo_inurba_marseille","lat":43.28945,"lon":5.36636,"is_reserved":false,"is_disabled":false,"rental_uris":{"android":"levelo://app?vid=c8733add-ffbd-436e-81db-827bc2bdfd02","ios":"levelo://app?vid=c8733add-ffbd-436e-81db-827bc2bdfd02"},"vehicle_type_id":"4","last_reported":1684955109,"current_range_meters":0,"station_id":"","pricing_plan_id":"free"},{"bike_id":"d4802363-9319-4e7c-8f3f-62d5733378c4","system_id":"levelo_inurba_marseille","lat":43.294162,"lon":5.386292,"is_reserved":false,"is_disabled":false,"rental_uris":{"android":"levelo://app?vid=d4802363-9319-4e7c-8f3f-62d5733378c4","ios":"levelo://app?vid=d4802363-9319-4e7c-8f3f-62d5733378c4"},"vehicle_type_id":"4","last_reported":1684955109,"current_range_meters":5200,"station_id":"ce4bh2h2rcd13ifvqdh0","pricing_plan_id":"free"},{"bike_id":"d5fe6211-dda7-40d9-abc0-acd1a51cd7c1","system_id":"levelo_inurba_marseille","lat":43.29418,"lon":5.38629,"is_reserved":false,"is_disabled":false,"rental_uris":{"android":"levelo://app?vid=d5fe6211-dda7-40d9-abc0-acd1a51cd7c1","ios":"levelo://app?vid=d5fe6211-dda7-40d9-abc0-acd1a51cd7c1"},"vehicle_type_id":"4","last_reported":1684955109,"current_range_meters":16000,"station_id":"ce4bh2h2rcd13ifvqdh0","pricing_plan_id":"free"},{"bike_id":"fa43d385-88c7-49b4-aed7-04a17f094dc4","system_id":"levelo_inurba_marseille","lat":43.28944,"lon":5.36634,"is_reserved":false,"is_disabled":false,"rental_uris":{"android":"levelo://app?vid=fa43d385-88c7-49b4-aed7-04a17f094dc4","ios":"levelo://app?vid=fa43d385-88c7-49b4-aed7-04a17f094dc4"},"vehicle_type_id":"4","last_reported":1684955109,"current_range_meters":6800,"station_id":"","pricing_plan_id":"free"},{"bike_id":"9a60c91e-a770-4b5a-a0f6-3ba2e25936bd","system_id":"levelo_inurba_marseille","lat":43.294162,"lon":5.386292,"is_reserved":false,"is_disabled":false,"rental_uris":{"android":"levelo://app?vid=9a60c91e-a770-4b5a-a0f6-3ba2e25936bd","ios":"levelo://app?vid=9a60c91e-a770-4b5a-a0f6-3ba2e25936bd"},"vehicle_type_id":"4","last_reported":1684955109,"current_range_meters":18800,"station_id":"ce4bh2h2rcd13ifvqdh0","pricing_plan_id":"free"},{"bike_id":"c19a9c8b-ad33-4c94-8add-3892941db83c","system_id":"levelo_inurba_marseille","lat":43.294153,"lon":5.386305,"is_reserved":false,"is_disabled":false,"rental_uris":{"android":"levelo://app?vid=c19a9c8b-ad33-4c94-8add-3892941db83c","ios":"levelo://app?vid=c19a9c8b-ad33-4c94-8add-3892941db83c"},"vehicle_type_id":"4","last_reported":1684955109,"current_range_meters":13600,"station_id":"ce4bh2h2rcd13ifvqdh0","pricing_plan_id":"free"},{"bike_id":"50801b8b-e10d-4a4f-819a-57773e991d5e","system_id":"levelo_inurba_marseille","lat":43.28943,"lon":5.36636,"is_reserved":false,"is_disabled":false,"rental_uris":{"android":"levelo://app?vid=50801b8b-e10d-4a4f-819a-57773e991d5e","ios":"levelo://app?vid=50801b8b-e10d-4a4f-819a-57773e991d5e"},"vehicle_type_id":"4","last_reported":1684955109,"current_range_meters":3600,"station_id":"","pricing_plan_id":"free"},{"bike_id":"de173293-24e5-4a84-9bb5-f48947edd2e4","system_id":"levelo_inurba_marseille","lat":43.294162,"lon":5.386292,"is_reserved":false,"is_disabled":false,"rental_uris":{"android":"levelo://app?vid=de173293-24e5-4a84-9bb5-f48947edd2e4","ios":"levelo://app?vid=de173293-24e5-4a84-9bb5-f48947edd2e4"},"vehicle_type_id":"4","last_reported":1684955109,"current_range_meters":1200,"station_id":"ce4bh2h2rcd13ifvqdh0","pricing_plan_id":"free"},{"bike_id":"3c9dd2e2-2744-4a6b-8bf2-3a167cfb80de","system_id":"levelo_inurba_marseille","lat":43.28942,"lon":5.36637,"is_reserved":false,"is_disabled":false,"rental_uris":{"android":"levelo://app?vid=3c9dd2e2-2744-4a6b-8bf2-3a167cfb80de","ios":"levelo://app?vid=3c9dd2e2-2744-4a6b-8bf2-3a167cfb80de"},"vehicle_type_id":"4","last_reported":1684955109,"current_range_meters":18800,"station_id":"ce4bhap2rcd13ifvqek0","pricing_plan_id":"free"},{"bike_id":"8bb34434-c667-49c2-8563-261cb31517b9","system_id":"levelo_inurba_marseille","lat":43.294162,"lon":5.386292,"is_reserved":false,"is_disabled":false,"rental_uris":{"android":"levelo://app?vid=8bb34434-c667-49c2-8563-261cb31517b9","ios":"levelo://app?vid=8bb34434-c667-49c2-8563-261cb31517b9"},"vehicle_type_id":"4","last_reported":1684955109,"current_range_meters":6400,"station_id":"ce4bh2h2rcd13ifvqdh0","pricing_plan_id":"free"},{"bike_id":"3846f0d3-4e83-4f72-87bd-635439a345cc","system_id":"levelo_inurba_marseille","lat":43.294162,"lon":5.386292,"is_reserved":false,"is_disabled":false,"rental_uris":{"android":"levelo://app?vid=3846f0d3-4e83-4f72-87bd-635439a345cc","ios":"levelo://app?vid=3846f0d3-4e83-4f72-87bd-635439a345cc"},"vehicle_type_id":"4","last_reported":1684955109,"current_range_meters":15200,"station_id":"ce4bh2h2rcd13ifvqdh0","pricing_plan_id":"free"},{"bike_id":"baffb05e-624e-49cc-b29a-2fd6fdd131b0","system_id":"levelo_inurba_marseille","lat":43.28939,"lon":5.36644,"is_reserved":false,"is_disabled":false,"rental_uris":{"android":"levelo://app?vid=baffb05e-624e-49cc-b29a-2fd6fdd131b0","ios":"levelo://app?vid=baffb05e-624e-49cc-b29a-2fd6fdd131b0"},"vehicle_type_id":"4","last_reported":1684955109,"current_range_meters":26800,"station_id":"ce4bhap2rcd13ifvqek0","pricing_plan_id":"free"},{"bike_id":"c290c9a5-91e5-4a01-b28a-bae38d70be59","system_id":"levelo_inurba_marseille","lat":43.28939,"lon":5.36631,"is_reserved":false,"is_disabled":false,"rental_uris":{"android":"levelo://app?vid=c290c9a5-91e5-4a01-b28a-bae38d70be59","ios":"levelo://app?vid=c290c9a5-91e5-4a01-b28a-bae38d70be59"},"vehicle_type_id":"4","last_reported":1684955109,"current_range_meters":6800,"station_id":"ce4bhap2rcd13ifvqek0","pricing_plan_id":"free"},{"bike_id":"e3757006-2ac8-48bb-9724-f9cc05131541","system_id":"levelo_inurba_marseille","lat":43.28931,"lon":5.36629,"is_reserved":false,"is_disabled":false,"rental_uris":{"android":"levelo://app?vid=e3757006-2ac8-48bb-9724-f9cc05131541","ios":"levelo://app?vid=e3757006-2ac8-48bb-9724-f9cc05131541"},"vehicle_type_id":"4","last_reported":1684955109,"current_range_meters":28400,"station_id":"ce4bhap2rcd13ifvqek0","pricing_plan_id":"free"},{"bike_id":"98d84716-85e0-492b-9726-90e435927f73","system_id":"levelo_inurba_marseille","lat":43.289468,"lon":5.363719,"is_reserved":false,"is_disabled":false,"rental_uris":{"android":"levelo://app?vid=98d84716-85e0-492b-9726-90e435927f73","ios":"levelo://app?vid=98d84716-85e0-492b-9726-90e435927f73"},"vehicle_type_id":"4","last_reported":1684955109,"current_range_meters":2000,"station_id":"ce4bhc92rcd13ifvqetg","pricing_plan_id":"free"},{"bike_id":"05307c13-1bdd-4db4-9770-4b256476cb57","system_id":"levelo_inurba_marseille","lat":43.28927,"lon":5.36639,"is_reserved":false,"is_disabled":false,"rental_uris":{"android":"levelo://app?vid=05307c13-1bdd-4db4-9770-4b256476cb57","ios":"levelo://app?vid=05307c13-1bdd-4db4-9770-4b256476cb57"},"vehicle_type_id":"4","last_reported":1684955109,"current_range_meters":13200,"station_id":"ce4bhap2rcd13ifvqek0","pricing_plan_id":"free"},{"bike_id":"6def9d69-167b-4853-9ae0-9444b80d7255","system_id":"levelo_inurba_marseille","lat":43.304296,"lon":5.397513,"is_reserved":false,"is_disabled":false,"rental_uris":{"android":"levelo://app?vid=6def9d69-167b-4853-9ae0-9444b80d7255","ios":"levelo://app?vid=6def9d69-167b-4853-9ae0-9444b80d7255"},"vehicle_type_id":"4","last_reported":1684955109,"current_range_meters":14400,"station_id":"ce4bh092rcd13ifvqd20","pricing_plan_id":"free"},{"bike_id":"d6159e40-50bf-4629-a8a7-6cfdda24171b","system_id":"levelo_inurba_marseille","lat":43.29271,"lon":5.38447,"is_reserved":false,"is_disabled":false,"rental_uris":{"android":"levelo://app?vid=d6159e40-50bf-4629-a8a7-6cfdda24171b","ios":"levelo://app?vid=d6159e40-50bf-4629-a8a7-6cfdda24171b"},"vehicle_type_id":"4","last_reported":1684955109,"current_range_meters":0,"station_id":"ce4bh692rcd13ifvqea0","pricing_plan_id":"free"},{"bike_id":"90721398-4b8a-4e9e-a977-3f32368e12c0","system_id":"levelo_inurba_marseille","lat":43.29267,"lon":5.38441,"is_reserved":false,"is_disabled":false,"rental_uris":{"android":"levelo://app?vid=90721398-4b8a-4e9e-a977-3f32368e12c0","ios":"levelo://app?vid=90721398-4b8a-4e9e-a977-3f32368e12c0"},"vehicle_type_id":"4","last_reported":1684955109,"current_range_meters":12800,"station_id":"ce4bh692rcd13ifvqea0","pricing_plan_id":"free"},{"bike_id":"44c09ba2-632a-4a0a-b1fb-2f09b6af310f","system_id":"levelo_inurba_marseille","lat":43.29262,"lon":5.38437,"is_reserved":false,"is_disabled":false,"rental_uris":{"android":"levelo://app?vid=44c09ba2-632a-4a0a-b1fb-2f09b6af310f","ios":"levelo://app?vid=44c09ba2-632a-4a0a-b1fb-2f09b6af310f"},"vehicle_type_id":"4","last_reported":1684955109,"current_range_meters":8800,"station_id":"ce4bh692rcd13ifvqea0","pricing_plan_id":"free"},{"bike_id":"c43b9415-a2e8-4cc5-9a90-55f37e666461","system_id":"levelo_inurba_marseille","lat":43.29265,"lon":5.38446,"is_reserved":false,"is_disabled":false,"rental_uris":{"android":"levelo://app?vid=c43b9415-a2e8-4cc5-9a90-55f37e666461","ios":"levelo://app?vid=c43b9415-a2e8-4cc5-9a90-55f37e666461"},"vehicle_type_id":"4","last_reported":1684955109,"current_range_meters":13600,"station_id":"ce4bh692rcd13ifvqea0","pricing_plan_id":"free"},{"bike_id":"0e1a1399-8a75-4e47-b38c-e4048ce7439d","system_id":"levelo_inurba_marseille","lat":43.292642,"lon":5.384254,"is_reserved":false,"is_disabled":false,"rental_uris":{"android":"levelo://app?vid=0e1a1399-8a75-4e47-b38c-e4048ce7439d","ios":"levelo://app?vid=0e1a1399-8a75-4e47-b38c-e4048ce7439d"},"vehicle_type_id":"4","last_reported":1684955109,"current_range_meters":22400,"station_id":"ce4bh692rcd13ifvqea0","pricing_plan_id":"free"},{"bike_id":"ec1a9de8-5887-4d9c-a825-2e6923cd31d7","system_id":"levelo_inurba_marseille","lat":43.29262,"lon":5.38442,"is_reserved":false,"is_disabled":false,"rental_uris":{"android":"levelo://app?vid=ec1a9de8-5887-4d9c-a825-2e6923cd31d7","ios":"levelo://app?vid=ec1a9de8-5887-4d9c-a825-2e6923cd31d7"},"vehicle_type_id":"4","last_reported":1684955109,"current_range_meters":3600,"station_id":"ce4bh692rcd13ifvqea0","pricing_plan_id":"free"},{"bike_id":"b0667f3a-99b1-45dd-b1cd-dd43912e58d3","system_id":"levelo_inurba_marseille","lat":43.29262,"lon":5.38444,"is_reserved":false,"is_disabled":false,"rental_uris":{"android":"levelo://app?vid=b0667f3a-99b1-45dd-b1cd-dd43912e58d3","ios":"levelo://app?vid=b0667f3a-99b1-45dd-b1cd-dd43912e58d3"},"vehicle_type_id":"4","last_reported":1684955109,"current_range_meters":22000,"station_id":"ce4bh692rcd13ifvqea0","pricing_plan_id":"free"},{"bike_id":"451b6941-9da6-41c9-9b46-e38c33205415","system_id":"levelo_inurba_marseille","lat":43.29264,"lon":5.38456,"is_reserved":false,"is_disabled":false,"rental_uris":{"android":"levelo://app?vid=451b6941-9da6-41c9-9b46-e38c33205415","ios":"levelo://app?vid=451b6941-9da6-41c9-9b46-e38c33205415"},"vehicle_type_id":"4","last_reported":1684955109,"current_range_meters":25200,"station_id":"ce4bh692rcd13ifvqea0","pricing_plan_id":"free"},{"bike_id":"06af5bd2-db49-48cd-b244-c83eb378d882","system_id":"levelo_inurba_marseille","lat":43.29258,"lon":5.38446,"is_reserved":false,"is_disabled":false,"rental_uris":{"android":"levelo://app?vid=06af5bd2-db49-48cd-b244-c83eb378d882","ios":"levelo://app?vid=06af5bd2-db49-48cd-b244-c83eb378d882"},"vehicle_type_id":"4","last_reported":1684955109,"current_range_meters":2000,"station_id":"ce4bh692rcd13ifvqea0","pricing_plan_id":"free"},{"bike_id":"b92f478f-db19-4f0f-9736-6c8e83088010","system_id":"levelo_inurba_marseille","lat":43.290103,"lon":5.356114,"is_reserved":false,"is_disabled":false,"rental_uris":{"android":"levelo://app?vid=b92f478f-db19-4f0f-9736-6c8e83088010","ios":"levelo://app?vid=b92f478f-db19-4f0f-9736-6c8e83088010"},"vehicle_type_id":"4","last_reported":1684955109,"current_range_meters":400,"station_id":"ce4bhb92rcd13ifvqen0","pricing_plan_id":"free"},{"bike_id":"501e66d7-9a0c-4712-8a3e-279c2550fab3","system_id":"levelo_inurba_marseille","lat":43.33041,"lon":5.38921,"is_reserved":false,"is_disabled":false,"rental_uris":{"android":"levelo://app?vid=501e66d7-9a0c-4712-8a3e-279c2550fab3","ios":"levelo://app?vid=501e66d7-9a0c-4712-8a3e-279c2550fab3"},"vehicle_type_id":"4","last_reported":1684955109,"current_range_meters":30800,"station_id":"ce4bhr92rcd13ifvqhrg","pricing_plan_id":"free"},{"bike_id":"37927cd7-567c-4356-876c-5cfeda4cc237","system_id":"levelo_inurba_marseille","lat":43.33042,"lon":5.3892,"is_reserved":false,"is_disabled":false,"rental_uris":{"android":"levelo://app?vid=37927cd7-567c-4356-876c-5cfeda4cc237","ios":"levelo://app?vid=37927cd7-567c-4356-876c-5cfeda4cc237"},"vehicle_type_id":"4","last_reported":1684955109,"current_range_meters":7200,"station_id":"ce4bhr92rcd13ifvqhrg","pricing_plan_id":"free"},{"bike_id":"2ee208d5-10f4-4d17-a5cc-474e4c5b2676","system_id":"levelo_inurba_marseille","lat":43.33042,"lon":5.38923,"is_reserved":false,"is_disabled":false,"rental_uris":{"android":"levelo://app?vid=2ee208d5-10f4-4d17-a5cc-474e4c5b2676","ios":"levelo://app?vid=2ee208d5-10f4-4d17-a5cc-474e4c5b2676"},"vehicle_type_id":"4","last_reported":1684955109,"current_range_meters":9200,"station_id":"ce4bhr92rcd13ifvqhrg","pricing_plan_id":"free"},{"bike_id":"2fc2c6b3-1be8-4eda-8376-caa8cb2396aa","system_id":"levelo_inurba_marseille","lat":43.3305,"lon":5.38915,"is_reserved":false,"is_disabled":false,"rental_uris":{"android":"levelo://app?vid=2fc2c6b3-1be8-4eda-8376-caa8cb2396aa","ios":"levelo://app?vid=2fc2c6b3-1be8-4eda-8376-caa8cb2396aa"},"vehicle_type_id":"4","last_reported":1684955109,"current_range_meters":17200,"station_id":"ce4bhr92rcd13ifvqhrg","pricing_plan_id":"free"},{"bike_id":"79d410b5-e714-41eb-ad81-80d28990c152","system_id":"levelo_inurba_marseille","lat":43.33046,"lon":5.38922,"is_reserved":false,"is_disabled":false,"rental_uris":{"android":"levelo://app?vid=79d410b5-e714-41eb-ad81-80d28990c152","ios":"levelo://app?vid=79d410b5-e714-41eb-ad81-80d28990c152"},"vehicle_type_id":"4","last_reported":1684955109,"current_range_meters":30800,"station_id":"ce4bhr92rcd13ifvqhrg","pricing_plan_id":"free"},{"bike_id":"b053101f-bc76-4614-beed-7de244587af6","system_id":"levelo_inurba_marseille","lat":43.290104,"lon":5.356111,"is_reserved":false,"is_disabled":false,"rental_uris":{"android":"levelo://app?vid=b053101f-bc76-4614-beed-7de244587af6","ios":"levelo://app?vid=b053101f-bc76-4614-beed-7de244587af6"},"vehicle_type_id":"4","last_reported":1684955109,"current_range_meters":10800,"station_id":"ce4bhb92rcd13ifvqen0","pricing_plan_id":"free"},{"bike_id":"15ce52ef-25aa-4bc8-a637-d14a075ae5fd","system_id":"levelo_inurba_marseille","lat":43.290995,"lon":5.381361,"is_reserved":false,"is_disabled":false,"rental_uris":{"android":"levelo://app?vid=15ce52ef-25aa-4bc8-a637-d14a075ae5fd","ios":"levelo://app?vid=15ce52ef-25aa-4bc8-a637-d14a075ae5fd"},"vehicle_type_id":"4","last_reported":1684955109,"current_range_meters":7600,"station_id":"ce4bh512rcd13ifvqe2g","pricing_plan_id":"free"},{"bike_id":"dd636dfc-5652-447f-816c-1191befa3cde","system_id":"levelo_inurba_marseille","lat":43.289184,"lon":5.366408,"is_reserved":false,"is_disabled":false,"rental_uris":{"android":"levelo://app?vid=dd636dfc-5652-447f-816c-1191befa3cde","ios":"levelo://app?vid=dd636dfc-5652-447f-816c-1191befa3cde"},"vehicle_type_id":"4","last_reported":1684955109,"current_range_meters":400,"station_id":"ce4bhap2rcd13ifvqek0","pricing_plan_id":"free"},{"bike_id":"ca181112-4d0d-46b4-91ca-03a3999572c3","system_id":"levelo_inurba_marseille","lat":43.290094,"lon":5.381264,"is_reserved":false,"is_disabled":false,"rental_uris":{"android":"levelo://app?vid=ca181112-4d0d-46b4-91ca-03a3999572c3","ios":"levelo://app?vid=ca181112-4d0d-46b4-91ca-03a3999572c3"},"vehicle_type_id":"4","last_reported":1684955109,"current_range_meters":0,"station_id":"ce4bh4p2rcd13ifvqe1g","pricing_plan_id":"free"},{"bike_id":"1b8534a7-080b-4606-b956-882ca96ee7d1","system_id":"levelo_inurba_marseille","lat":43.28856,"lon":5.358371,"is_reserved":false,"is_disabled":false,"rental_uris":{"android":"levelo://app?vid=1b8534a7-080b-4606-b956-882ca96ee7d1","ios":"levelo://app?vid=1b8534a7-080b-4606-b956-882ca96ee7d1"},"vehicle_type_id":"4","last_reported":1684955109,"current_range_meters":21600,"station_id":"ce4bhb12rcd13ifvqem0","pricing_plan_id":"free"},{"bike_id":"3e535399-b38b-48d7-8188-cb7c337d7e05","system_id":"levelo_inurba_marseille","lat":43.28856,"lon":5.358371,"is_reserved":false,"is_disabled":false,"rental_uris":{"android":"levelo://app?vid=3e535399-b38b-48d7-8188-cb7c337d7e05","ios":"levelo://app?vid=3e535399-b38b-48d7-8188-cb7c337d7e05"},"vehicle_type_id":"4","last_reported":1684955109,"current_range_meters":6000,"station_id":"ce4bhb12rcd13ifvqem0","pricing_plan_id":"free"},{"bike_id":"cd4a44f3-0248-4828-8b48-ba81185bfcdf","system_id":"levelo_inurba_marseille","lat":43.28856,"lon":5.358371,"is_reserved":false,"is_disabled":false,"rental_uris":{"android":"levelo://app?vid=cd4a44f3-0248-4828-8b48-ba81185bfcdf","ios":"levelo://app?vid=cd4a44f3-0248-4828-8b48-ba81185bfcdf"},"vehicle_type_id":"4","last_reported":1684955109,"current_range_meters":8000,"station_id":"ce4bhb12rcd13ifvqem0","pricing_plan_id":"free"},{"bike_id":"b908649d-6a7b-45cc-9ed8-24fbba309d01","system_id":"levelo_inurba_marseille","lat":43.28856,"lon":5.358371,"is_reserved":false,"is_disabled":false,"rental_uris":{"android":"levelo://app?vid=b908649d-6a7b-45cc-9ed8-24fbba309d01","ios":"levelo://app?vid=b908649d-6a7b-45cc-9ed8-24fbba309d01"},"vehicle_type_id":"4","last_reported":1684955109,"current_range_meters":26800,"station_id":"ce4bhb12rcd13ifvqem0","pricing_plan_id":"free"},{"bike_id":"deccdead-3a19-4eb1-a04e-30061fe6dc26","system_id":"levelo_inurba_marseille","lat":43.3375,"lon":5.37454,"is_reserved":false,"is_disabled":false,"rental_uris":{"android":"levelo://app?vid=deccdead-3a19-4eb1-a04e-30061fe6dc26","ios":"levelo://app?vid=deccdead-3a19-4eb1-a04e-30061fe6dc26"},"vehicle_type_id":"4","last_reported":1684955109,"current_range_meters":24000,"station_id":"","pricing_plan_id":"free"},{"bike_id":"154cb1eb-e8ef-4344-91cf-935882db7b5f","system_id":"levelo_inurba_marseille","lat":43.33745,"lon":5.375,"is_reserved":false,"is_disabled":false,"rental_uris":{"android":"levelo://app?vid=154cb1eb-e8ef-4344-91cf-935882db7b5f","ios":"levelo://app?vid=154cb1eb-e8ef-4344-91cf-935882db7b5f"},"vehicle_type_id":"4","last_reported":1684955109,"current_range_meters":30000,"station_id":"","pricing_plan_id":"free"},{"bike_id":"b5fd9918-f4b8-4618-bcb3-ec74ff85bc47","system_id":"levelo_inurba_marseille","lat":43.33758,"lon":5.37434,"is_reserved":false,"is_disabled":false,"rental_uris":{"android":"levelo://app?vid=b5fd9918-f4b8-4618-bcb3-ec74ff85bc47","ios":"levelo://app?vid=b5fd9918-f4b8-4618-bcb3-ec74ff85bc47"},"vehicle_type_id":"4","last_reported":1684955109,"current_range_meters":25600,"station_id":"","pricing_plan_id":"free"},{"bike_id":"efee94fe-ac14-4496-b778-133e9ed21ceb","system_id":"levelo_inurba_marseille","lat":43.30642,"lon":5.401031,"is_reserved":false,"is_disabled":false,"rental_uris":{"android":"levelo://app?vid=efee94fe-ac14-4496-b778-133e9ed21ceb","ios":"levelo://app?vid=efee94fe-ac14-4496-b778-133e9ed21ceb"},"vehicle_type_id":"4","last_reported":1684955109,"current_range_meters":30400,"station_id":"ce4bh112rcd13ifvqda0","pricing_plan_id":"free"},{"bike_id":"40b58590-091a-4add-9f25-2c62b7c16693","system_id":"levelo_inurba_marseille","lat":43.33758,"lon":5.37437,"is_reserved":false,"is_disabled":false,"rental_uris":{"android":"levelo://app?vid=40b58590-091a-4add-9f25-2c62b7c16693","ios":"levelo://app?vid=40b58590-091a-4add-9f25-2c62b7c16693"},"vehicle_type_id":"4","last_reported":1684955109,"current_range_meters":29600,"station_id":"","pricing_plan_id":"free"},{"bike_id":"57664e0f-72f1-4114-ae9e-0d29ed66605f","system_id":"levelo_inurba_marseille","lat":43.30642,"lon":5.401031,"is_reserved":false,"is_disabled":false,"rental_uris":{"android":"levelo://app?vid=57664e0f-72f1-4114-ae9e-0d29ed66605f","ios":"levelo://app?vid=57664e0f-72f1-4114-ae9e-0d29ed66605f"},"vehicle_type_id":"4","last_reported":1684955109,"current_range_meters":20000,"station_id":"ce4bh112rcd13ifvqda0","pricing_plan_id":"free"},{"bike_id":"3fb73aa2-9e2e-4bbe-8fdf-0e4748f9c7be","system_id":"levelo_inurba_marseille","lat":43.30642,"lon":5.401031,"is_reserved":false,"is_disabled":false,"rental_uris":{"android":"levelo://app?vid=3fb73aa2-9e2e-4bbe-8fdf-0e4748f9c7be","ios":"levelo://app?vid=3fb73aa2-9e2e-4bbe-8fdf-0e4748f9c7be"},"vehicle_type_id":"4","last_reported":1684955109,"current_range_meters":28400,"station_id":"ce4bh112rcd13ifvqda0","pricing_plan_id":"free"},{"bike_id":"b2cbf8fe-451a-4644-b656-d78df757b611","system_id":"levelo_inurba_marseille","lat":43.30642,"lon":5.401031,"is_reserved":false,"is_disabled":false,"rental_uris":{"android":"levelo://app?vid=b2cbf8fe-451a-4644-b656-d78df757b611","ios":"levelo://app?vid=b2cbf8fe-451a-4644-b656-d78df757b611"},"vehicle_type_id":"4","last_reported":1684955109,"current_range_meters":24000,"station_id":"ce4bh112rcd13ifvqda0","pricing_plan_id":"free"},{"bike_id":"123621fb-6c15-4df2-915d-88cc0203612d","system_id":"levelo_inurba_marseille","lat":43.30446,"lon":5.40105,"is_reserved":false,"is_disabled":false,"rental_uris":{"android":"levelo://app?vid=123621fb-6c15-4df2-915d-88cc0203612d","ios":"levelo://app?vid=123621fb-6c15-4df2-915d-88cc0203612d"},"vehicle_type_id":"4","last_reported":1684955109,"current_range_meters":13200,"station_id":"","pricing_plan_id":"free"},{"bike_id":"6fcc00c1-97d4-413d-829a-e0a293f2cc05","system_id":"levelo_inurba_marseille","lat":43.286591,"lon":5.363346,"is_reserved":false,"is_disabled":false,"rental_uris":{"android":"levelo://app?vid=6fcc00c1-97d4-413d-829a-e0a293f2cc05","ios":"levelo://app?vid=6fcc00c1-97d4-413d-829a-e0a293f2cc05"},"vehicle_type_id":"4","last_reported":1684955109,"current_range_meters":3600,"station_id":"ce4bhah2rcd13ifvqej0","pricing_plan_id":"free"},{"bike_id":"e2454cc8-fdc7-4e27-8eac-b73b65611692","system_id":"levelo_inurba_marseille","lat":43.286591,"lon":5.363346,"is_reserved":false,"is_disabled":false,"rental_uris":{"android":"levelo://app?vid=e2454cc8-fdc7-4e27-8eac-b73b65611692","ios":"levelo://app?vid=e2454cc8-fdc7-4e27-8eac-b73b65611692"},"vehicle_type_id":"4","last_reported":1684955109,"current_range_meters":15200,"station_id":"ce4bhah2rcd13ifvqej0","pricing_plan_id":"free"},{"bike_id":"86700cbc-69f3-4947-b80e-4fe910e3012d","system_id":"levelo_inurba_marseille","lat":43.286593,"lon":5.363346,"is_reserved":false,"is_disabled":false,"rental_uris":{"android":"levelo://app?vid=86700cbc-69f3-4947-b80e-4fe910e3012d","ios":"levelo://app?vid=86700cbc-69f3-4947-b80e-4fe910e3012d"},"vehicle_type_id":"4","last_reported":1684955109,"current_range_meters":24800,"station_id":"ce4bhah2rcd13ifvqej0","pricing_plan_id":"free"},{"bike_id":"cfb8effd-ddad-4daa-9484-c8de98709650","system_id":"levelo_inurba_marseille","lat":43.286591,"lon":5.363346,"is_reserved":false,"is_disabled":false,"rental_uris":{"android":"levelo://app?vid=cfb8effd-ddad-4daa-9484-c8de98709650","ios":"levelo://app?vid=cfb8effd-ddad-4daa-9484-c8de98709650"},"vehicle_type_id":"4","last_reported":1684955109,"current_range_meters":30000,"station_id":"ce4bhah2rcd13ifvqej0","pricing_plan_id":"free"},{"bike_id":"15e68253-a10e-490b-bb31-54f958fc372c","system_id":"levelo_inurba_marseille","lat":43.286591,"lon":5.363346,"is_reserved":false,"is_disabled":false,"rental_uris":{"android":"levelo://app?vid=15e68253-a10e-490b-bb31-54f958fc372c","ios":"levelo://app?vid=15e68253-a10e-490b-bb31-54f958fc372c"},"vehicle_type_id":"4","last_reported":1684955109,"current_range_meters":5200,"station_id":"ce4bhah2rcd13ifvqej0","pricing_plan_id":"free"},{"bike_id":"5adc80f8-7482-42b7-88af-80ec8da87666","system_id":"levelo_inurba_marseille","lat":43.286593,"lon":5.363346,"is_reserved":false,"is_disabled":false,"rental_uris":{"android":"levelo://app?vid=5adc80f8-7482-42b7-88af-80ec8da87666","ios":"levelo://app?vid=5adc80f8-7482-42b7-88af-80ec8da87666"},"vehicle_type_id":"4","last_reported":1684955109,"current_range_meters":4000,"station_id":"ce4bhah2rcd13ifvqej0","pricing_plan_id":"free"},{"bike_id":"d795b840-e3b1-4209-aa73-56728dc2a508","system_id":"levelo_inurba_marseille","lat":43.286593,"lon":5.363346,"is_reserved":false,"is_disabled":false,"rental_uris":{"android":"levelo://app?vid=d795b840-e3b1-4209-aa73-56728dc2a508","ios":"levelo://app?vid=d795b840-e3b1-4209-aa73-56728dc2a508"},"vehicle_type_id":"4","last_reported":1684955109,"current_range_meters":1600,"station_id":"ce4bhah2rcd13ifvqej0","pricing_plan_id":"free"},{"bike_id":"12a8bf7f-32ac-4d96-8311-aeaa3557a654","system_id":"levelo_inurba_marseille","lat":43.295196,"lon":5.39397,"is_reserved":false,"is_disabled":false,"rental_uris":{"android":"levelo://app?vid=12a8bf7f-32ac-4d96-8311-aeaa3557a654","ios":"levelo://app?vid=12a8bf7f-32ac-4d96-8311-aeaa3557a654"},"vehicle_type_id":"4","last_reported":1684955109,"current_range_meters":7200,"station_id":"ce4bh292rcd13ifvqdf0","pricing_plan_id":"free"},{"bike_id":"a7c4f5b7-0d68-4be3-b3e5-13e42644cca2","system_id":"levelo_inurba_marseille","lat":43.295196,"lon":5.39397,"is_reserved":false,"is_disabled":false,"rental_uris":{"android":"levelo://app?vid=a7c4f5b7-0d68-4be3-b3e5-13e42644cca2","ios":"levelo://app?vid=a7c4f5b7-0d68-4be3-b3e5-13e42644cca2"},"vehicle_type_id":"4","last_reported":1684955109,"current_range_meters":15200,"station_id":"ce4bh292rcd13ifvqdf0","pricing_plan_id":"free"},{"bike_id":"067ae574-8f9d-441d-bcee-4daf0f415a36","system_id":"levelo_inurba_marseille","lat":43.295196,"lon":5.39397,"is_reserved":false,"is_disabled":false,"rental_uris":{"android":"levelo://app?vid=067ae574-8f9d-441d-bcee-4daf0f415a36","ios":"levelo://app?vid=067ae574-8f9d-441d-bcee-4daf0f415a36"},"vehicle_type_id":"4","last_reported":1684955109,"current_range_meters":7200,"station_id":"ce4bh292rcd13ifvqdf0","pricing_plan_id":"free"},{"bike_id":"b4d13f0e-4e9c-4f39-88c2-28c25f383b39","system_id":"levelo_inurba_marseille","lat":43.29513,"lon":5.39407,"is_reserved":false,"is_disabled":false,"rental_uris":{"android":"levelo://app?vid=b4d13f0e-4e9c-4f39-88c2-28c25f383b39","ios":"levelo://app?vid=b4d13f0e-4e9c-4f39-88c2-28c25f383b39"},"vehicle_type_id":"4","last_reported":1684955109,"current_range_meters":22800,"station_id":"ce4bh292rcd13ifvqdf0","pricing_plan_id":"free"},{"bike_id":"5733da62-e872-45a3-b8bc-ba4dd03d5f5d","system_id":"levelo_inurba_marseille","lat":43.2903,"lon":5.38636,"is_reserved":false,"is_disabled":false,"rental_uris":{"android":"levelo://app?vid=5733da62-e872-45a3-b8bc-ba4dd03d5f5d","ios":"levelo://app?vid=5733da62-e872-45a3-b8bc-ba4dd03d5f5d"},"vehicle_type_id":"4","last_reported":1684955109,"current_range_meters":17200,"station_id":"ce4bh4p2rcd13ifvqe0g","pricing_plan_id":"free"},{"bike_id":"874765c7-de05-4e23-b69d-9ff70797074f","system_id":"levelo_inurba_marseille","lat":43.290336,"lon":5.386425,"is_reserved":false,"is_disabled":false,"rental_uris":{"android":"levelo://app?vid=874765c7-de05-4e23-b69d-9ff70797074f","ios":"levelo://app?vid=874765c7-de05-4e23-b69d-9ff70797074f"},"vehicle_type_id":"4","last_reported":1684955109,"current_range_meters":7200,"station_id":"ce4bh4p2rcd13ifvqe0g","pricing_plan_id":"free"},{"bike_id":"98a42b06-3fe7-492f-9d65-4f57298d7c42","system_id":"levelo_inurba_marseille","lat":43.30248,"lon":5.40062,"is_reserved":false,"is_disabled":false,"rental_uris":{"android":"levelo://app?vid=98a42b06-3fe7-492f-9d65-4f57298d7c42","ios":"levelo://app?vid=98a42b06-3fe7-492f-9d65-4f57298d7c42"},"vehicle_type_id":"4","last_reported":1684955109,"current_range_meters":8400,"station_id":"","pricing_plan_id":"free"},{"bike_id":"c0c926e5-eee6-4479-ab5a-e0cb4d277eed","system_id":"levelo_inurba_marseille","lat":43.28614,"lon":5.37056,"is_reserved":false,"is_disabled":false,"rental_uris":{"android":"levelo://app?vid=c0c926e5-eee6-4479-ab5a-e0cb4d277eed","ios":"levelo://app?vid=c0c926e5-eee6-4479-ab5a-e0cb4d277eed"},"vehicle_type_id":"4","last_reported":1684955109,"current_range_meters":24000,"station_id":"ce4bht12rcd13ifvqi60","pricing_plan_id":"free"},{"bike_id":"4a5684f3-c9a9-4a65-9577-35edcb99cfc1","system_id":"levelo_inurba_marseille","lat":43.28613,"lon":5.37061,"is_reserved":false,"is_disabled":false,"rental_uris":{"android":"levelo://app?vid=4a5684f3-c9a9-4a65-9577-35edcb99cfc1","ios":"levelo://app?vid=4a5684f3-c9a9-4a65-9577-35edcb99cfc1"},"vehicle_type_id":"4","last_reported":1684955109,"current_range_meters":10400,"station_id":"ce4bht12rcd13ifvqi60","pricing_plan_id":"free"},{"bike_id":"fdbf2b19-1602-4b07-925e-2622e35101aa","system_id":"levelo_inurba_marseille","lat":43.28609,"lon":5.37061,"is_reserved":false,"is_disabled":false,"rental_uris":{"android":"levelo://app?vid=fdbf2b19-1602-4b07-925e-2622e35101aa","ios":"levelo://app?vid=fdbf2b19-1602-4b07-925e-2622e35101aa"},"vehicle_type_id":"4","last_reported":1684955109,"current_range_meters":14000,"station_id":"ce4bht12rcd13ifvqi60","pricing_plan_id":"free"},{"bike_id":"bd5dc608-405e-435a-bd5f-1ca275cc9269","system_id":"levelo_inurba_marseille","lat":43.286039,"lon":5.370679,"is_reserved":false,"is_disabled":false,"rental_uris":{"android":"levelo://app?vid=bd5dc608-405e-435a-bd5f-1ca275cc9269","ios":"levelo://app?vid=bd5dc608-405e-435a-bd5f-1ca275cc9269"},"vehicle_type_id":"4","last_reported":1684955109,"current_range_meters":27600,"station_id":"ce4bht12rcd13ifvqi60","pricing_plan_id":"free"},{"bike_id":"6ce58207-26d4-46d5-80e5-5dc640b35fc8","system_id":"levelo_inurba_marseille","lat":43.287184,"lon":5.37937,"is_reserved":false,"is_disabled":false,"rental_uris":{"android":"levelo://app?vid=6ce58207-26d4-46d5-80e5-5dc640b35fc8","ios":"levelo://app?vid=6ce58207-26d4-46d5-80e5-5dc640b35fc8"},"vehicle_type_id":"4","last_reported":1684955109,"current_range_meters":800,"station_id":"ce4bh9p2rcd13ifvqec0","pricing_plan_id":"free"},{"bike_id":"e6e645ad-2c04-4723-9429-31ceab873b0a","system_id":"levelo_inurba_marseille","lat":43.287184,"lon":5.37937,"is_reserved":false,"is_disabled":false,"rental_uris":{"android":"levelo://app?vid=e6e645ad-2c04-4723-9429-31ceab873b0a","ios":"levelo://app?vid=e6e645ad-2c04-4723-9429-31ceab873b0a"},"vehicle_type_id":"4","last_reported":1684955109,"current_range_meters":2800,"station_id":"ce4bh9p2rcd13ifvqec0","pricing_plan_id":"free"},{"bike_id":"5c94606a-6725-45bd-ab54-6ee2d0a1ae93","system_id":"levelo_inurba_marseille","lat":43.316517,"lon":5.404375,"is_reserved":false,"is_disabled":false,"rental_uris":{"android":"levelo://app?vid=5c94606a-6725-45bd-ab54-6ee2d0a1ae93","ios":"levelo://app?vid=5c94606a-6725-45bd-ab54-6ee2d0a1ae93"},"vehicle_type_id":"4","last_reported":1684955109,"current_range_meters":13600,"station_id":"ce4bh012rcd13ifvqd00","pricing_plan_id":"free"},{"bike_id":"29a0eeee-91f2-4a1a-a8b4-4fe877ad3bd9","system_id":"levelo_inurba_marseille","lat":43.316517,"lon":5.404375,"is_reserved":false,"is_disabled":false,"rental_uris":{"android":"levelo://app?vid=29a0eeee-91f2-4a1a-a8b4-4fe877ad3bd9","ios":"levelo://app?vid=29a0eeee-91f2-4a1a-a8b4-4fe877ad3bd9"},"vehicle_type_id":"4","last_reported":1684955109,"current_range_meters":0,"station_id":"ce4bh012rcd13ifvqd00","pricing_plan_id":"free"},{"bike_id":"cb888f99-aa18-4b25-b4e8-1af9106292b0","system_id":"levelo_inurba_marseille","lat":43.316517,"lon":5.404375,"is_reserved":false,"is_disabled":false,"rental_uris":{"android":"levelo://app?vid=cb888f99-aa18-4b25-b4e8-1af9106292b0","ios":"levelo://app?vid=cb888f99-aa18-4b25-b4e8-1af9106292b0"},"vehicle_type_id":"4","last_reported":1684955109,"current_range_meters":1200,"station_id":"ce4bh012rcd13ifvqd00","pricing_plan_id":"free"},{"bike_id":"07b950b4-e38a-4d8c-b5ec-7ec0ac339035","system_id":"levelo_inurba_marseille","lat":43.291994,"lon":5.392907,"is_reserved":false,"is_disabled":false,"rental_uris":{"android":"levelo://app?vid=07b950b4-e38a-4d8c-b5ec-7ec0ac339035","ios":"levelo://app?vid=07b950b4-e38a-4d8c-b5ec-7ec0ac339035"},"vehicle_type_id":"4","last_reported":1684955109,"current_range_meters":5600,"station_id":"ce4bh192rcd13ifvqdd0","pricing_plan_id":"free"},{"bike_id":"d0201ae9-fbb4-4419-a3ef-dfce996f4abc","system_id":"levelo_inurba_marseille","lat":43.291994,"lon":5.392907,"is_reserved":false,"is_disabled":false,"rental_uris":{"android":"levelo://app?vid=d0201ae9-fbb4-4419-a3ef-dfce996f4abc","ios":"levelo://app?vid=d0201ae9-fbb4-4419-a3ef-dfce996f4abc"},"vehicle_type_id":"4","last_reported":1684955109,"current_range_meters":19600,"station_id":"ce4bh192rcd13ifvqdd0","pricing_plan_id":"free"},{"bike_id":"3d70412f-c029-4cd9-82ff-8eaa61b22eca","system_id":"levelo_inurba_marseille","lat":43.291994,"lon":5.392907,"is_reserved":false,"is_disabled":false,"rental_uris":{"android":"levelo://app?vid=3d70412f-c029-4cd9-82ff-8eaa61b22eca","ios":"levelo://app?vid=3d70412f-c029-4cd9-82ff-8eaa61b22eca"},"vehicle_type_id":"4","last_reported":1684955109,"current_range_meters":1200,"station_id":"ce4bh192rcd13ifvqdd0","pricing_plan_id":"free"},{"bike_id":"83598679-0e70-441f-8285-1d0708841bef","system_id":"levelo_inurba_marseille","lat":43.291994,"lon":5.392907,"is_reserved":false,"is_disabled":false,"rental_uris":{"android":"levelo://app?vid=83598679-0e70-441f-8285-1d0708841bef","ios":"levelo://app?vid=83598679-0e70-441f-8285-1d0708841bef"},"vehicle_type_id":"4","last_reported":1684955109,"current_range_meters":4400,"station_id":"ce4bh192rcd13ifvqdd0","pricing_plan_id":"free"},{"bike_id":"d500490b-4027-42c5-9dc3-be5dea81d5de","system_id":"levelo_inurba_marseille","lat":43.284534,"lon":5.358662,"is_reserved":false,"is_disabled":false,"rental_uris":{"android":"levelo://app?vid=d500490b-4027-42c5-9dc3-be5dea81d5de","ios":"levelo://app?vid=d500490b-4027-42c5-9dc3-be5dea81d5de"},"vehicle_type_id":"4","last_reported":1684955109,"current_range_meters":4400,"station_id":"ce4bhah2rcd13ifvqei0","pricing_plan_id":"free"},{"bike_id":"8e41d456-b90a-4a44-bc74-12e63f565845","system_id":"levelo_inurba_marseille","lat":43.28473,"lon":5.35874,"is_reserved":false,"is_disabled":false,"rental_uris":{"android":"levelo://app?vid=8e41d456-b90a-4a44-bc74-12e63f565845","ios":"levelo://app?vid=8e41d456-b90a-4a44-bc74-12e63f565845"},"vehicle_type_id":"4","last_reported":1684955109,"current_range_meters":0,"station_id":"ce4bhah2rcd13ifvqei0","pricing_plan_id":"free"},{"bike_id":"29a3f711-522e-4ead-91b6-5a7af811c2b0","system_id":"levelo_inurba_marseille","lat":43.28467,"lon":5.35892,"is_reserved":false,"is_disabled":false,"rental_uris":{"android":"levelo://app?vid=29a3f711-522e-4ead-91b6-5a7af811c2b0","ios":"levelo://app?vid=29a3f711-522e-4ead-91b6-5a7af811c2b0"},"vehicle_type_id":"4","last_reported":1684955109,"current_range_meters":8400,"station_id":"ce4bhah2rcd13ifvqei0","pricing_plan_id":"free"},{"bike_id":"fb2761fb-e67d-4545-8237-ad26b3bafddf","system_id":"levelo_inurba_marseille","lat":43.284534,"lon":5.358662,"is_reserved":false,"is_disabled":false,"rental_uris":{"android":"levelo://app?vid=fb2761fb-e67d-4545-8237-ad26b3bafddf","ios":"levelo://app?vid=fb2761fb-e67d-4545-8237-ad26b3bafddf"},"vehicle_type_id":"4","last_reported":1684955109,"current_range_meters":30000,"station_id":"ce4bhah2rcd13ifvqei0","pricing_plan_id":"free"},{"bike_id":"1c75ff16-6539-4b49-b407-044be78db8ab","system_id":"levelo_inurba_marseille","lat":43.28464,"lon":5.3589,"is_reserved":false,"is_disabled":false,"rental_uris":{"android":"levelo://app?vid=1c75ff16-6539-4b49-b407-044be78db8ab","ios":"levelo://app?vid=1c75ff16-6539-4b49-b407-044be78db8ab"},"vehicle_type_id":"4","last_reported":1684955109,"current_range_meters":1200,"station_id":"ce4bhah2rcd13ifvqei0","pricing_plan_id":"free"},{"bike_id":"93dcd78d-377c-4b2a-bbc4-453a9fa541bd","system_id":"levelo_inurba_marseille","lat":43.28465,"lon":5.35875,"is_reserved":false,"is_disabled":false,"rental_uris":{"android":"levelo://app?vid=93dcd78d-377c-4b2a-bbc4-453a9fa541bd","ios":"levelo://app?vid=93dcd78d-377c-4b2a-bbc4-453a9fa541bd"},"vehicle_type_id":"4","last_reported":1684955109,"current_range_meters":1600,"station_id":"ce4bhah2rcd13ifvqei0","pricing_plan_id":"free"},{"bike_id":"a5fdcb60-401d-4308-a6b9-aeff2f4bddcc","system_id":"levelo_inurba_marseille","lat":43.284534,"lon":5.358662,"is_reserved":false,"is_disabled":false,"rental_uris":{"android":"levelo://app?vid=a5fdcb60-401d-4308-a6b9-aeff2f4bddcc","ios":"levelo://app?vid=a5fdcb60-401d-4308-a6b9-aeff2f4bddcc"},"vehicle_type_id":"4","last_reported":1684955109,"current_range_meters":31600,"station_id":"ce4bhah2rcd13ifvqei0","pricing_plan_id":"free"},{"bike_id":"c02d7b81-00b6-4bde-9e71-5acfc36d5e48","system_id":"levelo_inurba_marseille","lat":43.2846,"lon":5.35894,"is_reserved":false,"is_disabled":false,"rental_uris":{"android":"levelo://app?vid=c02d7b81-00b6-4bde-9e71-5acfc36d5e48","ios":"levelo://app?vid=c02d7b81-00b6-4bde-9e71-5acfc36d5e48"},"vehicle_type_id":"4","last_reported":1684955109,"current_range_meters":31200,"station_id":"ce4bhah2rcd13ifvqei0","pricing_plan_id":"free"},{"bike_id":"61a1f783-03b6-4c96-a256-d44463b639e5","system_id":"levelo_inurba_marseille","lat":43.284534,"lon":5.358662,"is_reserved":false,"is_disabled":false,"rental_uris":{"android":"levelo://app?vid=61a1f783-03b6-4c96-a256-d44463b639e5","ios":"levelo://app?vid=61a1f783-03b6-4c96-a256-d44463b639e5"},"vehicle_type_id":"4","last_reported":1684955109,"current_range_meters":30400,"station_id":"ce4bhah2rcd13ifvqei0","pricing_plan_id":"free"},{"bike_id":"74859634-bdc9-4ef7-9cea-d56404b07ee7","system_id":"levelo_inurba_marseille","lat":43.284534,"lon":5.358662,"is_reserved":false,"is_disabled":false,"rental_uris":{"android":"levelo://app?vid=74859634-bdc9-4ef7-9cea-d56404b07ee7","ios":"levelo://app?vid=74859634-bdc9-4ef7-9cea-d56404b07ee7"},"vehicle_type_id":"4","last_reported":1684955109,"current_range_meters":3600,"station_id":"ce4bhah2rcd13ifvqei0","pricing_plan_id":"free"},{"bike_id":"5be0682c-3f50-4b30-9737-84dd32593fbb","system_id":"levelo_inurba_marseille","lat":43.284534,"lon":5.358662,"is_reserved":false,"is_disabled":false,"rental_uris":{"android":"levelo://app?vid=5be0682c-3f50-4b30-9737-84dd32593fbb","ios":"levelo://app?vid=5be0682c-3f50-4b30-9737-84dd32593fbb"},"vehicle_type_id":"4","last_reported":1684955109,"current_range_meters":31200,"station_id":"ce4bhah2rcd13ifvqei0","pricing_plan_id":"free"},{"bike_id":"a914ace4-30dd-44ab-b5ab-941a963cdc04","system_id":"levelo_inurba_marseille","lat":43.284534,"lon":5.358662,"is_reserved":false,"is_disabled":false,"rental_uris":{"android":"levelo://app?vid=a914ace4-30dd-44ab-b5ab-941a963cdc04","ios":"levelo://app?vid=a914ace4-30dd-44ab-b5ab-941a963cdc04"},"vehicle_type_id":"4","last_reported":1684955109,"current_range_meters":5600,"station_id":"ce4bhah2rcd13ifvqei0","pricing_plan_id":"free"},{"bike_id":"297aa68e-82f1-443c-8514-0b577d056843","system_id":"levelo_inurba_marseille","lat":43.284534,"lon":5.358662,"is_reserved":false,"is_disabled":false,"rental_uris":{"android":"levelo://app?vid=297aa68e-82f1-443c-8514-0b577d056843","ios":"levelo://app?vid=297aa68e-82f1-443c-8514-0b577d056843"},"vehicle_type_id":"4","last_reported":1684955109,"current_range_meters":14400,"station_id":"ce4bhah2rcd13ifvqei0","pricing_plan_id":"free"},{"bike_id":"e824315a-6e7a-4bf6-a292-5a4f78749a17","system_id":"levelo_inurba_marseille","lat":43.284534,"lon":5.358662,"is_reserved":false,"is_disabled":false,"rental_uris":{"android":"levelo://app?vid=e824315a-6e7a-4bf6-a292-5a4f78749a17","ios":"levelo://app?vid=e824315a-6e7a-4bf6-a292-5a4f78749a17"},"vehicle_type_id":"4","last_reported":1684955109,"current_range_meters":4800,"station_id":"ce4bhah2rcd13ifvqei0","pricing_plan_id":"free"},{"bike_id":"569dbaf0-cf66-4e52-9a52-da609e7051c1","system_id":"levelo_inurba_marseille","lat":43.28454,"lon":5.35892,"is_reserved":false,"is_disabled":false,"rental_uris":{"android":"levelo://app?vid=569dbaf0-cf66-4e52-9a52-da609e7051c1","ios":"levelo://app?vid=569dbaf0-cf66-4e52-9a52-da609e7051c1"},"vehicle_type_id":"4","last_reported":1684955109,"current_range_meters":24800,"station_id":"ce4bhah2rcd13ifvqei0","pricing_plan_id":"free"},{"bike_id":"6d7dd953-49e1-4305-89bc-9ae48fbcbbc8","system_id":"levelo_inurba_marseille","lat":43.284534,"lon":5.358662,"is_reserved":false,"is_disabled":false,"rental_uris":{"android":"levelo://app?vid=6d7dd953-49e1-4305-89bc-9ae48fbcbbc8","ios":"levelo://app?vid=6d7dd953-49e1-4305-89bc-9ae48fbcbbc8"},"vehicle_type_id":"4","last_reported":1684955109,"current_range_meters":15200,"station_id":"ce4bhah2rcd13ifvqei0","pricing_plan_id":"free"},{"bike_id":"84f56545-e6fb-4bcb-85d1-a19c8ec95b07","system_id":"levelo_inurba_marseille","lat":43.284534,"lon":5.358662,"is_reserved":false,"is_disabled":false,"rental_uris":{"android":"levelo://app?vid=84f56545-e6fb-4bcb-85d1-a19c8ec95b07","ios":"levelo://app?vid=84f56545-e6fb-4bcb-85d1-a19c8ec95b07"},"vehicle_type_id":"4","last_reported":1684955109,"current_range_meters":22800,"station_id":"ce4bhah2rcd13ifvqei0","pricing_plan_id":"free"},{"bike_id":"1fd0a5a2-c70a-4051-8e9b-f0981a11590b","system_id":"levelo_inurba_marseille","lat":43.285856,"lon":5.350771,"is_reserved":false,"is_disabled":false,"rental_uris":{"android":"levelo://app?vid=1fd0a5a2-c70a-4051-8e9b-f0981a11590b","ios":"levelo://app?vid=1fd0a5a2-c70a-4051-8e9b-f0981a11590b"},"vehicle_type_id":"4","last_reported":1684955109,"current_range_meters":11600,"station_id":"ce4bhch2rcd13ifvqeug","pricing_plan_id":"free"},{"bike_id":"94c95c5d-9639-47ae-add7-39eb37483626","system_id":"levelo_inurba_marseille","lat":43.285856,"lon":5.350771,"is_reserved":false,"is_disabled":false,"rental_uris":{"android":"levelo://app?vid=94c95c5d-9639-47ae-add7-39eb37483626","ios":"levelo://app?vid=94c95c5d-9639-47ae-add7-39eb37483626"},"vehicle_type_id":"4","last_reported":1684955109,"current_range_meters":0,"station_id":"ce4bhch2rcd13ifvqeug","pricing_plan_id":"free"},{"bike_id":"cddbd1b5-8014-423d-87d7-fe4c10ccfbfb","system_id":"levelo_inurba_marseille","lat":43.285856,"lon":5.350771,"is_reserved":false,"is_disabled":false,"rental_uris":{"android":"levelo://app?vid=cddbd1b5-8014-423d-87d7-fe4c10ccfbfb","ios":"levelo://app?vid=cddbd1b5-8014-423d-87d7-fe4c10ccfbfb"},"vehicle_type_id":"4","last_reported":1684955109,"current_range_meters":19200,"station_id":"ce4bhch2rcd13ifvqeug","pricing_plan_id":"free"},{"bike_id":"53928929-9474-4fc8-8086-ed3a647766e9","system_id":"levelo_inurba_marseille","lat":43.295713,"lon":5.399639,"is_reserved":false,"is_disabled":false,"rental_uris":{"android":"levelo://app?vid=53928929-9474-4fc8-8086-ed3a647766e9","ios":"levelo://app?vid=53928929-9474-4fc8-8086-ed3a647766e9"},"vehicle_type_id":"4","last_reported":1684955109,"current_range_meters":10800,"station_id":"ce4bh312rcd13ifvqdj0","pricing_plan_id":"free"},{"bike_id":"42a13cdf-13a9-4ce4-a24d-ebf771d05fe6","system_id":"levelo_inurba_marseille","lat":43.286595,"lon":5.386795,"is_reserved":false,"is_disabled":false,"rental_uris":{"android":"levelo://app?vid=42a13cdf-13a9-4ce4-a24d-ebf771d05fe6","ios":"levelo://app?vid=42a13cdf-13a9-4ce4-a24d-ebf771d05fe6"},"vehicle_type_id":"4","last_reported":1684955109,"current_range_meters":13200,"station_id":"ce4bh492rcd13ifvqdug","pricing_plan_id":"free"},{"bike_id":"acffb9b0-8a24-469a-b73d-48d34fcbcf9a","system_id":"levelo_inurba_marseille","lat":43.286595,"lon":5.386795,"is_reserved":false,"is_disabled":false,"rental_uris":{"android":"levelo://app?vid=acffb9b0-8a24-469a-b73d-48d34fcbcf9a","ios":"levelo://app?vid=acffb9b0-8a24-469a-b73d-48d34fcbcf9a"},"vehicle_type_id":"4","last_reported":1684955109,"current_range_meters":800,"station_id":"ce4bh492rcd13ifvqdug","pricing_plan_id":"free"},{"bike_id":"eae64128-8e47-4994-8741-7efdc2efbcc4","system_id":"levelo_inurba_marseille","lat":43.286595,"lon":5.386795,"is_reserved":false,"is_disabled":false,"rental_uris":{"android":"levelo://app?vid=eae64128-8e47-4994-8741-7efdc2efbcc4","ios":"levelo://app?vid=eae64128-8e47-4994-8741-7efdc2efbcc4"},"vehicle_type_id":"4","last_reported":1684955109,"current_range_meters":8000,"station_id":"ce4bh492rcd13ifvqdug","pricing_plan_id":"free"},{"bike_id":"d0248441-1b9c-410f-918e-bda3250b3bf5","system_id":"levelo_inurba_marseille","lat":43.323464,"lon":5.406297,"is_reserved":false,"is_disabled":false,"rental_uris":{"android":"levelo://app?vid=d0248441-1b9c-410f-918e-bda3250b3bf5","ios":"levelo://app?vid=d0248441-1b9c-410f-918e-bda3250b3bf5"},"vehicle_type_id":"4","last_reported":1684955109,"current_range_meters":5200,"station_id":"ce4bhq92rcd13ifvqhjg","pricing_plan_id":"free"},{"bike_id":"edacfbfb-08a1-4873-b142-1e75568979bf","system_id":"levelo_inurba_marseille","lat":43.288497,"lon":5.393089,"is_reserved":false,"is_disabled":false,"rental_uris":{"android":"levelo://app?vid=edacfbfb-08a1-4873-b142-1e75568979bf","ios":"levelo://app?vid=edacfbfb-08a1-4873-b142-1e75568979bf"},"vehicle_type_id":"4","last_reported":1684955109,"current_range_meters":17200,"station_id":"ce4bh2p2rcd13ifvqdi0","pricing_plan_id":"free"},{"bike_id":"eeeaa4a7-f4e4-4212-aa66-67ce60e323cf","system_id":"levelo_inurba_marseille","lat":43.288497,"lon":5.393089,"is_reserved":false,"is_disabled":false,"rental_uris":{"android":"levelo://app?vid=eeeaa4a7-f4e4-4212-aa66-67ce60e323cf","ios":"levelo://app?vid=eeeaa4a7-f4e4-4212-aa66-67ce60e323cf"},"vehicle_type_id":"4","last_reported":1684955109,"current_range_meters":16400,"station_id":"ce4bh2p2rcd13ifvqdi0","pricing_plan_id":"free"},{"bike_id":"7fc184c6-d04c-4808-bdb2-3f14e38f4994","system_id":"levelo_inurba_marseille","lat":43.288497,"lon":5.393089,"is_reserved":false,"is_disabled":false,"rental_uris":{"android":"levelo://app?vid=7fc184c6-d04c-4808-bdb2-3f14e38f4994","ios":"levelo://app?vid=7fc184c6-d04c-4808-bdb2-3f14e38f4994"},"vehicle_type_id":"4","last_reported":1684955109,"current_range_meters":29200,"station_id":"ce4bh2p2rcd13ifvqdi0","pricing_plan_id":"free"},{"bike_id":"26ffde0c-f5f4-4a31-b307-21ffa6bdff64","system_id":"levelo_inurba_marseille","lat":43.288497,"lon":5.393089,"is_reserved":false,"is_disabled":false,"rental_uris":{"android":"levelo://app?vid=26ffde0c-f5f4-4a31-b307-21ffa6bdff64","ios":"levelo://app?vid=26ffde0c-f5f4-4a31-b307-21ffa6bdff64"},"vehicle_type_id":"4","last_reported":1684955109,"current_range_meters":12400,"station_id":"ce4bh2p2rcd13ifvqdi0","pricing_plan_id":"free"},{"bike_id":"885a207a-973e-4e7c-9dad-408871fb2f47","system_id":"levelo_inurba_marseille","lat":43.288497,"lon":5.393089,"is_reserved":false,"is_disabled":false,"rental_uris":{"android":"levelo://app?vid=885a207a-973e-4e7c-9dad-408871fb2f47","ios":"levelo://app?vid=885a207a-973e-4e7c-9dad-408871fb2f47"},"vehicle_type_id":"4","last_reported":1684955109,"current_range_meters":14000,"station_id":"ce4bh2p2rcd13ifvqdi0","pricing_plan_id":"free"},{"bike_id":"f4a74ad5-db8e-40be-a55e-736315cf8c94","system_id":"levelo_inurba_marseille","lat":43.288497,"lon":5.393089,"is_reserved":false,"is_disabled":false,"rental_uris":{"android":"levelo://app?vid=f4a74ad5-db8e-40be-a55e-736315cf8c94","ios":"levelo://app?vid=f4a74ad5-db8e-40be-a55e-736315cf8c94"},"vehicle_type_id":"4","last_reported":1684955109,"current_range_meters":2400,"station_id":"ce4bh2p2rcd13ifvqdi0","pricing_plan_id":"free"},{"bike_id":"e1f081f3-5076-4d7e-83b3-6984bb542194","system_id":"levelo_inurba_marseille","lat":43.288497,"lon":5.393089,"is_reserved":false,"is_disabled":false,"rental_uris":{"android":"levelo://app?vid=e1f081f3-5076-4d7e-83b3-6984bb542194","ios":"levelo://app?vid=e1f081f3-5076-4d7e-83b3-6984bb542194"},"vehicle_type_id":"4","last_reported":1684955109,"current_range_meters":7600,"station_id":"ce4bh2p2rcd13ifvqdi0","pricing_plan_id":"free"},{"bike_id":"875a522a-d03e-4a09-9ae1-f47cd032df6d","system_id":"levelo_inurba_marseille","lat":43.288501,"lon":5.393087,"is_reserved":false,"is_disabled":false,"rental_uris":{"android":"levelo://app?vid=875a522a-d03e-4a09-9ae1-f47cd032df6d","ios":"levelo://app?vid=875a522a-d03e-4a09-9ae1-f47cd032df6d"},"vehicle_type_id":"4","last_reported":1684955109,"current_range_meters":13600,"station_id":"ce4bh2p2rcd13ifvqdi0","pricing_plan_id":"free"},{"bike_id":"039c3624-8773-46f5-9c68-a730bb9a84be","system_id":"levelo_inurba_marseille","lat":43.288501,"lon":5.393087,"is_reserved":false,"is_disabled":false,"rental_uris":{"android":"levelo://app?vid=039c3624-8773-46f5-9c68-a730bb9a84be","ios":"levelo://app?vid=039c3624-8773-46f5-9c68-a730bb9a84be"},"vehicle_type_id":"4","last_reported":1684955109,"current_range_meters":9600,"station_id":"ce4bh2p2rcd13ifvqdi0","pricing_plan_id":"free"},{"bike_id":"a813749d-5b2a-4e6c-9171-9b7369681151","system_id":"levelo_inurba_marseille","lat":43.283494,"lon":5.380945,"is_reserved":false,"is_disabled":false,"rental_uris":{"android":"levelo://app?vid=a813749d-5b2a-4e6c-9171-9b7369681151","ios":"levelo://app?vid=a813749d-5b2a-4e6c-9171-9b7369681151"},"vehicle_type_id":"4","last_reported":1684955109,"current_range_meters":10400,"station_id":"ce4bh412rcd13ifvqdr0","pricing_plan_id":"free"},{"bike_id":"e916c3b3-6d03-4211-b9c6-5d329f297eed","system_id":"levelo_inurba_marseille","lat":43.283498,"lon":5.380948,"is_reserved":false,"is_disabled":false,"rental_uris":{"android":"levelo://app?vid=e916c3b3-6d03-4211-b9c6-5d329f297eed","ios":"levelo://app?vid=e916c3b3-6d03-4211-b9c6-5d329f297eed"},"vehicle_type_id":"4","last_reported":1684955109,"current_range_meters":21600,"station_id":"ce4bh412rcd13ifvqdr0","pricing_plan_id":"free"},{"bike_id":"adcf04be-249b-4bbe-9201-8712334850c2","system_id":"levelo_inurba_marseille","lat":43.295196,"lon":5.39397,"is_reserved":false,"is_disabled":false,"rental_uris":{"android":"levelo://app?vid=adcf04be-249b-4bbe-9201-8712334850c2","ios":"levelo://app?vid=adcf04be-249b-4bbe-9201-8712334850c2"},"vehicle_type_id":"4","last_reported":1684955109,"current_range_meters":0,"station_id":"ce4bh292rcd13ifvqdf0","pricing_plan_id":"free"},{"bike_id":"21759759-4f88-41ca-ba56-fcdb77414426","system_id":"levelo_inurba_marseille","lat":43.28939,"lon":5.39633,"is_reserved":false,"is_disabled":false,"rental_uris":{"android":"levelo://app?vid=21759759-4f88-41ca-ba56-fcdb77414426","ios":"levelo://app?vid=21759759-4f88-41ca-ba56-fcdb77414426"},"vehicle_type_id":"4","last_reported":1684955109,"current_range_meters":17200,"station_id":"ce4bh3h2rcd13ifvqdn0","pricing_plan_id":"free"},{"bike_id":"e8e7aa4a-dec7-46cc-b626-2f2953f37877","system_id":"levelo_inurba_marseille","lat":43.29272,"lon":5.40121,"is_reserved":false,"is_disabled":false,"rental_uris":{"android":"levelo://app?vid=e8e7aa4a-dec7-46cc-b626-2f2953f37877","ios":"levelo://app?vid=e8e7aa4a-dec7-46cc-b626-2f2953f37877"},"vehicle_type_id":"4","last_reported":1684955109,"current_range_meters":0,"station_id":"ce4bh312rcd13ifvqdk0","pricing_plan_id":"free"},{"bike_id":"449705af-2e0c-4088-8574-82fc935231a4","system_id":"levelo_inurba_marseille","lat":43.282754,"lon":5.350519,"is_reserved":false,"is_disabled":false,"rental_uris":{"android":"levelo://app?vid=449705af-2e0c-4088-8574-82fc935231a4","ios":"levelo://app?vid=449705af-2e0c-4088-8574-82fc935231a4"},"vehicle_type_id":"4","last_reported":1684955109,"current_range_meters":800,"station_id":"ce4bhbp2rcd13ifvqerg","pricing_plan_id":"free"},{"bike_id":"2ef06e89-eccf-4f50-80b3-2d5632a4f769","system_id":"levelo_inurba_marseille","lat":43.283502,"lon":5.386471,"is_reserved":false,"is_disabled":false,"rental_uris":{"android":"levelo://app?vid=2ef06e89-eccf-4f50-80b3-2d5632a4f769","ios":"levelo://app?vid=2ef06e89-eccf-4f50-80b3-2d5632a4f769"},"vehicle_type_id":"4","last_reported":1684955109,"current_range_meters":21600,"station_id":"ce4bh492rcd13ifvqdvg","pricing_plan_id":"free"},{"bike_id":"961dd57f-b1ad-4b91-998e-0db8bfd27164","system_id":"levelo_inurba_marseille","lat":43.282754,"lon":5.350519,"is_reserved":false,"is_disabled":false,"rental_uris":{"android":"levelo://app?vid=961dd57f-b1ad-4b91-998e-0db8bfd27164","ios":"levelo://app?vid=961dd57f-b1ad-4b91-998e-0db8bfd27164"},"vehicle_type_id":"4","last_reported":1684955109,"current_range_meters":4400,"station_id":"ce4bhbp2rcd13ifvqerg","pricing_plan_id":"free"},{"bike_id":"37fd49b2-588c-4447-9d9b-6b4712854f71","system_id":"levelo_inurba_marseille","lat":43.28272,"lon":5.35063,"is_reserved":false,"is_disabled":false,"rental_uris":{"android":"levelo://app?vid=37fd49b2-588c-4447-9d9b-6b4712854f71","ios":"levelo://app?vid=37fd49b2-588c-4447-9d9b-6b4712854f71"},"vehicle_type_id":"4","last_reported":1684955109,"current_range_meters":4000,"station_id":"ce4bhbp2rcd13ifvqerg","pricing_plan_id":"free"},{"bike_id":"142b3b2b-02d9-4b52-9093-c5cbd477041d","system_id":"levelo_inurba_marseille","lat":43.282744,"lon":5.350533,"is_reserved":false,"is_disabled":false,"rental_uris":{"android":"levelo://app?vid=142b3b2b-02d9-4b52-9093-c5cbd477041d","ios":"levelo://app?vid=142b3b2b-02d9-4b52-9093-c5cbd477041d"},"vehicle_type_id":"4","last_reported":1684955109,"current_range_meters":0,"station_id":"ce4bhbp2rcd13ifvqerg","pricing_plan_id":"free"},{"bike_id":"f186789f-5752-4ed8-b9cb-95c13df7bf52","system_id":"levelo_inurba_marseille","lat":43.282754,"lon":5.350519,"is_reserved":false,"is_disabled":false,"rental_uris":{"android":"levelo://app?vid=f186789f-5752-4ed8-b9cb-95c13df7bf52","ios":"levelo://app?vid=f186789f-5752-4ed8-b9cb-95c13df7bf52"},"vehicle_type_id":"4","last_reported":1684955109,"current_range_meters":14400,"station_id":"ce4bhbp2rcd13ifvqerg","pricing_plan_id":"free"},{"bike_id":"9d4c8ae6-b23d-4a4e-aaec-151e32ae3fe6","system_id":"levelo_inurba_marseille","lat":43.28043,"lon":5.36941,"is_reserved":false,"is_disabled":false,"rental_uris":{"android":"levelo://app?vid=9d4c8ae6-b23d-4a4e-aaec-151e32ae3fe6","ios":"levelo://app?vid=9d4c8ae6-b23d-4a4e-aaec-151e32ae3fe6"},"vehicle_type_id":"4","last_reported":1684955109,"current_range_meters":28800,"station_id":"ce4bha12rcd13ifvqef0","pricing_plan_id":"free"},{"bike_id":"4d86ce40-e406-44d0-9e2e-59dcfae65e59","system_id":"levelo_inurba_marseille","lat":43.29041,"lon":5.39947,"is_reserved":false,"is_disabled":false,"rental_uris":{"android":"levelo://app?vid=4d86ce40-e406-44d0-9e2e-59dcfae65e59","ios":"levelo://app?vid=4d86ce40-e406-44d0-9e2e-59dcfae65e59"},"vehicle_type_id":"4","last_reported":1684955109,"current_range_meters":6800,"station_id":"ce4bh392rcd13ifvqdm0","pricing_plan_id":"free"},{"bike_id":"41d3e69b-4dbc-4401-9845-20c1b37f0c2e","system_id":"levelo_inurba_marseille","lat":43.281044,"lon":5.378308,"is_reserved":false,"is_disabled":false,"rental_uris":{"android":"levelo://app?vid=41d3e69b-4dbc-4401-9845-20c1b37f0c2e","ios":"levelo://app?vid=41d3e69b-4dbc-4401-9845-20c1b37f0c2e"},"vehicle_type_id":"4","last_reported":1684955109,"current_range_meters":0,"station_id":"ce4bha12rcd13ifvqee0","pricing_plan_id":"free"},{"bike_id":"ba83312c-fff7-4281-bfb8-dcbd4b965779","system_id":"levelo_inurba_marseille","lat":43.28107,"lon":5.37841,"is_reserved":false,"is_disabled":false,"rental_uris":{"android":"levelo://app?vid=ba83312c-fff7-4281-bfb8-dcbd4b965779","ios":"levelo://app?vid=ba83312c-fff7-4281-bfb8-dcbd4b965779"},"vehicle_type_id":"4","last_reported":1684955109,"current_range_meters":15600,"station_id":"ce4bha12rcd13ifvqee0","pricing_plan_id":"free"},{"bike_id":"4ea53bce-e495-4d61-83f5-f9493778f854","system_id":"levelo_inurba_marseille","lat":43.28106,"lon":5.3784,"is_reserved":false,"is_disabled":false,"rental_uris":{"android":"levelo://app?vid=4ea53bce-e495-4d61-83f5-f9493778f854","ios":"levelo://app?vid=4ea53bce-e495-4d61-83f5-f9493778f854"},"vehicle_type_id":"4","last_reported":1684955109,"current_range_meters":25200,"station_id":"ce4bha12rcd13ifvqee0","pricing_plan_id":"free"},{"bike_id":"5545637c-c624-4606-86b7-8ccf489fe7de","system_id":"levelo_inurba_marseille","lat":43.28105,"lon":5.3784,"is_reserved":false,"is_disabled":false,"rental_uris":{"android":"levelo://app?vid=5545637c-c624-4606-86b7-8ccf489fe7de","ios":"levelo://app?vid=5545637c-c624-4606-86b7-8ccf489fe7de"},"vehicle_type_id":"4","last_reported":1684955109,"current_range_meters":6400,"station_id":"ce4bha12rcd13ifvqee0","pricing_plan_id":"free"},{"bike_id":"18da1b54-aad4-49b7-a073-6e23e23c4e72","system_id":"levelo_inurba_marseille","lat":43.28101,"lon":5.37832,"is_reserved":false,"is_disabled":false,"rental_uris":{"android":"levelo://app?vid=18da1b54-aad4-49b7-a073-6e23e23c4e72","ios":"levelo://app?vid=18da1b54-aad4-49b7-a073-6e23e23c4e72"},"vehicle_type_id":"4","last_reported":1684955109,"current_range_meters":4400,"station_id":"ce4bha12rcd13ifvqee0","pricing_plan_id":"free"},{"bike_id":"b48032db-9416-4c3d-a5be-9d289d3dac51","system_id":"levelo_inurba_marseille","lat":43.281044,"lon":5.378308,"is_reserved":false,"is_disabled":false,"rental_uris":{"android":"levelo://app?vid=b48032db-9416-4c3d-a5be-9d289d3dac51","ios":"levelo://app?vid=b48032db-9416-4c3d-a5be-9d289d3dac51"},"vehicle_type_id":"4","last_reported":1684955109,"current_range_meters":12800,"station_id":"ce4bha12rcd13ifvqee0","pricing_plan_id":"free"},{"bike_id":"aee150d1-e42c-4b43-b2ed-d67c33a4a29b","system_id":"levelo_inurba_marseille","lat":43.281044,"lon":5.378308,"is_reserved":false,"is_disabled":false,"rental_uris":{"android":"levelo://app?vid=aee150d1-e42c-4b43-b2ed-d67c33a4a29b","ios":"levelo://app?vid=aee150d1-e42c-4b43-b2ed-d67c33a4a29b"},"vehicle_type_id":"4","last_reported":1684955109,"current_range_meters":9600,"station_id":"ce4bha12rcd13ifvqee0","pricing_plan_id":"free"},{"bike_id":"1d857e33-cede-4d15-9472-00614c5bd1c6","system_id":"levelo_inurba_marseille","lat":43.284462,"lon":5.392121,"is_reserved":false,"is_disabled":false,"rental_uris":{"android":"levelo://app?vid=1d857e33-cede-4d15-9472-00614c5bd1c6","ios":"levelo://app?vid=1d857e33-cede-4d15-9472-00614c5bd1c6"},"vehicle_type_id":"4","last_reported":1684955109,"current_range_meters":26400,"station_id":"ce4bhoh2rcd13ifvqh5g","pricing_plan_id":"free"},{"bike_id":"1a2b1552-01c6-4cff-8d64-5514bb1ab31b","system_id":"levelo_inurba_marseille","lat":43.284462,"lon":5.392121,"is_reserved":false,"is_disabled":false,"rental_uris":{"android":"levelo://app?vid=1a2b1552-01c6-4cff-8d64-5514bb1ab31b","ios":"levelo://app?vid=1a2b1552-01c6-4cff-8d64-5514bb1ab31b"},"vehicle_type_id":"4","last_reported":1684955109,"current_range_meters":13200,"station_id":"ce4bhoh2rcd13ifvqh5g","pricing_plan_id":"free"},{"bike_id":"6e97f88f-8233-4a66-a85f-95215a760106","system_id":"levelo_inurba_marseille","lat":43.28573,"lon":5.394992,"is_reserved":false,"is_disabled":false,"rental_uris":{"android":"levelo://app?vid=6e97f88f-8233-4a66-a85f-95215a760106","ios":"levelo://app?vid=6e97f88f-8233-4a66-a85f-95215a760106"},"vehicle_type_id":"4","last_reported":1684955109,"current_range_meters":23600,"station_id":"ce4bh292rcd13ifvqdg0","pricing_plan_id":"free"},{"bike_id":"e729c5ee-8890-4c34-89ef-7a728eeac08b","system_id":"levelo_inurba_marseille","lat":43.28573,"lon":5.394992,"is_reserved":false,"is_disabled":false,"rental_uris":{"android":"levelo://app?vid=e729c5ee-8890-4c34-89ef-7a728eeac08b","ios":"levelo://app?vid=e729c5ee-8890-4c34-89ef-7a728eeac08b"},"vehicle_type_id":"4","last_reported":1684955109,"current_range_meters":12800,"station_id":"ce4bh292rcd13ifvqdg0","pricing_plan_id":"free"},{"bike_id":"71781605-4b3e-4eea-abfa-f905ec85cfda","system_id":"levelo_inurba_marseille","lat":43.304188,"lon":5.412904,"is_reserved":false,"is_disabled":false,"rental_uris":{"android":"levelo://app?vid=71781605-4b3e-4eea-abfa-f905ec85cfda","ios":"levelo://app?vid=71781605-4b3e-4eea-abfa-f905ec85cfda"},"vehicle_type_id":"4","last_reported":1684955109,"current_range_meters":8000,"station_id":"ce4bhop2rcd13ifvqh8g","pricing_plan_id":"free"},{"bike_id":"9d9bb60e-093b-4dc5-ae41-55dc521659a9","system_id":"levelo_inurba_marseille","lat":43.34715,"lon":5.36848,"is_reserved":false,"is_disabled":false,"rental_uris":{"android":"levelo://app?vid=9d9bb60e-093b-4dc5-ae41-55dc521659a9","ios":"levelo://app?vid=9d9bb60e-093b-4dc5-ae41-55dc521659a9"},"vehicle_type_id":"4","last_reported":1684955109,"current_range_meters":2400,"station_id":"","pricing_plan_id":"free"},{"bike_id":"c5a82e3e-3e0b-4876-bec5-2a0f536158d5","system_id":"levelo_inurba_marseille","lat":43.30422,"lon":5.41279,"is_reserved":false,"is_disabled":false,"rental_uris":{"android":"levelo://app?vid=c5a82e3e-3e0b-4876-bec5-2a0f536158d5","ios":"levelo://app?vid=c5a82e3e-3e0b-4876-bec5-2a0f536158d5"},"vehicle_type_id":"4","last_reported":1684955109,"current_range_meters":3200,"station_id":"ce4bhop2rcd13ifvqh8g","pricing_plan_id":"free"},