{"last_updated":1761622554,"ttl":60,"version":"2.2","data":{"bikes":[{"bike_id":"b5b62287-d3ee-447e-9fe2-9f2b8112a684","system_id":"levelo_inurba_marseille","lat":43.212,"lon":5.35079,"is_reserved":false,"is_disabled":true,"rental_uris":{"android":"levelo://app?vid=b5b62287-d3ee-447e-9fe2-9f2b8112a684","ios":"levelo://app?vid=b5b62287-d3ee-447e-9fe2-9f2b8112a684"},"vehicle_type_id":"4","last_reported":1761622554,"current_range_meters":2800,"station_id":"","pricing_plan_id":"cebpf4jnsgd1na2vs0mg"},{"bike_id":"e6555b31-0966-4654-b0ec-95b569070487","system_id":"levelo_inurba_marseille","lat":43.309308,"lon":5.401348,"is_reserved":false,"is_disabled":false,"rental_uris":{"android":"levelo://app?vid=e6555b31-0966-4654-b0ec-95b569070487","ios":"levelo://app?vid=e6555b31-0966-4654-b0ec-95b569070487"},"vehicle_type_id":"4","last_reported":1761622554,"current_range_meters":3200,"station_id":"ce4bhp12rcd13ifvqh9g","pricing_plan_id":"cebpf4jnsgd1na2vs0mg"},{"bike_id":"6685b72d-bc6c-4473-970f-cfe39ccfd2f4","system_id":"levelo_inurba_marseille","lat":43.28344,"lon":5.38099,"is_reserved":false,"is_disabled":false,"rental_uris":{"android":"levelo://app?vid=6685b72d-bc6c-4473-970f-cfe39ccfd2f4","ios":"levelo://app?vid=6685b72d-bc6c-4473-970f-cfe39ccfd2f4"},"vehicle_type_id":"4","last_reported":1761622554,"current_range_meters":3200,"station_id":"ce4bh412rcd13ifvqdr0","pricing_plan_id":"cebpf4jnsgd1na2vs0mg"},{"bike_id":"e1aa20f8-799a-4567-bfd0-31e71eee617f","system_id":"levelo_inurba_marseille","lat":43.31437,"lon":5.38885,"is_reserved":false,"is_disabled":true,"rental_uris":{"android":"levelo://app?vid=e1aa20f8-799a-4567-bfd0-31e71eee617f","ios":"levelo://app?vid=e1aa20f8-799a-4567-bfd0-31e71eee617f"},"vehicle_type_id":"4","last_reported":1761622554,"current_range_meters":4400,"station_id":"","pricing_plan_id":"cebpf4jnsgd1na2vs0mg"},{"bike_id":"778c5aa6-d083-47d6-97fb-ffbc29c8cba0","system_id":"levelo_inurba_marseille","lat":43.24638,"lon":5.43153,"is_reserved":false,"is_disabled":false,"rental_uris":{"android":"levelo://app?vid=778c5aa6-d083-47d6-97fb-ffbc29c8cba0","ios":"levelo://app?vid=778c5aa6-d083-47d6-97fb-ffbc29c8cba0"},"vehicle_type_id":"4","last_reported":1761622554,"current_range_meters":4400,"station_id":"st_d2m6c4gdas8pm72e190g","pricing_plan_id":"cebpf4jnsgd1na2vs0mg"},{"bike_id":"4c90d9f1-f8e1-4645-a95e-881f88d371be","system_id":"levelo_inurba_marseille","lat":43.29899,"lon":5.38463,"is_reserved":false,"is_disabled":false,"rental_uris":{"android":"levelo://app?vid=4c90d9f1-f8e1-4645-a95e-881f88d371be","ios":"levelo://app?vid=4c90d9f1-f8e1-4645-a95e-881f88d371be"},"vehicle_type_id":"4","last_reported":1761622554,"current_range_meters":4800,"station_id":"","pricing_plan_id":"cebpf4jnsgd1na2vs0mg"},{"bike_id":"dd539c3d-8244-460c-97df-764a86a3f675","system_id":"levelo_inurba_marseille","lat":43.286285,"lon":5.359264,"is_reserved":false,"is_disabled":false,"rental_uris":{"android":"levelo://app?vid=dd539c3d-8244-460c-97df-764a86a3f675","ios":"levelo://app?vid=dd539c3d-8244-460c-97df-764a86a3f675"},"vehicle_type_id":"4","last_reported":1761622554,"current_range_meters":4800,"station_id":"","pricing_plan_id":"cebpf4jnsgd1na2vs0mg"},{"bike_id":"eec377d5-30d5-4a2b-b306-5f7476e21ff5","system_id":"levelo_inurba_marseille","lat":43.309036,"lon":5.368484,"is_reserved":false,"is_disabled":false,"rental_uris":{"android":"levelo://app?vid=eec377d5-30d5-4a2b-b306-5f7476e21ff5","ios":"levelo://app?vid=eec377d5-30d5-4a2b-b306-5f7476e21ff5"},"vehicle_type_id":"4","last_reported":1761622554,"current_range_meters":4800,"station_id":"ce4bgn92rcd13ifvqbvg","pricing_plan_id":"cebpf4jnsgd1na2vs0mg"},{"bike_id":"86480c45-7470-47af-bbc3-b3682a415d15","system_id":"levelo_inurba_marseille","lat":43.30662,"lon":5.4008,"is_reserved":false,"is_disabled":false,"rental_uris":{"android":"levelo://app?vid=86480c45-7470-47af-bbc3-b3682a415d15","ios":"levelo://app?vid=86480c45-7470-47af-bbc3-b3682a415d15"},"vehicle_type_id":"4","last_reported":1761622554,"current_range_meters":4800,"station_id":"ce4bh112rcd13ifvqda0","pricing_plan_id":"cebpf4jnsgd1na2vs0mg"},{"bike_id":"2511db91-008c-4aa3-88b0-a77624a34b5a","system_id":"levelo_inurba_marseille","lat":43.28854,"lon":5.35721,"is_reserved":false,"is_disabled":false,"rental_uris":{"android":"levelo://app?vid=2511db91-008c-4aa3-88b0-a77624a34b5a","ios":"levelo://app?vid=2511db91-008c-4aa3-88b0-a77624a34b5a"},"vehicle_type_id":"4","last_reported":1761622554,"current_range_meters":4800,"station_id":"","pricing_plan_id":"cebpf4jnsgd1na2vs0mg"},{"bike_id":"c0b81f28-bbba-4247-a74b-c55a34b31846","system_id":"levelo_inurba_marseille","lat":43.33258,"lon":5.41086,"is_reserved":false,"is_disabled":true,"rental_uris":{"android":"levelo://app?vid=c0b81f28-bbba-4247-a74b-c55a34b31846","ios":"levelo://app?vid=c0b81f28-bbba-4247-a74b-c55a34b31846"},"vehicle_type_id":"4","last_reported":1761622554,"current_range_meters":6000,"station_id":"","pricing_plan_id":"cebpf4jnsgd1na2vs0mg"},{"bike_id":"9b9e1901-d7a9-426b-9568-6a3af329dc7a","system_id":"levelo_inurba_marseille","lat":43.2409,"lon":5.40233,"is_reserved":false,"is_disabled":false,"rental_uris":{"android":"levelo://app?vid=9b9e1901-d7a9-426b-9568-6a3af329dc7a","ios":"levelo://app?vid=9b9e1901-d7a9-426b-9568-6a3af329dc7a"},"vehicle_type_id":"4","last_reported":1761622554,"current_range_meters":6000,"station_id":"","pricing_plan_id":"cebpf4jnsgd1na2vs0mg"},{"bike_id":"830b8615-b5f4-418b-a764-60a1b6252511","system_id":"levelo_inurba_marseille","lat":43.26217,"lon":5.37461,"is_reserved":false,"is_disabled":false,"rental_uris":{"android":"levelo://app?vid=830b8615-b5f4-418b-a764-60a1b6252511","ios":"levelo://app?vid=830b8615-b5f4-418b-a764-60a1b6252511"},"vehicle_type_id":"4","last_reported":1761622554,"current_range_meters":6000,"station_id":"ce4bhgp2rcd13ifvqfc0","pricing_plan_id":"cebpf4jnsgd1na2vs0mg"},{"bike_id":"4ade9d83-f2d5-4d19-a54e-74fbd9ec2b53","system_id":"levelo_inurba_marseille","lat":43.31114,"lon":5.40204,"is_reserved":false,"is_disabled":false,"rental_uris":{"android":"levelo://app?vid=4ade9d83-f2d5-4d19-a54e-74fbd9ec2b53","ios":"levelo://app?vid=4ade9d83-f2d5-4d19-a54e-74fbd9ec2b53"},"vehicle_type_id":"4","last_reported":1761622554,"current_range_meters":6000,"station_id":"","pricing_plan_id":"cebpf4jnsgd1na2vs0mg"},{"bike_id":"41d45b45-3a52-4b5a-b2b3-1e62d5490ada","system_id":"levelo_inurba_marseille","lat":43.28522,"lon":5.44103,"is_reserved":false,"is_disabled":false,"rental_uris":{"android":"levelo://app?vid=41d45b45-3a52-4b5a-b2b3-1e62d5490ada","ios":"levelo://app?vid=41d45b45-3a52-4b5a-b2b3-1e62d5490ada"},"vehicle_type_id":"4","last_reported":1761622554,"current_range_meters":6400,"station_id":"st_d3j3df2ikq2c7380ej80","pricing_plan_id":"cebpf4jnsgd1na2vs0mg"},{"bike_id":"c500b805-273b-40a5-87fe-d7feb3ca4025","system_id":"levelo_inurba_marseille","lat":43.288229,"lon":5.358517,"is_reserved":false,"is_disabled":false,"rental_uris":{"android":"levelo://app?vid=c500b805-273b-40a5-87fe-d7feb3ca4025","ios":"levelo://app?vid=c500b805-273b-40a5-87fe-d7feb3ca4025"},"vehicle_type_id":"4","last_reported":1761622554,"current_range_meters":6400,"station_id":"ce4bhb12rcd13ifvqem0","pricing_plan_id":"cebpf4jnsgd1na2vs0mg"},{"bike_id":"6503b743-ca07-42e6-9f5c-035d9bd315d0","system_id":"levelo_inurba_marseille","lat":43.284524,"lon":5.358881,"is_reserved":false,"is_disabled":false,"rental_uris":{"android":"levelo://app?vid=6503b743-ca07-42e6-9f5c-035d9bd315d0","ios":"levelo://app?vid=6503b743-ca07-42e6-9f5c-035d9bd315d0"},"vehicle_type_id":"4","last_reported":1761622554,"current_range_meters":6400,"station_id":"ce4bhah2rcd13ifvqei0","pricing_plan_id":"cebpf4jnsgd1na2vs0mg"},{"bike_id":"7a9e75ac-e42e-4b12-867a-e251014dfc8a","system_id":"levelo_inurba_marseille","lat":43.246683,"lon":5.381614,"is_reserved":false,"is_disabled":false,"rental_uris":{"android":"levelo://app?vid=7a9e75ac-e42e-4b12-867a-e251014dfc8a","ios":"levelo://app?vid=7a9e75ac-e42e-4b12-867a-e251014dfc8a"},"vehicle_type_id":"4","last_reported":1761622554,"current_range_meters":6800,"station_id":"ce4bhih2rcd13ifvqfr0","pricing_plan_id":"cebpf4jnsgd1na2vs0mg"},{"bike_id":"64b75b4a-3497-4861-8cc2-90dd62cd9f5e","system_id":"levelo_inurba_marseille","lat":43.29301,"lon":5.434505,"is_reserved":false,"is_disabled":false,"rental_uris":{"android":"levelo://app?vid=64b75b4a-3497-4861-8cc2-90dd62cd9f5e","ios":"levelo://app?vid=64b75b4a-3497-4861-8cc2-90dd62cd9f5e"},"vehicle_type_id":"4","last_reported":1761622554,"current_range_meters":6800,"station_id":"","pricing_plan_id":"cebpf4jnsgd1na2vs0mg"},{"bike_id":"de5cece4-6186-4ccb-b70e-a25e8bd3fc86","system_id":"levelo_inurba_marseille","lat":43.337444,"lon":5.374475,"is_reserved":false,"is_disabled":false,"rental_uris":{"android":"levelo://app?vid=de5cece4-6186-4ccb-b70e-a25e8bd3fc86","ios":"levelo://app?vid=de5cece4-6186-4ccb-b70e-a25e8bd3fc86"},"vehicle_type_id":"4","last_reported":1761622554,"current_range_meters":6800,"station_id":"","pricing_plan_id":"cebpf4jnsgd1na2vs0mg"},{"bike_id":"e4ccce50-4824-4895-aa8c-033835526f23","system_id":"levelo_inurba_marseille","lat":43.3188,"lon":5.39997,"is_reserved":false,"is_disabled":false,"rental_uris":{"android":"levelo://app?vid=e4ccce50-4824-4895-aa8c-033835526f23","ios":"levelo://app?vid=e4ccce50-4824-4895-aa8c-033835526f23"},"vehicle_type_id":"4","last_reported":1761622554,"current_range_meters":7200,"station_id":"","pricing_plan_id":"cebpf4jnsgd1na2vs0mg"},{"bike_id":"8847af5d-c1ad-4d8d-a5c1-273c3b41c105","system_id":"levelo_inurba_marseille","lat":43.32249,"lon":5.41974,"is_reserved":false,"is_disabled":false,"rental_uris":{"android":"levelo://app?vid=8847af5d-c1ad-4d8d-a5c1-273c3b41c105","ios":"levelo://app?vid=8847af5d-c1ad-4d8d-a5c1-273c3b41c105"},"vehicle_type_id":"4","last_reported":1761622554,"current_range_meters":8000,"station_id":"","pricing_plan_id":"cebpf4jnsgd1na2vs0mg"},{"bike_id":"ca207ec1-3c7c-4bc9-a489-74e664507542","system_id":"levelo_inurba_marseille","lat":43.24635,"lon":5.4316,"is_reserved":false,"is_disabled":false,"rental_uris":{"android":"levelo://app?vid=ca207ec1-3c7c-4bc9-a489-74e664507542","ios":"levelo://app?vid=ca207ec1-3c7c-4bc9-a489-74e664507542"},"vehicle_type_id":"4","last_reported":1761622554,"current_range_meters":8000,"station_id":"st_d2m6c4gdas8pm72e190g","pricing_plan_id":"cebpf4jnsgd1na2vs0mg"},{"bike_id":"807c45e1-c444-4655-84cd-f1adc343f75a","system_id":"levelo_inurba_marseille","lat":43.30327,"lon":5.40446,"is_reserved":false,"is_disabled":false,"rental_uris":{"android":"levelo://app?vid=807c45e1-c444-4655-84cd-f1adc343f75a","ios":"levelo://app?vid=807c45e1-c444-4655-84cd-f1adc343f75a"},"vehicle_type_id":"4","last_reported":1761622554,"current_range_meters":8000,"station_id":"ce4bh012rcd13ifvqd10","pricing_plan_id":"cebpf4jnsgd1na2vs0mg"},{"bike_id":"4f08e88b-0cde-493b-bef9-f5e86e069fae","system_id":"levelo_inurba_marseille","lat":43.28571,"lon":5.39495,"is_reserved":false,"is_disabled":false,"rental_uris":{"android":"levelo://app?vid=4f08e88b-0cde-493b-bef9-f5e86e069fae","ios":"levelo://app?vid=4f08e88b-0cde-493b-bef9-f5e86e069fae"},"vehicle_type_id":"4","last_reported":1761622554,"current_range_meters":8000,"station_id":"ce4bh292rcd13ifvqdg0","pricing_plan_id":"cebpf4jnsgd1na2vs0mg"},{"bike_id":"5f246e82-c670-465f-938e-2af9701fc24b","system_id":"levelo_inurba_marseille","lat":43.25085,"lon":5.39522,"is_reserved":false,"is_disabled":false,"rental_uris":{"android":"levelo://app?vid=5f246e82-c670-465f-938e-2af9701fc24b","ios":"levelo://app?vid=5f246e82-c670-465f-938e-2af9701fc24b"},"vehicle_type_id":"4","last_reported":1761622554,"current_range_meters":8000,"station_id":"ce4bhm12rcd13ifvqgkg","pricing_plan_id":"cebpf4jnsgd1na2vs0mg"},{"bike_id":"f9a5da86-4720-4169-ac0d-2310b363c678","system_id":"levelo_inurba_marseille","lat":43.27062,"lon":5.4027,"is_reserved":false,"is_disabled":false,"rental_uris":{"android":"levelo://app?vid=f9a5da86-4720-4169-ac0d-2310b363c678","ios":"levelo://app?vid=f9a5da86-4720-4169-ac0d-2310b363c678"},"vehicle_type_id":"4","last_reported":1761622554,"current_range_meters":8000,"station_id":"ce4bhk92rcd13ifvqgc0","pricing_plan_id":"cebpf4jnsgd1na2vs0mg"},{"bike_id":"1c14c75e-ac01-4bd4-a136-f18ead4fa87e","system_id":"levelo_inurba_marseille","lat":43.28696,"lon":5.37937,"is_reserved":false,"is_disabled":false,"rental_uris":{"android":"levelo://app?vid=1c14c75e-ac01-4bd4-a136-f18ead4fa87e","ios":"levelo://app?vid=1c14c75e-ac01-4bd4-a136-f18ead4fa87e"},"vehicle_type_id":"4","last_reported":1761622554,"current_range_meters":8400,"station_id":"","pricing_plan_id":"cebpf4jnsgd1na2vs0mg"},{"bike_id":"74ad1e51-e842-41b7-aab9-70c940e25f55","system_id":"levelo_inurba_marseille","lat":43.2176,"lon":5.34597,"is_reserved":false,"is_disabled":true,"rental_uris":{"android":"levelo://app?vid=74ad1e51-e842-41b7-aab9-70c940e25f55","ios":"levelo://app?vid=74ad1e51-e842-41b7-aab9-70c940e25f55"},"vehicle_type_id":"4","last_reported":1761622554,"current_range_meters":8400,"station_id":"st_cvj6r9ubvosntc0bgbag","pricing_plan_id":"cebpf4jnsgd1na2vs0mg"},{"bike_id":"6ecb32bc-38dd-44c6-b37a-b4c841e75453","system_id":"levelo_inurba_marseille","lat":43.3106,"lon":5.38356,"is_reserved":false,"is_disabled":false,"rental_uris":{"android":"levelo://app?vid=6ecb32bc-38dd-44c6-b37a-b4c841e75453","ios":"levelo://app?vid=6ecb32bc-38dd-44c6-b37a-b4c841e75453"},"vehicle_type_id":"4","last_reported":1761622554,"current_range_meters":8400,"station_id":"ce4bgv92rcd13ifvqcr0","pricing_plan_id":"cebpf4jnsgd1na2vs0mg"},{"bike_id":"347eb2db-1df7-4746-bdc8-5c9e2c4e7281","system_id":"levelo_inurba_marseille","lat":43.29748,"lon":5.42787,"is_reserved":false,"is_disabled":false,"rental_uris":{"android":"levelo://app?vid=347eb2db-1df7-4746-bdc8-5c9e2c4e7281","ios":"levelo://app?vid=347eb2db-1df7-4746-bdc8-5c9e2c4e7281"},"vehicle_type_id":"4","last_reported":1761622554,"current_range_meters":8400,"station_id":"st_d3md5207bmas73dh9klg","pricing_plan_id":"cebpf4jnsgd1na2vs0mg"},{"bike_id":"7348219f-62a2-4f61-9dc3-4c6ae6e126f0","system_id":"levelo_inurba_marseille","lat":43.33746,"lon":5.37457,"is_reserved":false,"is_disabled":false,"rental_uris":{"android":"levelo://app?vid=7348219f-62a2-4f61-9dc3-4c6ae6e126f0","ios":"levelo://app?vid=7348219f-62a2-4f61-9dc3-4c6ae6e126f0"},"vehicle_type_id":"4","last_reported":1761622554,"current_range_meters":8800,"station_id":"","pricing_plan_id":"cebpf4jnsgd1na2vs0mg"},{"bike_id":"b7674e07-d432-49cf-b4f0-255b9d9c7e13","system_id":"levelo_inurba_marseille","lat":43.29615,"lon":5.38108,"is_reserved":false,"is_disabled":false,"rental_uris":{"android":"levelo://app?vid=b7674e07-d432-49cf-b4f0-255b9d9c7e13","ios":"levelo://app?vid=b7674e07-d432-49cf-b4f0-255b9d9c7e13"},"vehicle_type_id":"4","last_reported":1761622554,"current_range_meters":8800,"station_id":"ce4bgl12rcd13ifvqbo0","pricing_plan_id":"cebpf4jnsgd1na2vs0mg"},{"bike_id":"02ad6a69-948e-4714-ab05-a0ff6b80ef20","system_id":"levelo_inurba_marseille","lat":43.27913,"lon":5.39577,"is_reserved":false,"is_disabled":false,"rental_uris":{"android":"levelo://app?vid=02ad6a69-948e-4714-ab05-a0ff6b80ef20","ios":"levelo://app?vid=02ad6a69-948e-4714-ab05-a0ff6b80ef20"},"vehicle_type_id":"4","last_reported":1761622554,"current_range_meters":8800,"station_id":"ce4bhf92rcd13ifvqf40","pricing_plan_id":"cebpf4jnsgd1na2vs0mg"},{"bike_id":"a91ed2f9-870b-4c37-bf0a-cc5a26a905b3","system_id":"levelo_inurba_marseille","lat":43.281541,"lon":5.426535,"is_reserved":false,"is_disabled":false,"rental_uris":{"android":"levelo://app?vid=a91ed2f9-870b-4c37-bf0a-cc5a26a905b3","ios":"levelo://app?vid=a91ed2f9-870b-4c37-bf0a-cc5a26a905b3"},"vehicle_type_id":"4","last_reported":1761622554,"current_range_meters":8800,"station_id":"ce4bhnh2rcd13ifvqgug","pricing_plan_id":"cebpf4jnsgd1na2vs0mg"},{"bike_id":"4f63152a-dea2-453b-ac98-3edf8a10675e","system_id":"levelo_inurba_marseille","lat":43.284632,"lon":5.358836,"is_reserved":false,"is_disabled":false,"rental_uris":{"android":"levelo://app?vid=4f63152a-dea2-453b-ac98-3edf8a10675e","ios":"levelo://app?vid=4f63152a-dea2-453b-ac98-3edf8a10675e"},"vehicle_type_id":"4","last_reported":1761622554,"current_range_meters":9200,"station_id":"ce4bhah2rcd13ifvqei0","pricing_plan_id":"cebpf4jnsgd1na2vs0mg"},{"bike_id":"9e766c0e-118a-4b7d-8f04-112f1f817cd3","system_id":"levelo_inurba_marseille","lat":43.28978,"lon":5.37825,"is_reserved":false,"is_disabled":true,"rental_uris":{"android":"levelo://app?vid=9e766c0e-118a-4b7d-8f04-112f1f817cd3","ios":"levelo://app?vid=9e766c0e-118a-4b7d-8f04-112f1f817cd3"},"vehicle_type_id":"4","last_reported":1761622554,"current_range_meters":9200,"station_id":"ce4bh9p2rcd13ifvqed0","pricing_plan_id":"cebpf4jnsgd1na2vs0mg"},{"bike_id":"c896b697-d7c3-47ea-81cb-50811f76c96f","system_id":"levelo_inurba_marseille","lat":43.25085,"lon":5.39488,"is_reserved":false,"is_disabled":false,"rental_uris":{"android":"levelo://app?vid=c896b697-d7c3-47ea-81cb-50811f76c96f","ios":"levelo://app?vid=c896b697-d7c3-47ea-81cb-50811f76c96f"},"vehicle_type_id":"4","last_reported":1761622554,"current_range_meters":9600,"station_id":"ce4bhm12rcd13ifvqgkg","pricing_plan_id":"cebpf4jnsgd1na2vs0mg"},{"bike_id":"b83891d3-7971-45ae-9af3-651a6e6209e2","system_id":"levelo_inurba_marseille","lat":43.23197,"lon":5.35561,"is_reserved":false,"is_disabled":true,"rental_uris":{"android":"levelo://app?vid=b83891d3-7971-45ae-9af3-651a6e6209e2","ios":"levelo://app?vid=b83891d3-7971-45ae-9af3-651a6e6209e2"},"vehicle_type_id":"4","last_reported":1761622554,"current_range_meters":10000,"station_id":"ce4bhu92rcd13ifvqi70","pricing_plan_id":"cebpf4jnsgd1na2vs0mg"},{"bike_id":"33536d63-32c5-4dda-b600-be1d3fbb9bcc","system_id":"levelo_inurba_marseille","lat":43.211934,"lon":5.350719,"is_reserved":false,"is_disabled":true,"rental_uris":{"android":"levelo://app?vid=33536d63-32c5-4dda-b600-be1d3fbb9bcc","ios":"levelo://app?vid=33536d63-32c5-4dda-b600-be1d3fbb9bcc"},"vehicle_type_id":"4","last_reported":1761622554,"current_range_meters":10000,"station_id":"","pricing_plan_id":"cebpf4jnsgd1na2vs0mg"},{"bike_id":"bbbf3dbb-fbe2-4b7e-bfad-c027ca4e1c25","system_id":"levelo_inurba_marseille","lat":43.284843,"lon":5.483957,"is_reserved":false,"is_disabled":false,"rental_uris":{"android":"levelo://app?vid=bbbf3dbb-fbe2-4b7e-bfad-c027ca4e1c25","ios":"levelo://app?vid=bbbf3dbb-fbe2-4b7e-bfad-c027ca4e1c25"},"vehicle_type_id":"4","last_reported":1761622554,"current_range_meters":10000,"station_id":"st_d3svhcjqgbts73a3dn0g","pricing_plan_id":"cebpf4jnsgd1na2vs0mg"},{"bike_id":"ebf72d06-78f4-4cdd-a535-03c2730db1cb","system_id":"levelo_inurba_marseille","lat":43.264935,"lon":5.395474,"is_reserved":false,"is_disabled":false,"rental_uris":{"android":"levelo://app?vid=ebf72d06-78f4-4cdd-a535-03c2730db1cb","ios":"levelo://app?vid=ebf72d06-78f4-4cdd-a535-03c2730db1cb"},"vehicle_type_id":"4","last_reported":1761622554,"current_range_meters":10000,"station_id":"ce4bhi12rcd13ifvqfq0","pricing_plan_id":"cebpf4jnsgd1na2vs0mg"},{"bike_id":"1568d1a4-3aa5-4875-9567-3df6911b9cb3","system_id":"levelo_inurba_marseille","lat":43.28689,"lon":5.38675,"is_reserved":false,"is_disabled":false,"rental_uris":{"android":"levelo://app?vid=1568d1a4-3aa5-4875-9567-3df6911b9cb3","ios":"levelo://app?vid=1568d1a4-3aa5-4875-9567-3df6911b9cb3"},"vehicle_type_id":"4","last_reported":1761622554,"current_range_meters":10000,"station_id":"ce4bh492rcd13ifvqdug","pricing_plan_id":"cebpf4jnsgd1na2vs0mg"},{"bike_id":"f5adc0f6-8f78-420c-a3cc-2381696afa4a","system_id":"levelo_inurba_marseille","lat":43.28874,"lon":5.42516,"is_reserved":false,"is_disabled":false,"rental_uris":{"android":"levelo://app?vid=f5adc0f6-8f78-420c-a3cc-2381696afa4a","ios":"levelo://app?vid=f5adc0f6-8f78-420c-a3cc-2381696afa4a"},"vehicle_type_id":"4","last_reported":1761622554,"current_range_meters":10000,"station_id":"st_d3b462108ojc7389ooeg","pricing_plan_id":"cebpf4jnsgd1na2vs0mg"},{"bike_id":"6faabf34-5f72-4f39-83c5-41b2c566509f","system_id":"levelo_inurba_marseille","lat":43.24088,"lon":5.37715,"is_reserved":false,"is_disabled":false,"rental_uris":{"android":"levelo://app?vid=6faabf34-5f72-4f39-83c5-41b2c566509f","ios":"levelo://app?vid=6faabf34-5f72-4f39-83c5-41b2c566509f"},"vehicle_type_id":"4","last_reported":1761622554,"current_range_meters":10000,"station_id":"ce4bhnp2rcd13ifvqgvg","pricing_plan_id":"cebpf4jnsgd1na2vs0mg"},{"bike_id":"d27eecaf-5e06-4d97-91c0-1e45a44bf2cb","system_id":"levelo_inurba_marseille","lat":43.2833,"lon":5.43367,"is_reserved":false,"is_disabled":false,"rental_uris":{"android":"levelo://app?vid=d27eecaf-5e06-4d97-91c0-1e45a44bf2cb","ios":"levelo://app?vid=d27eecaf-5e06-4d97-91c0-1e45a44bf2cb"},"vehicle_type_id":"4","last_reported":1761622554,"current_range_meters":10000,"station_id":"","pricing_plan_id":"cebpf4jnsgd1na2vs0mg"},{"bike_id":"0d30d321-a5c1-4df9-bb01-58285c66b73b","system_id":"levelo_inurba_marseille","lat":43.29189,"lon":5.35802,"is_reserved":false,"is_disabled":true,"rental_uris":{"android":"levelo://app?vid=0d30d321-a5c1-4df9-bb01-58285c66b73b","ios":"levelo://app?vid=0d30d321-a5c1-4df9-bb01-58285c66b73b"},"vehicle_type_id":"4","last_reported":1761622554,"current_range_meters":10000,"station_id":"ce4bhb12rcd13ifvqel0","pricing_plan_id":"cebpf4jnsgd1na2vs0mg"},{"bike_id":"0eef425c-a804-48aa-836c-a7dd18ebe477","system_id":"levelo_inurba_marseille","lat":43.297026,"lon":5.365944,"is_reserved":false,"is_disabled":false,"rental_uris":{"android":"levelo://app?vid=0eef425c-a804-48aa-836c-a7dd18ebe477","ios":"levelo://app?vid=0eef425c-a804-48aa-836c-a7dd18ebe477"},"vehicle_type_id":"4","last_reported":1761622554,"current_range_meters":10000,"station_id":"ce4bgn12rcd13ifvqbt0","pricing_plan_id":"cebpf4jnsgd1na2vs0mg"},{"bike_id":"d0c081ad-3486-48c9-8966-70405df77a5b","system_id":"levelo_inurba_marseille","lat":43.229346,"lon":5.353781,"is_reserved":false,"is_disabled":false,"rental_uris":{"android":"levelo://app?vid=d0c081ad-3486-48c9-8966-70405df77a5b","ios":"levelo://app?vid=d0c081ad-3486-48c9-8966-70405df77a5b"},"vehicle_type_id":"4","last_reported":1761622554,"current_range_meters":10800,"station_id":"cpo3532slgdg3j2ikp40","pricing_plan_id":"cebpf4jnsgd1na2vs0mg"},{"bike_id":"2319520a-fc10-4ea5-a5ca-d3a4702f6c7b","system_id":"levelo_inurba_marseille","lat":43.298876,"lon":5.436561,"is_reserved":false,"is_disabled":true,"rental_uris":{"android":"levelo://app?vid=2319520a-fc10-4ea5-a5ca-d3a4702f6c7b","ios":"levelo://app?vid=2319520a-fc10-4ea5-a5ca-d3a4702f6c7b"},"vehicle_type_id":"4","last_reported":1761622554,"current_range_meters":10800,"station_id":"ce4bhpp2rcd13ifvqhfg","pricing_plan_id":"cebpf4jnsgd1na2vs0mg"},{"bike_id":"20f45349-3f98-403d-8636-0b1f40024741","system_id":"levelo_inurba_marseille","lat":43.27498,"lon":5.42452,"is_reserved":false,"is_disabled":false,"rental_uris":{"android":"levelo://app?vid=20f45349-3f98-403d-8636-0b1f40024741","ios":"levelo://app?vid=20f45349-3f98-403d-8636-0b1f40024741"},"vehicle_type_id":"4","last_reported":1761622554,"current_range_meters":10800,"station_id":"ce4bhn92rcd13ifvqgrg","pricing_plan_id":"cebpf4jnsgd1na2vs0mg"},{"bike_id":"2ccbca66-7d28-4303-81be-74d019784a2f","system_id":"levelo_inurba_marseille","lat":43.28468,"lon":5.35868,"is_reserved":false,"is_disabled":false,"rental_uris":{"android":"levelo://app?vid=2ccbca66-7d28-4303-81be-74d019784a2f","ios":"levelo://app?vid=2ccbca66-7d28-4303-81be-74d019784a2f"},"vehicle_type_id":"4","last_reported":1761622554,"current_range_meters":10800,"station_id":"ce4bhah2rcd13ifvqei0","pricing_plan_id":"cebpf4jnsgd1na2vs0mg"},{"bike_id":"8c71c05b-dd29-470b-8b05-4159f459865a","system_id":"levelo_inurba_marseille","lat":43.27662,"lon":5.388912,"is_reserved":false,"is_disabled":false,"rental_uris":{"android":"levelo://app?vid=8c71c05b-dd29-470b-8b05-4159f459865a","ios":"levelo://app?vid=8c71c05b-dd29-470b-8b05-4159f459865a"},"vehicle_type_id":"4","last_reported":1761622554,"current_range_meters":10800,"station_id":"ce4bhi12rcd13ifvqfo0","pricing_plan_id":"cebpf4jnsgd1na2vs0mg"},{"bike_id":"64457180-0458-4262-8d27-1d5e4cba4c96","system_id":"levelo_inurba_marseille","lat":43.23189,"lon":5.39992,"is_reserved":false,"is_disabled":false,"rental_uris":{"android":"levelo://app?vid=64457180-0458-4262-8d27-1d5e4cba4c96","ios":"levelo://app?vid=64457180-0458-4262-8d27-1d5e4cba4c96"},"vehicle_type_id":"4","last_reported":1761622554,"current_range_meters":10800,"station_id":"ce4bhn12rcd13ifvqgqg","pricing_plan_id":"cebpf4jnsgd1na2vs0mg"},{"bike_id":"6b27b53b-ade4-4e59-9555-b40b30fb2fb2","system_id":"levelo_inurba_marseille","lat":43.2532,"lon":5.42148,"is_reserved":false,"is_disabled":false,"rental_uris":{"android":"levelo://app?vid=6b27b53b-ade4-4e59-9555-b40b30fb2fb2","ios":"levelo://app?vid=6b27b53b-ade4-4e59-9555-b40b30fb2fb2"},"vehicle_type_id":"4","last_reported":1761622554,"current_range_meters":10800,"station_id":"st_d2m65c5bi1j21697t3ng","pricing_plan_id":"cebpf4jnsgd1na2vs0mg"},{"bike_id":"9676870c-82b8-448a-acb6-868f0fb26c65","system_id":"levelo_inurba_marseille","lat":43.22943,"lon":5.35351,"is_reserved":false,"is_disabled":false,"rental_uris":{"android":"levelo://app?vid=9676870c-82b8-448a-acb6-868f0fb26c65","ios":"levelo://app?vid=9676870c-82b8-448a-acb6-868f0fb26c65"},"vehicle_type_id":"4","last_reported":1761622554,"current_range_meters":11200,"station_id":"cpo3532slgdg3j2ikp40","pricing_plan_id":"cebpf4jnsgd1na2vs0mg"},{"bike_id":"191a89c3-b6b5-4197-8447-4616b7a34a12","system_id":"levelo_inurba_marseille","lat":43.29893,"lon":5.43676,"is_reserved":false,"is_disabled":false,"rental_uris":{"android":"levelo://app?vid=191a89c3-b6b5-4197-8447-4616b7a34a12","ios":"levelo://app?vid=191a89c3-b6b5-4197-8447-4616b7a34a12"},"vehicle_type_id":"4","last_reported":1761622554,"current_range_meters":11200,"station_id":"ce4bhpp2rcd13ifvqhfg","pricing_plan_id":"cebpf4jnsgd1na2vs0mg"},{"bike_id":"72692e77-b537-477c-ba7d-fdff69794bfb","system_id":"levelo_inurba_marseille","lat":43.25341,"lon":5.42157,"is_reserved":false,"is_disabled":false,"rental_uris":{"android":"levelo://app?vid=72692e77-b537-477c-ba7d-fdff69794bfb","ios":"levelo://app?vid=72692e77-b537-477c-ba7d-fdff69794bfb"},"vehicle_type_id":"4","last_reported":1761622554,"current_range_meters":11200,"station_id":"st_d2m65c5bi1j21697t3ng","pricing_plan_id":"cebpf4jnsgd1na2vs0mg"},{"bike_id":"eea3c3c3-734f-4fd3-8061-ed84cfe47b38","system_id":"levelo_inurba_marseille","lat":43.3258,"lon":5.39138,"is_reserved":false,"is_disabled":false,"rental_uris":{"android":"levelo://app?vid=eea3c3c3-734f-4fd3-8061-ed84cfe47b38","ios":"levelo://app?vid=eea3c3c3-734f-4fd3-8061-ed84cfe47b38"},"vehicle_type_id":"4","last_reported":1761622554,"current_range_meters":11200,"station_id":"","pricing_plan_id":"cebpf4jnsgd1na2vs0mg"},{"bike_id":"2ffaf36b-78a2-4412-9181-612a14fd4464","system_id":"levelo_inurba_marseille","lat":43.26225,"lon":5.37465,"is_reserved":false,"is_disabled":false,"rental_uris":{"android":"levelo://app?vid=2ffaf36b-78a2-4412-9181-612a14fd4464","ios":"levelo://app?vid=2ffaf36b-78a2-4412-9181-612a14fd4464"},"vehicle_type_id":"4","last_reported":1761622554,"current_range_meters":11200,"station_id":"","pricing_plan_id":"cebpf4jnsgd1na2vs0mg"},{"bike_id":"26764af5-8b4a-4def-9430-e49986f6aa42","system_id":"levelo_inurba_marseille","lat":43.2822,"lon":5.39062,"is_reserved":false,"is_disabled":false,"rental_uris":{"android":"levelo://app?vid=26764af5-8b4a-4def-9430-e49986f6aa42","ios":"levelo://app?vid=26764af5-8b4a-4def-9430-e49986f6aa42"},"vehicle_type_id":"4","last_reported":1761622554,"current_range_meters":11200,"station_id":"ce4bhn92rcd13ifvqgsg","pricing_plan_id":"cebpf4jnsgd1na2vs0mg"},{"bike_id":"763dedad-f3f7-4198-bc42-a8f8d4bc1d9e","system_id":"levelo_inurba_marseille","lat":43.22936,"lon":5.35388,"is_reserved":false,"is_disabled":false,"rental_uris":{"android":"levelo://app?vid=763dedad-f3f7-4198-bc42-a8f8d4bc1d9e","ios":"levelo://app?vid=763dedad-f3f7-4198-bc42-a8f8d4bc1d9e"},"vehicle_type_id":"4","last_reported":1761622554,"current_range_meters":11200,"station_id":"cpo3532slgdg3j2ikp40","pricing_plan_id":"cebpf4jnsgd1na2vs0mg"},{"bike_id":"cb7f068c-39ce-4be0-b9b9-05a5ac0d4c21","system_id":"levelo_inurba_marseille","lat":43.246331,"lon":5.431484,"is_reserved":false,"is_disabled":false,"rental_uris":{"android":"levelo://app?vid=cb7f068c-39ce-4be0-b9b9-05a5ac0d4c21","ios":"levelo://app?vid=cb7f068c-39ce-4be0-b9b9-05a5ac0d4c21"},"vehicle_type_id":"4","last_reported":1761622554,"current_range_meters":11200,"station_id":"st_d2m6c4gdas8pm72e190g","pricing_plan_id":"cebpf4jnsgd1na2vs0mg"},{"bike_id":"a3100ff0-76ab-498b-bebf-b9c52f3d2538","system_id":"levelo_inurba_marseille","lat":43.285478,"lon":5.484445,"is_reserved":false,"is_disabled":false,"rental_uris":{"android":"levelo://app?vid=a3100ff0-76ab-498b-bebf-b9c52f3d2538","ios":"levelo://app?vid=a3100ff0-76ab-498b-bebf-b9c52f3d2538"},"vehicle_type_id":"4","last_reported":1761622554,"current_range_meters":11600,"station_id":"","pricing_plan_id":"cebpf4jnsgd1na2vs0mg"},{"bike_id":"4c888f7a-a3cd-4aff-ab0b-fe318b78464b","system_id":"levelo_inurba_marseille","lat":43.21743,"lon":5.34619,"is_reserved":false,"is_disabled":false,"rental_uris":{"android":"levelo://app?vid=4c888f7a-a3cd-4aff-ab0b-fe318b78464b","ios":"levelo://app?vid=4c888f7a-a3cd-4aff-ab0b-fe318b78464b"},"vehicle_type_id":"4","last_reported":1761622554,"current_range_meters":11600,"station_id":"st_cvj6r9ubvosntc0bgbag","pricing_plan_id":"cebpf4jnsgd1na2vs0mg"},{"bike_id":"f3673a60-efd2-465f-aa18-cb0baaf105f7","system_id":"levelo_inurba_marseille","lat":43.31084,"lon":5.40088,"is_reserved":false,"is_disabled":false,"rental_uris":{"android":"levelo://app?vid=f3673a60-efd2-465f-aa18-cb0baaf105f7","ios":"levelo://app?vid=f3673a60-efd2-465f-aa18-cb0baaf105f7"},"vehicle_type_id":"4","last_reported":1761622554,"current_range_meters":12000,"station_id":"","pricing_plan_id":"cebpf4jnsgd1na2vs0mg"},{"bike_id":"d840e009-d66a-4263-964b-f2c1c855217d","system_id":"levelo_inurba_marseille","lat":43.2975,"lon":5.42759,"is_reserved":false,"is_disabled":false,"rental_uris":{"android":"levelo://app?vid=d840e009-d66a-4263-964b-f2c1c855217d","ios":"levelo://app?vid=d840e009-d66a-4263-964b-f2c1c855217d"},"vehicle_type_id":"4","last_reported":1761622554,"current_range_meters":12000,"station_id":"st_d3md5207bmas73dh9klg","pricing_plan_id":"cebpf4jnsgd1na2vs0mg"},{"bike_id":"1880ebb9-7edb-463e-976b-226e958b9ebe","system_id":"levelo_inurba_marseille","lat":43.31097,"lon":5.37487,"is_reserved":false,"is_disabled":false,"rental_uris":{"android":"levelo://app?vid=1880ebb9-7edb-463e-976b-226e958b9ebe","ios":"levelo://app?vid=1880ebb9-7edb-463e-976b-226e958b9ebe"},"vehicle_type_id":"4","last_reported":1761622554,"current_range_meters":12400,"station_id":"ce4bgt12rcd13ifvqce0","pricing_plan_id":"cebpf4jnsgd1na2vs0mg"},{"bike_id":"b01345a9-3177-4e79-9c99-6d05d38922cb","system_id":"levelo_inurba_marseille","lat":43.2508,"lon":5.39505,"is_reserved":false,"is_disabled":false,"rental_uris":{"android":"levelo://app?vid=b01345a9-3177-4e79-9c99-6d05d38922cb","ios":"levelo://app?vid=b01345a9-3177-4e79-9c99-6d05d38922cb"},"vehicle_type_id":"4","last_reported":1761622554,"current_range_meters":12400,"station_id":"ce4bhm12rcd13ifvqgkg","pricing_plan_id":"cebpf4jnsgd1na2vs0mg"},{"bike_id":"a507e789-f440-40a8-85cf-09841d81676c","system_id":"levelo_inurba_marseille","lat":43.22518,"lon":5.34831,"is_reserved":false,"is_disabled":false,"rental_uris":{"android":"levelo://app?vid=a507e789-f440-40a8-85cf-09841d81676c","ios":"levelo://app?vid=a507e789-f440-40a8-85cf-09841d81676c"},"vehicle_type_id":"4","last_reported":1761622554,"current_range_meters":12400,"station_id":"st_cvj5dfep6f1abm77gieg","pricing_plan_id":"cebpf4jnsgd1na2vs0mg"},{"bike_id":"46318416-7c91-428c-b90a-595c0083141a","system_id":"levelo_inurba_marseille","lat":43.231968,"lon":5.399778,"is_reserved":false,"is_disabled":false,"rental_uris":{"android":"levelo://app?vid=46318416-7c91-428c-b90a-595c0083141a","ios":"levelo://app?vid=46318416-7c91-428c-b90a-595c0083141a"},"vehicle_type_id":"4","last_reported":1761622554,"current_range_meters":12400,"station_id":"ce4bhn12rcd13ifvqgqg","pricing_plan_id":"cebpf4jnsgd1na2vs0mg"},{"bike_id":"ff806bd2-c7e9-493a-9703-ad992684e451","system_id":"levelo_inurba_marseille","lat":43.296263,"lon":5.377142,"is_reserved":false,"is_disabled":false,"rental_uris":{"android":"levelo://app?vid=ff806bd2-c7e9-493a-9703-ad992684e451","ios":"levelo://app?vid=ff806bd2-c7e9-493a-9703-ad992684e451"},"vehicle_type_id":"4","last_reported":1761622554,"current_range_meters":12800,"station_id":"","pricing_plan_id":"cebpf4jnsgd1na2vs0mg"},{"bike_id":"0045d293-fc25-4f9a-9434-47036bd87e67","system_id":"levelo_inurba_marseille","lat":43.229259,"lon":5.353808,"is_reserved":false,"is_disabled":false,"rental_uris":{"android":"levelo://app?vid=0045d293-fc25-4f9a-9434-47036bd87e67","ios":"levelo://app?vid=0045d293-fc25-4f9a-9434-47036bd87e67"},"vehicle_type_id":"4","last_reported":1761622554,"current_range_meters":12800,"station_id":"cpo3532slgdg3j2ikp40","pricing_plan_id":"cebpf4jnsgd1na2vs0mg"},{"bike_id":"4bf9d265-8b82-4e6d-af96-57b56fdfaed3","system_id":"levelo_inurba_marseille","lat":43.29757,"lon":5.42786,"is_reserved":false,"is_disabled":false,"rental_uris":{"android":"levelo://app?vid=4bf9d265-8b82-4e6d-af96-57b56fdfaed3","ios":"levelo://app?vid=4bf9d265-8b82-4e6d-af96-57b56fdfaed3"},"vehicle_type_id":"4","last_reported":1761622554,"current_range_meters":13600,"station_id":"st_d3md5207bmas73dh9klg","pricing_plan_id":"cebpf4jnsgd1na2vs0mg"},{"bike_id":"61582872-d791-4b1e-b140-850838a7e879","system_id":"levelo_inurba_marseille","lat":43.24158,"lon":5.36386,"is_reserved":false,"is_disabled":false,"rental_uris":{"android":"levelo://app?vid=61582872-d791-4b1e-b140-850838a7e879","ios":"levelo://app?vid=61582872-d791-4b1e-b140-850838a7e879"},"vehicle_type_id":"4","last_reported":1761622554,"current_range_meters":13600,"station_id":"cpo36qri1sfpv3e86is0","pricing_plan_id":"cebpf4jnsgd1na2vs0mg"},{"bike_id":"dbcbcef0-4b5f-446e-9d2e-80d991993c2b","system_id":"levelo_inurba_marseille","lat":43.295337,"lon":5.402449,"is_reserved":false,"is_disabled":false,"rental_uris":{"android":"levelo://app?vid=dbcbcef0-4b5f-446e-9d2e-80d991993c2b","ios":"levelo://app?vid=dbcbcef0-4b5f-446e-9d2e-80d991993c2b"},"vehicle_type_id":"4","last_reported":1761622554,"current_range_meters":13600,"station_id":"","pricing_plan_id":"cebpf4jnsgd1na2vs0mg"},{"bike_id":"a7cb79b6-f063-412f-a2f8-8ac4c19f5c06","system_id":"levelo_inurba_marseille","lat":43.2709,"lon":5.42241,"is_reserved":false,"is_disabled":false,"rental_uris":{"android":"levelo://app?vid=a7cb79b6-f063-412f-a2f8-8ac4c19f5c06","ios":"levelo://app?vid=a7cb79b6-f063-412f-a2f8-8ac4c19f5c06"},"vehicle_type_id":"4","last_reported":1761622554,"current_range_meters":13600,"station_id":"ce4bhk92rcd13ifvqgb0","pricing_plan_id":"cebpf4jnsgd1na2vs0mg"},{"bike_id":"02649bc2-4d56-4abe-9b2b-217f08145f3b","system_id":"levelo_inurba_marseille","lat":43.23195,"lon":5.35552,"is_reserved":false,"is_disabled":false,"rental_uris":{"android":"levelo://app?vid=02649bc2-4d56-4abe-9b2b-217f08145f3b","ios":"levelo://app?vid=02649bc2-4d56-4abe-9b2b-217f08145f3b"},"vehicle_type_id":"4","last_reported":1761622554,"current_range_meters":13600,"station_id":"ce4bhu92rcd13ifvqi70","pricing_plan_id":"cebpf4jnsgd1na2vs0mg"},{"bike_id":"9fbd96ee-563a-43f7-87fd-6fffaeedac55","system_id":"levelo_inurba_marseille","lat":43.25868,"lon":5.398995,"is_reserved":false,"is_disabled":true,"rental_uris":{"android":"levelo://app?vid=9fbd96ee-563a-43f7-87fd-6fffaeedac55","ios":"levelo://app?vid=9fbd96ee-563a-43f7-87fd-6fffaeedac55"},"vehicle_type_id":"4","last_reported":1761622554,"current_range_meters":13600,"station_id":"ce4bhl92rcd13ifvqghg","pricing_plan_id":"cebpf4jnsgd1na2vs0mg"},{"bike_id":"b750e73d-78c6-4b64-b457-af6580198e5f","system_id":"levelo_inurba_marseille","lat":43.27208,"lon":5.39184,"is_reserved":false,"is_disabled":false,"rental_uris":{"android":"levelo://app?vid=b750e73d-78c6-4b64-b457-af6580198e5f","ios":"levelo://app?vid=b750e73d-78c6-4b64-b457-af6580198e5f"},"vehicle_type_id":"4","last_reported":1761622554,"current_range_meters":13600,"station_id":"ce4bhhp2rcd13ifvqfm0","pricing_plan_id":"cebpf4jnsgd1na2vs0mg"},{"bike_id":"21dbf7f2-eb19-4663-b1c0-879822879492","system_id":"levelo_inurba_marseille","lat":43.337631,"lon":5.374577,"is_reserved":false,"is_disabled":false,"rental_uris":{"android":"levelo://app?vid=21dbf7f2-eb19-4663-b1c0-879822879492","ios":"levelo://app?vid=21dbf7f2-eb19-4663-b1c0-879822879492"},"vehicle_type_id":"4","last_reported":1761622554,"current_range_meters":13600,"station_id":"","pricing_plan_id":"cebpf4jnsgd1na2vs0mg"},{"bike_id":"7b1b6fda-acbf-4bcc-9c4e-eb02a7bb672a","system_id":"levelo_inurba_marseille","lat":43.24149,"lon":5.36423,"is_reserved":false,"is_disabled":false,"rental_uris":{"android":"levelo://app?vid=7b1b6fda-acbf-4bcc-9c4e-eb02a7bb672a","ios":"levelo://app?vid=7b1b6fda-acbf-4bcc-9c4e-eb02a7bb672a"},"vehicle_type_id":"4","last_reported":1761622554,"current_range_meters":14000,"station_id":"cpo36qri1sfpv3e86is0","pricing_plan_id":"cebpf4jnsgd1na2vs0mg"},{"bike_id":"21781a70-201c-4092-a5e0-70fe14e2283d","system_id":"levelo_inurba_marseille","lat":43.28571,"lon":5.39498,"is_reserved":false,"is_disabled":false,"rental_uris":{"android":"levelo://app?vid=21781a70-201c-4092-a5e0-70fe14e2283d","ios":"levelo://app?vid=21781a70-201c-4092-a5e0-70fe14e2283d"},"vehicle_type_id":"4","last_reported":1761622554,"current_range_meters":14000,"station_id":"ce4bh292rcd13ifvqdg0","pricing_plan_id":"cebpf4jnsgd1na2vs0mg"},{"bike_id":"266488d3-4677-4b2c-b163-8d1ad61d8414","system_id":"levelo_inurba_marseille","lat":43.2847,"lon":5.38428,"is_reserved":false,"is_disabled":true,"rental_uris":{"android":"levelo://app?vid=266488d3-4677-4b2c-b163-8d1ad61d8414","ios":"levelo://app?vid=266488d3-4677-4b2c-b163-8d1ad61d8414"},"vehicle_type_id":"4","last_reported":1761622554,"current_range_meters":14000,"station_id":"ce4bh512rcd13ifvqe3g","pricing_plan_id":"cebpf4jnsgd1na2vs0mg"},{"bike_id":"883bc9b4-cfb9-4127-8706-5d33bb052860","system_id":"levelo_inurba_marseille","lat":43.247965,"lon":5.374614,"is_reserved":false,"is_disabled":false,"rental_uris":{"android":"levelo://app?vid=883bc9b4-cfb9-4127-8706-5d33bb052860","ios":"levelo://app?vid=883bc9b4-cfb9-4127-8706-5d33bb052860"},"vehicle_type_id":"4","last_reported":1761622554,"current_range_meters":14400,"station_id":"ce4bhgh2rcd13ifvqfb0","pricing_plan_id":"cebpf4jnsgd1na2vs0mg"},{"bike_id":"a630ed88-3f05-4926-bbab-8387ab6b6a28","system_id":"levelo_inurba_marseille","lat":43.231535,"lon":5.436898,"is_reserved":false,"is_disabled":true,"rental_uris":{"android":"levelo://app?vid=a630ed88-3f05-4926-bbab-8387ab6b6a28","ios":"levelo://app?vid=a630ed88-3f05-4926-bbab-8387ab6b6a28"},"vehicle_type_id":"4","last_reported":1761622554,"current_range_meters":14400,"station_id":"ce4bhmp2rcd13ifvqgog","pricing_plan_id":"cebpf4jnsgd1na2vs0mg"},{"bike_id":"e5369f4b-2c24-4cfa-8c10-2d08b4a405fb","system_id":"levelo_inurba_marseille","lat":43.31126,"lon":5.37788,"is_reserved":false,"is_disabled":false,"rental_uris":{"android":"levelo://app?vid=e5369f4b-2c24-4cfa-8c10-2d08b4a405fb","ios":"levelo://app?vid=e5369f4b-2c24-4cfa-8c10-2d08b4a405fb"},"vehicle_type_id":"4","last_reported":1761622554,"current_range_meters":14800,"station_id":"ce4bgt92rcd13ifvqcg0","pricing_plan_id":"cebpf4jnsgd1na2vs0mg"},{"bike_id":"59344117-e8c3-4467-a613-75b1dc85bf2b","system_id":"levelo_inurba_marseille","lat":43.31356,"lon":5.38494,"is_reserved":false,"is_disabled":false,"rental_uris":{"android":"levelo://app?vid=59344117-e8c3-4467-a613-75b1dc85bf2b","ios":"levelo://app?vid=59344117-e8c3-4467-a613-75b1dc85bf2b"},"vehicle_type_id":"4","last_reported":1761622554,"current_range_meters":14800,"station_id":"ce4bgt92rcd13ifvqcf0","pricing_plan_id":"cebpf4jnsgd1na2vs0mg"},{"bike_id":"d7b556e6-ac3d-4fe4-b136-c7cd05c756e3","system_id":"levelo_inurba_marseille","lat":43.230674,"lon":5.354965,"is_reserved":false,"is_disabled":false,"rental_uris":{"android":"levelo://app?vid=d7b556e6-ac3d-4fe4-b136-c7cd05c756e3","ios":"levelo://app?vid=d7b556e6-ac3d-4fe4-b136-c7cd05c756e3"},"vehicle_type_id":"4","last_reported":1761622554,"current_range_meters":14800,"station_id":"cpo3342slgdg3j2ifvpg","pricing_plan_id":"cebpf4jnsgd1na2vs0mg"},{"bike_id":"d5ca831f-8041-403e-ada8-7b4196c3d5be","system_id":"levelo_inurba_marseille","lat":43.293714,"lon":5.379385,"is_reserved":false,"is_disabled":false,"rental_uris":{"android":"levelo://app?vid=d5ca831f-8041-403e-ada8-7b4196c3d5be","ios":"levelo://app?vid=d5ca831f-8041-403e-ada8-7b4196c3d5be"},"vehicle_type_id":"4","last_reported":1761622554,"current_range_meters":14800,"station_id":"","pricing_plan_id":"cebpf4jnsgd1na2vs0mg"},{"bike_id":"4d166009-4ea7-4ae0-b0d1-9b30d6cb8a98","system_id":"levelo_inurba_marseille","lat":43.315311,"lon":5.380206,"is_reserved":false,"is_disabled":false,"rental_uris":{"android":"levelo://app?vid=4d166009-4ea7-4ae0-b0d1-9b30d6cb8a98","ios":"levelo://app?vid=4d166009-4ea7-4ae0-b0d1-9b30d6cb8a98"},"vehicle_type_id":"4","last_reported":1761622554,"current_range_meters":15200,"station_id":"ce4bhsp2rcd13ifvqi50","pricing_plan_id":"cebpf4jnsgd1na2vs0mg"},{"bike_id":"f568391f-b71f-4807-9099-53eb6b0dc22d","system_id":"levelo_inurba_marseille","lat":43.2978,"lon":5.38131,"is_reserved":false,"is_disabled":false,"rental_uris":{"android":"levelo://app?vid=f568391f-b71f-4807-9099-53eb6b0dc22d","ios":"levelo://app?vid=f568391f-b71f-4807-9099-53eb6b0dc22d"},"vehicle_type_id":"4","last_reported":1761622554,"current_range_meters":15200,"station_id":"ce4bgip2rcd13ifvqbb0","pricing_plan_id":"cebpf4jnsgd1na2vs0mg"},{"bike_id":"dd0e11df-91b2-4fe8-ab4f-8b24853fccce","system_id":"levelo_inurba_marseille","lat":43.305974,"lon":5.393528,"is_reserved":false,"is_disabled":false,"rental_uris":{"android":"levelo://app?vid=dd0e11df-91b2-4fe8-ab4f-8b24853fccce","ios":"levelo://app?vid=dd0e11df-91b2-4fe8-ab4f-8b24853fccce"},"vehicle_type_id":"4","last_reported":1761622554,"current_range_meters":15200,"station_id":"ce4bh0p2rcd13ifvqd80","pricing_plan_id":"cebpf4jnsgd1na2vs0mg"},{"bike_id":"faf45a1a-fb97-44b5-9013-2bb82707466b","system_id":"levelo_inurba_marseille","lat":43.29944,"lon":5.36514,"is_reserved":false,"is_disabled":false,"rental_uris":{"android":"levelo://app?vid=faf45a1a-fb97-44b5-9013-2bb82707466b","ios":"levelo://app?vid=faf45a1a-fb97-44b5-9013-2bb82707466b"},"vehicle_type_id":"4","last_reported":1761622554,"current_range_meters":16000,"station_id":"ce4bgm92rcd13ifvqbr0","pricing_plan_id":"cebpf4jnsgd1na2vs0mg"},{"bike_id":"db88a8a5-5637-4384-a6d7-41d8f099747a","system_id":"levelo_inurba_marseille","lat":43.312379,"lon":5.368484,"is_reserved":false,"is_disabled":false,"rental_uris":{"android":"levelo://app?vid=db88a8a5-5637-4384-a6d7-41d8f099747a","ios":"levelo://app?vid=db88a8a5-5637-4384-a6d7-41d8f099747a"},"vehicle_type_id":"4","last_reported":1761622554,"current_range_meters":16000,"station_id":"ce4bgr92rcd13ifvqc6g","pricing_plan_id":"cebpf4jnsgd1na2vs0mg"},{"bike_id":"2494bb61-c5b2-4e8c-8a6f-16c2d1512e23","system_id":"levelo_inurba_marseille","lat":43.23185,"lon":5.40018,"is_reserved":false,"is_disabled":false,"rental_uris":{"android":"levelo://app?vid=2494bb61-c5b2-4e8c-8a6f-16c2d1512e23","ios":"levelo://app?vid=2494bb61-c5b2-4e8c-8a6f-16c2d1512e23"},"vehicle_type_id":"4","last_reported":1761622554,"current_range_meters":16000,"station_id":"ce4bhn12rcd13ifvqgqg","pricing_plan_id":"cebpf4jnsgd1na2vs0mg"},{"bike_id":"e00a5637-7ff1-4c27-b189-efba53dc7fa3","system_id":"levelo_inurba_marseille","lat":43.250853,"lon":5.39525,"is_reserved":false,"is_disabled":false,"rental_uris":{"android":"levelo://app?vid=e00a5637-7ff1-4c27-b189-efba53dc7fa3","ios":"levelo://app?vid=e00a5637-7ff1-4c27-b189-efba53dc7fa3"},"vehicle_type_id":"4","last_reported":1761622554,"current_range_meters":16000,"station_id":"ce4bhm12rcd13ifvqgkg","pricing_plan_id":"cebpf4jnsgd1na2vs0mg"},{"bike_id":"aec0f9eb-e0f6-4b82-bfc3-b592242c41c1","system_id":"levelo_inurba_marseille","lat":43.292393,"lon":5.409061,"is_reserved":false,"is_disabled":false,"rental_uris":{"android":"levelo://app?vid=aec0f9eb-e0f6-4b82-bfc3-b592242c41c1","ios":"levelo://app?vid=aec0f9eb-e0f6-4b82-bfc3-b592242c41c1"},"vehicle_type_id":"4","last_reported":1761622554,"current_range_meters":16000,"station_id":"ce4bh192rcd13ifvqdc0","pricing_plan_id":"cebpf4jnsgd1na2vs0mg"},{"bike_id":"e1ca1064-3ac1-495e-b8d2-df8047d11b2e","system_id":"levelo_inurba_marseille","lat":43.284833,"lon":5.483861,"is_reserved":false,"is_disabled":false,"rental_uris":{"android":"levelo://app?vid=e1ca1064-3ac1-495e-b8d2-df8047d11b2e","ios":"levelo://app?vid=e1ca1064-3ac1-495e-b8d2-df8047d11b2e"},"vehicle_type_id":"4","last_reported":1761622554,"current_range_meters":16000,"station_id":"st_d3svhcjqgbts73a3dn0g","pricing_plan_id":"cebpf4jnsgd1na2vs0mg"},{"bike_id":"c37ff396-a3f3-48da-8562-48f95e54f6c2","system_id":"levelo_inurba_marseille","lat":43.28708,"lon":5.37403,"is_reserved":false,"is_disabled":true,"rental_uris":{"android":"levelo://app?vid=c37ff396-a3f3-48da-8562-48f95e54f6c2","ios":"levelo://app?vid=c37ff396-a3f3-48da-8562-48f95e54f6c2"},"vehicle_type_id":"4","last_reported":1761622554,"current_range_meters":16000,"station_id":"ce4bh3p2rcd13ifvqdq0","pricing_plan_id":"cebpf4jnsgd1na2vs0mg"},{"bike_id":"310e927d-d5b8-4a6f-82be-2d623690659d","system_id":"levelo_inurba_marseille","lat":43.312878,"lon":5.377856,"is_reserved":false,"is_disabled":false,"rental_uris":{"android":"levelo://app?vid=310e927d-d5b8-4a6f-82be-2d623690659d","ios":"levelo://app?vid=310e927d-d5b8-4a6f-82be-2d623690659d"},"vehicle_type_id":"4","last_reported":1761622554,"current_range_meters":16400,"station_id":"","pricing_plan_id":"cebpf4jnsgd1na2vs0mg"},{"bike_id":"d5a49dbd-284f-44d1-bf21-988be425a5e5","system_id":"levelo_inurba_marseille","lat":43.25586,"lon":5.38258,"is_reserved":false,"is_disabled":true,"rental_uris":{"android":"levelo://app?vid=d5a49dbd-284f-44d1-bf21-988be425a5e5","ios":"levelo://app?vid=d5a49dbd-284f-44d1-bf21-988be425a5e5"},"vehicle_type_id":"4","last_reported":1761622554,"current_range_meters":16400,"station_id":"ce4bhih2rcd13ifvqfs0","pricing_plan_id":"cebpf4jnsgd1na2vs0mg"},{"bike_id":"dccef0b1-edb3-49b5-866c-43e10e5763cc","system_id":"levelo_inurba_marseille","lat":43.28813,"lon":5.43841,"is_reserved":false,"is_disabled":false,"rental_uris":{"android":"levelo://app?vid=dccef0b1-edb3-49b5-866c-43e10e5763cc","ios":"levelo://app?vid=dccef0b1-edb3-49b5-866c-43e10e5763cc"},"vehicle_type_id":"4","last_reported":1761622554,"current_range_meters":16400,"station_id":"","pricing_plan_id":"cebpf4jnsgd1na2vs0mg"},{"bike_id":"0e92e58a-a68d-4440-a2a1-0e87cddba988","system_id":"levelo_inurba_marseille","lat":43.24656,"lon":5.38185,"is_reserved":false,"is_disabled":false,"rental_uris":{"android":"levelo://app?vid=0e92e58a-a68d-4440-a2a1-0e87cddba988","ios":"levelo://app?vid=0e92e58a-a68d-4440-a2a1-0e87cddba988"},"vehicle_type_id":"4","last_reported":1761622554,"current_range_meters":16400,"station_id":"ce4bhih2rcd13ifvqfr0","pricing_plan_id":"cebpf4jnsgd1na2vs0mg"},{"bike_id":"151cbc1b-b747-447f-9afc-6c7aba884f5c","system_id":"levelo_inurba_marseille","lat":43.2887,"lon":5.42516,"is_reserved":false,"is_disabled":false,"rental_uris":{"android":"levelo://app?vid=151cbc1b-b747-447f-9afc-6c7aba884f5c","ios":"levelo://app?vid=151cbc1b-b747-447f-9afc-6c7aba884f5c"},"vehicle_type_id":"4","last_reported":1761622554,"current_range_meters":16400,"station_id":"st_d3b462108ojc7389ooeg","pricing_plan_id":"cebpf4jnsgd1na2vs0mg"},{"bike_id":"8c1f3a6f-7344-45af-82d9-6a06cac2acee","system_id":"levelo_inurba_marseille","lat":43.28409,"lon":5.37517,"is_reserved":false,"is_disabled":false,"rental_uris":{"android":"levelo://app?vid=8c1f3a6f-7344-45af-82d9-6a06cac2acee","ios":"levelo://app?vid=8c1f3a6f-7344-45af-82d9-6a06cac2acee"},"vehicle_type_id":"4","last_reported":1761622554,"current_range_meters":16400,"station_id":"ce4bh412rcd13ifvqds0","pricing_plan_id":"cebpf4jnsgd1na2vs0mg"},{"bike_id":"e8b00d39-8726-45ab-902a-db5ebf514149","system_id":"levelo_inurba_marseille","lat":43.24076,"lon":5.37758,"is_reserved":false,"is_disabled":false,"rental_uris":{"android":"levelo://app?vid=e8b00d39-8726-45ab-902a-db5ebf514149","ios":"levelo://app?vid=e8b00d39-8726-45ab-902a-db5ebf514149"},"vehicle_type_id":"4","last_reported":1761622554,"current_range_meters":16800,"station_id":"ce4bhnp2rcd13ifvqgvg","pricing_plan_id":"cebpf4jnsgd1na2vs0mg"},{"bike_id":"94e6b0aa-f8c9-477e-8091-c3a189e0f238","system_id":"levelo_inurba_marseille","lat":43.29669,"lon":5.38105,"is_reserved":false,"is_disabled":false,"rental_uris":{"android":"levelo://app?vid=94e6b0aa-f8c9-477e-8091-c3a189e0f238","ios":"levelo://app?vid=94e6b0aa-f8c9-477e-8091-c3a189e0f238"},"vehicle_type_id":"4","last_reported":1761622554,"current_range_meters":16800,"station_id":"","pricing_plan_id":"cebpf4jnsgd1na2vs0mg"},{"bike_id":"2283896b-c941-41b3-a4e2-ac2bcf8551df","system_id":"levelo_inurba_marseille","lat":43.30638,"lon":5.40083,"is_reserved":false,"is_disabled":false,"rental_uris":{"android":"levelo://app?vid=2283896b-c941-41b3-a4e2-ac2bcf8551df","ios":"levelo://app?vid=2283896b-c941-41b3-a4e2-ac2bcf8551df"},"vehicle_type_id":"4","last_reported":1761622554,"current_range_meters":16800,"station_id":"ce4bh112rcd13ifvqda0","pricing_plan_id":"cebpf4jnsgd1na2vs0mg"},{"bike_id":"8957da31-2549-4ab6-abc0-615293ac1acd","system_id":"levelo_inurba_marseille","lat":43.26566,"lon":5.39041,"is_reserved":false,"is_disabled":true,"rental_uris":{"android":"levelo://app?vid=8957da31-2549-4ab6-abc0-615293ac1acd","ios":"levelo://app?vid=8957da31-2549-4ab6-abc0-615293ac1acd"},"vehicle_type_id":"4","last_reported":1761622554,"current_range_meters":16800,"station_id":"ce4bhe12rcd13ifvqf30","pricing_plan_id":"cebpf4jnsgd1na2vs0mg"},{"bike_id":"dced2bcc-e95f-44ce-b7d8-7bb47def612a","system_id":"levelo_inurba_marseille","lat":43.23062,"lon":5.35486,"is_reserved":false,"is_disabled":false,"rental_uris":{"android":"levelo://app?vid=dced2bcc-e95f-44ce-b7d8-7bb47def612a","ios":"levelo://app?vid=dced2bcc-e95f-44ce-b7d8-7bb47def612a"},"vehicle_type_id":"4","last_reported":1761622554,"current_range_meters":16800,"station_id":"cpo3342slgdg3j2ifvpg","pricing_plan_id":"cebpf4jnsgd1na2vs0mg"},{"bike_id":"2be3bf9b-39f4-4c37-8c01-9e9bcabe1c53","system_id":"levelo_inurba_marseille","lat":43.33741,"lon":5.37444,"is_reserved":false,"is_disabled":false,"rental_uris":{"android":"levelo://app?vid=2be3bf9b-39f4-4c37-8c01-9e9bcabe1c53","ios":"levelo://app?vid=2be3bf9b-39f4-4c37-8c01-9e9bcabe1c53"},"vehicle_type_id":"4","last_reported":1761622554,"current_range_meters":16800,"station_id":"","pricing_plan_id":"cebpf4jnsgd1na2vs0mg"},{"bike_id":"0f9c37b7-53c0-4d99-961c-bcf34d79a7ca","system_id":"levelo_inurba_marseille","lat":43.308867,"lon":5.396265,"is_reserved":false,"is_disabled":false,"rental_uris":{"android":"levelo://app?vid=0f9c37b7-53c0-4d99-961c-bcf34d79a7ca","ios":"levelo://app?vid=0f9c37b7-53c0-4d99-961c-bcf34d79a7ca"},"vehicle_type_id":"4","last_reported":1761622554,"current_range_meters":16800,"station_id":"ce4bh012rcd13ifvqcv0","pricing_plan_id":"cebpf4jnsgd1na2vs0mg"},{"bike_id":"87a515db-426d-4f18-b2c3-ba5fadd6c431","system_id":"levelo_inurba_marseille","lat":43.30899,"lon":5.40119,"is_reserved":false,"is_disabled":false,"rental_uris":{"android":"levelo://app?vid=87a515db-426d-4f18-b2c3-ba5fadd6c431","ios":"levelo://app?vid=87a515db-426d-4f18-b2c3-ba5fadd6c431"},"vehicle_type_id":"4","last_reported":1761622554,"current_range_meters":16800,"station_id":"ce4bgvp2rcd13ifvqct0","pricing_plan_id":"cebpf4jnsgd1na2vs0mg"},{"bike_id":"a72ba818-7371-4726-9234-a81be08b4f21","system_id":"levelo_inurba_marseille","lat":43.29102,"lon":5.38136,"is_reserved":false,"is_disabled":true,"rental_uris":{"android":"levelo://app?vid=a72ba818-7371-4726-9234-a81be08b4f21","ios":"levelo://app?vid=a72ba818-7371-4726-9234-a81be08b4f21"},"vehicle_type_id":"4","last_reported":1761622554,"current_range_meters":17200,"station_id":"ce4bh512rcd13ifvqe2g","pricing_plan_id":"cebpf4jnsgd1na2vs0mg"},{"bike_id":"f573a68d-82f8-4e4f-988b-eb197cf4c755","system_id":"levelo_inurba_marseille","lat":43.28858,"lon":5.39322,"is_reserved":false,"is_disabled":false,"rental_uris":{"android":"levelo://app?vid=f573a68d-82f8-4e4f-988b-eb197cf4c755","ios":"levelo://app?vid=f573a68d-82f8-4e4f-988b-eb197cf4c755"},"vehicle_type_id":"4","last_reported":1761622554,"current_range_meters":17200,"station_id":"ce4bh2p2rcd13ifvqdi0","pricing_plan_id":"cebpf4jnsgd1na2vs0mg"},{"bike_id":"316ded5d-28c9-4663-be5c-04dc90d5b34c","system_id":"levelo_inurba_marseille","lat":43.28411,"lon":5.38759,"is_reserved":false,"is_disabled":false,"rental_uris":{"android":"levelo://app?vid=316ded5d-28c9-4663-be5c-04dc90d5b34c","ios":"levelo://app?vid=316ded5d-28c9-4663-be5c-04dc90d5b34c"},"vehicle_type_id":"4","last_reported":1761622554,"current_range_meters":17200,"station_id":"","pricing_plan_id":"cebpf4jnsgd1na2vs0mg"},{"bike_id":"f4ae8a8d-d71a-4e48-9339-66550bde7b84","system_id":"levelo_inurba_marseille","lat":43.296782,"lon":5.378637,"is_reserved":false,"is_disabled":false,"rental_uris":{"android":"levelo://app?vid=f4ae8a8d-d71a-4e48-9339-66550bde7b84","ios":"levelo://app?vid=f4ae8a8d-d71a-4e48-9339-66550bde7b84"},"vehicle_type_id":"4","last_reported":1761622554,"current_range_meters":17200,"station_id":"","pricing_plan_id":"cebpf4jnsgd1na2vs0mg"},{"bike_id":"87878ea2-b2bc-4e11-a8d9-1e17965dfb23","system_id":"levelo_inurba_marseille","lat":43.30946,"lon":5.40155,"is_reserved":false,"is_disabled":false,"rental_uris":{"android":"levelo://app?vid=87878ea2-b2bc-4e11-a8d9-1e17965dfb23","ios":"levelo://app?vid=87878ea2-b2bc-4e11-a8d9-1e17965dfb23"},"vehicle_type_id":"4","last_reported":1761622554,"current_range_meters":17200,"station_id":"ce4bgvp2rcd13ifvqct0","pricing_plan_id":"cebpf4jnsgd1na2vs0mg"},{"bike_id":"49ed0d39-51fe-4cd4-8527-50556baa8749","system_id":"levelo_inurba_marseille","lat":43.22529,"lon":5.34831,"is_reserved":false,"is_disabled":false,"rental_uris":{"android":"levelo://app?vid=49ed0d39-51fe-4cd4-8527-50556baa8749","ios":"levelo://app?vid=49ed0d39-51fe-4cd4-8527-50556baa8749"},"vehicle_type_id":"4","last_reported":1761622554,"current_range_meters":17200,"station_id":"","pricing_plan_id":"cebpf4jnsgd1na2vs0mg"},{"bike_id":"ae8ebe94-fc0f-4409-8f77-39eb5c613a67","system_id":"levelo_inurba_marseille","lat":43.337444,"lon":5.374475,"is_reserved":false,"is_disabled":false,"rental_uris":{"android":"levelo://app?vid=ae8ebe94-fc0f-4409-8f77-39eb5c613a67","ios":"levelo://app?vid=ae8ebe94-fc0f-4409-8f77-39eb5c613a67"},"vehicle_type_id":"4","last_reported":1761622554,"current_range_meters":17600,"station_id":"","pricing_plan_id":"cebpf4jnsgd1na2vs0mg"},{"bike_id":"85377363-cbd4-45ea-ab32-d8f5e1c2d1e3","system_id":"levelo_inurba_marseille","lat":43.248112,"lon":5.37451,"is_reserved":false,"is_disabled":true,"rental_uris":{"android":"levelo://app?vid=85377363-cbd4-45ea-ab32-d8f5e1c2d1e3","ios":"levelo://app?vid=85377363-cbd4-45ea-ab32-d8f5e1c2d1e3"},"vehicle_type_id":"4","last_reported":1761622554,"current_range_meters":17600,"station_id":"ce4bhgh2rcd13ifvqfb0","pricing_plan_id":"cebpf4jnsgd1na2vs0mg"},{"bike_id":"b3591f96-ba6e-4338-ad17-363b3d528fad","system_id":"levelo_inurba_marseille","lat":43.30886,"lon":5.37204,"is_reserved":false,"is_disabled":true,"rental_uris":{"android":"levelo://app?vid=b3591f96-ba6e-4338-ad17-363b3d528fad","ios":"levelo://app?vid=b3591f96-ba6e-4338-ad17-363b3d528fad"},"vehicle_type_id":"4","last_reported":1761622554,"current_range_meters":17600,"station_id":"ce4bguh2rcd13ifvqckg","pricing_plan_id":"cebpf4jnsgd1na2vs0mg"},{"bike_id":"5ce9bf87-766f-4e87-8278-f1edb00a1ed1","system_id":"levelo_inurba_marseille","lat":43.28081,"lon":5.39675,"is_reserved":false,"is_disabled":false,"rental_uris":{"android":"levelo://app?vid=5ce9bf87-766f-4e87-8278-f1edb00a1ed1","ios":"levelo://app?vid=5ce9bf87-766f-4e87-8278-f1edb00a1ed1"},"vehicle_type_id":"4","last_reported":1761622554,"current_range_meters":17600,"station_id":"ce4bho12rcd13ifvqh2g","pricing_plan_id":"cebpf4jnsgd1na2vs0mg"},{"bike_id":"89dc8d2c-2ca5-41a0-bdca-cb4530a7a44d","system_id":"levelo_inurba_marseille","lat":43.30658,"lon":5.40072,"is_reserved":false,"is_disabled":false,"rental_uris":{"android":"levelo://app?vid=89dc8d2c-2ca5-41a0-bdca-cb4530a7a44d","ios":"levelo://app?vid=89dc8d2c-2ca5-41a0-bdca-cb4530a7a44d"},"vehicle_type_id":"4","last_reported":1761622554,"current_range_meters":17600,"station_id":"ce4bh112rcd13ifvqda0","pricing_plan_id":"cebpf4jnsgd1na2vs0mg"},{"bike_id":"7ef1c635-05bd-452a-889d-91b6aef98c6f","system_id":"levelo_inurba_marseille","lat":43.2893,"lon":5.36391,"is_reserved":false,"is_disabled":false,"rental_uris":{"android":"levelo://app?vid=7ef1c635-05bd-452a-889d-91b6aef98c6f","ios":"levelo://app?vid=7ef1c635-05bd-452a-889d-91b6aef98c6f"},"vehicle_type_id":"4","last_reported":1761622554,"current_range_meters":17600,"station_id":"ce4bhc92rcd13ifvqetg","pricing_plan_id":"cebpf4jnsgd1na2vs0mg"},{"bike_id":"32d7653e-b033-4183-b4c0-f44169bb9067","system_id":"levelo_inurba_marseille","lat":43.32699,"lon":5.3922,"is_reserved":false,"is_disabled":false,"rental_uris":{"android":"levelo://app?vid=32d7653e-b033-4183-b4c0-f44169bb9067","ios":"levelo://app?vid=32d7653e-b033-4183-b4c0-f44169bb9067"},"vehicle_type_id":"4","last_reported":1761622554,"current_range_meters":17600,"station_id":"","pricing_plan_id":"cebpf4jnsgd1na2vs0mg"},{"bike_id":"5033bb99-e45e-4315-99a6-f11c86fb079b","system_id":"levelo_inurba_marseille","lat":43.3249,"lon":5.36573,"is_reserved":false,"is_disabled":false,"rental_uris":{"android":"levelo://app?vid=5033bb99-e45e-4315-99a6-f11c86fb079b","ios":"levelo://app?vid=5033bb99-e45e-4315-99a6-f11c86fb079b"},"vehicle_type_id":"4","last_reported":1761622554,"current_range_meters":17600,"station_id":"ce4bhs12rcd13ifvqhvg","pricing_plan_id":"cebpf4jnsgd1na2vs0mg"},{"bike_id":"7b0deda0-50a7-4549-b2d7-08023f45e3cd","system_id":"levelo_inurba_marseille","lat":43.27953,"lon":5.41042,"is_reserved":false,"is_disabled":false,"rental_uris":{"android":"levelo://app?vid=7b0deda0-50a7-4549-b2d7-08023f45e3cd","ios":"levelo://app?vid=7b0deda0-50a7-4549-b2d7-08023f45e3cd"},"vehicle_type_id":"4","last_reported":1761622554,"current_range_meters":17600,"station_id":"ce4bhnp2rcd13ifvqh0g","pricing_plan_id":"cebpf4jnsgd1na2vs0mg"},{"bike_id":"a65c194f-896e-42d2-9f19-306607c93418","system_id":"levelo_inurba_marseille","lat":43.30537,"lon":5.38427,"is_reserved":false,"is_disabled":false,"rental_uris":{"android":"levelo://app?vid=a65c194f-896e-42d2-9f19-306607c93418","ios":"levelo://app?vid=a65c194f-896e-42d2-9f19-306607c93418"},"vehicle_type_id":"4","last_reported":1761622554,"current_range_meters":18000,"station_id":"ce4bgg92rcd13ifvqb30","pricing_plan_id":"cebpf4jnsgd1na2vs0mg"},{"bike_id":"30be3bd8-ecb4-4749-acf1-2b8d8d14222d","system_id":"levelo_inurba_marseille","lat":43.279163,"lon":5.395772,"is_reserved":false,"is_disabled":false,"rental_uris":{"android":"levelo://app?vid=30be3bd8-ecb4-4749-acf1-2b8d8d14222d","ios":"levelo://app?vid=30be3bd8-ecb4-4749-acf1-2b8d8d14222d"},"vehicle_type_id":"4","last_reported":1761622554,"current_range_meters":18000,"station_id":"ce4bhf92rcd13ifvqf40","pricing_plan_id":"cebpf4jnsgd1na2vs0mg"},{"bike_id":"8062c369-ff3b-4a48-b2ef-d270e82c4cf4","system_id":"levelo_inurba_marseille","lat":43.23068,"lon":5.35503,"is_reserved":false,"is_disabled":false,"rental_uris":{"android":"levelo://app?vid=8062c369-ff3b-4a48-b2ef-d270e82c4cf4","ios":"levelo://app?vid=8062c369-ff3b-4a48-b2ef-d270e82c4cf4"},"vehicle_type_id":"4","last_reported":1761622554,"current_range_meters":18000,"station_id":"cpo3342slgdg3j2ifvpg","pricing_plan_id":"cebpf4jnsgd1na2vs0mg"},{"bike_id":"681d38b5-a75b-4764-af13-b68c82b21e57","system_id":"levelo_inurba_marseille","lat":43.27924,"lon":5.39593,"is_reserved":false,"is_disabled":false,"rental_uris":{"android":"levelo://app?vid=681d38b5-a75b-4764-af13-b68c82b21e57","ios":"levelo://app?vid=681d38b5-a75b-4764-af13-b68c82b21e57"},"vehicle_type_id":"4","last_reported":1761622554,"current_range_meters":18000,"station_id":"ce4bhf92rcd13ifvqf40","pricing_plan_id":"cebpf4jnsgd1na2vs0mg"},{"bike_id":"021e2773-71f7-4902-84c6-5e91af9a8aba","system_id":"levelo_inurba_marseille","lat":43.296,"lon":5.39607,"is_reserved":false,"is_disabled":false,"rental_uris":{"android":"levelo://app?vid=021e2773-71f7-4902-84c6-5e91af9a8aba","ios":"levelo://app?vid=021e2773-71f7-4902-84c6-5e91af9a8aba"},"vehicle_type_id":"4","last_reported":1761622554,"current_range_meters":18000,"station_id":"","pricing_plan_id":"cebpf4jnsgd1na2vs0mg"},{"bike_id":"f5dc89e2-f42b-4da6-82e6-d21ce7949692","system_id":"levelo_inurba_marseille","lat":43.314883,"lon":5.373115,"is_reserved":false,"is_disabled":false,"rental_uris":{"android":"levelo://app?vid=f5dc89e2-f42b-4da6-82e6-d21ce7949692","ios":"levelo://app?vid=f5dc89e2-f42b-4da6-82e6-d21ce7949692"},"vehicle_type_id":"4","last_reported":1761622554,"current_range_meters":18000,"station_id":"","pricing_plan_id":"cebpf4jnsgd1na2vs0mg"},{"bike_id":"eaed6499-9973-47d4-9735-9e2c2bd97da4","system_id":"levelo_inurba_marseille","lat":43.285352,"lon":5.441043,"is_reserved":false,"is_disabled":false,"rental_uris":{"android":"levelo://app?vid=eaed6499-9973-47d4-9735-9e2c2bd97da4","ios":"levelo://app?vid=eaed6499-9973-47d4-9735-9e2c2bd97da4"},"vehicle_type_id":"4","last_reported":1761622554,"current_range_meters":18000,"station_id":"st_d3j3df2ikq2c7380ej80","pricing_plan_id":"cebpf4jnsgd1na2vs0mg"},{"bike_id":"02dd205b-e97c-4104-9683-066d2523fd3f","system_id":"levelo_inurba_marseille","lat":43.23083,"lon":5.35499,"is_reserved":false,"is_disabled":false,"rental_uris":{"android":"levelo://app?vid=02dd205b-e97c-4104-9683-066d2523fd3f","ios":"levelo://app?vid=02dd205b-e97c-4104-9683-066d2523fd3f"},"vehicle_type_id":"4","last_reported":1761622554,"current_range_meters":18000,"station_id":"cpo3342slgdg3j2ifvpg","pricing_plan_id":"cebpf4jnsgd1na2vs0mg"},{"bike_id":"4abf8525-6d54-46af-b310-c9c3a2c8c704","system_id":"levelo_inurba_marseille","lat":43.25096,"lon":5.39503,"is_reserved":false,"is_disabled":false,"rental_uris":{"android":"levelo://app?vid=4abf8525-6d54-46af-b310-c9c3a2c8c704","ios":"levelo://app?vid=4abf8525-6d54-46af-b310-c9c3a2c8c704"},"vehicle_type_id":"4","last_reported":1761622554,"current_range_meters":18000,"station_id":"ce4bhm12rcd13ifvqgkg","pricing_plan_id":"cebpf4jnsgd1na2vs0mg"},{"bike_id":"24dff1b6-2009-47dc-b14c-5cea613f5a6b","system_id":"levelo_inurba_marseille","lat":43.28962,"lon":5.39646,"is_reserved":false,"is_disabled":false,"rental_uris":{"android":"levelo://app?vid=24dff1b6-2009-47dc-b14c-5cea613f5a6b","ios":"levelo://app?vid=24dff1b6-2009-47dc-b14c-5cea613f5a6b"},"vehicle_type_id":"4","last_reported":1761622554,"current_range_meters":18800,"station_id":"ce4bh3h2rcd13ifvqdn0","pricing_plan_id":"cebpf4jnsgd1na2vs0mg"},{"bike_id":"f0cd30bf-6306-4225-a0d9-5667067846be","system_id":"levelo_inurba_marseille","lat":43.28466,"lon":5.3589,"is_reserved":false,"is_disabled":false,"rental_uris":{"android":"levelo://app?vid=f0cd30bf-6306-4225-a0d9-5667067846be","ios":"levelo://app?vid=f0cd30bf-6306-4225-a0d9-5667067846be"},"vehicle_type_id":"4","last_reported":1761622554,"current_range_meters":18800,"station_id":"ce4bhah2rcd13ifvqei0","pricing_plan_id":"cebpf4jnsgd1na2vs0mg"},{"bike_id":"c5357aaa-f358-42dd-a7b4-114e2fddc718","system_id":"levelo_inurba_marseille","lat":43.24808,"lon":5.37441,"is_reserved":false,"is_disabled":false,"rental_uris":{"android":"levelo://app?vid=c5357aaa-f358-42dd-a7b4-114e2fddc718","ios":"levelo://app?vid=c5357aaa-f358-42dd-a7b4-114e2fddc718"},"vehicle_type_id":"4","last_reported":1761622554,"current_range_meters":18800,"station_id":"ce4bhgh2rcd13ifvqfb0","pricing_plan_id":"cebpf4jnsgd1na2vs0mg"},{"bike_id":"d413d8bf-4c9f-4587-9711-663fc6c13bcc","system_id":"levelo_inurba_marseille","lat":43.27954,"lon":5.41044,"is_reserved":false,"is_disabled":false,"rental_uris":{"android":"levelo://app?vid=d413d8bf-4c9f-4587-9711-663fc6c13bcc","ios":"levelo://app?vid=d413d8bf-4c9f-4587-9711-663fc6c13bcc"},"vehicle_type_id":"4","last_reported":1761622554,"current_range_meters":18800,"station_id":"ce4bhnp2rcd13ifvqh0g","pricing_plan_id":"cebpf4jnsgd1na2vs0mg"},{"bike_id":"51a7e268-9562-4b96-8e84-f568b0acc7b7","system_id":"levelo_inurba_marseille","lat":43.247969,"lon":5.37456,"is_reserved":false,"is_disabled":false,"rental_uris":{"android":"levelo://app?vid=51a7e268-9562-4b96-8e84-f568b0acc7b7","ios":"levelo://app?vid=51a7e268-9562-4b96-8e84-f568b0acc7b7"},"vehicle_type_id":"4","last_reported":1761622554,"current_range_meters":19200,"station_id":"","pricing_plan_id":"cebpf4jnsgd1na2vs0mg"},{"bike_id":"11ef3bae-f74c-4d6c-9e1c-74445fbc74b3","system_id":"levelo_inurba_marseille","lat":43.25515,"lon":5.37656,"is_reserved":false,"is_disabled":false,"rental_uris":{"android":"levelo://app?vid=11ef3bae-f74c-4d6c-9e1c-74445fbc74b3","ios":"levelo://app?vid=11ef3bae-f74c-4d6c-9e1c-74445fbc74b3"},"vehicle_type_id":"4","last_reported":1761622554,"current_range_meters":19200,"station_id":"ce4bhh12rcd13ifvqff0","pricing_plan_id":"cebpf4jnsgd1na2vs0mg"},{"bike_id":"29622fdd-0089-4cf5-b878-91be039036cc","system_id":"levelo_inurba_marseille","lat":43.25339,"lon":5.42159,"is_reserved":false,"is_disabled":false,"rental_uris":{"android":"levelo://app?vid=29622fdd-0089-4cf5-b878-91be039036cc","ios":"levelo://app?vid=29622fdd-0089-4cf5-b878-91be039036cc"},"vehicle_type_id":"4","last_reported":1761622554,"current_range_meters":19600,"station_id":"st_d2m65c5bi1j21697t3ng","pricing_plan_id":"cebpf4jnsgd1na2vs0mg"},{"bike_id":"54317329-1b14-4957-8f07-2baa7436d39c","system_id":"levelo_inurba_marseille","lat":43.286173,"lon":5.351051,"is_reserved":false,"is_disabled":false,"rental_uris":{"android":"levelo://app?vid=54317329-1b14-4957-8f07-2baa7436d39c","ios":"levelo://app?vid=54317329-1b14-4957-8f07-2baa7436d39c"},"vehicle_type_id":"4","last_reported":1761622554,"current_range_meters":19600,"station_id":"ce4bhch2rcd13ifvqeug","pricing_plan_id":"cebpf4jnsgd1na2vs0mg"},{"bike_id":"6daca031-efb5-4517-911c-f1bf58b277b7","system_id":"levelo_inurba_marseille","lat":43.211865,"lon":5.350809,"is_reserved":false,"is_disabled":false,"rental_uris":{"android":"levelo://app?vid=6daca031-efb5-4517-911c-f1bf58b277b7","ios":"levelo://app?vid=6daca031-efb5-4517-911c-f1bf58b277b7"},"vehicle_type_id":"4","last_reported":1761622554,"current_range_meters":19600,"station_id":"st_cvj6sg6p6f1abm77japg","pricing_plan_id":"cebpf4jnsgd1na2vs0mg"},{"bike_id":"53d23df3-0441-45e2-bfbf-abbc16391f8f","system_id":"levelo_inurba_marseille","lat":43.27627,"lon":5.36129,"is_reserved":false,"is_disabled":false,"rental_uris":{"android":"levelo://app?vid=53d23df3-0441-45e2-bfbf-abbc16391f8f","ios":"levelo://app?vid=53d23df3-0441-45e2-bfbf-abbc16391f8f"},"vehicle_type_id":"4","last_reported":1761622554,"current_range_meters":19600,"station_id":"ce4bgj92rcd13ifvqbe0","pricing_plan_id":"cebpf4jnsgd1na2vs0mg"},{"bike_id":"bc585abd-d201-4bbc-96c5-461ff74a79de","system_id":"levelo_inurba_marseille","lat":43.29088,"lon":5.38138,"is_reserved":false,"is_disabled":false,"rental_uris":{"android":"levelo://app?vid=bc585abd-d201-4bbc-96c5-461ff74a79de","ios":"levelo://app?vid=bc585abd-d201-4bbc-96c5-461ff74a79de"},"vehicle_type_id":"4","last_reported":1761622554,"current_range_meters":19600,"station_id":"ce4bh512rcd13ifvqe2g","pricing_plan_id":"cebpf4jnsgd1na2vs0mg"},{"bike_id":"8743deb1-3e1b-4fe6-ab63-b75dc0a57f17","system_id":"levelo_inurba_marseille","lat":43.23065,"lon":5.354887,"is_reserved":false,"is_disabled":false,"rental_uris":{"android":"levelo://app?vid=8743deb1-3e1b-4fe6-ab63-b75dc0a57f17","ios":"levelo://app?vid=8743deb1-3e1b-4fe6-ab63-b75dc0a57f17"},"vehicle_type_id":"4","last_reported":1761622554,"current_range_meters":19600,"station_id":"cpo3342slgdg3j2ifvpg","pricing_plan_id":"cebpf4jnsgd1na2vs0mg"},{"bike_id":"414bcc2a-2f6f-40f2-9661-8f896caff74c","system_id":"levelo_inurba_marseille","lat":43.29192,"lon":5.3934,"is_reserved":false,"is_disabled":false,"rental_uris":{"android":"levelo://app?vid=414bcc2a-2f6f-40f2-9661-8f896caff74c","ios":"levelo://app?vid=414bcc2a-2f6f-40f2-9661-8f896caff74c"},"vehicle_type_id":"4","last_reported":1761622554,"current_range_meters":19600,"station_id":"ce4bh192rcd13ifvqdd0","pricing_plan_id":"cebpf4jnsgd1na2vs0mg"},{"bike_id":"120a8546-b550-4908-ae90-0fcc0e4af2d8","system_id":"levelo_inurba_marseille","lat":43.27771,"lon":5.40735,"is_reserved":false,"is_disabled":false,"rental_uris":{"android":"levelo://app?vid=120a8546-b550-4908-ae90-0fcc0e4af2d8","ios":"levelo://app?vid=120a8546-b550-4908-ae90-0fcc0e4af2d8"},"vehicle_type_id":"4","last_reported":1761622554,"current_range_meters":20000,"station_id":"ce4bhnh2rcd13ifvqgtg","pricing_plan_id":"cebpf4jnsgd1na2vs0mg"},{"bike_id":"375de74a-a6d2-44a3-b043-8387ee6c02b5","system_id":"levelo_inurba_marseille","lat":43.274978,"lon":5.424597,"is_reserved":false,"is_disabled":false,"rental_uris":{"android":"levelo://app?vid=375de74a-a6d2-44a3-b043-8387ee6c02b5","ios":"levelo://app?vid=375de74a-a6d2-44a3-b043-8387ee6c02b5"},"vehicle_type_id":"4","last_reported":1761622554,"current_range_meters":20000,"station_id":"ce4bhn92rcd13ifvqgrg","pricing_plan_id":"cebpf4jnsgd1na2vs0mg"},{"bike_id":"d02d2cc9-f4dd-45d9-9f0d-fdbe18c89495","system_id":"levelo_inurba_marseille","lat":43.29752,"lon":5.42781,"is_reserved":false,"is_disabled":false,"rental_uris":{"android":"levelo://app?vid=d02d2cc9-f4dd-45d9-9f0d-fdbe18c89495","ios":"levelo://app?vid=d02d2cc9-f4dd-45d9-9f0d-fdbe18c89495"},"vehicle_type_id":"4","last_reported":1761622554,"current_range_meters":20000,"station_id":"st_d3md5207bmas73dh9klg","pricing_plan_id":"cebpf4jnsgd1na2vs0mg"},{"bike_id":"0b874bc5-80d6-4565-b9e7-c796afbac60b","system_id":"levelo_inurba_marseille","lat":43.27499,"lon":5.424408,"is_reserved":false,"is_disabled":false,"rental_uris":{"android":"levelo://app?vid=0b874bc5-80d6-4565-b9e7-c796afbac60b","ios":"levelo://app?vid=0b874bc5-80d6-4565-b9e7-c796afbac60b"},"vehicle_type_id":"4","last_reported":1761622554,"current_range_meters":20000,"station_id":"ce4bhn92rcd13ifvqgrg","pricing_plan_id":"cebpf4jnsgd1na2vs0mg"},{"bike_id":"6ce8387a-7217-4885-b90c-41215d188545","system_id":"levelo_inurba_marseille","lat":43.28864,"lon":5.40935,"is_reserved":false,"is_disabled":false,"rental_uris":{"android":"levelo://app?vid=6ce8387a-7217-4885-b90c-41215d188545","ios":"levelo://app?vid=6ce8387a-7217-4885-b90c-41215d188545"},"vehicle_type_id":"4","last_reported":1761622554,"current_range_meters":20000,"station_id":"","pricing_plan_id":"cebpf4jnsgd1na2vs0mg"},{"bike_id":"3c172d5e-4be3-4447-81d6-5d4b4efa8bc0","system_id":"levelo_inurba_marseille","lat":43.26551,"lon":5.3854,"is_reserved":false,"is_disabled":false,"rental_uris":{"android":"levelo://app?vid=3c172d5e-4be3-4447-81d6-5d4b4efa8bc0","ios":"levelo://app?vid=3c172d5e-4be3-4447-81d6-5d4b4efa8bc0"},"vehicle_type_id":"4","last_reported":1761622554,"current_range_meters":20000,"station_id":"","pricing_plan_id":"cebpf4jnsgd1na2vs0mg"},{"bike_id":"e0a4f949-1a60-4f6f-b340-a65037eb5bf2","system_id":"levelo_inurba_marseille","lat":43.28842,"lon":5.39327,"is_reserved":false,"is_disabled":false,"rental_uris":{"android":"levelo://app?vid=e0a4f949-1a60-4f6f-b340-a65037eb5bf2","ios":"levelo://app?vid=e0a4f949-1a60-4f6f-b340-a65037eb5bf2"},"vehicle_type_id":"4","last_reported":1761622554,"current_range_meters":20400,"station_id":"ce4bh2p2rcd13ifvqdi0","pricing_plan_id":"cebpf4jnsgd1na2vs0mg"},{"bike_id":"9cb0835f-d8bd-4b0d-af2f-9fec4e9f2305","system_id":"levelo_inurba_marseille","lat":43.2481,"lon":5.37464,"is_reserved":false,"is_disabled":false,"rental_uris":{"android":"levelo://app?vid=9cb0835f-d8bd-4b0d-af2f-9fec4e9f2305","ios":"levelo://app?vid=9cb0835f-d8bd-4b0d-af2f-9fec4e9f2305"},"vehicle_type_id":"4","last_reported":1761622554,"current_range_meters":20400,"station_id":"ce4bhgh2rcd13ifvqfb0","pricing_plan_id":"cebpf4jnsgd1na2vs0mg"},{"bike_id":"4ac7887c-1364-4417-9eed-22a7eb5f3d99","system_id":"levelo_inurba_marseille","lat":43.2467,"lon":5.381553,"is_reserved":false,"is_disabled":false,"rental_uris":{"android":"levelo://app?vid=4ac7887c-1364-4417-9eed-22a7eb5f3d99","ios":"levelo://app?vid=4ac7887c-1364-4417-9eed-22a7eb5f3d99"},"vehicle_type_id":"4","last_reported":1761622554,"current_range_meters":20400,"station_id":"ce4bhih2rcd13ifvqfr0","pricing_plan_id":"cebpf4jnsgd1na2vs0mg"},{"bike_id":"04459ab2-22e4-4de6-b288-50087f0d8551","system_id":"levelo_inurba_marseille","lat":43.298781,"lon":5.379277,"is_reserved":false,"is_disabled":false,"rental_uris":{"android":"levelo://app?vid=04459ab2-22e4-4de6-b288-50087f0d8551","ios":"levelo://app?vid=04459ab2-22e4-4de6-b288-50087f0d8551"},"vehicle_type_id":"4","last_reported":1761622554,"current_range_meters":20400,"station_id":"","pricing_plan_id":"cebpf4jnsgd1na2vs0mg"},{"bike_id":"01d566b3-b9e8-4c6a-8295-fa1b2dab6da5","system_id":"levelo_inurba_marseille","lat":43.31374,"lon":5.38494,"is_reserved":false,"is_disabled":false,"rental_uris":{"android":"levelo://app?vid=01d566b3-b9e8-4c6a-8295-fa1b2dab6da5","ios":"levelo://app?vid=01d566b3-b9e8-4c6a-8295-fa1b2dab6da5"},"vehicle_type_id":"4","last_reported":1761622554,"current_range_meters":20400,"station_id":"ce4bgt92rcd13ifvqcf0","pricing_plan_id":"cebpf4jnsgd1na2vs0mg"},{"bike_id":"05018340-9011-4729-80d4-dd0958d0a987","system_id":"levelo_inurba_marseille","lat":43.2863,"lon":5.35116,"is_reserved":false,"is_disabled":false,"rental_uris":{"android":"levelo://app?vid=05018340-9011-4729-80d4-dd0958d0a987","ios":"levelo://app?vid=05018340-9011-4729-80d4-dd0958d0a987"},"vehicle_type_id":"4","last_reported":1761622554,"current_range_meters":20400,"station_id":"ce4bhch2rcd13ifvqeug","pricing_plan_id":"cebpf4jnsgd1na2vs0mg"},{"bike_id":"1ff14011-1bb3-49a1-9941-97d38a0c81be","system_id":"levelo_inurba_marseille","lat":43.25091,"lon":5.39502,"is_reserved":false,"is_disabled":false,"rental_uris":{"android":"levelo://app?vid=1ff14011-1bb3-49a1-9941-97d38a0c81be","ios":"levelo://app?vid=1ff14011-1bb3-49a1-9941-97d38a0c81be"},"vehicle_type_id":"4","last_reported":1761622554,"current_range_meters":20400,"station_id":"ce4bhm12rcd13ifvqgkg","pricing_plan_id":"cebpf4jnsgd1na2vs0mg"},{"bike_id":"f810a554-2efc-4ac7-b25f-2a33c0bed870","system_id":"levelo_inurba_marseille","lat":43.25581,"lon":5.38241,"is_reserved":false,"is_disabled":false,"rental_uris":{"android":"levelo://app?vid=f810a554-2efc-4ac7-b25f-2a33c0bed870","ios":"levelo://app?vid=f810a554-2efc-4ac7-b25f-2a33c0bed870"},"vehicle_type_id":"4","last_reported":1761622554,"current_range_meters":20400,"station_id":"ce4bhih2rcd13ifvqfs0","pricing_plan_id":"cebpf4jnsgd1na2vs0mg"},{"bike_id":"14fed8bf-0e52-4b67-9780-8d00ed00b796","system_id":"levelo_inurba_marseille","lat":43.25092,"lon":5.39556,"is_reserved":false,"is_disabled":false,"rental_uris":{"android":"levelo://app?vid=14fed8bf-0e52-4b67-9780-8d00ed00b796","ios":"levelo://app?vid=14fed8bf-0e52-4b67-9780-8d00ed00b796"},"vehicle_type_id":"4","last_reported":1761622554,"current_range_meters":20400,"station_id":"ce4bhm12rcd13ifvqgkg","pricing_plan_id":"cebpf4jnsgd1na2vs0mg"},{"bike_id":"16de42e1-ed7d-49a4-b760-2a7da13bf74e","system_id":"levelo_inurba_marseille","lat":43.28948,"lon":5.364,"is_reserved":false,"is_disabled":false,"rental_uris":{"android":"levelo://app?vid=16de42e1-ed7d-49a4-b760-2a7da13bf74e","ios":"levelo://app?vid=16de42e1-ed7d-49a4-b760-2a7da13bf74e"},"vehicle_type_id":"4","last_reported":1761622554,"current_range_meters":20400,"station_id":"ce4bhc92rcd13ifvqetg","pricing_plan_id":"cebpf4jnsgd1na2vs0mg"},{"bike_id":"96b93a83-82f2-4d31-acb8-139fbce4500d","system_id":"levelo_inurba_marseille","lat":43.229295,"lon":5.353812,"is_reserved":false,"is_disabled":false,"rental_uris":{"android":"levelo://app?vid=96b93a83-82f2-4d31-acb8-139fbce4500d","ios":"levelo://app?vid=96b93a83-82f2-4d31-acb8-139fbce4500d"},"vehicle_type_id":"4","last_reported":1761622554,"current_range_meters":20400,"station_id":"cpo3532slgdg3j2ikp40","pricing_plan_id":"cebpf4jnsgd1na2vs0mg"},{"bike_id":"226913b6-b7b9-4183-8d38-b7cb83db3cc9","system_id":"levelo_inurba_marseille","lat":43.311696,"lon":5.387142,"is_reserved":false,"is_disabled":false,"rental_uris":{"android":"levelo://app?vid=226913b6-b7b9-4183-8d38-b7cb83db3cc9","ios":"levelo://app?vid=226913b6-b7b9-4183-8d38-b7cb83db3cc9"},"vehicle_type_id":"4","last_reported":1761622554,"current_range_meters":20800,"station_id":"ce4bgv12rcd13ifvqcp0","pricing_plan_id":"cebpf4jnsgd1na2vs0mg"},{"bike_id":"941eca81-61b6-4376-acbb-773a2fc9f625","system_id":"levelo_inurba_marseille","lat":43.320936,"lon":5.367755,"is_reserved":false,"is_disabled":false,"rental_uris":{"android":"levelo://app?vid=941eca81-61b6-4376-acbb-773a2fc9f625","ios":"levelo://app?vid=941eca81-61b6-4376-acbb-773a2fc9f625"},"vehicle_type_id":"4","last_reported":1761622554,"current_range_meters":20800,"station_id":"ce4bhrh2rcd13ifvqhug","pricing_plan_id":"cebpf4jnsgd1na2vs0mg"},{"bike_id":"aa0e7e4b-f890-4f53-a40a-615d9f77115a","system_id":"levelo_inurba_marseille","lat":43.32123,"lon":5.36786,"is_reserved":false,"is_disabled":false,"rental_uris":{"android":"levelo://app?vid=aa0e7e4b-f890-4f53-a40a-615d9f77115a","ios":"levelo://app?vid=aa0e7e4b-f890-4f53-a40a-615d9f77115a"},"vehicle_type_id":"4","last_reported":1761622554,"current_range_meters":20800,"station_id":"ce4bhrh2rcd13ifvqhug","pricing_plan_id":"cebpf4jnsgd1na2vs0mg"},{"bike_id":"197c1c52-49c1-43c1-9e87-63751091f6ec","system_id":"levelo_inurba_marseille","lat":43.26554,"lon":5.37288,"is_reserved":false,"is_disabled":false,"rental_uris":{"android":"levelo://app?vid=197c1c52-49c1-43c1-9e87-63751091f6ec","ios":"levelo://app?vid=197c1c52-49c1-43c1-9e87-63751091f6ec"},"vehicle_type_id":"4","last_reported":1761622554,"current_range_meters":20800,"station_id":"ce4bhg12rcd13ifvqf70","pricing_plan_id":"cebpf4jnsgd1na2vs0mg"},{"bike_id":"6d8da19b-0143-43ba-a2b6-b774a32597d4","system_id":"levelo_inurba_marseille","lat":43.28149,"lon":5.34755,"is_reserved":false,"is_disabled":false,"rental_uris":{"android":"levelo://app?vid=6d8da19b-0143-43ba-a2b6-b774a32597d4","ios":"levelo://app?vid=6d8da19b-0143-43ba-a2b6-b774a32597d4"},"vehicle_type_id":"4","last_reported":1761622554,"current_range_meters":20800,"station_id":"","pricing_plan_id":"cebpf4jnsgd1na2vs0mg"},{"bike_id":"8e2dcd31-6a9c-4b7f-a366-5e2640173d3c","system_id":"levelo_inurba_marseille","lat":43.22941,"lon":5.35384,"is_reserved":false,"is_disabled":false,"rental_uris":{"android":"levelo://app?vid=8e2dcd31-6a9c-4b7f-a366-5e2640173d3c","ios":"levelo://app?vid=8e2dcd31-6a9c-4b7f-a366-5e2640173d3c"},"vehicle_type_id":"4","last_reported":1761622554,"current_range_meters":20800,"station_id":"cpo3532slgdg3j2ikp40","pricing_plan_id":"cebpf4jnsgd1na2vs0mg"},{"bike_id":"3771686b-230a-47c5-8fd0-c9436373ca9f","system_id":"levelo_inurba_marseille","lat":43.29773,"lon":5.37087,"is_reserved":false,"is_disabled":true,"rental_uris":{"android":"levelo://app?vid=3771686b-230a-47c5-8fd0-c9436373ca9f","ios":"levelo://app?vid=3771686b-230a-47c5-8fd0-c9436373ca9f"},"vehicle_type_id":"4","last_reported":1761622554,"current_range_meters":20800,"station_id":"ce4bgop2rcd13ifvqc1g","pricing_plan_id":"cebpf4jnsgd1na2vs0mg"},{"bike_id":"faee4aed-34d1-4e59-9f3e-bc2337688920","system_id":"levelo_inurba_marseille","lat":43.31716,"lon":5.43691,"is_reserved":false,"is_disabled":true,"rental_uris":{"android":"levelo://app?vid=faee4aed-34d1-4e59-9f3e-bc2337688920","ios":"levelo://app?vid=faee4aed-34d1-4e59-9f3e-bc2337688920"},"vehicle_type_id":"4","last_reported":1761622554,"current_range_meters":20800,"station_id":"ce4bhp92rcd13ifvqhcg","pricing_plan_id":"cebpf4jnsgd1na2vs0mg"},{"bike_id":"3421bcdb-13cb-4261-b339-5fd66c819551","system_id":"levelo_inurba_marseille","lat":43.30199,"lon":5.36616,"is_reserved":false,"is_disabled":false,"rental_uris":{"android":"levelo://app?vid=3421bcdb-13cb-4261-b339-5fd66c819551","ios":"levelo://app?vid=3421bcdb-13cb-4261-b339-5fd66c819551"},"vehicle_type_id":"4","last_reported":1761622554,"current_range_meters":20800,"station_id":"ce4bgrh2rcd13ifvqc8g","pricing_plan_id":"cebpf4jnsgd1na2vs0mg"},{"bike_id":"f6adb9c1-4a78-4322-baec-aa5f6f5d93b6","system_id":"levelo_inurba_marseille","lat":43.225338,"lon":5.348301,"is_reserved":false,"is_disabled":false,"rental_uris":{"android":"levelo://app?vid=f6adb9c1-4a78-4322-baec-aa5f6f5d93b6","ios":"levelo://app?vid=f6adb9c1-4a78-4322-baec-aa5f6f5d93b6"},"vehicle_type_id":"4","last_reported":1761622554,"current_range_meters":20800,"station_id":"","pricing_plan_id":"cebpf4jnsgd1na2vs0mg"},{"bike_id":"4f24d0df-7b9a-48fa-a400-a6a0ae0f4ff8","system_id":"levelo_inurba_marseille","lat":43.24166,"lon":5.39722,"is_reserved":false,"is_disabled":false,"rental_uris":{"android":"levelo://app?vid=4f24d0df-7b9a-48fa-a400-a6a0ae0f4ff8","ios":"levelo://app?vid=4f24d0df-7b9a-48fa-a400-a6a0ae0f4ff8"},"vehicle_type_id":"4","last_reported":1761622554,"current_range_meters":20800,"station_id":"ce4bhn12rcd13ifvqgpg","pricing_plan_id":"cebpf4jnsgd1na2vs0mg"},{"bike_id":"e3260d53-1f31-4048-a6b1-57d9b1375877","system_id":"levelo_inurba_marseille","lat":43.285368,"lon":5.44099,"is_reserved":false,"is_disabled":false,"rental_uris":{"android":"levelo://app?vid=e3260d53-1f31-4048-a6b1-57d9b1375877","ios":"levelo://app?vid=e3260d53-1f31-4048-a6b1-57d9b1375877"},"vehicle_type_id":"4","last_reported":1761622554,"current_range_meters":21600,"station_id":"st_d3j3df2ikq2c7380ej80","pricing_plan_id":"cebpf4jnsgd1na2vs0mg"},{"bike_id":"3d00cf23-a66b-47a1-8eb3-f05af16b09a1","system_id":"levelo_inurba_marseille","lat":43.24382,"lon":5.370888,"is_reserved":false,"is_disabled":false,"rental_uris":{"android":"levelo://app?vid=3d00cf23-a66b-47a1-8eb3-f05af16b09a1","ios":"levelo://app?vid=3d00cf23-a66b-47a1-8eb3-f05af16b09a1"},"vehicle_type_id":"4","last_reported":1761622554,"current_range_meters":21600,"station_id":"ce4bhhh2rcd13ifvqfk0","pricing_plan_id":"cebpf4jnsgd1na2vs0mg"},{"bike_id":"148b5ab1-bdb3-47b1-afa8-9f7846180c96","system_id":"levelo_inurba_marseille","lat":43.301214,"lon":5.431185,"is_reserved":false,"is_disabled":false,"rental_uris":{"android":"levelo://app?vid=148b5ab1-bdb3-47b1-afa8-9f7846180c96","ios":"levelo://app?vid=148b5ab1-bdb3-47b1-afa8-9f7846180c96"},"vehicle_type_id":"4","last_reported":1761622554,"current_range_meters":21600,"station_id":"st_d3js3co5814s73ftftug","pricing_plan_id":"cebpf4jnsgd1na2vs0mg"},{"bike_id":"d9b6721f-a232-4167-a94f-c0d3f297b281","system_id":"levelo_inurba_marseille","lat":43.30203,"lon":5.39574,"is_reserved":false,"is_disabled":false,"rental_uris":{"android":"levelo://app?vid=d9b6721f-a232-4167-a94f-c0d3f297b281","ios":"levelo://app?vid=d9b6721f-a232-4167-a94f-c0d3f297b281"},"vehicle_type_id":"4","last_reported":1761622554,"current_range_meters":21600,"station_id":"","pricing_plan_id":"cebpf4jnsgd1na2vs0mg"},{"bike_id":"361abab7-56f6-44ae-a4db-9079797e8f62","system_id":"levelo_inurba_marseille","lat":43.239618,"lon":5.366278,"is_reserved":false,"is_disabled":false,"rental_uris":{"android":"levelo://app?vid=361abab7-56f6-44ae-a4db-9079797e8f62","ios":"levelo://app?vid=361abab7-56f6-44ae-a4db-9079797e8f62"},"vehicle_type_id":"4","last_reported":1761622554,"current_range_meters":21600,"station_id":"ce4bhi12rcd13ifvqfp0","pricing_plan_id":"cebpf4jnsgd1na2vs0mg"},{"bike_id":"780f18f0-b7b3-4b8b-86c0-24ab04a1b619","system_id":"levelo_inurba_marseille","lat":43.309309,"lon":5.401471,"is_reserved":false,"is_disabled":false,"rental_uris":{"android":"levelo://app?vid=780f18f0-b7b3-4b8b-86c0-24ab04a1b619","ios":"levelo://app?vid=780f18f0-b7b3-4b8b-86c0-24ab04a1b619"},"vehicle_type_id":"4","last_reported":1761622554,"current_range_meters":21600,"station_id":"ce4bgvp2rcd13ifvqct0","pricing_plan_id":"cebpf4jnsgd1na2vs0mg"},{"bike_id":"7b3b2981-73a7-49e1-a599-23d59e63bf0c","system_id":"levelo_inurba_marseille","lat":43.25093,"lon":5.39515,"is_reserved":false,"is_disabled":false,"rental_uris":{"android":"levelo://app?vid=7b3b2981-73a7-49e1-a599-23d59e63bf0c","ios":"levelo://app?vid=7b3b2981-73a7-49e1-a599-23d59e63bf0c"},"vehicle_type_id":"4","last_reported":1761622554,"current_range_meters":21600,"station_id":"ce4bhm12rcd13ifvqgkg","pricing_plan_id":"cebpf4jnsgd1na2vs0mg"},{"bike_id":"39d094ac-6017-4390-8e80-c3e2498dcfcf","system_id":"levelo_inurba_marseille","lat":43.24633,"lon":5.43152,"is_reserved":false,"is_disabled":false,"rental_uris":{"android":"levelo://app?vid=39d094ac-6017-4390-8e80-c3e2498dcfcf","ios":"levelo://app?vid=39d094ac-6017-4390-8e80-c3e2498dcfcf"},"vehicle_type_id":"4","last_reported":1761622554,"current_range_meters":22000,"station_id":"st_d2m6c4gdas8pm72e190g","pricing_plan_id":"cebpf4jnsgd1na2vs0mg"},{"bike_id":"f40aed78-b495-4d3a-bb9b-a4ce264d87f7","system_id":"levelo_inurba_marseille","lat":43.285627,"lon":5.394938,"is_reserved":false,"is_disabled":false,"rental_uris":{"android":"levelo://app?vid=f40aed78-b495-4d3a-bb9b-a4ce264d87f7","ios":"levelo://app?vid=f40aed78-b495-4d3a-bb9b-a4ce264d87f7"},"vehicle_type_id":"4","last_reported":1761622554,"current_range_meters":22000,"station_id":"ce4bh292rcd13ifvqdg0","pricing_plan_id":"cebpf4jnsgd1na2vs0mg"},{"bike_id":"29fedfcf-711f-4172-b067-9501d1ef7f5b","system_id":"levelo_inurba_marseille","lat":43.25511,"lon":5.37635,"is_reserved":false,"is_disabled":false,"rental_uris":{"android":"levelo://app?vid=29fedfcf-711f-4172-b067-9501d1ef7f5b","ios":"levelo://app?vid=29fedfcf-711f-4172-b067-9501d1ef7f5b"},"vehicle_type_id":"4","last_reported":1761622554,"current_range_meters":22000,"station_id":"ce4bhh12rcd13ifvqff0","pricing_plan_id":"cebpf4jnsgd1na2vs0mg"},{"bike_id":"3fb7ea86-f296-46d1-be21-5c7e23f5a2c3","system_id":"levelo_inurba_marseille","lat":43.30932,"lon":5.40163,"is_reserved":false,"is_disabled":false,"rental_uris":{"android":"levelo://app?vid=3fb7ea86-f296-46d1-be21-5c7e23f5a2c3","ios":"levelo://app?vid=3fb7ea86-f296-46d1-be21-5c7e23f5a2c3"},"vehicle_type_id":"4","last_reported":1761622554,"current_range_meters":22000,"station_id":"ce4bgvp2rcd13ifvqct0","pricing_plan_id":"cebpf4jnsgd1na2vs0mg"},{"bike_id":"208cdda3-2b43-400e-951e-2693b6f7bbf2","system_id":"levelo_inurba_marseille","lat":43.316804,"lon":5.404775,"is_reserved":false,"is_disabled":false,"rental_uris":{"android":"levelo://app?vid=208cdda3-2b43-400e-951e-2693b6f7bbf2","ios":"levelo://app?vid=208cdda3-2b43-400e-951e-2693b6f7bbf2"},"vehicle_type_id":"4","last_reported":1761622554,"current_range_meters":22000,"station_id":"ce4bh012rcd13ifvqd00","pricing_plan_id":"cebpf4jnsgd1na2vs0mg"},{"bike_id":"bb22a0a1-724c-473b-9c0a-fd40cc440f98","system_id":"levelo_inurba_marseille","lat":43.30149,"lon":5.38004,"is_reserved":false,"is_disabled":false,"rental_uris":{"android":"levelo://app?vid=bb22a0a1-724c-473b-9c0a-fd40cc440f98","ios":"levelo://app?vid=bb22a0a1-724c-473b-9c0a-fd40cc440f98"},"vehicle_type_id":"4","last_reported":1761622554,"current_range_meters":22400,"station_id":"","pricing_plan_id":"cebpf4jnsgd1na2vs0mg"},{"bike_id":"75dc66b3-0d26-400d-85b7-e985f64e2136","system_id":"levelo_inurba_marseille","lat":43.28999,"lon":5.437,"is_reserved":false,"is_disabled":false,"rental_uris":{"android":"levelo://app?vid=75dc66b3-0d26-400d-85b7-e985f64e2136","ios":"levelo://app?vid=75dc66b3-0d26-400d-85b7-e985f64e2136"},"vehicle_type_id":"4","last_reported":1761622554,"current_range_meters":22400,"station_id":"","pricing_plan_id":"cebpf4jnsgd1na2vs0mg"},{"bike_id":"d7c2acd6-c208-40a6-8b94-be8648762947","system_id":"levelo_inurba_marseille","lat":43.24812,"lon":5.37463,"is_reserved":false,"is_disabled":false,"rental_uris":{"android":"levelo://app?vid=d7c2acd6-c208-40a6-8b94-be8648762947","ios":"levelo://app?vid=d7c2acd6-c208-40a6-8b94-be8648762947"},"vehicle_type_id":"4","last_reported":1761622554,"current_range_meters":22400,"station_id":"ce4bhgh2rcd13ifvqfb0","pricing_plan_id":"cebpf4jnsgd1na2vs0mg"},{"bike_id":"12e79476-8963-4e95-a010-0ea2014f1c70","system_id":"levelo_inurba_marseille","lat":43.27828,"lon":5.4073,"is_reserved":false,"is_disabled":false,"rental_uris":{"android":"levelo://app?vid=12e79476-8963-4e95-a010-0ea2014f1c70","ios":"levelo://app?vid=12e79476-8963-4e95-a010-0ea2014f1c70"},"vehicle_type_id":"4","last_reported":1761622554,"current_range_meters":22400,"station_id":"ce4bhnh2rcd13ifvqgtg","pricing_plan_id":"cebpf4jnsgd1na2vs0mg"},{"bike_id":"15ce9860-b619-40f3-a3c1-0dd35b79e0cb","system_id":"levelo_inurba_marseille","lat":43.3081,"lon":5.38138,"is_reserved":false,"is_disabled":false,"rental_uris":{"android":"levelo://app?vid=15ce9860-b619-40f3-a3c1-0dd35b79e0cb","ios":"levelo://app?vid=15ce9860-b619-40f3-a3c1-0dd35b79e0cb"},"vehicle_type_id":"4","last_reported":1761622554,"current_range_meters":22400,"station_id":"ce4bgt12rcd13ifvqce0","pricing_plan_id":"cebpf4jnsgd1na2vs0mg"},{"bike_id":"dc354283-d041-4993-a96c-10783f4690b7","system_id":"levelo_inurba_marseille","lat":43.25095,"lon":5.39522,"is_reserved":false,"is_disabled":false,"rental_uris":{"android":"levelo://app?vid=dc354283-d041-4993-a96c-10783f4690b7","ios":"levelo://app?vid=dc354283-d041-4993-a96c-10783f4690b7"},"vehicle_type_id":"4","last_reported":1761622554,"current_range_meters":22400,"station_id":"ce4bhm12rcd13ifvqgkg","pricing_plan_id":"cebpf4jnsgd1na2vs0mg"},{"bike_id":"bac68b83-cda6-46d4-8b8e-dd60882a0a93","system_id":"levelo_inurba_marseille","lat":43.28042,"lon":5.36951,"is_reserved":false,"is_disabled":false,"rental_uris":{"android":"levelo://app?vid=bac68b83-cda6-46d4-8b8e-dd60882a0a93","ios":"levelo://app?vid=bac68b83-cda6-46d4-8b8e-dd60882a0a93"},"vehicle_type_id":"4","last_reported":1761622554,"current_range_meters":22800,"station_id":"ce4bha12rcd13ifvqef0","pricing_plan_id":"cebpf4jnsgd1na2vs0mg"},{"bike_id":"db0d7fd2-78fb-49f2-88b1-362741a795cb","system_id":"levelo_inurba_marseille","lat":43.337444,"lon":5.374475,"is_reserved":false,"is_disabled":false,"rental_uris":{"android":"levelo://app?vid=db0d7fd2-78fb-49f2-88b1-362741a795cb","ios":"levelo://app?vid=db0d7fd2-78fb-49f2-88b1-362741a795cb"},"vehicle_type_id":"4","last_reported":1761622554,"current_range_meters":22800,"station_id":"","pricing_plan_id":"cebpf4jnsgd1na2vs0mg"},{"bike_id":"1a34b5a4-3c1e-479b-b6f5-76f97d5c5c52","system_id":"levelo_inurba_marseille","lat":43.28529,"lon":5.44105,"is_reserved":false,"is_disabled":false,"rental_uris":{"android":"levelo://app?vid=1a34b5a4-3c1e-479b-b6f5-76f97d5c5c52","ios":"levelo://app?vid=1a34b5a4-3c1e-479b-b6f5-76f97d5c5c52"},"vehicle_type_id":"4","last_reported":1761622554,"current_range_meters":22800,"station_id":"st_d3j3df2ikq2c7380ej80","pricing_plan_id":"cebpf4jnsgd1na2vs0mg"},{"bike_id":"bc7b3acb-9432-47ca-8e90-fa072d19adf8","system_id":"levelo_inurba_marseille","lat":43.31336,"lon":5.39697,"is_reserved":false,"is_disabled":true,"rental_uris":{"android":"levelo://app?vid=bc7b3acb-9432-47ca-8e90-fa072d19adf8","ios":"levelo://app?vid=bc7b3acb-9432-47ca-8e90-fa072d19adf8"},"vehicle_type_id":"4","last_reported":1761622554,"current_range_meters":22800,"station_id":"ce4bgvp2rcd13ifvqcu0","pricing_plan_id":"cebpf4jnsgd1na2vs0mg"},{"bike_id":"2a7dbe9f-5131-409a-9a9d-217342ff6bb1","system_id":"levelo_inurba_marseille","lat":43.30423,"lon":5.41281,"is_reserved":false,"is_disabled":false,"rental_uris":{"android":"levelo://app?vid=2a7dbe9f-5131-409a-9a9d-217342ff6bb1","ios":"levelo://app?vid=2a7dbe9f-5131-409a-9a9d-217342ff6bb1"},"vehicle_type_id":"4","last_reported":1761622554,"current_range_meters":22800,"station_id":"ce4bhop2rcd13ifvqh8g","pricing_plan_id":"cebpf4jnsgd1na2vs0mg"},{"bike_id":"710ca40b-777e-4c21-b0e7-9c3d7e1d80db","system_id":"levelo_inurba_marseille","lat":43.3066,"lon":5.40096,"is_reserved":false,"is_disabled":false,"rental_uris":{"android":"levelo://app?vid=710ca40b-777e-4c21-b0e7-9c3d7e1d80db","ios":"levelo://app?vid=710ca40b-777e-4c21-b0e7-9c3d7e1d80db"},"vehicle_type_id":"4","last_reported":1761622554,"current_range_meters":22800,"station_id":"ce4bh112rcd13ifvqda0","pricing_plan_id":"cebpf4jnsgd1na2vs0mg"},{"bike_id":"cdcc0522-e9c0-4a4b-9952-84841693714f","system_id":"levelo_inurba_marseille","lat":43.30333,"lon":5.40455,"is_reserved":false,"is_disabled":false,"rental_uris":{"android":"levelo://app?vid=cdcc0522-e9c0-4a4b-9952-84841693714f","ios":"levelo://app?vid=cdcc0522-e9c0-4a4b-9952-84841693714f"},"vehicle_type_id":"4","last_reported":1761622554,"current_range_meters":22800,"station_id":"ce4bh012rcd13ifvqd10","pricing_plan_id":"cebpf4jnsgd1na2vs0mg"},{"bike_id":"76078422-64fc-43f8-9e23-3babe3fd9b44","system_id":"levelo_inurba_marseille","lat":43.27065,"lon":5.422784,"is_reserved":false,"is_disabled":true,"rental_uris":{"android":"levelo://app?vid=76078422-64fc-43f8-9e23-3babe3fd9b44","ios":"levelo://app?vid=76078422-64fc-43f8-9e23-3babe3fd9b44"},"vehicle_type_id":"4","last_reported":1761622554,"current_range_meters":23200,"station_id":"ce4bhk92rcd13ifvqgb0","pricing_plan_id":"cebpf4jnsgd1na2vs0mg"},{"bike_id":"d9a6a1f6-ad3e-4d83-b3dd-5f0ef903b947","system_id":"levelo_inurba_marseille","lat":43.230866,"lon":5.354803,"is_reserved":false,"is_disabled":false,"rental_uris":{"android":"levelo://app?vid=d9a6a1f6-ad3e-4d83-b3dd-5f0ef903b947","ios":"levelo://app?vid=d9a6a1f6-ad3e-4d83-b3dd-5f0ef903b947"},"vehicle_type_id":"4","last_reported":1761622554,"current_range_meters":23200,"station_id":"","pricing_plan_id":"cebpf4jnsgd1na2vs0mg"},{"bike_id":"9fbba057-dacf-495b-8346-f987d25ac873","system_id":"levelo_inurba_marseille","lat":43.337733,"lon":5.374717,"is_reserved":false,"is_disabled":false,"rental_uris":{"android":"levelo://app?vid=9fbba057-dacf-495b-8346-f987d25ac873","ios":"levelo://app?vid=9fbba057-dacf-495b-8346-f987d25ac873"},"vehicle_type_id":"4","last_reported":1761622554,"current_range_meters":23200,"station_id":"","pricing_plan_id":"cebpf4jnsgd1na2vs0mg"},{"bike_id":"fe99f934-abe9-4434-9a95-28acc38e936e","system_id":"levelo_inurba_marseille","lat":43.30794,"lon":5.38152,"is_reserved":false,"is_disabled":false,"rental_uris":{"android":"levelo://app?vid=fe99f934-abe9-4434-9a95-28acc38e936e","ios":"levelo://app?vid=fe99f934-abe9-4434-9a95-28acc38e936e"},"vehicle_type_id":"4","last_reported":1761622554,"current_range_meters":23200,"station_id":"ce4bgt12rcd13ifvqce0","pricing_plan_id":"cebpf4jnsgd1na2vs0mg"},{"bike_id":"f5cce3b7-61a8-4557-ab40-61fe738db22a","system_id":"levelo_inurba_marseille","lat":43.308,"lon":5.381473,"is_reserved":false,"is_disabled":false,"rental_uris":{"android":"levelo://app?vid=f5cce3b7-61a8-4557-ab40-61fe738db22a","ios":"levelo://app?vid=f5cce3b7-61a8-4557-ab40-61fe738db22a"},"vehicle_type_id":"4","last_reported":1761622554,"current_range_meters":23200,"station_id":"ce4bgt12rcd13ifvqce0","pricing_plan_id":"cebpf4jnsgd1na2vs0mg"},{"bike_id":"0867dc9c-63b8-44d4-b086-02bdb925d03e","system_id":"levelo_inurba_marseille","lat":43.28485,"lon":5.35882,"is_reserved":false,"is_disabled":false,"rental_uris":{"android":"levelo://app?vid=0867dc9c-63b8-44d4-b086-02bdb925d03e","ios":"levelo://app?vid=0867dc9c-63b8-44d4-b086-02bdb925d03e"},"vehicle_type_id":"4","last_reported":1761622554,"current_range_meters":23200,"station_id":"ce4bhah2rcd13ifvqei0","pricing_plan_id":"cebpf4jnsgd1na2vs0mg"},{"bike_id":"2b27cebd-4811-4769-9f94-b43b631016a5","system_id":"levelo_inurba_marseille","lat":43.240727,"lon":5.37753,"is_reserved":false,"is_disabled":false,"rental_uris":{"android":"levelo://app?vid=2b27cebd-4811-4769-9f94-b43b631016a5","ios":"levelo://app?vid=2b27cebd-4811-4769-9f94-b43b631016a5"},"vehicle_type_id":"4","last_reported":1761622554,"current_range_meters":23200,"station_id":"ce4bhnp2rcd13ifvqgvg","pricing_plan_id":"cebpf4jnsgd1na2vs0mg"},{"bike_id":"723a003b-69e7-40c1-8770-b8861d0b490a","system_id":"levelo_inurba_marseille","lat":43.229298,"lon":5.353768,"is_reserved":false,"is_disabled":false,"rental_uris":{"android":"levelo://app?vid=723a003b-69e7-40c1-8770-b8861d0b490a","ios":"levelo://app?vid=723a003b-69e7-40c1-8770-b8861d0b490a"},"vehicle_type_id":"4","last_reported":1761622554,"current_range_meters":23200,"station_id":"cpo3532slgdg3j2ikp40","pricing_plan_id":"cebpf4jnsgd1na2vs0mg"},{"bike_id":"47e33cec-c0ed-49f8-a500-a4d49b77f176","system_id":"levelo_inurba_marseille","lat":43.308729,"lon":5.39641,"is_reserved":false,"is_disabled":false,"rental_uris":{"android":"levelo://app?vid=47e33cec-c0ed-49f8-a500-a4d49b77f176","ios":"levelo://app?vid=47e33cec-c0ed-49f8-a500-a4d49b77f176"},"vehicle_type_id":"4","last_reported":1761622554,"current_range_meters":23200,"station_id":"ce4bh012rcd13ifvqcv0","pricing_plan_id":"cebpf4jnsgd1na2vs0mg"},{"bike_id":"4af03bce-8d79-4c34-933c-6ae695bef430","system_id":"levelo_inurba_marseille","lat":43.309438,"lon":5.390333,"is_reserved":false,"is_disabled":false,"rental_uris":{"android":"levelo://app?vid=4af03bce-8d79-4c34-933c-6ae695bef430","ios":"levelo://app?vid=4af03bce-8d79-4c34-933c-6ae695bef430"},"vehicle_type_id":"4","last_reported":1761622554,"current_range_meters":23200,"station_id":"ce4bgup2rcd13ifvqco0","pricing_plan_id":"cebpf4jnsgd1na2vs0mg"},{"bike_id":"639e43d9-10dc-4ec1-bb0d-868fe5fa670f","system_id":"levelo_inurba_marseille","lat":43.27844,"lon":5.39201,"is_reserved":false,"is_disabled":false,"rental_uris":{"android":"levelo://app?vid=639e43d9-10dc-4ec1-bb0d-868fe5fa670f","ios":"levelo://app?vid=639e43d9-10dc-4ec1-bb0d-868fe5fa670f"},"vehicle_type_id":"4","last_reported":1761622554,"current_range_meters":24000,"station_id":"ce4bhjp2rcd13ifvqga0","pricing_plan_id":"cebpf4jnsgd1na2vs0mg"},{"bike_id":"2272590b-2b8a-400c-bd54-1f5b7df174ff","system_id":"levelo_inurba_marseille","lat":43.30814,"lon":5.38149,"is_reserved":false,"is_disabled":false,"rental_uris":{"android":"levelo://app?vid=2272590b-2b8a-400c-bd54-1f5b7df174ff","ios":"levelo://app?vid=2272590b-2b8a-400c-bd54-1f5b7df174ff"},"vehicle_type_id":"4","last_reported":1761622554,"current_range_meters":24000,"station_id":"ce4bgt12rcd13ifvqce0","pricing_plan_id":"cebpf4jnsgd1na2vs0mg"},{"bike_id":"266af94f-86f9-47ed-ac72-5d1daa89d9dd","system_id":"levelo_inurba_marseille","lat":43.31069,"lon":5.38358,"is_reserved":false,"is_disabled":false,"rental_uris":{"android":"levelo://app?vid=266af94f-86f9-47ed-ac72-5d1daa89d9dd","ios":"levelo://app?vid=266af94f-86f9-47ed-ac72-5d1daa89d9dd"},"vehicle_type_id":"4","last_reported":1761622554,"current_range_meters":24000,"station_id":"ce4bgv92rcd13ifvqcr0","pricing_plan_id":"cebpf4jnsgd1na2vs0mg"},{"bike_id":"9d19aa12-f7d8-4182-8cd0-6d800ec08c05","system_id":"levelo_inurba_marseille","lat":43.276166,"lon":5.360981,"is_reserved":false,"is_disabled":true,"rental_uris":{"android":"levelo://app?vid=9d19aa12-f7d8-4182-8cd0-6d800ec08c05","ios":"levelo://app?vid=9d19aa12-f7d8-4182-8cd0-6d800ec08c05"},"vehicle_type_id":"4","last_reported":1761622554,"current_range_meters":24000,"station_id":"ce4bgj92rcd13ifvqbe0","pricing_plan_id":"cebpf4jnsgd1na2vs0mg"},{"bike_id":"9b2d3801-8e2e-4bab-893d-2aae51b116a0","system_id":"levelo_inurba_marseille","lat":43.30923,"lon":5.40152,"is_reserved":false,"is_disabled":false,"rental_uris":{"android":"levelo://app?vid=9b2d3801-8e2e-4bab-893d-2aae51b116a0","ios":"levelo://app?vid=9b2d3801-8e2e-4bab-893d-2aae51b116a0"},"vehicle_type_id":"4","last_reported":1761622554,"current_range_meters":24000,"station_id":"ce4bgvp2rcd13ifvqct0","pricing_plan_id":"cebpf4jnsgd1na2vs0mg"},{"bike_id":"b432103f-72a5-411b-825e-323c507ee588","system_id":"levelo_inurba_marseille","lat":43.30352,"lon":5.41881,"is_reserved":false,"is_disabled":false,"rental_uris":{"android":"levelo://app?vid=b432103f-72a5-411b-825e-323c507ee588","ios":"levelo://app?vid=b432103f-72a5-411b-825e-323c507ee588"},"vehicle_type_id":"4","last_reported":1761622554,"current_range_meters":24000,"station_id":"ce4bhop2rcd13ifvqh7g","pricing_plan_id":"cebpf4jnsgd1na2vs0mg"},