{"last_updated":1728566306,"ttl":60,"version":"2.2","data":{"bikes":[{"bike_id":"69126490-ef7b-4827-bd17-9c66e91193f0","system_id":"levelo_inurba_marseille","lat":43.2738,"lon":5.36254,"is_reserved":false,"is_disabled":false,"rental_uris":{"android":"levelo://app?vid=69126490-ef7b-4827-bd17-9c66e91193f0","ios":"levelo://app?vid=69126490-ef7b-4827-bd17-9c66e91193f0"},"vehicle_type_id":"4","last_reported":1728566307,"current_range_meters":8000,"station_id":"ce4bhbh2rcd13ifvqeo0","pricing_plan_id":"cebpf4jnsgd1na2vs0mg"},{"bike_id":"ddb9679b-c37e-4bea-beb9-d80ba93eccb3","system_id":"levelo_inurba_marseille","lat":43.30192,"lon":5.36619,"is_reserved":false,"is_disabled":false,"rental_uris":{"android":"levelo://app?vid=ddb9679b-c37e-4bea-beb9-d80ba93eccb3","ios":"levelo://app?vid=ddb9679b-c37e-4bea-beb9-d80ba93eccb3"},"vehicle_type_id":"4","last_reported":1728566307,"current_range_meters":9600,"station_id":"ce4bgrh2rcd13ifvqc8g","pricing_plan_id":"cebpf4jnsgd1na2vs0mg"},{"bike_id":"5a050095-40e5-4cdc-b1ad-ee69f85d07c5","system_id":"levelo_inurba_marseille","lat":43.29184,"lon":5.35797,"is_reserved":false,"is_disabled":false,"rental_uris":{"android":"levelo://app?vid=5a050095-40e5-4cdc-b1ad-ee69f85d07c5","ios":"levelo://app?vid=5a050095-40e5-4cdc-b1ad-ee69f85d07c5"},"vehicle_type_id":"4","last_reported":1728566307,"current_range_meters":38800,"station_id":"ce4bhb12rcd13ifvqel0","pricing_plan_id":"cebpf4jnsgd1na2vs0mg"},{"bike_id":"292dd656-878e-4694-b083-60d94435e3fa","system_id":"levelo_inurba_marseille","lat":43.23233,"lon":5.399862,"is_reserved":false,"is_disabled":false,"rental_uris":{"android":"levelo://app?vid=292dd656-878e-4694-b083-60d94435e3fa","ios":"levelo://app?vid=292dd656-878e-4694-b083-60d94435e3fa"},"vehicle_type_id":"4","last_reported":1728566307,"current_range_meters":20800,"station_id":"ce4bhn12rcd13ifvqgqg","pricing_plan_id":"cebpf4jnsgd1na2vs0mg"},{"bike_id":"69e77010-a535-4398-8159-24f48f4c7d15","system_id":"levelo_inurba_marseille","lat":43.23065,"lon":5.35489,"is_reserved":false,"is_disabled":false,"rental_uris":{"android":"levelo://app?vid=69e77010-a535-4398-8159-24f48f4c7d15","ios":"levelo://app?vid=69e77010-a535-4398-8159-24f48f4c7d15"},"vehicle_type_id":"4","last_reported":1728566307,"current_range_meters":3200,"station_id":"cpo3342slgdg3j2ifvpg","pricing_plan_id":"cebpf4jnsgd1na2vs0mg"},{"bike_id":"3e0306fa-e65d-4c22-ab8a-755f60abe67f","system_id":"levelo_inurba_marseille","lat":43.29004,"lon":5.35605,"is_reserved":false,"is_disabled":false,"rental_uris":{"android":"levelo://app?vid=3e0306fa-e65d-4c22-ab8a-755f60abe67f","ios":"levelo://app?vid=3e0306fa-e65d-4c22-ab8a-755f60abe67f"},"vehicle_type_id":"4","last_reported":1728566307,"current_range_meters":16800,"station_id":"ce4bhb92rcd13ifvqen0","pricing_plan_id":"cebpf4jnsgd1na2vs0mg"},{"bike_id":"88fdfdd6-484a-4d1f-b406-2d619f38c49c","system_id":"levelo_inurba_marseille","lat":43.29923,"lon":5.36545,"is_reserved":false,"is_disabled":false,"rental_uris":{"android":"levelo://app?vid=88fdfdd6-484a-4d1f-b406-2d619f38c49c","ios":"levelo://app?vid=88fdfdd6-484a-4d1f-b406-2d619f38c49c"},"vehicle_type_id":"4","last_reported":1728566307,"current_range_meters":38400,"station_id":"ce4bgm92rcd13ifvqbr0","pricing_plan_id":"cebpf4jnsgd1na2vs0mg"},{"bike_id":"a150ccfc-b2ad-4e52-ad49-b5b8f02ce534","system_id":"levelo_inurba_marseille","lat":43.25584,"lon":5.38236,"is_reserved":false,"is_disabled":false,"rental_uris":{"android":"levelo://app?vid=a150ccfc-b2ad-4e52-ad49-b5b8f02ce534","ios":"levelo://app?vid=a150ccfc-b2ad-4e52-ad49-b5b8f02ce534"},"vehicle_type_id":"4","last_reported":1728566307,"current_range_meters":14000,"station_id":"ce4bhih2rcd13ifvqfs0","pricing_plan_id":"cebpf4jnsgd1na2vs0mg"},{"bike_id":"68da732f-bab2-45ab-be42-f31bd3898c6f","system_id":"levelo_inurba_marseille","lat":43.28709,"lon":5.37939,"is_reserved":false,"is_disabled":false,"rental_uris":{"android":"levelo://app?vid=68da732f-bab2-45ab-be42-f31bd3898c6f","ios":"levelo://app?vid=68da732f-bab2-45ab-be42-f31bd3898c6f"},"vehicle_type_id":"4","last_reported":1728566307,"current_range_meters":35200,"station_id":"ce4bh9p2rcd13ifvqec0","pricing_plan_id":"cebpf4jnsgd1na2vs0mg"},{"bike_id":"cccffc50-9a0b-4734-a27f-d6a731c161b9","system_id":"levelo_inurba_marseille","lat":43.26497,"lon":5.39533,"is_reserved":false,"is_disabled":false,"rental_uris":{"android":"levelo://app?vid=cccffc50-9a0b-4734-a27f-d6a731c161b9","ios":"levelo://app?vid=cccffc50-9a0b-4734-a27f-d6a731c161b9"},"vehicle_type_id":"4","last_reported":1728566307,"current_range_meters":16000,"station_id":"ce4bhi12rcd13ifvqfq0","pricing_plan_id":"cebpf4jnsgd1na2vs0mg"},{"bike_id":"b6238d41-ee15-425a-90f4-5765634a5d7f","system_id":"levelo_inurba_marseille","lat":43.23151,"lon":5.43711,"is_reserved":false,"is_disabled":false,"rental_uris":{"android":"levelo://app?vid=b6238d41-ee15-425a-90f4-5765634a5d7f","ios":"levelo://app?vid=b6238d41-ee15-425a-90f4-5765634a5d7f"},"vehicle_type_id":"4","last_reported":1728566307,"current_range_meters":40000,"station_id":"ce4bhmp2rcd13ifvqgog","pricing_plan_id":"cebpf4jnsgd1na2vs0mg"},{"bike_id":"91f9ac4e-26b4-4a3e-8d1b-584047d9b6a3","system_id":"levelo_inurba_marseille","lat":43.23146,"lon":5.4372,"is_reserved":false,"is_disabled":false,"rental_uris":{"android":"levelo://app?vid=91f9ac4e-26b4-4a3e-8d1b-584047d9b6a3","ios":"levelo://app?vid=91f9ac4e-26b4-4a3e-8d1b-584047d9b6a3"},"vehicle_type_id":"4","last_reported":1728566307,"current_range_meters":17200,"station_id":"ce4bhmp2rcd13ifvqgog","pricing_plan_id":"cebpf4jnsgd1na2vs0mg"},{"bike_id":"296d1880-4a03-4d23-a9cc-51df04a4af16","system_id":"levelo_inurba_marseille","lat":43.26197,"lon":5.37448,"is_reserved":false,"is_disabled":false,"rental_uris":{"android":"levelo://app?vid=296d1880-4a03-4d23-a9cc-51df04a4af16","ios":"levelo://app?vid=296d1880-4a03-4d23-a9cc-51df04a4af16"},"vehicle_type_id":"4","last_reported":1728566307,"current_range_meters":36400,"station_id":"ce4bhgp2rcd13ifvqfc0","pricing_plan_id":"cebpf4jnsgd1na2vs0mg"},{"bike_id":"729d92a6-b5d4-421f-82bd-c3e31fbc602e","system_id":"levelo_inurba_marseille","lat":43.23162,"lon":5.43725,"is_reserved":false,"is_disabled":false,"rental_uris":{"android":"levelo://app?vid=729d92a6-b5d4-421f-82bd-c3e31fbc602e","ios":"levelo://app?vid=729d92a6-b5d4-421f-82bd-c3e31fbc602e"},"vehicle_type_id":"4","last_reported":1728566307,"current_range_meters":40000,"station_id":"ce4bhmp2rcd13ifvqgog","pricing_plan_id":"cebpf4jnsgd1na2vs0mg"},{"bike_id":"6cb2fd54-0aca-4f7d-aadb-bc057dc4fb59","system_id":"levelo_inurba_marseille","lat":43.23063,"lon":5.35492,"is_reserved":false,"is_disabled":false,"rental_uris":{"android":"levelo://app?vid=6cb2fd54-0aca-4f7d-aadb-bc057dc4fb59","ios":"levelo://app?vid=6cb2fd54-0aca-4f7d-aadb-bc057dc4fb59"},"vehicle_type_id":"4","last_reported":1728566307,"current_range_meters":33200,"station_id":"cpo3342slgdg3j2ifvpg","pricing_plan_id":"cebpf4jnsgd1na2vs0mg"},{"bike_id":"886aa239-0ce6-4cc7-a1be-709bc947b872","system_id":"levelo_inurba_marseille","lat":43.28159,"lon":5.42649,"is_reserved":false,"is_disabled":false,"rental_uris":{"android":"levelo://app?vid=886aa239-0ce6-4cc7-a1be-709bc947b872","ios":"levelo://app?vid=886aa239-0ce6-4cc7-a1be-709bc947b872"},"vehicle_type_id":"4","last_reported":1728566307,"current_range_meters":6400,"station_id":"ce4bhnh2rcd13ifvqgug","pricing_plan_id":"cebpf4jnsgd1na2vs0mg"},{"bike_id":"cfe9fbc1-1d26-4e4e-a6a8-bed106055ea0","system_id":"levelo_inurba_marseille","lat":43.25113,"lon":5.40321,"is_reserved":false,"is_disabled":false,"rental_uris":{"android":"levelo://app?vid=cfe9fbc1-1d26-4e4e-a6a8-bed106055ea0","ios":"levelo://app?vid=cfe9fbc1-1d26-4e4e-a6a8-bed106055ea0"},"vehicle_type_id":"4","last_reported":1728566307,"current_range_meters":20000,"station_id":"ce4bhlh2rcd13ifvqgig","pricing_plan_id":"cebpf4jnsgd1na2vs0mg"},{"bike_id":"3e2c2673-e35c-4f73-b01a-83db872c550a","system_id":"levelo_inurba_marseille","lat":43.29002,"lon":5.35612,"is_reserved":false,"is_disabled":false,"rental_uris":{"android":"levelo://app?vid=3e2c2673-e35c-4f73-b01a-83db872c550a","ios":"levelo://app?vid=3e2c2673-e35c-4f73-b01a-83db872c550a"},"vehicle_type_id":"4","last_reported":1728566307,"current_range_meters":8800,"station_id":"ce4bhb92rcd13ifvqen0","pricing_plan_id":"cebpf4jnsgd1na2vs0mg"},{"bike_id":"ea16bbd0-d86c-4010-bdb9-3fdfed7c4934","system_id":"levelo_inurba_marseille","lat":43.24077,"lon":5.37729,"is_reserved":false,"is_disabled":false,"rental_uris":{"android":"levelo://app?vid=ea16bbd0-d86c-4010-bdb9-3fdfed7c4934","ios":"levelo://app?vid=ea16bbd0-d86c-4010-bdb9-3fdfed7c4934"},"vehicle_type_id":"4","last_reported":1728566307,"current_range_meters":30000,"station_id":"ce4bhb12rcd13ifvqem0","pricing_plan_id":"cebpf4jnsgd1na2vs0mg"},{"bike_id":"fe1386ee-6194-4218-a1fa-d1785afff62e","system_id":"levelo_inurba_marseille","lat":43.2681,"lon":5.40262,"is_reserved":false,"is_disabled":false,"rental_uris":{"android":"levelo://app?vid=fe1386ee-6194-4218-a1fa-d1785afff62e","ios":"levelo://app?vid=fe1386ee-6194-4218-a1fa-d1785afff62e"},"vehicle_type_id":"4","last_reported":1728566307,"current_range_meters":30400,"station_id":"ce501612rcd8frsf0b60","pricing_plan_id":"cebpf4jnsgd1na2vs0mg"},{"bike_id":"e738f792-d1ea-4102-832e-eb54b9a80066","system_id":"levelo_inurba_marseille","lat":43.29879,"lon":5.38911,"is_reserved":false,"is_disabled":false,"rental_uris":{"android":"levelo://app?vid=e738f792-d1ea-4102-832e-eb54b9a80066","ios":"levelo://app?vid=e738f792-d1ea-4102-832e-eb54b9a80066"},"vehicle_type_id":"4","last_reported":1728566307,"current_range_meters":38400,"station_id":"ce4bh392rcd13ifvqdl0","pricing_plan_id":"cebpf4jnsgd1na2vs0mg"},{"bike_id":"521aad26-8d5f-4bdc-9daf-8b8b5a909a80","system_id":"levelo_inurba_marseille","lat":43.337444,"lon":5.374475,"is_reserved":false,"is_disabled":false,"rental_uris":{"android":"levelo://app?vid=521aad26-8d5f-4bdc-9daf-8b8b5a909a80","ios":"levelo://app?vid=521aad26-8d5f-4bdc-9daf-8b8b5a909a80"},"vehicle_type_id":"4","last_reported":1728566307,"current_range_meters":28800,"station_id":"","pricing_plan_id":"cebpf4jnsgd1na2vs0mg"},{"bike_id":"47cb8324-2b1f-4a52-a0c2-57a12d7d64fb","system_id":"levelo_inurba_marseille","lat":43.30142,"lon":5.37405,"is_reserved":false,"is_disabled":false,"rental_uris":{"android":"levelo://app?vid=47cb8324-2b1f-4a52-a0c2-57a12d7d64fb","ios":"levelo://app?vid=47cb8324-2b1f-4a52-a0c2-57a12d7d64fb"},"vehicle_type_id":"4","last_reported":1728566307,"current_range_meters":13600,"station_id":"ce4bgs92rcd13ifvqcc0","pricing_plan_id":"cebpf4jnsgd1na2vs0mg"},{"bike_id":"809de639-a249-4730-9001-387c144bca21","system_id":"levelo_inurba_marseille","lat":43.26031,"lon":5.37547,"is_reserved":false,"is_disabled":false,"rental_uris":{"android":"levelo://app?vid=809de639-a249-4730-9001-387c144bca21","ios":"levelo://app?vid=809de639-a249-4730-9001-387c144bca21"},"vehicle_type_id":"4","last_reported":1728566307,"current_range_meters":37600,"station_id":"ce4bhgh2rcd13ifvqfa0","pricing_plan_id":"cebpf4jnsgd1na2vs0mg"},{"bike_id":"e872fc30-3c57-4a83-b46e-c9748d4c279a","system_id":"levelo_inurba_marseille","lat":43.33731,"lon":5.39191,"is_reserved":false,"is_disabled":false,"rental_uris":{"android":"levelo://app?vid=e872fc30-3c57-4a83-b46e-c9748d4c279a","ios":"levelo://app?vid=e872fc30-3c57-4a83-b46e-c9748d4c279a"},"vehicle_type_id":"4","last_reported":1728566307,"current_range_meters":25600,"station_id":"ce4bhr92rcd13ifvqhsg","pricing_plan_id":"cebpf4jnsgd1na2vs0mg"},{"bike_id":"8fd52a26-edb1-4575-bac7-84ab2b847ac9","system_id":"levelo_inurba_marseille","lat":43.25115,"lon":5.40321,"is_reserved":false,"is_disabled":false,"rental_uris":{"android":"levelo://app?vid=8fd52a26-edb1-4575-bac7-84ab2b847ac9","ios":"levelo://app?vid=8fd52a26-edb1-4575-bac7-84ab2b847ac9"},"vehicle_type_id":"4","last_reported":1728566307,"current_range_meters":12800,"station_id":"ce4bhlh2rcd13ifvqgig","pricing_plan_id":"cebpf4jnsgd1na2vs0mg"},{"bike_id":"4bf1b7d0-8ca5-4162-9418-d066b5456d4a","system_id":"levelo_inurba_marseille","lat":43.278355,"lon":5.392079,"is_reserved":false,"is_disabled":false,"rental_uris":{"android":"levelo://app?vid=4bf1b7d0-8ca5-4162-9418-d066b5456d4a","ios":"levelo://app?vid=4bf1b7d0-8ca5-4162-9418-d066b5456d4a"},"vehicle_type_id":"4","last_reported":1728566307,"current_range_meters":21600,"station_id":"ce4bhjp2rcd13ifvqga0","pricing_plan_id":"cebpf4jnsgd1na2vs0mg"},{"bike_id":"608cac91-46ad-44b9-b9d0-f2c3d0b6ae87","system_id":"levelo_inurba_marseille","lat":43.26372,"lon":5.40137,"is_reserved":false,"is_disabled":false,"rental_uris":{"android":"levelo://app?vid=608cac91-46ad-44b9-b9d0-f2c3d0b6ae87","ios":"levelo://app?vid=608cac91-46ad-44b9-b9d0-f2c3d0b6ae87"},"vehicle_type_id":"4","last_reported":1728566307,"current_range_meters":22800,"station_id":"","pricing_plan_id":"cebpf4jnsgd1na2vs0mg"},{"bike_id":"1f9a995e-2b73-4774-826d-84c269f378c7","system_id":"levelo_inurba_marseille","lat":43.27944,"lon":5.41036,"is_reserved":false,"is_disabled":false,"rental_uris":{"android":"levelo://app?vid=1f9a995e-2b73-4774-826d-84c269f378c7","ios":"levelo://app?vid=1f9a995e-2b73-4774-826d-84c269f378c7"},"vehicle_type_id":"4","last_reported":1728566307,"current_range_meters":16800,"station_id":"ce4bhnp2rcd13ifvqh0g","pricing_plan_id":"cebpf4jnsgd1na2vs0mg"},{"bike_id":"1724a986-206e-44c4-acc6-99c3f365633c","system_id":"levelo_inurba_marseille","lat":43.23194,"lon":5.3555,"is_reserved":false,"is_disabled":false,"rental_uris":{"android":"levelo://app?vid=1724a986-206e-44c4-acc6-99c3f365633c","ios":"levelo://app?vid=1724a986-206e-44c4-acc6-99c3f365633c"},"vehicle_type_id":"4","last_reported":1728566307,"current_range_meters":18800,"station_id":"ce4bhu92rcd13ifvqi70","pricing_plan_id":"cebpf4jnsgd1na2vs0mg"},{"bike_id":"c245575d-cabc-429f-a684-5c79021eb0ec","system_id":"levelo_inurba_marseille","lat":43.33748,"lon":5.37441,"is_reserved":false,"is_disabled":false,"rental_uris":{"android":"levelo://app?vid=c245575d-cabc-429f-a684-5c79021eb0ec","ios":"levelo://app?vid=c245575d-cabc-429f-a684-5c79021eb0ec"},"vehicle_type_id":"4","last_reported":1728566307,"current_range_meters":35200,"station_id":"","pricing_plan_id":"cebpf4jnsgd1na2vs0mg"},{"bike_id":"a76ce426-c15e-429e-a703-154566c40993","system_id":"levelo_inurba_marseille","lat":43.34144,"lon":5.40897,"is_reserved":false,"is_disabled":false,"rental_uris":{"android":"levelo://app?vid=a76ce426-c15e-429e-a703-154566c40993","ios":"levelo://app?vid=a76ce426-c15e-429e-a703-154566c40993"},"vehicle_type_id":"4","last_reported":1728566307,"current_range_meters":24800,"station_id":"ce4bhqh2rcd13ifvqhlg","pricing_plan_id":"cebpf4jnsgd1na2vs0mg"},{"bike_id":"6520f309-c7b4-4afe-875c-0449ba97c561","system_id":"levelo_inurba_marseille","lat":43.28461,"lon":5.35901,"is_reserved":false,"is_disabled":false,"rental_uris":{"android":"levelo://app?vid=6520f309-c7b4-4afe-875c-0449ba97c561","ios":"levelo://app?vid=6520f309-c7b4-4afe-875c-0449ba97c561"},"vehicle_type_id":"4","last_reported":1728566307,"current_range_meters":4400,"station_id":"ce4bhah2rcd13ifvqei0","pricing_plan_id":"cebpf4jnsgd1na2vs0mg"},{"bike_id":"dc64a91d-26f6-4b7c-ac5f-3f3bef4d84e4","system_id":"levelo_inurba_marseille","lat":43.30539,"lon":5.38426,"is_reserved":false,"is_disabled":false,"rental_uris":{"android":"levelo://app?vid=dc64a91d-26f6-4b7c-ac5f-3f3bef4d84e4","ios":"levelo://app?vid=dc64a91d-26f6-4b7c-ac5f-3f3bef4d84e4"},"vehicle_type_id":"4","last_reported":1728566307,"current_range_meters":14000,"station_id":"ce4bgg92rcd13ifvqb30","pricing_plan_id":"cebpf4jnsgd1na2vs0mg"},{"bike_id":"47599fab-79da-461f-89fd-43d1d10b8a6d","system_id":"levelo_inurba_marseille","lat":43.23156,"lon":5.4371,"is_reserved":false,"is_disabled":false,"rental_uris":{"android":"levelo://app?vid=47599fab-79da-461f-89fd-43d1d10b8a6d","ios":"levelo://app?vid=47599fab-79da-461f-89fd-43d1d10b8a6d"},"vehicle_type_id":"4","last_reported":1728566307,"current_range_meters":39200,"station_id":"ce4bhmp2rcd13ifvqgog","pricing_plan_id":"cebpf4jnsgd1na2vs0mg"},{"bike_id":"c2709d8c-182c-4c66-9678-32143d413767","system_id":"levelo_inurba_marseille","lat":43.22936,"lon":5.35378,"is_reserved":false,"is_disabled":false,"rental_uris":{"android":"levelo://app?vid=c2709d8c-182c-4c66-9678-32143d413767","ios":"levelo://app?vid=c2709d8c-182c-4c66-9678-32143d413767"},"vehicle_type_id":"4","last_reported":1728566307,"current_range_meters":36800,"station_id":"cpo3532slgdg3j2ikp40","pricing_plan_id":"cebpf4jnsgd1na2vs0mg"},{"bike_id":"ec63c6e9-432c-4339-881b-b1c70a7e2cfb","system_id":"levelo_inurba_marseille","lat":43.28264,"lon":5.35061,"is_reserved":false,"is_disabled":false,"rental_uris":{"android":"levelo://app?vid=ec63c6e9-432c-4339-881b-b1c70a7e2cfb","ios":"levelo://app?vid=ec63c6e9-432c-4339-881b-b1c70a7e2cfb"},"vehicle_type_id":"4","last_reported":1728566307,"current_range_meters":11200,"station_id":"ce4bhbp2rcd13ifvqerg","pricing_plan_id":"cebpf4jnsgd1na2vs0mg"},{"bike_id":"30f0703f-78bb-4b0a-8c82-eaa9ac348723","system_id":"levelo_inurba_marseille","lat":43.27543,"lon":5.384193,"is_reserved":false,"is_disabled":false,"rental_uris":{"android":"levelo://app?vid=30f0703f-78bb-4b0a-8c82-eaa9ac348723","ios":"levelo://app?vid=30f0703f-78bb-4b0a-8c82-eaa9ac348723"},"vehicle_type_id":"4","last_reported":1728566307,"current_range_meters":16000,"station_id":"ce4bhh92rcd13ifvqfi0","pricing_plan_id":"cebpf4jnsgd1na2vs0mg"},{"bike_id":"fb93034e-0501-4b3b-b79d-d4b616497b10","system_id":"levelo_inurba_marseille","lat":43.24667,"lon":5.38186,"is_reserved":false,"is_disabled":false,"rental_uris":{"android":"levelo://app?vid=fb93034e-0501-4b3b-b79d-d4b616497b10","ios":"levelo://app?vid=fb93034e-0501-4b3b-b79d-d4b616497b10"},"vehicle_type_id":"4","last_reported":1728566307,"current_range_meters":27200,"station_id":"ce4bhih2rcd13ifvqfr0","pricing_plan_id":"cebpf4jnsgd1na2vs0mg"},{"bike_id":"82277a24-4395-4488-8954-30bbc445482e","system_id":"levelo_inurba_marseille","lat":43.27669,"lon":5.38888,"is_reserved":false,"is_disabled":false,"rental_uris":{"android":"levelo://app?vid=82277a24-4395-4488-8954-30bbc445482e","ios":"levelo://app?vid=82277a24-4395-4488-8954-30bbc445482e"},"vehicle_type_id":"4","last_reported":1728566307,"current_range_meters":27600,"station_id":"ce4bhi12rcd13ifvqfo0","pricing_plan_id":"cebpf4jnsgd1na2vs0mg"},{"bike_id":"b4b94730-bf4c-4fc1-b926-edb92ed67e7b","system_id":"levelo_inurba_marseille","lat":43.29197,"lon":5.39321,"is_reserved":false,"is_disabled":false,"rental_uris":{"android":"levelo://app?vid=b4b94730-bf4c-4fc1-b926-edb92ed67e7b","ios":"levelo://app?vid=b4b94730-bf4c-4fc1-b926-edb92ed67e7b"},"vehicle_type_id":"4","last_reported":1728566307,"current_range_meters":28000,"station_id":"ce4bh192rcd13ifvqdd0","pricing_plan_id":"cebpf4jnsgd1na2vs0mg"},{"bike_id":"501fc2b6-79a4-46eb-ab0b-210f344bdde0","system_id":"levelo_inurba_marseille","lat":43.29722,"lon":5.37683,"is_reserved":false,"is_disabled":false,"rental_uris":{"android":"levelo://app?vid=501fc2b6-79a4-46eb-ab0b-210f344bdde0","ios":"levelo://app?vid=501fc2b6-79a4-46eb-ab0b-210f344bdde0"},"vehicle_type_id":"4","last_reported":1728566307,"current_range_meters":8000,"station_id":"ce4bgkh2rcd13ifvqbl0","pricing_plan_id":"cebpf4jnsgd1na2vs0mg"},{"bike_id":"56e74316-37dd-4e48-861e-21d9d6b063c0","system_id":"levelo_inurba_marseille","lat":43.29079,"lon":5.37168,"is_reserved":false,"is_disabled":false,"rental_uris":{"android":"levelo://app?vid=56e74316-37dd-4e48-861e-21d9d6b063c0","ios":"levelo://app?vid=56e74316-37dd-4e48-861e-21d9d6b063c0"},"vehicle_type_id":"4","last_reported":1728566307,"current_range_meters":12800,"station_id":"ce4bh5p2rcd13ifvqe4g","pricing_plan_id":"cebpf4jnsgd1na2vs0mg"},{"bike_id":"f92a9fb8-9f73-4cf9-bc9b-2bdf5b520248","system_id":"levelo_inurba_marseille","lat":43.32551,"lon":5.4144,"is_reserved":false,"is_disabled":false,"rental_uris":{"android":"levelo://app?vid=f92a9fb8-9f73-4cf9-bc9b-2bdf5b520248","ios":"levelo://app?vid=f92a9fb8-9f73-4cf9-bc9b-2bdf5b520248"},"vehicle_type_id":"4","last_reported":1728566307,"current_range_meters":38800,"station_id":"ce4bhq12rcd13ifvqhhg","pricing_plan_id":"cebpf4jnsgd1na2vs0mg"},{"bike_id":"4c57c060-1d66-4150-a400-d403f0d4484f","system_id":"levelo_inurba_marseille","lat":43.3266,"lon":5.40984,"is_reserved":false,"is_disabled":false,"rental_uris":{"android":"levelo://app?vid=4c57c060-1d66-4150-a400-d403f0d4484f","ios":"levelo://app?vid=4c57c060-1d66-4150-a400-d403f0d4484f"},"vehicle_type_id":"4","last_reported":1728566307,"current_range_meters":3600,"station_id":"ce4bhpp2rcd13ifvqhgg","pricing_plan_id":"cebpf4jnsgd1na2vs0mg"},{"bike_id":"252fdafd-d8bd-4445-933f-8c7cfafc9fac","system_id":"levelo_inurba_marseille","lat":43.24806,"lon":5.37456,"is_reserved":false,"is_disabled":false,"rental_uris":{"android":"levelo://app?vid=252fdafd-d8bd-4445-933f-8c7cfafc9fac","ios":"levelo://app?vid=252fdafd-d8bd-4445-933f-8c7cfafc9fac"},"vehicle_type_id":"4","last_reported":1728566307,"current_range_meters":38000,"station_id":"ce4bhgh2rcd13ifvqfb0","pricing_plan_id":"cebpf4jnsgd1na2vs0mg"},{"bike_id":"bb92accd-eff1-4065-a2bf-465635e1bfe4","system_id":"levelo_inurba_marseille","lat":43.29177,"lon":5.40767,"is_reserved":false,"is_disabled":false,"rental_uris":{"android":"levelo://app?vid=bb92accd-eff1-4065-a2bf-465635e1bfe4","ios":"levelo://app?vid=bb92accd-eff1-4065-a2bf-465635e1bfe4"},"vehicle_type_id":"4","last_reported":1728566307,"current_range_meters":6800,"station_id":"ce4bhph2rcd13ifvqhdg","pricing_plan_id":"cebpf4jnsgd1na2vs0mg"},{"bike_id":"87650cd5-7e36-480f-9b43-2e4e89499248","system_id":"levelo_inurba_marseille","lat":43.28472,"lon":5.3856,"is_reserved":false,"is_disabled":false,"rental_uris":{"android":"levelo://app?vid=87650cd5-7e36-480f-9b43-2e4e89499248","ios":"levelo://app?vid=87650cd5-7e36-480f-9b43-2e4e89499248"},"vehicle_type_id":"4","last_reported":1728566307,"current_range_meters":32800,"station_id":"ce4bh8p2rcd13ifvqeb0","pricing_plan_id":"cebpf4jnsgd1na2vs0mg"},{"bike_id":"bbb6e462-ac44-4b4f-a728-dbdc5336b95d","system_id":"levelo_inurba_marseille","lat":43.337444,"lon":5.374475,"is_reserved":false,"is_disabled":false,"rental_uris":{"android":"levelo://app?vid=bbb6e462-ac44-4b4f-a728-dbdc5336b95d","ios":"levelo://app?vid=bbb6e462-ac44-4b4f-a728-dbdc5336b95d"},"vehicle_type_id":"4","last_reported":1728566307,"current_range_meters":12000,"station_id":"ce4bhb12rcd13ifvqem0","pricing_plan_id":"cebpf4jnsgd1na2vs0mg"},{"bike_id":"50aa4af7-94b4-48c9-959d-eeec3eaec001","system_id":"levelo_inurba_marseille","lat":43.2319,"lon":5.35544,"is_reserved":false,"is_disabled":false,"rental_uris":{"android":"levelo://app?vid=50aa4af7-94b4-48c9-959d-eeec3eaec001","ios":"levelo://app?vid=50aa4af7-94b4-48c9-959d-eeec3eaec001"},"vehicle_type_id":"4","last_reported":1728566307,"current_range_meters":7200,"station_id":"ce4bhu92rcd13ifvqi70","pricing_plan_id":"cebpf4jnsgd1na2vs0mg"},{"bike_id":"353b8ff1-1e98-4bd6-b70d-e209819de014","system_id":"levelo_inurba_marseille","lat":43.279144,"lon":5.39575,"is_reserved":false,"is_disabled":false,"rental_uris":{"android":"levelo://app?vid=353b8ff1-1e98-4bd6-b70d-e209819de014","ios":"levelo://app?vid=353b8ff1-1e98-4bd6-b70d-e209819de014"},"vehicle_type_id":"4","last_reported":1728566307,"current_range_meters":38800,"station_id":"ce4bhf92rcd13ifvqf40","pricing_plan_id":"cebpf4jnsgd1na2vs0mg"},{"bike_id":"5fcb97b9-d425-4a7f-9ed0-6de30a7d55a1","system_id":"levelo_inurba_marseille","lat":43.24804,"lon":5.37461,"is_reserved":false,"is_disabled":false,"rental_uris":{"android":"levelo://app?vid=5fcb97b9-d425-4a7f-9ed0-6de30a7d55a1","ios":"levelo://app?vid=5fcb97b9-d425-4a7f-9ed0-6de30a7d55a1"},"vehicle_type_id":"4","last_reported":1728566307,"current_range_meters":38800,"station_id":"ce4bhgh2rcd13ifvqfb0","pricing_plan_id":"cebpf4jnsgd1na2vs0mg"},{"bike_id":"eb0311ff-248c-4da5-a47c-f254b60ac6cf","system_id":"levelo_inurba_marseille","lat":43.28406,"lon":5.37522,"is_reserved":false,"is_disabled":false,"rental_uris":{"android":"levelo://app?vid=eb0311ff-248c-4da5-a47c-f254b60ac6cf","ios":"levelo://app?vid=eb0311ff-248c-4da5-a47c-f254b60ac6cf"},"vehicle_type_id":"4","last_reported":1728566307,"current_range_meters":20800,"station_id":"ce4bh412rcd13ifvqds0","pricing_plan_id":"cebpf4jnsgd1na2vs0mg"},{"bike_id":"e073a646-d4b2-46d0-bf7c-751e13eec7ba","system_id":"levelo_inurba_marseille","lat":43.31275,"lon":5.40164,"is_reserved":false,"is_disabled":false,"rental_uris":{"android":"levelo://app?vid=e073a646-d4b2-46d0-bf7c-751e13eec7ba","ios":"levelo://app?vid=e073a646-d4b2-46d0-bf7c-751e13eec7ba"},"vehicle_type_id":"4","last_reported":1728566307,"current_range_meters":6400,"station_id":"ce4bh092rcd13ifvqd30","pricing_plan_id":"cebpf4jnsgd1na2vs0mg"},{"bike_id":"27119b2c-0155-43be-b9ea-3639682fca07","system_id":"levelo_inurba_marseille","lat":43.25581,"lon":5.38231,"is_reserved":false,"is_disabled":false,"rental_uris":{"android":"levelo://app?vid=27119b2c-0155-43be-b9ea-3639682fca07","ios":"levelo://app?vid=27119b2c-0155-43be-b9ea-3639682fca07"},"vehicle_type_id":"4","last_reported":1728566307,"current_range_meters":9200,"station_id":"ce4bhih2rcd13ifvqfs0","pricing_plan_id":"cebpf4jnsgd1na2vs0mg"},{"bike_id":"4776d139-3042-4647-bd66-4408eb0dfaae","system_id":"levelo_inurba_marseille","lat":43.26682,"lon":5.38265,"is_reserved":false,"is_disabled":false,"rental_uris":{"android":"levelo://app?vid=4776d139-3042-4647-bd66-4408eb0dfaae","ios":"levelo://app?vid=4776d139-3042-4647-bd66-4408eb0dfaae"},"vehicle_type_id":"4","last_reported":1728566307,"current_range_meters":35600,"station_id":"ce4bhg92rcd13ifvqf90","pricing_plan_id":"cebpf4jnsgd1na2vs0mg"},{"bike_id":"1eda9a62-3980-4c15-b6d5-579365675c4b","system_id":"levelo_inurba_marseille","lat":43.29033,"lon":5.37775,"is_reserved":false,"is_disabled":false,"rental_uris":{"android":"levelo://app?vid=1eda9a62-3980-4c15-b6d5-579365675c4b","ios":"levelo://app?vid=1eda9a62-3980-4c15-b6d5-579365675c4b"},"vehicle_type_id":"4","last_reported":1728566307,"current_range_meters":4000,"station_id":"ce4bhbh2rcd13ifvqepg","pricing_plan_id":"cebpf4jnsgd1na2vs0mg"},{"bike_id":"52799f7c-437d-4392-9ce1-0dc74f861eb0","system_id":"levelo_inurba_marseille","lat":43.28465,"lon":5.35897,"is_reserved":false,"is_disabled":false,"rental_uris":{"android":"levelo://app?vid=52799f7c-437d-4392-9ce1-0dc74f861eb0","ios":"levelo://app?vid=52799f7c-437d-4392-9ce1-0dc74f861eb0"},"vehicle_type_id":"4","last_reported":1728566307,"current_range_meters":7200,"station_id":"ce4bhah2rcd13ifvqei0","pricing_plan_id":"cebpf4jnsgd1na2vs0mg"},{"bike_id":"58f396d9-d7b2-4aa8-aa45-33d5eaeb0cb5","system_id":"levelo_inurba_marseille","lat":43.30688,"lon":5.39501,"is_reserved":false,"is_disabled":false,"rental_uris":{"android":"levelo://app?vid=58f396d9-d7b2-4aa8-aa45-33d5eaeb0cb5","ios":"levelo://app?vid=58f396d9-d7b2-4aa8-aa45-33d5eaeb0cb5"},"vehicle_type_id":"4","last_reported":1728566307,"current_range_meters":30000,"station_id":"","pricing_plan_id":"cebpf4jnsgd1na2vs0mg"},{"bike_id":"ff68b789-7173-415f-860f-fb58c1b9d01d","system_id":"levelo_inurba_marseille","lat":43.22928,"lon":5.35376,"is_reserved":false,"is_disabled":false,"rental_uris":{"android":"levelo://app?vid=ff68b789-7173-415f-860f-fb58c1b9d01d","ios":"levelo://app?vid=ff68b789-7173-415f-860f-fb58c1b9d01d"},"vehicle_type_id":"4","last_reported":1728566307,"current_range_meters":36400,"station_id":"cpo3532slgdg3j2ikp40","pricing_plan_id":"cebpf4jnsgd1na2vs0mg"},{"bike_id":"37a08af7-325c-40f6-af38-b0ec975f542f","system_id":"levelo_inurba_marseille","lat":43.30109,"lon":5.37509,"is_reserved":false,"is_disabled":false,"rental_uris":{"android":"levelo://app?vid=37a08af7-325c-40f6-af38-b0ec975f542f","ios":"levelo://app?vid=37a08af7-325c-40f6-af38-b0ec975f542f"},"vehicle_type_id":"4","last_reported":1728566307,"current_range_meters":20800,"station_id":"ce4bgt12rcd13ifvqcd0","pricing_plan_id":"cebpf4jnsgd1na2vs0mg"},{"bike_id":"924a9ed1-ca4e-44c4-a003-5955b143b28c","system_id":"levelo_inurba_marseille","lat":43.23201,"lon":5.35548,"is_reserved":false,"is_disabled":false,"rental_uris":{"android":"levelo://app?vid=924a9ed1-ca4e-44c4-a003-5955b143b28c","ios":"levelo://app?vid=924a9ed1-ca4e-44c4-a003-5955b143b28c"},"vehicle_type_id":"4","last_reported":1728566307,"current_range_meters":9600,"station_id":"ce4bhu92rcd13ifvqi70","pricing_plan_id":"cebpf4jnsgd1na2vs0mg"},{"bike_id":"a35de84f-3825-43dc-8f63-8639de4d80fe","system_id":"levelo_inurba_marseille","lat":43.28002,"lon":5.41669,"is_reserved":false,"is_disabled":false,"rental_uris":{"android":"levelo://app?vid=a35de84f-3825-43dc-8f63-8639de4d80fe","ios":"levelo://app?vid=a35de84f-3825-43dc-8f63-8639de4d80fe"},"vehicle_type_id":"4","last_reported":1728566307,"current_range_meters":16800,"station_id":"ce4bho12rcd13ifvqh1g","pricing_plan_id":"cebpf4jnsgd1na2vs0mg"},{"bike_id":"2c35604b-b396-4f9a-ab50-7f39e860f30f","system_id":"levelo_inurba_marseille","lat":43.26678,"lon":5.38264,"is_reserved":false,"is_disabled":false,"rental_uris":{"android":"levelo://app?vid=2c35604b-b396-4f9a-ab50-7f39e860f30f","ios":"levelo://app?vid=2c35604b-b396-4f9a-ab50-7f39e860f30f"},"vehicle_type_id":"4","last_reported":1728566307,"current_range_meters":8800,"station_id":"ce4bhg92rcd13ifvqf90","pricing_plan_id":"cebpf4jnsgd1na2vs0mg"},{"bike_id":"fc34a4c2-5dda-43dc-8c76-0302a62a6427","system_id":"levelo_inurba_marseille","lat":43.23191,"lon":5.35558,"is_reserved":false,"is_disabled":false,"rental_uris":{"android":"levelo://app?vid=fc34a4c2-5dda-43dc-8c76-0302a62a6427","ios":"levelo://app?vid=fc34a4c2-5dda-43dc-8c76-0302a62a6427"},"vehicle_type_id":"4","last_reported":1728566307,"current_range_meters":36400,"station_id":"ce4bhu92rcd13ifvqi70","pricing_plan_id":"cebpf4jnsgd1na2vs0mg"},{"bike_id":"deae8b92-080c-4328-ace5-02091ca49924","system_id":"levelo_inurba_marseille","lat":43.2755,"lon":5.38429,"is_reserved":false,"is_disabled":false,"rental_uris":{"android":"levelo://app?vid=deae8b92-080c-4328-ace5-02091ca49924","ios":"levelo://app?vid=deae8b92-080c-4328-ace5-02091ca49924"},"vehicle_type_id":"4","last_reported":1728566307,"current_range_meters":16400,"station_id":"ce4bhh92rcd13ifvqfi0","pricing_plan_id":"cebpf4jnsgd1na2vs0mg"},{"bike_id":"6966b684-b0d5-41cd-9639-d1a3fbb7e45e","system_id":"levelo_inurba_marseille","lat":43.31338,"lon":5.36724,"is_reserved":false,"is_disabled":false,"rental_uris":{"android":"levelo://app?vid=6966b684-b0d5-41cd-9639-d1a3fbb7e45e","ios":"levelo://app?vid=6966b684-b0d5-41cd-9639-d1a3fbb7e45e"},"vehicle_type_id":"4","last_reported":1728566307,"current_range_meters":24000,"station_id":"ce4bgr92rcd13ifvqc6g","pricing_plan_id":"cebpf4jnsgd1na2vs0mg"},{"bike_id":"e7555433-ce4c-456c-8c97-0a39283f171c","system_id":"levelo_inurba_marseille","lat":43.29273,"lon":5.40135,"is_reserved":false,"is_disabled":false,"rental_uris":{"android":"levelo://app?vid=e7555433-ce4c-456c-8c97-0a39283f171c","ios":"levelo://app?vid=e7555433-ce4c-456c-8c97-0a39283f171c"},"vehicle_type_id":"4","last_reported":1728566307,"current_range_meters":5600,"station_id":"ce4bh312rcd13ifvqdk0","pricing_plan_id":"cebpf4jnsgd1na2vs0mg"},{"bike_id":"6d3b3972-a412-4c50-9262-2d99c7a741f7","system_id":"levelo_inurba_marseille","lat":43.30644,"lon":5.40096,"is_reserved":false,"is_disabled":false,"rental_uris":{"android":"levelo://app?vid=6d3b3972-a412-4c50-9262-2d99c7a741f7","ios":"levelo://app?vid=6d3b3972-a412-4c50-9262-2d99c7a741f7"},"vehicle_type_id":"4","last_reported":1728566307,"current_range_meters":14000,"station_id":"ce4bh112rcd13ifvqda0","pricing_plan_id":"cebpf4jnsgd1na2vs0mg"},{"bike_id":"c13f7173-60bf-4fcc-9ce7-45864f9d60c0","system_id":"levelo_inurba_marseille","lat":43.31461,"lon":5.43305,"is_reserved":false,"is_disabled":false,"rental_uris":{"android":"levelo://app?vid=c13f7173-60bf-4fcc-9ce7-45864f9d60c0","ios":"levelo://app?vid=c13f7173-60bf-4fcc-9ce7-45864f9d60c0"},"vehicle_type_id":"4","last_reported":1728566307,"current_range_meters":20800,"station_id":"","pricing_plan_id":"cebpf4jnsgd1na2vs0mg"},{"bike_id":"a2142b55-300e-4189-8adc-47f1831b04ff","system_id":"levelo_inurba_marseille","lat":43.27995,"lon":5.41662,"is_reserved":false,"is_disabled":false,"rental_uris":{"android":"levelo://app?vid=a2142b55-300e-4189-8adc-47f1831b04ff","ios":"levelo://app?vid=a2142b55-300e-4189-8adc-47f1831b04ff"},"vehicle_type_id":"4","last_reported":1728566307,"current_range_meters":27600,"station_id":"ce4bho12rcd13ifvqh1g","pricing_plan_id":"cebpf4jnsgd1na2vs0mg"},{"bike_id":"f06315a8-2a9d-4fe5-b1b2-8c5c8262a904","system_id":"levelo_inurba_marseille","lat":43.32293,"lon":5.38259,"is_reserved":false,"is_disabled":false,"rental_uris":{"android":"levelo://app?vid=f06315a8-2a9d-4fe5-b1b2-8c5c8262a904","ios":"levelo://app?vid=f06315a8-2a9d-4fe5-b1b2-8c5c8262a904"},"vehicle_type_id":"4","last_reported":1728566307,"current_range_meters":38000,"station_id":"ce4bhr12rcd13ifvqhqg","pricing_plan_id":"cebpf4jnsgd1na2vs0mg"},{"bike_id":"2740e2b0-85bf-4760-a284-4aa5ea5dd6a5","system_id":"levelo_inurba_marseille","lat":43.25819,"lon":5.3943,"is_reserved":false,"is_disabled":false,"rental_uris":{"android":"levelo://app?vid=2740e2b0-85bf-4760-a284-4aa5ea5dd6a5","ios":"levelo://app?vid=2740e2b0-85bf-4760-a284-4aa5ea5dd6a5"},"vehicle_type_id":"4","last_reported":1728566307,"current_range_meters":14800,"station_id":"ce4bhip2rcd13ifvqft0","pricing_plan_id":"cebpf4jnsgd1na2vs0mg"},{"bike_id":"4e4e7083-89bd-4f48-a4f6-01f4a7d2fcc0","system_id":"levelo_inurba_marseille","lat":43.3415,"lon":5.40908,"is_reserved":false,"is_disabled":false,"rental_uris":{"android":"levelo://app?vid=4e4e7083-89bd-4f48-a4f6-01f4a7d2fcc0","ios":"levelo://app?vid=4e4e7083-89bd-4f48-a4f6-01f4a7d2fcc0"},"vehicle_type_id":"4","last_reported":1728566307,"current_range_meters":37600,"station_id":"ce4bhqh2rcd13ifvqhlg","pricing_plan_id":"cebpf4jnsgd1na2vs0mg"},{"bike_id":"423b2a18-8acf-40c1-8b87-a7ec182cc06e","system_id":"levelo_inurba_marseille","lat":43.28101,"lon":5.37836,"is_reserved":false,"is_disabled":false,"rental_uris":{"android":"levelo://app?vid=423b2a18-8acf-40c1-8b87-a7ec182cc06e","ios":"levelo://app?vid=423b2a18-8acf-40c1-8b87-a7ec182cc06e"},"vehicle_type_id":"4","last_reported":1728566307,"current_range_meters":30400,"station_id":"ce4bha12rcd13ifvqee0","pricing_plan_id":"cebpf4jnsgd1na2vs0mg"},{"bike_id":"a794ebf7-427a-458c-bf85-3010dcd8f1a5","system_id":"levelo_inurba_marseille","lat":43.299362,"lon":5.365626,"is_reserved":false,"is_disabled":false,"rental_uris":{"android":"levelo://app?vid=a794ebf7-427a-458c-bf85-3010dcd8f1a5","ios":"levelo://app?vid=a794ebf7-427a-458c-bf85-3010dcd8f1a5"},"vehicle_type_id":"4","last_reported":1728566307,"current_range_meters":38800,"station_id":"ce4bgm92rcd13ifvqbr0","pricing_plan_id":"cebpf4jnsgd1na2vs0mg"},{"bike_id":"53f93bfa-24c5-4899-b6c7-326e2930e5fc","system_id":"levelo_inurba_marseille","lat":43.266785,"lon":5.382725,"is_reserved":false,"is_disabled":false,"rental_uris":{"android":"levelo://app?vid=53f93bfa-24c5-4899-b6c7-326e2930e5fc","ios":"levelo://app?vid=53f93bfa-24c5-4899-b6c7-326e2930e5fc"},"vehicle_type_id":"4","last_reported":1728566307,"current_range_meters":13600,"station_id":"ce4bhg92rcd13ifvqf90","pricing_plan_id":"cebpf4jnsgd1na2vs0mg"},{"bike_id":"46f3565b-c947-41b1-ac9c-41f46878b5bc","system_id":"levelo_inurba_marseille","lat":43.29852,"lon":5.36282,"is_reserved":false,"is_disabled":false,"rental_uris":{"android":"levelo://app?vid=46f3565b-c947-41b1-ac9c-41f46878b5bc","ios":"levelo://app?vid=46f3565b-c947-41b1-ac9c-41f46878b5bc"},"vehicle_type_id":"4","last_reported":1728566307,"current_range_meters":30000,"station_id":"ce4bgpp2rcd13ifvqc3g","pricing_plan_id":"cebpf4jnsgd1na2vs0mg"},{"bike_id":"02893b5b-0a93-438a-9734-9eff91df5c62","system_id":"levelo_inurba_marseille","lat":43.24391,"lon":5.37062,"is_reserved":false,"is_disabled":false,"rental_uris":{"android":"levelo://app?vid=02893b5b-0a93-438a-9734-9eff91df5c62","ios":"levelo://app?vid=02893b5b-0a93-438a-9734-9eff91df5c62"},"vehicle_type_id":"4","last_reported":1728566307,"current_range_meters":28000,"station_id":"ce4bhhh2rcd13ifvqfk0","pricing_plan_id":"cebpf4jnsgd1na2vs0mg"},{"bike_id":"f90ca49f-87e5-4ffa-83bf-89fbe4726d17","system_id":"levelo_inurba_marseille","lat":43.23194,"lon":5.35541,"is_reserved":false,"is_disabled":false,"rental_uris":{"android":"levelo://app?vid=f90ca49f-87e5-4ffa-83bf-89fbe4726d17","ios":"levelo://app?vid=f90ca49f-87e5-4ffa-83bf-89fbe4726d17"},"vehicle_type_id":"4","last_reported":1728566307,"current_range_meters":35600,"station_id":"ce4bhu92rcd13ifvqi70","pricing_plan_id":"cebpf4jnsgd1na2vs0mg"},{"bike_id":"1bd9aea0-747f-474e-9b77-c045d47a93de","system_id":"levelo_inurba_marseille","lat":43.32359,"lon":5.38887,"is_reserved":false,"is_disabled":false,"rental_uris":{"android":"levelo://app?vid=1bd9aea0-747f-474e-9b77-c045d47a93de","ios":"levelo://app?vid=1bd9aea0-747f-474e-9b77-c045d47a93de"},"vehicle_type_id":"4","last_reported":1728566307,"current_range_meters":28400,"station_id":"ce4bhqp2rcd13ifvqhog","pricing_plan_id":"cebpf4jnsgd1na2vs0mg"},{"bike_id":"069d1a9e-bbd7-49e3-9f6c-14d2f575aad0","system_id":"levelo_inurba_marseille","lat":43.30309,"lon":5.36883,"is_reserved":false,"is_disabled":false,"rental_uris":{"android":"levelo://app?vid=069d1a9e-bbd7-49e3-9f6c-14d2f575aad0","ios":"levelo://app?vid=069d1a9e-bbd7-49e3-9f6c-14d2f575aad0"},"vehicle_type_id":"4","last_reported":1728566307,"current_range_meters":3600,"station_id":"ce4bgqh2rcd13ifvqc5g","pricing_plan_id":"cebpf4jnsgd1na2vs0mg"},{"bike_id":"c31288d9-b173-4e41-8a50-ff2b42963e4d","system_id":"levelo_inurba_marseille","lat":43.337694,"lon":5.374417,"is_reserved":false,"is_disabled":false,"rental_uris":{"android":"levelo://app?vid=c31288d9-b173-4e41-8a50-ff2b42963e4d","ios":"levelo://app?vid=c31288d9-b173-4e41-8a50-ff2b42963e4d"},"vehicle_type_id":"4","last_reported":1728566307,"current_range_meters":38800,"station_id":"ce4rr2p2rcd13i802rgg","pricing_plan_id":"cebpf4jnsgd1na2vs0mg"},{"bike_id":"bf2d418b-078b-4a59-a0d9-ad2451b61c28","system_id":"levelo_inurba_marseille","lat":43.28939,"lon":5.48097,"is_reserved":false,"is_disabled":false,"rental_uris":{"android":"levelo://app?vid=bf2d418b-078b-4a59-a0d9-ad2451b61c28","ios":"levelo://app?vid=bf2d418b-078b-4a59-a0d9-ad2451b61c28"},"vehicle_type_id":"4","last_reported":1728566307,"current_range_meters":9600,"station_id":"","pricing_plan_id":"cebpf4jnsgd1na2vs0mg"},{"bike_id":"3db61a9d-8a93-4830-8dcb-c8609f96a8b7","system_id":"levelo_inurba_marseille","lat":43.29035,"lon":5.39989,"is_reserved":false,"is_disabled":false,"rental_uris":{"android":"levelo://app?vid=3db61a9d-8a93-4830-8dcb-c8609f96a8b7","ios":"levelo://app?vid=3db61a9d-8a93-4830-8dcb-c8609f96a8b7"},"vehicle_type_id":"4","last_reported":1728566307,"current_range_meters":37600,"station_id":"ce4bh392rcd13ifvqdm0","pricing_plan_id":"cebpf4jnsgd1na2vs0mg"},{"bike_id":"3cf6c230-2735-44a8-84cf-d46bc6ce4052","system_id":"levelo_inurba_marseille","lat":43.28266,"lon":5.35057,"is_reserved":false,"is_disabled":false,"rental_uris":{"android":"levelo://app?vid=3cf6c230-2735-44a8-84cf-d46bc6ce4052","ios":"levelo://app?vid=3cf6c230-2735-44a8-84cf-d46bc6ce4052"},"vehicle_type_id":"4","last_reported":1728566307,"current_range_meters":28800,"station_id":"ce4bhbp2rcd13ifvqerg","pricing_plan_id":"cebpf4jnsgd1na2vs0mg"},{"bike_id":"cae9a4d0-4c01-4d57-a44a-d9a73d03efc5","system_id":"levelo_inurba_marseille","lat":43.27986,"lon":5.41658,"is_reserved":false,"is_disabled":false,"rental_uris":{"android":"levelo://app?vid=cae9a4d0-4c01-4d57-a44a-d9a73d03efc5","ios":"levelo://app?vid=cae9a4d0-4c01-4d57-a44a-d9a73d03efc5"},"vehicle_type_id":"4","last_reported":1728566307,"current_range_meters":31200,"station_id":"ce4bho12rcd13ifvqh1g","pricing_plan_id":"cebpf4jnsgd1na2vs0mg"},{"bike_id":"13088437-0029-4815-918c-d06b87d678db","system_id":"levelo_inurba_marseille","lat":43.27057,"lon":5.40267,"is_reserved":false,"is_disabled":false,"rental_uris":{"android":"levelo://app?vid=13088437-0029-4815-918c-d06b87d678db","ios":"levelo://app?vid=13088437-0029-4815-918c-d06b87d678db"},"vehicle_type_id":"4","last_reported":1728566307,"current_range_meters":38000,"station_id":"ce4bhk92rcd13ifvqgc0","pricing_plan_id":"cebpf4jnsgd1na2vs0mg"},{"bike_id":"2cb1099e-6ada-4580-8d23-444c87b5e721","system_id":"levelo_inurba_marseille","lat":43.26566,"lon":5.38999,"is_reserved":false,"is_disabled":false,"rental_uris":{"android":"levelo://app?vid=2cb1099e-6ada-4580-8d23-444c87b5e721","ios":"levelo://app?vid=2cb1099e-6ada-4580-8d23-444c87b5e721"},"vehicle_type_id":"4","last_reported":1728566307,"current_range_meters":8000,"station_id":"ce4bhe12rcd13ifvqf30","pricing_plan_id":"cebpf4jnsgd1na2vs0mg"},{"bike_id":"aa0f20b2-0d1a-43c8-b535-acfb6ee7d2dc","system_id":"levelo_inurba_marseille","lat":43.30091,"lon":5.39076,"is_reserved":false,"is_disabled":false,"rental_uris":{"android":"levelo://app?vid=aa0f20b2-0d1a-43c8-b535-acfb6ee7d2dc","ios":"levelo://app?vid=aa0f20b2-0d1a-43c8-b535-acfb6ee7d2dc"},"vehicle_type_id":"4","last_reported":1728566307,"current_range_meters":36000,"station_id":"ce4bh192rcd13ifvqdb0","pricing_plan_id":"cebpf4jnsgd1na2vs0mg"},{"bike_id":"6c177a40-4704-434a-9cda-37a59fc669e7","system_id":"levelo_inurba_marseille","lat":43.23148,"lon":5.43703,"is_reserved":false,"is_disabled":false,"rental_uris":{"android":"levelo://app?vid=6c177a40-4704-434a-9cda-37a59fc669e7","ios":"levelo://app?vid=6c177a40-4704-434a-9cda-37a59fc669e7"},"vehicle_type_id":"4","last_reported":1728566307,"current_range_meters":32400,"station_id":"ce4bhmp2rcd13ifvqgog","pricing_plan_id":"cebpf4jnsgd1na2vs0mg"},{"bike_id":"c21efc11-bc1c-43d8-88e3-48d7f04e546e","system_id":"levelo_inurba_marseille","lat":43.34144,"lon":5.40912,"is_reserved":false,"is_disabled":false,"rental_uris":{"android":"levelo://app?vid=c21efc11-bc1c-43d8-88e3-48d7f04e546e","ios":"levelo://app?vid=c21efc11-bc1c-43d8-88e3-48d7f04e546e"},"vehicle_type_id":"4","last_reported":1728566307,"current_range_meters":27200,"station_id":"ce4bhqh2rcd13ifvqhlg","pricing_plan_id":"cebpf4jnsgd1na2vs0mg"},{"bike_id":"61614ed3-cdbc-47c3-8c42-a44f385ef16c","system_id":"levelo_inurba_marseille","lat":43.30797,"lon":5.43523,"is_reserved":false,"is_disabled":false,"rental_uris":{"android":"levelo://app?vid=61614ed3-cdbc-47c3-8c42-a44f385ef16c","ios":"levelo://app?vid=61614ed3-cdbc-47c3-8c42-a44f385ef16c"},"vehicle_type_id":"4","last_reported":1728566307,"current_range_meters":8800,"station_id":"ce4bhph2rcd13ifvqheg","pricing_plan_id":"cebpf4jnsgd1na2vs0mg"},{"bike_id":"8e808f08-2aa3-4a79-9fad-4c88a84efa3d","system_id":"levelo_inurba_marseille","lat":43.33603,"lon":5.41031,"is_reserved":false,"is_disabled":false,"rental_uris":{"android":"levelo://app?vid=8e808f08-2aa3-4a79-9fad-4c88a84efa3d","ios":"levelo://app?vid=8e808f08-2aa3-4a79-9fad-4c88a84efa3d"},"vehicle_type_id":"4","last_reported":1728566307,"current_range_meters":38000,"station_id":"ce4bhqh2rcd13ifvqhmg","pricing_plan_id":"cebpf4jnsgd1na2vs0mg"},{"bike_id":"6621e1af-9ca0-463c-a3ad-f651030b0dd3","system_id":"levelo_inurba_marseille","lat":43.23193,"lon":5.35549,"is_reserved":false,"is_disabled":false,"rental_uris":{"android":"levelo://app?vid=6621e1af-9ca0-463c-a3ad-f651030b0dd3","ios":"levelo://app?vid=6621e1af-9ca0-463c-a3ad-f651030b0dd3"},"vehicle_type_id":"4","last_reported":1728566307,"current_range_meters":36400,"station_id":"ce4bhu92rcd13ifvqi70","pricing_plan_id":"cebpf4jnsgd1na2vs0mg"},{"bike_id":"7c5e5b46-415e-48f9-a7e9-7abd8697d8e4","system_id":"levelo_inurba_marseille","lat":43.32036,"lon":5.41554,"is_reserved":false,"is_disabled":false,"rental_uris":{"android":"levelo://app?vid=7c5e5b46-415e-48f9-a7e9-7abd8697d8e4","ios":"levelo://app?vid=7c5e5b46-415e-48f9-a7e9-7abd8697d8e4"},"vehicle_type_id":"4","last_reported":1728566307,"current_range_meters":30400,"station_id":"ce4bhq92rcd13ifvqhkg","pricing_plan_id":"cebpf4jnsgd1na2vs0mg"},{"bike_id":"dd4804e2-18ee-4162-a390-23291138555c","system_id":"levelo_inurba_marseille","lat":43.295668,"lon":5.375186,"is_reserved":false,"is_disabled":false,"rental_uris":{"android":"levelo://app?vid=dd4804e2-18ee-4162-a390-23291138555c","ios":"levelo://app?vid=dd4804e2-18ee-4162-a390-23291138555c"},"vehicle_type_id":"4","last_reported":1728566307,"current_range_meters":34800,"station_id":"ce4bgph2rcd13ifvqc2g","pricing_plan_id":"cebpf4jnsgd1na2vs0mg"},{"bike_id":"e0948a1c-9083-4aab-a337-3c4dd89662a2","system_id":"levelo_inurba_marseille","lat":43.30539,"lon":5.36694,"is_reserved":false,"is_disabled":false,"rental_uris":{"android":"levelo://app?vid=e0948a1c-9083-4aab-a337-3c4dd89662a2","ios":"levelo://app?vid=e0948a1c-9083-4aab-a337-3c4dd89662a2"},"vehicle_type_id":"4","last_reported":1728566307,"current_range_meters":38800,"station_id":"ce4bgrp2rcd13ifvqc9g","pricing_plan_id":"cebpf4jnsgd1na2vs0mg"},{"bike_id":"acc92de9-ba93-470f-b6b8-ac019be5f23f","system_id":"levelo_inurba_marseille","lat":43.28414,"lon":5.34991,"is_reserved":false,"is_disabled":false,"rental_uris":{"android":"levelo://app?vid=acc92de9-ba93-470f-b6b8-ac019be5f23f","ios":"levelo://app?vid=acc92de9-ba93-470f-b6b8-ac019be5f23f"},"vehicle_type_id":"4","last_reported":1728566307,"current_range_meters":32000,"station_id":"ce4bhbh2rcd13ifvqepg","pricing_plan_id":"cebpf4jnsgd1na2vs0mg"},{"bike_id":"7cd4f076-c387-4bde-8419-ce4b9347edcc","system_id":"levelo_inurba_marseille","lat":43.31762,"lon":5.39014,"is_reserved":false,"is_disabled":false,"rental_uris":{"android":"levelo://app?vid=7cd4f076-c387-4bde-8419-ce4b9347edcc","ios":"levelo://app?vid=7cd4f076-c387-4bde-8419-ce4b9347edcc"},"vehicle_type_id":"4","last_reported":1728566307,"current_range_meters":19600,"station_id":"ce4bhqp2rcd13ifvqhng","pricing_plan_id":"cebpf4jnsgd1na2vs0mg"},{"bike_id":"3fc9fab2-658e-4ebd-bd2b-d45cd8294170","system_id":"levelo_inurba_marseille","lat":43.2315,"lon":5.43719,"is_reserved":false,"is_disabled":false,"rental_uris":{"android":"levelo://app?vid=3fc9fab2-658e-4ebd-bd2b-d45cd8294170","ios":"levelo://app?vid=3fc9fab2-658e-4ebd-bd2b-d45cd8294170"},"vehicle_type_id":"4","last_reported":1728566307,"current_range_meters":27200,"station_id":"ce4bhmp2rcd13ifvqgog","pricing_plan_id":"cebpf4jnsgd1na2vs0mg"},{"bike_id":"c8de048a-298d-44d4-bcbc-9563b0a2c65c","system_id":"levelo_inurba_marseille","lat":43.32662,"lon":5.40989,"is_reserved":false,"is_disabled":false,"rental_uris":{"android":"levelo://app?vid=c8de048a-298d-44d4-bcbc-9563b0a2c65c","ios":"levelo://app?vid=c8de048a-298d-44d4-bcbc-9563b0a2c65c"},"vehicle_type_id":"4","last_reported":1728566307,"current_range_meters":36400,"station_id":"ce4bhpp2rcd13ifvqhgg","pricing_plan_id":"cebpf4jnsgd1na2vs0mg"},{"bike_id":"2d7cc823-02c5-4309-bccd-4d3974794a48","system_id":"levelo_inurba_marseille","lat":43.32544,"lon":5.41424,"is_reserved":false,"is_disabled":false,"rental_uris":{"android":"levelo://app?vid=2d7cc823-02c5-4309-bccd-4d3974794a48","ios":"levelo://app?vid=2d7cc823-02c5-4309-bccd-4d3974794a48"},"vehicle_type_id":"4","last_reported":1728566307,"current_range_meters":31200,"station_id":"ce4bhq12rcd13ifvqhhg","pricing_plan_id":"cebpf4jnsgd1na2vs0mg"},{"bike_id":"5c59208d-7cc8-4d18-97aa-5b2f019839a8","system_id":"levelo_inurba_marseille","lat":43.25728,"lon":5.41111,"is_reserved":false,"is_disabled":false,"rental_uris":{"android":"levelo://app?vid=5c59208d-7cc8-4d18-97aa-5b2f019839a8","ios":"levelo://app?vid=5c59208d-7cc8-4d18-97aa-5b2f019839a8"},"vehicle_type_id":"4","last_reported":1728566307,"current_range_meters":30400,"station_id":"ce4bhkp2rcd13ifvqgd0","pricing_plan_id":"cebpf4jnsgd1na2vs0mg"},{"bike_id":"cef73f6f-9f73-4ff0-987b-25b5bd0061ba","system_id":"levelo_inurba_marseille","lat":43.30933,"lon":5.40149,"is_reserved":false,"is_disabled":false,"rental_uris":{"android":"levelo://app?vid=cef73f6f-9f73-4ff0-987b-25b5bd0061ba","ios":"levelo://app?vid=cef73f6f-9f73-4ff0-987b-25b5bd0061ba"},"vehicle_type_id":"4","last_reported":1728566307,"current_range_meters":35200,"station_id":"ce4bgvp2rcd13ifvqct0","pricing_plan_id":"cebpf4jnsgd1na2vs0mg"},{"bike_id":"f0d6e8a8-5210-4cb5-a51d-e41a18656e99","system_id":"levelo_inurba_marseille","lat":43.24809,"lon":5.37457,"is_reserved":false,"is_disabled":false,"rental_uris":{"android":"levelo://app?vid=f0d6e8a8-5210-4cb5-a51d-e41a18656e99","ios":"levelo://app?vid=f0d6e8a8-5210-4cb5-a51d-e41a18656e99"},"vehicle_type_id":"4","last_reported":1728566307,"current_range_meters":10800,"station_id":"ce4bhgh2rcd13ifvqfb0","pricing_plan_id":"cebpf4jnsgd1na2vs0mg"},{"bike_id":"d35acba1-0c57-41bc-9156-a2180b8a1a82","system_id":"levelo_inurba_marseille","lat":43.33725,"lon":5.39191,"is_reserved":false,"is_disabled":false,"rental_uris":{"android":"levelo://app?vid=d35acba1-0c57-41bc-9156-a2180b8a1a82","ios":"levelo://app?vid=d35acba1-0c57-41bc-9156-a2180b8a1a82"},"vehicle_type_id":"4","last_reported":1728566307,"current_range_meters":28000,"station_id":"ce4bhr92rcd13ifvqhsg","pricing_plan_id":"cebpf4jnsgd1na2vs0mg"},{"bike_id":"5e4dc538-873b-4a2c-b9a4-885ed78aebdb","system_id":"levelo_inurba_marseille","lat":43.29623,"lon":5.37725,"is_reserved":false,"is_disabled":false,"rental_uris":{"android":"levelo://app?vid=5e4dc538-873b-4a2c-b9a4-885ed78aebdb","ios":"levelo://app?vid=5e4dc538-873b-4a2c-b9a4-885ed78aebdb"},"vehicle_type_id":"4","last_reported":1728566307,"current_range_meters":4000,"station_id":"ce4bgi92rcd13ifvqb90","pricing_plan_id":"cebpf4jnsgd1na2vs0mg"},{"bike_id":"68a0cd13-11ac-49bc-bde1-92ef187e689d","system_id":"levelo_inurba_marseille","lat":43.297119,"lon":5.366081,"is_reserved":false,"is_disabled":false,"rental_uris":{"android":"levelo://app?vid=68a0cd13-11ac-49bc-bde1-92ef187e689d","ios":"levelo://app?vid=68a0cd13-11ac-49bc-bde1-92ef187e689d"},"vehicle_type_id":"4","last_reported":1728566307,"current_range_meters":36800,"station_id":"ce4bgn12rcd13ifvqbt0","pricing_plan_id":"cebpf4jnsgd1na2vs0mg"},{"bike_id":"be084d6b-c0ec-40c2-95a6-fb5fcd438e7e","system_id":"levelo_inurba_marseille","lat":43.29624,"lon":5.37152,"is_reserved":false,"is_disabled":false,"rental_uris":{"android":"levelo://app?vid=be084d6b-c0ec-40c2-95a6-fb5fcd438e7e","ios":"levelo://app?vid=be084d6b-c0ec-40c2-95a6-fb5fcd438e7e"},"vehicle_type_id":"4","last_reported":1728566307,"current_range_meters":30400,"station_id":"ce4bgnh2rcd13ifvqc0g","pricing_plan_id":"cebpf4jnsgd1na2vs0mg"},{"bike_id":"a7895612-0e35-4251-8463-0e0fff594c2d","system_id":"levelo_inurba_marseille","lat":43.29524,"lon":5.39044,"is_reserved":false,"is_disabled":false,"rental_uris":{"android":"levelo://app?vid=a7895612-0e35-4251-8463-0e0fff594c2d","ios":"levelo://app?vid=a7895612-0e35-4251-8463-0e0fff594c2d"},"vehicle_type_id":"4","last_reported":1728566307,"current_range_meters":37600,"station_id":"","pricing_plan_id":"cebpf4jnsgd1na2vs0mg"},{"bike_id":"8034954c-a6c8-46de-8165-a51114fd0886","system_id":"levelo_inurba_marseille","lat":43.29857,"lon":5.36286,"is_reserved":false,"is_disabled":false,"rental_uris":{"android":"levelo://app?vid=8034954c-a6c8-46de-8165-a51114fd0886","ios":"levelo://app?vid=8034954c-a6c8-46de-8165-a51114fd0886"},"vehicle_type_id":"4","last_reported":1728566307,"current_range_meters":20000,"station_id":"ce4bgpp2rcd13ifvqc3g","pricing_plan_id":"cebpf4jnsgd1na2vs0mg"},{"bike_id":"81135374-e8c7-4d8b-9363-0cdfa412c521","system_id":"levelo_inurba_marseille","lat":43.29012,"lon":5.35614,"is_reserved":false,"is_disabled":false,"rental_uris":{"android":"levelo://app?vid=81135374-e8c7-4d8b-9363-0cdfa412c521","ios":"levelo://app?vid=81135374-e8c7-4d8b-9363-0cdfa412c521"},"vehicle_type_id":"4","last_reported":1728566307,"current_range_meters":24400,"station_id":"ce4bhb92rcd13ifvqen0","pricing_plan_id":"cebpf4jnsgd1na2vs0mg"},{"bike_id":"0a914b9b-1fcc-4758-a91b-1f2a11f6cf7a","system_id":"levelo_inurba_marseille","lat":43.27192,"lon":5.40995,"is_reserved":false,"is_disabled":false,"rental_uris":{"android":"levelo://app?vid=0a914b9b-1fcc-4758-a91b-1f2a11f6cf7a","ios":"levelo://app?vid=0a914b9b-1fcc-4758-a91b-1f2a11f6cf7a"},"vehicle_type_id":"4","last_reported":1728566307,"current_range_meters":16800,"station_id":"ce4bhl12rcd13ifvqgf0","pricing_plan_id":"cebpf4jnsgd1na2vs0mg"},{"bike_id":"0260ea70-100f-4754-8723-99015eb8d25f","system_id":"levelo_inurba_marseille","lat":43.30605,"lon":5.36737,"is_reserved":false,"is_disabled":false,"rental_uris":{"android":"levelo://app?vid=0260ea70-100f-4754-8723-99015eb8d25f","ios":"levelo://app?vid=0260ea70-100f-4754-8723-99015eb8d25f"},"vehicle_type_id":"4","last_reported":1728566307,"current_range_meters":36800,"station_id":"","pricing_plan_id":"cebpf4jnsgd1na2vs0mg"},{"bike_id":"8665fe75-7b1c-4b25-955b-a02aa16eff4b","system_id":"levelo_inurba_marseille","lat":43.28801,"lon":5.36345,"is_reserved":false,"is_disabled":false,"rental_uris":{"android":"levelo://app?vid=8665fe75-7b1c-4b25-955b-a02aa16eff4b","ios":"levelo://app?vid=8665fe75-7b1c-4b25-955b-a02aa16eff4b"},"vehicle_type_id":"4","last_reported":1728566307,"current_range_meters":17200,"station_id":"","pricing_plan_id":"cebpf4jnsgd1na2vs0mg"},{"bike_id":"fbc6e5cb-ccab-4c10-9c8c-6dbe697b02a7","system_id":"levelo_inurba_marseille","lat":43.32539,"lon":5.41449,"is_reserved":false,"is_disabled":false,"rental_uris":{"android":"levelo://app?vid=fbc6e5cb-ccab-4c10-9c8c-6dbe697b02a7","ios":"levelo://app?vid=fbc6e5cb-ccab-4c10-9c8c-6dbe697b02a7"},"vehicle_type_id":"4","last_reported":1728566307,"current_range_meters":38000,"station_id":"ce4bhq12rcd13ifvqhhg","pricing_plan_id":"cebpf4jnsgd1na2vs0mg"},{"bike_id":"4ac2644f-eb6f-4e1a-9929-c4c04dcc8777","system_id":"levelo_inurba_marseille","lat":43.32104,"lon":5.36768,"is_reserved":false,"is_disabled":false,"rental_uris":{"android":"levelo://app?vid=4ac2644f-eb6f-4e1a-9929-c4c04dcc8777","ios":"levelo://app?vid=4ac2644f-eb6f-4e1a-9929-c4c04dcc8777"},"vehicle_type_id":"4","last_reported":1728566307,"current_range_meters":38800,"station_id":"ce4bhrh2rcd13ifvqhug","pricing_plan_id":"cebpf4jnsgd1na2vs0mg"},{"bike_id":"b474e2cc-bb0e-4c5a-a472-0b6a94930de8","system_id":"levelo_inurba_marseille","lat":43.28105,"lon":5.37845,"is_reserved":false,"is_disabled":false,"rental_uris":{"android":"levelo://app?vid=b474e2cc-bb0e-4c5a-a472-0b6a94930de8","ios":"levelo://app?vid=b474e2cc-bb0e-4c5a-a472-0b6a94930de8"},"vehicle_type_id":"4","last_reported":1728566307,"current_range_meters":30000,"station_id":"ce4bha12rcd13ifvqee0","pricing_plan_id":"cebpf4jnsgd1na2vs0mg"},{"bike_id":"457171c2-0f4b-47b0-a617-a67467cd2182","system_id":"levelo_inurba_marseille","lat":43.28849,"lon":5.35854,"is_reserved":false,"is_disabled":false,"rental_uris":{"android":"levelo://app?vid=457171c2-0f4b-47b0-a617-a67467cd2182","ios":"levelo://app?vid=457171c2-0f4b-47b0-a617-a67467cd2182"},"vehicle_type_id":"4","last_reported":1728566307,"current_range_meters":22000,"station_id":"ce4bhb12rcd13ifvqem0","pricing_plan_id":"cebpf4jnsgd1na2vs0mg"},{"bike_id":"48158b6e-aa15-46fa-b108-be5bdb7a3a31","system_id":"levelo_inurba_marseille","lat":43.3374,"lon":5.37452,"is_reserved":false,"is_disabled":false,"rental_uris":{"android":"levelo://app?vid=48158b6e-aa15-46fa-b108-be5bdb7a3a31","ios":"levelo://app?vid=48158b6e-aa15-46fa-b108-be5bdb7a3a31"},"vehicle_type_id":"4","last_reported":1728566307,"current_range_meters":28400,"station_id":"","pricing_plan_id":"cebpf4jnsgd1na2vs0mg"},{"bike_id":"e8780318-009b-469d-b55a-34e595c1644d","system_id":"levelo_inurba_marseille","lat":43.30645,"lon":5.40071,"is_reserved":false,"is_disabled":false,"rental_uris":{"android":"levelo://app?vid=e8780318-009b-469d-b55a-34e595c1644d","ios":"levelo://app?vid=e8780318-009b-469d-b55a-34e595c1644d"},"vehicle_type_id":"4","last_reported":1728566307,"current_range_meters":33200,"station_id":"ce4bh112rcd13ifvqda0","pricing_plan_id":"cebpf4jnsgd1na2vs0mg"},{"bike_id":"e2dedf1c-7e55-45e6-8fb6-1039ae9ab85a","system_id":"levelo_inurba_marseille","lat":43.24394,"lon":5.37058,"is_reserved":false,"is_disabled":false,"rental_uris":{"android":"levelo://app?vid=e2dedf1c-7e55-45e6-8fb6-1039ae9ab85a","ios":"levelo://app?vid=e2dedf1c-7e55-45e6-8fb6-1039ae9ab85a"},"vehicle_type_id":"4","last_reported":1728566307,"current_range_meters":37600,"station_id":"ce4bhhh2rcd13ifvqfk0","pricing_plan_id":"cebpf4jnsgd1na2vs0mg"},{"bike_id":"86696e7a-c73b-4dd8-9ac1-97921c6f346e","system_id":"levelo_inurba_marseille","lat":43.30907,"lon":5.36837,"is_reserved":false,"is_disabled":false,"rental_uris":{"android":"levelo://app?vid=86696e7a-c73b-4dd8-9ac1-97921c6f346e","ios":"levelo://app?vid=86696e7a-c73b-4dd8-9ac1-97921c6f346e"},"vehicle_type_id":"4","last_reported":1728566307,"current_range_meters":8400,"station_id":"ce4bgn92rcd13ifvqbvg","pricing_plan_id":"cebpf4jnsgd1na2vs0mg"},{"bike_id":"143f13d1-0f1d-4f9d-8c63-58bc2040067c","system_id":"levelo_inurba_marseille","lat":43.34146,"lon":5.40905,"is_reserved":false,"is_disabled":false,"rental_uris":{"android":"levelo://app?vid=143f13d1-0f1d-4f9d-8c63-58bc2040067c","ios":"levelo://app?vid=143f13d1-0f1d-4f9d-8c63-58bc2040067c"},"vehicle_type_id":"4","last_reported":1728566307,"current_range_meters":24000,"station_id":"ce4bhqh2rcd13ifvqhlg","pricing_plan_id":"cebpf4jnsgd1na2vs0mg"},{"bike_id":"7953d9ae-1280-47ac-8600-be37b1b8d2cf","system_id":"levelo_inurba_marseille","lat":43.30542,"lon":5.36546,"is_reserved":false,"is_disabled":false,"rental_uris":{"android":"levelo://app?vid=7953d9ae-1280-47ac-8600-be37b1b8d2cf","ios":"levelo://app?vid=7953d9ae-1280-47ac-8600-be37b1b8d2cf"},"vehicle_type_id":"4","last_reported":1728566307,"current_range_meters":38000,"station_id":"ce4bgs12rcd13ifvqcag","pricing_plan_id":"cebpf4jnsgd1na2vs0mg"},{"bike_id":"fbee0c7d-9644-40cf-9261-4975b07ed7ba","system_id":"levelo_inurba_marseille","lat":43.28419,"lon":5.34975,"is_reserved":false,"is_disabled":false,"rental_uris":{"android":"levelo://app?vid=fbee0c7d-9644-40cf-9261-4975b07ed7ba","ios":"levelo://app?vid=fbee0c7d-9644-40cf-9261-4975b07ed7ba"},"vehicle_type_id":"4","last_reported":1728566307,"current_range_meters":4400,"station_id":"ce4bhbh2rcd13ifvqepg","pricing_plan_id":"cebpf4jnsgd1na2vs0mg"},{"bike_id":"c2f32003-23fb-45a7-a2ae-e38e21f9c7f1","system_id":"levelo_inurba_marseille","lat":43.24069,"lon":5.37761,"is_reserved":false,"is_disabled":false,"rental_uris":{"android":"levelo://app?vid=c2f32003-23fb-45a7-a2ae-e38e21f9c7f1","ios":"levelo://app?vid=c2f32003-23fb-45a7-a2ae-e38e21f9c7f1"},"vehicle_type_id":"4","last_reported":1728566307,"current_range_meters":9200,"station_id":"ce4bhnp2rcd13ifvqgvg","pricing_plan_id":"cebpf4jnsgd1na2vs0mg"},{"bike_id":"fc3f0547-89f3-45ed-b216-20a87ce42cb7","system_id":"levelo_inurba_marseille","lat":43.23147,"lon":5.43713,"is_reserved":false,"is_disabled":false,"rental_uris":{"android":"levelo://app?vid=fc3f0547-89f3-45ed-b216-20a87ce42cb7","ios":"levelo://app?vid=fc3f0547-89f3-45ed-b216-20a87ce42cb7"},"vehicle_type_id":"4","last_reported":1728566307,"current_range_meters":24400,"station_id":"ce4bhmp2rcd13ifvqgog","pricing_plan_id":"cebpf4jnsgd1na2vs0mg"},{"bike_id":"aacf11cf-231f-444f-af56-cea95af8223a","system_id":"levelo_inurba_marseille","lat":43.298859,"lon":5.380873,"is_reserved":false,"is_disabled":false,"rental_uris":{"android":"levelo://app?vid=aacf11cf-231f-444f-af56-cea95af8223a","ios":"levelo://app?vid=aacf11cf-231f-444f-af56-cea95af8223a"},"vehicle_type_id":"4","last_reported":1728566307,"current_range_meters":20000,"station_id":"ce4bhbp2rcd13ifvqerg","pricing_plan_id":"cebpf4jnsgd1na2vs0mg"},{"bike_id":"6c3cc9b2-be4e-45bf-a8be-71c6d03d163f","system_id":"levelo_inurba_marseille","lat":43.3323,"lon":5.36458,"is_reserved":false,"is_disabled":false,"rental_uris":{"android":"levelo://app?vid=6c3cc9b2-be4e-45bf-a8be-71c6d03d163f","ios":"levelo://app?vid=6c3cc9b2-be4e-45bf-a8be-71c6d03d163f"},"vehicle_type_id":"4","last_reported":1728566307,"current_range_meters":18000,"station_id":"","pricing_plan_id":"cebpf4jnsgd1na2vs0mg"},{"bike_id":"aa75c41c-1391-4d5a-b0ad-fb29c317877d","system_id":"levelo_inurba_marseille","lat":43.23063,"lon":5.35498,"is_reserved":false,"is_disabled":false,"rental_uris":{"android":"levelo://app?vid=aa75c41c-1391-4d5a-b0ad-fb29c317877d","ios":"levelo://app?vid=aa75c41c-1391-4d5a-b0ad-fb29c317877d"},"vehicle_type_id":"4","last_reported":1728566307,"current_range_meters":11600,"station_id":"cpo3342slgdg3j2ifvpg","pricing_plan_id":"cebpf4jnsgd1na2vs0mg"},{"bike_id":"4ac0d38f-7090-494e-aaca-89e9010093aa","system_id":"levelo_inurba_marseille","lat":43.24072,"lon":5.37756,"is_reserved":false,"is_disabled":false,"rental_uris":{"android":"levelo://app?vid=4ac0d38f-7090-494e-aaca-89e9010093aa","ios":"levelo://app?vid=4ac0d38f-7090-494e-aaca-89e9010093aa"},"vehicle_type_id":"4","last_reported":1728566307,"current_range_meters":24000,"station_id":"ce4bhnp2rcd13ifvqgvg","pricing_plan_id":"cebpf4jnsgd1na2vs0mg"},{"bike_id":"dc003b88-2a20-4b88-bb73-5bc4b62fe44b","system_id":"levelo_inurba_marseille","lat":43.337444,"lon":5.374475,"is_reserved":false,"is_disabled":false,"rental_uris":{"android":"levelo://app?vid=dc003b88-2a20-4b88-bb73-5bc4b62fe44b","ios":"levelo://app?vid=dc003b88-2a20-4b88-bb73-5bc4b62fe44b"},"vehicle_type_id":"4","last_reported":1728566307,"current_range_meters":28000,"station_id":"ce4bhb12rcd13ifvqem0","pricing_plan_id":"cebpf4jnsgd1na2vs0mg"},{"bike_id":"b7507c69-0bc0-4e9e-9023-7bda0a81f93b","system_id":"levelo_inurba_marseille","lat":43.29933,"lon":5.36545,"is_reserved":false,"is_disabled":false,"rental_uris":{"android":"levelo://app?vid=b7507c69-0bc0-4e9e-9023-7bda0a81f93b","ios":"levelo://app?vid=b7507c69-0bc0-4e9e-9023-7bda0a81f93b"},"vehicle_type_id":"4","last_reported":1728566307,"current_range_meters":38800,"station_id":"ce4bgm92rcd13ifvqbr0","pricing_plan_id":"cebpf4jnsgd1na2vs0mg"},{"bike_id":"8ada66aa-aa85-4f37-a3eb-39b00cc38f0a","system_id":"levelo_inurba_marseille","lat":43.28157,"lon":5.42654,"is_reserved":false,"is_disabled":false,"rental_uris":{"android":"levelo://app?vid=8ada66aa-aa85-4f37-a3eb-39b00cc38f0a","ios":"levelo://app?vid=8ada66aa-aa85-4f37-a3eb-39b00cc38f0a"},"vehicle_type_id":"4","last_reported":1728566307,"current_range_meters":19600,"station_id":"ce4bhnh2rcd13ifvqgug","pricing_plan_id":"cebpf4jnsgd1na2vs0mg"},{"bike_id":"3c2cf8c2-0940-4ea1-be06-4d3d724763db","system_id":"levelo_inurba_marseille","lat":43.298584,"lon":5.387978,"is_reserved":false,"is_disabled":false,"rental_uris":{"android":"levelo://app?vid=3c2cf8c2-0940-4ea1-be06-4d3d724763db","ios":"levelo://app?vid=3c2cf8c2-0940-4ea1-be06-4d3d724763db"},"vehicle_type_id":"4","last_reported":1728566307,"current_range_meters":30000,"station_id":"ce4bh392rcd13ifvqdl0","pricing_plan_id":"cebpf4jnsgd1na2vs0mg"},{"bike_id":"2e752f3d-d4e1-46c6-ba40-9a628125899c","system_id":"levelo_inurba_marseille","lat":43.3153,"lon":5.38034,"is_reserved":false,"is_disabled":false,"rental_uris":{"android":"levelo://app?vid=2e752f3d-d4e1-46c6-ba40-9a628125899c","ios":"levelo://app?vid=2e752f3d-d4e1-46c6-ba40-9a628125899c"},"vehicle_type_id":"4","last_reported":1728566307,"current_range_meters":25600,"station_id":"ce4bhsp2rcd13ifvqi50","pricing_plan_id":"cebpf4jnsgd1na2vs0mg"},{"bike_id":"a05f076c-86c8-482c-95c1-13d2182da090","system_id":"levelo_inurba_marseille","lat":43.32661,"lon":5.40991,"is_reserved":false,"is_disabled":false,"rental_uris":{"android":"levelo://app?vid=a05f076c-86c8-482c-95c1-13d2182da090","ios":"levelo://app?vid=a05f076c-86c8-482c-95c1-13d2182da090"},"vehicle_type_id":"4","last_reported":1728566307,"current_range_meters":37600,"station_id":"ce4bhpp2rcd13ifvqhgg","pricing_plan_id":"cebpf4jnsgd1na2vs0mg"},{"bike_id":"cee27bcf-5074-4c88-8802-802fcbe73c44","system_id":"levelo_inurba_marseille","lat":43.28946,"lon":5.36392,"is_reserved":false,"is_disabled":false,"rental_uris":{"android":"levelo://app?vid=cee27bcf-5074-4c88-8802-802fcbe73c44","ios":"levelo://app?vid=cee27bcf-5074-4c88-8802-802fcbe73c44"},"vehicle_type_id":"4","last_reported":1728566307,"current_range_meters":24400,"station_id":"ce4bhc92rcd13ifvqetg","pricing_plan_id":"cebpf4jnsgd1na2vs0mg"},{"bike_id":"b23acee4-5720-4575-91af-11c4e23edb2d","system_id":"levelo_inurba_marseille","lat":43.337444,"lon":5.374475,"is_reserved":false,"is_disabled":false,"rental_uris":{"android":"levelo://app?vid=b23acee4-5720-4575-91af-11c4e23edb2d","ios":"levelo://app?vid=b23acee4-5720-4575-91af-11c4e23edb2d"},"vehicle_type_id":"4","last_reported":1728566307,"current_range_meters":38800,"station_id":"ce4bhbh2rcd13ifvqepg","pricing_plan_id":"cebpf4jnsgd1na2vs0mg"},{"bike_id":"62f352ec-e233-4d7f-8753-6a5615214777","system_id":"levelo_inurba_marseille","lat":43.32287,"lon":5.38281,"is_reserved":false,"is_disabled":false,"rental_uris":{"android":"levelo://app?vid=62f352ec-e233-4d7f-8753-6a5615214777","ios":"levelo://app?vid=62f352ec-e233-4d7f-8753-6a5615214777"},"vehicle_type_id":"4","last_reported":1728566307,"current_range_meters":39200,"station_id":"ce4bhr12rcd13ifvqhqg","pricing_plan_id":"cebpf4jnsgd1na2vs0mg"},{"bike_id":"46ce1fc2-b7e2-4275-b962-fd66ab463be3","system_id":"levelo_inurba_marseille","lat":43.26059,"lon":5.3939,"is_reserved":false,"is_disabled":false,"rental_uris":{"android":"levelo://app?vid=46ce1fc2-b7e2-4275-b962-fd66ab463be3","ios":"levelo://app?vid=46ce1fc2-b7e2-4275-b962-fd66ab463be3"},"vehicle_type_id":"4","last_reported":1728566307,"current_range_meters":9200,"station_id":"ce4bhh92rcd13ifvqfj0","pricing_plan_id":"cebpf4jnsgd1na2vs0mg"},{"bike_id":"75f1a54b-9ae6-4e2b-aac7-0c6263029a20","system_id":"levelo_inurba_marseille","lat":43.28356,"lon":5.38627,"is_reserved":false,"is_disabled":false,"rental_uris":{"android":"levelo://app?vid=75f1a54b-9ae6-4e2b-aac7-0c6263029a20","ios":"levelo://app?vid=75f1a54b-9ae6-4e2b-aac7-0c6263029a20"},"vehicle_type_id":"4","last_reported":1728566307,"current_range_meters":31200,"station_id":"ce4bh492rcd13ifvqdvg","pricing_plan_id":"cebpf4jnsgd1na2vs0mg"},{"bike_id":"1a9bc0ab-b2af-408a-b9ad-d1e874291a13","system_id":"levelo_inurba_marseille","lat":43.3127,"lon":5.40166,"is_reserved":false,"is_disabled":false,"rental_uris":{"android":"levelo://app?vid=1a9bc0ab-b2af-408a-b9ad-d1e874291a13","ios":"levelo://app?vid=1a9bc0ab-b2af-408a-b9ad-d1e874291a13"},"vehicle_type_id":"4","last_reported":1728566307,"current_range_meters":10800,"station_id":"ce4bh092rcd13ifvqd30","pricing_plan_id":"cebpf4jnsgd1na2vs0mg"},{"bike_id":"f81d1852-976e-411c-a858-5884afc5d97b","system_id":"levelo_inurba_marseille","lat":43.29273,"lon":5.38434,"is_reserved":false,"is_disabled":false,"rental_uris":{"android":"levelo://app?vid=f81d1852-976e-411c-a858-5884afc5d97b","ios":"levelo://app?vid=f81d1852-976e-411c-a858-5884afc5d97b"},"vehicle_type_id":"4","last_reported":1728566307,"current_range_meters":19200,"station_id":"ce4bh692rcd13ifvqea0","pricing_plan_id":"cebpf4jnsgd1na2vs0mg"},{"bike_id":"5999f6fd-c5b9-4642-8ae2-b9f2ac075754","system_id":"levelo_inurba_marseille","lat":43.31323,"lon":5.39696,"is_reserved":false,"is_disabled":false,"rental_uris":{"android":"levelo://app?vid=5999f6fd-c5b9-4642-8ae2-b9f2ac075754","ios":"levelo://app?vid=5999f6fd-c5b9-4642-8ae2-b9f2ac075754"},"vehicle_type_id":"4","last_reported":1728566307,"current_range_meters":26000,"station_id":"ce4bgvp2rcd13ifvqcu0","pricing_plan_id":"cebpf4jnsgd1na2vs0mg"},{"bike_id":"5fd6b245-0b53-4654-9f31-a1ec63d6dd59","system_id":"levelo_inurba_marseille","lat":43.24074,"lon":5.3776,"is_reserved":false,"is_disabled":false,"rental_uris":{"android":"levelo://app?vid=5fd6b245-0b53-4654-9f31-a1ec63d6dd59","ios":"levelo://app?vid=5fd6b245-0b53-4654-9f31-a1ec63d6dd59"},"vehicle_type_id":"4","last_reported":1728566307,"current_range_meters":2800,"station_id":"ce4bhnp2rcd13ifvqgvg","pricing_plan_id":"cebpf4jnsgd1na2vs0mg"},{"bike_id":"2dc1d4f2-bffe-419c-b07d-2f2347a2e109","system_id":"levelo_inurba_marseille","lat":43.23157,"lon":5.43704,"is_reserved":false,"is_disabled":false,"rental_uris":{"android":"levelo://app?vid=2dc1d4f2-bffe-419c-b07d-2f2347a2e109","ios":"levelo://app?vid=2dc1d4f2-bffe-419c-b07d-2f2347a2e109"},"vehicle_type_id":"4","last_reported":1728566307,"current_range_meters":18000,"station_id":"ce4bhmp2rcd13ifvqgog","pricing_plan_id":"cebpf4jnsgd1na2vs0mg"},{"bike_id":"28f14564-5a47-4bc5-a509-d99bcaace2f7","system_id":"levelo_inurba_marseille","lat":43.23157,"lon":5.43704,"is_reserved":false,"is_disabled":false,"rental_uris":{"android":"levelo://app?vid=28f14564-5a47-4bc5-a509-d99bcaace2f7","ios":"levelo://app?vid=28f14564-5a47-4bc5-a509-d99bcaace2f7"},"vehicle_type_id":"4","last_reported":1728566307,"current_range_meters":11600,"station_id":"ce4bhmp2rcd13ifvqgog","pricing_plan_id":"cebpf4jnsgd1na2vs0mg"},{"bike_id":"2959adcb-eb5c-489c-b1d4-e001dbc3e8c4","system_id":"levelo_inurba_marseille","lat":43.24391,"lon":5.37057,"is_reserved":false,"is_disabled":false,"rental_uris":{"android":"levelo://app?vid=2959adcb-eb5c-489c-b1d4-e001dbc3e8c4","ios":"levelo://app?vid=2959adcb-eb5c-489c-b1d4-e001dbc3e8c4"},"vehicle_type_id":"4","last_reported":1728566307,"current_range_meters":38400,"station_id":"ce4bhhh2rcd13ifvqfk0","pricing_plan_id":"cebpf4jnsgd1na2vs0mg"},{"bike_id":"d4be1884-32b0-4374-90eb-d536238f4207","system_id":"levelo_inurba_marseille","lat":43.29418,"lon":5.38624,"is_reserved":false,"is_disabled":false,"rental_uris":{"android":"levelo://app?vid=d4be1884-32b0-4374-90eb-d536238f4207","ios":"levelo://app?vid=d4be1884-32b0-4374-90eb-d536238f4207"},"vehicle_type_id":"4","last_reported":1728566307,"current_range_meters":28800,"station_id":"ce4bh2h2rcd13ifvqdh0","pricing_plan_id":"cebpf4jnsgd1na2vs0mg"},{"bike_id":"75b85b44-7dff-4d0a-b2ac-a54e451eafdc","system_id":"levelo_inurba_marseille","lat":43.27939,"lon":5.41046,"is_reserved":false,"is_disabled":false,"rental_uris":{"android":"levelo://app?vid=75b85b44-7dff-4d0a-b2ac-a54e451eafdc","ios":"levelo://app?vid=75b85b44-7dff-4d0a-b2ac-a54e451eafdc"},"vehicle_type_id":"4","last_reported":1728566307,"current_range_meters":24800,"station_id":"ce4bhnp2rcd13ifvqh0g","pricing_plan_id":"cebpf4jnsgd1na2vs0mg"},{"bike_id":"19d1b171-e3c1-4fd0-ad1a-4e449627a5ed","system_id":"levelo_inurba_marseille","lat":43.3254,"lon":5.41449,"is_reserved":false,"is_disabled":false,"rental_uris":{"android":"levelo://app?vid=19d1b171-e3c1-4fd0-ad1a-4e449627a5ed","ios":"levelo://app?vid=19d1b171-e3c1-4fd0-ad1a-4e449627a5ed"},"vehicle_type_id":"4","last_reported":1728566307,"current_range_meters":11200,"station_id":"ce4bhq12rcd13ifvqhhg","pricing_plan_id":"cebpf4jnsgd1na2vs0mg"},{"bike_id":"8ccd2035-a340-45c1-8089-a034c84ed6c9","system_id":"levelo_inurba_marseille","lat":43.28116,"lon":5.37832,"is_reserved":false,"is_disabled":false,"rental_uris":{"android":"levelo://app?vid=8ccd2035-a340-45c1-8089-a034c84ed6c9","ios":"levelo://app?vid=8ccd2035-a340-45c1-8089-a034c84ed6c9"},"vehicle_type_id":"4","last_reported":1728566307,"current_range_meters":25200,"station_id":"ce4bha12rcd13ifvqee0","pricing_plan_id":"cebpf4jnsgd1na2vs0mg"},{"bike_id":"03ad01d0-07b1-4e81-8b89-4ff8d70c69b2","system_id":"levelo_inurba_marseille","lat":43.24811,"lon":5.37457,"is_reserved":false,"is_disabled":false,"rental_uris":{"android":"levelo://app?vid=03ad01d0-07b1-4e81-8b89-4ff8d70c69b2","ios":"levelo://app?vid=03ad01d0-07b1-4e81-8b89-4ff8d70c69b2"},"vehicle_type_id":"4","last_reported":1728566307,"current_range_meters":38800,"station_id":"ce4bhgh2rcd13ifvqfb0","pricing_plan_id":"cebpf4jnsgd1na2vs0mg"},{"bike_id":"4c1ffb76-92ff-43d1-84d7-0b9d2160ebe9","system_id":"levelo_inurba_marseille","lat":43.28361,"lon":5.38629,"is_reserved":false,"is_disabled":false,"rental_uris":{"android":"levelo://app?vid=4c1ffb76-92ff-43d1-84d7-0b9d2160ebe9","ios":"levelo://app?vid=4c1ffb76-92ff-43d1-84d7-0b9d2160ebe9"},"vehicle_type_id":"4","last_reported":1728566307,"current_range_meters":12400,"station_id":"ce4bh492rcd13ifvqdvg","pricing_plan_id":"cebpf4jnsgd1na2vs0mg"},{"bike_id":"99d66301-10cb-48d7-8f69-dbf04f54b39e","system_id":"levelo_inurba_marseille","lat":43.23065,"lon":5.35493,"is_reserved":false,"is_disabled":false,"rental_uris":{"android":"levelo://app?vid=99d66301-10cb-48d7-8f69-dbf04f54b39e","ios":"levelo://app?vid=99d66301-10cb-48d7-8f69-dbf04f54b39e"},"vehicle_type_id":"4","last_reported":1728566307,"current_range_meters":25200,"station_id":"cpo3342slgdg3j2ifvpg","pricing_plan_id":"cebpf4jnsgd1na2vs0mg"},{"bike_id":"625f172c-9389-49cb-ba12-3231563527bc","system_id":"levelo_inurba_marseille","lat":43.33752,"lon":5.37434,"is_reserved":false,"is_disabled":false,"rental_uris":{"android":"levelo://app?vid=625f172c-9389-49cb-ba12-3231563527bc","ios":"levelo://app?vid=625f172c-9389-49cb-ba12-3231563527bc"},"vehicle_type_id":"4","last_reported":1728566307,"current_range_meters":38800,"station_id":"","pricing_plan_id":"cebpf4jnsgd1na2vs0mg"},{"bike_id":"46ba828e-060d-49fc-a1f3-4f4845622dbd","system_id":"levelo_inurba_marseille","lat":43.31356,"lon":5.36715,"is_reserved":false,"is_disabled":false,"rental_uris":{"android":"levelo://app?vid=46ba828e-060d-49fc-a1f3-4f4845622dbd","ios":"levelo://app?vid=46ba828e-060d-49fc-a1f3-4f4845622dbd"},"vehicle_type_id":"4","last_reported":1728566307,"current_range_meters":34000,"station_id":"ce4bgr92rcd13ifvqc6g","pricing_plan_id":"cebpf4jnsgd1na2vs0mg"},{"bike_id":"82fa316c-c572-475f-9f58-b9f9b04a21f5","system_id":"levelo_inurba_marseille","lat":43.305359,"lon":5.365602,"is_reserved":false,"is_disabled":false,"rental_uris":{"android":"levelo://app?vid=82fa316c-c572-475f-9f58-b9f9b04a21f5","ios":"levelo://app?vid=82fa316c-c572-475f-9f58-b9f9b04a21f5"},"vehicle_type_id":"4","last_reported":1728566307,"current_range_meters":8800,"station_id":"ce4bhp92rcd13ifvqhbg","pricing_plan_id":"cebpf4jnsgd1na2vs0mg"},{"bike_id":"47b907fa-9497-47c6-b524-47a227a5865f","system_id":"levelo_inurba_marseille","lat":43.305506,"lon":5.3653,"is_reserved":false,"is_disabled":false,"rental_uris":{"android":"levelo://app?vid=47b907fa-9497-47c6-b524-47a227a5865f","ios":"levelo://app?vid=47b907fa-9497-47c6-b524-47a227a5865f"},"vehicle_type_id":"4","last_reported":1728566307,"current_range_meters":38800,"station_id":"ce4bgs12rcd13ifvqcag","pricing_plan_id":"cebpf4jnsgd1na2vs0mg"},{"bike_id":"6dc9f29b-dcd7-48ab-a3f7-414929b3cef8","system_id":"levelo_inurba_marseille","lat":43.307928,"lon":5.376497,"is_reserved":false,"is_disabled":false,"rental_uris":{"android":"levelo://app?vid=6dc9f29b-dcd7-48ab-a3f7-414929b3cef8","ios":"levelo://app?vid=6dc9f29b-dcd7-48ab-a3f7-414929b3cef8"},"vehicle_type_id":"4","last_reported":1728566307,"current_range_meters":32800,"station_id":"ce4bgv92rcd13ifvqcq0","pricing_plan_id":"cebpf4jnsgd1na2vs0mg"},{"bike_id":"99dcc900-b5ea-41c7-94b8-107c538e98b8","system_id":"levelo_inurba_marseille","lat":43.28936,"lon":5.39617,"is_reserved":false,"is_disabled":false,"rental_uris":{"android":"levelo://app?vid=99dcc900-b5ea-41c7-94b8-107c538e98b8","ios":"levelo://app?vid=99dcc900-b5ea-41c7-94b8-107c538e98b8"},"vehicle_type_id":"4","last_reported":1728566307,"current_range_meters":38400,"station_id":"ce4bh3h2rcd13ifvqdn0","pricing_plan_id":"cebpf4jnsgd1na2vs0mg"},{"bike_id":"20c905c9-8c75-410f-be04-368942b49a89","system_id":"levelo_inurba_marseille","lat":43.29006,"lon":5.35618,"is_reserved":false,"is_disabled":false,"rental_uris":{"android":"levelo://app?vid=20c905c9-8c75-410f-be04-368942b49a89","ios":"levelo://app?vid=20c905c9-8c75-410f-be04-368942b49a89"},"vehicle_type_id":"4","last_reported":1728566307,"current_range_meters":40000,"station_id":"ce4bhb92rcd13ifvqen0","pricing_plan_id":"cebpf4jnsgd1na2vs0mg"},{"bike_id":"4b2f4fea-06b2-477f-9883-12a546ad6d80","system_id":"levelo_inurba_marseille","lat":43.33606,"lon":5.41026,"is_reserved":false,"is_disabled":false,"rental_uris":{"android":"levelo://app?vid=4b2f4fea-06b2-477f-9883-12a546ad6d80","ios":"levelo://app?vid=4b2f4fea-06b2-477f-9883-12a546ad6d80"},"vehicle_type_id":"4","last_reported":1728566307,"current_range_meters":29600,"station_id":"ce4bhqh2rcd13ifvqhmg","pricing_plan_id":"cebpf4jnsgd1na2vs0mg"},{"bike_id":"c85d3274-defc-4de7-9e1e-f7c2c55d184d","system_id":"levelo_inurba_marseille","lat":43.32485,"lon":5.36582,"is_reserved":false,"is_disabled":false,"rental_uris":{"android":"levelo://app?vid=c85d3274-defc-4de7-9e1e-f7c2c55d184d","ios":"levelo://app?vid=c85d3274-defc-4de7-9e1e-f7c2c55d184d"},"vehicle_type_id":"4","last_reported":1728566307,"current_range_meters":12800,"station_id":"ce4bhs12rcd13ifvqhvg","pricing_plan_id":"cebpf4jnsgd1na2vs0mg"},{"bike_id":"0d616978-f5e6-49ce-94a5-19c6c56a53ac","system_id":"levelo_inurba_marseille","lat":43.34147,"lon":5.40906,"is_reserved":false,"is_disabled":false,"rental_uris":{"android":"levelo://app?vid=0d616978-f5e6-49ce-94a5-19c6c56a53ac","ios":"levelo://app?vid=0d616978-f5e6-49ce-94a5-19c6c56a53ac"},"vehicle_type_id":"4","last_reported":1728566307,"current_range_meters":8000,"station_id":"ce4bhqh2rcd13ifvqhlg","pricing_plan_id":"cebpf4jnsgd1na2vs0mg"},{"bike_id":"6d0878bc-a3c5-4372-9657-3adbcc791b10","system_id":"levelo_inurba_marseille","lat":43.30792,"lon":5.37656,"is_reserved":false,"is_disabled":false,"rental_uris":{"android":"levelo://app?vid=6d0878bc-a3c5-4372-9657-3adbcc791b10","ios":"levelo://app?vid=6d0878bc-a3c5-4372-9657-3adbcc791b10"},"vehicle_type_id":"4","last_reported":1728566307,"current_range_meters":22400,"station_id":"ce4bgv92rcd13ifvqcq0","pricing_plan_id":"cebpf4jnsgd1na2vs0mg"},{"bike_id":"bfeb79fe-0d33-4ffc-b45e-53ae297e0bf4","system_id":"levelo_inurba_marseille","lat":43.27209,"lon":5.39179,"is_reserved":false,"is_disabled":false,"rental_uris":{"android":"levelo://app?vid=bfeb79fe-0d33-4ffc-b45e-53ae297e0bf4","ios":"levelo://app?vid=bfeb79fe-0d33-4ffc-b45e-53ae297e0bf4"},"vehicle_type_id":"4","last_reported":1728566307,"current_range_meters":14000,"station_id":"ce4bhhp2rcd13ifvqfm0","pricing_plan_id":"cebpf4jnsgd1na2vs0mg"},{"bike_id":"9d1cf367-c192-4635-94a9-ef775c2edc05","system_id":"levelo_inurba_marseille","lat":43.27373,"lon":5.36255,"is_reserved":false,"is_disabled":false,"rental_uris":{"android":"levelo://app?vid=9d1cf367-c192-4635-94a9-ef775c2edc05","ios":"levelo://app?vid=9d1cf367-c192-4635-94a9-ef775c2edc05"},"vehicle_type_id":"4","last_reported":1728566307,"current_range_meters":12000,"station_id":"ce4bhbh2rcd13ifvqeo0","pricing_plan_id":"cebpf4jnsgd1na2vs0mg"},{"bike_id":"164c54f2-7b69-48a2-9c35-4ba0b5f0f271","system_id":"levelo_inurba_marseille","lat":43.27196,"lon":5.41004,"is_reserved":false,"is_disabled":false,"rental_uris":{"android":"levelo://app?vid=164c54f2-7b69-48a2-9c35-4ba0b5f0f271","ios":"levelo://app?vid=164c54f2-7b69-48a2-9c35-4ba0b5f0f271"},"vehicle_type_id":"4","last_reported":1728566307,"current_range_meters":12000,"station_id":"ce4bhl12rcd13ifvqgf0","pricing_plan_id":"cebpf4jnsgd1na2vs0mg"},{"bike_id":"aed7ba20-f7e4-4fdb-a1c3-ec5f5e2d8f8b","system_id":"levelo_inurba_marseille","lat":43.26565,"lon":5.38994,"is_reserved":false,"is_disabled":false,"rental_uris":{"android":"levelo://app?vid=aed7ba20-f7e4-4fdb-a1c3-ec5f5e2d8f8b","ios":"levelo://app?vid=aed7ba20-f7e4-4fdb-a1c3-ec5f5e2d8f8b"},"vehicle_type_id":"4","last_reported":1728566307,"current_range_meters":24400,"station_id":"ce4bhe12rcd13ifvqf30","pricing_plan_id":"cebpf4jnsgd1na2vs0mg"},{"bike_id":"b0e6a3a7-e951-4093-bf19-fae4d3c0ba39","system_id":"levelo_inurba_marseille","lat":43.26571,"lon":5.39003,"is_reserved":false,"is_disabled":false,"rental_uris":{"android":"levelo://app?vid=b0e6a3a7-e951-4093-bf19-fae4d3c0ba39","ios":"levelo://app?vid=b0e6a3a7-e951-4093-bf19-fae4d3c0ba39"},"vehicle_type_id":"4","last_reported":1728566307,"current_range_meters":6000,"station_id":"ce4bhe12rcd13ifvqf30","pricing_plan_id":"cebpf4jnsgd1na2vs0mg"},{"bike_id":"20dab75d-2e6a-4c11-980c-54c451fa1ed2","system_id":"levelo_inurba_marseille","lat":43.31068,"lon":5.38348,"is_reserved":false,"is_disabled":false,"rental_uris":{"android":"levelo://app?vid=20dab75d-2e6a-4c11-980c-54c451fa1ed2","ios":"levelo://app?vid=20dab75d-2e6a-4c11-980c-54c451fa1ed2"},"vehicle_type_id":"4","last_reported":1728566307,"current_range_meters":8400,"station_id":"ce4bgv92rcd13ifvqcr0","pricing_plan_id":"cebpf4jnsgd1na2vs0mg"},{"bike_id":"d34884f5-b387-4238-be67-f740b3ed9671","system_id":"levelo_inurba_marseille","lat":43.27067,"lon":5.42282,"is_reserved":false,"is_disabled":false,"rental_uris":{"android":"levelo://app?vid=d34884f5-b387-4238-be67-f740b3ed9671","ios":"levelo://app?vid=d34884f5-b387-4238-be67-f740b3ed9671"},"vehicle_type_id":"4","last_reported":1728566307,"current_range_meters":32000,"station_id":"ce4bhk92rcd13ifvqgb0","pricing_plan_id":"cebpf4jnsgd1na2vs0mg"},{"bike_id":"bfaf1794-8a5b-4eeb-9ef4-65acc5eef363","system_id":"levelo_inurba_marseille","lat":43.28411,"lon":5.34982,"is_reserved":false,"is_disabled":false,"rental_uris":{"android":"levelo://app?vid=bfaf1794-8a5b-4eeb-9ef4-65acc5eef363","ios":"levelo://app?vid=bfaf1794-8a5b-4eeb-9ef4-65acc5eef363"},"vehicle_type_id":"4","last_reported":1728566307,"current_range_meters":6400,"station_id":"ce4bhbh2rcd13ifvqepg","pricing_plan_id":"cebpf4jnsgd1na2vs0mg"},{"bike_id":"1ae2ab72-a100-426a-bdff-9a5aec036875","system_id":"levelo_inurba_marseille","lat":43.29008,"lon":5.35604,"is_reserved":false,"is_disabled":false,"rental_uris":{"android":"levelo://app?vid=1ae2ab72-a100-426a-bdff-9a5aec036875","ios":"levelo://app?vid=1ae2ab72-a100-426a-bdff-9a5aec036875"},"vehicle_type_id":"4","last_reported":1728566307,"current_range_meters":16400,"station_id":"ce4bhb92rcd13ifvqen0","pricing_plan_id":"cebpf4jnsgd1na2vs0mg"},{"bike_id":"f17a6135-9c88-44f8-9e06-e198df84dbbc","system_id":"levelo_inurba_marseille","lat":43.29739,"lon":5.37685,"is_reserved":false,"is_disabled":false,"rental_uris":{"android":"levelo://app?vid=f17a6135-9c88-44f8-9e06-e198df84dbbc","ios":"levelo://app?vid=f17a6135-9c88-44f8-9e06-e198df84dbbc"},"vehicle_type_id":"4","last_reported":1728566307,"current_range_meters":36800,"station_id":"ce4bgkh2rcd13ifvqbl0","pricing_plan_id":"cebpf4jnsgd1na2vs0mg"},{"bike_id":"dee90c2f-45ca-40e8-b111-e354e5ab501c","system_id":"levelo_inurba_marseille","lat":43.31336,"lon":5.36718,"is_reserved":false,"is_disabled":false,"rental_uris":{"android":"levelo://app?vid=dee90c2f-45ca-40e8-b111-e354e5ab501c","ios":"levelo://app?vid=dee90c2f-45ca-40e8-b111-e354e5ab501c"},"vehicle_type_id":"4","last_reported":1728566307,"current_range_meters":39200,"station_id":"ce4bgr92rcd13ifvqc6g","pricing_plan_id":"cebpf4jnsgd1na2vs0mg"},{"bike_id":"d489cfc6-215e-4e8e-82f7-7f55cfe48732","system_id":"levelo_inurba_marseille","lat":43.26788,"lon":5.3942,"is_reserved":false,"is_disabled":false,"rental_uris":{"android":"levelo://app?vid=d489cfc6-215e-4e8e-82f7-7f55cfe48732","ios":"levelo://app?vid=d489cfc6-215e-4e8e-82f7-7f55cfe48732"},"vehicle_type_id":"4","last_reported":1728566307,"current_range_meters":34000,"station_id":"ce4bhh12rcd13ifvqfg0","pricing_plan_id":"cebpf4jnsgd1na2vs0mg"},{"bike_id":"677d7c65-d527-4a9d-bebf-6686e9a9f0ac","system_id":"levelo_inurba_marseille","lat":43.27055,"lon":5.40258,"is_reserved":false,"is_disabled":false,"rental_uris":{"android":"levelo://app?vid=677d7c65-d527-4a9d-bebf-6686e9a9f0ac","ios":"levelo://app?vid=677d7c65-d527-4a9d-bebf-6686e9a9f0ac"},"vehicle_type_id":"4","last_reported":1728566307,"current_range_meters":22800,"station_id":"ce4bhk92rcd13ifvqgc0","pricing_plan_id":"cebpf4jnsgd1na2vs0mg"},{"bike_id":"045cbd95-6b4c-4307-8c34-29ed0e6e3e56","system_id":"levelo_inurba_marseille","lat":43.30792,"lon":5.37664,"is_reserved":false,"is_disabled":false,"rental_uris":{"android":"levelo://app?vid=045cbd95-6b4c-4307-8c34-29ed0e6e3e56","ios":"levelo://app?vid=045cbd95-6b4c-4307-8c34-29ed0e6e3e56"},"vehicle_type_id":"4","last_reported":1728566307,"current_range_meters":37600,"station_id":"ce4bgv92rcd13ifvqcq0","pricing_plan_id":"cebpf4jnsgd1na2vs0mg"},{"bike_id":"c7c56f7a-5102-4e1a-8633-faac677ed3c6","system_id":"levelo_inurba_marseille","lat":43.23195,"lon":5.35551,"is_reserved":false,"is_disabled":false,"rental_uris":{"android":"levelo://app?vid=c7c56f7a-5102-4e1a-8633-faac677ed3c6","ios":"levelo://app?vid=c7c56f7a-5102-4e1a-8633-faac677ed3c6"},"vehicle_type_id":"4","last_reported":1728566307,"current_range_meters":25200,"station_id":"ce4bhu92rcd13ifvqi70","pricing_plan_id":"cebpf4jnsgd1na2vs0mg"},{"bike_id":"a6951866-dd34-4812-8a24-4a7c121cfa8d","system_id":"levelo_inurba_marseille","lat":43.32285,"lon":5.3827,"is_reserved":false,"is_disabled":false,"rental_uris":{"android":"levelo://app?vid=a6951866-dd34-4812-8a24-4a7c121cfa8d","ios":"levelo://app?vid=a6951866-dd34-4812-8a24-4a7c121cfa8d"},"vehicle_type_id":"4","last_reported":1728566307,"current_range_meters":38800,"station_id":"ce4bhr12rcd13ifvqhqg","pricing_plan_id":"cebpf4jnsgd1na2vs0mg"},{"bike_id":"336590e0-dcb5-4fa7-a022-56648f3e3d79","system_id":"levelo_inurba_marseille","lat":43.30214,"lon":5.3946,"is_reserved":false,"is_disabled":false,"rental_uris":{"android":"levelo://app?vid=336590e0-dcb5-4fa7-a022-56648f3e3d79","ios":"levelo://app?vid=336590e0-dcb5-4fa7-a022-56648f3e3d79"},"vehicle_type_id":"4","last_reported":1728566307,"current_range_meters":18800,"station_id":"ce4bh0p2rcd13ifvqd70","pricing_plan_id":"cebpf4jnsgd1na2vs0mg"},{"bike_id":"6653552f-34b4-4c35-aea5-61e5d85c0cce","system_id":"levelo_inurba_marseille","lat":43.27175,"lon":5.40996,"is_reserved":false,"is_disabled":false,"rental_uris":{"android":"levelo://app?vid=6653552f-34b4-4c35-aea5-61e5d85c0cce","ios":"levelo://app?vid=6653552f-34b4-4c35-aea5-61e5d85c0cce"},"vehicle_type_id":"4","last_reported":1728566307,"current_range_meters":6400,"station_id":"ce4bhl12rcd13ifvqgf0","pricing_plan_id":"cebpf4jnsgd1na2vs0mg"},{"bike_id":"c3ace53e-6fa3-4229-a98c-053e968a49c9","system_id":"levelo_inurba_marseille","lat":43.3415,"lon":5.40906,"is_reserved":false,"is_disabled":false,"rental_uris":{"android":"levelo://app?vid=c3ace53e-6fa3-4229-a98c-053e968a49c9","ios":"levelo://app?vid=c3ace53e-6fa3-4229-a98c-053e968a49c9"},"vehicle_type_id":"4","last_reported":1728566307,"current_range_meters":9600,"station_id":"ce4bhqh2rcd13ifvqhlg","pricing_plan_id":"cebpf4jnsgd1na2vs0mg"},{"bike_id":"b4428fcb-f739-4c9a-9c5e-0dbeb358624f","system_id":"levelo_inurba_marseille","lat":43.28076,"lon":5.3966,"is_reserved":false,"is_disabled":false,"rental_uris":{"android":"levelo://app?vid=b4428fcb-f739-4c9a-9c5e-0dbeb358624f","ios":"levelo://app?vid=b4428fcb-f739-4c9a-9c5e-0dbeb358624f"},"vehicle_type_id":"4","last_reported":1728566307,"current_range_meters":14000,"station_id":"ce4bho12rcd13ifvqh2g","pricing_plan_id":"cebpf4jnsgd1na2vs0mg"},{"bike_id":"69e9d5ef-bb65-4dfa-991e-4a3f2f4af80e","system_id":"levelo_inurba_marseille","lat":43.28718,"lon":5.37938,"is_reserved":false,"is_disabled":false,"rental_uris":{"android":"levelo://app?vid=69e9d5ef-bb65-4dfa-991e-4a3f2f4af80e","ios":"levelo://app?vid=69e9d5ef-bb65-4dfa-991e-4a3f2f4af80e"},"vehicle_type_id":"4","last_reported":1728566307,"current_range_meters":17200,"station_id":"ce4bh9p2rcd13ifvqec0","pricing_plan_id":"cebpf4jnsgd1na2vs0mg"},{"bike_id":"83a57bc4-b34d-4595-945e-caddc6007723","system_id":"levelo_inurba_marseille","lat":43.28441,"lon":5.392,"is_reserved":false,"is_disabled":false,"rental_uris":{"android":"levelo://app?vid=83a57bc4-b34d-4595-945e-caddc6007723","ios":"levelo://app?vid=83a57bc4-b34d-4595-945e-caddc6007723"},"vehicle_type_id":"4","last_reported":1728566307,"current_range_meters":7200,"station_id":"ce4bhoh2rcd13ifvqh5g","pricing_plan_id":"cebpf4jnsgd1na2vs0mg"},{"bike_id":"11ed31aa-d197-48ee-99a4-4a6a2acee734","system_id":"levelo_inurba_marseille","lat":43.25003,"lon":5.38926,"is_reserved":false,"is_disabled":false,"rental_uris":{"android":"levelo://app?vid=11ed31aa-d197-48ee-99a4-4a6a2acee734","ios":"levelo://app?vid=11ed31aa-d197-48ee-99a4-4a6a2acee734"},"vehicle_type_id":"4","last_reported":1728566307,"current_range_meters":36000,"station_id":"ce4bhgp2rcd13ifvqfd0","pricing_plan_id":"cebpf4jnsgd1na2vs0mg"},{"bike_id":"73509d34-efe4-41ff-8f68-ad1a7d2ead09","system_id":"levelo_inurba_marseille","lat":43.2439,"lon":5.37058,"is_reserved":false,"is_disabled":false,"rental_uris":{"android":"levelo://app?vid=73509d34-efe4-41ff-8f68-ad1a7d2ead09","ios":"levelo://app?vid=73509d34-efe4-41ff-8f68-ad1a7d2ead09"},"vehicle_type_id":"4","last_reported":1728566307,"current_range_meters":6800,"station_id":"ce4bhhh2rcd13ifvqfk0","pricing_plan_id":"cebpf4jnsgd1na2vs0mg"},{"bike_id":"daa275ea-ac44-47b4-ac61-333e5afbc9ef","system_id":"levelo_inurba_marseille","lat":43.31718,"lon":5.42393,"is_reserved":false,"is_disabled":false,"rental_uris":{"android":"levelo://app?vid=daa275ea-ac44-47b4-ac61-333e5afbc9ef","ios":"levelo://app?vid=daa275ea-ac44-47b4-ac61-333e5afbc9ef"},"vehicle_type_id":"4","last_reported":1728566307,"current_range_meters":20800,"station_id":"ce4bhp92rcd13ifvqhbg","pricing_plan_id":"cebpf4jnsgd1na2vs0mg"},{"bike_id":"1d556b13-f330-4041-9740-331d1e5f1b14","system_id":"levelo_inurba_marseille","lat":43.28713,"lon":5.3793,"is_reserved":false,"is_disabled":false,"rental_uris":{"android":"levelo://app?vid=1d556b13-f330-4041-9740-331d1e5f1b14","ios":"levelo://app?vid=1d556b13-f330-4041-9740-331d1e5f1b14"},"vehicle_type_id":"4","last_reported":1728566307,"current_range_meters":4000,"station_id":"ce4bh9p2rcd13ifvqec0","pricing_plan_id":"cebpf4jnsgd1na2vs0mg"},{"bike_id":"c5d01ffe-6890-4aa1-859f-c4c28adaea10","system_id":"levelo_inurba_marseille","lat":43.24085,"lon":5.37744,"is_reserved":false,"is_disabled":false,"rental_uris":{"android":"levelo://app?vid=c5d01ffe-6890-4aa1-859f-c4c28adaea10","ios":"levelo://app?vid=c5d01ffe-6890-4aa1-859f-c4c28adaea10"},"vehicle_type_id":"4","last_reported":1728566307,"current_range_meters":30400,"station_id":"ce4bhnp2rcd13ifvqgvg","pricing_plan_id":"cebpf4jnsgd1na2vs0mg"},{"bike_id":"92c80e05-1fb9-4de1-95fd-d0080df5b8aa","system_id":"levelo_inurba_marseille","lat":43.26204,"lon":5.37925,"is_reserved":false,"is_disabled":false,"rental_uris":{"android":"levelo://app?vid=92c80e05-1fb9-4de1-95fd-d0080df5b8aa","ios":"levelo://app?vid=92c80e05-1fb9-4de1-95fd-d0080df5b8aa"},"vehicle_type_id":"4","last_reported":1728566307,"current_range_meters":26000,"station_id":"ce4bhjp2rcd13ifvqg90","pricing_plan_id":"cebpf4jnsgd1na2vs0mg"},{"bike_id":"9cf3db70-1431-4372-b452-2d0770d0c15d","system_id":"levelo_inurba_marseille","lat":43.23194,"lon":5.35553,"is_reserved":false,"is_disabled":false,"rental_uris":{"android":"levelo://app?vid=9cf3db70-1431-4372-b452-2d0770d0c15d","ios":"levelo://app?vid=9cf3db70-1431-4372-b452-2d0770d0c15d"},"vehicle_type_id":"4","last_reported":1728566307,"current_range_meters":36000,"station_id":"ce4bhu92rcd13ifvqi70","pricing_plan_id":"cebpf4jnsgd1na2vs0mg"},{"bike_id":"b9621e72-185b-4ed4-9354-64fdb06fcd44","system_id":"levelo_inurba_marseille","lat":43.3078,"lon":5.3765,"is_reserved":false,"is_disabled":false,"rental_uris":{"android":"levelo://app?vid=b9621e72-185b-4ed4-9354-64fdb06fcd44","ios":"levelo://app?vid=b9621e72-185b-4ed4-9354-64fdb06fcd44"},"vehicle_type_id":"4","last_reported":1728566307,"current_range_meters":10800,"station_id":"ce4bgv92rcd13ifvqcq0","pricing_plan_id":"cebpf4jnsgd1na2vs0mg"},{"bike_id":"800704c5-22ff-4987-bcce-5fb01ce1f78c","system_id":"levelo_inurba_marseille","lat":43.28422,"lon":5.34984,"is_reserved":false,"is_disabled":false,"rental_uris":{"android":"levelo://app?vid=800704c5-22ff-4987-bcce-5fb01ce1f78c","ios":"levelo://app?vid=800704c5-22ff-4987-bcce-5fb01ce1f78c"},"vehicle_type_id":"4","last_reported":1728566307,"current_range_meters":38800,"station_id":"ce4bhbh2rcd13ifvqepg","pricing_plan_id":"cebpf4jnsgd1na2vs0mg"},{"bike_id":"3c25dded-f8d5-4193-a336-9fad641c4aac","system_id":"levelo_inurba_marseille","lat":43.33762,"lon":5.3742,"is_reserved":false,"is_disabled":false,"rental_uris":{"android":"levelo://app?vid=3c25dded-f8d5-4193-a336-9fad641c4aac","ios":"levelo://app?vid=3c25dded-f8d5-4193-a336-9fad641c4aac"},"vehicle_type_id":"4","last_reported":1728566307,"current_range_meters":16400,"station_id":"","pricing_plan_id":"cebpf4jnsgd1na2vs0mg"},{"bike_id":"c45c4812-ee99-4f30-8c10-331993c489db","system_id":"levelo_inurba_marseille","lat":43.24169,"lon":5.36392,"is_reserved":false,"is_disabled":false,"rental_uris":{"android":"levelo://app?vid=c45c4812-ee99-4f30-8c10-331993c489db","ios":"levelo://app?vid=c45c4812-ee99-4f30-8c10-331993c489db"},"vehicle_type_id":"4","last_reported":1728566307,"current_range_meters":10000,"station_id":"cpo36qri1sfpv3e86is0","pricing_plan_id":"cebpf4jnsgd1na2vs0mg"},{"bike_id":"9079b268-4532-4938-9d2d-abdc5ca906dd","system_id":"levelo_inurba_marseille","lat":43.2985,"lon":5.36282,"is_reserved":false,"is_disabled":false,"rental_uris":{"android":"levelo://app?vid=9079b268-4532-4938-9d2d-abdc5ca906dd","ios":"levelo://app?vid=9079b268-4532-4938-9d2d-abdc5ca906dd"},"vehicle_type_id":"4","last_reported":1728566307,"current_range_meters":27600,"station_id":"ce4bgpp2rcd13ifvqc3g","pricing_plan_id":"cebpf4jnsgd1na2vs0mg"},{"bike_id":"d1430022-6b9a-4199-a305-84a3818e0305","system_id":"levelo_inurba_marseille","lat":43.28999,"lon":5.35613,"is_reserved":false,"is_disabled":false,"rental_uris":{"android":"levelo://app?vid=d1430022-6b9a-4199-a305-84a3818e0305","ios":"levelo://app?vid=d1430022-6b9a-4199-a305-84a3818e0305"},"vehicle_type_id":"4","last_reported":1728566307,"current_range_meters":19600,"station_id":"ce4bhb92rcd13ifvqen0","pricing_plan_id":"cebpf4jnsgd1na2vs0mg"},{"bike_id":"7975faaf-f260-41c7-87cd-147b9a3b3ebf","system_id":"levelo_inurba_marseille","lat":43.23057,"lon":5.3549,"is_reserved":false,"is_disabled":false,"rental_uris":{"android":"levelo://app?vid=7975faaf-f260-41c7-87cd-147b9a3b3ebf","ios":"levelo://app?vid=7975faaf-f260-41c7-87cd-147b9a3b3ebf"},"vehicle_type_id":"4","last_reported":1728566307,"current_range_meters":20000,"station_id":"cpo3342slgdg3j2ifvpg","pricing_plan_id":"cebpf4jnsgd1na2vs0mg"},{"bike_id":"e2dbd352-0617-4b0a-a708-07d554e99653","system_id":"levelo_inurba_marseille","lat":43.24808,"lon":5.37456,"is_reserved":false,"is_disabled":false,"rental_uris":{"android":"levelo://app?vid=e2dbd352-0617-4b0a-a708-07d554e99653","ios":"levelo://app?vid=e2dbd352-0617-4b0a-a708-07d554e99653"},"vehicle_type_id":"4","last_reported":1728566307,"current_range_meters":22000,"station_id":"ce4bhgh2rcd13ifvqfb0","pricing_plan_id":"cebpf4jnsgd1na2vs0mg"},{"bike_id":"703d5faf-e8f5-42e8-a15c-36acb1ae64d2","system_id":"levelo_inurba_marseille","lat":43.22932,"lon":5.35382,"is_reserved":false,"is_disabled":false,"rental_uris":{"android":"levelo://app?vid=703d5faf-e8f5-42e8-a15c-36acb1ae64d2","ios":"levelo://app?vid=703d5faf-e8f5-42e8-a15c-36acb1ae64d2"},"vehicle_type_id":"4","last_reported":1728566307,"current_range_meters":8800,"station_id":"cpo3532slgdg3j2ikp40","pricing_plan_id":"cebpf4jnsgd1na2vs0mg"},{"bike_id":"5abce8b1-23f2-47b4-9438-d1f4a54b6b5e","system_id":"levelo_inurba_marseille","lat":43.26682,"lon":5.38268,"is_reserved":false,"is_disabled":false,"rental_uris":{"android":"levelo://app?vid=5abce8b1-23f2-47b4-9438-d1f4a54b6b5e","ios":"levelo://app?vid=5abce8b1-23f2-47b4-9438-d1f4a54b6b5e"},"vehicle_type_id":"4","last_reported":1728566307,"current_range_meters":4000,"station_id":"ce4bhg92rcd13ifvqf90","pricing_plan_id":"cebpf4jnsgd1na2vs0mg"},{"bike_id":"4b65e5e5-d568-4114-bfd6-70b281240118","system_id":"levelo_inurba_marseille","lat":43.3172,"lon":5.42398,"is_reserved":false,"is_disabled":false,"rental_uris":{"android":"levelo://app?vid=4b65e5e5-d568-4114-bfd6-70b281240118","ios":"levelo://app?vid=4b65e5e5-d568-4114-bfd6-70b281240118"},"vehicle_type_id":"4","last_reported":1728566307,"current_range_meters":9600,"station_id":"ce4bhp92rcd13ifvqhbg","pricing_plan_id":"cebpf4jnsgd1na2vs0mg"},{"bike_id":"c99a15ef-d9e1-47b6-9751-35ab6f6a0e0c","system_id":"levelo_inurba_marseille","lat":43.28439,"lon":5.39203,"is_reserved":false,"is_disabled":false,"rental_uris":{"android":"levelo://app?vid=c99a15ef-d9e1-47b6-9751-35ab6f6a0e0c","ios":"levelo://app?vid=c99a15ef-d9e1-47b6-9751-35ab6f6a0e0c"},"vehicle_type_id":"4","last_reported":1728566307,"current_range_meters":38800,"station_id":"ce4bhoh2rcd13ifvqh5g","pricing_plan_id":"cebpf4jnsgd1na2vs0mg"},{"bike_id":"588f0f49-5346-49d6-ad44-d9635a10be15","system_id":"levelo_inurba_marseille","lat":43.32658,"lon":5.40994,"is_reserved":false,"is_disabled":false,"rental_uris":{"android":"levelo://app?vid=588f0f49-5346-49d6-ad44-d9635a10be15","ios":"levelo://app?vid=588f0f49-5346-49d6-ad44-d9635a10be15"},"vehicle_type_id":"4","last_reported":1728566307,"current_range_meters":16000,"station_id":"ce4bhpp2rcd13ifvqhgg","pricing_plan_id":"cebpf4jnsgd1na2vs0mg"},{"bike_id":"7d15bfc0-2e63-42af-965f-5095ee43bc6f","system_id":"levelo_inurba_marseille","lat":43.23152,"lon":5.43712,"is_reserved":false,"is_disabled":false,"rental_uris":{"android":"levelo://app?vid=7d15bfc0-2e63-42af-965f-5095ee43bc6f","ios":"levelo://app?vid=7d15bfc0-2e63-42af-965f-5095ee43bc6f"},"vehicle_type_id":"4","last_reported":1728566307,"current_range_meters":17600,"station_id":"ce4bhmp2rcd13ifvqgog","pricing_plan_id":"cebpf4jnsgd1na2vs0mg"},{"bike_id":"e2bb9133-05e6-45b3-9cdf-adab19c67cfe","system_id":"levelo_inurba_marseille","lat":43.29844,"lon":5.36259,"is_reserved":false,"is_disabled":false,"rental_uris":{"android":"levelo://app?vid=e2bb9133-05e6-45b3-9cdf-adab19c67cfe","ios":"levelo://app?vid=e2bb9133-05e6-45b3-9cdf-adab19c67cfe"},"vehicle_type_id":"4","last_reported":1728566307,"current_range_meters":37600,"station_id":"ce4bgpp2rcd13ifvqc3g","pricing_plan_id":"cebpf4jnsgd1na2vs0mg"},{"bike_id":"20d9bc14-8372-4274-8376-806cd06737a0","system_id":"levelo_inurba_marseille","lat":43.2315,"lon":5.43699,"is_reserved":false,"is_disabled":false,"rental_uris":{"android":"levelo://app?vid=20d9bc14-8372-4274-8376-806cd06737a0","ios":"levelo://app?vid=20d9bc14-8372-4274-8376-806cd06737a0"},"vehicle_type_id":"4","last_reported":1728566307,"current_range_meters":17200,"station_id":"ce4bhmp2rcd13ifvqgog","pricing_plan_id":"cebpf4jnsgd1na2vs0mg"},{"bike_id":"c7b9ee57-a5c6-4eb9-b2f3-dde175df1cd7","system_id":"levelo_inurba_marseille","lat":43.27375,"lon":5.36264,"is_reserved":false,"is_disabled":false,"rental_uris":{"android":"levelo://app?vid=c7b9ee57-a5c6-4eb9-b2f3-dde175df1cd7","ios":"levelo://app?vid=c7b9ee57-a5c6-4eb9-b2f3-dde175df1cd7"},"vehicle_type_id":"4","last_reported":1728566307,"current_range_meters":6000,"station_id":"ce4bhbh2rcd13ifvqeo0","pricing_plan_id":"cebpf4jnsgd1na2vs0mg"},{"bike_id":"695623f5-2be4-44b2-abae-376cfcb01d41","system_id":"levelo_inurba_marseille","lat":43.30126,"lon":5.38787,"is_reserved":false,"is_disabled":false,"rental_uris":{"android":"levelo://app?vid=695623f5-2be4-44b2-abae-376cfcb01d41","ios":"levelo://app?vid=695623f5-2be4-44b2-abae-376cfcb01d41"},"vehicle_type_id":"4","last_reported":1728566307,"current_range_meters":38000,"station_id":"ce4bghh2rcd13ifvqb60","pricing_plan_id":"cebpf4jnsgd1na2vs0mg"},{"bike_id":"2945ae68-8736-4155-8dcf-fa944029acb7","system_id":"levelo_inurba_marseille","lat":43.30805,"lon":5.43515,"is_reserved":false,"is_disabled":false,"rental_uris":{"android":"levelo://app?vid=2945ae68-8736-4155-8dcf-fa944029acb7","ios":"levelo://app?vid=2945ae68-8736-4155-8dcf-fa944029acb7"},"vehicle_type_id":"4","last_reported":1728566307,"current_range_meters":36400,"station_id":"ce4bhph2rcd13ifvqheg","pricing_plan_id":"cebpf4jnsgd1na2vs0mg"},{"bike_id":"32b7e550-1d43-44f8-b9be-3dc89d8a539f","system_id":"levelo_inurba_marseille","lat":43.32291,"lon":5.38263,"is_reserved":false,"is_disabled":false,"rental_uris":{"android":"levelo://app?vid=32b7e550-1d43-44f8-b9be-3dc89d8a539f","ios":"levelo://app?vid=32b7e550-1d43-44f8-b9be-3dc89d8a539f"},"vehicle_type_id":"4","last_reported":1728566307,"current_range_meters":18800,"station_id":"ce4bhr12rcd13ifvqhqg","pricing_plan_id":"cebpf4jnsgd1na2vs0mg"},{"bike_id":"a42c4aaf-176f-4aeb-9799-e3f962514a37","system_id":"levelo_inurba_marseille","lat":43.26568,"lon":5.39003,"is_reserved":false,"is_disabled":false,"rental_uris":{"android":"levelo://app?vid=a42c4aaf-176f-4aeb-9799-e3f962514a37","ios":"levelo://app?vid=a42c4aaf-176f-4aeb-9799-e3f962514a37"},"vehicle_type_id":"4","last_reported":1728566307,"current_range_meters":28000,"station_id":"ce4bhe12rcd13ifvqf30","pricing_plan_id":"cebpf4jnsgd1na2vs0mg"},