{"last_updated":1702220791,"ttl":30,"version":"2.2","data":{"bikes":[{"bike_id":"a5ece15d-7949-4eb8-8769-f832891a8393","system_id":"levelo_inurba_marseille","lat":43.312239,"lon":5.368562,"is_reserved":false,"is_disabled":false,"rental_uris":{"android":"levelo://app?vid=a5ece15d-7949-4eb8-8769-f832891a8393","ios":"levelo://app?vid=a5ece15d-7949-4eb8-8769-f832891a8393"},"vehicle_type_id":"4","last_reported":1702220791,"current_range_meters":11200,"station_id":"ce4bgl92rcd13ifvqbq0","pricing_plan_id":"free"},{"bike_id":"dd30605c-3652-4020-97e1-1e2919cf7953","system_id":"levelo_inurba_marseille","lat":43.311125,"lon":5.377624,"is_reserved":false,"is_disabled":false,"rental_uris":{"android":"levelo://app?vid=dd30605c-3652-4020-97e1-1e2919cf7953","ios":"levelo://app?vid=dd30605c-3652-4020-97e1-1e2919cf7953"},"vehicle_type_id":"4","last_reported":1702220791,"current_range_meters":23600,"station_id":"ce4bgt92rcd13ifvqcg0","pricing_plan_id":"free"},{"bike_id":"1bd1a2fd-d808-4768-88e2-4b27ef46f354","system_id":"levelo_inurba_marseille","lat":43.324771,"lon":5.36557,"is_reserved":false,"is_disabled":false,"rental_uris":{"android":"levelo://app?vid=1bd1a2fd-d808-4768-88e2-4b27ef46f354","ios":"levelo://app?vid=1bd1a2fd-d808-4768-88e2-4b27ef46f354"},"vehicle_type_id":"4","last_reported":1702220791,"current_range_meters":12000,"station_id":"ce4bhs12rcd13ifvqhvg","pricing_plan_id":"free"},{"bike_id":"1c1b5943-1099-462a-8eec-448f7ad54cc2","system_id":"levelo_inurba_marseille","lat":43.313571,"lon":5.384829,"is_reserved":false,"is_disabled":false,"rental_uris":{"android":"levelo://app?vid=1c1b5943-1099-462a-8eec-448f7ad54cc2","ios":"levelo://app?vid=1c1b5943-1099-462a-8eec-448f7ad54cc2"},"vehicle_type_id":"4","last_reported":1702220791,"current_range_meters":12000,"station_id":"ce4bgt92rcd13ifvqcf0","pricing_plan_id":"free"},{"bike_id":"d8be298e-f4c0-4479-a66b-e307c680d7cc","system_id":"levelo_inurba_marseille","lat":43.31356,"lon":5.38493,"is_reserved":false,"is_disabled":false,"rental_uris":{"android":"levelo://app?vid=d8be298e-f4c0-4479-a66b-e307c680d7cc","ios":"levelo://app?vid=d8be298e-f4c0-4479-a66b-e307c680d7cc"},"vehicle_type_id":"4","last_reported":1702220791,"current_range_meters":20000,"station_id":"ce4bgt92rcd13ifvqcf0","pricing_plan_id":"free"},{"bike_id":"2b5e333f-c49b-4f25-88ae-c82a3ddeb7c0","system_id":"levelo_inurba_marseille","lat":43.298433,"lon":5.362774,"is_reserved":false,"is_disabled":false,"rental_uris":{"android":"levelo://app?vid=2b5e333f-c49b-4f25-88ae-c82a3ddeb7c0","ios":"levelo://app?vid=2b5e333f-c49b-4f25-88ae-c82a3ddeb7c0"},"vehicle_type_id":"4","last_reported":1702220791,"current_range_meters":27600,"station_id":"ce4bgpp2rcd13ifvqc3g","pricing_plan_id":"free"},{"bike_id":"ccd4fbf7-a0c2-498b-8ecc-15a67004cff0","system_id":"levelo_inurba_marseille","lat":43.322872,"lon":5.382756,"is_reserved":false,"is_disabled":false,"rental_uris":{"android":"levelo://app?vid=ccd4fbf7-a0c2-498b-8ecc-15a67004cff0","ios":"levelo://app?vid=ccd4fbf7-a0c2-498b-8ecc-15a67004cff0"},"vehicle_type_id":"4","last_reported":1702220791,"current_range_meters":28400,"station_id":"ce4bhr12rcd13ifvqhqg","pricing_plan_id":"free"},{"bike_id":"6ac675f1-e0be-498c-ad2f-b742a949d4b0","system_id":"levelo_inurba_marseille","lat":43.298218,"lon":5.374416,"is_reserved":false,"is_disabled":false,"rental_uris":{"android":"levelo://app?vid=6ac675f1-e0be-498c-ad2f-b742a949d4b0","ios":"levelo://app?vid=6ac675f1-e0be-498c-ad2f-b742a949d4b0"},"vehicle_type_id":"4","last_reported":1702220791,"current_range_meters":0,"station_id":"","pricing_plan_id":"free"},{"bike_id":"9a75aac0-2e54-4ffe-8b56-07e48315b873","system_id":"levelo_inurba_marseille","lat":43.328371,"lon":5.366909,"is_reserved":false,"is_disabled":false,"rental_uris":{"android":"levelo://app?vid=9a75aac0-2e54-4ffe-8b56-07e48315b873","ios":"levelo://app?vid=9a75aac0-2e54-4ffe-8b56-07e48315b873"},"vehicle_type_id":"4","last_reported":1702220791,"current_range_meters":23200,"station_id":"ce4bhs92rcd13ifvqi0g","pricing_plan_id":"free"},{"bike_id":"efacb135-926e-4194-a9a5-e3282dacf0cf","system_id":"levelo_inurba_marseille","lat":43.297163,"lon":5.365866,"is_reserved":false,"is_disabled":false,"rental_uris":{"android":"levelo://app?vid=efacb135-926e-4194-a9a5-e3282dacf0cf","ios":"levelo://app?vid=efacb135-926e-4194-a9a5-e3282dacf0cf"},"vehicle_type_id":"4","last_reported":1702220791,"current_range_meters":24400,"station_id":"ce4bgn12rcd13ifvqbt0","pricing_plan_id":"free"},{"bike_id":"9f31c7cc-2604-48a2-a901-996d50f6f487","system_id":"levelo_inurba_marseille","lat":43.29707,"lon":5.36606,"is_reserved":false,"is_disabled":false,"rental_uris":{"android":"levelo://app?vid=9f31c7cc-2604-48a2-a901-996d50f6f487","ios":"levelo://app?vid=9f31c7cc-2604-48a2-a901-996d50f6f487"},"vehicle_type_id":"4","last_reported":1702220791,"current_range_meters":0,"station_id":"ce4bgn12rcd13ifvqbt0","pricing_plan_id":"free"},{"bike_id":"92dc65d6-6823-4de3-93d4-056f738f090c","system_id":"levelo_inurba_marseille","lat":43.316538,"lon":5.38954,"is_reserved":false,"is_disabled":false,"rental_uris":{"android":"levelo://app?vid=92dc65d6-6823-4de3-93d4-056f738f090c","ios":"levelo://app?vid=92dc65d6-6823-4de3-93d4-056f738f090c"},"vehicle_type_id":"4","last_reported":1702220791,"current_range_meters":0,"station_id":"","pricing_plan_id":"free"},{"bike_id":"6c914096-812c-495e-946c-8463a152835d","system_id":"levelo_inurba_marseille","lat":43.296131,"lon":5.370773,"is_reserved":false,"is_disabled":false,"rental_uris":{"android":"levelo://app?vid=6c914096-812c-495e-946c-8463a152835d","ios":"levelo://app?vid=6c914096-812c-495e-946c-8463a152835d"},"vehicle_type_id":"4","last_reported":1702220791,"current_range_meters":7600,"station_id":"ce4bgnh2rcd13ifvqc0g","pricing_plan_id":"free"},{"bike_id":"f30ad5d2-291c-47bc-a289-30912a96748f","system_id":"levelo_inurba_marseille","lat":43.317557,"lon":5.390173,"is_reserved":false,"is_disabled":false,"rental_uris":{"android":"levelo://app?vid=f30ad5d2-291c-47bc-a289-30912a96748f","ios":"levelo://app?vid=f30ad5d2-291c-47bc-a289-30912a96748f"},"vehicle_type_id":"4","last_reported":1702220791,"current_range_meters":27600,"station_id":"ce4bhqp2rcd13ifvqhng","pricing_plan_id":"free"},{"bike_id":"d1f3d8d2-551a-43df-86b6-909ec9ba019b","system_id":"levelo_inurba_marseille","lat":43.29601,"lon":5.381084,"is_reserved":false,"is_disabled":false,"rental_uris":{"android":"levelo://app?vid=d1f3d8d2-551a-43df-86b6-909ec9ba019b","ios":"levelo://app?vid=d1f3d8d2-551a-43df-86b6-909ec9ba019b"},"vehicle_type_id":"4","last_reported":1702220791,"current_range_meters":17600,"station_id":"ce4bgl12rcd13ifvqbo0","pricing_plan_id":"free"},{"bike_id":"6a1885a0-f1ce-4034-8e4d-27b3202f8df9","system_id":"levelo_inurba_marseille","lat":43.293259,"lon":5.371586,"is_reserved":false,"is_disabled":false,"rental_uris":{"android":"levelo://app?vid=6a1885a0-f1ce-4034-8e4d-27b3202f8df9","ios":"levelo://app?vid=6a1885a0-f1ce-4034-8e4d-27b3202f8df9"},"vehicle_type_id":"4","last_reported":1702220791,"current_range_meters":10000,"station_id":"ce4bgh92rcd13ifvqb40","pricing_plan_id":"free"},{"bike_id":"a9dd71a6-437a-4757-a1ee-e997a3b5735a","system_id":"levelo_inurba_marseille","lat":43.293009,"lon":5.374584,"is_reserved":false,"is_disabled":false,"rental_uris":{"android":"levelo://app?vid=a9dd71a6-437a-4757-a1ee-e997a3b5735a","ios":"levelo://app?vid=a9dd71a6-437a-4757-a1ee-e997a3b5735a"},"vehicle_type_id":"4","last_reported":1702220791,"current_range_meters":10000,"station_id":"ce4bgi12rcd13ifvqb70","pricing_plan_id":"free"},{"bike_id":"0dfa87ad-c999-4d30-b852-85ee4e5bce44","system_id":"levelo_inurba_marseille","lat":43.305994,"lon":5.393687,"is_reserved":false,"is_disabled":false,"rental_uris":{"android":"levelo://app?vid=0dfa87ad-c999-4d30-b852-85ee4e5bce44","ios":"levelo://app?vid=0dfa87ad-c999-4d30-b852-85ee4e5bce44"},"vehicle_type_id":"4","last_reported":1702220791,"current_range_meters":0,"station_id":"ce4bh0p2rcd13ifvqd80","pricing_plan_id":"free"},{"bike_id":"16ade709-3b5f-4e44-95ba-3068dda3d352","system_id":"levelo_inurba_marseille","lat":43.303002,"lon":5.392142,"is_reserved":false,"is_disabled":false,"rental_uris":{"android":"levelo://app?vid=16ade709-3b5f-4e44-95ba-3068dda3d352","ios":"levelo://app?vid=16ade709-3b5f-4e44-95ba-3068dda3d352"},"vehicle_type_id":"4","last_reported":1702220791,"current_range_meters":5200,"station_id":"ce4bgkh2rcd13ifvqbk0","pricing_plan_id":"free"},{"bike_id":"0d55287e-6324-4a21-96f1-2aa124f5d1a5","system_id":"levelo_inurba_marseille","lat":43.290161,"lon":5.375651,"is_reserved":false,"is_disabled":false,"rental_uris":{"android":"levelo://app?vid=0d55287e-6324-4a21-96f1-2aa124f5d1a5","ios":"levelo://app?vid=0d55287e-6324-4a21-96f1-2aa124f5d1a5"},"vehicle_type_id":"4","last_reported":1702220791,"current_range_meters":9200,"station_id":"","pricing_plan_id":"free"},{"bike_id":"a02a1b20-1fb1-4951-988a-77389649024d","system_id":"levelo_inurba_marseille","lat":43.289259,"lon":5.366364,"is_reserved":false,"is_disabled":false,"rental_uris":{"android":"levelo://app?vid=a02a1b20-1fb1-4951-988a-77389649024d","ios":"levelo://app?vid=a02a1b20-1fb1-4951-988a-77389649024d"},"vehicle_type_id":"4","last_reported":1702220791,"current_range_meters":8000,"station_id":"","pricing_plan_id":"free"},{"bike_id":"832ca6a0-00e9-487f-83c8-1950034909f7","system_id":"levelo_inurba_marseille","lat":43.292644,"lon":5.384257,"is_reserved":false,"is_disabled":false,"rental_uris":{"android":"levelo://app?vid=832ca6a0-00e9-487f-83c8-1950034909f7","ios":"levelo://app?vid=832ca6a0-00e9-487f-83c8-1950034909f7"},"vehicle_type_id":"4","last_reported":1702220791,"current_range_meters":21200,"station_id":"ce4bh692rcd13ifvqea0","pricing_plan_id":"free"},{"bike_id":"9f5bc957-510a-4bdd-94f6-eab1977ce056","system_id":"levelo_inurba_marseille","lat":43.292642,"lon":5.384254,"is_reserved":false,"is_disabled":false,"rental_uris":{"android":"levelo://app?vid=9f5bc957-510a-4bdd-94f6-eab1977ce056","ios":"levelo://app?vid=9f5bc957-510a-4bdd-94f6-eab1977ce056"},"vehicle_type_id":"4","last_reported":1702220791,"current_range_meters":16000,"station_id":"ce4bh692rcd13ifvqea0","pricing_plan_id":"free"},{"bike_id":"c563f648-5877-4c33-8dea-4f0972976245","system_id":"levelo_inurba_marseille","lat":43.304296,"lon":5.397513,"is_reserved":false,"is_disabled":false,"rental_uris":{"android":"levelo://app?vid=c563f648-5877-4c33-8dea-4f0972976245","ios":"levelo://app?vid=c563f648-5877-4c33-8dea-4f0972976245"},"vehicle_type_id":"4","last_reported":1702220791,"current_range_meters":10800,"station_id":"ce4bh092rcd13ifvqd20","pricing_plan_id":"free"},{"bike_id":"da4603e4-450b-4807-bd85-2bf152ad1549","system_id":"levelo_inurba_marseille","lat":43.295169,"lon":5.390426,"is_reserved":false,"is_disabled":false,"rental_uris":{"android":"levelo://app?vid=da4603e4-450b-4807-bd85-2bf152ad1549","ios":"levelo://app?vid=da4603e4-450b-4807-bd85-2bf152ad1549"},"vehicle_type_id":"4","last_reported":1702220791,"current_range_meters":20400,"station_id":"ce4bh3p2rcd13ifvqdp0","pricing_plan_id":"free"},{"bike_id":"d9f1cb27-d4ff-4507-9971-586efe4e4ff8","system_id":"levelo_inurba_marseille","lat":43.297829,"lon":5.393301,"is_reserved":false,"is_disabled":false,"rental_uris":{"android":"levelo://app?vid=d9f1cb27-d4ff-4507-9971-586efe4e4ff8","ios":"levelo://app?vid=d9f1cb27-d4ff-4507-9971-586efe4e4ff8"},"vehicle_type_id":"4","last_reported":1702220791,"current_range_meters":25200,"station_id":"chh1huq6cuj3fo74tm60","pricing_plan_id":"free"},{"bike_id":"b015d3de-843f-469b-a82b-da5f19de9ef6","system_id":"levelo_inurba_marseille","lat":43.297949,"lon":5.393471,"is_reserved":false,"is_disabled":false,"rental_uris":{"android":"levelo://app?vid=b015d3de-843f-469b-a82b-da5f19de9ef6","ios":"levelo://app?vid=b015d3de-843f-469b-a82b-da5f19de9ef6"},"vehicle_type_id":"4","last_reported":1702220791,"current_range_meters":20000,"station_id":"","pricing_plan_id":"free"},{"bike_id":"77a6c46d-d898-4e4f-8846-efa91689c7f0","system_id":"levelo_inurba_marseille","lat":43.330272,"lon":5.390216,"is_reserved":false,"is_disabled":false,"rental_uris":{"android":"levelo://app?vid=77a6c46d-d898-4e4f-8846-efa91689c7f0","ios":"levelo://app?vid=77a6c46d-d898-4e4f-8846-efa91689c7f0"},"vehicle_type_id":"4","last_reported":1702220791,"current_range_meters":0,"station_id":"","pricing_plan_id":"free"},{"bike_id":"28f2e3bb-9783-4e38-a5cb-2ae52fd979d6","system_id":"levelo_inurba_marseille","lat":43.295169,"lon":5.390426,"is_reserved":false,"is_disabled":false,"rental_uris":{"android":"levelo://app?vid=28f2e3bb-9783-4e38-a5cb-2ae52fd979d6","ios":"levelo://app?vid=28f2e3bb-9783-4e38-a5cb-2ae52fd979d6"},"vehicle_type_id":"4","last_reported":1702220791,"current_range_meters":0,"station_id":"ce4bh3p2rcd13ifvqdp0","pricing_plan_id":"free"},{"bike_id":"a67af884-e071-4d18-b9e7-e8132dc78047","system_id":"levelo_inurba_marseille","lat":43.29778,"lon":5.39414,"is_reserved":false,"is_disabled":false,"rental_uris":{"android":"levelo://app?vid=a67af884-e071-4d18-b9e7-e8132dc78047","ios":"levelo://app?vid=a67af884-e071-4d18-b9e7-e8132dc78047"},"vehicle_type_id":"4","last_reported":1702220791,"current_range_meters":20800,"station_id":"chh1huq6cuj3fo74tm60","pricing_plan_id":"free"},{"bike_id":"d7514104-8631-458e-b5e5-934ab6c6d22f","system_id":"levelo_inurba_marseille","lat":43.28727,"lon":5.36078,"is_reserved":false,"is_disabled":false,"rental_uris":{"android":"levelo://app?vid=d7514104-8631-458e-b5e5-934ab6c6d22f","ios":"levelo://app?vid=d7514104-8631-458e-b5e5-934ab6c6d22f"},"vehicle_type_id":"4","last_reported":1702220791,"current_range_meters":22000,"station_id":"cki0cbj6b192h4jlfktg","pricing_plan_id":"free"},{"bike_id":"750e762c-97d0-4063-9aad-9196c69149ca","system_id":"levelo_inurba_marseille","lat":43.286961,"lon":5.373785,"is_reserved":false,"is_disabled":false,"rental_uris":{"android":"levelo://app?vid=750e762c-97d0-4063-9aad-9196c69149ca","ios":"levelo://app?vid=750e762c-97d0-4063-9aad-9196c69149ca"},"vehicle_type_id":"4","last_reported":1702220791,"current_range_meters":3200,"station_id":"ce4bh3p2rcd13ifvqdq0","pricing_plan_id":"free"},{"bike_id":"32b93b76-8674-4ccc-8683-42c4431d0ea0","system_id":"levelo_inurba_marseille","lat":43.286591,"lon":5.363346,"is_reserved":false,"is_disabled":false,"rental_uris":{"android":"levelo://app?vid=32b93b76-8674-4ccc-8683-42c4431d0ea0","ios":"levelo://app?vid=32b93b76-8674-4ccc-8683-42c4431d0ea0"},"vehicle_type_id":"4","last_reported":1702220791,"current_range_meters":14000,"station_id":"ce4bhah2rcd13ifvqej0","pricing_plan_id":"free"},{"bike_id":"d95e1947-38f2-4430-a8fd-f54405c0ac4a","system_id":"levelo_inurba_marseille","lat":43.302759,"lon":5.400793,"is_reserved":false,"is_disabled":false,"rental_uris":{"android":"levelo://app?vid=d95e1947-38f2-4430-a8fd-f54405c0ac4a","ios":"levelo://app?vid=d95e1947-38f2-4430-a8fd-f54405c0ac4a"},"vehicle_type_id":"4","last_reported":1702220791,"current_range_meters":9600,"station_id":"ce4bgvh2rcd13ifvqcs0","pricing_plan_id":"free"},{"bike_id":"88c9891f-f3f6-4ef9-a563-680aa0ef72aa","system_id":"levelo_inurba_marseille","lat":43.290345,"lon":5.38646,"is_reserved":false,"is_disabled":false,"rental_uris":{"android":"levelo://app?vid=88c9891f-f3f6-4ef9-a563-680aa0ef72aa","ios":"levelo://app?vid=88c9891f-f3f6-4ef9-a563-680aa0ef72aa"},"vehicle_type_id":"4","last_reported":1702220791,"current_range_meters":2800,"station_id":"ce4bh4p2rcd13ifvqe0g","pricing_plan_id":"free"},{"bike_id":"8d6728c8-8f25-4904-9e89-97d2c53faf35","system_id":"levelo_inurba_marseille","lat":43.289307,"lon":5.38406,"is_reserved":false,"is_disabled":false,"rental_uris":{"android":"levelo://app?vid=8d6728c8-8f25-4904-9e89-97d2c53faf35","ios":"levelo://app?vid=8d6728c8-8f25-4904-9e89-97d2c53faf35"},"vehicle_type_id":"4","last_reported":1702220791,"current_range_meters":10400,"station_id":"ce4bh612rcd13ifvqe6g","pricing_plan_id":"free"},{"bike_id":"1517d8f3-afed-4e7e-84b8-ab81aa23fd44","system_id":"levelo_inurba_marseille","lat":43.290336,"lon":5.386425,"is_reserved":false,"is_disabled":false,"rental_uris":{"android":"levelo://app?vid=1517d8f3-afed-4e7e-84b8-ab81aa23fd44","ios":"levelo://app?vid=1517d8f3-afed-4e7e-84b8-ab81aa23fd44"},"vehicle_type_id":"4","last_reported":1702220791,"current_range_meters":15200,"station_id":"ce4bh4p2rcd13ifvqe0g","pricing_plan_id":"free"},{"bike_id":"f1b5cdb2-7df3-4e18-9ce9-10081cd786b8","system_id":"levelo_inurba_marseille","lat":43.28413,"lon":5.37591,"is_reserved":false,"is_disabled":false,"rental_uris":{"android":"levelo://app?vid=f1b5cdb2-7df3-4e18-9ce9-10081cd786b8","ios":"levelo://app?vid=f1b5cdb2-7df3-4e18-9ce9-10081cd786b8"},"vehicle_type_id":"4","last_reported":1702220791,"current_range_meters":0,"station_id":"","pricing_plan_id":"free"},{"bike_id":"6d45c72a-84ca-4f8d-8ed1-4fa7e85f0093","system_id":"levelo_inurba_marseille","lat":43.286595,"lon":5.386795,"is_reserved":false,"is_disabled":false,"rental_uris":{"android":"levelo://app?vid=6d45c72a-84ca-4f8d-8ed1-4fa7e85f0093","ios":"levelo://app?vid=6d45c72a-84ca-4f8d-8ed1-4fa7e85f0093"},"vehicle_type_id":"4","last_reported":1702220791,"current_range_meters":3200,"station_id":"ce4bh492rcd13ifvqdug","pricing_plan_id":"free"},{"bike_id":"932dd373-2960-4899-be3a-123e79414686","system_id":"levelo_inurba_marseille","lat":43.286595,"lon":5.386795,"is_reserved":false,"is_disabled":false,"rental_uris":{"android":"levelo://app?vid=932dd373-2960-4899-be3a-123e79414686","ios":"levelo://app?vid=932dd373-2960-4899-be3a-123e79414686"},"vehicle_type_id":"4","last_reported":1702220791,"current_range_meters":8800,"station_id":"ce4bh492rcd13ifvqdug","pricing_plan_id":"free"},{"bike_id":"7c050af5-6636-4296-9f83-046e5f62b1ed","system_id":"levelo_inurba_marseille","lat":43.286595,"lon":5.386795,"is_reserved":false,"is_disabled":false,"rental_uris":{"android":"levelo://app?vid=7c050af5-6636-4296-9f83-046e5f62b1ed","ios":"levelo://app?vid=7c050af5-6636-4296-9f83-046e5f62b1ed"},"vehicle_type_id":"4","last_reported":1702220791,"current_range_meters":6000,"station_id":"ce4bh492rcd13ifvqdug","pricing_plan_id":"free"},{"bike_id":"d1efa998-898b-4479-9b5e-95b7e070a4d3","system_id":"levelo_inurba_marseille","lat":43.28483,"lon":5.38421,"is_reserved":false,"is_disabled":false,"rental_uris":{"android":"levelo://app?vid=d1efa998-898b-4479-9b5e-95b7e070a4d3","ios":"levelo://app?vid=d1efa998-898b-4479-9b5e-95b7e070a4d3"},"vehicle_type_id":"4","last_reported":1702220791,"current_range_meters":23600,"station_id":"ce4bh512rcd13ifvqe3g","pricing_plan_id":"free"},{"bike_id":"8461e3c2-36e6-466e-b270-64a268d9392f","system_id":"levelo_inurba_marseille","lat":43.284217,"lon":5.349697,"is_reserved":false,"is_disabled":false,"rental_uris":{"android":"levelo://app?vid=8461e3c2-36e6-466e-b270-64a268d9392f","ios":"levelo://app?vid=8461e3c2-36e6-466e-b270-64a268d9392f"},"vehicle_type_id":"4","last_reported":1702220791,"current_range_meters":19200,"station_id":"ce4bhbh2rcd13ifvqepg","pricing_plan_id":"free"},{"bike_id":"96698994-79cc-4b9c-81ff-4e8e7583daf6","system_id":"levelo_inurba_marseille","lat":43.28275,"lon":5.35072,"is_reserved":false,"is_disabled":false,"rental_uris":{"android":"levelo://app?vid=96698994-79cc-4b9c-81ff-4e8e7583daf6","ios":"levelo://app?vid=96698994-79cc-4b9c-81ff-4e8e7583daf6"},"vehicle_type_id":"4","last_reported":1702220791,"current_range_meters":30400,"station_id":"","pricing_plan_id":"free"},{"bike_id":"ce4befe7-ef8f-44d1-bb48-0f3ff222d974","system_id":"levelo_inurba_marseille","lat":43.282744,"lon":5.350533,"is_reserved":false,"is_disabled":false,"rental_uris":{"android":"levelo://app?vid=ce4befe7-ef8f-44d1-bb48-0f3ff222d974","ios":"levelo://app?vid=ce4befe7-ef8f-44d1-bb48-0f3ff222d974"},"vehicle_type_id":"4","last_reported":1702220791,"current_range_meters":0,"station_id":"ce4bhbp2rcd13ifvqerg","pricing_plan_id":"free"},{"bike_id":"a30dd165-aae2-4956-981e-d55f7deef090","system_id":"levelo_inurba_marseille","lat":43.282744,"lon":5.350533,"is_reserved":false,"is_disabled":false,"rental_uris":{"android":"levelo://app?vid=a30dd165-aae2-4956-981e-d55f7deef090","ios":"levelo://app?vid=a30dd165-aae2-4956-981e-d55f7deef090"},"vehicle_type_id":"4","last_reported":1702220791,"current_range_meters":4000,"station_id":"ce4bhbp2rcd13ifvqerg","pricing_plan_id":"free"},{"bike_id":"1fb97192-36db-46ae-b0dc-6b4f17e6f27f","system_id":"levelo_inurba_marseille","lat":43.284462,"lon":5.392121,"is_reserved":false,"is_disabled":false,"rental_uris":{"android":"levelo://app?vid=1fb97192-36db-46ae-b0dc-6b4f17e6f27f","ios":"levelo://app?vid=1fb97192-36db-46ae-b0dc-6b4f17e6f27f"},"vehicle_type_id":"4","last_reported":1702220791,"current_range_meters":29200,"station_id":"ce4bhoh2rcd13ifvqh5g","pricing_plan_id":"free"},{"bike_id":"b6e8e211-efde-456a-b38e-4127fe6bf6d7","system_id":"levelo_inurba_marseille","lat":43.28573,"lon":5.394992,"is_reserved":false,"is_disabled":false,"rental_uris":{"android":"levelo://app?vid=b6e8e211-efde-456a-b38e-4127fe6bf6d7","ios":"levelo://app?vid=b6e8e211-efde-456a-b38e-4127fe6bf6d7"},"vehicle_type_id":"4","last_reported":1702220791,"current_range_meters":5600,"station_id":"ce4bh292rcd13ifvqdg0","pricing_plan_id":"free"},{"bike_id":"dbb5058c-82ec-4ecf-9326-6552a142a2e7","system_id":"levelo_inurba_marseille","lat":43.30424,"lon":5.41281,"is_reserved":false,"is_disabled":false,"rental_uris":{"android":"levelo://app?vid=dbb5058c-82ec-4ecf-9326-6552a142a2e7","ios":"levelo://app?vid=dbb5058c-82ec-4ecf-9326-6552a142a2e7"},"vehicle_type_id":"4","last_reported":1702220791,"current_range_meters":14000,"station_id":"ce4bhop2rcd13ifvqh8g","pricing_plan_id":"free"},{"bike_id":"65f33d3b-25dd-458f-88d2-2b971809c8e0","system_id":"levelo_inurba_marseille","lat":43.279087,"lon":5.380114,"is_reserved":false,"is_disabled":false,"rental_uris":{"android":"levelo://app?vid=65f33d3b-25dd-458f-88d2-2b971809c8e0","ios":"levelo://app?vid=65f33d3b-25dd-458f-88d2-2b971809c8e0"},"vehicle_type_id":"4","last_reported":1702220791,"current_range_meters":9200,"station_id":"ce4bhf92rcd13ifvqf50","pricing_plan_id":"free"},{"bike_id":"99405e2d-86d2-46d8-bdaa-9595c7aed3c4","system_id":"levelo_inurba_marseille","lat":43.29251,"lon":5.40909,"is_reserved":false,"is_disabled":false,"rental_uris":{"android":"levelo://app?vid=99405e2d-86d2-46d8-bdaa-9595c7aed3c4","ios":"levelo://app?vid=99405e2d-86d2-46d8-bdaa-9595c7aed3c4"},"vehicle_type_id":"4","last_reported":1702220791,"current_range_meters":0,"station_id":"ce4bh192rcd13ifvqdc0","pricing_plan_id":"free"},{"bike_id":"461fb4ff-c167-440f-89c3-ec602579a4f8","system_id":"levelo_inurba_marseille","lat":43.275625,"lon":5.384392,"is_reserved":false,"is_disabled":false,"rental_uris":{"android":"levelo://app?vid=461fb4ff-c167-440f-89c3-ec602579a4f8","ios":"levelo://app?vid=461fb4ff-c167-440f-89c3-ec602579a4f8"},"vehicle_type_id":"4","last_reported":1702220791,"current_range_meters":12800,"station_id":"ce4bhh92rcd13ifvqfi0","pricing_plan_id":"free"},{"bike_id":"56a366da-a71b-4bb9-a05c-f20aa48ac7c5","system_id":"levelo_inurba_marseille","lat":43.273613,"lon":5.362705,"is_reserved":false,"is_disabled":false,"rental_uris":{"android":"levelo://app?vid=56a366da-a71b-4bb9-a05c-f20aa48ac7c5","ios":"levelo://app?vid=56a366da-a71b-4bb9-a05c-f20aa48ac7c5"},"vehicle_type_id":"4","last_reported":1702220791,"current_range_meters":16000,"station_id":"ce4bhbh2rcd13ifvqeo0","pricing_plan_id":"free"},{"bike_id":"e2f1eb9b-bcb9-4494-8e30-2fe75262e465","system_id":"levelo_inurba_marseille","lat":43.275625,"lon":5.384392,"is_reserved":false,"is_disabled":false,"rental_uris":{"android":"levelo://app?vid=e2f1eb9b-bcb9-4494-8e30-2fe75262e465","ios":"levelo://app?vid=e2f1eb9b-bcb9-4494-8e30-2fe75262e465"},"vehicle_type_id":"4","last_reported":1702220791,"current_range_meters":5200,"station_id":"ce4bhh92rcd13ifvqfi0","pricing_plan_id":"free"},{"bike_id":"0a1ad152-8749-40f9-ada6-3cc002018613","system_id":"levelo_inurba_marseille","lat":43.279952,"lon":5.400085,"is_reserved":false,"is_disabled":false,"rental_uris":{"android":"levelo://app?vid=0a1ad152-8749-40f9-ada6-3cc002018613","ios":"levelo://app?vid=0a1ad152-8749-40f9-ada6-3cc002018613"},"vehicle_type_id":"4","last_reported":1702220791,"current_range_meters":8800,"station_id":"ce4bho92rcd13ifvqh4g","pricing_plan_id":"free"},{"bike_id":"88e59060-d458-48a8-8abe-8a1913097d92","system_id":"levelo_inurba_marseille","lat":43.31714,"lon":5.42401,"is_reserved":false,"is_disabled":false,"rental_uris":{"android":"levelo://app?vid=88e59060-d458-48a8-8abe-8a1913097d92","ios":"levelo://app?vid=88e59060-d458-48a8-8abe-8a1913097d92"},"vehicle_type_id":"4","last_reported":1702220791,"current_range_meters":19600,"station_id":"ce4bhp92rcd13ifvqhbg","pricing_plan_id":"free"},{"bike_id":"63133364-316e-458e-b234-bbd4926c63fc","system_id":"levelo_inurba_marseille","lat":43.27583,"lon":5.39474,"is_reserved":false,"is_disabled":false,"rental_uris":{"android":"levelo://app?vid=63133364-316e-458e-b234-bbd4926c63fc","ios":"levelo://app?vid=63133364-316e-458e-b234-bbd4926c63fc"},"vehicle_type_id":"4","last_reported":1702220791,"current_range_meters":3200,"station_id":"","pricing_plan_id":"free"},{"bike_id":"efe12f5a-a46b-47b7-be5d-2a89a9228c6b","system_id":"levelo_inurba_marseille","lat":43.30411,"lon":5.42539,"is_reserved":false,"is_disabled":false,"rental_uris":{"android":"levelo://app?vid=efe12f5a-a46b-47b7-be5d-2a89a9228c6b","ios":"levelo://app?vid=efe12f5a-a46b-47b7-be5d-2a89a9228c6b"},"vehicle_type_id":"4","last_reported":1702220791,"current_range_meters":25200,"station_id":"ce4bhoh2rcd13ifvqh6g","pricing_plan_id":"free"},{"bike_id":"8d7773eb-8cfa-4695-aadd-d81486eca834","system_id":"levelo_inurba_marseille","lat":43.295523,"lon":5.422926,"is_reserved":false,"is_disabled":false,"rental_uris":{"android":"levelo://app?vid=8d7773eb-8cfa-4695-aadd-d81486eca834","ios":"levelo://app?vid=8d7773eb-8cfa-4695-aadd-d81486eca834"},"vehicle_type_id":"4","last_reported":1702220791,"current_range_meters":24000,"station_id":"ce4bhph2rcd13ifvqhdg","pricing_plan_id":"free"},{"bike_id":"73be8de9-0dde-4ef6-815b-5a26699c3c87","system_id":"levelo_inurba_marseille","lat":43.295511,"lon":5.422926,"is_reserved":false,"is_disabled":false,"rental_uris":{"android":"levelo://app?vid=73be8de9-0dde-4ef6-815b-5a26699c3c87","ios":"levelo://app?vid=73be8de9-0dde-4ef6-815b-5a26699c3c87"},"vehicle_type_id":"4","last_reported":1702220791,"current_range_meters":16800,"station_id":"ce4bhph2rcd13ifvqhdg","pricing_plan_id":"free"},{"bike_id":"14215e1e-c09e-42e1-ad0c-2e8044571075","system_id":"levelo_inurba_marseille","lat":43.295511,"lon":5.422926,"is_reserved":false,"is_disabled":false,"rental_uris":{"android":"levelo://app?vid=14215e1e-c09e-42e1-ad0c-2e8044571075","ios":"levelo://app?vid=14215e1e-c09e-42e1-ad0c-2e8044571075"},"vehicle_type_id":"4","last_reported":1702220791,"current_range_meters":16800,"station_id":"ce4bhph2rcd13ifvqhdg","pricing_plan_id":"free"},{"bike_id":"e6350e05-31fd-436e-8f2e-ad686af9765e","system_id":"levelo_inurba_marseille","lat":43.272118,"lon":5.391758,"is_reserved":false,"is_disabled":false,"rental_uris":{"android":"levelo://app?vid=e6350e05-31fd-436e-8f2e-ad686af9765e","ios":"levelo://app?vid=e6350e05-31fd-436e-8f2e-ad686af9765e"},"vehicle_type_id":"4","last_reported":1702220791,"current_range_meters":0,"station_id":"ce4bhhp2rcd13ifvqfm0","pricing_plan_id":"free"},{"bike_id":"b49195d1-5252-4b63-9ddd-c39017071e00","system_id":"levelo_inurba_marseille","lat":43.2766,"lon":5.40884,"is_reserved":false,"is_disabled":false,"rental_uris":{"android":"levelo://app?vid=b49195d1-5252-4b63-9ddd-c39017071e00","ios":"levelo://app?vid=b49195d1-5252-4b63-9ddd-c39017071e00"},"vehicle_type_id":"4","last_reported":1702220791,"current_range_meters":20400,"station_id":"","pricing_plan_id":"free"},{"bike_id":"6f59ce95-16b8-4a8d-bf08-57bd88d662a3","system_id":"levelo_inurba_marseille","lat":43.26555,"lon":5.37286,"is_reserved":false,"is_disabled":false,"rental_uris":{"android":"levelo://app?vid=6f59ce95-16b8-4a8d-bf08-57bd88d662a3","ios":"levelo://app?vid=6f59ce95-16b8-4a8d-bf08-57bd88d662a3"},"vehicle_type_id":"4","last_reported":1702220791,"current_range_meters":0,"station_id":"ce4bhg12rcd13ifvqf70","pricing_plan_id":"free"},{"bike_id":"35885000-8d7e-4831-b140-16690400d5b8","system_id":"levelo_inurba_marseille","lat":43.265714,"lon":5.372891,"is_reserved":false,"is_disabled":false,"rental_uris":{"android":"levelo://app?vid=35885000-8d7e-4831-b140-16690400d5b8","ios":"levelo://app?vid=35885000-8d7e-4831-b140-16690400d5b8"},"vehicle_type_id":"4","last_reported":1702220791,"current_range_meters":1600,"station_id":"ce4bhg12rcd13ifvqf70","pricing_plan_id":"free"},{"bike_id":"6aaf000f-3d55-4c04-b344-3fcd1287de8a","system_id":"levelo_inurba_marseille","lat":43.267966,"lon":5.393976,"is_reserved":false,"is_disabled":false,"rental_uris":{"android":"levelo://app?vid=6aaf000f-3d55-4c04-b344-3fcd1287de8a","ios":"levelo://app?vid=6aaf000f-3d55-4c04-b344-3fcd1287de8a"},"vehicle_type_id":"4","last_reported":1702220791,"current_range_meters":24000,"station_id":"ce4bhh12rcd13ifvqfg0","pricing_plan_id":"free"},{"bike_id":"d9905fd9-fc0a-4c9f-85fa-8aca947c9d38","system_id":"levelo_inurba_marseille","lat":43.30797,"lon":5.43515,"is_reserved":false,"is_disabled":false,"rental_uris":{"android":"levelo://app?vid=d9905fd9-fc0a-4c9f-85fa-8aca947c9d38","ios":"levelo://app?vid=d9905fd9-fc0a-4c9f-85fa-8aca947c9d38"},"vehicle_type_id":"4","last_reported":1702220791,"current_range_meters":25200,"station_id":"ce4bhph2rcd13ifvqheg","pricing_plan_id":"free"},{"bike_id":"1594ab0c-8aba-4a4a-83ff-da41c83152d6","system_id":"levelo_inurba_marseille","lat":43.30798,"lon":5.43525,"is_reserved":false,"is_disabled":false,"rental_uris":{"android":"levelo://app?vid=1594ab0c-8aba-4a4a-83ff-da41c83152d6","ios":"levelo://app?vid=1594ab0c-8aba-4a4a-83ff-da41c83152d6"},"vehicle_type_id":"4","last_reported":1702220791,"current_range_meters":25200,"station_id":"ce4bhph2rcd13ifvqheg","pricing_plan_id":"free"},{"bike_id":"2412275d-310a-40c7-b2e7-ea01049df071","system_id":"levelo_inurba_marseille","lat":43.26942,"lon":5.40264,"is_reserved":false,"is_disabled":false,"rental_uris":{"android":"levelo://app?vid=2412275d-310a-40c7-b2e7-ea01049df071","ios":"levelo://app?vid=2412275d-310a-40c7-b2e7-ea01049df071"},"vehicle_type_id":"4","last_reported":1702220791,"current_range_meters":20000,"station_id":"cjm6bp8fraef2m0cb0m0","pricing_plan_id":"free"},{"bike_id":"dbacbb4a-9e99-4a7a-9713-43dac221ae4c","system_id":"levelo_inurba_marseille","lat":43.317104,"lon":5.436818,"is_reserved":false,"is_disabled":false,"rental_uris":{"android":"levelo://app?vid=dbacbb4a-9e99-4a7a-9713-43dac221ae4c","ios":"levelo://app?vid=dbacbb4a-9e99-4a7a-9713-43dac221ae4c"},"vehicle_type_id":"4","last_reported":1702220791,"current_range_meters":31600,"station_id":"ce4bhp92rcd13ifvqhcg","pricing_plan_id":"free"},{"bike_id":"287e9254-f263-4a4d-afd9-500f2b256a68","system_id":"levelo_inurba_marseille","lat":43.2616,"lon":5.37423,"is_reserved":false,"is_disabled":false,"rental_uris":{"android":"levelo://app?vid=287e9254-f263-4a4d-afd9-500f2b256a68","ios":"levelo://app?vid=287e9254-f263-4a4d-afd9-500f2b256a68"},"vehicle_type_id":"4","last_reported":1702220791,"current_range_meters":27200,"station_id":"ce4bhgp2rcd13ifvqfc0","pricing_plan_id":"free"},{"bike_id":"3354fdca-e513-4ef2-88f7-c54e5d7a4533","system_id":"levelo_inurba_marseille","lat":43.267959,"lon":5.402687,"is_reserved":false,"is_disabled":false,"rental_uris":{"android":"levelo://app?vid=3354fdca-e513-4ef2-88f7-c54e5d7a4533","ios":"levelo://app?vid=3354fdca-e513-4ef2-88f7-c54e5d7a4533"},"vehicle_type_id":"4","last_reported":1702220791,"current_range_meters":18400,"station_id":"ce501612rcd8frsf0b60","pricing_plan_id":"free"},{"bike_id":"3de0a6a1-4453-486c-a1ba-fc284c4c0e2c","system_id":"levelo_inurba_marseille","lat":43.298768,"lon":5.43643,"is_reserved":false,"is_disabled":false,"rental_uris":{"android":"levelo://app?vid=3de0a6a1-4453-486c-a1ba-fc284c4c0e2c","ios":"levelo://app?vid=3de0a6a1-4453-486c-a1ba-fc284c4c0e2c"},"vehicle_type_id":"4","last_reported":1702220791,"current_range_meters":5600,"station_id":"ce4bhpp2rcd13ifvqhfg","pricing_plan_id":"free"},{"bike_id":"3e0a8aec-efde-4a7b-83a3-648734a5f10e","system_id":"levelo_inurba_marseille","lat":43.254947,"lon":5.376454,"is_reserved":false,"is_disabled":false,"rental_uris":{"android":"levelo://app?vid=3e0a8aec-efde-4a7b-83a3-648734a5f10e","ios":"levelo://app?vid=3e0a8aec-efde-4a7b-83a3-648734a5f10e"},"vehicle_type_id":"4","last_reported":1702220791,"current_range_meters":28000,"station_id":"ce4bhh12rcd13ifvqff0","pricing_plan_id":"free"},{"bike_id":"8e93c77f-d22a-4272-ac94-c647d0b044ae","system_id":"levelo_inurba_marseille","lat":43.270721,"lon":5.422764,"is_reserved":false,"is_disabled":false,"rental_uris":{"android":"levelo://app?vid=8e93c77f-d22a-4272-ac94-c647d0b044ae","ios":"levelo://app?vid=8e93c77f-d22a-4272-ac94-c647d0b044ae"},"vehicle_type_id":"4","last_reported":1702220791,"current_range_meters":22800,"station_id":"ce4bhk92rcd13ifvqgb0","pricing_plan_id":"free"},{"bike_id":"f0906fce-a364-46cc-b195-416e08404f15","system_id":"levelo_inurba_marseille","lat":43.258658,"lon":5.398935,"is_reserved":false,"is_disabled":false,"rental_uris":{"android":"levelo://app?vid=f0906fce-a364-46cc-b195-416e08404f15","ios":"levelo://app?vid=f0906fce-a364-46cc-b195-416e08404f15"},"vehicle_type_id":"4","last_reported":1702220791,"current_range_meters":28400,"station_id":"ce4bhl92rcd13ifvqghg","pricing_plan_id":"free"},{"bike_id":"ffb37caf-6eec-4915-813f-871147148a05","system_id":"levelo_inurba_marseille","lat":43.258658,"lon":5.398935,"is_reserved":false,"is_disabled":false,"rental_uris":{"android":"levelo://app?vid=ffb37caf-6eec-4915-813f-871147148a05","ios":"levelo://app?vid=ffb37caf-6eec-4915-813f-871147148a05"},"vehicle_type_id":"4","last_reported":1702220791,"current_range_meters":10800,"station_id":"ce4bhl92rcd13ifvqghg","pricing_plan_id":"free"},{"bike_id":"93b9e4fe-ed04-4f08-9acd-60a11e0f550f","system_id":"levelo_inurba_marseille","lat":43.258658,"lon":5.398935,"is_reserved":false,"is_disabled":false,"rental_uris":{"android":"levelo://app?vid=93b9e4fe-ed04-4f08-9acd-60a11e0f550f","ios":"levelo://app?vid=93b9e4fe-ed04-4f08-9acd-60a11e0f550f"},"vehicle_type_id":"4","last_reported":1702220791,"current_range_meters":26000,"station_id":"ce4bhl92rcd13ifvqghg","pricing_plan_id":"free"},{"bike_id":"1e2aa039-02b4-44c7-afcd-27c83847a729","system_id":"levelo_inurba_marseille","lat":43.257079,"lon":5.411051,"is_reserved":false,"is_disabled":false,"rental_uris":{"android":"levelo://app?vid=1e2aa039-02b4-44c7-afcd-27c83847a729","ios":"levelo://app?vid=1e2aa039-02b4-44c7-afcd-27c83847a729"},"vehicle_type_id":"4","last_reported":1702220791,"current_range_meters":14800,"station_id":"ce4bhkp2rcd13ifvqgd0","pricing_plan_id":"free"},{"bike_id":"e3ffc8b5-2141-427e-a493-7fb1918c39c9","system_id":"levelo_inurba_marseille","lat":43.257079,"lon":5.411051,"is_reserved":false,"is_disabled":false,"rental_uris":{"android":"levelo://app?vid=e3ffc8b5-2141-427e-a493-7fb1918c39c9","ios":"levelo://app?vid=e3ffc8b5-2141-427e-a493-7fb1918c39c9"},"vehicle_type_id":"4","last_reported":1702220791,"current_range_meters":9600,"station_id":"ce4bhkp2rcd13ifvqgd0","pricing_plan_id":"free"},{"bike_id":"23852011-45c0-4eb3-b521-fdccfcd75ec1","system_id":"levelo_inurba_marseille","lat":43.250009,"lon":5.389195,"is_reserved":false,"is_disabled":false,"rental_uris":{"android":"levelo://app?vid=23852011-45c0-4eb3-b521-fdccfcd75ec1","ios":"levelo://app?vid=23852011-45c0-4eb3-b521-fdccfcd75ec1"},"vehicle_type_id":"4","last_reported":1702220791,"current_range_meters":27600,"station_id":"ce4bhgp2rcd13ifvqfd0","pricing_plan_id":"free"},{"bike_id":"f5dcad96-1e34-4b91-916b-9708b42199fc","system_id":"levelo_inurba_marseille","lat":43.2479,"lon":5.374457,"is_reserved":false,"is_disabled":false,"rental_uris":{"android":"levelo://app?vid=f5dcad96-1e34-4b91-916b-9708b42199fc","ios":"levelo://app?vid=f5dcad96-1e34-4b91-916b-9708b42199fc"},"vehicle_type_id":"4","last_reported":1702220791,"current_range_meters":24000,"station_id":"ce4bhgh2rcd13ifvqfb0","pricing_plan_id":"free"},{"bike_id":"5c711483-2cc8-4797-b8bb-8990c44f1e05","system_id":"levelo_inurba_marseille","lat":43.250966,"lon":5.395186,"is_reserved":false,"is_disabled":false,"rental_uris":{"android":"levelo://app?vid=5c711483-2cc8-4797-b8bb-8990c44f1e05","ios":"levelo://app?vid=5c711483-2cc8-4797-b8bb-8990c44f1e05"},"vehicle_type_id":"4","last_reported":1702220791,"current_range_meters":30800,"station_id":"ce4bhm12rcd13ifvqgkg","pricing_plan_id":"free"},{"bike_id":"f973388b-1c77-41d1-af01-ab0a05d15f74","system_id":"levelo_inurba_marseille","lat":43.24693,"lon":5.382096,"is_reserved":false,"is_disabled":false,"rental_uris":{"android":"levelo://app?vid=f973388b-1c77-41d1-af01-ab0a05d15f74","ios":"levelo://app?vid=f973388b-1c77-41d1-af01-ab0a05d15f74"},"vehicle_type_id":"4","last_reported":1702220791,"current_range_meters":16000,"station_id":"ce4bhih2rcd13ifvqfr0","pricing_plan_id":"free"},{"bike_id":"1e7e7cd1-5bcb-4690-a7ab-1815d81ec2dd","system_id":"levelo_inurba_marseille","lat":43.25116,"lon":5.40319,"is_reserved":false,"is_disabled":false,"rental_uris":{"android":"levelo://app?vid=1e7e7cd1-5bcb-4690-a7ab-1815d81ec2dd","ios":"levelo://app?vid=1e7e7cd1-5bcb-4690-a7ab-1815d81ec2dd"},"vehicle_type_id":"4","last_reported":1702220791,"current_range_meters":3200,"station_id":"ce4bhlh2rcd13ifvqgig","pricing_plan_id":"free"},{"bike_id":"ceba3783-7f88-42f1-b5f0-aebabbc3e969","system_id":"levelo_inurba_marseille","lat":43.25102,"lon":5.403214,"is_reserved":false,"is_disabled":false,"rental_uris":{"android":"levelo://app?vid=ceba3783-7f88-42f1-b5f0-aebabbc3e969","ios":"levelo://app?vid=ceba3783-7f88-42f1-b5f0-aebabbc3e969"},"vehicle_type_id":"4","last_reported":1702220791,"current_range_meters":19200,"station_id":"ce4bhlh2rcd13ifvqgig","pricing_plan_id":"free"},{"bike_id":"2438f118-40d6-47b9-9ea4-bbb1eaaf6f4a","system_id":"levelo_inurba_marseille","lat":43.25113,"lon":5.40324,"is_reserved":false,"is_disabled":false,"rental_uris":{"android":"levelo://app?vid=2438f118-40d6-47b9-9ea4-bbb1eaaf6f4a","ios":"levelo://app?vid=2438f118-40d6-47b9-9ea4-bbb1eaaf6f4a"},"vehicle_type_id":"4","last_reported":1702220791,"current_range_meters":2000,"station_id":"ce4bhlh2rcd13ifvqgig","pricing_plan_id":"free"},{"bike_id":"cb1bdae1-e4d2-4493-8251-9da8aad6495a","system_id":"levelo_inurba_marseille","lat":43.25102,"lon":5.403214,"is_reserved":false,"is_disabled":false,"rental_uris":{"android":"levelo://app?vid=cb1bdae1-e4d2-4493-8251-9da8aad6495a","ios":"levelo://app?vid=cb1bdae1-e4d2-4493-8251-9da8aad6495a"},"vehicle_type_id":"4","last_reported":1702220791,"current_range_meters":6800,"station_id":"ce4bhlh2rcd13ifvqgig","pricing_plan_id":"free"},{"bike_id":"b60a947d-72da-493d-9400-d61722798171","system_id":"levelo_inurba_marseille","lat":43.24652,"lon":5.3889,"is_reserved":false,"is_disabled":false,"rental_uris":{"android":"levelo://app?vid=b60a947d-72da-493d-9400-d61722798171","ios":"levelo://app?vid=b60a947d-72da-493d-9400-d61722798171"},"vehicle_type_id":"4","last_reported":1702220791,"current_range_meters":30000,"station_id":"ce4bhg12rcd13ifvqf60","pricing_plan_id":"free"},{"bike_id":"58163e29-bd9c-4d87-b174-635d0562a1eb","system_id":"levelo_inurba_marseille","lat":43.24649,"lon":5.38887,"is_reserved":false,"is_disabled":false,"rental_uris":{"android":"levelo://app?vid=58163e29-bd9c-4d87-b174-635d0562a1eb","ios":"levelo://app?vid=58163e29-bd9c-4d87-b174-635d0562a1eb"},"vehicle_type_id":"4","last_reported":1702220791,"current_range_meters":26400,"station_id":"ce4bhg12rcd13ifvqf60","pricing_plan_id":"free"},{"bike_id":"e3a0a3fb-eafa-4edb-87cc-d7d85323a839","system_id":"levelo_inurba_marseille","lat":43.246467,"lon":5.388984,"is_reserved":false,"is_disabled":false,"rental_uris":{"android":"levelo://app?vid=e3a0a3fb-eafa-4edb-87cc-d7d85323a839","ios":"levelo://app?vid=e3a0a3fb-eafa-4edb-87cc-d7d85323a839"},"vehicle_type_id":"4","last_reported":1702220791,"current_range_meters":20400,"station_id":"ce4bhg12rcd13ifvqf60","pricing_plan_id":"free"},{"bike_id":"8e9f91b6-96df-403a-8c6f-f0c8dee337ff","system_id":"levelo_inurba_marseille","lat":43.246467,"lon":5.388984,"is_reserved":false,"is_disabled":false,"rental_uris":{"android":"levelo://app?vid=8e9f91b6-96df-403a-8c6f-f0c8dee337ff","ios":"levelo://app?vid=8e9f91b6-96df-403a-8c6f-f0c8dee337ff"},"vehicle_type_id":"4","last_reported":1702220791,"current_range_meters":22400,"station_id":"ce4bhg12rcd13ifvqf60","pricing_plan_id":"free"},{"bike_id":"1a23636c-273b-427e-ba3a-4cc57a24dce9","system_id":"levelo_inurba_marseille","lat":43.246474,"lon":5.388951,"is_reserved":false,"is_disabled":false,"rental_uris":{"android":"levelo://app?vid=1a23636c-273b-427e-ba3a-4cc57a24dce9","ios":"levelo://app?vid=1a23636c-273b-427e-ba3a-4cc57a24dce9"},"vehicle_type_id":"4","last_reported":1702220791,"current_range_meters":31200,"station_id":"ce4bhg12rcd13ifvqf60","pricing_plan_id":"free"},{"bike_id":"d7225d88-73a5-4477-b92d-280aac3f72ed","system_id":"levelo_inurba_marseille","lat":43.246467,"lon":5.388984,"is_reserved":false,"is_disabled":false,"rental_uris":{"android":"levelo://app?vid=d7225d88-73a5-4477-b92d-280aac3f72ed","ios":"levelo://app?vid=d7225d88-73a5-4477-b92d-280aac3f72ed"},"vehicle_type_id":"4","last_reported":1702220791,"current_range_meters":18400,"station_id":"ce4bhg12rcd13ifvqf60","pricing_plan_id":"free"},{"bike_id":"99654d3d-b017-4bdb-9b37-e9baca9e11d8","system_id":"levelo_inurba_marseille","lat":43.243884,"lon":5.370736,"is_reserved":false,"is_disabled":false,"rental_uris":{"android":"levelo://app?vid=99654d3d-b017-4bdb-9b37-e9baca9e11d8","ios":"levelo://app?vid=99654d3d-b017-4bdb-9b37-e9baca9e11d8"},"vehicle_type_id":"4","last_reported":1702220791,"current_range_meters":4800,"station_id":"ce4bhhh2rcd13ifvqfk0","pricing_plan_id":"free"},{"bike_id":"778e6ed4-78bc-484d-85be-620895ae9343","system_id":"levelo_inurba_marseille","lat":43.243884,"lon":5.370737,"is_reserved":false,"is_disabled":false,"rental_uris":{"android":"levelo://app?vid=778e6ed4-78bc-484d-85be-620895ae9343","ios":"levelo://app?vid=778e6ed4-78bc-484d-85be-620895ae9343"},"vehicle_type_id":"4","last_reported":1702220791,"current_range_meters":15600,"station_id":"ce4bhhh2rcd13ifvqfk0","pricing_plan_id":"free"},{"bike_id":"44e2ac67-993d-4edf-81e6-8cabdc00f6ed","system_id":"levelo_inurba_marseille","lat":43.243884,"lon":5.370737,"is_reserved":false,"is_disabled":false,"rental_uris":{"android":"levelo://app?vid=44e2ac67-993d-4edf-81e6-8cabdc00f6ed","ios":"levelo://app?vid=44e2ac67-993d-4edf-81e6-8cabdc00f6ed"},"vehicle_type_id":"4","last_reported":1702220791,"current_range_meters":25200,"station_id":"ce4bhhh2rcd13ifvqfk0","pricing_plan_id":"free"},{"bike_id":"04e8ddb7-9643-4313-b352-1eac7d49ef02","system_id":"levelo_inurba_marseille","lat":43.24547,"lon":5.39524,"is_reserved":false,"is_disabled":false,"rental_uris":{"android":"levelo://app?vid=04e8ddb7-9643-4313-b352-1eac7d49ef02","ios":"levelo://app?vid=04e8ddb7-9643-4313-b352-1eac7d49ef02"},"vehicle_type_id":"4","last_reported":1702220791,"current_range_meters":8000,"station_id":"","pricing_plan_id":"free"},{"bike_id":"c88399f4-54c8-4f15-97b0-4d47ee4d0a9d","system_id":"levelo_inurba_marseille","lat":43.245581,"lon":5.395069,"is_reserved":false,"is_disabled":false,"rental_uris":{"android":"levelo://app?vid=c88399f4-54c8-4f15-97b0-4d47ee4d0a9d","ios":"levelo://app?vid=c88399f4-54c8-4f15-97b0-4d47ee4d0a9d"},"vehicle_type_id":"4","last_reported":1702220791,"current_range_meters":30800,"station_id":"ce4bhlp2rcd13ifvqgjg","pricing_plan_id":"free"},{"bike_id":"ec13193c-3c4c-4e90-b75a-71df6f64e0b1","system_id":"levelo_inurba_marseille","lat":43.245581,"lon":5.395069,"is_reserved":false,"is_disabled":false,"rental_uris":{"android":"levelo://app?vid=ec13193c-3c4c-4e90-b75a-71df6f64e0b1","ios":"levelo://app?vid=ec13193c-3c4c-4e90-b75a-71df6f64e0b1"},"vehicle_type_id":"4","last_reported":1702220791,"current_range_meters":31200,"station_id":"ce4bhlp2rcd13ifvqgjg","pricing_plan_id":"free"},{"bike_id":"fe32faeb-cffd-41b1-b824-1dc9d538a4d1","system_id":"levelo_inurba_marseille","lat":43.240618,"lon":5.377636,"is_reserved":false,"is_disabled":false,"rental_uris":{"android":"levelo://app?vid=fe32faeb-cffd-41b1-b824-1dc9d538a4d1","ios":"levelo://app?vid=fe32faeb-cffd-41b1-b824-1dc9d538a4d1"},"vehicle_type_id":"4","last_reported":1702220791,"current_range_meters":16800,"station_id":"ce4bhnp2rcd13ifvqgvg","pricing_plan_id":"free"},{"bike_id":"f27b6552-053a-445d-bc9f-070e1d8c058b","system_id":"levelo_inurba_marseille","lat":43.23967,"lon":5.36634,"is_reserved":false,"is_disabled":false,"rental_uris":{"android":"levelo://app?vid=f27b6552-053a-445d-bc9f-070e1d8c058b","ios":"levelo://app?vid=f27b6552-053a-445d-bc9f-070e1d8c058b"},"vehicle_type_id":"4","last_reported":1702220791,"current_range_meters":22400,"station_id":"ce4bhi12rcd13ifvqfp0","pricing_plan_id":"free"},{"bike_id":"1b3b2f65-3d25-479d-9e71-ef54aa244a58","system_id":"levelo_inurba_marseille","lat":43.23963,"lon":5.36626,"is_reserved":false,"is_disabled":false,"rental_uris":{"android":"levelo://app?vid=1b3b2f65-3d25-479d-9e71-ef54aa244a58","ios":"levelo://app?vid=1b3b2f65-3d25-479d-9e71-ef54aa244a58"},"vehicle_type_id":"4","last_reported":1702220791,"current_range_meters":0,"station_id":"ce4bhi12rcd13ifvqfp0","pricing_plan_id":"free"},{"bike_id":"a940d019-203e-4992-ae66-53aafaaf067a","system_id":"levelo_inurba_marseille","lat":43.23198,"lon":5.35569,"is_reserved":false,"is_disabled":false,"rental_uris":{"android":"levelo://app?vid=a940d019-203e-4992-ae66-53aafaaf067a","ios":"levelo://app?vid=a940d019-203e-4992-ae66-53aafaaf067a"},"vehicle_type_id":"4","last_reported":1702220791,"current_range_meters":31200,"station_id":"ce4bhu92rcd13ifvqi70","pricing_plan_id":"free"},{"bike_id":"cfc4a276-4a67-412c-8f70-0b8c1f09f05d","system_id":"levelo_inurba_marseille","lat":43.23197,"lon":5.35545,"is_reserved":false,"is_disabled":false,"rental_uris":{"android":"levelo://app?vid=cfc4a276-4a67-412c-8f70-0b8c1f09f05d","ios":"levelo://app?vid=cfc4a276-4a67-412c-8f70-0b8c1f09f05d"},"vehicle_type_id":"4","last_reported":1702220791,"current_range_meters":30000,"station_id":"ce4bhu92rcd13ifvqi70","pricing_plan_id":"free"},{"bike_id":"23f56b2e-53d9-4a24-944d-0be80a331bb3","system_id":"levelo_inurba_marseille","lat":43.23194,"lon":5.35557,"is_reserved":false,"is_disabled":false,"rental_uris":{"android":"levelo://app?vid=23f56b2e-53d9-4a24-944d-0be80a331bb3","ios":"levelo://app?vid=23f56b2e-53d9-4a24-944d-0be80a331bb3"},"vehicle_type_id":"4","last_reported":1702220791,"current_range_meters":31200,"station_id":"ce4bhu92rcd13ifvqi70","pricing_plan_id":"free"},{"bike_id":"d7ec465b-93e4-4304-aaab-cd8078fe33dd","system_id":"levelo_inurba_marseille","lat":43.23194,"lon":5.35557,"is_reserved":false,"is_disabled":false,"rental_uris":{"android":"levelo://app?vid=d7ec465b-93e4-4304-aaab-cd8078fe33dd","ios":"levelo://app?vid=d7ec465b-93e4-4304-aaab-cd8078fe33dd"},"vehicle_type_id":"4","last_reported":1702220791,"current_range_meters":27600,"station_id":"ce4bhu92rcd13ifvqi70","pricing_plan_id":"free"},{"bike_id":"1c3f9b18-2ec0-4103-b4dd-5046a773ef78","system_id":"levelo_inurba_marseille","lat":43.231919,"lon":5.355532,"is_reserved":false,"is_disabled":false,"rental_uris":{"android":"levelo://app?vid=1c3f9b18-2ec0-4103-b4dd-5046a773ef78","ios":"levelo://app?vid=1c3f9b18-2ec0-4103-b4dd-5046a773ef78"},"vehicle_type_id":"4","last_reported":1702220791,"current_range_meters":20400,"station_id":"ce4bhu92rcd13ifvqi70","pricing_plan_id":"free"},{"bike_id":"ea5921a3-5778-42b1-9f19-8b22e7f0b654","system_id":"levelo_inurba_marseille","lat":43.23193,"lon":5.35545,"is_reserved":false,"is_disabled":false,"rental_uris":{"android":"levelo://app?vid=ea5921a3-5778-42b1-9f19-8b22e7f0b654","ios":"levelo://app?vid=ea5921a3-5778-42b1-9f19-8b22e7f0b654"},"vehicle_type_id":"4","last_reported":1702220791,"current_range_meters":31200,"station_id":"ce4bhu92rcd13ifvqi70","pricing_plan_id":"free"},{"bike_id":"ef1e2493-7631-4f57-8f34-a6c50ee24ca1","system_id":"levelo_inurba_marseille","lat":43.23192,"lon":5.35557,"is_reserved":false,"is_disabled":false,"rental_uris":{"android":"levelo://app?vid=ef1e2493-7631-4f57-8f34-a6c50ee24ca1","ios":"levelo://app?vid=ef1e2493-7631-4f57-8f34-a6c50ee24ca1"},"vehicle_type_id":"4","last_reported":1702220791,"current_range_meters":28400,"station_id":"ce4bhu92rcd13ifvqi70","pricing_plan_id":"free"},{"bike_id":"94024ee9-217d-460e-beb9-dedc4d158d29","system_id":"levelo_inurba_marseille","lat":43.231919,"lon":5.355532,"is_reserved":false,"is_disabled":false,"rental_uris":{"android":"levelo://app?vid=94024ee9-217d-460e-beb9-dedc4d158d29","ios":"levelo://app?vid=94024ee9-217d-460e-beb9-dedc4d158d29"},"vehicle_type_id":"4","last_reported":1702220791,"current_range_meters":28000,"station_id":"ce4bhu92rcd13ifvqi70","pricing_plan_id":"free"},{"bike_id":"c4f706e0-269b-43e1-a5fb-a166e5c657ea","system_id":"levelo_inurba_marseille","lat":43.2319,"lon":5.35557,"is_reserved":false,"is_disabled":false,"rental_uris":{"android":"levelo://app?vid=c4f706e0-269b-43e1-a5fb-a166e5c657ea","ios":"levelo://app?vid=c4f706e0-269b-43e1-a5fb-a166e5c657ea"},"vehicle_type_id":"4","last_reported":1702220791,"current_range_meters":30400,"station_id":"ce4bhu92rcd13ifvqi70","pricing_plan_id":"free"},{"bike_id":"49e064bc-70cf-4225-b4b5-dae6095ca934","system_id":"levelo_inurba_marseille","lat":43.231562,"lon":5.436933,"is_reserved":false,"is_disabled":false,"rental_uris":{"android":"levelo://app?vid=49e064bc-70cf-4225-b4b5-dae6095ca934","ios":"levelo://app?vid=49e064bc-70cf-4225-b4b5-dae6095ca934"},"vehicle_type_id":"4","last_reported":1702220791,"current_range_meters":1600,"station_id":"ce4bhmp2rcd13ifvqgog","pricing_plan_id":"free"},{"bike_id":"90479f61-6418-4b50-a736-8e2b3eff7819","system_id":"levelo_inurba_marseille","lat":43.231562,"lon":5.436933,"is_reserved":false,"is_disabled":false,"rental_uris":{"android":"levelo://app?vid=90479f61-6418-4b50-a736-8e2b3eff7819","ios":"levelo://app?vid=90479f61-6418-4b50-a736-8e2b3eff7819"},"vehicle_type_id":"4","last_reported":1702220791,"current_range_meters":14000,"station_id":"ce4bhmp2rcd13ifvqgog","pricing_plan_id":"free"},{"bike_id":"cc815b0e-965f-49d1-82c7-7f4aad13e230","system_id":"levelo_inurba_marseille","lat":43.231562,"lon":5.436933,"is_reserved":false,"is_disabled":false,"rental_uris":{"android":"levelo://app?vid=cc815b0e-965f-49d1-82c7-7f4aad13e230","ios":"levelo://app?vid=cc815b0e-965f-49d1-82c7-7f4aad13e230"},"vehicle_type_id":"4","last_reported":1702220791,"current_range_meters":20800,"station_id":"ce4bhmp2rcd13ifvqgog","pricing_plan_id":"free"}]}}