{"last_updated":1679612830,"ttl":30,"version":"2.2","data":{"bikes":[{"bike_id":"e206fb76-6b06-4044-b0ae-73255a94c901","system_id":"levelo_inurba_marseille","lat":43.308887,"lon":5.371953,"is_reserved":false,"is_disabled":false,"rental_uris":{"android":"levelo://app?vid=e206fb76-6b06-4044-b0ae-73255a94c901","ios":"levelo://app?vid=e206fb76-6b06-4044-b0ae-73255a94c901"},"vehicle_type_id":"4","last_reported":1679612830,"current_range_meters":12800,"station_id":"","pricing_plan_id":"free"},{"bike_id":"cb7ea3ea-230b-4459-8d75-d359fd7dcaa5","system_id":"levelo_inurba_marseille","lat":43.3089,"lon":5.372,"is_reserved":false,"is_disabled":false,"rental_uris":{"android":"levelo://app?vid=cb7ea3ea-230b-4459-8d75-d359fd7dcaa5","ios":"levelo://app?vid=cb7ea3ea-230b-4459-8d75-d359fd7dcaa5"},"vehicle_type_id":"4","last_reported":1679612830,"current_range_meters":15600,"station_id":"","pricing_plan_id":"free"},{"bike_id":"5457aca0-73a2-46a7-95cc-a930807a00ea","system_id":"levelo_inurba_marseille","lat":43.30876,"lon":5.37204,"is_reserved":false,"is_disabled":false,"rental_uris":{"android":"levelo://app?vid=5457aca0-73a2-46a7-95cc-a930807a00ea","ios":"levelo://app?vid=5457aca0-73a2-46a7-95cc-a930807a00ea"},"vehicle_type_id":"4","last_reported":1679612830,"current_range_meters":14400,"station_id":"ce4bguh2rcd13ifvqckg","pricing_plan_id":"free"},{"bike_id":"8818d141-d35f-49b9-9c03-94e40c8315f2","system_id":"levelo_inurba_marseille","lat":43.30538,"lon":5.36726,"is_reserved":false,"is_disabled":false,"rental_uris":{"android":"levelo://app?vid=8818d141-d35f-49b9-9c03-94e40c8315f2","ios":"levelo://app?vid=8818d141-d35f-49b9-9c03-94e40c8315f2"},"vehicle_type_id":"4","last_reported":1679612830,"current_range_meters":23200,"station_id":"ce4bgrp2rcd13ifvqc9g","pricing_plan_id":"free"},{"bike_id":"58b53a6e-4568-4591-9bb5-3643983e4ecc","system_id":"levelo_inurba_marseille","lat":43.306405,"lon":5.37434,"is_reserved":false,"is_disabled":false,"rental_uris":{"android":"levelo://app?vid=58b53a6e-4568-4591-9bb5-3643983e4ecc","ios":"levelo://app?vid=58b53a6e-4568-4591-9bb5-3643983e4ecc"},"vehicle_type_id":"4","last_reported":1679612830,"current_range_meters":2400,"station_id":"","pricing_plan_id":"free"},{"bike_id":"96169400-5f73-433a-92cd-602f565035be","system_id":"levelo_inurba_marseille","lat":43.30186,"lon":5.36616,"is_reserved":false,"is_disabled":false,"rental_uris":{"android":"levelo://app?vid=96169400-5f73-433a-92cd-602f565035be","ios":"levelo://app?vid=96169400-5f73-433a-92cd-602f565035be"},"vehicle_type_id":"4","last_reported":1679612830,"current_range_meters":4800,"station_id":"ce4bgrh2rcd13ifvqc8g","pricing_plan_id":"free"},{"bike_id":"af5f1506-99ef-44c0-9789-86c40ed63798","system_id":"levelo_inurba_marseille","lat":43.307965,"lon":5.381685,"is_reserved":false,"is_disabled":false,"rental_uris":{"android":"levelo://app?vid=af5f1506-99ef-44c0-9789-86c40ed63798","ios":"levelo://app?vid=af5f1506-99ef-44c0-9789-86c40ed63798"},"vehicle_type_id":"4","last_reported":1679612830,"current_range_meters":26800,"station_id":"ce4bgt12rcd13ifvqce0","pricing_plan_id":"free"},{"bike_id":"c4040bf4-3234-4f65-a7e5-9bf213b8f790","system_id":"levelo_inurba_marseille","lat":43.3046,"lon":5.37899,"is_reserved":false,"is_disabled":false,"rental_uris":{"android":"levelo://app?vid=c4040bf4-3234-4f65-a7e5-9bf213b8f790","ios":"levelo://app?vid=c4040bf4-3234-4f65-a7e5-9bf213b8f790"},"vehicle_type_id":"4","last_reported":1679612830,"current_range_meters":800,"station_id":"ce4bgup2rcd13ifvqcn0","pricing_plan_id":"free"},{"bike_id":"3fae61ef-e4bc-4e81-baea-406afe8f2fa3","system_id":"levelo_inurba_marseille","lat":43.317187,"lon":5.38275,"is_reserved":false,"is_disabled":false,"rental_uris":{"android":"levelo://app?vid=3fae61ef-e4bc-4e81-baea-406afe8f2fa3","ios":"levelo://app?vid=3fae61ef-e4bc-4e81-baea-406afe8f2fa3"},"vehicle_type_id":"4","last_reported":1679612830,"current_range_meters":25200,"station_id":"","pricing_plan_id":"free"},{"bike_id":"3ae22865-7891-4893-9b84-ff300837d97a","system_id":"levelo_inurba_marseille","lat":43.31575,"lon":5.38363,"is_reserved":false,"is_disabled":false,"rental_uris":{"android":"levelo://app?vid=3ae22865-7891-4893-9b84-ff300837d97a","ios":"levelo://app?vid=3ae22865-7891-4893-9b84-ff300837d97a"},"vehicle_type_id":"4","last_reported":1679612830,"current_range_meters":0,"station_id":"","pricing_plan_id":"free"},{"bike_id":"1185200e-7196-402f-9435-28ba076349ca","system_id":"levelo_inurba_marseille","lat":43.31371,"lon":5.38494,"is_reserved":false,"is_disabled":false,"rental_uris":{"android":"levelo://app?vid=1185200e-7196-402f-9435-28ba076349ca","ios":"levelo://app?vid=1185200e-7196-402f-9435-28ba076349ca"},"vehicle_type_id":"4","last_reported":1679612830,"current_range_meters":400,"station_id":"","pricing_plan_id":"free"},{"bike_id":"e99a2f4c-5b96-4d7c-b7d6-a10cee602f80","system_id":"levelo_inurba_marseille","lat":43.313571,"lon":5.384829,"is_reserved":false,"is_disabled":false,"rental_uris":{"android":"levelo://app?vid=e99a2f4c-5b96-4d7c-b7d6-a10cee602f80","ios":"levelo://app?vid=e99a2f4c-5b96-4d7c-b7d6-a10cee602f80"},"vehicle_type_id":"4","last_reported":1679612830,"current_range_meters":31600,"station_id":"ce4bgt92rcd13ifvqcf0","pricing_plan_id":"free"},{"bike_id":"39df13a3-8c20-4691-8f2a-e6caa1793ac1","system_id":"levelo_inurba_marseille","lat":43.31368,"lon":5.38495,"is_reserved":false,"is_disabled":false,"rental_uris":{"android":"levelo://app?vid=39df13a3-8c20-4691-8f2a-e6caa1793ac1","ios":"levelo://app?vid=39df13a3-8c20-4691-8f2a-e6caa1793ac1"},"vehicle_type_id":"4","last_reported":1679612830,"current_range_meters":0,"station_id":"","pricing_plan_id":"free"},{"bike_id":"0f22fa08-e7f1-4d1d-9ce8-b4da001dd8de","system_id":"levelo_inurba_marseille","lat":43.313718,"lon":5.384978,"is_reserved":false,"is_disabled":false,"rental_uris":{"android":"levelo://app?vid=0f22fa08-e7f1-4d1d-9ce8-b4da001dd8de","ios":"levelo://app?vid=0f22fa08-e7f1-4d1d-9ce8-b4da001dd8de"},"vehicle_type_id":"4","last_reported":1679612830,"current_range_meters":31600,"station_id":"","pricing_plan_id":"free"},{"bike_id":"e6654e1e-cbf7-4a54-bf85-ad94fca64dce","system_id":"levelo_inurba_marseille","lat":43.313571,"lon":5.384829,"is_reserved":false,"is_disabled":false,"rental_uris":{"android":"levelo://app?vid=e6654e1e-cbf7-4a54-bf85-ad94fca64dce","ios":"levelo://app?vid=e6654e1e-cbf7-4a54-bf85-ad94fca64dce"},"vehicle_type_id":"4","last_reported":1679612830,"current_range_meters":0,"station_id":"ce4bgt92rcd13ifvqcf0","pricing_plan_id":"free"},{"bike_id":"84068a51-1c17-4bd2-91e3-3e69b3a06cf3","system_id":"levelo_inurba_marseille","lat":43.313571,"lon":5.384829,"is_reserved":false,"is_disabled":false,"rental_uris":{"android":"levelo://app?vid=84068a51-1c17-4bd2-91e3-3e69b3a06cf3","ios":"levelo://app?vid=84068a51-1c17-4bd2-91e3-3e69b3a06cf3"},"vehicle_type_id":"4","last_reported":1679612830,"current_range_meters":6800,"station_id":"ce4bgt92rcd13ifvqcf0","pricing_plan_id":"free"},{"bike_id":"f7c1531a-7b88-4585-b886-df4fe696104d","system_id":"levelo_inurba_marseille","lat":43.299094,"lon":5.365415,"is_reserved":false,"is_disabled":false,"rental_uris":{"android":"levelo://app?vid=f7c1531a-7b88-4585-b886-df4fe696104d","ios":"levelo://app?vid=f7c1531a-7b88-4585-b886-df4fe696104d"},"vehicle_type_id":"4","last_reported":1679612830,"current_range_meters":27600,"station_id":"ce4bgm92rcd13ifvqbr0","pricing_plan_id":"free"},{"bike_id":"9faba995-8d84-4ba6-9db5-d57be7bc9265","system_id":"levelo_inurba_marseille","lat":43.298433,"lon":5.362774,"is_reserved":false,"is_disabled":false,"rental_uris":{"android":"levelo://app?vid=9faba995-8d84-4ba6-9db5-d57be7bc9265","ios":"levelo://app?vid=9faba995-8d84-4ba6-9db5-d57be7bc9265"},"vehicle_type_id":"4","last_reported":1679612830,"current_range_meters":10400,"station_id":"ce4bgpp2rcd13ifvqc3g","pricing_plan_id":"free"},{"bike_id":"7e829078-31ed-4743-bfaf-66fef168160e","system_id":"levelo_inurba_marseille","lat":43.305364,"lon":5.384119,"is_reserved":false,"is_disabled":false,"rental_uris":{"android":"levelo://app?vid=7e829078-31ed-4743-bfaf-66fef168160e","ios":"levelo://app?vid=7e829078-31ed-4743-bfaf-66fef168160e"},"vehicle_type_id":"4","last_reported":1679612830,"current_range_meters":4400,"station_id":"ce4bgg92rcd13ifvqb30","pricing_plan_id":"free"},{"bike_id":"666e3058-6c80-4f2b-8163-6ff6595c2d67","system_id":"levelo_inurba_marseille","lat":43.305364,"lon":5.384119,"is_reserved":false,"is_disabled":false,"rental_uris":{"android":"levelo://app?vid=666e3058-6c80-4f2b-8163-6ff6595c2d67","ios":"levelo://app?vid=666e3058-6c80-4f2b-8163-6ff6595c2d67"},"vehicle_type_id":"4","last_reported":1679612830,"current_range_meters":2000,"station_id":"ce4bgg92rcd13ifvqb30","pricing_plan_id":"free"},{"bike_id":"d9aff478-c718-4c46-bfce-1a8830127f7e","system_id":"levelo_inurba_marseille","lat":43.311722,"lon":5.387247,"is_reserved":false,"is_disabled":false,"rental_uris":{"android":"levelo://app?vid=d9aff478-c718-4c46-bfce-1a8830127f7e","ios":"levelo://app?vid=d9aff478-c718-4c46-bfce-1a8830127f7e"},"vehicle_type_id":"4","last_reported":1679612830,"current_range_meters":31600,"station_id":"ce4bgv12rcd13ifvqcp0","pricing_plan_id":"free"},{"bike_id":"c2768101-93a5-48c6-836e-a5a6acfee9da","system_id":"levelo_inurba_marseille","lat":43.297794,"lon":5.370888,"is_reserved":false,"is_disabled":false,"rental_uris":{"android":"levelo://app?vid=c2768101-93a5-48c6-836e-a5a6acfee9da","ios":"levelo://app?vid=c2768101-93a5-48c6-836e-a5a6acfee9da"},"vehicle_type_id":"4","last_reported":1679612830,"current_range_meters":4400,"station_id":"ce4bgop2rcd13ifvqc1g","pricing_plan_id":"free"},{"bike_id":"0117cc6d-2a6e-4cc1-b7dc-626351e323fb","system_id":"levelo_inurba_marseille","lat":43.32824,"lon":5.36687,"is_reserved":false,"is_disabled":false,"rental_uris":{"android":"levelo://app?vid=0117cc6d-2a6e-4cc1-b7dc-626351e323fb","ios":"levelo://app?vid=0117cc6d-2a6e-4cc1-b7dc-626351e323fb"},"vehicle_type_id":"4","last_reported":1679612830,"current_range_meters":23200,"station_id":"ce4bhs92rcd13ifvqi0g","pricing_plan_id":"free"},{"bike_id":"5a6ad041-6474-4146-9dee-2a3525ba344f","system_id":"levelo_inurba_marseille","lat":43.328289,"lon":5.366842,"is_reserved":false,"is_disabled":false,"rental_uris":{"android":"levelo://app?vid=5a6ad041-6474-4146-9dee-2a3525ba344f","ios":"levelo://app?vid=5a6ad041-6474-4146-9dee-2a3525ba344f"},"vehicle_type_id":"4","last_reported":1679612830,"current_range_meters":4000,"station_id":"","pricing_plan_id":"free"},{"bike_id":"c14417e7-7230-4571-95e0-68165e3a647b","system_id":"levelo_inurba_marseille","lat":43.328371,"lon":5.366912,"is_reserved":false,"is_disabled":false,"rental_uris":{"android":"levelo://app?vid=c14417e7-7230-4571-95e0-68165e3a647b","ios":"levelo://app?vid=c14417e7-7230-4571-95e0-68165e3a647b"},"vehicle_type_id":"4","last_reported":1679612830,"current_range_meters":0,"station_id":"ce4bhs92rcd13ifvqi0g","pricing_plan_id":"free"},{"bike_id":"3573d59f-3081-4322-a212-7d5e82a2a212","system_id":"levelo_inurba_marseille","lat":43.328371,"lon":5.366912,"is_reserved":false,"is_disabled":false,"rental_uris":{"android":"levelo://app?vid=3573d59f-3081-4322-a212-7d5e82a2a212","ios":"levelo://app?vid=3573d59f-3081-4322-a212-7d5e82a2a212"},"vehicle_type_id":"4","last_reported":1679612830,"current_range_meters":5600,"station_id":"ce4bhs92rcd13ifvqi0g","pricing_plan_id":"free"},{"bike_id":"977d60b0-bbcd-4755-af8a-cbc42f583ea3","system_id":"levelo_inurba_marseille","lat":43.328371,"lon":5.366912,"is_reserved":false,"is_disabled":false,"rental_uris":{"android":"levelo://app?vid=977d60b0-bbcd-4755-af8a-cbc42f583ea3","ios":"levelo://app?vid=977d60b0-bbcd-4755-af8a-cbc42f583ea3"},"vehicle_type_id":"4","last_reported":1679612830,"current_range_meters":11200,"station_id":"ce4bhs92rcd13ifvqi0g","pricing_plan_id":"free"},{"bike_id":"b492fd32-8133-4a65-88dc-b16f52b4418f","system_id":"levelo_inurba_marseille","lat":43.29741,"lon":5.376777,"is_reserved":false,"is_disabled":false,"rental_uris":{"android":"levelo://app?vid=b492fd32-8133-4a65-88dc-b16f52b4418f","ios":"levelo://app?vid=b492fd32-8133-4a65-88dc-b16f52b4418f"},"vehicle_type_id":"4","last_reported":1679612830,"current_range_meters":0,"station_id":"ce4bgkh2rcd13ifvqbl0","pricing_plan_id":"free"},{"bike_id":"7f4bef53-2549-4229-995f-db8d12dacce9","system_id":"levelo_inurba_marseille","lat":43.309589,"lon":5.390258,"is_reserved":false,"is_disabled":false,"rental_uris":{"android":"levelo://app?vid=7f4bef53-2549-4229-995f-db8d12dacce9","ios":"levelo://app?vid=7f4bef53-2549-4229-995f-db8d12dacce9"},"vehicle_type_id":"4","last_reported":1679612830,"current_range_meters":10400,"station_id":"ce4bgup2rcd13ifvqco0","pricing_plan_id":"free"},{"bike_id":"a5320d6e-c3d2-4ed3-bce4-1f1c4c19b7e1","system_id":"levelo_inurba_marseille","lat":43.309589,"lon":5.390258,"is_reserved":false,"is_disabled":false,"rental_uris":{"android":"levelo://app?vid=a5320d6e-c3d2-4ed3-bce4-1f1c4c19b7e1","ios":"levelo://app?vid=a5320d6e-c3d2-4ed3-bce4-1f1c4c19b7e1"},"vehicle_type_id":"4","last_reported":1679612830,"current_range_meters":25200,"station_id":"ce4bgup2rcd13ifvqco0","pricing_plan_id":"free"},{"bike_id":"0dcf6b19-6065-41f0-9f34-b287286a55be","system_id":"levelo_inurba_marseille","lat":43.309589,"lon":5.390258,"is_reserved":false,"is_disabled":false,"rental_uris":{"android":"levelo://app?vid=0dcf6b19-6065-41f0-9f34-b287286a55be","ios":"levelo://app?vid=0dcf6b19-6065-41f0-9f34-b287286a55be"},"vehicle_type_id":"4","last_reported":1679612830,"current_range_meters":27200,"station_id":"ce4bgup2rcd13ifvqco0","pricing_plan_id":"free"},{"bike_id":"5e71b1ea-6b39-4c02-93e4-0815ea6234f1","system_id":"levelo_inurba_marseille","lat":43.309589,"lon":5.390258,"is_reserved":false,"is_disabled":false,"rental_uris":{"android":"levelo://app?vid=5e71b1ea-6b39-4c02-93e4-0815ea6234f1","ios":"levelo://app?vid=5e71b1ea-6b39-4c02-93e4-0815ea6234f1"},"vehicle_type_id":"4","last_reported":1679612830,"current_range_meters":21200,"station_id":"ce4bgup2rcd13ifvqco0","pricing_plan_id":"free"},{"bike_id":"26b5139e-dc3c-4a5d-9b26-ec435e360f47","system_id":"levelo_inurba_marseille","lat":43.309589,"lon":5.390258,"is_reserved":false,"is_disabled":false,"rental_uris":{"android":"levelo://app?vid=26b5139e-dc3c-4a5d-9b26-ec435e360f47","ios":"levelo://app?vid=26b5139e-dc3c-4a5d-9b26-ec435e360f47"},"vehicle_type_id":"4","last_reported":1679612830,"current_range_meters":0,"station_id":"ce4bgup2rcd13ifvqco0","pricing_plan_id":"free"},{"bike_id":"9583366d-ab4e-4fa7-955b-fd0da037ddaa","system_id":"levelo_inurba_marseille","lat":43.317557,"lon":5.390173,"is_reserved":false,"is_disabled":false,"rental_uris":{"android":"levelo://app?vid=9583366d-ab4e-4fa7-955b-fd0da037ddaa","ios":"levelo://app?vid=9583366d-ab4e-4fa7-955b-fd0da037ddaa"},"vehicle_type_id":"4","last_reported":1679612830,"current_range_meters":14000,"station_id":"ce4bhqp2rcd13ifvqhng","pricing_plan_id":"free"},{"bike_id":"f3d5a2b1-65a1-4926-8dde-640620e6c1d3","system_id":"levelo_inurba_marseille","lat":43.317557,"lon":5.390173,"is_reserved":false,"is_disabled":false,"rental_uris":{"android":"levelo://app?vid=f3d5a2b1-65a1-4926-8dde-640620e6c1d3","ios":"levelo://app?vid=f3d5a2b1-65a1-4926-8dde-640620e6c1d3"},"vehicle_type_id":"4","last_reported":1679612830,"current_range_meters":22800,"station_id":"ce4bhqp2rcd13ifvqhng","pricing_plan_id":"free"},{"bike_id":"a83cd401-6116-4e90-91cb-b4ecd659ea32","system_id":"levelo_inurba_marseille","lat":43.317557,"lon":5.390173,"is_reserved":false,"is_disabled":false,"rental_uris":{"android":"levelo://app?vid=a83cd401-6116-4e90-91cb-b4ecd659ea32","ios":"levelo://app?vid=a83cd401-6116-4e90-91cb-b4ecd659ea32"},"vehicle_type_id":"4","last_reported":1679612830,"current_range_meters":12400,"station_id":"ce4bhqp2rcd13ifvqhng","pricing_plan_id":"free"},{"bike_id":"d505bf3d-3818-4e24-b427-97d9633af617","system_id":"levelo_inurba_marseille","lat":43.317557,"lon":5.390173,"is_reserved":false,"is_disabled":false,"rental_uris":{"android":"levelo://app?vid=d505bf3d-3818-4e24-b427-97d9633af617","ios":"levelo://app?vid=d505bf3d-3818-4e24-b427-97d9633af617"},"vehicle_type_id":"4","last_reported":1679612830,"current_range_meters":12400,"station_id":"ce4bhqp2rcd13ifvqhng","pricing_plan_id":"free"},{"bike_id":"f87e5e12-836d-4e24-aa3a-fe02a4542ef0","system_id":"levelo_inurba_marseille","lat":43.299724,"lon":5.384848,"is_reserved":false,"is_disabled":false,"rental_uris":{"android":"levelo://app?vid=f87e5e12-836d-4e24-aa3a-fe02a4542ef0","ios":"levelo://app?vid=f87e5e12-836d-4e24-aa3a-fe02a4542ef0"},"vehicle_type_id":"4","last_reported":1679612830,"current_range_meters":1600,"station_id":"ce4bgj92rcd13ifvqbd0","pricing_plan_id":"free"},{"bike_id":"4ef1fef4-0061-4608-ad40-f4307083d92e","system_id":"levelo_inurba_marseille","lat":43.295226,"lon":5.375784,"is_reserved":false,"is_disabled":false,"rental_uris":{"android":"levelo://app?vid=4ef1fef4-0061-4608-ad40-f4307083d92e","ios":"levelo://app?vid=4ef1fef4-0061-4608-ad40-f4307083d92e"},"vehicle_type_id":"4","last_reported":1679612830,"current_range_meters":0,"station_id":"","pricing_plan_id":"free"},{"bike_id":"42606d82-96a3-4de5-abb1-4d1ddb43abb7","system_id":"levelo_inurba_marseille","lat":43.32366,"lon":5.38883,"is_reserved":false,"is_disabled":false,"rental_uris":{"android":"levelo://app?vid=42606d82-96a3-4de5-abb1-4d1ddb43abb7","ios":"levelo://app?vid=42606d82-96a3-4de5-abb1-4d1ddb43abb7"},"vehicle_type_id":"4","last_reported":1679612830,"current_range_meters":18400,"station_id":"ce4bhqp2rcd13ifvqhog","pricing_plan_id":"free"},{"bike_id":"cacd84c3-5822-4165-b3f1-78d4927d71f5","system_id":"levelo_inurba_marseille","lat":43.32367,"lon":5.38885,"is_reserved":false,"is_disabled":false,"rental_uris":{"android":"levelo://app?vid=cacd84c3-5822-4165-b3f1-78d4927d71f5","ios":"levelo://app?vid=cacd84c3-5822-4165-b3f1-78d4927d71f5"},"vehicle_type_id":"4","last_reported":1679612830,"current_range_meters":30000,"station_id":"ce4bhqp2rcd13ifvqhog","pricing_plan_id":"free"},{"bike_id":"bfc1de3e-4b83-47f8-973d-400297d6375f","system_id":"levelo_inurba_marseille","lat":43.32366,"lon":5.38889,"is_reserved":false,"is_disabled":false,"rental_uris":{"android":"levelo://app?vid=bfc1de3e-4b83-47f8-973d-400297d6375f","ios":"levelo://app?vid=bfc1de3e-4b83-47f8-973d-400297d6375f"},"vehicle_type_id":"4","last_reported":1679612830,"current_range_meters":0,"station_id":"ce4bhqp2rcd13ifvqhog","pricing_plan_id":"free"},{"bike_id":"4a8440eb-f670-491d-a0d8-16a82457394f","system_id":"levelo_inurba_marseille","lat":43.29305,"lon":5.37172,"is_reserved":false,"is_disabled":false,"rental_uris":{"android":"levelo://app?vid=4a8440eb-f670-491d-a0d8-16a82457394f","ios":"levelo://app?vid=4a8440eb-f670-491d-a0d8-16a82457394f"},"vehicle_type_id":"4","last_reported":1679612830,"current_range_meters":0,"station_id":"ce4bgh92rcd13ifvqb40","pricing_plan_id":"free"},{"bike_id":"fc3b6fef-da22-4cb7-b73a-ff051f8b3e30","system_id":"levelo_inurba_marseille","lat":43.305994,"lon":5.393687,"is_reserved":false,"is_disabled":false,"rental_uris":{"android":"levelo://app?vid=fc3b6fef-da22-4cb7-b73a-ff051f8b3e30","ios":"levelo://app?vid=fc3b6fef-da22-4cb7-b73a-ff051f8b3e30"},"vehicle_type_id":"4","last_reported":1679612830,"current_range_meters":2000,"station_id":"ce4bh0p2rcd13ifvqd80","pricing_plan_id":"free"},{"bike_id":"4308809d-2e4f-46b9-b18c-180e694c8c2d","system_id":"levelo_inurba_marseille","lat":43.305994,"lon":5.393687,"is_reserved":false,"is_disabled":false,"rental_uris":{"android":"levelo://app?vid=4308809d-2e4f-46b9-b18c-180e694c8c2d","ios":"levelo://app?vid=4308809d-2e4f-46b9-b18c-180e694c8c2d"},"vehicle_type_id":"4","last_reported":1679612830,"current_range_meters":6800,"station_id":"ce4bh0p2rcd13ifvqd80","pricing_plan_id":"free"},{"bike_id":"e9374906-fc85-48f8-be1b-f7d140faee38","system_id":"levelo_inurba_marseille","lat":43.305994,"lon":5.393687,"is_reserved":false,"is_disabled":false,"rental_uris":{"android":"levelo://app?vid=e9374906-fc85-48f8-be1b-f7d140faee38","ios":"levelo://app?vid=e9374906-fc85-48f8-be1b-f7d140faee38"},"vehicle_type_id":"4","last_reported":1679612830,"current_range_meters":19200,"station_id":"ce4bh0p2rcd13ifvqd80","pricing_plan_id":"free"},{"bike_id":"32175100-f020-4c32-a5db-e07232f13f6c","system_id":"levelo_inurba_marseille","lat":43.29166,"lon":5.3714,"is_reserved":false,"is_disabled":false,"rental_uris":{"android":"levelo://app?vid=32175100-f020-4c32-a5db-e07232f13f6c","ios":"levelo://app?vid=32175100-f020-4c32-a5db-e07232f13f6c"},"vehicle_type_id":"4","last_reported":1679612830,"current_range_meters":5200,"station_id":"ce4bha92rcd13ifvqeh0","pricing_plan_id":"free"},{"bike_id":"0022c166-5e18-4e44-9c53-07b4bd471f17","system_id":"levelo_inurba_marseille","lat":43.309038,"lon":5.396546,"is_reserved":false,"is_disabled":false,"rental_uris":{"android":"levelo://app?vid=0022c166-5e18-4e44-9c53-07b4bd471f17","ios":"levelo://app?vid=0022c166-5e18-4e44-9c53-07b4bd471f17"},"vehicle_type_id":"4","last_reported":1679612830,"current_range_meters":5600,"station_id":"ce4bh012rcd13ifvqcv0","pricing_plan_id":"free"},{"bike_id":"81b551da-4e59-4fcf-bac4-b3b85dd1fa63","system_id":"levelo_inurba_marseille","lat":43.309038,"lon":5.396546,"is_reserved":false,"is_disabled":false,"rental_uris":{"android":"levelo://app?vid=81b551da-4e59-4fcf-bac4-b3b85dd1fa63","ios":"levelo://app?vid=81b551da-4e59-4fcf-bac4-b3b85dd1fa63"},"vehicle_type_id":"4","last_reported":1679612830,"current_range_meters":0,"station_id":"ce4bh012rcd13ifvqcv0","pricing_plan_id":"free"},{"bike_id":"d026d5e6-7b2b-4bdc-9a42-782f2573476c","system_id":"levelo_inurba_marseille","lat":43.309038,"lon":5.396546,"is_reserved":false,"is_disabled":false,"rental_uris":{"android":"levelo://app?vid=d026d5e6-7b2b-4bdc-9a42-782f2573476c","ios":"levelo://app?vid=d026d5e6-7b2b-4bdc-9a42-782f2573476c"},"vehicle_type_id":"4","last_reported":1679612830,"current_range_meters":0,"station_id":"ce4bh012rcd13ifvqcv0","pricing_plan_id":"free"},{"bike_id":"d3a75f43-eac6-4f2c-aebe-a288272c326d","system_id":"levelo_inurba_marseille","lat":43.309038,"lon":5.396546,"is_reserved":false,"is_disabled":false,"rental_uris":{"android":"levelo://app?vid=d3a75f43-eac6-4f2c-aebe-a288272c326d","ios":"levelo://app?vid=d3a75f43-eac6-4f2c-aebe-a288272c326d"},"vehicle_type_id":"4","last_reported":1679612830,"current_range_meters":17600,"station_id":"ce4bh012rcd13ifvqcv0","pricing_plan_id":"free"},{"bike_id":"ffff4b93-79df-4035-867b-480f713fa3d4","system_id":"levelo_inurba_marseille","lat":43.309038,"lon":5.396546,"is_reserved":false,"is_disabled":false,"rental_uris":{"android":"levelo://app?vid=ffff4b93-79df-4035-867b-480f713fa3d4","ios":"levelo://app?vid=ffff4b93-79df-4035-867b-480f713fa3d4"},"vehicle_type_id":"4","last_reported":1679612830,"current_range_meters":4000,"station_id":"ce4bh012rcd13ifvqcv0","pricing_plan_id":"free"},{"bike_id":"7e506348-cc35-4367-9ba3-c7ec26a0709d","system_id":"levelo_inurba_marseille","lat":43.313291,"lon":5.396838,"is_reserved":false,"is_disabled":false,"rental_uris":{"android":"levelo://app?vid=7e506348-cc35-4367-9ba3-c7ec26a0709d","ios":"levelo://app?vid=7e506348-cc35-4367-9ba3-c7ec26a0709d"},"vehicle_type_id":"4","last_reported":1679612830,"current_range_meters":17200,"station_id":"ce4bgvp2rcd13ifvqcu0","pricing_plan_id":"free"},{"bike_id":"13511277-081e-4d65-b4e1-108ef7d64fce","system_id":"levelo_inurba_marseille","lat":43.313291,"lon":5.396838,"is_reserved":false,"is_disabled":false,"rental_uris":{"android":"levelo://app?vid=13511277-081e-4d65-b4e1-108ef7d64fce","ios":"levelo://app?vid=13511277-081e-4d65-b4e1-108ef7d64fce"},"vehicle_type_id":"4","last_reported":1679612830,"current_range_meters":18400,"station_id":"ce4bgvp2rcd13ifvqcu0","pricing_plan_id":"free"},{"bike_id":"d3878116-1a5e-4d61-90a9-044ddec44096","system_id":"levelo_inurba_marseille","lat":43.290517,"lon":5.359167,"is_reserved":false,"is_disabled":false,"rental_uris":{"android":"levelo://app?vid=d3878116-1a5e-4d61-90a9-044ddec44096","ios":"levelo://app?vid=d3878116-1a5e-4d61-90a9-044ddec44096"},"vehicle_type_id":"4","last_reported":1679612830,"current_range_meters":1200,"station_id":"ce4bha92rcd13ifvqeg0","pricing_plan_id":"free"},{"bike_id":"0c1532c2-a743-4e71-a37b-5fba73972a6a","system_id":"levelo_inurba_marseille","lat":43.28946,"lon":5.363993,"is_reserved":false,"is_disabled":false,"rental_uris":{"android":"levelo://app?vid=0c1532c2-a743-4e71-a37b-5fba73972a6a","ios":"levelo://app?vid=0c1532c2-a743-4e71-a37b-5fba73972a6a"},"vehicle_type_id":"4","last_reported":1679612830,"current_range_meters":0,"station_id":"","pricing_plan_id":"free"},{"bike_id":"b175547e-7269-4dca-ade2-493fef3215c6","system_id":"levelo_inurba_marseille","lat":43.28943,"lon":5.36379,"is_reserved":false,"is_disabled":false,"rental_uris":{"android":"levelo://app?vid=b175547e-7269-4dca-ade2-493fef3215c6","ios":"levelo://app?vid=b175547e-7269-4dca-ade2-493fef3215c6"},"vehicle_type_id":"4","last_reported":1679612830,"current_range_meters":24400,"station_id":"ce4bhc92rcd13ifvqetg","pricing_plan_id":"free"},{"bike_id":"ec0881db-87ed-49e7-a459-44290d16f882","system_id":"levelo_inurba_marseille","lat":43.292644,"lon":5.384257,"is_reserved":false,"is_disabled":false,"rental_uris":{"android":"levelo://app?vid=ec0881db-87ed-49e7-a459-44290d16f882","ios":"levelo://app?vid=ec0881db-87ed-49e7-a459-44290d16f882"},"vehicle_type_id":"4","last_reported":1679612830,"current_range_meters":0,"station_id":"ce4bh692rcd13ifvqea0","pricing_plan_id":"free"},{"bike_id":"f39371cd-9741-4617-825b-b5907eabc92a","system_id":"levelo_inurba_marseille","lat":43.304247,"lon":5.397464,"is_reserved":false,"is_disabled":false,"rental_uris":{"android":"levelo://app?vid=f39371cd-9741-4617-825b-b5907eabc92a","ios":"levelo://app?vid=f39371cd-9741-4617-825b-b5907eabc92a"},"vehicle_type_id":"4","last_reported":1679612830,"current_range_meters":0,"station_id":"","pricing_plan_id":"free"},{"bike_id":"52aa70d1-67af-475b-85f4-5f7d0fe91e9c","system_id":"levelo_inurba_marseille","lat":43.290104,"lon":5.356111,"is_reserved":false,"is_disabled":false,"rental_uris":{"android":"levelo://app?vid=52aa70d1-67af-475b-85f4-5f7d0fe91e9c","ios":"levelo://app?vid=52aa70d1-67af-475b-85f4-5f7d0fe91e9c"},"vehicle_type_id":"4","last_reported":1679612830,"current_range_meters":31200,"station_id":"ce4bhb92rcd13ifvqen0","pricing_plan_id":"free"},{"bike_id":"1e92ebae-a4f0-4d54-8652-d48f55c801ec","system_id":"levelo_inurba_marseille","lat":43.330442,"lon":5.389148,"is_reserved":false,"is_disabled":false,"rental_uris":{"android":"levelo://app?vid=1e92ebae-a4f0-4d54-8652-d48f55c801ec","ios":"levelo://app?vid=1e92ebae-a4f0-4d54-8652-d48f55c801ec"},"vehicle_type_id":"4","last_reported":1679612830,"current_range_meters":19600,"station_id":"ce4bhr92rcd13ifvqhrg","pricing_plan_id":"free"},{"bike_id":"5510c93f-3fe8-4f1d-abd1-99cd0997760a","system_id":"levelo_inurba_marseille","lat":43.330442,"lon":5.389148,"is_reserved":false,"is_disabled":false,"rental_uris":{"android":"levelo://app?vid=5510c93f-3fe8-4f1d-abd1-99cd0997760a","ios":"levelo://app?vid=5510c93f-3fe8-4f1d-abd1-99cd0997760a"},"vehicle_type_id":"4","last_reported":1679612830,"current_range_meters":29200,"station_id":"ce4bhr92rcd13ifvqhrg","pricing_plan_id":"free"},{"bike_id":"86e50740-e335-493c-9211-674916a27108","system_id":"levelo_inurba_marseille","lat":43.29002,"lon":5.35612,"is_reserved":false,"is_disabled":false,"rental_uris":{"android":"levelo://app?vid=86e50740-e335-493c-9211-674916a27108","ios":"levelo://app?vid=86e50740-e335-493c-9211-674916a27108"},"vehicle_type_id":"4","last_reported":1679612830,"current_range_meters":400,"station_id":"ce4bhb92rcd13ifvqen0","pricing_plan_id":"free"},{"bike_id":"023b5b07-0e8b-4c75-8fb5-6334cadf056a","system_id":"levelo_inurba_marseille","lat":43.29098,"lon":5.38118,"is_reserved":false,"is_disabled":false,"rental_uris":{"android":"levelo://app?vid=023b5b07-0e8b-4c75-8fb5-6334cadf056a","ios":"levelo://app?vid=023b5b07-0e8b-4c75-8fb5-6334cadf056a"},"vehicle_type_id":"4","last_reported":1679612830,"current_range_meters":22000,"station_id":"ce4bh512rcd13ifvqe2g","pricing_plan_id":"free"},{"bike_id":"817d7213-a1c3-46be-9b40-be05d1fb1b06","system_id":"levelo_inurba_marseille","lat":43.28856,"lon":5.358371,"is_reserved":false,"is_disabled":false,"rental_uris":{"android":"levelo://app?vid=817d7213-a1c3-46be-9b40-be05d1fb1b06","ios":"levelo://app?vid=817d7213-a1c3-46be-9b40-be05d1fb1b06"},"vehicle_type_id":"4","last_reported":1679612830,"current_range_meters":2400,"station_id":"ce4bhb12rcd13ifvqem0","pricing_plan_id":"free"},{"bike_id":"d58e0f7c-cd5b-4da0-a13e-a1b9f14cb2e9","system_id":"levelo_inurba_marseille","lat":43.28856,"lon":5.358371,"is_reserved":false,"is_disabled":false,"rental_uris":{"android":"levelo://app?vid=d58e0f7c-cd5b-4da0-a13e-a1b9f14cb2e9","ios":"levelo://app?vid=d58e0f7c-cd5b-4da0-a13e-a1b9f14cb2e9"},"vehicle_type_id":"4","last_reported":1679612830,"current_range_meters":11600,"station_id":"ce4bhb12rcd13ifvqem0","pricing_plan_id":"free"},{"bike_id":"24cde673-0b41-40c6-857a-b71a0ea21547","system_id":"levelo_inurba_marseille","lat":43.28856,"lon":5.358371,"is_reserved":false,"is_disabled":false,"rental_uris":{"android":"levelo://app?vid=24cde673-0b41-40c6-857a-b71a0ea21547","ios":"levelo://app?vid=24cde673-0b41-40c6-857a-b71a0ea21547"},"vehicle_type_id":"4","last_reported":1679612830,"current_range_meters":8800,"station_id":"ce4bhb12rcd13ifvqem0","pricing_plan_id":"free"},{"bike_id":"cec634e2-1399-4d05-bcc0-fde6f5c74a3a","system_id":"levelo_inurba_marseille","lat":43.306412,"lon":5.401035,"is_reserved":false,"is_disabled":false,"rental_uris":{"android":"levelo://app?vid=cec634e2-1399-4d05-bcc0-fde6f5c74a3a","ios":"levelo://app?vid=cec634e2-1399-4d05-bcc0-fde6f5c74a3a"},"vehicle_type_id":"4","last_reported":1679612830,"current_range_meters":29200,"station_id":"ce4bh112rcd13ifvqda0","pricing_plan_id":"free"},{"bike_id":"71658de0-4cc2-4523-be1c-30b02d72f6fb","system_id":"levelo_inurba_marseille","lat":43.301117,"lon":5.398795,"is_reserved":false,"is_disabled":false,"rental_uris":{"android":"levelo://app?vid=71658de0-4cc2-4523-be1c-30b02d72f6fb","ios":"levelo://app?vid=71658de0-4cc2-4523-be1c-30b02d72f6fb"},"vehicle_type_id":"4","last_reported":1679612830,"current_range_meters":14800,"station_id":"ce4bh0h2rcd13ifvqd40","pricing_plan_id":"free"},{"bike_id":"37ab41f8-f4fd-4a47-8df0-c42f28aed2ab","system_id":"levelo_inurba_marseille","lat":43.301117,"lon":5.398795,"is_reserved":false,"is_disabled":false,"rental_uris":{"android":"levelo://app?vid=37ab41f8-f4fd-4a47-8df0-c42f28aed2ab","ios":"levelo://app?vid=37ab41f8-f4fd-4a47-8df0-c42f28aed2ab"},"vehicle_type_id":"4","last_reported":1679612830,"current_range_meters":13200,"station_id":"ce4bh0h2rcd13ifvqd40","pricing_plan_id":"free"},{"bike_id":"13142b57-c169-4d6c-8215-40f6ac6295eb","system_id":"levelo_inurba_marseille","lat":43.29538,"lon":5.39404,"is_reserved":false,"is_disabled":false,"rental_uris":{"android":"levelo://app?vid=13142b57-c169-4d6c-8215-40f6ac6295eb","ios":"levelo://app?vid=13142b57-c169-4d6c-8215-40f6ac6295eb"},"vehicle_type_id":"4","last_reported":1679612830,"current_range_meters":21200,"station_id":"ce4bh212rcd13ifvqde0","pricing_plan_id":"free"},{"bike_id":"d616885a-2456-4427-a8ed-4399df90e767","system_id":"levelo_inurba_marseille","lat":43.302759,"lon":5.400793,"is_reserved":false,"is_disabled":false,"rental_uris":{"android":"levelo://app?vid=d616885a-2456-4427-a8ed-4399df90e767","ios":"levelo://app?vid=d616885a-2456-4427-a8ed-4399df90e767"},"vehicle_type_id":"4","last_reported":1679612830,"current_range_meters":10400,"station_id":"ce4bgvh2rcd13ifvqcs0","pricing_plan_id":"free"},{"bike_id":"8b42dae2-a9b5-415b-9c1c-13d8f5cf117b","system_id":"levelo_inurba_marseille","lat":43.29523,"lon":5.39401,"is_reserved":false,"is_disabled":false,"rental_uris":{"android":"levelo://app?vid=8b42dae2-a9b5-415b-9c1c-13d8f5cf117b","ios":"levelo://app?vid=8b42dae2-a9b5-415b-9c1c-13d8f5cf117b"},"vehicle_type_id":"4","last_reported":1679612830,"current_range_meters":12400,"station_id":"ce4bh212rcd13ifvqde0","pricing_plan_id":"free"},{"bike_id":"c10df012-f98d-44ad-95a0-f169eddcbe87","system_id":"levelo_inurba_marseille","lat":43.29524,"lon":5.39404,"is_reserved":false,"is_disabled":false,"rental_uris":{"android":"levelo://app?vid=c10df012-f98d-44ad-95a0-f169eddcbe87","ios":"levelo://app?vid=c10df012-f98d-44ad-95a0-f169eddcbe87"},"vehicle_type_id":"4","last_reported":1679612830,"current_range_meters":17200,"station_id":"ce4bh212rcd13ifvqde0","pricing_plan_id":"free"},{"bike_id":"a721a32b-8ecf-4822-9be6-a7e653254b94","system_id":"levelo_inurba_marseille","lat":43.295233,"lon":5.394037,"is_reserved":false,"is_disabled":false,"rental_uris":{"android":"levelo://app?vid=a721a32b-8ecf-4822-9be6-a7e653254b94","ios":"levelo://app?vid=a721a32b-8ecf-4822-9be6-a7e653254b94"},"vehicle_type_id":"4","last_reported":1679612830,"current_range_meters":30400,"station_id":"ce4bh212rcd13ifvqde0","pricing_plan_id":"free"},{"bike_id":"85d2d0b7-a392-4575-9405-c657c685f84d","system_id":"levelo_inurba_marseille","lat":43.302759,"lon":5.400793,"is_reserved":false,"is_disabled":false,"rental_uris":{"android":"levelo://app?vid=85d2d0b7-a392-4575-9405-c657c685f84d","ios":"levelo://app?vid=85d2d0b7-a392-4575-9405-c657c685f84d"},"vehicle_type_id":"4","last_reported":1679612830,"current_range_meters":5200,"station_id":"ce4bgvh2rcd13ifvqcs0","pricing_plan_id":"free"},{"bike_id":"69b910b5-2db4-494d-8765-0dc61d04a7af","system_id":"levelo_inurba_marseille","lat":43.286039,"lon":5.370679,"is_reserved":false,"is_disabled":false,"rental_uris":{"android":"levelo://app?vid=69b910b5-2db4-494d-8765-0dc61d04a7af","ios":"levelo://app?vid=69b910b5-2db4-494d-8765-0dc61d04a7af"},"vehicle_type_id":"4","last_reported":1679612830,"current_range_meters":9600,"station_id":"ce4bht12rcd13ifvqi60","pricing_plan_id":"free"},{"bike_id":"6c2a54ad-f7f7-4ced-9c90-f797afe58bbc","system_id":"levelo_inurba_marseille","lat":43.287185,"lon":5.379373,"is_reserved":false,"is_disabled":false,"rental_uris":{"android":"levelo://app?vid=6c2a54ad-f7f7-4ced-9c90-f797afe58bbc","ios":"levelo://app?vid=6c2a54ad-f7f7-4ced-9c90-f797afe58bbc"},"vehicle_type_id":"4","last_reported":1679612830,"current_range_meters":0,"station_id":"ce4bh9p2rcd13ifvqec0","pricing_plan_id":"free"},{"bike_id":"6fb7591e-cbfa-4408-bf91-9f6d122663f3","system_id":"levelo_inurba_marseille","lat":43.30032,"lon":5.40104,"is_reserved":false,"is_disabled":false,"rental_uris":{"android":"levelo://app?vid=6fb7591e-cbfa-4408-bf91-9f6d122663f3","ios":"levelo://app?vid=6fb7591e-cbfa-4408-bf91-9f6d122663f3"},"vehicle_type_id":"4","last_reported":1679612830,"current_range_meters":12800,"station_id":"","pricing_plan_id":"free"},{"bike_id":"8f0e190f-7304-4b63-b71d-5a4f0181797e","system_id":"levelo_inurba_marseille","lat":43.28707,"lon":5.35204,"is_reserved":false,"is_disabled":false,"rental_uris":{"android":"levelo://app?vid=8f0e190f-7304-4b63-b71d-5a4f0181797e","ios":"levelo://app?vid=8f0e190f-7304-4b63-b71d-5a4f0181797e"},"vehicle_type_id":"4","last_reported":1679612830,"current_range_meters":1600,"station_id":"","pricing_plan_id":"free"},{"bike_id":"c25b5d73-dcbd-455a-8a1f-6bd6c0216455","system_id":"levelo_inurba_marseille","lat":43.284538,"lon":5.358657,"is_reserved":false,"is_disabled":false,"rental_uris":{"android":"levelo://app?vid=c25b5d73-dcbd-455a-8a1f-6bd6c0216455","ios":"levelo://app?vid=c25b5d73-dcbd-455a-8a1f-6bd6c0216455"},"vehicle_type_id":"4","last_reported":1679612830,"current_range_meters":23200,"station_id":"ce4bhah2rcd13ifvqei0","pricing_plan_id":"free"},{"bike_id":"e648cb12-43a9-4574-8377-9398eeff2c9b","system_id":"levelo_inurba_marseille","lat":43.284538,"lon":5.358657,"is_reserved":false,"is_disabled":false,"rental_uris":{"android":"levelo://app?vid=e648cb12-43a9-4574-8377-9398eeff2c9b","ios":"levelo://app?vid=e648cb12-43a9-4574-8377-9398eeff2c9b"},"vehicle_type_id":"4","last_reported":1679612830,"current_range_meters":8000,"station_id":"ce4bhah2rcd13ifvqei0","pricing_plan_id":"free"},{"bike_id":"0642d62b-d125-488d-92a8-1d881d1d966b","system_id":"levelo_inurba_marseille","lat":43.284534,"lon":5.358662,"is_reserved":false,"is_disabled":false,"rental_uris":{"android":"levelo://app?vid=0642d62b-d125-488d-92a8-1d881d1d966b","ios":"levelo://app?vid=0642d62b-d125-488d-92a8-1d881d1d966b"},"vehicle_type_id":"4","last_reported":1679612830,"current_range_meters":0,"station_id":"ce4bhah2rcd13ifvqei0","pricing_plan_id":"free"},{"bike_id":"d31ff6b6-3240-431c-a002-82dcbfdd581c","system_id":"levelo_inurba_marseille","lat":43.284534,"lon":5.358662,"is_reserved":false,"is_disabled":false,"rental_uris":{"android":"levelo://app?vid=d31ff6b6-3240-431c-a002-82dcbfdd581c","ios":"levelo://app?vid=d31ff6b6-3240-431c-a002-82dcbfdd581c"},"vehicle_type_id":"4","last_reported":1679612830,"current_range_meters":6400,"station_id":"ce4bhah2rcd13ifvqei0","pricing_plan_id":"free"},{"bike_id":"dc8def51-d9fd-470d-be22-2512c93f3cb9","system_id":"levelo_inurba_marseille","lat":43.28615,"lon":5.38356,"is_reserved":false,"is_disabled":false,"rental_uris":{"android":"levelo://app?vid=dc8def51-d9fd-470d-be22-2512c93f3cb9","ios":"levelo://app?vid=dc8def51-d9fd-470d-be22-2512c93f3cb9"},"vehicle_type_id":"4","last_reported":1679612830,"current_range_meters":10000,"station_id":"","pricing_plan_id":"free"},{"bike_id":"57cd4df0-5836-451c-81bb-fb23b627f97c","system_id":"levelo_inurba_marseille","lat":43.295713,"lon":5.399639,"is_reserved":false,"is_disabled":false,"rental_uris":{"android":"levelo://app?vid=57cd4df0-5836-451c-81bb-fb23b627f97c","ios":"levelo://app?vid=57cd4df0-5836-451c-81bb-fb23b627f97c"},"vehicle_type_id":"4","last_reported":1679612830,"current_range_meters":6800,"station_id":"ce4bh312rcd13ifvqdj0","pricing_plan_id":"free"},{"bike_id":"da66da3d-4f99-4a6d-9918-f7e4a8c7295f","system_id":"levelo_inurba_marseille","lat":43.295713,"lon":5.399639,"is_reserved":false,"is_disabled":false,"rental_uris":{"android":"levelo://app?vid=da66da3d-4f99-4a6d-9918-f7e4a8c7295f","ios":"levelo://app?vid=da66da3d-4f99-4a6d-9918-f7e4a8c7295f"},"vehicle_type_id":"4","last_reported":1679612830,"current_range_meters":30000,"station_id":"ce4bh312rcd13ifvqdj0","pricing_plan_id":"free"},{"bike_id":"87589543-64ec-4888-a27b-44c8b86f697e","system_id":"levelo_inurba_marseille","lat":43.295713,"lon":5.399639,"is_reserved":false,"is_disabled":false,"rental_uris":{"android":"levelo://app?vid=87589543-64ec-4888-a27b-44c8b86f697e","ios":"levelo://app?vid=87589543-64ec-4888-a27b-44c8b86f697e"},"vehicle_type_id":"4","last_reported":1679612830,"current_range_meters":0,"station_id":"ce4bh312rcd13ifvqdj0","pricing_plan_id":"free"},{"bike_id":"7be4842c-32f4-4d6e-aba2-7cec6dc1e36d","system_id":"levelo_inurba_marseille","lat":43.295713,"lon":5.399639,"is_reserved":false,"is_disabled":false,"rental_uris":{"android":"levelo://app?vid=7be4842c-32f4-4d6e-aba2-7cec6dc1e36d","ios":"levelo://app?vid=7be4842c-32f4-4d6e-aba2-7cec6dc1e36d"},"vehicle_type_id":"4","last_reported":1679612830,"current_range_meters":13600,"station_id":"ce4bh312rcd13ifvqdj0","pricing_plan_id":"free"},{"bike_id":"dc8250f8-1868-4dae-8bd2-f6d664abb6d7","system_id":"levelo_inurba_marseille","lat":43.30381,"lon":5.406753,"is_reserved":false,"is_disabled":false,"rental_uris":{"android":"levelo://app?vid=dc8250f8-1868-4dae-8bd2-f6d664abb6d7","ios":"levelo://app?vid=dc8250f8-1868-4dae-8bd2-f6d664abb6d7"},"vehicle_type_id":"4","last_reported":1679612830,"current_range_meters":22000,"station_id":"","pricing_plan_id":"free"},{"bike_id":"afaa8445-e245-4684-806c-675ffbbf2511","system_id":"levelo_inurba_marseille","lat":43.337168,"lon":5.391825,"is_reserved":false,"is_disabled":false,"rental_uris":{"android":"levelo://app?vid=afaa8445-e245-4684-806c-675ffbbf2511","ios":"levelo://app?vid=afaa8445-e245-4684-806c-675ffbbf2511"},"vehicle_type_id":"4","last_reported":1679612830,"current_range_meters":22800,"station_id":"ce4bhr92rcd13ifvqhsg","pricing_plan_id":"free"},{"bike_id":"c965e66f-a883-409e-91e6-bfa2c8244618","system_id":"levelo_inurba_marseille","lat":43.323464,"lon":5.406297,"is_reserved":false,"is_disabled":false,"rental_uris":{"android":"levelo://app?vid=c965e66f-a883-409e-91e6-bfa2c8244618","ios":"levelo://app?vid=c965e66f-a883-409e-91e6-bfa2c8244618"},"vehicle_type_id":"4","last_reported":1679612830,"current_range_meters":23200,"station_id":"ce4bhq92rcd13ifvqhjg","pricing_plan_id":"free"},{"bike_id":"f60a3f7a-4759-4340-b610-236a55782070","system_id":"levelo_inurba_marseille","lat":43.323464,"lon":5.406297,"is_reserved":false,"is_disabled":false,"rental_uris":{"android":"levelo://app?vid=f60a3f7a-4759-4340-b610-236a55782070","ios":"levelo://app?vid=f60a3f7a-4759-4340-b610-236a55782070"},"vehicle_type_id":"4","last_reported":1679612830,"current_range_meters":24800,"station_id":"ce4bhq92rcd13ifvqhjg","pricing_plan_id":"free"},{"bike_id":"4d620c35-1fbc-45a0-b5f4-bbe4f03f1f11","system_id":"levelo_inurba_marseille","lat":43.284787,"lon":5.384116,"is_reserved":false,"is_disabled":false,"rental_uris":{"android":"levelo://app?vid=4d620c35-1fbc-45a0-b5f4-bbe4f03f1f11","ios":"levelo://app?vid=4d620c35-1fbc-45a0-b5f4-bbe4f03f1f11"},"vehicle_type_id":"4","last_reported":1679612830,"current_range_meters":2000,"station_id":"ce4bh512rcd13ifvqe3g","pricing_plan_id":"free"},{"bike_id":"6ecc1c13-2297-4901-8f24-ad5d454c3c55","system_id":"levelo_inurba_marseille","lat":43.28426,"lon":5.34997,"is_reserved":false,"is_disabled":false,"rental_uris":{"android":"levelo://app?vid=6ecc1c13-2297-4901-8f24-ad5d454c3c55","ios":"levelo://app?vid=6ecc1c13-2297-4901-8f24-ad5d454c3c55"},"vehicle_type_id":"4","last_reported":1679612830,"current_range_meters":16000,"station_id":"ce4bhbh2rcd13ifvqepg","pricing_plan_id":"free"},{"bike_id":"8df522d2-a8f8-4ca3-9ed6-02bda42f37b9","system_id":"levelo_inurba_marseille","lat":43.284219,"lon":5.3497,"is_reserved":false,"is_disabled":false,"rental_uris":{"android":"levelo://app?vid=8df522d2-a8f8-4ca3-9ed6-02bda42f37b9","ios":"levelo://app?vid=8df522d2-a8f8-4ca3-9ed6-02bda42f37b9"},"vehicle_type_id":"4","last_reported":1679612830,"current_range_meters":13200,"station_id":"ce4bhbh2rcd13ifvqepg","pricing_plan_id":"free"},{"bike_id":"7d86fcd2-76cd-42e2-adee-0c7241466595","system_id":"levelo_inurba_marseille","lat":43.28212,"lon":5.37698,"is_reserved":false,"is_disabled":false,"rental_uris":{"android":"levelo://app?vid=7d86fcd2-76cd-42e2-adee-0c7241466595","ios":"levelo://app?vid=7d86fcd2-76cd-42e2-adee-0c7241466595"},"vehicle_type_id":"4","last_reported":1679612830,"current_range_meters":7600,"station_id":"","pricing_plan_id":"free"},{"bike_id":"0a053ac5-f108-4062-826f-48ecc9871165","system_id":"levelo_inurba_marseille","lat":43.289363,"lon":5.396322,"is_reserved":false,"is_disabled":false,"rental_uris":{"android":"levelo://app?vid=0a053ac5-f108-4062-826f-48ecc9871165","ios":"levelo://app?vid=0a053ac5-f108-4062-826f-48ecc9871165"},"vehicle_type_id":"4","last_reported":1679612830,"current_range_meters":29200,"station_id":"ce4bh3h2rcd13ifvqdn0","pricing_plan_id":"free"},{"bike_id":"8f3aa175-b9ea-4089-a28d-fb4125b1c4a2","system_id":"levelo_inurba_marseille","lat":43.28039,"lon":5.369297,"is_reserved":false,"is_disabled":false,"rental_uris":{"android":"levelo://app?vid=8f3aa175-b9ea-4089-a28d-fb4125b1c4a2","ios":"levelo://app?vid=8f3aa175-b9ea-4089-a28d-fb4125b1c4a2"},"vehicle_type_id":"4","last_reported":1679612830,"current_range_meters":18800,"station_id":"ce4bha12rcd13ifvqef0","pricing_plan_id":"free"},{"bike_id":"804bf766-6bc9-49be-a374-b50d7424d2e7","system_id":"levelo_inurba_marseille","lat":43.281044,"lon":5.378308,"is_reserved":false,"is_disabled":false,"rental_uris":{"android":"levelo://app?vid=804bf766-6bc9-49be-a374-b50d7424d2e7","ios":"levelo://app?vid=804bf766-6bc9-49be-a374-b50d7424d2e7"},"vehicle_type_id":"4","last_reported":1679612830,"current_range_meters":19200,"station_id":"ce4bha12rcd13ifvqee0","pricing_plan_id":"free"},{"bike_id":"82c4dd35-848c-4c48-9a35-26ca25c92583","system_id":"levelo_inurba_marseille","lat":43.281044,"lon":5.378308,"is_reserved":false,"is_disabled":false,"rental_uris":{"android":"levelo://app?vid=82c4dd35-848c-4c48-9a35-26ca25c92583","ios":"levelo://app?vid=82c4dd35-848c-4c48-9a35-26ca25c92583"},"vehicle_type_id":"4","last_reported":1679612830,"current_range_meters":2400,"station_id":"ce4bha12rcd13ifvqee0","pricing_plan_id":"free"},{"bike_id":"665276c2-9b5e-43f0-88e4-1096fb068e81","system_id":"levelo_inurba_marseille","lat":43.281044,"lon":5.378308,"is_reserved":false,"is_disabled":false,"rental_uris":{"android":"levelo://app?vid=665276c2-9b5e-43f0-88e4-1096fb068e81","ios":"levelo://app?vid=665276c2-9b5e-43f0-88e4-1096fb068e81"},"vehicle_type_id":"4","last_reported":1679612830,"current_range_meters":0,"station_id":"ce4bha12rcd13ifvqee0","pricing_plan_id":"free"},{"bike_id":"530f460b-c0d6-4bdc-bc97-7dfcb1d82854","system_id":"levelo_inurba_marseille","lat":43.281044,"lon":5.378308,"is_reserved":false,"is_disabled":false,"rental_uris":{"android":"levelo://app?vid=530f460b-c0d6-4bdc-bc97-7dfcb1d82854","ios":"levelo://app?vid=530f460b-c0d6-4bdc-bc97-7dfcb1d82854"},"vehicle_type_id":"4","last_reported":1679612830,"current_range_meters":8400,"station_id":"ce4bha12rcd13ifvqee0","pricing_plan_id":"free"},{"bike_id":"ac551f60-6835-41ef-8124-8e7327497074","system_id":"levelo_inurba_marseille","lat":43.281044,"lon":5.378308,"is_reserved":false,"is_disabled":false,"rental_uris":{"android":"levelo://app?vid=ac551f60-6835-41ef-8124-8e7327497074","ios":"levelo://app?vid=ac551f60-6835-41ef-8124-8e7327497074"},"vehicle_type_id":"4","last_reported":1679612830,"current_range_meters":26000,"station_id":"ce4bha12rcd13ifvqee0","pricing_plan_id":"free"},{"bike_id":"3f49f160-fbd5-421d-9e5a-5a7c14d5cd6a","system_id":"levelo_inurba_marseille","lat":43.296263,"lon":5.40601,"is_reserved":false,"is_disabled":false,"rental_uris":{"android":"levelo://app?vid=3f49f160-fbd5-421d-9e5a-5a7c14d5cd6a","ios":"levelo://app?vid=3f49f160-fbd5-421d-9e5a-5a7c14d5cd6a"},"vehicle_type_id":"4","last_reported":1679612830,"current_range_meters":17200,"station_id":"ce4bh0h2rcd13ifvqd60","pricing_plan_id":"free"},{"bike_id":"bb73b885-2524-49b8-806f-785968092134","system_id":"levelo_inurba_marseille","lat":43.281044,"lon":5.378308,"is_reserved":false,"is_disabled":false,"rental_uris":{"android":"levelo://app?vid=bb73b885-2524-49b8-806f-785968092134","ios":"levelo://app?vid=bb73b885-2524-49b8-806f-785968092134"},"vehicle_type_id":"4","last_reported":1679612830,"current_range_meters":0,"station_id":"ce4bha12rcd13ifvqee0","pricing_plan_id":"free"},{"bike_id":"191ec2f5-0031-4184-ac2d-14f6f902fad9","system_id":"levelo_inurba_marseille","lat":43.296263,"lon":5.40601,"is_reserved":false,"is_disabled":false,"rental_uris":{"android":"levelo://app?vid=191ec2f5-0031-4184-ac2d-14f6f902fad9","ios":"levelo://app?vid=191ec2f5-0031-4184-ac2d-14f6f902fad9"},"vehicle_type_id":"4","last_reported":1679612830,"current_range_meters":28400,"station_id":"ce4bh0h2rcd13ifvqd60","pricing_plan_id":"free"},{"bike_id":"6412bd41-f9b0-4909-ab26-65ae71f76352","system_id":"levelo_inurba_marseille","lat":43.284462,"lon":5.392121,"is_reserved":false,"is_disabled":false,"rental_uris":{"android":"levelo://app?vid=6412bd41-f9b0-4909-ab26-65ae71f76352","ios":"levelo://app?vid=6412bd41-f9b0-4909-ab26-65ae71f76352"},"vehicle_type_id":"4","last_reported":1679612830,"current_range_meters":19200,"station_id":"ce4bhoh2rcd13ifvqh5g","pricing_plan_id":"free"},{"bike_id":"b1fe135b-9ff8-4b8b-aedf-19d4b801b8d6","system_id":"levelo_inurba_marseille","lat":43.304188,"lon":5.412904,"is_reserved":false,"is_disabled":false,"rental_uris":{"android":"levelo://app?vid=b1fe135b-9ff8-4b8b-aedf-19d4b801b8d6","ios":"levelo://app?vid=b1fe135b-9ff8-4b8b-aedf-19d4b801b8d6"},"vehicle_type_id":"4","last_reported":1679612830,"current_range_meters":31600,"station_id":"ce4bhop2rcd13ifvqh8g","pricing_plan_id":"free"},{"bike_id":"2c7033f1-7906-494e-ac08-8f4eca08c9e4","system_id":"levelo_inurba_marseille","lat":43.304188,"lon":5.412904,"is_reserved":false,"is_disabled":false,"rental_uris":{"android":"levelo://app?vid=2c7033f1-7906-494e-ac08-8f4eca08c9e4","ios":"levelo://app?vid=2c7033f1-7906-494e-ac08-8f4eca08c9e4"},"vehicle_type_id":"4","last_reported":1679612830,"current_range_meters":25200,"station_id":"ce4bhop2rcd13ifvqh8g","pricing_plan_id":"free"},{"bike_id":"d0d7423d-6312-43b5-82ba-28f1fa693e62","system_id":"levelo_inurba_marseille","lat":43.28707,"lon":5.39978,"is_reserved":false,"is_disabled":false,"rental_uris":{"android":"levelo://app?vid=d0d7423d-6312-43b5-82ba-28f1fa693e62","ios":"levelo://app?vid=d0d7423d-6312-43b5-82ba-28f1fa693e62"},"vehicle_type_id":"4","last_reported":1679612830,"current_range_meters":0,"station_id":"ce4bho92rcd13ifvqh3g","pricing_plan_id":"free"},{"bike_id":"c2e37ab8-905e-4a3a-8a36-76bfaf260242","system_id":"levelo_inurba_marseille","lat":43.287154,"lon":5.399979,"is_reserved":false,"is_disabled":false,"rental_uris":{"android":"levelo://app?vid=c2e37ab8-905e-4a3a-8a36-76bfaf260242","ios":"levelo://app?vid=c2e37ab8-905e-4a3a-8a36-76bfaf260242"},"vehicle_type_id":"4","last_reported":1679612830,"current_range_meters":30800,"station_id":"ce4bho92rcd13ifvqh3g","pricing_plan_id":"free"},{"bike_id":"ad633b5d-ad20-4826-b030-33680aa3860b","system_id":"levelo_inurba_marseille","lat":43.287154,"lon":5.399979,"is_reserved":false,"is_disabled":false,"rental_uris":{"android":"levelo://app?vid=ad633b5d-ad20-4826-b030-33680aa3860b","ios":"levelo://app?vid=ad633b5d-ad20-4826-b030-33680aa3860b"},"vehicle_type_id":"4","last_reported":1679612830,"current_range_meters":0,"station_id":"ce4bho92rcd13ifvqh3g","pricing_plan_id":"free"},{"bike_id":"cc7b351e-7afb-4009-acbb-736d39020b4b","system_id":"levelo_inurba_marseille","lat":43.287154,"lon":5.399979,"is_reserved":false,"is_disabled":false,"rental_uris":{"android":"levelo://app?vid=cc7b351e-7afb-4009-acbb-736d39020b4b","ios":"levelo://app?vid=cc7b351e-7afb-4009-acbb-736d39020b4b"},"vehicle_type_id":"4","last_reported":1679612830,"current_range_meters":2400,"station_id":"ce4bho92rcd13ifvqh3g","pricing_plan_id":"free"},{"bike_id":"149a1e21-c6ce-41ce-a5b6-80c52755c623","system_id":"levelo_inurba_marseille","lat":43.29963,"lon":5.41329,"is_reserved":false,"is_disabled":false,"rental_uris":{"android":"levelo://app?vid=149a1e21-c6ce-41ce-a5b6-80c52755c623","ios":"levelo://app?vid=149a1e21-c6ce-41ce-a5b6-80c52755c623"},"vehicle_type_id":"4","last_reported":1679612830,"current_range_meters":1600,"station_id":"","pricing_plan_id":"free"},{"bike_id":"0e0013a0-13dd-4465-b09c-e86647bd8fc0","system_id":"levelo_inurba_marseille","lat":43.325243,"lon":5.414326,"is_reserved":false,"is_disabled":false,"rental_uris":{"android":"levelo://app?vid=0e0013a0-13dd-4465-b09c-e86647bd8fc0","ios":"levelo://app?vid=0e0013a0-13dd-4465-b09c-e86647bd8fc0"},"vehicle_type_id":"4","last_reported":1679612830,"current_range_meters":3200,"station_id":"ce4bhq12rcd13ifvqhhg","pricing_plan_id":"free"},{"bike_id":"c8fb0abd-08c2-4f08-916e-a689965a56a7","system_id":"levelo_inurba_marseille","lat":43.292569,"lon":5.409107,"is_reserved":false,"is_disabled":false,"rental_uris":{"android":"levelo://app?vid=c8fb0abd-08c2-4f08-916e-a689965a56a7","ios":"levelo://app?vid=c8fb0abd-08c2-4f08-916e-a689965a56a7"},"vehicle_type_id":"4","last_reported":1679612830,"current_range_meters":31600,"station_id":"ce4bh192rcd13ifvqdc0","pricing_plan_id":"free"},{"bike_id":"32e6cdf0-b6f1-421b-a661-4ede89b40162","system_id":"levelo_inurba_marseille","lat":43.292569,"lon":5.409107,"is_reserved":false,"is_disabled":false,"rental_uris":{"android":"levelo://app?vid=32e6cdf0-b6f1-421b-a661-4ede89b40162","ios":"levelo://app?vid=32e6cdf0-b6f1-421b-a661-4ede89b40162"},"vehicle_type_id":"4","last_reported":1679612830,"current_range_meters":0,"station_id":"ce4bh192rcd13ifvqdc0","pricing_plan_id":"free"},{"bike_id":"368f065b-012a-4a96-a22e-f370e198d9ef","system_id":"levelo_inurba_marseille","lat":43.276177,"lon":5.361171,"is_reserved":false,"is_disabled":false,"rental_uris":{"android":"levelo://app?vid=368f065b-012a-4a96-a22e-f370e198d9ef","ios":"levelo://app?vid=368f065b-012a-4a96-a22e-f370e198d9ef"},"vehicle_type_id":"4","last_reported":1679612830,"current_range_meters":6000,"station_id":"ce4bgj92rcd13ifvqbe0","pricing_plan_id":"free"},{"bike_id":"ec58f823-19ea-4737-b88f-ab18b5587585","system_id":"levelo_inurba_marseille","lat":43.2808,"lon":5.3965,"is_reserved":false,"is_disabled":false,"rental_uris":{"android":"levelo://app?vid=ec58f823-19ea-4737-b88f-ab18b5587585","ios":"levelo://app?vid=ec58f823-19ea-4737-b88f-ab18b5587585"},"vehicle_type_id":"4","last_reported":1679612830,"current_range_meters":20800,"station_id":"ce4bho12rcd13ifvqh2g","pricing_plan_id":"free"},{"bike_id":"79428534-c629-47e9-8830-f9ec147784ca","system_id":"levelo_inurba_marseille","lat":43.27374,"lon":5.36268,"is_reserved":false,"is_disabled":false,"rental_uris":{"android":"levelo://app?vid=79428534-c629-47e9-8830-f9ec147784ca","ios":"levelo://app?vid=79428534-c629-47e9-8830-f9ec147784ca"},"vehicle_type_id":"4","last_reported":1679612830,"current_range_meters":0,"station_id":"","pricing_plan_id":"free"},{"bike_id":"e51dad54-707f-4866-8369-cc1a90712b4b","system_id":"levelo_inurba_marseille","lat":43.273613,"lon":5.362705,"is_reserved":false,"is_disabled":false,"rental_uris":{"android":"levelo://app?vid=e51dad54-707f-4866-8369-cc1a90712b4b","ios":"levelo://app?vid=e51dad54-707f-4866-8369-cc1a90712b4b"},"vehicle_type_id":"4","last_reported":1679612830,"current_range_meters":19600,"station_id":"ce4bhbh2rcd13ifvqeo0","pricing_plan_id":"free"},{"bike_id":"170ec0bb-c402-4d21-9410-5d22df5044b2","system_id":"levelo_inurba_marseille","lat":43.33614,"lon":5.41012,"is_reserved":false,"is_disabled":false,"rental_uris":{"android":"levelo://app?vid=170ec0bb-c402-4d21-9410-5d22df5044b2","ios":"levelo://app?vid=170ec0bb-c402-4d21-9410-5d22df5044b2"},"vehicle_type_id":"4","last_reported":1679612830,"current_range_meters":10800,"station_id":"","pricing_plan_id":"free"},{"bike_id":"79618a08-b79e-4878-93c5-ad5b27b93bc5","system_id":"levelo_inurba_marseille","lat":43.336101,"lon":5.410216,"is_reserved":false,"is_disabled":false,"rental_uris":{"android":"levelo://app?vid=79618a08-b79e-4878-93c5-ad5b27b93bc5","ios":"levelo://app?vid=79618a08-b79e-4878-93c5-ad5b27b93bc5"},"vehicle_type_id":"4","last_reported":1679612830,"current_range_meters":26400,"station_id":"ce4bhqh2rcd13ifvqhmg","pricing_plan_id":"free"},{"bike_id":"edd90c03-a552-4739-b9e9-9835d5cccf87","system_id":"levelo_inurba_marseille","lat":43.33608,"lon":5.41025,"is_reserved":false,"is_disabled":false,"rental_uris":{"android":"levelo://app?vid=edd90c03-a552-4739-b9e9-9835d5cccf87","ios":"levelo://app?vid=edd90c03-a552-4739-b9e9-9835d5cccf87"},"vehicle_type_id":"4","last_reported":1679612830,"current_range_meters":13600,"station_id":"ce4bhqh2rcd13ifvqhmg","pricing_plan_id":"free"},{"bike_id":"e657cac8-f785-4627-a8b3-c1dfb22f6934","system_id":"levelo_inurba_marseille","lat":43.33608,"lon":5.41028,"is_reserved":false,"is_disabled":false,"rental_uris":{"android":"levelo://app?vid=e657cac8-f785-4627-a8b3-c1dfb22f6934","ios":"levelo://app?vid=e657cac8-f785-4627-a8b3-c1dfb22f6934"},"vehicle_type_id":"4","last_reported":1679612830,"current_range_meters":31200,"station_id":"ce4bhqh2rcd13ifvqhmg","pricing_plan_id":"free"},{"bike_id":"ebfd4039-d5fc-4a7d-9516-bd4ef30ff287","system_id":"levelo_inurba_marseille","lat":43.336134,"lon":5.410341,"is_reserved":false,"is_disabled":false,"rental_uris":{"android":"levelo://app?vid=ebfd4039-d5fc-4a7d-9516-bd4ef30ff287","ios":"levelo://app?vid=ebfd4039-d5fc-4a7d-9516-bd4ef30ff287"},"vehicle_type_id":"4","last_reported":1679612830,"current_range_meters":30000,"station_id":"ce4bhqh2rcd13ifvqhmg","pricing_plan_id":"free"},{"bike_id":"965aede3-599d-44f5-992c-e0956947bfe1","system_id":"levelo_inurba_marseille","lat":43.33609,"lon":5.41032,"is_reserved":false,"is_disabled":false,"rental_uris":{"android":"levelo://app?vid=965aede3-599d-44f5-992c-e0956947bfe1","ios":"levelo://app?vid=965aede3-599d-44f5-992c-e0956947bfe1"},"vehicle_type_id":"4","last_reported":1679612830,"current_range_meters":0,"station_id":"ce4bhqh2rcd13ifvqhmg","pricing_plan_id":"free"},{"bike_id":"03fc68aa-e700-465b-9d7b-b52b6d5a93d9","system_id":"levelo_inurba_marseille","lat":43.336135,"lon":5.41028,"is_reserved":false,"is_disabled":false,"rental_uris":{"android":"levelo://app?vid=03fc68aa-e700-465b-9d7b-b52b6d5a93d9","ios":"levelo://app?vid=03fc68aa-e700-465b-9d7b-b52b6d5a93d9"},"vehicle_type_id":"4","last_reported":1679612830,"current_range_meters":3600,"station_id":"ce4bhqh2rcd13ifvqhmg","pricing_plan_id":"free"},{"bike_id":"304fd236-21c6-42f9-8c92-e4b2a46a4a42","system_id":"levelo_inurba_marseille","lat":43.3361,"lon":5.41033,"is_reserved":false,"is_disabled":false,"rental_uris":{"android":"levelo://app?vid=304fd236-21c6-42f9-8c92-e4b2a46a4a42","ios":"levelo://app?vid=304fd236-21c6-42f9-8c92-e4b2a46a4a42"},"vehicle_type_id":"4","last_reported":1679612830,"current_range_meters":3600,"station_id":"ce4bhqh2rcd13ifvqhmg","pricing_plan_id":"free"},{"bike_id":"34a4cbd3-9eae-41a7-9aa7-8deb6976c031","system_id":"levelo_inurba_marseille","lat":43.33612,"lon":5.41036,"is_reserved":false,"is_disabled":false,"rental_uris":{"android":"levelo://app?vid=34a4cbd3-9eae-41a7-9aa7-8deb6976c031","ios":"levelo://app?vid=34a4cbd3-9eae-41a7-9aa7-8deb6976c031"},"vehicle_type_id":"4","last_reported":1679612830,"current_range_meters":17600,"station_id":"ce4bhqh2rcd13ifvqhmg","pricing_plan_id":"free"},{"bike_id":"4aac838b-1cd2-4625-aa08-2deed5d31b85","system_id":"levelo_inurba_marseille","lat":43.336123,"lon":5.410391,"is_reserved":false,"is_disabled":false,"rental_uris":{"android":"levelo://app?vid=4aac838b-1cd2-4625-aa08-2deed5d31b85","ios":"levelo://app?vid=4aac838b-1cd2-4625-aa08-2deed5d31b85"},"vehicle_type_id":"4","last_reported":1679612830,"current_range_meters":8400,"station_id":"ce4bhqh2rcd13ifvqhmg","pricing_plan_id":"free"},{"bike_id":"01b59643-9168-4c12-8f52-7038a31f37e6","system_id":"levelo_inurba_marseille","lat":43.3273,"lon":5.41777,"is_reserved":false,"is_disabled":false,"rental_uris":{"android":"levelo://app?vid=01b59643-9168-4c12-8f52-7038a31f37e6","ios":"levelo://app?vid=01b59643-9168-4c12-8f52-7038a31f37e6"},"vehicle_type_id":"4","last_reported":1679612830,"current_range_meters":400,"station_id":"","pricing_plan_id":"free"},{"bike_id":"47ffa56f-0859-49c5-8d6d-e713f1e99c24","system_id":"levelo_inurba_marseille","lat":43.317121,"lon":5.423936,"is_reserved":false,"is_disabled":false,"rental_uris":{"android":"levelo://app?vid=47ffa56f-0859-49c5-8d6d-e713f1e99c24","ios":"levelo://app?vid=47ffa56f-0859-49c5-8d6d-e713f1e99c24"},"vehicle_type_id":"4","last_reported":1679612830,"current_range_meters":30400,"station_id":"ce4bhp92rcd13ifvqhbg","pricing_plan_id":"free"},{"bike_id":"db6dced4-0d76-41f6-ab27-46eb5910fc20","system_id":"levelo_inurba_marseille","lat":43.27421,"lon":5.39426,"is_reserved":false,"is_disabled":false,"rental_uris":{"android":"levelo://app?vid=db6dced4-0d76-41f6-ab27-46eb5910fc20","ios":"levelo://app?vid=db6dced4-0d76-41f6-ab27-46eb5910fc20"},"vehicle_type_id":"4","last_reported":1679612830,"current_range_meters":0,"station_id":"","pricing_plan_id":"free"},{"bike_id":"a0a20e2b-cc6a-4187-9bfd-707e895768d3","system_id":"levelo_inurba_marseille","lat":43.304096,"lon":5.425385,"is_reserved":false,"is_disabled":false,"rental_uris":{"android":"levelo://app?vid=a0a20e2b-cc6a-4187-9bfd-707e895768d3","ios":"levelo://app?vid=a0a20e2b-cc6a-4187-9bfd-707e895768d3"},"vehicle_type_id":"4","last_reported":1679612830,"current_range_meters":24800,"station_id":"ce4bhoh2rcd13ifvqh6g","pricing_plan_id":"free"},{"bike_id":"09a30c90-5f94-4d20-b022-542e377fd6e9","system_id":"levelo_inurba_marseille","lat":43.304096,"lon":5.425385,"is_reserved":false,"is_disabled":false,"rental_uris":{"android":"levelo://app?vid=09a30c90-5f94-4d20-b022-542e377fd6e9","ios":"levelo://app?vid=09a30c90-5f94-4d20-b022-542e377fd6e9"},"vehicle_type_id":"4","last_reported":1679612830,"current_range_meters":26400,"station_id":"ce4bhoh2rcd13ifvqh6g","pricing_plan_id":"free"},{"bike_id":"c69449d1-639f-43b2-8543-99e803cc71dc","system_id":"levelo_inurba_marseille","lat":43.304096,"lon":5.425385,"is_reserved":false,"is_disabled":false,"rental_uris":{"android":"levelo://app?vid=c69449d1-639f-43b2-8543-99e803cc71dc","ios":"levelo://app?vid=c69449d1-639f-43b2-8543-99e803cc71dc"},"vehicle_type_id":"4","last_reported":1679612830,"current_range_meters":20000,"station_id":"ce4bhoh2rcd13ifvqh6g","pricing_plan_id":"free"},{"bike_id":"8d79ebce-e33d-4f9f-a429-0a986a2a3521","system_id":"levelo_inurba_marseille","lat":43.304096,"lon":5.425385,"is_reserved":false,"is_disabled":false,"rental_uris":{"android":"levelo://app?vid=8d79ebce-e33d-4f9f-a429-0a986a2a3521","ios":"levelo://app?vid=8d79ebce-e33d-4f9f-a429-0a986a2a3521"},"vehicle_type_id":"4","last_reported":1679612830,"current_range_meters":24000,"station_id":"ce4bhoh2rcd13ifvqh6g","pricing_plan_id":"free"},{"bike_id":"c73e3cd7-043f-478c-8083-be67fecaa77a","system_id":"levelo_inurba_marseille","lat":43.304096,"lon":5.425385,"is_reserved":false,"is_disabled":false,"rental_uris":{"android":"levelo://app?vid=c73e3cd7-043f-478c-8083-be67fecaa77a","ios":"levelo://app?vid=c73e3cd7-043f-478c-8083-be67fecaa77a"},"vehicle_type_id":"4","last_reported":1679612830,"current_range_meters":25200,"station_id":"ce4bhoh2rcd13ifvqh6g","pricing_plan_id":"free"},{"bike_id":"d029861f-3bdc-4ab9-99ce-694fdf62ab1e","system_id":"levelo_inurba_marseille","lat":43.30417,"lon":5.42545,"is_reserved":false,"is_disabled":false,"rental_uris":{"android":"levelo://app?vid=d029861f-3bdc-4ab9-99ce-694fdf62ab1e","ios":"levelo://app?vid=d029861f-3bdc-4ab9-99ce-694fdf62ab1e"},"vehicle_type_id":"4","last_reported":1679612830,"current_range_meters":27600,"station_id":"ce4bhoh2rcd13ifvqh6g","pricing_plan_id":"free"},{"bike_id":"42af07bb-8c21-4e19-acae-f0576f90a5cf","system_id":"levelo_inurba_marseille","lat":43.30415,"lon":5.42546,"is_reserved":false,"is_disabled":false,"rental_uris":{"android":"levelo://app?vid=42af07bb-8c21-4e19-acae-f0576f90a5cf","ios":"levelo://app?vid=42af07bb-8c21-4e19-acae-f0576f90a5cf"},"vehicle_type_id":"4","last_reported":1679612830,"current_range_meters":27200,"station_id":"ce4bhoh2rcd13ifvqh6g","pricing_plan_id":"free"},{"bike_id":"043bf9ae-c8f5-4c2d-a7e2-02a1727e95e5","system_id":"levelo_inurba_marseille","lat":43.30414,"lon":5.42546,"is_reserved":false,"is_disabled":false,"rental_uris":{"android":"levelo://app?vid=043bf9ae-c8f5-4c2d-a7e2-02a1727e95e5","ios":"levelo://app?vid=043bf9ae-c8f5-4c2d-a7e2-02a1727e95e5"},"vehicle_type_id":"4","last_reported":1679612830,"current_range_meters":18800,"station_id":"","pricing_plan_id":"free"},{"bike_id":"b5717fc4-fa42-495a-afc7-01e12eb2636d","system_id":"levelo_inurba_marseille","lat":43.30414,"lon":5.42547,"is_reserved":false,"is_disabled":false,"rental_uris":{"android":"levelo://app?vid=b5717fc4-fa42-495a-afc7-01e12eb2636d","ios":"levelo://app?vid=b5717fc4-fa42-495a-afc7-01e12eb2636d"},"vehicle_type_id":"4","last_reported":1679612830,"current_range_meters":31600,"station_id":"ce4bhoh2rcd13ifvqh6g","pricing_plan_id":"free"},{"bike_id":"1ff3e2e5-3817-4109-ab38-f8c73be10aad","system_id":"levelo_inurba_marseille","lat":43.30418,"lon":5.42549,"is_reserved":false,"is_disabled":false,"rental_uris":{"android":"levelo://app?vid=1ff3e2e5-3817-4109-ab38-f8c73be10aad","ios":"levelo://app?vid=1ff3e2e5-3817-4109-ab38-f8c73be10aad"},"vehicle_type_id":"4","last_reported":1679612830,"current_range_meters":20800,"station_id":"","pricing_plan_id":"free"},{"bike_id":"8697325f-5ca4-49d6-bce1-37b99d5c71e5","system_id":"levelo_inurba_marseille","lat":43.30414,"lon":5.42548,"is_reserved":false,"is_disabled":false,"rental_uris":{"android":"levelo://app?vid=8697325f-5ca4-49d6-bce1-37b99d5c71e5","ios":"levelo://app?vid=8697325f-5ca4-49d6-bce1-37b99d5c71e5"},"vehicle_type_id":"4","last_reported":1679612830,"current_range_meters":26800,"station_id":"ce4bhoh2rcd13ifvqh6g","pricing_plan_id":"free"},{"bike_id":"688e0731-8e86-4ac4-9c89-dc117e0f87fa","system_id":"levelo_inurba_marseille","lat":43.30411,"lon":5.4255,"is_reserved":false,"is_disabled":false,"rental_uris":{"android":"levelo://app?vid=688e0731-8e86-4ac4-9c89-dc117e0f87fa","ios":"levelo://app?vid=688e0731-8e86-4ac4-9c89-dc117e0f87fa"},"vehicle_type_id":"4","last_reported":1679612830,"current_range_meters":30800,"station_id":"ce4bhoh2rcd13ifvqh6g","pricing_plan_id":"free"},{"bike_id":"de86e6fe-ef27-4e88-8ec6-12fa13f212db","system_id":"levelo_inurba_marseille","lat":43.29563,"lon":5.4228,"is_reserved":false,"is_disabled":false,"rental_uris":{"android":"levelo://app?vid=de86e6fe-ef27-4e88-8ec6-12fa13f212db","ios":"levelo://app?vid=de86e6fe-ef27-4e88-8ec6-12fa13f212db"},"vehicle_type_id":"4","last_reported":1679612830,"current_range_meters":20400,"station_id":"","pricing_plan_id":"free"},{"bike_id":"07514ecb-c70b-4b76-b053-b55a4fc72d21","system_id":"levelo_inurba_marseille","lat":43.29563,"lon":5.42282,"is_reserved":false,"is_disabled":false,"rental_uris":{"android":"levelo://app?vid=07514ecb-c70b-4b76-b053-b55a4fc72d21","ios":"levelo://app?vid=07514ecb-c70b-4b76-b053-b55a4fc72d21"},"vehicle_type_id":"4","last_reported":1679612830,"current_range_meters":28400,"station_id":"ce4bhph2rcd13ifvqhdg","pricing_plan_id":"free"},{"bike_id":"4680999c-37c9-45df-80f9-7af6da86babf","system_id":"levelo_inurba_marseille","lat":43.295511,"lon":5.422926,"is_reserved":false,"is_disabled":false,"rental_uris":{"android":"levelo://app?vid=4680999c-37c9-45df-80f9-7af6da86babf","ios":"levelo://app?vid=4680999c-37c9-45df-80f9-7af6da86babf"},"vehicle_type_id":"4","last_reported":1679612830,"current_range_meters":26400,"station_id":"ce4bhph2rcd13ifvqhdg","pricing_plan_id":"free"},{"bike_id":"6baa331e-0b6c-4eaa-bc6b-2a2f88cce9b3","system_id":"levelo_inurba_marseille","lat":43.295511,"lon":5.422926,"is_reserved":false,"is_disabled":false,"rental_uris":{"android":"levelo://app?vid=6baa331e-0b6c-4eaa-bc6b-2a2f88cce9b3","ios":"levelo://app?vid=6baa331e-0b6c-4eaa-bc6b-2a2f88cce9b3"},"vehicle_type_id":"4","last_reported":1679612830,"current_range_meters":30400,"station_id":"ce4bhph2rcd13ifvqhdg","pricing_plan_id":"free"},{"bike_id":"dc1b4b10-ef04-4f83-a2da-b5bae776dec0","system_id":"levelo_inurba_marseille","lat":43.295511,"lon":5.422926,"is_reserved":false,"is_disabled":false,"rental_uris":{"android":"levelo://app?vid=dc1b4b10-ef04-4f83-a2da-b5bae776dec0","ios":"levelo://app?vid=dc1b4b10-ef04-4f83-a2da-b5bae776dec0"},"vehicle_type_id":"4","last_reported":1679612830,"current_range_meters":27600,"station_id":"ce4bhph2rcd13ifvqhdg","pricing_plan_id":"free"},{"bike_id":"2d9df878-c04a-4506-bc15-7857e266fb33","system_id":"levelo_inurba_marseille","lat":43.295511,"lon":5.422926,"is_reserved":false,"is_disabled":false,"rental_uris":{"android":"levelo://app?vid=2d9df878-c04a-4506-bc15-7857e266fb33","ios":"levelo://app?vid=2d9df878-c04a-4506-bc15-7857e266fb33"},"vehicle_type_id":"4","last_reported":1679612830,"current_range_meters":28000,"station_id":"ce4bhph2rcd13ifvqhdg","pricing_plan_id":"free"},{"bike_id":"646bc38d-3886-4147-9493-9656fe1cd2a3","system_id":"levelo_inurba_marseille","lat":43.295511,"lon":5.422926,"is_reserved":false,"is_disabled":false,"rental_uris":{"android":"levelo://app?vid=646bc38d-3886-4147-9493-9656fe1cd2a3","ios":"levelo://app?vid=646bc38d-3886-4147-9493-9656fe1cd2a3"},"vehicle_type_id":"4","last_reported":1679612830,"current_range_meters":30400,"station_id":"ce4bhph2rcd13ifvqhdg","pricing_plan_id":"free"},{"bike_id":"8fb1126e-1688-401d-8197-4cb0f571e01e","system_id":"levelo_inurba_marseille","lat":43.295511,"lon":5.422926,"is_reserved":false,"is_disabled":false,"rental_uris":{"android":"levelo://app?vid=8fb1126e-1688-401d-8197-4cb0f571e01e","ios":"levelo://app?vid=8fb1126e-1688-401d-8197-4cb0f571e01e"},"vehicle_type_id":"4","last_reported":1679612830,"current_range_meters":20800,"station_id":"ce4bhph2rcd13ifvqhdg","pricing_plan_id":"free"},{"bike_id":"c0c159e5-0029-487f-8413-ff056df7beb6","system_id":"levelo_inurba_marseille","lat":43.328241,"lon":5.425364,"is_reserved":false,"is_disabled":false,"rental_uris":{"android":"levelo://app?vid=c0c159e5-0029-487f-8413-ff056df7beb6","ios":"levelo://app?vid=c0c159e5-0029-487f-8413-ff056df7beb6"},"vehicle_type_id":"4","last_reported":1679612830,"current_range_meters":0,"station_id":"","pricing_plan_id":"free"},{"bike_id":"d5c4276f-3306-4b8b-b196-23697e8e3818","system_id":"levelo_inurba_marseille","lat":43.278128,"lon":5.407195,"is_reserved":false,"is_disabled":false,"rental_uris":{"android":"levelo://app?vid=d5c4276f-3306-4b8b-b196-23697e8e3818","ios":"levelo://app?vid=d5c4276f-3306-4b8b-b196-23697e8e3818"},"vehicle_type_id":"4","last_reported":1679612830,"current_range_meters":28800,"station_id":"ce4bhnh2rcd13ifvqgtg","pricing_plan_id":"free"},{"bike_id":"9da8f754-0b0f-44b7-a07c-de593240fbaa","system_id":"levelo_inurba_marseille","lat":43.265714,"lon":5.372891,"is_reserved":false,"is_disabled":false,"rental_uris":{"android":"levelo://app?vid=9da8f754-0b0f-44b7-a07c-de593240fbaa","ios":"levelo://app?vid=9da8f754-0b0f-44b7-a07c-de593240fbaa"},"vehicle_type_id":"4","last_reported":1679612830,"current_range_meters":5600,"station_id":"ce4bhg12rcd13ifvqf70","pricing_plan_id":"free"},{"bike_id":"33179233-a0f5-46e2-98f9-3911cd63182d","system_id":"levelo_inurba_marseille","lat":43.28001,"lon":5.41664,"is_reserved":false,"is_disabled":false,"rental_uris":{"android":"levelo://app?vid=33179233-a0f5-46e2-98f9-3911cd63182d","ios":"levelo://app?vid=33179233-a0f5-46e2-98f9-3911cd63182d"},"vehicle_type_id":"4","last_reported":1679612830,"current_range_meters":2000,"station_id":"ce4bho12rcd13ifvqh1g","pricing_plan_id":"free"},{"bike_id":"9766b96d-4eaf-4582-b41b-4b33d5036dc7","system_id":"levelo_inurba_marseille","lat":43.30803,"lon":5.435277,"is_reserved":false,"is_disabled":false,"rental_uris":{"android":"levelo://app?vid=9766b96d-4eaf-4582-b41b-4b33d5036dc7","ios":"levelo://app?vid=9766b96d-4eaf-4582-b41b-4b33d5036dc7"},"vehicle_type_id":"4","last_reported":1679612830,"current_range_meters":0,"station_id":"ce4bhph2rcd13ifvqheg","pricing_plan_id":"free"},{"bike_id":"b85b9bc1-2a9f-4ec0-9eda-2797722f6c0e","system_id":"levelo_inurba_marseille","lat":43.331805,"lon":5.431734,"is_reserved":false,"is_disabled":false,"rental_uris":{"android":"levelo://app?vid=b85b9bc1-2a9f-4ec0-9eda-2797722f6c0e","ios":"levelo://app?vid=b85b9bc1-2a9f-4ec0-9eda-2797722f6c0e"},"vehicle_type_id":"4","last_reported":1679612830,"current_range_meters":16000,"station_id":"","pricing_plan_id":"free"},{"bike_id":"57540609-0ddf-4ef8-a0a7-1fda4a830056","system_id":"levelo_inurba_marseille","lat":43.261782,"lon":5.374515,"is_reserved":false,"is_disabled":false,"rental_uris":{"android":"levelo://app?vid=57540609-0ddf-4ef8-a0a7-1fda4a830056","ios":"levelo://app?vid=57540609-0ddf-4ef8-a0a7-1fda4a830056"},"vehicle_type_id":"4","last_reported":1679612830,"current_range_meters":27200,"station_id":"ce4bhgp2rcd13ifvqfc0","pricing_plan_id":"free"},{"bike_id":"93f56beb-b233-4e79-b079-0960f51da626","system_id":"levelo_inurba_marseille","lat":43.317104,"lon":5.436818,"is_reserved":false,"is_disabled":false,"rental_uris":{"android":"levelo://app?vid=93f56beb-b233-4e79-b079-0960f51da626","ios":"levelo://app?vid=93f56beb-b233-4e79-b079-0960f51da626"},"vehicle_type_id":"4","last_reported":1679612830,"current_range_meters":24000,"station_id":"ce4bhp92rcd13ifvqhcg","pricing_plan_id":"free"},{"bike_id":"0d8aa8e9-a638-41aa-9b24-ed14d7545775","system_id":"levelo_inurba_marseille","lat":43.317104,"lon":5.436818,"is_reserved":false,"is_disabled":false,"rental_uris":{"android":"levelo://app?vid=0d8aa8e9-a638-41aa-9b24-ed14d7545775","ios":"levelo://app?vid=0d8aa8e9-a638-41aa-9b24-ed14d7545775"},"vehicle_type_id":"4","last_reported":1679612830,"current_range_meters":8400,"station_id":"ce4bhp92rcd13ifvqhcg","pricing_plan_id":"free"},{"bike_id":"9ced425c-27cf-40cd-8b03-5fb2f43c0fa3","system_id":"levelo_inurba_marseille","lat":43.317104,"lon":5.436818,"is_reserved":false,"is_disabled":false,"rental_uris":{"android":"levelo://app?vid=9ced425c-27cf-40cd-8b03-5fb2f43c0fa3","ios":"levelo://app?vid=9ced425c-27cf-40cd-8b03-5fb2f43c0fa3"},"vehicle_type_id":"4","last_reported":1679612830,"current_range_meters":16800,"station_id":"ce4bhp92rcd13ifvqhcg","pricing_plan_id":"free"},{"bike_id":"103b0321-a420-4eea-936b-e07149b8082b","system_id":"levelo_inurba_marseille","lat":43.317104,"lon":5.436818,"is_reserved":false,"is_disabled":false,"rental_uris":{"android":"levelo://app?vid=103b0321-a420-4eea-936b-e07149b8082b","ios":"levelo://app?vid=103b0321-a420-4eea-936b-e07149b8082b"},"vehicle_type_id":"4","last_reported":1679612830,"current_range_meters":800,"station_id":"ce4bhp92rcd13ifvqhcg","pricing_plan_id":"free"},{"bike_id":"f2902925-4af0-4140-a7c8-5397188c4091","system_id":"levelo_inurba_marseille","lat":43.317104,"lon":5.436818,"is_reserved":false,"is_disabled":false,"rental_uris":{"android":"levelo://app?vid=f2902925-4af0-4140-a7c8-5397188c4091","ios":"levelo://app?vid=f2902925-4af0-4140-a7c8-5397188c4091"},"vehicle_type_id":"4","last_reported":1679612830,"current_range_meters":30400,"station_id":"ce4bhp92rcd13ifvqhcg","pricing_plan_id":"free"},{"bike_id":"456389e1-6406-4acd-b487-28ba27f96a8a","system_id":"levelo_inurba_marseille","lat":43.317104,"lon":5.436818,"is_reserved":false,"is_disabled":false,"rental_uris":{"android":"levelo://app?vid=456389e1-6406-4acd-b487-28ba27f96a8a","ios":"levelo://app?vid=456389e1-6406-4acd-b487-28ba27f96a8a"},"vehicle_type_id":"4","last_reported":1679612830,"current_range_meters":16400,"station_id":"ce4bhp92rcd13ifvqhcg","pricing_plan_id":"free"},{"bike_id":"67fb45db-61ee-4508-ba49-64d766505ea7","system_id":"levelo_inurba_marseille","lat":43.26203,"lon":5.37924,"is_reserved":false,"is_disabled":false,"rental_uris":{"android":"levelo://app?vid=67fb45db-61ee-4508-ba49-64d766505ea7","ios":"levelo://app?vid=67fb45db-61ee-4508-ba49-64d766505ea7"},"vehicle_type_id":"4","last_reported":1679612830,"current_range_meters":20000,"station_id":"","pricing_plan_id":"free"},{"bike_id":"f2bc4b22-c31c-42c3-8e2e-0c72d02f5768","system_id":"levelo_inurba_marseille","lat":43.262012,"lon":5.379307,"is_reserved":false,"is_disabled":false,"rental_uris":{"android":"levelo://app?vid=f2bc4b22-c31c-42c3-8e2e-0c72d02f5768","ios":"levelo://app?vid=f2bc4b22-c31c-42c3-8e2e-0c72d02f5768"},"vehicle_type_id":"4","last_reported":1679612830,"current_range_meters":8000,"station_id":"ce4bhjp2rcd13ifvqg90","pricing_plan_id":"free"},{"bike_id":"59f2c206-fe85-4da5-9dbb-3f9b157e0d18","system_id":"levelo_inurba_marseille","lat":43.262012,"lon":5.379307,"is_reserved":false,"is_disabled":false,"rental_uris":{"android":"levelo://app?vid=59f2c206-fe85-4da5-9dbb-3f9b157e0d18","ios":"levelo://app?vid=59f2c206-fe85-4da5-9dbb-3f9b157e0d18"},"vehicle_type_id":"4","last_reported":1679612830,"current_range_meters":20000,"station_id":"ce4bhjp2rcd13ifvqg90","pricing_plan_id":"free"},{"bike_id":"9e90730a-7eaf-43e1-93be-18b5ebebda4c","system_id":"levelo_inurba_marseille","lat":43.26809,"lon":5.40275,"is_reserved":false,"is_disabled":false,"rental_uris":{"android":"levelo://app?vid=9e90730a-7eaf-43e1-93be-18b5ebebda4c","ios":"levelo://app?vid=9e90730a-7eaf-43e1-93be-18b5ebebda4c"},"vehicle_type_id":"4","last_reported":1679612830,"current_range_meters":14400,"station_id":"","pricing_plan_id":"free"},{"bike_id":"a8ed163a-64e5-4a07-87f6-fec43d2f2fbc","system_id":"levelo_inurba_marseille","lat":43.29901,"lon":5.43662,"is_reserved":false,"is_disabled":false,"rental_uris":{"android":"levelo://app?vid=a8ed163a-64e5-4a07-87f6-fec43d2f2fbc","ios":"levelo://app?vid=a8ed163a-64e5-4a07-87f6-fec43d2f2fbc"},"vehicle_type_id":"4","last_reported":1679612830,"current_range_meters":16000,"station_id":"","pricing_plan_id":"free"},{"bike_id":"41fa2a4e-b8ba-4133-8b04-3a12523f90db","system_id":"levelo_inurba_marseille","lat":43.28151,"lon":5.42798,"is_reserved":false,"is_disabled":false,"rental_uris":{"android":"levelo://app?vid=41fa2a4e-b8ba-4133-8b04-3a12523f90db","ios":"levelo://app?vid=41fa2a4e-b8ba-4133-8b04-3a12523f90db"},"vehicle_type_id":"4","last_reported":1679612830,"current_range_meters":16000,"station_id":"","pricing_plan_id":"free"},{"bike_id":"f2058411-c83b-4c2a-b95b-878a05843e55","system_id":"levelo_inurba_marseille","lat":43.255756,"lon":5.382303,"is_reserved":false,"is_disabled":false,"rental_uris":{"android":"levelo://app?vid=f2058411-c83b-4c2a-b95b-878a05843e55","ios":"levelo://app?vid=f2058411-c83b-4c2a-b95b-878a05843e55"},"vehicle_type_id":"4","last_reported":1679612830,"current_range_meters":28800,"station_id":"ce4bhih2rcd13ifvqfs0","pricing_plan_id":"free"},{"bike_id":"c0db045d-f37d-4f9d-a05c-ede29c706d9b","system_id":"levelo_inurba_marseille","lat":43.255756,"lon":5.382303,"is_reserved":false,"is_disabled":false,"rental_uris":{"android":"levelo://app?vid=c0db045d-f37d-4f9d-a05c-ede29c706d9b","ios":"levelo://app?vid=c0db045d-f37d-4f9d-a05c-ede29c706d9b"},"vehicle_type_id":"4","last_reported":1679612830,"current_range_meters":0,"station_id":"ce4bhih2rcd13ifvqfs0","pricing_plan_id":"free"},{"bike_id":"b80d6de0-e7e3-4a4d-ba31-56107aad9288","system_id":"levelo_inurba_marseille","lat":43.25869,"lon":5.39896,"is_reserved":false,"is_disabled":false,"rental_uris":{"android":"levelo://app?vid=b80d6de0-e7e3-4a4d-ba31-56107aad9288","ios":"levelo://app?vid=b80d6de0-e7e3-4a4d-ba31-56107aad9288"},"vehicle_type_id":"4","last_reported":1679612830,"current_range_meters":0,"station_id":"ce4bhl92rcd13ifvqghg","pricing_plan_id":"free"},{"bike_id":"83a04482-2630-4265-b815-fb3bac3f8777","system_id":"levelo_inurba_marseille","lat":43.258658,"lon":5.398935,"is_reserved":false,"is_disabled":false,"rental_uris":{"android":"levelo://app?vid=83a04482-2630-4265-b815-fb3bac3f8777","ios":"levelo://app?vid=83a04482-2630-4265-b815-fb3bac3f8777"},"vehicle_type_id":"4","last_reported":1679612830,"current_range_meters":28000,"station_id":"ce4bhl92rcd13ifvqghg","pricing_plan_id":"free"},{"bike_id":"ed633cfe-dae3-4bf3-a212-0abb9f1659d4","system_id":"levelo_inurba_marseille","lat":43.25004,"lon":5.38926,"is_reserved":false,"is_disabled":false,"rental_uris":{"android":"levelo://app?vid=ed633cfe-dae3-4bf3-a212-0abb9f1659d4","ios":"levelo://app?vid=ed633cfe-dae3-4bf3-a212-0abb9f1659d4"},"vehicle_type_id":"4","last_reported":1679612830,"current_range_meters":30800,"station_id":"ce4bhgp2rcd13ifvqfd0","pricing_plan_id":"free"},{"bike_id":"e0cf06c0-a9ef-467c-b502-e8bf1bc30ac2","system_id":"levelo_inurba_marseille","lat":43.25003,"lon":5.389288,"is_reserved":false,"is_disabled":false,"rental_uris":{"android":"levelo://app?vid=e0cf06c0-a9ef-467c-b502-e8bf1bc30ac2","ios":"levelo://app?vid=e0cf06c0-a9ef-467c-b502-e8bf1bc30ac2"},"vehicle_type_id":"4","last_reported":1679612830,"current_range_meters":30400,"station_id":"","pricing_plan_id":"free"},{"bike_id":"d38ca928-af56-42e7-8062-aa8e84df2f66","system_id":"levelo_inurba_marseille","lat":43.25095,"lon":5.39514,"is_reserved":false,"is_disabled":false,"rental_uris":{"android":"levelo://app?vid=d38ca928-af56-42e7-8062-aa8e84df2f66","ios":"levelo://app?vid=d38ca928-af56-42e7-8062-aa8e84df2f66"},"vehicle_type_id":"4","last_reported":1679612830,"current_range_meters":0,"station_id":"ce4bhm12rcd13ifvqgkg","pricing_plan_id":"free"},{"bike_id":"0a906f03-f8e9-47c9-adca-1d7014609657","system_id":"levelo_inurba_marseille","lat":43.24693,"lon":5.382096,"is_reserved":false,"is_disabled":false,"rental_uris":{"android":"levelo://app?vid=0a906f03-f8e9-47c9-adca-1d7014609657","ios":"levelo://app?vid=0a906f03-f8e9-47c9-adca-1d7014609657"},"vehicle_type_id":"4","last_reported":1679612830,"current_range_meters":30800,"station_id":"ce4bhih2rcd13ifvqfr0","pricing_plan_id":"free"},{"bike_id":"bbe94e08-5c04-41ab-8fc9-cfee04da5a3a","system_id":"levelo_inurba_marseille","lat":43.24693,"lon":5.382096,"is_reserved":false,"is_disabled":false,"rental_uris":{"android":"levelo://app?vid=bbe94e08-5c04-41ab-8fc9-cfee04da5a3a","ios":"levelo://app?vid=bbe94e08-5c04-41ab-8fc9-cfee04da5a3a"},"vehicle_type_id":"4","last_reported":1679612830,"current_range_meters":31200,"station_id":"ce4bhih2rcd13ifvqfr0","pricing_plan_id":"free"},{"bike_id":"1f2f0e10-ad0c-4e17-8ea3-2ffa82989ab5","system_id":"levelo_inurba_marseille","lat":43.25116,"lon":5.40319,"is_reserved":false,"is_disabled":false,"rental_uris":{"android":"levelo://app?vid=1f2f0e10-ad0c-4e17-8ea3-2ffa82989ab5","ios":"levelo://app?vid=1f2f0e10-ad0c-4e17-8ea3-2ffa82989ab5"},"vehicle_type_id":"4","last_reported":1679612830,"current_range_meters":13200,"station_id":"","pricing_plan_id":"free"},{"bike_id":"bdc508b6-f74b-438d-974c-222a365e4ab0","system_id":"levelo_inurba_marseille","lat":43.25102,"lon":5.403214,"is_reserved":false,"is_disabled":false,"rental_uris":{"android":"levelo://app?vid=bdc508b6-f74b-438d-974c-222a365e4ab0","ios":"levelo://app?vid=bdc508b6-f74b-438d-974c-222a365e4ab0"},"vehicle_type_id":"4","last_reported":1679612830,"current_range_meters":3600,"station_id":"ce4bhlh2rcd13ifvqgig","pricing_plan_id":"free"},{"bike_id":"0c17aea8-dcdb-46b4-9e48-04d3e48cc506","system_id":"levelo_inurba_marseille","lat":43.25102,"lon":5.403214,"is_reserved":false,"is_disabled":false,"rental_uris":{"android":"levelo://app?vid=0c17aea8-dcdb-46b4-9e48-04d3e48cc506","ios":"levelo://app?vid=0c17aea8-dcdb-46b4-9e48-04d3e48cc506"},"vehicle_type_id":"4","last_reported":1679612830,"current_range_meters":5200,"station_id":"ce4bhlh2rcd13ifvqgig","pricing_plan_id":"free"},{"bike_id":"f227e314-2578-4988-a225-3c451e5ddcd3","system_id":"levelo_inurba_marseille","lat":43.25102,"lon":5.403214,"is_reserved":false,"is_disabled":false,"rental_uris":{"android":"levelo://app?vid=f227e314-2578-4988-a225-3c451e5ddcd3","ios":"levelo://app?vid=f227e314-2578-4988-a225-3c451e5ddcd3"},"vehicle_type_id":"4","last_reported":1679612830,"current_range_meters":23600,"station_id":"ce4bhlh2rcd13ifvqgig","pricing_plan_id":"free"},{"bike_id":"c45e906d-3167-4f96-8e99-f357c6a5ee12","system_id":"levelo_inurba_marseille","lat":43.246467,"lon":5.388984,"is_reserved":false,"is_disabled":false,"rental_uris":{"android":"levelo://app?vid=c45e906d-3167-4f96-8e99-f357c6a5ee12","ios":"levelo://app?vid=c45e906d-3167-4f96-8e99-f357c6a5ee12"},"vehicle_type_id":"4","last_reported":1679612830,"current_range_meters":31600,"station_id":"ce4bhg12rcd13ifvqf60","pricing_plan_id":"free"},{"bike_id":"f7ed99b1-abda-4aa1-be5a-6359b542366a","system_id":"levelo_inurba_marseille","lat":43.246467,"lon":5.388984,"is_reserved":false,"is_disabled":false,"rental_uris":{"android":"levelo://app?vid=f7ed99b1-abda-4aa1-be5a-6359b542366a","ios":"levelo://app?vid=f7ed99b1-abda-4aa1-be5a-6359b542366a"},"vehicle_type_id":"4","last_reported":1679612830,"current_range_meters":9600,"station_id":"ce4bhg12rcd13ifvqf60","pricing_plan_id":"free"},{"bike_id":"dd378cd8-4305-4d96-905b-64e473f1c1f1","system_id":"levelo_inurba_marseille","lat":43.246467,"lon":5.388984,"is_reserved":false,"is_disabled":false,"rental_uris":{"android":"levelo://app?vid=dd378cd8-4305-4d96-905b-64e473f1c1f1","ios":"levelo://app?vid=dd378cd8-4305-4d96-905b-64e473f1c1f1"},"vehicle_type_id":"4","last_reported":1679612830,"current_range_meters":29600,"station_id":"ce4bhg12rcd13ifvqf60","pricing_plan_id":"free"},{"bike_id":"24961a26-c048-49c0-bc3c-67653f5bc778","system_id":"levelo_inurba_marseille","lat":43.245397,"lon":5.395287,"is_reserved":false,"is_disabled":false,"rental_uris":{"android":"levelo://app?vid=24961a26-c048-49c0-bc3c-67653f5bc778","ios":"levelo://app?vid=24961a26-c048-49c0-bc3c-67653f5bc778"},"vehicle_type_id":"4","last_reported":1679612830,"current_range_meters":0,"station_id":"ce4bhlp2rcd13ifvqgjg","pricing_plan_id":"free"},{"bike_id":"c6c9149f-abab-489f-b841-60daa32b8d84","system_id":"levelo_inurba_marseille","lat":43.240623,"lon":5.377642,"is_reserved":false,"is_disabled":false,"rental_uris":{"android":"levelo://app?vid=c6c9149f-abab-489f-b841-60daa32b8d84","ios":"levelo://app?vid=c6c9149f-abab-489f-b841-60daa32b8d84"},"vehicle_type_id":"4","last_reported":1679612830,"current_range_meters":27600,"station_id":"ce4bhnp2rcd13ifvqgvg","pricing_plan_id":"free"},{"bike_id":"0718e7ce-8c3a-4034-8e09-03ef369ed3f4","system_id":"levelo_inurba_marseille","lat":43.240623,"lon":5.377642,"is_reserved":false,"is_disabled":false,"rental_uris":{"android":"levelo://app?vid=0718e7ce-8c3a-4034-8e09-03ef369ed3f4","ios":"levelo://app?vid=0718e7ce-8c3a-4034-8e09-03ef369ed3f4"},"vehicle_type_id":"4","last_reported":1679612830,"current_range_meters":26800,"station_id":"ce4bhnp2rcd13ifvqgvg","pricing_plan_id":"free"},{"bike_id":"add51acb-c10d-43ed-8682-a6b846ded1a9","system_id":"levelo_inurba_marseille","lat":43.240623,"lon":5.377642,"is_reserved":false,"is_disabled":false,"rental_uris":{"android":"levelo://app?vid=add51acb-c10d-43ed-8682-a6b846ded1a9","ios":"levelo://app?vid=add51acb-c10d-43ed-8682-a6b846ded1a9"},"vehicle_type_id":"4","last_reported":1679612830,"current_range_meters":20000,"station_id":"ce4bhnp2rcd13ifvqgvg","pricing_plan_id":"free"},{"bike_id":"4ab67355-b20e-41ef-92bb-ee92e468dc14","system_id":"levelo_inurba_marseille","lat":43.2397,"lon":5.36633,"is_reserved":false,"is_disabled":false,"rental_uris":{"android":"levelo://app?vid=4ab67355-b20e-41ef-92bb-ee92e468dc14","ios":"levelo://app?vid=4ab67355-b20e-41ef-92bb-ee92e468dc14"},"vehicle_type_id":"4","last_reported":1679612830,"current_range_meters":14800,"station_id":"","pricing_plan_id":"free"},{"bike_id":"8cd1aa10-0258-4622-8da6-ec2ae168776d","system_id":"levelo_inurba_marseille","lat":43.23969,"lon":5.36634,"is_reserved":false,"is_disabled":false,"rental_uris":{"android":"levelo://app?vid=8cd1aa10-0258-4622-8da6-ec2ae168776d","ios":"levelo://app?vid=8cd1aa10-0258-4622-8da6-ec2ae168776d"},"vehicle_type_id":"4","last_reported":1679612830,"current_range_meters":20000,"station_id":"ce4bhi12rcd13ifvqfp0","pricing_plan_id":"free"},{"bike_id":"0ca4b0f1-7f83-42f7-9494-acb70f0b7a9d","system_id":"levelo_inurba_marseille","lat":43.239684,"lon":5.36642,"is_reserved":false,"is_disabled":false,"rental_uris":{"android":"levelo://app?vid=0ca4b0f1-7f83-42f7-9494-acb70f0b7a9d","ios":"levelo://app?vid=0ca4b0f1-7f83-42f7-9494-acb70f0b7a9d"},"vehicle_type_id":"4","last_reported":1679612830,"current_range_meters":31600,"station_id":"","pricing_plan_id":"free"},{"bike_id":"03af9816-d02d-4000-a0fe-53d20b300e95","system_id":"levelo_inurba_marseille","lat":43.239588,"lon":5.366238,"is_reserved":false,"is_disabled":false,"rental_uris":{"android":"levelo://app?vid=03af9816-d02d-4000-a0fe-53d20b300e95","ios":"levelo://app?vid=03af9816-d02d-4000-a0fe-53d20b300e95"},"vehicle_type_id":"4","last_reported":1679612830,"current_range_meters":0,"station_id":"ce4bhi12rcd13ifvqfp0","pricing_plan_id":"free"},{"bike_id":"05d1efc2-f005-43c8-b919-2f74b4e838de","system_id":"levelo_inurba_marseille","lat":43.239588,"lon":5.366238,"is_reserved":false,"is_disabled":false,"rental_uris":{"android":"levelo://app?vid=05d1efc2-f005-43c8-b919-2f74b4e838de","ios":"levelo://app?vid=05d1efc2-f005-43c8-b919-2f74b4e838de"},"vehicle_type_id":"4","last_reported":1679612830,"current_range_meters":9200,"station_id":"ce4bhi12rcd13ifvqfp0","pricing_plan_id":"free"},{"bike_id":"2bdcc2cb-4dca-4a13-93bc-28e17a1d41af","system_id":"levelo_inurba_marseille","lat":43.239588,"lon":5.366238,"is_reserved":false,"is_disabled":false,"rental_uris":{"android":"levelo://app?vid=2bdcc2cb-4dca-4a13-93bc-28e17a1d41af","ios":"levelo://app?vid=2bdcc2cb-4dca-4a13-93bc-28e17a1d41af"},"vehicle_type_id":"4","last_reported":1679612830,"current_range_meters":30400,"station_id":"ce4bhi12rcd13ifvqfp0","pricing_plan_id":"free"},{"bike_id":"58d4185e-cdf6-4210-b16f-d4fb63da074a","system_id":"levelo_inurba_marseille","lat":43.23956,"lon":5.36636,"is_reserved":false,"is_disabled":false,"rental_uris":{"android":"levelo://app?vid=58d4185e-cdf6-4210-b16f-d4fb63da074a","ios":"levelo://app?vid=58d4185e-cdf6-4210-b16f-d4fb63da074a"},"vehicle_type_id":"4","last_reported":1679612830,"current_range_meters":28000,"station_id":"ce4bhi12rcd13ifvqfp0","pricing_plan_id":"free"},{"bike_id":"0c0cabda-0d8e-4c6c-a9ee-98575b88d360","system_id":"levelo_inurba_marseille","lat":43.241782,"lon":5.397264,"is_reserved":false,"is_disabled":false,"rental_uris":{"android":"levelo://app?vid=0c0cabda-0d8e-4c6c-a9ee-98575b88d360","ios":"levelo://app?vid=0c0cabda-0d8e-4c6c-a9ee-98575b88d360"},"vehicle_type_id":"4","last_reported":1679612830,"current_range_meters":12400,"station_id":"ce4bhn12rcd13ifvqgpg","pricing_plan_id":"free"},{"bike_id":"728d7313-5eca-4ee1-8b28-5816a350da1a","system_id":"levelo_inurba_marseille","lat":43.231993,"lon":5.355493,"is_reserved":false,"is_disabled":false,"rental_uris":{"android":"levelo://app?vid=728d7313-5eca-4ee1-8b28-5816a350da1a","ios":"levelo://app?vid=728d7313-5eca-4ee1-8b28-5816a350da1a"},"vehicle_type_id":"4","last_reported":1679612830,"current_range_meters":30800,"station_id":"","pricing_plan_id":"free"},{"bike_id":"0a8029e0-76c5-4f31-985c-52e866457d76","system_id":"levelo_inurba_marseille","lat":43.23193,"lon":5.35552,"is_reserved":false,"is_disabled":false,"rental_uris":{"android":"levelo://app?vid=0a8029e0-76c5-4f31-985c-52e866457d76","ios":"levelo://app?vid=0a8029e0-76c5-4f31-985c-52e866457d76"},"vehicle_type_id":"4","last_reported":1679612830,"current_range_meters":11200,"station_id":"","pricing_plan_id":"free"},{"bike_id":"837f9af4-a10e-4042-92f6-53c7cd84136e","system_id":"levelo_inurba_marseille","lat":43.23189,"lon":5.35548,"is_reserved":false,"is_disabled":false,"rental_uris":{"android":"levelo://app?vid=837f9af4-a10e-4042-92f6-53c7cd84136e","ios":"levelo://app?vid=837f9af4-a10e-4042-92f6-53c7cd84136e"},"vehicle_type_id":"4","last_reported":1679612830,"current_range_meters":16400,"station_id":"","pricing_plan_id":"free"}]}}