{"last_updated":1744466910,"ttl":60,"version":"2.2","data":{"bikes":[{"bike_id":"60e80f8a-e392-4aba-b92b-cf06238ccece","system_id":"levelo_inurba_marseille","lat":43.231763,"lon":5.355417,"is_reserved":false,"is_disabled":false,"rental_uris":{"android":"levelo://app?vid=60e80f8a-e392-4aba-b92b-cf06238ccece","ios":"levelo://app?vid=60e80f8a-e392-4aba-b92b-cf06238ccece"},"vehicle_type_id":"4","last_reported":1744466910,"current_range_meters":2800,"station_id":"ce4bhu92rcd13ifvqi70","pricing_plan_id":"cebpf4jnsgd1na2vs0mg"},{"bike_id":"9be4053a-03d2-4d14-bd6e-2a667f0ccfaa","system_id":"levelo_inurba_marseille","lat":43.26055,"lon":5.39402,"is_reserved":false,"is_disabled":false,"rental_uris":{"android":"levelo://app?vid=9be4053a-03d2-4d14-bd6e-2a667f0ccfaa","ios":"levelo://app?vid=9be4053a-03d2-4d14-bd6e-2a667f0ccfaa"},"vehicle_type_id":"4","last_reported":1744466910,"current_range_meters":2800,"station_id":"ce4bhh92rcd13ifvqfj0","pricing_plan_id":"cebpf4jnsgd1na2vs0mg"},{"bike_id":"c54c2e88-d73e-4254-94e6-f22a7bcff242","system_id":"levelo_inurba_marseille","lat":43.21748,"lon":5.34615,"is_reserved":false,"is_disabled":false,"rental_uris":{"android":"levelo://app?vid=c54c2e88-d73e-4254-94e6-f22a7bcff242","ios":"levelo://app?vid=c54c2e88-d73e-4254-94e6-f22a7bcff242"},"vehicle_type_id":"4","last_reported":1744466910,"current_range_meters":2800,"station_id":"st_cvj6r9ubvosntc0bgbag","pricing_plan_id":"cebpf4jnsgd1na2vs0mg"},{"bike_id":"58b6cee6-8284-43e1-9623-9a8737ae9449","system_id":"levelo_inurba_marseille","lat":43.26779,"lon":5.39417,"is_reserved":false,"is_disabled":false,"rental_uris":{"android":"levelo://app?vid=58b6cee6-8284-43e1-9623-9a8737ae9449","ios":"levelo://app?vid=58b6cee6-8284-43e1-9623-9a8737ae9449"},"vehicle_type_id":"4","last_reported":1744466910,"current_range_meters":2800,"station_id":"ce4bhh12rcd13ifvqfg0","pricing_plan_id":"cebpf4jnsgd1na2vs0mg"},{"bike_id":"8706eba2-b109-4511-8704-89f687c746b5","system_id":"levelo_inurba_marseille","lat":43.23184,"lon":5.39986,"is_reserved":false,"is_disabled":false,"rental_uris":{"android":"levelo://app?vid=8706eba2-b109-4511-8704-89f687c746b5","ios":"levelo://app?vid=8706eba2-b109-4511-8704-89f687c746b5"},"vehicle_type_id":"4","last_reported":1744466910,"current_range_meters":3200,"station_id":"ce4bhn12rcd13ifvqgqg","pricing_plan_id":"cebpf4jnsgd1na2vs0mg"},{"bike_id":"60516f29-b503-4087-8bf4-0f0abfb30ca1","system_id":"levelo_inurba_marseille","lat":43.30552,"lon":5.36536,"is_reserved":false,"is_disabled":false,"rental_uris":{"android":"levelo://app?vid=60516f29-b503-4087-8bf4-0f0abfb30ca1","ios":"levelo://app?vid=60516f29-b503-4087-8bf4-0f0abfb30ca1"},"vehicle_type_id":"4","last_reported":1744466910,"current_range_meters":3200,"station_id":"ce4bgs12rcd13ifvqcag","pricing_plan_id":"cebpf4jnsgd1na2vs0mg"},{"bike_id":"dc7aed83-301e-4eaf-9be2-5f2fdf0ade01","system_id":"levelo_inurba_marseille","lat":43.304558,"lon":5.393267,"is_reserved":false,"is_disabled":false,"rental_uris":{"android":"levelo://app?vid=dc7aed83-301e-4eaf-9be2-5f2fdf0ade01","ios":"levelo://app?vid=dc7aed83-301e-4eaf-9be2-5f2fdf0ade01"},"vehicle_type_id":"4","last_reported":1744466910,"current_range_meters":3200,"station_id":"ce4bh392rcd13ifvqdl0","pricing_plan_id":"cebpf4jnsgd1na2vs0mg"},{"bike_id":"7e1e4c92-85fe-4cde-b251-2161f6a8a7f2","system_id":"levelo_inurba_marseille","lat":43.26569,"lon":5.39015,"is_reserved":false,"is_disabled":false,"rental_uris":{"android":"levelo://app?vid=7e1e4c92-85fe-4cde-b251-2161f6a8a7f2","ios":"levelo://app?vid=7e1e4c92-85fe-4cde-b251-2161f6a8a7f2"},"vehicle_type_id":"4","last_reported":1744466910,"current_range_meters":3200,"station_id":"ce4bhe12rcd13ifvqf30","pricing_plan_id":"cebpf4jnsgd1na2vs0mg"},{"bike_id":"64524583-481c-484d-a71f-837db192ec90","system_id":"levelo_inurba_marseille","lat":43.29178,"lon":5.35804,"is_reserved":false,"is_disabled":false,"rental_uris":{"android":"levelo://app?vid=64524583-481c-484d-a71f-837db192ec90","ios":"levelo://app?vid=64524583-481c-484d-a71f-837db192ec90"},"vehicle_type_id":"4","last_reported":1744466910,"current_range_meters":3200,"station_id":"ce4bhb12rcd13ifvqel0","pricing_plan_id":"cebpf4jnsgd1na2vs0mg"},{"bike_id":"9cb35a01-2fe9-4775-a5a5-14e918ac6b3a","system_id":"levelo_inurba_marseille","lat":43.26951,"lon":5.38626,"is_reserved":false,"is_disabled":false,"rental_uris":{"android":"levelo://app?vid=9cb35a01-2fe9-4775-a5a5-14e918ac6b3a","ios":"levelo://app?vid=9cb35a01-2fe9-4775-a5a5-14e918ac6b3a"},"vehicle_type_id":"4","last_reported":1744466910,"current_range_meters":3600,"station_id":"ce4bhh92rcd13ifvqfh0","pricing_plan_id":"cebpf4jnsgd1na2vs0mg"},{"bike_id":"5d13eccb-1c31-4ee5-a767-d8233a8e5ce3","system_id":"levelo_inurba_marseille","lat":43.2842,"lon":5.34998,"is_reserved":false,"is_disabled":false,"rental_uris":{"android":"levelo://app?vid=5d13eccb-1c31-4ee5-a767-d8233a8e5ce3","ios":"levelo://app?vid=5d13eccb-1c31-4ee5-a767-d8233a8e5ce3"},"vehicle_type_id":"4","last_reported":1744466910,"current_range_meters":3600,"station_id":"ce4bhbh2rcd13ifvqepg","pricing_plan_id":"cebpf4jnsgd1na2vs0mg"},{"bike_id":"b3d98675-18ec-492d-99d3-3d14af2c621c","system_id":"levelo_inurba_marseille","lat":43.312195,"lon":5.396125,"is_reserved":false,"is_disabled":false,"rental_uris":{"android":"levelo://app?vid=b3d98675-18ec-492d-99d3-3d14af2c621c","ios":"levelo://app?vid=b3d98675-18ec-492d-99d3-3d14af2c621c"},"vehicle_type_id":"4","last_reported":1744466910,"current_range_meters":3200,"station_id":"ce4bgvp2rcd13ifvqcu0","pricing_plan_id":"cebpf4jnsgd1na2vs0mg"},{"bike_id":"53936427-535c-47ab-8d39-0906ba6059b7","system_id":"levelo_inurba_marseille","lat":43.28273,"lon":5.35074,"is_reserved":false,"is_disabled":false,"rental_uris":{"android":"levelo://app?vid=53936427-535c-47ab-8d39-0906ba6059b7","ios":"levelo://app?vid=53936427-535c-47ab-8d39-0906ba6059b7"},"vehicle_type_id":"4","last_reported":1744466910,"current_range_meters":3600,"station_id":"ce4bhbp2rcd13ifvqerg","pricing_plan_id":"cebpf4jnsgd1na2vs0mg"},{"bike_id":"eec15a1e-3ad6-43b5-bd84-30a807c2e462","system_id":"levelo_inurba_marseille","lat":43.29571,"lon":5.37517,"is_reserved":false,"is_disabled":false,"rental_uris":{"android":"levelo://app?vid=eec15a1e-3ad6-43b5-bd84-30a807c2e462","ios":"levelo://app?vid=eec15a1e-3ad6-43b5-bd84-30a807c2e462"},"vehicle_type_id":"4","last_reported":1744466910,"current_range_meters":4000,"station_id":"ce4bgh92rcd13ifvqb50","pricing_plan_id":"cebpf4jnsgd1na2vs0mg"},{"bike_id":"984bb2aa-d82a-4281-90f1-1529bbc61000","system_id":"levelo_inurba_marseille","lat":43.29911,"lon":5.39261,"is_reserved":false,"is_disabled":false,"rental_uris":{"android":"levelo://app?vid=984bb2aa-d82a-4281-90f1-1529bbc61000","ios":"levelo://app?vid=984bb2aa-d82a-4281-90f1-1529bbc61000"},"vehicle_type_id":"4","last_reported":1744466910,"current_range_meters":4000,"station_id":"","pricing_plan_id":"cebpf4jnsgd1na2vs0mg"},{"bike_id":"d7103a20-efe9-4d42-9be0-0c833dd713e0","system_id":"levelo_inurba_marseille","lat":43.30546,"lon":5.36556,"is_reserved":false,"is_disabled":false,"rental_uris":{"android":"levelo://app?vid=d7103a20-efe9-4d42-9be0-0c833dd713e0","ios":"levelo://app?vid=d7103a20-efe9-4d42-9be0-0c833dd713e0"},"vehicle_type_id":"4","last_reported":1744466910,"current_range_meters":4000,"station_id":"ce4bgs12rcd13ifvqcag","pricing_plan_id":"cebpf4jnsgd1na2vs0mg"},{"bike_id":"c1d39400-5b55-43e0-b26e-7e3108bfb50b","system_id":"levelo_inurba_marseille","lat":43.23054,"lon":5.3549,"is_reserved":false,"is_disabled":false,"rental_uris":{"android":"levelo://app?vid=c1d39400-5b55-43e0-b26e-7e3108bfb50b","ios":"levelo://app?vid=c1d39400-5b55-43e0-b26e-7e3108bfb50b"},"vehicle_type_id":"4","last_reported":1744466910,"current_range_meters":4000,"station_id":"cpo3342slgdg3j2ifvpg","pricing_plan_id":"cebpf4jnsgd1na2vs0mg"},{"bike_id":"a9f344a9-b5c4-4c6f-adc4-6177f6c8159a","system_id":"levelo_inurba_marseille","lat":43.32825,"lon":5.39768,"is_reserved":false,"is_disabled":false,"rental_uris":{"android":"levelo://app?vid=a9f344a9-b5c4-4c6f-adc4-6177f6c8159a","ios":"levelo://app?vid=a9f344a9-b5c4-4c6f-adc4-6177f6c8159a"},"vehicle_type_id":"4","last_reported":1744466910,"current_range_meters":4000,"station_id":"","pricing_plan_id":"cebpf4jnsgd1na2vs0mg"},{"bike_id":"eab6cbfa-cb8e-47d7-b0d6-226ab7facec7","system_id":"levelo_inurba_marseille","lat":43.31723,"lon":5.42376,"is_reserved":false,"is_disabled":true,"rental_uris":{"android":"levelo://app?vid=eab6cbfa-cb8e-47d7-b0d6-226ab7facec7","ios":"levelo://app?vid=eab6cbfa-cb8e-47d7-b0d6-226ab7facec7"},"vehicle_type_id":"4","last_reported":1744466910,"current_range_meters":4000,"station_id":"ce4bhp92rcd13ifvqhbg","pricing_plan_id":"cebpf4jnsgd1na2vs0mg"},{"bike_id":"6dd59367-7997-4d6c-9325-02f41a4921c0","system_id":"levelo_inurba_marseille","lat":43.25503,"lon":5.3765,"is_reserved":false,"is_disabled":false,"rental_uris":{"android":"levelo://app?vid=6dd59367-7997-4d6c-9325-02f41a4921c0","ios":"levelo://app?vid=6dd59367-7997-4d6c-9325-02f41a4921c0"},"vehicle_type_id":"4","last_reported":1744466910,"current_range_meters":4000,"station_id":"ce4bhh12rcd13ifvqff0","pricing_plan_id":"cebpf4jnsgd1na2vs0mg"},{"bike_id":"3673a242-eeb6-407c-9359-d2e2bad993b3","system_id":"levelo_inurba_marseille","lat":43.26575,"lon":5.39017,"is_reserved":false,"is_disabled":false,"rental_uris":{"android":"levelo://app?vid=3673a242-eeb6-407c-9359-d2e2bad993b3","ios":"levelo://app?vid=3673a242-eeb6-407c-9359-d2e2bad993b3"},"vehicle_type_id":"4","last_reported":1744466910,"current_range_meters":4400,"station_id":"ce4bhe12rcd13ifvqf30","pricing_plan_id":"cebpf4jnsgd1na2vs0mg"},{"bike_id":"ef955aca-6d10-4c55-abe6-b3068bcd4935","system_id":"levelo_inurba_marseille","lat":43.26552,"lon":5.39041,"is_reserved":false,"is_disabled":false,"rental_uris":{"android":"levelo://app?vid=ef955aca-6d10-4c55-abe6-b3068bcd4935","ios":"levelo://app?vid=ef955aca-6d10-4c55-abe6-b3068bcd4935"},"vehicle_type_id":"4","last_reported":1744466910,"current_range_meters":4400,"station_id":"ce4bhe12rcd13ifvqf30","pricing_plan_id":"cebpf4jnsgd1na2vs0mg"},{"bike_id":"fee4982d-7b80-45ff-9187-090fb44610e5","system_id":"levelo_inurba_marseille","lat":43.23965,"lon":5.36639,"is_reserved":false,"is_disabled":false,"rental_uris":{"android":"levelo://app?vid=fee4982d-7b80-45ff-9187-090fb44610e5","ios":"levelo://app?vid=fee4982d-7b80-45ff-9187-090fb44610e5"},"vehicle_type_id":"4","last_reported":1744466910,"current_range_meters":4400,"station_id":"ce4bhi12rcd13ifvqfp0","pricing_plan_id":"cebpf4jnsgd1na2vs0mg"},{"bike_id":"d7f9e116-c5b6-4b81-b124-ce6019a2d1cb","system_id":"levelo_inurba_marseille","lat":43.21735,"lon":5.346,"is_reserved":false,"is_disabled":true,"rental_uris":{"android":"levelo://app?vid=d7f9e116-c5b6-4b81-b124-ce6019a2d1cb","ios":"levelo://app?vid=d7f9e116-c5b6-4b81-b124-ce6019a2d1cb"},"vehicle_type_id":"4","last_reported":1744466910,"current_range_meters":4400,"station_id":"st_cvj6r9ubvosntc0bgbag","pricing_plan_id":"cebpf4jnsgd1na2vs0mg"},{"bike_id":"02b92f67-64b2-402f-a485-3d216f876387","system_id":"levelo_inurba_marseille","lat":43.284174,"lon":5.349965,"is_reserved":false,"is_disabled":false,"rental_uris":{"android":"levelo://app?vid=02b92f67-64b2-402f-a485-3d216f876387","ios":"levelo://app?vid=02b92f67-64b2-402f-a485-3d216f876387"},"vehicle_type_id":"4","last_reported":1744466910,"current_range_meters":4800,"station_id":"","pricing_plan_id":"cebpf4jnsgd1na2vs0mg"},{"bike_id":"b9cd4d5c-7664-4e34-9800-74d0e71e0759","system_id":"levelo_inurba_marseille","lat":43.284501,"lon":5.392095,"is_reserved":false,"is_disabled":false,"rental_uris":{"android":"levelo://app?vid=b9cd4d5c-7664-4e34-9800-74d0e71e0759","ios":"levelo://app?vid=b9cd4d5c-7664-4e34-9800-74d0e71e0759"},"vehicle_type_id":"4","last_reported":1744466910,"current_range_meters":4400,"station_id":"ce4bhoh2rcd13ifvqh5g","pricing_plan_id":"cebpf4jnsgd1na2vs0mg"},{"bike_id":"dfea235f-03b1-4107-be14-7bc8575fdb75","system_id":"levelo_inurba_marseille","lat":43.24163,"lon":5.36393,"is_reserved":false,"is_disabled":false,"rental_uris":{"android":"levelo://app?vid=dfea235f-03b1-4107-be14-7bc8575fdb75","ios":"levelo://app?vid=dfea235f-03b1-4107-be14-7bc8575fdb75"},"vehicle_type_id":"4","last_reported":1744466910,"current_range_meters":4800,"station_id":"cpo36qri1sfpv3e86is0","pricing_plan_id":"cebpf4jnsgd1na2vs0mg"},{"bike_id":"413f5944-d556-48c5-a610-830b3488ec8c","system_id":"levelo_inurba_marseille","lat":43.25502,"lon":5.37652,"is_reserved":false,"is_disabled":false,"rental_uris":{"android":"levelo://app?vid=413f5944-d556-48c5-a610-830b3488ec8c","ios":"levelo://app?vid=413f5944-d556-48c5-a610-830b3488ec8c"},"vehicle_type_id":"4","last_reported":1744466910,"current_range_meters":4800,"station_id":"ce4bhh12rcd13ifvqff0","pricing_plan_id":"cebpf4jnsgd1na2vs0mg"},{"bike_id":"cd9c580b-75fd-421b-92ca-af30a8baf13c","system_id":"levelo_inurba_marseille","lat":43.24547,"lon":5.39527,"is_reserved":false,"is_disabled":false,"rental_uris":{"android":"levelo://app?vid=cd9c580b-75fd-421b-92ca-af30a8baf13c","ios":"levelo://app?vid=cd9c580b-75fd-421b-92ca-af30a8baf13c"},"vehicle_type_id":"4","last_reported":1744466910,"current_range_meters":5600,"station_id":"ce4bhlp2rcd13ifvqgjg","pricing_plan_id":"cebpf4jnsgd1na2vs0mg"},{"bike_id":"41bcebd2-5a26-4bb3-9167-38e5af937ff7","system_id":"levelo_inurba_marseille","lat":43.28422,"lon":5.34993,"is_reserved":false,"is_disabled":false,"rental_uris":{"android":"levelo://app?vid=41bcebd2-5a26-4bb3-9167-38e5af937ff7","ios":"levelo://app?vid=41bcebd2-5a26-4bb3-9167-38e5af937ff7"},"vehicle_type_id":"4","last_reported":1744466910,"current_range_meters":5600,"station_id":"ce4bhbh2rcd13ifvqepg","pricing_plan_id":"cebpf4jnsgd1na2vs0mg"},{"bike_id":"e90ff735-7e03-480a-913e-108ea5bf5fd0","system_id":"levelo_inurba_marseille","lat":43.29501,"lon":5.37512,"is_reserved":false,"is_disabled":false,"rental_uris":{"android":"levelo://app?vid=e90ff735-7e03-480a-913e-108ea5bf5fd0","ios":"levelo://app?vid=e90ff735-7e03-480a-913e-108ea5bf5fd0"},"vehicle_type_id":"4","last_reported":1744466910,"current_range_meters":5600,"station_id":"ce4bgkp2rcd13ifvqbmg","pricing_plan_id":"cebpf4jnsgd1na2vs0mg"},{"bike_id":"a2417265-aaaf-4846-a7cc-2faf5068e2d6","system_id":"levelo_inurba_marseille","lat":43.28154,"lon":5.426403,"is_reserved":false,"is_disabled":false,"rental_uris":{"android":"levelo://app?vid=a2417265-aaaf-4846-a7cc-2faf5068e2d6","ios":"levelo://app?vid=a2417265-aaaf-4846-a7cc-2faf5068e2d6"},"vehicle_type_id":"4","last_reported":1744466910,"current_range_meters":5600,"station_id":"ce4bhnh2rcd13ifvqgug","pricing_plan_id":"cebpf4jnsgd1na2vs0mg"},{"bike_id":"0f37d537-65e9-4ce7-83ed-8b3e67806c75","system_id":"levelo_inurba_marseille","lat":43.26577,"lon":5.39013,"is_reserved":false,"is_disabled":false,"rental_uris":{"android":"levelo://app?vid=0f37d537-65e9-4ce7-83ed-8b3e67806c75","ios":"levelo://app?vid=0f37d537-65e9-4ce7-83ed-8b3e67806c75"},"vehicle_type_id":"4","last_reported":1744466910,"current_range_meters":5600,"station_id":"ce4bhe12rcd13ifvqf30","pricing_plan_id":"cebpf4jnsgd1na2vs0mg"},{"bike_id":"ee50d5ba-31cc-420c-9dd6-74eccf0d9805","system_id":"levelo_inurba_marseille","lat":43.27055,"lon":5.4026,"is_reserved":false,"is_disabled":false,"rental_uris":{"android":"levelo://app?vid=ee50d5ba-31cc-420c-9dd6-74eccf0d9805","ios":"levelo://app?vid=ee50d5ba-31cc-420c-9dd6-74eccf0d9805"},"vehicle_type_id":"4","last_reported":1744466910,"current_range_meters":5600,"station_id":"ce4bhk92rcd13ifvqgc0","pricing_plan_id":"cebpf4jnsgd1na2vs0mg"},{"bike_id":"2ab6fffe-fd02-4cf8-95d2-29af17c4cfe2","system_id":"levelo_inurba_marseille","lat":43.28567,"lon":5.39498,"is_reserved":false,"is_disabled":false,"rental_uris":{"android":"levelo://app?vid=2ab6fffe-fd02-4cf8-95d2-29af17c4cfe2","ios":"levelo://app?vid=2ab6fffe-fd02-4cf8-95d2-29af17c4cfe2"},"vehicle_type_id":"4","last_reported":1744466910,"current_range_meters":5600,"station_id":"ce4bh292rcd13ifvqdg0","pricing_plan_id":"cebpf4jnsgd1na2vs0mg"},{"bike_id":"0418e90a-ab53-494b-b9bd-17befeae360d","system_id":"levelo_inurba_marseille","lat":43.23064,"lon":5.35496,"is_reserved":false,"is_disabled":false,"rental_uris":{"android":"levelo://app?vid=0418e90a-ab53-494b-b9bd-17befeae360d","ios":"levelo://app?vid=0418e90a-ab53-494b-b9bd-17befeae360d"},"vehicle_type_id":"4","last_reported":1744466910,"current_range_meters":6000,"station_id":"cpo3342slgdg3j2ifvpg","pricing_plan_id":"cebpf4jnsgd1na2vs0mg"},{"bike_id":"1f585aa1-3d03-4603-9850-791d85bc33ea","system_id":"levelo_inurba_marseille","lat":43.27383,"lon":5.3625,"is_reserved":false,"is_disabled":false,"rental_uris":{"android":"levelo://app?vid=1f585aa1-3d03-4603-9850-791d85bc33ea","ios":"levelo://app?vid=1f585aa1-3d03-4603-9850-791d85bc33ea"},"vehicle_type_id":"4","last_reported":1744466910,"current_range_meters":6000,"station_id":"ce4bhbh2rcd13ifvqeo0","pricing_plan_id":"cebpf4jnsgd1na2vs0mg"},{"bike_id":"47d58e8b-1cb7-45ee-aaae-dbe0b912b88d","system_id":"levelo_inurba_marseille","lat":43.30547,"lon":5.36563,"is_reserved":false,"is_disabled":false,"rental_uris":{"android":"levelo://app?vid=47d58e8b-1cb7-45ee-aaae-dbe0b912b88d","ios":"levelo://app?vid=47d58e8b-1cb7-45ee-aaae-dbe0b912b88d"},"vehicle_type_id":"4","last_reported":1744466910,"current_range_meters":6000,"station_id":"ce4bgs12rcd13ifvqcag","pricing_plan_id":"cebpf4jnsgd1na2vs0mg"},{"bike_id":"f44407f8-f765-4ef5-90c9-4de43931c2b5","system_id":"levelo_inurba_marseille","lat":43.25504,"lon":5.3765,"is_reserved":false,"is_disabled":false,"rental_uris":{"android":"levelo://app?vid=f44407f8-f765-4ef5-90c9-4de43931c2b5","ios":"levelo://app?vid=f44407f8-f765-4ef5-90c9-4de43931c2b5"},"vehicle_type_id":"4","last_reported":1744466910,"current_range_meters":6000,"station_id":"ce4bhh12rcd13ifvqff0","pricing_plan_id":"cebpf4jnsgd1na2vs0mg"},{"bike_id":"96481f0e-45a4-47ec-90f4-863d2a42aa28","system_id":"levelo_inurba_marseille","lat":43.29193,"lon":5.358,"is_reserved":false,"is_disabled":false,"rental_uris":{"android":"levelo://app?vid=96481f0e-45a4-47ec-90f4-863d2a42aa28","ios":"levelo://app?vid=96481f0e-45a4-47ec-90f4-863d2a42aa28"},"vehicle_type_id":"4","last_reported":1744466910,"current_range_meters":6000,"station_id":"ce4bhb12rcd13ifvqel0","pricing_plan_id":"cebpf4jnsgd1na2vs0mg"},{"bike_id":"02b4e6d1-aa95-4d2f-8ae6-bfb1add06398","system_id":"levelo_inurba_marseille","lat":43.24388,"lon":5.37066,"is_reserved":false,"is_disabled":false,"rental_uris":{"android":"levelo://app?vid=02b4e6d1-aa95-4d2f-8ae6-bfb1add06398","ios":"levelo://app?vid=02b4e6d1-aa95-4d2f-8ae6-bfb1add06398"},"vehicle_type_id":"4","last_reported":1744466910,"current_range_meters":6000,"station_id":"ce4bhhh2rcd13ifvqfk0","pricing_plan_id":"cebpf4jnsgd1na2vs0mg"},{"bike_id":"ca934f8c-8acc-48fb-a1cb-6331a497c1aa","system_id":"levelo_inurba_marseille","lat":43.21183,"lon":5.35074,"is_reserved":false,"is_disabled":false,"rental_uris":{"android":"levelo://app?vid=ca934f8c-8acc-48fb-a1cb-6331a497c1aa","ios":"levelo://app?vid=ca934f8c-8acc-48fb-a1cb-6331a497c1aa"},"vehicle_type_id":"4","last_reported":1744466910,"current_range_meters":6400,"station_id":"st_cvj6sg6p6f1abm77japg","pricing_plan_id":"cebpf4jnsgd1na2vs0mg"},{"bike_id":"c3c1d618-394c-4f13-8cf3-54fddae60d37","system_id":"levelo_inurba_marseille","lat":43.240547,"lon":5.377596,"is_reserved":false,"is_disabled":false,"rental_uris":{"android":"levelo://app?vid=c3c1d618-394c-4f13-8cf3-54fddae60d37","ios":"levelo://app?vid=c3c1d618-394c-4f13-8cf3-54fddae60d37"},"vehicle_type_id":"4","last_reported":1744466910,"current_range_meters":6400,"station_id":"ce4bhnp2rcd13ifvqgvg","pricing_plan_id":"cebpf4jnsgd1na2vs0mg"},{"bike_id":"82512979-dd5d-41b2-b19e-e6120f456917","system_id":"levelo_inurba_marseille","lat":43.21184,"lon":5.35075,"is_reserved":false,"is_disabled":false,"rental_uris":{"android":"levelo://app?vid=82512979-dd5d-41b2-b19e-e6120f456917","ios":"levelo://app?vid=82512979-dd5d-41b2-b19e-e6120f456917"},"vehicle_type_id":"4","last_reported":1744466910,"current_range_meters":6800,"station_id":"st_cvj6sg6p6f1abm77japg","pricing_plan_id":"cebpf4jnsgd1na2vs0mg"},{"bike_id":"4c56221a-0f46-4530-955a-7184a07c8a88","system_id":"levelo_inurba_marseille","lat":43.25,"lon":5.38925,"is_reserved":false,"is_disabled":true,"rental_uris":{"android":"levelo://app?vid=4c56221a-0f46-4530-955a-7184a07c8a88","ios":"levelo://app?vid=4c56221a-0f46-4530-955a-7184a07c8a88"},"vehicle_type_id":"4","last_reported":1744466910,"current_range_meters":6800,"station_id":"ce4bhgp2rcd13ifvqfd0","pricing_plan_id":"cebpf4jnsgd1na2vs0mg"},{"bike_id":"4f57ce03-1ed9-48dd-a7e8-dabb7db7c797","system_id":"levelo_inurba_marseille","lat":43.274297,"lon":5.394287,"is_reserved":false,"is_disabled":false,"rental_uris":{"android":"levelo://app?vid=4f57ce03-1ed9-48dd-a7e8-dabb7db7c797","ios":"levelo://app?vid=4f57ce03-1ed9-48dd-a7e8-dabb7db7c797"},"vehicle_type_id":"4","last_reported":1744466910,"current_range_meters":6800,"station_id":"ce4bhdp2rcd13ifvqf20","pricing_plan_id":"cebpf4jnsgd1na2vs0mg"},{"bike_id":"6d1f80b1-80e0-4012-99d1-3f8172cadb63","system_id":"levelo_inurba_marseille","lat":43.24166,"lon":5.36398,"is_reserved":false,"is_disabled":false,"rental_uris":{"android":"levelo://app?vid=6d1f80b1-80e0-4012-99d1-3f8172cadb63","ios":"levelo://app?vid=6d1f80b1-80e0-4012-99d1-3f8172cadb63"},"vehicle_type_id":"4","last_reported":1744466910,"current_range_meters":6800,"station_id":"cpo36qri1sfpv3e86is0","pricing_plan_id":"cebpf4jnsgd1na2vs0mg"},{"bike_id":"94455896-0f19-4fae-bd72-9879f01fcd6e","system_id":"levelo_inurba_marseille","lat":43.29561,"lon":5.42265,"is_reserved":false,"is_disabled":true,"rental_uris":{"android":"levelo://app?vid=94455896-0f19-4fae-bd72-9879f01fcd6e","ios":"levelo://app?vid=94455896-0f19-4fae-bd72-9879f01fcd6e"},"vehicle_type_id":"4","last_reported":1744466910,"current_range_meters":6800,"station_id":"ce4bhph2rcd13ifvqhdg","pricing_plan_id":"cebpf4jnsgd1na2vs0mg"},{"bike_id":"3eeebe6a-7323-4854-9a17-e835fe5e286d","system_id":"levelo_inurba_marseille","lat":43.29571,"lon":5.37504,"is_reserved":false,"is_disabled":false,"rental_uris":{"android":"levelo://app?vid=3eeebe6a-7323-4854-9a17-e835fe5e286d","ios":"levelo://app?vid=3eeebe6a-7323-4854-9a17-e835fe5e286d"},"vehicle_type_id":"4","last_reported":1744466910,"current_range_meters":6800,"station_id":"ce4bgh92rcd13ifvqb50","pricing_plan_id":"cebpf4jnsgd1na2vs0mg"},{"bike_id":"8b463b3b-7a14-4f37-b228-97c50d8a27f5","system_id":"levelo_inurba_marseille","lat":43.27357,"lon":5.36279,"is_reserved":false,"is_disabled":false,"rental_uris":{"android":"levelo://app?vid=8b463b3b-7a14-4f37-b228-97c50d8a27f5","ios":"levelo://app?vid=8b463b3b-7a14-4f37-b228-97c50d8a27f5"},"vehicle_type_id":"4","last_reported":1744466910,"current_range_meters":6800,"station_id":"ce4bhbh2rcd13ifvqeo0","pricing_plan_id":"cebpf4jnsgd1na2vs0mg"},{"bike_id":"8ee58055-72b1-4d18-93a4-2e01bf83fc60","system_id":"levelo_inurba_marseille","lat":43.26214,"lon":5.37447,"is_reserved":false,"is_disabled":false,"rental_uris":{"android":"levelo://app?vid=8ee58055-72b1-4d18-93a4-2e01bf83fc60","ios":"levelo://app?vid=8ee58055-72b1-4d18-93a4-2e01bf83fc60"},"vehicle_type_id":"4","last_reported":1744466910,"current_range_meters":7200,"station_id":"ce4bhgp2rcd13ifvqfc0","pricing_plan_id":"cebpf4jnsgd1na2vs0mg"},{"bike_id":"2552da92-5043-4e4b-b73e-4ae09f6cbaaa","system_id":"levelo_inurba_marseille","lat":43.29834,"lon":5.362725,"is_reserved":false,"is_disabled":false,"rental_uris":{"android":"levelo://app?vid=2552da92-5043-4e4b-b73e-4ae09f6cbaaa","ios":"levelo://app?vid=2552da92-5043-4e4b-b73e-4ae09f6cbaaa"},"vehicle_type_id":"4","last_reported":1744466910,"current_range_meters":6800,"station_id":"ce4bgpp2rcd13ifvqc3g","pricing_plan_id":"cebpf4jnsgd1na2vs0mg"},{"bike_id":"528bcf7c-dfdc-42f2-868e-fffc4b88d644","system_id":"levelo_inurba_marseille","lat":43.26592,"lon":5.39027,"is_reserved":false,"is_disabled":false,"rental_uris":{"android":"levelo://app?vid=528bcf7c-dfdc-42f2-868e-fffc4b88d644","ios":"levelo://app?vid=528bcf7c-dfdc-42f2-868e-fffc4b88d644"},"vehicle_type_id":"4","last_reported":1744466910,"current_range_meters":7200,"station_id":"ce4bhe12rcd13ifvqf30","pricing_plan_id":"cebpf4jnsgd1na2vs0mg"},{"bike_id":"3ac73e63-1619-4c1b-a7d0-7311424e94ef","system_id":"levelo_inurba_marseille","lat":43.28996,"lon":5.37609,"is_reserved":false,"is_disabled":false,"rental_uris":{"android":"levelo://app?vid=3ac73e63-1619-4c1b-a7d0-7311424e94ef","ios":"levelo://app?vid=3ac73e63-1619-4c1b-a7d0-7311424e94ef"},"vehicle_type_id":"4","last_reported":1744466910,"current_range_meters":7200,"station_id":"","pricing_plan_id":"cebpf4jnsgd1na2vs0mg"},{"bike_id":"c2f0188e-cc2a-48f7-9b54-63394c070e42","system_id":"levelo_inurba_marseille","lat":43.31997,"lon":5.38156,"is_reserved":false,"is_disabled":false,"rental_uris":{"android":"levelo://app?vid=c2f0188e-cc2a-48f7-9b54-63394c070e42","ios":"levelo://app?vid=c2f0188e-cc2a-48f7-9b54-63394c070e42"},"vehicle_type_id":"4","last_reported":1744466910,"current_range_meters":7200,"station_id":"ce4bhr12rcd13ifvqhpg","pricing_plan_id":"cebpf4jnsgd1na2vs0mg"},{"bike_id":"4f18f4bb-b27b-4f02-bf95-7816c564fc9f","system_id":"levelo_inurba_marseille","lat":43.29189,"lon":5.35796,"is_reserved":false,"is_disabled":false,"rental_uris":{"android":"levelo://app?vid=4f18f4bb-b27b-4f02-bf95-7816c564fc9f","ios":"levelo://app?vid=4f18f4bb-b27b-4f02-bf95-7816c564fc9f"},"vehicle_type_id":"4","last_reported":1744466910,"current_range_meters":6800,"station_id":"ce4bhb12rcd13ifvqel0","pricing_plan_id":"cebpf4jnsgd1na2vs0mg"},{"bike_id":"0025890b-004a-47bf-9ba6-dfc5a9e6c44c","system_id":"levelo_inurba_marseille","lat":43.30904,"lon":5.37194,"is_reserved":false,"is_disabled":false,"rental_uris":{"android":"levelo://app?vid=0025890b-004a-47bf-9ba6-dfc5a9e6c44c","ios":"levelo://app?vid=0025890b-004a-47bf-9ba6-dfc5a9e6c44c"},"vehicle_type_id":"4","last_reported":1744466910,"current_range_meters":7200,"station_id":"ce4bguh2rcd13ifvqckg","pricing_plan_id":"cebpf4jnsgd1na2vs0mg"},{"bike_id":"e9e8e27e-9aca-499d-ab8f-96c2afa7d289","system_id":"levelo_inurba_marseille","lat":43.27058,"lon":5.4026,"is_reserved":false,"is_disabled":false,"rental_uris":{"android":"levelo://app?vid=e9e8e27e-9aca-499d-ab8f-96c2afa7d289","ios":"levelo://app?vid=e9e8e27e-9aca-499d-ab8f-96c2afa7d289"},"vehicle_type_id":"4","last_reported":1744466910,"current_range_meters":7200,"station_id":"ce4bhk92rcd13ifvqgc0","pricing_plan_id":"cebpf4jnsgd1na2vs0mg"},{"bike_id":"ea628b22-b6a7-44f1-a072-501247a5d1a1","system_id":"levelo_inurba_marseille","lat":43.29893,"lon":5.43677,"is_reserved":false,"is_disabled":false,"rental_uris":{"android":"levelo://app?vid=ea628b22-b6a7-44f1-a072-501247a5d1a1","ios":"levelo://app?vid=ea628b22-b6a7-44f1-a072-501247a5d1a1"},"vehicle_type_id":"4","last_reported":1744466910,"current_range_meters":7200,"station_id":"ce4bhpp2rcd13ifvqhfg","pricing_plan_id":"cebpf4jnsgd1na2vs0mg"},{"bike_id":"70b79363-26ad-44f4-ae07-e85ad4456aba","system_id":"levelo_inurba_marseille","lat":43.27608,"lon":5.36116,"is_reserved":false,"is_disabled":false,"rental_uris":{"android":"levelo://app?vid=70b79363-26ad-44f4-ae07-e85ad4456aba","ios":"levelo://app?vid=70b79363-26ad-44f4-ae07-e85ad4456aba"},"vehicle_type_id":"4","last_reported":1744466910,"current_range_meters":7200,"station_id":"ce4bgj92rcd13ifvqbe0","pricing_plan_id":"cebpf4jnsgd1na2vs0mg"},{"bike_id":"3f08cc69-711e-4264-b923-68891203ffa4","system_id":"levelo_inurba_marseille","lat":43.32285,"lon":5.38243,"is_reserved":false,"is_disabled":false,"rental_uris":{"android":"levelo://app?vid=3f08cc69-711e-4264-b923-68891203ffa4","ios":"levelo://app?vid=3f08cc69-711e-4264-b923-68891203ffa4"},"vehicle_type_id":"4","last_reported":1744466910,"current_range_meters":7200,"station_id":"ce4bhr12rcd13ifvqhqg","pricing_plan_id":"cebpf4jnsgd1na2vs0mg"},{"bike_id":"4d3a7a1f-9df2-404f-87f7-28f2d7c5373f","system_id":"levelo_inurba_marseille","lat":43.297081,"lon":5.36607,"is_reserved":false,"is_disabled":false,"rental_uris":{"android":"levelo://app?vid=4d3a7a1f-9df2-404f-87f7-28f2d7c5373f","ios":"levelo://app?vid=4d3a7a1f-9df2-404f-87f7-28f2d7c5373f"},"vehicle_type_id":"4","last_reported":1744466910,"current_range_meters":8000,"station_id":"ce4bgn12rcd13ifvqbt0","pricing_plan_id":"cebpf4jnsgd1na2vs0mg"},{"bike_id":"0f538c77-867d-4ba2-8a0f-91756089b8c6","system_id":"levelo_inurba_marseille","lat":43.26557,"lon":5.37286,"is_reserved":false,"is_disabled":false,"rental_uris":{"android":"levelo://app?vid=0f538c77-867d-4ba2-8a0f-91756089b8c6","ios":"levelo://app?vid=0f538c77-867d-4ba2-8a0f-91756089b8c6"},"vehicle_type_id":"4","last_reported":1744466910,"current_range_meters":8000,"station_id":"ce4bhg12rcd13ifvqf70","pricing_plan_id":"cebpf4jnsgd1na2vs0mg"},{"bike_id":"0f587f65-00f0-4d95-87a7-ce38aeeb1bbc","system_id":"levelo_inurba_marseille","lat":43.29592,"lon":5.3811,"is_reserved":false,"is_disabled":false,"rental_uris":{"android":"levelo://app?vid=0f587f65-00f0-4d95-87a7-ce38aeeb1bbc","ios":"levelo://app?vid=0f587f65-00f0-4d95-87a7-ce38aeeb1bbc"},"vehicle_type_id":"4","last_reported":1744466910,"current_range_meters":8000,"station_id":"ce4bgl12rcd13ifvqbo0","pricing_plan_id":"cebpf4jnsgd1na2vs0mg"},{"bike_id":"54f6b08f-0ea3-4646-9035-88b28b93d9b8","system_id":"levelo_inurba_marseille","lat":43.29306,"lon":5.37183,"is_reserved":false,"is_disabled":false,"rental_uris":{"android":"levelo://app?vid=54f6b08f-0ea3-4646-9035-88b28b93d9b8","ios":"levelo://app?vid=54f6b08f-0ea3-4646-9035-88b28b93d9b8"},"vehicle_type_id":"4","last_reported":1744466910,"current_range_meters":8000,"station_id":"ce4bgh92rcd13ifvqb40","pricing_plan_id":"cebpf4jnsgd1na2vs0mg"},{"bike_id":"94a2d289-6a01-4914-95dd-c0bbac3ace54","system_id":"levelo_inurba_marseille","lat":43.29551,"lon":5.42278,"is_reserved":false,"is_disabled":false,"rental_uris":{"android":"levelo://app?vid=94a2d289-6a01-4914-95dd-c0bbac3ace54","ios":"levelo://app?vid=94a2d289-6a01-4914-95dd-c0bbac3ace54"},"vehicle_type_id":"4","last_reported":1744466910,"current_range_meters":8000,"station_id":"ce4bhph2rcd13ifvqhdg","pricing_plan_id":"cebpf4jnsgd1na2vs0mg"},{"bike_id":"68de7c8e-0a7c-4def-bc8f-72f753f07918","system_id":"levelo_inurba_marseille","lat":43.27374,"lon":5.3625,"is_reserved":false,"is_disabled":false,"rental_uris":{"android":"levelo://app?vid=68de7c8e-0a7c-4def-bc8f-72f753f07918","ios":"levelo://app?vid=68de7c8e-0a7c-4def-bc8f-72f753f07918"},"vehicle_type_id":"4","last_reported":1744466910,"current_range_meters":8000,"station_id":"ce4bhbh2rcd13ifvqeo0","pricing_plan_id":"cebpf4jnsgd1na2vs0mg"},{"bike_id":"f9b7cb35-f25b-4252-a7a8-3a4f82cba88c","system_id":"levelo_inurba_marseille","lat":43.2972,"lon":5.36155,"is_reserved":false,"is_disabled":false,"rental_uris":{"android":"levelo://app?vid=f9b7cb35-f25b-4252-a7a8-3a4f82cba88c","ios":"levelo://app?vid=f9b7cb35-f25b-4252-a7a8-3a4f82cba88c"},"vehicle_type_id":"4","last_reported":1744466910,"current_range_meters":8400,"station_id":"","pricing_plan_id":"cebpf4jnsgd1na2vs0mg"},{"bike_id":"1ac3f927-5374-4396-8386-4a891882fc63","system_id":"levelo_inurba_marseille","lat":43.23148,"lon":5.43717,"is_reserved":false,"is_disabled":false,"rental_uris":{"android":"levelo://app?vid=1ac3f927-5374-4396-8386-4a891882fc63","ios":"levelo://app?vid=1ac3f927-5374-4396-8386-4a891882fc63"},"vehicle_type_id":"4","last_reported":1744466910,"current_range_meters":8000,"station_id":"ce4bhmp2rcd13ifvqgog","pricing_plan_id":"cebpf4jnsgd1na2vs0mg"},{"bike_id":"90da50ba-95da-4619-ac5d-542dfde5259f","system_id":"levelo_inurba_marseille","lat":43.26213,"lon":5.37443,"is_reserved":false,"is_disabled":false,"rental_uris":{"android":"levelo://app?vid=90da50ba-95da-4619-ac5d-542dfde5259f","ios":"levelo://app?vid=90da50ba-95da-4619-ac5d-542dfde5259f"},"vehicle_type_id":"4","last_reported":1744466910,"current_range_meters":8000,"station_id":"ce4bhgp2rcd13ifvqfc0","pricing_plan_id":"cebpf4jnsgd1na2vs0mg"},{"bike_id":"5c464f09-f8cd-497e-8469-4dc462091beb","system_id":"levelo_inurba_marseille","lat":43.28975,"lon":5.37835,"is_reserved":false,"is_disabled":false,"rental_uris":{"android":"levelo://app?vid=5c464f09-f8cd-497e-8469-4dc462091beb","ios":"levelo://app?vid=5c464f09-f8cd-497e-8469-4dc462091beb"},"vehicle_type_id":"4","last_reported":1744466910,"current_range_meters":8000,"station_id":"ce4bh9p2rcd13ifvqed0","pricing_plan_id":"cebpf4jnsgd1na2vs0mg"},{"bike_id":"3aa0fa9b-adf6-4bb4-8157-be16b366a876","system_id":"levelo_inurba_marseille","lat":43.27376,"lon":5.36252,"is_reserved":false,"is_disabled":false,"rental_uris":{"android":"levelo://app?vid=3aa0fa9b-adf6-4bb4-8157-be16b366a876","ios":"levelo://app?vid=3aa0fa9b-adf6-4bb4-8157-be16b366a876"},"vehicle_type_id":"4","last_reported":1744466910,"current_range_meters":8000,"station_id":"ce4bhbh2rcd13ifvqeo0","pricing_plan_id":"cebpf4jnsgd1na2vs0mg"},{"bike_id":"cc83a7aa-57a1-4769-9137-8531613b4691","system_id":"levelo_inurba_marseille","lat":43.31245,"lon":5.37306,"is_reserved":false,"is_disabled":false,"rental_uris":{"android":"levelo://app?vid=cc83a7aa-57a1-4769-9137-8531613b4691","ios":"levelo://app?vid=cc83a7aa-57a1-4769-9137-8531613b4691"},"vehicle_type_id":"4","last_reported":1744466910,"current_range_meters":8000,"station_id":"","pricing_plan_id":"cebpf4jnsgd1na2vs0mg"},{"bike_id":"61087c9c-58a2-45af-89fa-c020f9313355","system_id":"levelo_inurba_marseille","lat":43.21753,"lon":5.34607,"is_reserved":false,"is_disabled":true,"rental_uris":{"android":"levelo://app?vid=61087c9c-58a2-45af-89fa-c020f9313355","ios":"levelo://app?vid=61087c9c-58a2-45af-89fa-c020f9313355"},"vehicle_type_id":"4","last_reported":1744466910,"current_range_meters":8000,"station_id":"st_cvj6r9ubvosntc0bgbag","pricing_plan_id":"cebpf4jnsgd1na2vs0mg"},{"bike_id":"f1e00540-c2d1-4f3b-ba05-711232888e6e","system_id":"levelo_inurba_marseille","lat":43.21747,"lon":5.34607,"is_reserved":false,"is_disabled":true,"rental_uris":{"android":"levelo://app?vid=f1e00540-c2d1-4f3b-ba05-711232888e6e","ios":"levelo://app?vid=f1e00540-c2d1-4f3b-ba05-711232888e6e"},"vehicle_type_id":"4","last_reported":1744466910,"current_range_meters":8000,"station_id":"st_cvj6r9ubvosntc0bgbag","pricing_plan_id":"cebpf4jnsgd1na2vs0mg"},{"bike_id":"e029651c-5772-4d4b-9804-e9b85b852d24","system_id":"levelo_inurba_marseille","lat":43.305348,"lon":5.365623,"is_reserved":false,"is_disabled":false,"rental_uris":{"android":"levelo://app?vid=e029651c-5772-4d4b-9804-e9b85b852d24","ios":"levelo://app?vid=e029651c-5772-4d4b-9804-e9b85b852d24"},"vehicle_type_id":"4","last_reported":1744466910,"current_range_meters":8000,"station_id":"","pricing_plan_id":"cebpf4jnsgd1na2vs0mg"},{"bike_id":"cd56e7bc-9bae-4d3f-8afb-5deb3862f8ce","system_id":"levelo_inurba_marseille","lat":43.2737,"lon":5.3625,"is_reserved":false,"is_disabled":false,"rental_uris":{"android":"levelo://app?vid=cd56e7bc-9bae-4d3f-8afb-5deb3862f8ce","ios":"levelo://app?vid=cd56e7bc-9bae-4d3f-8afb-5deb3862f8ce"},"vehicle_type_id":"4","last_reported":1744466910,"current_range_meters":8000,"station_id":"ce4bhbh2rcd13ifvqeo0","pricing_plan_id":"cebpf4jnsgd1na2vs0mg"},{"bike_id":"27f1f517-894f-4a9f-ad2c-bdf34db6efd0","system_id":"levelo_inurba_marseille","lat":43.273763,"lon":5.362547,"is_reserved":false,"is_disabled":false,"rental_uris":{"android":"levelo://app?vid=27f1f517-894f-4a9f-ad2c-bdf34db6efd0","ios":"levelo://app?vid=27f1f517-894f-4a9f-ad2c-bdf34db6efd0"},"vehicle_type_id":"4","last_reported":1744466910,"current_range_meters":8400,"station_id":"","pricing_plan_id":"cebpf4jnsgd1na2vs0mg"},{"bike_id":"b579fb15-b8b4-4ff4-9f27-d04a4f47e81a","system_id":"levelo_inurba_marseille","lat":43.27252,"lon":5.39191,"is_reserved":false,"is_disabled":false,"rental_uris":{"android":"levelo://app?vid=b579fb15-b8b4-4ff4-9f27-d04a4f47e81a","ios":"levelo://app?vid=b579fb15-b8b4-4ff4-9f27-d04a4f47e81a"},"vehicle_type_id":"4","last_reported":1744466910,"current_range_meters":8400,"station_id":"ce4bhhp2rcd13ifvqfm0","pricing_plan_id":"cebpf4jnsgd1na2vs0mg"},{"bike_id":"ae07d28f-ea83-4cae-ab0d-e458f39ab9be","system_id":"levelo_inurba_marseille","lat":43.27065,"lon":5.40257,"is_reserved":false,"is_disabled":false,"rental_uris":{"android":"levelo://app?vid=ae07d28f-ea83-4cae-ab0d-e458f39ab9be","ios":"levelo://app?vid=ae07d28f-ea83-4cae-ab0d-e458f39ab9be"},"vehicle_type_id":"4","last_reported":1744466910,"current_range_meters":8400,"station_id":"ce4bhk92rcd13ifvqgc0","pricing_plan_id":"cebpf4jnsgd1na2vs0mg"},{"bike_id":"ea2c866d-a4b3-4a27-befc-e78cce08fc46","system_id":"levelo_inurba_marseille","lat":43.28155,"lon":5.42647,"is_reserved":false,"is_disabled":false,"rental_uris":{"android":"levelo://app?vid=ea2c866d-a4b3-4a27-befc-e78cce08fc46","ios":"levelo://app?vid=ea2c866d-a4b3-4a27-befc-e78cce08fc46"},"vehicle_type_id":"4","last_reported":1744466910,"current_range_meters":8400,"station_id":"ce4bhnh2rcd13ifvqgug","pricing_plan_id":"cebpf4jnsgd1na2vs0mg"},{"bike_id":"ca7aaf45-8fb2-4870-a162-cf2c29000ad0","system_id":"levelo_inurba_marseille","lat":43.28268,"lon":5.35062,"is_reserved":false,"is_disabled":false,"rental_uris":{"android":"levelo://app?vid=ca7aaf45-8fb2-4870-a162-cf2c29000ad0","ios":"levelo://app?vid=ca7aaf45-8fb2-4870-a162-cf2c29000ad0"},"vehicle_type_id":"4","last_reported":1744466910,"current_range_meters":8400,"station_id":"ce4bhbp2rcd13ifvqerg","pricing_plan_id":"cebpf4jnsgd1na2vs0mg"},{"bike_id":"6e18db9e-ae37-4970-94b7-9e8fa1b98771","system_id":"levelo_inurba_marseille","lat":43.29261,"lon":5.40925,"is_reserved":false,"is_disabled":false,"rental_uris":{"android":"levelo://app?vid=6e18db9e-ae37-4970-94b7-9e8fa1b98771","ios":"levelo://app?vid=6e18db9e-ae37-4970-94b7-9e8fa1b98771"},"vehicle_type_id":"4","last_reported":1744466910,"current_range_meters":8400,"station_id":"ce4bh192rcd13ifvqdc0","pricing_plan_id":"cebpf4jnsgd1na2vs0mg"},{"bike_id":"5e90e6ec-bea9-4619-82f0-65fd4fef1403","system_id":"levelo_inurba_marseille","lat":43.284208,"lon":5.349769,"is_reserved":false,"is_disabled":false,"rental_uris":{"android":"levelo://app?vid=5e90e6ec-bea9-4619-82f0-65fd4fef1403","ios":"levelo://app?vid=5e90e6ec-bea9-4619-82f0-65fd4fef1403"},"vehicle_type_id":"4","last_reported":1744466910,"current_range_meters":8400,"station_id":"ce4bhbh2rcd13ifvqepg","pricing_plan_id":"cebpf4jnsgd1na2vs0mg"},{"bike_id":"2834c2c3-3469-4997-b007-c1f57d4dddce","system_id":"levelo_inurba_marseille","lat":43.26202,"lon":5.37928,"is_reserved":false,"is_disabled":false,"rental_uris":{"android":"levelo://app?vid=2834c2c3-3469-4997-b007-c1f57d4dddce","ios":"levelo://app?vid=2834c2c3-3469-4997-b007-c1f57d4dddce"},"vehicle_type_id":"4","last_reported":1744466910,"current_range_meters":8800,"station_id":"ce4bhjp2rcd13ifvqg90","pricing_plan_id":"cebpf4jnsgd1na2vs0mg"},{"bike_id":"bca09f6b-1b51-4f0e-adae-f0abc29f7878","system_id":"levelo_inurba_marseille","lat":43.2984,"lon":5.36274,"is_reserved":false,"is_disabled":false,"rental_uris":{"android":"levelo://app?vid=bca09f6b-1b51-4f0e-adae-f0abc29f7878","ios":"levelo://app?vid=bca09f6b-1b51-4f0e-adae-f0abc29f7878"},"vehicle_type_id":"4","last_reported":1744466910,"current_range_meters":8400,"station_id":"ce4bgpp2rcd13ifvqc3g","pricing_plan_id":"cebpf4jnsgd1na2vs0mg"},{"bike_id":"01232948-0eb2-495b-a06e-5666fff782f7","system_id":"levelo_inurba_marseille","lat":43.2418,"lon":5.39736,"is_reserved":false,"is_disabled":false,"rental_uris":{"android":"levelo://app?vid=01232948-0eb2-495b-a06e-5666fff782f7","ios":"levelo://app?vid=01232948-0eb2-495b-a06e-5666fff782f7"},"vehicle_type_id":"4","last_reported":1744466910,"current_range_meters":8800,"station_id":"ce4bhn12rcd13ifvqgpg","pricing_plan_id":"cebpf4jnsgd1na2vs0mg"},{"bike_id":"49815a2a-260e-4cfc-8823-51f23577d634","system_id":"levelo_inurba_marseille","lat":43.21193,"lon":5.3508,"is_reserved":false,"is_disabled":false,"rental_uris":{"android":"levelo://app?vid=49815a2a-260e-4cfc-8823-51f23577d634","ios":"levelo://app?vid=49815a2a-260e-4cfc-8823-51f23577d634"},"vehicle_type_id":"4","last_reported":1744466910,"current_range_meters":8800,"station_id":"st_cvj6sg6p6f1abm77japg","pricing_plan_id":"cebpf4jnsgd1na2vs0mg"},{"bike_id":"57ed074f-fb87-4ff0-84e1-6716253d8707","system_id":"levelo_inurba_marseille","lat":43.302496,"lon":5.40076,"is_reserved":false,"is_disabled":false,"rental_uris":{"android":"levelo://app?vid=57ed074f-fb87-4ff0-84e1-6716253d8707","ios":"levelo://app?vid=57ed074f-fb87-4ff0-84e1-6716253d8707"},"vehicle_type_id":"4","last_reported":1744466910,"current_range_meters":8400,"station_id":"ce4bhdp2rcd13ifvqf20","pricing_plan_id":"cebpf4jnsgd1na2vs0mg"},{"bike_id":"b076ee16-f944-44e5-9547-889f6f6aa972","system_id":"levelo_inurba_marseille","lat":43.25592,"lon":5.38236,"is_reserved":false,"is_disabled":false,"rental_uris":{"android":"levelo://app?vid=b076ee16-f944-44e5-9547-889f6f6aa972","ios":"levelo://app?vid=b076ee16-f944-44e5-9547-889f6f6aa972"},"vehicle_type_id":"4","last_reported":1744466910,"current_range_meters":8800,"station_id":"ce4bhih2rcd13ifvqfs0","pricing_plan_id":"cebpf4jnsgd1na2vs0mg"},{"bike_id":"72adaa87-94dc-4774-aca0-5147bc57bd16","system_id":"levelo_inurba_marseille","lat":43.26031,"lon":5.41745,"is_reserved":false,"is_disabled":false,"rental_uris":{"android":"levelo://app?vid=72adaa87-94dc-4774-aca0-5147bc57bd16","ios":"levelo://app?vid=72adaa87-94dc-4774-aca0-5147bc57bd16"},"vehicle_type_id":"4","last_reported":1744466910,"current_range_meters":8800,"station_id":"","pricing_plan_id":"cebpf4jnsgd1na2vs0mg"},{"bike_id":"4be9da57-ab2d-4acb-be91-23a0d106814a","system_id":"levelo_inurba_marseille","lat":43.26558,"lon":5.37297,"is_reserved":false,"is_disabled":false,"rental_uris":{"android":"levelo://app?vid=4be9da57-ab2d-4acb-be91-23a0d106814a","ios":"levelo://app?vid=4be9da57-ab2d-4acb-be91-23a0d106814a"},"vehicle_type_id":"4","last_reported":1744466910,"current_range_meters":9200,"station_id":"ce4bhg12rcd13ifvqf70","pricing_plan_id":"cebpf4jnsgd1na2vs0mg"},{"bike_id":"1732d5f6-c749-4a27-b93d-5b1243bce4e5","system_id":"levelo_inurba_marseille","lat":43.28023,"lon":5.3695,"is_reserved":false,"is_disabled":false,"rental_uris":{"android":"levelo://app?vid=1732d5f6-c749-4a27-b93d-5b1243bce4e5","ios":"levelo://app?vid=1732d5f6-c749-4a27-b93d-5b1243bce4e5"},"vehicle_type_id":"4","last_reported":1744466910,"current_range_meters":9200,"station_id":"ce4bha12rcd13ifvqef0","pricing_plan_id":"cebpf4jnsgd1na2vs0mg"},{"bike_id":"14573d36-5ecd-44d1-9d4d-2d345cc0c804","system_id":"levelo_inurba_marseille","lat":43.26221,"lon":5.37448,"is_reserved":false,"is_disabled":false,"rental_uris":{"android":"levelo://app?vid=14573d36-5ecd-44d1-9d4d-2d345cc0c804","ios":"levelo://app?vid=14573d36-5ecd-44d1-9d4d-2d345cc0c804"},"vehicle_type_id":"4","last_reported":1744466910,"current_range_meters":9200,"station_id":"ce4bhgp2rcd13ifvqfc0","pricing_plan_id":"cebpf4jnsgd1na2vs0mg"},{"bike_id":"411f282c-b696-41a4-888f-752e1134c529","system_id":"levelo_inurba_marseille","lat":43.26193,"lon":5.37531,"is_reserved":false,"is_disabled":false,"rental_uris":{"android":"levelo://app?vid=411f282c-b696-41a4-888f-752e1134c529","ios":"levelo://app?vid=411f282c-b696-41a4-888f-752e1134c529"},"vehicle_type_id":"4","last_reported":1744466910,"current_range_meters":9200,"station_id":"ce4bhgp2rcd13ifvqfc0","pricing_plan_id":"cebpf4jnsgd1na2vs0mg"},{"bike_id":"8c58f2fa-99e1-41f8-bf90-9c1648b679b1","system_id":"levelo_inurba_marseille","lat":43.27316,"lon":5.41501,"is_reserved":false,"is_disabled":false,"rental_uris":{"android":"levelo://app?vid=8c58f2fa-99e1-41f8-bf90-9c1648b679b1","ios":"levelo://app?vid=8c58f2fa-99e1-41f8-bf90-9c1648b679b1"},"vehicle_type_id":"4","last_reported":1744466910,"current_range_meters":9200,"station_id":"","pricing_plan_id":"cebpf4jnsgd1na2vs0mg"},{"bike_id":"c0581ca2-23f7-42cc-9272-c5623c09d791","system_id":"levelo_inurba_marseille","lat":43.28414,"lon":5.34996,"is_reserved":false,"is_disabled":false,"rental_uris":{"android":"levelo://app?vid=c0581ca2-23f7-42cc-9272-c5623c09d791","ios":"levelo://app?vid=c0581ca2-23f7-42cc-9272-c5623c09d791"},"vehicle_type_id":"4","last_reported":1744466910,"current_range_meters":9200,"station_id":"ce4bhbh2rcd13ifvqepg","pricing_plan_id":"cebpf4jnsgd1na2vs0mg"},{"bike_id":"8771d8e7-52e5-4861-a854-83c0340c9927","system_id":"levelo_inurba_marseille","lat":43.21191,"lon":5.35084,"is_reserved":false,"is_disabled":false,"rental_uris":{"android":"levelo://app?vid=8771d8e7-52e5-4861-a854-83c0340c9927","ios":"levelo://app?vid=8771d8e7-52e5-4861-a854-83c0340c9927"},"vehicle_type_id":"4","last_reported":1744466910,"current_range_meters":9200,"station_id":"","pricing_plan_id":"cebpf4jnsgd1na2vs0mg"},{"bike_id":"37864421-51e4-4d5e-801c-7ac32e01e722","system_id":"levelo_inurba_marseille","lat":43.31266,"lon":5.37787,"is_reserved":false,"is_disabled":false,"rental_uris":{"android":"levelo://app?vid=37864421-51e4-4d5e-801c-7ac32e01e722","ios":"levelo://app?vid=37864421-51e4-4d5e-801c-7ac32e01e722"},"vehicle_type_id":"4","last_reported":1744466910,"current_range_meters":9200,"station_id":"","pricing_plan_id":"cebpf4jnsgd1na2vs0mg"},{"bike_id":"fba14dc4-f065-46f4-a67b-b47ee9a5123b","system_id":"levelo_inurba_marseille","lat":43.29308,"lon":5.3719,"is_reserved":false,"is_disabled":true,"rental_uris":{"android":"levelo://app?vid=fba14dc4-f065-46f4-a67b-b47ee9a5123b","ios":"levelo://app?vid=fba14dc4-f065-46f4-a67b-b47ee9a5123b"},"vehicle_type_id":"4","last_reported":1744466910,"current_range_meters":9600,"station_id":"ce4bgh92rcd13ifvqb40","pricing_plan_id":"cebpf4jnsgd1na2vs0mg"},{"bike_id":"c400e4b7-268d-4ac5-8f7a-3d44d49bb742","system_id":"levelo_inurba_marseille","lat":43.27389,"lon":5.36259,"is_reserved":false,"is_disabled":false,"rental_uris":{"android":"levelo://app?vid=c400e4b7-268d-4ac5-8f7a-3d44d49bb742","ios":"levelo://app?vid=c400e4b7-268d-4ac5-8f7a-3d44d49bb742"},"vehicle_type_id":"4","last_reported":1744466910,"current_range_meters":9600,"station_id":"ce4bhbh2rcd13ifvqeo0","pricing_plan_id":"cebpf4jnsgd1na2vs0mg"},{"bike_id":"127b380c-673f-443b-9e1b-9ae16554342d","system_id":"levelo_inurba_marseille","lat":43.30148,"lon":5.37423,"is_reserved":false,"is_disabled":false,"rental_uris":{"android":"levelo://app?vid=127b380c-673f-443b-9e1b-9ae16554342d","ios":"levelo://app?vid=127b380c-673f-443b-9e1b-9ae16554342d"},"vehicle_type_id":"4","last_reported":1744466910,"current_range_meters":9600,"station_id":"ce4bgs92rcd13ifvqcc0","pricing_plan_id":"cebpf4jnsgd1na2vs0mg"},{"bike_id":"4ee7fd36-38b2-43ee-967f-9c3537db510f","system_id":"levelo_inurba_marseille","lat":43.2985,"lon":5.36286,"is_reserved":false,"is_disabled":false,"rental_uris":{"android":"levelo://app?vid=4ee7fd36-38b2-43ee-967f-9c3537db510f","ios":"levelo://app?vid=4ee7fd36-38b2-43ee-967f-9c3537db510f"},"vehicle_type_id":"4","last_reported":1744466910,"current_range_meters":9200,"station_id":"ce4bgpp2rcd13ifvqc3g","pricing_plan_id":"cebpf4jnsgd1na2vs0mg"},{"bike_id":"60100d62-77c4-4b9e-91f5-5961660ccbff","system_id":"levelo_inurba_marseille","lat":43.24812,"lon":5.3745,"is_reserved":false,"is_disabled":false,"rental_uris":{"android":"levelo://app?vid=60100d62-77c4-4b9e-91f5-5961660ccbff","ios":"levelo://app?vid=60100d62-77c4-4b9e-91f5-5961660ccbff"},"vehicle_type_id":"4","last_reported":1744466910,"current_range_meters":9600,"station_id":"ce4bhgh2rcd13ifvqfb0","pricing_plan_id":"cebpf4jnsgd1na2vs0mg"},{"bike_id":"4c893399-b4ed-40ed-a49f-713da320f269","system_id":"levelo_inurba_marseille","lat":43.29861,"lon":5.37841,"is_reserved":false,"is_disabled":false,"rental_uris":{"android":"levelo://app?vid=4c893399-b4ed-40ed-a49f-713da320f269","ios":"levelo://app?vid=4c893399-b4ed-40ed-a49f-713da320f269"},"vehicle_type_id":"4","last_reported":1744466910,"current_range_meters":9600,"station_id":"","pricing_plan_id":"cebpf4jnsgd1na2vs0mg"},{"bike_id":"92412088-1737-4639-80b7-44b07514caf3","system_id":"levelo_inurba_marseille","lat":43.25081,"lon":5.39516,"is_reserved":false,"is_disabled":false,"rental_uris":{"android":"levelo://app?vid=92412088-1737-4639-80b7-44b07514caf3","ios":"levelo://app?vid=92412088-1737-4639-80b7-44b07514caf3"},"vehicle_type_id":"4","last_reported":1744466910,"current_range_meters":9600,"station_id":"ce4bhm12rcd13ifvqgkg","pricing_plan_id":"cebpf4jnsgd1na2vs0mg"},{"bike_id":"78795bbd-5632-4c2d-92bb-33168facec8b","system_id":"levelo_inurba_marseille","lat":43.26204,"lon":5.37447,"is_reserved":false,"is_disabled":false,"rental_uris":{"android":"levelo://app?vid=78795bbd-5632-4c2d-92bb-33168facec8b","ios":"levelo://app?vid=78795bbd-5632-4c2d-92bb-33168facec8b"},"vehicle_type_id":"4","last_reported":1744466910,"current_range_meters":9600,"station_id":"ce4bhgp2rcd13ifvqfc0","pricing_plan_id":"cebpf4jnsgd1na2vs0mg"},{"bike_id":"ec6f7006-3321-4db1-bf0c-14b3f92e978a","system_id":"levelo_inurba_marseille","lat":43.2706,"lon":5.40267,"is_reserved":false,"is_disabled":false,"rental_uris":{"android":"levelo://app?vid=ec6f7006-3321-4db1-bf0c-14b3f92e978a","ios":"levelo://app?vid=ec6f7006-3321-4db1-bf0c-14b3f92e978a"},"vehicle_type_id":"4","last_reported":1744466910,"current_range_meters":9600,"station_id":"ce4bhk92rcd13ifvqgc0","pricing_plan_id":"cebpf4jnsgd1na2vs0mg"},{"bike_id":"f68a1051-67d0-4a88-8953-29bf1876f0a5","system_id":"levelo_inurba_marseille","lat":43.21188,"lon":5.35082,"is_reserved":false,"is_disabled":false,"rental_uris":{"android":"levelo://app?vid=f68a1051-67d0-4a88-8953-29bf1876f0a5","ios":"levelo://app?vid=f68a1051-67d0-4a88-8953-29bf1876f0a5"},"vehicle_type_id":"4","last_reported":1744466910,"current_range_meters":9600,"station_id":"st_cvj6sg6p6f1abm77japg","pricing_plan_id":"cebpf4jnsgd1na2vs0mg"},{"bike_id":"95c976f4-e7c2-48bb-9de9-643dff048f08","system_id":"levelo_inurba_marseille","lat":43.29619,"lon":5.37153,"is_reserved":false,"is_disabled":false,"rental_uris":{"android":"levelo://app?vid=95c976f4-e7c2-48bb-9de9-643dff048f08","ios":"levelo://app?vid=95c976f4-e7c2-48bb-9de9-643dff048f08"},"vehicle_type_id":"4","last_reported":1744466910,"current_range_meters":10000,"station_id":"ce4bgnh2rcd13ifvqc0g","pricing_plan_id":"cebpf4jnsgd1na2vs0mg"},{"bike_id":"4a0973b0-92a0-41e8-9b0d-a99e944bafe0","system_id":"levelo_inurba_marseille","lat":43.344893,"lon":5.412961,"is_reserved":false,"is_disabled":false,"rental_uris":{"android":"levelo://app?vid=4a0973b0-92a0-41e8-9b0d-a99e944bafe0","ios":"levelo://app?vid=4a0973b0-92a0-41e8-9b0d-a99e944bafe0"},"vehicle_type_id":"4","last_reported":1744466910,"current_range_meters":10000,"station_id":"","pricing_plan_id":"cebpf4jnsgd1na2vs0mg"},{"bike_id":"4d930011-1eed-4646-a4bb-e1bfdf5ed834","system_id":"levelo_inurba_marseille","lat":43.25495,"lon":5.37655,"is_reserved":false,"is_disabled":false,"rental_uris":{"android":"levelo://app?vid=4d930011-1eed-4646-a4bb-e1bfdf5ed834","ios":"levelo://app?vid=4d930011-1eed-4646-a4bb-e1bfdf5ed834"},"vehicle_type_id":"4","last_reported":1744466910,"current_range_meters":10000,"station_id":"ce4bhh12rcd13ifvqff0","pricing_plan_id":"cebpf4jnsgd1na2vs0mg"},{"bike_id":"cf353430-8db5-4a8c-ab85-d29434313580","system_id":"levelo_inurba_marseille","lat":43.28939,"lon":5.36632,"is_reserved":false,"is_disabled":false,"rental_uris":{"android":"levelo://app?vid=cf353430-8db5-4a8c-ab85-d29434313580","ios":"levelo://app?vid=cf353430-8db5-4a8c-ab85-d29434313580"},"vehicle_type_id":"4","last_reported":1744466910,"current_range_meters":10000,"station_id":"ce4bhap2rcd13ifvqek0","pricing_plan_id":"cebpf4jnsgd1na2vs0mg"},{"bike_id":"29fd9406-b872-4408-b90c-f1d9e5190468","system_id":"levelo_inurba_marseille","lat":43.23154,"lon":5.43713,"is_reserved":false,"is_disabled":false,"rental_uris":{"android":"levelo://app?vid=29fd9406-b872-4408-b90c-f1d9e5190468","ios":"levelo://app?vid=29fd9406-b872-4408-b90c-f1d9e5190468"},"vehicle_type_id":"4","last_reported":1744466910,"current_range_meters":10000,"station_id":"ce4bhmp2rcd13ifvqgog","pricing_plan_id":"cebpf4jnsgd1na2vs0mg"},{"bike_id":"4dad4986-3d40-4220-a4f9-44ce923be063","system_id":"levelo_inurba_marseille","lat":43.29617,"lon":5.37149,"is_reserved":false,"is_disabled":false,"rental_uris":{"android":"levelo://app?vid=4dad4986-3d40-4220-a4f9-44ce923be063","ios":"levelo://app?vid=4dad4986-3d40-4220-a4f9-44ce923be063"},"vehicle_type_id":"4","last_reported":1744466910,"current_range_meters":10000,"station_id":"ce4bgnh2rcd13ifvqc0g","pricing_plan_id":"cebpf4jnsgd1na2vs0mg"},{"bike_id":"d53356ed-34e7-4ce0-8d94-e073954cdd85","system_id":"levelo_inurba_marseille","lat":43.27052,"lon":5.40248,"is_reserved":false,"is_disabled":true,"rental_uris":{"android":"levelo://app?vid=d53356ed-34e7-4ce0-8d94-e073954cdd85","ios":"levelo://app?vid=d53356ed-34e7-4ce0-8d94-e073954cdd85"},"vehicle_type_id":"4","last_reported":1744466910,"current_range_meters":10800,"station_id":"ce4bhk92rcd13ifvqgc0","pricing_plan_id":"cebpf4jnsgd1na2vs0mg"},{"bike_id":"c34ec5c1-4c72-4ca4-a836-572c39395efb","system_id":"levelo_inurba_marseille","lat":43.26599,"lon":5.3734,"is_reserved":false,"is_disabled":false,"rental_uris":{"android":"levelo://app?vid=c34ec5c1-4c72-4ca4-a836-572c39395efb","ios":"levelo://app?vid=c34ec5c1-4c72-4ca4-a836-572c39395efb"},"vehicle_type_id":"4","last_reported":1744466910,"current_range_meters":10800,"station_id":"","pricing_plan_id":"cebpf4jnsgd1na2vs0mg"},{"bike_id":"c013d600-5e08-48f0-830e-8c965978436b","system_id":"levelo_inurba_marseille","lat":43.30433,"lon":5.38892,"is_reserved":false,"is_disabled":true,"rental_uris":{"android":"levelo://app?vid=c013d600-5e08-48f0-830e-8c965978436b","ios":"levelo://app?vid=c013d600-5e08-48f0-830e-8c965978436b"},"vehicle_type_id":"4","last_reported":1744466910,"current_range_meters":10800,"station_id":"ce4bgk12rcd13ifvqbi0","pricing_plan_id":"cebpf4jnsgd1na2vs0mg"},{"bike_id":"b0c0e7f2-c18d-4997-b23a-e7928dd1857c","system_id":"levelo_inurba_marseille","lat":43.28591,"lon":5.37072,"is_reserved":false,"is_disabled":false,"rental_uris":{"android":"levelo://app?vid=b0c0e7f2-c18d-4997-b23a-e7928dd1857c","ios":"levelo://app?vid=b0c0e7f2-c18d-4997-b23a-e7928dd1857c"},"vehicle_type_id":"4","last_reported":1744466910,"current_range_meters":10800,"station_id":"ce4bht12rcd13ifvqi60","pricing_plan_id":"cebpf4jnsgd1na2vs0mg"},{"bike_id":"d42f23d7-d351-4d5d-90a9-6576de082c06","system_id":"levelo_inurba_marseille","lat":43.25499,"lon":5.3765,"is_reserved":false,"is_disabled":false,"rental_uris":{"android":"levelo://app?vid=d42f23d7-d351-4d5d-90a9-6576de082c06","ios":"levelo://app?vid=d42f23d7-d351-4d5d-90a9-6576de082c06"},"vehicle_type_id":"4","last_reported":1744466910,"current_range_meters":10800,"station_id":"ce4bhh12rcd13ifvqff0","pricing_plan_id":"cebpf4jnsgd1na2vs0mg"},{"bike_id":"ef291804-1477-432e-b153-82ea15725418","system_id":"levelo_inurba_marseille","lat":43.33742,"lon":5.37454,"is_reserved":false,"is_disabled":false,"rental_uris":{"android":"levelo://app?vid=ef291804-1477-432e-b153-82ea15725418","ios":"levelo://app?vid=ef291804-1477-432e-b153-82ea15725418"},"vehicle_type_id":"4","last_reported":1744466910,"current_range_meters":11200,"station_id":"","pricing_plan_id":"cebpf4jnsgd1na2vs0mg"},{"bike_id":"7856fd5c-0543-411a-8ead-d683389d9d07","system_id":"levelo_inurba_marseille","lat":43.264975,"lon":5.39534,"is_reserved":false,"is_disabled":false,"rental_uris":{"android":"levelo://app?vid=7856fd5c-0543-411a-8ead-d683389d9d07","ios":"levelo://app?vid=7856fd5c-0543-411a-8ead-d683389d9d07"},"vehicle_type_id":"4","last_reported":1744466910,"current_range_meters":11200,"station_id":"ce4bhi12rcd13ifvqfq0","pricing_plan_id":"cebpf4jnsgd1na2vs0mg"},{"bike_id":"88802da1-90f2-4aff-90a1-c3598e933096","system_id":"levelo_inurba_marseille","lat":43.30548,"lon":5.39551,"is_reserved":false,"is_disabled":false,"rental_uris":{"android":"levelo://app?vid=88802da1-90f2-4aff-90a1-c3598e933096","ios":"levelo://app?vid=88802da1-90f2-4aff-90a1-c3598e933096"},"vehicle_type_id":"4","last_reported":1744466910,"current_range_meters":11600,"station_id":"","pricing_plan_id":"cebpf4jnsgd1na2vs0mg"},{"bike_id":"344c8b65-50f6-4829-b1ed-44cd58120273","system_id":"levelo_inurba_marseille","lat":43.24804,"lon":5.37458,"is_reserved":false,"is_disabled":false,"rental_uris":{"android":"levelo://app?vid=344c8b65-50f6-4829-b1ed-44cd58120273","ios":"levelo://app?vid=344c8b65-50f6-4829-b1ed-44cd58120273"},"vehicle_type_id":"4","last_reported":1744466910,"current_range_meters":11200,"station_id":"ce4bhgh2rcd13ifvqfb0","pricing_plan_id":"cebpf4jnsgd1na2vs0mg"},{"bike_id":"927626f0-1990-4706-aa4d-35055d22281a","system_id":"levelo_inurba_marseille","lat":43.30824,"lon":5.37243,"is_reserved":false,"is_disabled":false,"rental_uris":{"android":"levelo://app?vid=927626f0-1990-4706-aa4d-35055d22281a","ios":"levelo://app?vid=927626f0-1990-4706-aa4d-35055d22281a"},"vehicle_type_id":"4","last_reported":1744466910,"current_range_meters":11600,"station_id":"","pricing_plan_id":"cebpf4jnsgd1na2vs0mg"},{"bike_id":"f7d1eee0-1715-419d-beac-1b98ec9e62ed","system_id":"levelo_inurba_marseille","lat":43.3096,"lon":5.39033,"is_reserved":false,"is_disabled":true,"rental_uris":{"android":"levelo://app?vid=f7d1eee0-1715-419d-beac-1b98ec9e62ed","ios":"levelo://app?vid=f7d1eee0-1715-419d-beac-1b98ec9e62ed"},"vehicle_type_id":"4","last_reported":1744466910,"current_range_meters":11600,"station_id":"ce4bgup2rcd13ifvqco0","pricing_plan_id":"cebpf4jnsgd1na2vs0mg"},{"bike_id":"55e19c19-d97b-48a5-a7c7-68ee378d49d8","system_id":"levelo_inurba_marseille","lat":43.29672,"lon":5.36268,"is_reserved":false,"is_disabled":false,"rental_uris":{"android":"levelo://app?vid=55e19c19-d97b-48a5-a7c7-68ee378d49d8","ios":"levelo://app?vid=55e19c19-d97b-48a5-a7c7-68ee378d49d8"},"vehicle_type_id":"4","last_reported":1744466910,"current_range_meters":11600,"station_id":"","pricing_plan_id":"cebpf4jnsgd1na2vs0mg"},{"bike_id":"7caf2f5d-e371-46c7-bab0-1cee84bd7a2e","system_id":"levelo_inurba_marseille","lat":43.27996,"lon":5.41663,"is_reserved":false,"is_disabled":false,"rental_uris":{"android":"levelo://app?vid=7caf2f5d-e371-46c7-bab0-1cee84bd7a2e","ios":"levelo://app?vid=7caf2f5d-e371-46c7-bab0-1cee84bd7a2e"},"vehicle_type_id":"4","last_reported":1744466910,"current_range_meters":11200,"station_id":"ce4bho12rcd13ifvqh1g","pricing_plan_id":"cebpf4jnsgd1na2vs0mg"},{"bike_id":"8b8fa8ea-9d4f-4e91-88e0-50f2e7cfb2b9","system_id":"levelo_inurba_marseille","lat":43.296068,"lon":5.376458,"is_reserved":false,"is_disabled":false,"rental_uris":{"android":"levelo://app?vid=8b8fa8ea-9d4f-4e91-88e0-50f2e7cfb2b9","ios":"levelo://app?vid=8b8fa8ea-9d4f-4e91-88e0-50f2e7cfb2b9"},"vehicle_type_id":"4","last_reported":1744466910,"current_range_meters":11600,"station_id":"ce4bgh92rcd13ifvqb50","pricing_plan_id":"cebpf4jnsgd1na2vs0mg"},{"bike_id":"c8aad4c9-8bfa-40d3-bfd3-41fa300a75fe","system_id":"levelo_inurba_marseille","lat":43.2558,"lon":5.38237,"is_reserved":false,"is_disabled":false,"rental_uris":{"android":"levelo://app?vid=c8aad4c9-8bfa-40d3-bfd3-41fa300a75fe","ios":"levelo://app?vid=c8aad4c9-8bfa-40d3-bfd3-41fa300a75fe"},"vehicle_type_id":"4","last_reported":1744466910,"current_range_meters":11600,"station_id":"ce4bhih2rcd13ifvqfs0","pricing_plan_id":"cebpf4jnsgd1na2vs0mg"},{"bike_id":"3bffe419-a959-4b25-8681-fdbff008591e","system_id":"levelo_inurba_marseille","lat":43.26025,"lon":5.37556,"is_reserved":false,"is_disabled":false,"rental_uris":{"android":"levelo://app?vid=3bffe419-a959-4b25-8681-fdbff008591e","ios":"levelo://app?vid=3bffe419-a959-4b25-8681-fdbff008591e"},"vehicle_type_id":"4","last_reported":1744466910,"current_range_meters":11600,"station_id":"ce4bhgh2rcd13ifvqfa0","pricing_plan_id":"cebpf4jnsgd1na2vs0mg"},{"bike_id":"0e7bf4ae-5aed-4055-a1f8-96debbb9847e","system_id":"levelo_inurba_marseille","lat":43.24164,"lon":5.36393,"is_reserved":false,"is_disabled":false,"rental_uris":{"android":"levelo://app?vid=0e7bf4ae-5aed-4055-a1f8-96debbb9847e","ios":"levelo://app?vid=0e7bf4ae-5aed-4055-a1f8-96debbb9847e"},"vehicle_type_id":"4","last_reported":1744466910,"current_range_meters":11600,"station_id":"cpo36qri1sfpv3e86is0","pricing_plan_id":"cebpf4jnsgd1na2vs0mg"},{"bike_id":"8609ec5b-db31-4682-89f6-95794d251c5e","system_id":"levelo_inurba_marseille","lat":43.23166,"lon":5.43696,"is_reserved":false,"is_disabled":false,"rental_uris":{"android":"levelo://app?vid=8609ec5b-db31-4682-89f6-95794d251c5e","ios":"levelo://app?vid=8609ec5b-db31-4682-89f6-95794d251c5e"},"vehicle_type_id":"4","last_reported":1744466910,"current_range_meters":11600,"station_id":"ce4bhmp2rcd13ifvqgog","pricing_plan_id":"cebpf4jnsgd1na2vs0mg"},{"bike_id":"d8f603cd-3b83-4148-bab8-3a185ad2a59f","system_id":"levelo_inurba_marseille","lat":43.32416,"lon":5.3913,"is_reserved":false,"is_disabled":false,"rental_uris":{"android":"levelo://app?vid=d8f603cd-3b83-4148-bab8-3a185ad2a59f","ios":"levelo://app?vid=d8f603cd-3b83-4148-bab8-3a185ad2a59f"},"vehicle_type_id":"4","last_reported":1744466910,"current_range_meters":12000,"station_id":"","pricing_plan_id":"cebpf4jnsgd1na2vs0mg"},{"bike_id":"450de126-a945-4b15-b34f-6ffd5c99e1ff","system_id":"levelo_inurba_marseille","lat":43.27374,"lon":5.36251,"is_reserved":false,"is_disabled":false,"rental_uris":{"android":"levelo://app?vid=450de126-a945-4b15-b34f-6ffd5c99e1ff","ios":"levelo://app?vid=450de126-a945-4b15-b34f-6ffd5c99e1ff"},"vehicle_type_id":"4","last_reported":1744466910,"current_range_meters":12000,"station_id":"ce4bhbh2rcd13ifvqeo0","pricing_plan_id":"cebpf4jnsgd1na2vs0mg"},{"bike_id":"75875c3c-a072-400f-bf63-9aa39834dabd","system_id":"levelo_inurba_marseille","lat":43.26209,"lon":5.37437,"is_reserved":false,"is_disabled":false,"rental_uris":{"android":"levelo://app?vid=75875c3c-a072-400f-bf63-9aa39834dabd","ios":"levelo://app?vid=75875c3c-a072-400f-bf63-9aa39834dabd"},"vehicle_type_id":"4","last_reported":1744466910,"current_range_meters":12000,"station_id":"ce4bhgp2rcd13ifvqfc0","pricing_plan_id":"cebpf4jnsgd1na2vs0mg"},{"bike_id":"9a3eeca7-abb7-40e1-9536-03cdbb4f196f","system_id":"levelo_inurba_marseille","lat":43.23143,"lon":5.43715,"is_reserved":false,"is_disabled":false,"rental_uris":{"android":"levelo://app?vid=9a3eeca7-abb7-40e1-9536-03cdbb4f196f","ios":"levelo://app?vid=9a3eeca7-abb7-40e1-9536-03cdbb4f196f"},"vehicle_type_id":"4","last_reported":1744466910,"current_range_meters":12000,"station_id":"ce4bhmp2rcd13ifvqgog","pricing_plan_id":"cebpf4jnsgd1na2vs0mg"},{"bike_id":"5b77a833-8185-45c2-9fe3-07eb40df54ca","system_id":"levelo_inurba_marseille","lat":43.33995,"lon":5.38057,"is_reserved":false,"is_disabled":false,"rental_uris":{"android":"levelo://app?vid=5b77a833-8185-45c2-9fe3-07eb40df54ca","ios":"levelo://app?vid=5b77a833-8185-45c2-9fe3-07eb40df54ca"},"vehicle_type_id":"4","last_reported":1744466910,"current_range_meters":12000,"station_id":"","pricing_plan_id":"cebpf4jnsgd1na2vs0mg"},{"bike_id":"85157d92-d3cd-4ab9-aef7-ff297fa13d42","system_id":"levelo_inurba_marseille","lat":43.27365,"lon":5.3624,"is_reserved":false,"is_disabled":false,"rental_uris":{"android":"levelo://app?vid=85157d92-d3cd-4ab9-aef7-ff297fa13d42","ios":"levelo://app?vid=85157d92-d3cd-4ab9-aef7-ff297fa13d42"},"vehicle_type_id":"4","last_reported":1744466910,"current_range_meters":12400,"station_id":"ce4bhbh2rcd13ifvqeo0","pricing_plan_id":"cebpf4jnsgd1na2vs0mg"},{"bike_id":"b03f45e3-b8c0-49bb-8d1f-e42bd43f8726","system_id":"levelo_inurba_marseille","lat":43.30546,"lon":5.36555,"is_reserved":false,"is_disabled":false,"rental_uris":{"android":"levelo://app?vid=b03f45e3-b8c0-49bb-8d1f-e42bd43f8726","ios":"levelo://app?vid=b03f45e3-b8c0-49bb-8d1f-e42bd43f8726"},"vehicle_type_id":"4","last_reported":1744466910,"current_range_meters":12400,"station_id":"ce4bgs12rcd13ifvqcag","pricing_plan_id":"cebpf4jnsgd1na2vs0mg"},{"bike_id":"9a297965-1603-4e0d-af70-c225fa4f1b04","system_id":"levelo_inurba_marseille","lat":43.28422,"lon":5.34996,"is_reserved":false,"is_disabled":false,"rental_uris":{"android":"levelo://app?vid=9a297965-1603-4e0d-af70-c225fa4f1b04","ios":"levelo://app?vid=9a297965-1603-4e0d-af70-c225fa4f1b04"},"vehicle_type_id":"4","last_reported":1744466910,"current_range_meters":12400,"station_id":"ce4bhbh2rcd13ifvqepg","pricing_plan_id":"cebpf4jnsgd1na2vs0mg"},{"bike_id":"38183908-6893-4dfa-95e8-c1565a94cb53","system_id":"levelo_inurba_marseille","lat":43.23193,"lon":5.35555,"is_reserved":false,"is_disabled":false,"rental_uris":{"android":"levelo://app?vid=38183908-6893-4dfa-95e8-c1565a94cb53","ios":"levelo://app?vid=38183908-6893-4dfa-95e8-c1565a94cb53"},"vehicle_type_id":"4","last_reported":1744466910,"current_range_meters":12400,"station_id":"ce4bhu92rcd13ifvqi70","pricing_plan_id":"cebpf4jnsgd1na2vs0mg"},{"bike_id":"f229e4c0-5e5f-46b7-a2a4-15826ff3e22b","system_id":"levelo_inurba_marseille","lat":43.26939,"lon":5.40253,"is_reserved":false,"is_disabled":false,"rental_uris":{"android":"levelo://app?vid=f229e4c0-5e5f-46b7-a2a4-15826ff3e22b","ios":"levelo://app?vid=f229e4c0-5e5f-46b7-a2a4-15826ff3e22b"},"vehicle_type_id":"4","last_reported":1744466910,"current_range_meters":12400,"station_id":"cjm6bp8fraef2m0cb0m0","pricing_plan_id":"cebpf4jnsgd1na2vs0mg"},{"bike_id":"851735dc-4e0a-47e9-b6a9-b62735e6d41b","system_id":"levelo_inurba_marseille","lat":43.27356,"lon":5.36256,"is_reserved":false,"is_disabled":false,"rental_uris":{"android":"levelo://app?vid=851735dc-4e0a-47e9-b6a9-b62735e6d41b","ios":"levelo://app?vid=851735dc-4e0a-47e9-b6a9-b62735e6d41b"},"vehicle_type_id":"4","last_reported":1744466910,"current_range_meters":12800,"station_id":"ce4bhbh2rcd13ifvqeo0","pricing_plan_id":"cebpf4jnsgd1na2vs0mg"},{"bike_id":"c021310f-318f-4e37-88df-96540738d923","system_id":"levelo_inurba_marseille","lat":43.21183,"lon":5.35067,"is_reserved":false,"is_disabled":false,"rental_uris":{"android":"levelo://app?vid=c021310f-318f-4e37-88df-96540738d923","ios":"levelo://app?vid=c021310f-318f-4e37-88df-96540738d923"},"vehicle_type_id":"4","last_reported":1744466910,"current_range_meters":12800,"station_id":"st_cvj6sg6p6f1abm77japg","pricing_plan_id":"cebpf4jnsgd1na2vs0mg"},{"bike_id":"493cde9e-7859-4c26-a2e6-f744ee5d8553","system_id":"levelo_inurba_marseille","lat":43.31801,"lon":5.3682,"is_reserved":false,"is_disabled":false,"rental_uris":{"android":"levelo://app?vid=493cde9e-7859-4c26-a2e6-f744ee5d8553","ios":"levelo://app?vid=493cde9e-7859-4c26-a2e6-f744ee5d8553"},"vehicle_type_id":"4","last_reported":1744466910,"current_range_meters":12800,"station_id":"","pricing_plan_id":"cebpf4jnsgd1na2vs0mg"},{"bike_id":"c047401e-911f-47c5-88c3-12ac03cbf1ed","system_id":"levelo_inurba_marseille","lat":43.21192,"lon":5.35077,"is_reserved":false,"is_disabled":false,"rental_uris":{"android":"levelo://app?vid=c047401e-911f-47c5-88c3-12ac03cbf1ed","ios":"levelo://app?vid=c047401e-911f-47c5-88c3-12ac03cbf1ed"},"vehicle_type_id":"4","last_reported":1744466910,"current_range_meters":12800,"station_id":"st_cvj6sg6p6f1abm77japg","pricing_plan_id":"cebpf4jnsgd1na2vs0mg"},{"bike_id":"8621e295-3526-4464-be82-74c49f48a833","system_id":"levelo_inurba_marseille","lat":43.21742,"lon":5.34605,"is_reserved":false,"is_disabled":false,"rental_uris":{"android":"levelo://app?vid=8621e295-3526-4464-be82-74c49f48a833","ios":"levelo://app?vid=8621e295-3526-4464-be82-74c49f48a833"},"vehicle_type_id":"4","last_reported":1744466910,"current_range_meters":13600,"station_id":"","pricing_plan_id":"cebpf4jnsgd1na2vs0mg"},{"bike_id":"9a3859e7-cb0e-49ca-9954-1711bc9fb271","system_id":"levelo_inurba_marseille","lat":43.23058,"lon":5.35496,"is_reserved":false,"is_disabled":false,"rental_uris":{"android":"levelo://app?vid=9a3859e7-cb0e-49ca-9954-1711bc9fb271","ios":"levelo://app?vid=9a3859e7-cb0e-49ca-9954-1711bc9fb271"},"vehicle_type_id":"4","last_reported":1744466910,"current_range_meters":13600,"station_id":"cpo3342slgdg3j2ifvpg","pricing_plan_id":"cebpf4jnsgd1na2vs0mg"},{"bike_id":"817f8d7f-6d20-49fe-9d47-a64e5e5e1a3b","system_id":"levelo_inurba_marseille","lat":43.26209,"lon":5.37444,"is_reserved":false,"is_disabled":false,"rental_uris":{"android":"levelo://app?vid=817f8d7f-6d20-49fe-9d47-a64e5e5e1a3b","ios":"levelo://app?vid=817f8d7f-6d20-49fe-9d47-a64e5e5e1a3b"},"vehicle_type_id":"4","last_reported":1744466910,"current_range_meters":13600,"station_id":"ce4bhgp2rcd13ifvqfc0","pricing_plan_id":"cebpf4jnsgd1na2vs0mg"},{"bike_id":"2f5bc015-0a98-4a0d-a50f-f7181e1d6abe","system_id":"levelo_inurba_marseille","lat":43.233854,"lon":5.412334,"is_reserved":false,"is_disabled":false,"rental_uris":{"android":"levelo://app?vid=2f5bc015-0a98-4a0d-a50f-f7181e1d6abe","ios":"levelo://app?vid=2f5bc015-0a98-4a0d-a50f-f7181e1d6abe"},"vehicle_type_id":"4","last_reported":1744466910,"current_range_meters":13600,"station_id":"","pricing_plan_id":"cebpf4jnsgd1na2vs0mg"},{"bike_id":"0ef05e9b-7270-4442-84dd-3210d5c0774b","system_id":"levelo_inurba_marseille","lat":43.28409,"lon":5.3499,"is_reserved":false,"is_disabled":false,"rental_uris":{"android":"levelo://app?vid=0ef05e9b-7270-4442-84dd-3210d5c0774b","ios":"levelo://app?vid=0ef05e9b-7270-4442-84dd-3210d5c0774b"},"vehicle_type_id":"4","last_reported":1744466910,"current_range_meters":13600,"station_id":"ce4bhbh2rcd13ifvqepg","pricing_plan_id":"cebpf4jnsgd1na2vs0mg"},{"bike_id":"142b76c7-7738-483a-9c15-c61e640a332c","system_id":"levelo_inurba_marseille","lat":43.30536,"lon":5.36535,"is_reserved":false,"is_disabled":false,"rental_uris":{"android":"levelo://app?vid=142b76c7-7738-483a-9c15-c61e640a332c","ios":"levelo://app?vid=142b76c7-7738-483a-9c15-c61e640a332c"},"vehicle_type_id":"4","last_reported":1744466910,"current_range_meters":13600,"station_id":"ce4bgs12rcd13ifvqcag","pricing_plan_id":"cebpf4jnsgd1na2vs0mg"},{"bike_id":"6d15af86-98c4-428d-92bc-53013be61e03","system_id":"levelo_inurba_marseille","lat":43.212,"lon":5.35053,"is_reserved":false,"is_disabled":false,"rental_uris":{"android":"levelo://app?vid=6d15af86-98c4-428d-92bc-53013be61e03","ios":"levelo://app?vid=6d15af86-98c4-428d-92bc-53013be61e03"},"vehicle_type_id":"4","last_reported":1744466910,"current_range_meters":14000,"station_id":"ce4bgkp2rcd13ifvqbmg","pricing_plan_id":"cebpf4jnsgd1na2vs0mg"},{"bike_id":"61bc6256-8380-4638-bd27-1e2c56ecc87d","system_id":"levelo_inurba_marseille","lat":43.29709,"lon":5.37651,"is_reserved":false,"is_disabled":false,"rental_uris":{"android":"levelo://app?vid=61bc6256-8380-4638-bd27-1e2c56ecc87d","ios":"levelo://app?vid=61bc6256-8380-4638-bd27-1e2c56ecc87d"},"vehicle_type_id":"4","last_reported":1744466910,"current_range_meters":13600,"station_id":"ce4bgkh2rcd13ifvqbl0","pricing_plan_id":"cebpf4jnsgd1na2vs0mg"},{"bike_id":"ed3aaa92-f68f-4bd6-944c-3a4c785f68dc","system_id":"levelo_inurba_marseille","lat":43.26194,"lon":5.3745,"is_reserved":false,"is_disabled":false,"rental_uris":{"android":"levelo://app?vid=ed3aaa92-f68f-4bd6-944c-3a4c785f68dc","ios":"levelo://app?vid=ed3aaa92-f68f-4bd6-944c-3a4c785f68dc"},"vehicle_type_id":"4","last_reported":1744466910,"current_range_meters":14000,"station_id":"ce4bhgp2rcd13ifvqfc0","pricing_plan_id":"cebpf4jnsgd1na2vs0mg"},{"bike_id":"f7843f46-58aa-4cf6-a1d0-1b94b16f71c2","system_id":"levelo_inurba_marseille","lat":43.298439,"lon":5.396626,"is_reserved":false,"is_disabled":false,"rental_uris":{"android":"levelo://app?vid=f7843f46-58aa-4cf6-a1d0-1b94b16f71c2","ios":"levelo://app?vid=f7843f46-58aa-4cf6-a1d0-1b94b16f71c2"},"vehicle_type_id":"4","last_reported":1744466910,"current_range_meters":14000,"station_id":"","pricing_plan_id":"cebpf4jnsgd1na2vs0mg"},{"bike_id":"e1653f31-4ca2-4969-aa72-bbee848ad5cd","system_id":"levelo_inurba_marseille","lat":43.21195,"lon":5.3508,"is_reserved":false,"is_disabled":false,"rental_uris":{"android":"levelo://app?vid=e1653f31-4ca2-4969-aa72-bbee848ad5cd","ios":"levelo://app?vid=e1653f31-4ca2-4969-aa72-bbee848ad5cd"},"vehicle_type_id":"4","last_reported":1744466910,"current_range_meters":14000,"station_id":"st_cvj6sg6p6f1abm77japg","pricing_plan_id":"cebpf4jnsgd1na2vs0mg"},{"bike_id":"096f78b5-fb6d-4b49-ab0f-8c9ff0fc667e","system_id":"levelo_inurba_marseille","lat":43.26794,"lon":5.39447,"is_reserved":false,"is_disabled":false,"rental_uris":{"android":"levelo://app?vid=096f78b5-fb6d-4b49-ab0f-8c9ff0fc667e","ios":"levelo://app?vid=096f78b5-fb6d-4b49-ab0f-8c9ff0fc667e"},"vehicle_type_id":"4","last_reported":1744466910,"current_range_meters":14000,"station_id":"ce4bhh12rcd13ifvqfg0","pricing_plan_id":"cebpf4jnsgd1na2vs0mg"},{"bike_id":"26168fa8-a36c-45e2-973b-769d29028eb0","system_id":"levelo_inurba_marseille","lat":43.24395,"lon":5.37046,"is_reserved":false,"is_disabled":false,"rental_uris":{"android":"levelo://app?vid=26168fa8-a36c-45e2-973b-769d29028eb0","ios":"levelo://app?vid=26168fa8-a36c-45e2-973b-769d29028eb0"},"vehicle_type_id":"4","last_reported":1744466910,"current_range_meters":14400,"station_id":"ce4bhhh2rcd13ifvqfk0","pricing_plan_id":"cebpf4jnsgd1na2vs0mg"},{"bike_id":"d2355f6e-4af0-4e6b-94cb-44a07b33f409","system_id":"levelo_inurba_marseille","lat":43.28268,"lon":5.35073,"is_reserved":false,"is_disabled":false,"rental_uris":{"android":"levelo://app?vid=d2355f6e-4af0-4e6b-94cb-44a07b33f409","ios":"levelo://app?vid=d2355f6e-4af0-4e6b-94cb-44a07b33f409"},"vehicle_type_id":"4","last_reported":1744466910,"current_range_meters":14400,"station_id":"ce4bhbp2rcd13ifvqerg","pricing_plan_id":"cebpf4jnsgd1na2vs0mg"},{"bike_id":"8879aeb9-0e0e-4c8c-a0c9-3cfbaa6ce69c","system_id":"levelo_inurba_marseille","lat":43.29776,"lon":5.37091,"is_reserved":false,"is_disabled":false,"rental_uris":{"android":"levelo://app?vid=8879aeb9-0e0e-4c8c-a0c9-3cfbaa6ce69c","ios":"levelo://app?vid=8879aeb9-0e0e-4c8c-a0c9-3cfbaa6ce69c"},"vehicle_type_id":"4","last_reported":1744466910,"current_range_meters":14400,"station_id":"ce4bgop2rcd13ifvqc1g","pricing_plan_id":"cebpf4jnsgd1na2vs0mg"},{"bike_id":"8fdd9606-fdb9-446a-8588-f844dc19c5a0","system_id":"levelo_inurba_marseille","lat":43.23147,"lon":5.43727,"is_reserved":false,"is_disabled":false,"rental_uris":{"android":"levelo://app?vid=8fdd9606-fdb9-446a-8588-f844dc19c5a0","ios":"levelo://app?vid=8fdd9606-fdb9-446a-8588-f844dc19c5a0"},"vehicle_type_id":"4","last_reported":1744466910,"current_range_meters":14000,"station_id":"ce4bhmp2rcd13ifvqgog","pricing_plan_id":"cebpf4jnsgd1na2vs0mg"},{"bike_id":"77d98cd9-7d7d-484f-92ef-1490602b8963","system_id":"levelo_inurba_marseille","lat":43.28363,"lon":5.38636,"is_reserved":false,"is_disabled":true,"rental_uris":{"android":"levelo://app?vid=77d98cd9-7d7d-484f-92ef-1490602b8963","ios":"levelo://app?vid=77d98cd9-7d7d-484f-92ef-1490602b8963"},"vehicle_type_id":"4","last_reported":1744466910,"current_range_meters":14000,"station_id":"ce4bh492rcd13ifvqdvg","pricing_plan_id":"cebpf4jnsgd1na2vs0mg"},{"bike_id":"09641453-8c56-445d-b9fe-7f7ad9f26a9d","system_id":"levelo_inurba_marseille","lat":43.26547,"lon":5.37287,"is_reserved":false,"is_disabled":false,"rental_uris":{"android":"levelo://app?vid=09641453-8c56-445d-b9fe-7f7ad9f26a9d","ios":"levelo://app?vid=09641453-8c56-445d-b9fe-7f7ad9f26a9d"},"vehicle_type_id":"4","last_reported":1744466910,"current_range_meters":14400,"station_id":"ce4bhg12rcd13ifvqf70","pricing_plan_id":"cebpf4jnsgd1na2vs0mg"},{"bike_id":"c4ae921b-038b-49a6-8c67-8f591378abd9","system_id":"levelo_inurba_marseille","lat":43.30522,"lon":5.36558,"is_reserved":false,"is_disabled":false,"rental_uris":{"android":"levelo://app?vid=c4ae921b-038b-49a6-8c67-8f591378abd9","ios":"levelo://app?vid=c4ae921b-038b-49a6-8c67-8f591378abd9"},"vehicle_type_id":"4","last_reported":1744466910,"current_range_meters":14400,"station_id":"ce4bgs12rcd13ifvqcag","pricing_plan_id":"cebpf4jnsgd1na2vs0mg"},{"bike_id":"1efbc875-f991-4cb9-8cf7-709d6f2e27b2","system_id":"levelo_inurba_marseille","lat":43.265654,"lon":5.372929,"is_reserved":false,"is_disabled":false,"rental_uris":{"android":"levelo://app?vid=1efbc875-f991-4cb9-8cf7-709d6f2e27b2","ios":"levelo://app?vid=1efbc875-f991-4cb9-8cf7-709d6f2e27b2"},"vehicle_type_id":"4","last_reported":1744466910,"current_range_meters":14800,"station_id":"ce4bhg12rcd13ifvqf70","pricing_plan_id":"cebpf4jnsgd1na2vs0mg"},{"bike_id":"856b5c7d-f029-4c12-b7be-71279018b265","system_id":"levelo_inurba_marseille","lat":43.24163,"lon":5.36408,"is_reserved":false,"is_disabled":false,"rental_uris":{"android":"levelo://app?vid=856b5c7d-f029-4c12-b7be-71279018b265","ios":"levelo://app?vid=856b5c7d-f029-4c12-b7be-71279018b265"},"vehicle_type_id":"4","last_reported":1744466910,"current_range_meters":14800,"station_id":"cpo36qri1sfpv3e86is0","pricing_plan_id":"cebpf4jnsgd1na2vs0mg"},{"bike_id":"51ae49fe-93e7-484b-b925-a3fee3cec470","system_id":"levelo_inurba_marseille","lat":43.23064,"lon":5.35491,"is_reserved":false,"is_disabled":false,"rental_uris":{"android":"levelo://app?vid=51ae49fe-93e7-484b-b925-a3fee3cec470","ios":"levelo://app?vid=51ae49fe-93e7-484b-b925-a3fee3cec470"},"vehicle_type_id":"4","last_reported":1744466910,"current_range_meters":14800,"station_id":"cpo3342slgdg3j2ifvpg","pricing_plan_id":"cebpf4jnsgd1na2vs0mg"},{"bike_id":"8043ed93-c0e0-4b20-a22a-1ce703744524","system_id":"levelo_inurba_marseille","lat":43.28944,"lon":5.36637,"is_reserved":false,"is_disabled":true,"rental_uris":{"android":"levelo://app?vid=8043ed93-c0e0-4b20-a22a-1ce703744524","ios":"levelo://app?vid=8043ed93-c0e0-4b20-a22a-1ce703744524"},"vehicle_type_id":"4","last_reported":1744466910,"current_range_meters":14800,"station_id":"ce4bhap2rcd13ifvqek0","pricing_plan_id":"cebpf4jnsgd1na2vs0mg"},{"bike_id":"b40c4f66-d610-4dcb-a21b-09d66d430ba6","system_id":"levelo_inurba_marseille","lat":43.257196,"lon":5.411173,"is_reserved":false,"is_disabled":false,"rental_uris":{"android":"levelo://app?vid=b40c4f66-d610-4dcb-a21b-09d66d430ba6","ios":"levelo://app?vid=b40c4f66-d610-4dcb-a21b-09d66d430ba6"},"vehicle_type_id":"4","last_reported":1744466910,"current_range_meters":15200,"station_id":"ce4bhkp2rcd13ifvqgd0","pricing_plan_id":"cebpf4jnsgd1na2vs0mg"},{"bike_id":"ffc7b6c5-aa37-4d5b-8a13-a8ed2c9e4592","system_id":"levelo_inurba_marseille","lat":43.29562,"lon":5.37537,"is_reserved":false,"is_disabled":false,"rental_uris":{"android":"levelo://app?vid=ffc7b6c5-aa37-4d5b-8a13-a8ed2c9e4592","ios":"levelo://app?vid=ffc7b6c5-aa37-4d5b-8a13-a8ed2c9e4592"},"vehicle_type_id":"4","last_reported":1744466910,"current_range_meters":15200,"station_id":"ce4bgh92rcd13ifvqb50","pricing_plan_id":"cebpf4jnsgd1na2vs0mg"},{"bike_id":"72c6aab6-3a44-430e-a84d-843d2a93e616","system_id":"levelo_inurba_marseille","lat":43.21187,"lon":5.35082,"is_reserved":false,"is_disabled":true,"rental_uris":{"android":"levelo://app?vid=72c6aab6-3a44-430e-a84d-843d2a93e616","ios":"levelo://app?vid=72c6aab6-3a44-430e-a84d-843d2a93e616"},"vehicle_type_id":"4","last_reported":1744466910,"current_range_meters":15200,"station_id":"st_cvj6sg6p6f1abm77japg","pricing_plan_id":"cebpf4jnsgd1na2vs0mg"},{"bike_id":"e0d14e9f-9dd9-4b88-aa07-d42519c27697","system_id":"levelo_inurba_marseille","lat":43.26562,"lon":5.39014,"is_reserved":false,"is_disabled":false,"rental_uris":{"android":"levelo://app?vid=e0d14e9f-9dd9-4b88-aa07-d42519c27697","ios":"levelo://app?vid=e0d14e9f-9dd9-4b88-aa07-d42519c27697"},"vehicle_type_id":"4","last_reported":1744466910,"current_range_meters":15200,"station_id":"ce4bhe12rcd13ifvqf30","pricing_plan_id":"cebpf4jnsgd1na2vs0mg"},{"bike_id":"d51a8c93-4a62-49ae-82cb-4bd383d80bde","system_id":"levelo_inurba_marseille","lat":43.28155,"lon":5.42647,"is_reserved":false,"is_disabled":false,"rental_uris":{"android":"levelo://app?vid=d51a8c93-4a62-49ae-82cb-4bd383d80bde","ios":"levelo://app?vid=d51a8c93-4a62-49ae-82cb-4bd383d80bde"},"vehicle_type_id":"4","last_reported":1744466910,"current_range_meters":15200,"station_id":"ce4bhnh2rcd13ifvqgug","pricing_plan_id":"cebpf4jnsgd1na2vs0mg"},{"bike_id":"1f902e70-8424-4368-8d14-f667dae49164","system_id":"levelo_inurba_marseille","lat":43.29035,"lon":5.35918,"is_reserved":false,"is_disabled":false,"rental_uris":{"android":"levelo://app?vid=1f902e70-8424-4368-8d14-f667dae49164","ios":"levelo://app?vid=1f902e70-8424-4368-8d14-f667dae49164"},"vehicle_type_id":"4","last_reported":1744466910,"current_range_meters":16000,"station_id":"ce4bha92rcd13ifvqeg0","pricing_plan_id":"cebpf4jnsgd1na2vs0mg"},{"bike_id":"a00d12aa-c0bf-4ed2-8e44-57bcc867fd2d","system_id":"levelo_inurba_marseille","lat":43.28458,"lon":5.35894,"is_reserved":false,"is_disabled":false,"rental_uris":{"android":"levelo://app?vid=a00d12aa-c0bf-4ed2-8e44-57bcc867fd2d","ios":"levelo://app?vid=a00d12aa-c0bf-4ed2-8e44-57bcc867fd2d"},"vehicle_type_id":"4","last_reported":1744466910,"current_range_meters":16000,"station_id":"ce4bhah2rcd13ifvqei0","pricing_plan_id":"cebpf4jnsgd1na2vs0mg"},{"bike_id":"db9cdcec-b5ee-409b-adf3-2fb9b83088c4","system_id":"levelo_inurba_marseille","lat":43.30944,"lon":5.37362,"is_reserved":false,"is_disabled":false,"rental_uris":{"android":"levelo://app?vid=db9cdcec-b5ee-409b-adf3-2fb9b83088c4","ios":"levelo://app?vid=db9cdcec-b5ee-409b-adf3-2fb9b83088c4"},"vehicle_type_id":"4","last_reported":1744466910,"current_range_meters":16000,"station_id":"","pricing_plan_id":"cebpf4jnsgd1na2vs0mg"},{"bike_id":"60cbbbe7-f799-439f-8421-fed515b5e527","system_id":"levelo_inurba_marseille","lat":43.24794,"lon":5.3748,"is_reserved":false,"is_disabled":false,"rental_uris":{"android":"levelo://app?vid=60cbbbe7-f799-439f-8421-fed515b5e527","ios":"levelo://app?vid=60cbbbe7-f799-439f-8421-fed515b5e527"},"vehicle_type_id":"4","last_reported":1744466910,"current_range_meters":16000,"station_id":"ce4bhgh2rcd13ifvqfb0","pricing_plan_id":"cebpf4jnsgd1na2vs0mg"},{"bike_id":"804175f2-1931-46d8-a785-1d0413febd5b","system_id":"levelo_inurba_marseille","lat":43.30543,"lon":5.36558,"is_reserved":false,"is_disabled":false,"rental_uris":{"android":"levelo://app?vid=804175f2-1931-46d8-a785-1d0413febd5b","ios":"levelo://app?vid=804175f2-1931-46d8-a785-1d0413febd5b"},"vehicle_type_id":"4","last_reported":1744466910,"current_range_meters":16000,"station_id":"ce4bgs12rcd13ifvqcag","pricing_plan_id":"cebpf4jnsgd1na2vs0mg"},{"bike_id":"82d38bd3-c046-4f55-aec8-4eb686f05e29","system_id":"levelo_inurba_marseille","lat":43.22922,"lon":5.35384,"is_reserved":false,"is_disabled":true,"rental_uris":{"android":"levelo://app?vid=82d38bd3-c046-4f55-aec8-4eb686f05e29","ios":"levelo://app?vid=82d38bd3-c046-4f55-aec8-4eb686f05e29"},"vehicle_type_id":"4","last_reported":1744466910,"current_range_meters":16000,"station_id":"cpo3532slgdg3j2ikp40","pricing_plan_id":"cebpf4jnsgd1na2vs0mg"},{"bike_id":"cd42ef9f-5a27-4d37-b4b1-37a92d3b9145","system_id":"levelo_inurba_marseille","lat":43.2396,"lon":5.36654,"is_reserved":false,"is_disabled":false,"rental_uris":{"android":"levelo://app?vid=cd42ef9f-5a27-4d37-b4b1-37a92d3b9145","ios":"levelo://app?vid=cd42ef9f-5a27-4d37-b4b1-37a92d3b9145"},"vehicle_type_id":"4","last_reported":1744466910,"current_range_meters":16000,"station_id":"ce4bhi12rcd13ifvqfp0","pricing_plan_id":"cebpf4jnsgd1na2vs0mg"},{"bike_id":"37a17253-3d16-4b72-9b0b-4b36f84289f9","system_id":"levelo_inurba_marseille","lat":43.25496,"lon":5.37637,"is_reserved":false,"is_disabled":false,"rental_uris":{"android":"levelo://app?vid=37a17253-3d16-4b72-9b0b-4b36f84289f9","ios":"levelo://app?vid=37a17253-3d16-4b72-9b0b-4b36f84289f9"},"vehicle_type_id":"4","last_reported":1744466910,"current_range_meters":16000,"station_id":"ce4bhh12rcd13ifvqff0","pricing_plan_id":"cebpf4jnsgd1na2vs0mg"},{"bike_id":"4bbe6e48-9bfa-4dec-aab0-5597477f7da1","system_id":"levelo_inurba_marseille","lat":43.32412,"lon":5.39141,"is_reserved":false,"is_disabled":false,"rental_uris":{"android":"levelo://app?vid=4bbe6e48-9bfa-4dec-aab0-5597477f7da1","ios":"levelo://app?vid=4bbe6e48-9bfa-4dec-aab0-5597477f7da1"},"vehicle_type_id":"4","last_reported":1744466910,"current_range_meters":16000,"station_id":"","pricing_plan_id":"cebpf4jnsgd1na2vs0mg"},{"bike_id":"77fa5373-b92e-4142-987b-c946dd46ee23","system_id":"levelo_inurba_marseille","lat":43.28612,"lon":5.37062,"is_reserved":false,"is_disabled":false,"rental_uris":{"android":"levelo://app?vid=77fa5373-b92e-4142-987b-c946dd46ee23","ios":"levelo://app?vid=77fa5373-b92e-4142-987b-c946dd46ee23"},"vehicle_type_id":"4","last_reported":1744466910,"current_range_meters":16400,"station_id":"ce4bht12rcd13ifvqi60","pricing_plan_id":"cebpf4jnsgd1na2vs0mg"},{"bike_id":"dc0fc37b-245c-4040-8686-f32b8a543409","system_id":"levelo_inurba_marseille","lat":43.24382,"lon":5.37064,"is_reserved":false,"is_disabled":false,"rental_uris":{"android":"levelo://app?vid=dc0fc37b-245c-4040-8686-f32b8a543409","ios":"levelo://app?vid=dc0fc37b-245c-4040-8686-f32b8a543409"},"vehicle_type_id":"4","last_reported":1744466910,"current_range_meters":16400,"station_id":"ce4bhhh2rcd13ifvqfk0","pricing_plan_id":"cebpf4jnsgd1na2vs0mg"},{"bike_id":"020e9999-d552-48d0-ae5f-b725af0dbea2","system_id":"levelo_inurba_marseille","lat":43.29921,"lon":5.43757,"is_reserved":false,"is_disabled":false,"rental_uris":{"android":"levelo://app?vid=020e9999-d552-48d0-ae5f-b725af0dbea2","ios":"levelo://app?vid=020e9999-d552-48d0-ae5f-b725af0dbea2"},"vehicle_type_id":"4","last_reported":1744466910,"current_range_meters":16400,"station_id":"","pricing_plan_id":"cebpf4jnsgd1na2vs0mg"},{"bike_id":"d3061f3d-9a31-4811-9a67-76bb27c929b3","system_id":"levelo_inurba_marseille","lat":43.291,"lon":5.38129,"is_reserved":false,"is_disabled":false,"rental_uris":{"android":"levelo://app?vid=d3061f3d-9a31-4811-9a67-76bb27c929b3","ios":"levelo://app?vid=d3061f3d-9a31-4811-9a67-76bb27c929b3"},"vehicle_type_id":"4","last_reported":1744466910,"current_range_meters":16400,"station_id":"ce4bh512rcd13ifvqe2g","pricing_plan_id":"cebpf4jnsgd1na2vs0mg"},{"bike_id":"c51a0e9d-d06a-4886-af29-ce10916e5a04","system_id":"levelo_inurba_marseille","lat":43.293007,"lon":5.37452,"is_reserved":false,"is_disabled":false,"rental_uris":{"android":"levelo://app?vid=c51a0e9d-d06a-4886-af29-ce10916e5a04","ios":"levelo://app?vid=c51a0e9d-d06a-4886-af29-ce10916e5a04"},"vehicle_type_id":"4","last_reported":1744466910,"current_range_meters":16400,"station_id":"ce4bgi12rcd13ifvqb70","pricing_plan_id":"cebpf4jnsgd1na2vs0mg"},{"bike_id":"0b7df8b7-ebf5-4f9b-acc8-83bc2d730df9","system_id":"levelo_inurba_marseille","lat":43.24809,"lon":5.37452,"is_reserved":false,"is_disabled":false,"rental_uris":{"android":"levelo://app?vid=0b7df8b7-ebf5-4f9b-acc8-83bc2d730df9","ios":"levelo://app?vid=0b7df8b7-ebf5-4f9b-acc8-83bc2d730df9"},"vehicle_type_id":"4","last_reported":1744466910,"current_range_meters":16400,"station_id":"ce4bhgh2rcd13ifvqfb0","pricing_plan_id":"cebpf4jnsgd1na2vs0mg"},{"bike_id":"08cc14f8-1883-498f-9403-1da7530a0b6e","system_id":"levelo_inurba_marseille","lat":43.29226,"lon":5.36065,"is_reserved":false,"is_disabled":false,"rental_uris":{"android":"levelo://app?vid=08cc14f8-1883-498f-9403-1da7530a0b6e","ios":"levelo://app?vid=08cc14f8-1883-498f-9403-1da7530a0b6e"},"vehicle_type_id":"4","last_reported":1744466910,"current_range_meters":16800,"station_id":"ce4bhbh2rcd13ifvqeqg","pricing_plan_id":"cebpf4jnsgd1na2vs0mg"},{"bike_id":"77cd7614-5005-4f54-bc84-a42dac3c108e","system_id":"levelo_inurba_marseille","lat":43.26188,"lon":5.37452,"is_reserved":false,"is_disabled":false,"rental_uris":{"android":"levelo://app?vid=77cd7614-5005-4f54-bc84-a42dac3c108e","ios":"levelo://app?vid=77cd7614-5005-4f54-bc84-a42dac3c108e"},"vehicle_type_id":"4","last_reported":1744466910,"current_range_meters":16800,"station_id":"ce4bhgp2rcd13ifvqfc0","pricing_plan_id":"cebpf4jnsgd1na2vs0mg"},{"bike_id":"b55dd5e7-54b2-4035-b945-7b626dd7afc7","system_id":"levelo_inurba_marseille","lat":43.27542,"lon":5.40935,"is_reserved":false,"is_disabled":false,"rental_uris":{"android":"levelo://app?vid=b55dd5e7-54b2-4035-b945-7b626dd7afc7","ios":"levelo://app?vid=b55dd5e7-54b2-4035-b945-7b626dd7afc7"},"vehicle_type_id":"4","last_reported":1744466910,"current_range_meters":16800,"station_id":"","pricing_plan_id":"cebpf4jnsgd1na2vs0mg"},{"bike_id":"982bb1bc-457f-43d7-ae21-85035c856353","system_id":"levelo_inurba_marseille","lat":43.22514,"lon":5.34767,"is_reserved":false,"is_disabled":false,"rental_uris":{"android":"levelo://app?vid=982bb1bc-457f-43d7-ae21-85035c856353","ios":"levelo://app?vid=982bb1bc-457f-43d7-ae21-85035c856353"},"vehicle_type_id":"4","last_reported":1744466910,"current_range_meters":16800,"station_id":"st_cvj5dfep6f1abm77gieg","pricing_plan_id":"cebpf4jnsgd1na2vs0mg"},{"bike_id":"ebedfb32-c268-48f2-b916-207233be90f7","system_id":"levelo_inurba_marseille","lat":43.28998,"lon":5.35611,"is_reserved":false,"is_disabled":false,"rental_uris":{"android":"levelo://app?vid=ebedfb32-c268-48f2-b916-207233be90f7","ios":"levelo://app?vid=ebedfb32-c268-48f2-b916-207233be90f7"},"vehicle_type_id":"4","last_reported":1744466910,"current_range_meters":16800,"station_id":"ce4bhb92rcd13ifvqen0","pricing_plan_id":"cebpf4jnsgd1na2vs0mg"},{"bike_id":"9b58c11d-2350-43c2-8419-536e8d3a06f6","system_id":"levelo_inurba_marseille","lat":43.274533,"lon":5.361011,"is_reserved":false,"is_disabled":false,"rental_uris":{"android":"levelo://app?vid=9b58c11d-2350-43c2-8419-536e8d3a06f6","ios":"levelo://app?vid=9b58c11d-2350-43c2-8419-536e8d3a06f6"},"vehicle_type_id":"4","last_reported":1744466910,"current_range_meters":16800,"station_id":"ce4bhb12rcd13ifvqem0","pricing_plan_id":"cebpf4jnsgd1na2vs0mg"},{"bike_id":"aefa3589-34c4-4668-b81d-3e85b3edda00","system_id":"levelo_inurba_marseille","lat":43.28272,"lon":5.35066,"is_reserved":false,"is_disabled":false,"rental_uris":{"android":"levelo://app?vid=aefa3589-34c4-4668-b81d-3e85b3edda00","ios":"levelo://app?vid=aefa3589-34c4-4668-b81d-3e85b3edda00"},"vehicle_type_id":"4","last_reported":1744466910,"current_range_meters":16800,"station_id":"ce4bhbp2rcd13ifvqerg","pricing_plan_id":"cebpf4jnsgd1na2vs0mg"},{"bike_id":"0eceb99a-0069-41ae-adf2-70785bb6a0d7","system_id":"levelo_inurba_marseille","lat":43.26564,"lon":5.37264,"is_reserved":false,"is_disabled":false,"rental_uris":{"android":"levelo://app?vid=0eceb99a-0069-41ae-adf2-70785bb6a0d7","ios":"levelo://app?vid=0eceb99a-0069-41ae-adf2-70785bb6a0d7"},"vehicle_type_id":"4","last_reported":1744466910,"current_range_meters":16800,"station_id":"ce4bhg12rcd13ifvqf70","pricing_plan_id":"cebpf4jnsgd1na2vs0mg"},{"bike_id":"a3bf51d9-08b7-458c-9b6d-ef5680cc95d6","system_id":"levelo_inurba_marseille","lat":43.21753,"lon":5.34601,"is_reserved":false,"is_disabled":true,"rental_uris":{"android":"levelo://app?vid=a3bf51d9-08b7-458c-9b6d-ef5680cc95d6","ios":"levelo://app?vid=a3bf51d9-08b7-458c-9b6d-ef5680cc95d6"},"vehicle_type_id":"4","last_reported":1744466910,"current_range_meters":16800,"station_id":"cpo36qri1sfpv3e86is0","pricing_plan_id":"cebpf4jnsgd1na2vs0mg"},{"bike_id":"e9f4dfae-3802-4063-aa9a-0b47a8837374","system_id":"levelo_inurba_marseille","lat":43.21192,"lon":5.35068,"is_reserved":false,"is_disabled":false,"rental_uris":{"android":"levelo://app?vid=e9f4dfae-3802-4063-aa9a-0b47a8837374","ios":"levelo://app?vid=e9f4dfae-3802-4063-aa9a-0b47a8837374"},"vehicle_type_id":"4","last_reported":1744466910,"current_range_meters":16800,"station_id":"st_cvj6sg6p6f1abm77japg","pricing_plan_id":"cebpf4jnsgd1na2vs0mg"},{"bike_id":"d49ed5f3-63dd-41d8-a7c3-7b7860b035b1","system_id":"levelo_inurba_marseille","lat":43.24811,"lon":5.3746,"is_reserved":false,"is_disabled":true,"rental_uris":{"android":"levelo://app?vid=d49ed5f3-63dd-41d8-a7c3-7b7860b035b1","ios":"levelo://app?vid=d49ed5f3-63dd-41d8-a7c3-7b7860b035b1"},"vehicle_type_id":"4","last_reported":1744466910,"current_range_meters":16800,"station_id":"ce4bhgh2rcd13ifvqfb0","pricing_plan_id":"cebpf4jnsgd1na2vs0mg"},{"bike_id":"4a0f8eea-529b-465d-8966-94bd4557b10c","system_id":"levelo_inurba_marseille","lat":43.21192,"lon":5.35075,"is_reserved":false,"is_disabled":false,"rental_uris":{"android":"levelo://app?vid=4a0f8eea-529b-465d-8966-94bd4557b10c","ios":"levelo://app?vid=4a0f8eea-529b-465d-8966-94bd4557b10c"},"vehicle_type_id":"4","last_reported":1744466910,"current_range_meters":16800,"station_id":"ce4bgkp2rcd13ifvqbmg","pricing_plan_id":"cebpf4jnsgd1na2vs0mg"},{"bike_id":"6acf601b-66f5-4eca-8819-3a94ad856208","system_id":"levelo_inurba_marseille","lat":43.2738,"lon":5.36246,"is_reserved":false,"is_disabled":false,"rental_uris":{"android":"levelo://app?vid=6acf601b-66f5-4eca-8819-3a94ad856208","ios":"levelo://app?vid=6acf601b-66f5-4eca-8819-3a94ad856208"},"vehicle_type_id":"4","last_reported":1744466910,"current_range_meters":16800,"station_id":"ce4bhbh2rcd13ifvqeo0","pricing_plan_id":"cebpf4jnsgd1na2vs0mg"},{"bike_id":"73a81525-79dd-40a2-86b0-fb40c9b2799a","system_id":"levelo_inurba_marseille","lat":43.225011,"lon":5.347709,"is_reserved":false,"is_disabled":false,"rental_uris":{"android":"levelo://app?vid=73a81525-79dd-40a2-86b0-fb40c9b2799a","ios":"levelo://app?vid=73a81525-79dd-40a2-86b0-fb40c9b2799a"},"vehicle_type_id":"4","last_reported":1744466910,"current_range_meters":16800,"station_id":"","pricing_plan_id":"cebpf4jnsgd1na2vs0mg"},{"bike_id":"7f4e44b6-a1a5-46f6-9c9e-b72e42653c4c","system_id":"levelo_inurba_marseille","lat":43.29549,"lon":5.37547,"is_reserved":false,"is_disabled":false,"rental_uris":{"android":"levelo://app?vid=7f4e44b6-a1a5-46f6-9c9e-b72e42653c4c","ios":"levelo://app?vid=7f4e44b6-a1a5-46f6-9c9e-b72e42653c4c"},"vehicle_type_id":"4","last_reported":1744466910,"current_range_meters":16800,"station_id":"ce4bgh92rcd13ifvqb50","pricing_plan_id":"cebpf4jnsgd1na2vs0mg"},{"bike_id":"8679767d-c004-4fc1-b868-27c740ac3174","system_id":"levelo_inurba_marseille","lat":43.2979,"lon":5.38101,"is_reserved":false,"is_disabled":false,"rental_uris":{"android":"levelo://app?vid=8679767d-c004-4fc1-b868-27c740ac3174","ios":"levelo://app?vid=8679767d-c004-4fc1-b868-27c740ac3174"},"vehicle_type_id":"4","last_reported":1744466910,"current_range_meters":17200,"station_id":"ce4bgip2rcd13ifvqbb0","pricing_plan_id":"cebpf4jnsgd1na2vs0mg"},{"bike_id":"e27cca32-81ca-4e58-b6a9-2a96e597c157","system_id":"levelo_inurba_marseille","lat":43.26208,"lon":5.37444,"is_reserved":false,"is_disabled":false,"rental_uris":{"android":"levelo://app?vid=e27cca32-81ca-4e58-b6a9-2a96e597c157","ios":"levelo://app?vid=e27cca32-81ca-4e58-b6a9-2a96e597c157"},"vehicle_type_id":"4","last_reported":1744466910,"current_range_meters":17200,"station_id":"ce4bhgp2rcd13ifvqfc0","pricing_plan_id":"cebpf4jnsgd1na2vs0mg"},{"bike_id":"17804b48-ab4d-4ca3-ad50-d9576b95045c","system_id":"levelo_inurba_marseille","lat":43.2816,"lon":5.42642,"is_reserved":false,"is_disabled":false,"rental_uris":{"android":"levelo://app?vid=17804b48-ab4d-4ca3-ad50-d9576b95045c","ios":"levelo://app?vid=17804b48-ab4d-4ca3-ad50-d9576b95045c"},"vehicle_type_id":"4","last_reported":1744466910,"current_range_meters":17200,"station_id":"ce4bhnh2rcd13ifvqgug","pricing_plan_id":"cebpf4jnsgd1na2vs0mg"},{"bike_id":"d8b9884b-4022-4710-9f87-50e0dbfd421d","system_id":"levelo_inurba_marseille","lat":43.24159,"lon":5.36425,"is_reserved":false,"is_disabled":false,"rental_uris":{"android":"levelo://app?vid=d8b9884b-4022-4710-9f87-50e0dbfd421d","ios":"levelo://app?vid=d8b9884b-4022-4710-9f87-50e0dbfd421d"},"vehicle_type_id":"4","last_reported":1744466910,"current_range_meters":17200,"station_id":"cpo36qri1sfpv3e86is0","pricing_plan_id":"cebpf4jnsgd1na2vs0mg"},{"bike_id":"076ead1f-b3ad-4d93-bb7a-1adaf1cb8aef","system_id":"levelo_inurba_marseille","lat":43.2318,"lon":5.39996,"is_reserved":false,"is_disabled":false,"rental_uris":{"android":"levelo://app?vid=076ead1f-b3ad-4d93-bb7a-1adaf1cb8aef","ios":"levelo://app?vid=076ead1f-b3ad-4d93-bb7a-1adaf1cb8aef"},"vehicle_type_id":"4","last_reported":1744466910,"current_range_meters":16800,"station_id":"ce4bhn12rcd13ifvqgqg","pricing_plan_id":"cebpf4jnsgd1na2vs0mg"},{"bike_id":"5591936e-ca63-41c7-89f3-9c9493c86f89","system_id":"levelo_inurba_marseille","lat":43.24175,"lon":5.36396,"is_reserved":false,"is_disabled":false,"rental_uris":{"android":"levelo://app?vid=5591936e-ca63-41c7-89f3-9c9493c86f89","ios":"levelo://app?vid=5591936e-ca63-41c7-89f3-9c9493c86f89"},"vehicle_type_id":"4","last_reported":1744466910,"current_range_meters":17200,"station_id":"cpo36qri1sfpv3e86is0","pricing_plan_id":"cebpf4jnsgd1na2vs0mg"},{"bike_id":"f774b2dc-78fc-49d0-a65e-4003e6af2a6c","system_id":"levelo_inurba_marseille","lat":43.26064,"lon":5.39395,"is_reserved":false,"is_disabled":false,"rental_uris":{"android":"levelo://app?vid=f774b2dc-78fc-49d0-a65e-4003e6af2a6c","ios":"levelo://app?vid=f774b2dc-78fc-49d0-a65e-4003e6af2a6c"},"vehicle_type_id":"4","last_reported":1744466910,"current_range_meters":17200,"station_id":"ce4bhh92rcd13ifvqfj0","pricing_plan_id":"cebpf4jnsgd1na2vs0mg"},{"bike_id":"9d33721e-378f-40fc-9e77-80a71b2f1839","system_id":"levelo_inurba_marseille","lat":43.27375,"lon":5.36252,"is_reserved":false,"is_disabled":false,"rental_uris":{"android":"levelo://app?vid=9d33721e-378f-40fc-9e77-80a71b2f1839","ios":"levelo://app?vid=9d33721e-378f-40fc-9e77-80a71b2f1839"},"vehicle_type_id":"4","last_reported":1744466910,"current_range_meters":17600,"station_id":"ce4bhbh2rcd13ifvqeo0","pricing_plan_id":"cebpf4jnsgd1na2vs0mg"},{"bike_id":"8094dbe0-fcf2-49a7-9f7e-e19a917cbcfa","system_id":"levelo_inurba_marseille","lat":43.21189,"lon":5.350779,"is_reserved":false,"is_disabled":false,"rental_uris":{"android":"levelo://app?vid=8094dbe0-fcf2-49a7-9f7e-e19a917cbcfa","ios":"levelo://app?vid=8094dbe0-fcf2-49a7-9f7e-e19a917cbcfa"},"vehicle_type_id":"4","last_reported":1744466910,"current_range_meters":17600,"station_id":"st_cvj6sg6p6f1abm77japg","pricing_plan_id":"cebpf4jnsgd1na2vs0mg"},{"bike_id":"661c3bca-81a3-4c0a-8a25-786cb8d71ae7","system_id":"levelo_inurba_marseille","lat":43.23064,"lon":5.35499,"is_reserved":false,"is_disabled":false,"rental_uris":{"android":"levelo://app?vid=661c3bca-81a3-4c0a-8a25-786cb8d71ae7","ios":"levelo://app?vid=661c3bca-81a3-4c0a-8a25-786cb8d71ae7"},"vehicle_type_id":"4","last_reported":1744466910,"current_range_meters":17600,"station_id":"cpo3342slgdg3j2ifvpg","pricing_plan_id":"cebpf4jnsgd1na2vs0mg"},{"bike_id":"ead7b401-7997-4cd8-9e7a-0f671156fa85","system_id":"levelo_inurba_marseille","lat":43.31492,"lon":5.37307,"is_reserved":false,"is_disabled":false,"rental_uris":{"android":"levelo://app?vid=ead7b401-7997-4cd8-9e7a-0f671156fa85","ios":"levelo://app?vid=ead7b401-7997-4cd8-9e7a-0f671156fa85"},"vehicle_type_id":"4","last_reported":1744466910,"current_range_meters":17600,"station_id":"ce4bgt12rcd13ifvqcd0","pricing_plan_id":"cebpf4jnsgd1na2vs0mg"},{"bike_id":"47430bf6-79a1-41b5-977f-6b745a81d0ee","system_id":"levelo_inurba_marseille","lat":43.2439,"lon":5.37068,"is_reserved":false,"is_disabled":false,"rental_uris":{"android":"levelo://app?vid=47430bf6-79a1-41b5-977f-6b745a81d0ee","ios":"levelo://app?vid=47430bf6-79a1-41b5-977f-6b745a81d0ee"},"vehicle_type_id":"4","last_reported":1744466910,"current_range_meters":17600,"station_id":"ce4bhhh2rcd13ifvqfk0","pricing_plan_id":"cebpf4jnsgd1na2vs0mg"},{"bike_id":"21127257-eff7-474d-8ad8-e3337a0a4ddf","system_id":"levelo_inurba_marseille","lat":43.2987,"lon":5.36098,"is_reserved":false,"is_disabled":false,"rental_uris":{"android":"levelo://app?vid=21127257-eff7-474d-8ad8-e3337a0a4ddf","ios":"levelo://app?vid=21127257-eff7-474d-8ad8-e3337a0a4ddf"},"vehicle_type_id":"4","last_reported":1744466910,"current_range_meters":17600,"station_id":"","pricing_plan_id":"cebpf4jnsgd1na2vs0mg"},{"bike_id":"47ec0495-672a-4a00-a7ae-a3ffe18f6de5","system_id":"levelo_inurba_marseille","lat":43.2679,"lon":5.39403,"is_reserved":false,"is_disabled":false,"rental_uris":{"android":"levelo://app?vid=47ec0495-672a-4a00-a7ae-a3ffe18f6de5","ios":"levelo://app?vid=47ec0495-672a-4a00-a7ae-a3ffe18f6de5"},"vehicle_type_id":"4","last_reported":1744466910,"current_range_meters":17600,"station_id":"ce4bhh12rcd13ifvqfg0","pricing_plan_id":"cebpf4jnsgd1na2vs0mg"},{"bike_id":"3de99220-b861-4c71-9e3f-612760824faa","system_id":"levelo_inurba_marseille","lat":43.21195,"lon":5.35085,"is_reserved":false,"is_disabled":false,"rental_uris":{"android":"levelo://app?vid=3de99220-b861-4c71-9e3f-612760824faa","ios":"levelo://app?vid=3de99220-b861-4c71-9e3f-612760824faa"},"vehicle_type_id":"4","last_reported":1744466910,"current_range_meters":17600,"station_id":"st_cvj6sg6p6f1abm77japg","pricing_plan_id":"cebpf4jnsgd1na2vs0mg"},