{"last_updated":1741781904,"ttl":60,"version":"2.2","data":{"bikes":[{"bike_id":"08ec2400-9320-4336-bea4-dacb90c29461","system_id":"levelo_inurba_marseille","lat":43.274409,"lon":5.394037,"is_reserved":false,"is_disabled":false,"rental_uris":{"android":"levelo://app?vid=08ec2400-9320-4336-bea4-dacb90c29461","ios":"levelo://app?vid=08ec2400-9320-4336-bea4-dacb90c29461"},"vehicle_type_id":"4","last_reported":1741781904,"current_range_meters":2800,"station_id":"ce4bhdp2rcd13ifvqf20","pricing_plan_id":"cebpf4jnsgd1na2vs0mg"},{"bike_id":"7aae365f-3db3-4efb-90ed-365cd20c97f9","system_id":"levelo_inurba_marseille","lat":43.29267,"lon":5.38429,"is_reserved":false,"is_disabled":false,"rental_uris":{"android":"levelo://app?vid=7aae365f-3db3-4efb-90ed-365cd20c97f9","ios":"levelo://app?vid=7aae365f-3db3-4efb-90ed-365cd20c97f9"},"vehicle_type_id":"4","last_reported":1741781904,"current_range_meters":2800,"station_id":"ce4bh692rcd13ifvqea0","pricing_plan_id":"cebpf4jnsgd1na2vs0mg"},{"bike_id":"c86d68f5-55ee-4a68-ba82-758fa1373f1d","system_id":"levelo_inurba_marseille","lat":43.31714,"lon":5.43707,"is_reserved":false,"is_disabled":false,"rental_uris":{"android":"levelo://app?vid=c86d68f5-55ee-4a68-ba82-758fa1373f1d","ios":"levelo://app?vid=c86d68f5-55ee-4a68-ba82-758fa1373f1d"},"vehicle_type_id":"4","last_reported":1741781904,"current_range_meters":3200,"station_id":"ce4bhp92rcd13ifvqhcg","pricing_plan_id":"cebpf4jnsgd1na2vs0mg"},{"bike_id":"1cccf9ee-139c-4dc2-8dd0-ced14ebbe202","system_id":"levelo_inurba_marseille","lat":43.23962,"lon":5.36623,"is_reserved":false,"is_disabled":false,"rental_uris":{"android":"levelo://app?vid=1cccf9ee-139c-4dc2-8dd0-ced14ebbe202","ios":"levelo://app?vid=1cccf9ee-139c-4dc2-8dd0-ced14ebbe202"},"vehicle_type_id":"4","last_reported":1741781904,"current_range_meters":3600,"station_id":"ce4bhi12rcd13ifvqfp0","pricing_plan_id":"cebpf4jnsgd1na2vs0mg"},{"bike_id":"c63bf5bb-6dd1-4182-83d0-06b04d837e5f","system_id":"levelo_inurba_marseille","lat":43.25002,"lon":5.38936,"is_reserved":false,"is_disabled":false,"rental_uris":{"android":"levelo://app?vid=c63bf5bb-6dd1-4182-83d0-06b04d837e5f","ios":"levelo://app?vid=c63bf5bb-6dd1-4182-83d0-06b04d837e5f"},"vehicle_type_id":"4","last_reported":1741781904,"current_range_meters":3600,"station_id":"ce4bhgp2rcd13ifvqfd0","pricing_plan_id":"cebpf4jnsgd1na2vs0mg"},{"bike_id":"848095da-7240-4b07-a607-3c081d58ff31","system_id":"levelo_inurba_marseille","lat":43.31355,"lon":5.38502,"is_reserved":false,"is_disabled":false,"rental_uris":{"android":"levelo://app?vid=848095da-7240-4b07-a607-3c081d58ff31","ios":"levelo://app?vid=848095da-7240-4b07-a607-3c081d58ff31"},"vehicle_type_id":"4","last_reported":1741781904,"current_range_meters":3600,"station_id":"ce4bgt92rcd13ifvqcf0","pricing_plan_id":"cebpf4jnsgd1na2vs0mg"},{"bike_id":"03690356-08e9-4ea7-b9a3-8e88bf471e93","system_id":"levelo_inurba_marseille","lat":43.337444,"lon":5.374475,"is_reserved":false,"is_disabled":true,"rental_uris":{"android":"levelo://app?vid=03690356-08e9-4ea7-b9a3-8e88bf471e93","ios":"levelo://app?vid=03690356-08e9-4ea7-b9a3-8e88bf471e93"},"vehicle_type_id":"4","last_reported":1741781904,"current_range_meters":3600,"station_id":"","pricing_plan_id":"cebpf4jnsgd1na2vs0mg"},{"bike_id":"4655ae61-9f01-41c1-8540-ac39b4dc6c5b","system_id":"levelo_inurba_marseille","lat":43.32538,"lon":5.41467,"is_reserved":false,"is_disabled":false,"rental_uris":{"android":"levelo://app?vid=4655ae61-9f01-41c1-8540-ac39b4dc6c5b","ios":"levelo://app?vid=4655ae61-9f01-41c1-8540-ac39b4dc6c5b"},"vehicle_type_id":"4","last_reported":1741781904,"current_range_meters":4000,"station_id":"ce4bhq12rcd13ifvqhhg","pricing_plan_id":"cebpf4jnsgd1na2vs0mg"},{"bike_id":"7ac36b27-b601-44b2-b8c9-0ac388767dbc","system_id":"levelo_inurba_marseille","lat":43.29569,"lon":5.39983,"is_reserved":false,"is_disabled":false,"rental_uris":{"android":"levelo://app?vid=7ac36b27-b601-44b2-b8c9-0ac388767dbc","ios":"levelo://app?vid=7ac36b27-b601-44b2-b8c9-0ac388767dbc"},"vehicle_type_id":"4","last_reported":1741781904,"current_range_meters":4400,"station_id":"ce4bh312rcd13ifvqdj0","pricing_plan_id":"cebpf4jnsgd1na2vs0mg"},{"bike_id":"2fa35c1d-3e3a-477b-88a3-a3b04b0dce9a","system_id":"levelo_inurba_marseille","lat":43.28106,"lon":5.37839,"is_reserved":false,"is_disabled":false,"rental_uris":{"android":"levelo://app?vid=2fa35c1d-3e3a-477b-88a3-a3b04b0dce9a","ios":"levelo://app?vid=2fa35c1d-3e3a-477b-88a3-a3b04b0dce9a"},"vehicle_type_id":"4","last_reported":1741781904,"current_range_meters":4400,"station_id":"ce4bha12rcd13ifvqee0","pricing_plan_id":"cebpf4jnsgd1na2vs0mg"},{"bike_id":"09bbb690-af86-458c-bbad-70d10e2033ee","system_id":"levelo_inurba_marseille","lat":43.23074,"lon":5.35473,"is_reserved":false,"is_disabled":false,"rental_uris":{"android":"levelo://app?vid=09bbb690-af86-458c-bbad-70d10e2033ee","ios":"levelo://app?vid=09bbb690-af86-458c-bbad-70d10e2033ee"},"vehicle_type_id":"4","last_reported":1741781904,"current_range_meters":4400,"station_id":"cpo3342slgdg3j2ifvpg","pricing_plan_id":"cebpf4jnsgd1na2vs0mg"},{"bike_id":"136bc04d-2be0-4db2-ae06-47a9bc4c757b","system_id":"levelo_inurba_marseille","lat":43.29906,"lon":5.38144,"is_reserved":false,"is_disabled":false,"rental_uris":{"android":"levelo://app?vid=136bc04d-2be0-4db2-ae06-47a9bc4c757b","ios":"levelo://app?vid=136bc04d-2be0-4db2-ae06-47a9bc4c757b"},"vehicle_type_id":"4","last_reported":1741781904,"current_range_meters":4400,"station_id":"ce4bgj12rcd13ifvqbc0","pricing_plan_id":"cebpf4jnsgd1na2vs0mg"},{"bike_id":"3607f1a8-fb1a-4a5b-a9e1-75a9a0913350","system_id":"levelo_inurba_marseille","lat":43.31494,"lon":5.373055,"is_reserved":false,"is_disabled":false,"rental_uris":{"android":"levelo://app?vid=3607f1a8-fb1a-4a5b-a9e1-75a9a0913350","ios":"levelo://app?vid=3607f1a8-fb1a-4a5b-a9e1-75a9a0913350"},"vehicle_type_id":"4","last_reported":1741781904,"current_range_meters":4800,"station_id":"ce4bgt12rcd13ifvqcd0","pricing_plan_id":"cebpf4jnsgd1na2vs0mg"},{"bike_id":"c415b05c-6317-4c39-8b4c-55fa502e5b19","system_id":"levelo_inurba_marseille","lat":43.28413,"lon":5.37513,"is_reserved":false,"is_disabled":false,"rental_uris":{"android":"levelo://app?vid=c415b05c-6317-4c39-8b4c-55fa502e5b19","ios":"levelo://app?vid=c415b05c-6317-4c39-8b4c-55fa502e5b19"},"vehicle_type_id":"4","last_reported":1741781904,"current_range_meters":4800,"station_id":"ce4bh412rcd13ifvqds0","pricing_plan_id":"cebpf4jnsgd1na2vs0mg"},{"bike_id":"8c7c06cf-95c9-499a-856a-6ecb49c34ec0","system_id":"levelo_inurba_marseille","lat":43.29367,"lon":5.37842,"is_reserved":false,"is_disabled":false,"rental_uris":{"android":"levelo://app?vid=8c7c06cf-95c9-499a-856a-6ecb49c34ec0","ios":"levelo://app?vid=8c7c06cf-95c9-499a-856a-6ecb49c34ec0"},"vehicle_type_id":"4","last_reported":1741781904,"current_range_meters":4400,"station_id":"ce4bgjh2rcd13ifvqbf0","pricing_plan_id":"cebpf4jnsgd1na2vs0mg"},{"bike_id":"d3acab28-3125-4afa-b5eb-02e807f46858","system_id":"levelo_inurba_marseille","lat":43.24169,"lon":5.39714,"is_reserved":false,"is_disabled":false,"rental_uris":{"android":"levelo://app?vid=d3acab28-3125-4afa-b5eb-02e807f46858","ios":"levelo://app?vid=d3acab28-3125-4afa-b5eb-02e807f46858"},"vehicle_type_id":"4","last_reported":1741781904,"current_range_meters":4800,"station_id":"ce4bhn12rcd13ifvqgpg","pricing_plan_id":"cebpf4jnsgd1na2vs0mg"},{"bike_id":"bf2feb02-4272-4476-92f9-9420844c4078","system_id":"levelo_inurba_marseille","lat":43.31203,"lon":5.37657,"is_reserved":false,"is_disabled":false,"rental_uris":{"android":"levelo://app?vid=bf2feb02-4272-4476-92f9-9420844c4078","ios":"levelo://app?vid=bf2feb02-4272-4476-92f9-9420844c4078"},"vehicle_type_id":"4","last_reported":1741781904,"current_range_meters":4800,"station_id":"","pricing_plan_id":"cebpf4jnsgd1na2vs0mg"},{"bike_id":"ee3470b0-a6a9-4f94-b140-463e351648db","system_id":"levelo_inurba_marseille","lat":43.24649,"lon":5.38894,"is_reserved":false,"is_disabled":false,"rental_uris":{"android":"levelo://app?vid=ee3470b0-a6a9-4f94-b140-463e351648db","ios":"levelo://app?vid=ee3470b0-a6a9-4f94-b140-463e351648db"},"vehicle_type_id":"4","last_reported":1741781904,"current_range_meters":5600,"station_id":"ce4bhg12rcd13ifvqf60","pricing_plan_id":"cebpf4jnsgd1na2vs0mg"},{"bike_id":"8d9518e5-0926-4b9e-abac-8af637e92076","system_id":"levelo_inurba_marseille","lat":43.32478,"lon":5.36572,"is_reserved":false,"is_disabled":false,"rental_uris":{"android":"levelo://app?vid=8d9518e5-0926-4b9e-abac-8af637e92076","ios":"levelo://app?vid=8d9518e5-0926-4b9e-abac-8af637e92076"},"vehicle_type_id":"4","last_reported":1741781904,"current_range_meters":5600,"station_id":"ce4bhs12rcd13ifvqhvg","pricing_plan_id":"cebpf4jnsgd1na2vs0mg"},{"bike_id":"1613f203-7dd4-459b-84b5-770ba351cb6f","system_id":"levelo_inurba_marseille","lat":43.27054,"lon":5.40266,"is_reserved":false,"is_disabled":false,"rental_uris":{"android":"levelo://app?vid=1613f203-7dd4-459b-84b5-770ba351cb6f","ios":"levelo://app?vid=1613f203-7dd4-459b-84b5-770ba351cb6f"},"vehicle_type_id":"4","last_reported":1741781904,"current_range_meters":5600,"station_id":"ce4bhk92rcd13ifvqgc0","pricing_plan_id":"cebpf4jnsgd1na2vs0mg"},{"bike_id":"e86590d2-a508-4faa-987e-d301916b6d6a","system_id":"levelo_inurba_marseille","lat":43.27048,"lon":5.40261,"is_reserved":false,"is_disabled":false,"rental_uris":{"android":"levelo://app?vid=e86590d2-a508-4faa-987e-d301916b6d6a","ios":"levelo://app?vid=e86590d2-a508-4faa-987e-d301916b6d6a"},"vehicle_type_id":"4","last_reported":1741781904,"current_range_meters":5600,"station_id":"ce4bhk92rcd13ifvqgc0","pricing_plan_id":"cebpf4jnsgd1na2vs0mg"},{"bike_id":"80771939-f406-42f7-81c5-33180fd8a338","system_id":"levelo_inurba_marseille","lat":43.23199,"lon":5.35544,"is_reserved":false,"is_disabled":false,"rental_uris":{"android":"levelo://app?vid=80771939-f406-42f7-81c5-33180fd8a338","ios":"levelo://app?vid=80771939-f406-42f7-81c5-33180fd8a338"},"vehicle_type_id":"4","last_reported":1741781904,"current_range_meters":5600,"station_id":"ce4bhu92rcd13ifvqi70","pricing_plan_id":"cebpf4jnsgd1na2vs0mg"},{"bike_id":"e23507c3-06f7-4048-a895-4ae412ccabc8","system_id":"levelo_inurba_marseille","lat":43.28803,"lon":5.36661,"is_reserved":false,"is_disabled":false,"rental_uris":{"android":"levelo://app?vid=e23507c3-06f7-4048-a895-4ae412ccabc8","ios":"levelo://app?vid=e23507c3-06f7-4048-a895-4ae412ccabc8"},"vehicle_type_id":"4","last_reported":1741781904,"current_range_meters":5600,"station_id":"","pricing_plan_id":"cebpf4jnsgd1na2vs0mg"},{"bike_id":"2d3fc7e9-4d03-42bb-903b-010f17c12101","system_id":"levelo_inurba_marseille","lat":43.31754,"lon":5.39017,"is_reserved":false,"is_disabled":false,"rental_uris":{"android":"levelo://app?vid=2d3fc7e9-4d03-42bb-903b-010f17c12101","ios":"levelo://app?vid=2d3fc7e9-4d03-42bb-903b-010f17c12101"},"vehicle_type_id":"4","last_reported":1741781904,"current_range_meters":6400,"station_id":"ce4bhqp2rcd13ifvqhng","pricing_plan_id":"cebpf4jnsgd1na2vs0mg"},{"bike_id":"bb0da32b-93c6-485e-9988-cffa3eca11ea","system_id":"levelo_inurba_marseille","lat":43.294297,"lon":5.397547,"is_reserved":false,"is_disabled":false,"rental_uris":{"android":"levelo://app?vid=bb0da32b-93c6-485e-9988-cffa3eca11ea","ios":"levelo://app?vid=bb0da32b-93c6-485e-9988-cffa3eca11ea"},"vehicle_type_id":"4","last_reported":1741781904,"current_range_meters":6400,"station_id":"ce4bh0h2rcd13ifvqd60","pricing_plan_id":"cebpf4jnsgd1na2vs0mg"},{"bike_id":"8a14c302-4341-41cb-bec1-6ebe85da80db","system_id":"levelo_inurba_marseille","lat":43.30152,"lon":5.38111,"is_reserved":false,"is_disabled":true,"rental_uris":{"android":"levelo://app?vid=8a14c302-4341-41cb-bec1-6ebe85da80db","ios":"levelo://app?vid=8a14c302-4341-41cb-bec1-6ebe85da80db"},"vehicle_type_id":"4","last_reported":1741781904,"current_range_meters":6400,"station_id":"ce4bgjp2rcd13ifvqbh0","pricing_plan_id":"cebpf4jnsgd1na2vs0mg"},{"bike_id":"19386327-1a62-4964-8117-f0c4bf99c9b8","system_id":"levelo_inurba_marseille","lat":43.23155,"lon":5.43699,"is_reserved":false,"is_disabled":false,"rental_uris":{"android":"levelo://app?vid=19386327-1a62-4964-8117-f0c4bf99c9b8","ios":"levelo://app?vid=19386327-1a62-4964-8117-f0c4bf99c9b8"},"vehicle_type_id":"4","last_reported":1741781904,"current_range_meters":6400,"station_id":"ce4bhmp2rcd13ifvqgog","pricing_plan_id":"cebpf4jnsgd1na2vs0mg"},{"bike_id":"1fc03619-c0e6-4086-9bbc-c338522ce377","system_id":"levelo_inurba_marseille","lat":43.29628,"lon":5.37155,"is_reserved":false,"is_disabled":false,"rental_uris":{"android":"levelo://app?vid=1fc03619-c0e6-4086-9bbc-c338522ce377","ios":"levelo://app?vid=1fc03619-c0e6-4086-9bbc-c338522ce377"},"vehicle_type_id":"4","last_reported":1741781904,"current_range_meters":6400,"station_id":"ce4bgnh2rcd13ifvqc0g","pricing_plan_id":"cebpf4jnsgd1na2vs0mg"},{"bike_id":"c1a71f10-2068-4c30-a224-73b57c946b09","system_id":"levelo_inurba_marseille","lat":43.30188,"lon":5.36623,"is_reserved":false,"is_disabled":false,"rental_uris":{"android":"levelo://app?vid=c1a71f10-2068-4c30-a224-73b57c946b09","ios":"levelo://app?vid=c1a71f10-2068-4c30-a224-73b57c946b09"},"vehicle_type_id":"4","last_reported":1741781904,"current_range_meters":6400,"station_id":"ce4bgrh2rcd13ifvqc8g","pricing_plan_id":"cebpf4jnsgd1na2vs0mg"},{"bike_id":"9b8580bc-ae0f-4f8a-90a3-feb852a37ce9","system_id":"levelo_inurba_marseille","lat":43.31082,"lon":5.42425,"is_reserved":false,"is_disabled":false,"rental_uris":{"android":"levelo://app?vid=9b8580bc-ae0f-4f8a-90a3-feb852a37ce9","ios":"levelo://app?vid=9b8580bc-ae0f-4f8a-90a3-feb852a37ce9"},"vehicle_type_id":"4","last_reported":1741781904,"current_range_meters":6400,"station_id":"ce4bhp92rcd13ifvqhag","pricing_plan_id":"cebpf4jnsgd1na2vs0mg"},{"bike_id":"cec6458d-2bf5-4cc3-b72a-8930c855e1a8","system_id":"levelo_inurba_marseille","lat":43.31083,"lon":5.42432,"is_reserved":false,"is_disabled":false,"rental_uris":{"android":"levelo://app?vid=cec6458d-2bf5-4cc3-b72a-8930c855e1a8","ios":"levelo://app?vid=cec6458d-2bf5-4cc3-b72a-8930c855e1a8"},"vehicle_type_id":"4","last_reported":1741781904,"current_range_meters":6400,"station_id":"ce4bhp92rcd13ifvqhag","pricing_plan_id":"cebpf4jnsgd1na2vs0mg"},{"bike_id":"993d7ad5-7ba4-465d-899e-5a862b529583","system_id":"levelo_inurba_marseille","lat":43.27054,"lon":5.4027,"is_reserved":false,"is_disabled":false,"rental_uris":{"android":"levelo://app?vid=993d7ad5-7ba4-465d-899e-5a862b529583","ios":"levelo://app?vid=993d7ad5-7ba4-465d-899e-5a862b529583"},"vehicle_type_id":"4","last_reported":1741781904,"current_range_meters":6400,"station_id":"ce4bhk92rcd13ifvqgc0","pricing_plan_id":"cebpf4jnsgd1na2vs0mg"},{"bike_id":"43570c5c-69a5-4e85-9c93-878987292623","system_id":"levelo_inurba_marseille","lat":43.27942,"lon":5.41014,"is_reserved":false,"is_disabled":false,"rental_uris":{"android":"levelo://app?vid=43570c5c-69a5-4e85-9c93-878987292623","ios":"levelo://app?vid=43570c5c-69a5-4e85-9c93-878987292623"},"vehicle_type_id":"4","last_reported":1741781904,"current_range_meters":6400,"station_id":"ce4bhnp2rcd13ifvqh0g","pricing_plan_id":"cebpf4jnsgd1na2vs0mg"},{"bike_id":"03a51f62-2b9b-4f27-af06-e8d588cc77ca","system_id":"levelo_inurba_marseille","lat":43.29795,"lon":5.38111,"is_reserved":false,"is_disabled":false,"rental_uris":{"android":"levelo://app?vid=03a51f62-2b9b-4f27-af06-e8d588cc77ca","ios":"levelo://app?vid=03a51f62-2b9b-4f27-af06-e8d588cc77ca"},"vehicle_type_id":"4","last_reported":1741781904,"current_range_meters":6400,"station_id":"ce4bgip2rcd13ifvqbb0","pricing_plan_id":"cebpf4jnsgd1na2vs0mg"},{"bike_id":"714bd7be-6a3d-41f3-9774-0ff440b8c75b","system_id":"levelo_inurba_marseille","lat":43.24993,"lon":5.38931,"is_reserved":false,"is_disabled":false,"rental_uris":{"android":"levelo://app?vid=714bd7be-6a3d-41f3-9774-0ff440b8c75b","ios":"levelo://app?vid=714bd7be-6a3d-41f3-9774-0ff440b8c75b"},"vehicle_type_id":"4","last_reported":1741781904,"current_range_meters":6800,"station_id":"ce4bhgp2rcd13ifvqfd0","pricing_plan_id":"cebpf4jnsgd1na2vs0mg"},{"bike_id":"46b47549-8f4f-4088-a27a-bea7bc202563","system_id":"levelo_inurba_marseille","lat":43.22937,"lon":5.35378,"is_reserved":false,"is_disabled":false,"rental_uris":{"android":"levelo://app?vid=46b47549-8f4f-4088-a27a-bea7bc202563","ios":"levelo://app?vid=46b47549-8f4f-4088-a27a-bea7bc202563"},"vehicle_type_id":"4","last_reported":1741781904,"current_range_meters":6800,"station_id":"cpo3532slgdg3j2ikp40","pricing_plan_id":"cebpf4jnsgd1na2vs0mg"},{"bike_id":"90b07cf8-0b50-4d3a-8759-5c94982e8f74","system_id":"levelo_inurba_marseille","lat":43.29793,"lon":5.38105,"is_reserved":false,"is_disabled":false,"rental_uris":{"android":"levelo://app?vid=90b07cf8-0b50-4d3a-8759-5c94982e8f74","ios":"levelo://app?vid=90b07cf8-0b50-4d3a-8759-5c94982e8f74"},"vehicle_type_id":"4","last_reported":1741781904,"current_range_meters":6800,"station_id":"ce4bgip2rcd13ifvqbb0","pricing_plan_id":"cebpf4jnsgd1na2vs0mg"},{"bike_id":"d66a248a-aa08-4c4f-9de1-cd8c60e939f6","system_id":"levelo_inurba_marseille","lat":43.29706,"lon":5.3661,"is_reserved":false,"is_disabled":false,"rental_uris":{"android":"levelo://app?vid=d66a248a-aa08-4c4f-9de1-cd8c60e939f6","ios":"levelo://app?vid=d66a248a-aa08-4c4f-9de1-cd8c60e939f6"},"vehicle_type_id":"4","last_reported":1741781904,"current_range_meters":6800,"station_id":"ce4bgn12rcd13ifvqbt0","pricing_plan_id":"cebpf4jnsgd1na2vs0mg"},{"bike_id":"58d1b5b3-d322-4418-97d0-3066ec3d9afc","system_id":"levelo_inurba_marseille","lat":43.23193,"lon":5.35547,"is_reserved":false,"is_disabled":false,"rental_uris":{"android":"levelo://app?vid=58d1b5b3-d322-4418-97d0-3066ec3d9afc","ios":"levelo://app?vid=58d1b5b3-d322-4418-97d0-3066ec3d9afc"},"vehicle_type_id":"4","last_reported":1741781904,"current_range_meters":6800,"station_id":"ce4bhu92rcd13ifvqi70","pricing_plan_id":"cebpf4jnsgd1na2vs0mg"},{"bike_id":"b9680ac6-d12e-4a12-9dd8-1396db5e067b","system_id":"levelo_inurba_marseille","lat":43.23147,"lon":5.43708,"is_reserved":false,"is_disabled":false,"rental_uris":{"android":"levelo://app?vid=b9680ac6-d12e-4a12-9dd8-1396db5e067b","ios":"levelo://app?vid=b9680ac6-d12e-4a12-9dd8-1396db5e067b"},"vehicle_type_id":"4","last_reported":1741781904,"current_range_meters":7200,"station_id":"ce4bhmp2rcd13ifvqgog","pricing_plan_id":"cebpf4jnsgd1na2vs0mg"},{"bike_id":"9b75f73b-4e4f-4d50-8655-4ca7749a5646","system_id":"levelo_inurba_marseille","lat":43.27837,"lon":5.40706,"is_reserved":false,"is_disabled":false,"rental_uris":{"android":"levelo://app?vid=9b75f73b-4e4f-4d50-8655-4ca7749a5646","ios":"levelo://app?vid=9b75f73b-4e4f-4d50-8655-4ca7749a5646"},"vehicle_type_id":"4","last_reported":1741781904,"current_range_meters":7200,"station_id":"ce4bhnh2rcd13ifvqgtg","pricing_plan_id":"cebpf4jnsgd1na2vs0mg"},{"bike_id":"30f918ca-abfc-47a9-8c99-545737b1a8aa","system_id":"levelo_inurba_marseille","lat":43.23155,"lon":5.43714,"is_reserved":false,"is_disabled":false,"rental_uris":{"android":"levelo://app?vid=30f918ca-abfc-47a9-8c99-545737b1a8aa","ios":"levelo://app?vid=30f918ca-abfc-47a9-8c99-545737b1a8aa"},"vehicle_type_id":"4","last_reported":1741781904,"current_range_meters":7200,"station_id":"ce4bhmp2rcd13ifvqgog","pricing_plan_id":"cebpf4jnsgd1na2vs0mg"},{"bike_id":"78fb9d69-f4e0-48bd-b87a-59917c6b52fd","system_id":"levelo_inurba_marseille","lat":43.298016,"lon":5.381036,"is_reserved":false,"is_disabled":false,"rental_uris":{"android":"levelo://app?vid=78fb9d69-f4e0-48bd-b87a-59917c6b52fd","ios":"levelo://app?vid=78fb9d69-f4e0-48bd-b87a-59917c6b52fd"},"vehicle_type_id":"4","last_reported":1741781904,"current_range_meters":7200,"station_id":"ce4bgip2rcd13ifvqbb0","pricing_plan_id":"cebpf4jnsgd1na2vs0mg"},{"bike_id":"c10a0d39-2251-4d01-9b49-fb130b99880c","system_id":"levelo_inurba_marseille","lat":43.28452,"lon":5.35884,"is_reserved":false,"is_disabled":false,"rental_uris":{"android":"levelo://app?vid=c10a0d39-2251-4d01-9b49-fb130b99880c","ios":"levelo://app?vid=c10a0d39-2251-4d01-9b49-fb130b99880c"},"vehicle_type_id":"4","last_reported":1741781904,"current_range_meters":7200,"station_id":"ce4bhah2rcd13ifvqei0","pricing_plan_id":"cebpf4jnsgd1na2vs0mg"},{"bike_id":"9101287b-43dc-4f41-8fe9-39f299913c2e","system_id":"levelo_inurba_marseille","lat":43.25934,"lon":5.4091,"is_reserved":false,"is_disabled":false,"rental_uris":{"android":"levelo://app?vid=9101287b-43dc-4f41-8fe9-39f299913c2e","ios":"levelo://app?vid=9101287b-43dc-4f41-8fe9-39f299913c2e"},"vehicle_type_id":"4","last_reported":1741781904,"current_range_meters":7200,"station_id":"ce4bhm92rcd13ifvqglg","pricing_plan_id":"cebpf4jnsgd1na2vs0mg"},{"bike_id":"1bb5dae5-2cdb-43ae-b04c-dad911982ded","system_id":"levelo_inurba_marseille","lat":43.25109,"lon":5.40321,"is_reserved":false,"is_disabled":false,"rental_uris":{"android":"levelo://app?vid=1bb5dae5-2cdb-43ae-b04c-dad911982ded","ios":"levelo://app?vid=1bb5dae5-2cdb-43ae-b04c-dad911982ded"},"vehicle_type_id":"4","last_reported":1741781904,"current_range_meters":7200,"station_id":"ce4bhlh2rcd13ifvqgig","pricing_plan_id":"cebpf4jnsgd1na2vs0mg"},{"bike_id":"f9a797e4-9e61-4e18-8976-763ba6ca4819","system_id":"levelo_inurba_marseille","lat":43.29529,"lon":5.39038,"is_reserved":false,"is_disabled":true,"rental_uris":{"android":"levelo://app?vid=f9a797e4-9e61-4e18-8976-763ba6ca4819","ios":"levelo://app?vid=f9a797e4-9e61-4e18-8976-763ba6ca4819"},"vehicle_type_id":"4","last_reported":1741781904,"current_range_meters":7200,"station_id":"ce4bh3p2rcd13ifvqdp0","pricing_plan_id":"cebpf4jnsgd1na2vs0mg"},{"bike_id":"f640465e-8c9e-425a-8e36-08d8d5201bf6","system_id":"levelo_inurba_marseille","lat":43.23193,"lon":5.35543,"is_reserved":false,"is_disabled":false,"rental_uris":{"android":"levelo://app?vid=f640465e-8c9e-425a-8e36-08d8d5201bf6","ios":"levelo://app?vid=f640465e-8c9e-425a-8e36-08d8d5201bf6"},"vehicle_type_id":"4","last_reported":1741781904,"current_range_meters":7200,"station_id":"ce4bhu92rcd13ifvqi70","pricing_plan_id":"cebpf4jnsgd1na2vs0mg"},{"bike_id":"5eef5338-ff8a-466a-999e-0f162b00ff22","system_id":"levelo_inurba_marseille","lat":43.24536,"lon":5.39526,"is_reserved":false,"is_disabled":false,"rental_uris":{"android":"levelo://app?vid=5eef5338-ff8a-466a-999e-0f162b00ff22","ios":"levelo://app?vid=5eef5338-ff8a-466a-999e-0f162b00ff22"},"vehicle_type_id":"4","last_reported":1741781904,"current_range_meters":7200,"station_id":"ce4bhlp2rcd13ifvqgjg","pricing_plan_id":"cebpf4jnsgd1na2vs0mg"},{"bike_id":"a55b0a4e-965f-412b-a68f-592f3295c00f","system_id":"levelo_inurba_marseille","lat":43.29967,"lon":5.38497,"is_reserved":false,"is_disabled":false,"rental_uris":{"android":"levelo://app?vid=a55b0a4e-965f-412b-a68f-592f3295c00f","ios":"levelo://app?vid=a55b0a4e-965f-412b-a68f-592f3295c00f"},"vehicle_type_id":"4","last_reported":1741781904,"current_range_meters":8000,"station_id":"ce4bgj92rcd13ifvqbd0","pricing_plan_id":"cebpf4jnsgd1na2vs0mg"},{"bike_id":"00559a84-bfdd-4a60-a5de-01556800e8d9","system_id":"levelo_inurba_marseille","lat":43.2418,"lon":5.39747,"is_reserved":false,"is_disabled":false,"rental_uris":{"android":"levelo://app?vid=00559a84-bfdd-4a60-a5de-01556800e8d9","ios":"levelo://app?vid=00559a84-bfdd-4a60-a5de-01556800e8d9"},"vehicle_type_id":"4","last_reported":1741781904,"current_range_meters":8000,"station_id":"ce4bhn12rcd13ifvqgpg","pricing_plan_id":"cebpf4jnsgd1na2vs0mg"},{"bike_id":"62d9fb39-b2d8-4c58-88bd-f5d77d8cfe03","system_id":"levelo_inurba_marseille","lat":43.27944,"lon":5.41053,"is_reserved":false,"is_disabled":false,"rental_uris":{"android":"levelo://app?vid=62d9fb39-b2d8-4c58-88bd-f5d77d8cfe03","ios":"levelo://app?vid=62d9fb39-b2d8-4c58-88bd-f5d77d8cfe03"},"vehicle_type_id":"4","last_reported":1741781904,"current_range_meters":8000,"station_id":"ce4bhnp2rcd13ifvqh0g","pricing_plan_id":"cebpf4jnsgd1na2vs0mg"},{"bike_id":"241d79a7-8164-4ee5-8d3f-2565e2e0b3e8","system_id":"levelo_inurba_marseille","lat":43.31372,"lon":5.379633,"is_reserved":false,"is_disabled":false,"rental_uris":{"android":"levelo://app?vid=241d79a7-8164-4ee5-8d3f-2565e2e0b3e8","ios":"levelo://app?vid=241d79a7-8164-4ee5-8d3f-2565e2e0b3e8"},"vehicle_type_id":"4","last_reported":1741781904,"current_range_meters":8000,"station_id":"","pricing_plan_id":"cebpf4jnsgd1na2vs0mg"},{"bike_id":"f9ef0e3a-378e-4672-b9ba-509616575cb9","system_id":"levelo_inurba_marseille","lat":43.29434,"lon":5.38624,"is_reserved":false,"is_disabled":false,"rental_uris":{"android":"levelo://app?vid=f9ef0e3a-378e-4672-b9ba-509616575cb9","ios":"levelo://app?vid=f9ef0e3a-378e-4672-b9ba-509616575cb9"},"vehicle_type_id":"4","last_reported":1741781904,"current_range_meters":8000,"station_id":"ce4bh2h2rcd13ifvqdh0","pricing_plan_id":"cebpf4jnsgd1na2vs0mg"},{"bike_id":"512c4bea-01ec-4a77-9442-bae8cc15ba12","system_id":"levelo_inurba_marseille","lat":43.26055,"lon":5.39391,"is_reserved":false,"is_disabled":false,"rental_uris":{"android":"levelo://app?vid=512c4bea-01ec-4a77-9442-bae8cc15ba12","ios":"levelo://app?vid=512c4bea-01ec-4a77-9442-bae8cc15ba12"},"vehicle_type_id":"4","last_reported":1741781904,"current_range_meters":8000,"station_id":"ce4bhh92rcd13ifvqfj0","pricing_plan_id":"cebpf4jnsgd1na2vs0mg"},{"bike_id":"8091ba98-e234-4cbd-b6ca-94aedaf9af70","system_id":"levelo_inurba_marseille","lat":43.29927,"lon":5.36535,"is_reserved":false,"is_disabled":false,"rental_uris":{"android":"levelo://app?vid=8091ba98-e234-4cbd-b6ca-94aedaf9af70","ios":"levelo://app?vid=8091ba98-e234-4cbd-b6ca-94aedaf9af70"},"vehicle_type_id":"4","last_reported":1741781904,"current_range_meters":8000,"station_id":"ce4bgm92rcd13ifvqbr0","pricing_plan_id":"cebpf4jnsgd1na2vs0mg"},{"bike_id":"415e7a31-245d-4ead-9f33-dad092a04302","system_id":"levelo_inurba_marseille","lat":43.23062,"lon":5.35486,"is_reserved":false,"is_disabled":false,"rental_uris":{"android":"levelo://app?vid=415e7a31-245d-4ead-9f33-dad092a04302","ios":"levelo://app?vid=415e7a31-245d-4ead-9f33-dad092a04302"},"vehicle_type_id":"4","last_reported":1741781904,"current_range_meters":8400,"station_id":"cpo3342slgdg3j2ifvpg","pricing_plan_id":"cebpf4jnsgd1na2vs0mg"},{"bike_id":"ace03e83-6f02-4db3-8ee2-6f8c16e5293c","system_id":"levelo_inurba_marseille","lat":43.27366,"lon":5.36261,"is_reserved":false,"is_disabled":false,"rental_uris":{"android":"levelo://app?vid=ace03e83-6f02-4db3-8ee2-6f8c16e5293c","ios":"levelo://app?vid=ace03e83-6f02-4db3-8ee2-6f8c16e5293c"},"vehicle_type_id":"4","last_reported":1741781904,"current_range_meters":8400,"station_id":"ce4bhbh2rcd13ifvqeo0","pricing_plan_id":"cebpf4jnsgd1na2vs0mg"},{"bike_id":"769c50ea-3076-40af-9b1a-0610ba79e18d","system_id":"levelo_inurba_marseille","lat":43.27413,"lon":5.39396,"is_reserved":false,"is_disabled":false,"rental_uris":{"android":"levelo://app?vid=769c50ea-3076-40af-9b1a-0610ba79e18d","ios":"levelo://app?vid=769c50ea-3076-40af-9b1a-0610ba79e18d"},"vehicle_type_id":"4","last_reported":1741781904,"current_range_meters":8400,"station_id":"ce4bhdp2rcd13ifvqf20","pricing_plan_id":"cebpf4jnsgd1na2vs0mg"},{"bike_id":"785ec574-fd87-4141-ab8b-d82d6fd008c2","system_id":"levelo_inurba_marseille","lat":43.29363,"lon":5.37849,"is_reserved":false,"is_disabled":false,"rental_uris":{"android":"levelo://app?vid=785ec574-fd87-4141-ab8b-d82d6fd008c2","ios":"levelo://app?vid=785ec574-fd87-4141-ab8b-d82d6fd008c2"},"vehicle_type_id":"4","last_reported":1741781904,"current_range_meters":8400,"station_id":"ce4bgjh2rcd13ifvqbf0","pricing_plan_id":"cebpf4jnsgd1na2vs0mg"},{"bike_id":"29dcf4e5-3fc4-4240-b459-5be7b3d8998f","system_id":"levelo_inurba_marseille","lat":43.33607,"lon":5.41022,"is_reserved":false,"is_disabled":false,"rental_uris":{"android":"levelo://app?vid=29dcf4e5-3fc4-4240-b459-5be7b3d8998f","ios":"levelo://app?vid=29dcf4e5-3fc4-4240-b459-5be7b3d8998f"},"vehicle_type_id":"4","last_reported":1741781904,"current_range_meters":8400,"station_id":"ce4bhqh2rcd13ifvqhmg","pricing_plan_id":"cebpf4jnsgd1na2vs0mg"},{"bike_id":"ebdc0adc-86d4-4882-8983-2d6c86413625","system_id":"levelo_inurba_marseille","lat":43.23157,"lon":5.43724,"is_reserved":false,"is_disabled":false,"rental_uris":{"android":"levelo://app?vid=ebdc0adc-86d4-4882-8983-2d6c86413625","ios":"levelo://app?vid=ebdc0adc-86d4-4882-8983-2d6c86413625"},"vehicle_type_id":"4","last_reported":1741781904,"current_range_meters":8400,"station_id":"ce4bhmp2rcd13ifvqgog","pricing_plan_id":"cebpf4jnsgd1na2vs0mg"},{"bike_id":"f57125ae-71fb-4c19-8ca8-136b1ad2f9c2","system_id":"levelo_inurba_marseille","lat":43.2318,"lon":5.40002,"is_reserved":false,"is_disabled":false,"rental_uris":{"android":"levelo://app?vid=f57125ae-71fb-4c19-8ca8-136b1ad2f9c2","ios":"levelo://app?vid=f57125ae-71fb-4c19-8ca8-136b1ad2f9c2"},"vehicle_type_id":"4","last_reported":1741781904,"current_range_meters":8400,"station_id":"ce4bhn12rcd13ifvqgqg","pricing_plan_id":"cebpf4jnsgd1na2vs0mg"},{"bike_id":"702cb46f-b487-4fa7-bb19-ff8a8de79b57","system_id":"levelo_inurba_marseille","lat":43.26799,"lon":5.4028,"is_reserved":false,"is_disabled":false,"rental_uris":{"android":"levelo://app?vid=702cb46f-b487-4fa7-bb19-ff8a8de79b57","ios":"levelo://app?vid=702cb46f-b487-4fa7-bb19-ff8a8de79b57"},"vehicle_type_id":"4","last_reported":1741781904,"current_range_meters":8400,"station_id":"ce501612rcd8frsf0b60","pricing_plan_id":"cebpf4jnsgd1na2vs0mg"},{"bike_id":"78b5f92d-def3-45f9-ad95-3a8121edd43f","system_id":"levelo_inurba_marseille","lat":43.24993,"lon":5.38931,"is_reserved":false,"is_disabled":false,"rental_uris":{"android":"levelo://app?vid=78b5f92d-def3-45f9-ad95-3a8121edd43f","ios":"levelo://app?vid=78b5f92d-def3-45f9-ad95-3a8121edd43f"},"vehicle_type_id":"4","last_reported":1741781904,"current_range_meters":8400,"station_id":"ce4bhgp2rcd13ifvqfd0","pricing_plan_id":"cebpf4jnsgd1na2vs0mg"},{"bike_id":"e12be538-6dde-4604-98c7-f66a323a5270","system_id":"levelo_inurba_marseille","lat":43.25391,"lon":5.41859,"is_reserved":false,"is_disabled":false,"rental_uris":{"android":"levelo://app?vid=e12be538-6dde-4604-98c7-f66a323a5270","ios":"levelo://app?vid=e12be538-6dde-4604-98c7-f66a323a5270"},"vehicle_type_id":"4","last_reported":1741781904,"current_range_meters":8400,"station_id":"","pricing_plan_id":"cebpf4jnsgd1na2vs0mg"},{"bike_id":"feb4b9df-ca5a-441d-8892-405597e7da99","system_id":"levelo_inurba_marseille","lat":43.23057,"lon":5.3549,"is_reserved":false,"is_disabled":false,"rental_uris":{"android":"levelo://app?vid=feb4b9df-ca5a-441d-8892-405597e7da99","ios":"levelo://app?vid=feb4b9df-ca5a-441d-8892-405597e7da99"},"vehicle_type_id":"4","last_reported":1741781904,"current_range_meters":8400,"station_id":"cpo3342slgdg3j2ifvpg","pricing_plan_id":"cebpf4jnsgd1na2vs0mg"},{"bike_id":"60fa76ea-988a-4b7a-a190-7360dd9ce781","system_id":"levelo_inurba_marseille","lat":43.26556,"lon":5.37289,"is_reserved":false,"is_disabled":false,"rental_uris":{"android":"levelo://app?vid=60fa76ea-988a-4b7a-a190-7360dd9ce781","ios":"levelo://app?vid=60fa76ea-988a-4b7a-a190-7360dd9ce781"},"vehicle_type_id":"4","last_reported":1741781904,"current_range_meters":8800,"station_id":"ce4bhg12rcd13ifvqf70","pricing_plan_id":"cebpf4jnsgd1na2vs0mg"},{"bike_id":"6754de0b-0924-4700-9ff4-8269bd0eb7b2","system_id":"levelo_inurba_marseille","lat":43.30638,"lon":5.40091,"is_reserved":false,"is_disabled":false,"rental_uris":{"android":"levelo://app?vid=6754de0b-0924-4700-9ff4-8269bd0eb7b2","ios":"levelo://app?vid=6754de0b-0924-4700-9ff4-8269bd0eb7b2"},"vehicle_type_id":"4","last_reported":1741781904,"current_range_meters":8800,"station_id":"ce4bh112rcd13ifvqda0","pricing_plan_id":"cebpf4jnsgd1na2vs0mg"},{"bike_id":"fa1f3d6d-791c-4304-9b5c-be3a4cd4a4ba","system_id":"levelo_inurba_marseille","lat":43.27813,"lon":5.40712,"is_reserved":false,"is_disabled":false,"rental_uris":{"android":"levelo://app?vid=fa1f3d6d-791c-4304-9b5c-be3a4cd4a4ba","ios":"levelo://app?vid=fa1f3d6d-791c-4304-9b5c-be3a4cd4a4ba"},"vehicle_type_id":"4","last_reported":1741781904,"current_range_meters":8800,"station_id":"ce4bhnh2rcd13ifvqgtg","pricing_plan_id":"cebpf4jnsgd1na2vs0mg"},{"bike_id":"80160602-9be5-4bff-ab04-8eb5a2c2a942","system_id":"levelo_inurba_marseille","lat":43.25871,"lon":5.39892,"is_reserved":false,"is_disabled":false,"rental_uris":{"android":"levelo://app?vid=80160602-9be5-4bff-ab04-8eb5a2c2a942","ios":"levelo://app?vid=80160602-9be5-4bff-ab04-8eb5a2c2a942"},"vehicle_type_id":"4","last_reported":1741781904,"current_range_meters":8800,"station_id":"ce4bhl92rcd13ifvqghg","pricing_plan_id":"cebpf4jnsgd1na2vs0mg"},{"bike_id":"05388ace-665a-4114-a828-939b708a2589","system_id":"levelo_inurba_marseille","lat":43.2318,"lon":5.39952,"is_reserved":false,"is_disabled":false,"rental_uris":{"android":"levelo://app?vid=05388ace-665a-4114-a828-939b708a2589","ios":"levelo://app?vid=05388ace-665a-4114-a828-939b708a2589"},"vehicle_type_id":"4","last_reported":1741781904,"current_range_meters":8800,"station_id":"ce4bhn12rcd13ifvqgqg","pricing_plan_id":"cebpf4jnsgd1na2vs0mg"},{"bike_id":"b7dfa2dd-7c24-4872-a590-d59d62343a3d","system_id":"levelo_inurba_marseille","lat":43.30433,"lon":5.38895,"is_reserved":false,"is_disabled":false,"rental_uris":{"android":"levelo://app?vid=b7dfa2dd-7c24-4872-a590-d59d62343a3d","ios":"levelo://app?vid=b7dfa2dd-7c24-4872-a590-d59d62343a3d"},"vehicle_type_id":"4","last_reported":1741781904,"current_range_meters":8800,"station_id":"ce4bgk12rcd13ifvqbi0","pricing_plan_id":"cebpf4jnsgd1na2vs0mg"},{"bike_id":"eb1ba1b6-2e87-45ed-8cf3-925b9709627f","system_id":"levelo_inurba_marseille","lat":43.29494,"lon":5.39413,"is_reserved":false,"is_disabled":false,"rental_uris":{"android":"levelo://app?vid=eb1ba1b6-2e87-45ed-8cf3-925b9709627f","ios":"levelo://app?vid=eb1ba1b6-2e87-45ed-8cf3-925b9709627f"},"vehicle_type_id":"4","last_reported":1741781904,"current_range_meters":9200,"station_id":"ce4bh3p2rcd13ifvqdp0","pricing_plan_id":"cebpf4jnsgd1na2vs0mg"},{"bike_id":"f6348e8b-0243-47e7-a545-c17e4f218158","system_id":"levelo_inurba_marseille","lat":43.28461,"lon":5.35887,"is_reserved":false,"is_disabled":false,"rental_uris":{"android":"levelo://app?vid=f6348e8b-0243-47e7-a545-c17e4f218158","ios":"levelo://app?vid=f6348e8b-0243-47e7-a545-c17e4f218158"},"vehicle_type_id":"4","last_reported":1741781904,"current_range_meters":9200,"station_id":"ce4bhah2rcd13ifvqei0","pricing_plan_id":"cebpf4jnsgd1na2vs0mg"},{"bike_id":"82512acd-d4a4-4e69-ad68-d5bb4078ae7a","system_id":"levelo_inurba_marseille","lat":43.239624,"lon":5.366364,"is_reserved":false,"is_disabled":false,"rental_uris":{"android":"levelo://app?vid=82512acd-d4a4-4e69-ad68-d5bb4078ae7a","ios":"levelo://app?vid=82512acd-d4a4-4e69-ad68-d5bb4078ae7a"},"vehicle_type_id":"4","last_reported":1741781904,"current_range_meters":9200,"station_id":"ce4bhi12rcd13ifvqfp0","pricing_plan_id":"cebpf4jnsgd1na2vs0mg"},{"bike_id":"1e383331-4cf9-4f27-840c-e013f13c25d8","system_id":"levelo_inurba_marseille","lat":43.23197,"lon":5.39986,"is_reserved":false,"is_disabled":false,"rental_uris":{"android":"levelo://app?vid=1e383331-4cf9-4f27-840c-e013f13c25d8","ios":"levelo://app?vid=1e383331-4cf9-4f27-840c-e013f13c25d8"},"vehicle_type_id":"4","last_reported":1741781904,"current_range_meters":9200,"station_id":"ce4bhn12rcd13ifvqgqg","pricing_plan_id":"cebpf4jnsgd1na2vs0mg"},{"bike_id":"9880b3b3-4334-44f1-88d3-e581c8981652","system_id":"levelo_inurba_marseille","lat":43.27069,"lon":5.40262,"is_reserved":false,"is_disabled":false,"rental_uris":{"android":"levelo://app?vid=9880b3b3-4334-44f1-88d3-e581c8981652","ios":"levelo://app?vid=9880b3b3-4334-44f1-88d3-e581c8981652"},"vehicle_type_id":"4","last_reported":1741781904,"current_range_meters":9200,"station_id":"ce4bhk92rcd13ifvqgc0","pricing_plan_id":"cebpf4jnsgd1na2vs0mg"},{"bike_id":"47fa1a31-5bb3-4522-abd9-b87b4a821178","system_id":"levelo_inurba_marseille","lat":43.27824,"lon":5.40693,"is_reserved":false,"is_disabled":false,"rental_uris":{"android":"levelo://app?vid=47fa1a31-5bb3-4522-abd9-b87b4a821178","ios":"levelo://app?vid=47fa1a31-5bb3-4522-abd9-b87b4a821178"},"vehicle_type_id":"4","last_reported":1741781904,"current_range_meters":9200,"station_id":"ce4bhnh2rcd13ifvqgtg","pricing_plan_id":"cebpf4jnsgd1na2vs0mg"},{"bike_id":"9294a26b-c088-4208-917f-c73e3c4f5f46","system_id":"levelo_inurba_marseille","lat":43.30405,"lon":5.40755,"is_reserved":false,"is_disabled":false,"rental_uris":{"android":"levelo://app?vid=9294a26b-c088-4208-917f-c73e3c4f5f46","ios":"levelo://app?vid=9294a26b-c088-4208-917f-c73e3c4f5f46"},"vehicle_type_id":"4","last_reported":1741781904,"current_range_meters":9200,"station_id":"","pricing_plan_id":"cebpf4jnsgd1na2vs0mg"},{"bike_id":"2931d81f-abb3-45b8-9224-dc3fce2fae31","system_id":"levelo_inurba_marseille","lat":43.323644,"lon":5.367632,"is_reserved":false,"is_disabled":false,"rental_uris":{"android":"levelo://app?vid=2931d81f-abb3-45b8-9224-dc3fce2fae31","ios":"levelo://app?vid=2931d81f-abb3-45b8-9224-dc3fce2fae31"},"vehicle_type_id":"4","last_reported":1741781904,"current_range_meters":9200,"station_id":"ce4bhsh2rcd13ifvqi2g","pricing_plan_id":"cebpf4jnsgd1na2vs0mg"},{"bike_id":"6216841f-c9be-4e6e-bcf4-810c7dd12453","system_id":"levelo_inurba_marseille","lat":43.31206,"lon":5.36852,"is_reserved":false,"is_disabled":false,"rental_uris":{"android":"levelo://app?vid=6216841f-c9be-4e6e-bcf4-810c7dd12453","ios":"levelo://app?vid=6216841f-c9be-4e6e-bcf4-810c7dd12453"},"vehicle_type_id":"4","last_reported":1741781904,"current_range_meters":9200,"station_id":"ce4bgl92rcd13ifvqbq0","pricing_plan_id":"cebpf4jnsgd1na2vs0mg"},{"bike_id":"c1fdf776-5ff6-4f38-96ad-d3bee4a7cebb","system_id":"levelo_inurba_marseille","lat":43.23127,"lon":5.43727,"is_reserved":false,"is_disabled":false,"rental_uris":{"android":"levelo://app?vid=c1fdf776-5ff6-4f38-96ad-d3bee4a7cebb","ios":"levelo://app?vid=c1fdf776-5ff6-4f38-96ad-d3bee4a7cebb"},"vehicle_type_id":"4","last_reported":1741781904,"current_range_meters":9200,"station_id":"ce4bhmp2rcd13ifvqgog","pricing_plan_id":"cebpf4jnsgd1na2vs0mg"},{"bike_id":"e903bbff-5792-47a1-b07a-fcd1122515a2","system_id":"levelo_inurba_marseille","lat":43.29884,"lon":5.43679,"is_reserved":false,"is_disabled":false,"rental_uris":{"android":"levelo://app?vid=e903bbff-5792-47a1-b07a-fcd1122515a2","ios":"levelo://app?vid=e903bbff-5792-47a1-b07a-fcd1122515a2"},"vehicle_type_id":"4","last_reported":1741781904,"current_range_meters":9200,"station_id":"ce4bhpp2rcd13ifvqhfg","pricing_plan_id":"cebpf4jnsgd1na2vs0mg"},{"bike_id":"a8d39cbd-fcf8-48d7-ace7-aaca4c293c33","system_id":"levelo_inurba_marseille","lat":43.29572,"lon":5.39975,"is_reserved":false,"is_disabled":false,"rental_uris":{"android":"levelo://app?vid=a8d39cbd-fcf8-48d7-ace7-aaca4c293c33","ios":"levelo://app?vid=a8d39cbd-fcf8-48d7-ace7-aaca4c293c33"},"vehicle_type_id":"4","last_reported":1741781904,"current_range_meters":9200,"station_id":"ce4bh312rcd13ifvqdj0","pricing_plan_id":"cebpf4jnsgd1na2vs0mg"},{"bike_id":"480f3168-bddd-443c-890a-aeee62699484","system_id":"levelo_inurba_marseille","lat":43.26943,"lon":5.3864,"is_reserved":false,"is_disabled":false,"rental_uris":{"android":"levelo://app?vid=480f3168-bddd-443c-890a-aeee62699484","ios":"levelo://app?vid=480f3168-bddd-443c-890a-aeee62699484"},"vehicle_type_id":"4","last_reported":1741781904,"current_range_meters":9200,"station_id":"ce4bhh92rcd13ifvqfh0","pricing_plan_id":"cebpf4jnsgd1na2vs0mg"},{"bike_id":"0117055b-abaa-4782-a83e-c23d24cb8a2e","system_id":"levelo_inurba_marseille","lat":43.24643,"lon":5.38907,"is_reserved":false,"is_disabled":false,"rental_uris":{"android":"levelo://app?vid=0117055b-abaa-4782-a83e-c23d24cb8a2e","ios":"levelo://app?vid=0117055b-abaa-4782-a83e-c23d24cb8a2e"},"vehicle_type_id":"4","last_reported":1741781904,"current_range_meters":9200,"station_id":"ce4bhg12rcd13ifvqf60","pricing_plan_id":"cebpf4jnsgd1na2vs0mg"},{"bike_id":"b07eb6c8-419a-48b6-91ae-1abf76913aa5","system_id":"levelo_inurba_marseille","lat":43.23153,"lon":5.43706,"is_reserved":false,"is_disabled":true,"rental_uris":{"android":"levelo://app?vid=b07eb6c8-419a-48b6-91ae-1abf76913aa5","ios":"levelo://app?vid=b07eb6c8-419a-48b6-91ae-1abf76913aa5"},"vehicle_type_id":"4","last_reported":1741781904,"current_range_meters":9600,"station_id":"ce4bhmp2rcd13ifvqgog","pricing_plan_id":"cebpf4jnsgd1na2vs0mg"},{"bike_id":"ba18639b-98cc-4ab3-ad63-4ac259cc4916","system_id":"levelo_inurba_marseille","lat":43.23958,"lon":5.36637,"is_reserved":false,"is_disabled":false,"rental_uris":{"android":"levelo://app?vid=ba18639b-98cc-4ab3-ad63-4ac259cc4916","ios":"levelo://app?vid=ba18639b-98cc-4ab3-ad63-4ac259cc4916"},"vehicle_type_id":"4","last_reported":1741781904,"current_range_meters":9600,"station_id":"ce4bhi12rcd13ifvqfp0","pricing_plan_id":"cebpf4jnsgd1na2vs0mg"},{"bike_id":"5d793a22-0f2a-453a-aaa9-334143f109be","system_id":"levelo_inurba_marseille","lat":43.29548,"lon":5.42285,"is_reserved":false,"is_disabled":false,"rental_uris":{"android":"levelo://app?vid=5d793a22-0f2a-453a-aaa9-334143f109be","ios":"levelo://app?vid=5d793a22-0f2a-453a-aaa9-334143f109be"},"vehicle_type_id":"4","last_reported":1741781904,"current_range_meters":9600,"station_id":"ce4bhph2rcd13ifvqhdg","pricing_plan_id":"cebpf4jnsgd1na2vs0mg"},{"bike_id":"13038f8e-ae85-4d9c-ac24-31f2124a973b","system_id":"levelo_inurba_marseille","lat":43.24645,"lon":5.38895,"is_reserved":false,"is_disabled":false,"rental_uris":{"android":"levelo://app?vid=13038f8e-ae85-4d9c-ac24-31f2124a973b","ios":"levelo://app?vid=13038f8e-ae85-4d9c-ac24-31f2124a973b"},"vehicle_type_id":"4","last_reported":1741781904,"current_range_meters":9600,"station_id":"ce4bhg12rcd13ifvqf60","pricing_plan_id":"cebpf4jnsgd1na2vs0mg"},{"bike_id":"35e1c8de-568f-4d43-8c4f-5ad221c99a90","system_id":"levelo_inurba_marseille","lat":43.30181,"lon":5.36618,"is_reserved":false,"is_disabled":false,"rental_uris":{"android":"levelo://app?vid=35e1c8de-568f-4d43-8c4f-5ad221c99a90","ios":"levelo://app?vid=35e1c8de-568f-4d43-8c4f-5ad221c99a90"},"vehicle_type_id":"4","last_reported":1741781904,"current_range_meters":9600,"station_id":"ce4bgrh2rcd13ifvqc8g","pricing_plan_id":"cebpf4jnsgd1na2vs0mg"},{"bike_id":"8dee66dd-a753-4e90-9df0-a75f60b0d66f","system_id":"levelo_inurba_marseille","lat":43.2857,"lon":5.42493,"is_reserved":false,"is_disabled":false,"rental_uris":{"android":"levelo://app?vid=8dee66dd-a753-4e90-9df0-a75f60b0d66f","ios":"levelo://app?vid=8dee66dd-a753-4e90-9df0-a75f60b0d66f"},"vehicle_type_id":"4","last_reported":1741781904,"current_range_meters":9600,"station_id":"","pricing_plan_id":"cebpf4jnsgd1na2vs0mg"},{"bike_id":"ebcd70c6-eb93-44d4-90c3-54c9dd3bc4cd","system_id":"levelo_inurba_marseille","lat":43.26575,"lon":5.37289,"is_reserved":false,"is_disabled":false,"rental_uris":{"android":"levelo://app?vid=ebcd70c6-eb93-44d4-90c3-54c9dd3bc4cd","ios":"levelo://app?vid=ebcd70c6-eb93-44d4-90c3-54c9dd3bc4cd"},"vehicle_type_id":"4","last_reported":1741781904,"current_range_meters":9600,"station_id":"ce4bhg12rcd13ifvqf70","pricing_plan_id":"cebpf4jnsgd1na2vs0mg"},{"bike_id":"511a478b-16c6-4549-a89d-177a4b1ec633","system_id":"levelo_inurba_marseille","lat":43.26561,"lon":5.37297,"is_reserved":false,"is_disabled":false,"rental_uris":{"android":"levelo://app?vid=511a478b-16c6-4549-a89d-177a4b1ec633","ios":"levelo://app?vid=511a478b-16c6-4549-a89d-177a4b1ec633"},"vehicle_type_id":"4","last_reported":1741781904,"current_range_meters":9600,"station_id":"ce4bhg12rcd13ifvqf70","pricing_plan_id":"cebpf4jnsgd1na2vs0mg"},{"bike_id":"f829a819-671e-4b71-9c22-56c5f8047725","system_id":"levelo_inurba_marseille","lat":43.32375,"lon":5.36734,"is_reserved":false,"is_disabled":false,"rental_uris":{"android":"levelo://app?vid=f829a819-671e-4b71-9c22-56c5f8047725","ios":"levelo://app?vid=f829a819-671e-4b71-9c22-56c5f8047725"},"vehicle_type_id":"4","last_reported":1741781904,"current_range_meters":9600,"station_id":"ce4bhsh2rcd13ifvqi2g","pricing_plan_id":"cebpf4jnsgd1na2vs0mg"},{"bike_id":"f076f6f7-e4b4-48be-92db-c2ec27c500f6","system_id":"levelo_inurba_marseille","lat":43.232,"lon":5.39951,"is_reserved":false,"is_disabled":false,"rental_uris":{"android":"levelo://app?vid=f076f6f7-e4b4-48be-92db-c2ec27c500f6","ios":"levelo://app?vid=f076f6f7-e4b4-48be-92db-c2ec27c500f6"},"vehicle_type_id":"4","last_reported":1741781904,"current_range_meters":10000,"station_id":"ce4bhn12rcd13ifvqgqg","pricing_plan_id":"cebpf4jnsgd1na2vs0mg"},{"bike_id":"72110d35-d849-46a7-9d93-af7d7ab6a2f3","system_id":"levelo_inurba_marseille","lat":43.293048,"lon":5.37459,"is_reserved":false,"is_disabled":false,"rental_uris":{"android":"levelo://app?vid=72110d35-d849-46a7-9d93-af7d7ab6a2f3","ios":"levelo://app?vid=72110d35-d849-46a7-9d93-af7d7ab6a2f3"},"vehicle_type_id":"4","last_reported":1741781904,"current_range_meters":10000,"station_id":"ce4bgjh2rcd13ifvqbf0","pricing_plan_id":"cebpf4jnsgd1na2vs0mg"},{"bike_id":"285c414d-4397-4eb0-a21e-4809f045f171","system_id":"levelo_inurba_marseille","lat":43.301686,"lon":5.387412,"is_reserved":false,"is_disabled":false,"rental_uris":{"android":"levelo://app?vid=285c414d-4397-4eb0-a21e-4809f045f171","ios":"levelo://app?vid=285c414d-4397-4eb0-a21e-4809f045f171"},"vehicle_type_id":"4","last_reported":1741781904,"current_range_meters":10000,"station_id":"ce4bgt92rcd13ifvqcg0","pricing_plan_id":"cebpf4jnsgd1na2vs0mg"},{"bike_id":"c21b0a40-5e50-4d00-aae9-340e415e7c85","system_id":"levelo_inurba_marseille","lat":43.26499,"lon":5.39546,"is_reserved":false,"is_disabled":false,"rental_uris":{"android":"levelo://app?vid=c21b0a40-5e50-4d00-aae9-340e415e7c85","ios":"levelo://app?vid=c21b0a40-5e50-4d00-aae9-340e415e7c85"},"vehicle_type_id":"4","last_reported":1741781904,"current_range_meters":10000,"station_id":"ce4bhi12rcd13ifvqfq0","pricing_plan_id":"cebpf4jnsgd1na2vs0mg"},{"bike_id":"f089405c-d65a-4a6b-a39c-5cde3f352c4b","system_id":"levelo_inurba_marseille","lat":43.30539,"lon":5.36697,"is_reserved":false,"is_disabled":false,"rental_uris":{"android":"levelo://app?vid=f089405c-d65a-4a6b-a39c-5cde3f352c4b","ios":"levelo://app?vid=f089405c-d65a-4a6b-a39c-5cde3f352c4b"},"vehicle_type_id":"4","last_reported":1741781904,"current_range_meters":10000,"station_id":"ce4bgrp2rcd13ifvqc9g","pricing_plan_id":"cebpf4jnsgd1na2vs0mg"},{"bike_id":"03fcef79-f017-4d15-a10d-891c5cd96db2","system_id":"levelo_inurba_marseille","lat":43.23065,"lon":5.35491,"is_reserved":false,"is_disabled":false,"rental_uris":{"android":"levelo://app?vid=03fcef79-f017-4d15-a10d-891c5cd96db2","ios":"levelo://app?vid=03fcef79-f017-4d15-a10d-891c5cd96db2"},"vehicle_type_id":"4","last_reported":1741781904,"current_range_meters":10000,"station_id":"cpo3342slgdg3j2ifvpg","pricing_plan_id":"cebpf4jnsgd1na2vs0mg"},{"bike_id":"abd01563-25ee-495a-a95b-891dbf0a92ef","system_id":"levelo_inurba_marseille","lat":43.24996,"lon":5.38929,"is_reserved":false,"is_disabled":false,"rental_uris":{"android":"levelo://app?vid=abd01563-25ee-495a-a95b-891dbf0a92ef","ios":"levelo://app?vid=abd01563-25ee-495a-a95b-891dbf0a92ef"},"vehicle_type_id":"4","last_reported":1741781904,"current_range_meters":10000,"station_id":"ce4bhgp2rcd13ifvqfd0","pricing_plan_id":"cebpf4jnsgd1na2vs0mg"},{"bike_id":"4b0374f0-110a-412c-bcf6-b425f6f368fc","system_id":"levelo_inurba_marseille","lat":43.30296,"lon":5.39216,"is_reserved":false,"is_disabled":false,"rental_uris":{"android":"levelo://app?vid=4b0374f0-110a-412c-bcf6-b425f6f368fc","ios":"levelo://app?vid=4b0374f0-110a-412c-bcf6-b425f6f368fc"},"vehicle_type_id":"4","last_reported":1741781904,"current_range_meters":10000,"station_id":"ce4bgkh2rcd13ifvqbk0","pricing_plan_id":"cebpf4jnsgd1na2vs0mg"},{"bike_id":"a4ce6389-69c8-41eb-a2cb-27e113df5153","system_id":"levelo_inurba_marseille","lat":43.28607,"lon":5.35105,"is_reserved":false,"is_disabled":false,"rental_uris":{"android":"levelo://app?vid=a4ce6389-69c8-41eb-a2cb-27e113df5153","ios":"levelo://app?vid=a4ce6389-69c8-41eb-a2cb-27e113df5153"},"vehicle_type_id":"4","last_reported":1741781904,"current_range_meters":10800,"station_id":"ce4bhch2rcd13ifvqeug","pricing_plan_id":"cebpf4jnsgd1na2vs0mg"},{"bike_id":"28ddcdf4-024a-4f42-80ff-fb3bac3f5f61","system_id":"levelo_inurba_marseille","lat":43.24162,"lon":5.3639,"is_reserved":false,"is_disabled":false,"rental_uris":{"android":"levelo://app?vid=28ddcdf4-024a-4f42-80ff-fb3bac3f5f61","ios":"levelo://app?vid=28ddcdf4-024a-4f42-80ff-fb3bac3f5f61"},"vehicle_type_id":"4","last_reported":1741781904,"current_range_meters":10800,"station_id":"cpo36qri1sfpv3e86is0","pricing_plan_id":"cebpf4jnsgd1na2vs0mg"},{"bike_id":"d8fc7225-0157-4f46-bfde-5e8a21a4823b","system_id":"levelo_inurba_marseille","lat":43.25826,"lon":5.39434,"is_reserved":false,"is_disabled":false,"rental_uris":{"android":"levelo://app?vid=d8fc7225-0157-4f46-bfde-5e8a21a4823b","ios":"levelo://app?vid=d8fc7225-0157-4f46-bfde-5e8a21a4823b"},"vehicle_type_id":"4","last_reported":1741781904,"current_range_meters":10800,"station_id":"ce4bhip2rcd13ifvqft0","pricing_plan_id":"cebpf4jnsgd1na2vs0mg"},{"bike_id":"5dff7e4b-00a4-4649-9663-d77c949847a1","system_id":"levelo_inurba_marseille","lat":43.24171,"lon":5.36402,"is_reserved":false,"is_disabled":false,"rental_uris":{"android":"levelo://app?vid=5dff7e4b-00a4-4649-9663-d77c949847a1","ios":"levelo://app?vid=5dff7e4b-00a4-4649-9663-d77c949847a1"},"vehicle_type_id":"4","last_reported":1741781904,"current_range_meters":10800,"station_id":"cpo36qri1sfpv3e86is0","pricing_plan_id":"cebpf4jnsgd1na2vs0mg"},{"bike_id":"e194074b-a466-406c-b10f-3c3578acc9df","system_id":"levelo_inurba_marseille","lat":43.29968,"lon":5.37183,"is_reserved":false,"is_disabled":false,"rental_uris":{"android":"levelo://app?vid=e194074b-a466-406c-b10f-3c3578acc9df","ios":"levelo://app?vid=e194074b-a466-406c-b10f-3c3578acc9df"},"vehicle_type_id":"4","last_reported":1741781904,"current_range_meters":10800,"station_id":"ce4bgr92rcd13ifvqc7g","pricing_plan_id":"cebpf4jnsgd1na2vs0mg"},{"bike_id":"ec5d08ce-934d-49b5-9a73-c20b44942d11","system_id":"levelo_inurba_marseille","lat":43.31431,"lon":5.37643,"is_reserved":false,"is_disabled":false,"rental_uris":{"android":"levelo://app?vid=ec5d08ce-934d-49b5-9a73-c20b44942d11","ios":"levelo://app?vid=ec5d08ce-934d-49b5-9a73-c20b44942d11"},"vehicle_type_id":"4","last_reported":1741781904,"current_range_meters":10800,"station_id":"","pricing_plan_id":"cebpf4jnsgd1na2vs0mg"},{"bike_id":"6190eac7-4d69-4aee-8885-569caf678aef","system_id":"levelo_inurba_marseille","lat":43.25724,"lon":5.41107,"is_reserved":false,"is_disabled":false,"rental_uris":{"android":"levelo://app?vid=6190eac7-4d69-4aee-8885-569caf678aef","ios":"levelo://app?vid=6190eac7-4d69-4aee-8885-569caf678aef"},"vehicle_type_id":"4","last_reported":1741781904,"current_range_meters":10800,"station_id":"ce4bhkp2rcd13ifvqgd0","pricing_plan_id":"cebpf4jnsgd1na2vs0mg"},{"bike_id":"ac0f7329-da1f-417d-8d67-981114b589a9","system_id":"levelo_inurba_marseille","lat":43.28033,"lon":5.36954,"is_reserved":false,"is_disabled":false,"rental_uris":{"android":"levelo://app?vid=ac0f7329-da1f-417d-8d67-981114b589a9","ios":"levelo://app?vid=ac0f7329-da1f-417d-8d67-981114b589a9"},"vehicle_type_id":"4","last_reported":1741781904,"current_range_meters":10800,"station_id":"ce4bha12rcd13ifvqef0","pricing_plan_id":"cebpf4jnsgd1na2vs0mg"},{"bike_id":"15945df9-cece-4165-b8da-5cff592695e2","system_id":"levelo_inurba_marseille","lat":43.30561,"lon":5.36532,"is_reserved":false,"is_disabled":false,"rental_uris":{"android":"levelo://app?vid=15945df9-cece-4165-b8da-5cff592695e2","ios":"levelo://app?vid=15945df9-cece-4165-b8da-5cff592695e2"},"vehicle_type_id":"4","last_reported":1741781904,"current_range_meters":11200,"station_id":"ce4bgs12rcd13ifvqcag","pricing_plan_id":"cebpf4jnsgd1na2vs0mg"},{"bike_id":"7c651c3b-fd15-4ef1-b51c-9fccba3a015b","system_id":"levelo_inurba_marseille","lat":43.292702,"lon":5.384468,"is_reserved":false,"is_disabled":false,"rental_uris":{"android":"levelo://app?vid=7c651c3b-fd15-4ef1-b51c-9fccba3a015b","ios":"levelo://app?vid=7c651c3b-fd15-4ef1-b51c-9fccba3a015b"},"vehicle_type_id":"4","last_reported":1741781904,"current_range_meters":11200,"station_id":"ce4bgt92rcd13ifvqcf0","pricing_plan_id":"cebpf4jnsgd1na2vs0mg"},{"bike_id":"13fe6d94-935d-42fe-a51f-7a8c162fd6d2","system_id":"levelo_inurba_marseille","lat":43.29564,"lon":5.39966,"is_reserved":false,"is_disabled":false,"rental_uris":{"android":"levelo://app?vid=13fe6d94-935d-42fe-a51f-7a8c162fd6d2","ios":"levelo://app?vid=13fe6d94-935d-42fe-a51f-7a8c162fd6d2"},"vehicle_type_id":"4","last_reported":1741781904,"current_range_meters":11200,"station_id":"ce4bh312rcd13ifvqdj0","pricing_plan_id":"cebpf4jnsgd1na2vs0mg"},{"bike_id":"d34c486a-1f4c-4633-aedb-8d2096ade05a","system_id":"levelo_inurba_marseille","lat":43.30797,"lon":5.43514,"is_reserved":false,"is_disabled":false,"rental_uris":{"android":"levelo://app?vid=d34c486a-1f4c-4633-aedb-8d2096ade05a","ios":"levelo://app?vid=d34c486a-1f4c-4633-aedb-8d2096ade05a"},"vehicle_type_id":"4","last_reported":1741781904,"current_range_meters":11200,"station_id":"ce4bhph2rcd13ifvqheg","pricing_plan_id":"cebpf4jnsgd1na2vs0mg"},{"bike_id":"c8d51ca3-1579-4db0-b852-ee5553a24be4","system_id":"levelo_inurba_marseille","lat":43.27069,"lon":5.42278,"is_reserved":false,"is_disabled":false,"rental_uris":{"android":"levelo://app?vid=c8d51ca3-1579-4db0-b852-ee5553a24be4","ios":"levelo://app?vid=c8d51ca3-1579-4db0-b852-ee5553a24be4"},"vehicle_type_id":"4","last_reported":1741781904,"current_range_meters":11200,"station_id":"ce4bhk92rcd13ifvqgb0","pricing_plan_id":"cebpf4jnsgd1na2vs0mg"},{"bike_id":"54183ff0-6130-41c8-822f-33a1605854c0","system_id":"levelo_inurba_marseille","lat":43.31403,"lon":5.36616,"is_reserved":false,"is_disabled":false,"rental_uris":{"android":"levelo://app?vid=54183ff0-6130-41c8-822f-33a1605854c0","ios":"levelo://app?vid=54183ff0-6130-41c8-822f-33a1605854c0"},"vehicle_type_id":"4","last_reported":1741781904,"current_range_meters":11200,"station_id":"ce4bgr92rcd13ifvqc6g","pricing_plan_id":"cebpf4jnsgd1na2vs0mg"},{"bike_id":"2fab47e3-d3c8-4f3b-81a8-ea67f9d54ea6","system_id":"levelo_inurba_marseille","lat":43.27676,"lon":5.38866,"is_reserved":false,"is_disabled":false,"rental_uris":{"android":"levelo://app?vid=2fab47e3-d3c8-4f3b-81a8-ea67f9d54ea6","ios":"levelo://app?vid=2fab47e3-d3c8-4f3b-81a8-ea67f9d54ea6"},"vehicle_type_id":"4","last_reported":1741781904,"current_range_meters":11200,"station_id":"ce4bhi12rcd13ifvqfo0","pricing_plan_id":"cebpf4jnsgd1na2vs0mg"},{"bike_id":"2d16443d-ed2e-4c48-af94-4deffe2479f1","system_id":"levelo_inurba_marseille","lat":43.25007,"lon":5.38916,"is_reserved":false,"is_disabled":false,"rental_uris":{"android":"levelo://app?vid=2d16443d-ed2e-4c48-af94-4deffe2479f1","ios":"levelo://app?vid=2d16443d-ed2e-4c48-af94-4deffe2479f1"},"vehicle_type_id":"4","last_reported":1741781904,"current_range_meters":11200,"station_id":"ce4bhgp2rcd13ifvqfd0","pricing_plan_id":"cebpf4jnsgd1na2vs0mg"},{"bike_id":"1bc526f3-1dd3-45cb-8d57-6b5b618e7037","system_id":"levelo_inurba_marseille","lat":43.32476,"lon":5.36569,"is_reserved":false,"is_disabled":false,"rental_uris":{"android":"levelo://app?vid=1bc526f3-1dd3-45cb-8d57-6b5b618e7037","ios":"levelo://app?vid=1bc526f3-1dd3-45cb-8d57-6b5b618e7037"},"vehicle_type_id":"4","last_reported":1741781904,"current_range_meters":11200,"station_id":"ce4bhs12rcd13ifvqhvg","pricing_plan_id":"cebpf4jnsgd1na2vs0mg"},{"bike_id":"a00e4b7e-cc11-410d-b818-fbdc9d8a85ec","system_id":"levelo_inurba_marseille","lat":43.27941,"lon":5.41045,"is_reserved":false,"is_disabled":false,"rental_uris":{"android":"levelo://app?vid=a00e4b7e-cc11-410d-b818-fbdc9d8a85ec","ios":"levelo://app?vid=a00e4b7e-cc11-410d-b818-fbdc9d8a85ec"},"vehicle_type_id":"4","last_reported":1741781904,"current_range_meters":11200,"station_id":"ce4bhnp2rcd13ifvqh0g","pricing_plan_id":"cebpf4jnsgd1na2vs0mg"},{"bike_id":"29a79942-87b6-4add-bc4a-da907bdbb506","system_id":"levelo_inurba_marseille","lat":43.23139,"lon":5.43711,"is_reserved":false,"is_disabled":false,"rental_uris":{"android":"levelo://app?vid=29a79942-87b6-4add-bc4a-da907bdbb506","ios":"levelo://app?vid=29a79942-87b6-4add-bc4a-da907bdbb506"},"vehicle_type_id":"4","last_reported":1741781904,"current_range_meters":11200,"station_id":"ce4bhmp2rcd13ifvqgog","pricing_plan_id":"cebpf4jnsgd1na2vs0mg"},{"bike_id":"0a995a9a-6122-4f4b-b298-a8b06cbca7e2","system_id":"levelo_inurba_marseille","lat":43.25011,"lon":5.38914,"is_reserved":false,"is_disabled":false,"rental_uris":{"android":"levelo://app?vid=0a995a9a-6122-4f4b-b298-a8b06cbca7e2","ios":"levelo://app?vid=0a995a9a-6122-4f4b-b298-a8b06cbca7e2"},"vehicle_type_id":"4","last_reported":1741781904,"current_range_meters":11600,"station_id":"ce4bhgp2rcd13ifvqfd0","pricing_plan_id":"cebpf4jnsgd1na2vs0mg"},{"bike_id":"e077e3eb-0b9a-476d-b99e-9202ab735aed","system_id":"levelo_inurba_marseille","lat":43.29038,"lon":5.39968,"is_reserved":false,"is_disabled":false,"rental_uris":{"android":"levelo://app?vid=e077e3eb-0b9a-476d-b99e-9202ab735aed","ios":"levelo://app?vid=e077e3eb-0b9a-476d-b99e-9202ab735aed"},"vehicle_type_id":"4","last_reported":1741781904,"current_range_meters":11600,"station_id":"ce4bh392rcd13ifvqdm0","pricing_plan_id":"cebpf4jnsgd1na2vs0mg"},{"bike_id":"8afc345b-56b8-46e6-a0b1-6f81dadf6638","system_id":"levelo_inurba_marseille","lat":43.24174,"lon":5.39746,"is_reserved":false,"is_disabled":false,"rental_uris":{"android":"levelo://app?vid=8afc345b-56b8-46e6-a0b1-6f81dadf6638","ios":"levelo://app?vid=8afc345b-56b8-46e6-a0b1-6f81dadf6638"},"vehicle_type_id":"4","last_reported":1741781904,"current_range_meters":11600,"station_id":"ce4bhn12rcd13ifvqgpg","pricing_plan_id":"cebpf4jnsgd1na2vs0mg"},{"bike_id":"e3f8a046-d1f6-405d-a8fc-00a22aaaf097","system_id":"levelo_inurba_marseille","lat":43.27653,"lon":5.38878,"is_reserved":false,"is_disabled":false,"rental_uris":{"android":"levelo://app?vid=e3f8a046-d1f6-405d-a8fc-00a22aaaf097","ios":"levelo://app?vid=e3f8a046-d1f6-405d-a8fc-00a22aaaf097"},"vehicle_type_id":"4","last_reported":1741781904,"current_range_meters":12000,"station_id":"ce4bhi12rcd13ifvqfo0","pricing_plan_id":"cebpf4jnsgd1na2vs0mg"},{"bike_id":"8cc302c5-52e9-4074-aaa8-2ec59b799832","system_id":"levelo_inurba_marseille","lat":43.27944,"lon":5.41042,"is_reserved":false,"is_disabled":false,"rental_uris":{"android":"levelo://app?vid=8cc302c5-52e9-4074-aaa8-2ec59b799832","ios":"levelo://app?vid=8cc302c5-52e9-4074-aaa8-2ec59b799832"},"vehicle_type_id":"4","last_reported":1741781904,"current_range_meters":12000,"station_id":"ce4bhnp2rcd13ifvqh0g","pricing_plan_id":"cebpf4jnsgd1na2vs0mg"},{"bike_id":"6dbc9b4a-c5a1-4dbf-a00f-5bb7462d2694","system_id":"levelo_inurba_marseille","lat":43.28104,"lon":5.39856,"is_reserved":false,"is_disabled":true,"rental_uris":{"android":"levelo://app?vid=6dbc9b4a-c5a1-4dbf-a00f-5bb7462d2694","ios":"levelo://app?vid=6dbc9b4a-c5a1-4dbf-a00f-5bb7462d2694"},"vehicle_type_id":"4","last_reported":1741781904,"current_range_meters":12000,"station_id":"","pricing_plan_id":"cebpf4jnsgd1na2vs0mg"},{"bike_id":"1d95adfd-ef48-413e-b58d-43d479d5cf8c","system_id":"levelo_inurba_marseille","lat":43.30594,"lon":5.37209,"is_reserved":false,"is_disabled":false,"rental_uris":{"android":"levelo://app?vid=1d95adfd-ef48-413e-b58d-43d479d5cf8c","ios":"levelo://app?vid=1d95adfd-ef48-413e-b58d-43d479d5cf8c"},"vehicle_type_id":"4","last_reported":1741781904,"current_range_meters":12000,"station_id":"ce4bgqh2rcd13ifvqc4g","pricing_plan_id":"cebpf4jnsgd1na2vs0mg"},{"bike_id":"45345445-a78a-493f-a730-c619602e3241","system_id":"levelo_inurba_marseille","lat":43.25601,"lon":5.38547,"is_reserved":false,"is_disabled":false,"rental_uris":{"android":"levelo://app?vid=45345445-a78a-493f-a730-c619602e3241","ios":"levelo://app?vid=45345445-a78a-493f-a730-c619602e3241"},"vehicle_type_id":"4","last_reported":1741781904,"current_range_meters":12000,"station_id":"","pricing_plan_id":"cebpf4jnsgd1na2vs0mg"},{"bike_id":"3df36386-765a-4846-a741-756b7dd076ce","system_id":"levelo_inurba_marseille","lat":43.30593,"lon":5.39372,"is_reserved":false,"is_disabled":true,"rental_uris":{"android":"levelo://app?vid=3df36386-765a-4846-a741-756b7dd076ce","ios":"levelo://app?vid=3df36386-765a-4846-a741-756b7dd076ce"},"vehicle_type_id":"4","last_reported":1741781904,"current_range_meters":12000,"station_id":"ce4bh0p2rcd13ifvqd80","pricing_plan_id":"cebpf4jnsgd1na2vs0mg"},{"bike_id":"8b5cd58a-cf05-4634-9618-056a707e33eb","system_id":"levelo_inurba_marseille","lat":43.31111,"lon":5.37773,"is_reserved":false,"is_disabled":false,"rental_uris":{"android":"levelo://app?vid=8b5cd58a-cf05-4634-9618-056a707e33eb","ios":"levelo://app?vid=8b5cd58a-cf05-4634-9618-056a707e33eb"},"vehicle_type_id":"4","last_reported":1741781904,"current_range_meters":12400,"station_id":"ce4bgt92rcd13ifvqcg0","pricing_plan_id":"cebpf4jnsgd1na2vs0mg"},{"bike_id":"ea50ca23-3103-4cd8-908e-ccddae77cce6","system_id":"levelo_inurba_marseille","lat":43.25088,"lon":5.39525,"is_reserved":false,"is_disabled":false,"rental_uris":{"android":"levelo://app?vid=ea50ca23-3103-4cd8-908e-ccddae77cce6","ios":"levelo://app?vid=ea50ca23-3103-4cd8-908e-ccddae77cce6"},"vehicle_type_id":"4","last_reported":1741781904,"current_range_meters":12400,"station_id":"ce4bhm12rcd13ifvqgkg","pricing_plan_id":"cebpf4jnsgd1na2vs0mg"},{"bike_id":"76fafa1a-95fb-4492-ab66-35be6fb24ac7","system_id":"levelo_inurba_marseille","lat":43.29878,"lon":5.38894,"is_reserved":false,"is_disabled":false,"rental_uris":{"android":"levelo://app?vid=76fafa1a-95fb-4492-ab66-35be6fb24ac7","ios":"levelo://app?vid=76fafa1a-95fb-4492-ab66-35be6fb24ac7"},"vehicle_type_id":"4","last_reported":1741781904,"current_range_meters":12400,"station_id":"ce4bh392rcd13ifvqdl0","pricing_plan_id":"cebpf4jnsgd1na2vs0mg"},{"bike_id":"91d88d76-ea7e-47b5-bfc6-3cdf8097275f","system_id":"levelo_inurba_marseille","lat":43.27419,"lon":5.39411,"is_reserved":false,"is_disabled":false,"rental_uris":{"android":"levelo://app?vid=91d88d76-ea7e-47b5-bfc6-3cdf8097275f","ios":"levelo://app?vid=91d88d76-ea7e-47b5-bfc6-3cdf8097275f"},"vehicle_type_id":"4","last_reported":1741781904,"current_range_meters":12000,"station_id":"ce4bhdp2rcd13ifvqf20","pricing_plan_id":"cebpf4jnsgd1na2vs0mg"},{"bike_id":"b44022d5-a3c8-45f9-9984-eaba76929c7b","system_id":"levelo_inurba_marseille","lat":43.27819,"lon":5.40715,"is_reserved":false,"is_disabled":false,"rental_uris":{"android":"levelo://app?vid=b44022d5-a3c8-45f9-9984-eaba76929c7b","ios":"levelo://app?vid=b44022d5-a3c8-45f9-9984-eaba76929c7b"},"vehicle_type_id":"4","last_reported":1741781904,"current_range_meters":12400,"station_id":"ce4bhnh2rcd13ifvqgtg","pricing_plan_id":"cebpf4jnsgd1na2vs0mg"},{"bike_id":"9b4d541d-f84e-49ea-8343-63cdb10e9cf5","system_id":"levelo_inurba_marseille","lat":43.27679,"lon":5.38882,"is_reserved":false,"is_disabled":false,"rental_uris":{"android":"levelo://app?vid=9b4d541d-f84e-49ea-8343-63cdb10e9cf5","ios":"levelo://app?vid=9b4d541d-f84e-49ea-8343-63cdb10e9cf5"},"vehicle_type_id":"4","last_reported":1741781904,"current_range_meters":12400,"station_id":"ce4bhi12rcd13ifvqfo0","pricing_plan_id":"cebpf4jnsgd1na2vs0mg"},{"bike_id":"fb55f9d1-18dc-4569-919c-3c5a2e705317","system_id":"levelo_inurba_marseille","lat":43.3249,"lon":5.36594,"is_reserved":false,"is_disabled":false,"rental_uris":{"android":"levelo://app?vid=fb55f9d1-18dc-4569-919c-3c5a2e705317","ios":"levelo://app?vid=fb55f9d1-18dc-4569-919c-3c5a2e705317"},"vehicle_type_id":"4","last_reported":1741781904,"current_range_meters":12400,"station_id":"ce4bhs12rcd13ifvqhvg","pricing_plan_id":"cebpf4jnsgd1na2vs0mg"},{"bike_id":"3c26b32d-0895-4eaa-a8db-344fdfcd09e2","system_id":"levelo_inurba_marseille","lat":43.29163,"lon":5.37158,"is_reserved":false,"is_disabled":false,"rental_uris":{"android":"levelo://app?vid=3c26b32d-0895-4eaa-a8db-344fdfcd09e2","ios":"levelo://app?vid=3c26b32d-0895-4eaa-a8db-344fdfcd09e2"},"vehicle_type_id":"4","last_reported":1741781904,"current_range_meters":12400,"station_id":"ce4bha92rcd13ifvqeh0","pricing_plan_id":"cebpf4jnsgd1na2vs0mg"},{"bike_id":"3660cf0a-ff5a-4c92-b437-36b1144cce1e","system_id":"levelo_inurba_marseille","lat":43.29784,"lon":5.39339,"is_reserved":false,"is_disabled":false,"rental_uris":{"android":"levelo://app?vid=3660cf0a-ff5a-4c92-b437-36b1144cce1e","ios":"levelo://app?vid=3660cf0a-ff5a-4c92-b437-36b1144cce1e"},"vehicle_type_id":"4","last_reported":1741781904,"current_range_meters":12800,"station_id":"chh1huq6cuj3fo74tm60","pricing_plan_id":"cebpf4jnsgd1na2vs0mg"},{"bike_id":"74488748-1f63-4b0f-b14d-06bf14d30e2c","system_id":"levelo_inurba_marseille","lat":43.28937,"lon":5.36635,"is_reserved":false,"is_disabled":false,"rental_uris":{"android":"levelo://app?vid=74488748-1f63-4b0f-b14d-06bf14d30e2c","ios":"levelo://app?vid=74488748-1f63-4b0f-b14d-06bf14d30e2c"},"vehicle_type_id":"4","last_reported":1741781904,"current_range_meters":12800,"station_id":"ce4bhap2rcd13ifvqek0","pricing_plan_id":"cebpf4jnsgd1na2vs0mg"},{"bike_id":"d4df08b0-e4dd-4c4b-ac7e-66a43d848ae1","system_id":"levelo_inurba_marseille","lat":43.31235,"lon":5.36948,"is_reserved":false,"is_disabled":false,"rental_uris":{"android":"levelo://app?vid=d4df08b0-e4dd-4c4b-ac7e-66a43d848ae1","ios":"levelo://app?vid=d4df08b0-e4dd-4c4b-ac7e-66a43d848ae1"},"vehicle_type_id":"4","last_reported":1741781904,"current_range_meters":12800,"station_id":"ce4bgl92rcd13ifvqbq0","pricing_plan_id":"cebpf4jnsgd1na2vs0mg"},{"bike_id":"cb7500c7-9c68-45b0-83ca-6bef5066804a","system_id":"levelo_inurba_marseille","lat":43.31223,"lon":5.3687,"is_reserved":false,"is_disabled":false,"rental_uris":{"android":"levelo://app?vid=cb7500c7-9c68-45b0-83ca-6bef5066804a","ios":"levelo://app?vid=cb7500c7-9c68-45b0-83ca-6bef5066804a"},"vehicle_type_id":"4","last_reported":1741781904,"current_range_meters":12800,"station_id":"ce4bgl92rcd13ifvqbq0","pricing_plan_id":"cebpf4jnsgd1na2vs0mg"},{"bike_id":"ac828f8e-ceed-422b-88c4-9404e7d01b42","system_id":"levelo_inurba_marseille","lat":43.29811,"lon":5.38092,"is_reserved":false,"is_disabled":false,"rental_uris":{"android":"levelo://app?vid=ac828f8e-ceed-422b-88c4-9404e7d01b42","ios":"levelo://app?vid=ac828f8e-ceed-422b-88c4-9404e7d01b42"},"vehicle_type_id":"4","last_reported":1741781904,"current_range_meters":12800,"station_id":"ce4bgip2rcd13ifvqbb0","pricing_plan_id":"cebpf4jnsgd1na2vs0mg"},{"bike_id":"acbad0fb-6d08-48a5-87a0-b4f240cab73d","system_id":"levelo_inurba_marseille","lat":43.23188,"lon":5.39975,"is_reserved":false,"is_disabled":false,"rental_uris":{"android":"levelo://app?vid=acbad0fb-6d08-48a5-87a0-b4f240cab73d","ios":"levelo://app?vid=acbad0fb-6d08-48a5-87a0-b4f240cab73d"},"vehicle_type_id":"4","last_reported":1741781904,"current_range_meters":12800,"station_id":"ce4bhn12rcd13ifvqgqg","pricing_plan_id":"cebpf4jnsgd1na2vs0mg"},{"bike_id":"c2fdc035-3896-46f1-aee2-5294a5907071","system_id":"levelo_inurba_marseille","lat":43.25001,"lon":5.38923,"is_reserved":false,"is_disabled":false,"rental_uris":{"android":"levelo://app?vid=c2fdc035-3896-46f1-aee2-5294a5907071","ios":"levelo://app?vid=c2fdc035-3896-46f1-aee2-5294a5907071"},"vehicle_type_id":"4","last_reported":1741781904,"current_range_meters":12800,"station_id":"ce4bhgp2rcd13ifvqfd0","pricing_plan_id":"cebpf4jnsgd1na2vs0mg"},{"bike_id":"30441505-cc04-4481-b2ab-1f8386edbae1","system_id":"levelo_inurba_marseille","lat":43.26556,"lon":5.37284,"is_reserved":false,"is_disabled":false,"rental_uris":{"android":"levelo://app?vid=30441505-cc04-4481-b2ab-1f8386edbae1","ios":"levelo://app?vid=30441505-cc04-4481-b2ab-1f8386edbae1"},"vehicle_type_id":"4","last_reported":1741781904,"current_range_meters":13600,"station_id":"ce4bhg12rcd13ifvqf70","pricing_plan_id":"cebpf4jnsgd1na2vs0mg"},{"bike_id":"f8ceba74-e691-46a1-805d-cbe9694e4e6c","system_id":"levelo_inurba_marseille","lat":43.2902,"lon":5.38622,"is_reserved":false,"is_disabled":false,"rental_uris":{"android":"levelo://app?vid=f8ceba74-e691-46a1-805d-cbe9694e4e6c","ios":"levelo://app?vid=f8ceba74-e691-46a1-805d-cbe9694e4e6c"},"vehicle_type_id":"4","last_reported":1741781904,"current_range_meters":13600,"station_id":"ce4bh4p2rcd13ifvqe0g","pricing_plan_id":"cebpf4jnsgd1na2vs0mg"},{"bike_id":"62fb16c6-3e13-47f0-b6fc-8131e62051de","system_id":"levelo_inurba_marseille","lat":43.34132,"lon":5.409,"is_reserved":false,"is_disabled":false,"rental_uris":{"android":"levelo://app?vid=62fb16c6-3e13-47f0-b6fc-8131e62051de","ios":"levelo://app?vid=62fb16c6-3e13-47f0-b6fc-8131e62051de"},"vehicle_type_id":"4","last_reported":1741781904,"current_range_meters":13600,"station_id":"ce4bhqh2rcd13ifvqhlg","pricing_plan_id":"cebpf4jnsgd1na2vs0mg"},{"bike_id":"07d514da-daa5-4a51-ad4f-da23bea5a512","system_id":"levelo_inurba_marseille","lat":43.30557,"lon":5.36522,"is_reserved":false,"is_disabled":false,"rental_uris":{"android":"levelo://app?vid=07d514da-daa5-4a51-ad4f-da23bea5a512","ios":"levelo://app?vid=07d514da-daa5-4a51-ad4f-da23bea5a512"},"vehicle_type_id":"4","last_reported":1741781904,"current_range_meters":13600,"station_id":"ce4bgs12rcd13ifvqcag","pricing_plan_id":"cebpf4jnsgd1na2vs0mg"},{"bike_id":"e4e7b0f4-be16-4e67-8045-462e24fe9df7","system_id":"levelo_inurba_marseille","lat":43.23154,"lon":5.43697,"is_reserved":false,"is_disabled":false,"rental_uris":{"android":"levelo://app?vid=e4e7b0f4-be16-4e67-8045-462e24fe9df7","ios":"levelo://app?vid=e4e7b0f4-be16-4e67-8045-462e24fe9df7"},"vehicle_type_id":"4","last_reported":1741781904,"current_range_meters":14000,"station_id":"ce4bhmp2rcd13ifvqgog","pricing_plan_id":"cebpf4jnsgd1na2vs0mg"},{"bike_id":"948e0535-f8ee-42aa-b3c6-de33694c2f18","system_id":"levelo_inurba_marseille","lat":43.32532,"lon":5.38918,"is_reserved":false,"is_disabled":false,"rental_uris":{"android":"levelo://app?vid=948e0535-f8ee-42aa-b3c6-de33694c2f18","ios":"levelo://app?vid=948e0535-f8ee-42aa-b3c6-de33694c2f18"},"vehicle_type_id":"4","last_reported":1741781904,"current_range_meters":14000,"station_id":"","pricing_plan_id":"cebpf4jnsgd1na2vs0mg"},{"bike_id":"4c607265-c996-4d9b-81fd-daa80dd99e32","system_id":"levelo_inurba_marseille","lat":43.28753,"lon":5.38426,"is_reserved":false,"is_disabled":false,"rental_uris":{"android":"levelo://app?vid=4c607265-c996-4d9b-81fd-daa80dd99e32","ios":"levelo://app?vid=4c607265-c996-4d9b-81fd-daa80dd99e32"},"vehicle_type_id":"4","last_reported":1741781904,"current_range_meters":14000,"station_id":"","pricing_plan_id":"cebpf4jnsgd1na2vs0mg"},{"bike_id":"79397302-4916-493d-9bc0-e5035ae3c476","system_id":"levelo_inurba_marseille","lat":43.2293,"lon":5.35375,"is_reserved":false,"is_disabled":false,"rental_uris":{"android":"levelo://app?vid=79397302-4916-493d-9bc0-e5035ae3c476","ios":"levelo://app?vid=79397302-4916-493d-9bc0-e5035ae3c476"},"vehicle_type_id":"4","last_reported":1741781904,"current_range_meters":14000,"station_id":"cpo3532slgdg3j2ikp40","pricing_plan_id":"cebpf4jnsgd1na2vs0mg"},{"bike_id":"89958ce4-cfab-4668-b9ea-4cc9a8c155ca","system_id":"levelo_inurba_marseille","lat":43.24999,"lon":5.38925,"is_reserved":false,"is_disabled":false,"rental_uris":{"android":"levelo://app?vid=89958ce4-cfab-4668-b9ea-4cc9a8c155ca","ios":"levelo://app?vid=89958ce4-cfab-4668-b9ea-4cc9a8c155ca"},"vehicle_type_id":"4","last_reported":1741781904,"current_range_meters":14000,"station_id":"ce4bhgp2rcd13ifvqfd0","pricing_plan_id":"cebpf4jnsgd1na2vs0mg"},{"bike_id":"8d151043-ec10-485e-88a4-22612e0f63c3","system_id":"levelo_inurba_marseille","lat":43.3014,"lon":5.37424,"is_reserved":false,"is_disabled":false,"rental_uris":{"android":"levelo://app?vid=8d151043-ec10-485e-88a4-22612e0f63c3","ios":"levelo://app?vid=8d151043-ec10-485e-88a4-22612e0f63c3"},"vehicle_type_id":"4","last_reported":1741781904,"current_range_meters":14000,"station_id":"ce4bgs92rcd13ifvqcc0","pricing_plan_id":"cebpf4jnsgd1na2vs0mg"},{"bike_id":"c8f5a7aa-328f-49c1-a785-9624fa888d07","system_id":"levelo_inurba_marseille","lat":43.25003,"lon":5.38917,"is_reserved":false,"is_disabled":false,"rental_uris":{"android":"levelo://app?vid=c8f5a7aa-328f-49c1-a785-9624fa888d07","ios":"levelo://app?vid=c8f5a7aa-328f-49c1-a785-9624fa888d07"},"vehicle_type_id":"4","last_reported":1741781904,"current_range_meters":14400,"station_id":"ce4bhgp2rcd13ifvqfd0","pricing_plan_id":"cebpf4jnsgd1na2vs0mg"},{"bike_id":"c32eb91c-0d61-4af3-8b86-ea1d03823ab1","system_id":"levelo_inurba_marseille","lat":43.28449,"lon":5.35892,"is_reserved":false,"is_disabled":false,"rental_uris":{"android":"levelo://app?vid=c32eb91c-0d61-4af3-8b86-ea1d03823ab1","ios":"levelo://app?vid=c32eb91c-0d61-4af3-8b86-ea1d03823ab1"},"vehicle_type_id":"4","last_reported":1741781904,"current_range_meters":14400,"station_id":"ce4bhah2rcd13ifvqei0","pricing_plan_id":"cebpf4jnsgd1na2vs0mg"},{"bike_id":"49e72b18-eac3-4111-bfeb-46acfbcfc6e8","system_id":"levelo_inurba_marseille","lat":43.31073,"lon":5.38368,"is_reserved":false,"is_disabled":false,"rental_uris":{"android":"levelo://app?vid=49e72b18-eac3-4111-bfeb-46acfbcfc6e8","ios":"levelo://app?vid=49e72b18-eac3-4111-bfeb-46acfbcfc6e8"},"vehicle_type_id":"4","last_reported":1741781904,"current_range_meters":14800,"station_id":"ce4bgv92rcd13ifvqcr0","pricing_plan_id":"cebpf4jnsgd1na2vs0mg"},{"bike_id":"86fc146c-4af9-49a2-9b65-b6b8fa03c722","system_id":"levelo_inurba_marseille","lat":43.292,"lon":5.39317,"is_reserved":false,"is_disabled":true,"rental_uris":{"android":"levelo://app?vid=86fc146c-4af9-49a2-9b65-b6b8fa03c722","ios":"levelo://app?vid=86fc146c-4af9-49a2-9b65-b6b8fa03c722"},"vehicle_type_id":"4","last_reported":1741781904,"current_range_meters":14800,"station_id":"ce4bh192rcd13ifvqdd0","pricing_plan_id":"cebpf4jnsgd1na2vs0mg"},{"bike_id":"2872f208-7a92-4283-a98c-8da021fd4c46","system_id":"levelo_inurba_marseille","lat":43.30275,"lon":5.37688,"is_reserved":false,"is_disabled":false,"rental_uris":{"android":"levelo://app?vid=2872f208-7a92-4283-a98c-8da021fd4c46","ios":"levelo://app?vid=2872f208-7a92-4283-a98c-8da021fd4c46"},"vehicle_type_id":"4","last_reported":1741781904,"current_range_meters":14800,"station_id":"ce4bguh2rcd13ifvqcj0","pricing_plan_id":"cebpf4jnsgd1na2vs0mg"},{"bike_id":"ef1b10bd-fcfb-48fb-ac94-7f2434030e47","system_id":"levelo_inurba_marseille","lat":43.31245,"lon":5.36829,"is_reserved":false,"is_disabled":false,"rental_uris":{"android":"levelo://app?vid=ef1b10bd-fcfb-48fb-ac94-7f2434030e47","ios":"levelo://app?vid=ef1b10bd-fcfb-48fb-ac94-7f2434030e47"},"vehicle_type_id":"4","last_reported":1741781904,"current_range_meters":14800,"station_id":"ce4bgl92rcd13ifvqbq0","pricing_plan_id":"cebpf4jnsgd1na2vs0mg"},{"bike_id":"583e9a08-8a7b-47cc-aaab-563ec5211ebd","system_id":"levelo_inurba_marseille","lat":43.305475,"lon":5.365341,"is_reserved":false,"is_disabled":false,"rental_uris":{"android":"levelo://app?vid=583e9a08-8a7b-47cc-aaab-563ec5211ebd","ios":"levelo://app?vid=583e9a08-8a7b-47cc-aaab-563ec5211ebd"},"vehicle_type_id":"4","last_reported":1741781904,"current_range_meters":14800,"station_id":"ce4bgs12rcd13ifvqcag","pricing_plan_id":"cebpf4jnsgd1na2vs0mg"},{"bike_id":"7382db7c-ea28-4d6b-a6ac-0a5dc179880b","system_id":"levelo_inurba_marseille","lat":43.33142,"lon":5.38166,"is_reserved":false,"is_disabled":false,"rental_uris":{"android":"levelo://app?vid=7382db7c-ea28-4d6b-a6ac-0a5dc179880b","ios":"levelo://app?vid=7382db7c-ea28-4d6b-a6ac-0a5dc179880b"},"vehicle_type_id":"4","last_reported":1741781904,"current_range_meters":15200,"station_id":"","pricing_plan_id":"cebpf4jnsgd1na2vs0mg"},{"bike_id":"d3ac1ba6-6349-4d47-99e4-9f85d3ef1aa5","system_id":"levelo_inurba_marseille","lat":43.28469,"lon":5.369,"is_reserved":false,"is_disabled":false,"rental_uris":{"android":"levelo://app?vid=d3ac1ba6-6349-4d47-99e4-9f85d3ef1aa5","ios":"levelo://app?vid=d3ac1ba6-6349-4d47-99e4-9f85d3ef1aa5"},"vehicle_type_id":"4","last_reported":1741781904,"current_range_meters":15200,"station_id":"","pricing_plan_id":"cebpf4jnsgd1na2vs0mg"},{"bike_id":"b0e44adc-9ba8-4b74-b34a-ee1dcc676ff4","system_id":"levelo_inurba_marseille","lat":43.28849,"lon":5.35857,"is_reserved":false,"is_disabled":false,"rental_uris":{"android":"levelo://app?vid=b0e44adc-9ba8-4b74-b34a-ee1dcc676ff4","ios":"levelo://app?vid=b0e44adc-9ba8-4b74-b34a-ee1dcc676ff4"},"vehicle_type_id":"4","last_reported":1741781904,"current_range_meters":15200,"station_id":"ce4bhb12rcd13ifvqem0","pricing_plan_id":"cebpf4jnsgd1na2vs0mg"},{"bike_id":"fa58a492-3362-4a95-8f5b-40bcb4751dcd","system_id":"levelo_inurba_marseille","lat":43.31063,"lon":5.38364,"is_reserved":false,"is_disabled":false,"rental_uris":{"android":"levelo://app?vid=fa58a492-3362-4a95-8f5b-40bcb4751dcd","ios":"levelo://app?vid=fa58a492-3362-4a95-8f5b-40bcb4751dcd"},"vehicle_type_id":"4","last_reported":1741781904,"current_range_meters":15200,"station_id":"ce4bgv92rcd13ifvqcr0","pricing_plan_id":"cebpf4jnsgd1na2vs0mg"},{"bike_id":"634f39a7-7ca5-4742-b2e4-4c3740f2f224","system_id":"levelo_inurba_marseille","lat":43.25868,"lon":5.39901,"is_reserved":false,"is_disabled":false,"rental_uris":{"android":"levelo://app?vid=634f39a7-7ca5-4742-b2e4-4c3740f2f224","ios":"levelo://app?vid=634f39a7-7ca5-4742-b2e4-4c3740f2f224"},"vehicle_type_id":"4","last_reported":1741781904,"current_range_meters":15200,"station_id":"ce4bhl92rcd13ifvqghg","pricing_plan_id":"cebpf4jnsgd1na2vs0mg"},{"bike_id":"9b5958a4-ff70-49be-8615-2ef99f9eb736","system_id":"levelo_inurba_marseille","lat":43.29976,"lon":5.38506,"is_reserved":false,"is_disabled":false,"rental_uris":{"android":"levelo://app?vid=9b5958a4-ff70-49be-8615-2ef99f9eb736","ios":"levelo://app?vid=9b5958a4-ff70-49be-8615-2ef99f9eb736"},"vehicle_type_id":"4","last_reported":1741781904,"current_range_meters":16000,"station_id":"ce4bgj92rcd13ifvqbd0","pricing_plan_id":"cebpf4jnsgd1na2vs0mg"},{"bike_id":"5a2fac9e-7560-4954-8011-a7bd59004a4d","system_id":"levelo_inurba_marseille","lat":43.29835,"lon":5.36262,"is_reserved":false,"is_disabled":false,"rental_uris":{"android":"levelo://app?vid=5a2fac9e-7560-4954-8011-a7bd59004a4d","ios":"levelo://app?vid=5a2fac9e-7560-4954-8011-a7bd59004a4d"},"vehicle_type_id":"4","last_reported":1741781904,"current_range_meters":16000,"station_id":"ce4bgpp2rcd13ifvqc3g","pricing_plan_id":"cebpf4jnsgd1na2vs0mg"},{"bike_id":"b2f5d5de-a3e6-42cc-8964-81fe52d33ec5","system_id":"levelo_inurba_marseille","lat":43.30455,"lon":5.37913,"is_reserved":false,"is_disabled":false,"rental_uris":{"android":"levelo://app?vid=b2f5d5de-a3e6-42cc-8964-81fe52d33ec5","ios":"levelo://app?vid=b2f5d5de-a3e6-42cc-8964-81fe52d33ec5"},"vehicle_type_id":"4","last_reported":1741781904,"current_range_meters":16000,"station_id":"ce4bgup2rcd13ifvqcn0","pricing_plan_id":"cebpf4jnsgd1na2vs0mg"},{"bike_id":"7c796e6e-50dd-4331-aa27-8fb6b1d938a5","system_id":"levelo_inurba_marseille","lat":43.31354,"lon":5.38494,"is_reserved":false,"is_disabled":false,"rental_uris":{"android":"levelo://app?vid=7c796e6e-50dd-4331-aa27-8fb6b1d938a5","ios":"levelo://app?vid=7c796e6e-50dd-4331-aa27-8fb6b1d938a5"},"vehicle_type_id":"4","last_reported":1741781904,"current_range_meters":16000,"station_id":"ce4bgt92rcd13ifvqcf0","pricing_plan_id":"cebpf4jnsgd1na2vs0mg"},{"bike_id":"94fcaf8b-d235-486d-99ee-65c6fd2328b6","system_id":"levelo_inurba_marseille","lat":43.30519,"lon":5.3843,"is_reserved":false,"is_disabled":false,"rental_uris":{"android":"levelo://app?vid=94fcaf8b-d235-486d-99ee-65c6fd2328b6","ios":"levelo://app?vid=94fcaf8b-d235-486d-99ee-65c6fd2328b6"},"vehicle_type_id":"4","last_reported":1741781904,"current_range_meters":16000,"station_id":"ce4bgg92rcd13ifvqb30","pricing_plan_id":"cebpf4jnsgd1na2vs0mg"},{"bike_id":"5dacfbf2-7e22-43d8-98f2-6c8f964ce898","system_id":"levelo_inurba_marseille","lat":43.23056,"lon":5.35493,"is_reserved":false,"is_disabled":true,"rental_uris":{"android":"levelo://app?vid=5dacfbf2-7e22-43d8-98f2-6c8f964ce898","ios":"levelo://app?vid=5dacfbf2-7e22-43d8-98f2-6c8f964ce898"},"vehicle_type_id":"4","last_reported":1741781904,"current_range_meters":16000,"station_id":"cpo3342slgdg3j2ifvpg","pricing_plan_id":"cebpf4jnsgd1na2vs0mg"},{"bike_id":"ca762409-3e9b-49eb-b311-18b138aaa95f","system_id":"levelo_inurba_marseille","lat":43.33713,"lon":5.39199,"is_reserved":false,"is_disabled":false,"rental_uris":{"android":"levelo://app?vid=ca762409-3e9b-49eb-b311-18b138aaa95f","ios":"levelo://app?vid=ca762409-3e9b-49eb-b311-18b138aaa95f"},"vehicle_type_id":"4","last_reported":1741781904,"current_range_meters":16000,"station_id":"ce4bhr92rcd13ifvqhsg","pricing_plan_id":"cebpf4jnsgd1na2vs0mg"},{"bike_id":"abea6f8b-5acf-4d3f-ad5a-d029faf15eac","system_id":"levelo_inurba_marseille","lat":43.31078,"lon":5.4243,"is_reserved":false,"is_disabled":false,"rental_uris":{"android":"levelo://app?vid=abea6f8b-5acf-4d3f-ad5a-d029faf15eac","ios":"levelo://app?vid=abea6f8b-5acf-4d3f-ad5a-d029faf15eac"},"vehicle_type_id":"4","last_reported":1741781904,"current_range_meters":16000,"station_id":"ce4bhp92rcd13ifvqhag","pricing_plan_id":"cebpf4jnsgd1na2vs0mg"},{"bike_id":"fa8f8249-fd86-4153-9f9d-d37fdddd786e","system_id":"levelo_inurba_marseille","lat":43.28614,"lon":5.351027,"is_reserved":false,"is_disabled":false,"rental_uris":{"android":"levelo://app?vid=fa8f8249-fd86-4153-9f9d-d37fdddd786e","ios":"levelo://app?vid=fa8f8249-fd86-4153-9f9d-d37fdddd786e"},"vehicle_type_id":"4","last_reported":1741781904,"current_range_meters":16000,"station_id":"ce4bhch2rcd13ifvqeug","pricing_plan_id":"cebpf4jnsgd1na2vs0mg"},{"bike_id":"99a3f406-b0b8-4066-adb6-b7e55216ac38","system_id":"levelo_inurba_marseille","lat":43.30269,"lon":5.37698,"is_reserved":false,"is_disabled":false,"rental_uris":{"android":"levelo://app?vid=99a3f406-b0b8-4066-adb6-b7e55216ac38","ios":"levelo://app?vid=99a3f406-b0b8-4066-adb6-b7e55216ac38"},"vehicle_type_id":"4","last_reported":1741781904,"current_range_meters":16000,"station_id":"ce4bguh2rcd13ifvqcj0","pricing_plan_id":"cebpf4jnsgd1na2vs0mg"},{"bike_id":"70e6be62-0414-44e1-8fea-9b845a8a0d98","system_id":"levelo_inurba_marseille","lat":43.25815,"lon":5.39443,"is_reserved":false,"is_disabled":false,"rental_uris":{"android":"levelo://app?vid=70e6be62-0414-44e1-8fea-9b845a8a0d98","ios":"levelo://app?vid=70e6be62-0414-44e1-8fea-9b845a8a0d98"},"vehicle_type_id":"4","last_reported":1741781904,"current_range_meters":16000,"station_id":"ce4bhip2rcd13ifvqft0","pricing_plan_id":"cebpf4jnsgd1na2vs0mg"},{"bike_id":"a239c77c-9cd7-456f-93e4-f47a462ffe00","system_id":"levelo_inurba_marseille","lat":43.26057,"lon":5.394,"is_reserved":false,"is_disabled":false,"rental_uris":{"android":"levelo://app?vid=a239c77c-9cd7-456f-93e4-f47a462ffe00","ios":"levelo://app?vid=a239c77c-9cd7-456f-93e4-f47a462ffe00"},"vehicle_type_id":"4","last_reported":1741781904,"current_range_meters":16400,"station_id":"ce4bhh92rcd13ifvqfj0","pricing_plan_id":"cebpf4jnsgd1na2vs0mg"},{"bike_id":"620be8ab-a128-4708-a0f5-58e2d44650e9","system_id":"levelo_inurba_marseille","lat":43.30535,"lon":5.3656,"is_reserved":false,"is_disabled":false,"rental_uris":{"android":"levelo://app?vid=620be8ab-a128-4708-a0f5-58e2d44650e9","ios":"levelo://app?vid=620be8ab-a128-4708-a0f5-58e2d44650e9"},"vehicle_type_id":"4","last_reported":1741781904,"current_range_meters":16400,"station_id":"ce4bgs12rcd13ifvqcag","pricing_plan_id":"cebpf4jnsgd1na2vs0mg"},{"bike_id":"e85e7281-8ded-4f9f-9074-cd43c73f5f32","system_id":"levelo_inurba_marseille","lat":43.31319,"lon":5.37342,"is_reserved":false,"is_disabled":false,"rental_uris":{"android":"levelo://app?vid=e85e7281-8ded-4f9f-9074-cd43c73f5f32","ios":"levelo://app?vid=e85e7281-8ded-4f9f-9074-cd43c73f5f32"},"vehicle_type_id":"4","last_reported":1741781904,"current_range_meters":16400,"station_id":"","pricing_plan_id":"cebpf4jnsgd1na2vs0mg"},{"bike_id":"894adb72-eba3-4c31-be33-a34cdb918fbd","system_id":"levelo_inurba_marseille","lat":43.257187,"lon":5.41089,"is_reserved":false,"is_disabled":false,"rental_uris":{"android":"levelo://app?vid=894adb72-eba3-4c31-be33-a34cdb918fbd","ios":"levelo://app?vid=894adb72-eba3-4c31-be33-a34cdb918fbd"},"vehicle_type_id":"4","last_reported":1741781904,"current_range_meters":16400,"station_id":"ce4bhkp2rcd13ifvqgd0","pricing_plan_id":"cebpf4jnsgd1na2vs0mg"},{"bike_id":"d1235ce3-1007-4d2d-9e28-ea39398a63a8","system_id":"levelo_inurba_marseille","lat":43.23197,"lon":5.35554,"is_reserved":false,"is_disabled":false,"rental_uris":{"android":"levelo://app?vid=d1235ce3-1007-4d2d-9e28-ea39398a63a8","ios":"levelo://app?vid=d1235ce3-1007-4d2d-9e28-ea39398a63a8"},"vehicle_type_id":"4","last_reported":1741781904,"current_range_meters":16400,"station_id":"ce4bhu92rcd13ifvqi70","pricing_plan_id":"cebpf4jnsgd1na2vs0mg"},{"bike_id":"2cbe11b8-00a9-428e-9681-44b3c44d92b7","system_id":"levelo_inurba_marseille","lat":43.30354,"lon":5.41877,"is_reserved":false,"is_disabled":false,"rental_uris":{"android":"levelo://app?vid=2cbe11b8-00a9-428e-9681-44b3c44d92b7","ios":"levelo://app?vid=2cbe11b8-00a9-428e-9681-44b3c44d92b7"},"vehicle_type_id":"4","last_reported":1741781904,"current_range_meters":16400,"station_id":"ce4bhop2rcd13ifvqh7g","pricing_plan_id":"cebpf4jnsgd1na2vs0mg"},{"bike_id":"95590eb5-0293-4e98-8707-eab3ab5a5c87","system_id":"levelo_inurba_marseille","lat":43.294156,"lon":5.386266,"is_reserved":false,"is_disabled":false,"rental_uris":{"android":"levelo://app?vid=95590eb5-0293-4e98-8707-eab3ab5a5c87","ios":"levelo://app?vid=95590eb5-0293-4e98-8707-eab3ab5a5c87"},"vehicle_type_id":"4","last_reported":1741781904,"current_range_meters":16400,"station_id":"ce4bhmp2rcd13ifvqgog","pricing_plan_id":"cebpf4jnsgd1na2vs0mg"},{"bike_id":"0118782e-a9be-4c57-a3c6-f989e8d3b9bf","system_id":"levelo_inurba_marseille","lat":43.24185,"lon":5.39707,"is_reserved":false,"is_disabled":false,"rental_uris":{"android":"levelo://app?vid=0118782e-a9be-4c57-a3c6-f989e8d3b9bf","ios":"levelo://app?vid=0118782e-a9be-4c57-a3c6-f989e8d3b9bf"},"vehicle_type_id":"4","last_reported":1741781904,"current_range_meters":16400,"station_id":"ce4bhn12rcd13ifvqgpg","pricing_plan_id":"cebpf4jnsgd1na2vs0mg"},{"bike_id":"cd4fbe70-165c-4bed-9dc0-7f19d32f9a25","system_id":"levelo_inurba_marseille","lat":43.29524,"lon":5.39393,"is_reserved":false,"is_disabled":false,"rental_uris":{"android":"levelo://app?vid=cd4fbe70-165c-4bed-9dc0-7f19d32f9a25","ios":"levelo://app?vid=cd4fbe70-165c-4bed-9dc0-7f19d32f9a25"},"vehicle_type_id":"4","last_reported":1741781904,"current_range_meters":16400,"station_id":"ce4bh292rcd13ifvqdf0","pricing_plan_id":"cebpf4jnsgd1na2vs0mg"},{"bike_id":"85eac64d-396f-44ee-acf9-b7ae49c934dd","system_id":"levelo_inurba_marseille","lat":43.30544,"lon":5.36557,"is_reserved":false,"is_disabled":false,"rental_uris":{"android":"levelo://app?vid=85eac64d-396f-44ee-acf9-b7ae49c934dd","ios":"levelo://app?vid=85eac64d-396f-44ee-acf9-b7ae49c934dd"},"vehicle_type_id":"4","last_reported":1741781904,"current_range_meters":16400,"station_id":"ce4bgs12rcd13ifvqcag","pricing_plan_id":"cebpf4jnsgd1na2vs0mg"},{"bike_id":"bedd17d7-a873-4d84-b678-3cbfc41cb860","system_id":"levelo_inurba_marseille","lat":43.29277,"lon":5.36844,"is_reserved":false,"is_disabled":false,"rental_uris":{"android":"levelo://app?vid=bedd17d7-a873-4d84-b678-3cbfc41cb860","ios":"levelo://app?vid=bedd17d7-a873-4d84-b678-3cbfc41cb860"},"vehicle_type_id":"4","last_reported":1741781904,"current_range_meters":16400,"station_id":"ce4bhbp2rcd13ifvqesg","pricing_plan_id":"cebpf4jnsgd1na2vs0mg"},{"bike_id":"e5171024-9c81-4526-bcbd-0b587b2b7794","system_id":"levelo_inurba_marseille","lat":43.29795,"lon":5.38102,"is_reserved":false,"is_disabled":false,"rental_uris":{"android":"levelo://app?vid=e5171024-9c81-4526-bcbd-0b587b2b7794","ios":"levelo://app?vid=e5171024-9c81-4526-bcbd-0b587b2b7794"},"vehicle_type_id":"4","last_reported":1741781904,"current_range_meters":16400,"station_id":"ce4bgip2rcd13ifvqbb0","pricing_plan_id":"cebpf4jnsgd1na2vs0mg"},{"bike_id":"0c670a7b-22a8-4e27-a050-677f677ca126","system_id":"levelo_inurba_marseille","lat":43.30324,"lon":5.40441,"is_reserved":false,"is_disabled":false,"rental_uris":{"android":"levelo://app?vid=0c670a7b-22a8-4e27-a050-677f677ca126","ios":"levelo://app?vid=0c670a7b-22a8-4e27-a050-677f677ca126"},"vehicle_type_id":"4","last_reported":1741781904,"current_range_meters":16400,"station_id":"ce4bh012rcd13ifvqd10","pricing_plan_id":"cebpf4jnsgd1na2vs0mg"},{"bike_id":"94b30f95-19e8-4b24-809a-d279976d82ea","system_id":"levelo_inurba_marseille","lat":43.31357,"lon":5.3964,"is_reserved":false,"is_disabled":false,"rental_uris":{"android":"levelo://app?vid=94b30f95-19e8-4b24-809a-d279976d82ea","ios":"levelo://app?vid=94b30f95-19e8-4b24-809a-d279976d82ea"},"vehicle_type_id":"4","last_reported":1741781904,"current_range_meters":16800,"station_id":"ce4bgvp2rcd13ifvqcu0","pricing_plan_id":"cebpf4jnsgd1na2vs0mg"},{"bike_id":"ae7fc1ea-84cd-4b37-95fa-39065213291a","system_id":"levelo_inurba_marseille","lat":43.28454,"lon":5.35894,"is_reserved":false,"is_disabled":false,"rental_uris":{"android":"levelo://app?vid=ae7fc1ea-84cd-4b37-95fa-39065213291a","ios":"levelo://app?vid=ae7fc1ea-84cd-4b37-95fa-39065213291a"},"vehicle_type_id":"4","last_reported":1741781904,"current_range_meters":16800,"station_id":"ce4bhah2rcd13ifvqei0","pricing_plan_id":"cebpf4jnsgd1na2vs0mg"},{"bike_id":"a44739fe-6c4a-4d10-b7d6-ed0ad39ea565","system_id":"levelo_inurba_marseille","lat":43.28466,"lon":5.35879,"is_reserved":false,"is_disabled":false,"rental_uris":{"android":"levelo://app?vid=a44739fe-6c4a-4d10-b7d6-ed0ad39ea565","ios":"levelo://app?vid=a44739fe-6c4a-4d10-b7d6-ed0ad39ea565"},"vehicle_type_id":"4","last_reported":1741781904,"current_range_meters":16800,"station_id":"ce4bhah2rcd13ifvqei0","pricing_plan_id":"cebpf4jnsgd1na2vs0mg"},{"bike_id":"c40558d2-7e03-4b2b-8f55-de3afafac078","system_id":"levelo_inurba_marseille","lat":43.27052,"lon":5.40261,"is_reserved":false,"is_disabled":false,"rental_uris":{"android":"levelo://app?vid=c40558d2-7e03-4b2b-8f55-de3afafac078","ios":"levelo://app?vid=c40558d2-7e03-4b2b-8f55-de3afafac078"},"vehicle_type_id":"4","last_reported":1741781904,"current_range_meters":16800,"station_id":"ce4bhk92rcd13ifvqgc0","pricing_plan_id":"cebpf4jnsgd1na2vs0mg"},{"bike_id":"b2467a45-adca-4c76-8b74-c9e2d619268d","system_id":"levelo_inurba_marseille","lat":43.27942,"lon":5.4106,"is_reserved":false,"is_disabled":false,"rental_uris":{"android":"levelo://app?vid=b2467a45-adca-4c76-8b74-c9e2d619268d","ios":"levelo://app?vid=b2467a45-adca-4c76-8b74-c9e2d619268d"},"vehicle_type_id":"4","last_reported":1741781904,"current_range_meters":16800,"station_id":"ce4bhnp2rcd13ifvqh0g","pricing_plan_id":"cebpf4jnsgd1na2vs0mg"},{"bike_id":"8ed28a40-c794-442d-9213-99112774c4f0","system_id":"levelo_inurba_marseille","lat":43.30374,"lon":5.42489,"is_reserved":false,"is_disabled":false,"rental_uris":{"android":"levelo://app?vid=8ed28a40-c794-442d-9213-99112774c4f0","ios":"levelo://app?vid=8ed28a40-c794-442d-9213-99112774c4f0"},"vehicle_type_id":"4","last_reported":1741781904,"current_range_meters":16800,"station_id":"ce4bghh2rcd13ifvqb60","pricing_plan_id":"cebpf4jnsgd1na2vs0mg"},{"bike_id":"bc38fd34-437f-4002-96a1-848346434362","system_id":"levelo_inurba_marseille","lat":43.30461,"lon":5.37915,"is_reserved":false,"is_disabled":false,"rental_uris":{"android":"levelo://app?vid=bc38fd34-437f-4002-96a1-848346434362","ios":"levelo://app?vid=bc38fd34-437f-4002-96a1-848346434362"},"vehicle_type_id":"4","last_reported":1741781904,"current_range_meters":16800,"station_id":"ce4bgup2rcd13ifvqcn0","pricing_plan_id":"cebpf4jnsgd1na2vs0mg"},{"bike_id":"1229f7dc-4daa-4f2b-b6c0-653d9e0c9a78","system_id":"levelo_inurba_marseille","lat":43.23151,"lon":5.43709,"is_reserved":false,"is_disabled":false,"rental_uris":{"android":"levelo://app?vid=1229f7dc-4daa-4f2b-b6c0-653d9e0c9a78","ios":"levelo://app?vid=1229f7dc-4daa-4f2b-b6c0-653d9e0c9a78"},"vehicle_type_id":"4","last_reported":1741781904,"current_range_meters":16800,"station_id":"ce4bhmp2rcd13ifvqgog","pricing_plan_id":"cebpf4jnsgd1na2vs0mg"},{"bike_id":"b5ad88c4-0efd-49ab-a080-9598296405a5","system_id":"levelo_inurba_marseille","lat":43.29422,"lon":5.38633,"is_reserved":false,"is_disabled":false,"rental_uris":{"android":"levelo://app?vid=b5ad88c4-0efd-49ab-a080-9598296405a5","ios":"levelo://app?vid=b5ad88c4-0efd-49ab-a080-9598296405a5"},"vehicle_type_id":"4","last_reported":1741781904,"current_range_meters":16800,"station_id":"ce4bh2h2rcd13ifvqdh0","pricing_plan_id":"cebpf4jnsgd1na2vs0mg"},{"bike_id":"313a3801-9203-4da6-9666-cf092e7ac325","system_id":"levelo_inurba_marseille","lat":43.28726,"lon":5.37941,"is_reserved":false,"is_disabled":false,"rental_uris":{"android":"levelo://app?vid=313a3801-9203-4da6-9666-cf092e7ac325","ios":"levelo://app?vid=313a3801-9203-4da6-9666-cf092e7ac325"},"vehicle_type_id":"4","last_reported":1741781904,"current_range_meters":17200,"station_id":"ce4bh9p2rcd13ifvqec0","pricing_plan_id":"cebpf4jnsgd1na2vs0mg"},{"bike_id":"192d82ba-3791-4d48-8d71-dcd69e0c85c9","system_id":"levelo_inurba_marseille","lat":43.2979,"lon":5.38094,"is_reserved":false,"is_disabled":false,"rental_uris":{"android":"levelo://app?vid=192d82ba-3791-4d48-8d71-dcd69e0c85c9","ios":"levelo://app?vid=192d82ba-3791-4d48-8d71-dcd69e0c85c9"},"vehicle_type_id":"4","last_reported":1741781904,"current_range_meters":17200,"station_id":"ce4bgip2rcd13ifvqbb0","pricing_plan_id":"cebpf4jnsgd1na2vs0mg"},{"bike_id":"f550acae-a478-493d-8418-eb4ab17dc323","system_id":"levelo_inurba_marseille","lat":43.25007,"lon":5.38918,"is_reserved":false,"is_disabled":false,"rental_uris":{"android":"levelo://app?vid=f550acae-a478-493d-8418-eb4ab17dc323","ios":"levelo://app?vid=f550acae-a478-493d-8418-eb4ab17dc323"},"vehicle_type_id":"4","last_reported":1741781904,"current_range_meters":17200,"station_id":"ce4bhgp2rcd13ifvqfd0","pricing_plan_id":"cebpf4jnsgd1na2vs0mg"},{"bike_id":"d797a4bb-728c-4dcc-9f17-e6662eddf184","system_id":"levelo_inurba_marseille","lat":43.30145,"lon":5.38082,"is_reserved":false,"is_disabled":false,"rental_uris":{"android":"levelo://app?vid=d797a4bb-728c-4dcc-9f17-e6662eddf184","ios":"levelo://app?vid=d797a4bb-728c-4dcc-9f17-e6662eddf184"},"vehicle_type_id":"4","last_reported":1741781904,"current_range_meters":17200,"station_id":"ce4bgjp2rcd13ifvqbh0","pricing_plan_id":"cebpf4jnsgd1na2vs0mg"},{"bike_id":"7033d1b7-37e1-4bd7-872a-51e33934931e","system_id":"levelo_inurba_marseille","lat":43.305589,"lon":5.367314,"is_reserved":false,"is_disabled":false,"rental_uris":{"android":"levelo://app?vid=7033d1b7-37e1-4bd7-872a-51e33934931e","ios":"levelo://app?vid=7033d1b7-37e1-4bd7-872a-51e33934931e"},"vehicle_type_id":"4","last_reported":1741781904,"current_range_meters":17200,"station_id":"ce4bgrp2rcd13ifvqc9g","pricing_plan_id":"cebpf4jnsgd1na2vs0mg"},{"bike_id":"8b450330-8313-4a94-a5a7-14dfa6d24473","system_id":"levelo_inurba_marseille","lat":43.30908,"lon":5.36845,"is_reserved":false,"is_disabled":false,"rental_uris":{"android":"levelo://app?vid=8b450330-8313-4a94-a5a7-14dfa6d24473","ios":"levelo://app?vid=8b450330-8313-4a94-a5a7-14dfa6d24473"},"vehicle_type_id":"4","last_reported":1741781904,"current_range_meters":17600,"station_id":"ce4bgn92rcd13ifvqbvg","pricing_plan_id":"cebpf4jnsgd1na2vs0mg"},{"bike_id":"a071768c-594a-4968-a844-4542cd9345dc","system_id":"levelo_inurba_marseille","lat":43.23177,"lon":5.39993,"is_reserved":false,"is_disabled":false,"rental_uris":{"android":"levelo://app?vid=a071768c-594a-4968-a844-4542cd9345dc","ios":"levelo://app?vid=a071768c-594a-4968-a844-4542cd9345dc"},"vehicle_type_id":"4","last_reported":1741781904,"current_range_meters":17600,"station_id":"ce4bhn12rcd13ifvqgqg","pricing_plan_id":"cebpf4jnsgd1na2vs0mg"},{"bike_id":"a823fe98-0845-44f0-af70-a3e75e70ed04","system_id":"levelo_inurba_marseille","lat":43.25009,"lon":5.38925,"is_reserved":false,"is_disabled":false,"rental_uris":{"android":"levelo://app?vid=a823fe98-0845-44f0-af70-a3e75e70ed04","ios":"levelo://app?vid=a823fe98-0845-44f0-af70-a3e75e70ed04"},"vehicle_type_id":"4","last_reported":1741781904,"current_range_meters":17600,"station_id":"ce4bhgp2rcd13ifvqfd0","pricing_plan_id":"cebpf4jnsgd1na2vs0mg"},{"bike_id":"138950fe-6475-45f2-9756-9aeb93c609d4","system_id":"levelo_inurba_marseille","lat":43.24172,"lon":5.39731,"is_reserved":false,"is_disabled":false,"rental_uris":{"android":"levelo://app?vid=138950fe-6475-45f2-9756-9aeb93c609d4","ios":"levelo://app?vid=138950fe-6475-45f2-9756-9aeb93c609d4"},"vehicle_type_id":"4","last_reported":1741781904,"current_range_meters":17600,"station_id":"ce4bhn12rcd13ifvqgpg","pricing_plan_id":"cebpf4jnsgd1na2vs0mg"},{"bike_id":"a44a3aad-0870-4e05-b6c2-b2bbe679ecf5","system_id":"levelo_inurba_marseille","lat":43.30314,"lon":5.36944,"is_reserved":false,"is_disabled":false,"rental_uris":{"android":"levelo://app?vid=a44a3aad-0870-4e05-b6c2-b2bbe679ecf5","ios":"levelo://app?vid=a44a3aad-0870-4e05-b6c2-b2bbe679ecf5"},"vehicle_type_id":"4","last_reported":1741781904,"current_range_meters":17600,"station_id":"ce4bgqh2rcd13ifvqc5g","pricing_plan_id":"cebpf4jnsgd1na2vs0mg"},{"bike_id":"ad906abc-b7a3-4881-a391-f3ba60929c52","system_id":"levelo_inurba_marseille","lat":43.29564,"lon":5.37515,"is_reserved":false,"is_disabled":false,"rental_uris":{"android":"levelo://app?vid=ad906abc-b7a3-4881-a391-f3ba60929c52","ios":"levelo://app?vid=ad906abc-b7a3-4881-a391-f3ba60929c52"},"vehicle_type_id":"4","last_reported":1741781904,"current_range_meters":17600,"station_id":"ce4bgh92rcd13ifvqb50","pricing_plan_id":"cebpf4jnsgd1na2vs0mg"},{"bike_id":"2c542a09-e66b-400a-a635-ed3442b0a9f5","system_id":"levelo_inurba_marseille","lat":43.23956,"lon":5.36626,"is_reserved":false,"is_disabled":false,"rental_uris":{"android":"levelo://app?vid=2c542a09-e66b-400a-a635-ed3442b0a9f5","ios":"levelo://app?vid=2c542a09-e66b-400a-a635-ed3442b0a9f5"},"vehicle_type_id":"4","last_reported":1741781904,"current_range_meters":17600,"station_id":"ce4bhi12rcd13ifvqfp0","pricing_plan_id":"cebpf4jnsgd1na2vs0mg"},{"bike_id":"e403288d-b468-4ea8-b33d-644efb4c82c2","system_id":"levelo_inurba_marseille","lat":43.27817,"lon":5.40719,"is_reserved":false,"is_disabled":false,"rental_uris":{"android":"levelo://app?vid=e403288d-b468-4ea8-b33d-644efb4c82c2","ios":"levelo://app?vid=e403288d-b468-4ea8-b33d-644efb4c82c2"},"vehicle_type_id":"4","last_reported":1741781904,"current_range_meters":17600,"station_id":"ce4bhnh2rcd13ifvqgtg","pricing_plan_id":"cebpf4jnsgd1na2vs0mg"},{"bike_id":"993af5ca-2668-4290-9a5d-87534a14e7a8","system_id":"levelo_inurba_marseille","lat":43.23199,"lon":5.40007,"is_reserved":false,"is_disabled":false,"rental_uris":{"android":"levelo://app?vid=993af5ca-2668-4290-9a5d-87534a14e7a8","ios":"levelo://app?vid=993af5ca-2668-4290-9a5d-87534a14e7a8"},"vehicle_type_id":"4","last_reported":1741781904,"current_range_meters":17600,"station_id":"ce4bhn12rcd13ifvqgqg","pricing_plan_id":"cebpf4jnsgd1na2vs0mg"},{"bike_id":"27af057a-a5c5-4cc1-983b-d44d1b580318","system_id":"levelo_inurba_marseille","lat":43.26791,"lon":5.40283,"is_reserved":false,"is_disabled":false,"rental_uris":{"android":"levelo://app?vid=27af057a-a5c5-4cc1-983b-d44d1b580318","ios":"levelo://app?vid=27af057a-a5c5-4cc1-983b-d44d1b580318"},"vehicle_type_id":"4","last_reported":1741781904,"current_range_meters":17600,"station_id":"ce501612rcd8frsf0b60","pricing_plan_id":"cebpf4jnsgd1na2vs0mg"},{"bike_id":"931ff5b2-c7e4-46e3-8719-f86a19a3ad0d","system_id":"levelo_inurba_marseille","lat":43.22938,"lon":5.35377,"is_reserved":false,"is_disabled":false,"rental_uris":{"android":"levelo://app?vid=931ff5b2-c7e4-46e3-8719-f86a19a3ad0d","ios":"levelo://app?vid=931ff5b2-c7e4-46e3-8719-f86a19a3ad0d"},"vehicle_type_id":"4","last_reported":1741781904,"current_range_meters":17600,"station_id":"cpo3532slgdg3j2ikp40","pricing_plan_id":"cebpf4jnsgd1na2vs0mg"},{"bike_id":"fc10f813-3873-417b-9b3d-978065614d4f","system_id":"levelo_inurba_marseille","lat":43.295995,"lon":5.381039,"is_reserved":false,"is_disabled":false,"rental_uris":{"android":"levelo://app?vid=fc10f813-3873-417b-9b3d-978065614d4f","ios":"levelo://app?vid=fc10f813-3873-417b-9b3d-978065614d4f"},"vehicle_type_id":"4","last_reported":1741781904,"current_range_meters":17600,"station_id":"ce4bh3p2rcd13ifvqdp0","pricing_plan_id":"cebpf4jnsgd1na2vs0mg"},