{"last_updated":1733940858,"ttl":60,"version":"2.2","data":{"bikes":[{"bike_id":"0c638768-e04d-4ce1-9a93-bd076c5c517e","system_id":"levelo_inurba_marseille","lat":43.25429,"lon":5.38475,"is_reserved":false,"is_disabled":false,"rental_uris":{"android":"levelo://app?vid=0c638768-e04d-4ce1-9a93-bd076c5c517e","ios":"levelo://app?vid=0c638768-e04d-4ce1-9a93-bd076c5c517e"},"vehicle_type_id":"4","last_reported":1733940858,"current_range_meters":20000,"station_id":"","pricing_plan_id":"cebpf4jnsgd1na2vs0mg"},{"bike_id":"152681c4-7871-45cb-9c37-b275dc5df185","system_id":"levelo_inurba_marseille","lat":43.29851,"lon":5.36273,"is_reserved":false,"is_disabled":false,"rental_uris":{"android":"levelo://app?vid=152681c4-7871-45cb-9c37-b275dc5df185","ios":"levelo://app?vid=152681c4-7871-45cb-9c37-b275dc5df185"},"vehicle_type_id":"4","last_reported":1733940858,"current_range_meters":31200,"station_id":"ce4bgpp2rcd13ifvqc3g","pricing_plan_id":"cebpf4jnsgd1na2vs0mg"},{"bike_id":"5a1d5db3-014a-4e87-97d8-818e2656f060","system_id":"levelo_inurba_marseille","lat":43.25582,"lon":5.38247,"is_reserved":false,"is_disabled":true,"rental_uris":{"android":"levelo://app?vid=5a1d5db3-014a-4e87-97d8-818e2656f060","ios":"levelo://app?vid=5a1d5db3-014a-4e87-97d8-818e2656f060"},"vehicle_type_id":"4","last_reported":1733940858,"current_range_meters":1200,"station_id":"ce4bhih2rcd13ifvqfs0","pricing_plan_id":"cebpf4jnsgd1na2vs0mg"},{"bike_id":"60e9ed68-c2d5-4fcc-b1fe-df98992a2ea5","system_id":"levelo_inurba_marseille","lat":43.30763,"lon":5.36821,"is_reserved":false,"is_disabled":true,"rental_uris":{"android":"levelo://app?vid=60e9ed68-c2d5-4fcc-b1fe-df98992a2ea5","ios":"levelo://app?vid=60e9ed68-c2d5-4fcc-b1fe-df98992a2ea5"},"vehicle_type_id":"4","last_reported":1733940858,"current_range_meters":0,"station_id":"","pricing_plan_id":"cebpf4jnsgd1na2vs0mg"},{"bike_id":"b266efff-3a14-4d1a-a25a-c68ad062a1f4","system_id":"levelo_inurba_marseille","lat":43.2417,"lon":5.36396,"is_reserved":false,"is_disabled":false,"rental_uris":{"android":"levelo://app?vid=b266efff-3a14-4d1a-a25a-c68ad062a1f4","ios":"levelo://app?vid=b266efff-3a14-4d1a-a25a-c68ad062a1f4"},"vehicle_type_id":"4","last_reported":1733940858,"current_range_meters":8800,"station_id":"cpo36qri1sfpv3e86is0","pricing_plan_id":"cebpf4jnsgd1na2vs0mg"},{"bike_id":"1e499b63-d2c5-48f5-891f-d70bfb6dcbab","system_id":"levelo_inurba_marseille","lat":43.30434,"lon":5.38894,"is_reserved":false,"is_disabled":false,"rental_uris":{"android":"levelo://app?vid=1e499b63-d2c5-48f5-891f-d70bfb6dcbab","ios":"levelo://app?vid=1e499b63-d2c5-48f5-891f-d70bfb6dcbab"},"vehicle_type_id":"4","last_reported":1733940858,"current_range_meters":26800,"station_id":"ce4bgk12rcd13ifvqbi0","pricing_plan_id":"cebpf4jnsgd1na2vs0mg"},{"bike_id":"76ff5e6b-010d-4384-88f5-640b71c7c743","system_id":"levelo_inurba_marseille","lat":43.29967,"lon":5.37171,"is_reserved":false,"is_disabled":false,"rental_uris":{"android":"levelo://app?vid=76ff5e6b-010d-4384-88f5-640b71c7c743","ios":"levelo://app?vid=76ff5e6b-010d-4384-88f5-640b71c7c743"},"vehicle_type_id":"4","last_reported":1733940858,"current_range_meters":10000,"station_id":"ce4bgr92rcd13ifvqc7g","pricing_plan_id":"cebpf4jnsgd1na2vs0mg"},{"bike_id":"9a419345-c074-4bed-a055-62578d579e76","system_id":"levelo_inurba_marseille","lat":43.28862,"lon":5.35847,"is_reserved":false,"is_disabled":false,"rental_uris":{"android":"levelo://app?vid=9a419345-c074-4bed-a055-62578d579e76","ios":"levelo://app?vid=9a419345-c074-4bed-a055-62578d579e76"},"vehicle_type_id":"4","last_reported":1733940858,"current_range_meters":19600,"station_id":"ce4bhb12rcd13ifvqem0","pricing_plan_id":"cebpf4jnsgd1na2vs0mg"},{"bike_id":"3f5757ec-261c-4569-827f-4e10e7682bac","system_id":"levelo_inurba_marseille","lat":43.30329,"lon":5.40425,"is_reserved":false,"is_disabled":false,"rental_uris":{"android":"levelo://app?vid=3f5757ec-261c-4569-827f-4e10e7682bac","ios":"levelo://app?vid=3f5757ec-261c-4569-827f-4e10e7682bac"},"vehicle_type_id":"4","last_reported":1733940858,"current_range_meters":2800,"station_id":"ce4bh012rcd13ifvqd10","pricing_plan_id":"cebpf4jnsgd1na2vs0mg"},{"bike_id":"980f96eb-32c9-4906-98f6-c44dbf4c84a1","system_id":"levelo_inurba_marseille","lat":43.27455,"lon":5.40073,"is_reserved":false,"is_disabled":true,"rental_uris":{"android":"levelo://app?vid=980f96eb-32c9-4906-98f6-c44dbf4c84a1","ios":"levelo://app?vid=980f96eb-32c9-4906-98f6-c44dbf4c84a1"},"vehicle_type_id":"4","last_reported":1733940858,"current_range_meters":0,"station_id":"","pricing_plan_id":"cebpf4jnsgd1na2vs0mg"},{"bike_id":"7a9786c8-c2a1-429a-aeec-a054398046bc","system_id":"levelo_inurba_marseille","lat":43.26561,"lon":5.37293,"is_reserved":false,"is_disabled":false,"rental_uris":{"android":"levelo://app?vid=7a9786c8-c2a1-429a-aeec-a054398046bc","ios":"levelo://app?vid=7a9786c8-c2a1-429a-aeec-a054398046bc"},"vehicle_type_id":"4","last_reported":1733940858,"current_range_meters":24400,"station_id":"ce4bhg12rcd13ifvqf70","pricing_plan_id":"cebpf4jnsgd1na2vs0mg"},{"bike_id":"21be252d-4634-43f3-a96e-6ac1317a234b","system_id":"levelo_inurba_marseille","lat":43.29386,"lon":5.37846,"is_reserved":false,"is_disabled":true,"rental_uris":{"android":"levelo://app?vid=21be252d-4634-43f3-a96e-6ac1317a234b","ios":"levelo://app?vid=21be252d-4634-43f3-a96e-6ac1317a234b"},"vehicle_type_id":"4","last_reported":1733940858,"current_range_meters":400,"station_id":"ce4bgjh2rcd13ifvqbf0","pricing_plan_id":"cebpf4jnsgd1na2vs0mg"},{"bike_id":"997a2097-3f0d-41ea-9c7d-6578349ceae9","system_id":"levelo_inurba_marseille","lat":43.27844,"lon":5.39219,"is_reserved":false,"is_disabled":false,"rental_uris":{"android":"levelo://app?vid=997a2097-3f0d-41ea-9c7d-6578349ceae9","ios":"levelo://app?vid=997a2097-3f0d-41ea-9c7d-6578349ceae9"},"vehicle_type_id":"4","last_reported":1733940858,"current_range_meters":4400,"station_id":"ce4bhjp2rcd13ifvqga0","pricing_plan_id":"cebpf4jnsgd1na2vs0mg"},{"bike_id":"5e541d8a-15ac-4b85-860e-1e55868e2214","system_id":"levelo_inurba_marseille","lat":43.29618,"lon":5.37142,"is_reserved":false,"is_disabled":false,"rental_uris":{"android":"levelo://app?vid=5e541d8a-15ac-4b85-860e-1e55868e2214","ios":"levelo://app?vid=5e541d8a-15ac-4b85-860e-1e55868e2214"},"vehicle_type_id":"4","last_reported":1733940858,"current_range_meters":38800,"station_id":"ce4bgnh2rcd13ifvqc0g","pricing_plan_id":"cebpf4jnsgd1na2vs0mg"},{"bike_id":"e77c41ec-01fc-4fd5-a63a-7ada717e028a","system_id":"levelo_inurba_marseille","lat":43.26058,"lon":5.39397,"is_reserved":false,"is_disabled":false,"rental_uris":{"android":"levelo://app?vid=e77c41ec-01fc-4fd5-a63a-7ada717e028a","ios":"levelo://app?vid=e77c41ec-01fc-4fd5-a63a-7ada717e028a"},"vehicle_type_id":"4","last_reported":1733940858,"current_range_meters":36800,"station_id":"ce4bhh92rcd13ifvqfj0","pricing_plan_id":"cebpf4jnsgd1na2vs0mg"},{"bike_id":"0db5aa65-4491-4fa7-b3cd-837cf2eebdd8","system_id":"levelo_inurba_marseille","lat":43.2465,"lon":5.38894,"is_reserved":false,"is_disabled":false,"rental_uris":{"android":"levelo://app?vid=0db5aa65-4491-4fa7-b3cd-837cf2eebdd8","ios":"levelo://app?vid=0db5aa65-4491-4fa7-b3cd-837cf2eebdd8"},"vehicle_type_id":"4","last_reported":1733940858,"current_range_meters":19200,"station_id":"ce4bhg12rcd13ifvqf60","pricing_plan_id":"cebpf4jnsgd1na2vs0mg"},{"bike_id":"d195dc54-7a2b-4973-88b9-a2ce35b64089","system_id":"levelo_inurba_marseille","lat":43.32366,"lon":5.38885,"is_reserved":false,"is_disabled":false,"rental_uris":{"android":"levelo://app?vid=d195dc54-7a2b-4973-88b9-a2ce35b64089","ios":"levelo://app?vid=d195dc54-7a2b-4973-88b9-a2ce35b64089"},"vehicle_type_id":"4","last_reported":1733940858,"current_range_meters":31200,"station_id":"ce4bhqp2rcd13ifvqhog","pricing_plan_id":"cebpf4jnsgd1na2vs0mg"},{"bike_id":"e07a9d9b-b9bc-475a-ab32-b71a16c6f1be","system_id":"levelo_inurba_marseille","lat":43.27995,"lon":5.41662,"is_reserved":false,"is_disabled":false,"rental_uris":{"android":"levelo://app?vid=e07a9d9b-b9bc-475a-ab32-b71a16c6f1be","ios":"levelo://app?vid=e07a9d9b-b9bc-475a-ab32-b71a16c6f1be"},"vehicle_type_id":"4","last_reported":1733940858,"current_range_meters":16000,"station_id":"ce4bho12rcd13ifvqh1g","pricing_plan_id":"cebpf4jnsgd1na2vs0mg"},{"bike_id":"eb005499-3c0e-4f41-9831-c070b319130e","system_id":"levelo_inurba_marseille","lat":43.28611,"lon":5.37058,"is_reserved":false,"is_disabled":false,"rental_uris":{"android":"levelo://app?vid=eb005499-3c0e-4f41-9831-c070b319130e","ios":"levelo://app?vid=eb005499-3c0e-4f41-9831-c070b319130e"},"vehicle_type_id":"4","last_reported":1733940858,"current_range_meters":4000,"station_id":"ce4bht12rcd13ifvqi60","pricing_plan_id":"cebpf4jnsgd1na2vs0mg"},{"bike_id":"c30e2927-d1ce-4add-bd99-3834be65c25a","system_id":"levelo_inurba_marseille","lat":43.28845,"lon":5.35852,"is_reserved":false,"is_disabled":false,"rental_uris":{"android":"levelo://app?vid=c30e2927-d1ce-4add-bd99-3834be65c25a","ios":"levelo://app?vid=c30e2927-d1ce-4add-bd99-3834be65c25a"},"vehicle_type_id":"4","last_reported":1733940858,"current_range_meters":38400,"station_id":"ce4bhb12rcd13ifvqem0","pricing_plan_id":"cebpf4jnsgd1na2vs0mg"},{"bike_id":"65c67670-ea7c-426c-93dd-9c01c131e1ad","system_id":"levelo_inurba_marseille","lat":43.27936,"lon":5.41037,"is_reserved":false,"is_disabled":false,"rental_uris":{"android":"levelo://app?vid=65c67670-ea7c-426c-93dd-9c01c131e1ad","ios":"levelo://app?vid=65c67670-ea7c-426c-93dd-9c01c131e1ad"},"vehicle_type_id":"4","last_reported":1733940858,"current_range_meters":9600,"station_id":"ce4bhnp2rcd13ifvqh0g","pricing_plan_id":"cebpf4jnsgd1na2vs0mg"},{"bike_id":"5f5f7f55-c23d-4064-ad8b-7f6df4dc9da2","system_id":"levelo_inurba_marseille","lat":43.27917,"lon":5.39576,"is_reserved":false,"is_disabled":false,"rental_uris":{"android":"levelo://app?vid=5f5f7f55-c23d-4064-ad8b-7f6df4dc9da2","ios":"levelo://app?vid=5f5f7f55-c23d-4064-ad8b-7f6df4dc9da2"},"vehicle_type_id":"4","last_reported":1733940858,"current_range_meters":7200,"station_id":"ce4bhf92rcd13ifvqf40","pricing_plan_id":"cebpf4jnsgd1na2vs0mg"},{"bike_id":"e86487c6-1ee6-4d10-ae66-1c212f4fa081","system_id":"levelo_inurba_marseille","lat":43.29203,"lon":5.35801,"is_reserved":false,"is_disabled":false,"rental_uris":{"android":"levelo://app?vid=e86487c6-1ee6-4d10-ae66-1c212f4fa081","ios":"levelo://app?vid=e86487c6-1ee6-4d10-ae66-1c212f4fa081"},"vehicle_type_id":"4","last_reported":1733940858,"current_range_meters":38800,"station_id":"ce4bhb12rcd13ifvqel0","pricing_plan_id":"cebpf4jnsgd1na2vs0mg"},{"bike_id":"8b7572b5-4e06-4da4-b879-de5d89fee0f7","system_id":"levelo_inurba_marseille","lat":43.29879,"lon":5.38904,"is_reserved":false,"is_disabled":false,"rental_uris":{"android":"levelo://app?vid=8b7572b5-4e06-4da4-b879-de5d89fee0f7","ios":"levelo://app?vid=8b7572b5-4e06-4da4-b879-de5d89fee0f7"},"vehicle_type_id":"4","last_reported":1733940858,"current_range_meters":20800,"station_id":"ce4bh392rcd13ifvqdl0","pricing_plan_id":"cebpf4jnsgd1na2vs0mg"},{"bike_id":"d3dd1993-0c0f-473b-a6a3-df644092d64e","system_id":"levelo_inurba_marseille","lat":43.28032,"lon":5.36951,"is_reserved":false,"is_disabled":false,"rental_uris":{"android":"levelo://app?vid=d3dd1993-0c0f-473b-a6a3-df644092d64e","ios":"levelo://app?vid=d3dd1993-0c0f-473b-a6a3-df644092d64e"},"vehicle_type_id":"4","last_reported":1733940858,"current_range_meters":25600,"station_id":"ce4bha12rcd13ifvqef0","pricing_plan_id":"cebpf4jnsgd1na2vs0mg"},{"bike_id":"8f6f7e3b-e3e3-4170-8b10-0e3166a2c9b0","system_id":"levelo_inurba_marseille","lat":43.27208,"lon":5.39183,"is_reserved":false,"is_disabled":false,"rental_uris":{"android":"levelo://app?vid=8f6f7e3b-e3e3-4170-8b10-0e3166a2c9b0","ios":"levelo://app?vid=8f6f7e3b-e3e3-4170-8b10-0e3166a2c9b0"},"vehicle_type_id":"4","last_reported":1733940858,"current_range_meters":22400,"station_id":"ce4bhhp2rcd13ifvqfm0","pricing_plan_id":"cebpf4jnsgd1na2vs0mg"},{"bike_id":"0399ded0-8e24-4ed6-acfa-22e124b5cb22","system_id":"levelo_inurba_marseille","lat":43.295787,"lon":5.400127,"is_reserved":false,"is_disabled":true,"rental_uris":{"android":"levelo://app?vid=0399ded0-8e24-4ed6-acfa-22e124b5cb22","ios":"levelo://app?vid=0399ded0-8e24-4ed6-acfa-22e124b5cb22"},"vehicle_type_id":"4","last_reported":1733940858,"current_range_meters":0,"station_id":"ce4bh312rcd13ifvqdj0","pricing_plan_id":"cebpf4jnsgd1na2vs0mg"},{"bike_id":"36272bbc-2413-4d65-9f8d-f8eaf63041c0","system_id":"levelo_inurba_marseille","lat":43.270633,"lon":5.402535,"is_reserved":false,"is_disabled":true,"rental_uris":{"android":"levelo://app?vid=36272bbc-2413-4d65-9f8d-f8eaf63041c0","ios":"levelo://app?vid=36272bbc-2413-4d65-9f8d-f8eaf63041c0"},"vehicle_type_id":"4","last_reported":1733940858,"current_range_meters":26800,"station_id":"ce4bhk92rcd13ifvqgc0","pricing_plan_id":"cebpf4jnsgd1na2vs0mg"},{"bike_id":"fe4cab58-ba30-4c78-b62f-d4434eea7628","system_id":"levelo_inurba_marseille","lat":43.294407,"lon":5.397693,"is_reserved":false,"is_disabled":true,"rental_uris":{"android":"levelo://app?vid=fe4cab58-ba30-4c78-b62f-d4434eea7628","ios":"levelo://app?vid=fe4cab58-ba30-4c78-b62f-d4434eea7628"},"vehicle_type_id":"4","last_reported":1733940858,"current_range_meters":34800,"station_id":"ce4bh3h2rcd13ifvqdo0","pricing_plan_id":"cebpf4jnsgd1na2vs0mg"},{"bike_id":"4dfa49ce-3bda-4351-8bdb-7800fc9e1719","system_id":"levelo_inurba_marseille","lat":43.27624,"lon":5.36098,"is_reserved":false,"is_disabled":false,"rental_uris":{"android":"levelo://app?vid=4dfa49ce-3bda-4351-8bdb-7800fc9e1719","ios":"levelo://app?vid=4dfa49ce-3bda-4351-8bdb-7800fc9e1719"},"vehicle_type_id":"4","last_reported":1733940858,"current_range_meters":9600,"station_id":"ce4bgj92rcd13ifvqbe0","pricing_plan_id":"cebpf4jnsgd1na2vs0mg"},{"bike_id":"efbda1f7-5ae8-49d9-9963-2d668db8c23e","system_id":"levelo_inurba_marseille","lat":43.25868,"lon":5.39898,"is_reserved":false,"is_disabled":true,"rental_uris":{"android":"levelo://app?vid=efbda1f7-5ae8-49d9-9963-2d668db8c23e","ios":"levelo://app?vid=efbda1f7-5ae8-49d9-9963-2d668db8c23e"},"vehicle_type_id":"4","last_reported":1733940858,"current_range_meters":800,"station_id":"ce4bhl92rcd13ifvqghg","pricing_plan_id":"cebpf4jnsgd1na2vs0mg"},{"bike_id":"95ce87ac-3480-4bb8-8d84-b9bcdf535ae1","system_id":"levelo_inurba_marseille","lat":43.30247,"lon":5.40044,"is_reserved":false,"is_disabled":false,"rental_uris":{"android":"levelo://app?vid=95ce87ac-3480-4bb8-8d84-b9bcdf535ae1","ios":"levelo://app?vid=95ce87ac-3480-4bb8-8d84-b9bcdf535ae1"},"vehicle_type_id":"4","last_reported":1733940858,"current_range_meters":8800,"station_id":"ce4bgvh2rcd13ifvqcs0","pricing_plan_id":"cebpf4jnsgd1na2vs0mg"},{"bike_id":"8979b88b-e0c9-465c-b920-54c929607786","system_id":"levelo_inurba_marseille","lat":43.30403,"lon":5.36789,"is_reserved":false,"is_disabled":false,"rental_uris":{"android":"levelo://app?vid=8979b88b-e0c9-465c-b920-54c929607786","ios":"levelo://app?vid=8979b88b-e0c9-465c-b920-54c929607786"},"vehicle_type_id":"4","last_reported":1733940858,"current_range_meters":18000,"station_id":"","pricing_plan_id":"cebpf4jnsgd1na2vs0mg"},{"bike_id":"3a56946e-b571-4f0a-89c3-228266a44430","system_id":"levelo_inurba_marseille","lat":43.26597,"lon":5.38971,"is_reserved":false,"is_disabled":false,"rental_uris":{"android":"levelo://app?vid=3a56946e-b571-4f0a-89c3-228266a44430","ios":"levelo://app?vid=3a56946e-b571-4f0a-89c3-228266a44430"},"vehicle_type_id":"4","last_reported":1733940858,"current_range_meters":6800,"station_id":"","pricing_plan_id":"cebpf4jnsgd1na2vs0mg"},{"bike_id":"5bc96188-c81c-468e-8c74-453c06d3624f","system_id":"levelo_inurba_marseille","lat":43.29521,"lon":5.39404,"is_reserved":false,"is_disabled":false,"rental_uris":{"android":"levelo://app?vid=5bc96188-c81c-468e-8c74-453c06d3624f","ios":"levelo://app?vid=5bc96188-c81c-468e-8c74-453c06d3624f"},"vehicle_type_id":"4","last_reported":1733940858,"current_range_meters":17600,"station_id":"ce4bh292rcd13ifvqdf0","pricing_plan_id":"cebpf4jnsgd1na2vs0mg"},{"bike_id":"83d86471-0b95-4477-9349-a015d55c6b4b","system_id":"levelo_inurba_marseille","lat":43.31966,"lon":5.38133,"is_reserved":false,"is_disabled":true,"rental_uris":{"android":"levelo://app?vid=83d86471-0b95-4477-9349-a015d55c6b4b","ios":"levelo://app?vid=83d86471-0b95-4477-9349-a015d55c6b4b"},"vehicle_type_id":"4","last_reported":1733940858,"current_range_meters":1200,"station_id":"ce4bhr12rcd13ifvqhpg","pricing_plan_id":"cebpf4jnsgd1na2vs0mg"},{"bike_id":"912b9652-d6db-47d7-b69a-ee743e156f59","system_id":"levelo_inurba_marseille","lat":43.28456,"lon":5.35887,"is_reserved":false,"is_disabled":false,"rental_uris":{"android":"levelo://app?vid=912b9652-d6db-47d7-b69a-ee743e156f59","ios":"levelo://app?vid=912b9652-d6db-47d7-b69a-ee743e156f59"},"vehicle_type_id":"4","last_reported":1733940858,"current_range_meters":8400,"station_id":"ce4bhah2rcd13ifvqei0","pricing_plan_id":"cebpf4jnsgd1na2vs0mg"},{"bike_id":"dc885c19-9b89-40ec-b58d-88b82ed91157","system_id":"levelo_inurba_marseille","lat":43.2552,"lon":5.37642,"is_reserved":false,"is_disabled":false,"rental_uris":{"android":"levelo://app?vid=dc885c19-9b89-40ec-b58d-88b82ed91157","ios":"levelo://app?vid=dc885c19-9b89-40ec-b58d-88b82ed91157"},"vehicle_type_id":"4","last_reported":1733940858,"current_range_meters":20000,"station_id":"ce4bhb92rcd13ifvqen0","pricing_plan_id":"cebpf4jnsgd1na2vs0mg"},{"bike_id":"e2a8ec6c-42ce-4c08-9e00-ced7a92fb966","system_id":"levelo_inurba_marseille","lat":43.28365,"lon":5.38635,"is_reserved":false,"is_disabled":false,"rental_uris":{"android":"levelo://app?vid=e2a8ec6c-42ce-4c08-9e00-ced7a92fb966","ios":"levelo://app?vid=e2a8ec6c-42ce-4c08-9e00-ced7a92fb966"},"vehicle_type_id":"4","last_reported":1733940858,"current_range_meters":4400,"station_id":"ce4bh492rcd13ifvqdvg","pricing_plan_id":"cebpf4jnsgd1na2vs0mg"},{"bike_id":"cf504aa2-7a5b-44a8-9e13-efcb53c1bdd9","system_id":"levelo_inurba_marseille","lat":43.28706,"lon":5.37386,"is_reserved":false,"is_disabled":false,"rental_uris":{"android":"levelo://app?vid=cf504aa2-7a5b-44a8-9e13-efcb53c1bdd9","ios":"levelo://app?vid=cf504aa2-7a5b-44a8-9e13-efcb53c1bdd9"},"vehicle_type_id":"4","last_reported":1733940858,"current_range_meters":25600,"station_id":"ce4bh3p2rcd13ifvqdq0","pricing_plan_id":"cebpf4jnsgd1na2vs0mg"},{"bike_id":"2f69aa6d-ad2d-42ed-9f0a-0201bc38bdcd","system_id":"levelo_inurba_marseille","lat":43.29911,"lon":5.37488,"is_reserved":false,"is_disabled":false,"rental_uris":{"android":"levelo://app?vid=2f69aa6d-ad2d-42ed-9f0a-0201bc38bdcd","ios":"levelo://app?vid=2f69aa6d-ad2d-42ed-9f0a-0201bc38bdcd"},"vehicle_type_id":"4","last_reported":1733940858,"current_range_meters":33600,"station_id":"ce4bgjh2rcd13ifvqbg0","pricing_plan_id":"cebpf4jnsgd1na2vs0mg"},{"bike_id":"90324b92-2d52-4f43-bd59-91b2038c3497","system_id":"levelo_inurba_marseille","lat":43.28933,"lon":5.36633,"is_reserved":false,"is_disabled":true,"rental_uris":{"android":"levelo://app?vid=90324b92-2d52-4f43-bd59-91b2038c3497","ios":"levelo://app?vid=90324b92-2d52-4f43-bd59-91b2038c3497"},"vehicle_type_id":"4","last_reported":1733940858,"current_range_meters":29600,"station_id":"ce4bhap2rcd13ifvqek0","pricing_plan_id":"cebpf4jnsgd1na2vs0mg"},{"bike_id":"3644508c-a3b7-46c1-94ff-2344a124c436","system_id":"levelo_inurba_marseille","lat":43.29569,"lon":5.39968,"is_reserved":false,"is_disabled":false,"rental_uris":{"android":"levelo://app?vid=3644508c-a3b7-46c1-94ff-2344a124c436","ios":"levelo://app?vid=3644508c-a3b7-46c1-94ff-2344a124c436"},"vehicle_type_id":"4","last_reported":1733940858,"current_range_meters":16000,"station_id":"ce4bh312rcd13ifvqdj0","pricing_plan_id":"cebpf4jnsgd1na2vs0mg"},{"bike_id":"b2dba6b0-0a07-43b7-9441-62fd34a7f520","system_id":"levelo_inurba_marseille","lat":43.29806,"lon":5.40415,"is_reserved":false,"is_disabled":false,"rental_uris":{"android":"levelo://app?vid=b2dba6b0-0a07-43b7-9441-62fd34a7f520","ios":"levelo://app?vid=b2dba6b0-0a07-43b7-9441-62fd34a7f520"},"vehicle_type_id":"4","last_reported":1733940858,"current_range_meters":10000,"station_id":"ce4bh112rcd13ifvqd90","pricing_plan_id":"cebpf4jnsgd1na2vs0mg"},{"bike_id":"383f4d16-4911-4d35-a7a5-72caa30c20b8","system_id":"levelo_inurba_marseille","lat":43.26042,"lon":5.37548,"is_reserved":false,"is_disabled":false,"rental_uris":{"android":"levelo://app?vid=383f4d16-4911-4d35-a7a5-72caa30c20b8","ios":"levelo://app?vid=383f4d16-4911-4d35-a7a5-72caa30c20b8"},"vehicle_type_id":"4","last_reported":1733940858,"current_range_meters":16000,"station_id":"ce4bhgh2rcd13ifvqfa0","pricing_plan_id":"cebpf4jnsgd1na2vs0mg"},{"bike_id":"6faa6ee7-a588-4286-8e0c-a7deeaae5bab","system_id":"levelo_inurba_marseille","lat":43.27374,"lon":5.36264,"is_reserved":false,"is_disabled":false,"rental_uris":{"android":"levelo://app?vid=6faa6ee7-a588-4286-8e0c-a7deeaae5bab","ios":"levelo://app?vid=6faa6ee7-a588-4286-8e0c-a7deeaae5bab"},"vehicle_type_id":"4","last_reported":1733940858,"current_range_meters":38800,"station_id":"ce4bhbh2rcd13ifvqeo0","pricing_plan_id":"cebpf4jnsgd1na2vs0mg"},{"bike_id":"e0e7ee68-c93a-46d4-a112-a38d643c1ed5","system_id":"levelo_inurba_marseille","lat":43.30407,"lon":5.41284,"is_reserved":false,"is_disabled":true,"rental_uris":{"android":"levelo://app?vid=e0e7ee68-c93a-46d4-a112-a38d643c1ed5","ios":"levelo://app?vid=e0e7ee68-c93a-46d4-a112-a38d643c1ed5"},"vehicle_type_id":"4","last_reported":1733940858,"current_range_meters":1200,"station_id":"ce4bhop2rcd13ifvqh8g","pricing_plan_id":"cebpf4jnsgd1na2vs0mg"},{"bike_id":"6e1b0f20-f0e9-41bd-aafb-6677385babd6","system_id":"levelo_inurba_marseille","lat":43.30135,"lon":5.39863,"is_reserved":false,"is_disabled":false,"rental_uris":{"android":"levelo://app?vid=6e1b0f20-f0e9-41bd-aafb-6677385babd6","ios":"levelo://app?vid=6e1b0f20-f0e9-41bd-aafb-6677385babd6"},"vehicle_type_id":"4","last_reported":1733940858,"current_range_meters":34800,"station_id":"ce4bh0h2rcd13ifvqd40","pricing_plan_id":"cebpf4jnsgd1na2vs0mg"},{"bike_id":"716e3651-726d-4797-92a9-2212a7dacea5","system_id":"levelo_inurba_marseille","lat":43.29905,"lon":5.43659,"is_reserved":false,"is_disabled":false,"rental_uris":{"android":"levelo://app?vid=716e3651-726d-4797-92a9-2212a7dacea5","ios":"levelo://app?vid=716e3651-726d-4797-92a9-2212a7dacea5"},"vehicle_type_id":"4","last_reported":1733940858,"current_range_meters":38000,"station_id":"ce4bhpp2rcd13ifvqhfg","pricing_plan_id":"cebpf4jnsgd1na2vs0mg"},{"bike_id":"30b7f7b0-cffb-44e8-9e23-86428fe1183d","system_id":"levelo_inurba_marseille","lat":43.23073,"lon":5.35487,"is_reserved":false,"is_disabled":false,"rental_uris":{"android":"levelo://app?vid=30b7f7b0-cffb-44e8-9e23-86428fe1183d","ios":"levelo://app?vid=30b7f7b0-cffb-44e8-9e23-86428fe1183d"},"vehicle_type_id":"4","last_reported":1733940858,"current_range_meters":13600,"station_id":"cpo3342slgdg3j2ifvpg","pricing_plan_id":"cebpf4jnsgd1na2vs0mg"},{"bike_id":"33f06ed4-c8ad-43f5-b7ff-27c41657a24c","system_id":"levelo_inurba_marseille","lat":43.26214,"lon":5.37899,"is_reserved":false,"is_disabled":true,"rental_uris":{"android":"levelo://app?vid=33f06ed4-c8ad-43f5-b7ff-27c41657a24c","ios":"levelo://app?vid=33f06ed4-c8ad-43f5-b7ff-27c41657a24c"},"vehicle_type_id":"4","last_reported":1733940858,"current_range_meters":800,"station_id":"ce4bhjp2rcd13ifvqg90","pricing_plan_id":"cebpf4jnsgd1na2vs0mg"},{"bike_id":"c510b204-7336-4bcc-aeb7-52b58abe4a35","system_id":"levelo_inurba_marseille","lat":43.273181,"lon":5.390994,"is_reserved":false,"is_disabled":false,"rental_uris":{"android":"levelo://app?vid=c510b204-7336-4bcc-aeb7-52b58abe4a35","ios":"levelo://app?vid=c510b204-7336-4bcc-aeb7-52b58abe4a35"},"vehicle_type_id":"4","last_reported":1733940858,"current_range_meters":30400,"station_id":"ce4bhgp2rcd13ifvqfe0","pricing_plan_id":"cebpf4jnsgd1na2vs0mg"},{"bike_id":"895a55aa-9568-4ecb-a74e-550fa21a2cb4","system_id":"levelo_inurba_marseille","lat":43.29935,"lon":5.38608,"is_reserved":false,"is_disabled":false,"rental_uris":{"android":"levelo://app?vid=895a55aa-9568-4ecb-a74e-550fa21a2cb4","ios":"levelo://app?vid=895a55aa-9568-4ecb-a74e-550fa21a2cb4"},"vehicle_type_id":"4","last_reported":1733940858,"current_range_meters":36000,"station_id":"","pricing_plan_id":"cebpf4jnsgd1na2vs0mg"},{"bike_id":"b8a40cc0-0b56-4471-8b2a-6116a6a6c3e2","system_id":"levelo_inurba_marseille","lat":43.2721,"lon":5.39181,"is_reserved":false,"is_disabled":false,"rental_uris":{"android":"levelo://app?vid=b8a40cc0-0b56-4471-8b2a-6116a6a6c3e2","ios":"levelo://app?vid=b8a40cc0-0b56-4471-8b2a-6116a6a6c3e2"},"vehicle_type_id":"4","last_reported":1733940858,"current_range_meters":28400,"station_id":"ce4bhhp2rcd13ifvqfm0","pricing_plan_id":"cebpf4jnsgd1na2vs0mg"},{"bike_id":"175e0bbe-b25e-41b3-ba3f-2b4ef9ccd4d0","system_id":"levelo_inurba_marseille","lat":43.3014,"lon":5.39869,"is_reserved":false,"is_disabled":false,"rental_uris":{"android":"levelo://app?vid=175e0bbe-b25e-41b3-ba3f-2b4ef9ccd4d0","ios":"levelo://app?vid=175e0bbe-b25e-41b3-ba3f-2b4ef9ccd4d0"},"vehicle_type_id":"4","last_reported":1733940858,"current_range_meters":27600,"station_id":"ce4bh0h2rcd13ifvqd40","pricing_plan_id":"cebpf4jnsgd1na2vs0mg"},{"bike_id":"81eaf31d-0e6f-4a15-a4d3-93f03ec3c8ca","system_id":"levelo_inurba_marseille","lat":43.31173,"lon":5.3872,"is_reserved":false,"is_disabled":true,"rental_uris":{"android":"levelo://app?vid=81eaf31d-0e6f-4a15-a4d3-93f03ec3c8ca","ios":"levelo://app?vid=81eaf31d-0e6f-4a15-a4d3-93f03ec3c8ca"},"vehicle_type_id":"4","last_reported":1733940858,"current_range_meters":2000,"station_id":"ce4bgv12rcd13ifvqcp0","pricing_plan_id":"cebpf4jnsgd1na2vs0mg"},{"bike_id":"412c0142-2385-4e8d-a376-8d4dbbec5f92","system_id":"levelo_inurba_marseille","lat":43.29443,"lon":5.39747,"is_reserved":false,"is_disabled":false,"rental_uris":{"android":"levelo://app?vid=412c0142-2385-4e8d-a376-8d4dbbec5f92","ios":"levelo://app?vid=412c0142-2385-4e8d-a376-8d4dbbec5f92"},"vehicle_type_id":"4","last_reported":1733940858,"current_range_meters":24400,"station_id":"ce4bh3h2rcd13ifvqdo0","pricing_plan_id":"cebpf4jnsgd1na2vs0mg"},{"bike_id":"0f17d2c4-bf96-42e6-978b-f52d4d5288cd","system_id":"levelo_inurba_marseille","lat":43.30327,"lon":5.40435,"is_reserved":false,"is_disabled":true,"rental_uris":{"android":"levelo://app?vid=0f17d2c4-bf96-42e6-978b-f52d4d5288cd","ios":"levelo://app?vid=0f17d2c4-bf96-42e6-978b-f52d4d5288cd"},"vehicle_type_id":"4","last_reported":1733940858,"current_range_meters":32800,"station_id":"ce4bh012rcd13ifvqd10","pricing_plan_id":"cebpf4jnsgd1na2vs0mg"},{"bike_id":"a31d0c0a-6bfa-4de7-bf27-ad28e3f14fd2","system_id":"levelo_inurba_marseille","lat":43.29025,"lon":5.38646,"is_reserved":false,"is_disabled":false,"rental_uris":{"android":"levelo://app?vid=a31d0c0a-6bfa-4de7-bf27-ad28e3f14fd2","ios":"levelo://app?vid=a31d0c0a-6bfa-4de7-bf27-ad28e3f14fd2"},"vehicle_type_id":"4","last_reported":1733940858,"current_range_meters":6400,"station_id":"ce4bh4p2rcd13ifvqe0g","pricing_plan_id":"cebpf4jnsgd1na2vs0mg"},{"bike_id":"79263867-ab0b-431e-89dc-246e72ff457f","system_id":"levelo_inurba_marseille","lat":43.28674,"lon":5.38662,"is_reserved":false,"is_disabled":true,"rental_uris":{"android":"levelo://app?vid=79263867-ab0b-431e-89dc-246e72ff457f","ios":"levelo://app?vid=79263867-ab0b-431e-89dc-246e72ff457f"},"vehicle_type_id":"4","last_reported":1733940858,"current_range_meters":38800,"station_id":"ce4bh492rcd13ifvqdug","pricing_plan_id":"cebpf4jnsgd1na2vs0mg"},{"bike_id":"4da8f61d-0f2a-4234-a08c-151dfadd6b43","system_id":"levelo_inurba_marseille","lat":43.300373,"lon":5.36408,"is_reserved":false,"is_disabled":true,"rental_uris":{"android":"levelo://app?vid=4da8f61d-0f2a-4234-a08c-151dfadd6b43","ios":"levelo://app?vid=4da8f61d-0f2a-4234-a08c-151dfadd6b43"},"vehicle_type_id":"4","last_reported":1733940858,"current_range_meters":0,"station_id":"","pricing_plan_id":"cebpf4jnsgd1na2vs0mg"},{"bike_id":"f9dd9792-bdcd-4faf-834e-1a4dccdf7802","system_id":"levelo_inurba_marseille","lat":43.30298,"lon":5.39211,"is_reserved":false,"is_disabled":false,"rental_uris":{"android":"levelo://app?vid=f9dd9792-bdcd-4faf-834e-1a4dccdf7802","ios":"levelo://app?vid=f9dd9792-bdcd-4faf-834e-1a4dccdf7802"},"vehicle_type_id":"4","last_reported":1733940858,"current_range_meters":15200,"station_id":"ce4bgkh2rcd13ifvqbk0","pricing_plan_id":"cebpf4jnsgd1na2vs0mg"},{"bike_id":"1c20ce50-f95d-46d6-915d-0b5746bb0fbd","system_id":"levelo_inurba_marseille","lat":43.24187,"lon":5.39731,"is_reserved":false,"is_disabled":false,"rental_uris":{"android":"levelo://app?vid=1c20ce50-f95d-46d6-915d-0b5746bb0fbd","ios":"levelo://app?vid=1c20ce50-f95d-46d6-915d-0b5746bb0fbd"},"vehicle_type_id":"4","last_reported":1733940858,"current_range_meters":3600,"station_id":"ce4bhn12rcd13ifvqgpg","pricing_plan_id":"cebpf4jnsgd1na2vs0mg"},{"bike_id":"eb9e228a-1053-406e-b89e-e9a74964cd53","system_id":"levelo_inurba_marseille","lat":43.27935,"lon":5.41054,"is_reserved":false,"is_disabled":false,"rental_uris":{"android":"levelo://app?vid=eb9e228a-1053-406e-b89e-e9a74964cd53","ios":"levelo://app?vid=eb9e228a-1053-406e-b89e-e9a74964cd53"},"vehicle_type_id":"4","last_reported":1733940858,"current_range_meters":24000,"station_id":"ce4bhnp2rcd13ifvqh0g","pricing_plan_id":"cebpf4jnsgd1na2vs0mg"},{"bike_id":"af67ac53-ba21-4ff0-8334-95679e9ff2cc","system_id":"levelo_inurba_marseille","lat":43.278805,"lon":5.388003,"is_reserved":false,"is_disabled":true,"rental_uris":{"android":"levelo://app?vid=af67ac53-ba21-4ff0-8334-95679e9ff2cc","ios":"levelo://app?vid=af67ac53-ba21-4ff0-8334-95679e9ff2cc"},"vehicle_type_id":"4","last_reported":1733940858,"current_range_meters":0,"station_id":"","pricing_plan_id":"cebpf4jnsgd1na2vs0mg"},{"bike_id":"ab6bb814-6be0-4a23-8be0-7c219c550454","system_id":"levelo_inurba_marseille","lat":43.29446,"lon":5.39756,"is_reserved":false,"is_disabled":true,"rental_uris":{"android":"levelo://app?vid=ab6bb814-6be0-4a23-8be0-7c219c550454","ios":"levelo://app?vid=ab6bb814-6be0-4a23-8be0-7c219c550454"},"vehicle_type_id":"4","last_reported":1733940858,"current_range_meters":0,"station_id":"ce4bh3h2rcd13ifvqdo0","pricing_plan_id":"cebpf4jnsgd1na2vs0mg"},{"bike_id":"00d6396e-15db-456b-8c3f-d04ee860bc67","system_id":"levelo_inurba_marseille","lat":43.24804,"lon":5.37453,"is_reserved":false,"is_disabled":false,"rental_uris":{"android":"levelo://app?vid=00d6396e-15db-456b-8c3f-d04ee860bc67","ios":"levelo://app?vid=00d6396e-15db-456b-8c3f-d04ee860bc67"},"vehicle_type_id":"4","last_reported":1733940858,"current_range_meters":32000,"station_id":"ce4bhgh2rcd13ifvqfb0","pricing_plan_id":"cebpf4jnsgd1na2vs0mg"},{"bike_id":"3515f275-3f36-4944-bb58-334ae25026d3","system_id":"levelo_inurba_marseille","lat":43.27831,"lon":5.40683,"is_reserved":false,"is_disabled":false,"rental_uris":{"android":"levelo://app?vid=3515f275-3f36-4944-bb58-334ae25026d3","ios":"levelo://app?vid=3515f275-3f36-4944-bb58-334ae25026d3"},"vehicle_type_id":"4","last_reported":1733940858,"current_range_meters":20400,"station_id":"ce4bhnh2rcd13ifvqgtg","pricing_plan_id":"cebpf4jnsgd1na2vs0mg"},{"bike_id":"512311c6-8e27-4752-8fc0-b8cbde613e6b","system_id":"levelo_inurba_marseille","lat":43.26216,"lon":5.37436,"is_reserved":false,"is_disabled":false,"rental_uris":{"android":"levelo://app?vid=512311c6-8e27-4752-8fc0-b8cbde613e6b","ios":"levelo://app?vid=512311c6-8e27-4752-8fc0-b8cbde613e6b"},"vehicle_type_id":"4","last_reported":1733940858,"current_range_meters":14800,"station_id":"ce4bhgp2rcd13ifvqfc0","pricing_plan_id":"cebpf4jnsgd1na2vs0mg"},{"bike_id":"c3f87c2d-f647-4d71-89d3-fc010d8ba668","system_id":"levelo_inurba_marseille","lat":43.28493,"lon":5.3842,"is_reserved":false,"is_disabled":true,"rental_uris":{"android":"levelo://app?vid=c3f87c2d-f647-4d71-89d3-fc010d8ba668","ios":"levelo://app?vid=c3f87c2d-f647-4d71-89d3-fc010d8ba668"},"vehicle_type_id":"4","last_reported":1733940858,"current_range_meters":0,"station_id":"ce4bh512rcd13ifvqe3g","pricing_plan_id":"cebpf4jnsgd1na2vs0mg"},{"bike_id":"ad53aee5-a729-48be-8206-ea00c2981c19","system_id":"levelo_inurba_marseille","lat":43.30518,"lon":5.36521,"is_reserved":false,"is_disabled":true,"rental_uris":{"android":"levelo://app?vid=ad53aee5-a729-48be-8206-ea00c2981c19","ios":"levelo://app?vid=ad53aee5-a729-48be-8206-ea00c2981c19"},"vehicle_type_id":"4","last_reported":1733940858,"current_range_meters":0,"station_id":"","pricing_plan_id":"cebpf4jnsgd1na2vs0mg"},{"bike_id":"7d2bf50c-5f62-4bcb-93d6-9d9b8f36813d","system_id":"levelo_inurba_marseille","lat":43.30088,"lon":5.39986,"is_reserved":false,"is_disabled":false,"rental_uris":{"android":"levelo://app?vid=7d2bf50c-5f62-4bcb-93d6-9d9b8f36813d","ios":"levelo://app?vid=7d2bf50c-5f62-4bcb-93d6-9d9b8f36813d"},"vehicle_type_id":"4","last_reported":1733940858,"current_range_meters":19600,"station_id":"","pricing_plan_id":"cebpf4jnsgd1na2vs0mg"},{"bike_id":"6d4da827-7fe5-4e45-a1d0-f8baa8a887af","system_id":"levelo_inurba_marseille","lat":43.25869,"lon":5.39891,"is_reserved":false,"is_disabled":false,"rental_uris":{"android":"levelo://app?vid=6d4da827-7fe5-4e45-a1d0-f8baa8a887af","ios":"levelo://app?vid=6d4da827-7fe5-4e45-a1d0-f8baa8a887af"},"vehicle_type_id":"4","last_reported":1733940858,"current_range_meters":19200,"station_id":"ce4bhl92rcd13ifvqghg","pricing_plan_id":"cebpf4jnsgd1na2vs0mg"},{"bike_id":"319205ef-2192-4085-8c5f-5928bdba61c3","system_id":"levelo_inurba_marseille","lat":43.2894,"lon":5.36637,"is_reserved":false,"is_disabled":false,"rental_uris":{"android":"levelo://app?vid=319205ef-2192-4085-8c5f-5928bdba61c3","ios":"levelo://app?vid=319205ef-2192-4085-8c5f-5928bdba61c3"},"vehicle_type_id":"4","last_reported":1733940858,"current_range_meters":36800,"station_id":"ce4bhap2rcd13ifvqek0","pricing_plan_id":"cebpf4jnsgd1na2vs0mg"},{"bike_id":"4590d15f-6296-4b02-b5f8-dd68ef10103f","system_id":"levelo_inurba_marseille","lat":43.2894,"lon":5.36638,"is_reserved":false,"is_disabled":false,"rental_uris":{"android":"levelo://app?vid=4590d15f-6296-4b02-b5f8-dd68ef10103f","ios":"levelo://app?vid=4590d15f-6296-4b02-b5f8-dd68ef10103f"},"vehicle_type_id":"4","last_reported":1733940858,"current_range_meters":30000,"station_id":"ce4bhap2rcd13ifvqek0","pricing_plan_id":"cebpf4jnsgd1na2vs0mg"},{"bike_id":"b5fcaa86-c09e-4c69-8628-53e487fd6934","system_id":"levelo_inurba_marseille","lat":43.2938,"lon":5.37849,"is_reserved":false,"is_disabled":true,"rental_uris":{"android":"levelo://app?vid=b5fcaa86-c09e-4c69-8628-53e487fd6934","ios":"levelo://app?vid=b5fcaa86-c09e-4c69-8628-53e487fd6934"},"vehicle_type_id":"4","last_reported":1733940858,"current_range_meters":38800,"station_id":"ce4bgjh2rcd13ifvqbf0","pricing_plan_id":"cebpf4jnsgd1na2vs0mg"},{"bike_id":"f69cc59c-abf2-4d5d-aaf1-b3f84277e26a","system_id":"levelo_inurba_marseille","lat":43.29606,"lon":5.40204,"is_reserved":false,"is_disabled":false,"rental_uris":{"android":"levelo://app?vid=f69cc59c-abf2-4d5d-aaf1-b3f84277e26a","ios":"levelo://app?vid=f69cc59c-abf2-4d5d-aaf1-b3f84277e26a"},"vehicle_type_id":"4","last_reported":1733940858,"current_range_meters":25600,"station_id":"","pricing_plan_id":"cebpf4jnsgd1na2vs0mg"},{"bike_id":"98d6fb63-017f-4eb9-ad8d-a88fca2dab3c","system_id":"levelo_inurba_marseille","lat":43.24548,"lon":5.3952,"is_reserved":false,"is_disabled":false,"rental_uris":{"android":"levelo://app?vid=98d6fb63-017f-4eb9-ad8d-a88fca2dab3c","ios":"levelo://app?vid=98d6fb63-017f-4eb9-ad8d-a88fca2dab3c"},"vehicle_type_id":"4","last_reported":1733940858,"current_range_meters":28800,"station_id":"ce4bhlp2rcd13ifvqgjg","pricing_plan_id":"cebpf4jnsgd1na2vs0mg"},{"bike_id":"0aaf9b22-f7e1-4e4f-a1a5-7a779d72a1d4","system_id":"levelo_inurba_marseille","lat":43.29827,"lon":5.37756,"is_reserved":false,"is_disabled":true,"rental_uris":{"android":"levelo://app?vid=0aaf9b22-f7e1-4e4f-a1a5-7a779d72a1d4","ios":"levelo://app?vid=0aaf9b22-f7e1-4e4f-a1a5-7a779d72a1d4"},"vehicle_type_id":"4","last_reported":1733940858,"current_range_meters":400,"station_id":"","pricing_plan_id":"cebpf4jnsgd1na2vs0mg"},{"bike_id":"cefa54cb-a0bd-4d51-b13e-03ea2047e36f","system_id":"levelo_inurba_marseille","lat":43.29585,"lon":5.37504,"is_reserved":false,"is_disabled":true,"rental_uris":{"android":"levelo://app?vid=cefa54cb-a0bd-4d51-b13e-03ea2047e36f","ios":"levelo://app?vid=cefa54cb-a0bd-4d51-b13e-03ea2047e36f"},"vehicle_type_id":"4","last_reported":1733940858,"current_range_meters":32000,"station_id":"ce4bgh92rcd13ifvqb50","pricing_plan_id":"cebpf4jnsgd1na2vs0mg"},{"bike_id":"0c077105-d637-4568-bc4c-f0339898e3bf","system_id":"levelo_inurba_marseille","lat":43.31763,"lon":5.39011,"is_reserved":false,"is_disabled":false,"rental_uris":{"android":"levelo://app?vid=0c077105-d637-4568-bc4c-f0339898e3bf","ios":"levelo://app?vid=0c077105-d637-4568-bc4c-f0339898e3bf"},"vehicle_type_id":"4","last_reported":1733940858,"current_range_meters":21600,"station_id":"ce4bhqp2rcd13ifvqhng","pricing_plan_id":"cebpf4jnsgd1na2vs0mg"},{"bike_id":"a85501a2-1a09-455f-954b-c790a9d4e292","system_id":"levelo_inurba_marseille","lat":43.31088,"lon":5.42412,"is_reserved":false,"is_disabled":false,"rental_uris":{"android":"levelo://app?vid=a85501a2-1a09-455f-954b-c790a9d4e292","ios":"levelo://app?vid=a85501a2-1a09-455f-954b-c790a9d4e292"},"vehicle_type_id":"4","last_reported":1733940858,"current_range_meters":20400,"station_id":"ce4bhp92rcd13ifvqhag","pricing_plan_id":"cebpf4jnsgd1na2vs0mg"},{"bike_id":"b8e3a311-f02b-4399-af7b-1bfb5506fa2a","system_id":"levelo_inurba_marseille","lat":43.24658,"lon":5.3888,"is_reserved":false,"is_disabled":false,"rental_uris":{"android":"levelo://app?vid=b8e3a311-f02b-4399-af7b-1bfb5506fa2a","ios":"levelo://app?vid=b8e3a311-f02b-4399-af7b-1bfb5506fa2a"},"vehicle_type_id":"4","last_reported":1733940858,"current_range_meters":28000,"station_id":"ce4bhg12rcd13ifvqf60","pricing_plan_id":"cebpf4jnsgd1na2vs0mg"},{"bike_id":"af42ee22-997b-4ac8-925a-3afd460c3fce","system_id":"levelo_inurba_marseille","lat":43.29967,"lon":5.38496,"is_reserved":false,"is_disabled":false,"rental_uris":{"android":"levelo://app?vid=af42ee22-997b-4ac8-925a-3afd460c3fce","ios":"levelo://app?vid=af42ee22-997b-4ac8-925a-3afd460c3fce"},"vehicle_type_id":"4","last_reported":1733940858,"current_range_meters":16400,"station_id":"ce4bgj92rcd13ifvqbd0","pricing_plan_id":"cebpf4jnsgd1na2vs0mg"},{"bike_id":"0f2931e9-f377-4451-8f31-48e3d2a68dbc","system_id":"levelo_inurba_marseille","lat":43.28155,"lon":5.42645,"is_reserved":false,"is_disabled":false,"rental_uris":{"android":"levelo://app?vid=0f2931e9-f377-4451-8f31-48e3d2a68dbc","ios":"levelo://app?vid=0f2931e9-f377-4451-8f31-48e3d2a68dbc"},"vehicle_type_id":"4","last_reported":1733940858,"current_range_meters":38800,"station_id":"ce4bhnh2rcd13ifvqgug","pricing_plan_id":"cebpf4jnsgd1na2vs0mg"},{"bike_id":"2147fc59-ce84-48ef-9558-28cb1473be42","system_id":"levelo_inurba_marseille","lat":43.33022,"lon":5.39037,"is_reserved":false,"is_disabled":false,"rental_uris":{"android":"levelo://app?vid=2147fc59-ce84-48ef-9558-28cb1473be42","ios":"levelo://app?vid=2147fc59-ce84-48ef-9558-28cb1473be42"},"vehicle_type_id":"4","last_reported":1733940858,"current_range_meters":14400,"station_id":"ce4bhr92rcd13ifvqhrg","pricing_plan_id":"cebpf4jnsgd1na2vs0mg"},{"bike_id":"5e4f8e0e-b03a-4019-9fb8-3a5a9aec35bd","system_id":"levelo_inurba_marseille","lat":43.322914,"lon":5.382608,"is_reserved":false,"is_disabled":false,"rental_uris":{"android":"levelo://app?vid=5e4f8e0e-b03a-4019-9fb8-3a5a9aec35bd","ios":"levelo://app?vid=5e4f8e0e-b03a-4019-9fb8-3a5a9aec35bd"},"vehicle_type_id":"4","last_reported":1733940858,"current_range_meters":9600,"station_id":"ce4bhr12rcd13ifvqhqg","pricing_plan_id":"cebpf4jnsgd1na2vs0mg"},{"bike_id":"5746a913-59cb-4881-b851-217de753d5a3","system_id":"levelo_inurba_marseille","lat":43.25093,"lon":5.39524,"is_reserved":false,"is_disabled":false,"rental_uris":{"android":"levelo://app?vid=5746a913-59cb-4881-b851-217de753d5a3","ios":"levelo://app?vid=5746a913-59cb-4881-b851-217de753d5a3"},"vehicle_type_id":"4","last_reported":1733940858,"current_range_meters":28400,"station_id":"ce4bhm12rcd13ifvqgkg","pricing_plan_id":"cebpf4jnsgd1na2vs0mg"},{"bike_id":"fc6bce5c-fc82-4c38-916f-35df49872efb","system_id":"levelo_inurba_marseille","lat":43.31996,"lon":5.38114,"is_reserved":false,"is_disabled":true,"rental_uris":{"android":"levelo://app?vid=fc6bce5c-fc82-4c38-916f-35df49872efb","ios":"levelo://app?vid=fc6bce5c-fc82-4c38-916f-35df49872efb"},"vehicle_type_id":"4","last_reported":1733940858,"current_range_meters":0,"station_id":"ce4bhr12rcd13ifvqhpg","pricing_plan_id":"cebpf4jnsgd1na2vs0mg"},{"bike_id":"0790d08c-80dd-4b22-b28c-7f4a0829db47","system_id":"levelo_inurba_marseille","lat":43.29574,"lon":5.39965,"is_reserved":false,"is_disabled":false,"rental_uris":{"android":"levelo://app?vid=0790d08c-80dd-4b22-b28c-7f4a0829db47","ios":"levelo://app?vid=0790d08c-80dd-4b22-b28c-7f4a0829db47"},"vehicle_type_id":"4","last_reported":1733940858,"current_range_meters":22400,"station_id":"ce4bh312rcd13ifvqdj0","pricing_plan_id":"cebpf4jnsgd1na2vs0mg"},{"bike_id":"6ff81125-71bf-40cc-a5d6-cc392c4e7a61","system_id":"levelo_inurba_marseille","lat":43.31756,"lon":5.39006,"is_reserved":false,"is_disabled":false,"rental_uris":{"android":"levelo://app?vid=6ff81125-71bf-40cc-a5d6-cc392c4e7a61","ios":"levelo://app?vid=6ff81125-71bf-40cc-a5d6-cc392c4e7a61"},"vehicle_type_id":"4","last_reported":1733940858,"current_range_meters":16000,"station_id":"ce4bhqp2rcd13ifvqhng","pricing_plan_id":"cebpf4jnsgd1na2vs0mg"},{"bike_id":"32081c96-f1c7-433b-932f-7b311ba352c3","system_id":"levelo_inurba_marseille","lat":43.23182,"lon":5.39987,"is_reserved":false,"is_disabled":false,"rental_uris":{"android":"levelo://app?vid=32081c96-f1c7-433b-932f-7b311ba352c3","ios":"levelo://app?vid=32081c96-f1c7-433b-932f-7b311ba352c3"},"vehicle_type_id":"4","last_reported":1733940858,"current_range_meters":32400,"station_id":"ce4bhn12rcd13ifvqgqg","pricing_plan_id":"cebpf4jnsgd1na2vs0mg"},{"bike_id":"e2a04847-f1bc-46db-b0bd-d70ff337a765","system_id":"levelo_inurba_marseille","lat":43.2945,"lon":5.39738,"is_reserved":false,"is_disabled":false,"rental_uris":{"android":"levelo://app?vid=e2a04847-f1bc-46db-b0bd-d70ff337a765","ios":"levelo://app?vid=e2a04847-f1bc-46db-b0bd-d70ff337a765"},"vehicle_type_id":"4","last_reported":1733940858,"current_range_meters":30800,"station_id":"ce4bh3h2rcd13ifvqdo0","pricing_plan_id":"cebpf4jnsgd1na2vs0mg"},{"bike_id":"ef1675a4-1a15-40b4-af8d-26ca4e4efdd1","system_id":"levelo_inurba_marseille","lat":43.28692,"lon":5.3739,"is_reserved":false,"is_disabled":false,"rental_uris":{"android":"levelo://app?vid=ef1675a4-1a15-40b4-af8d-26ca4e4efdd1","ios":"levelo://app?vid=ef1675a4-1a15-40b4-af8d-26ca4e4efdd1"},"vehicle_type_id":"4","last_reported":1733940858,"current_range_meters":39200,"station_id":"ce4bh3p2rcd13ifvqdq0","pricing_plan_id":"cebpf4jnsgd1na2vs0mg"},{"bike_id":"f88bc0d9-0ce8-4b54-88ef-89233a403f26","system_id":"levelo_inurba_marseille","lat":43.31365,"lon":5.38495,"is_reserved":false,"is_disabled":false,"rental_uris":{"android":"levelo://app?vid=f88bc0d9-0ce8-4b54-88ef-89233a403f26","ios":"levelo://app?vid=f88bc0d9-0ce8-4b54-88ef-89233a403f26"},"vehicle_type_id":"4","last_reported":1733940858,"current_range_meters":10000,"station_id":"ce4bgt92rcd13ifvqcf0","pricing_plan_id":"cebpf4jnsgd1na2vs0mg"},{"bike_id":"440c0882-719b-4b38-aba1-872c74c75218","system_id":"levelo_inurba_marseille","lat":43.32305,"lon":5.38243,"is_reserved":false,"is_disabled":false,"rental_uris":{"android":"levelo://app?vid=440c0882-719b-4b38-aba1-872c74c75218","ios":"levelo://app?vid=440c0882-719b-4b38-aba1-872c74c75218"},"vehicle_type_id":"4","last_reported":1733940858,"current_range_meters":38800,"station_id":"ce4bhr12rcd13ifvqhqg","pricing_plan_id":"cebpf4jnsgd1na2vs0mg"},{"bike_id":"f7cab906-0963-4533-84f9-e97c050d194f","system_id":"levelo_inurba_marseille","lat":43.24389,"lon":5.37066,"is_reserved":false,"is_disabled":false,"rental_uris":{"android":"levelo://app?vid=f7cab906-0963-4533-84f9-e97c050d194f","ios":"levelo://app?vid=f7cab906-0963-4533-84f9-e97c050d194f"},"vehicle_type_id":"4","last_reported":1733940858,"current_range_meters":38000,"station_id":"ce4bhhh2rcd13ifvqfk0","pricing_plan_id":"cebpf4jnsgd1na2vs0mg"},{"bike_id":"f5a9c30f-bbdd-407f-a05d-52fea426daec","system_id":"levelo_inurba_marseille","lat":43.26929,"lon":5.38641,"is_reserved":false,"is_disabled":false,"rental_uris":{"android":"levelo://app?vid=f5a9c30f-bbdd-407f-a05d-52fea426daec","ios":"levelo://app?vid=f5a9c30f-bbdd-407f-a05d-52fea426daec"},"vehicle_type_id":"4","last_reported":1733940858,"current_range_meters":38000,"station_id":"ce4bhh92rcd13ifvqfh0","pricing_plan_id":"cebpf4jnsgd1na2vs0mg"},{"bike_id":"accc15c2-75c8-4823-a61f-1d4d7e399167","system_id":"levelo_inurba_marseille","lat":43.2942,"lon":5.38612,"is_reserved":false,"is_disabled":true,"rental_uris":{"android":"levelo://app?vid=accc15c2-75c8-4823-a61f-1d4d7e399167","ios":"levelo://app?vid=accc15c2-75c8-4823-a61f-1d4d7e399167"},"vehicle_type_id":"4","last_reported":1733940858,"current_range_meters":10000,"station_id":"ce4bh2h2rcd13ifvqdh0","pricing_plan_id":"cebpf4jnsgd1na2vs0mg"},{"bike_id":"171d2cf0-f023-4b4a-ac99-8bdf9d6409af","system_id":"levelo_inurba_marseille","lat":43.29531,"lon":5.39393,"is_reserved":false,"is_disabled":false,"rental_uris":{"android":"levelo://app?vid=171d2cf0-f023-4b4a-ac99-8bdf9d6409af","ios":"levelo://app?vid=171d2cf0-f023-4b4a-ac99-8bdf9d6409af"},"vehicle_type_id":"4","last_reported":1733940858,"current_range_meters":10000,"station_id":"ce4bh292rcd13ifvqdf0","pricing_plan_id":"cebpf4jnsgd1na2vs0mg"},{"bike_id":"20dec2c9-ca70-4520-b174-a81f4e369962","system_id":"levelo_inurba_marseille","lat":43.29552,"lon":5.42284,"is_reserved":false,"is_disabled":false,"rental_uris":{"android":"levelo://app?vid=20dec2c9-ca70-4520-b174-a81f4e369962","ios":"levelo://app?vid=20dec2c9-ca70-4520-b174-a81f4e369962"},"vehicle_type_id":"4","last_reported":1733940858,"current_range_meters":36400,"station_id":"ce4bhph2rcd13ifvqhdg","pricing_plan_id":"cebpf4jnsgd1na2vs0mg"},{"bike_id":"588d87c5-6ab0-43c3-ab95-40447d957df1","system_id":"levelo_inurba_marseille","lat":43.32483,"lon":5.36559,"is_reserved":false,"is_disabled":true,"rental_uris":{"android":"levelo://app?vid=588d87c5-6ab0-43c3-ab95-40447d957df1","ios":"levelo://app?vid=588d87c5-6ab0-43c3-ab95-40447d957df1"},"vehicle_type_id":"4","last_reported":1733940858,"current_range_meters":2800,"station_id":"ce4bhs12rcd13ifvqhvg","pricing_plan_id":"cebpf4jnsgd1na2vs0mg"},{"bike_id":"2c014ae4-7d58-406f-a0f3-e7beffdd9a3b","system_id":"levelo_inurba_marseille","lat":43.30117,"lon":5.39068,"is_reserved":false,"is_disabled":true,"rental_uris":{"android":"levelo://app?vid=2c014ae4-7d58-406f-a0f3-e7beffdd9a3b","ios":"levelo://app?vid=2c014ae4-7d58-406f-a0f3-e7beffdd9a3b"},"vehicle_type_id":"4","last_reported":1733940858,"current_range_meters":30800,"station_id":"ce4bh192rcd13ifvqdb0","pricing_plan_id":"cebpf4jnsgd1na2vs0mg"},{"bike_id":"f053eb9e-5241-4a9c-b6f1-6b0e8a400961","system_id":"levelo_inurba_marseille","lat":43.30796,"lon":5.43523,"is_reserved":false,"is_disabled":false,"rental_uris":{"android":"levelo://app?vid=f053eb9e-5241-4a9c-b6f1-6b0e8a400961","ios":"levelo://app?vid=f053eb9e-5241-4a9c-b6f1-6b0e8a400961"},"vehicle_type_id":"4","last_reported":1733940858,"current_range_meters":17200,"station_id":"ce4bhph2rcd13ifvqheg","pricing_plan_id":"cebpf4jnsgd1na2vs0mg"},{"bike_id":"e966d2c7-c9e1-4cb1-9a39-6325607b0be4","system_id":"levelo_inurba_marseille","lat":43.337444,"lon":5.374475,"is_reserved":false,"is_disabled":true,"rental_uris":{"android":"levelo://app?vid=e966d2c7-c9e1-4cb1-9a39-6325607b0be4","ios":"levelo://app?vid=e966d2c7-c9e1-4cb1-9a39-6325607b0be4"},"vehicle_type_id":"4","last_reported":1733940858,"current_range_meters":0,"station_id":"","pricing_plan_id":"cebpf4jnsgd1na2vs0mg"},{"bike_id":"dd653a65-1017-4557-bdb2-20955e8cbed6","system_id":"levelo_inurba_marseille","lat":43.27993,"lon":5.40017,"is_reserved":false,"is_disabled":false,"rental_uris":{"android":"levelo://app?vid=dd653a65-1017-4557-bdb2-20955e8cbed6","ios":"levelo://app?vid=dd653a65-1017-4557-bdb2-20955e8cbed6"},"vehicle_type_id":"4","last_reported":1733940858,"current_range_meters":27200,"station_id":"ce4bho92rcd13ifvqh4g","pricing_plan_id":"cebpf4jnsgd1na2vs0mg"},{"bike_id":"312bb54d-7981-48b2-bad1-cc0be49295b2","system_id":"levelo_inurba_marseille","lat":43.28853,"lon":5.35844,"is_reserved":false,"is_disabled":false,"rental_uris":{"android":"levelo://app?vid=312bb54d-7981-48b2-bad1-cc0be49295b2","ios":"levelo://app?vid=312bb54d-7981-48b2-bad1-cc0be49295b2"},"vehicle_type_id":"4","last_reported":1733940858,"current_range_meters":36400,"station_id":"ce4bhb12rcd13ifvqem0","pricing_plan_id":"cebpf4jnsgd1na2vs0mg"},{"bike_id":"f0a4f587-2333-4a7a-8819-09121e495e1b","system_id":"levelo_inurba_marseille","lat":43.22935,"lon":5.35368,"is_reserved":false,"is_disabled":false,"rental_uris":{"android":"levelo://app?vid=f0a4f587-2333-4a7a-8819-09121e495e1b","ios":"levelo://app?vid=f0a4f587-2333-4a7a-8819-09121e495e1b"},"vehicle_type_id":"4","last_reported":1733940858,"current_range_meters":12400,"station_id":"cpo3532slgdg3j2ikp40","pricing_plan_id":"cebpf4jnsgd1na2vs0mg"},{"bike_id":"2dc9aa74-69ff-4394-843e-e42cabc0b059","system_id":"levelo_inurba_marseille","lat":43.28707,"lon":5.37372,"is_reserved":false,"is_disabled":true,"rental_uris":{"android":"levelo://app?vid=2dc9aa74-69ff-4394-843e-e42cabc0b059","ios":"levelo://app?vid=2dc9aa74-69ff-4394-843e-e42cabc0b059"},"vehicle_type_id":"4","last_reported":1733940858,"current_range_meters":0,"station_id":"ce4bh3p2rcd13ifvqdq0","pricing_plan_id":"cebpf4jnsgd1na2vs0mg"},{"bike_id":"fb3b8852-30cd-47f6-b487-2a14152a377e","system_id":"levelo_inurba_marseille","lat":43.29706,"lon":5.36599,"is_reserved":false,"is_disabled":false,"rental_uris":{"android":"levelo://app?vid=fb3b8852-30cd-47f6-b487-2a14152a377e","ios":"levelo://app?vid=fb3b8852-30cd-47f6-b487-2a14152a377e"},"vehicle_type_id":"4","last_reported":1733940858,"current_range_meters":3600,"station_id":"ce4bgn12rcd13ifvqbt0","pricing_plan_id":"cebpf4jnsgd1na2vs0mg"},{"bike_id":"17f59de1-b3ce-4e3a-95ec-402199b35e46","system_id":"levelo_inurba_marseille","lat":43.24647,"lon":5.38887,"is_reserved":false,"is_disabled":false,"rental_uris":{"android":"levelo://app?vid=17f59de1-b3ce-4e3a-95ec-402199b35e46","ios":"levelo://app?vid=17f59de1-b3ce-4e3a-95ec-402199b35e46"},"vehicle_type_id":"4","last_reported":1733940858,"current_range_meters":30400,"station_id":"ce4bhg12rcd13ifvqf60","pricing_plan_id":"cebpf4jnsgd1na2vs0mg"},{"bike_id":"e2b090ff-7c7f-4d4a-8f5b-c317e750043e","system_id":"levelo_inurba_marseille","lat":43.27072,"lon":5.42278,"is_reserved":false,"is_disabled":true,"rental_uris":{"android":"levelo://app?vid=e2b090ff-7c7f-4d4a-8f5b-c317e750043e","ios":"levelo://app?vid=e2b090ff-7c7f-4d4a-8f5b-c317e750043e"},"vehicle_type_id":"4","last_reported":1733940858,"current_range_meters":400,"station_id":"ce4bhk92rcd13ifvqgb0","pricing_plan_id":"cebpf4jnsgd1na2vs0mg"},{"bike_id":"1802c294-deb8-4890-b7ca-3e995fd26543","system_id":"levelo_inurba_marseille","lat":43.27066,"lon":5.42273,"is_reserved":false,"is_disabled":false,"rental_uris":{"android":"levelo://app?vid=1802c294-deb8-4890-b7ca-3e995fd26543","ios":"levelo://app?vid=1802c294-deb8-4890-b7ca-3e995fd26543"},"vehicle_type_id":"4","last_reported":1733940858,"current_range_meters":37600,"station_id":"ce4bhk92rcd13ifvqgb0","pricing_plan_id":"cebpf4jnsgd1na2vs0mg"},{"bike_id":"58cf3891-dd94-4bdf-8a77-a287a3f2609a","system_id":"levelo_inurba_marseille","lat":43.2439,"lon":5.37064,"is_reserved":false,"is_disabled":false,"rental_uris":{"android":"levelo://app?vid=58cf3891-dd94-4bdf-8a77-a287a3f2609a","ios":"levelo://app?vid=58cf3891-dd94-4bdf-8a77-a287a3f2609a"},"vehicle_type_id":"4","last_reported":1733940858,"current_range_meters":28400,"station_id":"ce4bhhh2rcd13ifvqfk0","pricing_plan_id":"cebpf4jnsgd1na2vs0mg"},{"bike_id":"fe4d47c1-dfb5-4e68-bfe4-126efd20c0c3","system_id":"levelo_inurba_marseille","lat":43.30792,"lon":5.37344,"is_reserved":false,"is_disabled":false,"rental_uris":{"android":"levelo://app?vid=fe4d47c1-dfb5-4e68-bfe4-126efd20c0c3","ios":"levelo://app?vid=fe4d47c1-dfb5-4e68-bfe4-126efd20c0c3"},"vehicle_type_id":"4","last_reported":1733940858,"current_range_meters":25200,"station_id":"","pricing_plan_id":"cebpf4jnsgd1na2vs0mg"},{"bike_id":"c92ad14c-6813-4c4d-97fa-fd4a2cb9c2fc","system_id":"levelo_inurba_marseille","lat":43.27949,"lon":5.41045,"is_reserved":false,"is_disabled":true,"rental_uris":{"android":"levelo://app?vid=c92ad14c-6813-4c4d-97fa-fd4a2cb9c2fc","ios":"levelo://app?vid=c92ad14c-6813-4c4d-97fa-fd4a2cb9c2fc"},"vehicle_type_id":"4","last_reported":1733940858,"current_range_meters":0,"station_id":"ce4bhnp2rcd13ifvqh0g","pricing_plan_id":"cebpf4jnsgd1na2vs0mg"},{"bike_id":"c346be12-582d-42dc-8dce-5e128ded35bf","system_id":"levelo_inurba_marseille","lat":43.32002,"lon":5.38158,"is_reserved":false,"is_disabled":false,"rental_uris":{"android":"levelo://app?vid=c346be12-582d-42dc-8dce-5e128ded35bf","ios":"levelo://app?vid=c346be12-582d-42dc-8dce-5e128ded35bf"},"vehicle_type_id":"4","last_reported":1733940858,"current_range_meters":24800,"station_id":"ce4bhr12rcd13ifvqhpg","pricing_plan_id":"cebpf4jnsgd1na2vs0mg"},{"bike_id":"a433edd7-9f79-4aeb-97ab-50801596a6fa","system_id":"levelo_inurba_marseille","lat":43.29019,"lon":5.37472,"is_reserved":false,"is_disabled":false,"rental_uris":{"android":"levelo://app?vid=a433edd7-9f79-4aeb-97ab-50801596a6fa","ios":"levelo://app?vid=a433edd7-9f79-4aeb-97ab-50801596a6fa"},"vehicle_type_id":"4","last_reported":1733940858,"current_range_meters":36800,"station_id":"","pricing_plan_id":"cebpf4jnsgd1na2vs0mg"},{"bike_id":"097a41bf-6635-41a6-b7a7-1173cae29ada","system_id":"levelo_inurba_marseille","lat":43.22945,"lon":5.35379,"is_reserved":false,"is_disabled":false,"rental_uris":{"android":"levelo://app?vid=097a41bf-6635-41a6-b7a7-1173cae29ada","ios":"levelo://app?vid=097a41bf-6635-41a6-b7a7-1173cae29ada"},"vehicle_type_id":"4","last_reported":1733940858,"current_range_meters":39200,"station_id":"cpo3532slgdg3j2ikp40","pricing_plan_id":"cebpf4jnsgd1na2vs0mg"},{"bike_id":"a90ab59e-9775-4bc6-a3e9-285e464122de","system_id":"levelo_inurba_marseille","lat":43.24652,"lon":5.38883,"is_reserved":false,"is_disabled":false,"rental_uris":{"android":"levelo://app?vid=a90ab59e-9775-4bc6-a3e9-285e464122de","ios":"levelo://app?vid=a90ab59e-9775-4bc6-a3e9-285e464122de"},"vehicle_type_id":"4","last_reported":1733940858,"current_range_meters":38000,"station_id":"ce4bhg12rcd13ifvqf60","pricing_plan_id":"cebpf4jnsgd1na2vs0mg"},{"bike_id":"94ad1b8a-e8b1-4098-a4c2-9aa4fae8756e","system_id":"levelo_inurba_marseille","lat":43.29889,"lon":5.38893,"is_reserved":false,"is_disabled":true,"rental_uris":{"android":"levelo://app?vid=94ad1b8a-e8b1-4098-a4c2-9aa4fae8756e","ios":"levelo://app?vid=94ad1b8a-e8b1-4098-a4c2-9aa4fae8756e"},"vehicle_type_id":"4","last_reported":1733940858,"current_range_meters":800,"station_id":"ce4bh392rcd13ifvqdl0","pricing_plan_id":"cebpf4jnsgd1na2vs0mg"},{"bike_id":"e08a3c45-9a07-474f-9717-a27fa81c4ce9","system_id":"levelo_inurba_marseille","lat":43.30776,"lon":5.38758,"is_reserved":false,"is_disabled":true,"rental_uris":{"android":"levelo://app?vid=e08a3c45-9a07-474f-9717-a27fa81c4ce9","ios":"levelo://app?vid=e08a3c45-9a07-474f-9717-a27fa81c4ce9"},"vehicle_type_id":"4","last_reported":1733940858,"current_range_meters":800,"station_id":"","pricing_plan_id":"cebpf4jnsgd1na2vs0mg"},{"bike_id":"d23c970f-9cd0-47d8-97e5-d321688af65d","system_id":"levelo_inurba_marseille","lat":43.33028,"lon":5.39032,"is_reserved":false,"is_disabled":false,"rental_uris":{"android":"levelo://app?vid=d23c970f-9cd0-47d8-97e5-d321688af65d","ios":"levelo://app?vid=d23c970f-9cd0-47d8-97e5-d321688af65d"},"vehicle_type_id":"4","last_reported":1733940858,"current_range_meters":6400,"station_id":"ce4bhr92rcd13ifvqhrg","pricing_plan_id":"cebpf4jnsgd1na2vs0mg"},{"bike_id":"defeba3c-b5a8-4e4d-bb69-6f8e0a121c09","system_id":"levelo_inurba_marseille","lat":43.30222,"lon":5.39005,"is_reserved":false,"is_disabled":false,"rental_uris":{"android":"levelo://app?vid=defeba3c-b5a8-4e4d-bb69-6f8e0a121c09","ios":"levelo://app?vid=defeba3c-b5a8-4e4d-bb69-6f8e0a121c09"},"vehicle_type_id":"4","last_reported":1733940858,"current_range_meters":23200,"station_id":"ce4bhr92rcd13ifvqhrg","pricing_plan_id":"cebpf4jnsgd1na2vs0mg"},{"bike_id":"0d514f68-29b7-4049-844a-493370863f98","system_id":"levelo_inurba_marseille","lat":43.28346,"lon":5.38112,"is_reserved":false,"is_disabled":true,"rental_uris":{"android":"levelo://app?vid=0d514f68-29b7-4049-844a-493370863f98","ios":"levelo://app?vid=0d514f68-29b7-4049-844a-493370863f98"},"vehicle_type_id":"4","last_reported":1733940858,"current_range_meters":24800,"station_id":"ce4bh412rcd13ifvqdr0","pricing_plan_id":"cebpf4jnsgd1na2vs0mg"},{"bike_id":"bc119752-b234-4c77-b416-1126eb4f816b","system_id":"levelo_inurba_marseille","lat":43.25578,"lon":5.3823,"is_reserved":false,"is_disabled":false,"rental_uris":{"android":"levelo://app?vid=bc119752-b234-4c77-b416-1126eb4f816b","ios":"levelo://app?vid=bc119752-b234-4c77-b416-1126eb4f816b"},"vehicle_type_id":"4","last_reported":1733940858,"current_range_meters":37600,"station_id":"ce4bhih2rcd13ifvqfs0","pricing_plan_id":"cebpf4jnsgd1na2vs0mg"},{"bike_id":"e3f5cbcc-c0d9-4ed4-96fa-131656aa7cf7","system_id":"levelo_inurba_marseille","lat":43.29608,"lon":5.37516,"is_reserved":false,"is_disabled":true,"rental_uris":{"android":"levelo://app?vid=e3f5cbcc-c0d9-4ed4-96fa-131656aa7cf7","ios":"levelo://app?vid=e3f5cbcc-c0d9-4ed4-96fa-131656aa7cf7"},"vehicle_type_id":"4","last_reported":1733940858,"current_range_meters":36800,"station_id":"ce4bgh92rcd13ifvqb50","pricing_plan_id":"cebpf4jnsgd1na2vs0mg"},{"bike_id":"a56f9de4-6a91-4720-9e75-282f862dc823","system_id":"levelo_inurba_marseille","lat":43.2418,"lon":5.39726,"is_reserved":false,"is_disabled":false,"rental_uris":{"android":"levelo://app?vid=a56f9de4-6a91-4720-9e75-282f862dc823","ios":"levelo://app?vid=a56f9de4-6a91-4720-9e75-282f862dc823"},"vehicle_type_id":"4","last_reported":1733940858,"current_range_meters":20400,"station_id":"ce4bhn12rcd13ifvqgpg","pricing_plan_id":"cebpf4jnsgd1na2vs0mg"},{"bike_id":"f7fcb6a3-970c-4033-a868-3df87388592c","system_id":"levelo_inurba_marseille","lat":43.30891,"lon":5.37188,"is_reserved":false,"is_disabled":false,"rental_uris":{"android":"levelo://app?vid=f7fcb6a3-970c-4033-a868-3df87388592c","ios":"levelo://app?vid=f7fcb6a3-970c-4033-a868-3df87388592c"},"vehicle_type_id":"4","last_reported":1733940858,"current_range_meters":8400,"station_id":"ce4bguh2rcd13ifvqckg","pricing_plan_id":"cebpf4jnsgd1na2vs0mg"},{"bike_id":"af77a2c4-4f01-4eac-8bd5-698508bacd7c","system_id":"levelo_inurba_marseille","lat":43.27178,"lon":5.40995,"is_reserved":false,"is_disabled":false,"rental_uris":{"android":"levelo://app?vid=af77a2c4-4f01-4eac-8bd5-698508bacd7c","ios":"levelo://app?vid=af77a2c4-4f01-4eac-8bd5-698508bacd7c"},"vehicle_type_id":"4","last_reported":1733940858,"current_range_meters":24000,"station_id":"ce4bhl12rcd13ifvqgf0","pricing_plan_id":"cebpf4jnsgd1na2vs0mg"},{"bike_id":"e2a77f5d-1d63-4243-bf72-8b9ec30686b1","system_id":"levelo_inurba_marseille","lat":43.28714,"lon":5.37934,"is_reserved":false,"is_disabled":true,"rental_uris":{"android":"levelo://app?vid=e2a77f5d-1d63-4243-bf72-8b9ec30686b1","ios":"levelo://app?vid=e2a77f5d-1d63-4243-bf72-8b9ec30686b1"},"vehicle_type_id":"4","last_reported":1733940858,"current_range_meters":34000,"station_id":"ce4bh9p2rcd13ifvqec0","pricing_plan_id":"cebpf4jnsgd1na2vs0mg"},{"bike_id":"1a6c2e40-cc83-4202-a877-31ef6d077395","system_id":"levelo_inurba_marseille","lat":43.27179,"lon":5.40985,"is_reserved":false,"is_disabled":false,"rental_uris":{"android":"levelo://app?vid=1a6c2e40-cc83-4202-a877-31ef6d077395","ios":"levelo://app?vid=1a6c2e40-cc83-4202-a877-31ef6d077395"},"vehicle_type_id":"4","last_reported":1733940858,"current_range_meters":36800,"station_id":"ce4bhl12rcd13ifvqgf0","pricing_plan_id":"cebpf4jnsgd1na2vs0mg"},{"bike_id":"1c6a1060-cbf4-4ffc-840a-2ea0eec59224","system_id":"levelo_inurba_marseille","lat":43.27963,"lon":5.41038,"is_reserved":false,"is_disabled":false,"rental_uris":{"android":"levelo://app?vid=1c6a1060-cbf4-4ffc-840a-2ea0eec59224","ios":"levelo://app?vid=1c6a1060-cbf4-4ffc-840a-2ea0eec59224"},"vehicle_type_id":"4","last_reported":1733940858,"current_range_meters":7200,"station_id":"ce4bhnp2rcd13ifvqh0g","pricing_plan_id":"cebpf4jnsgd1na2vs0mg"},{"bike_id":"57c12ccf-3aaf-44f6-aaef-1d9e901a91ee","system_id":"levelo_inurba_marseille","lat":43.30132,"lon":5.39855,"is_reserved":false,"is_disabled":false,"rental_uris":{"android":"levelo://app?vid=57c12ccf-3aaf-44f6-aaef-1d9e901a91ee","ios":"levelo://app?vid=57c12ccf-3aaf-44f6-aaef-1d9e901a91ee"},"vehicle_type_id":"4","last_reported":1733940858,"current_range_meters":13600,"station_id":"ce4bh0h2rcd13ifvqd40","pricing_plan_id":"cebpf4jnsgd1na2vs0mg"},{"bike_id":"85f1a614-bc73-47a8-9e08-299227af6e7a","system_id":"levelo_inurba_marseille","lat":43.30891,"lon":5.37193,"is_reserved":false,"is_disabled":false,"rental_uris":{"android":"levelo://app?vid=85f1a614-bc73-47a8-9e08-299227af6e7a","ios":"levelo://app?vid=85f1a614-bc73-47a8-9e08-299227af6e7a"},"vehicle_type_id":"4","last_reported":1733940858,"current_range_meters":17200,"station_id":"ce4bguh2rcd13ifvqckg","pricing_plan_id":"cebpf4jnsgd1na2vs0mg"},{"bike_id":"a66c4b95-337e-4b9a-950c-e8c8d8e7a3a1","system_id":"levelo_inurba_marseille","lat":43.324799,"lon":5.365716,"is_reserved":false,"is_disabled":true,"rental_uris":{"android":"levelo://app?vid=a66c4b95-337e-4b9a-950c-e8c8d8e7a3a1","ios":"levelo://app?vid=a66c4b95-337e-4b9a-950c-e8c8d8e7a3a1"},"vehicle_type_id":"4","last_reported":1733940858,"current_range_meters":0,"station_id":"","pricing_plan_id":"cebpf4jnsgd1na2vs0mg"},{"bike_id":"22659e6d-d251-483f-9183-2cfa6f5d1dfb","system_id":"levelo_inurba_marseille","lat":43.31365,"lon":5.36693,"is_reserved":false,"is_disabled":true,"rental_uris":{"android":"levelo://app?vid=22659e6d-d251-483f-9183-2cfa6f5d1dfb","ios":"levelo://app?vid=22659e6d-d251-483f-9183-2cfa6f5d1dfb"},"vehicle_type_id":"4","last_reported":1733940858,"current_range_meters":0,"station_id":"ce4bgr92rcd13ifvqc6g","pricing_plan_id":"cebpf4jnsgd1na2vs0mg"},{"bike_id":"ca9f0bad-e8dd-455c-ad54-b8b1db730810","system_id":"levelo_inurba_marseille","lat":43.33727,"lon":5.39184,"is_reserved":false,"is_disabled":false,"rental_uris":{"android":"levelo://app?vid=ca9f0bad-e8dd-455c-ad54-b8b1db730810","ios":"levelo://app?vid=ca9f0bad-e8dd-455c-ad54-b8b1db730810"},"vehicle_type_id":"4","last_reported":1733940858,"current_range_meters":37600,"station_id":"ce4bhr92rcd13ifvqhsg","pricing_plan_id":"cebpf4jnsgd1na2vs0mg"},{"bike_id":"4b6ab6f2-3731-4710-b5fa-3ba990bb9aca","system_id":"levelo_inurba_marseille","lat":43.29038,"lon":5.38118,"is_reserved":false,"is_disabled":true,"rental_uris":{"android":"levelo://app?vid=4b6ab6f2-3731-4710-b5fa-3ba990bb9aca","ios":"levelo://app?vid=4b6ab6f2-3731-4710-b5fa-3ba990bb9aca"},"vehicle_type_id":"4","last_reported":1733940858,"current_range_meters":38000,"station_id":"ce4bh4p2rcd13ifvqe1g","pricing_plan_id":"cebpf4jnsgd1na2vs0mg"},{"bike_id":"99e2bdd8-19f3-480c-94f4-55411f72ccb5","system_id":"levelo_inurba_marseille","lat":43.28152,"lon":5.42642,"is_reserved":false,"is_disabled":false,"rental_uris":{"android":"levelo://app?vid=99e2bdd8-19f3-480c-94f4-55411f72ccb5","ios":"levelo://app?vid=99e2bdd8-19f3-480c-94f4-55411f72ccb5"},"vehicle_type_id":"4","last_reported":1733940858,"current_range_meters":13600,"station_id":"ce4bhnh2rcd13ifvqgug","pricing_plan_id":"cebpf4jnsgd1na2vs0mg"},{"bike_id":"36c22a16-66d2-4f78-a6c0-ae41b756b49e","system_id":"levelo_inurba_marseille","lat":43.30956,"lon":5.39029,"is_reserved":false,"is_disabled":true,"rental_uris":{"android":"levelo://app?vid=36c22a16-66d2-4f78-a6c0-ae41b756b49e","ios":"levelo://app?vid=36c22a16-66d2-4f78-a6c0-ae41b756b49e"},"vehicle_type_id":"4","last_reported":1733940858,"current_range_meters":38800,"station_id":"ce4bgup2rcd13ifvqco0","pricing_plan_id":"cebpf4jnsgd1na2vs0mg"},{"bike_id":"3c7d8956-07af-4408-ae94-63514d5e362d","system_id":"levelo_inurba_marseille","lat":43.24649,"lon":5.38899,"is_reserved":false,"is_disabled":false,"rental_uris":{"android":"levelo://app?vid=3c7d8956-07af-4408-ae94-63514d5e362d","ios":"levelo://app?vid=3c7d8956-07af-4408-ae94-63514d5e362d"},"vehicle_type_id":"4","last_reported":1733940858,"current_range_meters":38800,"station_id":"ce4bhg12rcd13ifvqf60","pricing_plan_id":"cebpf4jnsgd1na2vs0mg"},{"bike_id":"2175ae3c-739a-49a6-8b88-c695a996a497","system_id":"levelo_inurba_marseille","lat":43.24072,"lon":5.37742,"is_reserved":false,"is_disabled":true,"rental_uris":{"android":"levelo://app?vid=2175ae3c-739a-49a6-8b88-c695a996a497","ios":"levelo://app?vid=2175ae3c-739a-49a6-8b88-c695a996a497"},"vehicle_type_id":"4","last_reported":1733940858,"current_range_meters":36000,"station_id":"ce4bhnp2rcd13ifvqgvg","pricing_plan_id":"cebpf4jnsgd1na2vs0mg"},{"bike_id":"168a0367-4046-4ce9-b14d-f0b5b56bf3a0","system_id":"levelo_inurba_marseille","lat":43.32654,"lon":5.40993,"is_reserved":false,"is_disabled":false,"rental_uris":{"android":"levelo://app?vid=168a0367-4046-4ce9-b14d-f0b5b56bf3a0","ios":"levelo://app?vid=168a0367-4046-4ce9-b14d-f0b5b56bf3a0"},"vehicle_type_id":"4","last_reported":1733940858,"current_range_meters":38000,"station_id":"ce4bhpp2rcd13ifvqhgg","pricing_plan_id":"cebpf4jnsgd1na2vs0mg"},{"bike_id":"bbcff5ca-4212-4f97-ad4e-cc9f02df715c","system_id":"levelo_inurba_marseille","lat":43.23193,"lon":5.39987,"is_reserved":false,"is_disabled":false,"rental_uris":{"android":"levelo://app?vid=bbcff5ca-4212-4f97-ad4e-cc9f02df715c","ios":"levelo://app?vid=bbcff5ca-4212-4f97-ad4e-cc9f02df715c"},"vehicle_type_id":"4","last_reported":1733940858,"current_range_meters":4800,"station_id":"ce4bhn12rcd13ifvqgqg","pricing_plan_id":"cebpf4jnsgd1na2vs0mg"},{"bike_id":"8453ac0b-4951-40e7-9b2c-960ae19641d9","system_id":"levelo_inurba_marseille","lat":43.31325,"lon":5.397,"is_reserved":false,"is_disabled":false,"rental_uris":{"android":"levelo://app?vid=8453ac0b-4951-40e7-9b2c-960ae19641d9","ios":"levelo://app?vid=8453ac0b-4951-40e7-9b2c-960ae19641d9"},"vehicle_type_id":"4","last_reported":1733940858,"current_range_meters":38800,"station_id":"ce4bgvp2rcd13ifvqcu0","pricing_plan_id":"cebpf4jnsgd1na2vs0mg"},{"bike_id":"220967ef-ebc3-4aee-b33d-2883170b09db","system_id":"levelo_inurba_marseille","lat":43.28655,"lon":5.36348,"is_reserved":false,"is_disabled":false,"rental_uris":{"android":"levelo://app?vid=220967ef-ebc3-4aee-b33d-2883170b09db","ios":"levelo://app?vid=220967ef-ebc3-4aee-b33d-2883170b09db"},"vehicle_type_id":"4","last_reported":1733940858,"current_range_meters":33600,"station_id":"ce4bhah2rcd13ifvqej0","pricing_plan_id":"cebpf4jnsgd1na2vs0mg"},{"bike_id":"62dc3d6f-14e9-4572-8025-9eaf9b53e0fb","system_id":"levelo_inurba_marseille","lat":43.28606,"lon":5.37058,"is_reserved":false,"is_disabled":false,"rental_uris":{"android":"levelo://app?vid=62dc3d6f-14e9-4572-8025-9eaf9b53e0fb","ios":"levelo://app?vid=62dc3d6f-14e9-4572-8025-9eaf9b53e0fb"},"vehicle_type_id":"4","last_reported":1733940858,"current_range_meters":39200,"station_id":"ce4bht12rcd13ifvqi60","pricing_plan_id":"cebpf4jnsgd1na2vs0mg"},{"bike_id":"07889f21-3396-479f-a226-34b7cc3b2b50","system_id":"levelo_inurba_marseille","lat":43.3137,"lon":5.38493,"is_reserved":false,"is_disabled":false,"rental_uris":{"android":"levelo://app?vid=07889f21-3396-479f-a226-34b7cc3b2b50","ios":"levelo://app?vid=07889f21-3396-479f-a226-34b7cc3b2b50"},"vehicle_type_id":"4","last_reported":1733940858,"current_range_meters":36400,"station_id":"ce4bgt92rcd13ifvqcf0","pricing_plan_id":"cebpf4jnsgd1na2vs0mg"},{"bike_id":"b2426fa6-a7f6-4c3b-9324-81d7895e0adb","system_id":"levelo_inurba_marseille","lat":43.29586,"lon":5.38076,"is_reserved":false,"is_disabled":true,"rental_uris":{"android":"levelo://app?vid=b2426fa6-a7f6-4c3b-9324-81d7895e0adb","ios":"levelo://app?vid=b2426fa6-a7f6-4c3b-9324-81d7895e0adb"},"vehicle_type_id":"4","last_reported":1733940858,"current_range_meters":400,"station_id":"ce4bgl12rcd13ifvqbo0","pricing_plan_id":"cebpf4jnsgd1na2vs0mg"},{"bike_id":"ab1c6a12-19ac-4afb-af5f-776c48efacd2","system_id":"levelo_inurba_marseille","lat":43.23206,"lon":5.35561,"is_reserved":false,"is_disabled":false,"rental_uris":{"android":"levelo://app?vid=ab1c6a12-19ac-4afb-af5f-776c48efacd2","ios":"levelo://app?vid=ab1c6a12-19ac-4afb-af5f-776c48efacd2"},"vehicle_type_id":"4","last_reported":1733940858,"current_range_meters":19600,"station_id":"ce4bhu92rcd13ifvqi70","pricing_plan_id":"cebpf4jnsgd1na2vs0mg"},{"bike_id":"034afd89-7884-46aa-947a-c5f301e52728","system_id":"levelo_inurba_marseille","lat":43.30892,"lon":5.39632,"is_reserved":false,"is_disabled":true,"rental_uris":{"android":"levelo://app?vid=034afd89-7884-46aa-947a-c5f301e52728","ios":"levelo://app?vid=034afd89-7884-46aa-947a-c5f301e52728"},"vehicle_type_id":"4","last_reported":1733940858,"current_range_meters":22800,"station_id":"ce4bh012rcd13ifvqcv0","pricing_plan_id":"cebpf4jnsgd1na2vs0mg"},{"bike_id":"8298dab2-43fc-4b2c-b20c-2960da57fd0d","system_id":"levelo_inurba_marseille","lat":43.26203,"lon":5.3743,"is_reserved":false,"is_disabled":false,"rental_uris":{"android":"levelo://app?vid=8298dab2-43fc-4b2c-b20c-2960da57fd0d","ios":"levelo://app?vid=8298dab2-43fc-4b2c-b20c-2960da57fd0d"},"vehicle_type_id":"4","last_reported":1733940858,"current_range_meters":38800,"station_id":"ce4bhgp2rcd13ifvqfc0","pricing_plan_id":"cebpf4jnsgd1na2vs0mg"},{"bike_id":"e7e35bef-8a1e-4fcb-a88e-b5f23b57bc7e","system_id":"levelo_inurba_marseille","lat":43.292678,"lon":5.384376,"is_reserved":false,"is_disabled":true,"rental_uris":{"android":"levelo://app?vid=e7e35bef-8a1e-4fcb-a88e-b5f23b57bc7e","ios":"levelo://app?vid=e7e35bef-8a1e-4fcb-a88e-b5f23b57bc7e"},"vehicle_type_id":"4","last_reported":1733940858,"current_range_meters":0,"station_id":"ce4bh692rcd13ifvqea0","pricing_plan_id":"cebpf4jnsgd1na2vs0mg"},{"bike_id":"a80873dc-1497-4320-b5f6-3f807856ded9","system_id":"levelo_inurba_marseille","lat":43.29577,"lon":5.3749,"is_reserved":false,"is_disabled":true,"rental_uris":{"android":"levelo://app?vid=a80873dc-1497-4320-b5f6-3f807856ded9","ios":"levelo://app?vid=a80873dc-1497-4320-b5f6-3f807856ded9"},"vehicle_type_id":"4","last_reported":1733940858,"current_range_meters":400,"station_id":"ce4bgh92rcd13ifvqb50","pricing_plan_id":"cebpf4jnsgd1na2vs0mg"},{"bike_id":"fee67aec-1d20-44ea-b25f-3c74e6415b90","system_id":"levelo_inurba_marseille","lat":43.27684,"lon":5.38878,"is_reserved":false,"is_disabled":false,"rental_uris":{"android":"levelo://app?vid=fee67aec-1d20-44ea-b25f-3c74e6415b90","ios":"levelo://app?vid=fee67aec-1d20-44ea-b25f-3c74e6415b90"},"vehicle_type_id":"4","last_reported":1733940858,"current_range_meters":27600,"station_id":"ce4bhi12rcd13ifvqfo0","pricing_plan_id":"cebpf4jnsgd1na2vs0mg"},{"bike_id":"1be2f911-5fc5-4852-be66-ffe435557077","system_id":"levelo_inurba_marseille","lat":43.24669,"lon":5.38166,"is_reserved":false,"is_disabled":false,"rental_uris":{"android":"levelo://app?vid=1be2f911-5fc5-4852-be66-ffe435557077","ios":"levelo://app?vid=1be2f911-5fc5-4852-be66-ffe435557077"},"vehicle_type_id":"4","last_reported":1733940858,"current_range_meters":38400,"station_id":"ce4bhih2rcd13ifvqfr0","pricing_plan_id":"cebpf4jnsgd1na2vs0mg"},{"bike_id":"1b9459f5-dcc2-4e43-84c1-999b14f8e0bb","system_id":"levelo_inurba_marseille","lat":43.25582,"lon":5.38217,"is_reserved":false,"is_disabled":false,"rental_uris":{"android":"levelo://app?vid=1b9459f5-dcc2-4e43-84c1-999b14f8e0bb","ios":"levelo://app?vid=1b9459f5-dcc2-4e43-84c1-999b14f8e0bb"},"vehicle_type_id":"4","last_reported":1733940858,"current_range_meters":18000,"station_id":"ce4bhih2rcd13ifvqfs0","pricing_plan_id":"cebpf4jnsgd1na2vs0mg"},{"bike_id":"edf8dc30-7d8a-4bb6-ae2f-1cee4f92deb5","system_id":"levelo_inurba_marseille","lat":43.27667,"lon":5.38881,"is_reserved":false,"is_disabled":false,"rental_uris":{"android":"levelo://app?vid=edf8dc30-7d8a-4bb6-ae2f-1cee4f92deb5","ios":"levelo://app?vid=edf8dc30-7d8a-4bb6-ae2f-1cee4f92deb5"},"vehicle_type_id":"4","last_reported":1733940858,"current_range_meters":32000,"station_id":"ce4bhi12rcd13ifvqfo0","pricing_plan_id":"cebpf4jnsgd1na2vs0mg"},{"bike_id":"f5569abb-ceb6-4fd2-81d0-e06532016e93","system_id":"levelo_inurba_marseille","lat":43.2987,"lon":5.39737,"is_reserved":false,"is_disabled":false,"rental_uris":{"android":"levelo://app?vid=f5569abb-ceb6-4fd2-81d0-e06532016e93","ios":"levelo://app?vid=f5569abb-ceb6-4fd2-81d0-e06532016e93"},"vehicle_type_id":"4","last_reported":1733940858,"current_range_meters":23200,"station_id":"ce4bh0h2rcd13ifvqd50","pricing_plan_id":"cebpf4jnsgd1na2vs0mg"},{"bike_id":"23ccb824-a4ed-4761-8a42-537290c5dd6d","system_id":"levelo_inurba_marseille","lat":43.3044,"lon":5.38887,"is_reserved":false,"is_disabled":false,"rental_uris":{"android":"levelo://app?vid=23ccb824-a4ed-4761-8a42-537290c5dd6d","ios":"levelo://app?vid=23ccb824-a4ed-4761-8a42-537290c5dd6d"},"vehicle_type_id":"4","last_reported":1733940858,"current_range_meters":38800,"station_id":"ce4bgk12rcd13ifvqbi0","pricing_plan_id":"cebpf4jnsgd1na2vs0mg"},{"bike_id":"06aea6f3-562f-4337-98eb-2f1af629b649","system_id":"levelo_inurba_marseille","lat":43.29343,"lon":5.37423,"is_reserved":false,"is_disabled":false,"rental_uris":{"android":"levelo://app?vid=06aea6f3-562f-4337-98eb-2f1af629b649","ios":"levelo://app?vid=06aea6f3-562f-4337-98eb-2f1af629b649"},"vehicle_type_id":"4","last_reported":1733940858,"current_range_meters":27600,"station_id":"","pricing_plan_id":"cebpf4jnsgd1na2vs0mg"},{"bike_id":"d0228f13-7365-4a54-9f1e-e59bebee287b","system_id":"levelo_inurba_marseille","lat":43.29554,"lon":5.42295,"is_reserved":false,"is_disabled":false,"rental_uris":{"android":"levelo://app?vid=d0228f13-7365-4a54-9f1e-e59bebee287b","ios":"levelo://app?vid=d0228f13-7365-4a54-9f1e-e59bebee287b"},"vehicle_type_id":"4","last_reported":1733940858,"current_range_meters":26800,"station_id":"ce4bhph2rcd13ifvqhdg","pricing_plan_id":"cebpf4jnsgd1na2vs0mg"},{"bike_id":"ee0186ce-5ee6-443a-aa7c-853a1e294ff2","system_id":"levelo_inurba_marseille","lat":43.29614,"lon":5.37708,"is_reserved":false,"is_disabled":true,"rental_uris":{"android":"levelo://app?vid=ee0186ce-5ee6-443a-aa7c-853a1e294ff2","ios":"levelo://app?vid=ee0186ce-5ee6-443a-aa7c-853a1e294ff2"},"vehicle_type_id":"4","last_reported":1733940858,"current_range_meters":23200,"station_id":"ce4bgi92rcd13ifvqb90","pricing_plan_id":"cebpf4jnsgd1na2vs0mg"},{"bike_id":"045f4361-6b03-4f8e-8dd2-e567ba0814cc","system_id":"levelo_inurba_marseille","lat":43.27053,"lon":5.40259,"is_reserved":false,"is_disabled":false,"rental_uris":{"android":"levelo://app?vid=045f4361-6b03-4f8e-8dd2-e567ba0814cc","ios":"levelo://app?vid=045f4361-6b03-4f8e-8dd2-e567ba0814cc"},"vehicle_type_id":"4","last_reported":1733940858,"current_range_meters":35600,"station_id":"ce4bhk92rcd13ifvqgc0","pricing_plan_id":"cebpf4jnsgd1na2vs0mg"},{"bike_id":"f9f4facf-b79f-42f7-b3d2-66688eb9be6b","system_id":"levelo_inurba_marseille","lat":43.29882,"lon":5.39725,"is_reserved":false,"is_disabled":false,"rental_uris":{"android":"levelo://app?vid=f9f4facf-b79f-42f7-b3d2-66688eb9be6b","ios":"levelo://app?vid=f9f4facf-b79f-42f7-b3d2-66688eb9be6b"},"vehicle_type_id":"4","last_reported":1733940858,"current_range_meters":10000,"station_id":"ce4bh0h2rcd13ifvqd50","pricing_plan_id":"cebpf4jnsgd1na2vs0mg"},{"bike_id":"fb98fdff-942d-403c-8074-995c1273de9b","system_id":"levelo_inurba_marseille","lat":43.31999,"lon":5.38145,"is_reserved":false,"is_disabled":false,"rental_uris":{"android":"levelo://app?vid=fb98fdff-942d-403c-8074-995c1273de9b","ios":"levelo://app?vid=fb98fdff-942d-403c-8074-995c1273de9b"},"vehicle_type_id":"4","last_reported":1733940858,"current_range_meters":17200,"station_id":"ce4bhr12rcd13ifvqhpg","pricing_plan_id":"cebpf4jnsgd1na2vs0mg"},{"bike_id":"982a8345-5f66-4dfb-ac4a-88f587a7ee3e","system_id":"levelo_inurba_marseille","lat":43.30801,"lon":5.38157,"is_reserved":false,"is_disabled":true,"rental_uris":{"android":"levelo://app?vid=982a8345-5f66-4dfb-ac4a-88f587a7ee3e","ios":"levelo://app?vid=982a8345-5f66-4dfb-ac4a-88f587a7ee3e"},"vehicle_type_id":"4","last_reported":1733940858,"current_range_meters":0,"station_id":"ce4bgt12rcd13ifvqce0","pricing_plan_id":"cebpf4jnsgd1na2vs0mg"},{"bike_id":"ef4b8070-3379-4cc9-bc42-1f19becc4b72","system_id":"levelo_inurba_marseille","lat":43.27946,"lon":5.4105,"is_reserved":false,"is_disabled":false,"rental_uris":{"android":"levelo://app?vid=ef4b8070-3379-4cc9-bc42-1f19becc4b72","ios":"levelo://app?vid=ef4b8070-3379-4cc9-bc42-1f19becc4b72"},"vehicle_type_id":"4","last_reported":1733940858,"current_range_meters":3200,"station_id":"ce4bhnp2rcd13ifvqh0g","pricing_plan_id":"cebpf4jnsgd1na2vs0mg"},{"bike_id":"410db2b1-82ce-4304-8403-9890f1407edf","system_id":"levelo_inurba_marseille","lat":43.31484,"lon":5.37307,"is_reserved":false,"is_disabled":false,"rental_uris":{"android":"levelo://app?vid=410db2b1-82ce-4304-8403-9890f1407edf","ios":"levelo://app?vid=410db2b1-82ce-4304-8403-9890f1407edf"},"vehicle_type_id":"4","last_reported":1733940858,"current_range_meters":9600,"station_id":"ce4bgt12rcd13ifvqcd0","pricing_plan_id":"cebpf4jnsgd1na2vs0mg"},{"bike_id":"e67212d1-7ebb-428f-96ff-4a419c8d4f94","system_id":"levelo_inurba_marseille","lat":43.28165,"lon":5.42637,"is_reserved":false,"is_disabled":true,"rental_uris":{"android":"levelo://app?vid=e67212d1-7ebb-428f-96ff-4a419c8d4f94","ios":"levelo://app?vid=e67212d1-7ebb-428f-96ff-4a419c8d4f94"},"vehicle_type_id":"4","last_reported":1733940858,"current_range_meters":1200,"station_id":"ce4bhnh2rcd13ifvqgug","pricing_plan_id":"cebpf4jnsgd1na2vs0mg"},{"bike_id":"3b58220a-25f8-48eb-b647-f6f0ede5a9e3","system_id":"levelo_inurba_marseille","lat":43.28003,"lon":5.41657,"is_reserved":false,"is_disabled":false,"rental_uris":{"android":"levelo://app?vid=3b58220a-25f8-48eb-b647-f6f0ede5a9e3","ios":"levelo://app?vid=3b58220a-25f8-48eb-b647-f6f0ede5a9e3"},"vehicle_type_id":"4","last_reported":1733940858,"current_range_meters":25200,"station_id":"ce4bho12rcd13ifvqh1g","pricing_plan_id":"cebpf4jnsgd1na2vs0mg"},{"bike_id":"64a6efea-3d8d-4a39-8e3f-d4afdd90970d","system_id":"levelo_inurba_marseille","lat":43.24796,"lon":5.37463,"is_reserved":false,"is_disabled":true,"rental_uris":{"android":"levelo://app?vid=64a6efea-3d8d-4a39-8e3f-d4afdd90970d","ios":"levelo://app?vid=64a6efea-3d8d-4a39-8e3f-d4afdd90970d"},"vehicle_type_id":"4","last_reported":1733940858,"current_range_meters":0,"station_id":"ce4bhgh2rcd13ifvqfb0","pricing_plan_id":"cebpf4jnsgd1na2vs0mg"},{"bike_id":"467a8ed9-8f9d-4f9c-a7a2-b2a4bc21bd4a","system_id":"levelo_inurba_marseille","lat":43.24652,"lon":5.38888,"is_reserved":false,"is_disabled":false,"rental_uris":{"android":"levelo://app?vid=467a8ed9-8f9d-4f9c-a7a2-b2a4bc21bd4a","ios":"levelo://app?vid=467a8ed9-8f9d-4f9c-a7a2-b2a4bc21bd4a"},"vehicle_type_id":"4","last_reported":1733940858,"current_range_meters":38400,"station_id":"ce4bhg12rcd13ifvqf60","pricing_plan_id":"cebpf4jnsgd1na2vs0mg"},{"bike_id":"16492b5b-37d8-452f-8923-009b71c8397d","system_id":"levelo_inurba_marseille","lat":43.25581,"lon":5.38235,"is_reserved":false,"is_disabled":false,"rental_uris":{"android":"levelo://app?vid=16492b5b-37d8-452f-8923-009b71c8397d","ios":"levelo://app?vid=16492b5b-37d8-452f-8923-009b71c8397d"},"vehicle_type_id":"4","last_reported":1733940858,"current_range_meters":29600,"station_id":"ce4bhih2rcd13ifvqfs0","pricing_plan_id":"cebpf4jnsgd1na2vs0mg"},{"bike_id":"33099d93-ce10-45ff-bd7c-95104a3498a9","system_id":"levelo_inurba_marseille","lat":43.27984,"lon":5.4169,"is_reserved":false,"is_disabled":true,"rental_uris":{"android":"levelo://app?vid=33099d93-ce10-45ff-bd7c-95104a3498a9","ios":"levelo://app?vid=33099d93-ce10-45ff-bd7c-95104a3498a9"},"vehicle_type_id":"4","last_reported":1733940858,"current_range_meters":0,"station_id":"ce4bho12rcd13ifvqh1g","pricing_plan_id":"cebpf4jnsgd1na2vs0mg"},{"bike_id":"4d9975b2-8caf-4dfe-9202-9f11fbd0b727","system_id":"levelo_inurba_marseille","lat":43.29522,"lon":5.37501,"is_reserved":false,"is_disabled":true,"rental_uris":{"android":"levelo://app?vid=4d9975b2-8caf-4dfe-9202-9f11fbd0b727","ios":"levelo://app?vid=4d9975b2-8caf-4dfe-9202-9f11fbd0b727"},"vehicle_type_id":"4","last_reported":1733940858,"current_range_meters":20800,"station_id":"ce4bgkp2rcd13ifvqbmg","pricing_plan_id":"cebpf4jnsgd1na2vs0mg"},{"bike_id":"a5589391-a7e4-412b-9a87-f917b2322580","system_id":"levelo_inurba_marseille","lat":43.23066,"lon":5.35478,"is_reserved":false,"is_disabled":false,"rental_uris":{"android":"levelo://app?vid=a5589391-a7e4-412b-9a87-f917b2322580","ios":"levelo://app?vid=a5589391-a7e4-412b-9a87-f917b2322580"},"vehicle_type_id":"4","last_reported":1733940858,"current_range_meters":20000,"station_id":"cpo3342slgdg3j2ifvpg","pricing_plan_id":"cebpf4jnsgd1na2vs0mg"},{"bike_id":"e898f7c4-3e55-4f31-b2fe-65a7649319c9","system_id":"levelo_inurba_marseille","lat":43.28265,"lon":5.35057,"is_reserved":false,"is_disabled":false,"rental_uris":{"android":"levelo://app?vid=e898f7c4-3e55-4f31-b2fe-65a7649319c9","ios":"levelo://app?vid=e898f7c4-3e55-4f31-b2fe-65a7649319c9"},"vehicle_type_id":"4","last_reported":1733940858,"current_range_meters":34000,"station_id":"ce4bhbp2rcd13ifvqerg","pricing_plan_id":"cebpf4jnsgd1na2vs0mg"},{"bike_id":"5d45934d-d05c-4f24-8f37-3eea3f951ebe","system_id":"levelo_inurba_marseille","lat":43.30554,"lon":5.40466,"is_reserved":false,"is_disabled":false,"rental_uris":{"android":"levelo://app?vid=5d45934d-d05c-4f24-8f37-3eea3f951ebe","ios":"levelo://app?vid=5d45934d-d05c-4f24-8f37-3eea3f951ebe"},"vehicle_type_id":"4","last_reported":1733940858,"current_range_meters":29600,"station_id":"","pricing_plan_id":"cebpf4jnsgd1na2vs0mg"},{"bike_id":"3a9504f4-1cc7-424a-b4fa-c4cc24043763","system_id":"levelo_inurba_marseille","lat":43.29196,"lon":5.35811,"is_reserved":false,"is_disabled":false,"rental_uris":{"android":"levelo://app?vid=3a9504f4-1cc7-424a-b4fa-c4cc24043763","ios":"levelo://app?vid=3a9504f4-1cc7-424a-b4fa-c4cc24043763"},"vehicle_type_id":"4","last_reported":1733940858,"current_range_meters":20800,"station_id":"ce4bhb12rcd13ifvqel0","pricing_plan_id":"cebpf4jnsgd1na2vs0mg"},{"bike_id":"bdab0864-4943-4308-82f6-1484883a00a0","system_id":"levelo_inurba_marseille","lat":43.26032,"lon":5.37545,"is_reserved":false,"is_disabled":false,"rental_uris":{"android":"levelo://app?vid=bdab0864-4943-4308-82f6-1484883a00a0","ios":"levelo://app?vid=bdab0864-4943-4308-82f6-1484883a00a0"},"vehicle_type_id":"4","last_reported":1733940858,"current_range_meters":25600,"station_id":"ce4bhgh2rcd13ifvqfa0","pricing_plan_id":"cebpf4jnsgd1na2vs0mg"},{"bike_id":"f4a42879-0afd-4860-813c-7e5d8c3b3578","system_id":"levelo_inurba_marseille","lat":43.28008,"lon":5.40021,"is_reserved":false,"is_disabled":false,"rental_uris":{"android":"levelo://app?vid=f4a42879-0afd-4860-813c-7e5d8c3b3578","ios":"levelo://app?vid=f4a42879-0afd-4860-813c-7e5d8c3b3578"},"vehicle_type_id":"4","last_reported":1733940858,"current_range_meters":35200,"station_id":"ce4bho92rcd13ifvqh4g","pricing_plan_id":"cebpf4jnsgd1na2vs0mg"},{"bike_id":"61df4582-7c9f-489e-b7da-d6a0cfdcd7c7","system_id":"levelo_inurba_marseille","lat":43.2866,"lon":5.36347,"is_reserved":false,"is_disabled":false,"rental_uris":{"android":"levelo://app?vid=61df4582-7c9f-489e-b7da-d6a0cfdcd7c7","ios":"levelo://app?vid=61df4582-7c9f-489e-b7da-d6a0cfdcd7c7"},"vehicle_type_id":"4","last_reported":1733940858,"current_range_meters":20000,"station_id":"ce4bhah2rcd13ifvqej0","pricing_plan_id":"cebpf4jnsgd1na2vs0mg"},{"bike_id":"785718b3-fbd9-4911-8730-92904aa8360e","system_id":"levelo_inurba_marseille","lat":43.27812,"lon":5.40708,"is_reserved":false,"is_disabled":false,"rental_uris":{"android":"levelo://app?vid=785718b3-fbd9-4911-8730-92904aa8360e","ios":"levelo://app?vid=785718b3-fbd9-4911-8730-92904aa8360e"},"vehicle_type_id":"4","last_reported":1733940858,"current_range_meters":6400,"station_id":"ce4bhnh2rcd13ifvqgtg","pricing_plan_id":"cebpf4jnsgd1na2vs0mg"},{"bike_id":"ca3bf6a0-806c-4046-b219-bbea4c2ba646","system_id":"levelo_inurba_marseille","lat":43.23202,"lon":5.35544,"is_reserved":false,"is_disabled":false,"rental_uris":{"android":"levelo://app?vid=ca3bf6a0-806c-4046-b219-bbea4c2ba646","ios":"levelo://app?vid=ca3bf6a0-806c-4046-b219-bbea4c2ba646"},"vehicle_type_id":"4","last_reported":1733940858,"current_range_meters":35600,"station_id":"ce4bhu92rcd13ifvqi70","pricing_plan_id":"cebpf4jnsgd1na2vs0mg"},{"bike_id":"83d523e7-3efd-41c7-b7da-3a0414f12198","system_id":"levelo_inurba_marseille","lat":43.28838,"lon":5.35846,"is_reserved":false,"is_disabled":false,"rental_uris":{"android":"levelo://app?vid=83d523e7-3efd-41c7-b7da-3a0414f12198","ios":"levelo://app?vid=83d523e7-3efd-41c7-b7da-3a0414f12198"},"vehicle_type_id":"4","last_reported":1733940858,"current_range_meters":7200,"station_id":"ce4bhb12rcd13ifvqem0","pricing_plan_id":"cebpf4jnsgd1na2vs0mg"},{"bike_id":"46b2fdec-0870-4ae2-84dc-b1f57512351e","system_id":"levelo_inurba_marseille","lat":43.337444,"lon":5.374475,"is_reserved":false,"is_disabled":true,"rental_uris":{"android":"levelo://app?vid=46b2fdec-0870-4ae2-84dc-b1f57512351e","ios":"levelo://app?vid=46b2fdec-0870-4ae2-84dc-b1f57512351e"},"vehicle_type_id":"4","last_reported":1733940858,"current_range_meters":0,"station_id":"","pricing_plan_id":"cebpf4jnsgd1na2vs0mg"},{"bike_id":"bb6d6155-2065-45df-9ac0-24474c73aa06","system_id":"levelo_inurba_marseille","lat":43.29959,"lon":5.385,"is_reserved":false,"is_disabled":false,"rental_uris":{"android":"levelo://app?vid=bb6d6155-2065-45df-9ac0-24474c73aa06","ios":"levelo://app?vid=bb6d6155-2065-45df-9ac0-24474c73aa06"},"vehicle_type_id":"4","last_reported":1733940858,"current_range_meters":12000,"station_id":"ce4bgj92rcd13ifvqbd0","pricing_plan_id":"cebpf4jnsgd1na2vs0mg"},{"bike_id":"d89741c0-b35d-4fa7-a394-9ef9950d61c9","system_id":"levelo_inurba_marseille","lat":43.30142,"lon":5.38778,"is_reserved":false,"is_disabled":false,"rental_uris":{"android":"levelo://app?vid=d89741c0-b35d-4fa7-a394-9ef9950d61c9","ios":"levelo://app?vid=d89741c0-b35d-4fa7-a394-9ef9950d61c9"},"vehicle_type_id":"4","last_reported":1733940858,"current_range_meters":39200,"station_id":"ce4bghh2rcd13ifvqb60","pricing_plan_id":"cebpf4jnsgd1na2vs0mg"},{"bike_id":"793130a6-5a9b-4da7-a9f8-8310b62ef7e2","system_id":"levelo_inurba_marseille","lat":43.25939,"lon":5.40904,"is_reserved":false,"is_disabled":false,"rental_uris":{"android":"levelo://app?vid=793130a6-5a9b-4da7-a9f8-8310b62ef7e2","ios":"levelo://app?vid=793130a6-5a9b-4da7-a9f8-8310b62ef7e2"},"vehicle_type_id":"4","last_reported":1733940858,"current_range_meters":3600,"station_id":"ce4bhm92rcd13ifvqglg","pricing_plan_id":"cebpf4jnsgd1na2vs0mg"},{"bike_id":"8aee5d3a-bdab-418e-acc4-3196378aa828","system_id":"levelo_inurba_marseille","lat":43.24647,"lon":5.38766,"is_reserved":false,"is_disabled":false,"rental_uris":{"android":"levelo://app?vid=8aee5d3a-bdab-418e-acc4-3196378aa828","ios":"levelo://app?vid=8aee5d3a-bdab-418e-acc4-3196378aa828"},"vehicle_type_id":"4","last_reported":1733940858,"current_range_meters":9200,"station_id":"ce4bhgh2rcd13ifvqfb0","pricing_plan_id":"cebpf4jnsgd1na2vs0mg"},{"bike_id":"d77f135f-9dc4-4ab8-9be6-d4e780d3a234","system_id":"levelo_inurba_marseille","lat":43.27222,"lon":5.39176,"is_reserved":false,"is_disabled":false,"rental_uris":{"android":"levelo://app?vid=d77f135f-9dc4-4ab8-9be6-d4e780d3a234","ios":"levelo://app?vid=d77f135f-9dc4-4ab8-9be6-d4e780d3a234"},"vehicle_type_id":"4","last_reported":1733940858,"current_range_meters":33600,"station_id":"ce4bhhp2rcd13ifvqfm0","pricing_plan_id":"cebpf4jnsgd1na2vs0mg"},{"bike_id":"930263d5-dd21-4ed3-a282-ee8b01760dcd","system_id":"levelo_inurba_marseille","lat":43.27209,"lon":5.3918,"is_reserved":false,"is_disabled":false,"rental_uris":{"android":"levelo://app?vid=930263d5-dd21-4ed3-a282-ee8b01760dcd","ios":"levelo://app?vid=930263d5-dd21-4ed3-a282-ee8b01760dcd"},"vehicle_type_id":"4","last_reported":1733940858,"current_range_meters":36800,"station_id":"ce4bhhp2rcd13ifvqfm0","pricing_plan_id":"cebpf4jnsgd1na2vs0mg"},{"bike_id":"2ebd2fc6-13ac-4b60-8a2e-07cab16d51cc","system_id":"levelo_inurba_marseille","lat":43.24656,"lon":5.38885,"is_reserved":false,"is_disabled":false,"rental_uris":{"android":"levelo://app?vid=2ebd2fc6-13ac-4b60-8a2e-07cab16d51cc","ios":"levelo://app?vid=2ebd2fc6-13ac-4b60-8a2e-07cab16d51cc"},"vehicle_type_id":"4","last_reported":1733940858,"current_range_meters":22400,"station_id":"ce4bhg12rcd13ifvqf60","pricing_plan_id":"cebpf4jnsgd1na2vs0mg"},{"bike_id":"57f4756f-477d-4176-8f08-8ce0d15cb98e","system_id":"levelo_inurba_marseille","lat":43.24803,"lon":5.37452,"is_reserved":false,"is_disabled":false,"rental_uris":{"android":"levelo://app?vid=57f4756f-477d-4176-8f08-8ce0d15cb98e","ios":"levelo://app?vid=57f4756f-477d-4176-8f08-8ce0d15cb98e"},"vehicle_type_id":"4","last_reported":1733940858,"current_range_meters":20400,"station_id":"ce4bhgh2rcd13ifvqfb0","pricing_plan_id":"cebpf4jnsgd1na2vs0mg"},{"bike_id":"34dfbec9-d89b-40fb-be3a-d23fa857157a","system_id":"levelo_inurba_marseille","lat":43.23208,"lon":5.3559,"is_reserved":false,"is_disabled":true,"rental_uris":{"android":"levelo://app?vid=34dfbec9-d89b-40fb-be3a-d23fa857157a","ios":"levelo://app?vid=34dfbec9-d89b-40fb-be3a-d23fa857157a"},"vehicle_type_id":"4","last_reported":1733940858,"current_range_meters":29600,"station_id":"ce4bhu92rcd13ifvqi70","pricing_plan_id":"cebpf4jnsgd1na2vs0mg"},{"bike_id":"cfeef1d2-86d9-4c1b-8076-adb2f0d09c18","system_id":"levelo_inurba_marseille","lat":43.2947,"lon":5.37699,"is_reserved":false,"is_disabled":true,"rental_uris":{"android":"levelo://app?vid=cfeef1d2-86d9-4c1b-8076-adb2f0d09c18","ios":"levelo://app?vid=cfeef1d2-86d9-4c1b-8076-adb2f0d09c18"},"vehicle_type_id":"4","last_reported":1733940858,"current_range_meters":0,"station_id":"","pricing_plan_id":"cebpf4jnsgd1na2vs0mg"},{"bike_id":"6d05f7ba-808a-4403-b1f3-f8483fec843c","system_id":"levelo_inurba_marseille","lat":43.232,"lon":5.35562,"is_reserved":false,"is_disabled":false,"rental_uris":{"android":"levelo://app?vid=6d05f7ba-808a-4403-b1f3-f8483fec843c","ios":"levelo://app?vid=6d05f7ba-808a-4403-b1f3-f8483fec843c"},"vehicle_type_id":"4","last_reported":1733940858,"current_range_meters":36000,"station_id":"ce4bhu92rcd13ifvqi70","pricing_plan_id":"cebpf4jnsgd1na2vs0mg"},{"bike_id":"3e8ae426-8ada-4db2-8dd8-b1694074b107","system_id":"levelo_inurba_marseille","lat":43.31273,"lon":5.40168,"is_reserved":false,"is_disabled":false,"rental_uris":{"android":"levelo://app?vid=3e8ae426-8ada-4db2-8dd8-b1694074b107","ios":"levelo://app?vid=3e8ae426-8ada-4db2-8dd8-b1694074b107"},"vehicle_type_id":"4","last_reported":1733940858,"current_range_meters":22800,"station_id":"ce4bgt12rcd13ifvqcd0","pricing_plan_id":"cebpf4jnsgd1na2vs0mg"},{"bike_id":"0133a6a3-5a29-4cec-885d-9dd4bcfc6c6e","system_id":"levelo_inurba_marseille","lat":43.27188,"lon":5.40995,"is_reserved":false,"is_disabled":false,"rental_uris":{"android":"levelo://app?vid=0133a6a3-5a29-4cec-885d-9dd4bcfc6c6e","ios":"levelo://app?vid=0133a6a3-5a29-4cec-885d-9dd4bcfc6c6e"},"vehicle_type_id":"4","last_reported":1733940858,"current_range_meters":37600,"station_id":"ce4bhl12rcd13ifvqgf0","pricing_plan_id":"cebpf4jnsgd1na2vs0mg"},{"bike_id":"8901d0cc-eeea-4560-be2b-78235f4be386","system_id":"levelo_inurba_marseille","lat":43.31498,"lon":5.37301,"is_reserved":false,"is_disabled":false,"rental_uris":{"android":"levelo://app?vid=8901d0cc-eeea-4560-be2b-78235f4be386","ios":"levelo://app?vid=8901d0cc-eeea-4560-be2b-78235f4be386"},"vehicle_type_id":"4","last_reported":1733940858,"current_range_meters":38800,"station_id":"ce4bgt12rcd13ifvqcd0","pricing_plan_id":"cebpf4jnsgd1na2vs0mg"},{"bike_id":"11b02ab4-503e-4c05-ac1c-aa102ea2e6c9","system_id":"levelo_inurba_marseille","lat":43.31344,"lon":5.39685,"is_reserved":false,"is_disabled":false,"rental_uris":{"android":"levelo://app?vid=11b02ab4-503e-4c05-ac1c-aa102ea2e6c9","ios":"levelo://app?vid=11b02ab4-503e-4c05-ac1c-aa102ea2e6c9"},"vehicle_type_id":"4","last_reported":1733940858,"current_range_meters":6800,"station_id":"ce4bgvp2rcd13ifvqcu0","pricing_plan_id":"cebpf4jnsgd1na2vs0mg"},{"bike_id":"f97526ae-a865-49d7-9bfa-0ec23e83812f","system_id":"levelo_inurba_marseille","lat":43.27422,"lon":5.39417,"is_reserved":false,"is_disabled":false,"rental_uris":{"android":"levelo://app?vid=f97526ae-a865-49d7-9bfa-0ec23e83812f","ios":"levelo://app?vid=f97526ae-a865-49d7-9bfa-0ec23e83812f"},"vehicle_type_id":"4","last_reported":1733940858,"current_range_meters":8000,"station_id":"ce4bhdp2rcd13ifvqf20","pricing_plan_id":"cebpf4jnsgd1na2vs0mg"},{"bike_id":"9d5fa22f-b349-42f6-abc1-dcec0a7eafbf","system_id":"levelo_inurba_marseille","lat":43.30812,"lon":5.37315,"is_reserved":false,"is_disabled":true,"rental_uris":{"android":"levelo://app?vid=9d5fa22f-b349-42f6-abc1-dcec0a7eafbf","ios":"levelo://app?vid=9d5fa22f-b349-42f6-abc1-dcec0a7eafbf"},"vehicle_type_id":"4","last_reported":1733940858,"current_range_meters":0,"station_id":"","pricing_plan_id":"cebpf4jnsgd1na2vs0mg"},{"bike_id":"9c8c1480-9ffa-4086-913c-c2125a6eb848","system_id":"levelo_inurba_marseille","lat":43.22933,"lon":5.35379,"is_reserved":false,"is_disabled":true,"rental_uris":{"android":"levelo://app?vid=9c8c1480-9ffa-4086-913c-c2125a6eb848","ios":"levelo://app?vid=9c8c1480-9ffa-4086-913c-c2125a6eb848"},"vehicle_type_id":"4","last_reported":1733940858,"current_range_meters":38800,"station_id":"cpo3532slgdg3j2ikp40","pricing_plan_id":"cebpf4jnsgd1na2vs0mg"},{"bike_id":"0e9ee8e6-308b-43cf-8d13-c2c7b6d5df31","system_id":"levelo_inurba_marseille","lat":43.25464,"lon":5.37677,"is_reserved":false,"is_disabled":false,"rental_uris":{"android":"levelo://app?vid=0e9ee8e6-308b-43cf-8d13-c2c7b6d5df31","ios":"levelo://app?vid=0e9ee8e6-308b-43cf-8d13-c2c7b6d5df31"},"vehicle_type_id":"4","last_reported":1733940858,"current_range_meters":38800,"station_id":"ce4bhh12rcd13ifvqff0","pricing_plan_id":"cebpf4jnsgd1na2vs0mg"},{"bike_id":"4fadc5ad-8e8b-4777-9310-1cf83fc1823b","system_id":"levelo_inurba_marseille","lat":43.28937,"lon":5.36635,"is_reserved":false,"is_disabled":false,"rental_uris":{"android":"levelo://app?vid=4fadc5ad-8e8b-4777-9310-1cf83fc1823b","ios":"levelo://app?vid=4fadc5ad-8e8b-4777-9310-1cf83fc1823b"},"vehicle_type_id":"4","last_reported":1733940858,"current_range_meters":38000,"station_id":"ce4bhap2rcd13ifvqek0","pricing_plan_id":"cebpf4jnsgd1na2vs0mg"},{"bike_id":"15cc10cd-7e0e-4f55-bdce-29675a184318","system_id":"levelo_inurba_marseille","lat":43.29627,"lon":5.37173,"is_reserved":false,"is_disabled":false,"rental_uris":{"android":"levelo://app?vid=15cc10cd-7e0e-4f55-bdce-29675a184318","ios":"levelo://app?vid=15cc10cd-7e0e-4f55-bdce-29675a184318"},"vehicle_type_id":"4","last_reported":1733940858,"current_range_meters":38800,"station_id":"ce4bgnh2rcd13ifvqc0g","pricing_plan_id":"cebpf4jnsgd1na2vs0mg"},{"bike_id":"b8377270-a11f-47d5-9b60-181113e6728e","system_id":"levelo_inurba_marseille","lat":43.29963,"lon":5.38493,"is_reserved":false,"is_disabled":false,"rental_uris":{"android":"levelo://app?vid=b8377270-a11f-47d5-9b60-181113e6728e","ios":"levelo://app?vid=b8377270-a11f-47d5-9b60-181113e6728e"},"vehicle_type_id":"4","last_reported":1733940858,"current_range_meters":6000,"station_id":"ce4bgj92rcd13ifvqbd0","pricing_plan_id":"cebpf4jnsgd1na2vs0mg"},{"bike_id":"9ac7fa6e-2578-4832-8168-ade341fdc585","system_id":"levelo_inurba_marseille","lat":43.2841,"lon":5.428961,"is_reserved":false,"is_disabled":true,"rental_uris":{"android":"levelo://app?vid=9ac7fa6e-2578-4832-8168-ade341fdc585","ios":"levelo://app?vid=9ac7fa6e-2578-4832-8168-ade341fdc585"},"vehicle_type_id":"4","last_reported":1733940858,"current_range_meters":0,"station_id":"","pricing_plan_id":"cebpf4jnsgd1na2vs0mg"},{"bike_id":"12e45ac9-3d2b-48f9-8dac-e1ba92d65fb8","system_id":"levelo_inurba_marseille","lat":43.27938,"lon":5.41046,"is_reserved":false,"is_disabled":false,"rental_uris":{"android":"levelo://app?vid=12e45ac9-3d2b-48f9-8dac-e1ba92d65fb8","ios":"levelo://app?vid=12e45ac9-3d2b-48f9-8dac-e1ba92d65fb8"},"vehicle_type_id":"4","last_reported":1733940858,"current_range_meters":30400,"station_id":"ce4bhnp2rcd13ifvqh0g","pricing_plan_id":"cebpf4jnsgd1na2vs0mg"},{"bike_id":"cd0a934c-285e-4271-9238-b2a1a9588ec8","system_id":"levelo_inurba_marseille","lat":43.28718,"lon":5.3795,"is_reserved":false,"is_disabled":true,"rental_uris":{"android":"levelo://app?vid=cd0a934c-285e-4271-9238-b2a1a9588ec8","ios":"levelo://app?vid=cd0a934c-285e-4271-9238-b2a1a9588ec8"},"vehicle_type_id":"4","last_reported":1733940858,"current_range_meters":8800,"station_id":"ce4bh9p2rcd13ifvqec0","pricing_plan_id":"cebpf4jnsgd1na2vs0mg"},{"bike_id":"eecad9e4-02e1-4cf5-bce9-7d9acad4a6b2","system_id":"levelo_inurba_marseille","lat":43.24188,"lon":5.39735,"is_reserved":false,"is_disabled":false,"rental_uris":{"android":"levelo://app?vid=eecad9e4-02e1-4cf5-bce9-7d9acad4a6b2","ios":"levelo://app?vid=eecad9e4-02e1-4cf5-bce9-7d9acad4a6b2"},"vehicle_type_id":"4","last_reported":1733940858,"current_range_meters":8800,"station_id":"ce4bhn12rcd13ifvqgpg","pricing_plan_id":"cebpf4jnsgd1na2vs0mg"},{"bike_id":"29e8c479-359c-407b-b022-f647a4540165","system_id":"levelo_inurba_marseille","lat":43.27941,"lon":5.41038,"is_reserved":false,"is_disabled":false,"rental_uris":{"android":"levelo://app?vid=29e8c479-359c-407b-b022-f647a4540165","ios":"levelo://app?vid=29e8c479-359c-407b-b022-f647a4540165"},"vehicle_type_id":"4","last_reported":1733940858,"current_range_meters":26000,"station_id":"ce4bhnp2rcd13ifvqh0g","pricing_plan_id":"cebpf4jnsgd1na2vs0mg"},{"bike_id":"4004944c-eaf9-4118-b03a-24d18d602d57","system_id":"levelo_inurba_marseille","lat":43.28673,"lon":5.3866,"is_reserved":false,"is_disabled":false,"rental_uris":{"android":"levelo://app?vid=4004944c-eaf9-4118-b03a-24d18d602d57","ios":"levelo://app?vid=4004944c-eaf9-4118-b03a-24d18d602d57"},"vehicle_type_id":"4","last_reported":1733940858,"current_range_meters":7200,"station_id":"ce4bh492rcd13ifvqdug","pricing_plan_id":"cebpf4jnsgd1na2vs0mg"},{"bike_id":"2170586e-f48b-488e-9cb8-fca4aa23e253","system_id":"levelo_inurba_marseille","lat":43.27377,"lon":5.36249,"is_reserved":false,"is_disabled":false,"rental_uris":{"android":"levelo://app?vid=2170586e-f48b-488e-9cb8-fca4aa23e253","ios":"levelo://app?vid=2170586e-f48b-488e-9cb8-fca4aa23e253"},"vehicle_type_id":"4","last_reported":1733940858,"current_range_meters":24400,"station_id":"ce4bhbh2rcd13ifvqeo0","pricing_plan_id":"cebpf4jnsgd1na2vs0mg"},{"bike_id":"a3a09499-6c95-498d-805b-f0892fb1ea61","system_id":"levelo_inurba_marseille","lat":43.29194,"lon":5.39318,"is_reserved":false,"is_disabled":false,"rental_uris":{"android":"levelo://app?vid=a3a09499-6c95-498d-805b-f0892fb1ea61","ios":"levelo://app?vid=a3a09499-6c95-498d-805b-f0892fb1ea61"},"vehicle_type_id":"4","last_reported":1733940858,"current_range_meters":18000,"station_id":"ce4bh192rcd13ifvqdd0","pricing_plan_id":"cebpf4jnsgd1na2vs0mg"},{"bike_id":"9db2ea4a-1112-4ec8-b434-9967cee58e40","system_id":"levelo_inurba_marseille","lat":43.30371,"lon":5.39312,"is_reserved":false,"is_disabled":true,"rental_uris":{"android":"levelo://app?vid=9db2ea4a-1112-4ec8-b434-9967cee58e40","ios":"levelo://app?vid=9db2ea4a-1112-4ec8-b434-9967cee58e40"},"vehicle_type_id":"4","last_reported":1733940858,"current_range_meters":400,"station_id":"ce4bh292rcd13ifvqdf0","pricing_plan_id":"cebpf4jnsgd1na2vs0mg"},{"bike_id":"00435b21-1247-42bb-b305-d4ae9791fb1d","system_id":"levelo_inurba_marseille","lat":43.30416,"lon":5.41287,"is_reserved":false,"is_disabled":false,"rental_uris":{"android":"levelo://app?vid=00435b21-1247-42bb-b305-d4ae9791fb1d","ios":"levelo://app?vid=00435b21-1247-42bb-b305-d4ae9791fb1d"},"vehicle_type_id":"4","last_reported":1733940858,"current_range_meters":8800,"station_id":"ce4bhop2rcd13ifvqh8g","pricing_plan_id":"cebpf4jnsgd1na2vs0mg"},