{"last_updated":1730761717,"ttl":60,"version":"2.2","data":{"bikes":[{"bike_id":"b9ec57ae-8189-4fa9-a859-429fb89b29e6","system_id":"levelo_inurba_marseille","lat":43.32039,"lon":5.41565,"is_reserved":false,"is_disabled":false,"rental_uris":{"android":"levelo://app?vid=b9ec57ae-8189-4fa9-a859-429fb89b29e6","ios":"levelo://app?vid=b9ec57ae-8189-4fa9-a859-429fb89b29e6"},"vehicle_type_id":"4","last_reported":1730761717,"current_range_meters":30800,"station_id":"ce4bhq92rcd13ifvqhkg","pricing_plan_id":"cebpf4jnsgd1na2vs0mg"},{"bike_id":"c4ca81f1-0770-4982-88af-728d13e28981","system_id":"levelo_inurba_marseille","lat":43.26207,"lon":5.37441,"is_reserved":false,"is_disabled":false,"rental_uris":{"android":"levelo://app?vid=c4ca81f1-0770-4982-88af-728d13e28981","ios":"levelo://app?vid=c4ca81f1-0770-4982-88af-728d13e28981"},"vehicle_type_id":"4","last_reported":1730761717,"current_range_meters":38800,"station_id":"ce4bhgp2rcd13ifvqfc0","pricing_plan_id":"cebpf4jnsgd1na2vs0mg"},{"bike_id":"0371acda-a2cf-455b-8ec8-056cee40fd62","system_id":"levelo_inurba_marseille","lat":43.29279,"lon":5.4012,"is_reserved":false,"is_disabled":false,"rental_uris":{"android":"levelo://app?vid=0371acda-a2cf-455b-8ec8-056cee40fd62","ios":"levelo://app?vid=0371acda-a2cf-455b-8ec8-056cee40fd62"},"vehicle_type_id":"4","last_reported":1730761717,"current_range_meters":20800,"station_id":"ce4bh312rcd13ifvqdk0","pricing_plan_id":"cebpf4jnsgd1na2vs0mg"},{"bike_id":"b7837f34-17a9-43ad-b99a-4bf61e4fa6db","system_id":"levelo_inurba_marseille","lat":43.30245,"lon":5.40065,"is_reserved":false,"is_disabled":false,"rental_uris":{"android":"levelo://app?vid=b7837f34-17a9-43ad-b99a-4bf61e4fa6db","ios":"levelo://app?vid=b7837f34-17a9-43ad-b99a-4bf61e4fa6db"},"vehicle_type_id":"4","last_reported":1730761717,"current_range_meters":36800,"station_id":"ce4bgvh2rcd13ifvqcs0","pricing_plan_id":"cebpf4jnsgd1na2vs0mg"},{"bike_id":"bcac3ad2-33ea-454e-b32a-bb7e115d1f16","system_id":"levelo_inurba_marseille","lat":43.28079,"lon":5.39664,"is_reserved":false,"is_disabled":false,"rental_uris":{"android":"levelo://app?vid=bcac3ad2-33ea-454e-b32a-bb7e115d1f16","ios":"levelo://app?vid=bcac3ad2-33ea-454e-b32a-bb7e115d1f16"},"vehicle_type_id":"4","last_reported":1730761717,"current_range_meters":36000,"station_id":"ce4bho12rcd13ifvqh2g","pricing_plan_id":"cebpf4jnsgd1na2vs0mg"},{"bike_id":"c24fb9a5-b454-4ee1-a0d9-7727e66a5e9b","system_id":"levelo_inurba_marseille","lat":43.29088,"lon":5.38143,"is_reserved":false,"is_disabled":false,"rental_uris":{"android":"levelo://app?vid=c24fb9a5-b454-4ee1-a0d9-7727e66a5e9b","ios":"levelo://app?vid=c24fb9a5-b454-4ee1-a0d9-7727e66a5e9b"},"vehicle_type_id":"4","last_reported":1730761717,"current_range_meters":37600,"station_id":"ce4bh512rcd13ifvqe2g","pricing_plan_id":"cebpf4jnsgd1na2vs0mg"},{"bike_id":"2b6c8443-1848-4bd1-a5f7-cb79fbd151e5","system_id":"levelo_inurba_marseille","lat":43.28461,"lon":5.35892,"is_reserved":false,"is_disabled":false,"rental_uris":{"android":"levelo://app?vid=2b6c8443-1848-4bd1-a5f7-cb79fbd151e5","ios":"levelo://app?vid=2b6c8443-1848-4bd1-a5f7-cb79fbd151e5"},"vehicle_type_id":"4","last_reported":1730761717,"current_range_meters":33200,"station_id":"ce4bhah2rcd13ifvqei0","pricing_plan_id":"cebpf4jnsgd1na2vs0mg"},{"bike_id":"75ffce48-8c1d-4207-a3ed-d2d7ad52ce2d","system_id":"levelo_inurba_marseille","lat":43.2397,"lon":5.36642,"is_reserved":false,"is_disabled":false,"rental_uris":{"android":"levelo://app?vid=75ffce48-8c1d-4207-a3ed-d2d7ad52ce2d","ios":"levelo://app?vid=75ffce48-8c1d-4207-a3ed-d2d7ad52ce2d"},"vehicle_type_id":"4","last_reported":1730761717,"current_range_meters":40000,"station_id":"ce4bhi12rcd13ifvqfp0","pricing_plan_id":"cebpf4jnsgd1na2vs0mg"},{"bike_id":"0813b8d9-95b0-4ee8-8c30-0a2f8f5acae7","system_id":"levelo_inurba_marseille","lat":43.28669,"lon":5.36357,"is_reserved":false,"is_disabled":false,"rental_uris":{"android":"levelo://app?vid=0813b8d9-95b0-4ee8-8c30-0a2f8f5acae7","ios":"levelo://app?vid=0813b8d9-95b0-4ee8-8c30-0a2f8f5acae7"},"vehicle_type_id":"4","last_reported":1730761717,"current_range_meters":40000,"station_id":"ce4bhah2rcd13ifvqej0","pricing_plan_id":"cebpf4jnsgd1na2vs0mg"},{"bike_id":"c4b03e3d-df93-4a23-b160-471b8c850168","system_id":"levelo_inurba_marseille","lat":43.30809,"lon":5.38168,"is_reserved":false,"is_disabled":false,"rental_uris":{"android":"levelo://app?vid=c4b03e3d-df93-4a23-b160-471b8c850168","ios":"levelo://app?vid=c4b03e3d-df93-4a23-b160-471b8c850168"},"vehicle_type_id":"4","last_reported":1730761717,"current_range_meters":38000,"station_id":"ce4bgt12rcd13ifvqce0","pricing_plan_id":"cebpf4jnsgd1na2vs0mg"},{"bike_id":"e69268df-bf99-404c-a39a-ee9f2a3ecdf5","system_id":"levelo_inurba_marseille","lat":43.30638,"lon":5.40082,"is_reserved":false,"is_disabled":false,"rental_uris":{"android":"levelo://app?vid=e69268df-bf99-404c-a39a-ee9f2a3ecdf5","ios":"levelo://app?vid=e69268df-bf99-404c-a39a-ee9f2a3ecdf5"},"vehicle_type_id":"4","last_reported":1730761717,"current_range_meters":7200,"station_id":"ce4bh112rcd13ifvqda0","pricing_plan_id":"cebpf4jnsgd1na2vs0mg"},{"bike_id":"4c5bc523-1c2c-4b3e-93d7-b895fa01a3f3","system_id":"levelo_inurba_marseille","lat":43.31327,"lon":5.39693,"is_reserved":false,"is_disabled":false,"rental_uris":{"android":"levelo://app?vid=4c5bc523-1c2c-4b3e-93d7-b895fa01a3f3","ios":"levelo://app?vid=4c5bc523-1c2c-4b3e-93d7-b895fa01a3f3"},"vehicle_type_id":"4","last_reported":1730761717,"current_range_meters":24400,"station_id":"ce4bgvp2rcd13ifvqcu0","pricing_plan_id":"cebpf4jnsgd1na2vs0mg"},{"bike_id":"7d640c47-a4ae-4641-8ed6-4165bb1caeb6","system_id":"levelo_inurba_marseille","lat":43.26487,"lon":5.39554,"is_reserved":false,"is_disabled":false,"rental_uris":{"android":"levelo://app?vid=7d640c47-a4ae-4641-8ed6-4165bb1caeb6","ios":"levelo://app?vid=7d640c47-a4ae-4641-8ed6-4165bb1caeb6"},"vehicle_type_id":"4","last_reported":1730761717,"current_range_meters":37600,"station_id":"ce4bhi12rcd13ifvqfq0","pricing_plan_id":"cebpf4jnsgd1na2vs0mg"},{"bike_id":"bef6e360-e6a9-4673-8e18-0a89fd02a098","system_id":"levelo_inurba_marseille","lat":43.30103,"lon":5.39095,"is_reserved":false,"is_disabled":false,"rental_uris":{"android":"levelo://app?vid=bef6e360-e6a9-4673-8e18-0a89fd02a098","ios":"levelo://app?vid=bef6e360-e6a9-4673-8e18-0a89fd02a098"},"vehicle_type_id":"4","last_reported":1730761717,"current_range_meters":16800,"station_id":"ce4bh192rcd13ifvqdb0","pricing_plan_id":"cebpf4jnsgd1na2vs0mg"},{"bike_id":"944a3ee4-32b7-4613-bb82-96e96f54f71c","system_id":"levelo_inurba_marseille","lat":43.28464,"lon":5.3589,"is_reserved":false,"is_disabled":false,"rental_uris":{"android":"levelo://app?vid=944a3ee4-32b7-4613-bb82-96e96f54f71c","ios":"levelo://app?vid=944a3ee4-32b7-4613-bb82-96e96f54f71c"},"vehicle_type_id":"4","last_reported":1730761717,"current_range_meters":35600,"station_id":"ce4bhah2rcd13ifvqei0","pricing_plan_id":"cebpf4jnsgd1na2vs0mg"},{"bike_id":"d7680b91-790b-4028-b988-1d6c2608791c","system_id":"levelo_inurba_marseille","lat":43.32363,"lon":5.388849,"is_reserved":false,"is_disabled":false,"rental_uris":{"android":"levelo://app?vid=d7680b91-790b-4028-b988-1d6c2608791c","ios":"levelo://app?vid=d7680b91-790b-4028-b988-1d6c2608791c"},"vehicle_type_id":"4","last_reported":1730761717,"current_range_meters":22800,"station_id":"ce4bhqp2rcd13ifvqhog","pricing_plan_id":"cebpf4jnsgd1na2vs0mg"},{"bike_id":"99b1c731-d11f-47af-b837-9b3a4c13e227","system_id":"levelo_inurba_marseille","lat":43.27378,"lon":5.36271,"is_reserved":false,"is_disabled":false,"rental_uris":{"android":"levelo://app?vid=99b1c731-d11f-47af-b837-9b3a4c13e227","ios":"levelo://app?vid=99b1c731-d11f-47af-b837-9b3a4c13e227"},"vehicle_type_id":"4","last_reported":1730761717,"current_range_meters":38000,"station_id":"ce4bhbh2rcd13ifvqeo0","pricing_plan_id":"cebpf4jnsgd1na2vs0mg"},{"bike_id":"590de1cb-eae9-4a79-b020-0e8321b145ef","system_id":"levelo_inurba_marseille","lat":43.23194,"lon":5.35551,"is_reserved":false,"is_disabled":false,"rental_uris":{"android":"levelo://app?vid=590de1cb-eae9-4a79-b020-0e8321b145ef","ios":"levelo://app?vid=590de1cb-eae9-4a79-b020-0e8321b145ef"},"vehicle_type_id":"4","last_reported":1730761717,"current_range_meters":24400,"station_id":"ce4bhu92rcd13ifvqi70","pricing_plan_id":"cebpf4jnsgd1na2vs0mg"},{"bike_id":"4147bbfb-4b14-4aca-b782-8ec6c0473609","system_id":"levelo_inurba_marseille","lat":43.23596,"lon":5.40344,"is_reserved":false,"is_disabled":false,"rental_uris":{"android":"levelo://app?vid=4147bbfb-4b14-4aca-b782-8ec6c0473609","ios":"levelo://app?vid=4147bbfb-4b14-4aca-b782-8ec6c0473609"},"vehicle_type_id":"4","last_reported":1730761717,"current_range_meters":10800,"station_id":"","pricing_plan_id":"cebpf4jnsgd1na2vs0mg"},{"bike_id":"8113a11d-faa1-4a73-a7b9-57f2c7a19838","system_id":"levelo_inurba_marseille","lat":43.3234,"lon":5.40622,"is_reserved":false,"is_disabled":false,"rental_uris":{"android":"levelo://app?vid=8113a11d-faa1-4a73-a7b9-57f2c7a19838","ios":"levelo://app?vid=8113a11d-faa1-4a73-a7b9-57f2c7a19838"},"vehicle_type_id":"4","last_reported":1730761717,"current_range_meters":17600,"station_id":"ce4bhq92rcd13ifvqhjg","pricing_plan_id":"cebpf4jnsgd1na2vs0mg"},{"bike_id":"fa66adb8-19da-4b56-aeb9-ccf1206b3e1e","system_id":"levelo_inurba_marseille","lat":43.32359,"lon":5.36752,"is_reserved":false,"is_disabled":false,"rental_uris":{"android":"levelo://app?vid=fa66adb8-19da-4b56-aeb9-ccf1206b3e1e","ios":"levelo://app?vid=fa66adb8-19da-4b56-aeb9-ccf1206b3e1e"},"vehicle_type_id":"4","last_reported":1730761717,"current_range_meters":36800,"station_id":"ce4bhsh2rcd13ifvqi2g","pricing_plan_id":"cebpf4jnsgd1na2vs0mg"},{"bike_id":"146b94cf-b81c-43a8-a126-d1471621d458","system_id":"levelo_inurba_marseille","lat":43.27998,"lon":5.40019,"is_reserved":false,"is_disabled":false,"rental_uris":{"android":"levelo://app?vid=146b94cf-b81c-43a8-a126-d1471621d458","ios":"levelo://app?vid=146b94cf-b81c-43a8-a126-d1471621d458"},"vehicle_type_id":"4","last_reported":1730761717,"current_range_meters":28800,"station_id":"ce4bho92rcd13ifvqh4g","pricing_plan_id":"cebpf4jnsgd1na2vs0mg"},{"bike_id":"64a2b89f-49f7-40b2-a980-02000405203c","system_id":"levelo_inurba_marseille","lat":43.2884,"lon":5.39316,"is_reserved":false,"is_disabled":false,"rental_uris":{"android":"levelo://app?vid=64a2b89f-49f7-40b2-a980-02000405203c","ios":"levelo://app?vid=64a2b89f-49f7-40b2-a980-02000405203c"},"vehicle_type_id":"4","last_reported":1730761717,"current_range_meters":24000,"station_id":"ce4bh2p2rcd13ifvqdi0","pricing_plan_id":"cebpf4jnsgd1na2vs0mg"},{"bike_id":"9dd4c1b5-f2ec-496b-8f02-a2c3d2c60a9c","system_id":"levelo_inurba_marseille","lat":43.24772,"lon":5.41842,"is_reserved":false,"is_disabled":false,"rental_uris":{"android":"levelo://app?vid=9dd4c1b5-f2ec-496b-8f02-a2c3d2c60a9c","ios":"levelo://app?vid=9dd4c1b5-f2ec-496b-8f02-a2c3d2c60a9c"},"vehicle_type_id":"4","last_reported":1730761717,"current_range_meters":30400,"station_id":"ce4bhkp2rcd13ifvqgd0","pricing_plan_id":"cebpf4jnsgd1na2vs0mg"},{"bike_id":"526eedd4-db5c-4687-9de3-3c089eba7751","system_id":"levelo_inurba_marseille","lat":43.23184,"lon":5.39993,"is_reserved":false,"is_disabled":false,"rental_uris":{"android":"levelo://app?vid=526eedd4-db5c-4687-9de3-3c089eba7751","ios":"levelo://app?vid=526eedd4-db5c-4687-9de3-3c089eba7751"},"vehicle_type_id":"4","last_reported":1730761717,"current_range_meters":9600,"station_id":"ce4bhn12rcd13ifvqgqg","pricing_plan_id":"cebpf4jnsgd1na2vs0mg"},{"bike_id":"47662166-db17-4d16-a97b-519c42566d41","system_id":"levelo_inurba_marseille","lat":43.27812,"lon":5.40717,"is_reserved":false,"is_disabled":false,"rental_uris":{"android":"levelo://app?vid=47662166-db17-4d16-a97b-519c42566d41","ios":"levelo://app?vid=47662166-db17-4d16-a97b-519c42566d41"},"vehicle_type_id":"4","last_reported":1730761717,"current_range_meters":6800,"station_id":"ce4bhnh2rcd13ifvqgtg","pricing_plan_id":"cebpf4jnsgd1na2vs0mg"},{"bike_id":"2afa43fc-2ebd-43bb-b650-01b2aada10d0","system_id":"levelo_inurba_marseille","lat":43.29801,"lon":5.39355,"is_reserved":false,"is_disabled":false,"rental_uris":{"android":"levelo://app?vid=2afa43fc-2ebd-43bb-b650-01b2aada10d0","ios":"levelo://app?vid=2afa43fc-2ebd-43bb-b650-01b2aada10d0"},"vehicle_type_id":"4","last_reported":1730761717,"current_range_meters":39200,"station_id":"chh1huq6cuj3fo74tm60","pricing_plan_id":"cebpf4jnsgd1na2vs0mg"},{"bike_id":"0e7ac2a2-82bf-4e9c-b832-83d9a110653b","system_id":"levelo_inurba_marseille","lat":43.28606,"lon":5.37067,"is_reserved":false,"is_disabled":false,"rental_uris":{"android":"levelo://app?vid=0e7ac2a2-82bf-4e9c-b832-83d9a110653b","ios":"levelo://app?vid=0e7ac2a2-82bf-4e9c-b832-83d9a110653b"},"vehicle_type_id":"4","last_reported":1730761717,"current_range_meters":19200,"station_id":"ce4bht12rcd13ifvqi60","pricing_plan_id":"cebpf4jnsgd1na2vs0mg"},{"bike_id":"525c40cf-ce5d-40cc-a112-46953ad38731","system_id":"levelo_inurba_marseille","lat":43.31169,"lon":5.38715,"is_reserved":false,"is_disabled":false,"rental_uris":{"android":"levelo://app?vid=525c40cf-ce5d-40cc-a112-46953ad38731","ios":"levelo://app?vid=525c40cf-ce5d-40cc-a112-46953ad38731"},"vehicle_type_id":"4","last_reported":1730761717,"current_range_meters":40000,"station_id":"ce4bgv12rcd13ifvqcp0","pricing_plan_id":"cebpf4jnsgd1na2vs0mg"},{"bike_id":"ef762b0a-886e-4da9-adfe-1739a57163ed","system_id":"levelo_inurba_marseille","lat":43.3233,"lon":5.40626,"is_reserved":false,"is_disabled":false,"rental_uris":{"android":"levelo://app?vid=ef762b0a-886e-4da9-adfe-1739a57163ed","ios":"levelo://app?vid=ef762b0a-886e-4da9-adfe-1739a57163ed"},"vehicle_type_id":"4","last_reported":1730761717,"current_range_meters":11600,"station_id":"ce4bhq92rcd13ifvqhjg","pricing_plan_id":"cebpf4jnsgd1na2vs0mg"},{"bike_id":"35d46972-faca-4525-a2d2-3f928f24f16c","system_id":"levelo_inurba_marseille","lat":43.24169,"lon":5.36401,"is_reserved":false,"is_disabled":false,"rental_uris":{"android":"levelo://app?vid=35d46972-faca-4525-a2d2-3f928f24f16c","ios":"levelo://app?vid=35d46972-faca-4525-a2d2-3f928f24f16c"},"vehicle_type_id":"4","last_reported":1730761717,"current_range_meters":38800,"station_id":"cpo36qri1sfpv3e86is0","pricing_plan_id":"cebpf4jnsgd1na2vs0mg"},{"bike_id":"f1e39652-af77-4277-92a8-a151dfbf49c2","system_id":"levelo_inurba_marseille","lat":43.308,"lon":5.38168,"is_reserved":false,"is_disabled":false,"rental_uris":{"android":"levelo://app?vid=f1e39652-af77-4277-92a8-a151dfbf49c2","ios":"levelo://app?vid=f1e39652-af77-4277-92a8-a151dfbf49c2"},"vehicle_type_id":"4","last_reported":1730761717,"current_range_meters":28000,"station_id":"ce4bgt12rcd13ifvqce0","pricing_plan_id":"cebpf4jnsgd1na2vs0mg"},{"bike_id":"2af6be3f-eaed-4be8-a196-a65251f911e8","system_id":"levelo_inurba_marseille","lat":43.30319,"lon":5.36905,"is_reserved":false,"is_disabled":false,"rental_uris":{"android":"levelo://app?vid=2af6be3f-eaed-4be8-a196-a65251f911e8","ios":"levelo://app?vid=2af6be3f-eaed-4be8-a196-a65251f911e8"},"vehicle_type_id":"4","last_reported":1730761717,"current_range_meters":38800,"station_id":"ce4bgqh2rcd13ifvqc5g","pricing_plan_id":"cebpf4jnsgd1na2vs0mg"},{"bike_id":"f7b02530-438b-4535-927c-07793d571ea5","system_id":"levelo_inurba_marseille","lat":43.29633,"lon":5.40599,"is_reserved":false,"is_disabled":false,"rental_uris":{"android":"levelo://app?vid=f7b02530-438b-4535-927c-07793d571ea5","ios":"levelo://app?vid=f7b02530-438b-4535-927c-07793d571ea5"},"vehicle_type_id":"4","last_reported":1730761717,"current_range_meters":38800,"station_id":"ce4bh0h2rcd13ifvqd60","pricing_plan_id":"cebpf4jnsgd1na2vs0mg"},{"bike_id":"2378f453-72a7-4eb2-ab3b-946285d406fd","system_id":"levelo_inurba_marseille","lat":43.29225,"lon":5.37729,"is_reserved":false,"is_disabled":false,"rental_uris":{"android":"levelo://app?vid=2378f453-72a7-4eb2-ab3b-946285d406fd","ios":"levelo://app?vid=2378f453-72a7-4eb2-ab3b-946285d406fd"},"vehicle_type_id":"4","last_reported":1730761717,"current_range_meters":6400,"station_id":"","pricing_plan_id":"cebpf4jnsgd1na2vs0mg"},{"bike_id":"014e77a6-0034-465e-8a5b-a5686eadcc57","system_id":"levelo_inurba_marseille","lat":43.32656,"lon":5.40995,"is_reserved":false,"is_disabled":false,"rental_uris":{"android":"levelo://app?vid=014e77a6-0034-465e-8a5b-a5686eadcc57","ios":"levelo://app?vid=014e77a6-0034-465e-8a5b-a5686eadcc57"},"vehicle_type_id":"4","last_reported":1730761717,"current_range_meters":38800,"station_id":"ce4bhpp2rcd13ifvqhgg","pricing_plan_id":"cebpf4jnsgd1na2vs0mg"},{"bike_id":"1091bc82-0517-4c7f-9d60-1fd8a7a0f826","system_id":"levelo_inurba_marseille","lat":43.29278,"lon":5.40123,"is_reserved":false,"is_disabled":false,"rental_uris":{"android":"levelo://app?vid=1091bc82-0517-4c7f-9d60-1fd8a7a0f826","ios":"levelo://app?vid=1091bc82-0517-4c7f-9d60-1fd8a7a0f826"},"vehicle_type_id":"4","last_reported":1730761717,"current_range_meters":38800,"station_id":"ce4bh312rcd13ifvqdk0","pricing_plan_id":"cebpf4jnsgd1na2vs0mg"},{"bike_id":"bc2b219d-e065-4de1-8fdd-dffe50ebac62","system_id":"levelo_inurba_marseille","lat":43.3118,"lon":5.38721,"is_reserved":false,"is_disabled":false,"rental_uris":{"android":"levelo://app?vid=bc2b219d-e065-4de1-8fdd-dffe50ebac62","ios":"levelo://app?vid=bc2b219d-e065-4de1-8fdd-dffe50ebac62"},"vehicle_type_id":"4","last_reported":1730761717,"current_range_meters":27200,"station_id":"ce4bgv12rcd13ifvqcp0","pricing_plan_id":"cebpf4jnsgd1na2vs0mg"},{"bike_id":"bdbf7863-30af-4a7a-accb-c5dc85031aca","system_id":"levelo_inurba_marseille","lat":43.29278,"lon":5.40127,"is_reserved":false,"is_disabled":false,"rental_uris":{"android":"levelo://app?vid=bdbf7863-30af-4a7a-accb-c5dc85031aca","ios":"levelo://app?vid=bdbf7863-30af-4a7a-accb-c5dc85031aca"},"vehicle_type_id":"4","last_reported":1730761717,"current_range_meters":39200,"station_id":"ce4bh312rcd13ifvqdk0","pricing_plan_id":"cebpf4jnsgd1na2vs0mg"},{"bike_id":"2602b645-c58e-4030-8510-c723643c7d20","system_id":"levelo_inurba_marseille","lat":43.28575,"lon":5.39505,"is_reserved":false,"is_disabled":false,"rental_uris":{"android":"levelo://app?vid=2602b645-c58e-4030-8510-c723643c7d20","ios":"levelo://app?vid=2602b645-c58e-4030-8510-c723643c7d20"},"vehicle_type_id":"4","last_reported":1730761717,"current_range_meters":39200,"station_id":"ce4bh292rcd13ifvqdg0","pricing_plan_id":"cebpf4jnsgd1na2vs0mg"},{"bike_id":"1dcc4078-31e5-4cab-8516-eb6896bc0e11","system_id":"levelo_inurba_marseille","lat":43.308885,"lon":5.372019,"is_reserved":false,"is_disabled":false,"rental_uris":{"android":"levelo://app?vid=1dcc4078-31e5-4cab-8516-eb6896bc0e11","ios":"levelo://app?vid=1dcc4078-31e5-4cab-8516-eb6896bc0e11"},"vehicle_type_id":"4","last_reported":1730761717,"current_range_meters":39200,"station_id":"ce4bguh2rcd13ifvqckg","pricing_plan_id":"cebpf4jnsgd1na2vs0mg"},{"bike_id":"57648f51-6893-4ff8-8f45-2fb3884d8355","system_id":"levelo_inurba_marseille","lat":43.27623,"lon":5.36111,"is_reserved":false,"is_disabled":false,"rental_uris":{"android":"levelo://app?vid=57648f51-6893-4ff8-8f45-2fb3884d8355","ios":"levelo://app?vid=57648f51-6893-4ff8-8f45-2fb3884d8355"},"vehicle_type_id":"4","last_reported":1730761717,"current_range_meters":24800,"station_id":"ce4bgj92rcd13ifvqbe0","pricing_plan_id":"cebpf4jnsgd1na2vs0mg"},{"bike_id":"fc2c3f9b-061b-4b88-8d47-8a6d27bb94ba","system_id":"levelo_inurba_marseille","lat":43.25117,"lon":5.40317,"is_reserved":false,"is_disabled":false,"rental_uris":{"android":"levelo://app?vid=fc2c3f9b-061b-4b88-8d47-8a6d27bb94ba","ios":"levelo://app?vid=fc2c3f9b-061b-4b88-8d47-8a6d27bb94ba"},"vehicle_type_id":"4","last_reported":1730761717,"current_range_meters":8800,"station_id":"ce4bhlh2rcd13ifvqgig","pricing_plan_id":"cebpf4jnsgd1na2vs0mg"},{"bike_id":"be569dbd-7574-4aea-9eb3-dd7998ac8895","system_id":"levelo_inurba_marseille","lat":43.27069,"lon":5.42282,"is_reserved":false,"is_disabled":false,"rental_uris":{"android":"levelo://app?vid=be569dbd-7574-4aea-9eb3-dd7998ac8895","ios":"levelo://app?vid=be569dbd-7574-4aea-9eb3-dd7998ac8895"},"vehicle_type_id":"4","last_reported":1730761717,"current_range_meters":14400,"station_id":"ce4bhk92rcd13ifvqgb0","pricing_plan_id":"cebpf4jnsgd1na2vs0mg"},{"bike_id":"79aa1b77-6f10-4f53-a8b9-2cf4291a06c9","system_id":"levelo_inurba_marseille","lat":43.27687,"lon":5.38929,"is_reserved":false,"is_disabled":false,"rental_uris":{"android":"levelo://app?vid=79aa1b77-6f10-4f53-a8b9-2cf4291a06c9","ios":"levelo://app?vid=79aa1b77-6f10-4f53-a8b9-2cf4291a06c9"},"vehicle_type_id":"4","last_reported":1730761717,"current_range_meters":18000,"station_id":"ce4bhi12rcd13ifvqfo0","pricing_plan_id":"cebpf4jnsgd1na2vs0mg"},{"bike_id":"c02cb689-cac5-4dfa-bde0-e095a992c4d0","system_id":"levelo_inurba_marseille","lat":43.29797,"lon":5.39355,"is_reserved":false,"is_disabled":false,"rental_uris":{"android":"levelo://app?vid=c02cb689-cac5-4dfa-bde0-e095a992c4d0","ios":"levelo://app?vid=c02cb689-cac5-4dfa-bde0-e095a992c4d0"},"vehicle_type_id":"4","last_reported":1730761717,"current_range_meters":40000,"station_id":"chh1huq6cuj3fo74tm60","pricing_plan_id":"cebpf4jnsgd1na2vs0mg"},{"bike_id":"e12d7650-f1b2-4c4b-8eb8-23651f70543b","system_id":"levelo_inurba_marseille","lat":43.32363,"lon":5.3888,"is_reserved":false,"is_disabled":false,"rental_uris":{"android":"levelo://app?vid=e12d7650-f1b2-4c4b-8eb8-23651f70543b","ios":"levelo://app?vid=e12d7650-f1b2-4c4b-8eb8-23651f70543b"},"vehicle_type_id":"4","last_reported":1730761717,"current_range_meters":8400,"station_id":"ce4bhqp2rcd13ifvqhog","pricing_plan_id":"cebpf4jnsgd1na2vs0mg"},{"bike_id":"fbe1344d-a732-4551-86e4-3b4d6dad7b24","system_id":"levelo_inurba_marseille","lat":43.29257,"lon":5.40914,"is_reserved":false,"is_disabled":false,"rental_uris":{"android":"levelo://app?vid=fbe1344d-a732-4551-86e4-3b4d6dad7b24","ios":"levelo://app?vid=fbe1344d-a732-4551-86e4-3b4d6dad7b24"},"vehicle_type_id":"4","last_reported":1730761717,"current_range_meters":39200,"station_id":"ce4bh192rcd13ifvqdc0","pricing_plan_id":"cebpf4jnsgd1na2vs0mg"},{"bike_id":"3731b232-5ac2-42f6-ad4f-510332e4c316","system_id":"levelo_inurba_marseille","lat":43.23962,"lon":5.3664,"is_reserved":false,"is_disabled":false,"rental_uris":{"android":"levelo://app?vid=3731b232-5ac2-42f6-ad4f-510332e4c316","ios":"levelo://app?vid=3731b232-5ac2-42f6-ad4f-510332e4c316"},"vehicle_type_id":"4","last_reported":1730761717,"current_range_meters":38800,"station_id":"ce4bhi12rcd13ifvqfp0","pricing_plan_id":"cebpf4jnsgd1na2vs0mg"},{"bike_id":"07f8f1bf-d68f-4b58-92a7-b1443614c858","system_id":"levelo_inurba_marseille","lat":43.30947,"lon":5.39042,"is_reserved":false,"is_disabled":false,"rental_uris":{"android":"levelo://app?vid=07f8f1bf-d68f-4b58-92a7-b1443614c858","ios":"levelo://app?vid=07f8f1bf-d68f-4b58-92a7-b1443614c858"},"vehicle_type_id":"4","last_reported":1730761717,"current_range_meters":38800,"station_id":"ce4bgup2rcd13ifvqco0","pricing_plan_id":"cebpf4jnsgd1na2vs0mg"},{"bike_id":"2f27399c-a924-4473-9d9b-dbf4e2858c4b","system_id":"levelo_inurba_marseille","lat":43.25867,"lon":5.39909,"is_reserved":false,"is_disabled":false,"rental_uris":{"android":"levelo://app?vid=2f27399c-a924-4473-9d9b-dbf4e2858c4b","ios":"levelo://app?vid=2f27399c-a924-4473-9d9b-dbf4e2858c4b"},"vehicle_type_id":"4","last_reported":1730761717,"current_range_meters":39200,"station_id":"ce4bhl92rcd13ifvqghg","pricing_plan_id":"cebpf4jnsgd1na2vs0mg"},{"bike_id":"afb4951c-b08c-4d64-9938-fe2618de5e61","system_id":"levelo_inurba_marseille","lat":43.28853,"lon":5.3586,"is_reserved":false,"is_disabled":false,"rental_uris":{"android":"levelo://app?vid=afb4951c-b08c-4d64-9938-fe2618de5e61","ios":"levelo://app?vid=afb4951c-b08c-4d64-9938-fe2618de5e61"},"vehicle_type_id":"4","last_reported":1730761717,"current_range_meters":32400,"station_id":"ce4bhb12rcd13ifvqem0","pricing_plan_id":"cebpf4jnsgd1na2vs0mg"},{"bike_id":"361f5f21-fd84-4606-b253-bf1b10075824","system_id":"levelo_inurba_marseille","lat":43.30259,"lon":5.400792,"is_reserved":false,"is_disabled":false,"rental_uris":{"android":"levelo://app?vid=361f5f21-fd84-4606-b253-bf1b10075824","ios":"levelo://app?vid=361f5f21-fd84-4606-b253-bf1b10075824"},"vehicle_type_id":"4","last_reported":1730761717,"current_range_meters":38000,"station_id":"ce4bgvh2rcd13ifvqcs0","pricing_plan_id":"cebpf4jnsgd1na2vs0mg"},{"bike_id":"91f5b76d-bdfe-4048-8a04-c9679d35526a","system_id":"levelo_inurba_marseille","lat":43.33026,"lon":5.39038,"is_reserved":false,"is_disabled":false,"rental_uris":{"android":"levelo://app?vid=91f5b76d-bdfe-4048-8a04-c9679d35526a","ios":"levelo://app?vid=91f5b76d-bdfe-4048-8a04-c9679d35526a"},"vehicle_type_id":"4","last_reported":1730761717,"current_range_meters":38800,"station_id":"ce4bhr92rcd13ifvqhrg","pricing_plan_id":"cebpf4jnsgd1na2vs0mg"},{"bike_id":"003d7fda-4443-4148-aec1-729df37750b9","system_id":"levelo_inurba_marseille","lat":43.281,"lon":5.37842,"is_reserved":false,"is_disabled":false,"rental_uris":{"android":"levelo://app?vid=003d7fda-4443-4148-aec1-729df37750b9","ios":"levelo://app?vid=003d7fda-4443-4148-aec1-729df37750b9"},"vehicle_type_id":"4","last_reported":1730761717,"current_range_meters":39200,"station_id":"ce4bha12rcd13ifvqee0","pricing_plan_id":"cebpf4jnsgd1na2vs0mg"},{"bike_id":"54a53193-b42f-4e81-af8d-b5da45c2ad7e","system_id":"levelo_inurba_marseille","lat":43.27188,"lon":5.40991,"is_reserved":false,"is_disabled":false,"rental_uris":{"android":"levelo://app?vid=54a53193-b42f-4e81-af8d-b5da45c2ad7e","ios":"levelo://app?vid=54a53193-b42f-4e81-af8d-b5da45c2ad7e"},"vehicle_type_id":"4","last_reported":1730761717,"current_range_meters":38800,"station_id":"ce4bhl12rcd13ifvqgf0","pricing_plan_id":"cebpf4jnsgd1na2vs0mg"},{"bike_id":"99d78f6e-5bfc-4e99-baa1-b9137a41c134","system_id":"levelo_inurba_marseille","lat":43.28152,"lon":5.42646,"is_reserved":false,"is_disabled":false,"rental_uris":{"android":"levelo://app?vid=99d78f6e-5bfc-4e99-baa1-b9137a41c134","ios":"levelo://app?vid=99d78f6e-5bfc-4e99-baa1-b9137a41c134"},"vehicle_type_id":"4","last_reported":1730761717,"current_range_meters":38800,"station_id":"ce4bhnh2rcd13ifvqgug","pricing_plan_id":"cebpf4jnsgd1na2vs0mg"},{"bike_id":"46d7b9e4-4d95-4565-ad4c-d95ad5e9ab18","system_id":"levelo_inurba_marseille","lat":43.24664,"lon":5.38159,"is_reserved":false,"is_disabled":false,"rental_uris":{"android":"levelo://app?vid=46d7b9e4-4d95-4565-ad4c-d95ad5e9ab18","ios":"levelo://app?vid=46d7b9e4-4d95-4565-ad4c-d95ad5e9ab18"},"vehicle_type_id":"4","last_reported":1730761717,"current_range_meters":20400,"station_id":"ce4bhih2rcd13ifvqfr0","pricing_plan_id":"cebpf4jnsgd1na2vs0mg"},{"bike_id":"0fb9819f-f5ed-4bc1-9006-4b1ad7d9b36e","system_id":"levelo_inurba_marseille","lat":43.32475,"lon":5.36575,"is_reserved":false,"is_disabled":false,"rental_uris":{"android":"levelo://app?vid=0fb9819f-f5ed-4bc1-9006-4b1ad7d9b36e","ios":"levelo://app?vid=0fb9819f-f5ed-4bc1-9006-4b1ad7d9b36e"},"vehicle_type_id":"4","last_reported":1730761717,"current_range_meters":17200,"station_id":"ce4bhs12rcd13ifvqhvg","pricing_plan_id":"cebpf4jnsgd1na2vs0mg"},{"bike_id":"e122c03a-bdc0-46d4-afc9-625ada9184ae","system_id":"levelo_inurba_marseille","lat":43.30313,"lon":5.36898,"is_reserved":false,"is_disabled":false,"rental_uris":{"android":"levelo://app?vid=e122c03a-bdc0-46d4-afc9-625ada9184ae","ios":"levelo://app?vid=e122c03a-bdc0-46d4-afc9-625ada9184ae"},"vehicle_type_id":"4","last_reported":1730761717,"current_range_meters":39200,"station_id":"ce4bgqh2rcd13ifvqc5g","pricing_plan_id":"cebpf4jnsgd1na2vs0mg"},{"bike_id":"372b79ea-d145-403a-86aa-4421629e3558","system_id":"levelo_inurba_marseille","lat":43.31271,"lon":5.40174,"is_reserved":false,"is_disabled":false,"rental_uris":{"android":"levelo://app?vid=372b79ea-d145-403a-86aa-4421629e3558","ios":"levelo://app?vid=372b79ea-d145-403a-86aa-4421629e3558"},"vehicle_type_id":"4","last_reported":1730761717,"current_range_meters":28800,"station_id":"ce4bh092rcd13ifvqd30","pricing_plan_id":"cebpf4jnsgd1na2vs0mg"},{"bike_id":"037eaf0f-9112-47d3-aa8d-7a0ef0d58625","system_id":"levelo_inurba_marseille","lat":43.24167,"lon":5.36394,"is_reserved":false,"is_disabled":false,"rental_uris":{"android":"levelo://app?vid=037eaf0f-9112-47d3-aa8d-7a0ef0d58625","ios":"levelo://app?vid=037eaf0f-9112-47d3-aa8d-7a0ef0d58625"},"vehicle_type_id":"4","last_reported":1730761717,"current_range_meters":38800,"station_id":"cpo36qri1sfpv3e86is0","pricing_plan_id":"cebpf4jnsgd1na2vs0mg"},{"bike_id":"0688e1f9-1bf1-4863-9a6f-f01b30b1aed3","system_id":"levelo_inurba_marseille","lat":43.28463,"lon":5.35894,"is_reserved":false,"is_disabled":false,"rental_uris":{"android":"levelo://app?vid=0688e1f9-1bf1-4863-9a6f-f01b30b1aed3","ios":"levelo://app?vid=0688e1f9-1bf1-4863-9a6f-f01b30b1aed3"},"vehicle_type_id":"4","last_reported":1730761717,"current_range_meters":40000,"station_id":"ce4bhah2rcd13ifvqei0","pricing_plan_id":"cebpf4jnsgd1na2vs0mg"},{"bike_id":"4ea0507a-3008-47a9-a8e4-08fc8842bae4","system_id":"levelo_inurba_marseille","lat":43.2718,"lon":5.4099,"is_reserved":false,"is_disabled":false,"rental_uris":{"android":"levelo://app?vid=4ea0507a-3008-47a9-a8e4-08fc8842bae4","ios":"levelo://app?vid=4ea0507a-3008-47a9-a8e4-08fc8842bae4"},"vehicle_type_id":"4","last_reported":1730761717,"current_range_meters":40000,"station_id":"ce4bhl12rcd13ifvqgf0","pricing_plan_id":"cebpf4jnsgd1na2vs0mg"},{"bike_id":"5f7bea16-ee2b-4b3b-8d0f-0102e87cabea","system_id":"levelo_inurba_marseille","lat":43.30802,"lon":5.43533,"is_reserved":false,"is_disabled":false,"rental_uris":{"android":"levelo://app?vid=5f7bea16-ee2b-4b3b-8d0f-0102e87cabea","ios":"levelo://app?vid=5f7bea16-ee2b-4b3b-8d0f-0102e87cabea"},"vehicle_type_id":"4","last_reported":1730761717,"current_range_meters":7200,"station_id":"ce4bhph2rcd13ifvqheg","pricing_plan_id":"cebpf4jnsgd1na2vs0mg"},{"bike_id":"9fd80cbe-8d2d-4f81-85e9-fb09f9cff6c5","system_id":"levelo_inurba_marseille","lat":43.29048,"lon":5.35918,"is_reserved":false,"is_disabled":false,"rental_uris":{"android":"levelo://app?vid=9fd80cbe-8d2d-4f81-85e9-fb09f9cff6c5","ios":"levelo://app?vid=9fd80cbe-8d2d-4f81-85e9-fb09f9cff6c5"},"vehicle_type_id":"4","last_reported":1730761717,"current_range_meters":17600,"station_id":"ce4bha92rcd13ifvqeg0","pricing_plan_id":"cebpf4jnsgd1na2vs0mg"},{"bike_id":"095ac0fd-1cb3-48a6-9da4-99e836b3b8c3","system_id":"levelo_inurba_marseille","lat":43.23186,"lon":5.39985,"is_reserved":false,"is_disabled":false,"rental_uris":{"android":"levelo://app?vid=095ac0fd-1cb3-48a6-9da4-99e836b3b8c3","ios":"levelo://app?vid=095ac0fd-1cb3-48a6-9da4-99e836b3b8c3"},"vehicle_type_id":"4","last_reported":1730761717,"current_range_meters":36400,"station_id":"ce4bhn12rcd13ifvqgqg","pricing_plan_id":"cebpf4jnsgd1na2vs0mg"},{"bike_id":"a034fd9f-6722-43e9-b566-c9a9b717b473","system_id":"levelo_inurba_marseille","lat":43.30605,"lon":5.37218,"is_reserved":false,"is_disabled":false,"rental_uris":{"android":"levelo://app?vid=a034fd9f-6722-43e9-b566-c9a9b717b473","ios":"levelo://app?vid=a034fd9f-6722-43e9-b566-c9a9b717b473"},"vehicle_type_id":"4","last_reported":1730761717,"current_range_meters":40000,"station_id":"ce4bgqh2rcd13ifvqc4g","pricing_plan_id":"cebpf4jnsgd1na2vs0mg"},{"bike_id":"190ab154-8298-4b3b-94c9-6d2abf0f4f50","system_id":"levelo_inurba_marseille","lat":43.28696,"lon":5.39988,"is_reserved":false,"is_disabled":false,"rental_uris":{"android":"levelo://app?vid=190ab154-8298-4b3b-94c9-6d2abf0f4f50","ios":"levelo://app?vid=190ab154-8298-4b3b-94c9-6d2abf0f4f50"},"vehicle_type_id":"4","last_reported":1730761717,"current_range_meters":28400,"station_id":"ce4bho92rcd13ifvqh3g","pricing_plan_id":"cebpf4jnsgd1na2vs0mg"},{"bike_id":"26f563a1-6925-4b54-9321-37a74c933ecd","system_id":"levelo_inurba_marseille","lat":43.285593,"lon":5.395004,"is_reserved":false,"is_disabled":false,"rental_uris":{"android":"levelo://app?vid=26f563a1-6925-4b54-9321-37a74c933ecd","ios":"levelo://app?vid=26f563a1-6925-4b54-9321-37a74c933ecd"},"vehicle_type_id":"4","last_reported":1730761717,"current_range_meters":39200,"station_id":"ce4bh292rcd13ifvqdg0","pricing_plan_id":"cebpf4jnsgd1na2vs0mg"},{"bike_id":"7456f770-5dea-4f37-afa6-eca01272107d","system_id":"levelo_inurba_marseille","lat":43.28409,"lon":5.37532,"is_reserved":false,"is_disabled":false,"rental_uris":{"android":"levelo://app?vid=7456f770-5dea-4f37-afa6-eca01272107d","ios":"levelo://app?vid=7456f770-5dea-4f37-afa6-eca01272107d"},"vehicle_type_id":"4","last_reported":1730761717,"current_range_meters":36400,"station_id":"ce4bh412rcd13ifvqds0","pricing_plan_id":"cebpf4jnsgd1na2vs0mg"},{"bike_id":"8a6108fb-39e5-44c9-bb0e-c92b1fbe0362","system_id":"levelo_inurba_marseille","lat":43.27997,"lon":5.40011,"is_reserved":false,"is_disabled":false,"rental_uris":{"android":"levelo://app?vid=8a6108fb-39e5-44c9-bb0e-c92b1fbe0362","ios":"levelo://app?vid=8a6108fb-39e5-44c9-bb0e-c92b1fbe0362"},"vehicle_type_id":"4","last_reported":1730761717,"current_range_meters":39200,"station_id":"ce4bho92rcd13ifvqh4g","pricing_plan_id":"cebpf4jnsgd1na2vs0mg"},{"bike_id":"d58881d1-fb71-4bd6-84f4-42463659a515","system_id":"levelo_inurba_marseille","lat":43.29522,"lon":5.39411,"is_reserved":false,"is_disabled":false,"rental_uris":{"android":"levelo://app?vid=d58881d1-fb71-4bd6-84f4-42463659a515","ios":"levelo://app?vid=d58881d1-fb71-4bd6-84f4-42463659a515"},"vehicle_type_id":"4","last_reported":1730761717,"current_range_meters":39200,"station_id":"ce4bh292rcd13ifvqdf0","pricing_plan_id":"cebpf4jnsgd1na2vs0mg"},{"bike_id":"8d5faf28-e526-4d5b-93d3-399bd2cb1046","system_id":"levelo_inurba_marseille","lat":43.31762,"lon":5.39027,"is_reserved":false,"is_disabled":false,"rental_uris":{"android":"levelo://app?vid=8d5faf28-e526-4d5b-93d3-399bd2cb1046","ios":"levelo://app?vid=8d5faf28-e526-4d5b-93d3-399bd2cb1046"},"vehicle_type_id":"4","last_reported":1730761717,"current_range_meters":12000,"station_id":"ce4bhqp2rcd13ifvqhng","pricing_plan_id":"cebpf4jnsgd1na2vs0mg"},{"bike_id":"d091c632-30d3-490c-afc1-84ac5592a733","system_id":"levelo_inurba_marseille","lat":43.31321,"lon":5.39695,"is_reserved":false,"is_disabled":false,"rental_uris":{"android":"levelo://app?vid=d091c632-30d3-490c-afc1-84ac5592a733","ios":"levelo://app?vid=d091c632-30d3-490c-afc1-84ac5592a733"},"vehicle_type_id":"4","last_reported":1730761717,"current_range_meters":20400,"station_id":"ce4bgvp2rcd13ifvqcu0","pricing_plan_id":"cebpf4jnsgd1na2vs0mg"},{"bike_id":"b937fd4a-52f2-4a1e-bc07-748f50a02f78","system_id":"levelo_inurba_marseille","lat":43.28698,"lon":5.37393,"is_reserved":false,"is_disabled":false,"rental_uris":{"android":"levelo://app?vid=b937fd4a-52f2-4a1e-bc07-748f50a02f78","ios":"levelo://app?vid=b937fd4a-52f2-4a1e-bc07-748f50a02f78"},"vehicle_type_id":"4","last_reported":1730761717,"current_range_meters":34000,"station_id":"ce4bh3p2rcd13ifvqdq0","pricing_plan_id":"cebpf4jnsgd1na2vs0mg"},{"bike_id":"09829a24-f639-4891-80cb-ed9f598d5fde","system_id":"levelo_inurba_marseille","lat":43.29195,"lon":5.39336,"is_reserved":false,"is_disabled":false,"rental_uris":{"android":"levelo://app?vid=09829a24-f639-4891-80cb-ed9f598d5fde","ios":"levelo://app?vid=09829a24-f639-4891-80cb-ed9f598d5fde"},"vehicle_type_id":"4","last_reported":1730761717,"current_range_meters":38400,"station_id":"ce4bh192rcd13ifvqdd0","pricing_plan_id":"cebpf4jnsgd1na2vs0mg"},{"bike_id":"4d39a779-31fa-49e8-8dd7-1884b4a4ae25","system_id":"levelo_inurba_marseille","lat":43.26194,"lon":5.3745,"is_reserved":false,"is_disabled":false,"rental_uris":{"android":"levelo://app?vid=4d39a779-31fa-49e8-8dd7-1884b4a4ae25","ios":"levelo://app?vid=4d39a779-31fa-49e8-8dd7-1884b4a4ae25"},"vehicle_type_id":"4","last_reported":1730761717,"current_range_meters":6400,"station_id":"ce4bhgp2rcd13ifvqfc0","pricing_plan_id":"cebpf4jnsgd1na2vs0mg"},{"bike_id":"8c90d0b3-f1b0-424d-a4c3-3b5f9d847e56","system_id":"levelo_inurba_marseille","lat":43.30601,"lon":5.3722,"is_reserved":false,"is_disabled":false,"rental_uris":{"android":"levelo://app?vid=8c90d0b3-f1b0-424d-a4c3-3b5f9d847e56","ios":"levelo://app?vid=8c90d0b3-f1b0-424d-a4c3-3b5f9d847e56"},"vehicle_type_id":"4","last_reported":1730761717,"current_range_meters":38800,"station_id":"ce4bgqh2rcd13ifvqc4g","pricing_plan_id":"cebpf4jnsgd1na2vs0mg"},{"bike_id":"488a81d4-ac37-4f27-9692-3a640bcfce1a","system_id":"levelo_inurba_marseille","lat":43.28412,"lon":5.37526,"is_reserved":false,"is_disabled":false,"rental_uris":{"android":"levelo://app?vid=488a81d4-ac37-4f27-9692-3a640bcfce1a","ios":"levelo://app?vid=488a81d4-ac37-4f27-9692-3a640bcfce1a"},"vehicle_type_id":"4","last_reported":1730761717,"current_range_meters":10800,"station_id":"ce4bh412rcd13ifvqds0","pricing_plan_id":"cebpf4jnsgd1na2vs0mg"},{"bike_id":"53b845dc-04ea-40c0-805b-a14f055c685a","system_id":"levelo_inurba_marseille","lat":43.30889,"lon":5.39649,"is_reserved":false,"is_disabled":false,"rental_uris":{"android":"levelo://app?vid=53b845dc-04ea-40c0-805b-a14f055c685a","ios":"levelo://app?vid=53b845dc-04ea-40c0-805b-a14f055c685a"},"vehicle_type_id":"4","last_reported":1730761717,"current_range_meters":38800,"station_id":"ce4bh012rcd13ifvqcv0","pricing_plan_id":"cebpf4jnsgd1na2vs0mg"},{"bike_id":"37deeb23-ece9-4f69-9fee-a33b9b0b9f3f","system_id":"levelo_inurba_marseille","lat":43.29519,"lon":5.39032,"is_reserved":false,"is_disabled":false,"rental_uris":{"android":"levelo://app?vid=37deeb23-ece9-4f69-9fee-a33b9b0b9f3f","ios":"levelo://app?vid=37deeb23-ece9-4f69-9fee-a33b9b0b9f3f"},"vehicle_type_id":"4","last_reported":1730761717,"current_range_meters":33600,"station_id":"ce4bh3p2rcd13ifvqdp0","pricing_plan_id":"cebpf4jnsgd1na2vs0mg"},{"bike_id":"80659de5-ff6a-45eb-8c9e-025397ab7c8e","system_id":"levelo_inurba_marseille","lat":43.30254,"lon":5.40087,"is_reserved":false,"is_disabled":false,"rental_uris":{"android":"levelo://app?vid=80659de5-ff6a-45eb-8c9e-025397ab7c8e","ios":"levelo://app?vid=80659de5-ff6a-45eb-8c9e-025397ab7c8e"},"vehicle_type_id":"4","last_reported":1730761717,"current_range_meters":38800,"station_id":"ce4bgvh2rcd13ifvqcs0","pricing_plan_id":"cebpf4jnsgd1na2vs0mg"},{"bike_id":"3aefeb89-86d7-4b13-b83a-b42cfb812c9d","system_id":"levelo_inurba_marseille","lat":43.25084,"lon":5.39512,"is_reserved":false,"is_disabled":false,"rental_uris":{"android":"levelo://app?vid=3aefeb89-86d7-4b13-b83a-b42cfb812c9d","ios":"levelo://app?vid=3aefeb89-86d7-4b13-b83a-b42cfb812c9d"},"vehicle_type_id":"4","last_reported":1730761717,"current_range_meters":38400,"station_id":"ce4bhm12rcd13ifvqgkg","pricing_plan_id":"cebpf4jnsgd1na2vs0mg"},{"bike_id":"eb39e603-ad9f-4225-9a3b-12ae2097763c","system_id":"levelo_inurba_marseille","lat":43.25086,"lon":5.39518,"is_reserved":false,"is_disabled":false,"rental_uris":{"android":"levelo://app?vid=eb39e603-ad9f-4225-9a3b-12ae2097763c","ios":"levelo://app?vid=eb39e603-ad9f-4225-9a3b-12ae2097763c"},"vehicle_type_id":"4","last_reported":1730761717,"current_range_meters":32400,"station_id":"ce4bhm12rcd13ifvqgkg","pricing_plan_id":"cebpf4jnsgd1na2vs0mg"},{"bike_id":"dfdbab8c-1f1d-443d-b108-183c4b7fb7c3","system_id":"levelo_inurba_marseille","lat":43.28075,"lon":5.39652,"is_reserved":false,"is_disabled":false,"rental_uris":{"android":"levelo://app?vid=dfdbab8c-1f1d-443d-b108-183c4b7fb7c3","ios":"levelo://app?vid=dfdbab8c-1f1d-443d-b108-183c4b7fb7c3"},"vehicle_type_id":"4","last_reported":1730761717,"current_range_meters":28000,"station_id":"ce4bho12rcd13ifvqh2g","pricing_plan_id":"cebpf4jnsgd1na2vs0mg"},{"bike_id":"ef035a9e-e33e-4137-b881-272584da15b9","system_id":"levelo_inurba_marseille","lat":43.27836,"lon":5.39204,"is_reserved":false,"is_disabled":false,"rental_uris":{"android":"levelo://app?vid=ef035a9e-e33e-4137-b881-272584da15b9","ios":"levelo://app?vid=ef035a9e-e33e-4137-b881-272584da15b9"},"vehicle_type_id":"4","last_reported":1730761717,"current_range_meters":10800,"station_id":"ce4bhjp2rcd13ifvqga0","pricing_plan_id":"cebpf4jnsgd1na2vs0mg"},{"bike_id":"5daac735-c79a-49be-a161-7db487112087","system_id":"levelo_inurba_marseille","lat":43.29878,"lon":5.39732,"is_reserved":false,"is_disabled":false,"rental_uris":{"android":"levelo://app?vid=5daac735-c79a-49be-a161-7db487112087","ios":"levelo://app?vid=5daac735-c79a-49be-a161-7db487112087"},"vehicle_type_id":"4","last_reported":1730761717,"current_range_meters":12000,"station_id":"ce4bh0h2rcd13ifvqd50","pricing_plan_id":"cebpf4jnsgd1na2vs0mg"},{"bike_id":"3ab4030e-66fe-403c-8479-fde3f9e0f5d6","system_id":"levelo_inurba_marseille","lat":43.29869,"lon":5.39737,"is_reserved":false,"is_disabled":false,"rental_uris":{"android":"levelo://app?vid=3ab4030e-66fe-403c-8479-fde3f9e0f5d6","ios":"levelo://app?vid=3ab4030e-66fe-403c-8479-fde3f9e0f5d6"},"vehicle_type_id":"4","last_reported":1730761717,"current_range_meters":38400,"station_id":"ce4bh0h2rcd13ifvqd50","pricing_plan_id":"cebpf4jnsgd1na2vs0mg"},{"bike_id":"bc09bd59-7629-4bf2-921b-6600d712b8de","system_id":"levelo_inurba_marseille","lat":43.28456,"lon":5.3589,"is_reserved":false,"is_disabled":false,"rental_uris":{"android":"levelo://app?vid=bc09bd59-7629-4bf2-921b-6600d712b8de","ios":"levelo://app?vid=bc09bd59-7629-4bf2-921b-6600d712b8de"},"vehicle_type_id":"4","last_reported":1730761717,"current_range_meters":24800,"station_id":"ce4bhah2rcd13ifvqei0","pricing_plan_id":"cebpf4jnsgd1na2vs0mg"},{"bike_id":"121905c7-01b0-4692-8011-dc845fe5434d","system_id":"levelo_inurba_marseille","lat":43.29372,"lon":5.37848,"is_reserved":false,"is_disabled":false,"rental_uris":{"android":"levelo://app?vid=121905c7-01b0-4692-8011-dc845fe5434d","ios":"levelo://app?vid=121905c7-01b0-4692-8011-dc845fe5434d"},"vehicle_type_id":"4","last_reported":1730761717,"current_range_meters":39200,"station_id":"ce4bgjh2rcd13ifvqbf0","pricing_plan_id":"cebpf4jnsgd1na2vs0mg"},{"bike_id":"0aded8fa-6c73-4a38-83ef-5eb881973e8f","system_id":"levelo_inurba_marseille","lat":43.28859,"lon":5.39309,"is_reserved":false,"is_disabled":false,"rental_uris":{"android":"levelo://app?vid=0aded8fa-6c73-4a38-83ef-5eb881973e8f","ios":"levelo://app?vid=0aded8fa-6c73-4a38-83ef-5eb881973e8f"},"vehicle_type_id":"4","last_reported":1730761717,"current_range_meters":31200,"station_id":"ce4bh2p2rcd13ifvqdi0","pricing_plan_id":"cebpf4jnsgd1na2vs0mg"},{"bike_id":"efd52e43-c6c4-4283-8f94-e8c17d086d54","system_id":"levelo_inurba_marseille","lat":43.2866,"lon":5.36358,"is_reserved":false,"is_disabled":false,"rental_uris":{"android":"levelo://app?vid=efd52e43-c6c4-4283-8f94-e8c17d086d54","ios":"levelo://app?vid=efd52e43-c6c4-4283-8f94-e8c17d086d54"},"vehicle_type_id":"4","last_reported":1730761717,"current_range_meters":32800,"station_id":"ce4bhah2rcd13ifvqej0","pricing_plan_id":"cebpf4jnsgd1na2vs0mg"},{"bike_id":"37b85e7a-f380-4294-b12c-b89ad324abcd","system_id":"levelo_inurba_marseille","lat":43.30183,"lon":5.36626,"is_reserved":false,"is_disabled":false,"rental_uris":{"android":"levelo://app?vid=37b85e7a-f380-4294-b12c-b89ad324abcd","ios":"levelo://app?vid=37b85e7a-f380-4294-b12c-b89ad324abcd"},"vehicle_type_id":"4","last_reported":1730761717,"current_range_meters":14000,"station_id":"ce4bgrh2rcd13ifvqc8g","pricing_plan_id":"cebpf4jnsgd1na2vs0mg"},{"bike_id":"87231ffe-0ac7-469b-8716-78c258e514db","system_id":"levelo_inurba_marseille","lat":43.24663,"lon":5.38163,"is_reserved":false,"is_disabled":false,"rental_uris":{"android":"levelo://app?vid=87231ffe-0ac7-469b-8716-78c258e514db","ios":"levelo://app?vid=87231ffe-0ac7-469b-8716-78c258e514db"},"vehicle_type_id":"4","last_reported":1730761717,"current_range_meters":38000,"station_id":"ce4bhih2rcd13ifvqfr0","pricing_plan_id":"cebpf4jnsgd1na2vs0mg"},{"bike_id":"1a262795-7407-49d2-b8b5-844e6a51667f","system_id":"levelo_inurba_marseille","lat":43.29238,"lon":5.36114,"is_reserved":false,"is_disabled":false,"rental_uris":{"android":"levelo://app?vid=1a262795-7407-49d2-b8b5-844e6a51667f","ios":"levelo://app?vid=1a262795-7407-49d2-b8b5-844e6a51667f"},"vehicle_type_id":"4","last_reported":1730761717,"current_range_meters":25600,"station_id":"ce4bhbh2rcd13ifvqeqg","pricing_plan_id":"cebpf4jnsgd1na2vs0mg"},{"bike_id":"d4472d20-9c4b-4c70-ad00-3a005519a429","system_id":"levelo_inurba_marseille","lat":43.35363,"lon":5.35734,"is_reserved":false,"is_disabled":false,"rental_uris":{"android":"levelo://app?vid=d4472d20-9c4b-4c70-ad00-3a005519a429","ios":"levelo://app?vid=d4472d20-9c4b-4c70-ad00-3a005519a429"},"vehicle_type_id":"4","last_reported":1730761717,"current_range_meters":8000,"station_id":"","pricing_plan_id":"cebpf4jnsgd1na2vs0mg"},{"bike_id":"ae6a1b6a-06bb-45b5-89b9-66a2e280fe8e","system_id":"levelo_inurba_marseille","lat":43.31072,"lon":5.38357,"is_reserved":false,"is_disabled":false,"rental_uris":{"android":"levelo://app?vid=ae6a1b6a-06bb-45b5-89b9-66a2e280fe8e","ios":"levelo://app?vid=ae6a1b6a-06bb-45b5-89b9-66a2e280fe8e"},"vehicle_type_id":"4","last_reported":1730761717,"current_range_meters":36800,"station_id":"ce4bgv92rcd13ifvqcr0","pricing_plan_id":"cebpf4jnsgd1na2vs0mg"},{"bike_id":"93e1a5ab-3065-4d73-b07a-8664739a1737","system_id":"levelo_inurba_marseille","lat":43.26946,"lon":5.40242,"is_reserved":false,"is_disabled":false,"rental_uris":{"android":"levelo://app?vid=93e1a5ab-3065-4d73-b07a-8664739a1737","ios":"levelo://app?vid=93e1a5ab-3065-4d73-b07a-8664739a1737"},"vehicle_type_id":"4","last_reported":1730761717,"current_range_meters":39200,"station_id":"cjm6bp8fraef2m0cb0m0","pricing_plan_id":"cebpf4jnsgd1na2vs0mg"},{"bike_id":"c84b0bfc-34a9-475b-9f04-6a326b51d4f9","system_id":"levelo_inurba_marseille","lat":43.29526,"lon":5.39052,"is_reserved":false,"is_disabled":false,"rental_uris":{"android":"levelo://app?vid=c84b0bfc-34a9-475b-9f04-6a326b51d4f9","ios":"levelo://app?vid=c84b0bfc-34a9-475b-9f04-6a326b51d4f9"},"vehicle_type_id":"4","last_reported":1730761717,"current_range_meters":38800,"station_id":"ce4bh3p2rcd13ifvqdp0","pricing_plan_id":"cebpf4jnsgd1na2vs0mg"},{"bike_id":"ca63c9ac-5579-4ae8-889f-e29bee4476de","system_id":"levelo_inurba_marseille","lat":43.23964,"lon":5.36639,"is_reserved":false,"is_disabled":false,"rental_uris":{"android":"levelo://app?vid=ca63c9ac-5579-4ae8-889f-e29bee4476de","ios":"levelo://app?vid=ca63c9ac-5579-4ae8-889f-e29bee4476de"},"vehicle_type_id":"4","last_reported":1730761717,"current_range_meters":31200,"station_id":"ce4bhi12rcd13ifvqfp0","pricing_plan_id":"cebpf4jnsgd1na2vs0mg"},{"bike_id":"056fa7e9-3474-4b79-b4b5-60d91300e07b","system_id":"levelo_inurba_marseille","lat":43.29976,"lon":5.37173,"is_reserved":false,"is_disabled":false,"rental_uris":{"android":"levelo://app?vid=056fa7e9-3474-4b79-b4b5-60d91300e07b","ios":"levelo://app?vid=056fa7e9-3474-4b79-b4b5-60d91300e07b"},"vehicle_type_id":"4","last_reported":1730761717,"current_range_meters":38000,"station_id":"ce4bgr92rcd13ifvqc7g","pricing_plan_id":"cebpf4jnsgd1na2vs0mg"},{"bike_id":"c0a06f5a-7eed-4816-bf28-311c03fae9d6","system_id":"levelo_inurba_marseille","lat":43.26211,"lon":5.37445,"is_reserved":false,"is_disabled":false,"rental_uris":{"android":"levelo://app?vid=c0a06f5a-7eed-4816-bf28-311c03fae9d6","ios":"levelo://app?vid=c0a06f5a-7eed-4816-bf28-311c03fae9d6"},"vehicle_type_id":"4","last_reported":1730761717,"current_range_meters":38800,"station_id":"ce4bhgp2rcd13ifvqfc0","pricing_plan_id":"cebpf4jnsgd1na2vs0mg"},{"bike_id":"b934b83b-a0ef-45c5-becd-ac014a76a723","system_id":"levelo_inurba_marseille","lat":43.29187,"lon":5.39316,"is_reserved":false,"is_disabled":false,"rental_uris":{"android":"levelo://app?vid=b934b83b-a0ef-45c5-becd-ac014a76a723","ios":"levelo://app?vid=b934b83b-a0ef-45c5-becd-ac014a76a723"},"vehicle_type_id":"4","last_reported":1730761717,"current_range_meters":38800,"station_id":"ce4bh192rcd13ifvqdd0","pricing_plan_id":"cebpf4jnsgd1na2vs0mg"},{"bike_id":"ed8908e8-3043-4187-a7bd-b9080da9eb38","system_id":"levelo_inurba_marseille","lat":43.30932,"lon":5.401485,"is_reserved":false,"is_disabled":false,"rental_uris":{"android":"levelo://app?vid=ed8908e8-3043-4187-a7bd-b9080da9eb38","ios":"levelo://app?vid=ed8908e8-3043-4187-a7bd-b9080da9eb38"},"vehicle_type_id":"4","last_reported":1730761717,"current_range_meters":38800,"station_id":"ce4bgvp2rcd13ifvqct0","pricing_plan_id":"cebpf4jnsgd1na2vs0mg"},{"bike_id":"f488b9ed-0390-49ea-8485-c8e550a2c621","system_id":"levelo_inurba_marseille","lat":43.3078,"lon":5.37658,"is_reserved":false,"is_disabled":false,"rental_uris":{"android":"levelo://app?vid=f488b9ed-0390-49ea-8485-c8e550a2c621","ios":"levelo://app?vid=f488b9ed-0390-49ea-8485-c8e550a2c621"},"vehicle_type_id":"4","last_reported":1730761717,"current_range_meters":20400,"station_id":"ce4bgv92rcd13ifvqcq0","pricing_plan_id":"cebpf4jnsgd1na2vs0mg"},{"bike_id":"0a1a40db-b474-4571-b7c4-fd7400638eb1","system_id":"levelo_inurba_marseille","lat":43.31713,"lon":5.4371,"is_reserved":false,"is_disabled":false,"rental_uris":{"android":"levelo://app?vid=0a1a40db-b474-4571-b7c4-fd7400638eb1","ios":"levelo://app?vid=0a1a40db-b474-4571-b7c4-fd7400638eb1"},"vehicle_type_id":"4","last_reported":1730761717,"current_range_meters":6800,"station_id":"ce4bhp92rcd13ifvqhcg","pricing_plan_id":"cebpf4jnsgd1na2vs0mg"},{"bike_id":"be5bb167-8e9d-4764-9cac-04dc5e3697e1","system_id":"levelo_inurba_marseille","lat":43.28455,"lon":5.35899,"is_reserved":false,"is_disabled":false,"rental_uris":{"android":"levelo://app?vid=be5bb167-8e9d-4764-9cac-04dc5e3697e1","ios":"levelo://app?vid=be5bb167-8e9d-4764-9cac-04dc5e3697e1"},"vehicle_type_id":"4","last_reported":1730761717,"current_range_meters":25600,"station_id":"ce4bhah2rcd13ifvqei0","pricing_plan_id":"cebpf4jnsgd1na2vs0mg"},{"bike_id":"fc4ff40e-36f2-4ff7-b01d-91d5f35360be","system_id":"levelo_inurba_marseille","lat":43.28664,"lon":5.3636,"is_reserved":false,"is_disabled":false,"rental_uris":{"android":"levelo://app?vid=fc4ff40e-36f2-4ff7-b01d-91d5f35360be","ios":"levelo://app?vid=fc4ff40e-36f2-4ff7-b01d-91d5f35360be"},"vehicle_type_id":"4","last_reported":1730761717,"current_range_meters":27200,"station_id":"ce4bhah2rcd13ifvqej0","pricing_plan_id":"cebpf4jnsgd1na2vs0mg"},{"bike_id":"2a620781-b8da-499d-9d4e-854e7a1d11af","system_id":"levelo_inurba_marseille","lat":43.271695,"lon":5.409912,"is_reserved":false,"is_disabled":false,"rental_uris":{"android":"levelo://app?vid=2a620781-b8da-499d-9d4e-854e7a1d11af","ios":"levelo://app?vid=2a620781-b8da-499d-9d4e-854e7a1d11af"},"vehicle_type_id":"4","last_reported":1730761717,"current_range_meters":40000,"station_id":"ce4bhl12rcd13ifvqgf0","pricing_plan_id":"cebpf4jnsgd1na2vs0mg"},{"bike_id":"ac8e8dbf-951e-4b21-b505-e77177b36fd2","system_id":"levelo_inurba_marseille","lat":43.27988,"lon":5.41658,"is_reserved":false,"is_disabled":false,"rental_uris":{"android":"levelo://app?vid=ac8e8dbf-951e-4b21-b505-e77177b36fd2","ios":"levelo://app?vid=ac8e8dbf-951e-4b21-b505-e77177b36fd2"},"vehicle_type_id":"4","last_reported":1730761717,"current_range_meters":19600,"station_id":"ce4bho12rcd13ifvqh1g","pricing_plan_id":"cebpf4jnsgd1na2vs0mg"},{"bike_id":"2dd40e8a-347a-4069-9f04-901c41b0a3c7","system_id":"levelo_inurba_marseille","lat":43.321,"lon":5.36776,"is_reserved":false,"is_disabled":false,"rental_uris":{"android":"levelo://app?vid=2dd40e8a-347a-4069-9f04-901c41b0a3c7","ios":"levelo://app?vid=2dd40e8a-347a-4069-9f04-901c41b0a3c7"},"vehicle_type_id":"4","last_reported":1730761717,"current_range_meters":38400,"station_id":"ce4bhrh2rcd13ifvqhug","pricing_plan_id":"cebpf4jnsgd1na2vs0mg"},{"bike_id":"55997e55-a382-466e-8f77-ed9e8d468b84","system_id":"levelo_inurba_marseille","lat":43.30417,"lon":5.41287,"is_reserved":false,"is_disabled":false,"rental_uris":{"android":"levelo://app?vid=55997e55-a382-466e-8f77-ed9e8d468b84","ios":"levelo://app?vid=55997e55-a382-466e-8f77-ed9e8d468b84"},"vehicle_type_id":"4","last_reported":1730761717,"current_range_meters":35200,"station_id":"ce4bhop2rcd13ifvqh8g","pricing_plan_id":"cebpf4jnsgd1na2vs0mg"},{"bike_id":"8377c6ae-db03-40cf-b6d8-e6a320e27281","system_id":"levelo_inurba_marseille","lat":43.30434,"lon":5.38893,"is_reserved":false,"is_disabled":false,"rental_uris":{"android":"levelo://app?vid=8377c6ae-db03-40cf-b6d8-e6a320e27281","ios":"levelo://app?vid=8377c6ae-db03-40cf-b6d8-e6a320e27281"},"vehicle_type_id":"4","last_reported":1730761717,"current_range_meters":39200,"station_id":"ce4bgk12rcd13ifvqbi0","pricing_plan_id":"cebpf4jnsgd1na2vs0mg"},{"bike_id":"6fc2326c-4cde-4ad0-9f66-cc0b4811ab5d","system_id":"levelo_inurba_marseille","lat":43.31992,"lon":5.38144,"is_reserved":false,"is_disabled":false,"rental_uris":{"android":"levelo://app?vid=6fc2326c-4cde-4ad0-9f66-cc0b4811ab5d","ios":"levelo://app?vid=6fc2326c-4cde-4ad0-9f66-cc0b4811ab5d"},"vehicle_type_id":"4","last_reported":1730761717,"current_range_meters":38400,"station_id":"ce4bhr12rcd13ifvqhpg","pricing_plan_id":"cebpf4jnsgd1na2vs0mg"},{"bike_id":"d22fb1b1-2550-4a1c-9826-b88923c7be78","system_id":"levelo_inurba_marseille","lat":43.308861,"lon":5.396452,"is_reserved":false,"is_disabled":false,"rental_uris":{"android":"levelo://app?vid=d22fb1b1-2550-4a1c-9826-b88923c7be78","ios":"levelo://app?vid=d22fb1b1-2550-4a1c-9826-b88923c7be78"},"vehicle_type_id":"4","last_reported":1730761717,"current_range_meters":22000,"station_id":"ce4bh012rcd13ifvqcv0","pricing_plan_id":"cebpf4jnsgd1na2vs0mg"},{"bike_id":"cb1bd95d-cf18-423c-b7c6-d1323760058d","system_id":"levelo_inurba_marseille","lat":43.24546,"lon":5.39526,"is_reserved":false,"is_disabled":false,"rental_uris":{"android":"levelo://app?vid=cb1bd95d-cf18-423c-b7c6-d1323760058d","ios":"levelo://app?vid=cb1bd95d-cf18-423c-b7c6-d1323760058d"},"vehicle_type_id":"4","last_reported":1730761717,"current_range_meters":21600,"station_id":"ce4bhlp2rcd13ifvqgjg","pricing_plan_id":"cebpf4jnsgd1na2vs0mg"},{"bike_id":"148ef324-e0ba-4f3f-a972-788a9d2d9cf2","system_id":"levelo_inurba_marseille","lat":43.28726,"lon":5.361,"is_reserved":false,"is_disabled":false,"rental_uris":{"android":"levelo://app?vid=148ef324-e0ba-4f3f-a972-788a9d2d9cf2","ios":"levelo://app?vid=148ef324-e0ba-4f3f-a972-788a9d2d9cf2"},"vehicle_type_id":"4","last_reported":1730761717,"current_range_meters":38800,"station_id":"cki0cbj6b192h4jlfktg","pricing_plan_id":"cebpf4jnsgd1na2vs0mg"},{"bike_id":"7ddf4dd9-e8f9-4545-aaa1-ba04aaba824c","system_id":"levelo_inurba_marseille","lat":43.31079,"lon":5.38363,"is_reserved":false,"is_disabled":false,"rental_uris":{"android":"levelo://app?vid=7ddf4dd9-e8f9-4545-aaa1-ba04aaba824c","ios":"levelo://app?vid=7ddf4dd9-e8f9-4545-aaa1-ba04aaba824c"},"vehicle_type_id":"4","last_reported":1730761717,"current_range_meters":38800,"station_id":"ce4bgv92rcd13ifvqcr0","pricing_plan_id":"cebpf4jnsgd1na2vs0mg"},{"bike_id":"c4c680eb-9f51-49ac-9bd1-919147a52d44","system_id":"levelo_inurba_marseille","lat":43.2987,"lon":5.39739,"is_reserved":false,"is_disabled":false,"rental_uris":{"android":"levelo://app?vid=c4c680eb-9f51-49ac-9bd1-919147a52d44","ios":"levelo://app?vid=c4c680eb-9f51-49ac-9bd1-919147a52d44"},"vehicle_type_id":"4","last_reported":1730761717,"current_range_meters":38800,"station_id":"ce4bh0h2rcd13ifvqd50","pricing_plan_id":"cebpf4jnsgd1na2vs0mg"},{"bike_id":"476b1032-3456-4e75-9225-7aec38b7121d","system_id":"levelo_inurba_marseille","lat":43.27811,"lon":5.4071,"is_reserved":false,"is_disabled":false,"rental_uris":{"android":"levelo://app?vid=476b1032-3456-4e75-9225-7aec38b7121d","ios":"levelo://app?vid=476b1032-3456-4e75-9225-7aec38b7121d"},"vehicle_type_id":"4","last_reported":1730761717,"current_range_meters":25600,"station_id":"ce4bhnh2rcd13ifvqgtg","pricing_plan_id":"cebpf4jnsgd1na2vs0mg"},{"bike_id":"bdde6b7b-ba8c-4d13-b147-d10426e579cd","system_id":"levelo_inurba_marseille","lat":43.31062,"lon":5.3835,"is_reserved":false,"is_disabled":false,"rental_uris":{"android":"levelo://app?vid=bdde6b7b-ba8c-4d13-b147-d10426e579cd","ios":"levelo://app?vid=bdde6b7b-ba8c-4d13-b147-d10426e579cd"},"vehicle_type_id":"4","last_reported":1730761717,"current_range_meters":38800,"station_id":"ce4bgv92rcd13ifvqcr0","pricing_plan_id":"cebpf4jnsgd1na2vs0mg"},{"bike_id":"9d764d20-b2dd-4da1-acae-03a5ed91a76d","system_id":"levelo_inurba_marseille","lat":43.28439,"lon":5.39194,"is_reserved":false,"is_disabled":false,"rental_uris":{"android":"levelo://app?vid=9d764d20-b2dd-4da1-acae-03a5ed91a76d","ios":"levelo://app?vid=9d764d20-b2dd-4da1-acae-03a5ed91a76d"},"vehicle_type_id":"4","last_reported":1730761717,"current_range_meters":36400,"station_id":"ce4bhoh2rcd13ifvqh5g","pricing_plan_id":"cebpf4jnsgd1na2vs0mg"},{"bike_id":"530dabc7-b859-4669-8c2f-1f8396192660","system_id":"levelo_inurba_marseille","lat":43.26676,"lon":5.38265,"is_reserved":false,"is_disabled":false,"rental_uris":{"android":"levelo://app?vid=530dabc7-b859-4669-8c2f-1f8396192660","ios":"levelo://app?vid=530dabc7-b859-4669-8c2f-1f8396192660"},"vehicle_type_id":"4","last_reported":1730761717,"current_range_meters":38400,"station_id":"ce4bhg92rcd13ifvqf90","pricing_plan_id":"cebpf4jnsgd1na2vs0mg"},{"bike_id":"1e424f81-48df-4d2e-870f-f07824c786da","system_id":"levelo_inurba_marseille","lat":43.28456,"lon":5.35883,"is_reserved":false,"is_disabled":false,"rental_uris":{"android":"levelo://app?vid=1e424f81-48df-4d2e-870f-f07824c786da","ios":"levelo://app?vid=1e424f81-48df-4d2e-870f-f07824c786da"},"vehicle_type_id":"4","last_reported":1730761717,"current_range_meters":32000,"station_id":"ce4bhah2rcd13ifvqei0","pricing_plan_id":"cebpf4jnsgd1na2vs0mg"},{"bike_id":"8b751894-1161-4d7b-a0e2-88850f36a102","system_id":"levelo_inurba_marseille","lat":43.31756,"lon":5.39016,"is_reserved":false,"is_disabled":false,"rental_uris":{"android":"levelo://app?vid=8b751894-1161-4d7b-a0e2-88850f36a102","ios":"levelo://app?vid=8b751894-1161-4d7b-a0e2-88850f36a102"},"vehicle_type_id":"4","last_reported":1730761717,"current_range_meters":40000,"station_id":"ce4bhqp2rcd13ifvqhng","pricing_plan_id":"cebpf4jnsgd1na2vs0mg"},{"bike_id":"3ef99431-3adb-46de-97da-821b1b9d3028","system_id":"levelo_inurba_marseille","lat":43.2694,"lon":5.40252,"is_reserved":false,"is_disabled":false,"rental_uris":{"android":"levelo://app?vid=3ef99431-3adb-46de-97da-821b1b9d3028","ios":"levelo://app?vid=3ef99431-3adb-46de-97da-821b1b9d3028"},"vehicle_type_id":"4","last_reported":1730761717,"current_range_meters":38800,"station_id":"cjm6bp8fraef2m0cb0m0","pricing_plan_id":"cebpf4jnsgd1na2vs0mg"},{"bike_id":"284a58f0-ac34-4623-8869-59696274e7c5","system_id":"levelo_inurba_marseille","lat":43.31079,"lon":5.38359,"is_reserved":false,"is_disabled":false,"rental_uris":{"android":"levelo://app?vid=284a58f0-ac34-4623-8869-59696274e7c5","ios":"levelo://app?vid=284a58f0-ac34-4623-8869-59696274e7c5"},"vehicle_type_id":"4","last_reported":1730761717,"current_range_meters":20800,"station_id":"ce4bgv92rcd13ifvqcr0","pricing_plan_id":"cebpf4jnsgd1na2vs0mg"},{"bike_id":"e99371b2-9ed2-4e9d-91f7-10d9ba9422d5","system_id":"levelo_inurba_marseille","lat":43.30928,"lon":5.40148,"is_reserved":false,"is_disabled":false,"rental_uris":{"android":"levelo://app?vid=e99371b2-9ed2-4e9d-91f7-10d9ba9422d5","ios":"levelo://app?vid=e99371b2-9ed2-4e9d-91f7-10d9ba9422d5"},"vehicle_type_id":"4","last_reported":1730761717,"current_range_meters":10000,"station_id":"ce4bgvp2rcd13ifvqct0","pricing_plan_id":"cebpf4jnsgd1na2vs0mg"},{"bike_id":"ee0f6b67-b360-47d4-b992-6d950adba1c0","system_id":"levelo_inurba_marseille","lat":43.30186,"lon":5.36613,"is_reserved":false,"is_disabled":false,"rental_uris":{"android":"levelo://app?vid=ee0f6b67-b360-47d4-b992-6d950adba1c0","ios":"levelo://app?vid=ee0f6b67-b360-47d4-b992-6d950adba1c0"},"vehicle_type_id":"4","last_reported":1730761717,"current_range_meters":39200,"station_id":"ce4bgrh2rcd13ifvqc8g","pricing_plan_id":"cebpf4jnsgd1na2vs0mg"},{"bike_id":"9c269b39-08b3-4bc3-a549-71a71e294410","system_id":"levelo_inurba_marseille","lat":43.29511,"lon":5.3941,"is_reserved":false,"is_disabled":false,"rental_uris":{"android":"levelo://app?vid=9c269b39-08b3-4bc3-a549-71a71e294410","ios":"levelo://app?vid=9c269b39-08b3-4bc3-a549-71a71e294410"},"vehicle_type_id":"4","last_reported":1730761717,"current_range_meters":39200,"station_id":"ce4bh292rcd13ifvqdf0","pricing_plan_id":"cebpf4jnsgd1na2vs0mg"},{"bike_id":"ba8f5d9a-4861-4465-b828-23e2245ef053","system_id":"levelo_inurba_marseille","lat":43.23182,"lon":5.39981,"is_reserved":false,"is_disabled":false,"rental_uris":{"android":"levelo://app?vid=ba8f5d9a-4861-4465-b828-23e2245ef053","ios":"levelo://app?vid=ba8f5d9a-4861-4465-b828-23e2245ef053"},"vehicle_type_id":"4","last_reported":1730761717,"current_range_meters":40000,"station_id":"ce4bhn12rcd13ifvqgqg","pricing_plan_id":"cebpf4jnsgd1na2vs0mg"},{"bike_id":"ae22785a-e15f-4630-a394-2894ebdaa36a","system_id":"levelo_inurba_marseille","lat":43.30463,"lon":5.37906,"is_reserved":false,"is_disabled":false,"rental_uris":{"android":"levelo://app?vid=ae22785a-e15f-4630-a394-2894ebdaa36a","ios":"levelo://app?vid=ae22785a-e15f-4630-a394-2894ebdaa36a"},"vehicle_type_id":"4","last_reported":1730761717,"current_range_meters":22000,"station_id":"ce4bgup2rcd13ifvqcn0","pricing_plan_id":"cebpf4jnsgd1na2vs0mg"},{"bike_id":"6c78a033-e104-48bc-bb54-3615bf76d1ad","system_id":"levelo_inurba_marseille","lat":43.25865,"lon":5.39904,"is_reserved":false,"is_disabled":false,"rental_uris":{"android":"levelo://app?vid=6c78a033-e104-48bc-bb54-3615bf76d1ad","ios":"levelo://app?vid=6c78a033-e104-48bc-bb54-3615bf76d1ad"},"vehicle_type_id":"4","last_reported":1730761717,"current_range_meters":39200,"station_id":"ce4bhl92rcd13ifvqghg","pricing_plan_id":"cebpf4jnsgd1na2vs0mg"},{"bike_id":"772f5a1a-0240-4436-8273-7fb69704d5fd","system_id":"levelo_inurba_marseille","lat":43.25083,"lon":5.39515,"is_reserved":false,"is_disabled":false,"rental_uris":{"android":"levelo://app?vid=772f5a1a-0240-4436-8273-7fb69704d5fd","ios":"levelo://app?vid=772f5a1a-0240-4436-8273-7fb69704d5fd"},"vehicle_type_id":"4","last_reported":1730761717,"current_range_meters":30800,"station_id":"ce4bhm12rcd13ifvqgkg","pricing_plan_id":"cebpf4jnsgd1na2vs0mg"},{"bike_id":"4b11c79c-dfa7-4974-b10a-7eafc40d21dd","system_id":"levelo_inurba_marseille","lat":43.30782,"lon":5.3766,"is_reserved":false,"is_disabled":false,"rental_uris":{"android":"levelo://app?vid=4b11c79c-dfa7-4974-b10a-7eafc40d21dd","ios":"levelo://app?vid=4b11c79c-dfa7-4974-b10a-7eafc40d21dd"},"vehicle_type_id":"4","last_reported":1730761717,"current_range_meters":34000,"station_id":"ce4bgv92rcd13ifvqcq0","pricing_plan_id":"cebpf4jnsgd1na2vs0mg"},{"bike_id":"7b4fe856-4dc7-41f6-b07c-6194ffb9d50b","system_id":"levelo_inurba_marseille","lat":43.25092,"lon":5.39514,"is_reserved":false,"is_disabled":false,"rental_uris":{"android":"levelo://app?vid=7b4fe856-4dc7-41f6-b07c-6194ffb9d50b","ios":"levelo://app?vid=7b4fe856-4dc7-41f6-b07c-6194ffb9d50b"},"vehicle_type_id":"4","last_reported":1730761717,"current_range_meters":38800,"station_id":"ce4bhm12rcd13ifvqgkg","pricing_plan_id":"cebpf4jnsgd1na2vs0mg"},{"bike_id":"4314c959-0960-488f-8a5e-47a2dcd21d56","system_id":"levelo_inurba_marseille","lat":43.31888,"lon":5.4073,"is_reserved":false,"is_disabled":false,"rental_uris":{"android":"levelo://app?vid=4314c959-0960-488f-8a5e-47a2dcd21d56","ios":"levelo://app?vid=4314c959-0960-488f-8a5e-47a2dcd21d56"},"vehicle_type_id":"4","last_reported":1730761717,"current_range_meters":39200,"station_id":"ce4bhq12rcd13ifvqhig","pricing_plan_id":"cebpf4jnsgd1na2vs0mg"},{"bike_id":"5d1708ee-ea56-470e-a759-d68052530c0f","system_id":"levelo_inurba_marseille","lat":43.30644,"lon":5.40091,"is_reserved":false,"is_disabled":false,"rental_uris":{"android":"levelo://app?vid=5d1708ee-ea56-470e-a759-d68052530c0f","ios":"levelo://app?vid=5d1708ee-ea56-470e-a759-d68052530c0f"},"vehicle_type_id":"4","last_reported":1730761717,"current_range_meters":38800,"station_id":"ce4bh112rcd13ifvqda0","pricing_plan_id":"cebpf4jnsgd1na2vs0mg"},{"bike_id":"beeef4e4-0d45-4dfa-9ccc-aedb2ce31115","system_id":"levelo_inurba_marseille","lat":43.32109,"lon":5.36779,"is_reserved":false,"is_disabled":false,"rental_uris":{"android":"levelo://app?vid=beeef4e4-0d45-4dfa-9ccc-aedb2ce31115","ios":"levelo://app?vid=beeef4e4-0d45-4dfa-9ccc-aedb2ce31115"},"vehicle_type_id":"4","last_reported":1730761717,"current_range_meters":28400,"station_id":"ce4bhrh2rcd13ifvqhug","pricing_plan_id":"cebpf4jnsgd1na2vs0mg"},{"bike_id":"ce3363fe-f85c-423f-8432-468153dec5d7","system_id":"levelo_inurba_marseille","lat":43.30257,"lon":5.40079,"is_reserved":false,"is_disabled":false,"rental_uris":{"android":"levelo://app?vid=ce3363fe-f85c-423f-8432-468153dec5d7","ios":"levelo://app?vid=ce3363fe-f85c-423f-8432-468153dec5d7"},"vehicle_type_id":"4","last_reported":1730761717,"current_range_meters":36800,"station_id":"ce4bgvh2rcd13ifvqcs0","pricing_plan_id":"cebpf4jnsgd1na2vs0mg"},{"bike_id":"1ea4c3c0-dbf4-4dab-b6f1-22e20d00b9a5","system_id":"levelo_inurba_marseille","lat":43.31167,"lon":5.38712,"is_reserved":false,"is_disabled":false,"rental_uris":{"android":"levelo://app?vid=1ea4c3c0-dbf4-4dab-b6f1-22e20d00b9a5","ios":"levelo://app?vid=1ea4c3c0-dbf4-4dab-b6f1-22e20d00b9a5"},"vehicle_type_id":"4","last_reported":1730761717,"current_range_meters":36800,"station_id":"ce4bgv12rcd13ifvqcp0","pricing_plan_id":"cebpf4jnsgd1na2vs0mg"},{"bike_id":"edf65442-8449-437f-8d6c-aa7a63763ef6","system_id":"levelo_inurba_marseille","lat":43.2849,"lon":5.38555,"is_reserved":false,"is_disabled":false,"rental_uris":{"android":"levelo://app?vid=edf65442-8449-437f-8d6c-aa7a63763ef6","ios":"levelo://app?vid=edf65442-8449-437f-8d6c-aa7a63763ef6"},"vehicle_type_id":"4","last_reported":1730761717,"current_range_meters":9600,"station_id":"ce4bh8p2rcd13ifvqeb0","pricing_plan_id":"cebpf4jnsgd1na2vs0mg"},{"bike_id":"ff79eb82-e5d1-4036-b08a-6743cabbacce","system_id":"levelo_inurba_marseille","lat":43.32283,"lon":5.38276,"is_reserved":false,"is_disabled":false,"rental_uris":{"android":"levelo://app?vid=ff79eb82-e5d1-4036-b08a-6743cabbacce","ios":"levelo://app?vid=ff79eb82-e5d1-4036-b08a-6743cabbacce"},"vehicle_type_id":"4","last_reported":1730761717,"current_range_meters":14000,"station_id":"ce4bhr12rcd13ifvqhqg","pricing_plan_id":"cebpf4jnsgd1na2vs0mg"},{"bike_id":"176ff4e6-f708-4c06-812b-5b1de7ea63cb","system_id":"levelo_inurba_marseille","lat":43.29256,"lon":5.4092,"is_reserved":false,"is_disabled":false,"rental_uris":{"android":"levelo://app?vid=176ff4e6-f708-4c06-812b-5b1de7ea63cb","ios":"levelo://app?vid=176ff4e6-f708-4c06-812b-5b1de7ea63cb"},"vehicle_type_id":"4","last_reported":1730761717,"current_range_meters":39200,"station_id":"ce4bh192rcd13ifvqdc0","pricing_plan_id":"cebpf4jnsgd1na2vs0mg"},{"bike_id":"71721fe2-35d7-41f2-9225-983e1943836f","system_id":"levelo_inurba_marseille","lat":43.33766,"lon":5.37473,"is_reserved":false,"is_disabled":false,"rental_uris":{"android":"levelo://app?vid=71721fe2-35d7-41f2-9225-983e1943836f","ios":"levelo://app?vid=71721fe2-35d7-41f2-9225-983e1943836f"},"vehicle_type_id":"4","last_reported":1730761717,"current_range_meters":38000,"station_id":"","pricing_plan_id":"cebpf4jnsgd1na2vs0mg"},{"bike_id":"c5bf435a-cb55-4832-b25b-c6a478d14c72","system_id":"levelo_inurba_marseille","lat":43.30265,"lon":5.40055,"is_reserved":false,"is_disabled":false,"rental_uris":{"android":"levelo://app?vid=c5bf435a-cb55-4832-b25b-c6a478d14c72","ios":"levelo://app?vid=c5bf435a-cb55-4832-b25b-c6a478d14c72"},"vehicle_type_id":"4","last_reported":1730761717,"current_range_meters":40000,"station_id":"ce4bgvh2rcd13ifvqcs0","pricing_plan_id":"cebpf4jnsgd1na2vs0mg"},{"bike_id":"1d63e703-0fa2-4f14-a658-9e2ec25cd456","system_id":"levelo_inurba_marseille","lat":43.29715,"lon":5.376927,"is_reserved":false,"is_disabled":false,"rental_uris":{"android":"levelo://app?vid=1d63e703-0fa2-4f14-a658-9e2ec25cd456","ios":"levelo://app?vid=1d63e703-0fa2-4f14-a658-9e2ec25cd456"},"vehicle_type_id":"4","last_reported":1730761717,"current_range_meters":38000,"station_id":"ce4bgkh2rcd13ifvqbl0","pricing_plan_id":"cebpf4jnsgd1na2vs0mg"},{"bike_id":"6c895aa1-f856-4bb1-a39a-0580e4bdd6fe","system_id":"levelo_inurba_marseille","lat":43.31764,"lon":5.39022,"is_reserved":false,"is_disabled":false,"rental_uris":{"android":"levelo://app?vid=6c895aa1-f856-4bb1-a39a-0580e4bdd6fe","ios":"levelo://app?vid=6c895aa1-f856-4bb1-a39a-0580e4bdd6fe"},"vehicle_type_id":"4","last_reported":1730761717,"current_range_meters":39200,"station_id":"ce4bhqp2rcd13ifvqhng","pricing_plan_id":"cebpf4jnsgd1na2vs0mg"},{"bike_id":"53ca85f3-0389-4ad8-8b15-fd863f9fff84","system_id":"levelo_inurba_marseille","lat":43.30252,"lon":5.40066,"is_reserved":false,"is_disabled":false,"rental_uris":{"android":"levelo://app?vid=53ca85f3-0389-4ad8-8b15-fd863f9fff84","ios":"levelo://app?vid=53ca85f3-0389-4ad8-8b15-fd863f9fff84"},"vehicle_type_id":"4","last_reported":1730761717,"current_range_meters":39200,"station_id":"ce4bgvh2rcd13ifvqcs0","pricing_plan_id":"cebpf4jnsgd1na2vs0mg"},{"bike_id":"697dd118-268c-406e-bad8-371dfe74ed47","system_id":"levelo_inurba_marseille","lat":43.31757,"lon":5.39015,"is_reserved":false,"is_disabled":false,"rental_uris":{"android":"levelo://app?vid=697dd118-268c-406e-bad8-371dfe74ed47","ios":"levelo://app?vid=697dd118-268c-406e-bad8-371dfe74ed47"},"vehicle_type_id":"4","last_reported":1730761717,"current_range_meters":36800,"station_id":"ce4bhqp2rcd13ifvqhng","pricing_plan_id":"cebpf4jnsgd1na2vs0mg"},{"bike_id":"cc6dacd3-4d41-4ba3-9ae7-c10a17bcccc1","system_id":"levelo_inurba_marseille","lat":43.27173,"lon":5.40983,"is_reserved":false,"is_disabled":false,"rental_uris":{"android":"levelo://app?vid=cc6dacd3-4d41-4ba3-9ae7-c10a17bcccc1","ios":"levelo://app?vid=cc6dacd3-4d41-4ba3-9ae7-c10a17bcccc1"},"vehicle_type_id":"4","last_reported":1730761717,"current_range_meters":21600,"station_id":"ce4bhl12rcd13ifvqgf0","pricing_plan_id":"cebpf4jnsgd1na2vs0mg"},{"bike_id":"cd6beada-9f09-4aef-8902-9ca2dfbf130c","system_id":"levelo_inurba_marseille","lat":43.32665,"lon":5.41008,"is_reserved":false,"is_disabled":false,"rental_uris":{"android":"levelo://app?vid=cd6beada-9f09-4aef-8902-9ca2dfbf130c","ios":"levelo://app?vid=cd6beada-9f09-4aef-8902-9ca2dfbf130c"},"vehicle_type_id":"4","last_reported":1730761717,"current_range_meters":38400,"station_id":"ce4bhpp2rcd13ifvqhgg","pricing_plan_id":"cebpf4jnsgd1na2vs0mg"},{"bike_id":"8d827c78-0176-46cb-8846-26b3afd0eebe","system_id":"levelo_inurba_marseille","lat":43.29015,"lon":5.38163,"is_reserved":false,"is_disabled":false,"rental_uris":{"android":"levelo://app?vid=8d827c78-0176-46cb-8846-26b3afd0eebe","ios":"levelo://app?vid=8d827c78-0176-46cb-8846-26b3afd0eebe"},"vehicle_type_id":"4","last_reported":1730761717,"current_range_meters":36000,"station_id":"ce4bh512rcd13ifvqe3g","pricing_plan_id":"cebpf4jnsgd1na2vs0mg"},{"bike_id":"fb55b91a-8e06-4813-8c4e-a864dbf76b47","system_id":"levelo_inurba_marseille","lat":43.28105,"lon":5.37839,"is_reserved":false,"is_disabled":false,"rental_uris":{"android":"levelo://app?vid=fb55b91a-8e06-4813-8c4e-a864dbf76b47","ios":"levelo://app?vid=fb55b91a-8e06-4813-8c4e-a864dbf76b47"},"vehicle_type_id":"4","last_reported":1730761717,"current_range_meters":26800,"station_id":"ce4bha12rcd13ifvqee0","pricing_plan_id":"cebpf4jnsgd1na2vs0mg"},{"bike_id":"ba0b5239-2f55-40e3-b795-58e5b6a45c54","system_id":"levelo_inurba_marseille","lat":43.30783,"lon":5.37648,"is_reserved":false,"is_disabled":false,"rental_uris":{"android":"levelo://app?vid=ba0b5239-2f55-40e3-b795-58e5b6a45c54","ios":"levelo://app?vid=ba0b5239-2f55-40e3-b795-58e5b6a45c54"},"vehicle_type_id":"4","last_reported":1730761717,"current_range_meters":39200,"station_id":"ce4bgv92rcd13ifvqcq0","pricing_plan_id":"cebpf4jnsgd1na2vs0mg"},{"bike_id":"fb1e742f-426f-44b1-b969-49f4f93c2973","system_id":"levelo_inurba_marseille","lat":43.2979,"lon":5.39353,"is_reserved":false,"is_disabled":false,"rental_uris":{"android":"levelo://app?vid=fb1e742f-426f-44b1-b969-49f4f93c2973","ios":"levelo://app?vid=fb1e742f-426f-44b1-b969-49f4f93c2973"},"vehicle_type_id":"4","last_reported":1730761717,"current_range_meters":38000,"station_id":"chh1huq6cuj3fo74tm60","pricing_plan_id":"cebpf4jnsgd1na2vs0mg"},{"bike_id":"35db7418-caea-44fa-9677-10c75926c990","system_id":"levelo_inurba_marseille","lat":43.27819,"lon":5.40717,"is_reserved":false,"is_disabled":false,"rental_uris":{"android":"levelo://app?vid=35db7418-caea-44fa-9677-10c75926c990","ios":"levelo://app?vid=35db7418-caea-44fa-9677-10c75926c990"},"vehicle_type_id":"4","last_reported":1730761717,"current_range_meters":14000,"station_id":"ce4bhnh2rcd13ifvqgtg","pricing_plan_id":"cebpf4jnsgd1na2vs0mg"},{"bike_id":"01f66810-1655-408b-9d69-c62fab5a7cc8","system_id":"levelo_inurba_marseille","lat":43.29794,"lon":5.39355,"is_reserved":false,"is_disabled":false,"rental_uris":{"android":"levelo://app?vid=01f66810-1655-408b-9d69-c62fab5a7cc8","ios":"levelo://app?vid=01f66810-1655-408b-9d69-c62fab5a7cc8"},"vehicle_type_id":"4","last_reported":1730761717,"current_range_meters":39200,"station_id":"chh1huq6cuj3fo74tm60","pricing_plan_id":"cebpf4jnsgd1na2vs0mg"},{"bike_id":"b543fb5a-af02-4ad5-b268-8a02bc55959a","system_id":"levelo_inurba_marseille","lat":43.31504,"lon":5.37302,"is_reserved":false,"is_disabled":false,"rental_uris":{"android":"levelo://app?vid=b543fb5a-af02-4ad5-b268-8a02bc55959a","ios":"levelo://app?vid=b543fb5a-af02-4ad5-b268-8a02bc55959a"},"vehicle_type_id":"4","last_reported":1730761717,"current_range_meters":35600,"station_id":"ce4bgt12rcd13ifvqcd0","pricing_plan_id":"cebpf4jnsgd1na2vs0mg"},{"bike_id":"dc11fb10-7966-4c34-a425-c94a472bc4a8","system_id":"levelo_inurba_marseille","lat":43.27989,"lon":5.40029,"is_reserved":false,"is_disabled":false,"rental_uris":{"android":"levelo://app?vid=dc11fb10-7966-4c34-a425-c94a472bc4a8","ios":"levelo://app?vid=dc11fb10-7966-4c34-a425-c94a472bc4a8"},"vehicle_type_id":"4","last_reported":1730761717,"current_range_meters":39200,"station_id":"ce4bho92rcd13ifvqh4g","pricing_plan_id":"cebpf4jnsgd1na2vs0mg"},{"bike_id":"f9b32f09-4fc6-4fd8-a1d9-57184b69f3d3","system_id":"levelo_inurba_marseille","lat":43.30181,"lon":5.36612,"is_reserved":false,"is_disabled":false,"rental_uris":{"android":"levelo://app?vid=f9b32f09-4fc6-4fd8-a1d9-57184b69f3d3","ios":"levelo://app?vid=f9b32f09-4fc6-4fd8-a1d9-57184b69f3d3"},"vehicle_type_id":"4","last_reported":1730761717,"current_range_meters":35200,"station_id":"ce4bgrh2rcd13ifvqc8g","pricing_plan_id":"cebpf4jnsgd1na2vs0mg"},{"bike_id":"ba04515b-2530-4f99-bfe4-78243134c10b","system_id":"levelo_inurba_marseille","lat":43.280579,"lon":5.409851,"is_reserved":false,"is_disabled":false,"rental_uris":{"android":"levelo://app?vid=ba04515b-2530-4f99-bfe4-78243134c10b","ios":"levelo://app?vid=ba04515b-2530-4f99-bfe4-78243134c10b"},"vehicle_type_id":"4","last_reported":1730761717,"current_range_meters":35200,"station_id":"","pricing_plan_id":"cebpf4jnsgd1na2vs0mg"},{"bike_id":"5bfadea6-7d89-4a6d-bc5b-ce4b0131d5c6","system_id":"levelo_inurba_marseille","lat":43.28581,"lon":5.39494,"is_reserved":false,"is_disabled":false,"rental_uris":{"android":"levelo://app?vid=5bfadea6-7d89-4a6d-bc5b-ce4b0131d5c6","ios":"levelo://app?vid=5bfadea6-7d89-4a6d-bc5b-ce4b0131d5c6"},"vehicle_type_id":"4","last_reported":1730761717,"current_range_meters":39200,"station_id":"ce4bh292rcd13ifvqdg0","pricing_plan_id":"cebpf4jnsgd1na2vs0mg"},{"bike_id":"de93a5ad-f4b7-43a9-a384-d70f5a94dc07","system_id":"levelo_inurba_marseille","lat":43.29521,"lon":5.39405,"is_reserved":false,"is_disabled":false,"rental_uris":{"android":"levelo://app?vid=de93a5ad-f4b7-43a9-a384-d70f5a94dc07","ios":"levelo://app?vid=de93a5ad-f4b7-43a9-a384-d70f5a94dc07"},"vehicle_type_id":"4","last_reported":1730761717,"current_range_meters":29600,"station_id":"ce4bh292rcd13ifvqdf0","pricing_plan_id":"cebpf4jnsgd1na2vs0mg"},{"bike_id":"8648e31a-7b38-4b69-b484-fe4573a4fb07","system_id":"levelo_inurba_marseille","lat":43.28972,"lon":5.37844,"is_reserved":false,"is_disabled":false,"rental_uris":{"android":"levelo://app?vid=8648e31a-7b38-4b69-b484-fe4573a4fb07","ios":"levelo://app?vid=8648e31a-7b38-4b69-b484-fe4573a4fb07"},"vehicle_type_id":"4","last_reported":1730761717,"current_range_meters":14400,"station_id":"ce4bh9p2rcd13ifvqed0","pricing_plan_id":"cebpf4jnsgd1na2vs0mg"},{"bike_id":"819340a6-562b-46a4-9301-df7b52968f6c","system_id":"levelo_inurba_marseille","lat":43.25112,"lon":5.40324,"is_reserved":false,"is_disabled":false,"rental_uris":{"android":"levelo://app?vid=819340a6-562b-46a4-9301-df7b52968f6c","ios":"levelo://app?vid=819340a6-562b-46a4-9301-df7b52968f6c"},"vehicle_type_id":"4","last_reported":1730761717,"current_range_meters":8400,"station_id":"ce4bhlh2rcd13ifvqgig","pricing_plan_id":"cebpf4jnsgd1na2vs0mg"},{"bike_id":"660f9ab5-0ee6-45bd-9ba0-20f4579b8e99","system_id":"levelo_inurba_marseille","lat":43.33599,"lon":5.41022,"is_reserved":false,"is_disabled":false,"rental_uris":{"android":"levelo://app?vid=660f9ab5-0ee6-45bd-9ba0-20f4579b8e99","ios":"levelo://app?vid=660f9ab5-0ee6-45bd-9ba0-20f4579b8e99"},"vehicle_type_id":"4","last_reported":1730761717,"current_range_meters":40000,"station_id":"ce4bhqh2rcd13ifvqhmg","pricing_plan_id":"cebpf4jnsgd1na2vs0mg"},{"bike_id":"194a0437-24f4-46dc-b1b1-f7378512a499","system_id":"levelo_inurba_marseille","lat":43.29245,"lon":5.39819,"is_reserved":false,"is_disabled":false,"rental_uris":{"android":"levelo://app?vid=194a0437-24f4-46dc-b1b1-f7378512a499","ios":"levelo://app?vid=194a0437-24f4-46dc-b1b1-f7378512a499"},"vehicle_type_id":"4","last_reported":1730761717,"current_range_meters":7200,"station_id":"","pricing_plan_id":"cebpf4jnsgd1na2vs0mg"},{"bike_id":"061ef25d-4a75-45e6-8f0d-443c96029c69","system_id":"levelo_inurba_marseille","lat":43.26571,"lon":5.39018,"is_reserved":false,"is_disabled":false,"rental_uris":{"android":"levelo://app?vid=061ef25d-4a75-45e6-8f0d-443c96029c69","ios":"levelo://app?vid=061ef25d-4a75-45e6-8f0d-443c96029c69"},"vehicle_type_id":"4","last_reported":1730761717,"current_range_meters":30000,"station_id":"ce4bhe12rcd13ifvqf30","pricing_plan_id":"cebpf4jnsgd1na2vs0mg"},{"bike_id":"a81d2ac0-3b70-4b29-8d65-9e29af3b7adc","system_id":"levelo_inurba_marseille","lat":43.28462,"lon":5.35891,"is_reserved":false,"is_disabled":false,"rental_uris":{"android":"levelo://app?vid=a81d2ac0-3b70-4b29-8d65-9e29af3b7adc","ios":"levelo://app?vid=a81d2ac0-3b70-4b29-8d65-9e29af3b7adc"},"vehicle_type_id":"4","last_reported":1730761717,"current_range_meters":37600,"station_id":"ce4bhah2rcd13ifvqei0","pricing_plan_id":"cebpf4jnsgd1na2vs0mg"},{"bike_id":"5fc9e1bd-0406-4ef1-8fbc-71d62631ecd1","system_id":"levelo_inurba_marseille","lat":43.29203,"lon":5.39326,"is_reserved":false,"is_disabled":false,"rental_uris":{"android":"levelo://app?vid=5fc9e1bd-0406-4ef1-8fbc-71d62631ecd1","ios":"levelo://app?vid=5fc9e1bd-0406-4ef1-8fbc-71d62631ecd1"},"vehicle_type_id":"4","last_reported":1730761717,"current_range_meters":22800,"station_id":"ce4bh192rcd13ifvqdd0","pricing_plan_id":"cebpf4jnsgd1na2vs0mg"},{"bike_id":"d844a569-2803-4908-ac9c-866a60aea8c4","system_id":"levelo_inurba_marseille","lat":43.29864,"lon":5.39739,"is_reserved":false,"is_disabled":false,"rental_uris":{"android":"levelo://app?vid=d844a569-2803-4908-ac9c-866a60aea8c4","ios":"levelo://app?vid=d844a569-2803-4908-ac9c-866a60aea8c4"},"vehicle_type_id":"4","last_reported":1730761717,"current_range_meters":38800,"station_id":"ce4bh0h2rcd13ifvqd50","pricing_plan_id":"cebpf4jnsgd1na2vs0mg"},{"bike_id":"32226b21-dbcc-474c-9004-398b3fdc8208","system_id":"levelo_inurba_marseille","lat":43.28455,"lon":5.35895,"is_reserved":false,"is_disabled":false,"rental_uris":{"android":"levelo://app?vid=32226b21-dbcc-474c-9004-398b3fdc8208","ios":"levelo://app?vid=32226b21-dbcc-474c-9004-398b3fdc8208"},"vehicle_type_id":"4","last_reported":1730761717,"current_range_meters":40000,"station_id":"ce4bhah2rcd13ifvqei0","pricing_plan_id":"cebpf4jnsgd1na2vs0mg"},{"bike_id":"06e0eef9-fe31-4959-ba0c-f1757f32cba7","system_id":"levelo_inurba_marseille","lat":43.31888,"lon":5.40737,"is_reserved":false,"is_disabled":false,"rental_uris":{"android":"levelo://app?vid=06e0eef9-fe31-4959-ba0c-f1757f32cba7","ios":"levelo://app?vid=06e0eef9-fe31-4959-ba0c-f1757f32cba7"},"vehicle_type_id":"4","last_reported":1730761717,"current_range_meters":32000,"station_id":"ce4bhq12rcd13ifvqhig","pricing_plan_id":"cebpf4jnsgd1na2vs0mg"},{"bike_id":"d169fccc-2744-44e0-bab4-cffd1ec4c6f6","system_id":"levelo_inurba_marseille","lat":43.31366,"lon":5.38488,"is_reserved":false,"is_disabled":false,"rental_uris":{"android":"levelo://app?vid=d169fccc-2744-44e0-bab4-cffd1ec4c6f6","ios":"levelo://app?vid=d169fccc-2744-44e0-bab4-cffd1ec4c6f6"},"vehicle_type_id":"4","last_reported":1730761717,"current_range_meters":30000,"station_id":"ce4bgt92rcd13ifvqcf0","pricing_plan_id":"cebpf4jnsgd1na2vs0mg"},{"bike_id":"8e11a423-f1bd-46aa-b37b-5165df3156db","system_id":"levelo_inurba_marseille","lat":43.32336,"lon":5.40623,"is_reserved":false,"is_disabled":false,"rental_uris":{"android":"levelo://app?vid=8e11a423-f1bd-46aa-b37b-5165df3156db","ios":"levelo://app?vid=8e11a423-f1bd-46aa-b37b-5165df3156db"},"vehicle_type_id":"4","last_reported":1730761717,"current_range_meters":9600,"station_id":"ce4bhq92rcd13ifvqhjg","pricing_plan_id":"cebpf4jnsgd1na2vs0mg"},{"bike_id":"cb3e0f7a-2749-41ab-b789-484e25d26bc7","system_id":"levelo_inurba_marseille","lat":43.29798,"lon":5.37106,"is_reserved":false,"is_disabled":false,"rental_uris":{"android":"levelo://app?vid=cb3e0f7a-2749-41ab-b789-484e25d26bc7","ios":"levelo://app?vid=cb3e0f7a-2749-41ab-b789-484e25d26bc7"},"vehicle_type_id":"4","last_reported":1730761717,"current_range_meters":32000,"station_id":"ce4bgop2rcd13ifvqc1g","pricing_plan_id":"cebpf4jnsgd1na2vs0mg"},{"bike_id":"823967de-5ba0-4689-8bf8-641b466fd8b1","system_id":"levelo_inurba_marseille","lat":43.23201,"lon":5.35558,"is_reserved":false,"is_disabled":false,"rental_uris":{"android":"levelo://app?vid=823967de-5ba0-4689-8bf8-641b466fd8b1","ios":"levelo://app?vid=823967de-5ba0-4689-8bf8-641b466fd8b1"},"vehicle_type_id":"4","last_reported":1730761717,"current_range_meters":39200,"station_id":"ce4bhu92rcd13ifvqi70","pricing_plan_id":"cebpf4jnsgd1na2vs0mg"},{"bike_id":"df2000e4-7ce1-46ba-980f-a90a63f2d7a2","system_id":"levelo_inurba_marseille","lat":43.29849,"lon":5.36285,"is_reserved":false,"is_disabled":false,"rental_uris":{"android":"levelo://app?vid=df2000e4-7ce1-46ba-980f-a90a63f2d7a2","ios":"levelo://app?vid=df2000e4-7ce1-46ba-980f-a90a63f2d7a2"},"vehicle_type_id":"4","last_reported":1730761717,"current_range_meters":38800,"station_id":"ce4bgpp2rcd13ifvqc3g","pricing_plan_id":"cebpf4jnsgd1na2vs0mg"},{"bike_id":"65557df6-2816-42b1-b18c-f4f90151d698","system_id":"levelo_inurba_marseille","lat":43.3137,"lon":5.38501,"is_reserved":false,"is_disabled":false,"rental_uris":{"android":"levelo://app?vid=65557df6-2816-42b1-b18c-f4f90151d698","ios":"levelo://app?vid=65557df6-2816-42b1-b18c-f4f90151d698"},"vehicle_type_id":"4","last_reported":1730761717,"current_range_meters":39200,"station_id":"ce4bgt92rcd13ifvqcf0","pricing_plan_id":"cebpf4jnsgd1na2vs0mg"},{"bike_id":"1252ec32-0d22-4483-8127-23590df1d2a6","system_id":"levelo_inurba_marseille","lat":43.2573,"lon":5.41118,"is_reserved":false,"is_disabled":false,"rental_uris":{"android":"levelo://app?vid=1252ec32-0d22-4483-8127-23590df1d2a6","ios":"levelo://app?vid=1252ec32-0d22-4483-8127-23590df1d2a6"},"vehicle_type_id":"4","last_reported":1730761717,"current_range_meters":25200,"station_id":"ce4bhkp2rcd13ifvqgd0","pricing_plan_id":"cebpf4jnsgd1na2vs0mg"},{"bike_id":"371ed9b9-117f-4304-a294-be3251d3642c","system_id":"levelo_inurba_marseille","lat":43.31758,"lon":5.3902,"is_reserved":false,"is_disabled":false,"rental_uris":{"android":"levelo://app?vid=371ed9b9-117f-4304-a294-be3251d3642c","ios":"levelo://app?vid=371ed9b9-117f-4304-a294-be3251d3642c"},"vehicle_type_id":"4","last_reported":1730761717,"current_range_meters":28800,"station_id":"ce4bhqp2rcd13ifvqhng","pricing_plan_id":"cebpf4jnsgd1na2vs0mg"},{"bike_id":"952d3c9f-096e-4042-9ee5-ace51a8b176b","system_id":"levelo_inurba_marseille","lat":43.2956,"lon":5.42291,"is_reserved":false,"is_disabled":false,"rental_uris":{"android":"levelo://app?vid=952d3c9f-096e-4042-9ee5-ace51a8b176b","ios":"levelo://app?vid=952d3c9f-096e-4042-9ee5-ace51a8b176b"},"vehicle_type_id":"4","last_reported":1730761717,"current_range_meters":37600,"station_id":"ce4bhph2rcd13ifvqhdg","pricing_plan_id":"cebpf4jnsgd1na2vs0mg"},{"bike_id":"99e882d5-29de-49d7-b824-19e3a26af3e8","system_id":"levelo_inurba_marseille","lat":43.29943,"lon":5.36559,"is_reserved":false,"is_disabled":false,"rental_uris":{"android":"levelo://app?vid=99e882d5-29de-49d7-b824-19e3a26af3e8","ios":"levelo://app?vid=99e882d5-29de-49d7-b824-19e3a26af3e8"},"vehicle_type_id":"4","last_reported":1730761717,"current_range_meters":18800,"station_id":"ce4bgm92rcd13ifvqbr0","pricing_plan_id":"cebpf4jnsgd1na2vs0mg"},{"bike_id":"27287e15-3f4d-4cfb-a562-43f6a94ccd50","system_id":"levelo_inurba_marseille","lat":43.29908,"lon":5.37482,"is_reserved":false,"is_disabled":false,"rental_uris":{"android":"levelo://app?vid=27287e15-3f4d-4cfb-a562-43f6a94ccd50","ios":"levelo://app?vid=27287e15-3f4d-4cfb-a562-43f6a94ccd50"},"vehicle_type_id":"4","last_reported":1730761717,"current_range_meters":8400,"station_id":"ce4bgjh2rcd13ifvqbg0","pricing_plan_id":"cebpf4jnsgd1na2vs0mg"},{"bike_id":"b97d231f-b06d-444f-93ba-90193ccee906","system_id":"levelo_inurba_marseille","lat":43.25084,"lon":5.39513,"is_reserved":false,"is_disabled":false,"rental_uris":{"android":"levelo://app?vid=b97d231f-b06d-444f-93ba-90193ccee906","ios":"levelo://app?vid=b97d231f-b06d-444f-93ba-90193ccee906"},"vehicle_type_id":"4","last_reported":1730761717,"current_range_meters":38400,"station_id":"ce4bhm12rcd13ifvqgkg","pricing_plan_id":"cebpf4jnsgd1na2vs0mg"},{"bike_id":"ed3cc475-9352-4500-9e2a-f8144dc4b6f1","system_id":"levelo_inurba_marseille","lat":43.33027,"lon":5.39052,"is_reserved":false,"is_disabled":false,"rental_uris":{"android":"levelo://app?vid=ed3cc475-9352-4500-9e2a-f8144dc4b6f1","ios":"levelo://app?vid=ed3cc475-9352-4500-9e2a-f8144dc4b6f1"},"vehicle_type_id":"4","last_reported":1730761717,"current_range_meters":40000,"station_id":"ce4bhr92rcd13ifvqhrg","pricing_plan_id":"cebpf4jnsgd1na2vs0mg"},{"bike_id":"70564515-7b78-4a47-885c-ce95b9b32f7b","system_id":"levelo_inurba_marseille","lat":43.23065,"lon":5.35502,"is_reserved":false,"is_disabled":false,"rental_uris":{"android":"levelo://app?vid=70564515-7b78-4a47-885c-ce95b9b32f7b","ios":"levelo://app?vid=70564515-7b78-4a47-885c-ce95b9b32f7b"},"vehicle_type_id":"4","last_reported":1730761717,"current_range_meters":34800,"station_id":"cpo3342slgdg3j2ifvpg","pricing_plan_id":"cebpf4jnsgd1na2vs0mg"},{"bike_id":"683d5dbe-5bd3-40ba-ae6e-0a3d7f949763","system_id":"levelo_inurba_marseille","lat":43.27978,"lon":5.3875,"is_reserved":false,"is_disabled":false,"rental_uris":{"android":"levelo://app?vid=683d5dbe-5bd3-40ba-ae6e-0a3d7f949763","ios":"levelo://app?vid=683d5dbe-5bd3-40ba-ae6e-0a3d7f949763"},"vehicle_type_id":"4","last_reported":1730761717,"current_range_meters":20000,"station_id":"ce4bhg12rcd13ifvqf80","pricing_plan_id":"cebpf4jnsgd1na2vs0mg"},{"bike_id":"47777ef0-ae72-45a5-9a07-ba48e982d3c9","system_id":"levelo_inurba_marseille","lat":43.31119,"lon":5.37771,"is_reserved":false,"is_disabled":false,"rental_uris":{"android":"levelo://app?vid=47777ef0-ae72-45a5-9a07-ba48e982d3c9","ios":"levelo://app?vid=47777ef0-ae72-45a5-9a07-ba48e982d3c9"},"vehicle_type_id":"4","last_reported":1730761717,"current_range_meters":38800,"station_id":"ce4bgt92rcd13ifvqcg0","pricing_plan_id":"cebpf4jnsgd1na2vs0mg"},{"bike_id":"9f376b10-d50e-4eca-b2c0-88629c3daaaf","system_id":"levelo_inurba_marseille","lat":43.28445,"lon":5.392063,"is_reserved":false,"is_disabled":false,"rental_uris":{"android":"levelo://app?vid=9f376b10-d50e-4eca-b2c0-88629c3daaaf","ios":"levelo://app?vid=9f376b10-d50e-4eca-b2c0-88629c3daaaf"},"vehicle_type_id":"4","last_reported":1730761717,"current_range_meters":38800,"station_id":"ce4bhoh2rcd13ifvqh5g","pricing_plan_id":"cebpf4jnsgd1na2vs0mg"},{"bike_id":"7a58136c-3165-4313-8fac-2c364b399752","system_id":"levelo_inurba_marseille","lat":43.337262,"lon":5.391917,"is_reserved":false,"is_disabled":false,"rental_uris":{"android":"levelo://app?vid=7a58136c-3165-4313-8fac-2c364b399752","ios":"levelo://app?vid=7a58136c-3165-4313-8fac-2c364b399752"},"vehicle_type_id":"4","last_reported":1730761717,"current_range_meters":26800,"station_id":"ce4bhr92rcd13ifvqhsg","pricing_plan_id":"cebpf4jnsgd1na2vs0mg"},{"bike_id":"a422d3ad-87b5-492e-ad8f-69176f6bde58","system_id":"levelo_inurba_marseille","lat":43.30436,"lon":5.38891,"is_reserved":false,"is_disabled":false,"rental_uris":{"android":"levelo://app?vid=a422d3ad-87b5-492e-ad8f-69176f6bde58","ios":"levelo://app?vid=a422d3ad-87b5-492e-ad8f-69176f6bde58"},"vehicle_type_id":"4","last_reported":1730761717,"current_range_meters":11600,"station_id":"ce4bgk12rcd13ifvqbi0","pricing_plan_id":"cebpf4jnsgd1na2vs0mg"},{"bike_id":"eeb4ba85-95a0-470b-8187-12bea3eb846a","system_id":"levelo_inurba_marseille","lat":43.29069,"lon":5.37167,"is_reserved":false,"is_disabled":false,"rental_uris":{"android":"levelo://app?vid=eeb4ba85-95a0-470b-8187-12bea3eb846a","ios":"levelo://app?vid=eeb4ba85-95a0-470b-8187-12bea3eb846a"},"vehicle_type_id":"4","last_reported":1730761717,"current_range_meters":24000,"station_id":"ce4bh5p2rcd13ifvqe4g","pricing_plan_id":"cebpf4jnsgd1na2vs0mg"},{"bike_id":"409c0a55-6dac-4fef-ba1b-42fcecebf4e6","system_id":"levelo_inurba_marseille","lat":43.29795,"lon":5.40411,"is_reserved":false,"is_disabled":false,"rental_uris":{"android":"levelo://app?vid=409c0a55-6dac-4fef-ba1b-42fcecebf4e6","ios":"levelo://app?vid=409c0a55-6dac-4fef-ba1b-42fcecebf4e6"},"vehicle_type_id":"4","last_reported":1730761717,"current_range_meters":37600,"station_id":"ce4bh112rcd13ifvqd90","pricing_plan_id":"cebpf4jnsgd1na2vs0mg"},{"bike_id":"d53b57e5-6868-433d-b990-24fcbe41bcf1","system_id":"levelo_inurba_marseille","lat":43.27566,"lon":5.38424,"is_reserved":false,"is_disabled":false,"rental_uris":{"android":"levelo://app?vid=d53b57e5-6868-433d-b990-24fcbe41bcf1","ios":"levelo://app?vid=d53b57e5-6868-433d-b990-24fcbe41bcf1"},"vehicle_type_id":"4","last_reported":1730761717,"current_range_meters":34800,"station_id":"ce4bhh92rcd13ifvqfi0","pricing_plan_id":"cebpf4jnsgd1na2vs0mg"},{"bike_id":"a8758df9-3f5a-492e-a2ad-bc762183546e","system_id":"levelo_inurba_marseille","lat":43.28413,"lon":5.37518,"is_reserved":false,"is_disabled":false,"rental_uris":{"android":"levelo://app?vid=a8758df9-3f5a-492e-a2ad-bc762183546e","ios":"levelo://app?vid=a8758df9-3f5a-492e-a2ad-bc762183546e"},"vehicle_type_id":"4","last_reported":1730761717,"current_range_meters":9600,"station_id":"ce4bh412rcd13ifvqds0","pricing_plan_id":"cebpf4jnsgd1na2vs0mg"},{"bike_id":"72311b47-e55f-44fd-bec1-136afe2e33c3","system_id":"levelo_inurba_marseille","lat":43.310793,"lon":5.424313,"is_reserved":false,"is_disabled":false,"rental_uris":{"android":"levelo://app?vid=72311b47-e55f-44fd-bec1-136afe2e33c3","ios":"levelo://app?vid=72311b47-e55f-44fd-bec1-136afe2e33c3"},"vehicle_type_id":"4","last_reported":1730761717,"current_range_meters":6000,"station_id":"ce4bhp92rcd13ifvqhag","pricing_plan_id":"cebpf4jnsgd1na2vs0mg"},{"bike_id":"b592aa30-9f80-4f5b-a0ff-da2be38dcc1f","system_id":"levelo_inurba_marseille","lat":43.32112,"lon":5.36785,"is_reserved":false,"is_disabled":false,"rental_uris":{"android":"levelo://app?vid=b592aa30-9f80-4f5b-a0ff-da2be38dcc1f","ios":"levelo://app?vid=b592aa30-9f80-4f5b-a0ff-da2be38dcc1f"},"vehicle_type_id":"4","last_reported":1730761717,"current_range_meters":38800,"station_id":"ce4bhrh2rcd13ifvqhug","pricing_plan_id":"cebpf4jnsgd1na2vs0mg"},{"bike_id":"993abc75-e41c-4629-a65d-a2dc69f1709d","system_id":"levelo_inurba_marseille","lat":43.31726,"lon":5.42405,"is_reserved":false,"is_disabled":false,"rental_uris":{"android":"levelo://app?vid=993abc75-e41c-4629-a65d-a2dc69f1709d","ios":"levelo://app?vid=993abc75-e41c-4629-a65d-a2dc69f1709d"},"vehicle_type_id":"4","last_reported":1730761717,"current_range_meters":38000,"station_id":"ce4bhp92rcd13ifvqhbg","pricing_plan_id":"cebpf4jnsgd1na2vs0mg"},{"bike_id":"eab47ed5-f83a-4939-80d1-ff052743bdd1","system_id":"levelo_inurba_marseille","lat":43.32111,"lon":5.36779,"is_reserved":false,"is_disabled":false,"rental_uris":{"android":"levelo://app?vid=eab47ed5-f83a-4939-80d1-ff052743bdd1","ios":"levelo://app?vid=eab47ed5-f83a-4939-80d1-ff052743bdd1"},"vehicle_type_id":"4","last_reported":1730761717,"current_range_meters":34000,"station_id":"ce4bhrh2rcd13ifvqhug","pricing_plan_id":"cebpf4jnsgd1na2vs0mg"},{"bike_id":"c4aee5f9-3283-404b-9d7c-b250e3468d34","system_id":"levelo_inurba_marseille","lat":43.29359,"lon":5.3785,"is_reserved":false,"is_disabled":false,"rental_uris":{"android":"levelo://app?vid=c4aee5f9-3283-404b-9d7c-b250e3468d34","ios":"levelo://app?vid=c4aee5f9-3283-404b-9d7c-b250e3468d34"},"vehicle_type_id":"4","last_reported":1730761717,"current_range_meters":32400,"station_id":"ce4bgjh2rcd13ifvqbf0","pricing_plan_id":"cebpf4jnsgd1na2vs0mg"},{"bike_id":"a0be6000-a8f5-4b39-a1ab-df18f1dd4304","system_id":"levelo_inurba_marseille","lat":43.2835,"lon":5.38111,"is_reserved":false,"is_disabled":false,"rental_uris":{"android":"levelo://app?vid=a0be6000-a8f5-4b39-a1ab-df18f1dd4304","ios":"levelo://app?vid=a0be6000-a8f5-4b39-a1ab-df18f1dd4304"},"vehicle_type_id":"4","last_reported":1730761717,"current_range_meters":23200,"station_id":"ce4bh412rcd13ifvqdr0","pricing_plan_id":"cebpf4jnsgd1na2vs0mg"},{"bike_id":"4e0a16b8-fcb6-4c9c-8dbd-eae87006da67","system_id":"levelo_inurba_marseille","lat":43.31488,"lon":5.37313,"is_reserved":false,"is_disabled":false,"rental_uris":{"android":"levelo://app?vid=4e0a16b8-fcb6-4c9c-8dbd-eae87006da67","ios":"levelo://app?vid=4e0a16b8-fcb6-4c9c-8dbd-eae87006da67"},"vehicle_type_id":"4","last_reported":1730761717,"current_range_meters":10800,"station_id":"ce4bgt12rcd13ifvqcd0","pricing_plan_id":"cebpf4jnsgd1na2vs0mg"},{"bike_id":"5b041e65-a357-4f5f-8060-dee3ef26553f","system_id":"levelo_inurba_marseille","lat":43.26205,"lon":5.37928,"is_reserved":false,"is_disabled":false,"rental_uris":{"android":"levelo://app?vid=5b041e65-a357-4f5f-8060-dee3ef26553f","ios":"levelo://app?vid=5b041e65-a357-4f5f-8060-dee3ef26553f"},"vehicle_type_id":"4","last_reported":1730761717,"current_range_meters":28000,"station_id":"ce4bhjp2rcd13ifvqg90","pricing_plan_id":"cebpf4jnsgd1na2vs0mg"},{"bike_id":"02dbcd6c-8390-4265-bdef-38c0c6b3b526","system_id":"levelo_inurba_marseille","lat":43.26057,"lon":5.39394,"is_reserved":false,"is_disabled":false,"rental_uris":{"android":"levelo://app?vid=02dbcd6c-8390-4265-bdef-38c0c6b3b526","ios":"levelo://app?vid=02dbcd6c-8390-4265-bdef-38c0c6b3b526"},"vehicle_type_id":"4","last_reported":1730761717,"current_range_meters":3600,"station_id":"ce4bhh92rcd13ifvqfj0","pricing_plan_id":"cebpf4jnsgd1na2vs0mg"},{"bike_id":"eeb6fa2a-003b-4e78-b5b2-99abb33a724d","system_id":"levelo_inurba_marseille","lat":43.29568,"lon":5.39974,"is_reserved":false,"is_disabled":false,"rental_uris":{"android":"levelo://app?vid=eeb6fa2a-003b-4e78-b5b2-99abb33a724d","ios":"levelo://app?vid=eeb6fa2a-003b-4e78-b5b2-99abb33a724d"},"vehicle_type_id":"4","last_reported":1730761717,"current_range_meters":38800,"station_id":"ce4bh312rcd13ifvqdj0","pricing_plan_id":"cebpf4jnsgd1na2vs0mg"},{"bike_id":"ce8e5906-0d4f-4085-a6e2-c7f244080cc6","system_id":"levelo_inurba_marseille","lat":43.32285,"lon":5.38277,"is_reserved":false,"is_disabled":false,"rental_uris":{"android":"levelo://app?vid=ce8e5906-0d4f-4085-a6e2-c7f244080cc6","ios":"levelo://app?vid=ce8e5906-0d4f-4085-a6e2-c7f244080cc6"},"vehicle_type_id":"4","last_reported":1730761717,"current_range_meters":40000,"station_id":"ce4bhr12rcd13ifvqhqg","pricing_plan_id":"cebpf4jnsgd1na2vs0mg"},{"bike_id":"6c6f793a-b4ae-48da-ab03-1e7093a0eced","system_id":"levelo_inurba_marseille","lat":43.28578,"lon":5.39504,"is_reserved":false,"is_disabled":false,"rental_uris":{"android":"levelo://app?vid=6c6f793a-b4ae-48da-ab03-1e7093a0eced","ios":"levelo://app?vid=6c6f793a-b4ae-48da-ab03-1e7093a0eced"},"vehicle_type_id":"4","last_reported":1730761717,"current_range_meters":40000,"station_id":"ce4bh292rcd13ifvqdg0","pricing_plan_id":"cebpf4jnsgd1na2vs0mg"},{"bike_id":"3bffe31b-f3ed-450f-83de-cf080d5ed357","system_id":"levelo_inurba_marseille","lat":43.297979,"lon":5.381092,"is_reserved":false,"is_disabled":false,"rental_uris":{"android":"levelo://app?vid=3bffe31b-f3ed-450f-83de-cf080d5ed357","ios":"levelo://app?vid=3bffe31b-f3ed-450f-83de-cf080d5ed357"},"vehicle_type_id":"4","last_reported":1730761717,"current_range_meters":25200,"station_id":"ce4bh0p2rcd13ifvqd80","pricing_plan_id":"cebpf4jnsgd1na2vs0mg"},{"bike_id":"452b828a-64c1-4795-814d-e8164a5b9a59","system_id":"levelo_inurba_marseille","lat":43.26681,"lon":5.38276,"is_reserved":false,"is_disabled":false,"rental_uris":{"android":"levelo://app?vid=452b828a-64c1-4795-814d-e8164a5b9a59","ios":"levelo://app?vid=452b828a-64c1-4795-814d-e8164a5b9a59"},"vehicle_type_id":"4","last_reported":1730761717,"current_range_meters":38800,"station_id":"ce4bhg92rcd13ifvqf90","pricing_plan_id":"cebpf4jnsgd1na2vs0mg"},{"bike_id":"061af2b2-d26c-4fd5-bc63-3604d8d8b438","system_id":"levelo_inurba_marseille","lat":43.26802,"lon":5.40266,"is_reserved":false,"is_disabled":false,"rental_uris":{"android":"levelo://app?vid=061af2b2-d26c-4fd5-bc63-3604d8d8b438","ios":"levelo://app?vid=061af2b2-d26c-4fd5-bc63-3604d8d8b438"},"vehicle_type_id":"4","last_reported":1730761717,"current_range_meters":24800,"station_id":"ce501612rcd8frsf0b60","pricing_plan_id":"cebpf4jnsgd1na2vs0mg"},{"bike_id":"17b21d05-68c9-4983-a221-7a75089ec945","system_id":"levelo_inurba_marseille","lat":43.27809,"lon":5.40706,"is_reserved":false,"is_disabled":false,"rental_uris":{"android":"levelo://app?vid=17b21d05-68c9-4983-a221-7a75089ec945","ios":"levelo://app?vid=17b21d05-68c9-4983-a221-7a75089ec945"},"vehicle_type_id":"4","last_reported":1730761717,"current_range_meters":38000,"station_id":"ce4bhnh2rcd13ifvqgtg","pricing_plan_id":"cebpf4jnsgd1na2vs0mg"},{"bike_id":"97dca6a5-aefa-40cb-a80e-16f19e977e72","system_id":"levelo_inurba_marseille","lat":43.28693,"lon":5.37397,"is_reserved":false,"is_disabled":false,"rental_uris":{"android":"levelo://app?vid=97dca6a5-aefa-40cb-a80e-16f19e977e72","ios":"levelo://app?vid=97dca6a5-aefa-40cb-a80e-16f19e977e72"},"vehicle_type_id":"4","last_reported":1730761717,"current_range_meters":38800,"station_id":"ce4bh3p2rcd13ifvqdq0","pricing_plan_id":"cebpf4jnsgd1na2vs0mg"},{"bike_id":"260fa75a-01a4-4465-ba93-2899bc76795b","system_id":"levelo_inurba_marseille","lat":43.27072,"lon":5.42285,"is_reserved":false,"is_disabled":false,"rental_uris":{"android":"levelo://app?vid=260fa75a-01a4-4465-ba93-2899bc76795b","ios":"levelo://app?vid=260fa75a-01a4-4465-ba93-2899bc76795b"},"vehicle_type_id":"4","last_reported":1730761717,"current_range_meters":20000,"station_id":"ce4bhk92rcd13ifvqgb0","pricing_plan_id":"cebpf4jnsgd1na2vs0mg"},{"bike_id":"1d28c738-bd41-4feb-aa58-6be1f96c7999","system_id":"levelo_inurba_marseille","lat":43.26202,"lon":5.37931,"is_reserved":false,"is_disabled":false,"rental_uris":{"android":"levelo://app?vid=1d28c738-bd41-4feb-aa58-6be1f96c7999","ios":"levelo://app?vid=1d28c738-bd41-4feb-aa58-6be1f96c7999"},"vehicle_type_id":"4","last_reported":1730761717,"current_range_meters":28800,"station_id":"ce4bhjp2rcd13ifvqg90","pricing_plan_id":"cebpf4jnsgd1na2vs0mg"},{"bike_id":"87fc84e3-70b0-40ef-ad93-5c599b1543e5","system_id":"levelo_inurba_marseille","lat":43.30257,"lon":5.40069,"is_reserved":false,"is_disabled":false,"rental_uris":{"android":"levelo://app?vid=87fc84e3-70b0-40ef-ad93-5c599b1543e5","ios":"levelo://app?vid=87fc84e3-70b0-40ef-ad93-5c599b1543e5"},"vehicle_type_id":"4","last_reported":1730761717,"current_range_meters":17600,"station_id":"ce4bgvh2rcd13ifvqcs0","pricing_plan_id":"cebpf4jnsgd1na2vs0mg"},{"bike_id":"8a010bec-a8c4-4b9d-8b98-c94b6f7ea998","system_id":"levelo_inurba_marseille","lat":43.29628,"lon":5.406,"is_reserved":false,"is_disabled":false,"rental_uris":{"android":"levelo://app?vid=8a010bec-a8c4-4b9d-8b98-c94b6f7ea998","ios":"levelo://app?vid=8a010bec-a8c4-4b9d-8b98-c94b6f7ea998"},"vehicle_type_id":"4","last_reported":1730761717,"current_range_meters":35200,"station_id":"ce4bh0h2rcd13ifvqd60","pricing_plan_id":"cebpf4jnsgd1na2vs0mg"},