{"last_updated":1744819947,"ttl":60,"version":"2.2","data":{"bikes":[{"bike_id":"9917bbc3-22d5-46d1-8278-1a6a97eeca2e","system_id":"levelo_inurba_marseille","lat":43.28715,"lon":5.36089,"is_reserved":false,"is_disabled":false,"rental_uris":{"android":"levelo://app?vid=9917bbc3-22d5-46d1-8278-1a6a97eeca2e","ios":"levelo://app?vid=9917bbc3-22d5-46d1-8278-1a6a97eeca2e"},"vehicle_type_id":"4","last_reported":1744819947,"current_range_meters":3200,"station_id":"cki0cbj6b192h4jlfktg","pricing_plan_id":"cebpf4jnsgd1na2vs0mg"},{"bike_id":"d383c7c2-5398-452c-b03d-84e0c5025787","system_id":"levelo_inurba_marseille","lat":43.29377,"lon":5.37845,"is_reserved":false,"is_disabled":false,"rental_uris":{"android":"levelo://app?vid=d383c7c2-5398-452c-b03d-84e0c5025787","ios":"levelo://app?vid=d383c7c2-5398-452c-b03d-84e0c5025787"},"vehicle_type_id":"4","last_reported":1744819947,"current_range_meters":3600,"station_id":"ce4bgjh2rcd13ifvqbf0","pricing_plan_id":"cebpf4jnsgd1na2vs0mg"},{"bike_id":"8604713b-7b12-4512-96d0-c7a0999d5bbd","system_id":"levelo_inurba_marseille","lat":43.291859,"lon":5.357557,"is_reserved":false,"is_disabled":false,"rental_uris":{"android":"levelo://app?vid=8604713b-7b12-4512-96d0-c7a0999d5bbd","ios":"levelo://app?vid=8604713b-7b12-4512-96d0-c7a0999d5bbd"},"vehicle_type_id":"4","last_reported":1744819947,"current_range_meters":3600,"station_id":"ce4bhb12rcd13ifvqel0","pricing_plan_id":"cebpf4jnsgd1na2vs0mg"},{"bike_id":"1c28aca5-f437-4bd1-b6f0-4cf108ef639f","system_id":"levelo_inurba_marseille","lat":43.316786,"lon":5.404771,"is_reserved":false,"is_disabled":false,"rental_uris":{"android":"levelo://app?vid=1c28aca5-f437-4bd1-b6f0-4cf108ef639f","ios":"levelo://app?vid=1c28aca5-f437-4bd1-b6f0-4cf108ef639f"},"vehicle_type_id":"4","last_reported":1744819947,"current_range_meters":4000,"station_id":"ce4bhq92rcd13ifvqhkg","pricing_plan_id":"cebpf4jnsgd1na2vs0mg"},{"bike_id":"105b34d5-b784-4a27-ab6b-1f24fd649f25","system_id":"levelo_inurba_marseille","lat":43.29709,"lon":5.37692,"is_reserved":false,"is_disabled":false,"rental_uris":{"android":"levelo://app?vid=105b34d5-b784-4a27-ab6b-1f24fd649f25","ios":"levelo://app?vid=105b34d5-b784-4a27-ab6b-1f24fd649f25"},"vehicle_type_id":"4","last_reported":1744819947,"current_range_meters":4000,"station_id":"ce4bgkh2rcd13ifvqbl0","pricing_plan_id":"cebpf4jnsgd1na2vs0mg"},{"bike_id":"29820acd-1e99-472c-809e-338f8ec22d6d","system_id":"levelo_inurba_marseille","lat":43.29174,"lon":5.37151,"is_reserved":false,"is_disabled":false,"rental_uris":{"android":"levelo://app?vid=29820acd-1e99-472c-809e-338f8ec22d6d","ios":"levelo://app?vid=29820acd-1e99-472c-809e-338f8ec22d6d"},"vehicle_type_id":"4","last_reported":1744819947,"current_range_meters":4800,"station_id":"ce4bha92rcd13ifvqeh0","pricing_plan_id":"cebpf4jnsgd1na2vs0mg"},{"bike_id":"160c6cb0-0be5-4a47-a21b-1835a4eccf24","system_id":"levelo_inurba_marseille","lat":43.29977,"lon":5.38494,"is_reserved":false,"is_disabled":false,"rental_uris":{"android":"levelo://app?vid=160c6cb0-0be5-4a47-a21b-1835a4eccf24","ios":"levelo://app?vid=160c6cb0-0be5-4a47-a21b-1835a4eccf24"},"vehicle_type_id":"4","last_reported":1744819947,"current_range_meters":4800,"station_id":"ce4bgj92rcd13ifvqbd0","pricing_plan_id":"cebpf4jnsgd1na2vs0mg"},{"bike_id":"c273cedc-5337-4dec-91b4-1636fd7d09ad","system_id":"levelo_inurba_marseille","lat":43.314498,"lon":5.375911,"is_reserved":false,"is_disabled":false,"rental_uris":{"android":"levelo://app?vid=c273cedc-5337-4dec-91b4-1636fd7d09ad","ios":"levelo://app?vid=c273cedc-5337-4dec-91b4-1636fd7d09ad"},"vehicle_type_id":"4","last_reported":1744819947,"current_range_meters":5600,"station_id":"","pricing_plan_id":"cebpf4jnsgd1na2vs0mg"},{"bike_id":"60c45f66-30a2-4a8c-9b1b-e164cdf3eb82","system_id":"levelo_inurba_marseille","lat":43.3017,"lon":5.3809,"is_reserved":false,"is_disabled":false,"rental_uris":{"android":"levelo://app?vid=60c45f66-30a2-4a8c-9b1b-e164cdf3eb82","ios":"levelo://app?vid=60c45f66-30a2-4a8c-9b1b-e164cdf3eb82"},"vehicle_type_id":"4","last_reported":1744819947,"current_range_meters":6000,"station_id":"ce4bgjp2rcd13ifvqbh0","pricing_plan_id":"cebpf4jnsgd1na2vs0mg"},{"bike_id":"27a55245-8dd2-4f1a-af63-95a9d7b71690","system_id":"levelo_inurba_marseille","lat":43.31082,"lon":5.37855,"is_reserved":false,"is_disabled":false,"rental_uris":{"android":"levelo://app?vid=27a55245-8dd2-4f1a-af63-95a9d7b71690","ios":"levelo://app?vid=27a55245-8dd2-4f1a-af63-95a9d7b71690"},"vehicle_type_id":"4","last_reported":1744819947,"current_range_meters":6000,"station_id":"","pricing_plan_id":"cebpf4jnsgd1na2vs0mg"},{"bike_id":"25e230f4-e34c-445f-87cd-877f61101b31","system_id":"levelo_inurba_marseille","lat":43.31215,"lon":5.36865,"is_reserved":false,"is_disabled":false,"rental_uris":{"android":"levelo://app?vid=25e230f4-e34c-445f-87cd-877f61101b31","ios":"levelo://app?vid=25e230f4-e34c-445f-87cd-877f61101b31"},"vehicle_type_id":"4","last_reported":1744819947,"current_range_meters":6800,"station_id":"ce4bgl92rcd13ifvqbq0","pricing_plan_id":"cebpf4jnsgd1na2vs0mg"},{"bike_id":"3d0d45d7-8adb-457a-9ff4-78e3ad136e5e","system_id":"levelo_inurba_marseille","lat":43.24666,"lon":5.38155,"is_reserved":false,"is_disabled":false,"rental_uris":{"android":"levelo://app?vid=3d0d45d7-8adb-457a-9ff4-78e3ad136e5e","ios":"levelo://app?vid=3d0d45d7-8adb-457a-9ff4-78e3ad136e5e"},"vehicle_type_id":"4","last_reported":1744819947,"current_range_meters":6800,"station_id":"ce4bhih2rcd13ifvqfr0","pricing_plan_id":"cebpf4jnsgd1na2vs0mg"},{"bike_id":"a0636e31-c89e-4ae1-aea4-880988d0da0e","system_id":"levelo_inurba_marseille","lat":43.29566,"lon":5.42296,"is_reserved":false,"is_disabled":false,"rental_uris":{"android":"levelo://app?vid=a0636e31-c89e-4ae1-aea4-880988d0da0e","ios":"levelo://app?vid=a0636e31-c89e-4ae1-aea4-880988d0da0e"},"vehicle_type_id":"4","last_reported":1744819947,"current_range_meters":6800,"station_id":"ce4bhph2rcd13ifvqhdg","pricing_plan_id":"cebpf4jnsgd1na2vs0mg"},{"bike_id":"b7ab99ba-94bb-4274-aca7-e6131d0e5ab1","system_id":"levelo_inurba_marseille","lat":43.24172,"lon":5.36411,"is_reserved":false,"is_disabled":false,"rental_uris":{"android":"levelo://app?vid=b7ab99ba-94bb-4274-aca7-e6131d0e5ab1","ios":"levelo://app?vid=b7ab99ba-94bb-4274-aca7-e6131d0e5ab1"},"vehicle_type_id":"4","last_reported":1744819947,"current_range_meters":7200,"station_id":"cpo36qri1sfpv3e86is0","pricing_plan_id":"cebpf4jnsgd1na2vs0mg"},{"bike_id":"eaf6328d-11b9-490d-8905-351ca208c8af","system_id":"levelo_inurba_marseille","lat":43.28475,"lon":5.38435,"is_reserved":false,"is_disabled":false,"rental_uris":{"android":"levelo://app?vid=eaf6328d-11b9-490d-8905-351ca208c8af","ios":"levelo://app?vid=eaf6328d-11b9-490d-8905-351ca208c8af"},"vehicle_type_id":"4","last_reported":1744819947,"current_range_meters":7200,"station_id":"ce4bh512rcd13ifvqe3g","pricing_plan_id":"cebpf4jnsgd1na2vs0mg"},{"bike_id":"f3389a1b-2719-4af7-8855-0abf17cd038d","system_id":"levelo_inurba_marseille","lat":43.2315,"lon":5.43713,"is_reserved":false,"is_disabled":false,"rental_uris":{"android":"levelo://app?vid=f3389a1b-2719-4af7-8855-0abf17cd038d","ios":"levelo://app?vid=f3389a1b-2719-4af7-8855-0abf17cd038d"},"vehicle_type_id":"4","last_reported":1744819947,"current_range_meters":7200,"station_id":"ce4bhmp2rcd13ifvqgog","pricing_plan_id":"cebpf4jnsgd1na2vs0mg"},{"bike_id":"54465dd8-cd16-4243-9eb6-d064bc36bfee","system_id":"levelo_inurba_marseille","lat":43.29453,"lon":5.39741,"is_reserved":false,"is_disabled":false,"rental_uris":{"android":"levelo://app?vid=54465dd8-cd16-4243-9eb6-d064bc36bfee","ios":"levelo://app?vid=54465dd8-cd16-4243-9eb6-d064bc36bfee"},"vehicle_type_id":"4","last_reported":1744819947,"current_range_meters":8000,"station_id":"ce4bh3h2rcd13ifvqdo0","pricing_plan_id":"cebpf4jnsgd1na2vs0mg"},{"bike_id":"376f754b-7bba-4962-babe-b49b1468281c","system_id":"levelo_inurba_marseille","lat":43.30931,"lon":5.40154,"is_reserved":false,"is_disabled":true,"rental_uris":{"android":"levelo://app?vid=376f754b-7bba-4962-babe-b49b1468281c","ios":"levelo://app?vid=376f754b-7bba-4962-babe-b49b1468281c"},"vehicle_type_id":"4","last_reported":1744819947,"current_range_meters":8000,"station_id":"ce4bgvp2rcd13ifvqct0","pricing_plan_id":"cebpf4jnsgd1na2vs0mg"},{"bike_id":"f443cfdb-db2e-4f4b-a88d-615075e28818","system_id":"levelo_inurba_marseille","lat":43.30551,"lon":5.36543,"is_reserved":false,"is_disabled":false,"rental_uris":{"android":"levelo://app?vid=f443cfdb-db2e-4f4b-a88d-615075e28818","ios":"levelo://app?vid=f443cfdb-db2e-4f4b-a88d-615075e28818"},"vehicle_type_id":"4","last_reported":1744819947,"current_range_meters":8400,"station_id":"ce4bgs12rcd13ifvqcag","pricing_plan_id":"cebpf4jnsgd1na2vs0mg"},{"bike_id":"2797dcdb-c4e1-48b2-82d6-5677d371fa39","system_id":"levelo_inurba_marseille","lat":43.24184,"lon":5.36395,"is_reserved":false,"is_disabled":false,"rental_uris":{"android":"levelo://app?vid=2797dcdb-c4e1-48b2-82d6-5677d371fa39","ios":"levelo://app?vid=2797dcdb-c4e1-48b2-82d6-5677d371fa39"},"vehicle_type_id":"4","last_reported":1744819947,"current_range_meters":8400,"station_id":"cpo36qri1sfpv3e86is0","pricing_plan_id":"cebpf4jnsgd1na2vs0mg"},{"bike_id":"575d3280-f1b1-4d58-9871-ee2b1e88b486","system_id":"levelo_inurba_marseille","lat":43.26802,"lon":5.4027,"is_reserved":false,"is_disabled":false,"rental_uris":{"android":"levelo://app?vid=575d3280-f1b1-4d58-9871-ee2b1e88b486","ios":"levelo://app?vid=575d3280-f1b1-4d58-9871-ee2b1e88b486"},"vehicle_type_id":"4","last_reported":1744819947,"current_range_meters":8400,"station_id":"ce501612rcd8frsf0b60","pricing_plan_id":"cebpf4jnsgd1na2vs0mg"},{"bike_id":"13212ea6-c79f-428f-bf88-2ce269adcaff","system_id":"levelo_inurba_marseille","lat":43.24816,"lon":5.37463,"is_reserved":false,"is_disabled":false,"rental_uris":{"android":"levelo://app?vid=13212ea6-c79f-428f-bf88-2ce269adcaff","ios":"levelo://app?vid=13212ea6-c79f-428f-bf88-2ce269adcaff"},"vehicle_type_id":"4","last_reported":1744819947,"current_range_meters":8400,"station_id":"ce4bhgh2rcd13ifvqfb0","pricing_plan_id":"cebpf4jnsgd1na2vs0mg"},{"bike_id":"1101aa3a-486d-4bca-bdaa-8175ec2a4c24","system_id":"levelo_inurba_marseille","lat":43.27207,"lon":5.39182,"is_reserved":false,"is_disabled":false,"rental_uris":{"android":"levelo://app?vid=1101aa3a-486d-4bca-bdaa-8175ec2a4c24","ios":"levelo://app?vid=1101aa3a-486d-4bca-bdaa-8175ec2a4c24"},"vehicle_type_id":"4","last_reported":1744819947,"current_range_meters":8000,"station_id":"ce4bhhp2rcd13ifvqfm0","pricing_plan_id":"cebpf4jnsgd1na2vs0mg"},{"bike_id":"f9ce9565-3c06-45a5-a09b-c93917a98f53","system_id":"levelo_inurba_marseille","lat":43.30551,"lon":5.36541,"is_reserved":false,"is_disabled":false,"rental_uris":{"android":"levelo://app?vid=f9ce9565-3c06-45a5-a09b-c93917a98f53","ios":"levelo://app?vid=f9ce9565-3c06-45a5-a09b-c93917a98f53"},"vehicle_type_id":"4","last_reported":1744819947,"current_range_meters":8800,"station_id":"ce4bgs12rcd13ifvqcag","pricing_plan_id":"cebpf4jnsgd1na2vs0mg"},{"bike_id":"2247aff2-5e59-4a47-8a7f-6559de4a50d7","system_id":"levelo_inurba_marseille","lat":43.28853,"lon":5.39323,"is_reserved":false,"is_disabled":false,"rental_uris":{"android":"levelo://app?vid=2247aff2-5e59-4a47-8a7f-6559de4a50d7","ios":"levelo://app?vid=2247aff2-5e59-4a47-8a7f-6559de4a50d7"},"vehicle_type_id":"4","last_reported":1744819947,"current_range_meters":8800,"station_id":"ce4bh2p2rcd13ifvqdi0","pricing_plan_id":"cebpf4jnsgd1na2vs0mg"},{"bike_id":"bf9c125f-220c-4046-82d5-aa95f632d36c","system_id":"levelo_inurba_marseille","lat":43.28472,"lon":5.3839,"is_reserved":false,"is_disabled":false,"rental_uris":{"android":"levelo://app?vid=bf9c125f-220c-4046-82d5-aa95f632d36c","ios":"levelo://app?vid=bf9c125f-220c-4046-82d5-aa95f632d36c"},"vehicle_type_id":"4","last_reported":1744819947,"current_range_meters":9200,"station_id":"ce4bh512rcd13ifvqe3g","pricing_plan_id":"cebpf4jnsgd1na2vs0mg"},{"bike_id":"77cc5026-cae5-4475-a50c-e9aa6f657bc8","system_id":"levelo_inurba_marseille","lat":43.30409,"lon":5.38889,"is_reserved":false,"is_disabled":false,"rental_uris":{"android":"levelo://app?vid=77cc5026-cae5-4475-a50c-e9aa6f657bc8","ios":"levelo://app?vid=77cc5026-cae5-4475-a50c-e9aa6f657bc8"},"vehicle_type_id":"4","last_reported":1744819947,"current_range_meters":9600,"station_id":"ce4bgk12rcd13ifvqbi0","pricing_plan_id":"cebpf4jnsgd1na2vs0mg"},{"bike_id":"45c6b552-68fd-454d-84d3-cf79221aaee4","system_id":"levelo_inurba_marseille","lat":43.29854,"lon":5.40895,"is_reserved":false,"is_disabled":false,"rental_uris":{"android":"levelo://app?vid=45c6b552-68fd-454d-84d3-cf79221aaee4","ios":"levelo://app?vid=45c6b552-68fd-454d-84d3-cf79221aaee4"},"vehicle_type_id":"4","last_reported":1744819947,"current_range_meters":9600,"station_id":"","pricing_plan_id":"cebpf4jnsgd1na2vs0mg"},{"bike_id":"1c0c17d4-38c5-4a1c-8a19-a752fa5d90ed","system_id":"levelo_inurba_marseille","lat":43.231819,"lon":5.399861,"is_reserved":false,"is_disabled":false,"rental_uris":{"android":"levelo://app?vid=1c0c17d4-38c5-4a1c-8a19-a752fa5d90ed","ios":"levelo://app?vid=1c0c17d4-38c5-4a1c-8a19-a752fa5d90ed"},"vehicle_type_id":"4","last_reported":1744819947,"current_range_meters":9600,"station_id":"ce4bhn12rcd13ifvqgqg","pricing_plan_id":"cebpf4jnsgd1na2vs0mg"},{"bike_id":"ae669bac-ccfa-4f88-b834-b0199f708b96","system_id":"levelo_inurba_marseille","lat":43.28866,"lon":5.3585,"is_reserved":false,"is_disabled":false,"rental_uris":{"android":"levelo://app?vid=ae669bac-ccfa-4f88-b834-b0199f708b96","ios":"levelo://app?vid=ae669bac-ccfa-4f88-b834-b0199f708b96"},"vehicle_type_id":"4","last_reported":1744819947,"current_range_meters":10000,"station_id":"ce4bhb12rcd13ifvqem0","pricing_plan_id":"cebpf4jnsgd1na2vs0mg"},{"bike_id":"7eacb872-0584-4b06-8fad-feb612d3799a","system_id":"levelo_inurba_marseille","lat":43.29795,"lon":5.38121,"is_reserved":false,"is_disabled":false,"rental_uris":{"android":"levelo://app?vid=7eacb872-0584-4b06-8fad-feb612d3799a","ios":"levelo://app?vid=7eacb872-0584-4b06-8fad-feb612d3799a"},"vehicle_type_id":"4","last_reported":1744819947,"current_range_meters":10000,"station_id":"ce4bgip2rcd13ifvqbb0","pricing_plan_id":"cebpf4jnsgd1na2vs0mg"},{"bike_id":"eeec4aa3-87e9-4496-be2e-938ceb91cf85","system_id":"levelo_inurba_marseille","lat":43.29324,"lon":5.37224,"is_reserved":false,"is_disabled":true,"rental_uris":{"android":"levelo://app?vid=eeec4aa3-87e9-4496-be2e-938ceb91cf85","ios":"levelo://app?vid=eeec4aa3-87e9-4496-be2e-938ceb91cf85"},"vehicle_type_id":"4","last_reported":1744819947,"current_range_meters":10800,"station_id":"ce4bgh92rcd13ifvqb40","pricing_plan_id":"cebpf4jnsgd1na2vs0mg"},{"bike_id":"8a85cbcd-1fa1-4961-9fff-d608997a028d","system_id":"levelo_inurba_marseille","lat":43.292767,"lon":5.368387,"is_reserved":false,"is_disabled":false,"rental_uris":{"android":"levelo://app?vid=8a85cbcd-1fa1-4961-9fff-d608997a028d","ios":"levelo://app?vid=8a85cbcd-1fa1-4961-9fff-d608997a028d"},"vehicle_type_id":"4","last_reported":1744819947,"current_range_meters":10800,"station_id":"ce4bhbp2rcd13ifvqesg","pricing_plan_id":"cebpf4jnsgd1na2vs0mg"},{"bike_id":"561936ef-54e4-4d15-b2a7-dfd018b9e12e","system_id":"levelo_inurba_marseille","lat":43.29821,"lon":5.40273,"is_reserved":false,"is_disabled":false,"rental_uris":{"android":"levelo://app?vid=561936ef-54e4-4d15-b2a7-dfd018b9e12e","ios":"levelo://app?vid=561936ef-54e4-4d15-b2a7-dfd018b9e12e"},"vehicle_type_id":"4","last_reported":1744819947,"current_range_meters":10800,"station_id":"","pricing_plan_id":"cebpf4jnsgd1na2vs0mg"},{"bike_id":"e8412f40-a8dc-44ee-bbc2-e01b1cf2ab9a","system_id":"levelo_inurba_marseille","lat":43.27824,"lon":5.39205,"is_reserved":false,"is_disabled":false,"rental_uris":{"android":"levelo://app?vid=e8412f40-a8dc-44ee-bbc2-e01b1cf2ab9a","ios":"levelo://app?vid=e8412f40-a8dc-44ee-bbc2-e01b1cf2ab9a"},"vehicle_type_id":"4","last_reported":1744819947,"current_range_meters":11200,"station_id":"ce4bhjp2rcd13ifvqga0","pricing_plan_id":"cebpf4jnsgd1na2vs0mg"},{"bike_id":"9407500c-e21e-4601-8e2c-d8ce5b90b907","system_id":"levelo_inurba_marseille","lat":43.27668,"lon":5.38898,"is_reserved":false,"is_disabled":false,"rental_uris":{"android":"levelo://app?vid=9407500c-e21e-4601-8e2c-d8ce5b90b907","ios":"levelo://app?vid=9407500c-e21e-4601-8e2c-d8ce5b90b907"},"vehicle_type_id":"4","last_reported":1744819947,"current_range_meters":11600,"station_id":"ce4bhi12rcd13ifvqfo0","pricing_plan_id":"cebpf4jnsgd1na2vs0mg"},{"bike_id":"2c032a6e-a514-4c75-ac58-67d0e95dcf42","system_id":"levelo_inurba_marseille","lat":43.28616,"lon":5.35104,"is_reserved":false,"is_disabled":false,"rental_uris":{"android":"levelo://app?vid=2c032a6e-a514-4c75-ac58-67d0e95dcf42","ios":"levelo://app?vid=2c032a6e-a514-4c75-ac58-67d0e95dcf42"},"vehicle_type_id":"4","last_reported":1744819947,"current_range_meters":12000,"station_id":"ce4bhch2rcd13ifvqeug","pricing_plan_id":"cebpf4jnsgd1na2vs0mg"},{"bike_id":"4b545a34-19f5-42e5-827c-70454e97249e","system_id":"levelo_inurba_marseille","lat":43.30786,"lon":5.37641,"is_reserved":false,"is_disabled":false,"rental_uris":{"android":"levelo://app?vid=4b545a34-19f5-42e5-827c-70454e97249e","ios":"levelo://app?vid=4b545a34-19f5-42e5-827c-70454e97249e"},"vehicle_type_id":"4","last_reported":1744819947,"current_range_meters":12000,"station_id":"ce4bgv92rcd13ifvqcq0","pricing_plan_id":"cebpf4jnsgd1na2vs0mg"},{"bike_id":"834ec9e1-9d50-4bee-85ae-d1db335c55e5","system_id":"levelo_inurba_marseille","lat":43.31839,"lon":5.36862,"is_reserved":false,"is_disabled":false,"rental_uris":{"android":"levelo://app?vid=834ec9e1-9d50-4bee-85ae-d1db335c55e5","ios":"levelo://app?vid=834ec9e1-9d50-4bee-85ae-d1db335c55e5"},"vehicle_type_id":"4","last_reported":1744819947,"current_range_meters":12400,"station_id":"","pricing_plan_id":"cebpf4jnsgd1na2vs0mg"},{"bike_id":"20637e69-aa1a-4938-b133-7ac0181204b8","system_id":"levelo_inurba_marseille","lat":43.294344,"lon":5.385942,"is_reserved":false,"is_disabled":false,"rental_uris":{"android":"levelo://app?vid=20637e69-aa1a-4938-b133-7ac0181204b8","ios":"levelo://app?vid=20637e69-aa1a-4938-b133-7ac0181204b8"},"vehicle_type_id":"4","last_reported":1744819947,"current_range_meters":12800,"station_id":"ce4bh2h2rcd13ifvqdh0","pricing_plan_id":"cebpf4jnsgd1na2vs0mg"},{"bike_id":"69a18429-a1fb-4505-8acd-58396c86e154","system_id":"levelo_inurba_marseille","lat":43.31329,"lon":5.39689,"is_reserved":false,"is_disabled":false,"rental_uris":{"android":"levelo://app?vid=69a18429-a1fb-4505-8acd-58396c86e154","ios":"levelo://app?vid=69a18429-a1fb-4505-8acd-58396c86e154"},"vehicle_type_id":"4","last_reported":1744819947,"current_range_meters":12800,"station_id":"ce4bgvp2rcd13ifvqcu0","pricing_plan_id":"cebpf4jnsgd1na2vs0mg"},{"bike_id":"660631fc-51be-4aa7-bb7f-ab6c028609a6","system_id":"levelo_inurba_marseille","lat":43.28158,"lon":5.425869,"is_reserved":false,"is_disabled":false,"rental_uris":{"android":"levelo://app?vid=660631fc-51be-4aa7-bb7f-ab6c028609a6","ios":"levelo://app?vid=660631fc-51be-4aa7-bb7f-ab6c028609a6"},"vehicle_type_id":"4","last_reported":1744819947,"current_range_meters":12800,"station_id":"ce4bhnh2rcd13ifvqgug","pricing_plan_id":"cebpf4jnsgd1na2vs0mg"},{"bike_id":"5fa0060d-f792-47ab-a911-78246b057233","system_id":"levelo_inurba_marseille","lat":43.28431,"lon":5.34977,"is_reserved":false,"is_disabled":false,"rental_uris":{"android":"levelo://app?vid=5fa0060d-f792-47ab-a911-78246b057233","ios":"levelo://app?vid=5fa0060d-f792-47ab-a911-78246b057233"},"vehicle_type_id":"4","last_reported":1744819947,"current_range_meters":12800,"station_id":"ce4bhbh2rcd13ifvqepg","pricing_plan_id":"cebpf4jnsgd1na2vs0mg"},{"bike_id":"46ff7be5-bc64-4dfe-89be-8de3b74a45c8","system_id":"levelo_inurba_marseille","lat":43.29781,"lon":5.38101,"is_reserved":false,"is_disabled":false,"rental_uris":{"android":"levelo://app?vid=46ff7be5-bc64-4dfe-89be-8de3b74a45c8","ios":"levelo://app?vid=46ff7be5-bc64-4dfe-89be-8de3b74a45c8"},"vehicle_type_id":"4","last_reported":1744819947,"current_range_meters":12800,"station_id":"ce4bgip2rcd13ifvqbb0","pricing_plan_id":"cebpf4jnsgd1na2vs0mg"},{"bike_id":"c013d887-729f-483b-b7f9-a7315f2f7545","system_id":"levelo_inurba_marseille","lat":43.24086,"lon":5.37744,"is_reserved":false,"is_disabled":false,"rental_uris":{"android":"levelo://app?vid=c013d887-729f-483b-b7f9-a7315f2f7545","ios":"levelo://app?vid=c013d887-729f-483b-b7f9-a7315f2f7545"},"vehicle_type_id":"4","last_reported":1744819947,"current_range_meters":12800,"station_id":"ce4bhnp2rcd13ifvqgvg","pricing_plan_id":"cebpf4jnsgd1na2vs0mg"},{"bike_id":"9ff11eb2-d12a-4226-97a5-c96bc5cf6492","system_id":"levelo_inurba_marseille","lat":43.27189,"lon":5.40996,"is_reserved":false,"is_disabled":false,"rental_uris":{"android":"levelo://app?vid=9ff11eb2-d12a-4226-97a5-c96bc5cf6492","ios":"levelo://app?vid=9ff11eb2-d12a-4226-97a5-c96bc5cf6492"},"vehicle_type_id":"4","last_reported":1744819947,"current_range_meters":12800,"station_id":"ce4bhl12rcd13ifvqgf0","pricing_plan_id":"cebpf4jnsgd1na2vs0mg"},{"bike_id":"90aab251-1ff9-4010-ba90-86de6b1ffc35","system_id":"levelo_inurba_marseille","lat":43.2315,"lon":5.4377,"is_reserved":false,"is_disabled":false,"rental_uris":{"android":"levelo://app?vid=90aab251-1ff9-4010-ba90-86de6b1ffc35","ios":"levelo://app?vid=90aab251-1ff9-4010-ba90-86de6b1ffc35"},"vehicle_type_id":"4","last_reported":1744819947,"current_range_meters":13600,"station_id":"ce4bhmp2rcd13ifvqgog","pricing_plan_id":"cebpf4jnsgd1na2vs0mg"},{"bike_id":"4328369a-71e3-42f0-af9b-b3d103933d00","system_id":"levelo_inurba_marseille","lat":43.33608,"lon":5.4103,"is_reserved":false,"is_disabled":false,"rental_uris":{"android":"levelo://app?vid=4328369a-71e3-42f0-af9b-b3d103933d00","ios":"levelo://app?vid=4328369a-71e3-42f0-af9b-b3d103933d00"},"vehicle_type_id":"4","last_reported":1744819947,"current_range_meters":14000,"station_id":"ce4bhqh2rcd13ifvqhmg","pricing_plan_id":"cebpf4jnsgd1na2vs0mg"},{"bike_id":"e671135f-6e8d-4f7d-b793-34acac25fdfc","system_id":"levelo_inurba_marseille","lat":43.32367,"lon":5.36758,"is_reserved":false,"is_disabled":false,"rental_uris":{"android":"levelo://app?vid=e671135f-6e8d-4f7d-b793-34acac25fdfc","ios":"levelo://app?vid=e671135f-6e8d-4f7d-b793-34acac25fdfc"},"vehicle_type_id":"4","last_reported":1744819947,"current_range_meters":14000,"station_id":"ce4bhsh2rcd13ifvqi2g","pricing_plan_id":"cebpf4jnsgd1na2vs0mg"},{"bike_id":"403ce2df-76f1-4bee-952d-abf49e06b91b","system_id":"levelo_inurba_marseille","lat":43.28716,"lon":5.37938,"is_reserved":false,"is_disabled":false,"rental_uris":{"android":"levelo://app?vid=403ce2df-76f1-4bee-952d-abf49e06b91b","ios":"levelo://app?vid=403ce2df-76f1-4bee-952d-abf49e06b91b"},"vehicle_type_id":"4","last_reported":1744819947,"current_range_meters":14000,"station_id":"ce4bh9p2rcd13ifvqec0","pricing_plan_id":"cebpf4jnsgd1na2vs0mg"},{"bike_id":"ca3b7df5-2cf7-47b3-afb0-c444d0e2fbfe","system_id":"levelo_inurba_marseille","lat":43.30536,"lon":5.36543,"is_reserved":false,"is_disabled":false,"rental_uris":{"android":"levelo://app?vid=ca3b7df5-2cf7-47b3-afb0-c444d0e2fbfe","ios":"levelo://app?vid=ca3b7df5-2cf7-47b3-afb0-c444d0e2fbfe"},"vehicle_type_id":"4","last_reported":1744819947,"current_range_meters":14000,"station_id":"ce4bgs12rcd13ifvqcag","pricing_plan_id":"cebpf4jnsgd1na2vs0mg"},{"bike_id":"d89a2e23-3e12-45bf-bb42-53e094798ae2","system_id":"levelo_inurba_marseille","lat":43.29891,"lon":5.38887,"is_reserved":false,"is_disabled":false,"rental_uris":{"android":"levelo://app?vid=d89a2e23-3e12-45bf-bb42-53e094798ae2","ios":"levelo://app?vid=d89a2e23-3e12-45bf-bb42-53e094798ae2"},"vehicle_type_id":"4","last_reported":1744819947,"current_range_meters":14000,"station_id":"ce4bh392rcd13ifvqdl0","pricing_plan_id":"cebpf4jnsgd1na2vs0mg"},{"bike_id":"f903c897-854d-42ed-934f-18bbd95ce789","system_id":"levelo_inurba_marseille","lat":43.31226,"lon":5.3686,"is_reserved":false,"is_disabled":false,"rental_uris":{"android":"levelo://app?vid=f903c897-854d-42ed-934f-18bbd95ce789","ios":"levelo://app?vid=f903c897-854d-42ed-934f-18bbd95ce789"},"vehicle_type_id":"4","last_reported":1744819947,"current_range_meters":14000,"station_id":"ce4bgl92rcd13ifvqbq0","pricing_plan_id":"cebpf4jnsgd1na2vs0mg"},{"bike_id":"93be371e-f079-4065-9c94-f1bd2172cfd1","system_id":"levelo_inurba_marseille","lat":43.286035,"lon":5.370685,"is_reserved":false,"is_disabled":false,"rental_uris":{"android":"levelo://app?vid=93be371e-f079-4065-9c94-f1bd2172cfd1","ios":"levelo://app?vid=93be371e-f079-4065-9c94-f1bd2172cfd1"},"vehicle_type_id":"4","last_reported":1744819947,"current_range_meters":14400,"station_id":"ce4bht12rcd13ifvqi60","pricing_plan_id":"cebpf4jnsgd1na2vs0mg"},{"bike_id":"dda27a58-e2ca-4fce-a851-41cf6185682c","system_id":"levelo_inurba_marseille","lat":43.3029,"lon":5.37728,"is_reserved":false,"is_disabled":false,"rental_uris":{"android":"levelo://app?vid=dda27a58-e2ca-4fce-a851-41cf6185682c","ios":"levelo://app?vid=dda27a58-e2ca-4fce-a851-41cf6185682c"},"vehicle_type_id":"4","last_reported":1744819947,"current_range_meters":14400,"station_id":"ce4bguh2rcd13ifvqcj0","pricing_plan_id":"cebpf4jnsgd1na2vs0mg"},{"bike_id":"02ab7067-a0e7-48c1-a7e2-7513abb808cc","system_id":"levelo_inurba_marseille","lat":43.3032,"lon":5.39214,"is_reserved":false,"is_disabled":false,"rental_uris":{"android":"levelo://app?vid=02ab7067-a0e7-48c1-a7e2-7513abb808cc","ios":"levelo://app?vid=02ab7067-a0e7-48c1-a7e2-7513abb808cc"},"vehicle_type_id":"4","last_reported":1744819947,"current_range_meters":14400,"station_id":"","pricing_plan_id":"cebpf4jnsgd1na2vs0mg"},{"bike_id":"8ece13d7-e6aa-4d06-88de-c3e6a1495859","system_id":"levelo_inurba_marseille","lat":43.29913,"lon":5.38162,"is_reserved":false,"is_disabled":false,"rental_uris":{"android":"levelo://app?vid=8ece13d7-e6aa-4d06-88de-c3e6a1495859","ios":"levelo://app?vid=8ece13d7-e6aa-4d06-88de-c3e6a1495859"},"vehicle_type_id":"4","last_reported":1744819947,"current_range_meters":14400,"station_id":"ce4bgj12rcd13ifvqbc0","pricing_plan_id":"cebpf4jnsgd1na2vs0mg"},{"bike_id":"eef0f7e9-3fd3-478d-8d05-1e689878276c","system_id":"levelo_inurba_marseille","lat":43.279977,"lon":5.400148,"is_reserved":false,"is_disabled":false,"rental_uris":{"android":"levelo://app?vid=eef0f7e9-3fd3-478d-8d05-1e689878276c","ios":"levelo://app?vid=eef0f7e9-3fd3-478d-8d05-1e689878276c"},"vehicle_type_id":"4","last_reported":1744819947,"current_range_meters":14400,"station_id":"ce4bho92rcd13ifvqh4g","pricing_plan_id":"cebpf4jnsgd1na2vs0mg"},{"bike_id":"6bf5a380-400e-4cd6-bc1e-356afac9ee45","system_id":"levelo_inurba_marseille","lat":43.24181,"lon":5.36408,"is_reserved":false,"is_disabled":false,"rental_uris":{"android":"levelo://app?vid=6bf5a380-400e-4cd6-bc1e-356afac9ee45","ios":"levelo://app?vid=6bf5a380-400e-4cd6-bc1e-356afac9ee45"},"vehicle_type_id":"4","last_reported":1744819947,"current_range_meters":14800,"station_id":"cpo36qri1sfpv3e86is0","pricing_plan_id":"cebpf4jnsgd1na2vs0mg"},{"bike_id":"88a0cb80-a51d-46bc-8228-c9a9fb028348","system_id":"levelo_inurba_marseille","lat":43.25651,"lon":5.42006,"is_reserved":false,"is_disabled":false,"rental_uris":{"android":"levelo://app?vid=88a0cb80-a51d-46bc-8228-c9a9fb028348","ios":"levelo://app?vid=88a0cb80-a51d-46bc-8228-c9a9fb028348"},"vehicle_type_id":"4","last_reported":1744819947,"current_range_meters":14800,"station_id":"","pricing_plan_id":"cebpf4jnsgd1na2vs0mg"},{"bike_id":"2be2e8c5-ff49-4a5a-963a-4bbeabb11512","system_id":"levelo_inurba_marseille","lat":43.30747,"lon":5.42454,"is_reserved":false,"is_disabled":false,"rental_uris":{"android":"levelo://app?vid=2be2e8c5-ff49-4a5a-963a-4bbeabb11512","ios":"levelo://app?vid=2be2e8c5-ff49-4a5a-963a-4bbeabb11512"},"vehicle_type_id":"4","last_reported":1744819947,"current_range_meters":14800,"station_id":"st_cvj6ca6bvosntc0bfgr0","pricing_plan_id":"cebpf4jnsgd1na2vs0mg"},{"bike_id":"152998f7-ecff-489c-a986-b500cf78c4c3","system_id":"levelo_inurba_marseille","lat":43.321617,"lon":5.38697,"is_reserved":false,"is_disabled":false,"rental_uris":{"android":"levelo://app?vid=152998f7-ecff-489c-a986-b500cf78c4c3","ios":"levelo://app?vid=152998f7-ecff-489c-a986-b500cf78c4c3"},"vehicle_type_id":"4","last_reported":1744819947,"current_range_meters":14800,"station_id":"","pricing_plan_id":"cebpf4jnsgd1na2vs0mg"},{"bike_id":"4b9b1e69-af86-4122-8d46-0d52505b1cab","system_id":"levelo_inurba_marseille","lat":43.27491,"lon":5.42479,"is_reserved":false,"is_disabled":false,"rental_uris":{"android":"levelo://app?vid=4b9b1e69-af86-4122-8d46-0d52505b1cab","ios":"levelo://app?vid=4b9b1e69-af86-4122-8d46-0d52505b1cab"},"vehicle_type_id":"4","last_reported":1744819947,"current_range_meters":14800,"station_id":"ce4bhn92rcd13ifvqgrg","pricing_plan_id":"cebpf4jnsgd1na2vs0mg"},{"bike_id":"4f3dfbf4-d1ae-44db-8110-b28c7d24107a","system_id":"levelo_inurba_marseille","lat":43.27069,"lon":5.40257,"is_reserved":false,"is_disabled":false,"rental_uris":{"android":"levelo://app?vid=4f3dfbf4-d1ae-44db-8110-b28c7d24107a","ios":"levelo://app?vid=4f3dfbf4-d1ae-44db-8110-b28c7d24107a"},"vehicle_type_id":"4","last_reported":1744819947,"current_range_meters":16000,"station_id":"ce4bhk92rcd13ifvqgc0","pricing_plan_id":"cebpf4jnsgd1na2vs0mg"},{"bike_id":"b37478c9-c9d1-4921-942f-50c7a856681e","system_id":"levelo_inurba_marseille","lat":43.27058,"lon":5.40258,"is_reserved":false,"is_disabled":true,"rental_uris":{"android":"levelo://app?vid=b37478c9-c9d1-4921-942f-50c7a856681e","ios":"levelo://app?vid=b37478c9-c9d1-4921-942f-50c7a856681e"},"vehicle_type_id":"4","last_reported":1744819947,"current_range_meters":16000,"station_id":"ce4bhk92rcd13ifvqgc0","pricing_plan_id":"cebpf4jnsgd1na2vs0mg"},{"bike_id":"28e121e7-fb41-41f9-bf16-0e04ab4ff31c","system_id":"levelo_inurba_marseille","lat":43.2921,"lon":5.3931,"is_reserved":false,"is_disabled":false,"rental_uris":{"android":"levelo://app?vid=28e121e7-fb41-41f9-bf16-0e04ab4ff31c","ios":"levelo://app?vid=28e121e7-fb41-41f9-bf16-0e04ab4ff31c"},"vehicle_type_id":"4","last_reported":1744819947,"current_range_meters":16000,"station_id":"ce4bh192rcd13ifvqdd0","pricing_plan_id":"cebpf4jnsgd1na2vs0mg"},{"bike_id":"10a05b79-c3d5-4be7-a18b-8140be240501","system_id":"levelo_inurba_marseille","lat":43.29609,"lon":5.38137,"is_reserved":false,"is_disabled":false,"rental_uris":{"android":"levelo://app?vid=10a05b79-c3d5-4be7-a18b-8140be240501","ios":"levelo://app?vid=10a05b79-c3d5-4be7-a18b-8140be240501"},"vehicle_type_id":"4","last_reported":1744819947,"current_range_meters":16400,"station_id":"ce4bgl12rcd13ifvqbo0","pricing_plan_id":"cebpf4jnsgd1na2vs0mg"},{"bike_id":"da2251a7-2b2b-4dd1-8be8-8f047831f0e4","system_id":"levelo_inurba_marseille","lat":43.30301,"lon":5.39192,"is_reserved":false,"is_disabled":true,"rental_uris":{"android":"levelo://app?vid=da2251a7-2b2b-4dd1-8be8-8f047831f0e4","ios":"levelo://app?vid=da2251a7-2b2b-4dd1-8be8-8f047831f0e4"},"vehicle_type_id":"4","last_reported":1744819947,"current_range_meters":16400,"station_id":"ce4bgkh2rcd13ifvqbk0","pricing_plan_id":"cebpf4jnsgd1na2vs0mg"},{"bike_id":"6d808110-2d8c-4565-a3c5-2c4f66ab2217","system_id":"levelo_inurba_marseille","lat":43.29748,"lon":5.37703,"is_reserved":false,"is_disabled":false,"rental_uris":{"android":"levelo://app?vid=6d808110-2d8c-4565-a3c5-2c4f66ab2217","ios":"levelo://app?vid=6d808110-2d8c-4565-a3c5-2c4f66ab2217"},"vehicle_type_id":"4","last_reported":1744819947,"current_range_meters":16400,"station_id":"ce4bgkh2rcd13ifvqbl0","pricing_plan_id":"cebpf4jnsgd1na2vs0mg"},{"bike_id":"970a4b57-ac2b-4ad4-bc8a-239431db997e","system_id":"levelo_inurba_marseille","lat":43.26935,"lon":5.40261,"is_reserved":false,"is_disabled":false,"rental_uris":{"android":"levelo://app?vid=970a4b57-ac2b-4ad4-bc8a-239431db997e","ios":"levelo://app?vid=970a4b57-ac2b-4ad4-bc8a-239431db997e"},"vehicle_type_id":"4","last_reported":1744819947,"current_range_meters":16400,"station_id":"cjm6bp8fraef2m0cb0m0","pricing_plan_id":"cebpf4jnsgd1na2vs0mg"},{"bike_id":"355a64ce-d981-4012-b278-eb66799a5e11","system_id":"levelo_inurba_marseille","lat":43.30094,"lon":5.39096,"is_reserved":false,"is_disabled":false,"rental_uris":{"android":"levelo://app?vid=355a64ce-d981-4012-b278-eb66799a5e11","ios":"levelo://app?vid=355a64ce-d981-4012-b278-eb66799a5e11"},"vehicle_type_id":"4","last_reported":1744819947,"current_range_meters":16400,"station_id":"ce4bh192rcd13ifvqdb0","pricing_plan_id":"cebpf4jnsgd1na2vs0mg"},{"bike_id":"57406be6-c0b4-4691-8abf-3f6842e4ec81","system_id":"levelo_inurba_marseille","lat":43.28479,"lon":5.39193,"is_reserved":false,"is_disabled":true,"rental_uris":{"android":"levelo://app?vid=57406be6-c0b4-4691-8abf-3f6842e4ec81","ios":"levelo://app?vid=57406be6-c0b4-4691-8abf-3f6842e4ec81"},"vehicle_type_id":"4","last_reported":1744819947,"current_range_meters":16400,"station_id":"ce4bhoh2rcd13ifvqh5g","pricing_plan_id":"cebpf4jnsgd1na2vs0mg"},{"bike_id":"02160a6d-5526-49d9-a5c5-e6369175b3b0","system_id":"levelo_inurba_marseille","lat":43.304169,"lon":5.367246,"is_reserved":false,"is_disabled":false,"rental_uris":{"android":"levelo://app?vid=02160a6d-5526-49d9-a5c5-e6369175b3b0","ios":"levelo://app?vid=02160a6d-5526-49d9-a5c5-e6369175b3b0"},"vehicle_type_id":"4","last_reported":1744819947,"current_range_meters":16400,"station_id":"ce4bgi12rcd13ifvqb70","pricing_plan_id":"cebpf4jnsgd1na2vs0mg"},{"bike_id":"f462d1c0-a98e-4d8b-b578-9a1b5c4d74d9","system_id":"levelo_inurba_marseille","lat":43.29591,"lon":5.42336,"is_reserved":false,"is_disabled":false,"rental_uris":{"android":"levelo://app?vid=f462d1c0-a98e-4d8b-b578-9a1b5c4d74d9","ios":"levelo://app?vid=f462d1c0-a98e-4d8b-b578-9a1b5c4d74d9"},"vehicle_type_id":"4","last_reported":1744819947,"current_range_meters":16800,"station_id":"","pricing_plan_id":"cebpf4jnsgd1na2vs0mg"},{"bike_id":"b6b4fba7-65bd-4354-9ef8-9be346fbbc8a","system_id":"levelo_inurba_marseille","lat":43.3029,"lon":5.37746,"is_reserved":false,"is_disabled":false,"rental_uris":{"android":"levelo://app?vid=b6b4fba7-65bd-4354-9ef8-9be346fbbc8a","ios":"levelo://app?vid=b6b4fba7-65bd-4354-9ef8-9be346fbbc8a"},"vehicle_type_id":"4","last_reported":1744819947,"current_range_meters":16800,"station_id":"ce4bguh2rcd13ifvqcj0","pricing_plan_id":"cebpf4jnsgd1na2vs0mg"},{"bike_id":"b453c917-0db1-40bd-ad8a-e14424b609f7","system_id":"levelo_inurba_marseille","lat":43.27058,"lon":5.4027,"is_reserved":false,"is_disabled":false,"rental_uris":{"android":"levelo://app?vid=b453c917-0db1-40bd-ad8a-e14424b609f7","ios":"levelo://app?vid=b453c917-0db1-40bd-ad8a-e14424b609f7"},"vehicle_type_id":"4","last_reported":1744819947,"current_range_meters":17200,"station_id":"ce4bhk92rcd13ifvqgc0","pricing_plan_id":"cebpf4jnsgd1na2vs0mg"},{"bike_id":"38ad4071-90fc-4ccc-8c4b-9f69034f01d6","system_id":"levelo_inurba_marseille","lat":43.27813,"lon":5.40716,"is_reserved":false,"is_disabled":false,"rental_uris":{"android":"levelo://app?vid=38ad4071-90fc-4ccc-8c4b-9f69034f01d6","ios":"levelo://app?vid=38ad4071-90fc-4ccc-8c4b-9f69034f01d6"},"vehicle_type_id":"4","last_reported":1744819947,"current_range_meters":17200,"station_id":"ce4bhnh2rcd13ifvqgtg","pricing_plan_id":"cebpf4jnsgd1na2vs0mg"},{"bike_id":"8c95c56e-fd38-4747-b8d7-85ddf29bba6c","system_id":"levelo_inurba_marseille","lat":43.29827,"lon":5.38117,"is_reserved":false,"is_disabled":false,"rental_uris":{"android":"levelo://app?vid=8c95c56e-fd38-4747-b8d7-85ddf29bba6c","ios":"levelo://app?vid=8c95c56e-fd38-4747-b8d7-85ddf29bba6c"},"vehicle_type_id":"4","last_reported":1744819947,"current_range_meters":17200,"station_id":"ce4bgip2rcd13ifvqbb0","pricing_plan_id":"cebpf4jnsgd1na2vs0mg"},{"bike_id":"82a9f084-92e1-47c0-b881-82e1a0d6f93e","system_id":"levelo_inurba_marseille","lat":43.28676,"lon":5.38662,"is_reserved":false,"is_disabled":false,"rental_uris":{"android":"levelo://app?vid=82a9f084-92e1-47c0-b881-82e1a0d6f93e","ios":"levelo://app?vid=82a9f084-92e1-47c0-b881-82e1a0d6f93e"},"vehicle_type_id":"4","last_reported":1744819947,"current_range_meters":17200,"station_id":"ce4bh492rcd13ifvqdug","pricing_plan_id":"cebpf4jnsgd1na2vs0mg"},{"bike_id":"18b39f12-02ce-40ff-a493-0dbf41925ae9","system_id":"levelo_inurba_marseille","lat":43.29079,"lon":5.3716,"is_reserved":false,"is_disabled":false,"rental_uris":{"android":"levelo://app?vid=18b39f12-02ce-40ff-a493-0dbf41925ae9","ios":"levelo://app?vid=18b39f12-02ce-40ff-a493-0dbf41925ae9"},"vehicle_type_id":"4","last_reported":1744819947,"current_range_meters":16800,"station_id":"ce4bh5p2rcd13ifvqe4g","pricing_plan_id":"cebpf4jnsgd1na2vs0mg"},{"bike_id":"0e71401f-211e-41d3-b544-82fb663532e4","system_id":"levelo_inurba_marseille","lat":43.32478,"lon":5.36583,"is_reserved":false,"is_disabled":false,"rental_uris":{"android":"levelo://app?vid=0e71401f-211e-41d3-b544-82fb663532e4","ios":"levelo://app?vid=0e71401f-211e-41d3-b544-82fb663532e4"},"vehicle_type_id":"4","last_reported":1744819947,"current_range_meters":16800,"station_id":"ce4bhs12rcd13ifvqhvg","pricing_plan_id":"cebpf4jnsgd1na2vs0mg"},{"bike_id":"510667df-85ad-469d-9727-b129675d3fd3","system_id":"levelo_inurba_marseille","lat":43.30184,"lon":5.36627,"is_reserved":false,"is_disabled":false,"rental_uris":{"android":"levelo://app?vid=510667df-85ad-469d-9727-b129675d3fd3","ios":"levelo://app?vid=510667df-85ad-469d-9727-b129675d3fd3"},"vehicle_type_id":"4","last_reported":1744819947,"current_range_meters":16800,"station_id":"ce4bgrh2rcd13ifvqc8g","pricing_plan_id":"cebpf4jnsgd1na2vs0mg"},{"bike_id":"bbbd4f90-1b83-4c16-8f4c-d7e9b52d2dec","system_id":"levelo_inurba_marseille","lat":43.32366,"lon":5.38886,"is_reserved":false,"is_disabled":false,"rental_uris":{"android":"levelo://app?vid=bbbd4f90-1b83-4c16-8f4c-d7e9b52d2dec","ios":"levelo://app?vid=bbbd4f90-1b83-4c16-8f4c-d7e9b52d2dec"},"vehicle_type_id":"4","last_reported":1744819947,"current_range_meters":17600,"station_id":"ce4bhqp2rcd13ifvqhog","pricing_plan_id":"cebpf4jnsgd1na2vs0mg"},{"bike_id":"0e7f3c1c-5749-4ea0-8c4b-38be5bb50b3a","system_id":"levelo_inurba_marseille","lat":43.30673,"lon":5.40088,"is_reserved":false,"is_disabled":false,"rental_uris":{"android":"levelo://app?vid=0e7f3c1c-5749-4ea0-8c4b-38be5bb50b3a","ios":"levelo://app?vid=0e7f3c1c-5749-4ea0-8c4b-38be5bb50b3a"},"vehicle_type_id":"4","last_reported":1744819947,"current_range_meters":18000,"station_id":"ce4bh112rcd13ifvqda0","pricing_plan_id":"cebpf4jnsgd1na2vs0mg"},{"bike_id":"335b9b5d-ffa9-4527-b1ec-e83efc0df680","system_id":"levelo_inurba_marseille","lat":43.25858,"lon":5.38878,"is_reserved":false,"is_disabled":false,"rental_uris":{"android":"levelo://app?vid=335b9b5d-ffa9-4527-b1ec-e83efc0df680","ios":"levelo://app?vid=335b9b5d-ffa9-4527-b1ec-e83efc0df680"},"vehicle_type_id":"4","last_reported":1744819947,"current_range_meters":18000,"station_id":"","pricing_plan_id":"cebpf4jnsgd1na2vs0mg"},{"bike_id":"da0699e6-fffb-42fd-bda2-fa249cfedfd8","system_id":"levelo_inurba_marseille","lat":43.31508,"lon":5.37304,"is_reserved":false,"is_disabled":false,"rental_uris":{"android":"levelo://app?vid=da0699e6-fffb-42fd-bda2-fa249cfedfd8","ios":"levelo://app?vid=da0699e6-fffb-42fd-bda2-fa249cfedfd8"},"vehicle_type_id":"4","last_reported":1744819947,"current_range_meters":18000,"station_id":"ce4bgt12rcd13ifvqcd0","pricing_plan_id":"cebpf4jnsgd1na2vs0mg"},{"bike_id":"9f3a5dd8-a360-4b18-82ad-d26b0a34023d","system_id":"levelo_inurba_marseille","lat":43.30578,"lon":5.36518,"is_reserved":false,"is_disabled":false,"rental_uris":{"android":"levelo://app?vid=9f3a5dd8-a360-4b18-82ad-d26b0a34023d","ios":"levelo://app?vid=9f3a5dd8-a360-4b18-82ad-d26b0a34023d"},"vehicle_type_id":"4","last_reported":1744819947,"current_range_meters":18000,"station_id":"ce4bgs12rcd13ifvqcag","pricing_plan_id":"cebpf4jnsgd1na2vs0mg"},{"bike_id":"2d03e3c2-09e4-4978-8dbc-31228f7e9fd5","system_id":"levelo_inurba_marseille","lat":43.25575,"lon":5.38235,"is_reserved":false,"is_disabled":false,"rental_uris":{"android":"levelo://app?vid=2d03e3c2-09e4-4978-8dbc-31228f7e9fd5","ios":"levelo://app?vid=2d03e3c2-09e4-4978-8dbc-31228f7e9fd5"},"vehicle_type_id":"4","last_reported":1744819947,"current_range_meters":18000,"station_id":"ce4bhih2rcd13ifvqfs0","pricing_plan_id":"cebpf4jnsgd1na2vs0mg"},{"bike_id":"aaebd74f-4a65-43c4-9757-0c56fb7eac95","system_id":"levelo_inurba_marseille","lat":43.29171,"lon":5.37164,"is_reserved":false,"is_disabled":false,"rental_uris":{"android":"levelo://app?vid=aaebd74f-4a65-43c4-9757-0c56fb7eac95","ios":"levelo://app?vid=aaebd74f-4a65-43c4-9757-0c56fb7eac95"},"vehicle_type_id":"4","last_reported":1744819947,"current_range_meters":18000,"station_id":"ce4bha92rcd13ifvqeh0","pricing_plan_id":"cebpf4jnsgd1na2vs0mg"},{"bike_id":"41549404-5276-4d33-8e3b-a21fd3bd53f8","system_id":"levelo_inurba_marseille","lat":43.29843,"lon":5.36279,"is_reserved":false,"is_disabled":false,"rental_uris":{"android":"levelo://app?vid=41549404-5276-4d33-8e3b-a21fd3bd53f8","ios":"levelo://app?vid=41549404-5276-4d33-8e3b-a21fd3bd53f8"},"vehicle_type_id":"4","last_reported":1744819947,"current_range_meters":18000,"station_id":"ce4bgpp2rcd13ifvqc3g","pricing_plan_id":"cebpf4jnsgd1na2vs0mg"},{"bike_id":"1b73054f-8a78-4dfc-a12c-f848c4ccb187","system_id":"levelo_inurba_marseille","lat":43.29624,"lon":5.37719,"is_reserved":false,"is_disabled":false,"rental_uris":{"android":"levelo://app?vid=1b73054f-8a78-4dfc-a12c-f848c4ccb187","ios":"levelo://app?vid=1b73054f-8a78-4dfc-a12c-f848c4ccb187"},"vehicle_type_id":"4","last_reported":1744819947,"current_range_meters":18800,"station_id":"ce4bgi92rcd13ifvqb90","pricing_plan_id":"cebpf4jnsgd1na2vs0mg"},{"bike_id":"f9294aff-5b6f-4d62-9db7-b7bdca4ffaf5","system_id":"levelo_inurba_marseille","lat":43.32544,"lon":5.4144,"is_reserved":false,"is_disabled":false,"rental_uris":{"android":"levelo://app?vid=f9294aff-5b6f-4d62-9db7-b7bdca4ffaf5","ios":"levelo://app?vid=f9294aff-5b6f-4d62-9db7-b7bdca4ffaf5"},"vehicle_type_id":"4","last_reported":1744819947,"current_range_meters":18800,"station_id":"ce4bhq12rcd13ifvqhhg","pricing_plan_id":"cebpf4jnsgd1na2vs0mg"},{"bike_id":"a9a13b2f-e2de-4f40-968c-4382de62974d","system_id":"levelo_inurba_marseille","lat":43.2794,"lon":5.41042,"is_reserved":false,"is_disabled":false,"rental_uris":{"android":"levelo://app?vid=a9a13b2f-e2de-4f40-968c-4382de62974d","ios":"levelo://app?vid=a9a13b2f-e2de-4f40-968c-4382de62974d"},"vehicle_type_id":"4","last_reported":1744819947,"current_range_meters":18800,"station_id":"ce4bhnp2rcd13ifvqh0g","pricing_plan_id":"cebpf4jnsgd1na2vs0mg"},{"bike_id":"2ad24aa2-c658-4150-921e-3b7bb443b42a","system_id":"levelo_inurba_marseille","lat":43.28414,"lon":5.37498,"is_reserved":false,"is_disabled":false,"rental_uris":{"android":"levelo://app?vid=2ad24aa2-c658-4150-921e-3b7bb443b42a","ios":"levelo://app?vid=2ad24aa2-c658-4150-921e-3b7bb443b42a"},"vehicle_type_id":"4","last_reported":1744819947,"current_range_meters":18800,"station_id":"ce4bh412rcd13ifvqds0","pricing_plan_id":"cebpf4jnsgd1na2vs0mg"},{"bike_id":"f8ca688b-8d89-46b7-9110-baed5a9ba379","system_id":"levelo_inurba_marseille","lat":43.31136,"lon":5.37071,"is_reserved":false,"is_disabled":false,"rental_uris":{"android":"levelo://app?vid=f8ca688b-8d89-46b7-9110-baed5a9ba379","ios":"levelo://app?vid=f8ca688b-8d89-46b7-9110-baed5a9ba379"},"vehicle_type_id":"4","last_reported":1744819947,"current_range_meters":19200,"station_id":"","pricing_plan_id":"cebpf4jnsgd1na2vs0mg"},{"bike_id":"4ac24d1f-df13-408c-867a-7794d6847c26","system_id":"levelo_inurba_marseille","lat":43.30744,"lon":5.42443,"is_reserved":false,"is_disabled":false,"rental_uris":{"android":"levelo://app?vid=4ac24d1f-df13-408c-867a-7794d6847c26","ios":"levelo://app?vid=4ac24d1f-df13-408c-867a-7794d6847c26"},"vehicle_type_id":"4","last_reported":1744819947,"current_range_meters":19200,"station_id":"st_cvj6ca6bvosntc0bfgr0","pricing_plan_id":"cebpf4jnsgd1na2vs0mg"},{"bike_id":"8bc01458-e04d-4e1e-9f4f-473a9ad28594","system_id":"levelo_inurba_marseille","lat":43.27923,"lon":5.39589,"is_reserved":false,"is_disabled":false,"rental_uris":{"android":"levelo://app?vid=8bc01458-e04d-4e1e-9f4f-473a9ad28594","ios":"levelo://app?vid=8bc01458-e04d-4e1e-9f4f-473a9ad28594"},"vehicle_type_id":"4","last_reported":1744819947,"current_range_meters":19200,"station_id":"ce4bhf92rcd13ifvqf40","pricing_plan_id":"cebpf4jnsgd1na2vs0mg"},{"bike_id":"2525f31c-6256-4776-b85d-14e132fcfe31","system_id":"levelo_inurba_marseille","lat":43.30318,"lon":5.36893,"is_reserved":false,"is_disabled":false,"rental_uris":{"android":"levelo://app?vid=2525f31c-6256-4776-b85d-14e132fcfe31","ios":"levelo://app?vid=2525f31c-6256-4776-b85d-14e132fcfe31"},"vehicle_type_id":"4","last_reported":1744819947,"current_range_meters":19200,"station_id":"ce4bgqh2rcd13ifvqc5g","pricing_plan_id":"cebpf4jnsgd1na2vs0mg"},{"bike_id":"ec0ab0c1-17c7-427f-b9a9-2dc327e7856e","system_id":"levelo_inurba_marseille","lat":43.28851,"lon":5.39321,"is_reserved":false,"is_disabled":false,"rental_uris":{"android":"levelo://app?vid=ec0ab0c1-17c7-427f-b9a9-2dc327e7856e","ios":"levelo://app?vid=ec0ab0c1-17c7-427f-b9a9-2dc327e7856e"},"vehicle_type_id":"4","last_reported":1744819947,"current_range_meters":18800,"station_id":"ce4bh2p2rcd13ifvqdi0","pricing_plan_id":"cebpf4jnsgd1na2vs0mg"},{"bike_id":"439c6cb6-7b03-4e89-b858-34cc7d6863ae","system_id":"levelo_inurba_marseille","lat":43.31224,"lon":5.36852,"is_reserved":false,"is_disabled":false,"rental_uris":{"android":"levelo://app?vid=439c6cb6-7b03-4e89-b858-34cc7d6863ae","ios":"levelo://app?vid=439c6cb6-7b03-4e89-b858-34cc7d6863ae"},"vehicle_type_id":"4","last_reported":1744819947,"current_range_meters":19200,"station_id":"ce4bgl92rcd13ifvqbq0","pricing_plan_id":"cebpf4jnsgd1na2vs0mg"},{"bike_id":"a0ddb0a5-f7f0-4281-aa27-9e82747cc573","system_id":"levelo_inurba_marseille","lat":43.337619,"lon":5.374828,"is_reserved":false,"is_disabled":false,"rental_uris":{"android":"levelo://app?vid=a0ddb0a5-f7f0-4281-aa27-9e82747cc573","ios":"levelo://app?vid=a0ddb0a5-f7f0-4281-aa27-9e82747cc573"},"vehicle_type_id":"4","last_reported":1744819947,"current_range_meters":19200,"station_id":"","pricing_plan_id":"cebpf4jnsgd1na2vs0mg"},{"bike_id":"bbb1c662-cc65-4c72-8489-de78d2f0f12f","system_id":"levelo_inurba_marseille","lat":43.23064,"lon":5.35507,"is_reserved":false,"is_disabled":false,"rental_uris":{"android":"levelo://app?vid=bbb1c662-cc65-4c72-8489-de78d2f0f12f","ios":"levelo://app?vid=bbb1c662-cc65-4c72-8489-de78d2f0f12f"},"vehicle_type_id":"4","last_reported":1744819947,"current_range_meters":19600,"station_id":"cpo3342slgdg3j2ifvpg","pricing_plan_id":"cebpf4jnsgd1na2vs0mg"},{"bike_id":"d46b2e48-9179-435a-9682-3a6a1ec18d25","system_id":"levelo_inurba_marseille","lat":43.287,"lon":5.40013,"is_reserved":false,"is_disabled":false,"rental_uris":{"android":"levelo://app?vid=d46b2e48-9179-435a-9682-3a6a1ec18d25","ios":"levelo://app?vid=d46b2e48-9179-435a-9682-3a6a1ec18d25"},"vehicle_type_id":"4","last_reported":1744819947,"current_range_meters":19600,"station_id":"ce4bho92rcd13ifvqh3g","pricing_plan_id":"cebpf4jnsgd1na2vs0mg"},{"bike_id":"43bf9250-5f81-403b-b2f2-341a8561032d","system_id":"levelo_inurba_marseille","lat":43.3169,"lon":5.40471,"is_reserved":false,"is_disabled":false,"rental_uris":{"android":"levelo://app?vid=43bf9250-5f81-403b-b2f2-341a8561032d","ios":"levelo://app?vid=43bf9250-5f81-403b-b2f2-341a8561032d"},"vehicle_type_id":"4","last_reported":1744819947,"current_range_meters":19600,"station_id":"ce4bh012rcd13ifvqd00","pricing_plan_id":"cebpf4jnsgd1na2vs0mg"},{"bike_id":"17c9dc6c-271d-433f-9b4c-f545e7e15d51","system_id":"levelo_inurba_marseille","lat":43.28092,"lon":5.39659,"is_reserved":false,"is_disabled":false,"rental_uris":{"android":"levelo://app?vid=17c9dc6c-271d-433f-9b4c-f545e7e15d51","ios":"levelo://app?vid=17c9dc6c-271d-433f-9b4c-f545e7e15d51"},"vehicle_type_id":"4","last_reported":1744819947,"current_range_meters":19600,"station_id":"ce4bho12rcd13ifvqh2g","pricing_plan_id":"cebpf4jnsgd1na2vs0mg"},{"bike_id":"af8aa001-7f73-471e-987b-3e247ec3c791","system_id":"levelo_inurba_marseille","lat":43.28098,"lon":5.37861,"is_reserved":false,"is_disabled":false,"rental_uris":{"android":"levelo://app?vid=af8aa001-7f73-471e-987b-3e247ec3c791","ios":"levelo://app?vid=af8aa001-7f73-471e-987b-3e247ec3c791"},"vehicle_type_id":"4","last_reported":1744819947,"current_range_meters":19600,"station_id":"ce4bha12rcd13ifvqee0","pricing_plan_id":"cebpf4jnsgd1na2vs0mg"},{"bike_id":"a698e6fe-68fe-4b74-800e-582c43813e2f","system_id":"levelo_inurba_marseille","lat":43.28105,"lon":5.37828,"is_reserved":false,"is_disabled":false,"rental_uris":{"android":"levelo://app?vid=a698e6fe-68fe-4b74-800e-582c43813e2f","ios":"levelo://app?vid=a698e6fe-68fe-4b74-800e-582c43813e2f"},"vehicle_type_id":"4","last_reported":1744819947,"current_range_meters":19600,"station_id":"ce4bha12rcd13ifvqee0","pricing_plan_id":"cebpf4jnsgd1na2vs0mg"},{"bike_id":"d750596a-6ac6-4755-84cc-45acd4464f3d","system_id":"levelo_inurba_marseille","lat":43.24394,"lon":5.37089,"is_reserved":false,"is_disabled":false,"rental_uris":{"android":"levelo://app?vid=d750596a-6ac6-4755-84cc-45acd4464f3d","ios":"levelo://app?vid=d750596a-6ac6-4755-84cc-45acd4464f3d"},"vehicle_type_id":"4","last_reported":1744819947,"current_range_meters":20000,"station_id":"ce4bhhh2rcd13ifvqfk0","pricing_plan_id":"cebpf4jnsgd1na2vs0mg"},{"bike_id":"7e503a1b-3682-4e82-a0d8-f00043fe70df","system_id":"levelo_inurba_marseille","lat":43.29269,"lon":5.38439,"is_reserved":false,"is_disabled":false,"rental_uris":{"android":"levelo://app?vid=7e503a1b-3682-4e82-a0d8-f00043fe70df","ios":"levelo://app?vid=7e503a1b-3682-4e82-a0d8-f00043fe70df"},"vehicle_type_id":"4","last_reported":1744819947,"current_range_meters":20000,"station_id":"ce4bh692rcd13ifvqea0","pricing_plan_id":"cebpf4jnsgd1na2vs0mg"},{"bike_id":"4614532d-d768-4c6e-ab8e-06bcbe9b4cd4","system_id":"levelo_inurba_marseille","lat":43.30633,"lon":5.401,"is_reserved":false,"is_disabled":false,"rental_uris":{"android":"levelo://app?vid=4614532d-d768-4c6e-ab8e-06bcbe9b4cd4","ios":"levelo://app?vid=4614532d-d768-4c6e-ab8e-06bcbe9b4cd4"},"vehicle_type_id":"4","last_reported":1744819947,"current_range_meters":20000,"station_id":"ce4bh112rcd13ifvqda0","pricing_plan_id":"cebpf4jnsgd1na2vs0mg"},{"bike_id":"08f4dcee-7656-4957-9022-f13783bb2667","system_id":"levelo_inurba_marseille","lat":43.29685,"lon":5.37233,"is_reserved":false,"is_disabled":false,"rental_uris":{"android":"levelo://app?vid=08f4dcee-7656-4957-9022-f13783bb2667","ios":"levelo://app?vid=08f4dcee-7656-4957-9022-f13783bb2667"},"vehicle_type_id":"4","last_reported":1744819947,"current_range_meters":20000,"station_id":"ce4bgk12rcd13ifvqbj0","pricing_plan_id":"cebpf4jnsgd1na2vs0mg"},{"bike_id":"8c0bd00b-dc66-465d-b759-a3f4d1b24bf8","system_id":"levelo_inurba_marseille","lat":43.28596,"lon":5.3702,"is_reserved":false,"is_disabled":false,"rental_uris":{"android":"levelo://app?vid=8c0bd00b-dc66-465d-b759-a3f4d1b24bf8","ios":"levelo://app?vid=8c0bd00b-dc66-465d-b759-a3f4d1b24bf8"},"vehicle_type_id":"4","last_reported":1744819947,"current_range_meters":20000,"station_id":"ce4bht12rcd13ifvqi60","pricing_plan_id":"cebpf4jnsgd1na2vs0mg"},{"bike_id":"3d208e55-e970-4f52-96a1-3b11eb2af94d","system_id":"levelo_inurba_marseille","lat":43.30157,"lon":5.38073,"is_reserved":false,"is_disabled":false,"rental_uris":{"android":"levelo://app?vid=3d208e55-e970-4f52-96a1-3b11eb2af94d","ios":"levelo://app?vid=3d208e55-e970-4f52-96a1-3b11eb2af94d"},"vehicle_type_id":"4","last_reported":1744819947,"current_range_meters":20000,"station_id":"ce4bgjp2rcd13ifvqbh0","pricing_plan_id":"cebpf4jnsgd1na2vs0mg"},{"bike_id":"17c24be1-2cd9-48c4-bfc2-d1fcae2cee78","system_id":"levelo_inurba_marseille","lat":43.3064,"lon":5.40075,"is_reserved":false,"is_disabled":false,"rental_uris":{"android":"levelo://app?vid=17c24be1-2cd9-48c4-bfc2-d1fcae2cee78","ios":"levelo://app?vid=17c24be1-2cd9-48c4-bfc2-d1fcae2cee78"},"vehicle_type_id":"4","last_reported":1744819947,"current_range_meters":20000,"station_id":"ce4bh112rcd13ifvqda0","pricing_plan_id":"cebpf4jnsgd1na2vs0mg"},{"bike_id":"e713e0b6-debf-4220-9a8c-7e250d04ea3a","system_id":"levelo_inurba_marseille","lat":43.29423,"lon":5.38622,"is_reserved":false,"is_disabled":false,"rental_uris":{"android":"levelo://app?vid=e713e0b6-debf-4220-9a8c-7e250d04ea3a","ios":"levelo://app?vid=e713e0b6-debf-4220-9a8c-7e250d04ea3a"},"vehicle_type_id":"4","last_reported":1744819947,"current_range_meters":20000,"station_id":"ce4bh2h2rcd13ifvqdh0","pricing_plan_id":"cebpf4jnsgd1na2vs0mg"},{"bike_id":"6f2360da-5688-4f6a-8ebd-9e32ee7c678f","system_id":"levelo_inurba_marseille","lat":43.31753,"lon":5.40484,"is_reserved":false,"is_disabled":false,"rental_uris":{"android":"levelo://app?vid=6f2360da-5688-4f6a-8ebd-9e32ee7c678f","ios":"levelo://app?vid=6f2360da-5688-4f6a-8ebd-9e32ee7c678f"},"vehicle_type_id":"4","last_reported":1744819947,"current_range_meters":20000,"station_id":"ce4bh012rcd13ifvqd00","pricing_plan_id":"cebpf4jnsgd1na2vs0mg"},{"bike_id":"0ef48d23-13b1-482e-9ceb-ce9ed0ec76af","system_id":"levelo_inurba_marseille","lat":43.2706,"lon":5.40256,"is_reserved":false,"is_disabled":false,"rental_uris":{"android":"levelo://app?vid=0ef48d23-13b1-482e-9ceb-ce9ed0ec76af","ios":"levelo://app?vid=0ef48d23-13b1-482e-9ceb-ce9ed0ec76af"},"vehicle_type_id":"4","last_reported":1744819947,"current_range_meters":20400,"station_id":"ce4bhk92rcd13ifvqgc0","pricing_plan_id":"cebpf4jnsgd1na2vs0mg"},{"bike_id":"d39e5537-c00a-4bf8-9f22-53966b448679","system_id":"levelo_inurba_marseille","lat":43.29564,"lon":5.42277,"is_reserved":false,"is_disabled":false,"rental_uris":{"android":"levelo://app?vid=d39e5537-c00a-4bf8-9f22-53966b448679","ios":"levelo://app?vid=d39e5537-c00a-4bf8-9f22-53966b448679"},"vehicle_type_id":"4","last_reported":1744819947,"current_range_meters":20400,"station_id":"ce4bhph2rcd13ifvqhdg","pricing_plan_id":"cebpf4jnsgd1na2vs0mg"},{"bike_id":"ccb7a8e4-757c-4e6f-90e3-f97fac7da5b7","system_id":"levelo_inurba_marseille","lat":43.29271,"lon":5.38457,"is_reserved":false,"is_disabled":false,"rental_uris":{"android":"levelo://app?vid=ccb7a8e4-757c-4e6f-90e3-f97fac7da5b7","ios":"levelo://app?vid=ccb7a8e4-757c-4e6f-90e3-f97fac7da5b7"},"vehicle_type_id":"4","last_reported":1744819947,"current_range_meters":20400,"station_id":"ce4bh692rcd13ifvqea0","pricing_plan_id":"cebpf4jnsgd1na2vs0mg"},{"bike_id":"b19977ce-a7d9-4f8b-a705-06f77ca50084","system_id":"levelo_inurba_marseille","lat":43.29537,"lon":5.39022,"is_reserved":false,"is_disabled":false,"rental_uris":{"android":"levelo://app?vid=b19977ce-a7d9-4f8b-a705-06f77ca50084","ios":"levelo://app?vid=b19977ce-a7d9-4f8b-a705-06f77ca50084"},"vehicle_type_id":"4","last_reported":1744819947,"current_range_meters":20800,"station_id":"ce4bh3p2rcd13ifvqdp0","pricing_plan_id":"cebpf4jnsgd1na2vs0mg"},{"bike_id":"2984cec8-23de-4a73-97a3-c0829eb8b5c7","system_id":"levelo_inurba_marseille","lat":43.27919,"lon":5.39591,"is_reserved":false,"is_disabled":false,"rental_uris":{"android":"levelo://app?vid=2984cec8-23de-4a73-97a3-c0829eb8b5c7","ios":"levelo://app?vid=2984cec8-23de-4a73-97a3-c0829eb8b5c7"},"vehicle_type_id":"4","last_reported":1744819947,"current_range_meters":20800,"station_id":"ce4bhf92rcd13ifvqf40","pricing_plan_id":"cebpf4jnsgd1na2vs0mg"},{"bike_id":"5dcdba20-c421-403e-9fc9-2e0f516a830a","system_id":"levelo_inurba_marseille","lat":43.303,"lon":5.3776,"is_reserved":false,"is_disabled":false,"rental_uris":{"android":"levelo://app?vid=5dcdba20-c421-403e-9fc9-2e0f516a830a","ios":"levelo://app?vid=5dcdba20-c421-403e-9fc9-2e0f516a830a"},"vehicle_type_id":"4","last_reported":1744819947,"current_range_meters":20800,"station_id":"ce4bguh2rcd13ifvqcj0","pricing_plan_id":"cebpf4jnsgd1na2vs0mg"},{"bike_id":"3a598502-df9a-407d-adc2-7a70c936219f","system_id":"levelo_inurba_marseille","lat":43.297932,"lon":5.380935,"is_reserved":false,"is_disabled":false,"rental_uris":{"android":"levelo://app?vid=3a598502-df9a-407d-adc2-7a70c936219f","ios":"levelo://app?vid=3a598502-df9a-407d-adc2-7a70c936219f"},"vehicle_type_id":"4","last_reported":1744819947,"current_range_meters":20400,"station_id":"ce4bhb92rcd13ifvqen0","pricing_plan_id":"cebpf4jnsgd1na2vs0mg"},{"bike_id":"a69204e3-78d4-4eb8-847f-8272c27e7f2c","system_id":"levelo_inurba_marseille","lat":43.29204,"lon":5.3932,"is_reserved":false,"is_disabled":false,"rental_uris":{"android":"levelo://app?vid=a69204e3-78d4-4eb8-847f-8272c27e7f2c","ios":"levelo://app?vid=a69204e3-78d4-4eb8-847f-8272c27e7f2c"},"vehicle_type_id":"4","last_reported":1744819947,"current_range_meters":21600,"station_id":"ce4bh192rcd13ifvqdd0","pricing_plan_id":"cebpf4jnsgd1na2vs0mg"},{"bike_id":"8fd2cdd0-07d7-4c01-add2-10309aca4136","system_id":"levelo_inurba_marseille","lat":43.267169,"lon":5.394645,"is_reserved":false,"is_disabled":true,"rental_uris":{"android":"levelo://app?vid=8fd2cdd0-07d7-4c01-add2-10309aca4136","ios":"levelo://app?vid=8fd2cdd0-07d7-4c01-add2-10309aca4136"},"vehicle_type_id":"4","last_reported":1744819947,"current_range_meters":21600,"station_id":"","pricing_plan_id":"cebpf4jnsgd1na2vs0mg"},{"bike_id":"f47d0f94-8da3-44a8-aa47-8e9634ca35cd","system_id":"levelo_inurba_marseille","lat":43.292311,"lon":5.36069,"is_reserved":false,"is_disabled":false,"rental_uris":{"android":"levelo://app?vid=f47d0f94-8da3-44a8-aa47-8e9634ca35cd","ios":"levelo://app?vid=f47d0f94-8da3-44a8-aa47-8e9634ca35cd"},"vehicle_type_id":"4","last_reported":1744819947,"current_range_meters":21600,"station_id":"ce4bhbh2rcd13ifvqeqg","pricing_plan_id":"cebpf4jnsgd1na2vs0mg"},{"bike_id":"462cf557-9022-4db9-9799-7ffae290ebc5","system_id":"levelo_inurba_marseille","lat":43.28984,"lon":5.3784,"is_reserved":false,"is_disabled":false,"rental_uris":{"android":"levelo://app?vid=462cf557-9022-4db9-9799-7ffae290ebc5","ios":"levelo://app?vid=462cf557-9022-4db9-9799-7ffae290ebc5"},"vehicle_type_id":"4","last_reported":1744819947,"current_range_meters":22000,"station_id":"ce4bh9p2rcd13ifvqed0","pricing_plan_id":"cebpf4jnsgd1na2vs0mg"},{"bike_id":"20e13665-04b2-4e44-8830-962eacafddd2","system_id":"levelo_inurba_marseille","lat":43.26209,"lon":5.37443,"is_reserved":false,"is_disabled":false,"rental_uris":{"android":"levelo://app?vid=20e13665-04b2-4e44-8830-962eacafddd2","ios":"levelo://app?vid=20e13665-04b2-4e44-8830-962eacafddd2"},"vehicle_type_id":"4","last_reported":1744819947,"current_range_meters":22000,"station_id":"ce4bhgp2rcd13ifvqfc0","pricing_plan_id":"cebpf4jnsgd1na2vs0mg"},{"bike_id":"41fb0398-f2fe-4abb-ae37-a38f47615ea9","system_id":"levelo_inurba_marseille","lat":43.32365,"lon":5.3679,"is_reserved":false,"is_disabled":false,"rental_uris":{"android":"levelo://app?vid=41fb0398-f2fe-4abb-ae37-a38f47615ea9","ios":"levelo://app?vid=41fb0398-f2fe-4abb-ae37-a38f47615ea9"},"vehicle_type_id":"4","last_reported":1744819947,"current_range_meters":22000,"station_id":"ce4bhsh2rcd13ifvqi2g","pricing_plan_id":"cebpf4jnsgd1na2vs0mg"},{"bike_id":"f49c4e21-3368-4dd3-b8d1-f136aaf28dbc","system_id":"levelo_inurba_marseille","lat":43.31239,"lon":5.36871,"is_reserved":false,"is_disabled":false,"rental_uris":{"android":"levelo://app?vid=f49c4e21-3368-4dd3-b8d1-f136aaf28dbc","ios":"levelo://app?vid=f49c4e21-3368-4dd3-b8d1-f136aaf28dbc"},"vehicle_type_id":"4","last_reported":1744819947,"current_range_meters":22000,"station_id":"ce4bgl92rcd13ifvqbq0","pricing_plan_id":"cebpf4jnsgd1na2vs0mg"},{"bike_id":"b1762c68-8947-48b1-a7e3-5bb9aac102fd","system_id":"levelo_inurba_marseille","lat":43.29976,"lon":5.38501,"is_reserved":false,"is_disabled":false,"rental_uris":{"android":"levelo://app?vid=b1762c68-8947-48b1-a7e3-5bb9aac102fd","ios":"levelo://app?vid=b1762c68-8947-48b1-a7e3-5bb9aac102fd"},"vehicle_type_id":"4","last_reported":1744819947,"current_range_meters":22000,"station_id":"ce4bgj92rcd13ifvqbd0","pricing_plan_id":"cebpf4jnsgd1na2vs0mg"},{"bike_id":"04fb422e-0aec-4205-8e11-f392462c55c3","system_id":"levelo_inurba_marseille","lat":43.26806,"lon":5.4026,"is_reserved":false,"is_disabled":false,"rental_uris":{"android":"levelo://app?vid=04fb422e-0aec-4205-8e11-f392462c55c3","ios":"levelo://app?vid=04fb422e-0aec-4205-8e11-f392462c55c3"},"vehicle_type_id":"4","last_reported":1744819947,"current_range_meters":22000,"station_id":"ce501612rcd8frsf0b60","pricing_plan_id":"cebpf4jnsgd1na2vs0mg"},{"bike_id":"11124b63-ed92-47b8-a922-6f50474fe995","system_id":"levelo_inurba_marseille","lat":43.28973,"lon":5.37833,"is_reserved":false,"is_disabled":false,"rental_uris":{"android":"levelo://app?vid=11124b63-ed92-47b8-a922-6f50474fe995","ios":"levelo://app?vid=11124b63-ed92-47b8-a922-6f50474fe995"},"vehicle_type_id":"4","last_reported":1744819947,"current_range_meters":22000,"station_id":"ce4bh9p2rcd13ifvqed0","pricing_plan_id":"cebpf4jnsgd1na2vs0mg"},{"bike_id":"95cb4257-47a7-43ca-9e16-7d5e93c960cc","system_id":"levelo_inurba_marseille","lat":43.312359,"lon":5.368702,"is_reserved":false,"is_disabled":false,"rental_uris":{"android":"levelo://app?vid=95cb4257-47a7-43ca-9e16-7d5e93c960cc","ios":"levelo://app?vid=95cb4257-47a7-43ca-9e16-7d5e93c960cc"},"vehicle_type_id":"4","last_reported":1744819947,"current_range_meters":22000,"station_id":"ce4bgl92rcd13ifvqbq0","pricing_plan_id":"cebpf4jnsgd1na2vs0mg"},{"bike_id":"272ea20a-4c31-4d01-a01c-10f418156f2e","system_id":"levelo_inurba_marseille","lat":43.2317,"lon":5.43715,"is_reserved":false,"is_disabled":false,"rental_uris":{"android":"levelo://app?vid=272ea20a-4c31-4d01-a01c-10f418156f2e","ios":"levelo://app?vid=272ea20a-4c31-4d01-a01c-10f418156f2e"},"vehicle_type_id":"4","last_reported":1744819947,"current_range_meters":22000,"station_id":"ce4bhmp2rcd13ifvqgog","pricing_plan_id":"cebpf4jnsgd1na2vs0mg"},{"bike_id":"aacc8fd7-59f2-4e9c-82b1-9ad0000e0d57","system_id":"levelo_inurba_marseille","lat":43.29199,"lon":5.35805,"is_reserved":false,"is_disabled":false,"rental_uris":{"android":"levelo://app?vid=aacc8fd7-59f2-4e9c-82b1-9ad0000e0d57","ios":"levelo://app?vid=aacc8fd7-59f2-4e9c-82b1-9ad0000e0d57"},"vehicle_type_id":"4","last_reported":1744819947,"current_range_meters":22400,"station_id":"ce4bhb12rcd13ifvqel0","pricing_plan_id":"cebpf4jnsgd1na2vs0mg"},{"bike_id":"edc7ea79-bcb3-40c9-be92-87e8c4aebe66","system_id":"levelo_inurba_marseille","lat":43.29048,"lon":5.37148,"is_reserved":false,"is_disabled":false,"rental_uris":{"android":"levelo://app?vid=edc7ea79-bcb3-40c9-be92-87e8c4aebe66","ios":"levelo://app?vid=edc7ea79-bcb3-40c9-be92-87e8c4aebe66"},"vehicle_type_id":"4","last_reported":1744819947,"current_range_meters":22400,"station_id":"ce4bh5p2rcd13ifvqe4g","pricing_plan_id":"cebpf4jnsgd1na2vs0mg"},{"bike_id":"f41f4457-befb-4705-80eb-3a5f47cb1758","system_id":"levelo_inurba_marseille","lat":43.28616,"lon":5.35105,"is_reserved":false,"is_disabled":false,"rental_uris":{"android":"levelo://app?vid=f41f4457-befb-4705-80eb-3a5f47cb1758","ios":"levelo://app?vid=f41f4457-befb-4705-80eb-3a5f47cb1758"},"vehicle_type_id":"4","last_reported":1744819947,"current_range_meters":22400,"station_id":"ce4bhch2rcd13ifvqeug","pricing_plan_id":"cebpf4jnsgd1na2vs0mg"},{"bike_id":"6b25c985-766f-4506-85f5-cbe4c5c089d4","system_id":"levelo_inurba_marseille","lat":43.29583,"lon":5.37509,"is_reserved":false,"is_disabled":false,"rental_uris":{"android":"levelo://app?vid=6b25c985-766f-4506-85f5-cbe4c5c089d4","ios":"levelo://app?vid=6b25c985-766f-4506-85f5-cbe4c5c089d4"},"vehicle_type_id":"4","last_reported":1744819947,"current_range_meters":22400,"station_id":"ce4bgh92rcd13ifvqb50","pricing_plan_id":"cebpf4jnsgd1na2vs0mg"},{"bike_id":"4ad257bc-c5ac-4a59-9ab0-465b5a04b4c1","system_id":"levelo_inurba_marseille","lat":43.2903,"lon":5.38639,"is_reserved":false,"is_disabled":false,"rental_uris":{"android":"levelo://app?vid=4ad257bc-c5ac-4a59-9ab0-465b5a04b4c1","ios":"levelo://app?vid=4ad257bc-c5ac-4a59-9ab0-465b5a04b4c1"},"vehicle_type_id":"4","last_reported":1744819947,"current_range_meters":22400,"station_id":"ce4bh4p2rcd13ifvqe0g","pricing_plan_id":"cebpf4jnsgd1na2vs0mg"},{"bike_id":"8934c9ff-b955-4903-b5d2-c595dc711b7c","system_id":"levelo_inurba_marseille","lat":43.2956,"lon":5.3997,"is_reserved":false,"is_disabled":true,"rental_uris":{"android":"levelo://app?vid=8934c9ff-b955-4903-b5d2-c595dc711b7c","ios":"levelo://app?vid=8934c9ff-b955-4903-b5d2-c595dc711b7c"},"vehicle_type_id":"4","last_reported":1744819947,"current_range_meters":22400,"station_id":"ce4bh312rcd13ifvqdj0","pricing_plan_id":"cebpf4jnsgd1na2vs0mg"},{"bike_id":"12caff9b-a6cd-4335-93e5-14b5825095d6","system_id":"levelo_inurba_marseille","lat":43.29713,"lon":5.37743,"is_reserved":false,"is_disabled":false,"rental_uris":{"android":"levelo://app?vid=12caff9b-a6cd-4335-93e5-14b5825095d6","ios":"levelo://app?vid=12caff9b-a6cd-4335-93e5-14b5825095d6"},"vehicle_type_id":"4","last_reported":1744819947,"current_range_meters":22400,"station_id":"ce4bgkh2rcd13ifvqbl0","pricing_plan_id":"cebpf4jnsgd1na2vs0mg"},{"bike_id":"6350313d-53aa-463e-a456-9c24603aca27","system_id":"levelo_inurba_marseille","lat":43.29303,"lon":5.37467,"is_reserved":false,"is_disabled":false,"rental_uris":{"android":"levelo://app?vid=6350313d-53aa-463e-a456-9c24603aca27","ios":"levelo://app?vid=6350313d-53aa-463e-a456-9c24603aca27"},"vehicle_type_id":"4","last_reported":1744819947,"current_range_meters":22400,"station_id":"ce4bgi12rcd13ifvqb70","pricing_plan_id":"cebpf4jnsgd1na2vs0mg"},{"bike_id":"c73ab921-dd9a-4810-95bf-f34353c47ee8","system_id":"levelo_inurba_marseille","lat":43.30287,"lon":5.37725,"is_reserved":false,"is_disabled":false,"rental_uris":{"android":"levelo://app?vid=c73ab921-dd9a-4810-95bf-f34353c47ee8","ios":"levelo://app?vid=c73ab921-dd9a-4810-95bf-f34353c47ee8"},"vehicle_type_id":"4","last_reported":1744819947,"current_range_meters":22400,"station_id":"ce4bguh2rcd13ifvqcj0","pricing_plan_id":"cebpf4jnsgd1na2vs0mg"},{"bike_id":"9b32d9b0-b425-4d34-812f-0c610ee31565","system_id":"levelo_inurba_marseille","lat":43.30192,"lon":5.39487,"is_reserved":false,"is_disabled":true,"rental_uris":{"android":"levelo://app?vid=9b32d9b0-b425-4d34-812f-0c610ee31565","ios":"levelo://app?vid=9b32d9b0-b425-4d34-812f-0c610ee31565"},"vehicle_type_id":"4","last_reported":1744819947,"current_range_meters":22800,"station_id":"ce4bh0p2rcd13ifvqd70","pricing_plan_id":"cebpf4jnsgd1na2vs0mg"},{"bike_id":"ae125fbf-4545-4a40-8ac8-169455adb334","system_id":"levelo_inurba_marseille","lat":43.301,"lon":5.39097,"is_reserved":false,"is_disabled":false,"rental_uris":{"android":"levelo://app?vid=ae125fbf-4545-4a40-8ac8-169455adb334","ios":"levelo://app?vid=ae125fbf-4545-4a40-8ac8-169455adb334"},"vehicle_type_id":"4","last_reported":1744819947,"current_range_meters":22800,"station_id":"ce4bh192rcd13ifvqdb0","pricing_plan_id":"cebpf4jnsgd1na2vs0mg"},{"bike_id":"2e47be96-a7b1-4cf4-923a-c7711800fdaa","system_id":"levelo_inurba_marseille","lat":43.29285,"lon":5.36827,"is_reserved":false,"is_disabled":false,"rental_uris":{"android":"levelo://app?vid=2e47be96-a7b1-4cf4-923a-c7711800fdaa","ios":"levelo://app?vid=2e47be96-a7b1-4cf4-923a-c7711800fdaa"},"vehicle_type_id":"4","last_reported":1744819947,"current_range_meters":22800,"station_id":"ce4bhbp2rcd13ifvqesg","pricing_plan_id":"cebpf4jnsgd1na2vs0mg"},{"bike_id":"6a53904e-9a70-459f-a7f1-155f6d6e86f1","system_id":"levelo_inurba_marseille","lat":43.287105,"lon":5.373791,"is_reserved":false,"is_disabled":false,"rental_uris":{"android":"levelo://app?vid=6a53904e-9a70-459f-a7f1-155f6d6e86f1","ios":"levelo://app?vid=6a53904e-9a70-459f-a7f1-155f6d6e86f1"},"vehicle_type_id":"4","last_reported":1744819947,"current_range_meters":22800,"station_id":"","pricing_plan_id":"cebpf4jnsgd1na2vs0mg"},{"bike_id":"5c9c0bb7-1ad4-4457-b88d-83abed81f559","system_id":"levelo_inurba_marseille","lat":43.29912,"lon":5.38145,"is_reserved":false,"is_disabled":false,"rental_uris":{"android":"levelo://app?vid=5c9c0bb7-1ad4-4457-b88d-83abed81f559","ios":"levelo://app?vid=5c9c0bb7-1ad4-4457-b88d-83abed81f559"},"vehicle_type_id":"4","last_reported":1744819947,"current_range_meters":22800,"station_id":"ce4bgj12rcd13ifvqbc0","pricing_plan_id":"cebpf4jnsgd1na2vs0mg"},{"bike_id":"1b7e468a-46c1-4080-962c-0f2b58cd8b05","system_id":"levelo_inurba_marseille","lat":43.30239,"lon":5.40044,"is_reserved":false,"is_disabled":false,"rental_uris":{"android":"levelo://app?vid=1b7e468a-46c1-4080-962c-0f2b58cd8b05","ios":"levelo://app?vid=1b7e468a-46c1-4080-962c-0f2b58cd8b05"},"vehicle_type_id":"4","last_reported":1744819947,"current_range_meters":22800,"station_id":"ce4bgjp2rcd13ifvqbh0","pricing_plan_id":"cebpf4jnsgd1na2vs0mg"},{"bike_id":"d86b8c5c-a2e2-4018-9183-2430da5b6ade","system_id":"levelo_inurba_marseille","lat":43.30641,"lon":5.40103,"is_reserved":false,"is_disabled":false,"rental_uris":{"android":"levelo://app?vid=d86b8c5c-a2e2-4018-9183-2430da5b6ade","ios":"levelo://app?vid=d86b8c5c-a2e2-4018-9183-2430da5b6ade"},"vehicle_type_id":"4","last_reported":1744819947,"current_range_meters":22400,"station_id":"ce4bh112rcd13ifvqda0","pricing_plan_id":"cebpf4jnsgd1na2vs0mg"},{"bike_id":"3197aaf0-8f63-40f4-9df7-c01d404b36b4","system_id":"levelo_inurba_marseille","lat":43.29255,"lon":5.38443,"is_reserved":false,"is_disabled":false,"rental_uris":{"android":"levelo://app?vid=3197aaf0-8f63-40f4-9df7-c01d404b36b4","ios":"levelo://app?vid=3197aaf0-8f63-40f4-9df7-c01d404b36b4"},"vehicle_type_id":"4","last_reported":1744819947,"current_range_meters":22800,"station_id":"ce4bh692rcd13ifvqea0","pricing_plan_id":"cebpf4jnsgd1na2vs0mg"},{"bike_id":"789c3822-56ca-4769-bcd4-8845bdea2fda","system_id":"levelo_inurba_marseille","lat":43.24164,"lon":5.364,"is_reserved":false,"is_disabled":false,"rental_uris":{"android":"levelo://app?vid=789c3822-56ca-4769-bcd4-8845bdea2fda","ios":"levelo://app?vid=789c3822-56ca-4769-bcd4-8845bdea2fda"},"vehicle_type_id":"4","last_reported":1744819947,"current_range_meters":23200,"station_id":"cpo36qri1sfpv3e86is0","pricing_plan_id":"cebpf4jnsgd1na2vs0mg"},{"bike_id":"bd092b69-196d-4d70-9d30-a20eb385781c","system_id":"levelo_inurba_marseille","lat":43.2962,"lon":5.37739,"is_reserved":false,"is_disabled":false,"rental_uris":{"android":"levelo://app?vid=bd092b69-196d-4d70-9d30-a20eb385781c","ios":"levelo://app?vid=bd092b69-196d-4d70-9d30-a20eb385781c"},"vehicle_type_id":"4","last_reported":1744819947,"current_range_meters":23200,"station_id":"ce4bgi92rcd13ifvqb90","pricing_plan_id":"cebpf4jnsgd1na2vs0mg"},{"bike_id":"2d94ed43-5644-4e24-a254-01c8094a35f0","system_id":"levelo_inurba_marseille","lat":43.27064,"lon":5.40263,"is_reserved":false,"is_disabled":false,"rental_uris":{"android":"levelo://app?vid=2d94ed43-5644-4e24-a254-01c8094a35f0","ios":"levelo://app?vid=2d94ed43-5644-4e24-a254-01c8094a35f0"},"vehicle_type_id":"4","last_reported":1744819947,"current_range_meters":23200,"station_id":"ce4bhk92rcd13ifvqgc0","pricing_plan_id":"cebpf4jnsgd1na2vs0mg"},{"bike_id":"7eb8853e-3665-40f5-8308-1299f0674652","system_id":"levelo_inurba_marseille","lat":43.30389,"lon":5.42475,"is_reserved":false,"is_disabled":false,"rental_uris":{"android":"levelo://app?vid=7eb8853e-3665-40f5-8308-1299f0674652","ios":"levelo://app?vid=7eb8853e-3665-40f5-8308-1299f0674652"},"vehicle_type_id":"4","last_reported":1744819947,"current_range_meters":23200,"station_id":"ce4bhoh2rcd13ifvqh6g","pricing_plan_id":"cebpf4jnsgd1na2vs0mg"},{"bike_id":"bc140d56-5426-4329-8de2-925ded4c3ae5","system_id":"levelo_inurba_marseille","lat":43.30525,"lon":5.36764,"is_reserved":false,"is_disabled":false,"rental_uris":{"android":"levelo://app?vid=bc140d56-5426-4329-8de2-925ded4c3ae5","ios":"levelo://app?vid=bc140d56-5426-4329-8de2-925ded4c3ae5"},"vehicle_type_id":"4","last_reported":1744819947,"current_range_meters":23200,"station_id":"ce4bgrp2rcd13ifvqc9g","pricing_plan_id":"cebpf4jnsgd1na2vs0mg"},{"bike_id":"e181e564-f0a0-49de-86b2-576d5f576598","system_id":"levelo_inurba_marseille","lat":43.25868,"lon":5.39897,"is_reserved":false,"is_disabled":false,"rental_uris":{"android":"levelo://app?vid=e181e564-f0a0-49de-86b2-576d5f576598","ios":"levelo://app?vid=e181e564-f0a0-49de-86b2-576d5f576598"},"vehicle_type_id":"4","last_reported":1744819947,"current_range_meters":23200,"station_id":"ce4bhl92rcd13ifvqghg","pricing_plan_id":"cebpf4jnsgd1na2vs0mg"},{"bike_id":"f02f3ac5-b896-4078-b84b-360b61a7d1db","system_id":"levelo_inurba_marseille","lat":43.30219,"lon":5.39456,"is_reserved":false,"is_disabled":false,"rental_uris":{"android":"levelo://app?vid=f02f3ac5-b896-4078-b84b-360b61a7d1db","ios":"levelo://app?vid=f02f3ac5-b896-4078-b84b-360b61a7d1db"},"vehicle_type_id":"4","last_reported":1744819947,"current_range_meters":23200,"station_id":"ce4bh0p2rcd13ifvqd70","pricing_plan_id":"cebpf4jnsgd1na2vs0mg"},{"bike_id":"5e6be620-a3d0-49c3-9ff0-b85332cde817","system_id":"levelo_inurba_marseille","lat":43.23189,"lon":5.35562,"is_reserved":false,"is_disabled":false,"rental_uris":{"android":"levelo://app?vid=5e6be620-a3d0-49c3-9ff0-b85332cde817","ios":"levelo://app?vid=5e6be620-a3d0-49c3-9ff0-b85332cde817"},"vehicle_type_id":"4","last_reported":1744819947,"current_range_meters":23200,"station_id":"ce4bhu92rcd13ifvqi70","pricing_plan_id":"cebpf4jnsgd1na2vs0mg"},{"bike_id":"e570f1e0-9e68-4935-894d-058ccdf090aa","system_id":"levelo_inurba_marseille","lat":43.2926,"lon":5.38444,"is_reserved":false,"is_disabled":false,"rental_uris":{"android":"levelo://app?vid=e570f1e0-9e68-4935-894d-058ccdf090aa","ios":"levelo://app?vid=e570f1e0-9e68-4935-894d-058ccdf090aa"},"vehicle_type_id":"4","last_reported":1744819947,"current_range_meters":23200,"station_id":"ce4bh692rcd13ifvqea0","pricing_plan_id":"cebpf4jnsgd1na2vs0mg"},{"bike_id":"3808bc59-3143-4532-b268-20fbcd424af1","system_id":"levelo_inurba_marseille","lat":43.3176,"lon":5.39008,"is_reserved":false,"is_disabled":false,"rental_uris":{"android":"levelo://app?vid=3808bc59-3143-4532-b268-20fbcd424af1","ios":"levelo://app?vid=3808bc59-3143-4532-b268-20fbcd424af1"},"vehicle_type_id":"4","last_reported":1744819947,"current_range_meters":22800,"station_id":"ce4bhqp2rcd13ifvqhng","pricing_plan_id":"cebpf4jnsgd1na2vs0mg"},{"bike_id":"2a3df68e-728a-4b9c-bbc2-4259a4448e26","system_id":"levelo_inurba_marseille","lat":43.27988,"lon":5.40015,"is_reserved":false,"is_disabled":false,"rental_uris":{"android":"levelo://app?vid=2a3df68e-728a-4b9c-bbc2-4259a4448e26","ios":"levelo://app?vid=2a3df68e-728a-4b9c-bbc2-4259a4448e26"},"vehicle_type_id":"4","last_reported":1744819947,"current_range_meters":24000,"station_id":"ce4bho92rcd13ifvqh4g","pricing_plan_id":"cebpf4jnsgd1na2vs0mg"},{"bike_id":"e45d6a62-1943-4eff-b611-673282adc3ee","system_id":"levelo_inurba_marseille","lat":43.24646,"lon":5.38896,"is_reserved":false,"is_disabled":false,"rental_uris":{"android":"levelo://app?vid=e45d6a62-1943-4eff-b611-673282adc3ee","ios":"levelo://app?vid=e45d6a62-1943-4eff-b611-673282adc3ee"},"vehicle_type_id":"4","last_reported":1744819947,"current_range_meters":24000,"station_id":"ce4bhg12rcd13ifvqf60","pricing_plan_id":"cebpf4jnsgd1na2vs0mg"},{"bike_id":"ec89c210-3c21-4708-958a-dedc8c3e7ca2","system_id":"levelo_inurba_marseille","lat":43.30534,"lon":5.36559,"is_reserved":false,"is_disabled":false,"rental_uris":{"android":"levelo://app?vid=ec89c210-3c21-4708-958a-dedc8c3e7ca2","ios":"levelo://app?vid=ec89c210-3c21-4708-958a-dedc8c3e7ca2"},"vehicle_type_id":"4","last_reported":1744819947,"current_range_meters":24000,"station_id":"ce4bgs12rcd13ifvqcag","pricing_plan_id":"cebpf4jnsgd1na2vs0mg"},{"bike_id":"257ba64f-36e8-4225-b8ad-52faf23e59dc","system_id":"levelo_inurba_marseille","lat":43.2996,"lon":5.38514,"is_reserved":false,"is_disabled":false,"rental_uris":{"android":"levelo://app?vid=257ba64f-36e8-4225-b8ad-52faf23e59dc","ios":"levelo://app?vid=257ba64f-36e8-4225-b8ad-52faf23e59dc"},"vehicle_type_id":"4","last_reported":1744819947,"current_range_meters":24000,"station_id":"ce4bgj92rcd13ifvqbd0","pricing_plan_id":"cebpf4jnsgd1na2vs0mg"},{"bike_id":"b121dc9f-349d-436f-b5ca-d1de4650ae9f","system_id":"levelo_inurba_marseille","lat":43.29074,"lon":5.37139,"is_reserved":false,"is_disabled":false,"rental_uris":{"android":"levelo://app?vid=b121dc9f-349d-436f-b5ca-d1de4650ae9f","ios":"levelo://app?vid=b121dc9f-349d-436f-b5ca-d1de4650ae9f"},"vehicle_type_id":"4","last_reported":1744819947,"current_range_meters":23200,"station_id":"ce4bh5p2rcd13ifvqe4g","pricing_plan_id":"cebpf4jnsgd1na2vs0mg"},{"bike_id":"7ed91d22-3d5b-4254-83bf-64eb2a7d5481","system_id":"levelo_inurba_marseille","lat":43.22501,"lon":5.34777,"is_reserved":false,"is_disabled":false,"rental_uris":{"android":"levelo://app?vid=7ed91d22-3d5b-4254-83bf-64eb2a7d5481","ios":"levelo://app?vid=7ed91d22-3d5b-4254-83bf-64eb2a7d5481"},"vehicle_type_id":"4","last_reported":1744819947,"current_range_meters":24000,"station_id":"","pricing_plan_id":"cebpf4jnsgd1na2vs0mg"},{"bike_id":"5c50ae30-5f77-4243-86fb-00e2d7606f9b","system_id":"levelo_inurba_marseille","lat":43.29803,"lon":5.38115,"is_reserved":false,"is_disabled":false,"rental_uris":{"android":"levelo://app?vid=5c50ae30-5f77-4243-86fb-00e2d7606f9b","ios":"levelo://app?vid=5c50ae30-5f77-4243-86fb-00e2d7606f9b"},"vehicle_type_id":"4","last_reported":1744819947,"current_range_meters":24000,"station_id":"ce4bgip2rcd13ifvqbb0","pricing_plan_id":"cebpf4jnsgd1na2vs0mg"},{"bike_id":"3103725c-b90f-4e0c-a146-754418202128","system_id":"levelo_inurba_marseille","lat":43.30333,"lon":5.40428,"is_reserved":false,"is_disabled":false,"rental_uris":{"android":"levelo://app?vid=3103725c-b90f-4e0c-a146-754418202128","ios":"levelo://app?vid=3103725c-b90f-4e0c-a146-754418202128"},"vehicle_type_id":"4","last_reported":1744819947,"current_range_meters":24000,"station_id":"ce4bh012rcd13ifvqd10","pricing_plan_id":"cebpf4jnsgd1na2vs0mg"},{"bike_id":"efa8f913-87c0-496c-8c40-335b871b79e6","system_id":"levelo_inurba_marseille","lat":43.28111,"lon":5.37862,"is_reserved":false,"is_disabled":false,"rental_uris":{"android":"levelo://app?vid=efa8f913-87c0-496c-8c40-335b871b79e6","ios":"levelo://app?vid=efa8f913-87c0-496c-8c40-335b871b79e6"},"vehicle_type_id":"4","last_reported":1744819947,"current_range_meters":24000,"station_id":"ce4bha12rcd13ifvqee0","pricing_plan_id":"cebpf4jnsgd1na2vs0mg"},{"bike_id":"33efbe4e-e642-4271-be29-4926b421ca5b","system_id":"levelo_inurba_marseille","lat":43.24166,"lon":5.36391,"is_reserved":false,"is_disabled":false,"rental_uris":{"android":"levelo://app?vid=33efbe4e-e642-4271-be29-4926b421ca5b","ios":"levelo://app?vid=33efbe4e-e642-4271-be29-4926b421ca5b"},"vehicle_type_id":"4","last_reported":1744819947,"current_range_meters":24000,"station_id":"cpo36qri1sfpv3e86is0","pricing_plan_id":"cebpf4jnsgd1na2vs0mg"},{"bike_id":"083d8881-3f6d-4ec1-9ab6-686e65f7e215","system_id":"levelo_inurba_marseille","lat":43.29786,"lon":5.39344,"is_reserved":false,"is_disabled":false,"rental_uris":{"android":"levelo://app?vid=083d8881-3f6d-4ec1-9ab6-686e65f7e215","ios":"levelo://app?vid=083d8881-3f6d-4ec1-9ab6-686e65f7e215"},"vehicle_type_id":"4","last_reported":1744819947,"current_range_meters":24000,"station_id":"chh1huq6cuj3fo74tm60","pricing_plan_id":"cebpf4jnsgd1na2vs0mg"},{"bike_id":"726d5e77-d6f2-4a7c-8e75-8c9e9b3ee3a4","system_id":"levelo_inurba_marseille","lat":43.30938,"lon":5.40146,"is_reserved":false,"is_disabled":false,"rental_uris":{"android":"levelo://app?vid=726d5e77-d6f2-4a7c-8e75-8c9e9b3ee3a4","ios":"levelo://app?vid=726d5e77-d6f2-4a7c-8e75-8c9e9b3ee3a4"},"vehicle_type_id":"4","last_reported":1744819947,"current_range_meters":24000,"station_id":"ce4bgvp2rcd13ifvqct0","pricing_plan_id":"cebpf4jnsgd1na2vs0mg"},{"bike_id":"68342d9f-f0b6-47e7-b690-b27078e67a77","system_id":"levelo_inurba_marseille","lat":43.241715,"lon":5.363864,"is_reserved":false,"is_disabled":false,"rental_uris":{"android":"levelo://app?vid=68342d9f-f0b6-47e7-b690-b27078e67a77","ios":"levelo://app?vid=68342d9f-f0b6-47e7-b690-b27078e67a77"},"vehicle_type_id":"4","last_reported":1744819947,"current_range_meters":24400,"station_id":"cpo36qri1sfpv3e86is0","pricing_plan_id":"cebpf4jnsgd1na2vs0mg"},{"bike_id":"ecf76956-a91c-454c-b58c-eceed9a4e921","system_id":"levelo_inurba_marseille","lat":43.293702,"lon":5.378425,"is_reserved":false,"is_disabled":false,"rental_uris":{"android":"levelo://app?vid=ecf76956-a91c-454c-b58c-eceed9a4e921","ios":"levelo://app?vid=ecf76956-a91c-454c-b58c-eceed9a4e921"},"vehicle_type_id":"4","last_reported":1744819947,"current_range_meters":24400,"station_id":"ce4bgjh2rcd13ifvqbf0","pricing_plan_id":"cebpf4jnsgd1na2vs0mg"},{"bike_id":"873bcab6-b973-48ed-b129-34762c209441","system_id":"levelo_inurba_marseille","lat":43.31493,"lon":5.37321,"is_reserved":false,"is_disabled":false,"rental_uris":{"android":"levelo://app?vid=873bcab6-b973-48ed-b129-34762c209441","ios":"levelo://app?vid=873bcab6-b973-48ed-b129-34762c209441"},"vehicle_type_id":"4","last_reported":1744819947,"current_range_meters":24400,"station_id":"ce4bgt12rcd13ifvqcd0","pricing_plan_id":"cebpf4jnsgd1na2vs0mg"},{"bike_id":"2d2fdcd8-a17a-4c45-929e-7cd10d6cd54e","system_id":"levelo_inurba_marseille","lat":43.24388,"lon":5.37059,"is_reserved":false,"is_disabled":false,"rental_uris":{"android":"levelo://app?vid=2d2fdcd8-a17a-4c45-929e-7cd10d6cd54e","ios":"levelo://app?vid=2d2fdcd8-a17a-4c45-929e-7cd10d6cd54e"},"vehicle_type_id":"4","last_reported":1744819947,"current_range_meters":24400,"station_id":"ce4bhhh2rcd13ifvqfk0","pricing_plan_id":"cebpf4jnsgd1na2vs0mg"},{"bike_id":"50942032-0a92-46b4-af35-4f352cc42e7a","system_id":"levelo_inurba_marseille","lat":43.30923,"lon":5.36866,"is_reserved":false,"is_disabled":false,"rental_uris":{"android":"levelo://app?vid=50942032-0a92-46b4-af35-4f352cc42e7a","ios":"levelo://app?vid=50942032-0a92-46b4-af35-4f352cc42e7a"},"vehicle_type_id":"4","last_reported":1744819947,"current_range_meters":24400,"station_id":"ce4bgn92rcd13ifvqbvg","pricing_plan_id":"cebpf4jnsgd1na2vs0mg"},{"bike_id":"da793a00-ac05-4181-8c39-0390a110264c","system_id":"levelo_inurba_marseille","lat":43.289997,"lon":5.379868,"is_reserved":false,"is_disabled":false,"rental_uris":{"android":"levelo://app?vid=da793a00-ac05-4181-8c39-0390a110264c","ios":"levelo://app?vid=da793a00-ac05-4181-8c39-0390a110264c"},"vehicle_type_id":"4","last_reported":1744819947,"current_range_meters":24400,"station_id":"ce4bgjp2rcd13ifvqbh0","pricing_plan_id":"cebpf4jnsgd1na2vs0mg"},{"bike_id":"f9d3fbe6-73e5-424e-af02-f446d5b07152","system_id":"levelo_inurba_marseille","lat":43.21785,"lon":5.34622,"is_reserved":false,"is_disabled":false,"rental_uris":{"android":"levelo://app?vid=f9d3fbe6-73e5-424e-af02-f446d5b07152","ios":"levelo://app?vid=f9d3fbe6-73e5-424e-af02-f446d5b07152"},"vehicle_type_id":"4","last_reported":1744819947,"current_range_meters":24400,"station_id":"st_cvj6r9ubvosntc0bgbag","pricing_plan_id":"cebpf4jnsgd1na2vs0mg"},{"bike_id":"8d8a4174-343c-4cc2-979b-2bf30733e459","system_id":"levelo_inurba_marseille","lat":43.29195,"lon":5.39317,"is_reserved":false,"is_disabled":false,"rental_uris":{"android":"levelo://app?vid=8d8a4174-343c-4cc2-979b-2bf30733e459","ios":"levelo://app?vid=8d8a4174-343c-4cc2-979b-2bf30733e459"},"vehicle_type_id":"4","last_reported":1744819947,"current_range_meters":24400,"station_id":"ce4bh192rcd13ifvqdd0","pricing_plan_id":"cebpf4jnsgd1na2vs0mg"},{"bike_id":"947a1f76-2990-4771-b373-54d6c124ae51","system_id":"levelo_inurba_marseille","lat":43.29822,"lon":5.40414,"is_reserved":false,"is_disabled":false,"rental_uris":{"android":"levelo://app?vid=947a1f76-2990-4771-b373-54d6c124ae51","ios":"levelo://app?vid=947a1f76-2990-4771-b373-54d6c124ae51"},"vehicle_type_id":"4","last_reported":1744819947,"current_range_meters":24800,"station_id":"ce4bh112rcd13ifvqd90","pricing_plan_id":"cebpf4jnsgd1na2vs0mg"},{"bike_id":"3cfa8f71-be3a-4018-a500-4e181fab0a9c","system_id":"levelo_inurba_marseille","lat":43.26057,"lon":5.39397,"is_reserved":false,"is_disabled":false,"rental_uris":{"android":"levelo://app?vid=3cfa8f71-be3a-4018-a500-4e181fab0a9c","ios":"levelo://app?vid=3cfa8f71-be3a-4018-a500-4e181fab0a9c"},"vehicle_type_id":"4","last_reported":1744819947,"current_range_meters":24800,"station_id":"ce4bhh92rcd13ifvqfj0","pricing_plan_id":"cebpf4jnsgd1na2vs0mg"},{"bike_id":"c292ce06-3065-4f08-89c5-72ba03ee342f","system_id":"levelo_inurba_marseille","lat":43.274229,"lon":5.394101,"is_reserved":false,"is_disabled":false,"rental_uris":{"android":"levelo://app?vid=c292ce06-3065-4f08-89c5-72ba03ee342f","ios":"levelo://app?vid=c292ce06-3065-4f08-89c5-72ba03ee342f"},"vehicle_type_id":"4","last_reported":1744819947,"current_range_meters":24800,"station_id":"ce4bhdp2rcd13ifvqf20","pricing_plan_id":"cebpf4jnsgd1na2vs0mg"},{"bike_id":"9ff5a7ef-d1e0-4ae6-9224-c69447f908f9","system_id":"levelo_inurba_marseille","lat":43.29853,"lon":5.36252,"is_reserved":false,"is_disabled":false,"rental_uris":{"android":"levelo://app?vid=9ff5a7ef-d1e0-4ae6-9224-c69447f908f9","ios":"levelo://app?vid=9ff5a7ef-d1e0-4ae6-9224-c69447f908f9"},"vehicle_type_id":"4","last_reported":1744819947,"current_range_meters":24800,"station_id":"ce4bgpp2rcd13ifvqc3g","pricing_plan_id":"cebpf4jnsgd1na2vs0mg"},{"bike_id":"3d03a228-5dff-430f-942d-e5ceaa114072","system_id":"levelo_inurba_marseille","lat":43.29256,"lon":5.37629,"is_reserved":false,"is_disabled":false,"rental_uris":{"android":"levelo://app?vid=3d03a228-5dff-430f-942d-e5ceaa114072","ios":"levelo://app?vid=3d03a228-5dff-430f-942d-e5ceaa114072"},"vehicle_type_id":"4","last_reported":1744819947,"current_range_meters":24800,"station_id":"ce4bgi12rcd13ifvqb80","pricing_plan_id":"cebpf4jnsgd1na2vs0mg"},{"bike_id":"9a9955bc-7a4e-411c-86e9-a6ff7237145b","system_id":"levelo_inurba_marseille","lat":43.298012,"lon":5.380917,"is_reserved":false,"is_disabled":false,"rental_uris":{"android":"levelo://app?vid=9a9955bc-7a4e-411c-86e9-a6ff7237145b","ios":"levelo://app?vid=9a9955bc-7a4e-411c-86e9-a6ff7237145b"},"vehicle_type_id":"4","last_reported":1744819947,"current_range_meters":24800,"station_id":"ce4bgv12rcd13ifvqcp0","pricing_plan_id":"cebpf4jnsgd1na2vs0mg"},{"bike_id":"4f362887-90f0-44d6-b300-beefac2097c6","system_id":"levelo_inurba_marseille","lat":43.30886,"lon":5.39637,"is_reserved":false,"is_disabled":false,"rental_uris":{"android":"levelo://app?vid=4f362887-90f0-44d6-b300-beefac2097c6","ios":"levelo://app?vid=4f362887-90f0-44d6-b300-beefac2097c6"},"vehicle_type_id":"4","last_reported":1744819947,"current_range_meters":24800,"station_id":"ce4bh012rcd13ifvqcv0","pricing_plan_id":"cebpf4jnsgd1na2vs0mg"},{"bike_id":"748ce7be-303b-4e02-8a76-47e344a3d081","system_id":"levelo_inurba_marseille","lat":43.301541,"lon":5.380974,"is_reserved":false,"is_disabled":false,"rental_uris":{"android":"levelo://app?vid=748ce7be-303b-4e02-8a76-47e344a3d081","ios":"levelo://app?vid=748ce7be-303b-4e02-8a76-47e344a3d081"},"vehicle_type_id":"4","last_reported":1744819947,"current_range_meters":24800,"station_id":"ce4bgjp2rcd13ifvqbh0","pricing_plan_id":"cebpf4jnsgd1na2vs0mg"},{"bike_id":"8c0be09f-1a08-4f03-adf3-9ab53d05b7e1","system_id":"levelo_inurba_marseille","lat":43.30442,"lon":5.41262,"is_reserved":false,"is_disabled":true,"rental_uris":{"android":"levelo://app?vid=8c0be09f-1a08-4f03-adf3-9ab53d05b7e1","ios":"levelo://app?vid=8c0be09f-1a08-4f03-adf3-9ab53d05b7e1"},"vehicle_type_id":"4","last_reported":1744819947,"current_range_meters":24800,"station_id":"ce4bhop2rcd13ifvqh8g","pricing_plan_id":"cebpf4jnsgd1na2vs0mg"},{"bike_id":"6675e2a0-11b3-43b2-802d-75b9ee4416f3","system_id":"levelo_inurba_marseille","lat":43.28725,"lon":5.36083,"is_reserved":false,"is_disabled":false,"rental_uris":{"android":"levelo://app?vid=6675e2a0-11b3-43b2-802d-75b9ee4416f3","ios":"levelo://app?vid=6675e2a0-11b3-43b2-802d-75b9ee4416f3"},"vehicle_type_id":"4","last_reported":1744819947,"current_range_meters":24800,"station_id":"cki0cbj6b192h4jlfktg","pricing_plan_id":"cebpf4jnsgd1na2vs0mg"},{"bike_id":"39cdcda5-1688-4ef8-a8ba-562ba29d65b6","system_id":"levelo_inurba_marseille","lat":43.27919,"lon":5.39578,"is_reserved":false,"is_disabled":false,"rental_uris":{"android":"levelo://app?vid=39cdcda5-1688-4ef8-a8ba-562ba29d65b6","ios":"levelo://app?vid=39cdcda5-1688-4ef8-a8ba-562ba29d65b6"},"vehicle_type_id":"4","last_reported":1744819947,"current_range_meters":24800,"station_id":"ce4bhf92rcd13ifvqf40","pricing_plan_id":"cebpf4jnsgd1na2vs0mg"},{"bike_id":"26ccc321-3309-4acb-8677-ed03f91eaf39","system_id":"levelo_inurba_marseille","lat":43.29571,"lon":5.39973,"is_reserved":false,"is_disabled":false,"rental_uris":{"android":"levelo://app?vid=26ccc321-3309-4acb-8677-ed03f91eaf39","ios":"levelo://app?vid=26ccc321-3309-4acb-8677-ed03f91eaf39"},"vehicle_type_id":"4","last_reported":1744819947,"current_range_meters":24800,"station_id":"ce4bh312rcd13ifvqdj0","pricing_plan_id":"cebpf4jnsgd1na2vs0mg"},{"bike_id":"0a5e5346-2ad5-4d3d-aee8-7c10817e7618","system_id":"levelo_inurba_marseille","lat":43.31485,"lon":5.373132,"is_reserved":false,"is_disabled":false,"rental_uris":{"android":"levelo://app?vid=0a5e5346-2ad5-4d3d-aee8-7c10817e7618","ios":"levelo://app?vid=0a5e5346-2ad5-4d3d-aee8-7c10817e7618"},"vehicle_type_id":"4","last_reported":1744819947,"current_range_meters":24800,"station_id":"","pricing_plan_id":"cebpf4jnsgd1na2vs0mg"},{"bike_id":"c305c827-8b59-4e6c-91de-4d8a3fcbcac2","system_id":"levelo_inurba_marseille","lat":43.24165,"lon":5.36406,"is_reserved":false,"is_disabled":false,"rental_uris":{"android":"levelo://app?vid=c305c827-8b59-4e6c-91de-4d8a3fcbcac2","ios":"levelo://app?vid=c305c827-8b59-4e6c-91de-4d8a3fcbcac2"},"vehicle_type_id":"4","last_reported":1744819947,"current_range_meters":24800,"station_id":"cpo36qri1sfpv3e86is0","pricing_plan_id":"cebpf4jnsgd1na2vs0mg"},{"bike_id":"935377c0-a8c8-47e7-8726-21d70a212587","system_id":"levelo_inurba_marseille","lat":43.30217,"lon":5.39466,"is_reserved":false,"is_disabled":false,"rental_uris":{"android":"levelo://app?vid=935377c0-a8c8-47e7-8726-21d70a212587","ios":"levelo://app?vid=935377c0-a8c8-47e7-8726-21d70a212587"},"vehicle_type_id":"4","last_reported":1744819947,"current_range_meters":24800,"station_id":"ce4bh2h2rcd13ifvqdh0","pricing_plan_id":"cebpf4jnsgd1na2vs0mg"},{"bike_id":"8cf6851c-e6f4-431f-8225-9601004979bd","system_id":"levelo_inurba_marseille","lat":43.28114,"lon":5.37829,"is_reserved":false,"is_disabled":false,"rental_uris":{"android":"levelo://app?vid=8cf6851c-e6f4-431f-8225-9601004979bd","ios":"levelo://app?vid=8cf6851c-e6f4-431f-8225-9601004979bd"},"vehicle_type_id":"4","last_reported":1744819947,"current_range_meters":24800,"station_id":"","pricing_plan_id":"cebpf4jnsgd1na2vs0mg"},{"bike_id":"a6466ce2-0312-4e7e-b4bb-0042d26d99f5","system_id":"levelo_inurba_marseille","lat":43.29708,"lon":5.36609,"is_reserved":false,"is_disabled":false,"rental_uris":{"android":"levelo://app?vid=a6466ce2-0312-4e7e-b4bb-0042d26d99f5","ios":"levelo://app?vid=a6466ce2-0312-4e7e-b4bb-0042d26d99f5"},"vehicle_type_id":"4","last_reported":1744819947,"current_range_meters":25200,"station_id":"ce4bgn12rcd13ifvqbt0","pricing_plan_id":"cebpf4jnsgd1na2vs0mg"},{"bike_id":"04cd718a-739b-4f09-8fdf-74e445452766","system_id":"levelo_inurba_marseille","lat":43.31482,"lon":5.37301,"is_reserved":false,"is_disabled":false,"rental_uris":{"android":"levelo://app?vid=04cd718a-739b-4f09-8fdf-74e445452766","ios":"levelo://app?vid=04cd718a-739b-4f09-8fdf-74e445452766"},"vehicle_type_id":"4","last_reported":1744819947,"current_range_meters":25200,"station_id":"ce4bgt12rcd13ifvqcd0","pricing_plan_id":"cebpf4jnsgd1na2vs0mg"},{"bike_id":"b0487ad7-b525-4c48-a103-705afe5b3c0f","system_id":"levelo_inurba_marseille","lat":43.30193,"lon":5.381,"is_reserved":false,"is_disabled":false,"rental_uris":{"android":"levelo://app?vid=b0487ad7-b525-4c48-a103-705afe5b3c0f","ios":"levelo://app?vid=b0487ad7-b525-4c48-a103-705afe5b3c0f"},"vehicle_type_id":"4","last_reported":1744819947,"current_range_meters":25200,"station_id":"","pricing_plan_id":"cebpf4jnsgd1na2vs0mg"},{"bike_id":"4b997f7a-36da-47a0-b609-c2add0e7c137","system_id":"levelo_inurba_marseille","lat":43.28612,"lon":5.37055,"is_reserved":false,"is_disabled":false,"rental_uris":{"android":"levelo://app?vid=4b997f7a-36da-47a0-b609-c2add0e7c137","ios":"levelo://app?vid=4b997f7a-36da-47a0-b609-c2add0e7c137"},"vehicle_type_id":"4","last_reported":1744819947,"current_range_meters":25200,"station_id":"ce4bht12rcd13ifvqi60","pricing_plan_id":"cebpf4jnsgd1na2vs0mg"},{"bike_id":"4b04164b-0447-4cfb-a6e9-41b7d058b87c","system_id":"levelo_inurba_marseille","lat":43.284827,"lon":5.38409,"is_reserved":false,"is_disabled":false,"rental_uris":{"android":"levelo://app?vid=4b04164b-0447-4cfb-a6e9-41b7d058b87c","ios":"levelo://app?vid=4b04164b-0447-4cfb-a6e9-41b7d058b87c"},"vehicle_type_id":"4","last_reported":1744819947,"current_range_meters":25200,"station_id":"ce4bgj92rcd13ifvqbe0","pricing_plan_id":"cebpf4jnsgd1na2vs0mg"},{"bike_id":"f9653653-58f6-4fdd-8ddf-d9e24a4f8674","system_id":"levelo_inurba_marseille","lat":43.24809,"lon":5.37486,"is_reserved":false,"is_disabled":false,"rental_uris":{"android":"levelo://app?vid=f9653653-58f6-4fdd-8ddf-d9e24a4f8674","ios":"levelo://app?vid=f9653653-58f6-4fdd-8ddf-d9e24a4f8674"},"vehicle_type_id":"4","last_reported":1744819947,"current_range_meters":25200,"station_id":"ce4bhgh2rcd13ifvqfb0","pricing_plan_id":"cebpf4jnsgd1na2vs0mg"},{"bike_id":"bfe0bb0e-d1ca-4378-b708-4369968a3b21","system_id":"levelo_inurba_marseille","lat":43.27995,"lon":5.41649,"is_reserved":false,"is_disabled":false,"rental_uris":{"android":"levelo://app?vid=bfe0bb0e-d1ca-4378-b708-4369968a3b21","ios":"levelo://app?vid=bfe0bb0e-d1ca-4378-b708-4369968a3b21"},"vehicle_type_id":"4","last_reported":1744819947,"current_range_meters":25200,"station_id":"ce4bho12rcd13ifvqh1g","pricing_plan_id":"cebpf4jnsgd1na2vs0mg"},{"bike_id":"fd627c21-51ed-4435-9f82-b35e34e836ec","system_id":"levelo_inurba_marseille","lat":43.23154,"lon":5.43713,"is_reserved":false,"is_disabled":false,"rental_uris":{"android":"levelo://app?vid=fd627c21-51ed-4435-9f82-b35e34e836ec","ios":"levelo://app?vid=fd627c21-51ed-4435-9f82-b35e34e836ec"},"vehicle_type_id":"4","last_reported":1744819947,"current_range_meters":25200,"station_id":"ce4bhmp2rcd13ifvqgog","pricing_plan_id":"cebpf4jnsgd1na2vs0mg"},{"bike_id":"d1a2b493-7d30-4a9c-a02b-dfad0b4f73f7","system_id":"levelo_inurba_marseille","lat":43.2482,"lon":5.37478,"is_reserved":false,"is_disabled":false,"rental_uris":{"android":"levelo://app?vid=d1a2b493-7d30-4a9c-a02b-dfad0b4f73f7","ios":"levelo://app?vid=d1a2b493-7d30-4a9c-a02b-dfad0b4f73f7"},"vehicle_type_id":"4","last_reported":1744819947,"current_range_meters":25200,"station_id":"ce4bhgh2rcd13ifvqfb0","pricing_plan_id":"cebpf4jnsgd1na2vs0mg"},{"bike_id":"073722ef-3429-4eb4-a493-b2d4b982f26c","system_id":"levelo_inurba_marseille","lat":43.30181,"lon":5.36609,"is_reserved":false,"is_disabled":false,"rental_uris":{"android":"levelo://app?vid=073722ef-3429-4eb4-a493-b2d4b982f26c","ios":"levelo://app?vid=073722ef-3429-4eb4-a493-b2d4b982f26c"},"vehicle_type_id":"4","last_reported":1744819947,"current_range_meters":25600,"station_id":"ce4bgrh2rcd13ifvqc8g","pricing_plan_id":"cebpf4jnsgd1na2vs0mg"},{"bike_id":"3c863c1e-5703-459e-86f2-3e252f5541e4","system_id":"levelo_inurba_marseille","lat":43.2942,"lon":5.38613,"is_reserved":false,"is_disabled":true,"rental_uris":{"android":"levelo://app?vid=3c863c1e-5703-459e-86f2-3e252f5541e4","ios":"levelo://app?vid=3c863c1e-5703-459e-86f2-3e252f5541e4"},"vehicle_type_id":"4","last_reported":1744819947,"current_range_meters":25600,"station_id":"ce4bh2h2rcd13ifvqdh0","pricing_plan_id":"cebpf4jnsgd1na2vs0mg"},{"bike_id":"b58db4fe-417f-47ef-b6bf-43e86c5ef397","system_id":"levelo_inurba_marseille","lat":43.268073,"lon":5.402609,"is_reserved":false,"is_disabled":false,"rental_uris":{"android":"levelo://app?vid=b58db4fe-417f-47ef-b6bf-43e86c5ef397","ios":"levelo://app?vid=b58db4fe-417f-47ef-b6bf-43e86c5ef397"},"vehicle_type_id":"4","last_reported":1744819947,"current_range_meters":25600,"station_id":"ce501612rcd8frsf0b60","pricing_plan_id":"cebpf4jnsgd1na2vs0mg"},{"bike_id":"94c9894d-3c2d-4f37-b8e5-4a8fbbd9742f","system_id":"levelo_inurba_marseille","lat":43.27641,"lon":5.42652,"is_reserved":false,"is_disabled":false,"rental_uris":{"android":"levelo://app?vid=94c9894d-3c2d-4f37-b8e5-4a8fbbd9742f","ios":"levelo://app?vid=94c9894d-3c2d-4f37-b8e5-4a8fbbd9742f"},"vehicle_type_id":"4","last_reported":1744819947,"current_range_meters":25600,"station_id":"","pricing_plan_id":"cebpf4jnsgd1na2vs0mg"},{"bike_id":"29f42d10-4742-49ce-945b-5557aaa9ad76","system_id":"levelo_inurba_marseille","lat":43.29265,"lon":5.37615,"is_reserved":false,"is_disabled":false,"rental_uris":{"android":"levelo://app?vid=29f42d10-4742-49ce-945b-5557aaa9ad76","ios":"levelo://app?vid=29f42d10-4742-49ce-945b-5557aaa9ad76"},"vehicle_type_id":"4","last_reported":1744819947,"current_range_meters":25600,"station_id":"ce4bgi12rcd13ifvqb80","pricing_plan_id":"cebpf4jnsgd1na2vs0mg"},{"bike_id":"367ad2e5-8746-4a8a-bd13-fdfea2afdd3f","system_id":"levelo_inurba_marseille","lat":43.28105,"lon":5.37843,"is_reserved":false,"is_disabled":false,"rental_uris":{"android":"levelo://app?vid=367ad2e5-8746-4a8a-bd13-fdfea2afdd3f","ios":"levelo://app?vid=367ad2e5-8746-4a8a-bd13-fdfea2afdd3f"},"vehicle_type_id":"4","last_reported":1744819947,"current_range_meters":25600,"station_id":"ce4bha12rcd13ifvqee0","pricing_plan_id":"cebpf4jnsgd1na2vs0mg"},{"bike_id":"db3f61c8-5340-4682-8118-fc423fbe004d","system_id":"levelo_inurba_marseille","lat":43.28984,"lon":5.35624,"is_reserved":false,"is_disabled":false,"rental_uris":{"android":"levelo://app?vid=db3f61c8-5340-4682-8118-fc423fbe004d","ios":"levelo://app?vid=db3f61c8-5340-4682-8118-fc423fbe004d"},"vehicle_type_id":"4","last_reported":1744819947,"current_range_meters":25600,"station_id":"ce4bhb92rcd13ifvqen0","pricing_plan_id":"cebpf4jnsgd1na2vs0mg"},{"bike_id":"394df62b-fd8d-4552-b64e-df6a014d7da0","system_id":"levelo_inurba_marseille","lat":43.28949,"lon":5.3638,"is_reserved":false,"is_disabled":false,"rental_uris":{"android":"levelo://app?vid=394df62b-fd8d-4552-b64e-df6a014d7da0","ios":"levelo://app?vid=394df62b-fd8d-4552-b64e-df6a014d7da0"},"vehicle_type_id":"4","last_reported":1744819947,"current_range_meters":25600,"station_id":"ce4bhc92rcd13ifvqetg","pricing_plan_id":"cebpf4jnsgd1na2vs0mg"},{"bike_id":"54a4860f-3311-4b96-8f93-4da3ec651768","system_id":"levelo_inurba_marseille","lat":43.30936,"lon":5.40145,"is_reserved":false,"is_disabled":false,"rental_uris":{"android":"levelo://app?vid=54a4860f-3311-4b96-8f93-4da3ec651768","ios":"levelo://app?vid=54a4860f-3311-4b96-8f93-4da3ec651768"},"vehicle_type_id":"4","last_reported":1744819947,"current_range_meters":25600,"station_id":"ce4bgvp2rcd13ifvqct0","pricing_plan_id":"cebpf4jnsgd1na2vs0mg"},{"bike_id":"1bc78a67-da62-4215-bb84-b66c53d3abd2","system_id":"levelo_inurba_marseille","lat":43.28623,"lon":5.35103,"is_reserved":false,"is_disabled":false,"rental_uris":{"android":"levelo://app?vid=1bc78a67-da62-4215-bb84-b66c53d3abd2","ios":"levelo://app?vid=1bc78a67-da62-4215-bb84-b66c53d3abd2"},"vehicle_type_id":"4","last_reported":1744819947,"current_range_meters":25600,"station_id":"ce4bhch2rcd13ifvqeug","pricing_plan_id":"cebpf4jnsgd1na2vs0mg"},{"bike_id":"6f8a581c-c0d3-4697-8702-a28f0dcd1b26","system_id":"levelo_inurba_marseille","lat":43.279806,"lon":5.387192,"is_reserved":false,"is_disabled":false,"rental_uris":{"android":"levelo://app?vid=6f8a581c-c0d3-4697-8702-a28f0dcd1b26","ios":"levelo://app?vid=6f8a581c-c0d3-4697-8702-a28f0dcd1b26"},"vehicle_type_id":"4","last_reported":1744819947,"current_range_meters":26000,"station_id":"ce4bh2p2rcd13ifvqdi0","pricing_plan_id":"cebpf4jnsgd1na2vs0mg"},{"bike_id":"6898b3a1-42eb-4f6c-a794-4d8e0d8948d0","system_id":"levelo_inurba_marseille","lat":43.29836,"lon":5.3893,"is_reserved":false,"is_disabled":false,"rental_uris":{"android":"levelo://app?vid=6898b3a1-42eb-4f6c-a794-4d8e0d8948d0","ios":"levelo://app?vid=6898b3a1-42eb-4f6c-a794-4d8e0d8948d0"},"vehicle_type_id":"4","last_reported":1744819947,"current_range_meters":26000,"station_id":"","pricing_plan_id":"cebpf4jnsgd1na2vs0mg"},