{"last_updated":1692581880,"ttl":30,"version":"2.2","data":{"bikes":[{"bike_id":"b8b3621b-e5b1-45df-aeef-baeb4dc81b66","system_id":"levelo_inurba_marseille","lat":43.31263,"lon":5.36852,"is_reserved":false,"is_disabled":false,"rental_uris":{"android":"levelo://app?vid=b8b3621b-e5b1-45df-aeef-baeb4dc81b66","ios":"levelo://app?vid=b8b3621b-e5b1-45df-aeef-baeb4dc81b66"},"vehicle_type_id":"4","last_reported":1692581880,"current_range_meters":31200,"station_id":"ce4bgl92rcd13ifvqbq0","pricing_plan_id":"free"},{"bike_id":"ce05886b-27ef-41ad-9c74-c9445fd9df4e","system_id":"levelo_inurba_marseille","lat":43.312239,"lon":5.368562,"is_reserved":false,"is_disabled":false,"rental_uris":{"android":"levelo://app?vid=ce05886b-27ef-41ad-9c74-c9445fd9df4e","ios":"levelo://app?vid=ce05886b-27ef-41ad-9c74-c9445fd9df4e"},"vehicle_type_id":"4","last_reported":1692581880,"current_range_meters":31200,"station_id":"ce4bgl92rcd13ifvqbq0","pricing_plan_id":"free"},{"bike_id":"d07ce73b-96f5-44f9-8e9e-f093d6103894","system_id":"levelo_inurba_marseille","lat":43.312239,"lon":5.368562,"is_reserved":false,"is_disabled":false,"rental_uris":{"android":"levelo://app?vid=d07ce73b-96f5-44f9-8e9e-f093d6103894","ios":"levelo://app?vid=d07ce73b-96f5-44f9-8e9e-f093d6103894"},"vehicle_type_id":"4","last_reported":1692581880,"current_range_meters":31200,"station_id":"ce4bgl92rcd13ifvqbq0","pricing_plan_id":"free"},{"bike_id":"d7c1c8fa-2386-4893-9f1b-d50e60269c54","system_id":"levelo_inurba_marseille","lat":43.312239,"lon":5.368562,"is_reserved":false,"is_disabled":false,"rental_uris":{"android":"levelo://app?vid=d7c1c8fa-2386-4893-9f1b-d50e60269c54","ios":"levelo://app?vid=d7c1c8fa-2386-4893-9f1b-d50e60269c54"},"vehicle_type_id":"4","last_reported":1692581880,"current_range_meters":30800,"station_id":"ce4bgl92rcd13ifvqbq0","pricing_plan_id":"free"},{"bike_id":"f22ca441-4e4e-4660-b824-b2f46943e54d","system_id":"levelo_inurba_marseille","lat":43.312239,"lon":5.368562,"is_reserved":false,"is_disabled":false,"rental_uris":{"android":"levelo://app?vid=f22ca441-4e4e-4660-b824-b2f46943e54d","ios":"levelo://app?vid=f22ca441-4e4e-4660-b824-b2f46943e54d"},"vehicle_type_id":"4","last_reported":1692581880,"current_range_meters":31200,"station_id":"ce4bgl92rcd13ifvqbq0","pricing_plan_id":"free"},{"bike_id":"1dce2bbf-f7f1-40c6-95e4-29ea2a0c5157","system_id":"levelo_inurba_marseille","lat":43.309076,"lon":5.368465,"is_reserved":false,"is_disabled":false,"rental_uris":{"android":"levelo://app?vid=1dce2bbf-f7f1-40c6-95e4-29ea2a0c5157","ios":"levelo://app?vid=1dce2bbf-f7f1-40c6-95e4-29ea2a0c5157"},"vehicle_type_id":"4","last_reported":1692581880,"current_range_meters":30400,"station_id":"ce4bgn92rcd13ifvqbvg","pricing_plan_id":"free"},{"bike_id":"29805bf0-7efa-4650-bdcc-a308d18973f6","system_id":"levelo_inurba_marseille","lat":43.309076,"lon":5.368465,"is_reserved":false,"is_disabled":false,"rental_uris":{"android":"levelo://app?vid=29805bf0-7efa-4650-bdcc-a308d18973f6","ios":"levelo://app?vid=29805bf0-7efa-4650-bdcc-a308d18973f6"},"vehicle_type_id":"4","last_reported":1692581880,"current_range_meters":28400,"station_id":"ce4bgn92rcd13ifvqbvg","pricing_plan_id":"free"},{"bike_id":"7aa30f89-96cf-4042-b72b-558f2ad862a9","system_id":"levelo_inurba_marseille","lat":43.314811,"lon":5.373103,"is_reserved":false,"is_disabled":false,"rental_uris":{"android":"levelo://app?vid=7aa30f89-96cf-4042-b72b-558f2ad862a9","ios":"levelo://app?vid=7aa30f89-96cf-4042-b72b-558f2ad862a9"},"vehicle_type_id":"4","last_reported":1692581880,"current_range_meters":31200,"station_id":"ce4bgt12rcd13ifvqcd0","pricing_plan_id":"free"},{"bike_id":"7041a8f0-75ce-4d40-b194-b136a0abb49e","system_id":"levelo_inurba_marseille","lat":43.314811,"lon":5.373104,"is_reserved":false,"is_disabled":false,"rental_uris":{"android":"levelo://app?vid=7041a8f0-75ce-4d40-b194-b136a0abb49e","ios":"levelo://app?vid=7041a8f0-75ce-4d40-b194-b136a0abb49e"},"vehicle_type_id":"4","last_reported":1692581880,"current_range_meters":31200,"station_id":"ce4bgt12rcd13ifvqcd0","pricing_plan_id":"free"},{"bike_id":"0808185d-a55f-47d9-99a8-af92da85a2b8","system_id":"levelo_inurba_marseille","lat":43.314811,"lon":5.373103,"is_reserved":false,"is_disabled":false,"rental_uris":{"android":"levelo://app?vid=0808185d-a55f-47d9-99a8-af92da85a2b8","ios":"levelo://app?vid=0808185d-a55f-47d9-99a8-af92da85a2b8"},"vehicle_type_id":"4","last_reported":1692581880,"current_range_meters":31200,"station_id":"ce4bgt12rcd13ifvqcd0","pricing_plan_id":"free"},{"bike_id":"f77715aa-9a28-436c-9184-9a2778fdf8ab","system_id":"levelo_inurba_marseille","lat":43.314811,"lon":5.373103,"is_reserved":false,"is_disabled":false,"rental_uris":{"android":"levelo://app?vid=f77715aa-9a28-436c-9184-9a2778fdf8ab","ios":"levelo://app?vid=f77715aa-9a28-436c-9184-9a2778fdf8ab"},"vehicle_type_id":"4","last_reported":1692581880,"current_range_meters":29200,"station_id":"ce4bgt12rcd13ifvqcd0","pricing_plan_id":"free"},{"bike_id":"4dbbb524-4f42-40bf-9c68-48bbdf95025b","system_id":"levelo_inurba_marseille","lat":43.314811,"lon":5.373103,"is_reserved":false,"is_disabled":false,"rental_uris":{"android":"levelo://app?vid=4dbbb524-4f42-40bf-9c68-48bbdf95025b","ios":"levelo://app?vid=4dbbb524-4f42-40bf-9c68-48bbdf95025b"},"vehicle_type_id":"4","last_reported":1692581880,"current_range_meters":21600,"station_id":"ce4bgt12rcd13ifvqcd0","pricing_plan_id":"free"},{"bike_id":"1b285712-4a5e-4b0d-a9b7-db5622970667","system_id":"levelo_inurba_marseille","lat":43.314811,"lon":5.373103,"is_reserved":false,"is_disabled":false,"rental_uris":{"android":"levelo://app?vid=1b285712-4a5e-4b0d-a9b7-db5622970667","ios":"levelo://app?vid=1b285712-4a5e-4b0d-a9b7-db5622970667"},"vehicle_type_id":"4","last_reported":1692581880,"current_range_meters":31200,"station_id":"ce4bgt12rcd13ifvqcd0","pricing_plan_id":"free"},{"bike_id":"dab6a689-a101-413f-8b5c-1bb9b52878c8","system_id":"levelo_inurba_marseille","lat":43.314811,"lon":5.373103,"is_reserved":false,"is_disabled":false,"rental_uris":{"android":"levelo://app?vid=dab6a689-a101-413f-8b5c-1bb9b52878c8","ios":"levelo://app?vid=dab6a689-a101-413f-8b5c-1bb9b52878c8"},"vehicle_type_id":"4","last_reported":1692581880,"current_range_meters":30400,"station_id":"ce4bgt12rcd13ifvqcd0","pricing_plan_id":"free"},{"bike_id":"13fb9659-d9e4-49d7-a76e-64d7c5c87e6a","system_id":"levelo_inurba_marseille","lat":43.314811,"lon":5.373103,"is_reserved":false,"is_disabled":false,"rental_uris":{"android":"levelo://app?vid=13fb9659-d9e4-49d7-a76e-64d7c5c87e6a","ios":"levelo://app?vid=13fb9659-d9e4-49d7-a76e-64d7c5c87e6a"},"vehicle_type_id":"4","last_reported":1692581880,"current_range_meters":3600,"station_id":"ce4bgt12rcd13ifvqcd0","pricing_plan_id":"free"},{"bike_id":"ca63eeb4-ca5d-4686-b5fb-f4f0ce0fc2c9","system_id":"levelo_inurba_marseille","lat":43.314811,"lon":5.373104,"is_reserved":false,"is_disabled":false,"rental_uris":{"android":"levelo://app?vid=ca63eeb4-ca5d-4686-b5fb-f4f0ce0fc2c9","ios":"levelo://app?vid=ca63eeb4-ca5d-4686-b5fb-f4f0ce0fc2c9"},"vehicle_type_id":"4","last_reported":1692581880,"current_range_meters":21600,"station_id":"ce4bgt12rcd13ifvqcd0","pricing_plan_id":"free"},{"bike_id":"815dc436-83a2-4613-92e3-db5ac2b51bf8","system_id":"levelo_inurba_marseille","lat":43.314811,"lon":5.373104,"is_reserved":false,"is_disabled":false,"rental_uris":{"android":"levelo://app?vid=815dc436-83a2-4613-92e3-db5ac2b51bf8","ios":"levelo://app?vid=815dc436-83a2-4613-92e3-db5ac2b51bf8"},"vehicle_type_id":"4","last_reported":1692581880,"current_range_meters":31200,"station_id":"ce4bgt12rcd13ifvqcd0","pricing_plan_id":"free"},{"bike_id":"bd9c02be-796e-49e4-aa62-1a8b2334d95b","system_id":"levelo_inurba_marseille","lat":43.309039,"lon":5.371797,"is_reserved":false,"is_disabled":false,"rental_uris":{"android":"levelo://app?vid=bd9c02be-796e-49e4-aa62-1a8b2334d95b","ios":"levelo://app?vid=bd9c02be-796e-49e4-aa62-1a8b2334d95b"},"vehicle_type_id":"4","last_reported":1692581880,"current_range_meters":19600,"station_id":"ce4bguh2rcd13ifvqckg","pricing_plan_id":"free"},{"bike_id":"31f43891-0c30-4f96-8537-db51e6d78be4","system_id":"levelo_inurba_marseille","lat":43.309039,"lon":5.371797,"is_reserved":false,"is_disabled":false,"rental_uris":{"android":"levelo://app?vid=31f43891-0c30-4f96-8537-db51e6d78be4","ios":"levelo://app?vid=31f43891-0c30-4f96-8537-db51e6d78be4"},"vehicle_type_id":"4","last_reported":1692581880,"current_range_meters":7600,"station_id":"ce4bguh2rcd13ifvqckg","pricing_plan_id":"free"},{"bike_id":"386ed8e3-b71e-4f68-86af-202c5b76503e","system_id":"levelo_inurba_marseille","lat":43.30562,"lon":5.36695,"is_reserved":false,"is_disabled":false,"rental_uris":{"android":"levelo://app?vid=386ed8e3-b71e-4f68-86af-202c5b76503e","ios":"levelo://app?vid=386ed8e3-b71e-4f68-86af-202c5b76503e"},"vehicle_type_id":"4","last_reported":1692581880,"current_range_meters":17600,"station_id":"ce4bgrp2rcd13ifvqc9g","pricing_plan_id":"free"},{"bike_id":"9fbe6e18-d192-44c2-98b5-cafb68b41aa4","system_id":"levelo_inurba_marseille","lat":43.30551,"lon":5.36522,"is_reserved":false,"is_disabled":false,"rental_uris":{"android":"levelo://app?vid=9fbe6e18-d192-44c2-98b5-cafb68b41aa4","ios":"levelo://app?vid=9fbe6e18-d192-44c2-98b5-cafb68b41aa4"},"vehicle_type_id":"4","last_reported":1692581880,"current_range_meters":4000,"station_id":"ce4bgs12rcd13ifvqcag","pricing_plan_id":"free"},{"bike_id":"326c00fb-8e75-4b17-9e58-a821d4aaa3ce","system_id":"levelo_inurba_marseille","lat":43.30547,"lon":5.36523,"is_reserved":false,"is_disabled":false,"rental_uris":{"android":"levelo://app?vid=326c00fb-8e75-4b17-9e58-a821d4aaa3ce","ios":"levelo://app?vid=326c00fb-8e75-4b17-9e58-a821d4aaa3ce"},"vehicle_type_id":"4","last_reported":1692581880,"current_range_meters":17200,"station_id":"ce4bgs12rcd13ifvqcag","pricing_plan_id":"free"},{"bike_id":"28e74513-923a-43b9-b8a4-34e54422102e","system_id":"levelo_inurba_marseille","lat":43.31113,"lon":5.37749,"is_reserved":false,"is_disabled":false,"rental_uris":{"android":"levelo://app?vid=28e74513-923a-43b9-b8a4-34e54422102e","ios":"levelo://app?vid=28e74513-923a-43b9-b8a4-34e54422102e"},"vehicle_type_id":"4","last_reported":1692581880,"current_range_meters":31200,"station_id":"ce4bgt92rcd13ifvqcg0","pricing_plan_id":"free"},{"bike_id":"cf0a67ba-a196-4c32-b936-d96d20704c3a","system_id":"levelo_inurba_marseille","lat":43.31135,"lon":5.37755,"is_reserved":false,"is_disabled":false,"rental_uris":{"android":"levelo://app?vid=cf0a67ba-a196-4c32-b936-d96d20704c3a","ios":"levelo://app?vid=cf0a67ba-a196-4c32-b936-d96d20704c3a"},"vehicle_type_id":"4","last_reported":1692581880,"current_range_meters":7200,"station_id":"ce4bgt92rcd13ifvqcg0","pricing_plan_id":"free"},{"bike_id":"34ac6ba1-e570-4dbb-9474-6e0157c64802","system_id":"levelo_inurba_marseille","lat":43.311131,"lon":5.377651,"is_reserved":false,"is_disabled":false,"rental_uris":{"android":"levelo://app?vid=34ac6ba1-e570-4dbb-9474-6e0157c64802","ios":"levelo://app?vid=34ac6ba1-e570-4dbb-9474-6e0157c64802"},"vehicle_type_id":"4","last_reported":1692581880,"current_range_meters":32000,"station_id":"ce4bgt92rcd13ifvqcg0","pricing_plan_id":"free"},{"bike_id":"839cabe4-705a-4fe2-8236-e955be991055","system_id":"levelo_inurba_marseille","lat":43.31117,"lon":5.37758,"is_reserved":false,"is_disabled":false,"rental_uris":{"android":"levelo://app?vid=839cabe4-705a-4fe2-8236-e955be991055","ios":"levelo://app?vid=839cabe4-705a-4fe2-8236-e955be991055"},"vehicle_type_id":"4","last_reported":1692581880,"current_range_meters":31200,"station_id":"ce4bgt92rcd13ifvqcg0","pricing_plan_id":"free"},{"bike_id":"48707bdc-5fe6-412f-b897-a80c6f7735ca","system_id":"levelo_inurba_marseille","lat":43.31119,"lon":5.3776,"is_reserved":false,"is_disabled":false,"rental_uris":{"android":"levelo://app?vid=48707bdc-5fe6-412f-b897-a80c6f7735ca","ios":"levelo://app?vid=48707bdc-5fe6-412f-b897-a80c6f7735ca"},"vehicle_type_id":"4","last_reported":1692581880,"current_range_meters":31200,"station_id":"ce4bgt92rcd13ifvqcg0","pricing_plan_id":"free"},{"bike_id":"f46aea9f-065f-4a8f-a4b5-05b7fc6b4bb5","system_id":"levelo_inurba_marseille","lat":43.311267,"lon":5.377623,"is_reserved":false,"is_disabled":false,"rental_uris":{"android":"levelo://app?vid=f46aea9f-065f-4a8f-a4b5-05b7fc6b4bb5","ios":"levelo://app?vid=f46aea9f-065f-4a8f-a4b5-05b7fc6b4bb5"},"vehicle_type_id":"4","last_reported":1692581880,"current_range_meters":25200,"station_id":"ce4bgt92rcd13ifvqcg0","pricing_plan_id":"free"},{"bike_id":"b9cac4ff-a54b-422c-ab9c-38ba33ebb821","system_id":"levelo_inurba_marseille","lat":43.311264,"lon":5.377625,"is_reserved":false,"is_disabled":false,"rental_uris":{"android":"levelo://app?vid=b9cac4ff-a54b-422c-ab9c-38ba33ebb821","ios":"levelo://app?vid=b9cac4ff-a54b-422c-ab9c-38ba33ebb821"},"vehicle_type_id":"4","last_reported":1692581880,"current_range_meters":31200,"station_id":"ce4bgt92rcd13ifvqcg0","pricing_plan_id":"free"},{"bike_id":"29707406-31dd-49f6-9dd3-ba462a3e6357","system_id":"levelo_inurba_marseille","lat":43.311131,"lon":5.377651,"is_reserved":false,"is_disabled":false,"rental_uris":{"android":"levelo://app?vid=29707406-31dd-49f6-9dd3-ba462a3e6357","ios":"levelo://app?vid=29707406-31dd-49f6-9dd3-ba462a3e6357"},"vehicle_type_id":"4","last_reported":1692581880,"current_range_meters":12800,"station_id":"ce4bgt92rcd13ifvqcg0","pricing_plan_id":"free"},{"bike_id":"76a15a06-e972-4a10-9c5a-a2a8dfd0f197","system_id":"levelo_inurba_marseille","lat":43.31118,"lon":5.37761,"is_reserved":false,"is_disabled":false,"rental_uris":{"android":"levelo://app?vid=76a15a06-e972-4a10-9c5a-a2a8dfd0f197","ios":"levelo://app?vid=76a15a06-e972-4a10-9c5a-a2a8dfd0f197"},"vehicle_type_id":"4","last_reported":1692581880,"current_range_meters":11200,"station_id":"ce4bgt92rcd13ifvqcg0","pricing_plan_id":"free"},{"bike_id":"50b917f4-0be1-4df0-ae7c-5c159a1cb216","system_id":"levelo_inurba_marseille","lat":43.311266,"lon":5.377636,"is_reserved":false,"is_disabled":false,"rental_uris":{"android":"levelo://app?vid=50b917f4-0be1-4df0-ae7c-5c159a1cb216","ios":"levelo://app?vid=50b917f4-0be1-4df0-ae7c-5c159a1cb216"},"vehicle_type_id":"4","last_reported":1692581880,"current_range_meters":21600,"station_id":"ce4bgt92rcd13ifvqcg0","pricing_plan_id":"free"},{"bike_id":"9bbd4272-2f2a-4898-ab92-3fee67f97c1c","system_id":"levelo_inurba_marseille","lat":43.31117,"lon":5.37765,"is_reserved":false,"is_disabled":false,"rental_uris":{"android":"levelo://app?vid=9bbd4272-2f2a-4898-ab92-3fee67f97c1c","ios":"levelo://app?vid=9bbd4272-2f2a-4898-ab92-3fee67f97c1c"},"vehicle_type_id":"4","last_reported":1692581880,"current_range_meters":1200,"station_id":"ce4bgt92rcd13ifvqcg0","pricing_plan_id":"free"},{"bike_id":"8d2174d7-5dd4-4556-bb72-5d5aab20caf1","system_id":"levelo_inurba_marseille","lat":43.307945,"lon":5.376487,"is_reserved":false,"is_disabled":false,"rental_uris":{"android":"levelo://app?vid=8d2174d7-5dd4-4556-bb72-5d5aab20caf1","ios":"levelo://app?vid=8d2174d7-5dd4-4556-bb72-5d5aab20caf1"},"vehicle_type_id":"4","last_reported":1692581880,"current_range_meters":12400,"station_id":"ce4bgv92rcd13ifvqcq0","pricing_plan_id":"free"},{"bike_id":"c4e9cf80-1d97-4c18-861e-a8c5e6b8979e","system_id":"levelo_inurba_marseille","lat":43.30785,"lon":5.37648,"is_reserved":false,"is_disabled":false,"rental_uris":{"android":"levelo://app?vid=c4e9cf80-1d97-4c18-861e-a8c5e6b8979e","ios":"levelo://app?vid=c4e9cf80-1d97-4c18-861e-a8c5e6b8979e"},"vehicle_type_id":"4","last_reported":1692581880,"current_range_meters":24400,"station_id":"ce4bgv92rcd13ifvqcq0","pricing_plan_id":"free"},{"bike_id":"4ff2f5ca-4b9e-4d36-9028-a50a7496c73d","system_id":"levelo_inurba_marseille","lat":43.307945,"lon":5.376487,"is_reserved":false,"is_disabled":false,"rental_uris":{"android":"levelo://app?vid=4ff2f5ca-4b9e-4d36-9028-a50a7496c73d","ios":"levelo://app?vid=4ff2f5ca-4b9e-4d36-9028-a50a7496c73d"},"vehicle_type_id":"4","last_reported":1692581880,"current_range_meters":4800,"station_id":"ce4bgv92rcd13ifvqcq0","pricing_plan_id":"free"},{"bike_id":"acd0d663-3c59-4f34-8da3-051d50b3fb64","system_id":"levelo_inurba_marseille","lat":43.30778,"lon":5.3765,"is_reserved":false,"is_disabled":false,"rental_uris":{"android":"levelo://app?vid=acd0d663-3c59-4f34-8da3-051d50b3fb64","ios":"levelo://app?vid=acd0d663-3c59-4f34-8da3-051d50b3fb64"},"vehicle_type_id":"4","last_reported":1692581880,"current_range_meters":2000,"station_id":"ce4bgv92rcd13ifvqcq0","pricing_plan_id":"free"},{"bike_id":"643f142d-b0dd-486c-8732-24bab6ac803e","system_id":"levelo_inurba_marseille","lat":43.307945,"lon":5.376487,"is_reserved":false,"is_disabled":false,"rental_uris":{"android":"levelo://app?vid=643f142d-b0dd-486c-8732-24bab6ac803e","ios":"levelo://app?vid=643f142d-b0dd-486c-8732-24bab6ac803e"},"vehicle_type_id":"4","last_reported":1692581880,"current_range_meters":0,"station_id":"ce4bgv92rcd13ifvqcq0","pricing_plan_id":"free"},{"bike_id":"dd37bf7a-b0f3-490a-94f8-e10104e49abd","system_id":"levelo_inurba_marseille","lat":43.317075,"lon":5.377367,"is_reserved":false,"is_disabled":false,"rental_uris":{"android":"levelo://app?vid=dd37bf7a-b0f3-490a-94f8-e10104e49abd","ios":"levelo://app?vid=dd37bf7a-b0f3-490a-94f8-e10104e49abd"},"vehicle_type_id":"4","last_reported":1692581880,"current_range_meters":0,"station_id":"ce4bgth2rcd13ifvqch0","pricing_plan_id":"free"},{"bike_id":"94a0c5bf-a3c7-44dd-b1c9-235dd914373c","system_id":"levelo_inurba_marseille","lat":43.317075,"lon":5.377367,"is_reserved":false,"is_disabled":false,"rental_uris":{"android":"levelo://app?vid=94a0c5bf-a3c7-44dd-b1c9-235dd914373c","ios":"levelo://app?vid=94a0c5bf-a3c7-44dd-b1c9-235dd914373c"},"vehicle_type_id":"4","last_reported":1692581880,"current_range_meters":26000,"station_id":"ce4bgth2rcd13ifvqch0","pricing_plan_id":"free"},{"bike_id":"065788a5-fc73-4e3f-b549-fb8acf37715d","system_id":"levelo_inurba_marseille","lat":43.295748,"lon":5.37522,"is_reserved":false,"is_disabled":false,"rental_uris":{"android":"levelo://app?vid=065788a5-fc73-4e3f-b549-fb8acf37715d","ios":"levelo://app?vid=065788a5-fc73-4e3f-b549-fb8acf37715d"},"vehicle_type_id":"4","last_reported":1692581880,"current_range_meters":4800,"station_id":"ce4bgh92rcd13ifvqb50","pricing_plan_id":"free"},{"bike_id":"779f8c7d-f6c1-4cc9-a593-c88874220bcf","system_id":"levelo_inurba_marseille","lat":43.31534,"lon":5.38018,"is_reserved":false,"is_disabled":false,"rental_uris":{"android":"levelo://app?vid=779f8c7d-f6c1-4cc9-a593-c88874220bcf","ios":"levelo://app?vid=779f8c7d-f6c1-4cc9-a593-c88874220bcf"},"vehicle_type_id":"4","last_reported":1692581880,"current_range_meters":22800,"station_id":"ce4bhsp2rcd13ifvqi50","pricing_plan_id":"free"},{"bike_id":"327fe0dc-08c0-428e-baf6-82942cb2943b","system_id":"levelo_inurba_marseille","lat":43.31533,"lon":5.38034,"is_reserved":false,"is_disabled":false,"rental_uris":{"android":"levelo://app?vid=327fe0dc-08c0-428e-baf6-82942cb2943b","ios":"levelo://app?vid=327fe0dc-08c0-428e-baf6-82942cb2943b"},"vehicle_type_id":"4","last_reported":1692581880,"current_range_meters":2400,"station_id":"ce4bhsp2rcd13ifvqi50","pricing_plan_id":"free"},{"bike_id":"c07a5808-4fa9-4b9f-82dd-5358face4cd3","system_id":"levelo_inurba_marseille","lat":43.30182,"lon":5.36623,"is_reserved":false,"is_disabled":false,"rental_uris":{"android":"levelo://app?vid=c07a5808-4fa9-4b9f-82dd-5358face4cd3","ios":"levelo://app?vid=c07a5808-4fa9-4b9f-82dd-5358face4cd3"},"vehicle_type_id":"4","last_reported":1692581880,"current_range_meters":0,"station_id":"ce4bgrh2rcd13ifvqc8g","pricing_plan_id":"free"},{"bike_id":"c2bbec74-f630-4b9b-bce6-d4c13e5070fc","system_id":"levelo_inurba_marseille","lat":43.308012,"lon":5.381511,"is_reserved":false,"is_disabled":false,"rental_uris":{"android":"levelo://app?vid=c2bbec74-f630-4b9b-bce6-d4c13e5070fc","ios":"levelo://app?vid=c2bbec74-f630-4b9b-bce6-d4c13e5070fc"},"vehicle_type_id":"4","last_reported":1692581880,"current_range_meters":31200,"station_id":"ce4bgt12rcd13ifvqce0","pricing_plan_id":"free"},{"bike_id":"f9ac8aef-6f17-4a2c-b1a7-3b247ef4b178","system_id":"levelo_inurba_marseille","lat":43.308017,"lon":5.381538,"is_reserved":false,"is_disabled":false,"rental_uris":{"android":"levelo://app?vid=f9ac8aef-6f17-4a2c-b1a7-3b247ef4b178","ios":"levelo://app?vid=f9ac8aef-6f17-4a2c-b1a7-3b247ef4b178"},"vehicle_type_id":"4","last_reported":1692581880,"current_range_meters":31200,"station_id":"","pricing_plan_id":"free"},{"bike_id":"ec55143c-8849-4bef-a775-24de42626cca","system_id":"levelo_inurba_marseille","lat":43.308012,"lon":5.381511,"is_reserved":false,"is_disabled":false,"rental_uris":{"android":"levelo://app?vid=ec55143c-8849-4bef-a775-24de42626cca","ios":"levelo://app?vid=ec55143c-8849-4bef-a775-24de42626cca"},"vehicle_type_id":"4","last_reported":1692581880,"current_range_meters":26800,"station_id":"ce4bgt12rcd13ifvqce0","pricing_plan_id":"free"},{"bike_id":"7ee830a6-ac6f-4834-a44b-a9c00d12fdc8","system_id":"levelo_inurba_marseille","lat":43.304606,"lon":5.379026,"is_reserved":false,"is_disabled":false,"rental_uris":{"android":"levelo://app?vid=7ee830a6-ac6f-4834-a44b-a9c00d12fdc8","ios":"levelo://app?vid=7ee830a6-ac6f-4834-a44b-a9c00d12fdc8"},"vehicle_type_id":"4","last_reported":1692581880,"current_range_meters":31200,"station_id":"ce4bgup2rcd13ifvqcn0","pricing_plan_id":"free"},{"bike_id":"5d1e0d9c-810e-4c01-860f-3c140af53eaf","system_id":"levelo_inurba_marseille","lat":43.30145,"lon":5.3741,"is_reserved":false,"is_disabled":false,"rental_uris":{"android":"levelo://app?vid=5d1e0d9c-810e-4c01-860f-3c140af53eaf","ios":"levelo://app?vid=5d1e0d9c-810e-4c01-860f-3c140af53eaf"},"vehicle_type_id":"4","last_reported":1692581880,"current_range_meters":8400,"station_id":"ce4bgs92rcd13ifvqcc0","pricing_plan_id":"free"},{"bike_id":"95528a33-426b-46a5-8823-a9faf8db8be0","system_id":"levelo_inurba_marseille","lat":43.32003,"lon":5.38141,"is_reserved":false,"is_disabled":false,"rental_uris":{"android":"levelo://app?vid=95528a33-426b-46a5-8823-a9faf8db8be0","ios":"levelo://app?vid=95528a33-426b-46a5-8823-a9faf8db8be0"},"vehicle_type_id":"4","last_reported":1692581880,"current_range_meters":4400,"station_id":"ce4bhr12rcd13ifvqhpg","pricing_plan_id":"free"},{"bike_id":"b4fecacf-0541-46f0-9b4a-699db193b0ef","system_id":"levelo_inurba_marseille","lat":43.31996,"lon":5.38149,"is_reserved":false,"is_disabled":false,"rental_uris":{"android":"levelo://app?vid=b4fecacf-0541-46f0-9b4a-699db193b0ef","ios":"levelo://app?vid=b4fecacf-0541-46f0-9b4a-699db193b0ef"},"vehicle_type_id":"4","last_reported":1692581880,"current_range_meters":16400,"station_id":"ce4bhr12rcd13ifvqhpg","pricing_plan_id":"free"},{"bike_id":"ae5c898d-ade2-401d-95b7-76584725a01f","system_id":"levelo_inurba_marseille","lat":43.32,"lon":5.38148,"is_reserved":false,"is_disabled":false,"rental_uris":{"android":"levelo://app?vid=ae5c898d-ade2-401d-95b7-76584725a01f","ios":"levelo://app?vid=ae5c898d-ade2-401d-95b7-76584725a01f"},"vehicle_type_id":"4","last_reported":1692581880,"current_range_meters":4400,"station_id":"ce4bhr12rcd13ifvqhpg","pricing_plan_id":"free"},{"bike_id":"b177fc79-b535-4018-b92c-0c516ad3675c","system_id":"levelo_inurba_marseille","lat":43.32004,"lon":5.38153,"is_reserved":false,"is_disabled":false,"rental_uris":{"android":"levelo://app?vid=b177fc79-b535-4018-b92c-0c516ad3675c","ios":"levelo://app?vid=b177fc79-b535-4018-b92c-0c516ad3675c"},"vehicle_type_id":"4","last_reported":1692581880,"current_range_meters":10800,"station_id":"ce4bhr12rcd13ifvqhpg","pricing_plan_id":"free"},{"bike_id":"34a2d6ee-ebe0-4be0-be87-9b25b49342ce","system_id":"levelo_inurba_marseille","lat":43.32003,"lon":5.38157,"is_reserved":false,"is_disabled":false,"rental_uris":{"android":"levelo://app?vid=34a2d6ee-ebe0-4be0-be87-9b25b49342ce","ios":"levelo://app?vid=34a2d6ee-ebe0-4be0-be87-9b25b49342ce"},"vehicle_type_id":"4","last_reported":1692581880,"current_range_meters":0,"station_id":"ce4bhr12rcd13ifvqhpg","pricing_plan_id":"free"},{"bike_id":"9e6b440e-7886-4c35-8865-2d81934ae637","system_id":"levelo_inurba_marseille","lat":43.313721,"lon":5.384875,"is_reserved":false,"is_disabled":false,"rental_uris":{"android":"levelo://app?vid=9e6b440e-7886-4c35-8865-2d81934ae637","ios":"levelo://app?vid=9e6b440e-7886-4c35-8865-2d81934ae637"},"vehicle_type_id":"4","last_reported":1692581880,"current_range_meters":16400,"station_id":"","pricing_plan_id":"free"},{"bike_id":"9a78505b-7522-4ca4-92f5-9a4dbf3830a4","system_id":"levelo_inurba_marseille","lat":43.313571,"lon":5.384829,"is_reserved":false,"is_disabled":false,"rental_uris":{"android":"levelo://app?vid=9a78505b-7522-4ca4-92f5-9a4dbf3830a4","ios":"levelo://app?vid=9a78505b-7522-4ca4-92f5-9a4dbf3830a4"},"vehicle_type_id":"4","last_reported":1692581880,"current_range_meters":12800,"station_id":"ce4bgt92rcd13ifvqcf0","pricing_plan_id":"free"},{"bike_id":"dd31b44e-98bc-4a58-8c59-08f02d2c08f5","system_id":"levelo_inurba_marseille","lat":43.313571,"lon":5.384829,"is_reserved":false,"is_disabled":false,"rental_uris":{"android":"levelo://app?vid=dd31b44e-98bc-4a58-8c59-08f02d2c08f5","ios":"levelo://app?vid=dd31b44e-98bc-4a58-8c59-08f02d2c08f5"},"vehicle_type_id":"4","last_reported":1692581880,"current_range_meters":5600,"station_id":"ce4bgt92rcd13ifvqcf0","pricing_plan_id":"free"},{"bike_id":"33493000-25c0-45a1-8437-27775aacc6bc","system_id":"levelo_inurba_marseille","lat":43.29926,"lon":5.3656,"is_reserved":false,"is_disabled":false,"rental_uris":{"android":"levelo://app?vid=33493000-25c0-45a1-8437-27775aacc6bc","ios":"levelo://app?vid=33493000-25c0-45a1-8437-27775aacc6bc"},"vehicle_type_id":"4","last_reported":1692581880,"current_range_meters":2400,"station_id":"ce4bgm92rcd13ifvqbr0","pricing_plan_id":"free"},{"bike_id":"95dc9ecf-047e-4c3a-bb12-a5676cb36ad4","system_id":"levelo_inurba_marseille","lat":43.3216,"lon":5.38166,"is_reserved":false,"is_disabled":false,"rental_uris":{"android":"levelo://app?vid=95dc9ecf-047e-4c3a-bb12-a5676cb36ad4","ios":"levelo://app?vid=95dc9ecf-047e-4c3a-bb12-a5676cb36ad4"},"vehicle_type_id":"4","last_reported":1692581880,"current_range_meters":12800,"station_id":"","pricing_plan_id":"free"},{"bike_id":"b3083b0f-ec4c-4414-9d63-102a80d326aa","system_id":"levelo_inurba_marseille","lat":43.311722,"lon":5.387247,"is_reserved":false,"is_disabled":false,"rental_uris":{"android":"levelo://app?vid=b3083b0f-ec4c-4414-9d63-102a80d326aa","ios":"levelo://app?vid=b3083b0f-ec4c-4414-9d63-102a80d326aa"},"vehicle_type_id":"4","last_reported":1692581880,"current_range_meters":20000,"station_id":"ce4bgv12rcd13ifvqcp0","pricing_plan_id":"free"},{"bike_id":"0a5a0003-71a2-4064-b2f3-cd8fea0d69ed","system_id":"levelo_inurba_marseille","lat":43.311722,"lon":5.387247,"is_reserved":false,"is_disabled":false,"rental_uris":{"android":"levelo://app?vid=0a5a0003-71a2-4064-b2f3-cd8fea0d69ed","ios":"levelo://app?vid=0a5a0003-71a2-4064-b2f3-cd8fea0d69ed"},"vehicle_type_id":"4","last_reported":1692581880,"current_range_meters":31600,"station_id":"ce4bgv12rcd13ifvqcp0","pricing_plan_id":"free"},{"bike_id":"b885f463-e8c5-42cc-902f-7152167ce1c7","system_id":"levelo_inurba_marseille","lat":43.29932,"lon":5.37503,"is_reserved":false,"is_disabled":false,"rental_uris":{"android":"levelo://app?vid=b885f463-e8c5-42cc-902f-7152167ce1c7","ios":"levelo://app?vid=b885f463-e8c5-42cc-902f-7152167ce1c7"},"vehicle_type_id":"4","last_reported":1692581880,"current_range_meters":30400,"station_id":"ce4bgjh2rcd13ifvqbg0","pricing_plan_id":"free"},{"bike_id":"ab39d27f-bc74-43a2-8bab-9f3a84223d5c","system_id":"levelo_inurba_marseille","lat":43.305269,"lon":5.384283,"is_reserved":false,"is_disabled":false,"rental_uris":{"android":"levelo://app?vid=ab39d27f-bc74-43a2-8bab-9f3a84223d5c","ios":"levelo://app?vid=ab39d27f-bc74-43a2-8bab-9f3a84223d5c"},"vehicle_type_id":"4","last_reported":1692581880,"current_range_meters":31200,"station_id":"ce4bgg92rcd13ifvqb30","pricing_plan_id":"free"},{"bike_id":"7c38fb8d-f3b9-4283-8253-e9cd805e6d27","system_id":"levelo_inurba_marseille","lat":43.311722,"lon":5.387247,"is_reserved":false,"is_disabled":false,"rental_uris":{"android":"levelo://app?vid=7c38fb8d-f3b9-4283-8253-e9cd805e6d27","ios":"levelo://app?vid=7c38fb8d-f3b9-4283-8253-e9cd805e6d27"},"vehicle_type_id":"4","last_reported":1692581880,"current_range_meters":26000,"station_id":"ce4bgv12rcd13ifvqcp0","pricing_plan_id":"free"},{"bike_id":"a8df194e-bd2f-4c6a-b6d2-d1b05b502c09","system_id":"levelo_inurba_marseille","lat":43.311722,"lon":5.387247,"is_reserved":false,"is_disabled":false,"rental_uris":{"android":"levelo://app?vid=a8df194e-bd2f-4c6a-b6d2-d1b05b502c09","ios":"levelo://app?vid=a8df194e-bd2f-4c6a-b6d2-d1b05b502c09"},"vehicle_type_id":"4","last_reported":1692581880,"current_range_meters":22000,"station_id":"ce4bgv12rcd13ifvqcp0","pricing_plan_id":"free"},{"bike_id":"9baf8f2e-a296-4b67-9500-e03d654fbcb6","system_id":"levelo_inurba_marseille","lat":43.311722,"lon":5.387247,"is_reserved":false,"is_disabled":false,"rental_uris":{"android":"levelo://app?vid=9baf8f2e-a296-4b67-9500-e03d654fbcb6","ios":"levelo://app?vid=9baf8f2e-a296-4b67-9500-e03d654fbcb6"},"vehicle_type_id":"4","last_reported":1692581880,"current_range_meters":18000,"station_id":"ce4bgv12rcd13ifvqcp0","pricing_plan_id":"free"},{"bike_id":"e043dc60-625f-43b4-aa30-315072314797","system_id":"levelo_inurba_marseille","lat":43.311722,"lon":5.387247,"is_reserved":false,"is_disabled":false,"rental_uris":{"android":"levelo://app?vid=e043dc60-625f-43b4-aa30-315072314797","ios":"levelo://app?vid=e043dc60-625f-43b4-aa30-315072314797"},"vehicle_type_id":"4","last_reported":1692581880,"current_range_meters":9600,"station_id":"ce4bgv12rcd13ifvqcp0","pricing_plan_id":"free"},{"bike_id":"e3e34699-0d40-4201-8f08-d96e2b995f91","system_id":"levelo_inurba_marseille","lat":43.305364,"lon":5.384119,"is_reserved":false,"is_disabled":false,"rental_uris":{"android":"levelo://app?vid=e3e34699-0d40-4201-8f08-d96e2b995f91","ios":"levelo://app?vid=e3e34699-0d40-4201-8f08-d96e2b995f91"},"vehicle_type_id":"4","last_reported":1692581880,"current_range_meters":31200,"station_id":"ce4bgg92rcd13ifvqb30","pricing_plan_id":"free"},{"bike_id":"5b5c8cae-b425-4976-9ba8-5ae205664d6b","system_id":"levelo_inurba_marseille","lat":43.32291,"lon":5.38261,"is_reserved":false,"is_disabled":false,"rental_uris":{"android":"levelo://app?vid=5b5c8cae-b425-4976-9ba8-5ae205664d6b","ios":"levelo://app?vid=5b5c8cae-b425-4976-9ba8-5ae205664d6b"},"vehicle_type_id":"4","last_reported":1692581880,"current_range_meters":11200,"station_id":"ce4bhr12rcd13ifvqhqg","pricing_plan_id":"free"},{"bike_id":"110bd150-ae2d-4085-890c-a8f4481980e0","system_id":"levelo_inurba_marseille","lat":43.32283,"lon":5.38279,"is_reserved":false,"is_disabled":false,"rental_uris":{"android":"levelo://app?vid=110bd150-ae2d-4085-890c-a8f4481980e0","ios":"levelo://app?vid=110bd150-ae2d-4085-890c-a8f4481980e0"},"vehicle_type_id":"4","last_reported":1692581880,"current_range_meters":23600,"station_id":"ce4bhr12rcd13ifvqhqg","pricing_plan_id":"free"},{"bike_id":"a1f7b084-f437-4e0c-8b20-334f54c48d59","system_id":"levelo_inurba_marseille","lat":43.32292,"lon":5.3827,"is_reserved":false,"is_disabled":false,"rental_uris":{"android":"levelo://app?vid=a1f7b084-f437-4e0c-8b20-334f54c48d59","ios":"levelo://app?vid=a1f7b084-f437-4e0c-8b20-334f54c48d59"},"vehicle_type_id":"4","last_reported":1692581880,"current_range_meters":11600,"station_id":"ce4bhr12rcd13ifvqhqg","pricing_plan_id":"free"},{"bike_id":"b9784bc4-a1f4-4e7b-a996-3746dcc4c656","system_id":"levelo_inurba_marseille","lat":43.32294,"lon":5.38273,"is_reserved":false,"is_disabled":false,"rental_uris":{"android":"levelo://app?vid=b9784bc4-a1f4-4e7b-a996-3746dcc4c656","ios":"levelo://app?vid=b9784bc4-a1f4-4e7b-a996-3746dcc4c656"},"vehicle_type_id":"4","last_reported":1692581880,"current_range_meters":3600,"station_id":"ce4bhr12rcd13ifvqhqg","pricing_plan_id":"free"},{"bike_id":"788315a1-e7c6-4c9b-837c-71a5bc2f0d62","system_id":"levelo_inurba_marseille","lat":43.328371,"lon":5.366909,"is_reserved":false,"is_disabled":false,"rental_uris":{"android":"levelo://app?vid=788315a1-e7c6-4c9b-837c-71a5bc2f0d62","ios":"levelo://app?vid=788315a1-e7c6-4c9b-837c-71a5bc2f0d62"},"vehicle_type_id":"4","last_reported":1692581880,"current_range_meters":0,"station_id":"ce4bhs92rcd13ifvqi0g","pricing_plan_id":"free"},{"bike_id":"b73e61ac-fe20-4679-bfdf-8851c01afe62","system_id":"levelo_inurba_marseille","lat":43.328371,"lon":5.366909,"is_reserved":false,"is_disabled":false,"rental_uris":{"android":"levelo://app?vid=b73e61ac-fe20-4679-bfdf-8851c01afe62","ios":"levelo://app?vid=b73e61ac-fe20-4679-bfdf-8851c01afe62"},"vehicle_type_id":"4","last_reported":1692581880,"current_range_meters":31200,"station_id":"ce4bhs92rcd13ifvqi0g","pricing_plan_id":"free"},{"bike_id":"4cbec067-4527-483a-818d-69c4afd2ea31","system_id":"levelo_inurba_marseille","lat":43.3283,"lon":5.3668,"is_reserved":false,"is_disabled":false,"rental_uris":{"android":"levelo://app?vid=4cbec067-4527-483a-818d-69c4afd2ea31","ios":"levelo://app?vid=4cbec067-4527-483a-818d-69c4afd2ea31"},"vehicle_type_id":"4","last_reported":1692581880,"current_range_meters":17200,"station_id":"ce4bhs92rcd13ifvqi0g","pricing_plan_id":"free"},{"bike_id":"5b8e48f9-77d7-46c4-8853-5410f28c6930","system_id":"levelo_inurba_marseille","lat":43.3283,"lon":5.36677,"is_reserved":false,"is_disabled":false,"rental_uris":{"android":"levelo://app?vid=5b8e48f9-77d7-46c4-8853-5410f28c6930","ios":"levelo://app?vid=5b8e48f9-77d7-46c4-8853-5410f28c6930"},"vehicle_type_id":"4","last_reported":1692581880,"current_range_meters":2000,"station_id":"ce4bhs92rcd13ifvqi0g","pricing_plan_id":"free"},{"bike_id":"4d3f66e9-dc37-43a3-942c-d824e17e5a8e","system_id":"levelo_inurba_marseille","lat":43.3284,"lon":5.36678,"is_reserved":false,"is_disabled":false,"rental_uris":{"android":"levelo://app?vid=4d3f66e9-dc37-43a3-942c-d824e17e5a8e","ios":"levelo://app?vid=4d3f66e9-dc37-43a3-942c-d824e17e5a8e"},"vehicle_type_id":"4","last_reported":1692581880,"current_range_meters":30800,"station_id":"ce4bhs92rcd13ifvqi0g","pricing_plan_id":"free"},{"bike_id":"dd789220-e7b5-42c1-b9dc-dc4243148021","system_id":"levelo_inurba_marseille","lat":43.297163,"lon":5.365866,"is_reserved":false,"is_disabled":false,"rental_uris":{"android":"levelo://app?vid=dd789220-e7b5-42c1-b9dc-dc4243148021","ios":"levelo://app?vid=dd789220-e7b5-42c1-b9dc-dc4243148021"},"vehicle_type_id":"4","last_reported":1692581880,"current_range_meters":31200,"station_id":"ce4bgn12rcd13ifvqbt0","pricing_plan_id":"free"},{"bike_id":"bb155e93-116e-494a-9911-2df351c7dae8","system_id":"levelo_inurba_marseille","lat":43.296129,"lon":5.370777,"is_reserved":false,"is_disabled":false,"rental_uris":{"android":"levelo://app?vid=bb155e93-116e-494a-9911-2df351c7dae8","ios":"levelo://app?vid=bb155e93-116e-494a-9911-2df351c7dae8"},"vehicle_type_id":"4","last_reported":1692581880,"current_range_meters":29200,"station_id":"ce4bgnh2rcd13ifvqc0g","pricing_plan_id":"free"},{"bike_id":"e0fa911a-d7e3-4050-8f0d-acda369c63db","system_id":"levelo_inurba_marseille","lat":43.296131,"lon":5.370791,"is_reserved":false,"is_disabled":false,"rental_uris":{"android":"levelo://app?vid=e0fa911a-d7e3-4050-8f0d-acda369c63db","ios":"levelo://app?vid=e0fa911a-d7e3-4050-8f0d-acda369c63db"},"vehicle_type_id":"4","last_reported":1692581880,"current_range_meters":28000,"station_id":"ce4bgnh2rcd13ifvqc0g","pricing_plan_id":"free"},{"bike_id":"d3139180-8ba9-4c91-b6e4-8baae3c22113","system_id":"levelo_inurba_marseille","lat":43.296131,"lon":5.370773,"is_reserved":false,"is_disabled":false,"rental_uris":{"android":"levelo://app?vid=d3139180-8ba9-4c91-b6e4-8baae3c22113","ios":"levelo://app?vid=d3139180-8ba9-4c91-b6e4-8baae3c22113"},"vehicle_type_id":"4","last_reported":1692581880,"current_range_meters":30400,"station_id":"ce4bgnh2rcd13ifvqc0g","pricing_plan_id":"free"},{"bike_id":"3361a0fe-c663-4c5b-8253-70a1b759f100","system_id":"levelo_inurba_marseille","lat":43.30948,"lon":5.39026,"is_reserved":false,"is_disabled":false,"rental_uris":{"android":"levelo://app?vid=3361a0fe-c663-4c5b-8253-70a1b759f100","ios":"levelo://app?vid=3361a0fe-c663-4c5b-8253-70a1b759f100"},"vehicle_type_id":"4","last_reported":1692581880,"current_range_meters":0,"station_id":"ce4bgup2rcd13ifvqco0","pricing_plan_id":"free"},{"bike_id":"0368c765-e776-4914-8b4c-e2de272abba9","system_id":"levelo_inurba_marseille","lat":43.298037,"lon":5.381066,"is_reserved":false,"is_disabled":false,"rental_uris":{"android":"levelo://app?vid=0368c765-e776-4914-8b4c-e2de272abba9","ios":"levelo://app?vid=0368c765-e776-4914-8b4c-e2de272abba9"},"vehicle_type_id":"4","last_reported":1692581880,"current_range_meters":9200,"station_id":"ce4bgip2rcd13ifvqbb0","pricing_plan_id":"free"},{"bike_id":"ffac3cdb-1452-47f5-998d-083bb478b3d1","system_id":"levelo_inurba_marseille","lat":43.2963,"lon":5.37693,"is_reserved":false,"is_disabled":false,"rental_uris":{"android":"levelo://app?vid=ffac3cdb-1452-47f5-998d-083bb478b3d1","ios":"levelo://app?vid=ffac3cdb-1452-47f5-998d-083bb478b3d1"},"vehicle_type_id":"4","last_reported":1692581880,"current_range_meters":15600,"station_id":"ce4bgi92rcd13ifvqb90","pricing_plan_id":"free"},{"bike_id":"2a12f502-c8b9-4750-b282-e5e2f92ca41c","system_id":"levelo_inurba_marseille","lat":43.30445,"lon":5.38895,"is_reserved":false,"is_disabled":false,"rental_uris":{"android":"levelo://app?vid=2a12f502-c8b9-4750-b282-e5e2f92ca41c","ios":"levelo://app?vid=2a12f502-c8b9-4750-b282-e5e2f92ca41c"},"vehicle_type_id":"4","last_reported":1692581880,"current_range_meters":31200,"station_id":"ce4bgk12rcd13ifvqbi0","pricing_plan_id":"free"},{"bike_id":"a4df99ce-0488-49dd-a888-94686f562e88","system_id":"levelo_inurba_marseille","lat":43.295748,"lon":5.37522,"is_reserved":false,"is_disabled":false,"rental_uris":{"android":"levelo://app?vid=a4df99ce-0488-49dd-a888-94686f562e88","ios":"levelo://app?vid=a4df99ce-0488-49dd-a888-94686f562e88"},"vehicle_type_id":"4","last_reported":1692581880,"current_range_meters":27200,"station_id":"ce4bgh92rcd13ifvqb50","pricing_plan_id":"free"},{"bike_id":"6fd64036-0157-4405-a8ee-a5fd2b0697fa","system_id":"levelo_inurba_marseille","lat":43.29534,"lon":5.37499,"is_reserved":false,"is_disabled":false,"rental_uris":{"android":"levelo://app?vid=6fd64036-0157-4405-a8ee-a5fd2b0697fa","ios":"levelo://app?vid=6fd64036-0157-4405-a8ee-a5fd2b0697fa"},"vehicle_type_id":"4","last_reported":1692581880,"current_range_meters":0,"station_id":"","pricing_plan_id":"free"},{"bike_id":"9c8a4c0e-b3c4-4b55-a3e7-24595b979d26","system_id":"levelo_inurba_marseille","lat":43.299717,"lon":5.384845,"is_reserved":false,"is_disabled":false,"rental_uris":{"android":"levelo://app?vid=9c8a4c0e-b3c4-4b55-a3e7-24595b979d26","ios":"levelo://app?vid=9c8a4c0e-b3c4-4b55-a3e7-24595b979d26"},"vehicle_type_id":"4","last_reported":1692581880,"current_range_meters":16800,"station_id":"ce4bgj92rcd13ifvqbd0","pricing_plan_id":"free"},{"bike_id":"8b17ed69-7b3c-4552-89f3-1db065881068","system_id":"levelo_inurba_marseille","lat":43.32367,"lon":5.388836,"is_reserved":false,"is_disabled":false,"rental_uris":{"android":"levelo://app?vid=8b17ed69-7b3c-4552-89f3-1db065881068","ios":"levelo://app?vid=8b17ed69-7b3c-4552-89f3-1db065881068"},"vehicle_type_id":"4","last_reported":1692581880,"current_range_meters":18800,"station_id":"ce4bhqp2rcd13ifvqhog","pricing_plan_id":"free"},{"bike_id":"00883cd9-a56a-4720-bb55-237d0136a4a1","system_id":"levelo_inurba_marseille","lat":43.32367,"lon":5.388836,"is_reserved":false,"is_disabled":false,"rental_uris":{"android":"levelo://app?vid=00883cd9-a56a-4720-bb55-237d0136a4a1","ios":"levelo://app?vid=00883cd9-a56a-4720-bb55-237d0136a4a1"},"vehicle_type_id":"4","last_reported":1692581880,"current_range_meters":20800,"station_id":"ce4bhqp2rcd13ifvqhog","pricing_plan_id":"free"},{"bike_id":"de5fad82-eecf-4a53-a43a-5e8156b72f59","system_id":"levelo_inurba_marseille","lat":43.32367,"lon":5.388836,"is_reserved":false,"is_disabled":false,"rental_uris":{"android":"levelo://app?vid=de5fad82-eecf-4a53-a43a-5e8156b72f59","ios":"levelo://app?vid=de5fad82-eecf-4a53-a43a-5e8156b72f59"},"vehicle_type_id":"4","last_reported":1692581880,"current_range_meters":5200,"station_id":"ce4bhqp2rcd13ifvqhog","pricing_plan_id":"free"},{"bike_id":"bc9e6d49-f8e7-4cb1-a846-fd83d3476f98","system_id":"levelo_inurba_marseille","lat":43.32367,"lon":5.388836,"is_reserved":false,"is_disabled":false,"rental_uris":{"android":"levelo://app?vid=bc9e6d49-f8e7-4cb1-a846-fd83d3476f98","ios":"levelo://app?vid=bc9e6d49-f8e7-4cb1-a846-fd83d3476f98"},"vehicle_type_id":"4","last_reported":1692581880,"current_range_meters":8800,"station_id":"ce4bhqp2rcd13ifvqhog","pricing_plan_id":"free"},{"bike_id":"55ed9502-ed46-4a78-8ae4-2121b9e61be5","system_id":"levelo_inurba_marseille","lat":43.30598,"lon":5.39343,"is_reserved":false,"is_disabled":false,"rental_uris":{"android":"levelo://app?vid=55ed9502-ed46-4a78-8ae4-2121b9e61be5","ios":"levelo://app?vid=55ed9502-ed46-4a78-8ae4-2121b9e61be5"},"vehicle_type_id":"4","last_reported":1692581880,"current_range_meters":26000,"station_id":"ce4bh0p2rcd13ifvqd80","pricing_plan_id":"free"},{"bike_id":"0fb1b61d-8844-41a8-a6ab-2d42269528e9","system_id":"levelo_inurba_marseille","lat":43.30598,"lon":5.39346,"is_reserved":false,"is_disabled":false,"rental_uris":{"android":"levelo://app?vid=0fb1b61d-8844-41a8-a6ab-2d42269528e9","ios":"levelo://app?vid=0fb1b61d-8844-41a8-a6ab-2d42269528e9"},"vehicle_type_id":"4","last_reported":1692581880,"current_range_meters":31200,"station_id":"ce4bh0p2rcd13ifvqd80","pricing_plan_id":"free"},{"bike_id":"361b9167-1217-4223-a9ee-6630e161feb1","system_id":"levelo_inurba_marseille","lat":43.30591,"lon":5.39346,"is_reserved":false,"is_disabled":false,"rental_uris":{"android":"levelo://app?vid=361b9167-1217-4223-a9ee-6630e161feb1","ios":"levelo://app?vid=361b9167-1217-4223-a9ee-6630e161feb1"},"vehicle_type_id":"4","last_reported":1692581880,"current_range_meters":31200,"station_id":"ce4bh0p2rcd13ifvqd80","pricing_plan_id":"free"},{"bike_id":"78a76d1c-e73c-4fd2-93ac-e9972a34aedf","system_id":"levelo_inurba_marseille","lat":43.30595,"lon":5.39352,"is_reserved":false,"is_disabled":false,"rental_uris":{"android":"levelo://app?vid=78a76d1c-e73c-4fd2-93ac-e9972a34aedf","ios":"levelo://app?vid=78a76d1c-e73c-4fd2-93ac-e9972a34aedf"},"vehicle_type_id":"4","last_reported":1692581880,"current_range_meters":31200,"station_id":"ce4bh0p2rcd13ifvqd80","pricing_plan_id":"free"},{"bike_id":"15baf1b5-45bb-4fb7-b2fb-96a375fa7f36","system_id":"levelo_inurba_marseille","lat":43.305994,"lon":5.393687,"is_reserved":false,"is_disabled":false,"rental_uris":{"android":"levelo://app?vid=15baf1b5-45bb-4fb7-b2fb-96a375fa7f36","ios":"levelo://app?vid=15baf1b5-45bb-4fb7-b2fb-96a375fa7f36"},"vehicle_type_id":"4","last_reported":1692581880,"current_range_meters":30000,"station_id":"ce4bh0p2rcd13ifvqd80","pricing_plan_id":"free"},{"bike_id":"64664962-4ccf-430e-8404-34441ee8119e","system_id":"levelo_inurba_marseille","lat":43.305994,"lon":5.393687,"is_reserved":false,"is_disabled":false,"rental_uris":{"android":"levelo://app?vid=64664962-4ccf-430e-8404-34441ee8119e","ios":"levelo://app?vid=64664962-4ccf-430e-8404-34441ee8119e"},"vehicle_type_id":"4","last_reported":1692581880,"current_range_meters":14800,"station_id":"ce4bh0p2rcd13ifvqd80","pricing_plan_id":"free"},{"bike_id":"b91d80ad-4026-44ee-8374-e48b8b9bdf57","system_id":"levelo_inurba_marseille","lat":43.305994,"lon":5.393687,"is_reserved":false,"is_disabled":false,"rental_uris":{"android":"levelo://app?vid=b91d80ad-4026-44ee-8374-e48b8b9bdf57","ios":"levelo://app?vid=b91d80ad-4026-44ee-8374-e48b8b9bdf57"},"vehicle_type_id":"4","last_reported":1692581880,"current_range_meters":27200,"station_id":"ce4bh0p2rcd13ifvqd80","pricing_plan_id":"free"},{"bike_id":"38fef587-7cc5-4800-b069-87b8f296a10a","system_id":"levelo_inurba_marseille","lat":43.293009,"lon":5.374584,"is_reserved":false,"is_disabled":false,"rental_uris":{"android":"levelo://app?vid=38fef587-7cc5-4800-b069-87b8f296a10a","ios":"levelo://app?vid=38fef587-7cc5-4800-b069-87b8f296a10a"},"vehicle_type_id":"4","last_reported":1692581880,"current_range_meters":31200,"station_id":"ce4bgi12rcd13ifvqb70","pricing_plan_id":"free"},{"bike_id":"e2175cd7-3808-4235-8f4f-23540f6fe81c","system_id":"levelo_inurba_marseille","lat":43.305994,"lon":5.393687,"is_reserved":false,"is_disabled":false,"rental_uris":{"android":"levelo://app?vid=e2175cd7-3808-4235-8f4f-23540f6fe81c","ios":"levelo://app?vid=e2175cd7-3808-4235-8f4f-23540f6fe81c"},"vehicle_type_id":"4","last_reported":1692581880,"current_range_meters":27600,"station_id":"ce4bh0p2rcd13ifvqd80","pricing_plan_id":"free"},{"bike_id":"7c4834a2-d4cf-4c49-88a0-dc3fa0c038b4","system_id":"levelo_inurba_marseille","lat":43.305994,"lon":5.393687,"is_reserved":false,"is_disabled":false,"rental_uris":{"android":"levelo://app?vid=7c4834a2-d4cf-4c49-88a0-dc3fa0c038b4","ios":"levelo://app?vid=7c4834a2-d4cf-4c49-88a0-dc3fa0c038b4"},"vehicle_type_id":"4","last_reported":1692581880,"current_range_meters":13200,"station_id":"ce4bh0p2rcd13ifvqd80","pricing_plan_id":"free"},{"bike_id":"ddc07ebf-c2fb-4923-bd5c-63f8514278c4","system_id":"levelo_inurba_marseille","lat":43.30319,"lon":5.39199,"is_reserved":false,"is_disabled":false,"rental_uris":{"android":"levelo://app?vid=ddc07ebf-c2fb-4923-bd5c-63f8514278c4","ios":"levelo://app?vid=ddc07ebf-c2fb-4923-bd5c-63f8514278c4"},"vehicle_type_id":"4","last_reported":1692581880,"current_range_meters":10000,"station_id":"ce4bgkh2rcd13ifvqbk0","pricing_plan_id":"free"},{"bike_id":"83b7a958-a8a9-44f8-8f61-e6d116fa71cd","system_id":"levelo_inurba_marseille","lat":43.305994,"lon":5.393687,"is_reserved":false,"is_disabled":false,"rental_uris":{"android":"levelo://app?vid=83b7a958-a8a9-44f8-8f61-e6d116fa71cd","ios":"levelo://app?vid=83b7a958-a8a9-44f8-8f61-e6d116fa71cd"},"vehicle_type_id":"4","last_reported":1692581880,"current_range_meters":26400,"station_id":"ce4bh0p2rcd13ifvqd80","pricing_plan_id":"free"},{"bike_id":"0724f352-a262-45b7-9b71-9a09ff17d945","system_id":"levelo_inurba_marseille","lat":43.30305,"lon":5.39205,"is_reserved":false,"is_disabled":false,"rental_uris":{"android":"levelo://app?vid=0724f352-a262-45b7-9b71-9a09ff17d945","ios":"levelo://app?vid=0724f352-a262-45b7-9b71-9a09ff17d945"},"vehicle_type_id":"4","last_reported":1692581880,"current_range_meters":17600,"station_id":"ce4bgkh2rcd13ifvqbk0","pricing_plan_id":"free"},{"bike_id":"d4b5833b-b84e-4ef5-8bba-9aa42f3067cc","system_id":"levelo_inurba_marseille","lat":43.30251,"lon":5.39179,"is_reserved":false,"is_disabled":false,"rental_uris":{"android":"levelo://app?vid=d4b5833b-b84e-4ef5-8bba-9aa42f3067cc","ios":"levelo://app?vid=d4b5833b-b84e-4ef5-8bba-9aa42f3067cc"},"vehicle_type_id":"4","last_reported":1692581880,"current_range_meters":31200,"station_id":"ce4bgkh2rcd13ifvqbk0","pricing_plan_id":"free"},{"bike_id":"6e776604-550d-4bd2-91a7-cb2b334a1e56","system_id":"levelo_inurba_marseille","lat":43.2936,"lon":5.37851,"is_reserved":false,"is_disabled":false,"rental_uris":{"android":"levelo://app?vid=6e776604-550d-4bd2-91a7-cb2b334a1e56","ios":"levelo://app?vid=6e776604-550d-4bd2-91a7-cb2b334a1e56"},"vehicle_type_id":"4","last_reported":1692581880,"current_range_meters":7200,"station_id":"ce4bgjh2rcd13ifvqbf0","pricing_plan_id":"free"},{"bike_id":"d86d8a8b-e02f-4c6e-92db-146232eb4104","system_id":"levelo_inurba_marseille","lat":43.300852,"lon":5.390859,"is_reserved":false,"is_disabled":false,"rental_uris":{"android":"levelo://app?vid=d86d8a8b-e02f-4c6e-92db-146232eb4104","ios":"levelo://app?vid=d86d8a8b-e02f-4c6e-92db-146232eb4104"},"vehicle_type_id":"4","last_reported":1692581880,"current_range_meters":28400,"station_id":"ce4bh192rcd13ifvqdb0","pricing_plan_id":"free"},{"bike_id":"a6d28f4d-61c7-412f-a5d7-ab1701db555e","system_id":"levelo_inurba_marseille","lat":43.30882,"lon":5.39622,"is_reserved":false,"is_disabled":false,"rental_uris":{"android":"levelo://app?vid=a6d28f4d-61c7-412f-a5d7-ab1701db555e","ios":"levelo://app?vid=a6d28f4d-61c7-412f-a5d7-ab1701db555e"},"vehicle_type_id":"4","last_reported":1692581880,"current_range_meters":20800,"station_id":"ce4bh012rcd13ifvqcv0","pricing_plan_id":"free"},{"bike_id":"bc5c6bfd-3e41-4c41-a52e-882ce419d4c2","system_id":"levelo_inurba_marseille","lat":43.3088,"lon":5.39623,"is_reserved":false,"is_disabled":false,"rental_uris":{"android":"levelo://app?vid=bc5c6bfd-3e41-4c41-a52e-882ce419d4c2","ios":"levelo://app?vid=bc5c6bfd-3e41-4c41-a52e-882ce419d4c2"},"vehicle_type_id":"4","last_reported":1692581880,"current_range_meters":15600,"station_id":"ce4bh012rcd13ifvqcv0","pricing_plan_id":"free"},{"bike_id":"89d5631c-41ee-4b2c-a21c-72910447517e","system_id":"levelo_inurba_marseille","lat":43.309038,"lon":5.396546,"is_reserved":false,"is_disabled":false,"rental_uris":{"android":"levelo://app?vid=89d5631c-41ee-4b2c-a21c-72910447517e","ios":"levelo://app?vid=89d5631c-41ee-4b2c-a21c-72910447517e"},"vehicle_type_id":"4","last_reported":1692581880,"current_range_meters":12400,"station_id":"ce4bh012rcd13ifvqcv0","pricing_plan_id":"free"},{"bike_id":"bb33eda1-8fa8-460d-8400-c26a07ee274f","system_id":"levelo_inurba_marseille","lat":43.30886,"lon":5.39632,"is_reserved":false,"is_disabled":false,"rental_uris":{"android":"levelo://app?vid=bb33eda1-8fa8-460d-8400-c26a07ee274f","ios":"levelo://app?vid=bb33eda1-8fa8-460d-8400-c26a07ee274f"},"vehicle_type_id":"4","last_reported":1692581880,"current_range_meters":31200,"station_id":"ce4bh012rcd13ifvqcv0","pricing_plan_id":"free"},{"bike_id":"ed405518-e00f-42a1-a9e1-81eddb55ccd4","system_id":"levelo_inurba_marseille","lat":43.309038,"lon":5.396546,"is_reserved":false,"is_disabled":false,"rental_uris":{"android":"levelo://app?vid=ed405518-e00f-42a1-a9e1-81eddb55ccd4","ios":"levelo://app?vid=ed405518-e00f-42a1-a9e1-81eddb55ccd4"},"vehicle_type_id":"4","last_reported":1692581880,"current_range_meters":13600,"station_id":"ce4bh012rcd13ifvqcv0","pricing_plan_id":"free"},{"bike_id":"54197310-ab91-47f3-a3c7-4902d64c6527","system_id":"levelo_inurba_marseille","lat":43.30879,"lon":5.39638,"is_reserved":false,"is_disabled":false,"rental_uris":{"android":"levelo://app?vid=54197310-ab91-47f3-a3c7-4902d64c6527","ios":"levelo://app?vid=54197310-ab91-47f3-a3c7-4902d64c6527"},"vehicle_type_id":"4","last_reported":1692581880,"current_range_meters":30000,"station_id":"ce4bh012rcd13ifvqcv0","pricing_plan_id":"free"},{"bike_id":"1f810ff6-a5e1-412f-bd75-1814d80054d4","system_id":"levelo_inurba_marseille","lat":43.30881,"lon":5.39641,"is_reserved":false,"is_disabled":false,"rental_uris":{"android":"levelo://app?vid=1f810ff6-a5e1-412f-bd75-1814d80054d4","ios":"levelo://app?vid=1f810ff6-a5e1-412f-bd75-1814d80054d4"},"vehicle_type_id":"4","last_reported":1692581880,"current_range_meters":31200,"station_id":"ce4bh012rcd13ifvqcv0","pricing_plan_id":"free"},{"bike_id":"4c8eddff-e7ff-4d5e-82a2-56cea9a67080","system_id":"levelo_inurba_marseille","lat":43.309038,"lon":5.396546,"is_reserved":false,"is_disabled":false,"rental_uris":{"android":"levelo://app?vid=4c8eddff-e7ff-4d5e-82a2-56cea9a67080","ios":"levelo://app?vid=4c8eddff-e7ff-4d5e-82a2-56cea9a67080"},"vehicle_type_id":"4","last_reported":1692581880,"current_range_meters":31200,"station_id":"ce4bh012rcd13ifvqcv0","pricing_plan_id":"free"},{"bike_id":"915de029-d7cb-41fe-91e8-46faf462cf92","system_id":"levelo_inurba_marseille","lat":43.30885,"lon":5.39644,"is_reserved":false,"is_disabled":false,"rental_uris":{"android":"levelo://app?vid=915de029-d7cb-41fe-91e8-46faf462cf92","ios":"levelo://app?vid=915de029-d7cb-41fe-91e8-46faf462cf92"},"vehicle_type_id":"4","last_reported":1692581880,"current_range_meters":31200,"station_id":"ce4bh012rcd13ifvqcv0","pricing_plan_id":"free"},{"bike_id":"2a5dc19e-b3b0-450b-bef5-6df0650f190f","system_id":"levelo_inurba_marseille","lat":43.31334,"lon":5.39694,"is_reserved":false,"is_disabled":false,"rental_uris":{"android":"levelo://app?vid=2a5dc19e-b3b0-450b-bef5-6df0650f190f","ios":"levelo://app?vid=2a5dc19e-b3b0-450b-bef5-6df0650f190f"},"vehicle_type_id":"4","last_reported":1692581880,"current_range_meters":31200,"station_id":"ce4bgvp2rcd13ifvqcu0","pricing_plan_id":"free"},{"bike_id":"a435ad5f-dd98-4de3-8edb-f81f9585f29c","system_id":"levelo_inurba_marseille","lat":43.29186,"lon":5.35797,"is_reserved":false,"is_disabled":false,"rental_uris":{"android":"levelo://app?vid=a435ad5f-dd98-4de3-8edb-f81f9585f29c","ios":"levelo://app?vid=a435ad5f-dd98-4de3-8edb-f81f9585f29c"},"vehicle_type_id":"4","last_reported":1692581880,"current_range_meters":31200,"station_id":"ce4bhb12rcd13ifvqel0","pricing_plan_id":"free"},{"bike_id":"01e17c95-fa8d-45c8-92e4-238fd07af942","system_id":"levelo_inurba_marseille","lat":43.30895,"lon":5.39655,"is_reserved":false,"is_disabled":false,"rental_uris":{"android":"levelo://app?vid=01e17c95-fa8d-45c8-92e4-238fd07af942","ios":"levelo://app?vid=01e17c95-fa8d-45c8-92e4-238fd07af942"},"vehicle_type_id":"4","last_reported":1692581880,"current_range_meters":26000,"station_id":"ce4bh012rcd13ifvqcv0","pricing_plan_id":"free"},{"bike_id":"feb78bf1-5dc3-4cec-9b0f-1cf07cf4443a","system_id":"levelo_inurba_marseille","lat":43.31335,"lon":5.39702,"is_reserved":false,"is_disabled":false,"rental_uris":{"android":"levelo://app?vid=feb78bf1-5dc3-4cec-9b0f-1cf07cf4443a","ios":"levelo://app?vid=feb78bf1-5dc3-4cec-9b0f-1cf07cf4443a"},"vehicle_type_id":"4","last_reported":1692581880,"current_range_meters":31200,"station_id":"ce4bgvp2rcd13ifvqcu0","pricing_plan_id":"free"},{"bike_id":"9f6a074a-ed26-4796-88a5-1352e7e0002f","system_id":"levelo_inurba_marseille","lat":43.313291,"lon":5.396838,"is_reserved":false,"is_disabled":false,"rental_uris":{"android":"levelo://app?vid=9f6a074a-ed26-4796-88a5-1352e7e0002f","ios":"levelo://app?vid=9f6a074a-ed26-4796-88a5-1352e7e0002f"},"vehicle_type_id":"4","last_reported":1692581880,"current_range_meters":31200,"station_id":"ce4bgvp2rcd13ifvqcu0","pricing_plan_id":"free"},{"bike_id":"63a8baa4-25f8-4b92-b30f-d68932ab96f6","system_id":"levelo_inurba_marseille","lat":43.302008,"lon":5.394694,"is_reserved":false,"is_disabled":false,"rental_uris":{"android":"levelo://app?vid=63a8baa4-25f8-4b92-b30f-d68932ab96f6","ios":"levelo://app?vid=63a8baa4-25f8-4b92-b30f-d68932ab96f6"},"vehicle_type_id":"4","last_reported":1692581880,"current_range_meters":30000,"station_id":"ce4bh0p2rcd13ifvqd70","pricing_plan_id":"free"},{"bike_id":"68725c96-0020-42e8-b615-f78a4fbb11da","system_id":"levelo_inurba_marseille","lat":43.302008,"lon":5.394694,"is_reserved":false,"is_disabled":false,"rental_uris":{"android":"levelo://app?vid=68725c96-0020-42e8-b615-f78a4fbb11da","ios":"levelo://app?vid=68725c96-0020-42e8-b615-f78a4fbb11da"},"vehicle_type_id":"4","last_reported":1692581880,"current_range_meters":26800,"station_id":"ce4bh0p2rcd13ifvqd70","pricing_plan_id":"free"},{"bike_id":"d9c18f56-813b-4fcb-bd20-6bda0582e487","system_id":"levelo_inurba_marseille","lat":43.302008,"lon":5.394694,"is_reserved":false,"is_disabled":false,"rental_uris":{"android":"levelo://app?vid=d9c18f56-813b-4fcb-bd20-6bda0582e487","ios":"levelo://app?vid=d9c18f56-813b-4fcb-bd20-6bda0582e487"},"vehicle_type_id":"4","last_reported":1692581880,"current_range_meters":28400,"station_id":"ce4bh0p2rcd13ifvqd70","pricing_plan_id":"free"},{"bike_id":"8ab3a051-6318-4ae1-9398-fcdfdc00e93e","system_id":"levelo_inurba_marseille","lat":43.302008,"lon":5.394694,"is_reserved":false,"is_disabled":false,"rental_uris":{"android":"levelo://app?vid=8ab3a051-6318-4ae1-9398-fcdfdc00e93e","ios":"levelo://app?vid=8ab3a051-6318-4ae1-9398-fcdfdc00e93e"},"vehicle_type_id":"4","last_reported":1692581880,"current_range_meters":29200,"station_id":"ce4bh0p2rcd13ifvqd70","pricing_plan_id":"free"},{"bike_id":"bc78b485-9441-4914-b2f9-13188e5d6a78","system_id":"levelo_inurba_marseille","lat":43.302008,"lon":5.394694,"is_reserved":false,"is_disabled":false,"rental_uris":{"android":"levelo://app?vid=bc78b485-9441-4914-b2f9-13188e5d6a78","ios":"levelo://app?vid=bc78b485-9441-4914-b2f9-13188e5d6a78"},"vehicle_type_id":"4","last_reported":1692581880,"current_range_meters":27600,"station_id":"ce4bh0p2rcd13ifvqd70","pricing_plan_id":"free"},{"bike_id":"4bb2fbf9-47bb-4b6d-9fc1-7114f1405aee","system_id":"levelo_inurba_marseille","lat":43.302008,"lon":5.394694,"is_reserved":false,"is_disabled":false,"rental_uris":{"android":"levelo://app?vid=4bb2fbf9-47bb-4b6d-9fc1-7114f1405aee","ios":"levelo://app?vid=4bb2fbf9-47bb-4b6d-9fc1-7114f1405aee"},"vehicle_type_id":"4","last_reported":1692581880,"current_range_meters":26800,"station_id":"ce4bh0p2rcd13ifvqd70","pricing_plan_id":"free"},{"bike_id":"ceb7e448-efae-4318-b3d9-138b63038455","system_id":"levelo_inurba_marseille","lat":43.289184,"lon":5.366408,"is_reserved":false,"is_disabled":false,"rental_uris":{"android":"levelo://app?vid=ceb7e448-efae-4318-b3d9-138b63038455","ios":"levelo://app?vid=ceb7e448-efae-4318-b3d9-138b63038455"},"vehicle_type_id":"4","last_reported":1692581880,"current_range_meters":26800,"station_id":"ce4bhap2rcd13ifvqek0","pricing_plan_id":"free"},{"bike_id":"acaa7502-6395-4eb4-9f38-6c505ad18cfb","system_id":"levelo_inurba_marseille","lat":43.289184,"lon":5.366408,"is_reserved":false,"is_disabled":false,"rental_uris":{"android":"levelo://app?vid=acaa7502-6395-4eb4-9f38-6c505ad18cfb","ios":"levelo://app?vid=acaa7502-6395-4eb4-9f38-6c505ad18cfb"},"vehicle_type_id":"4","last_reported":1692581880,"current_range_meters":27600,"station_id":"ce4bhap2rcd13ifvqek0","pricing_plan_id":"free"},{"bike_id":"58d2009c-0a40-4b5a-b971-df8f6dd47e41","system_id":"levelo_inurba_marseille","lat":43.304296,"lon":5.397513,"is_reserved":false,"is_disabled":false,"rental_uris":{"android":"levelo://app?vid=58d2009c-0a40-4b5a-b971-df8f6dd47e41","ios":"levelo://app?vid=58d2009c-0a40-4b5a-b971-df8f6dd47e41"},"vehicle_type_id":"4","last_reported":1692581880,"current_range_meters":24400,"station_id":"ce4bh092rcd13ifvqd20","pricing_plan_id":"free"},{"bike_id":"5b7f50a3-53b2-47ee-bdad-b00c074dea51","system_id":"levelo_inurba_marseille","lat":43.304274,"lon":5.397513,"is_reserved":false,"is_disabled":false,"rental_uris":{"android":"levelo://app?vid=5b7f50a3-53b2-47ee-bdad-b00c074dea51","ios":"levelo://app?vid=5b7f50a3-53b2-47ee-bdad-b00c074dea51"},"vehicle_type_id":"4","last_reported":1692581880,"current_range_meters":28000,"station_id":"ce4bh092rcd13ifvqd20","pricing_plan_id":"free"},{"bike_id":"f220fda5-758c-40ad-b2eb-ef45f8dd0b94","system_id":"levelo_inurba_marseille","lat":43.304296,"lon":5.397513,"is_reserved":false,"is_disabled":false,"rental_uris":{"android":"levelo://app?vid=f220fda5-758c-40ad-b2eb-ef45f8dd0b94","ios":"levelo://app?vid=f220fda5-758c-40ad-b2eb-ef45f8dd0b94"},"vehicle_type_id":"4","last_reported":1692581880,"current_range_meters":30000,"station_id":"ce4bh092rcd13ifvqd20","pricing_plan_id":"free"},{"bike_id":"06f42ee0-4b4e-4431-821d-fa731fdcb786","system_id":"levelo_inurba_marseille","lat":43.30456,"lon":5.39781,"is_reserved":false,"is_disabled":false,"rental_uris":{"android":"levelo://app?vid=06f42ee0-4b4e-4431-821d-fa731fdcb786","ios":"levelo://app?vid=06f42ee0-4b4e-4431-821d-fa731fdcb786"},"vehicle_type_id":"4","last_reported":1692581880,"current_range_meters":14400,"station_id":"","pricing_plan_id":"free"},{"bike_id":"eb950724-6c95-4fb2-915f-35b08a8cfd23","system_id":"levelo_inurba_marseille","lat":43.33039,"lon":5.38916,"is_reserved":false,"is_disabled":false,"rental_uris":{"android":"levelo://app?vid=eb950724-6c95-4fb2-915f-35b08a8cfd23","ios":"levelo://app?vid=eb950724-6c95-4fb2-915f-35b08a8cfd23"},"vehicle_type_id":"4","last_reported":1692581880,"current_range_meters":14800,"station_id":"ce4bhr92rcd13ifvqhrg","pricing_plan_id":"free"},{"bike_id":"d2b15eb2-4474-4e56-aace-fe335ab0092e","system_id":"levelo_inurba_marseille","lat":43.33038,"lon":5.38919,"is_reserved":false,"is_disabled":false,"rental_uris":{"android":"levelo://app?vid=d2b15eb2-4474-4e56-aace-fe335ab0092e","ios":"levelo://app?vid=d2b15eb2-4474-4e56-aace-fe335ab0092e"},"vehicle_type_id":"4","last_reported":1692581880,"current_range_meters":30800,"station_id":"ce4bhr92rcd13ifvqhrg","pricing_plan_id":"free"},{"bike_id":"de450cac-4370-4660-9455-3e94463307a2","system_id":"levelo_inurba_marseille","lat":43.33034,"lon":5.38926,"is_reserved":false,"is_disabled":false,"rental_uris":{"android":"levelo://app?vid=de450cac-4370-4660-9455-3e94463307a2","ios":"levelo://app?vid=de450cac-4370-4660-9455-3e94463307a2"},"vehicle_type_id":"4","last_reported":1692581880,"current_range_meters":31200,"station_id":"ce4bhr92rcd13ifvqhrg","pricing_plan_id":"free"},{"bike_id":"5036c72a-6252-47f4-a9fb-50fd514d506a","system_id":"levelo_inurba_marseille","lat":43.33039,"lon":5.38919,"is_reserved":false,"is_disabled":false,"rental_uris":{"android":"levelo://app?vid=5036c72a-6252-47f4-a9fb-50fd514d506a","ios":"levelo://app?vid=5036c72a-6252-47f4-a9fb-50fd514d506a"},"vehicle_type_id":"4","last_reported":1692581880,"current_range_meters":17600,"station_id":"ce4bhr92rcd13ifvqhrg","pricing_plan_id":"free"},{"bike_id":"3b3e7c42-cded-4bde-b175-99650afa4f17","system_id":"levelo_inurba_marseille","lat":43.33043,"lon":5.38913,"is_reserved":false,"is_disabled":false,"rental_uris":{"android":"levelo://app?vid=3b3e7c42-cded-4bde-b175-99650afa4f17","ios":"levelo://app?vid=3b3e7c42-cded-4bde-b175-99650afa4f17"},"vehicle_type_id":"4","last_reported":1692581880,"current_range_meters":19200,"station_id":"ce4bhr92rcd13ifvqhrg","pricing_plan_id":"free"},{"bike_id":"77d0692c-7c08-44a6-94c9-dd065cc4c536","system_id":"levelo_inurba_marseille","lat":43.33045,"lon":5.38911,"is_reserved":false,"is_disabled":false,"rental_uris":{"android":"levelo://app?vid=77d0692c-7c08-44a6-94c9-dd065cc4c536","ios":"levelo://app?vid=77d0692c-7c08-44a6-94c9-dd065cc4c536"},"vehicle_type_id":"4","last_reported":1692581880,"current_range_meters":30000,"station_id":"ce4bhr92rcd13ifvqhrg","pricing_plan_id":"free"},{"bike_id":"287c6b38-6f7a-44e1-9ca5-4697e102d8cd","system_id":"levelo_inurba_marseille","lat":43.33036,"lon":5.38927,"is_reserved":false,"is_disabled":false,"rental_uris":{"android":"levelo://app?vid=287c6b38-6f7a-44e1-9ca5-4697e102d8cd","ios":"levelo://app?vid=287c6b38-6f7a-44e1-9ca5-4697e102d8cd"},"vehicle_type_id":"4","last_reported":1692581880,"current_range_meters":30800,"station_id":"ce4bhr92rcd13ifvqhrg","pricing_plan_id":"free"},{"bike_id":"c65152a1-dca7-4ee4-9864-308587d5ed74","system_id":"levelo_inurba_marseille","lat":43.3304,"lon":5.38922,"is_reserved":false,"is_disabled":false,"rental_uris":{"android":"levelo://app?vid=c65152a1-dca7-4ee4-9864-308587d5ed74","ios":"levelo://app?vid=c65152a1-dca7-4ee4-9864-308587d5ed74"},"vehicle_type_id":"4","last_reported":1692581880,"current_range_meters":17600,"station_id":"ce4bhr92rcd13ifvqhrg","pricing_plan_id":"free"},{"bike_id":"a5d7998c-4c76-4390-bbcf-8c2a2abd7eba","system_id":"levelo_inurba_marseille","lat":43.3304,"lon":5.38923,"is_reserved":false,"is_disabled":false,"rental_uris":{"android":"levelo://app?vid=a5d7998c-4c76-4390-bbcf-8c2a2abd7eba","ios":"levelo://app?vid=a5d7998c-4c76-4390-bbcf-8c2a2abd7eba"},"vehicle_type_id":"4","last_reported":1692581880,"current_range_meters":26400,"station_id":"ce4bhr92rcd13ifvqhrg","pricing_plan_id":"free"},{"bike_id":"f7005a11-f4b8-40eb-a1e9-6d3833ad8114","system_id":"levelo_inurba_marseille","lat":43.33045,"lon":5.38917,"is_reserved":false,"is_disabled":false,"rental_uris":{"android":"levelo://app?vid=f7005a11-f4b8-40eb-a1e9-6d3833ad8114","ios":"levelo://app?vid=f7005a11-f4b8-40eb-a1e9-6d3833ad8114"},"vehicle_type_id":"4","last_reported":1692581880,"current_range_meters":24400,"station_id":"ce4bhr92rcd13ifvqhrg","pricing_plan_id":"free"},{"bike_id":"c8619c93-5f6a-45f4-8e07-c81fcc1e21be","system_id":"levelo_inurba_marseille","lat":43.33044,"lon":5.38919,"is_reserved":false,"is_disabled":false,"rental_uris":{"android":"levelo://app?vid=c8619c93-5f6a-45f4-8e07-c81fcc1e21be","ios":"levelo://app?vid=c8619c93-5f6a-45f4-8e07-c81fcc1e21be"},"vehicle_type_id":"4","last_reported":1692581880,"current_range_meters":22000,"station_id":"ce4bhr92rcd13ifvqhrg","pricing_plan_id":"free"},{"bike_id":"263a0f88-00b4-47fe-8ede-c245713078bf","system_id":"levelo_inurba_marseille","lat":43.33046,"lon":5.38916,"is_reserved":false,"is_disabled":false,"rental_uris":{"android":"levelo://app?vid=263a0f88-00b4-47fe-8ede-c245713078bf","ios":"levelo://app?vid=263a0f88-00b4-47fe-8ede-c245713078bf"},"vehicle_type_id":"4","last_reported":1692581880,"current_range_meters":22000,"station_id":"ce4bhr92rcd13ifvqhrg","pricing_plan_id":"free"},{"bike_id":"86eac789-1e56-496d-abfa-705e29d378c7","system_id":"levelo_inurba_marseille","lat":43.33043,"lon":5.38921,"is_reserved":false,"is_disabled":false,"rental_uris":{"android":"levelo://app?vid=86eac789-1e56-496d-abfa-705e29d378c7","ios":"levelo://app?vid=86eac789-1e56-496d-abfa-705e29d378c7"},"vehicle_type_id":"4","last_reported":1692581880,"current_range_meters":25200,"station_id":"ce4bhr92rcd13ifvqhrg","pricing_plan_id":"free"},{"bike_id":"9e24a65c-fe1e-45dc-88b9-dd0cad85064c","system_id":"levelo_inurba_marseille","lat":43.33046,"lon":5.38917,"is_reserved":false,"is_disabled":false,"rental_uris":{"android":"levelo://app?vid=9e24a65c-fe1e-45dc-88b9-dd0cad85064c","ios":"levelo://app?vid=9e24a65c-fe1e-45dc-88b9-dd0cad85064c"},"vehicle_type_id":"4","last_reported":1692581880,"current_range_meters":25200,"station_id":"ce4bhr92rcd13ifvqhrg","pricing_plan_id":"free"},{"bike_id":"708f7f21-b221-4c14-94b6-b5d8e3289350","system_id":"levelo_inurba_marseille","lat":43.33045,"lon":5.3892,"is_reserved":false,"is_disabled":false,"rental_uris":{"android":"levelo://app?vid=708f7f21-b221-4c14-94b6-b5d8e3289350","ios":"levelo://app?vid=708f7f21-b221-4c14-94b6-b5d8e3289350"},"vehicle_type_id":"4","last_reported":1692581880,"current_range_meters":16400,"station_id":"ce4bhr92rcd13ifvqhrg","pricing_plan_id":"free"},{"bike_id":"311cb0a1-d2bd-42c8-aa64-be9b063c2c5e","system_id":"levelo_inurba_marseille","lat":43.33045,"lon":5.38922,"is_reserved":false,"is_disabled":false,"rental_uris":{"android":"levelo://app?vid=311cb0a1-d2bd-42c8-aa64-be9b063c2c5e","ios":"levelo://app?vid=311cb0a1-d2bd-42c8-aa64-be9b063c2c5e"},"vehicle_type_id":"4","last_reported":1692581880,"current_range_meters":21200,"station_id":"ce4bhr92rcd13ifvqhrg","pricing_plan_id":"free"},{"bike_id":"52662068-d06a-40c1-bfee-ce6664dc3a83","system_id":"levelo_inurba_marseille","lat":43.33048,"lon":5.3892,"is_reserved":false,"is_disabled":false,"rental_uris":{"android":"levelo://app?vid=52662068-d06a-40c1-bfee-ce6664dc3a83","ios":"levelo://app?vid=52662068-d06a-40c1-bfee-ce6664dc3a83"},"vehicle_type_id":"4","last_reported":1692581880,"current_range_meters":31200,"station_id":"ce4bhr92rcd13ifvqhrg","pricing_plan_id":"free"},{"bike_id":"a8f93cbc-a1a8-4918-9270-613c2d9d614c","system_id":"levelo_inurba_marseille","lat":43.297815,"lon":5.393548,"is_reserved":false,"is_disabled":false,"rental_uris":{"android":"levelo://app?vid=a8f93cbc-a1a8-4918-9270-613c2d9d614c","ios":"levelo://app?vid=a8f93cbc-a1a8-4918-9270-613c2d9d614c"},"vehicle_type_id":"4","last_reported":1692581880,"current_range_meters":6800,"station_id":"chh1huq6cuj3fo74tm60","pricing_plan_id":"free"},{"bike_id":"1a822da9-5a8e-480d-b59c-97981763a22a","system_id":"levelo_inurba_marseille","lat":43.295169,"lon":5.390426,"is_reserved":false,"is_disabled":false,"rental_uris":{"android":"levelo://app?vid=1a822da9-5a8e-480d-b59c-97981763a22a","ios":"levelo://app?vid=1a822da9-5a8e-480d-b59c-97981763a22a"},"vehicle_type_id":"4","last_reported":1692581880,"current_range_meters":27600,"station_id":"ce4bh3p2rcd13ifvqdp0","pricing_plan_id":"free"},{"bike_id":"cd10106b-0f05-49ab-9549-ccef1d3e8169","system_id":"levelo_inurba_marseille","lat":43.295169,"lon":5.390426,"is_reserved":false,"is_disabled":false,"rental_uris":{"android":"levelo://app?vid=cd10106b-0f05-49ab-9549-ccef1d3e8169","ios":"levelo://app?vid=cd10106b-0f05-49ab-9549-ccef1d3e8169"},"vehicle_type_id":"4","last_reported":1692581880,"current_range_meters":9200,"station_id":"ce4bh3p2rcd13ifvqdp0","pricing_plan_id":"free"},{"bike_id":"483baaf5-5510-4c9d-b1ac-4daf8fc95845","system_id":"levelo_inurba_marseille","lat":43.31276,"lon":5.40161,"is_reserved":false,"is_disabled":false,"rental_uris":{"android":"levelo://app?vid=483baaf5-5510-4c9d-b1ac-4daf8fc95845","ios":"levelo://app?vid=483baaf5-5510-4c9d-b1ac-4daf8fc95845"},"vehicle_type_id":"4","last_reported":1692581880,"current_range_meters":9200,"station_id":"ce4bh092rcd13ifvqd30","pricing_plan_id":"free"},{"bike_id":"3b4cc115-c82c-4fa6-a8f3-0f5e7121504c","system_id":"levelo_inurba_marseille","lat":43.3128,"lon":5.40162,"is_reserved":false,"is_disabled":false,"rental_uris":{"android":"levelo://app?vid=3b4cc115-c82c-4fa6-a8f3-0f5e7121504c","ios":"levelo://app?vid=3b4cc115-c82c-4fa6-a8f3-0f5e7121504c"},"vehicle_type_id":"4","last_reported":1692581880,"current_range_meters":13600,"station_id":"ce4bh092rcd13ifvqd30","pricing_plan_id":"free"},{"bike_id":"bdbe7cc3-1d7c-4a66-b318-a9ae46908a07","system_id":"levelo_inurba_marseille","lat":43.30943,"lon":5.40132,"is_reserved":false,"is_disabled":false,"rental_uris":{"android":"levelo://app?vid=bdbe7cc3-1d7c-4a66-b318-a9ae46908a07","ios":"levelo://app?vid=bdbe7cc3-1d7c-4a66-b318-a9ae46908a07"},"vehicle_type_id":"4","last_reported":1692581880,"current_range_meters":0,"station_id":"ce4bgvp2rcd13ifvqct0","pricing_plan_id":"free"},{"bike_id":"1836c989-5d05-46c2-914f-3d9a54d9f49d","system_id":"levelo_inurba_marseille","lat":43.3067,"lon":5.40064,"is_reserved":false,"is_disabled":false,"rental_uris":{"android":"levelo://app?vid=1836c989-5d05-46c2-914f-3d9a54d9f49d","ios":"levelo://app?vid=1836c989-5d05-46c2-914f-3d9a54d9f49d"},"vehicle_type_id":"4","last_reported":1692581880,"current_range_meters":31200,"station_id":"ce4bh112rcd13ifvqda0","pricing_plan_id":"free"},{"bike_id":"753651cb-1607-4ffc-97f4-df65170cc673","system_id":"levelo_inurba_marseille","lat":43.31278,"lon":5.40165,"is_reserved":false,"is_disabled":false,"rental_uris":{"android":"levelo://app?vid=753651cb-1607-4ffc-97f4-df65170cc673","ios":"levelo://app?vid=753651cb-1607-4ffc-97f4-df65170cc673"},"vehicle_type_id":"4","last_reported":1692581880,"current_range_meters":14400,"station_id":"ce4bh092rcd13ifvqd30","pricing_plan_id":"free"},{"bike_id":"e466bb0f-a77c-4aa1-9822-4dcb8ea93d8e","system_id":"levelo_inurba_marseille","lat":43.312609,"lon":5.401662,"is_reserved":false,"is_disabled":false,"rental_uris":{"android":"levelo://app?vid=e466bb0f-a77c-4aa1-9822-4dcb8ea93d8e","ios":"levelo://app?vid=e466bb0f-a77c-4aa1-9822-4dcb8ea93d8e"},"vehicle_type_id":"4","last_reported":1692581880,"current_range_meters":13200,"station_id":"ce4bh092rcd13ifvqd30","pricing_plan_id":"free"},{"bike_id":"0dbff658-d426-413c-b8d4-21ca938ee664","system_id":"levelo_inurba_marseille","lat":43.312609,"lon":5.401662,"is_reserved":false,"is_disabled":false,"rental_uris":{"android":"levelo://app?vid=0dbff658-d426-413c-b8d4-21ca938ee664","ios":"levelo://app?vid=0dbff658-d426-413c-b8d4-21ca938ee664"},"vehicle_type_id":"4","last_reported":1692581880,"current_range_meters":8400,"station_id":"ce4bh092rcd13ifvqd30","pricing_plan_id":"free"},{"bike_id":"a56136f6-47ec-4fb1-bad0-6e72756ac6a5","system_id":"levelo_inurba_marseille","lat":43.30928,"lon":5.40138,"is_reserved":false,"is_disabled":false,"rental_uris":{"android":"levelo://app?vid=a56136f6-47ec-4fb1-bad0-6e72756ac6a5","ios":"levelo://app?vid=a56136f6-47ec-4fb1-bad0-6e72756ac6a5"},"vehicle_type_id":"4","last_reported":1692581880,"current_range_meters":20000,"station_id":"ce4bgvp2rcd13ifvqct0","pricing_plan_id":"free"},{"bike_id":"5ab202c0-e0f7-4c9e-9b4b-007a03d6bcbd","system_id":"levelo_inurba_marseille","lat":43.30933,"lon":5.40139,"is_reserved":false,"is_disabled":false,"rental_uris":{"android":"levelo://app?vid=5ab202c0-e0f7-4c9e-9b4b-007a03d6bcbd","ios":"levelo://app?vid=5ab202c0-e0f7-4c9e-9b4b-007a03d6bcbd"},"vehicle_type_id":"4","last_reported":1692581880,"current_range_meters":30400,"station_id":"ce4bgvp2rcd13ifvqct0","pricing_plan_id":"free"},{"bike_id":"15ffda53-1fd8-4097-a5eb-d1e9ce53adc5","system_id":"levelo_inurba_marseille","lat":43.30938,"lon":5.40141,"is_reserved":false,"is_disabled":false,"rental_uris":{"android":"levelo://app?vid=15ffda53-1fd8-4097-a5eb-d1e9ce53adc5","ios":"levelo://app?vid=15ffda53-1fd8-4097-a5eb-d1e9ce53adc5"},"vehicle_type_id":"4","last_reported":1692581880,"current_range_meters":10800,"station_id":"ce4bgvp2rcd13ifvqct0","pricing_plan_id":"free"},{"bike_id":"9410b294-2a62-42b6-87cd-8981626eb1aa","system_id":"levelo_inurba_marseille","lat":43.30651,"lon":5.40066,"is_reserved":false,"is_disabled":false,"rental_uris":{"android":"levelo://app?vid=9410b294-2a62-42b6-87cd-8981626eb1aa","ios":"levelo://app?vid=9410b294-2a62-42b6-87cd-8981626eb1aa"},"vehicle_type_id":"4","last_reported":1692581880,"current_range_meters":31200,"station_id":"ce4bh112rcd13ifvqda0","pricing_plan_id":"free"},{"bike_id":"4c299ce7-440e-40b9-8606-eaea3d2f5077","system_id":"levelo_inurba_marseille","lat":43.30661,"lon":5.4007,"is_reserved":false,"is_disabled":false,"rental_uris":{"android":"levelo://app?vid=4c299ce7-440e-40b9-8606-eaea3d2f5077","ios":"levelo://app?vid=4c299ce7-440e-40b9-8606-eaea3d2f5077"},"vehicle_type_id":"4","last_reported":1692581880,"current_range_meters":31200,"station_id":"ce4bh112rcd13ifvqda0","pricing_plan_id":"free"},{"bike_id":"30723a85-0202-4647-9837-f6a8200b3328","system_id":"levelo_inurba_marseille","lat":43.30928,"lon":5.40141,"is_reserved":false,"is_disabled":false,"rental_uris":{"android":"levelo://app?vid=30723a85-0202-4647-9837-f6a8200b3328","ios":"levelo://app?vid=30723a85-0202-4647-9837-f6a8200b3328"},"vehicle_type_id":"4","last_reported":1692581880,"current_range_meters":27200,"station_id":"ce4bgvp2rcd13ifvqct0","pricing_plan_id":"free"},{"bike_id":"f3fb4f46-1f66-4041-9055-34373e26df77","system_id":"levelo_inurba_marseille","lat":43.30672,"lon":5.40081,"is_reserved":false,"is_disabled":false,"rental_uris":{"android":"levelo://app?vid=f3fb4f46-1f66-4041-9055-34373e26df77","ios":"levelo://app?vid=f3fb4f46-1f66-4041-9055-34373e26df77"},"vehicle_type_id":"4","last_reported":1692581880,"current_range_meters":31200,"station_id":"ce4bh112rcd13ifvqda0","pricing_plan_id":"free"},{"bike_id":"8abca657-dfd7-43ed-9a5d-e1e4067084c3","system_id":"levelo_inurba_marseille","lat":43.30929,"lon":5.4015,"is_reserved":false,"is_disabled":false,"rental_uris":{"android":"levelo://app?vid=8abca657-dfd7-43ed-9a5d-e1e4067084c3","ios":"levelo://app?vid=8abca657-dfd7-43ed-9a5d-e1e4067084c3"},"vehicle_type_id":"4","last_reported":1692581880,"current_range_meters":20000,"station_id":"ce4bgvp2rcd13ifvqct0","pricing_plan_id":"free"},{"bike_id":"8cd243bd-95e6-428a-8394-30b2303d5871","system_id":"levelo_inurba_marseille","lat":43.30656,"lon":5.40078,"is_reserved":false,"is_disabled":false,"rental_uris":{"android":"levelo://app?vid=8cd243bd-95e6-428a-8394-30b2303d5871","ios":"levelo://app?vid=8cd243bd-95e6-428a-8394-30b2303d5871"},"vehicle_type_id":"4","last_reported":1692581880,"current_range_meters":21200,"station_id":"ce4bh112rcd13ifvqda0","pricing_plan_id":"free"},{"bike_id":"003f9415-f8d0-4511-96f3-909a1241acb4","system_id":"levelo_inurba_marseille","lat":43.30656,"lon":5.4008,"is_reserved":false,"is_disabled":false,"rental_uris":{"android":"levelo://app?vid=003f9415-f8d0-4511-96f3-909a1241acb4","ios":"levelo://app?vid=003f9415-f8d0-4511-96f3-909a1241acb4"},"vehicle_type_id":"4","last_reported":1692581880,"current_range_meters":27200,"station_id":"","pricing_plan_id":"free"},{"bike_id":"0da24a39-5174-41db-b945-de50dee4b34e","system_id":"levelo_inurba_marseille","lat":43.306343,"lon":5.400724,"is_reserved":false,"is_disabled":false,"rental_uris":{"android":"levelo://app?vid=0da24a39-5174-41db-b945-de50dee4b34e","ios":"levelo://app?vid=0da24a39-5174-41db-b945-de50dee4b34e"},"vehicle_type_id":"4","last_reported":1692581880,"current_range_meters":31200,"station_id":"ce4bh112rcd13ifvqda0","pricing_plan_id":"free"},{"bike_id":"77293018-4aeb-4bf5-83dc-97b41dd08fff","system_id":"levelo_inurba_marseille","lat":43.30924,"lon":5.40158,"is_reserved":false,"is_disabled":false,"rental_uris":{"android":"levelo://app?vid=77293018-4aeb-4bf5-83dc-97b41dd08fff","ios":"levelo://app?vid=77293018-4aeb-4bf5-83dc-97b41dd08fff"},"vehicle_type_id":"4","last_reported":1692581880,"current_range_meters":31200,"station_id":"ce4bgvp2rcd13ifvqct0","pricing_plan_id":"free"},{"bike_id":"2241bce1-ebf9-4d91-b7e5-fe08a6544f42","system_id":"levelo_inurba_marseille","lat":43.33753,"lon":5.37496,"is_reserved":false,"is_disabled":false,"rental_uris":{"android":"levelo://app?vid=2241bce1-ebf9-4d91-b7e5-fe08a6544f42","ios":"levelo://app?vid=2241bce1-ebf9-4d91-b7e5-fe08a6544f42"},"vehicle_type_id":"4","last_reported":1692581880,"current_range_meters":18000,"station_id":"","pricing_plan_id":"free"},{"bike_id":"270718af-f7f4-4eb6-9c39-5589ab9ba2ce","system_id":"levelo_inurba_marseille","lat":43.306749,"lon":5.401016,"is_reserved":false,"is_disabled":false,"rental_uris":{"android":"levelo://app?vid=270718af-f7f4-4eb6-9c39-5589ab9ba2ce","ios":"levelo://app?vid=270718af-f7f4-4eb6-9c39-5589ab9ba2ce"},"vehicle_type_id":"4","last_reported":1692581880,"current_range_meters":27200,"station_id":"ce4bh112rcd13ifvqda0","pricing_plan_id":"free"},{"bike_id":"754440c1-2290-485e-b635-23fe51a7d203","system_id":"levelo_inurba_marseille","lat":43.306656,"lon":5.401058,"is_reserved":false,"is_disabled":false,"rental_uris":{"android":"levelo://app?vid=754440c1-2290-485e-b635-23fe51a7d203","ios":"levelo://app?vid=754440c1-2290-485e-b635-23fe51a7d203"},"vehicle_type_id":"4","last_reported":1692581880,"current_range_meters":0,"station_id":"ce4bh112rcd13ifvqda0","pricing_plan_id":"free"},{"bike_id":"4dfb1725-5d57-42b5-8be4-a7823039a73b","system_id":"levelo_inurba_marseille","lat":43.301117,"lon":5.398795,"is_reserved":false,"is_disabled":false,"rental_uris":{"android":"levelo://app?vid=4dfb1725-5d57-42b5-8be4-a7823039a73b","ios":"levelo://app?vid=4dfb1725-5d57-42b5-8be4-a7823039a73b"},"vehicle_type_id":"4","last_reported":1692581880,"current_range_meters":25200,"station_id":"ce4bh0h2rcd13ifvqd40","pricing_plan_id":"free"},{"bike_id":"102bc553-03c9-44f8-a233-bf0eba30d629","system_id":"levelo_inurba_marseille","lat":43.286961,"lon":5.373785,"is_reserved":false,"is_disabled":false,"rental_uris":{"android":"levelo://app?vid=102bc553-03c9-44f8-a233-bf0eba30d629","ios":"levelo://app?vid=102bc553-03c9-44f8-a233-bf0eba30d629"},"vehicle_type_id":"4","last_reported":1692581880,"current_range_meters":22400,"station_id":"ce4bh3p2rcd13ifvqdq0","pricing_plan_id":"free"},{"bike_id":"47de05cd-5fa5-43a6-8e6a-cbe9de5a88ad","system_id":"levelo_inurba_marseille","lat":43.2987,"lon":5.39726,"is_reserved":false,"is_disabled":false,"rental_uris":{"android":"levelo://app?vid=47de05cd-5fa5-43a6-8e6a-cbe9de5a88ad","ios":"levelo://app?vid=47de05cd-5fa5-43a6-8e6a-cbe9de5a88ad"},"vehicle_type_id":"4","last_reported":1692581880,"current_range_meters":0,"station_id":"ce4bh0h2rcd13ifvqd50","pricing_plan_id":"free"},{"bike_id":"2aa5dee6-f82b-4886-a53b-194aa9b49e5c","system_id":"levelo_inurba_marseille","lat":43.298681,"lon":5.397225,"is_reserved":false,"is_disabled":false,"rental_uris":{"android":"levelo://app?vid=2aa5dee6-f82b-4886-a53b-194aa9b49e5c","ios":"levelo://app?vid=2aa5dee6-f82b-4886-a53b-194aa9b49e5c"},"vehicle_type_id":"4","last_reported":1692581880,"current_range_meters":24800,"station_id":"ce4bh0h2rcd13ifvqd50","pricing_plan_id":"free"},{"bike_id":"64a25592-cc10-45b7-a074-a2b301ba969a","system_id":"levelo_inurba_marseille","lat":43.286961,"lon":5.373785,"is_reserved":false,"is_disabled":false,"rental_uris":{"android":"levelo://app?vid=64a25592-cc10-45b7-a074-a2b301ba969a","ios":"levelo://app?vid=64a25592-cc10-45b7-a074-a2b301ba969a"},"vehicle_type_id":"4","last_reported":1692581880,"current_range_meters":0,"station_id":"ce4bh3p2rcd13ifvqdq0","pricing_plan_id":"free"},{"bike_id":"0ceabe6f-7af8-4d18-b9bc-0d9bb4492fd3","system_id":"levelo_inurba_marseille","lat":43.286591,"lon":5.363346,"is_reserved":false,"is_disabled":false,"rental_uris":{"android":"levelo://app?vid=0ceabe6f-7af8-4d18-b9bc-0d9bb4492fd3","ios":"levelo://app?vid=0ceabe6f-7af8-4d18-b9bc-0d9bb4492fd3"},"vehicle_type_id":"4","last_reported":1692581880,"current_range_meters":11600,"station_id":"ce4bhah2rcd13ifvqej0","pricing_plan_id":"free"},{"bike_id":"2980a0d1-1ab7-41d8-9481-666d5481809b","system_id":"levelo_inurba_marseille","lat":43.298681,"lon":5.397225,"is_reserved":false,"is_disabled":false,"rental_uris":{"android":"levelo://app?vid=2980a0d1-1ab7-41d8-9481-666d5481809b","ios":"levelo://app?vid=2980a0d1-1ab7-41d8-9481-666d5481809b"},"vehicle_type_id":"4","last_reported":1692581880,"current_range_meters":28400,"station_id":"ce4bh0h2rcd13ifvqd50","pricing_plan_id":"free"},{"bike_id":"4239d97b-0cb8-485f-b4cd-df9fe0b00309","system_id":"levelo_inurba_marseille","lat":43.298681,"lon":5.397225,"is_reserved":false,"is_disabled":false,"rental_uris":{"android":"levelo://app?vid=4239d97b-0cb8-485f-b4cd-df9fe0b00309","ios":"levelo://app?vid=4239d97b-0cb8-485f-b4cd-df9fe0b00309"},"vehicle_type_id":"4","last_reported":1692581880,"current_range_meters":31200,"station_id":"ce4bh0h2rcd13ifvqd50","pricing_plan_id":"free"},{"bike_id":"c650c6ad-2ae9-4953-969f-b3163f89199f","system_id":"levelo_inurba_marseille","lat":43.298681,"lon":5.397225,"is_reserved":false,"is_disabled":false,"rental_uris":{"android":"levelo://app?vid=c650c6ad-2ae9-4953-969f-b3163f89199f","ios":"levelo://app?vid=c650c6ad-2ae9-4953-969f-b3163f89199f"},"vehicle_type_id":"4","last_reported":1692581880,"current_range_meters":16400,"station_id":"ce4bh0h2rcd13ifvqd50","pricing_plan_id":"free"},{"bike_id":"b254916e-4ebf-49ad-9558-371841f2167b","system_id":"levelo_inurba_marseille","lat":43.286961,"lon":5.373785,"is_reserved":false,"is_disabled":false,"rental_uris":{"android":"levelo://app?vid=b254916e-4ebf-49ad-9558-371841f2167b","ios":"levelo://app?vid=b254916e-4ebf-49ad-9558-371841f2167b"},"vehicle_type_id":"4","last_reported":1692581880,"current_range_meters":23600,"station_id":"ce4bh3p2rcd13ifvqdq0","pricing_plan_id":"free"},{"bike_id":"75199276-b705-4ad7-b6a9-49aeaa84628a","system_id":"levelo_inurba_marseille","lat":43.286591,"lon":5.363346,"is_reserved":false,"is_disabled":false,"rental_uris":{"android":"levelo://app?vid=75199276-b705-4ad7-b6a9-49aeaa84628a","ios":"levelo://app?vid=75199276-b705-4ad7-b6a9-49aeaa84628a"},"vehicle_type_id":"4","last_reported":1692581880,"current_range_meters":31200,"station_id":"ce4bhah2rcd13ifvqej0","pricing_plan_id":"free"},{"bike_id":"26a44909-8fda-42ea-9c38-e2deb10b254d","system_id":"levelo_inurba_marseille","lat":43.298681,"lon":5.397225,"is_reserved":false,"is_disabled":false,"rental_uris":{"android":"levelo://app?vid=26a44909-8fda-42ea-9c38-e2deb10b254d","ios":"levelo://app?vid=26a44909-8fda-42ea-9c38-e2deb10b254d"},"vehicle_type_id":"4","last_reported":1692581880,"current_range_meters":28800,"station_id":"ce4bh0h2rcd13ifvqd50","pricing_plan_id":"free"},{"bike_id":"a16d4f04-b194-494f-ac00-1cb5e4a991ac","system_id":"levelo_inurba_marseille","lat":43.302759,"lon":5.400793,"is_reserved":false,"is_disabled":false,"rental_uris":{"android":"levelo://app?vid=a16d4f04-b194-494f-ac00-1cb5e4a991ac","ios":"levelo://app?vid=a16d4f04-b194-494f-ac00-1cb5e4a991ac"},"vehicle_type_id":"4","last_reported":1692581880,"current_range_meters":31200,"station_id":"ce4bgvh2rcd13ifvqcs0","pricing_plan_id":"free"},{"bike_id":"ca7ba66f-1200-4a92-9f03-16f854668aaa","system_id":"levelo_inurba_marseille","lat":43.302759,"lon":5.400793,"is_reserved":false,"is_disabled":false,"rental_uris":{"android":"levelo://app?vid=ca7ba66f-1200-4a92-9f03-16f854668aaa","ios":"levelo://app?vid=ca7ba66f-1200-4a92-9f03-16f854668aaa"},"vehicle_type_id":"4","last_reported":1692581880,"current_range_meters":30000,"station_id":"ce4bgvh2rcd13ifvqcs0","pricing_plan_id":"free"},{"bike_id":"39786470-0d44-49f0-83d1-cb7e8e8bda83","system_id":"levelo_inurba_marseille","lat":43.2903,"lon":5.3863,"is_reserved":false,"is_disabled":false,"rental_uris":{"android":"levelo://app?vid=39786470-0d44-49f0-83d1-cb7e8e8bda83","ios":"levelo://app?vid=39786470-0d44-49f0-83d1-cb7e8e8bda83"},"vehicle_type_id":"4","last_reported":1692581880,"current_range_meters":20000,"station_id":"ce4bh4p2rcd13ifvqe0g","pricing_plan_id":"free"},{"bike_id":"a7bd3cbe-1e56-404a-b4be-73bd3be251de","system_id":"levelo_inurba_marseille","lat":43.302759,"lon":5.400793,"is_reserved":false,"is_disabled":false,"rental_uris":{"android":"levelo://app?vid=a7bd3cbe-1e56-404a-b4be-73bd3be251de","ios":"levelo://app?vid=a7bd3cbe-1e56-404a-b4be-73bd3be251de"},"vehicle_type_id":"4","last_reported":1692581880,"current_range_meters":31200,"station_id":"ce4bgvh2rcd13ifvqcs0","pricing_plan_id":"free"},{"bike_id":"a82828d8-9b38-4654-8626-102f45f4df92","system_id":"levelo_inurba_marseille","lat":43.302759,"lon":5.400793,"is_reserved":false,"is_disabled":false,"rental_uris":{"android":"levelo://app?vid=a82828d8-9b38-4654-8626-102f45f4df92","ios":"levelo://app?vid=a82828d8-9b38-4654-8626-102f45f4df92"},"vehicle_type_id":"4","last_reported":1692581880,"current_range_meters":31200,"station_id":"ce4bgvh2rcd13ifvqcs0","pricing_plan_id":"free"},{"bike_id":"0174ff51-c69a-4d81-a216-7ddcd67ea9b1","system_id":"levelo_inurba_marseille","lat":43.302759,"lon":5.400793,"is_reserved":false,"is_disabled":false,"rental_uris":{"android":"levelo://app?vid=0174ff51-c69a-4d81-a216-7ddcd67ea9b1","ios":"levelo://app?vid=0174ff51-c69a-4d81-a216-7ddcd67ea9b1"},"vehicle_type_id":"4","last_reported":1692581880,"current_range_meters":31200,"station_id":"ce4bgvh2rcd13ifvqcs0","pricing_plan_id":"free"},{"bike_id":"4462f763-0955-4f06-b687-d81eed8a744b","system_id":"levelo_inurba_marseille","lat":43.302759,"lon":5.400793,"is_reserved":false,"is_disabled":false,"rental_uris":{"android":"levelo://app?vid=4462f763-0955-4f06-b687-d81eed8a744b","ios":"levelo://app?vid=4462f763-0955-4f06-b687-d81eed8a744b"},"vehicle_type_id":"4","last_reported":1692581880,"current_range_meters":31200,"station_id":"ce4bgvh2rcd13ifvqcs0","pricing_plan_id":"free"},{"bike_id":"8f1ed0a6-01aa-4a87-a819-76ea66250633","system_id":"levelo_inurba_marseille","lat":43.302759,"lon":5.400793,"is_reserved":false,"is_disabled":false,"rental_uris":{"android":"levelo://app?vid=8f1ed0a6-01aa-4a87-a819-76ea66250633","ios":"levelo://app?vid=8f1ed0a6-01aa-4a87-a819-76ea66250633"},"vehicle_type_id":"4","last_reported":1692581880,"current_range_meters":0,"station_id":"ce4bgvh2rcd13ifvqcs0","pricing_plan_id":"free"},{"bike_id":"87966a9f-e955-4b65-b515-7c6a3c4f0d11","system_id":"levelo_inurba_marseille","lat":43.302759,"lon":5.400793,"is_reserved":false,"is_disabled":false,"rental_uris":{"android":"levelo://app?vid=87966a9f-e955-4b65-b515-7c6a3c4f0d11","ios":"levelo://app?vid=87966a9f-e955-4b65-b515-7c6a3c4f0d11"},"vehicle_type_id":"4","last_reported":1692581880,"current_range_meters":30800,"station_id":"ce4bgvh2rcd13ifvqcs0","pricing_plan_id":"free"},{"bike_id":"2fb55280-5710-47a9-9131-24d3176fa6b2","system_id":"levelo_inurba_marseille","lat":43.302759,"lon":5.400793,"is_reserved":false,"is_disabled":false,"rental_uris":{"android":"levelo://app?vid=2fb55280-5710-47a9-9131-24d3176fa6b2","ios":"levelo://app?vid=2fb55280-5710-47a9-9131-24d3176fa6b2"},"vehicle_type_id":"4","last_reported":1692581880,"current_range_meters":19600,"station_id":"ce4bgvh2rcd13ifvqcs0","pricing_plan_id":"free"},{"bike_id":"ec6d1909-eeec-4cf0-a44b-033d68343f63","system_id":"levelo_inurba_marseille","lat":43.28614,"lon":5.3706,"is_reserved":false,"is_disabled":false,"rental_uris":{"android":"levelo://app?vid=ec6d1909-eeec-4cf0-a44b-033d68343f63","ios":"levelo://app?vid=ec6d1909-eeec-4cf0-a44b-033d68343f63"},"vehicle_type_id":"4","last_reported":1692581880,"current_range_meters":14800,"station_id":"ce4bht12rcd13ifvqi60","pricing_plan_id":"free"},{"bike_id":"9c955510-951b-424b-9e06-79255dd619d8","system_id":"levelo_inurba_marseille","lat":43.302759,"lon":5.400793,"is_reserved":false,"is_disabled":false,"rental_uris":{"android":"levelo://app?vid=9c955510-951b-424b-9e06-79255dd619d8","ios":"levelo://app?vid=9c955510-951b-424b-9e06-79255dd619d8"},"vehicle_type_id":"4","last_reported":1692581880,"current_range_meters":31200,"station_id":"ce4bgvh2rcd13ifvqcs0","pricing_plan_id":"free"},{"bike_id":"5219f043-9289-42d9-8317-37aeeb0a2f11","system_id":"levelo_inurba_marseille","lat":43.2861,"lon":5.37062,"is_reserved":false,"is_disabled":false,"rental_uris":{"android":"levelo://app?vid=5219f043-9289-42d9-8317-37aeeb0a2f11","ios":"levelo://app?vid=5219f043-9289-42d9-8317-37aeeb0a2f11"},"vehicle_type_id":"4","last_reported":1692581880,"current_range_meters":5200,"station_id":"ce4bht12rcd13ifvqi60","pricing_plan_id":"free"},{"bike_id":"11d9307b-6b00-46f1-a235-37dd238df970","system_id":"levelo_inurba_marseille","lat":43.2861,"lon":5.37068,"is_reserved":false,"is_disabled":false,"rental_uris":{"android":"levelo://app?vid=11d9307b-6b00-46f1-a235-37dd238df970","ios":"levelo://app?vid=11d9307b-6b00-46f1-a235-37dd238df970"},"vehicle_type_id":"4","last_reported":1692581880,"current_range_meters":15200,"station_id":"ce4bht12rcd13ifvqi60","pricing_plan_id":"free"},{"bike_id":"b3ea07d1-3303-43ef-8075-98059fcaa4ea","system_id":"levelo_inurba_marseille","lat":43.316517,"lon":5.404375,"is_reserved":false,"is_disabled":false,"rental_uris":{"android":"levelo://app?vid=b3ea07d1-3303-43ef-8075-98059fcaa4ea","ios":"levelo://app?vid=b3ea07d1-3303-43ef-8075-98059fcaa4ea"},"vehicle_type_id":"4","last_reported":1692581880,"current_range_meters":31200,"station_id":"ce4bh012rcd13ifvqd00","pricing_plan_id":"free"},{"bike_id":"e7216469-73d9-4f6c-9e2b-e427467d81b1","system_id":"levelo_inurba_marseille","lat":43.316517,"lon":5.404375,"is_reserved":false,"is_disabled":false,"rental_uris":{"android":"levelo://app?vid=e7216469-73d9-4f6c-9e2b-e427467d81b1","ios":"levelo://app?vid=e7216469-73d9-4f6c-9e2b-e427467d81b1"},"vehicle_type_id":"4","last_reported":1692581880,"current_range_meters":31200,"station_id":"ce4bh012rcd13ifvqd00","pricing_plan_id":"free"},{"bike_id":"cd12af34-545e-4336-9199-d60028070528","system_id":"levelo_inurba_marseille","lat":43.31641,"lon":5.40436,"is_reserved":false,"is_disabled":false,"rental_uris":{"android":"levelo://app?vid=cd12af34-545e-4336-9199-d60028070528","ios":"levelo://app?vid=cd12af34-545e-4336-9199-d60028070528"},"vehicle_type_id":"4","last_reported":1692581880,"current_range_meters":19600,"station_id":"ce4bh012rcd13ifvqd00","pricing_plan_id":"free"},{"bike_id":"23a231cb-7413-4292-abd1-305ea6c8fb20","system_id":"levelo_inurba_marseille","lat":43.316517,"lon":5.404375,"is_reserved":false,"is_disabled":false,"rental_uris":{"android":"levelo://app?vid=23a231cb-7413-4292-abd1-305ea6c8fb20","ios":"levelo://app?vid=23a231cb-7413-4292-abd1-305ea6c8fb20"},"vehicle_type_id":"4","last_reported":1692581880,"current_range_meters":17600,"station_id":"ce4bh012rcd13ifvqd00","pricing_plan_id":"free"},{"bike_id":"7da9e437-1e79-4b5f-9ab0-65254ac17dd7","system_id":"levelo_inurba_marseille","lat":43.31649,"lon":5.40441,"is_reserved":false,"is_disabled":false,"rental_uris":{"android":"levelo://app?vid=7da9e437-1e79-4b5f-9ab0-65254ac17dd7","ios":"levelo://app?vid=7da9e437-1e79-4b5f-9ab0-65254ac17dd7"},"vehicle_type_id":"4","last_reported":1692581880,"current_range_meters":19200,"station_id":"ce4bh012rcd13ifvqd00","pricing_plan_id":"free"},{"bike_id":"a7ea2cc5-016c-4c75-b37b-d6c4792fb8f6","system_id":"levelo_inurba_marseille","lat":43.31646,"lon":5.40443,"is_reserved":false,"is_disabled":false,"rental_uris":{"android":"levelo://app?vid=a7ea2cc5-016c-4c75-b37b-d6c4792fb8f6","ios":"levelo://app?vid=a7ea2cc5-016c-4c75-b37b-d6c4792fb8f6"},"vehicle_type_id":"4","last_reported":1692581880,"current_range_meters":31200,"station_id":"ce4bh012rcd13ifvqd00","pricing_plan_id":"free"},{"bike_id":"baa476d6-7089-4cbb-a000-c513ae936a5c","system_id":"levelo_inurba_marseille","lat":43.31642,"lon":5.40444,"is_reserved":false,"is_disabled":false,"rental_uris":{"android":"levelo://app?vid=baa476d6-7089-4cbb-a000-c513ae936a5c","ios":"levelo://app?vid=baa476d6-7089-4cbb-a000-c513ae936a5c"},"vehicle_type_id":"4","last_reported":1692581880,"current_range_meters":31200,"station_id":"ce4bh012rcd13ifvqd00","pricing_plan_id":"free"},{"bike_id":"16739fe0-b133-4b65-a7a1-b69521c121ff","system_id":"levelo_inurba_marseille","lat":43.284538,"lon":5.358657,"is_reserved":false,"is_disabled":false,"rental_uris":{"android":"levelo://app?vid=16739fe0-b133-4b65-a7a1-b69521c121ff","ios":"levelo://app?vid=16739fe0-b133-4b65-a7a1-b69521c121ff"},"vehicle_type_id":"4","last_reported":1692581880,"current_range_meters":8800,"station_id":"ce4bhah2rcd13ifvqei0","pricing_plan_id":"free"},{"bike_id":"b0edcc80-df2d-4056-a9df-f6d15fb2f79d","system_id":"levelo_inurba_marseille","lat":43.284538,"lon":5.358657,"is_reserved":false,"is_disabled":false,"rental_uris":{"android":"levelo://app?vid=b0edcc80-df2d-4056-a9df-f6d15fb2f79d","ios":"levelo://app?vid=b0edcc80-df2d-4056-a9df-f6d15fb2f79d"},"vehicle_type_id":"4","last_reported":1692581880,"current_range_meters":16400,"station_id":"ce4bhah2rcd13ifvqei0","pricing_plan_id":"free"},{"bike_id":"fcb2064c-0b58-4020-9e9f-3ec1d23b6143","system_id":"levelo_inurba_marseille","lat":43.284534,"lon":5.358662,"is_reserved":false,"is_disabled":false,"rental_uris":{"android":"levelo://app?vid=fcb2064c-0b58-4020-9e9f-3ec1d23b6143","ios":"levelo://app?vid=fcb2064c-0b58-4020-9e9f-3ec1d23b6143"},"vehicle_type_id":"4","last_reported":1692581880,"current_range_meters":18400,"station_id":"ce4bhah2rcd13ifvqei0","pricing_plan_id":"free"},{"bike_id":"d90cef20-fc2f-4399-99f7-380e23500f9c","system_id":"levelo_inurba_marseille","lat":43.294314,"lon":5.397498,"is_reserved":false,"is_disabled":false,"rental_uris":{"android":"levelo://app?vid=d90cef20-fc2f-4399-99f7-380e23500f9c","ios":"levelo://app?vid=d90cef20-fc2f-4399-99f7-380e23500f9c"},"vehicle_type_id":"4","last_reported":1692581880,"current_range_meters":17200,"station_id":"ce4bh3h2rcd13ifvqdo0","pricing_plan_id":"free"},{"bike_id":"9ec31f2e-f3d5-4672-86ef-eea700eb490d","system_id":"levelo_inurba_marseille","lat":43.28619,"lon":5.35103,"is_reserved":false,"is_disabled":false,"rental_uris":{"android":"levelo://app?vid=9ec31f2e-f3d5-4672-86ef-eea700eb490d","ios":"levelo://app?vid=9ec31f2e-f3d5-4672-86ef-eea700eb490d"},"vehicle_type_id":"4","last_reported":1692581880,"current_range_meters":31200,"station_id":"ce4bhch2rcd13ifvqeug","pricing_plan_id":"free"},{"bike_id":"35eec3a1-aa54-4990-8eb4-78e6c0dd24d0","system_id":"levelo_inurba_marseille","lat":43.28618,"lon":5.35097,"is_reserved":false,"is_disabled":false,"rental_uris":{"android":"levelo://app?vid=35eec3a1-aa54-4990-8eb4-78e6c0dd24d0","ios":"levelo://app?vid=35eec3a1-aa54-4990-8eb4-78e6c0dd24d0"},"vehicle_type_id":"4","last_reported":1692581880,"current_range_meters":26400,"station_id":"ce4bhch2rcd13ifvqeug","pricing_plan_id":"free"},{"bike_id":"cb9cefe3-93d3-471a-8c55-e8a1e9e2f2bd","system_id":"levelo_inurba_marseille","lat":43.28615,"lon":5.35105,"is_reserved":false,"is_disabled":false,"rental_uris":{"android":"levelo://app?vid=cb9cefe3-93d3-471a-8c55-e8a1e9e2f2bd","ios":"levelo://app?vid=cb9cefe3-93d3-471a-8c55-e8a1e9e2f2bd"},"vehicle_type_id":"4","last_reported":1692581880,"current_range_meters":31200,"station_id":"ce4bhch2rcd13ifvqeug","pricing_plan_id":"free"},{"bike_id":"a2c32cf1-b704-441b-8d27-e5eddf289748","system_id":"levelo_inurba_marseille","lat":43.28616,"lon":5.35101,"is_reserved":false,"is_disabled":false,"rental_uris":{"android":"levelo://app?vid=a2c32cf1-b704-441b-8d27-e5eddf289748","ios":"levelo://app?vid=a2c32cf1-b704-441b-8d27-e5eddf289748"},"vehicle_type_id":"4","last_reported":1692581880,"current_range_meters":31200,"station_id":"ce4bhch2rcd13ifvqeug","pricing_plan_id":"free"},{"bike_id":"5fdede8c-93b7-4cc9-8ce6-c0921960be1e","system_id":"levelo_inurba_marseille","lat":43.28613,"lon":5.35108,"is_reserved":false,"is_disabled":false,"rental_uris":{"android":"levelo://app?vid=5fdede8c-93b7-4cc9-8ce6-c0921960be1e","ios":"levelo://app?vid=5fdede8c-93b7-4cc9-8ce6-c0921960be1e"},"vehicle_type_id":"4","last_reported":1692581880,"current_range_meters":21600,"station_id":"ce4bhch2rcd13ifvqeug","pricing_plan_id":"free"},{"bike_id":"30e4980c-f729-43a7-b8e4-96dad2889bdc","system_id":"levelo_inurba_marseille","lat":43.285856,"lon":5.350771,"is_reserved":false,"is_disabled":false,"rental_uris":{"android":"levelo://app?vid=30e4980c-f729-43a7-b8e4-96dad2889bdc","ios":"levelo://app?vid=30e4980c-f729-43a7-b8e4-96dad2889bdc"},"vehicle_type_id":"4","last_reported":1692581880,"current_range_meters":28000,"station_id":"ce4bhch2rcd13ifvqeug","pricing_plan_id":"free"},{"bike_id":"cc361827-92bc-4d4a-a95a-980aaef04c15","system_id":"levelo_inurba_marseille","lat":43.285848,"lon":5.350787,"is_reserved":false,"is_disabled":false,"rental_uris":{"android":"levelo://app?vid=cc361827-92bc-4d4a-a95a-980aaef04c15","ios":"levelo://app?vid=cc361827-92bc-4d4a-a95a-980aaef04c15"},"vehicle_type_id":"4","last_reported":1692581880,"current_range_meters":31200,"station_id":"ce4bhch2rcd13ifvqeug","pricing_plan_id":"free"},{"bike_id":"890110a5-7c66-4457-8c91-a5348d7aea66","system_id":"levelo_inurba_marseille","lat":43.295713,"lon":5.399639,"is_reserved":false,"is_disabled":false,"rental_uris":{"android":"levelo://app?vid=890110a5-7c66-4457-8c91-a5348d7aea66","ios":"levelo://app?vid=890110a5-7c66-4457-8c91-a5348d7aea66"},"vehicle_type_id":"4","last_reported":1692581880,"current_range_meters":20800,"station_id":"ce4bh312rcd13ifvqdj0","pricing_plan_id":"free"},{"bike_id":"2363d3b5-6c15-401a-a59c-ee80bd4af927","system_id":"levelo_inurba_marseille","lat":43.28415,"lon":5.37522,"is_reserved":false,"is_disabled":false,"rental_uris":{"android":"levelo://app?vid=2363d3b5-6c15-401a-a59c-ee80bd4af927","ios":"levelo://app?vid=2363d3b5-6c15-401a-a59c-ee80bd4af927"},"vehicle_type_id":"4","last_reported":1692581880,"current_range_meters":14800,"station_id":"ce4bh412rcd13ifvqds0","pricing_plan_id":"free"},{"bike_id":"6b70f056-4a79-4503-8633-ac3e42b48c81","system_id":"levelo_inurba_marseille","lat":43.286595,"lon":5.386795,"is_reserved":false,"is_disabled":false,"rental_uris":{"android":"levelo://app?vid=6b70f056-4a79-4503-8633-ac3e42b48c81","ios":"levelo://app?vid=6b70f056-4a79-4503-8633-ac3e42b48c81"},"vehicle_type_id":"4","last_reported":1692581880,"current_range_meters":4400,"station_id":"ce4bh492rcd13ifvqdug","pricing_plan_id":"free"},{"bike_id":"afa1634b-771d-4b75-869c-d55bc59cb071","system_id":"levelo_inurba_marseille","lat":43.286595,"lon":5.386795,"is_reserved":false,"is_disabled":false,"rental_uris":{"android":"levelo://app?vid=afa1634b-771d-4b75-869c-d55bc59cb071","ios":"levelo://app?vid=afa1634b-771d-4b75-869c-d55bc59cb071"},"vehicle_type_id":"4","last_reported":1692581880,"current_range_meters":13600,"station_id":"ce4bh492rcd13ifvqdug","pricing_plan_id":"free"},{"bike_id":"79ae07f7-3d9b-456b-927e-8e880eafedba","system_id":"levelo_inurba_marseille","lat":43.32551,"lon":5.40419,"is_reserved":false,"is_disabled":false,"rental_uris":{"android":"levelo://app?vid=79ae07f7-3d9b-456b-927e-8e880eafedba","ios":"levelo://app?vid=79ae07f7-3d9b-456b-927e-8e880eafedba"},"vehicle_type_id":"4","last_reported":1692581880,"current_range_meters":2400,"station_id":"","pricing_plan_id":"free"},{"bike_id":"67fb4470-fe9e-4855-9bae-f06ceb57960c","system_id":"levelo_inurba_marseille","lat":43.304274,"lon":5.397513,"is_reserved":false,"is_disabled":false,"rental_uris":{"android":"levelo://app?vid=67fb4470-fe9e-4855-9bae-f06ceb57960c","ios":"levelo://app?vid=67fb4470-fe9e-4855-9bae-f06ceb57960c"},"vehicle_type_id":"4","last_reported":1692581880,"current_range_meters":4400,"station_id":"ce4bh092rcd13ifvqd20","pricing_plan_id":"free"},