{"last_updated":1728922237,"ttl":60,"version":"2.2","data":{"bikes":[{"bike_id":"10530386-7ea2-4630-9cfd-fe14c55cdb58","system_id":"levelo_inurba_marseille","lat":43.31763,"lon":5.39019,"is_reserved":false,"is_disabled":false,"rental_uris":{"android":"levelo://app?vid=10530386-7ea2-4630-9cfd-fe14c55cdb58","ios":"levelo://app?vid=10530386-7ea2-4630-9cfd-fe14c55cdb58"},"vehicle_type_id":"4","last_reported":1728922237,"current_range_meters":12000,"station_id":"ce4bhqp2rcd13ifvqhng","pricing_plan_id":"cebpf4jnsgd1na2vs0mg"},{"bike_id":"cf4cabc2-1787-4d02-a606-03a61104119e","system_id":"levelo_inurba_marseille","lat":43.31329,"lon":5.39693,"is_reserved":false,"is_disabled":false,"rental_uris":{"android":"levelo://app?vid=cf4cabc2-1787-4d02-a606-03a61104119e","ios":"levelo://app?vid=cf4cabc2-1787-4d02-a606-03a61104119e"},"vehicle_type_id":"4","last_reported":1728922237,"current_range_meters":30800,"station_id":"ce4bgvp2rcd13ifvqcu0","pricing_plan_id":"cebpf4jnsgd1na2vs0mg"},{"bike_id":"f76b5b59-4178-40da-bb28-3bd9170cff07","system_id":"levelo_inurba_marseille","lat":43.2998,"lon":5.37184,"is_reserved":false,"is_disabled":false,"rental_uris":{"android":"levelo://app?vid=f76b5b59-4178-40da-bb28-3bd9170cff07","ios":"levelo://app?vid=f76b5b59-4178-40da-bb28-3bd9170cff07"},"vehicle_type_id":"4","last_reported":1728922237,"current_range_meters":36400,"station_id":"ce4bgr92rcd13ifvqc7g","pricing_plan_id":"cebpf4jnsgd1na2vs0mg"},{"bike_id":"047308e0-726c-45e2-b7b8-d4f6d434bb7e","system_id":"levelo_inurba_marseille","lat":43.26551,"lon":5.37286,"is_reserved":false,"is_disabled":false,"rental_uris":{"android":"levelo://app?vid=047308e0-726c-45e2-b7b8-d4f6d434bb7e","ios":"levelo://app?vid=047308e0-726c-45e2-b7b8-d4f6d434bb7e"},"vehicle_type_id":"4","last_reported":1728922237,"current_range_meters":22000,"station_id":"ce4bhg12rcd13ifvqf70","pricing_plan_id":"cebpf4jnsgd1na2vs0mg"},{"bike_id":"ab06f5b3-3c08-4bb2-ab1c-a3aa34c68d36","system_id":"levelo_inurba_marseille","lat":43.25084,"lon":5.39528,"is_reserved":false,"is_disabled":false,"rental_uris":{"android":"levelo://app?vid=ab06f5b3-3c08-4bb2-ab1c-a3aa34c68d36","ios":"levelo://app?vid=ab06f5b3-3c08-4bb2-ab1c-a3aa34c68d36"},"vehicle_type_id":"4","last_reported":1728922237,"current_range_meters":5600,"station_id":"ce4bhm12rcd13ifvqgkg","pricing_plan_id":"cebpf4jnsgd1na2vs0mg"},{"bike_id":"6c769316-75e3-4eba-8bca-7dffbdb7e41c","system_id":"levelo_inurba_marseille","lat":43.28459,"lon":5.35894,"is_reserved":false,"is_disabled":false,"rental_uris":{"android":"levelo://app?vid=6c769316-75e3-4eba-8bca-7dffbdb7e41c","ios":"levelo://app?vid=6c769316-75e3-4eba-8bca-7dffbdb7e41c"},"vehicle_type_id":"4","last_reported":1728922237,"current_range_meters":3600,"station_id":"ce4bhah2rcd13ifvqei0","pricing_plan_id":"cebpf4jnsgd1na2vs0mg"},{"bike_id":"d3c5327c-67ff-473e-a0a9-009754ddf8d5","system_id":"levelo_inurba_marseille","lat":43.2944,"lon":5.39762,"is_reserved":false,"is_disabled":false,"rental_uris":{"android":"levelo://app?vid=d3c5327c-67ff-473e-a0a9-009754ddf8d5","ios":"levelo://app?vid=d3c5327c-67ff-473e-a0a9-009754ddf8d5"},"vehicle_type_id":"4","last_reported":1728922237,"current_range_meters":21600,"station_id":"ce4bh3h2rcd13ifvqdo0","pricing_plan_id":"cebpf4jnsgd1na2vs0mg"},{"bike_id":"cd5809ae-e82d-4e16-a14d-a6a65afe9e85","system_id":"levelo_inurba_marseille","lat":43.32284,"lon":5.38271,"is_reserved":false,"is_disabled":false,"rental_uris":{"android":"levelo://app?vid=cd5809ae-e82d-4e16-a14d-a6a65afe9e85","ios":"levelo://app?vid=cd5809ae-e82d-4e16-a14d-a6a65afe9e85"},"vehicle_type_id":"4","last_reported":1728922237,"current_range_meters":8800,"station_id":"ce4bhr12rcd13ifvqhqg","pricing_plan_id":"cebpf4jnsgd1na2vs0mg"},{"bike_id":"9c05c9ab-1f49-41b7-844d-af6b0c0d94fe","system_id":"levelo_inurba_marseille","lat":43.23187,"lon":5.39989,"is_reserved":false,"is_disabled":false,"rental_uris":{"android":"levelo://app?vid=9c05c9ab-1f49-41b7-844d-af6b0c0d94fe","ios":"levelo://app?vid=9c05c9ab-1f49-41b7-844d-af6b0c0d94fe"},"vehicle_type_id":"4","last_reported":1728922237,"current_range_meters":8400,"station_id":"ce4bhn12rcd13ifvqgqg","pricing_plan_id":"cebpf4jnsgd1na2vs0mg"},{"bike_id":"efd53070-e456-403a-b095-8d425d861dea","system_id":"levelo_inurba_marseille","lat":43.31991,"lon":5.38166,"is_reserved":false,"is_disabled":false,"rental_uris":{"android":"levelo://app?vid=efd53070-e456-403a-b095-8d425d861dea","ios":"levelo://app?vid=efd53070-e456-403a-b095-8d425d861dea"},"vehicle_type_id":"4","last_reported":1728922237,"current_range_meters":25600,"station_id":"ce4bhr12rcd13ifvqhpg","pricing_plan_id":"cebpf4jnsgd1na2vs0mg"},{"bike_id":"109e91f9-344e-4993-ac3c-822d7065e373","system_id":"levelo_inurba_marseille","lat":43.2954,"lon":5.39384,"is_reserved":false,"is_disabled":false,"rental_uris":{"android":"levelo://app?vid=109e91f9-344e-4993-ac3c-822d7065e373","ios":"levelo://app?vid=109e91f9-344e-4993-ac3c-822d7065e373"},"vehicle_type_id":"4","last_reported":1728922237,"current_range_meters":13600,"station_id":"ce4bh292rcd13ifvqdf0","pricing_plan_id":"cebpf4jnsgd1na2vs0mg"},{"bike_id":"be134651-89ed-4b2d-a340-739e8b66329b","system_id":"levelo_inurba_marseille","lat":43.31074,"lon":5.38355,"is_reserved":false,"is_disabled":false,"rental_uris":{"android":"levelo://app?vid=be134651-89ed-4b2d-a340-739e8b66329b","ios":"levelo://app?vid=be134651-89ed-4b2d-a340-739e8b66329b"},"vehicle_type_id":"4","last_reported":1728922237,"current_range_meters":8800,"station_id":"ce4bgv92rcd13ifvqcr0","pricing_plan_id":"cebpf4jnsgd1na2vs0mg"},{"bike_id":"a57283f6-57f5-42ec-94e3-a9af31d180f1","system_id":"levelo_inurba_marseille","lat":43.29536,"lon":5.39035,"is_reserved":false,"is_disabled":false,"rental_uris":{"android":"levelo://app?vid=a57283f6-57f5-42ec-94e3-a9af31d180f1","ios":"levelo://app?vid=a57283f6-57f5-42ec-94e3-a9af31d180f1"},"vehicle_type_id":"4","last_reported":1728922237,"current_range_meters":18000,"station_id":"ce4bh3p2rcd13ifvqdp0","pricing_plan_id":"cebpf4jnsgd1na2vs0mg"},{"bike_id":"d166bc6b-652b-4c77-b931-1a4d0627cf6f","system_id":"levelo_inurba_marseille","lat":43.29896,"lon":5.43668,"is_reserved":false,"is_disabled":false,"rental_uris":{"android":"levelo://app?vid=d166bc6b-652b-4c77-b931-1a4d0627cf6f","ios":"levelo://app?vid=d166bc6b-652b-4c77-b931-1a4d0627cf6f"},"vehicle_type_id":"4","last_reported":1728922237,"current_range_meters":38800,"station_id":"ce4bhpp2rcd13ifvqhfg","pricing_plan_id":"cebpf4jnsgd1na2vs0mg"},{"bike_id":"4fb899fb-c7f7-4299-8856-d588065fcc96","system_id":"levelo_inurba_marseille","lat":43.31726,"lon":5.42411,"is_reserved":false,"is_disabled":false,"rental_uris":{"android":"levelo://app?vid=4fb899fb-c7f7-4299-8856-d588065fcc96","ios":"levelo://app?vid=4fb899fb-c7f7-4299-8856-d588065fcc96"},"vehicle_type_id":"4","last_reported":1728922237,"current_range_meters":37600,"station_id":"ce4bhp92rcd13ifvqhbg","pricing_plan_id":"cebpf4jnsgd1na2vs0mg"},{"bike_id":"59ff1a3a-a525-4da9-8a08-4934039cd3d8","system_id":"levelo_inurba_marseille","lat":43.30537,"lon":5.36558,"is_reserved":false,"is_disabled":false,"rental_uris":{"android":"levelo://app?vid=59ff1a3a-a525-4da9-8a08-4934039cd3d8","ios":"levelo://app?vid=59ff1a3a-a525-4da9-8a08-4934039cd3d8"},"vehicle_type_id":"4","last_reported":1728922237,"current_range_meters":6400,"station_id":"ce4bgs12rcd13ifvqcag","pricing_plan_id":"cebpf4jnsgd1na2vs0mg"},{"bike_id":"59bdfcb7-2908-4bcd-90f4-4b455e199711","system_id":"levelo_inurba_marseille","lat":43.27997,"lon":5.40012,"is_reserved":false,"is_disabled":false,"rental_uris":{"android":"levelo://app?vid=59bdfcb7-2908-4bcd-90f4-4b455e199711","ios":"levelo://app?vid=59bdfcb7-2908-4bcd-90f4-4b455e199711"},"vehicle_type_id":"4","last_reported":1728922237,"current_range_meters":12000,"station_id":"ce4bho92rcd13ifvqh4g","pricing_plan_id":"cebpf4jnsgd1na2vs0mg"},{"bike_id":"26428b1f-d06c-45f2-9913-ec73f4540388","system_id":"levelo_inurba_marseille","lat":43.26929,"lon":5.38916,"is_reserved":false,"is_disabled":false,"rental_uris":{"android":"levelo://app?vid=26428b1f-d06c-45f2-9913-ec73f4540388","ios":"levelo://app?vid=26428b1f-d06c-45f2-9913-ec73f4540388"},"vehicle_type_id":"4","last_reported":1728922237,"current_range_meters":38400,"station_id":"ce4bhhh2rcd13ifvqfl0","pricing_plan_id":"cebpf4jnsgd1na2vs0mg"},{"bike_id":"1c9343e4-7b78-402e-b1fe-6599c269887e","system_id":"levelo_inurba_marseille","lat":43.314515,"lon":5.37384,"is_reserved":false,"is_disabled":false,"rental_uris":{"android":"levelo://app?vid=1c9343e4-7b78-402e-b1fe-6599c269887e","ios":"levelo://app?vid=1c9343e4-7b78-402e-b1fe-6599c269887e"},"vehicle_type_id":"4","last_reported":1728922237,"current_range_meters":27200,"station_id":"","pricing_plan_id":"cebpf4jnsgd1na2vs0mg"},{"bike_id":"7fa2cdb2-f6bb-4d29-9011-9528209a8569","system_id":"levelo_inurba_marseille","lat":43.29991,"lon":5.37189,"is_reserved":false,"is_disabled":false,"rental_uris":{"android":"levelo://app?vid=7fa2cdb2-f6bb-4d29-9011-9528209a8569","ios":"levelo://app?vid=7fa2cdb2-f6bb-4d29-9011-9528209a8569"},"vehicle_type_id":"4","last_reported":1728922237,"current_range_meters":39200,"station_id":"ce4bgr92rcd13ifvqc7g","pricing_plan_id":"cebpf4jnsgd1na2vs0mg"},{"bike_id":"99f2651c-126b-4ef7-b864-8a0fcbd512a9","system_id":"levelo_inurba_marseille","lat":43.30886,"lon":5.372,"is_reserved":false,"is_disabled":false,"rental_uris":{"android":"levelo://app?vid=99f2651c-126b-4ef7-b864-8a0fcbd512a9","ios":"levelo://app?vid=99f2651c-126b-4ef7-b864-8a0fcbd512a9"},"vehicle_type_id":"4","last_reported":1728922237,"current_range_meters":10800,"station_id":"ce4bguh2rcd13ifvqckg","pricing_plan_id":"cebpf4jnsgd1na2vs0mg"},{"bike_id":"fabcec22-79ff-48f2-a947-a9cea546ec66","system_id":"levelo_inurba_marseille","lat":43.28864,"lon":5.37644,"is_reserved":false,"is_disabled":false,"rental_uris":{"android":"levelo://app?vid=fabcec22-79ff-48f2-a947-a9cea546ec66","ios":"levelo://app?vid=fabcec22-79ff-48f2-a947-a9cea546ec66"},"vehicle_type_id":"4","last_reported":1728922237,"current_range_meters":8800,"station_id":"ce4bh3p2rcd13ifvqdq0","pricing_plan_id":"cebpf4jnsgd1na2vs0mg"},{"bike_id":"5fe20323-0016-4ce7-9d5f-2acc9cf04e86","system_id":"levelo_inurba_marseille","lat":43.31726,"lon":5.37158,"is_reserved":false,"is_disabled":false,"rental_uris":{"android":"levelo://app?vid=5fe20323-0016-4ce7-9d5f-2acc9cf04e86","ios":"levelo://app?vid=5fe20323-0016-4ce7-9d5f-2acc9cf04e86"},"vehicle_type_id":"4","last_reported":1728922237,"current_range_meters":22000,"station_id":"","pricing_plan_id":"cebpf4jnsgd1na2vs0mg"},{"bike_id":"eaa7840f-45bc-452a-b4d1-86d536fa2d75","system_id":"levelo_inurba_marseille","lat":43.31715,"lon":5.3778,"is_reserved":false,"is_disabled":false,"rental_uris":{"android":"levelo://app?vid=eaa7840f-45bc-452a-b4d1-86d536fa2d75","ios":"levelo://app?vid=eaa7840f-45bc-452a-b4d1-86d536fa2d75"},"vehicle_type_id":"4","last_reported":1728922237,"current_range_meters":33200,"station_id":"ce4bgth2rcd13ifvqch0","pricing_plan_id":"cebpf4jnsgd1na2vs0mg"},{"bike_id":"0e6a845c-427c-4600-834e-0ada8eadf54e","system_id":"levelo_inurba_marseille","lat":43.2844,"lon":5.39187,"is_reserved":false,"is_disabled":false,"rental_uris":{"android":"levelo://app?vid=0e6a845c-427c-4600-834e-0ada8eadf54e","ios":"levelo://app?vid=0e6a845c-427c-4600-834e-0ada8eadf54e"},"vehicle_type_id":"4","last_reported":1728922237,"current_range_meters":4000,"station_id":"ce4bhoh2rcd13ifvqh5g","pricing_plan_id":"cebpf4jnsgd1na2vs0mg"},{"bike_id":"2983c3cb-27e8-4284-a169-68ba0502e2c0","system_id":"levelo_inurba_marseille","lat":43.29534,"lon":5.394,"is_reserved":false,"is_disabled":false,"rental_uris":{"android":"levelo://app?vid=2983c3cb-27e8-4284-a169-68ba0502e2c0","ios":"levelo://app?vid=2983c3cb-27e8-4284-a169-68ba0502e2c0"},"vehicle_type_id":"4","last_reported":1728922237,"current_range_meters":37600,"station_id":"ce4bh292rcd13ifvqdf0","pricing_plan_id":"cebpf4jnsgd1na2vs0mg"},{"bike_id":"d74f15f0-82da-40c1-a93d-cc8378dbde19","system_id":"levelo_inurba_marseille","lat":43.29005,"lon":5.35616,"is_reserved":false,"is_disabled":false,"rental_uris":{"android":"levelo://app?vid=d74f15f0-82da-40c1-a93d-cc8378dbde19","ios":"levelo://app?vid=d74f15f0-82da-40c1-a93d-cc8378dbde19"},"vehicle_type_id":"4","last_reported":1728922237,"current_range_meters":40000,"station_id":"ce4bhb92rcd13ifvqen0","pricing_plan_id":"cebpf4jnsgd1na2vs0mg"},{"bike_id":"e61cb2b9-bee8-4883-ab9f-f57d0e0f8adb","system_id":"levelo_inurba_marseille","lat":43.30327,"lon":5.40436,"is_reserved":false,"is_disabled":false,"rental_uris":{"android":"levelo://app?vid=e61cb2b9-bee8-4883-ab9f-f57d0e0f8adb","ios":"levelo://app?vid=e61cb2b9-bee8-4883-ab9f-f57d0e0f8adb"},"vehicle_type_id":"4","last_reported":1728922237,"current_range_meters":8000,"station_id":"ce4bh012rcd13ifvqd10","pricing_plan_id":"cebpf4jnsgd1na2vs0mg"},{"bike_id":"51a43f96-867e-4ab9-8ec5-999842e38d95","system_id":"levelo_inurba_marseille","lat":43.31071,"lon":5.40092,"is_reserved":false,"is_disabled":false,"rental_uris":{"android":"levelo://app?vid=51a43f96-867e-4ab9-8ec5-999842e38d95","ios":"levelo://app?vid=51a43f96-867e-4ab9-8ec5-999842e38d95"},"vehicle_type_id":"4","last_reported":1728922237,"current_range_meters":24800,"station_id":"","pricing_plan_id":"cebpf4jnsgd1na2vs0mg"},{"bike_id":"16449dfd-04d6-47b8-8c74-f97a3d2dc62b","system_id":"levelo_inurba_marseille","lat":43.28613,"lon":5.35105,"is_reserved":false,"is_disabled":false,"rental_uris":{"android":"levelo://app?vid=16449dfd-04d6-47b8-8c74-f97a3d2dc62b","ios":"levelo://app?vid=16449dfd-04d6-47b8-8c74-f97a3d2dc62b"},"vehicle_type_id":"4","last_reported":1728922237,"current_range_meters":2000,"station_id":"ce4bhch2rcd13ifvqeug","pricing_plan_id":"cebpf4jnsgd1na2vs0mg"},{"bike_id":"a45697b2-4898-41ba-90d3-6a9f746bdec9","system_id":"levelo_inurba_marseille","lat":43.24998,"lon":5.38934,"is_reserved":false,"is_disabled":false,"rental_uris":{"android":"levelo://app?vid=a45697b2-4898-41ba-90d3-6a9f746bdec9","ios":"levelo://app?vid=a45697b2-4898-41ba-90d3-6a9f746bdec9"},"vehicle_type_id":"4","last_reported":1728922237,"current_range_meters":19200,"station_id":"ce4bhgp2rcd13ifvqfd0","pricing_plan_id":"cebpf4jnsgd1na2vs0mg"},{"bike_id":"09a2e575-ef21-47f1-afdd-66b4617de5a0","system_id":"levelo_inurba_marseille","lat":43.28081,"lon":5.39657,"is_reserved":false,"is_disabled":false,"rental_uris":{"android":"levelo://app?vid=09a2e575-ef21-47f1-afdd-66b4617de5a0","ios":"levelo://app?vid=09a2e575-ef21-47f1-afdd-66b4617de5a0"},"vehicle_type_id":"4","last_reported":1728922237,"current_range_meters":39200,"station_id":"ce4bho12rcd13ifvqh2g","pricing_plan_id":"cebpf4jnsgd1na2vs0mg"},{"bike_id":"16289939-be4b-497a-a71c-e4fb3a9aa4ab","system_id":"levelo_inurba_marseille","lat":43.29033,"lon":5.35915,"is_reserved":false,"is_disabled":false,"rental_uris":{"android":"levelo://app?vid=16289939-be4b-497a-a71c-e4fb3a9aa4ab","ios":"levelo://app?vid=16289939-be4b-497a-a71c-e4fb3a9aa4ab"},"vehicle_type_id":"4","last_reported":1728922237,"current_range_meters":27600,"station_id":"ce4bha92rcd13ifvqeg0","pricing_plan_id":"cebpf4jnsgd1na2vs0mg"},{"bike_id":"8eadc69f-1a2d-47cb-9e34-477395472250","system_id":"levelo_inurba_marseille","lat":43.29529,"lon":5.394,"is_reserved":false,"is_disabled":false,"rental_uris":{"android":"levelo://app?vid=8eadc69f-1a2d-47cb-9e34-477395472250","ios":"levelo://app?vid=8eadc69f-1a2d-47cb-9e34-477395472250"},"vehicle_type_id":"4","last_reported":1728922237,"current_range_meters":4400,"station_id":"ce4bh292rcd13ifvqdf0","pricing_plan_id":"cebpf4jnsgd1na2vs0mg"},{"bike_id":"4482dbd3-0d31-4b43-bbd3-5cfbb130291d","system_id":"levelo_inurba_marseille","lat":43.23187,"lon":5.35543,"is_reserved":false,"is_disabled":false,"rental_uris":{"android":"levelo://app?vid=4482dbd3-0d31-4b43-bbd3-5cfbb130291d","ios":"levelo://app?vid=4482dbd3-0d31-4b43-bbd3-5cfbb130291d"},"vehicle_type_id":"4","last_reported":1728922237,"current_range_meters":4800,"station_id":"ce4bhu92rcd13ifvqi70","pricing_plan_id":"cebpf4jnsgd1na2vs0mg"},{"bike_id":"49c2bf3d-c89e-464f-8e49-d92be96c3ec8","system_id":"levelo_inurba_marseille","lat":43.29863,"lon":5.39745,"is_reserved":false,"is_disabled":false,"rental_uris":{"android":"levelo://app?vid=49c2bf3d-c89e-464f-8e49-d92be96c3ec8","ios":"levelo://app?vid=49c2bf3d-c89e-464f-8e49-d92be96c3ec8"},"vehicle_type_id":"4","last_reported":1728922237,"current_range_meters":9200,"station_id":"ce4bh0h2rcd13ifvqd50","pricing_plan_id":"cebpf4jnsgd1na2vs0mg"},{"bike_id":"b4c6280e-1956-49e6-82d5-2d622080fd72","system_id":"levelo_inurba_marseille","lat":43.2924,"lon":5.409,"is_reserved":false,"is_disabled":false,"rental_uris":{"android":"levelo://app?vid=b4c6280e-1956-49e6-82d5-2d622080fd72","ios":"levelo://app?vid=b4c6280e-1956-49e6-82d5-2d622080fd72"},"vehicle_type_id":"4","last_reported":1728922237,"current_range_meters":12000,"station_id":"ce4bh192rcd13ifvqdc0","pricing_plan_id":"cebpf4jnsgd1na2vs0mg"},{"bike_id":"3f2ea7cd-cebf-467a-951f-3a7ae8521edb","system_id":"levelo_inurba_marseille","lat":43.2796,"lon":5.38716,"is_reserved":false,"is_disabled":false,"rental_uris":{"android":"levelo://app?vid=3f2ea7cd-cebf-467a-951f-3a7ae8521edb","ios":"levelo://app?vid=3f2ea7cd-cebf-467a-951f-3a7ae8521edb"},"vehicle_type_id":"4","last_reported":1728922237,"current_range_meters":37600,"station_id":"ce4bhg12rcd13ifvqf80","pricing_plan_id":"cebpf4jnsgd1na2vs0mg"},{"bike_id":"704edb5b-87e9-4623-9c86-1529c103cceb","system_id":"levelo_inurba_marseille","lat":43.267853,"lon":5.394076,"is_reserved":false,"is_disabled":false,"rental_uris":{"android":"levelo://app?vid=704edb5b-87e9-4623-9c86-1529c103cceb","ios":"levelo://app?vid=704edb5b-87e9-4623-9c86-1529c103cceb"},"vehicle_type_id":"4","last_reported":1728922237,"current_range_meters":32000,"station_id":"ce4bhh12rcd13ifvqfg0","pricing_plan_id":"cebpf4jnsgd1na2vs0mg"},{"bike_id":"b178b062-35cd-4f92-91db-f4ae171fe0ea","system_id":"levelo_inurba_marseille","lat":43.292851,"lon":5.368404,"is_reserved":false,"is_disabled":false,"rental_uris":{"android":"levelo://app?vid=b178b062-35cd-4f92-91db-f4ae171fe0ea","ios":"levelo://app?vid=b178b062-35cd-4f92-91db-f4ae171fe0ea"},"vehicle_type_id":"4","last_reported":1728922237,"current_range_meters":14000,"station_id":"","pricing_plan_id":"cebpf4jnsgd1na2vs0mg"},{"bike_id":"5ccc40fc-135e-4a46-8e38-1b0157b782fd","system_id":"levelo_inurba_marseille","lat":43.27613,"lon":5.36106,"is_reserved":false,"is_disabled":false,"rental_uris":{"android":"levelo://app?vid=5ccc40fc-135e-4a46-8e38-1b0157b782fd","ios":"levelo://app?vid=5ccc40fc-135e-4a46-8e38-1b0157b782fd"},"vehicle_type_id":"4","last_reported":1728922237,"current_range_meters":27200,"station_id":"ce4bgj92rcd13ifvqbe0","pricing_plan_id":"cebpf4jnsgd1na2vs0mg"},{"bike_id":"b17bd6a0-4c14-4c8c-96d0-fdc1bec84ba5","system_id":"levelo_inurba_marseille","lat":43.31078,"lon":5.38365,"is_reserved":false,"is_disabled":false,"rental_uris":{"android":"levelo://app?vid=b17bd6a0-4c14-4c8c-96d0-fdc1bec84ba5","ios":"levelo://app?vid=b17bd6a0-4c14-4c8c-96d0-fdc1bec84ba5"},"vehicle_type_id":"4","last_reported":1728922237,"current_range_meters":12800,"station_id":"ce4bgv92rcd13ifvqcr0","pricing_plan_id":"cebpf4jnsgd1na2vs0mg"},{"bike_id":"a0004b86-0108-4a59-8420-8474f739e195","system_id":"levelo_inurba_marseille","lat":43.31758,"lon":5.39012,"is_reserved":false,"is_disabled":false,"rental_uris":{"android":"levelo://app?vid=a0004b86-0108-4a59-8420-8474f739e195","ios":"levelo://app?vid=a0004b86-0108-4a59-8420-8474f739e195"},"vehicle_type_id":"4","last_reported":1728922237,"current_range_meters":38800,"station_id":"ce4bhqp2rcd13ifvqhng","pricing_plan_id":"cebpf4jnsgd1na2vs0mg"},{"bike_id":"c0670d96-b06e-446b-a07e-6b5eeebc59d7","system_id":"levelo_inurba_marseille","lat":43.274948,"lon":5.424466,"is_reserved":false,"is_disabled":false,"rental_uris":{"android":"levelo://app?vid=c0670d96-b06e-446b-a07e-6b5eeebc59d7","ios":"levelo://app?vid=c0670d96-b06e-446b-a07e-6b5eeebc59d7"},"vehicle_type_id":"4","last_reported":1728922237,"current_range_meters":16400,"station_id":"ce4bhn92rcd13ifvqgrg","pricing_plan_id":"cebpf4jnsgd1na2vs0mg"},{"bike_id":"80ea82cb-fdc6-4f40-b9be-6332a9de722d","system_id":"levelo_inurba_marseille","lat":43.23184,"lon":5.39988,"is_reserved":false,"is_disabled":false,"rental_uris":{"android":"levelo://app?vid=80ea82cb-fdc6-4f40-b9be-6332a9de722d","ios":"levelo://app?vid=80ea82cb-fdc6-4f40-b9be-6332a9de722d"},"vehicle_type_id":"4","last_reported":1728922237,"current_range_meters":8400,"station_id":"ce4bhn12rcd13ifvqgqg","pricing_plan_id":"cebpf4jnsgd1na2vs0mg"},{"bike_id":"cc160756-c5be-47df-8986-85e756db12d6","system_id":"levelo_inurba_marseille","lat":43.29647,"lon":5.37258,"is_reserved":false,"is_disabled":false,"rental_uris":{"android":"levelo://app?vid=cc160756-c5be-47df-8986-85e756db12d6","ios":"levelo://app?vid=cc160756-c5be-47df-8986-85e756db12d6"},"vehicle_type_id":"4","last_reported":1728922237,"current_range_meters":10000,"station_id":"ce4bgk12rcd13ifvqbj0","pricing_plan_id":"cebpf4jnsgd1na2vs0mg"},{"bike_id":"6b01f47b-1478-4f30-b272-125f921344cd","system_id":"levelo_inurba_marseille","lat":43.30957,"lon":5.39034,"is_reserved":false,"is_disabled":false,"rental_uris":{"android":"levelo://app?vid=6b01f47b-1478-4f30-b272-125f921344cd","ios":"levelo://app?vid=6b01f47b-1478-4f30-b272-125f921344cd"},"vehicle_type_id":"4","last_reported":1728922237,"current_range_meters":38800,"station_id":"ce4bgup2rcd13ifvqco0","pricing_plan_id":"cebpf4jnsgd1na2vs0mg"},{"bike_id":"a0d3d324-fa7e-4417-aee7-85012ecab44e","system_id":"levelo_inurba_marseille","lat":43.34225,"lon":5.44562,"is_reserved":false,"is_disabled":false,"rental_uris":{"android":"levelo://app?vid=a0d3d324-fa7e-4417-aee7-85012ecab44e","ios":"levelo://app?vid=a0d3d324-fa7e-4417-aee7-85012ecab44e"},"vehicle_type_id":"4","last_reported":1728922237,"current_range_meters":27600,"station_id":"","pricing_plan_id":"cebpf4jnsgd1na2vs0mg"},{"bike_id":"fc7ebb30-0030-4f21-a908-d142ccc3aa2c","system_id":"levelo_inurba_marseille","lat":43.29945,"lon":5.37857,"is_reserved":false,"is_disabled":false,"rental_uris":{"android":"levelo://app?vid=fc7ebb30-0030-4f21-a908-d142ccc3aa2c","ios":"levelo://app?vid=fc7ebb30-0030-4f21-a908-d142ccc3aa2c"},"vehicle_type_id":"4","last_reported":1728922237,"current_range_meters":31200,"station_id":"ce4bgqh2rcd13ifvqc5g","pricing_plan_id":"cebpf4jnsgd1na2vs0mg"},{"bike_id":"2b7e1507-3293-42c7-b21e-b79470cff341","system_id":"levelo_inurba_marseille","lat":43.23155,"lon":5.43699,"is_reserved":false,"is_disabled":false,"rental_uris":{"android":"levelo://app?vid=2b7e1507-3293-42c7-b21e-b79470cff341","ios":"levelo://app?vid=2b7e1507-3293-42c7-b21e-b79470cff341"},"vehicle_type_id":"4","last_reported":1728922237,"current_range_meters":38400,"station_id":"ce4bhmp2rcd13ifvqgog","pricing_plan_id":"cebpf4jnsgd1na2vs0mg"},{"bike_id":"3a6440f7-d8d6-444b-bcb5-c18d16425ed6","system_id":"levelo_inurba_marseille","lat":43.32109,"lon":5.36783,"is_reserved":false,"is_disabled":false,"rental_uris":{"android":"levelo://app?vid=3a6440f7-d8d6-444b-bcb5-c18d16425ed6","ios":"levelo://app?vid=3a6440f7-d8d6-444b-bcb5-c18d16425ed6"},"vehicle_type_id":"4","last_reported":1728922237,"current_range_meters":38800,"station_id":"ce4bhrh2rcd13ifvqhug","pricing_plan_id":"cebpf4jnsgd1na2vs0mg"},{"bike_id":"6bbb8237-ac67-415f-8641-6574e2cf7abb","system_id":"levelo_inurba_marseille","lat":43.28078,"lon":5.39663,"is_reserved":false,"is_disabled":false,"rental_uris":{"android":"levelo://app?vid=6bbb8237-ac67-415f-8641-6574e2cf7abb","ios":"levelo://app?vid=6bbb8237-ac67-415f-8641-6574e2cf7abb"},"vehicle_type_id":"4","last_reported":1728922237,"current_range_meters":23200,"station_id":"ce4bho12rcd13ifvqh2g","pricing_plan_id":"cebpf4jnsgd1na2vs0mg"},{"bike_id":"4a587999-8b2a-48b8-b49a-c2a8754b5fa3","system_id":"levelo_inurba_marseille","lat":43.25717,"lon":5.41115,"is_reserved":false,"is_disabled":false,"rental_uris":{"android":"levelo://app?vid=4a587999-8b2a-48b8-b49a-c2a8754b5fa3","ios":"levelo://app?vid=4a587999-8b2a-48b8-b49a-c2a8754b5fa3"},"vehicle_type_id":"4","last_reported":1728922237,"current_range_meters":20800,"station_id":"ce4bhkp2rcd13ifvqgd0","pricing_plan_id":"cebpf4jnsgd1na2vs0mg"},{"bike_id":"a3380d99-fef4-4492-9f27-c92454ade383","system_id":"levelo_inurba_marseille","lat":43.30905,"lon":5.36843,"is_reserved":false,"is_disabled":false,"rental_uris":{"android":"levelo://app?vid=a3380d99-fef4-4492-9f27-c92454ade383","ios":"levelo://app?vid=a3380d99-fef4-4492-9f27-c92454ade383"},"vehicle_type_id":"4","last_reported":1728922237,"current_range_meters":36400,"station_id":"ce4bgn92rcd13ifvqbvg","pricing_plan_id":"cebpf4jnsgd1na2vs0mg"},{"bike_id":"b711e072-779a-45e4-baf0-19538092ce33","system_id":"levelo_inurba_marseille","lat":43.29795,"lon":5.39349,"is_reserved":false,"is_disabled":false,"rental_uris":{"android":"levelo://app?vid=b711e072-779a-45e4-baf0-19538092ce33","ios":"levelo://app?vid=b711e072-779a-45e4-baf0-19538092ce33"},"vehicle_type_id":"4","last_reported":1728922237,"current_range_meters":22800,"station_id":"chh1huq6cuj3fo74tm60","pricing_plan_id":"cebpf4jnsgd1na2vs0mg"},{"bike_id":"3afb0681-8fbd-47fe-8917-e12bc3cf488b","system_id":"levelo_inurba_marseille","lat":43.33711,"lon":5.39188,"is_reserved":false,"is_disabled":false,"rental_uris":{"android":"levelo://app?vid=3afb0681-8fbd-47fe-8917-e12bc3cf488b","ios":"levelo://app?vid=3afb0681-8fbd-47fe-8917-e12bc3cf488b"},"vehicle_type_id":"4","last_reported":1728922237,"current_range_meters":38800,"station_id":"ce4bhr92rcd13ifvqhsg","pricing_plan_id":"cebpf4jnsgd1na2vs0mg"},{"bike_id":"f7017c61-a5f0-4e1b-85d1-9680b6954a45","system_id":"levelo_inurba_marseille","lat":43.30544,"lon":5.36541,"is_reserved":false,"is_disabled":false,"rental_uris":{"android":"levelo://app?vid=f7017c61-a5f0-4e1b-85d1-9680b6954a45","ios":"levelo://app?vid=f7017c61-a5f0-4e1b-85d1-9680b6954a45"},"vehicle_type_id":"4","last_reported":1728922237,"current_range_meters":38000,"station_id":"ce4bgs12rcd13ifvqcag","pricing_plan_id":"cebpf4jnsgd1na2vs0mg"},{"bike_id":"a732941c-85bc-42aa-bd93-04ae552d110c","system_id":"levelo_inurba_marseille","lat":43.30807,"lon":5.43526,"is_reserved":false,"is_disabled":false,"rental_uris":{"android":"levelo://app?vid=a732941c-85bc-42aa-bd93-04ae552d110c","ios":"levelo://app?vid=a732941c-85bc-42aa-bd93-04ae552d110c"},"vehicle_type_id":"4","last_reported":1728922237,"current_range_meters":8400,"station_id":"ce4bhph2rcd13ifvqheg","pricing_plan_id":"cebpf4jnsgd1na2vs0mg"},{"bike_id":"268ca709-f24d-459f-a29f-19ed3bd78df9","system_id":"levelo_inurba_marseille","lat":43.29878,"lon":5.38914,"is_reserved":false,"is_disabled":false,"rental_uris":{"android":"levelo://app?vid=268ca709-f24d-459f-a29f-19ed3bd78df9","ios":"levelo://app?vid=268ca709-f24d-459f-a29f-19ed3bd78df9"},"vehicle_type_id":"4","last_reported":1728922237,"current_range_meters":28400,"station_id":"ce4bh392rcd13ifvqdl0","pricing_plan_id":"cebpf4jnsgd1na2vs0mg"},{"bike_id":"00aea90a-52ed-4c53-8e4d-51e514b83bfb","system_id":"levelo_inurba_marseille","lat":43.29803,"lon":5.40393,"is_reserved":false,"is_disabled":false,"rental_uris":{"android":"levelo://app?vid=00aea90a-52ed-4c53-8e4d-51e514b83bfb","ios":"levelo://app?vid=00aea90a-52ed-4c53-8e4d-51e514b83bfb"},"vehicle_type_id":"4","last_reported":1728922237,"current_range_meters":29600,"station_id":"ce4bh112rcd13ifvqd90","pricing_plan_id":"cebpf4jnsgd1na2vs0mg"},{"bike_id":"f7364c06-6dba-4bdd-8a2f-fcb342f142f7","system_id":"levelo_inurba_marseille","lat":43.30189,"lon":5.39815,"is_reserved":false,"is_disabled":false,"rental_uris":{"android":"levelo://app?vid=f7364c06-6dba-4bdd-8a2f-fcb342f142f7","ios":"levelo://app?vid=f7364c06-6dba-4bdd-8a2f-fcb342f142f7"},"vehicle_type_id":"4","last_reported":1728922237,"current_range_meters":36800,"station_id":"","pricing_plan_id":"cebpf4jnsgd1na2vs0mg"},{"bike_id":"1a360b7d-b8bd-410a-b79a-e0afeb9ccaa9","system_id":"levelo_inurba_marseille","lat":43.29872,"lon":5.39747,"is_reserved":false,"is_disabled":false,"rental_uris":{"android":"levelo://app?vid=1a360b7d-b8bd-410a-b79a-e0afeb9ccaa9","ios":"levelo://app?vid=1a360b7d-b8bd-410a-b79a-e0afeb9ccaa9"},"vehicle_type_id":"4","last_reported":1728922237,"current_range_meters":30000,"station_id":"ce4bh0h2rcd13ifvqd50","pricing_plan_id":"cebpf4jnsgd1na2vs0mg"},{"bike_id":"bd0ee973-c13e-4385-85a7-3f90adb269af","system_id":"levelo_inurba_marseille","lat":43.30315,"lon":5.369,"is_reserved":false,"is_disabled":false,"rental_uris":{"android":"levelo://app?vid=bd0ee973-c13e-4385-85a7-3f90adb269af","ios":"levelo://app?vid=bd0ee973-c13e-4385-85a7-3f90adb269af"},"vehicle_type_id":"4","last_reported":1728922237,"current_range_meters":32000,"station_id":"ce4bgqh2rcd13ifvqc5g","pricing_plan_id":"cebpf4jnsgd1na2vs0mg"},{"bike_id":"fad5bbff-40ae-465f-98ff-41072bf1ee97","system_id":"levelo_inurba_marseille","lat":43.29895,"lon":5.4367,"is_reserved":false,"is_disabled":false,"rental_uris":{"android":"levelo://app?vid=fad5bbff-40ae-465f-98ff-41072bf1ee97","ios":"levelo://app?vid=fad5bbff-40ae-465f-98ff-41072bf1ee97"},"vehicle_type_id":"4","last_reported":1728922237,"current_range_meters":20000,"station_id":"ce4bhpp2rcd13ifvqhfg","pricing_plan_id":"cebpf4jnsgd1na2vs0mg"},{"bike_id":"7306f698-d49d-44bc-94bc-25fe8f6e403f","system_id":"levelo_inurba_marseille","lat":43.29522,"lon":5.39052,"is_reserved":false,"is_disabled":false,"rental_uris":{"android":"levelo://app?vid=7306f698-d49d-44bc-94bc-25fe8f6e403f","ios":"levelo://app?vid=7306f698-d49d-44bc-94bc-25fe8f6e403f"},"vehicle_type_id":"4","last_reported":1728922237,"current_range_meters":5600,"station_id":"ce4bh3p2rcd13ifvqdp0","pricing_plan_id":"cebpf4jnsgd1na2vs0mg"},{"bike_id":"999dfb23-b721-47ea-890f-8c49d6f06150","system_id":"levelo_inurba_marseille","lat":43.25858,"lon":5.39906,"is_reserved":false,"is_disabled":false,"rental_uris":{"android":"levelo://app?vid=999dfb23-b721-47ea-890f-8c49d6f06150","ios":"levelo://app?vid=999dfb23-b721-47ea-890f-8c49d6f06150"},"vehicle_type_id":"4","last_reported":1728922237,"current_range_meters":34000,"station_id":"ce4bhl92rcd13ifvqghg","pricing_plan_id":"cebpf4jnsgd1na2vs0mg"},{"bike_id":"b80c714b-6a66-4d5c-832e-bd487c535a72","system_id":"levelo_inurba_marseille","lat":43.31109,"lon":5.38064,"is_reserved":false,"is_disabled":false,"rental_uris":{"android":"levelo://app?vid=b80c714b-6a66-4d5c-832e-bd487c535a72","ios":"levelo://app?vid=b80c714b-6a66-4d5c-832e-bd487c535a72"},"vehicle_type_id":"4","last_reported":1728922237,"current_range_meters":19200,"station_id":"ce4bgt92rcd13ifvqcf0","pricing_plan_id":"cebpf4jnsgd1na2vs0mg"},{"bike_id":"2140b6a3-5118-4150-823e-9225aeb56201","system_id":"levelo_inurba_marseille","lat":43.23193,"lon":5.35549,"is_reserved":false,"is_disabled":false,"rental_uris":{"android":"levelo://app?vid=2140b6a3-5118-4150-823e-9225aeb56201","ios":"levelo://app?vid=2140b6a3-5118-4150-823e-9225aeb56201"},"vehicle_type_id":"4","last_reported":1728922237,"current_range_meters":8000,"station_id":"ce4bhu92rcd13ifvqi70","pricing_plan_id":"cebpf4jnsgd1na2vs0mg"},{"bike_id":"94e36800-0876-449f-ab73-0d327298c706","system_id":"levelo_inurba_marseille","lat":43.31371,"lon":5.385,"is_reserved":false,"is_disabled":false,"rental_uris":{"android":"levelo://app?vid=94e36800-0876-449f-ab73-0d327298c706","ios":"levelo://app?vid=94e36800-0876-449f-ab73-0d327298c706"},"vehicle_type_id":"4","last_reported":1728922237,"current_range_meters":32800,"station_id":"ce4bgt92rcd13ifvqcf0","pricing_plan_id":"cebpf4jnsgd1na2vs0mg"},{"bike_id":"683a8d58-5a06-466d-a3b5-a8a89dbbecbb","system_id":"levelo_inurba_marseille","lat":43.30547,"lon":5.36711,"is_reserved":false,"is_disabled":false,"rental_uris":{"android":"levelo://app?vid=683a8d58-5a06-466d-a3b5-a8a89dbbecbb","ios":"levelo://app?vid=683a8d58-5a06-466d-a3b5-a8a89dbbecbb"},"vehicle_type_id":"4","last_reported":1728922237,"current_range_meters":17200,"station_id":"ce4bgrp2rcd13ifvqc9g","pricing_plan_id":"cebpf4jnsgd1na2vs0mg"},{"bike_id":"c79e8840-1d32-4d42-a797-871bc00e7568","system_id":"levelo_inurba_marseille","lat":43.29521,"lon":5.39052,"is_reserved":false,"is_disabled":false,"rental_uris":{"android":"levelo://app?vid=c79e8840-1d32-4d42-a797-871bc00e7568","ios":"levelo://app?vid=c79e8840-1d32-4d42-a797-871bc00e7568"},"vehicle_type_id":"4","last_reported":1728922237,"current_range_meters":35600,"station_id":"ce4bh3p2rcd13ifvqdp0","pricing_plan_id":"cebpf4jnsgd1na2vs0mg"},{"bike_id":"02edf250-0bdc-44d6-9936-04b527fbc30e","system_id":"levelo_inurba_marseille","lat":43.24386,"lon":5.37057,"is_reserved":false,"is_disabled":false,"rental_uris":{"android":"levelo://app?vid=02edf250-0bdc-44d6-9936-04b527fbc30e","ios":"levelo://app?vid=02edf250-0bdc-44d6-9936-04b527fbc30e"},"vehicle_type_id":"4","last_reported":1728922237,"current_range_meters":16000,"station_id":"ce4bhhh2rcd13ifvqfk0","pricing_plan_id":"cebpf4jnsgd1na2vs0mg"},{"bike_id":"78bdb84b-c1ee-4965-b64e-1cd2c42960aa","system_id":"levelo_inurba_marseille","lat":43.26809,"lon":5.40265,"is_reserved":false,"is_disabled":false,"rental_uris":{"android":"levelo://app?vid=78bdb84b-c1ee-4965-b64e-1cd2c42960aa","ios":"levelo://app?vid=78bdb84b-c1ee-4965-b64e-1cd2c42960aa"},"vehicle_type_id":"4","last_reported":1728922237,"current_range_meters":38000,"station_id":"ce501612rcd8frsf0b60","pricing_plan_id":"cebpf4jnsgd1na2vs0mg"},{"bike_id":"de49afd5-9caa-4fa4-918a-7526806c270b","system_id":"levelo_inurba_marseille","lat":43.29615,"lon":5.37154,"is_reserved":false,"is_disabled":false,"rental_uris":{"android":"levelo://app?vid=de49afd5-9caa-4fa4-918a-7526806c270b","ios":"levelo://app?vid=de49afd5-9caa-4fa4-918a-7526806c270b"},"vehicle_type_id":"4","last_reported":1728922237,"current_range_meters":38800,"station_id":"ce4bgnh2rcd13ifvqc0g","pricing_plan_id":"cebpf4jnsgd1na2vs0mg"},{"bike_id":"c562d14b-049d-42a0-a586-0c37f841e1d0","system_id":"levelo_inurba_marseille","lat":43.24995,"lon":5.38936,"is_reserved":false,"is_disabled":false,"rental_uris":{"android":"levelo://app?vid=c562d14b-049d-42a0-a586-0c37f841e1d0","ios":"levelo://app?vid=c562d14b-049d-42a0-a586-0c37f841e1d0"},"vehicle_type_id":"4","last_reported":1728922237,"current_range_meters":3200,"station_id":"ce4bhgp2rcd13ifvqfd0","pricing_plan_id":"cebpf4jnsgd1na2vs0mg"},{"bike_id":"6b757537-365a-4560-9e93-020fdfecc172","system_id":"levelo_inurba_marseille","lat":43.28032,"lon":5.36938,"is_reserved":false,"is_disabled":false,"rental_uris":{"android":"levelo://app?vid=6b757537-365a-4560-9e93-020fdfecc172","ios":"levelo://app?vid=6b757537-365a-4560-9e93-020fdfecc172"},"vehicle_type_id":"4","last_reported":1728922237,"current_range_meters":6000,"station_id":"ce4bha12rcd13ifvqef0","pricing_plan_id":"cebpf4jnsgd1na2vs0mg"},{"bike_id":"df6f3601-5773-43ae-9657-376d35b417da","system_id":"levelo_inurba_marseille","lat":43.29279,"lon":5.40116,"is_reserved":false,"is_disabled":false,"rental_uris":{"android":"levelo://app?vid=df6f3601-5773-43ae-9657-376d35b417da","ios":"levelo://app?vid=df6f3601-5773-43ae-9657-376d35b417da"},"vehicle_type_id":"4","last_reported":1728922237,"current_range_meters":6400,"station_id":"ce4bh312rcd13ifvqdk0","pricing_plan_id":"cebpf4jnsgd1na2vs0mg"},{"bike_id":"2bd92e0b-d081-497d-aee3-5b8287c4e7e6","system_id":"levelo_inurba_marseille","lat":43.27181,"lon":5.40986,"is_reserved":false,"is_disabled":false,"rental_uris":{"android":"levelo://app?vid=2bd92e0b-d081-497d-aee3-5b8287c4e7e6","ios":"levelo://app?vid=2bd92e0b-d081-497d-aee3-5b8287c4e7e6"},"vehicle_type_id":"4","last_reported":1728922237,"current_range_meters":6400,"station_id":"ce4bhl12rcd13ifvqgf0","pricing_plan_id":"cebpf4jnsgd1na2vs0mg"},{"bike_id":"8b3b1d54-4a53-4a3e-a827-49d6e952a671","system_id":"levelo_inurba_marseille","lat":43.31074,"lon":5.38358,"is_reserved":false,"is_disabled":false,"rental_uris":{"android":"levelo://app?vid=8b3b1d54-4a53-4a3e-a827-49d6e952a671","ios":"levelo://app?vid=8b3b1d54-4a53-4a3e-a827-49d6e952a671"},"vehicle_type_id":"4","last_reported":1728922237,"current_range_meters":20400,"station_id":"ce4bgv92rcd13ifvqcr0","pricing_plan_id":"cebpf4jnsgd1na2vs0mg"},{"bike_id":"932d94a1-7b21-412f-be17-7cad47e3d152","system_id":"levelo_inurba_marseille","lat":43.30428,"lon":5.38898,"is_reserved":false,"is_disabled":false,"rental_uris":{"android":"levelo://app?vid=932d94a1-7b21-412f-be17-7cad47e3d152","ios":"levelo://app?vid=932d94a1-7b21-412f-be17-7cad47e3d152"},"vehicle_type_id":"4","last_reported":1728922237,"current_range_meters":35200,"station_id":"ce4bgk12rcd13ifvqbi0","pricing_plan_id":"cebpf4jnsgd1na2vs0mg"},{"bike_id":"53b25d15-9aea-475c-8cd4-3119966855c7","system_id":"levelo_inurba_marseille","lat":43.31536,"lon":5.38041,"is_reserved":false,"is_disabled":false,"rental_uris":{"android":"levelo://app?vid=53b25d15-9aea-475c-8cd4-3119966855c7","ios":"levelo://app?vid=53b25d15-9aea-475c-8cd4-3119966855c7"},"vehicle_type_id":"4","last_reported":1728922237,"current_range_meters":14800,"station_id":"ce4bhsp2rcd13ifvqi50","pricing_plan_id":"cebpf4jnsgd1na2vs0mg"},{"bike_id":"c6f1c670-56f1-422c-b84d-3a04939da413","system_id":"levelo_inurba_marseille","lat":43.24389,"lon":5.37058,"is_reserved":false,"is_disabled":false,"rental_uris":{"android":"levelo://app?vid=c6f1c670-56f1-422c-b84d-3a04939da413","ios":"levelo://app?vid=c6f1c670-56f1-422c-b84d-3a04939da413"},"vehicle_type_id":"4","last_reported":1728922237,"current_range_meters":22800,"station_id":"ce4bhhh2rcd13ifvqfk0","pricing_plan_id":"cebpf4jnsgd1na2vs0mg"},{"bike_id":"e01e41b6-906b-4d38-bd47-8409331ef9cb","system_id":"levelo_inurba_marseille","lat":43.24166,"lon":5.3639,"is_reserved":false,"is_disabled":false,"rental_uris":{"android":"levelo://app?vid=e01e41b6-906b-4d38-bd47-8409331ef9cb","ios":"levelo://app?vid=e01e41b6-906b-4d38-bd47-8409331ef9cb"},"vehicle_type_id":"4","last_reported":1728922237,"current_range_meters":36800,"station_id":"cpo36qri1sfpv3e86is0","pricing_plan_id":"cebpf4jnsgd1na2vs0mg"},{"bike_id":"9df06e12-d4fa-49bc-b29d-82d309f34167","system_id":"levelo_inurba_marseille","lat":43.30128,"lon":5.39868,"is_reserved":false,"is_disabled":false,"rental_uris":{"android":"levelo://app?vid=9df06e12-d4fa-49bc-b29d-82d309f34167","ios":"levelo://app?vid=9df06e12-d4fa-49bc-b29d-82d309f34167"},"vehicle_type_id":"4","last_reported":1728922237,"current_range_meters":11200,"station_id":"ce4bh0h2rcd13ifvqd40","pricing_plan_id":"cebpf4jnsgd1na2vs0mg"},{"bike_id":"5fa385c9-31dc-4a25-97be-ac88aa734055","system_id":"levelo_inurba_marseille","lat":43.33022,"lon":5.39053,"is_reserved":false,"is_disabled":false,"rental_uris":{"android":"levelo://app?vid=5fa385c9-31dc-4a25-97be-ac88aa734055","ios":"levelo://app?vid=5fa385c9-31dc-4a25-97be-ac88aa734055"},"vehicle_type_id":"4","last_reported":1728922237,"current_range_meters":23200,"station_id":"ce4bhr92rcd13ifvqhrg","pricing_plan_id":"cebpf4jnsgd1na2vs0mg"},{"bike_id":"89211ee2-076f-4df3-92bd-cd8885f2e76d","system_id":"levelo_inurba_marseille","lat":43.23191,"lon":5.35557,"is_reserved":false,"is_disabled":false,"rental_uris":{"android":"levelo://app?vid=89211ee2-076f-4df3-92bd-cd8885f2e76d","ios":"levelo://app?vid=89211ee2-076f-4df3-92bd-cd8885f2e76d"},"vehicle_type_id":"4","last_reported":1728922237,"current_range_meters":39200,"station_id":"ce4bhu92rcd13ifvqi70","pricing_plan_id":"cebpf4jnsgd1na2vs0mg"},{"bike_id":"6f108c79-169f-46fd-b08b-6b93e5050ee6","system_id":"levelo_inurba_marseille","lat":43.33725,"lon":5.39192,"is_reserved":false,"is_disabled":false,"rental_uris":{"android":"levelo://app?vid=6f108c79-169f-46fd-b08b-6b93e5050ee6","ios":"levelo://app?vid=6f108c79-169f-46fd-b08b-6b93e5050ee6"},"vehicle_type_id":"4","last_reported":1728922237,"current_range_meters":10000,"station_id":"ce4bhr92rcd13ifvqhsg","pricing_plan_id":"cebpf4jnsgd1na2vs0mg"},{"bike_id":"e297889e-9cb8-4337-95f2-ae179ce69461","system_id":"levelo_inurba_marseille","lat":43.30885,"lon":5.39651,"is_reserved":false,"is_disabled":false,"rental_uris":{"android":"levelo://app?vid=e297889e-9cb8-4337-95f2-ae179ce69461","ios":"levelo://app?vid=e297889e-9cb8-4337-95f2-ae179ce69461"},"vehicle_type_id":"4","last_reported":1728922237,"current_range_meters":22400,"station_id":"ce4bh012rcd13ifvqcv0","pricing_plan_id":"cebpf4jnsgd1na2vs0mg"},{"bike_id":"a18933d2-67fb-4ff0-bbeb-fe85f4ec945b","system_id":"levelo_inurba_marseille","lat":43.30436,"lon":5.38883,"is_reserved":false,"is_disabled":false,"rental_uris":{"android":"levelo://app?vid=a18933d2-67fb-4ff0-bbeb-fe85f4ec945b","ios":"levelo://app?vid=a18933d2-67fb-4ff0-bbeb-fe85f4ec945b"},"vehicle_type_id":"4","last_reported":1728922237,"current_range_meters":32000,"station_id":"ce4bgk12rcd13ifvqbi0","pricing_plan_id":"cebpf4jnsgd1na2vs0mg"},{"bike_id":"4401e9fe-8fae-4df0-be02-0119e3aeedbd","system_id":"levelo_inurba_marseille","lat":43.33756,"lon":5.37454,"is_reserved":false,"is_disabled":false,"rental_uris":{"android":"levelo://app?vid=4401e9fe-8fae-4df0-be02-0119e3aeedbd","ios":"levelo://app?vid=4401e9fe-8fae-4df0-be02-0119e3aeedbd"},"vehicle_type_id":"4","last_reported":1728922237,"current_range_meters":36000,"station_id":"","pricing_plan_id":"cebpf4jnsgd1na2vs0mg"},{"bike_id":"ec89d4f6-ddb1-474f-9e48-e5214002b6f4","system_id":"levelo_inurba_marseille","lat":43.27843,"lon":5.39212,"is_reserved":false,"is_disabled":false,"rental_uris":{"android":"levelo://app?vid=ec89d4f6-ddb1-474f-9e48-e5214002b6f4","ios":"levelo://app?vid=ec89d4f6-ddb1-474f-9e48-e5214002b6f4"},"vehicle_type_id":"4","last_reported":1728922237,"current_range_meters":22800,"station_id":"ce4bhjp2rcd13ifvqga0","pricing_plan_id":"cebpf4jnsgd1na2vs0mg"},{"bike_id":"1ffa878e-7475-4e16-bedf-e1edad73f932","system_id":"levelo_inurba_marseille","lat":43.26803,"lon":5.40266,"is_reserved":false,"is_disabled":false,"rental_uris":{"android":"levelo://app?vid=1ffa878e-7475-4e16-bedf-e1edad73f932","ios":"levelo://app?vid=1ffa878e-7475-4e16-bedf-e1edad73f932"},"vehicle_type_id":"4","last_reported":1728922237,"current_range_meters":26800,"station_id":"ce501612rcd8frsf0b60","pricing_plan_id":"cebpf4jnsgd1na2vs0mg"},{"bike_id":"45d80b13-ce29-4e57-a6fb-c7a6ddb53ad5","system_id":"levelo_inurba_marseille","lat":43.3146,"lon":5.40335,"is_reserved":false,"is_disabled":false,"rental_uris":{"android":"levelo://app?vid=45d80b13-ce29-4e57-a6fb-c7a6ddb53ad5","ios":"levelo://app?vid=45d80b13-ce29-4e57-a6fb-c7a6ddb53ad5"},"vehicle_type_id":"4","last_reported":1728922237,"current_range_meters":15200,"station_id":"ce4bhq12rcd13ifvqhig","pricing_plan_id":"cebpf4jnsgd1na2vs0mg"},{"bike_id":"f86c0e4c-e675-4813-89ef-9c087542fa2b","system_id":"levelo_inurba_marseille","lat":43.28458,"lon":5.35883,"is_reserved":false,"is_disabled":false,"rental_uris":{"android":"levelo://app?vid=f86c0e4c-e675-4813-89ef-9c087542fa2b","ios":"levelo://app?vid=f86c0e4c-e675-4813-89ef-9c087542fa2b"},"vehicle_type_id":"4","last_reported":1728922237,"current_range_meters":6400,"station_id":"ce4bhah2rcd13ifvqei0","pricing_plan_id":"cebpf4jnsgd1na2vs0mg"},{"bike_id":"8026f21b-4595-4077-8e24-ab8bdaa8043c","system_id":"levelo_inurba_marseille","lat":43.25866,"lon":5.39897,"is_reserved":false,"is_disabled":false,"rental_uris":{"android":"levelo://app?vid=8026f21b-4595-4077-8e24-ab8bdaa8043c","ios":"levelo://app?vid=8026f21b-4595-4077-8e24-ab8bdaa8043c"},"vehicle_type_id":"4","last_reported":1728922237,"current_range_meters":12400,"station_id":"ce4bhl92rcd13ifvqghg","pricing_plan_id":"cebpf4jnsgd1na2vs0mg"},{"bike_id":"3cb8022b-1caa-4a45-92ef-bfb43910ef47","system_id":"levelo_inurba_marseille","lat":43.27912,"lon":5.39585,"is_reserved":false,"is_disabled":false,"rental_uris":{"android":"levelo://app?vid=3cb8022b-1caa-4a45-92ef-bfb43910ef47","ios":"levelo://app?vid=3cb8022b-1caa-4a45-92ef-bfb43910ef47"},"vehicle_type_id":"4","last_reported":1728922237,"current_range_meters":22800,"station_id":"ce4bhf92rcd13ifvqf40","pricing_plan_id":"cebpf4jnsgd1na2vs0mg"},{"bike_id":"8eca1db8-c7a5-4c55-a530-7e36502bac8b","system_id":"levelo_inurba_marseille","lat":43.33024,"lon":5.39036,"is_reserved":false,"is_disabled":false,"rental_uris":{"android":"levelo://app?vid=8eca1db8-c7a5-4c55-a530-7e36502bac8b","ios":"levelo://app?vid=8eca1db8-c7a5-4c55-a530-7e36502bac8b"},"vehicle_type_id":"4","last_reported":1728922237,"current_range_meters":30800,"station_id":"ce4bhr92rcd13ifvqhrg","pricing_plan_id":"cebpf4jnsgd1na2vs0mg"},{"bike_id":"d0ec2960-1685-4144-8de4-162ef81ffa1d","system_id":"levelo_inurba_marseille","lat":43.32102,"lon":5.36777,"is_reserved":false,"is_disabled":false,"rental_uris":{"android":"levelo://app?vid=d0ec2960-1685-4144-8de4-162ef81ffa1d","ios":"levelo://app?vid=d0ec2960-1685-4144-8de4-162ef81ffa1d"},"vehicle_type_id":"4","last_reported":1728922237,"current_range_meters":24000,"station_id":"ce4bhrh2rcd13ifvqhug","pricing_plan_id":"cebpf4jnsgd1na2vs0mg"},{"bike_id":"f2af3940-031c-47cf-96b0-3573f24701d0","system_id":"levelo_inurba_marseille","lat":43.29379,"lon":5.37864,"is_reserved":false,"is_disabled":false,"rental_uris":{"android":"levelo://app?vid=f2af3940-031c-47cf-96b0-3573f24701d0","ios":"levelo://app?vid=f2af3940-031c-47cf-96b0-3573f24701d0"},"vehicle_type_id":"4","last_reported":1728922237,"current_range_meters":38800,"station_id":"ce4bgjh2rcd13ifvqbf0","pricing_plan_id":"cebpf4jnsgd1na2vs0mg"},{"bike_id":"c64d14a1-41d6-4e11-b556-74bc12037047","system_id":"levelo_inurba_marseille","lat":43.29254,"lon":5.4091,"is_reserved":false,"is_disabled":false,"rental_uris":{"android":"levelo://app?vid=c64d14a1-41d6-4e11-b556-74bc12037047","ios":"levelo://app?vid=c64d14a1-41d6-4e11-b556-74bc12037047"},"vehicle_type_id":"4","last_reported":1728922237,"current_range_meters":11200,"station_id":"ce4bh192rcd13ifvqdc0","pricing_plan_id":"cebpf4jnsgd1na2vs0mg"},{"bike_id":"ff96eee3-1ac8-4888-9ae7-e4b6cc8154af","system_id":"levelo_inurba_marseille","lat":43.33739,"lon":5.3746,"is_reserved":false,"is_disabled":false,"rental_uris":{"android":"levelo://app?vid=ff96eee3-1ac8-4888-9ae7-e4b6cc8154af","ios":"levelo://app?vid=ff96eee3-1ac8-4888-9ae7-e4b6cc8154af"},"vehicle_type_id":"4","last_reported":1728922237,"current_range_meters":38000,"station_id":"","pricing_plan_id":"cebpf4jnsgd1na2vs0mg"},{"bike_id":"9ea5018b-5344-41e5-bc7c-c6f703a700db","system_id":"levelo_inurba_marseille","lat":43.28002,"lon":5.40009,"is_reserved":false,"is_disabled":false,"rental_uris":{"android":"levelo://app?vid=9ea5018b-5344-41e5-bc7c-c6f703a700db","ios":"levelo://app?vid=9ea5018b-5344-41e5-bc7c-c6f703a700db"},"vehicle_type_id":"4","last_reported":1728922237,"current_range_meters":18000,"station_id":"ce4bho92rcd13ifvqh4g","pricing_plan_id":"cebpf4jnsgd1na2vs0mg"},{"bike_id":"4c6e1c86-cbf0-4734-81bf-24f586808ce3","system_id":"levelo_inurba_marseille","lat":43.28939,"lon":5.39633,"is_reserved":false,"is_disabled":false,"rental_uris":{"android":"levelo://app?vid=4c6e1c86-cbf0-4734-81bf-24f586808ce3","ios":"levelo://app?vid=4c6e1c86-cbf0-4734-81bf-24f586808ce3"},"vehicle_type_id":"4","last_reported":1728922237,"current_range_meters":16000,"station_id":"ce4bh3h2rcd13ifvqdn0","pricing_plan_id":"cebpf4jnsgd1na2vs0mg"},{"bike_id":"44a82571-e5d8-46a1-a99e-8c699be17c16","system_id":"levelo_inurba_marseille","lat":43.30438,"lon":5.38896,"is_reserved":false,"is_disabled":false,"rental_uris":{"android":"levelo://app?vid=44a82571-e5d8-46a1-a99e-8c699be17c16","ios":"levelo://app?vid=44a82571-e5d8-46a1-a99e-8c699be17c16"},"vehicle_type_id":"4","last_reported":1728922237,"current_range_meters":33600,"station_id":"ce4bgk12rcd13ifvqbi0","pricing_plan_id":"cebpf4jnsgd1na2vs0mg"},{"bike_id":"c50c599b-7eb4-4ae0-bc1f-a366e21ec0ac","system_id":"levelo_inurba_marseille","lat":43.33026,"lon":5.3904,"is_reserved":false,"is_disabled":false,"rental_uris":{"android":"levelo://app?vid=c50c599b-7eb4-4ae0-bc1f-a366e21ec0ac","ios":"levelo://app?vid=c50c599b-7eb4-4ae0-bc1f-a366e21ec0ac"},"vehicle_type_id":"4","last_reported":1728922237,"current_range_meters":36400,"station_id":"ce4bhr92rcd13ifvqhrg","pricing_plan_id":"cebpf4jnsgd1na2vs0mg"},{"bike_id":"3e81cc10-8375-4a36-b82a-3b136ffadf03","system_id":"levelo_inurba_marseille","lat":43.29416,"lon":5.38627,"is_reserved":false,"is_disabled":false,"rental_uris":{"android":"levelo://app?vid=3e81cc10-8375-4a36-b82a-3b136ffadf03","ios":"levelo://app?vid=3e81cc10-8375-4a36-b82a-3b136ffadf03"},"vehicle_type_id":"4","last_reported":1728922237,"current_range_meters":9200,"station_id":"ce4bh2h2rcd13ifvqdh0","pricing_plan_id":"cebpf4jnsgd1na2vs0mg"},{"bike_id":"287c00d0-c41c-47ea-9c7f-226e2dda8dfb","system_id":"levelo_inurba_marseille","lat":43.30553,"lon":5.36558,"is_reserved":false,"is_disabled":false,"rental_uris":{"android":"levelo://app?vid=287c00d0-c41c-47ea-9c7f-226e2dda8dfb","ios":"levelo://app?vid=287c00d0-c41c-47ea-9c7f-226e2dda8dfb"},"vehicle_type_id":"4","last_reported":1728922237,"current_range_meters":8400,"station_id":"ce4bgs12rcd13ifvqcag","pricing_plan_id":"cebpf4jnsgd1na2vs0mg"},{"bike_id":"75741e2b-14cf-40c6-ad29-090ea81b0cf6","system_id":"levelo_inurba_marseille","lat":43.29006,"lon":5.35614,"is_reserved":false,"is_disabled":false,"rental_uris":{"android":"levelo://app?vid=75741e2b-14cf-40c6-ad29-090ea81b0cf6","ios":"levelo://app?vid=75741e2b-14cf-40c6-ad29-090ea81b0cf6"},"vehicle_type_id":"4","last_reported":1728922237,"current_range_meters":35200,"station_id":"ce4bhb92rcd13ifvqen0","pricing_plan_id":"cebpf4jnsgd1na2vs0mg"},{"bike_id":"45b135ce-150a-495f-bd15-f11195387a56","system_id":"levelo_inurba_marseille","lat":43.32488,"lon":5.36573,"is_reserved":false,"is_disabled":false,"rental_uris":{"android":"levelo://app?vid=45b135ce-150a-495f-bd15-f11195387a56","ios":"levelo://app?vid=45b135ce-150a-495f-bd15-f11195387a56"},"vehicle_type_id":"4","last_reported":1728922237,"current_range_meters":14800,"station_id":"ce4bhs12rcd13ifvqhvg","pricing_plan_id":"cebpf4jnsgd1na2vs0mg"},{"bike_id":"68253528-7801-4823-b2e2-6cc7bedc1609","system_id":"levelo_inurba_marseille","lat":43.25872,"lon":5.39906,"is_reserved":false,"is_disabled":false,"rental_uris":{"android":"levelo://app?vid=68253528-7801-4823-b2e2-6cc7bedc1609","ios":"levelo://app?vid=68253528-7801-4823-b2e2-6cc7bedc1609"},"vehicle_type_id":"4","last_reported":1728922237,"current_range_meters":38800,"station_id":"ce4bhl92rcd13ifvqghg","pricing_plan_id":"cebpf4jnsgd1na2vs0mg"},{"bike_id":"e55ce7e2-8e60-47b5-844e-977029bd08ba","system_id":"levelo_inurba_marseille","lat":43.29555,"lon":5.42288,"is_reserved":false,"is_disabled":false,"rental_uris":{"android":"levelo://app?vid=e55ce7e2-8e60-47b5-844e-977029bd08ba","ios":"levelo://app?vid=e55ce7e2-8e60-47b5-844e-977029bd08ba"},"vehicle_type_id":"4","last_reported":1728922237,"current_range_meters":39200,"station_id":"ce4bhph2rcd13ifvqhdg","pricing_plan_id":"cebpf4jnsgd1na2vs0mg"},{"bike_id":"292b9425-1372-40d4-bf0a-fe57aa779a41","system_id":"levelo_inurba_marseille","lat":43.23058,"lon":5.35495,"is_reserved":false,"is_disabled":false,"rental_uris":{"android":"levelo://app?vid=292b9425-1372-40d4-bf0a-fe57aa779a41","ios":"levelo://app?vid=292b9425-1372-40d4-bf0a-fe57aa779a41"},"vehicle_type_id":"4","last_reported":1728922237,"current_range_meters":37600,"station_id":"cpo3342slgdg3j2ifvpg","pricing_plan_id":"cebpf4jnsgd1na2vs0mg"},{"bike_id":"430a9e0d-e935-4bc5-a060-8c3c5c23587d","system_id":"levelo_inurba_marseille","lat":43.28563,"lon":5.39497,"is_reserved":false,"is_disabled":false,"rental_uris":{"android":"levelo://app?vid=430a9e0d-e935-4bc5-a060-8c3c5c23587d","ios":"levelo://app?vid=430a9e0d-e935-4bc5-a060-8c3c5c23587d"},"vehicle_type_id":"4","last_reported":1728922237,"current_range_meters":3600,"station_id":"ce4bh292rcd13ifvqdg0","pricing_plan_id":"cebpf4jnsgd1na2vs0mg"},{"bike_id":"c61dff22-3fd4-4f0e-929a-ff18499aa8d9","system_id":"levelo_inurba_marseille","lat":43.29964,"lon":5.38501,"is_reserved":false,"is_disabled":false,"rental_uris":{"android":"levelo://app?vid=c61dff22-3fd4-4f0e-929a-ff18499aa8d9","ios":"levelo://app?vid=c61dff22-3fd4-4f0e-929a-ff18499aa8d9"},"vehicle_type_id":"4","last_reported":1728922237,"current_range_meters":8800,"station_id":"ce4bgj92rcd13ifvqbd0","pricing_plan_id":"cebpf4jnsgd1na2vs0mg"},{"bike_id":"32d879ff-a437-4861-a643-53704f037232","system_id":"levelo_inurba_marseille","lat":43.29578,"lon":5.36745,"is_reserved":false,"is_disabled":false,"rental_uris":{"android":"levelo://app?vid=32d879ff-a437-4861-a643-53704f037232","ios":"levelo://app?vid=32d879ff-a437-4861-a643-53704f037232"},"vehicle_type_id":"4","last_reported":1728922237,"current_range_meters":37600,"station_id":"ce4bgph2rcd13ifvqc2g","pricing_plan_id":"cebpf4jnsgd1na2vs0mg"},{"bike_id":"319db2db-70a0-4432-b12c-db6bad30cafc","system_id":"levelo_inurba_marseille","lat":43.29849,"lon":5.36284,"is_reserved":false,"is_disabled":false,"rental_uris":{"android":"levelo://app?vid=319db2db-70a0-4432-b12c-db6bad30cafc","ios":"levelo://app?vid=319db2db-70a0-4432-b12c-db6bad30cafc"},"vehicle_type_id":"4","last_reported":1728922237,"current_range_meters":31200,"station_id":"ce4bgpp2rcd13ifvqc3g","pricing_plan_id":"cebpf4jnsgd1na2vs0mg"},{"bike_id":"ea2768b6-130a-4907-875e-05690ef01679","system_id":"levelo_inurba_marseille","lat":43.29026,"lon":5.38638,"is_reserved":false,"is_disabled":false,"rental_uris":{"android":"levelo://app?vid=ea2768b6-130a-4907-875e-05690ef01679","ios":"levelo://app?vid=ea2768b6-130a-4907-875e-05690ef01679"},"vehicle_type_id":"4","last_reported":1728922237,"current_range_meters":4000,"station_id":"ce4bh4p2rcd13ifvqe0g","pricing_plan_id":"cebpf4jnsgd1na2vs0mg"},{"bike_id":"9752d455-1f3b-44ce-83c7-939e06608be3","system_id":"levelo_inurba_marseille","lat":43.29413,"lon":5.37393,"is_reserved":false,"is_disabled":false,"rental_uris":{"android":"levelo://app?vid=9752d455-1f3b-44ce-83c7-939e06608be3","ios":"levelo://app?vid=9752d455-1f3b-44ce-83c7-939e06608be3"},"vehicle_type_id":"4","last_reported":1728922237,"current_range_meters":29600,"station_id":"ce4bhb12rcd13ifvqem0","pricing_plan_id":"cebpf4jnsgd1na2vs0mg"},{"bike_id":"2c1638e5-4be7-4564-a61a-45b1d6f91a3c","system_id":"levelo_inurba_marseille","lat":43.30594,"lon":5.37224,"is_reserved":false,"is_disabled":false,"rental_uris":{"android":"levelo://app?vid=2c1638e5-4be7-4564-a61a-45b1d6f91a3c","ios":"levelo://app?vid=2c1638e5-4be7-4564-a61a-45b1d6f91a3c"},"vehicle_type_id":"4","last_reported":1728922237,"current_range_meters":36000,"station_id":"ce4bgqh2rcd13ifvqc4g","pricing_plan_id":"cebpf4jnsgd1na2vs0mg"},{"bike_id":"f9431acc-4158-4e63-bbe0-7544277cc35e","system_id":"levelo_inurba_marseille","lat":43.29032,"lon":5.37567,"is_reserved":false,"is_disabled":false,"rental_uris":{"android":"levelo://app?vid=f9431acc-4158-4e63-bbe0-7544277cc35e","ios":"levelo://app?vid=f9431acc-4158-4e63-bbe0-7544277cc35e"},"vehicle_type_id":"4","last_reported":1728922237,"current_range_meters":30000,"station_id":"ce4bh692rcd13ifvqe90","pricing_plan_id":"cebpf4jnsgd1na2vs0mg"},{"bike_id":"e42a5c5b-19d2-48bc-8dfc-c8514ef28621","system_id":"levelo_inurba_marseille","lat":43.24167,"lon":5.36395,"is_reserved":false,"is_disabled":false,"rental_uris":{"android":"levelo://app?vid=e42a5c5b-19d2-48bc-8dfc-c8514ef28621","ios":"levelo://app?vid=e42a5c5b-19d2-48bc-8dfc-c8514ef28621"},"vehicle_type_id":"4","last_reported":1728922237,"current_range_meters":29600,"station_id":"cpo36qri1sfpv3e86is0","pricing_plan_id":"cebpf4jnsgd1na2vs0mg"},{"bike_id":"de6e7759-cfd4-49b8-90a3-01451c2a87c6","system_id":"levelo_inurba_marseille","lat":43.29023,"lon":5.38652,"is_reserved":false,"is_disabled":false,"rental_uris":{"android":"levelo://app?vid=de6e7759-cfd4-49b8-90a3-01451c2a87c6","ios":"levelo://app?vid=de6e7759-cfd4-49b8-90a3-01451c2a87c6"},"vehicle_type_id":"4","last_reported":1728922237,"current_range_meters":21600,"station_id":"ce4bh4p2rcd13ifvqe0g","pricing_plan_id":"cebpf4jnsgd1na2vs0mg"},{"bike_id":"b06fad3a-c976-49a7-9eef-73d7ba88f78c","system_id":"levelo_inurba_marseille","lat":43.29202,"lon":5.35807,"is_reserved":false,"is_disabled":false,"rental_uris":{"android":"levelo://app?vid=b06fad3a-c976-49a7-9eef-73d7ba88f78c","ios":"levelo://app?vid=b06fad3a-c976-49a7-9eef-73d7ba88f78c"},"vehicle_type_id":"4","last_reported":1728922237,"current_range_meters":24000,"station_id":"ce4bhb12rcd13ifvqel0","pricing_plan_id":"cebpf4jnsgd1na2vs0mg"},{"bike_id":"b7f0a6ec-6ee5-4154-a78c-82048b3f0c47","system_id":"levelo_inurba_marseille","lat":43.26788,"lon":5.39411,"is_reserved":false,"is_disabled":false,"rental_uris":{"android":"levelo://app?vid=b7f0a6ec-6ee5-4154-a78c-82048b3f0c47","ios":"levelo://app?vid=b7f0a6ec-6ee5-4154-a78c-82048b3f0c47"},"vehicle_type_id":"4","last_reported":1728922237,"current_range_meters":21600,"station_id":"ce4bhh12rcd13ifvqfg0","pricing_plan_id":"cebpf4jnsgd1na2vs0mg"},{"bike_id":"339289c4-7b38-4d77-815f-139b6ca78fd9","system_id":"levelo_inurba_marseille","lat":43.291931,"lon":5.358038,"is_reserved":false,"is_disabled":false,"rental_uris":{"android":"levelo://app?vid=339289c4-7b38-4d77-815f-139b6ca78fd9","ios":"levelo://app?vid=339289c4-7b38-4d77-815f-139b6ca78fd9"},"vehicle_type_id":"4","last_reported":1728922237,"current_range_meters":22800,"station_id":"ce4bhb12rcd13ifvqel0","pricing_plan_id":"cebpf4jnsgd1na2vs0mg"},{"bike_id":"1619f5ac-9675-4fdf-8e68-d85313f2f663","system_id":"levelo_inurba_marseille","lat":43.23194,"lon":5.35547,"is_reserved":false,"is_disabled":false,"rental_uris":{"android":"levelo://app?vid=1619f5ac-9675-4fdf-8e68-d85313f2f663","ios":"levelo://app?vid=1619f5ac-9675-4fdf-8e68-d85313f2f663"},"vehicle_type_id":"4","last_reported":1728922237,"current_range_meters":1600,"station_id":"ce4bhu92rcd13ifvqi70","pricing_plan_id":"cebpf4jnsgd1na2vs0mg"},{"bike_id":"d06f24f3-1961-4c39-8b26-c72733863fe9","system_id":"levelo_inurba_marseille","lat":43.33781,"lon":5.37443,"is_reserved":false,"is_disabled":false,"rental_uris":{"android":"levelo://app?vid=d06f24f3-1961-4c39-8b26-c72733863fe9","ios":"levelo://app?vid=d06f24f3-1961-4c39-8b26-c72733863fe9"},"vehicle_type_id":"4","last_reported":1728922237,"current_range_meters":28400,"station_id":"","pricing_plan_id":"cebpf4jnsgd1na2vs0mg"},{"bike_id":"21fc18bb-adbf-4016-a840-cd4631bdcff3","system_id":"levelo_inurba_marseille","lat":43.30539,"lon":5.36711,"is_reserved":false,"is_disabled":false,"rental_uris":{"android":"levelo://app?vid=21fc18bb-adbf-4016-a840-cd4631bdcff3","ios":"levelo://app?vid=21fc18bb-adbf-4016-a840-cd4631bdcff3"},"vehicle_type_id":"4","last_reported":1728922237,"current_range_meters":22400,"station_id":"ce4bgrp2rcd13ifvqc9g","pricing_plan_id":"cebpf4jnsgd1na2vs0mg"},{"bike_id":"4c5e6654-f218-4153-a4a6-f263028feba5","system_id":"levelo_inurba_marseille","lat":43.28726,"lon":5.36081,"is_reserved":false,"is_disabled":false,"rental_uris":{"android":"levelo://app?vid=4c5e6654-f218-4153-a4a6-f263028feba5","ios":"levelo://app?vid=4c5e6654-f218-4153-a4a6-f263028feba5"},"vehicle_type_id":"4","last_reported":1728922237,"current_range_meters":38800,"station_id":"cki0cbj6b192h4jlfktg","pricing_plan_id":"cebpf4jnsgd1na2vs0mg"},{"bike_id":"59801407-972f-4a36-807e-85d5772337bc","system_id":"levelo_inurba_marseille","lat":43.28077,"lon":5.39661,"is_reserved":false,"is_disabled":false,"rental_uris":{"android":"levelo://app?vid=59801407-972f-4a36-807e-85d5772337bc","ios":"levelo://app?vid=59801407-972f-4a36-807e-85d5772337bc"},"vehicle_type_id":"4","last_reported":1728922237,"current_range_meters":18800,"station_id":"ce4bho12rcd13ifvqh2g","pricing_plan_id":"cebpf4jnsgd1na2vs0mg"},{"bike_id":"de55ef64-fd38-455a-b0e1-1ae601486694","system_id":"levelo_inurba_marseille","lat":43.28459,"lon":5.35895,"is_reserved":false,"is_disabled":false,"rental_uris":{"android":"levelo://app?vid=de55ef64-fd38-455a-b0e1-1ae601486694","ios":"levelo://app?vid=de55ef64-fd38-455a-b0e1-1ae601486694"},"vehicle_type_id":"4","last_reported":1728922237,"current_range_meters":30400,"station_id":"ce4bhah2rcd13ifvqei0","pricing_plan_id":"cebpf4jnsgd1na2vs0mg"},{"bike_id":"d41309ab-1a1f-4395-acaa-455483c3f8e1","system_id":"levelo_inurba_marseille","lat":43.23193,"lon":5.35559,"is_reserved":false,"is_disabled":false,"rental_uris":{"android":"levelo://app?vid=d41309ab-1a1f-4395-acaa-455483c3f8e1","ios":"levelo://app?vid=d41309ab-1a1f-4395-acaa-455483c3f8e1"},"vehicle_type_id":"4","last_reported":1728922237,"current_range_meters":37600,"station_id":"ce4bhu92rcd13ifvqi70","pricing_plan_id":"cebpf4jnsgd1na2vs0mg"},{"bike_id":"ec740f76-c91d-45eb-8f6f-2c62b1cb203c","system_id":"levelo_inurba_marseille","lat":43.28586,"lon":5.38356,"is_reserved":false,"is_disabled":false,"rental_uris":{"android":"levelo://app?vid=ec740f76-c91d-45eb-8f6f-2c62b1cb203c","ios":"levelo://app?vid=ec740f76-c91d-45eb-8f6f-2c62b1cb203c"},"vehicle_type_id":"4","last_reported":1728922237,"current_range_meters":25200,"station_id":"ce4bhf92rcd13ifvqf50","pricing_plan_id":"cebpf4jnsgd1na2vs0mg"},{"bike_id":"5b282a8a-bc6a-4a44-ba86-5ea47fe786e0","system_id":"levelo_inurba_marseille","lat":43.32108,"lon":5.36781,"is_reserved":false,"is_disabled":false,"rental_uris":{"android":"levelo://app?vid=5b282a8a-bc6a-4a44-ba86-5ea47fe786e0","ios":"levelo://app?vid=5b282a8a-bc6a-4a44-ba86-5ea47fe786e0"},"vehicle_type_id":"4","last_reported":1728922237,"current_range_meters":34800,"station_id":"ce4bhrh2rcd13ifvqhug","pricing_plan_id":"cebpf4jnsgd1na2vs0mg"},{"bike_id":"f26ed535-3f9d-4a4d-a6fc-e4fc618d7b6d","system_id":"levelo_inurba_marseille","lat":43.303345,"lon":5.382337,"is_reserved":false,"is_disabled":false,"rental_uris":{"android":"levelo://app?vid=f26ed535-3f9d-4a4d-a6fc-e4fc618d7b6d","ios":"levelo://app?vid=f26ed535-3f9d-4a4d-a6fc-e4fc618d7b6d"},"vehicle_type_id":"4","last_reported":1728922237,"current_range_meters":14000,"station_id":"ce4bh192rcd13ifvqdb0","pricing_plan_id":"cebpf4jnsgd1na2vs0mg"},{"bike_id":"eaedc49c-645c-4444-a4d2-8456bbc17d70","system_id":"levelo_inurba_marseille","lat":43.29908,"lon":5.43671,"is_reserved":false,"is_disabled":false,"rental_uris":{"android":"levelo://app?vid=eaedc49c-645c-4444-a4d2-8456bbc17d70","ios":"levelo://app?vid=eaedc49c-645c-4444-a4d2-8456bbc17d70"},"vehicle_type_id":"4","last_reported":1728922237,"current_range_meters":17200,"station_id":"ce4bhpp2rcd13ifvqhfg","pricing_plan_id":"cebpf4jnsgd1na2vs0mg"},{"bike_id":"5b7c8d4d-3bd7-4fcd-a8ee-134472049447","system_id":"levelo_inurba_marseille","lat":43.27616,"lon":5.36112,"is_reserved":false,"is_disabled":false,"rental_uris":{"android":"levelo://app?vid=5b7c8d4d-3bd7-4fcd-a8ee-134472049447","ios":"levelo://app?vid=5b7c8d4d-3bd7-4fcd-a8ee-134472049447"},"vehicle_type_id":"4","last_reported":1728922237,"current_range_meters":26800,"station_id":"ce4bgj92rcd13ifvqbe0","pricing_plan_id":"cebpf4jnsgd1na2vs0mg"},{"bike_id":"69b09ac4-905b-4dfb-80eb-2afebc7708ea","system_id":"levelo_inurba_marseille","lat":43.27835,"lon":5.39208,"is_reserved":false,"is_disabled":false,"rental_uris":{"android":"levelo://app?vid=69b09ac4-905b-4dfb-80eb-2afebc7708ea","ios":"levelo://app?vid=69b09ac4-905b-4dfb-80eb-2afebc7708ea"},"vehicle_type_id":"4","last_reported":1728922237,"current_range_meters":33200,"station_id":"ce4bhjp2rcd13ifvqga0","pricing_plan_id":"cebpf4jnsgd1na2vs0mg"},{"bike_id":"f6cacc32-4c70-4c4d-b1af-8be31c144bcd","system_id":"levelo_inurba_marseille","lat":43.25724,"lon":5.41113,"is_reserved":false,"is_disabled":false,"rental_uris":{"android":"levelo://app?vid=f6cacc32-4c70-4c4d-b1af-8be31c144bcd","ios":"levelo://app?vid=f6cacc32-4c70-4c4d-b1af-8be31c144bcd"},"vehicle_type_id":"4","last_reported":1728922237,"current_range_meters":30800,"station_id":"ce4bhkp2rcd13ifvqgd0","pricing_plan_id":"cebpf4jnsgd1na2vs0mg"},{"bike_id":"8a38256c-7951-4576-abb7-cd2c1d40fe52","system_id":"levelo_inurba_marseille","lat":43.29025,"lon":5.38649,"is_reserved":false,"is_disabled":false,"rental_uris":{"android":"levelo://app?vid=8a38256c-7951-4576-abb7-cd2c1d40fe52","ios":"levelo://app?vid=8a38256c-7951-4576-abb7-cd2c1d40fe52"},"vehicle_type_id":"4","last_reported":1728922237,"current_range_meters":5600,"station_id":"ce4bh4p2rcd13ifvqe0g","pricing_plan_id":"cebpf4jnsgd1na2vs0mg"},{"bike_id":"3647aa2c-7787-46b0-96c3-cfb94b2fcdcc","system_id":"levelo_inurba_marseille","lat":43.29005,"lon":5.35616,"is_reserved":false,"is_disabled":false,"rental_uris":{"android":"levelo://app?vid=3647aa2c-7787-46b0-96c3-cfb94b2fcdcc","ios":"levelo://app?vid=3647aa2c-7787-46b0-96c3-cfb94b2fcdcc"},"vehicle_type_id":"4","last_reported":1728922237,"current_range_meters":27600,"station_id":"ce4bhb92rcd13ifvqen0","pricing_plan_id":"cebpf4jnsgd1na2vs0mg"},{"bike_id":"23f4272c-a770-4eb3-be9f-77ffad020547","system_id":"levelo_inurba_marseille","lat":43.29918,"lon":5.37487,"is_reserved":false,"is_disabled":false,"rental_uris":{"android":"levelo://app?vid=23f4272c-a770-4eb3-be9f-77ffad020547","ios":"levelo://app?vid=23f4272c-a770-4eb3-be9f-77ffad020547"},"vehicle_type_id":"4","last_reported":1728922237,"current_range_meters":38400,"station_id":"ce4bgjh2rcd13ifvqbg0","pricing_plan_id":"cebpf4jnsgd1na2vs0mg"},{"bike_id":"1af2813b-98a0-4b62-aaf8-89652b30f639","system_id":"levelo_inurba_marseille","lat":43.22936,"lon":5.35378,"is_reserved":false,"is_disabled":false,"rental_uris":{"android":"levelo://app?vid=1af2813b-98a0-4b62-aaf8-89652b30f639","ios":"levelo://app?vid=1af2813b-98a0-4b62-aaf8-89652b30f639"},"vehicle_type_id":"4","last_reported":1728922237,"current_range_meters":35600,"station_id":"cpo3532slgdg3j2ikp40","pricing_plan_id":"cebpf4jnsgd1na2vs0mg"},{"bike_id":"85145c8d-ffe3-4050-8ffe-e1bbf4533bf2","system_id":"levelo_inurba_marseille","lat":43.29558,"lon":5.42287,"is_reserved":false,"is_disabled":false,"rental_uris":{"android":"levelo://app?vid=85145c8d-ffe3-4050-8ffe-e1bbf4533bf2","ios":"levelo://app?vid=85145c8d-ffe3-4050-8ffe-e1bbf4533bf2"},"vehicle_type_id":"4","last_reported":1728922237,"current_range_meters":32800,"station_id":"ce4bhph2rcd13ifvqhdg","pricing_plan_id":"cebpf4jnsgd1na2vs0mg"},{"bike_id":"924dcebd-6f14-4b48-bdd9-71b7ecd3af87","system_id":"levelo_inurba_marseille","lat":43.27917,"lon":5.39586,"is_reserved":false,"is_disabled":false,"rental_uris":{"android":"levelo://app?vid=924dcebd-6f14-4b48-bdd9-71b7ecd3af87","ios":"levelo://app?vid=924dcebd-6f14-4b48-bdd9-71b7ecd3af87"},"vehicle_type_id":"4","last_reported":1728922237,"current_range_meters":38800,"station_id":"ce4bhf92rcd13ifvqf40","pricing_plan_id":"cebpf4jnsgd1na2vs0mg"},{"bike_id":"f93454e1-a669-4c63-a4ca-b572042c7971","system_id":"levelo_inurba_marseille","lat":43.23192,"lon":5.35559,"is_reserved":false,"is_disabled":false,"rental_uris":{"android":"levelo://app?vid=f93454e1-a669-4c63-a4ca-b572042c7971","ios":"levelo://app?vid=f93454e1-a669-4c63-a4ca-b572042c7971"},"vehicle_type_id":"4","last_reported":1728922237,"current_range_meters":28800,"station_id":"ce4bhu92rcd13ifvqi70","pricing_plan_id":"cebpf4jnsgd1na2vs0mg"},{"bike_id":"25f31db3-1832-4fa9-9620-294854643f7c","system_id":"levelo_inurba_marseille","lat":43.29251,"lon":5.40904,"is_reserved":false,"is_disabled":false,"rental_uris":{"android":"levelo://app?vid=25f31db3-1832-4fa9-9620-294854643f7c","ios":"levelo://app?vid=25f31db3-1832-4fa9-9620-294854643f7c"},"vehicle_type_id":"4","last_reported":1728922237,"current_range_meters":39200,"station_id":"ce4bh192rcd13ifvqdc0","pricing_plan_id":"cebpf4jnsgd1na2vs0mg"},{"bike_id":"4c94bfca-6498-4fc4-88ce-a5348fb759b2","system_id":"levelo_inurba_marseille","lat":43.30596,"lon":5.37232,"is_reserved":false,"is_disabled":false,"rental_uris":{"android":"levelo://app?vid=4c94bfca-6498-4fc4-88ce-a5348fb759b2","ios":"levelo://app?vid=4c94bfca-6498-4fc4-88ce-a5348fb759b2"},"vehicle_type_id":"4","last_reported":1728922237,"current_range_meters":8400,"station_id":"ce4bgqh2rcd13ifvqc4g","pricing_plan_id":"cebpf4jnsgd1na2vs0mg"},{"bike_id":"ff629f2e-493e-477b-b655-bcede2b74a55","system_id":"levelo_inurba_marseille","lat":43.29195,"lon":5.39321,"is_reserved":false,"is_disabled":false,"rental_uris":{"android":"levelo://app?vid=ff629f2e-493e-477b-b655-bcede2b74a55","ios":"levelo://app?vid=ff629f2e-493e-477b-b655-bcede2b74a55"},"vehicle_type_id":"4","last_reported":1728922237,"current_range_meters":38800,"station_id":"ce4bh192rcd13ifvqdd0","pricing_plan_id":"cebpf4jnsgd1na2vs0mg"},{"bike_id":"6a344486-14e7-432e-98bf-b8beed8e06c6","system_id":"levelo_inurba_marseille","lat":43.32336,"lon":5.38328,"is_reserved":false,"is_disabled":false,"rental_uris":{"android":"levelo://app?vid=6a344486-14e7-432e-98bf-b8beed8e06c6","ios":"levelo://app?vid=6a344486-14e7-432e-98bf-b8beed8e06c6"},"vehicle_type_id":"4","last_reported":1728922237,"current_range_meters":34800,"station_id":"","pricing_plan_id":"cebpf4jnsgd1na2vs0mg"},{"bike_id":"fc9ea00d-8057-4ce8-96b9-a98501c16984","system_id":"levelo_inurba_marseille","lat":43.28275,"lon":5.35069,"is_reserved":false,"is_disabled":false,"rental_uris":{"android":"levelo://app?vid=fc9ea00d-8057-4ce8-96b9-a98501c16984","ios":"levelo://app?vid=fc9ea00d-8057-4ce8-96b9-a98501c16984"},"vehicle_type_id":"4","last_reported":1728922237,"current_range_meters":3200,"station_id":"ce4bhbp2rcd13ifvqerg","pricing_plan_id":"cebpf4jnsgd1na2vs0mg"},{"bike_id":"6b6c40a7-31c3-45c2-9ed8-4744786dc7f0","system_id":"levelo_inurba_marseille","lat":43.33724,"lon":5.392,"is_reserved":false,"is_disabled":false,"rental_uris":{"android":"levelo://app?vid=6b6c40a7-31c3-45c2-9ed8-4744786dc7f0","ios":"levelo://app?vid=6b6c40a7-31c3-45c2-9ed8-4744786dc7f0"},"vehicle_type_id":"4","last_reported":1728922237,"current_range_meters":23200,"station_id":"ce4bhr92rcd13ifvqhsg","pricing_plan_id":"cebpf4jnsgd1na2vs0mg"},{"bike_id":"826e67a1-1f1b-48d5-9965-734aa482296d","system_id":"levelo_inurba_marseille","lat":43.30797,"lon":5.43524,"is_reserved":false,"is_disabled":false,"rental_uris":{"android":"levelo://app?vid=826e67a1-1f1b-48d5-9965-734aa482296d","ios":"levelo://app?vid=826e67a1-1f1b-48d5-9965-734aa482296d"},"vehicle_type_id":"4","last_reported":1728922237,"current_range_meters":10800,"station_id":"ce4bhph2rcd13ifvqheg","pricing_plan_id":"cebpf4jnsgd1na2vs0mg"},{"bike_id":"754da881-cbc9-4b35-beb2-51d368048841","system_id":"levelo_inurba_marseille","lat":43.33734,"lon":5.37465,"is_reserved":false,"is_disabled":false,"rental_uris":{"android":"levelo://app?vid=754da881-cbc9-4b35-beb2-51d368048841","ios":"levelo://app?vid=754da881-cbc9-4b35-beb2-51d368048841"},"vehicle_type_id":"4","last_reported":1728922237,"current_range_meters":38000,"station_id":"","pricing_plan_id":"cebpf4jnsgd1na2vs0mg"},{"bike_id":"9661e3e6-2235-4937-a7f3-a8e25125c744","system_id":"levelo_inurba_marseille","lat":43.3043,"lon":5.38882,"is_reserved":false,"is_disabled":false,"rental_uris":{"android":"levelo://app?vid=9661e3e6-2235-4937-a7f3-a8e25125c744","ios":"levelo://app?vid=9661e3e6-2235-4937-a7f3-a8e25125c744"},"vehicle_type_id":"4","last_reported":1728922237,"current_range_meters":4000,"station_id":"ce4bgk12rcd13ifvqbi0","pricing_plan_id":"cebpf4jnsgd1na2vs0mg"},{"bike_id":"dcd9c2d3-0fb7-41e9-a6a9-4039f2f8d9b8","system_id":"levelo_inurba_marseille","lat":43.22934,"lon":5.35375,"is_reserved":false,"is_disabled":false,"rental_uris":{"android":"levelo://app?vid=dcd9c2d3-0fb7-41e9-a6a9-4039f2f8d9b8","ios":"levelo://app?vid=dcd9c2d3-0fb7-41e9-a6a9-4039f2f8d9b8"},"vehicle_type_id":"4","last_reported":1728922237,"current_range_meters":22800,"station_id":"cpo3532slgdg3j2ikp40","pricing_plan_id":"cebpf4jnsgd1na2vs0mg"},{"bike_id":"80004c0b-1888-4bc4-861c-1bb18fe1efd7","system_id":"levelo_inurba_marseille","lat":43.29554,"lon":5.42293,"is_reserved":false,"is_disabled":false,"rental_uris":{"android":"levelo://app?vid=80004c0b-1888-4bc4-861c-1bb18fe1efd7","ios":"levelo://app?vid=80004c0b-1888-4bc4-861c-1bb18fe1efd7"},"vehicle_type_id":"4","last_reported":1728922237,"current_range_meters":20400,"station_id":"ce4bhph2rcd13ifvqhdg","pricing_plan_id":"cebpf4jnsgd1na2vs0mg"},{"bike_id":"552ef3f0-704a-498c-ae10-da5e2e2c864e","system_id":"levelo_inurba_marseille","lat":43.31325,"lon":5.39699,"is_reserved":false,"is_disabled":false,"rental_uris":{"android":"levelo://app?vid=552ef3f0-704a-498c-ae10-da5e2e2c864e","ios":"levelo://app?vid=552ef3f0-704a-498c-ae10-da5e2e2c864e"},"vehicle_type_id":"4","last_reported":1728922237,"current_range_meters":38800,"station_id":"ce4bgvp2rcd13ifvqcu0","pricing_plan_id":"cebpf4jnsgd1na2vs0mg"},{"bike_id":"35f0d407-8a32-41d1-bb9d-1988c85702ad","system_id":"levelo_inurba_marseille","lat":43.25491,"lon":5.3765,"is_reserved":false,"is_disabled":false,"rental_uris":{"android":"levelo://app?vid=35f0d407-8a32-41d1-bb9d-1988c85702ad","ios":"levelo://app?vid=35f0d407-8a32-41d1-bb9d-1988c85702ad"},"vehicle_type_id":"4","last_reported":1728922237,"current_range_meters":32400,"station_id":"ce4bhh12rcd13ifvqff0","pricing_plan_id":"cebpf4jnsgd1na2vs0mg"},{"bike_id":"b5d7dcd2-8a72-43ec-b95b-bda03c934296","system_id":"levelo_inurba_marseille","lat":43.29255,"lon":5.40908,"is_reserved":false,"is_disabled":false,"rental_uris":{"android":"levelo://app?vid=b5d7dcd2-8a72-43ec-b95b-bda03c934296","ios":"levelo://app?vid=b5d7dcd2-8a72-43ec-b95b-bda03c934296"},"vehicle_type_id":"4","last_reported":1728922237,"current_range_meters":32000,"station_id":"ce4bh192rcd13ifvqdc0","pricing_plan_id":"cebpf4jnsgd1na2vs0mg"},{"bike_id":"62457f56-b0dc-49b5-a61f-6d80b652d62a","system_id":"levelo_inurba_marseille","lat":43.24654,"lon":5.38893,"is_reserved":false,"is_disabled":false,"rental_uris":{"android":"levelo://app?vid=62457f56-b0dc-49b5-a61f-6d80b652d62a","ios":"levelo://app?vid=62457f56-b0dc-49b5-a61f-6d80b652d62a"},"vehicle_type_id":"4","last_reported":1728922237,"current_range_meters":30000,"station_id":"ce4bhg12rcd13ifvqf60","pricing_plan_id":"cebpf4jnsgd1na2vs0mg"},{"bike_id":"c12437bb-4036-46e1-bfd2-7ca6730e6490","system_id":"levelo_inurba_marseille","lat":43.29728,"lon":5.37683,"is_reserved":false,"is_disabled":false,"rental_uris":{"android":"levelo://app?vid=c12437bb-4036-46e1-bfd2-7ca6730e6490","ios":"levelo://app?vid=c12437bb-4036-46e1-bfd2-7ca6730e6490"},"vehicle_type_id":"4","last_reported":1728922237,"current_range_meters":38800,"station_id":"ce4bgkh2rcd13ifvqbl0","pricing_plan_id":"cebpf4jnsgd1na2vs0mg"},{"bike_id":"d9cfca96-a963-4ffd-ba0f-4167c8e72d4f","system_id":"levelo_inurba_marseille","lat":43.27064,"lon":5.4026,"is_reserved":false,"is_disabled":false,"rental_uris":{"android":"levelo://app?vid=d9cfca96-a963-4ffd-ba0f-4167c8e72d4f","ios":"levelo://app?vid=d9cfca96-a963-4ffd-ba0f-4167c8e72d4f"},"vehicle_type_id":"4","last_reported":1728922237,"current_range_meters":28000,"station_id":"ce4bhk92rcd13ifvqgc0","pricing_plan_id":"cebpf4jnsgd1na2vs0mg"},{"bike_id":"824fc291-63f2-4605-b264-772dcd3cef17","system_id":"levelo_inurba_marseille","lat":43.3372,"lon":5.39186,"is_reserved":false,"is_disabled":false,"rental_uris":{"android":"levelo://app?vid=824fc291-63f2-4605-b264-772dcd3cef17","ios":"levelo://app?vid=824fc291-63f2-4605-b264-772dcd3cef17"},"vehicle_type_id":"4","last_reported":1728922237,"current_range_meters":25600,"station_id":"ce4bhr92rcd13ifvqhsg","pricing_plan_id":"cebpf4jnsgd1na2vs0mg"},{"bike_id":"495db04a-ff6b-4d90-a42c-04dcfc509040","system_id":"levelo_inurba_marseille","lat":43.2649,"lon":5.39553,"is_reserved":false,"is_disabled":false,"rental_uris":{"android":"levelo://app?vid=495db04a-ff6b-4d90-a42c-04dcfc509040","ios":"levelo://app?vid=495db04a-ff6b-4d90-a42c-04dcfc509040"},"vehicle_type_id":"4","last_reported":1728922237,"current_range_meters":38000,"station_id":"ce4bhi12rcd13ifvqfq0","pricing_plan_id":"cebpf4jnsgd1na2vs0mg"},{"bike_id":"f269126c-1b0b-4a1a-a1d6-f8c3716f5336","system_id":"levelo_inurba_marseille","lat":43.23196,"lon":5.35552,"is_reserved":false,"is_disabled":false,"rental_uris":{"android":"levelo://app?vid=f269126c-1b0b-4a1a-a1d6-f8c3716f5336","ios":"levelo://app?vid=f269126c-1b0b-4a1a-a1d6-f8c3716f5336"},"vehicle_type_id":"4","last_reported":1728922237,"current_range_meters":36800,"station_id":"ce4bhu92rcd13ifvqi70","pricing_plan_id":"cebpf4jnsgd1na2vs0mg"},{"bike_id":"d798e7f5-f5c0-4024-b1bd-50a2cdb398f6","system_id":"levelo_inurba_marseille","lat":43.28929,"lon":5.38396,"is_reserved":false,"is_disabled":false,"rental_uris":{"android":"levelo://app?vid=d798e7f5-f5c0-4024-b1bd-50a2cdb398f6","ios":"levelo://app?vid=d798e7f5-f5c0-4024-b1bd-50a2cdb398f6"},"vehicle_type_id":"4","last_reported":1728922237,"current_range_meters":37600,"station_id":"ce4bh612rcd13ifvqe6g","pricing_plan_id":"cebpf4jnsgd1na2vs0mg"},{"bike_id":"6f4b79a1-feca-496a-a641-6bdad1c9828a","system_id":"levelo_inurba_marseille","lat":43.32478,"lon":5.36584,"is_reserved":false,"is_disabled":false,"rental_uris":{"android":"levelo://app?vid=6f4b79a1-feca-496a-a641-6bdad1c9828a","ios":"levelo://app?vid=6f4b79a1-feca-496a-a641-6bdad1c9828a"},"vehicle_type_id":"4","last_reported":1728922237,"current_range_meters":40000,"station_id":"ce4bhs12rcd13ifvqhvg","pricing_plan_id":"cebpf4jnsgd1na2vs0mg"},{"bike_id":"e1f229f9-fee6-4bc7-b969-a8ff9aae6841","system_id":"levelo_inurba_marseille","lat":43.29051,"lon":5.35917,"is_reserved":false,"is_disabled":false,"rental_uris":{"android":"levelo://app?vid=e1f229f9-fee6-4bc7-b969-a8ff9aae6841","ios":"levelo://app?vid=e1f229f9-fee6-4bc7-b969-a8ff9aae6841"},"vehicle_type_id":"4","last_reported":1728922237,"current_range_meters":38000,"station_id":"ce4bha92rcd13ifvqeg0","pricing_plan_id":"cebpf4jnsgd1na2vs0mg"},{"bike_id":"6a7fbf13-afa2-493c-85e2-ca41b73dc26a","system_id":"levelo_inurba_marseille","lat":43.288842,"lon":5.353964,"is_reserved":false,"is_disabled":false,"rental_uris":{"android":"levelo://app?vid=6a7fbf13-afa2-493c-85e2-ca41b73dc26a","ios":"levelo://app?vid=6a7fbf13-afa2-493c-85e2-ca41b73dc26a"},"vehicle_type_id":"4","last_reported":1728922237,"current_range_meters":26800,"station_id":"ce4bhb92rcd13ifvqen0","pricing_plan_id":"cebpf4jnsgd1na2vs0mg"},{"bike_id":"c377bb64-5d0e-4a64-a6a8-1e2f69242577","system_id":"levelo_inurba_marseille","lat":43.29896,"lon":5.43671,"is_reserved":false,"is_disabled":false,"rental_uris":{"android":"levelo://app?vid=c377bb64-5d0e-4a64-a6a8-1e2f69242577","ios":"levelo://app?vid=c377bb64-5d0e-4a64-a6a8-1e2f69242577"},"vehicle_type_id":"4","last_reported":1728922237,"current_range_meters":7200,"station_id":"ce4bhpp2rcd13ifvqhfg","pricing_plan_id":"cebpf4jnsgd1na2vs0mg"},{"bike_id":"fc408314-a8ae-46a2-8015-9fa787404479","system_id":"levelo_inurba_marseille","lat":43.25822,"lon":5.39443,"is_reserved":false,"is_disabled":false,"rental_uris":{"android":"levelo://app?vid=fc408314-a8ae-46a2-8015-9fa787404479","ios":"levelo://app?vid=fc408314-a8ae-46a2-8015-9fa787404479"},"vehicle_type_id":"4","last_reported":1728922237,"current_range_meters":19600,"station_id":"ce4bhip2rcd13ifvqft0","pricing_plan_id":"cebpf4jnsgd1na2vs0mg"},{"bike_id":"4943c5ec-3563-423a-9303-c56ee778f007","system_id":"levelo_inurba_marseille","lat":43.26943,"lon":5.40253,"is_reserved":false,"is_disabled":false,"rental_uris":{"android":"levelo://app?vid=4943c5ec-3563-423a-9303-c56ee778f007","ios":"levelo://app?vid=4943c5ec-3563-423a-9303-c56ee778f007"},"vehicle_type_id":"4","last_reported":1728922237,"current_range_meters":32400,"station_id":"cjm6bp8fraef2m0cb0m0","pricing_plan_id":"cebpf4jnsgd1na2vs0mg"},{"bike_id":"262fd014-e30d-43d7-ad9d-63c21a7313a2","system_id":"levelo_inurba_marseille","lat":43.29897,"lon":5.4367,"is_reserved":false,"is_disabled":false,"rental_uris":{"android":"levelo://app?vid=262fd014-e30d-43d7-ad9d-63c21a7313a2","ios":"levelo://app?vid=262fd014-e30d-43d7-ad9d-63c21a7313a2"},"vehicle_type_id":"4","last_reported":1728922237,"current_range_meters":40000,"station_id":"ce4bhpp2rcd13ifvqhfg","pricing_plan_id":"cebpf4jnsgd1na2vs0mg"},{"bike_id":"94d48054-be54-488d-a425-2deb433f452c","system_id":"levelo_inurba_marseille","lat":43.29801,"lon":5.36439,"is_reserved":false,"is_disabled":false,"rental_uris":{"android":"levelo://app?vid=94d48054-be54-488d-a425-2deb433f452c","ios":"levelo://app?vid=94d48054-be54-488d-a425-2deb433f452c"},"vehicle_type_id":"4","last_reported":1728922237,"current_range_meters":28400,"station_id":"ce4bgnh2rcd13ifvqc0g","pricing_plan_id":"cebpf4jnsgd1na2vs0mg"},{"bike_id":"2146558d-993b-4010-bf4d-b2b87f16d98f","system_id":"levelo_inurba_marseille","lat":43.30805,"lon":5.43529,"is_reserved":false,"is_disabled":false,"rental_uris":{"android":"levelo://app?vid=2146558d-993b-4010-bf4d-b2b87f16d98f","ios":"levelo://app?vid=2146558d-993b-4010-bf4d-b2b87f16d98f"},"vehicle_type_id":"4","last_reported":1728922237,"current_range_meters":26800,"station_id":"ce4bhph2rcd13ifvqheg","pricing_plan_id":"cebpf4jnsgd1na2vs0mg"},{"bike_id":"4cbe9c6b-a52d-4315-a7cf-9585554fa4ca","system_id":"levelo_inurba_marseille","lat":43.27211,"lon":5.39178,"is_reserved":false,"is_disabled":false,"rental_uris":{"android":"levelo://app?vid=4cbe9c6b-a52d-4315-a7cf-9585554fa4ca","ios":"levelo://app?vid=4cbe9c6b-a52d-4315-a7cf-9585554fa4ca"},"vehicle_type_id":"4","last_reported":1728922237,"current_range_meters":1200,"station_id":"ce4bhhp2rcd13ifvqfm0","pricing_plan_id":"cebpf4jnsgd1na2vs0mg"},{"bike_id":"c6710237-b445-4862-8616-47ea11d83d0f","system_id":"levelo_inurba_marseille","lat":43.24161,"lon":5.36394,"is_reserved":false,"is_disabled":false,"rental_uris":{"android":"levelo://app?vid=c6710237-b445-4862-8616-47ea11d83d0f","ios":"levelo://app?vid=c6710237-b445-4862-8616-47ea11d83d0f"},"vehicle_type_id":"4","last_reported":1728922237,"current_range_meters":28800,"station_id":"cpo36qri1sfpv3e86is0","pricing_plan_id":"cebpf4jnsgd1na2vs0mg"},{"bike_id":"9ff16070-a652-45e6-874b-dca27591a026","system_id":"levelo_inurba_marseille","lat":43.30802,"lon":5.43531,"is_reserved":false,"is_disabled":false,"rental_uris":{"android":"levelo://app?vid=9ff16070-a652-45e6-874b-dca27591a026","ios":"levelo://app?vid=9ff16070-a652-45e6-874b-dca27591a026"},"vehicle_type_id":"4","last_reported":1728922237,"current_range_meters":11200,"station_id":"ce4bhph2rcd13ifvqheg","pricing_plan_id":"cebpf4jnsgd1na2vs0mg"},{"bike_id":"85aea9e2-9f24-4618-9fbe-0bb7940b8dbe","system_id":"levelo_inurba_marseille","lat":43.29533,"lon":5.38541,"is_reserved":false,"is_disabled":false,"rental_uris":{"android":"levelo://app?vid=85aea9e2-9f24-4618-9fbe-0bb7940b8dbe","ios":"levelo://app?vid=85aea9e2-9f24-4618-9fbe-0bb7940b8dbe"},"vehicle_type_id":"4","last_reported":1728922237,"current_range_meters":20000,"station_id":"ce4bgih2rcd13ifvqba0","pricing_plan_id":"cebpf4jnsgd1na2vs0mg"},{"bike_id":"526e33a8-5df4-4476-9f48-88366adcf3a8","system_id":"levelo_inurba_marseille","lat":43.28723,"lon":5.36094,"is_reserved":false,"is_disabled":false,"rental_uris":{"android":"levelo://app?vid=526e33a8-5df4-4476-9f48-88366adcf3a8","ios":"levelo://app?vid=526e33a8-5df4-4476-9f48-88366adcf3a8"},"vehicle_type_id":"4","last_reported":1728922237,"current_range_meters":8000,"station_id":"cki0cbj6b192h4jlfktg","pricing_plan_id":"cebpf4jnsgd1na2vs0mg"},{"bike_id":"e466299e-ab40-4918-901f-bda24e5fe0b3","system_id":"levelo_inurba_marseille","lat":43.30249,"lon":5.40057,"is_reserved":false,"is_disabled":false,"rental_uris":{"android":"levelo://app?vid=e466299e-ab40-4918-901f-bda24e5fe0b3","ios":"levelo://app?vid=e466299e-ab40-4918-901f-bda24e5fe0b3"},"vehicle_type_id":"4","last_reported":1728922237,"current_range_meters":9600,"station_id":"ce4bgvh2rcd13ifvqcs0","pricing_plan_id":"cebpf4jnsgd1na2vs0mg"},{"bike_id":"7e57da64-3af7-4a5a-954e-66618d4b5fe4","system_id":"levelo_inurba_marseille","lat":43.25451,"lon":5.38182,"is_reserved":false,"is_disabled":false,"rental_uris":{"android":"levelo://app?vid=7e57da64-3af7-4a5a-954e-66618d4b5fe4","ios":"levelo://app?vid=7e57da64-3af7-4a5a-954e-66618d4b5fe4"},"vehicle_type_id":"4","last_reported":1728922237,"current_range_meters":26000,"station_id":"ce4bhip2rcd13ifvqft0","pricing_plan_id":"cebpf4jnsgd1na2vs0mg"},{"bike_id":"a3d92d5d-06a6-491a-a900-e94736046b32","system_id":"levelo_inurba_marseille","lat":43.27622,"lon":5.36112,"is_reserved":false,"is_disabled":false,"rental_uris":{"android":"levelo://app?vid=a3d92d5d-06a6-491a-a900-e94736046b32","ios":"levelo://app?vid=a3d92d5d-06a6-491a-a900-e94736046b32"},"vehicle_type_id":"4","last_reported":1728922237,"current_range_meters":30000,"station_id":"ce4bgj92rcd13ifvqbe0","pricing_plan_id":"cebpf4jnsgd1na2vs0mg"},{"bike_id":"94e11af5-c82c-46ba-a34a-523a9d332fc3","system_id":"levelo_inurba_marseille","lat":43.28078,"lon":5.39662,"is_reserved":false,"is_disabled":false,"rental_uris":{"android":"levelo://app?vid=94e11af5-c82c-46ba-a34a-523a9d332fc3","ios":"levelo://app?vid=94e11af5-c82c-46ba-a34a-523a9d332fc3"},"vehicle_type_id":"4","last_reported":1728922237,"current_range_meters":37600,"station_id":"ce4bho12rcd13ifvqh2g","pricing_plan_id":"cebpf4jnsgd1na2vs0mg"},{"bike_id":"735220fb-fe42-4612-a5ca-02497202fbd1","system_id":"levelo_inurba_marseille","lat":43.289617,"lon":5.378398,"is_reserved":false,"is_disabled":false,"rental_uris":{"android":"levelo://app?vid=735220fb-fe42-4612-a5ca-02497202fbd1","ios":"levelo://app?vid=735220fb-fe42-4612-a5ca-02497202fbd1"},"vehicle_type_id":"4","last_reported":1728922237,"current_range_meters":7200,"station_id":"ce4bh9p2rcd13ifvqec0","pricing_plan_id":"cebpf4jnsgd1na2vs0mg"},{"bike_id":"1a9a31a6-e8ac-4b17-9de9-e4e8912dea01","system_id":"levelo_inurba_marseille","lat":43.29574,"lon":5.37518,"is_reserved":false,"is_disabled":false,"rental_uris":{"android":"levelo://app?vid=1a9a31a6-e8ac-4b17-9de9-e4e8912dea01","ios":"levelo://app?vid=1a9a31a6-e8ac-4b17-9de9-e4e8912dea01"},"vehicle_type_id":"4","last_reported":1728922237,"current_range_meters":33600,"station_id":"ce4bgh92rcd13ifvqb50","pricing_plan_id":"cebpf4jnsgd1na2vs0mg"},{"bike_id":"bef2fd9d-ff07-4a0e-81ee-7eae6c4d24c4","system_id":"levelo_inurba_marseille","lat":43.33753,"lon":5.37458,"is_reserved":false,"is_disabled":false,"rental_uris":{"android":"levelo://app?vid=bef2fd9d-ff07-4a0e-81ee-7eae6c4d24c4","ios":"levelo://app?vid=bef2fd9d-ff07-4a0e-81ee-7eae6c4d24c4"},"vehicle_type_id":"4","last_reported":1728922237,"current_range_meters":13600,"station_id":"","pricing_plan_id":"cebpf4jnsgd1na2vs0mg"},{"bike_id":"c3eb21a0-f0e3-4650-a881-d10fdfd416cb","system_id":"levelo_inurba_marseille","lat":43.28516,"lon":5.36888,"is_reserved":false,"is_disabled":false,"rental_uris":{"android":"levelo://app?vid=c3eb21a0-f0e3-4650-a881-d10fdfd416cb","ios":"levelo://app?vid=c3eb21a0-f0e3-4650-a881-d10fdfd416cb"},"vehicle_type_id":"4","last_reported":1728922237,"current_range_meters":4400,"station_id":"","pricing_plan_id":"cebpf4jnsgd1na2vs0mg"},{"bike_id":"2ca4206d-efa4-4f26-a528-e5a85beffeec","system_id":"levelo_inurba_marseille","lat":43.32487,"lon":5.3657,"is_reserved":false,"is_disabled":false,"rental_uris":{"android":"levelo://app?vid=2ca4206d-efa4-4f26-a528-e5a85beffeec","ios":"levelo://app?vid=2ca4206d-efa4-4f26-a528-e5a85beffeec"},"vehicle_type_id":"4","last_reported":1728922237,"current_range_meters":38800,"station_id":"ce4bhs12rcd13ifvqhvg","pricing_plan_id":"cebpf4jnsgd1na2vs0mg"},{"bike_id":"06f7e7d5-c02a-4a5d-a58b-182fe7c71205","system_id":"levelo_inurba_marseille","lat":43.29782,"lon":5.39331,"is_reserved":false,"is_disabled":false,"rental_uris":{"android":"levelo://app?vid=06f7e7d5-c02a-4a5d-a58b-182fe7c71205","ios":"levelo://app?vid=06f7e7d5-c02a-4a5d-a58b-182fe7c71205"},"vehicle_type_id":"4","last_reported":1728922237,"current_range_meters":20000,"station_id":"chh1huq6cuj3fo74tm60","pricing_plan_id":"cebpf4jnsgd1na2vs0mg"},{"bike_id":"146fc44b-cbdf-4c0e-bbe8-c0c3bfbaee91","system_id":"levelo_inurba_marseille","lat":43.29877,"lon":5.38923,"is_reserved":false,"is_disabled":false,"rental_uris":{"android":"levelo://app?vid=146fc44b-cbdf-4c0e-bbe8-c0c3bfbaee91","ios":"levelo://app?vid=146fc44b-cbdf-4c0e-bbe8-c0c3bfbaee91"},"vehicle_type_id":"4","last_reported":1728922237,"current_range_meters":28400,"station_id":"ce4bh392rcd13ifvqdl0","pricing_plan_id":"cebpf4jnsgd1na2vs0mg"},{"bike_id":"b54970f2-04f1-4ce5-9bf0-1178dabf40a0","system_id":"levelo_inurba_marseille","lat":43.30086,"lon":5.39076,"is_reserved":false,"is_disabled":false,"rental_uris":{"android":"levelo://app?vid=b54970f2-04f1-4ce5-9bf0-1178dabf40a0","ios":"levelo://app?vid=b54970f2-04f1-4ce5-9bf0-1178dabf40a0"},"vehicle_type_id":"4","last_reported":1728922237,"current_range_meters":25200,"station_id":"ce4bh192rcd13ifvqdb0","pricing_plan_id":"cebpf4jnsgd1na2vs0mg"},{"bike_id":"e9af30b3-c3db-4ec6-9b00-d13c6ad8558d","system_id":"levelo_inurba_marseille","lat":43.28856,"lon":5.3931,"is_reserved":false,"is_disabled":false,"rental_uris":{"android":"levelo://app?vid=e9af30b3-c3db-4ec6-9b00-d13c6ad8558d","ios":"levelo://app?vid=e9af30b3-c3db-4ec6-9b00-d13c6ad8558d"},"vehicle_type_id":"4","last_reported":1728922237,"current_range_meters":3600,"station_id":"ce4bh2p2rcd13ifvqdi0","pricing_plan_id":"cebpf4jnsgd1na2vs0mg"},{"bike_id":"7c87b88d-a5d4-4490-9ef9-c23451c771b1","system_id":"levelo_inurba_marseille","lat":43.30593,"lon":5.39362,"is_reserved":false,"is_disabled":false,"rental_uris":{"android":"levelo://app?vid=7c87b88d-a5d4-4490-9ef9-c23451c771b1","ios":"levelo://app?vid=7c87b88d-a5d4-4490-9ef9-c23451c771b1"},"vehicle_type_id":"4","last_reported":1728922237,"current_range_meters":24800,"station_id":"ce4bh0p2rcd13ifvqd80","pricing_plan_id":"cebpf4jnsgd1na2vs0mg"},{"bike_id":"7feaaa42-294f-491f-a16e-aa608e0114eb","system_id":"levelo_inurba_marseille","lat":43.2761,"lon":5.36109,"is_reserved":false,"is_disabled":false,"rental_uris":{"android":"levelo://app?vid=7feaaa42-294f-491f-a16e-aa608e0114eb","ios":"levelo://app?vid=7feaaa42-294f-491f-a16e-aa608e0114eb"},"vehicle_type_id":"4","last_reported":1728922237,"current_range_meters":38000,"station_id":"ce4bgj92rcd13ifvqbe0","pricing_plan_id":"cebpf4jnsgd1na2vs0mg"},{"bike_id":"b0092b39-243a-4c34-8372-2147390a31a0","system_id":"levelo_inurba_marseille","lat":43.296295,"lon":5.405925,"is_reserved":false,"is_disabled":false,"rental_uris":{"android":"levelo://app?vid=b0092b39-243a-4c34-8372-2147390a31a0","ios":"levelo://app?vid=b0092b39-243a-4c34-8372-2147390a31a0"},"vehicle_type_id":"4","last_reported":1728922237,"current_range_meters":11200,"station_id":"ce4bh0h2rcd13ifvqd60","pricing_plan_id":"cebpf4jnsgd1na2vs0mg"},{"bike_id":"b305cc60-953a-4c28-808d-9bcc4fbbb470","system_id":"levelo_inurba_marseille","lat":43.30791,"lon":5.37661,"is_reserved":false,"is_disabled":false,"rental_uris":{"android":"levelo://app?vid=b305cc60-953a-4c28-808d-9bcc4fbbb470","ios":"levelo://app?vid=b305cc60-953a-4c28-808d-9bcc4fbbb470"},"vehicle_type_id":"4","last_reported":1728922237,"current_range_meters":34800,"station_id":"ce4bgv92rcd13ifvqcq0","pricing_plan_id":"cebpf4jnsgd1na2vs0mg"},{"bike_id":"a1e0278e-920e-4eea-a381-891331e8e403","system_id":"levelo_inurba_marseille","lat":43.231964,"lon":5.355528,"is_reserved":false,"is_disabled":false,"rental_uris":{"android":"levelo://app?vid=a1e0278e-920e-4eea-a381-891331e8e403","ios":"levelo://app?vid=a1e0278e-920e-4eea-a381-891331e8e403"},"vehicle_type_id":"4","last_reported":1728922237,"current_range_meters":10000,"station_id":"ce4bhu92rcd13ifvqi70","pricing_plan_id":"cebpf4jnsgd1na2vs0mg"},{"bike_id":"3acbdca7-c4d4-479a-b8e8-df8b48a913fc","system_id":"levelo_inurba_marseille","lat":43.30538,"lon":5.36557,"is_reserved":false,"is_disabled":false,"rental_uris":{"android":"levelo://app?vid=3acbdca7-c4d4-479a-b8e8-df8b48a913fc","ios":"levelo://app?vid=3acbdca7-c4d4-479a-b8e8-df8b48a913fc"},"vehicle_type_id":"4","last_reported":1728922237,"current_range_meters":36800,"station_id":"ce4bgs12rcd13ifvqcag","pricing_plan_id":"cebpf4jnsgd1na2vs0mg"},{"bike_id":"64dd14ef-c2a2-4ef8-9a65-d58854eccf94","system_id":"levelo_inurba_marseille","lat":43.29592,"lon":5.3809,"is_reserved":false,"is_disabled":false,"rental_uris":{"android":"levelo://app?vid=64dd14ef-c2a2-4ef8-9a65-d58854eccf94","ios":"levelo://app?vid=64dd14ef-c2a2-4ef8-9a65-d58854eccf94"},"vehicle_type_id":"4","last_reported":1728922237,"current_range_meters":16000,"station_id":"ce4bgl12rcd13ifvqbo0","pricing_plan_id":"cebpf4jnsgd1na2vs0mg"},{"bike_id":"e4ffd9ae-803c-460a-8cb2-385b7755d4bf","system_id":"levelo_inurba_marseille","lat":43.27047,"lon":5.40266,"is_reserved":false,"is_disabled":false,"rental_uris":{"android":"levelo://app?vid=e4ffd9ae-803c-460a-8cb2-385b7755d4bf","ios":"levelo://app?vid=e4ffd9ae-803c-460a-8cb2-385b7755d4bf"},"vehicle_type_id":"4","last_reported":1728922237,"current_range_meters":11600,"station_id":"ce4bhk92rcd13ifvqgc0","pricing_plan_id":"cebpf4jnsgd1na2vs0mg"},{"bike_id":"b30ea0a5-a992-4f62-b104-8b85a3b952ff","system_id":"levelo_inurba_marseille","lat":43.28727,"lon":5.36093,"is_reserved":false,"is_disabled":false,"rental_uris":{"android":"levelo://app?vid=b30ea0a5-a992-4f62-b104-8b85a3b952ff","ios":"levelo://app?vid=b30ea0a5-a992-4f62-b104-8b85a3b952ff"},"vehicle_type_id":"4","last_reported":1728922237,"current_range_meters":6800,"station_id":"cki0cbj6b192h4jlfktg","pricing_plan_id":"cebpf4jnsgd1na2vs0mg"},{"bike_id":"ca282c9d-ede6-40bd-8d78-b7a99e365f50","system_id":"levelo_inurba_marseille","lat":43.31074,"lon":5.38354,"is_reserved":false,"is_disabled":false,"rental_uris":{"android":"levelo://app?vid=ca282c9d-ede6-40bd-8d78-b7a99e365f50","ios":"levelo://app?vid=ca282c9d-ede6-40bd-8d78-b7a99e365f50"},"vehicle_type_id":"4","last_reported":1728922237,"current_range_meters":35200,"station_id":"ce4bgv92rcd13ifvqcr0","pricing_plan_id":"cebpf4jnsgd1na2vs0mg"},{"bike_id":"01349898-7d0c-48b2-b18b-91a7e46953ec","system_id":"levelo_inurba_marseille","lat":43.29191,"lon":5.35818,"is_reserved":false,"is_disabled":false,"rental_uris":{"android":"levelo://app?vid=01349898-7d0c-48b2-b18b-91a7e46953ec","ios":"levelo://app?vid=01349898-7d0c-48b2-b18b-91a7e46953ec"},"vehicle_type_id":"4","last_reported":1728922237,"current_range_meters":33600,"station_id":"ce4bhb12rcd13ifvqel0","pricing_plan_id":"cebpf4jnsgd1na2vs0mg"},{"bike_id":"c7c9317a-b31e-41d4-97b8-1e63cb6583c9","system_id":"levelo_inurba_marseille","lat":43.231781,"lon":5.399857,"is_reserved":false,"is_disabled":false,"rental_uris":{"android":"levelo://app?vid=c7c9317a-b31e-41d4-97b8-1e63cb6583c9","ios":"levelo://app?vid=c7c9317a-b31e-41d4-97b8-1e63cb6583c9"},"vehicle_type_id":"4","last_reported":1728922237,"current_range_meters":16000,"station_id":"ce4bhn12rcd13ifvqgqg","pricing_plan_id":"cebpf4jnsgd1na2vs0mg"},{"bike_id":"928f0537-187a-41ff-9817-84560391db4c","system_id":"levelo_inurba_marseille","lat":43.29964,"lon":5.38485,"is_reserved":false,"is_disabled":false,"rental_uris":{"android":"levelo://app?vid=928f0537-187a-41ff-9817-84560391db4c","ios":"levelo://app?vid=928f0537-187a-41ff-9817-84560391db4c"},"vehicle_type_id":"4","last_reported":1728922237,"current_range_meters":16400,"station_id":"ce4bh112rcd13ifvqda0","pricing_plan_id":"cebpf4jnsgd1na2vs0mg"},{"bike_id":"21220a1a-6a25-4592-9b1b-001dab27945e","system_id":"levelo_inurba_marseille","lat":43.280055,"lon":5.400104,"is_reserved":false,"is_disabled":false,"rental_uris":{"android":"levelo://app?vid=21220a1a-6a25-4592-9b1b-001dab27945e","ios":"levelo://app?vid=21220a1a-6a25-4592-9b1b-001dab27945e"},"vehicle_type_id":"4","last_reported":1728922237,"current_range_meters":13600,"station_id":"ce4bho92rcd13ifvqh4g","pricing_plan_id":"cebpf4jnsgd1na2vs0mg"},{"bike_id":"f904a28b-f444-4976-83f9-84004dc0db15","system_id":"levelo_inurba_marseille","lat":43.31757,"lon":5.39014,"is_reserved":false,"is_disabled":false,"rental_uris":{"android":"levelo://app?vid=f904a28b-f444-4976-83f9-84004dc0db15","ios":"levelo://app?vid=f904a28b-f444-4976-83f9-84004dc0db15"},"vehicle_type_id":"4","last_reported":1728922237,"current_range_meters":10000,"station_id":"ce4bhqp2rcd13ifvqhng","pricing_plan_id":"cebpf4jnsgd1na2vs0mg"},{"bike_id":"dced9cce-c700-4bcd-94d9-0ade999e96a4","system_id":"levelo_inurba_marseille","lat":43.25578,"lon":5.38235,"is_reserved":false,"is_disabled":false,"rental_uris":{"android":"levelo://app?vid=dced9cce-c700-4bcd-94d9-0ade999e96a4","ios":"levelo://app?vid=dced9cce-c700-4bcd-94d9-0ade999e96a4"},"vehicle_type_id":"4","last_reported":1728922237,"current_range_meters":2800,"station_id":"ce4bhih2rcd13ifvqfs0","pricing_plan_id":"cebpf4jnsgd1na2vs0mg"},{"bike_id":"db119dba-fe5b-4e95-9bf3-ed4502b72e16","system_id":"levelo_inurba_marseille","lat":43.274191,"lon":5.394085,"is_reserved":false,"is_disabled":false,"rental_uris":{"android":"levelo://app?vid=db119dba-fe5b-4e95-9bf3-ed4502b72e16","ios":"levelo://app?vid=db119dba-fe5b-4e95-9bf3-ed4502b72e16"},"vehicle_type_id":"4","last_reported":1728922237,"current_range_meters":5600,"station_id":"ce4bhdp2rcd13ifvqf20","pricing_plan_id":"cebpf4jnsgd1na2vs0mg"},{"bike_id":"1666c81a-e4d1-440e-881d-388ec8ac968a","system_id":"levelo_inurba_marseille","lat":43.29377,"lon":5.37869,"is_reserved":false,"is_disabled":false,"rental_uris":{"android":"levelo://app?vid=1666c81a-e4d1-440e-881d-388ec8ac968a","ios":"levelo://app?vid=1666c81a-e4d1-440e-881d-388ec8ac968a"},"vehicle_type_id":"4","last_reported":1728922237,"current_range_meters":6000,"station_id":"ce4bgjh2rcd13ifvqbf0","pricing_plan_id":"cebpf4jnsgd1na2vs0mg"},{"bike_id":"46605cb9-c573-4f20-9094-a1b246f96b82","system_id":"levelo_inurba_marseille","lat":43.31724,"lon":5.42398,"is_reserved":false,"is_disabled":false,"rental_uris":{"android":"levelo://app?vid=46605cb9-c573-4f20-9094-a1b246f96b82","ios":"levelo://app?vid=46605cb9-c573-4f20-9094-a1b246f96b82"},"vehicle_type_id":"4","last_reported":1728922237,"current_range_meters":32000,"station_id":"ce4bhp92rcd13ifvqhbg","pricing_plan_id":"cebpf4jnsgd1na2vs0mg"},{"bike_id":"4eefa1ec-0d89-406a-9ba6-ab04341864b0","system_id":"levelo_inurba_marseille","lat":43.23195,"lon":5.35552,"is_reserved":false,"is_disabled":false,"rental_uris":{"android":"levelo://app?vid=4eefa1ec-0d89-406a-9ba6-ab04341864b0","ios":"levelo://app?vid=4eefa1ec-0d89-406a-9ba6-ab04341864b0"},"vehicle_type_id":"4","last_reported":1728922237,"current_range_meters":39200,"station_id":"ce4bhu92rcd13ifvqi70","pricing_plan_id":"cebpf4jnsgd1na2vs0mg"},{"bike_id":"e0c0124e-4dc2-4e33-92f0-414e45f2dffb","system_id":"levelo_inurba_marseille","lat":43.31327,"lon":5.39692,"is_reserved":false,"is_disabled":false,"rental_uris":{"android":"levelo://app?vid=e0c0124e-4dc2-4e33-92f0-414e45f2dffb","ios":"levelo://app?vid=e0c0124e-4dc2-4e33-92f0-414e45f2dffb"},"vehicle_type_id":"4","last_reported":1728922237,"current_range_meters":34000,"station_id":"ce4bgvp2rcd13ifvqcu0","pricing_plan_id":"cebpf4jnsgd1na2vs0mg"},{"bike_id":"48daaf97-d892-44b5-b6c7-4ecb1b3bef21","system_id":"levelo_inurba_marseille","lat":43.317134,"lon":5.377914,"is_reserved":false,"is_disabled":false,"rental_uris":{"android":"levelo://app?vid=48daaf97-d892-44b5-b6c7-4ecb1b3bef21","ios":"levelo://app?vid=48daaf97-d892-44b5-b6c7-4ecb1b3bef21"},"vehicle_type_id":"4","last_reported":1728922237,"current_range_meters":31200,"station_id":"ce4bgt92rcd13ifvqcf0","pricing_plan_id":"cebpf4jnsgd1na2vs0mg"},{"bike_id":"87150a05-d53b-4e9c-b611-12686ac435d6","system_id":"levelo_inurba_marseille","lat":43.3088,"lon":5.39655,"is_reserved":false,"is_disabled":false,"rental_uris":{"android":"levelo://app?vid=87150a05-d53b-4e9c-b611-12686ac435d6","ios":"levelo://app?vid=87150a05-d53b-4e9c-b611-12686ac435d6"},"vehicle_type_id":"4","last_reported":1728922237,"current_range_meters":20400,"station_id":"ce4bh012rcd13ifvqcv0","pricing_plan_id":"cebpf4jnsgd1na2vs0mg"},{"bike_id":"0b4212ec-24a2-4b44-8ee3-1d3664aca598","system_id":"levelo_inurba_marseille","lat":43.27921,"lon":5.39579,"is_reserved":false,"is_disabled":false,"rental_uris":{"android":"levelo://app?vid=0b4212ec-24a2-4b44-8ee3-1d3664aca598","ios":"levelo://app?vid=0b4212ec-24a2-4b44-8ee3-1d3664aca598"},"vehicle_type_id":"4","last_reported":1728922237,"current_range_meters":18000,"station_id":"ce4bhf92rcd13ifvqf40","pricing_plan_id":"cebpf4jnsgd1na2vs0mg"},{"bike_id":"beb3793e-896f-4dc4-91c4-73c0aa92ed55","system_id":"levelo_inurba_marseille","lat":43.27424,"lon":5.39415,"is_reserved":false,"is_disabled":false,"rental_uris":{"android":"levelo://app?vid=beb3793e-896f-4dc4-91c4-73c0aa92ed55","ios":"levelo://app?vid=beb3793e-896f-4dc4-91c4-73c0aa92ed55"},"vehicle_type_id":"4","last_reported":1728922237,"current_range_meters":34000,"station_id":"ce4bhdp2rcd13ifvqf20","pricing_plan_id":"cebpf4jnsgd1na2vs0mg"},