{"last_updated":1738995089,"ttl":60,"version":"2.2","data":{"bikes":[{"bike_id":"b8740638-8b15-4e39-9dd8-3d88c6eff33f","system_id":"levelo_inurba_marseille","lat":43.31277,"lon":5.36842,"is_reserved":false,"is_disabled":true,"rental_uris":{"android":"levelo://app?vid=b8740638-8b15-4e39-9dd8-3d88c6eff33f","ios":"levelo://app?vid=b8740638-8b15-4e39-9dd8-3d88c6eff33f"},"vehicle_type_id":"4","last_reported":1738995090,"current_range_meters":38000,"station_id":"ce4bgl92rcd13ifvqbq0","pricing_plan_id":"cebpf4jnsgd1na2vs0mg"},{"bike_id":"6c10f0d7-4244-4362-8fe1-6ba629525735","system_id":"levelo_inurba_marseille","lat":43.29026,"lon":5.38637,"is_reserved":false,"is_disabled":false,"rental_uris":{"android":"levelo://app?vid=6c10f0d7-4244-4362-8fe1-6ba629525735","ios":"levelo://app?vid=6c10f0d7-4244-4362-8fe1-6ba629525735"},"vehicle_type_id":"4","last_reported":1738995090,"current_range_meters":37600,"station_id":"ce4bh4p2rcd13ifvqe0g","pricing_plan_id":"cebpf4jnsgd1na2vs0mg"},{"bike_id":"ccdc6efe-ebdd-4ab0-9036-6ff3200f0168","system_id":"levelo_inurba_marseille","lat":43.271796,"lon":5.409936,"is_reserved":false,"is_disabled":true,"rental_uris":{"android":"levelo://app?vid=ccdc6efe-ebdd-4ab0-9036-6ff3200f0168","ios":"levelo://app?vid=ccdc6efe-ebdd-4ab0-9036-6ff3200f0168"},"vehicle_type_id":"4","last_reported":1738995090,"current_range_meters":28400,"station_id":"ce4bhl12rcd13ifvqgf0","pricing_plan_id":"cebpf4jnsgd1na2vs0mg"},{"bike_id":"feefdd7c-f4a3-48e3-8633-0e019ff3b8e3","system_id":"levelo_inurba_marseille","lat":43.29189,"lon":5.35789,"is_reserved":false,"is_disabled":true,"rental_uris":{"android":"levelo://app?vid=feefdd7c-f4a3-48e3-8633-0e019ff3b8e3","ios":"levelo://app?vid=feefdd7c-f4a3-48e3-8633-0e019ff3b8e3"},"vehicle_type_id":"4","last_reported":1738995090,"current_range_meters":28400,"station_id":"ce4bhb12rcd13ifvqel0","pricing_plan_id":"cebpf4jnsgd1na2vs0mg"},{"bike_id":"5f86e39e-d65f-42f6-8d96-fcf9443f79f1","system_id":"levelo_inurba_marseille","lat":43.32299,"lon":5.38285,"is_reserved":false,"is_disabled":false,"rental_uris":{"android":"levelo://app?vid=5f86e39e-d65f-42f6-8d96-fcf9443f79f1","ios":"levelo://app?vid=5f86e39e-d65f-42f6-8d96-fcf9443f79f1"},"vehicle_type_id":"4","last_reported":1738995090,"current_range_meters":10800,"station_id":"ce4bhr12rcd13ifvqhqg","pricing_plan_id":"cebpf4jnsgd1na2vs0mg"},{"bike_id":"cfa7f1cc-5150-48ed-843c-f6960ddad1e1","system_id":"levelo_inurba_marseille","lat":43.26489,"lon":5.3956,"is_reserved":false,"is_disabled":true,"rental_uris":{"android":"levelo://app?vid=cfa7f1cc-5150-48ed-843c-f6960ddad1e1","ios":"levelo://app?vid=cfa7f1cc-5150-48ed-843c-f6960ddad1e1"},"vehicle_type_id":"4","last_reported":1738995090,"current_range_meters":16400,"station_id":"ce4bhi12rcd13ifvqfq0","pricing_plan_id":"cebpf4jnsgd1na2vs0mg"},{"bike_id":"163760ce-46b7-435d-9416-c8b90e60850d","system_id":"levelo_inurba_marseille","lat":43.32647,"lon":5.42834,"is_reserved":false,"is_disabled":false,"rental_uris":{"android":"levelo://app?vid=163760ce-46b7-435d-9416-c8b90e60850d","ios":"levelo://app?vid=163760ce-46b7-435d-9416-c8b90e60850d"},"vehicle_type_id":"4","last_reported":1738995090,"current_range_meters":27600,"station_id":"","pricing_plan_id":"cebpf4jnsgd1na2vs0mg"},{"bike_id":"8a0e9b9b-a5d2-46ae-8ba2-001060d39905","system_id":"levelo_inurba_marseille","lat":43.28649,"lon":5.38659,"is_reserved":false,"is_disabled":false,"rental_uris":{"android":"levelo://app?vid=8a0e9b9b-a5d2-46ae-8ba2-001060d39905","ios":"levelo://app?vid=8a0e9b9b-a5d2-46ae-8ba2-001060d39905"},"vehicle_type_id":"4","last_reported":1738995090,"current_range_meters":11600,"station_id":"ce4bh492rcd13ifvqdug","pricing_plan_id":"cebpf4jnsgd1na2vs0mg"},{"bike_id":"0b370460-2bdc-4346-a1f4-7aeb9dd2a707","system_id":"levelo_inurba_marseille","lat":43.28632,"lon":5.39138,"is_reserved":false,"is_disabled":true,"rental_uris":{"android":"levelo://app?vid=0b370460-2bdc-4346-a1f4-7aeb9dd2a707","ios":"levelo://app?vid=0b370460-2bdc-4346-a1f4-7aeb9dd2a707"},"vehicle_type_id":"4","last_reported":1738995090,"current_range_meters":11600,"station_id":"","pricing_plan_id":"cebpf4jnsgd1na2vs0mg"},{"bike_id":"7d76beb3-3577-4e70-b961-5c1ce14ac0c3","system_id":"levelo_inurba_marseille","lat":43.27907,"lon":5.38009,"is_reserved":false,"is_disabled":false,"rental_uris":{"android":"levelo://app?vid=7d76beb3-3577-4e70-b961-5c1ce14ac0c3","ios":"levelo://app?vid=7d76beb3-3577-4e70-b961-5c1ce14ac0c3"},"vehicle_type_id":"4","last_reported":1738995090,"current_range_meters":38800,"station_id":"ce4bhf92rcd13ifvqf50","pricing_plan_id":"cebpf4jnsgd1na2vs0mg"},{"bike_id":"952ab6ee-c71f-431a-a116-28c771dc3a24","system_id":"levelo_inurba_marseille","lat":43.27957,"lon":5.41043,"is_reserved":false,"is_disabled":true,"rental_uris":{"android":"levelo://app?vid=952ab6ee-c71f-431a-a116-28c771dc3a24","ios":"levelo://app?vid=952ab6ee-c71f-431a-a116-28c771dc3a24"},"vehicle_type_id":"4","last_reported":1738995090,"current_range_meters":2800,"station_id":"ce4bhnp2rcd13ifvqh0g","pricing_plan_id":"cebpf4jnsgd1na2vs0mg"},{"bike_id":"37b771d6-8ce7-438d-b661-53c70ce5e2ea","system_id":"levelo_inurba_marseille","lat":43.30649,"lon":5.40078,"is_reserved":false,"is_disabled":false,"rental_uris":{"android":"levelo://app?vid=37b771d6-8ce7-438d-b661-53c70ce5e2ea","ios":"levelo://app?vid=37b771d6-8ce7-438d-b661-53c70ce5e2ea"},"vehicle_type_id":"4","last_reported":1738995090,"current_range_meters":38800,"station_id":"ce4bh112rcd13ifvqda0","pricing_plan_id":"cebpf4jnsgd1na2vs0mg"},{"bike_id":"7a97d52f-8d12-4c85-bbcd-c45e1daaa5d7","system_id":"levelo_inurba_marseille","lat":43.27904,"lon":5.39584,"is_reserved":false,"is_disabled":false,"rental_uris":{"android":"levelo://app?vid=7a97d52f-8d12-4c85-bbcd-c45e1daaa5d7","ios":"levelo://app?vid=7a97d52f-8d12-4c85-bbcd-c45e1daaa5d7"},"vehicle_type_id":"4","last_reported":1738995090,"current_range_meters":19600,"station_id":"ce4bhf92rcd13ifvqf40","pricing_plan_id":"cebpf4jnsgd1na2vs0mg"},{"bike_id":"242ce00b-f1a3-4464-a77b-5e5569e13a0f","system_id":"levelo_inurba_marseille","lat":43.271773,"lon":5.409883,"is_reserved":false,"is_disabled":false,"rental_uris":{"android":"levelo://app?vid=242ce00b-f1a3-4464-a77b-5e5569e13a0f","ios":"levelo://app?vid=242ce00b-f1a3-4464-a77b-5e5569e13a0f"},"vehicle_type_id":"4","last_reported":1738995090,"current_range_meters":32400,"station_id":"ce4bhl12rcd13ifvqgf0","pricing_plan_id":"cebpf4jnsgd1na2vs0mg"},{"bike_id":"1c741192-31b7-45e8-aada-958377720ca4","system_id":"levelo_inurba_marseille","lat":43.27977,"lon":5.3872,"is_reserved":false,"is_disabled":false,"rental_uris":{"android":"levelo://app?vid=1c741192-31b7-45e8-aada-958377720ca4","ios":"levelo://app?vid=1c741192-31b7-45e8-aada-958377720ca4"},"vehicle_type_id":"4","last_reported":1738995090,"current_range_meters":20400,"station_id":"ce4bhg12rcd13ifvqf80","pricing_plan_id":"cebpf4jnsgd1na2vs0mg"},{"bike_id":"a0f17ba2-4d65-4110-8adc-ac1f83501a6e","system_id":"levelo_inurba_marseille","lat":43.29019,"lon":5.38609,"is_reserved":false,"is_disabled":false,"rental_uris":{"android":"levelo://app?vid=a0f17ba2-4d65-4110-8adc-ac1f83501a6e","ios":"levelo://app?vid=a0f17ba2-4d65-4110-8adc-ac1f83501a6e"},"vehicle_type_id":"4","last_reported":1738995090,"current_range_meters":38000,"station_id":"ce4bh4p2rcd13ifvqe0g","pricing_plan_id":"cebpf4jnsgd1na2vs0mg"},{"bike_id":"e2802599-4122-4289-bf19-14bc090ec5e2","system_id":"levelo_inurba_marseille","lat":43.29561,"lon":5.3997,"is_reserved":false,"is_disabled":false,"rental_uris":{"android":"levelo://app?vid=e2802599-4122-4289-bf19-14bc090ec5e2","ios":"levelo://app?vid=e2802599-4122-4289-bf19-14bc090ec5e2"},"vehicle_type_id":"4","last_reported":1738995090,"current_range_meters":38800,"station_id":"ce4bh312rcd13ifvqdj0","pricing_plan_id":"cebpf4jnsgd1na2vs0mg"},{"bike_id":"0e3e205c-def0-409b-93d1-6bd9975a7ce8","system_id":"levelo_inurba_marseille","lat":43.337756,"lon":5.374422,"is_reserved":false,"is_disabled":false,"rental_uris":{"android":"levelo://app?vid=0e3e205c-def0-409b-93d1-6bd9975a7ce8","ios":"levelo://app?vid=0e3e205c-def0-409b-93d1-6bd9975a7ce8"},"vehicle_type_id":"4","last_reported":1738995090,"current_range_meters":6800,"station_id":"","pricing_plan_id":"cebpf4jnsgd1na2vs0mg"},{"bike_id":"aefcd05a-8686-4755-b79f-0ce35cab3e2f","system_id":"levelo_inurba_marseille","lat":43.31251,"lon":5.36902,"is_reserved":false,"is_disabled":false,"rental_uris":{"android":"levelo://app?vid=aefcd05a-8686-4755-b79f-0ce35cab3e2f","ios":"levelo://app?vid=aefcd05a-8686-4755-b79f-0ce35cab3e2f"},"vehicle_type_id":"4","last_reported":1738995090,"current_range_meters":38800,"station_id":"ce4bgl92rcd13ifvqbq0","pricing_plan_id":"cebpf4jnsgd1na2vs0mg"},{"bike_id":"6a3bf5dc-6406-4053-977a-019d33b4193c","system_id":"levelo_inurba_marseille","lat":43.28402,"lon":5.37499,"is_reserved":false,"is_disabled":true,"rental_uris":{"android":"levelo://app?vid=6a3bf5dc-6406-4053-977a-019d33b4193c","ios":"levelo://app?vid=6a3bf5dc-6406-4053-977a-019d33b4193c"},"vehicle_type_id":"4","last_reported":1738995090,"current_range_meters":29600,"station_id":"ce4bh412rcd13ifvqds0","pricing_plan_id":"cebpf4jnsgd1na2vs0mg"},{"bike_id":"a92bc0c3-079a-47f0-99e6-d552134d15f5","system_id":"levelo_inurba_marseille","lat":43.27575,"lon":5.3841,"is_reserved":false,"is_disabled":false,"rental_uris":{"android":"levelo://app?vid=a92bc0c3-079a-47f0-99e6-d552134d15f5","ios":"levelo://app?vid=a92bc0c3-079a-47f0-99e6-d552134d15f5"},"vehicle_type_id":"4","last_reported":1738995090,"current_range_meters":36800,"station_id":"ce4bhh92rcd13ifvqfi0","pricing_plan_id":"cebpf4jnsgd1na2vs0mg"},{"bike_id":"d3f4093c-a581-4858-8fde-49af48e331da","system_id":"levelo_inurba_marseille","lat":43.29509,"lon":5.39402,"is_reserved":false,"is_disabled":false,"rental_uris":{"android":"levelo://app?vid=d3f4093c-a581-4858-8fde-49af48e331da","ios":"levelo://app?vid=d3f4093c-a581-4858-8fde-49af48e331da"},"vehicle_type_id":"4","last_reported":1738995090,"current_range_meters":19200,"station_id":"ce4bh292rcd13ifvqdf0","pricing_plan_id":"cebpf4jnsgd1na2vs0mg"},{"bike_id":"af3b94d5-ac48-4a4f-9581-92e0687b680b","system_id":"levelo_inurba_marseille","lat":43.2869,"lon":5.37403,"is_reserved":false,"is_disabled":false,"rental_uris":{"android":"levelo://app?vid=af3b94d5-ac48-4a4f-9581-92e0687b680b","ios":"levelo://app?vid=af3b94d5-ac48-4a4f-9581-92e0687b680b"},"vehicle_type_id":"4","last_reported":1738995090,"current_range_meters":19200,"station_id":"ce4bh3p2rcd13ifvqdq0","pricing_plan_id":"cebpf4jnsgd1na2vs0mg"},{"bike_id":"fdb860cc-0625-46c4-821f-1747c0479aef","system_id":"levelo_inurba_marseille","lat":43.29785,"lon":5.39344,"is_reserved":false,"is_disabled":false,"rental_uris":{"android":"levelo://app?vid=fdb860cc-0625-46c4-821f-1747c0479aef","ios":"levelo://app?vid=fdb860cc-0625-46c4-821f-1747c0479aef"},"vehicle_type_id":"4","last_reported":1738995090,"current_range_meters":38800,"station_id":"chh1huq6cuj3fo74tm60","pricing_plan_id":"cebpf4jnsgd1na2vs0mg"},{"bike_id":"ec93d666-dbc6-460f-b30b-6b3967e798da","system_id":"levelo_inurba_marseille","lat":43.29906,"lon":5.38153,"is_reserved":false,"is_disabled":false,"rental_uris":{"android":"levelo://app?vid=ec93d666-dbc6-460f-b30b-6b3967e798da","ios":"levelo://app?vid=ec93d666-dbc6-460f-b30b-6b3967e798da"},"vehicle_type_id":"4","last_reported":1738995090,"current_range_meters":14000,"station_id":"ce4bgj12rcd13ifvqbc0","pricing_plan_id":"cebpf4jnsgd1na2vs0mg"},{"bike_id":"bf813e32-200d-4348-b823-9390acab13fa","system_id":"levelo_inurba_marseille","lat":43.261896,"lon":5.374486,"is_reserved":false,"is_disabled":false,"rental_uris":{"android":"levelo://app?vid=bf813e32-200d-4348-b823-9390acab13fa","ios":"levelo://app?vid=bf813e32-200d-4348-b823-9390acab13fa"},"vehicle_type_id":"4","last_reported":1738995090,"current_range_meters":33200,"station_id":"ce4bhgp2rcd13ifvqfc0","pricing_plan_id":"cebpf4jnsgd1na2vs0mg"},{"bike_id":"5deb610f-f630-4c7c-be42-0c35c32fca42","system_id":"levelo_inurba_marseille","lat":43.269404,"lon":5.402435,"is_reserved":false,"is_disabled":false,"rental_uris":{"android":"levelo://app?vid=5deb610f-f630-4c7c-be42-0c35c32fca42","ios":"levelo://app?vid=5deb610f-f630-4c7c-be42-0c35c32fca42"},"vehicle_type_id":"4","last_reported":1738995090,"current_range_meters":25600,"station_id":"cjm6bp8fraef2m0cb0m0","pricing_plan_id":"cebpf4jnsgd1na2vs0mg"},{"bike_id":"7cd494b8-458a-457c-ab37-823e425add05","system_id":"levelo_inurba_marseille","lat":43.250909,"lon":5.395144,"is_reserved":false,"is_disabled":false,"rental_uris":{"android":"levelo://app?vid=7cd494b8-458a-457c-ab37-823e425add05","ios":"levelo://app?vid=7cd494b8-458a-457c-ab37-823e425add05"},"vehicle_type_id":"4","last_reported":1738995090,"current_range_meters":19200,"station_id":"ce4bhm12rcd13ifvqgkg","pricing_plan_id":"cebpf4jnsgd1na2vs0mg"},{"bike_id":"51f760da-21ec-4fd6-bb0b-f3de08679825","system_id":"levelo_inurba_marseille","lat":43.27825,"lon":5.39219,"is_reserved":false,"is_disabled":false,"rental_uris":{"android":"levelo://app?vid=51f760da-21ec-4fd6-bb0b-f3de08679825","ios":"levelo://app?vid=51f760da-21ec-4fd6-bb0b-f3de08679825"},"vehicle_type_id":"4","last_reported":1738995090,"current_range_meters":35200,"station_id":"ce4bhjp2rcd13ifvqga0","pricing_plan_id":"cebpf4jnsgd1na2vs0mg"},{"bike_id":"d25bc6a0-30b5-4aa4-922b-fcf83a985386","system_id":"levelo_inurba_marseille","lat":43.23968,"lon":5.36649,"is_reserved":false,"is_disabled":false,"rental_uris":{"android":"levelo://app?vid=d25bc6a0-30b5-4aa4-922b-fcf83a985386","ios":"levelo://app?vid=d25bc6a0-30b5-4aa4-922b-fcf83a985386"},"vehicle_type_id":"4","last_reported":1738995090,"current_range_meters":36000,"station_id":"ce4bhi12rcd13ifvqfp0","pricing_plan_id":"cebpf4jnsgd1na2vs0mg"},{"bike_id":"9c9e59cf-9215-4639-b90b-20c8a5b38757","system_id":"levelo_inurba_marseille","lat":43.2846,"lon":5.35886,"is_reserved":false,"is_disabled":false,"rental_uris":{"android":"levelo://app?vid=9c9e59cf-9215-4639-b90b-20c8a5b38757","ios":"levelo://app?vid=9c9e59cf-9215-4639-b90b-20c8a5b38757"},"vehicle_type_id":"4","last_reported":1738995090,"current_range_meters":30000,"station_id":"ce4bhah2rcd13ifvqei0","pricing_plan_id":"cebpf4jnsgd1na2vs0mg"},{"bike_id":"b14feff6-424d-43a9-a2e2-58713c3ad09c","system_id":"levelo_inurba_marseille","lat":43.278143,"lon":5.407077,"is_reserved":false,"is_disabled":false,"rental_uris":{"android":"levelo://app?vid=b14feff6-424d-43a9-a2e2-58713c3ad09c","ios":"levelo://app?vid=b14feff6-424d-43a9-a2e2-58713c3ad09c"},"vehicle_type_id":"4","last_reported":1738995090,"current_range_meters":38000,"station_id":"ce4bhnh2rcd13ifvqgtg","pricing_plan_id":"cebpf4jnsgd1na2vs0mg"},{"bike_id":"f6cfcedf-4f75-4647-883d-241833cb05c5","system_id":"levelo_inurba_marseille","lat":43.28349,"lon":5.381,"is_reserved":false,"is_disabled":false,"rental_uris":{"android":"levelo://app?vid=f6cfcedf-4f75-4647-883d-241833cb05c5","ios":"levelo://app?vid=f6cfcedf-4f75-4647-883d-241833cb05c5"},"vehicle_type_id":"4","last_reported":1738995090,"current_range_meters":39200,"station_id":"ce4bh412rcd13ifvqdr0","pricing_plan_id":"cebpf4jnsgd1na2vs0mg"},{"bike_id":"2d6a2e4c-47bb-4bf8-8e22-1e9c987f8b16","system_id":"levelo_inurba_marseille","lat":43.23958,"lon":5.36641,"is_reserved":false,"is_disabled":false,"rental_uris":{"android":"levelo://app?vid=2d6a2e4c-47bb-4bf8-8e22-1e9c987f8b16","ios":"levelo://app?vid=2d6a2e4c-47bb-4bf8-8e22-1e9c987f8b16"},"vehicle_type_id":"4","last_reported":1738995090,"current_range_meters":13600,"station_id":"ce4bhi12rcd13ifvqfp0","pricing_plan_id":"cebpf4jnsgd1na2vs0mg"},{"bike_id":"d978ca76-598a-4f0f-bc66-3241224ef997","system_id":"levelo_inurba_marseille","lat":43.25862,"lon":5.39892,"is_reserved":false,"is_disabled":false,"rental_uris":{"android":"levelo://app?vid=d978ca76-598a-4f0f-bc66-3241224ef997","ios":"levelo://app?vid=d978ca76-598a-4f0f-bc66-3241224ef997"},"vehicle_type_id":"4","last_reported":1738995090,"current_range_meters":32000,"station_id":"ce4bhl92rcd13ifvqghg","pricing_plan_id":"cebpf4jnsgd1na2vs0mg"},{"bike_id":"7a3cc5cc-9b23-4210-b559-e38fce17dfb2","system_id":"levelo_inurba_marseille","lat":43.25674,"lon":5.41125,"is_reserved":false,"is_disabled":false,"rental_uris":{"android":"levelo://app?vid=7a3cc5cc-9b23-4210-b559-e38fce17dfb2","ios":"levelo://app?vid=7a3cc5cc-9b23-4210-b559-e38fce17dfb2"},"vehicle_type_id":"4","last_reported":1738995090,"current_range_meters":38800,"station_id":"ce4bhkp2rcd13ifvqgd0","pricing_plan_id":"cebpf4jnsgd1na2vs0mg"},{"bike_id":"c30965ef-938e-4e04-b1bf-ec639e5d1dc0","system_id":"levelo_inurba_marseille","lat":43.301485,"lon":5.380772,"is_reserved":false,"is_disabled":false,"rental_uris":{"android":"levelo://app?vid=c30965ef-938e-4e04-b1bf-ec639e5d1dc0","ios":"levelo://app?vid=c30965ef-938e-4e04-b1bf-ec639e5d1dc0"},"vehicle_type_id":"4","last_reported":1738995090,"current_range_meters":38800,"station_id":"ce4bgjp2rcd13ifvqbh0","pricing_plan_id":"cebpf4jnsgd1na2vs0mg"},{"bike_id":"098d220b-e449-43ea-8d6d-9fc78e0abad9","system_id":"levelo_inurba_marseille","lat":43.22931,"lon":5.35379,"is_reserved":false,"is_disabled":false,"rental_uris":{"android":"levelo://app?vid=098d220b-e449-43ea-8d6d-9fc78e0abad9","ios":"levelo://app?vid=098d220b-e449-43ea-8d6d-9fc78e0abad9"},"vehicle_type_id":"4","last_reported":1738995090,"current_range_meters":39200,"station_id":"cpo3532slgdg3j2ikp40","pricing_plan_id":"cebpf4jnsgd1na2vs0mg"},{"bike_id":"658b5f4a-4044-4ace-8264-664f029df52f","system_id":"levelo_inurba_marseille","lat":43.29375,"lon":5.37858,"is_reserved":false,"is_disabled":true,"rental_uris":{"android":"levelo://app?vid=658b5f4a-4044-4ace-8264-664f029df52f","ios":"levelo://app?vid=658b5f4a-4044-4ace-8264-664f029df52f"},"vehicle_type_id":"4","last_reported":1738995090,"current_range_meters":38000,"station_id":"ce4bgjh2rcd13ifvqbf0","pricing_plan_id":"cebpf4jnsgd1na2vs0mg"},{"bike_id":"014efb27-8a20-4364-96c1-56f79f380d86","system_id":"levelo_inurba_marseille","lat":43.30915,"lon":5.36684,"is_reserved":false,"is_disabled":true,"rental_uris":{"android":"levelo://app?vid=014efb27-8a20-4364-96c1-56f79f380d86","ios":"levelo://app?vid=014efb27-8a20-4364-96c1-56f79f380d86"},"vehicle_type_id":"4","last_reported":1738995090,"current_range_meters":0,"station_id":"","pricing_plan_id":"cebpf4jnsgd1na2vs0mg"},{"bike_id":"25265f47-6177-48e9-b4ee-d5d5e25bf867","system_id":"levelo_inurba_marseille","lat":43.25723,"lon":5.41119,"is_reserved":false,"is_disabled":false,"rental_uris":{"android":"levelo://app?vid=25265f47-6177-48e9-b4ee-d5d5e25bf867","ios":"levelo://app?vid=25265f47-6177-48e9-b4ee-d5d5e25bf867"},"vehicle_type_id":"4","last_reported":1738995090,"current_range_meters":14400,"station_id":"ce4bhkp2rcd13ifvqgd0","pricing_plan_id":"cebpf4jnsgd1na2vs0mg"},{"bike_id":"dd833579-84b0-4839-89ea-03d9e4d3eaf3","system_id":"levelo_inurba_marseille","lat":43.27378,"lon":5.3626,"is_reserved":false,"is_disabled":false,"rental_uris":{"android":"levelo://app?vid=dd833579-84b0-4839-89ea-03d9e4d3eaf3","ios":"levelo://app?vid=dd833579-84b0-4839-89ea-03d9e4d3eaf3"},"vehicle_type_id":"4","last_reported":1738995090,"current_range_meters":15200,"station_id":"ce4bhbh2rcd13ifvqeo0","pricing_plan_id":"cebpf4jnsgd1na2vs0mg"},{"bike_id":"8134c42b-15c7-43df-91b1-9cea8c89299b","system_id":"levelo_inurba_marseille","lat":43.25866,"lon":5.39903,"is_reserved":false,"is_disabled":false,"rental_uris":{"android":"levelo://app?vid=8134c42b-15c7-43df-91b1-9cea8c89299b","ios":"levelo://app?vid=8134c42b-15c7-43df-91b1-9cea8c89299b"},"vehicle_type_id":"4","last_reported":1738995090,"current_range_meters":37600,"station_id":"ce4bhl92rcd13ifvqghg","pricing_plan_id":"cebpf4jnsgd1na2vs0mg"},{"bike_id":"109d8d07-d605-45c4-912d-3e7b38f9a9ae","system_id":"levelo_inurba_marseille","lat":43.24168,"lon":5.36399,"is_reserved":false,"is_disabled":false,"rental_uris":{"android":"levelo://app?vid=109d8d07-d605-45c4-912d-3e7b38f9a9ae","ios":"levelo://app?vid=109d8d07-d605-45c4-912d-3e7b38f9a9ae"},"vehicle_type_id":"4","last_reported":1738995090,"current_range_meters":15200,"station_id":"cpo36qri1sfpv3e86is0","pricing_plan_id":"cebpf4jnsgd1na2vs0mg"},{"bike_id":"79a37808-5e63-4831-8545-461d22490eb3","system_id":"levelo_inurba_marseille","lat":43.28335,"lon":5.38118,"is_reserved":false,"is_disabled":false,"rental_uris":{"android":"levelo://app?vid=79a37808-5e63-4831-8545-461d22490eb3","ios":"levelo://app?vid=79a37808-5e63-4831-8545-461d22490eb3"},"vehicle_type_id":"4","last_reported":1738995090,"current_range_meters":39200,"station_id":"ce4bh412rcd13ifvqdr0","pricing_plan_id":"cebpf4jnsgd1na2vs0mg"},{"bike_id":"f0748614-e045-434f-9fab-3f62eff5e6a2","system_id":"levelo_inurba_marseille","lat":43.3095,"lon":5.39041,"is_reserved":false,"is_disabled":false,"rental_uris":{"android":"levelo://app?vid=f0748614-e045-434f-9fab-3f62eff5e6a2","ios":"levelo://app?vid=f0748614-e045-434f-9fab-3f62eff5e6a2"},"vehicle_type_id":"4","last_reported":1738995090,"current_range_meters":36800,"station_id":"","pricing_plan_id":"cebpf4jnsgd1na2vs0mg"},{"bike_id":"2ebd233c-fd15-4f13-9700-c155c053523f","system_id":"levelo_inurba_marseille","lat":43.25933,"lon":5.40907,"is_reserved":false,"is_disabled":true,"rental_uris":{"android":"levelo://app?vid=2ebd233c-fd15-4f13-9700-c155c053523f","ios":"levelo://app?vid=2ebd233c-fd15-4f13-9700-c155c053523f"},"vehicle_type_id":"4","last_reported":1738995090,"current_range_meters":25200,"station_id":"ce4bhm92rcd13ifvqglg","pricing_plan_id":"cebpf4jnsgd1na2vs0mg"},{"bike_id":"df25d083-dc3d-4d26-a527-08faa5c7650e","system_id":"levelo_inurba_marseille","lat":43.287285,"lon":5.360875,"is_reserved":false,"is_disabled":false,"rental_uris":{"android":"levelo://app?vid=df25d083-dc3d-4d26-a527-08faa5c7650e","ios":"levelo://app?vid=df25d083-dc3d-4d26-a527-08faa5c7650e"},"vehicle_type_id":"4","last_reported":1738995090,"current_range_meters":24000,"station_id":"cki0cbj6b192h4jlfktg","pricing_plan_id":"cebpf4jnsgd1na2vs0mg"},{"bike_id":"9060e4c6-935a-4749-b72c-a9a315d91b19","system_id":"levelo_inurba_marseille","lat":43.24665,"lon":5.38149,"is_reserved":false,"is_disabled":true,"rental_uris":{"android":"levelo://app?vid=9060e4c6-935a-4749-b72c-a9a315d91b19","ios":"levelo://app?vid=9060e4c6-935a-4749-b72c-a9a315d91b19"},"vehicle_type_id":"4","last_reported":1738995090,"current_range_meters":0,"station_id":"ce4bhih2rcd13ifvqfr0","pricing_plan_id":"cebpf4jnsgd1na2vs0mg"},{"bike_id":"ef98c295-b824-4629-9494-b8a323d6a153","system_id":"levelo_inurba_marseille","lat":43.290226,"lon":5.386411,"is_reserved":false,"is_disabled":false,"rental_uris":{"android":"levelo://app?vid=ef98c295-b824-4629-9494-b8a323d6a153","ios":"levelo://app?vid=ef98c295-b824-4629-9494-b8a323d6a153"},"vehicle_type_id":"4","last_reported":1738995090,"current_range_meters":38000,"station_id":"ce4bh4p2rcd13ifvqe0g","pricing_plan_id":"cebpf4jnsgd1na2vs0mg"},{"bike_id":"16438857-7e2d-4f5a-ba2f-cbf993cf322f","system_id":"levelo_inurba_marseille","lat":43.2846,"lon":5.35885,"is_reserved":false,"is_disabled":false,"rental_uris":{"android":"levelo://app?vid=16438857-7e2d-4f5a-ba2f-cbf993cf322f","ios":"levelo://app?vid=16438857-7e2d-4f5a-ba2f-cbf993cf322f"},"vehicle_type_id":"4","last_reported":1738995090,"current_range_meters":38800,"station_id":"ce4bhah2rcd13ifvqei0","pricing_plan_id":"cebpf4jnsgd1na2vs0mg"},{"bike_id":"a2c33e7f-2dc6-432a-b99c-1f7d10c317b1","system_id":"levelo_inurba_marseille","lat":43.240671,"lon":5.377623,"is_reserved":false,"is_disabled":false,"rental_uris":{"android":"levelo://app?vid=a2c33e7f-2dc6-432a-b99c-1f7d10c317b1","ios":"levelo://app?vid=a2c33e7f-2dc6-432a-b99c-1f7d10c317b1"},"vehicle_type_id":"4","last_reported":1738995090,"current_range_meters":27600,"station_id":"ce4bhnp2rcd13ifvqgvg","pricing_plan_id":"cebpf4jnsgd1na2vs0mg"},{"bike_id":"c13ae62e-d5d6-4d3f-b979-0be4fe4644ed","system_id":"levelo_inurba_marseille","lat":43.24666,"lon":5.38167,"is_reserved":false,"is_disabled":false,"rental_uris":{"android":"levelo://app?vid=c13ae62e-d5d6-4d3f-b979-0be4fe4644ed","ios":"levelo://app?vid=c13ae62e-d5d6-4d3f-b979-0be4fe4644ed"},"vehicle_type_id":"4","last_reported":1738995090,"current_range_meters":22400,"station_id":"ce4bhih2rcd13ifvqfr0","pricing_plan_id":"cebpf4jnsgd1na2vs0mg"},{"bike_id":"a000edc6-01e1-4a99-8c9c-571be0b28914","system_id":"levelo_inurba_marseille","lat":43.29184,"lon":5.39329,"is_reserved":false,"is_disabled":false,"rental_uris":{"android":"levelo://app?vid=a000edc6-01e1-4a99-8c9c-571be0b28914","ios":"levelo://app?vid=a000edc6-01e1-4a99-8c9c-571be0b28914"},"vehicle_type_id":"4","last_reported":1738995090,"current_range_meters":38400,"station_id":"ce4bh192rcd13ifvqdd0","pricing_plan_id":"cebpf4jnsgd1na2vs0mg"},{"bike_id":"811cc688-70be-46b3-86e3-d2bd9515963b","system_id":"levelo_inurba_marseille","lat":43.31699,"lon":5.43704,"is_reserved":false,"is_disabled":false,"rental_uris":{"android":"levelo://app?vid=811cc688-70be-46b3-86e3-d2bd9515963b","ios":"levelo://app?vid=811cc688-70be-46b3-86e3-d2bd9515963b"},"vehicle_type_id":"4","last_reported":1738995090,"current_range_meters":37600,"station_id":"ce4bhp92rcd13ifvqhcg","pricing_plan_id":"cebpf4jnsgd1na2vs0mg"},{"bike_id":"b705f561-dbe8-4485-90d5-75b92e94f765","system_id":"levelo_inurba_marseille","lat":43.27563,"lon":5.38417,"is_reserved":false,"is_disabled":false,"rental_uris":{"android":"levelo://app?vid=b705f561-dbe8-4485-90d5-75b92e94f765","ios":"levelo://app?vid=b705f561-dbe8-4485-90d5-75b92e94f765"},"vehicle_type_id":"4","last_reported":1738995090,"current_range_meters":28400,"station_id":"ce4bhh92rcd13ifvqfi0","pricing_plan_id":"cebpf4jnsgd1na2vs0mg"},{"bike_id":"083915e7-540d-4b10-a92b-cf84ad1b7557","system_id":"levelo_inurba_marseille","lat":43.26189,"lon":5.37957,"is_reserved":false,"is_disabled":false,"rental_uris":{"android":"levelo://app?vid=083915e7-540d-4b10-a92b-cf84ad1b7557","ios":"levelo://app?vid=083915e7-540d-4b10-a92b-cf84ad1b7557"},"vehicle_type_id":"4","last_reported":1738995090,"current_range_meters":6400,"station_id":"ce4bhjp2rcd13ifvqg90","pricing_plan_id":"cebpf4jnsgd1na2vs0mg"},{"bike_id":"062ef627-163b-4b14-807b-a459c2049e25","system_id":"levelo_inurba_marseille","lat":43.27364,"lon":5.36239,"is_reserved":false,"is_disabled":false,"rental_uris":{"android":"levelo://app?vid=062ef627-163b-4b14-807b-a459c2049e25","ios":"levelo://app?vid=062ef627-163b-4b14-807b-a459c2049e25"},"vehicle_type_id":"4","last_reported":1738995090,"current_range_meters":38000,"station_id":"ce4bhbh2rcd13ifvqeo0","pricing_plan_id":"cebpf4jnsgd1na2vs0mg"},{"bike_id":"6986b042-d67b-490d-a174-01e67df97cbc","system_id":"levelo_inurba_marseille","lat":43.28418,"lon":5.34975,"is_reserved":false,"is_disabled":false,"rental_uris":{"android":"levelo://app?vid=6986b042-d67b-490d-a174-01e67df97cbc","ios":"levelo://app?vid=6986b042-d67b-490d-a174-01e67df97cbc"},"vehicle_type_id":"4","last_reported":1738995090,"current_range_meters":36400,"station_id":"ce4bhbh2rcd13ifvqepg","pricing_plan_id":"cebpf4jnsgd1na2vs0mg"},{"bike_id":"e56aedf2-a828-47f0-a2a4-a1e6baac64bf","system_id":"levelo_inurba_marseille","lat":43.31299,"lon":5.40167,"is_reserved":false,"is_disabled":false,"rental_uris":{"android":"levelo://app?vid=e56aedf2-a828-47f0-a2a4-a1e6baac64bf","ios":"levelo://app?vid=e56aedf2-a828-47f0-a2a4-a1e6baac64bf"},"vehicle_type_id":"4","last_reported":1738995090,"current_range_meters":38000,"station_id":"ce4bh092rcd13ifvqd30","pricing_plan_id":"cebpf4jnsgd1na2vs0mg"},{"bike_id":"89912e32-c5f0-448f-82d2-e236e4d6d653","system_id":"levelo_inurba_marseille","lat":43.27794,"lon":5.39876,"is_reserved":false,"is_disabled":true,"rental_uris":{"android":"levelo://app?vid=89912e32-c5f0-448f-82d2-e236e4d6d653","ios":"levelo://app?vid=89912e32-c5f0-448f-82d2-e236e4d6d653"},"vehicle_type_id":"4","last_reported":1738995090,"current_range_meters":2000,"station_id":"","pricing_plan_id":"cebpf4jnsgd1na2vs0mg"},{"bike_id":"631f4a18-14e2-4617-bea9-198a7239189a","system_id":"levelo_inurba_marseille","lat":43.29938,"lon":5.36557,"is_reserved":false,"is_disabled":false,"rental_uris":{"android":"levelo://app?vid=631f4a18-14e2-4617-bea9-198a7239189a","ios":"levelo://app?vid=631f4a18-14e2-4617-bea9-198a7239189a"},"vehicle_type_id":"4","last_reported":1738995090,"current_range_meters":29600,"station_id":"ce4bgm92rcd13ifvqbr0","pricing_plan_id":"cebpf4jnsgd1na2vs0mg"},{"bike_id":"dbe3919e-4c25-455b-9d78-ec830c8b628a","system_id":"levelo_inurba_marseille","lat":43.251082,"lon":5.403216,"is_reserved":false,"is_disabled":false,"rental_uris":{"android":"levelo://app?vid=dbe3919e-4c25-455b-9d78-ec830c8b628a","ios":"levelo://app?vid=dbe3919e-4c25-455b-9d78-ec830c8b628a"},"vehicle_type_id":"4","last_reported":1738995090,"current_range_meters":32800,"station_id":"ce4bhlh2rcd13ifvqgig","pricing_plan_id":"cebpf4jnsgd1na2vs0mg"},{"bike_id":"ddabb976-8046-4db4-b95c-5cdd9a6d3c7b","system_id":"levelo_inurba_marseille","lat":43.30134,"lon":5.37427,"is_reserved":false,"is_disabled":false,"rental_uris":{"android":"levelo://app?vid=ddabb976-8046-4db4-b95c-5cdd9a6d3c7b","ios":"levelo://app?vid=ddabb976-8046-4db4-b95c-5cdd9a6d3c7b"},"vehicle_type_id":"4","last_reported":1738995090,"current_range_meters":37600,"station_id":"ce4bgs92rcd13ifvqcc0","pricing_plan_id":"cebpf4jnsgd1na2vs0mg"},{"bike_id":"18097597-4028-4cbb-a718-9cbdb1e888ff","system_id":"levelo_inurba_marseille","lat":43.33065,"lon":5.40822,"is_reserved":false,"is_disabled":false,"rental_uris":{"android":"levelo://app?vid=18097597-4028-4cbb-a718-9cbdb1e888ff","ios":"levelo://app?vid=18097597-4028-4cbb-a718-9cbdb1e888ff"},"vehicle_type_id":"4","last_reported":1738995090,"current_range_meters":25600,"station_id":"","pricing_plan_id":"cebpf4jnsgd1na2vs0mg"},{"bike_id":"25651862-076f-495c-9f56-5b5d71587433","system_id":"levelo_inurba_marseille","lat":43.25499,"lon":5.37645,"is_reserved":false,"is_disabled":false,"rental_uris":{"android":"levelo://app?vid=25651862-076f-495c-9f56-5b5d71587433","ios":"levelo://app?vid=25651862-076f-495c-9f56-5b5d71587433"},"vehicle_type_id":"4","last_reported":1738995090,"current_range_meters":38000,"station_id":"ce4bhh12rcd13ifvqff0","pricing_plan_id":"cebpf4jnsgd1na2vs0mg"},{"bike_id":"fb5a704f-a51b-458c-a6e9-f5586a789b94","system_id":"levelo_inurba_marseille","lat":43.24166,"lon":5.36381,"is_reserved":false,"is_disabled":false,"rental_uris":{"android":"levelo://app?vid=fb5a704f-a51b-458c-a6e9-f5586a789b94","ios":"levelo://app?vid=fb5a704f-a51b-458c-a6e9-f5586a789b94"},"vehicle_type_id":"4","last_reported":1738995090,"current_range_meters":38000,"station_id":"cpo36qri1sfpv3e86is0","pricing_plan_id":"cebpf4jnsgd1na2vs0mg"},{"bike_id":"f1c1e8ea-c768-43eb-bbb3-77dbe638329d","system_id":"levelo_inurba_marseille","lat":43.32288,"lon":5.38278,"is_reserved":false,"is_disabled":false,"rental_uris":{"android":"levelo://app?vid=f1c1e8ea-c768-43eb-bbb3-77dbe638329d","ios":"levelo://app?vid=f1c1e8ea-c768-43eb-bbb3-77dbe638329d"},"vehicle_type_id":"4","last_reported":1738995090,"current_range_meters":38000,"station_id":"ce4bhr12rcd13ifvqhqg","pricing_plan_id":"cebpf4jnsgd1na2vs0mg"},{"bike_id":"fa45f7fc-432e-4d72-a845-9cc31b862f0c","system_id":"levelo_inurba_marseille","lat":43.27953,"lon":5.41022,"is_reserved":false,"is_disabled":false,"rental_uris":{"android":"levelo://app?vid=fa45f7fc-432e-4d72-a845-9cc31b862f0c","ios":"levelo://app?vid=fa45f7fc-432e-4d72-a845-9cc31b862f0c"},"vehicle_type_id":"4","last_reported":1738995090,"current_range_meters":14400,"station_id":"ce4bhnp2rcd13ifvqh0g","pricing_plan_id":"cebpf4jnsgd1na2vs0mg"},{"bike_id":"b73937ba-05e4-41c7-8959-6f24613e2797","system_id":"levelo_inurba_marseille","lat":43.22931,"lon":5.35371,"is_reserved":false,"is_disabled":false,"rental_uris":{"android":"levelo://app?vid=b73937ba-05e4-41c7-8959-6f24613e2797","ios":"levelo://app?vid=b73937ba-05e4-41c7-8959-6f24613e2797"},"vehicle_type_id":"4","last_reported":1738995090,"current_range_meters":30400,"station_id":"cpo3532slgdg3j2ikp40","pricing_plan_id":"cebpf4jnsgd1na2vs0mg"},{"bike_id":"d975e100-2a27-4e42-8101-7707ce7e9e5c","system_id":"levelo_inurba_marseille","lat":43.303017,"lon":5.369144,"is_reserved":false,"is_disabled":true,"rental_uris":{"android":"levelo://app?vid=d975e100-2a27-4e42-8101-7707ce7e9e5c","ios":"levelo://app?vid=d975e100-2a27-4e42-8101-7707ce7e9e5c"},"vehicle_type_id":"4","last_reported":1738995090,"current_range_meters":12800,"station_id":"ce4bgqh2rcd13ifvqc5g","pricing_plan_id":"cebpf4jnsgd1na2vs0mg"},{"bike_id":"bd600c0d-c185-42e2-8339-a9e6a86e5826","system_id":"levelo_inurba_marseille","lat":43.32375,"lon":5.38872,"is_reserved":false,"is_disabled":false,"rental_uris":{"android":"levelo://app?vid=bd600c0d-c185-42e2-8339-a9e6a86e5826","ios":"levelo://app?vid=bd600c0d-c185-42e2-8339-a9e6a86e5826"},"vehicle_type_id":"4","last_reported":1738995090,"current_range_meters":28000,"station_id":"ce4bhqp2rcd13ifvqhog","pricing_plan_id":"cebpf4jnsgd1na2vs0mg"},{"bike_id":"ab54e2d0-4c2c-486a-84c7-811ed9008ddc","system_id":"levelo_inurba_marseille","lat":43.27861,"lon":5.42526,"is_reserved":false,"is_disabled":true,"rental_uris":{"android":"levelo://app?vid=ab54e2d0-4c2c-486a-84c7-811ed9008ddc","ios":"levelo://app?vid=ab54e2d0-4c2c-486a-84c7-811ed9008ddc"},"vehicle_type_id":"4","last_reported":1738995090,"current_range_meters":0,"station_id":"","pricing_plan_id":"cebpf4jnsgd1na2vs0mg"},{"bike_id":"4f0ef23a-325d-48a2-a236-c96c263bda10","system_id":"levelo_inurba_marseille","lat":43.290108,"lon":5.356108,"is_reserved":false,"is_disabled":false,"rental_uris":{"android":"levelo://app?vid=4f0ef23a-325d-48a2-a236-c96c263bda10","ios":"levelo://app?vid=4f0ef23a-325d-48a2-a236-c96c263bda10"},"vehicle_type_id":"4","last_reported":1738995090,"current_range_meters":38000,"station_id":"ce4bhb92rcd13ifvqen0","pricing_plan_id":"cebpf4jnsgd1na2vs0mg"},{"bike_id":"d2c32dfa-87de-40af-aea4-9b7a056f570e","system_id":"levelo_inurba_marseille","lat":43.30593,"lon":5.37225,"is_reserved":false,"is_disabled":true,"rental_uris":{"android":"levelo://app?vid=d2c32dfa-87de-40af-aea4-9b7a056f570e","ios":"levelo://app?vid=d2c32dfa-87de-40af-aea4-9b7a056f570e"},"vehicle_type_id":"4","last_reported":1738995090,"current_range_meters":800,"station_id":"ce4bgqh2rcd13ifvqc4g","pricing_plan_id":"cebpf4jnsgd1na2vs0mg"},{"bike_id":"ee6cfe59-da23-45f8-9033-aaf3d256a1fd","system_id":"levelo_inurba_marseille","lat":43.29972,"lon":5.37167,"is_reserved":false,"is_disabled":false,"rental_uris":{"android":"levelo://app?vid=ee6cfe59-da23-45f8-9033-aaf3d256a1fd","ios":"levelo://app?vid=ee6cfe59-da23-45f8-9033-aaf3d256a1fd"},"vehicle_type_id":"4","last_reported":1738995090,"current_range_meters":25200,"station_id":"ce4bgr92rcd13ifvqc7g","pricing_plan_id":"cebpf4jnsgd1na2vs0mg"},{"bike_id":"ea3c45d5-300b-4422-954e-d1a4ff0ceaaa","system_id":"levelo_inurba_marseille","lat":43.306774,"lon":5.369774,"is_reserved":false,"is_disabled":false,"rental_uris":{"android":"levelo://app?vid=ea3c45d5-300b-4422-954e-d1a4ff0ceaaa","ios":"levelo://app?vid=ea3c45d5-300b-4422-954e-d1a4ff0ceaaa"},"vehicle_type_id":"4","last_reported":1738995090,"current_range_meters":23200,"station_id":"","pricing_plan_id":"cebpf4jnsgd1na2vs0mg"},{"bike_id":"6835673f-f138-4499-8bdd-83c3f3bccf33","system_id":"levelo_inurba_marseille","lat":43.27997,"lon":5.400121,"is_reserved":false,"is_disabled":false,"rental_uris":{"android":"levelo://app?vid=6835673f-f138-4499-8bdd-83c3f3bccf33","ios":"levelo://app?vid=6835673f-f138-4499-8bdd-83c3f3bccf33"},"vehicle_type_id":"4","last_reported":1738995090,"current_range_meters":36400,"station_id":"ce4bho92rcd13ifvqh4g","pricing_plan_id":"cebpf4jnsgd1na2vs0mg"},{"bike_id":"bb1bab95-412e-41ba-879a-c483b6ec0924","system_id":"levelo_inurba_marseille","lat":43.278116,"lon":5.407164,"is_reserved":false,"is_disabled":false,"rental_uris":{"android":"levelo://app?vid=bb1bab95-412e-41ba-879a-c483b6ec0924","ios":"levelo://app?vid=bb1bab95-412e-41ba-879a-c483b6ec0924"},"vehicle_type_id":"4","last_reported":1738995090,"current_range_meters":14400,"station_id":"ce4bhnh2rcd13ifvqgtg","pricing_plan_id":"cebpf4jnsgd1na2vs0mg"},{"bike_id":"6e358927-ff7d-49ba-8b74-937ec069bd4e","system_id":"levelo_inurba_marseille","lat":43.2862,"lon":5.35104,"is_reserved":false,"is_disabled":false,"rental_uris":{"android":"levelo://app?vid=6e358927-ff7d-49ba-8b74-937ec069bd4e","ios":"levelo://app?vid=6e358927-ff7d-49ba-8b74-937ec069bd4e"},"vehicle_type_id":"4","last_reported":1738995090,"current_range_meters":23200,"station_id":"ce4bhch2rcd13ifvqeug","pricing_plan_id":"cebpf4jnsgd1na2vs0mg"},{"bike_id":"363f89dc-7a31-4716-bf7c-5e8b960f961f","system_id":"levelo_inurba_marseille","lat":43.3108,"lon":5.42431,"is_reserved":false,"is_disabled":false,"rental_uris":{"android":"levelo://app?vid=363f89dc-7a31-4716-bf7c-5e8b960f961f","ios":"levelo://app?vid=363f89dc-7a31-4716-bf7c-5e8b960f961f"},"vehicle_type_id":"4","last_reported":1738995090,"current_range_meters":38800,"station_id":"ce4bhp92rcd13ifvqhag","pricing_plan_id":"cebpf4jnsgd1na2vs0mg"},{"bike_id":"cf1ec810-f7ec-419a-8ceb-08d76d0efda3","system_id":"levelo_inurba_marseille","lat":43.265571,"lon":5.37282,"is_reserved":false,"is_disabled":false,"rental_uris":{"android":"levelo://app?vid=cf1ec810-f7ec-419a-8ceb-08d76d0efda3","ios":"levelo://app?vid=cf1ec810-f7ec-419a-8ceb-08d76d0efda3"},"vehicle_type_id":"4","last_reported":1738995090,"current_range_meters":19600,"station_id":"ce4bhg12rcd13ifvqf70","pricing_plan_id":"cebpf4jnsgd1na2vs0mg"},{"bike_id":"600c5cbe-8788-4733-87ab-564d829faedc","system_id":"levelo_inurba_marseille","lat":43.286989,"lon":5.399801,"is_reserved":false,"is_disabled":false,"rental_uris":{"android":"levelo://app?vid=600c5cbe-8788-4733-87ab-564d829faedc","ios":"levelo://app?vid=600c5cbe-8788-4733-87ab-564d829faedc"},"vehicle_type_id":"4","last_reported":1738995090,"current_range_meters":36400,"station_id":"ce4bho92rcd13ifvqh3g","pricing_plan_id":"cebpf4jnsgd1na2vs0mg"},{"bike_id":"90976b9e-7957-400f-9ef2-be8f332da93e","system_id":"levelo_inurba_marseille","lat":43.27909,"lon":5.3802,"is_reserved":false,"is_disabled":false,"rental_uris":{"android":"levelo://app?vid=90976b9e-7957-400f-9ef2-be8f332da93e","ios":"levelo://app?vid=90976b9e-7957-400f-9ef2-be8f332da93e"},"vehicle_type_id":"4","last_reported":1738995090,"current_range_meters":38000,"station_id":"ce4bhf92rcd13ifvqf50","pricing_plan_id":"cebpf4jnsgd1na2vs0mg"},{"bike_id":"9b7a8c62-e473-4d07-971b-e94975d6428e","system_id":"levelo_inurba_marseille","lat":43.32372,"lon":5.3886,"is_reserved":false,"is_disabled":false,"rental_uris":{"android":"levelo://app?vid=9b7a8c62-e473-4d07-971b-e94975d6428e","ios":"levelo://app?vid=9b7a8c62-e473-4d07-971b-e94975d6428e"},"vehicle_type_id":"4","last_reported":1738995090,"current_range_meters":16800,"station_id":"ce4bhqp2rcd13ifvqhog","pricing_plan_id":"cebpf4jnsgd1na2vs0mg"},{"bike_id":"70ac1a4f-6f86-42ba-b8c6-93e2a4c4f9f8","system_id":"levelo_inurba_marseille","lat":43.25477,"lon":5.37669,"is_reserved":false,"is_disabled":false,"rental_uris":{"android":"levelo://app?vid=70ac1a4f-6f86-42ba-b8c6-93e2a4c4f9f8","ios":"levelo://app?vid=70ac1a4f-6f86-42ba-b8c6-93e2a4c4f9f8"},"vehicle_type_id":"4","last_reported":1738995090,"current_range_meters":6400,"station_id":"ce4bhh12rcd13ifvqff0","pricing_plan_id":"cebpf4jnsgd1na2vs0mg"},{"bike_id":"1c64ef4e-96fd-4a2a-9d9a-e546fcc323e0","system_id":"levelo_inurba_marseille","lat":43.28727,"lon":5.3608,"is_reserved":false,"is_disabled":false,"rental_uris":{"android":"levelo://app?vid=1c64ef4e-96fd-4a2a-9d9a-e546fcc323e0","ios":"levelo://app?vid=1c64ef4e-96fd-4a2a-9d9a-e546fcc323e0"},"vehicle_type_id":"4","last_reported":1738995090,"current_range_meters":34800,"station_id":"cki0cbj6b192h4jlfktg","pricing_plan_id":"cebpf4jnsgd1na2vs0mg"},{"bike_id":"57e7b8ec-e7c4-4f32-9338-42ae5989dd7c","system_id":"levelo_inurba_marseille","lat":43.313629,"lon":5.384951,"is_reserved":false,"is_disabled":false,"rental_uris":{"android":"levelo://app?vid=57e7b8ec-e7c4-4f32-9338-42ae5989dd7c","ios":"levelo://app?vid=57e7b8ec-e7c4-4f32-9338-42ae5989dd7c"},"vehicle_type_id":"4","last_reported":1738995090,"current_range_meters":38800,"station_id":"ce4bgt92rcd13ifvqcf0","pricing_plan_id":"cebpf4jnsgd1na2vs0mg"},{"bike_id":"3fe8e3a7-a0a7-40f3-92b7-fbe2824b3765","system_id":"levelo_inurba_marseille","lat":43.30926,"lon":5.4014,"is_reserved":false,"is_disabled":false,"rental_uris":{"android":"levelo://app?vid=3fe8e3a7-a0a7-40f3-92b7-fbe2824b3765","ios":"levelo://app?vid=3fe8e3a7-a0a7-40f3-92b7-fbe2824b3765"},"vehicle_type_id":"4","last_reported":1738995090,"current_range_meters":27200,"station_id":"ce4bgvp2rcd13ifvqct0","pricing_plan_id":"cebpf4jnsgd1na2vs0mg"},{"bike_id":"e53de5c1-ee4e-44d3-8c7a-434d326dbb74","system_id":"levelo_inurba_marseille","lat":43.29572,"lon":5.39956,"is_reserved":false,"is_disabled":false,"rental_uris":{"android":"levelo://app?vid=e53de5c1-ee4e-44d3-8c7a-434d326dbb74","ios":"levelo://app?vid=e53de5c1-ee4e-44d3-8c7a-434d326dbb74"},"vehicle_type_id":"4","last_reported":1738995090,"current_range_meters":7200,"station_id":"ce4bh312rcd13ifvqdj0","pricing_plan_id":"cebpf4jnsgd1na2vs0mg"},{"bike_id":"187375a2-49e4-46d1-b02c-429ac3db4d24","system_id":"levelo_inurba_marseille","lat":43.286181,"lon":5.350976,"is_reserved":false,"is_disabled":false,"rental_uris":{"android":"levelo://app?vid=187375a2-49e4-46d1-b02c-429ac3db4d24","ios":"levelo://app?vid=187375a2-49e4-46d1-b02c-429ac3db4d24"},"vehicle_type_id":"4","last_reported":1738995090,"current_range_meters":28000,"station_id":"ce4bhch2rcd13ifvqeug","pricing_plan_id":"cebpf4jnsgd1na2vs0mg"},{"bike_id":"1dc80d59-ec16-4a39-8f8d-c073a4dbb373","system_id":"levelo_inurba_marseille","lat":43.29578,"lon":5.36733,"is_reserved":false,"is_disabled":false,"rental_uris":{"android":"levelo://app?vid=1dc80d59-ec16-4a39-8f8d-c073a4dbb373","ios":"levelo://app?vid=1dc80d59-ec16-4a39-8f8d-c073a4dbb373"},"vehicle_type_id":"4","last_reported":1738995090,"current_range_meters":37600,"station_id":"ce4bgph2rcd13ifvqc2g","pricing_plan_id":"cebpf4jnsgd1na2vs0mg"},{"bike_id":"0ccae692-16fa-48e3-88e0-236b5491d838","system_id":"levelo_inurba_marseille","lat":43.3373,"lon":5.39184,"is_reserved":false,"is_disabled":false,"rental_uris":{"android":"levelo://app?vid=0ccae692-16fa-48e3-88e0-236b5491d838","ios":"levelo://app?vid=0ccae692-16fa-48e3-88e0-236b5491d838"},"vehicle_type_id":"4","last_reported":1738995090,"current_range_meters":38800,"station_id":"ce4bhr92rcd13ifvqhsg","pricing_plan_id":"cebpf4jnsgd1na2vs0mg"},{"bike_id":"00a24e1b-0df7-4652-bf73-e5dc663c5536","system_id":"levelo_inurba_marseille","lat":43.29776,"lon":5.3935,"is_reserved":false,"is_disabled":false,"rental_uris":{"android":"levelo://app?vid=00a24e1b-0df7-4652-bf73-e5dc663c5536","ios":"levelo://app?vid=00a24e1b-0df7-4652-bf73-e5dc663c5536"},"vehicle_type_id":"4","last_reported":1738995090,"current_range_meters":38800,"station_id":"chh1huq6cuj3fo74tm60","pricing_plan_id":"cebpf4jnsgd1na2vs0mg"},{"bike_id":"1cfe21f7-6157-4ffb-a163-41af87f64a95","system_id":"levelo_inurba_marseille","lat":43.28455,"lon":5.35889,"is_reserved":false,"is_disabled":false,"rental_uris":{"android":"levelo://app?vid=1cfe21f7-6157-4ffb-a163-41af87f64a95","ios":"levelo://app?vid=1cfe21f7-6157-4ffb-a163-41af87f64a95"},"vehicle_type_id":"4","last_reported":1738995090,"current_range_meters":38800,"station_id":"ce4bhah2rcd13ifvqei0","pricing_plan_id":"cebpf4jnsgd1na2vs0mg"},{"bike_id":"b2f6d8bf-2d92-48f2-b256-636cd614f8a2","system_id":"levelo_inurba_marseille","lat":43.297705,"lon":5.39335,"is_reserved":false,"is_disabled":false,"rental_uris":{"android":"levelo://app?vid=b2f6d8bf-2d92-48f2-b256-636cd614f8a2","ios":"levelo://app?vid=b2f6d8bf-2d92-48f2-b256-636cd614f8a2"},"vehicle_type_id":"4","last_reported":1738995090,"current_range_meters":35600,"station_id":"chh1huq6cuj3fo74tm60","pricing_plan_id":"cebpf4jnsgd1na2vs0mg"},{"bike_id":"c7ad4723-d65e-439a-9307-c4869b4a97c0","system_id":"levelo_inurba_marseille","lat":43.26766,"lon":5.39459,"is_reserved":false,"is_disabled":false,"rental_uris":{"android":"levelo://app?vid=c7ad4723-d65e-439a-9307-c4869b4a97c0","ios":"levelo://app?vid=c7ad4723-d65e-439a-9307-c4869b4a97c0"},"vehicle_type_id":"4","last_reported":1738995090,"current_range_meters":37600,"station_id":"ce4bhh12rcd13ifvqfg0","pricing_plan_id":"cebpf4jnsgd1na2vs0mg"},{"bike_id":"699022b6-d5a1-4463-a97b-9e5ccef66594","system_id":"levelo_inurba_marseille","lat":43.25115,"lon":5.40334,"is_reserved":false,"is_disabled":false,"rental_uris":{"android":"levelo://app?vid=699022b6-d5a1-4463-a97b-9e5ccef66594","ios":"levelo://app?vid=699022b6-d5a1-4463-a97b-9e5ccef66594"},"vehicle_type_id":"4","last_reported":1738995090,"current_range_meters":12400,"station_id":"ce4bhlh2rcd13ifvqgig","pricing_plan_id":"cebpf4jnsgd1na2vs0mg"},{"bike_id":"284ce0b5-ae41-4ca1-819a-1b0a44456c26","system_id":"levelo_inurba_marseille","lat":43.23956,"lon":5.36639,"is_reserved":false,"is_disabled":false,"rental_uris":{"android":"levelo://app?vid=284ce0b5-ae41-4ca1-819a-1b0a44456c26","ios":"levelo://app?vid=284ce0b5-ae41-4ca1-819a-1b0a44456c26"},"vehicle_type_id":"4","last_reported":1738995090,"current_range_meters":22400,"station_id":"ce4bhi12rcd13ifvqfp0","pricing_plan_id":"cebpf4jnsgd1na2vs0mg"},{"bike_id":"38fdb758-c3be-4256-aad6-df19b41d8d0a","system_id":"levelo_inurba_marseille","lat":43.31755,"lon":5.39017,"is_reserved":false,"is_disabled":false,"rental_uris":{"android":"levelo://app?vid=38fdb758-c3be-4256-aad6-df19b41d8d0a","ios":"levelo://app?vid=38fdb758-c3be-4256-aad6-df19b41d8d0a"},"vehicle_type_id":"4","last_reported":1738995090,"current_range_meters":38400,"station_id":"ce4bhqp2rcd13ifvqhng","pricing_plan_id":"cebpf4jnsgd1na2vs0mg"},{"bike_id":"96effcf4-c897-4d74-a6f3-c2dcd97c21e8","system_id":"levelo_inurba_marseille","lat":43.2796,"lon":5.38722,"is_reserved":false,"is_disabled":false,"rental_uris":{"android":"levelo://app?vid=96effcf4-c897-4d74-a6f3-c2dcd97c21e8","ios":"levelo://app?vid=96effcf4-c897-4d74-a6f3-c2dcd97c21e8"},"vehicle_type_id":"4","last_reported":1738995090,"current_range_meters":17200,"station_id":"ce4bhg12rcd13ifvqf80","pricing_plan_id":"cebpf4jnsgd1na2vs0mg"},{"bike_id":"2c46109e-bda0-4140-ab3f-e7e0f160c878","system_id":"levelo_inurba_marseille","lat":43.31539,"lon":5.380247,"is_reserved":false,"is_disabled":false,"rental_uris":{"android":"levelo://app?vid=2c46109e-bda0-4140-ab3f-e7e0f160c878","ios":"levelo://app?vid=2c46109e-bda0-4140-ab3f-e7e0f160c878"},"vehicle_type_id":"4","last_reported":1738995090,"current_range_meters":32000,"station_id":"ce4bhsp2rcd13ifvqi50","pricing_plan_id":"cebpf4jnsgd1na2vs0mg"},{"bike_id":"201ecfc8-9896-48c6-91ea-b68110b20dcc","system_id":"levelo_inurba_marseille","lat":43.27818,"lon":5.39186,"is_reserved":false,"is_disabled":false,"rental_uris":{"android":"levelo://app?vid=201ecfc8-9896-48c6-91ea-b68110b20dcc","ios":"levelo://app?vid=201ecfc8-9896-48c6-91ea-b68110b20dcc"},"vehicle_type_id":"4","last_reported":1738995090,"current_range_meters":36400,"station_id":"ce4bhjp2rcd13ifvqga0","pricing_plan_id":"cebpf4jnsgd1na2vs0mg"},{"bike_id":"f67b7531-6c63-4f46-a9d4-4fdf588facb0","system_id":"levelo_inurba_marseille","lat":43.27868,"lon":5.40629,"is_reserved":false,"is_disabled":true,"rental_uris":{"android":"levelo://app?vid=f67b7531-6c63-4f46-a9d4-4fdf588facb0","ios":"levelo://app?vid=f67b7531-6c63-4f46-a9d4-4fdf588facb0"},"vehicle_type_id":"4","last_reported":1738995090,"current_range_meters":0,"station_id":"","pricing_plan_id":"cebpf4jnsgd1na2vs0mg"},{"bike_id":"7aab9860-1cc2-463c-a7d5-e5aef29c22cb","system_id":"levelo_inurba_marseille","lat":43.32357,"lon":5.36762,"is_reserved":false,"is_disabled":false,"rental_uris":{"android":"levelo://app?vid=7aab9860-1cc2-463c-a7d5-e5aef29c22cb","ios":"levelo://app?vid=7aab9860-1cc2-463c-a7d5-e5aef29c22cb"},"vehicle_type_id":"4","last_reported":1738995090,"current_range_meters":35600,"station_id":"ce4bhsh2rcd13ifvqi2g","pricing_plan_id":"cebpf4jnsgd1na2vs0mg"},{"bike_id":"ccc0d99a-4f06-4847-88ea-bfbf26a9a708","system_id":"levelo_inurba_marseille","lat":43.27369,"lon":5.3626,"is_reserved":false,"is_disabled":false,"rental_uris":{"android":"levelo://app?vid=ccc0d99a-4f06-4847-88ea-bfbf26a9a708","ios":"levelo://app?vid=ccc0d99a-4f06-4847-88ea-bfbf26a9a708"},"vehicle_type_id":"4","last_reported":1738995090,"current_range_meters":38800,"station_id":"ce4bhbh2rcd13ifvqeo0","pricing_plan_id":"cebpf4jnsgd1na2vs0mg"},{"bike_id":"1047ff1d-49b3-4860-859b-cb306bbb0b1e","system_id":"levelo_inurba_marseille","lat":43.257166,"lon":5.417915,"is_reserved":false,"is_disabled":false,"rental_uris":{"android":"levelo://app?vid=1047ff1d-49b3-4860-859b-cb306bbb0b1e","ios":"levelo://app?vid=1047ff1d-49b3-4860-859b-cb306bbb0b1e"},"vehicle_type_id":"4","last_reported":1738995090,"current_range_meters":4800,"station_id":"","pricing_plan_id":"cebpf4jnsgd1na2vs0mg"},{"bike_id":"a1ff6a73-36b2-4a61-a88f-8f0cc16371c7","system_id":"levelo_inurba_marseille","lat":43.262074,"lon":5.404031,"is_reserved":false,"is_disabled":false,"rental_uris":{"android":"levelo://app?vid=a1ff6a73-36b2-4a61-a88f-8f0cc16371c7","ios":"levelo://app?vid=a1ff6a73-36b2-4a61-a88f-8f0cc16371c7"},"vehicle_type_id":"4","last_reported":1738995090,"current_range_meters":34800,"station_id":"ce4bhmh2rcd13ifvqgmg","pricing_plan_id":"cebpf4jnsgd1na2vs0mg"},{"bike_id":"5a2d5dfd-03ec-4fe4-9110-6cf9df6cb751","system_id":"levelo_inurba_marseille","lat":43.287158,"lon":5.37948,"is_reserved":false,"is_disabled":true,"rental_uris":{"android":"levelo://app?vid=5a2d5dfd-03ec-4fe4-9110-6cf9df6cb751","ios":"levelo://app?vid=5a2d5dfd-03ec-4fe4-9110-6cf9df6cb751"},"vehicle_type_id":"4","last_reported":1738995090,"current_range_meters":24400,"station_id":"ce4bh9p2rcd13ifvqec0","pricing_plan_id":"cebpf4jnsgd1na2vs0mg"},{"bike_id":"359b6247-0c56-4066-9203-ed98a21ba5b2","system_id":"levelo_inurba_marseille","lat":43.27585,"lon":5.3839,"is_reserved":false,"is_disabled":false,"rental_uris":{"android":"levelo://app?vid=359b6247-0c56-4066-9203-ed98a21ba5b2","ios":"levelo://app?vid=359b6247-0c56-4066-9203-ed98a21ba5b2"},"vehicle_type_id":"4","last_reported":1738995090,"current_range_meters":38800,"station_id":"ce4bhh92rcd13ifvqfi0","pricing_plan_id":"cebpf4jnsgd1na2vs0mg"},{"bike_id":"114998f0-dfb0-494f-8117-273cb0fabd56","system_id":"levelo_inurba_marseille","lat":43.23185,"lon":5.3998,"is_reserved":false,"is_disabled":false,"rental_uris":{"android":"levelo://app?vid=114998f0-dfb0-494f-8117-273cb0fabd56","ios":"levelo://app?vid=114998f0-dfb0-494f-8117-273cb0fabd56"},"vehicle_type_id":"4","last_reported":1738995090,"current_range_meters":38800,"station_id":"ce4bhn12rcd13ifvqgqg","pricing_plan_id":"cebpf4jnsgd1na2vs0mg"},{"bike_id":"55c531ba-cb99-413a-81f9-84f3b3d5979e","system_id":"levelo_inurba_marseille","lat":43.22935,"lon":5.35369,"is_reserved":false,"is_disabled":false,"rental_uris":{"android":"levelo://app?vid=55c531ba-cb99-413a-81f9-84f3b3d5979e","ios":"levelo://app?vid=55c531ba-cb99-413a-81f9-84f3b3d5979e"},"vehicle_type_id":"4","last_reported":1738995090,"current_range_meters":22400,"station_id":"cpo3532slgdg3j2ikp40","pricing_plan_id":"cebpf4jnsgd1na2vs0mg"},{"bike_id":"f82744c2-2c37-4002-8e02-ee92382c8f25","system_id":"levelo_inurba_marseille","lat":43.29182,"lon":5.35796,"is_reserved":false,"is_disabled":false,"rental_uris":{"android":"levelo://app?vid=f82744c2-2c37-4002-8e02-ee92382c8f25","ios":"levelo://app?vid=f82744c2-2c37-4002-8e02-ee92382c8f25"},"vehicle_type_id":"4","last_reported":1738995090,"current_range_meters":38400,"station_id":"ce4bhb12rcd13ifvqel0","pricing_plan_id":"cebpf4jnsgd1na2vs0mg"},{"bike_id":"9b172016-a282-464e-bc6f-241b0470889b","system_id":"levelo_inurba_marseille","lat":43.283617,"lon":5.386194,"is_reserved":false,"is_disabled":false,"rental_uris":{"android":"levelo://app?vid=9b172016-a282-464e-bc6f-241b0470889b","ios":"levelo://app?vid=9b172016-a282-464e-bc6f-241b0470889b"},"vehicle_type_id":"4","last_reported":1738995090,"current_range_meters":38800,"station_id":"ce4bh492rcd13ifvqdvg","pricing_plan_id":"cebpf4jnsgd1na2vs0mg"},{"bike_id":"eeb1626b-d9a7-4181-8530-ac28fa96e047","system_id":"levelo_inurba_marseille","lat":43.29045,"lon":5.35916,"is_reserved":false,"is_disabled":false,"rental_uris":{"android":"levelo://app?vid=eeb1626b-d9a7-4181-8530-ac28fa96e047","ios":"levelo://app?vid=eeb1626b-d9a7-4181-8530-ac28fa96e047"},"vehicle_type_id":"4","last_reported":1738995090,"current_range_meters":36800,"station_id":"ce4bha92rcd13ifvqeg0","pricing_plan_id":"cebpf4jnsgd1na2vs0mg"},{"bike_id":"8c08c6a2-3404-4d8b-b103-439efea13c08","system_id":"levelo_inurba_marseille","lat":43.27938,"lon":5.41046,"is_reserved":false,"is_disabled":false,"rental_uris":{"android":"levelo://app?vid=8c08c6a2-3404-4d8b-b103-439efea13c08","ios":"levelo://app?vid=8c08c6a2-3404-4d8b-b103-439efea13c08"},"vehicle_type_id":"4","last_reported":1738995090,"current_range_meters":11600,"station_id":"ce4bhnp2rcd13ifvqh0g","pricing_plan_id":"cebpf4jnsgd1na2vs0mg"},{"bike_id":"42b00d6b-70d0-4750-bdd2-377deb18497e","system_id":"levelo_inurba_marseille","lat":43.22928,"lon":5.35383,"is_reserved":false,"is_disabled":false,"rental_uris":{"android":"levelo://app?vid=42b00d6b-70d0-4750-bdd2-377deb18497e","ios":"levelo://app?vid=42b00d6b-70d0-4750-bdd2-377deb18497e"},"vehicle_type_id":"4","last_reported":1738995090,"current_range_meters":25200,"station_id":"cpo3532slgdg3j2ikp40","pricing_plan_id":"cebpf4jnsgd1na2vs0mg"},{"bike_id":"d26811a1-4240-4c38-9630-b44ae6b37a73","system_id":"levelo_inurba_marseille","lat":43.28152,"lon":5.42666,"is_reserved":false,"is_disabled":false,"rental_uris":{"android":"levelo://app?vid=d26811a1-4240-4c38-9630-b44ae6b37a73","ios":"levelo://app?vid=d26811a1-4240-4c38-9630-b44ae6b37a73"},"vehicle_type_id":"4","last_reported":1738995090,"current_range_meters":38800,"station_id":"ce4bhnh2rcd13ifvqgug","pricing_plan_id":"cebpf4jnsgd1na2vs0mg"},{"bike_id":"ea3d872f-e26a-4c91-8a3d-8dd3be540b63","system_id":"levelo_inurba_marseille","lat":43.31126,"lon":5.3873,"is_reserved":false,"is_disabled":false,"rental_uris":{"android":"levelo://app?vid=ea3d872f-e26a-4c91-8a3d-8dd3be540b63","ios":"levelo://app?vid=ea3d872f-e26a-4c91-8a3d-8dd3be540b63"},"vehicle_type_id":"4","last_reported":1738995090,"current_range_meters":11600,"station_id":"ce4bgv12rcd13ifvqcp0","pricing_plan_id":"cebpf4jnsgd1na2vs0mg"},{"bike_id":"f1bbac45-5b32-4b97-b4ef-d7ee065546b1","system_id":"levelo_inurba_marseille","lat":43.26026,"lon":5.37541,"is_reserved":false,"is_disabled":false,"rental_uris":{"android":"levelo://app?vid=f1bbac45-5b32-4b97-b4ef-d7ee065546b1","ios":"levelo://app?vid=f1bbac45-5b32-4b97-b4ef-d7ee065546b1"},"vehicle_type_id":"4","last_reported":1738995090,"current_range_meters":35600,"station_id":"ce4bhgh2rcd13ifvqfa0","pricing_plan_id":"cebpf4jnsgd1na2vs0mg"},{"bike_id":"0e7b2222-4ce9-4e3e-a6cd-39d01991201d","system_id":"levelo_inurba_marseille","lat":43.29037,"lon":5.38627,"is_reserved":false,"is_disabled":false,"rental_uris":{"android":"levelo://app?vid=0e7b2222-4ce9-4e3e-a6cd-39d01991201d","ios":"levelo://app?vid=0e7b2222-4ce9-4e3e-a6cd-39d01991201d"},"vehicle_type_id":"4","last_reported":1738995090,"current_range_meters":26800,"station_id":"ce4bh4p2rcd13ifvqe0g","pricing_plan_id":"cebpf4jnsgd1na2vs0mg"},{"bike_id":"2e921374-79b6-443b-a5ad-d912dd00a784","system_id":"levelo_inurba_marseille","lat":43.311782,"lon":5.38713,"is_reserved":false,"is_disabled":false,"rental_uris":{"android":"levelo://app?vid=2e921374-79b6-443b-a5ad-d912dd00a784","ios":"levelo://app?vid=2e921374-79b6-443b-a5ad-d912dd00a784"},"vehicle_type_id":"4","last_reported":1738995090,"current_range_meters":8800,"station_id":"ce4bgv12rcd13ifvqcp0","pricing_plan_id":"cebpf4jnsgd1na2vs0mg"},{"bike_id":"e9bd66cb-c15d-47c8-be92-d4e752e9e79c","system_id":"levelo_inurba_marseille","lat":43.262042,"lon":5.379322,"is_reserved":false,"is_disabled":false,"rental_uris":{"android":"levelo://app?vid=e9bd66cb-c15d-47c8-be92-d4e752e9e79c","ios":"levelo://app?vid=e9bd66cb-c15d-47c8-be92-d4e752e9e79c"},"vehicle_type_id":"4","last_reported":1738995090,"current_range_meters":7200,"station_id":"ce4bhjp2rcd13ifvqg90","pricing_plan_id":"cebpf4jnsgd1na2vs0mg"},{"bike_id":"da35305d-c6c5-4141-b4ce-3c7a00bd91db","system_id":"levelo_inurba_marseille","lat":43.296294,"lon":5.405958,"is_reserved":false,"is_disabled":false,"rental_uris":{"android":"levelo://app?vid=da35305d-c6c5-4141-b4ce-3c7a00bd91db","ios":"levelo://app?vid=da35305d-c6c5-4141-b4ce-3c7a00bd91db"},"vehicle_type_id":"4","last_reported":1738995090,"current_range_meters":38800,"station_id":"ce4bh0h2rcd13ifvqd60","pricing_plan_id":"cebpf4jnsgd1na2vs0mg"},{"bike_id":"3c434100-0ec7-4174-be49-81df709efba1","system_id":"levelo_inurba_marseille","lat":43.26526,"lon":5.39522,"is_reserved":false,"is_disabled":false,"rental_uris":{"android":"levelo://app?vid=3c434100-0ec7-4174-be49-81df709efba1","ios":"levelo://app?vid=3c434100-0ec7-4174-be49-81df709efba1"},"vehicle_type_id":"4","last_reported":1738995090,"current_range_meters":25200,"station_id":"ce4bhi12rcd13ifvqfq0","pricing_plan_id":"cebpf4jnsgd1na2vs0mg"},{"bike_id":"c6fc4b4a-5347-4905-8d96-67ea4d004656","system_id":"levelo_inurba_marseille","lat":43.23213,"lon":5.35553,"is_reserved":false,"is_disabled":false,"rental_uris":{"android":"levelo://app?vid=c6fc4b4a-5347-4905-8d96-67ea4d004656","ios":"levelo://app?vid=c6fc4b4a-5347-4905-8d96-67ea4d004656"},"vehicle_type_id":"4","last_reported":1738995090,"current_range_meters":8400,"station_id":"ce4bhu92rcd13ifvqi70","pricing_plan_id":"cebpf4jnsgd1na2vs0mg"},{"bike_id":"1da8b17b-ad28-4780-a711-431647c244ed","system_id":"levelo_inurba_marseille","lat":43.23955,"lon":5.36632,"is_reserved":false,"is_disabled":false,"rental_uris":{"android":"levelo://app?vid=1da8b17b-ad28-4780-a711-431647c244ed","ios":"levelo://app?vid=1da8b17b-ad28-4780-a711-431647c244ed"},"vehicle_type_id":"4","last_reported":1738995090,"current_range_meters":26000,"station_id":"ce4bhi12rcd13ifvqfp0","pricing_plan_id":"cebpf4jnsgd1na2vs0mg"},{"bike_id":"b1db3003-a515-433c-b006-a61b3558f325","system_id":"levelo_inurba_marseille","lat":43.302114,"lon":5.394598,"is_reserved":false,"is_disabled":true,"rental_uris":{"android":"levelo://app?vid=b1db3003-a515-433c-b006-a61b3558f325","ios":"levelo://app?vid=b1db3003-a515-433c-b006-a61b3558f325"},"vehicle_type_id":"4","last_reported":1738995090,"current_range_meters":37600,"station_id":"ce4bh0p2rcd13ifvqd70","pricing_plan_id":"cebpf4jnsgd1na2vs0mg"},{"bike_id":"b360c8de-dddf-417b-b86a-0b71553c74aa","system_id":"levelo_inurba_marseille","lat":43.28083,"lon":5.39288,"is_reserved":false,"is_disabled":false,"rental_uris":{"android":"levelo://app?vid=b360c8de-dddf-417b-b86a-0b71553c74aa","ios":"levelo://app?vid=b360c8de-dddf-417b-b86a-0b71553c74aa"},"vehicle_type_id":"4","last_reported":1738995090,"current_range_meters":23200,"station_id":"","pricing_plan_id":"cebpf4jnsgd1na2vs0mg"},{"bike_id":"f3b570ef-a3b6-45fd-8ed9-ac9aa1473fb7","system_id":"levelo_inurba_marseille","lat":43.28667,"lon":5.36339,"is_reserved":false,"is_disabled":false,"rental_uris":{"android":"levelo://app?vid=f3b570ef-a3b6-45fd-8ed9-ac9aa1473fb7","ios":"levelo://app?vid=f3b570ef-a3b6-45fd-8ed9-ac9aa1473fb7"},"vehicle_type_id":"4","last_reported":1738995090,"current_range_meters":39200,"station_id":"ce4bhah2rcd13ifvqej0","pricing_plan_id":"cebpf4jnsgd1na2vs0mg"},{"bike_id":"734aa561-ad68-4e98-943f-9e006d2ddfa2","system_id":"levelo_inurba_marseille","lat":43.31328,"lon":5.39705,"is_reserved":false,"is_disabled":false,"rental_uris":{"android":"levelo://app?vid=734aa561-ad68-4e98-943f-9e006d2ddfa2","ios":"levelo://app?vid=734aa561-ad68-4e98-943f-9e006d2ddfa2"},"vehicle_type_id":"4","last_reported":1738995090,"current_range_meters":29600,"station_id":"ce4bgvp2rcd13ifvqcu0","pricing_plan_id":"cebpf4jnsgd1na2vs0mg"},{"bike_id":"985ea620-1838-4cc4-9f45-6622855b2de9","system_id":"levelo_inurba_marseille","lat":43.27992,"lon":5.40009,"is_reserved":false,"is_disabled":false,"rental_uris":{"android":"levelo://app?vid=985ea620-1838-4cc4-9f45-6622855b2de9","ios":"levelo://app?vid=985ea620-1838-4cc4-9f45-6622855b2de9"},"vehicle_type_id":"4","last_reported":1738995090,"current_range_meters":38400,"station_id":"ce4bho92rcd13ifvqh4g","pricing_plan_id":"cebpf4jnsgd1na2vs0mg"},{"bike_id":"9fa3657c-0e7e-4ff3-9dbc-374f7a2603bb","system_id":"levelo_inurba_marseille","lat":43.24061,"lon":5.37773,"is_reserved":false,"is_disabled":false,"rental_uris":{"android":"levelo://app?vid=9fa3657c-0e7e-4ff3-9dbc-374f7a2603bb","ios":"levelo://app?vid=9fa3657c-0e7e-4ff3-9dbc-374f7a2603bb"},"vehicle_type_id":"4","last_reported":1738995090,"current_range_meters":23200,"station_id":"ce4bhnp2rcd13ifvqgvg","pricing_plan_id":"cebpf4jnsgd1na2vs0mg"},{"bike_id":"e408d721-1719-4f3b-bfb2-ee76b97560c7","system_id":"levelo_inurba_marseille","lat":43.24653,"lon":5.38894,"is_reserved":false,"is_disabled":false,"rental_uris":{"android":"levelo://app?vid=e408d721-1719-4f3b-bfb2-ee76b97560c7","ios":"levelo://app?vid=e408d721-1719-4f3b-bfb2-ee76b97560c7"},"vehicle_type_id":"4","last_reported":1738995090,"current_range_meters":38800,"station_id":"ce4bhg12rcd13ifvqf60","pricing_plan_id":"cebpf4jnsgd1na2vs0mg"},{"bike_id":"f21e4401-e985-41a9-ab09-7dd54563acbd","system_id":"levelo_inurba_marseille","lat":43.31483,"lon":5.373,"is_reserved":false,"is_disabled":false,"rental_uris":{"android":"levelo://app?vid=f21e4401-e985-41a9-ab09-7dd54563acbd","ios":"levelo://app?vid=f21e4401-e985-41a9-ab09-7dd54563acbd"},"vehicle_type_id":"4","last_reported":1738995090,"current_range_meters":27200,"station_id":"ce4bgt12rcd13ifvqcd0","pricing_plan_id":"cebpf4jnsgd1na2vs0mg"},{"bike_id":"a6ac43cd-cfd1-40dc-a7b7-67c4b42f0938","system_id":"levelo_inurba_marseille","lat":43.28715,"lon":5.39983,"is_reserved":false,"is_disabled":false,"rental_uris":{"android":"levelo://app?vid=a6ac43cd-cfd1-40dc-a7b7-67c4b42f0938","ios":"levelo://app?vid=a6ac43cd-cfd1-40dc-a7b7-67c4b42f0938"},"vehicle_type_id":"4","last_reported":1738995090,"current_range_meters":37600,"station_id":"ce4bho92rcd13ifvqh3g","pricing_plan_id":"cebpf4jnsgd1na2vs0mg"},{"bike_id":"b535402c-25ad-4274-bf8f-573a8931886f","system_id":"levelo_inurba_marseille","lat":43.31266,"lon":5.38222,"is_reserved":false,"is_disabled":false,"rental_uris":{"android":"levelo://app?vid=b535402c-25ad-4274-bf8f-573a8931886f","ios":"levelo://app?vid=b535402c-25ad-4274-bf8f-573a8931886f"},"vehicle_type_id":"4","last_reported":1738995090,"current_range_meters":36800,"station_id":"","pricing_plan_id":"cebpf4jnsgd1na2vs0mg"},{"bike_id":"c8467e20-c52a-4fa4-90f2-f69c646cb59f","system_id":"levelo_inurba_marseille","lat":43.30787,"lon":5.43537,"is_reserved":false,"is_disabled":false,"rental_uris":{"android":"levelo://app?vid=c8467e20-c52a-4fa4-90f2-f69c646cb59f","ios":"levelo://app?vid=c8467e20-c52a-4fa4-90f2-f69c646cb59f"},"vehicle_type_id":"4","last_reported":1738995090,"current_range_meters":29600,"station_id":"ce4bhph2rcd13ifvqheg","pricing_plan_id":"cebpf4jnsgd1na2vs0mg"},{"bike_id":"be40be85-6e30-4ba1-bde9-11e9b64acf34","system_id":"levelo_inurba_marseille","lat":43.28405,"lon":5.37509,"is_reserved":false,"is_disabled":false,"rental_uris":{"android":"levelo://app?vid=be40be85-6e30-4ba1-bde9-11e9b64acf34","ios":"levelo://app?vid=be40be85-6e30-4ba1-bde9-11e9b64acf34"},"vehicle_type_id":"4","last_reported":1738995090,"current_range_meters":32000,"station_id":"ce4bh412rcd13ifvqds0","pricing_plan_id":"cebpf4jnsgd1na2vs0mg"},{"bike_id":"33bea606-6329-4055-bf3b-4f2c9cc1548c","system_id":"levelo_inurba_marseille","lat":43.252467,"lon":5.38614,"is_reserved":false,"is_disabled":false,"rental_uris":{"android":"levelo://app?vid=33bea606-6329-4055-bf3b-4f2c9cc1548c","ios":"levelo://app?vid=33bea606-6329-4055-bf3b-4f2c9cc1548c"},"vehicle_type_id":"4","last_reported":1738995090,"current_range_meters":16400,"station_id":"","pricing_plan_id":"cebpf4jnsgd1na2vs0mg"},{"bike_id":"4932c857-abd3-446f-9edf-f9ea559a5a0d","system_id":"levelo_inurba_marseille","lat":43.29245,"lon":5.4095,"is_reserved":false,"is_disabled":false,"rental_uris":{"android":"levelo://app?vid=4932c857-abd3-446f-9edf-f9ea559a5a0d","ios":"levelo://app?vid=4932c857-abd3-446f-9edf-f9ea559a5a0d"},"vehicle_type_id":"4","last_reported":1738995090,"current_range_meters":38400,"station_id":"ce4bh192rcd13ifvqdc0","pricing_plan_id":"cebpf4jnsgd1na2vs0mg"},{"bike_id":"5e0a79b2-0c9d-4520-90a1-5a40d16cbfd0","system_id":"levelo_inurba_marseille","lat":43.29073,"lon":5.40072,"is_reserved":false,"is_disabled":false,"rental_uris":{"android":"levelo://app?vid=5e0a79b2-0c9d-4520-90a1-5a40d16cbfd0","ios":"levelo://app?vid=5e0a79b2-0c9d-4520-90a1-5a40d16cbfd0"},"vehicle_type_id":"4","last_reported":1738995090,"current_range_meters":38800,"station_id":"","pricing_plan_id":"cebpf4jnsgd1na2vs0mg"},{"bike_id":"8b7ff651-145e-4b6f-b73e-f6e79c9f6087","system_id":"levelo_inurba_marseille","lat":43.31163,"lon":5.38708,"is_reserved":false,"is_disabled":false,"rental_uris":{"android":"levelo://app?vid=8b7ff651-145e-4b6f-b73e-f6e79c9f6087","ios":"levelo://app?vid=8b7ff651-145e-4b6f-b73e-f6e79c9f6087"},"vehicle_type_id":"4","last_reported":1738995090,"current_range_meters":38000,"station_id":"ce4bgv12rcd13ifvqcp0","pricing_plan_id":"cebpf4jnsgd1na2vs0mg"},{"bike_id":"afd073ab-b7d7-4d06-a610-4d1b18b5fb42","system_id":"levelo_inurba_marseille","lat":43.276773,"lon":5.389136,"is_reserved":false,"is_disabled":false,"rental_uris":{"android":"levelo://app?vid=afd073ab-b7d7-4d06-a610-4d1b18b5fb42","ios":"levelo://app?vid=afd073ab-b7d7-4d06-a610-4d1b18b5fb42"},"vehicle_type_id":"4","last_reported":1738995090,"current_range_meters":37600,"station_id":"ce4bhi12rcd13ifvqfo0","pricing_plan_id":"cebpf4jnsgd1na2vs0mg"},{"bike_id":"fd7f60dd-1b52-46f9-9b6b-de4b0fe7477f","system_id":"levelo_inurba_marseille","lat":43.2708,"lon":5.42286,"is_reserved":false,"is_disabled":true,"rental_uris":{"android":"levelo://app?vid=fd7f60dd-1b52-46f9-9b6b-de4b0fe7477f","ios":"levelo://app?vid=fd7f60dd-1b52-46f9-9b6b-de4b0fe7477f"},"vehicle_type_id":"4","last_reported":1738995090,"current_range_meters":38400,"station_id":"ce4bhk92rcd13ifvqgb0","pricing_plan_id":"cebpf4jnsgd1na2vs0mg"},{"bike_id":"9563d2a6-bf60-4758-bc3e-9491576f38e3","system_id":"levelo_inurba_marseille","lat":43.31637,"lon":5.38931,"is_reserved":false,"is_disabled":false,"rental_uris":{"android":"levelo://app?vid=9563d2a6-bf60-4758-bc3e-9491576f38e3","ios":"levelo://app?vid=9563d2a6-bf60-4758-bc3e-9491576f38e3"},"vehicle_type_id":"4","last_reported":1738995090,"current_range_meters":36800,"station_id":"","pricing_plan_id":"cebpf4jnsgd1na2vs0mg"},{"bike_id":"6906f330-b89d-49b0-8ab6-02b6e8ea1fe1","system_id":"levelo_inurba_marseille","lat":43.2894,"lon":5.39612,"is_reserved":false,"is_disabled":false,"rental_uris":{"android":"levelo://app?vid=6906f330-b89d-49b0-8ab6-02b6e8ea1fe1","ios":"levelo://app?vid=6906f330-b89d-49b0-8ab6-02b6e8ea1fe1"},"vehicle_type_id":"4","last_reported":1738995090,"current_range_meters":36800,"station_id":"ce4bh3h2rcd13ifvqdn0","pricing_plan_id":"cebpf4jnsgd1na2vs0mg"},{"bike_id":"12d9fdbf-1685-44b0-b4a8-c3a9769d2cb7","system_id":"levelo_inurba_marseille","lat":43.28846,"lon":5.39333,"is_reserved":false,"is_disabled":false,"rental_uris":{"android":"levelo://app?vid=12d9fdbf-1685-44b0-b4a8-c3a9769d2cb7","ios":"levelo://app?vid=12d9fdbf-1685-44b0-b4a8-c3a9769d2cb7"},"vehicle_type_id":"4","last_reported":1738995090,"current_range_meters":24800,"station_id":"ce4bh2p2rcd13ifvqdi0","pricing_plan_id":"cebpf4jnsgd1na2vs0mg"},{"bike_id":"92ab82b1-d2fe-4f65-9565-ad2177d14518","system_id":"levelo_inurba_marseille","lat":43.30879,"lon":5.39637,"is_reserved":false,"is_disabled":false,"rental_uris":{"android":"levelo://app?vid=92ab82b1-d2fe-4f65-9565-ad2177d14518","ios":"levelo://app?vid=92ab82b1-d2fe-4f65-9565-ad2177d14518"},"vehicle_type_id":"4","last_reported":1738995090,"current_range_meters":22800,"station_id":"ce4bh012rcd13ifvqcv0","pricing_plan_id":"cebpf4jnsgd1na2vs0mg"},{"bike_id":"8d9c53fb-f015-4c64-83b2-3106b7701e15","system_id":"levelo_inurba_marseille","lat":43.30086,"lon":5.39094,"is_reserved":false,"is_disabled":false,"rental_uris":{"android":"levelo://app?vid=8d9c53fb-f015-4c64-83b2-3106b7701e15","ios":"levelo://app?vid=8d9c53fb-f015-4c64-83b2-3106b7701e15"},"vehicle_type_id":"4","last_reported":1738995090,"current_range_meters":22400,"station_id":"ce4bh192rcd13ifvqdb0","pricing_plan_id":"cebpf4jnsgd1na2vs0mg"},{"bike_id":"9231faa6-f65a-4809-b28c-8c57f32febf2","system_id":"levelo_inurba_marseille","lat":43.25102,"lon":5.39517,"is_reserved":false,"is_disabled":false,"rental_uris":{"android":"levelo://app?vid=9231faa6-f65a-4809-b28c-8c57f32febf2","ios":"levelo://app?vid=9231faa6-f65a-4809-b28c-8c57f32febf2"},"vehicle_type_id":"4","last_reported":1738995090,"current_range_meters":32000,"station_id":"ce4bhm12rcd13ifvqgkg","pricing_plan_id":"cebpf4jnsgd1na2vs0mg"},{"bike_id":"86e7fe57-f8b6-4306-adb2-c48a1d6d6515","system_id":"levelo_inurba_marseille","lat":43.257298,"lon":5.411056,"is_reserved":false,"is_disabled":false,"rental_uris":{"android":"levelo://app?vid=86e7fe57-f8b6-4306-adb2-c48a1d6d6515","ios":"levelo://app?vid=86e7fe57-f8b6-4306-adb2-c48a1d6d6515"},"vehicle_type_id":"4","last_reported":1738995090,"current_range_meters":38800,"station_id":"ce4bhkp2rcd13ifvqgd0","pricing_plan_id":"cebpf4jnsgd1na2vs0mg"},{"bike_id":"244783fc-e553-4b13-97c4-77dee0149449","system_id":"levelo_inurba_marseille","lat":43.31326,"lon":5.39706,"is_reserved":false,"is_disabled":false,"rental_uris":{"android":"levelo://app?vid=244783fc-e553-4b13-97c4-77dee0149449","ios":"levelo://app?vid=244783fc-e553-4b13-97c4-77dee0149449"},"vehicle_type_id":"4","last_reported":1738995090,"current_range_meters":29600,"station_id":"ce4bgvp2rcd13ifvqcu0","pricing_plan_id":"cebpf4jnsgd1na2vs0mg"},{"bike_id":"20d6c88e-47e3-45a3-b6e5-c8978ffca51a","system_id":"levelo_inurba_marseille","lat":43.30307,"lon":5.39199,"is_reserved":false,"is_disabled":true,"rental_uris":{"android":"levelo://app?vid=20d6c88e-47e3-45a3-b6e5-c8978ffca51a","ios":"levelo://app?vid=20d6c88e-47e3-45a3-b6e5-c8978ffca51a"},"vehicle_type_id":"4","last_reported":1738995090,"current_range_meters":6800,"station_id":"ce4bgkh2rcd13ifvqbk0","pricing_plan_id":"cebpf4jnsgd1na2vs0mg"},{"bike_id":"be03eb0a-4597-4fef-8e89-e0a6de105fab","system_id":"levelo_inurba_marseille","lat":43.32343,"lon":5.40622,"is_reserved":false,"is_disabled":false,"rental_uris":{"android":"levelo://app?vid=be03eb0a-4597-4fef-8e89-e0a6de105fab","ios":"levelo://app?vid=be03eb0a-4597-4fef-8e89-e0a6de105fab"},"vehicle_type_id":"4","last_reported":1738995090,"current_range_meters":39200,"station_id":"ce4bhq92rcd13ifvqhjg","pricing_plan_id":"cebpf4jnsgd1na2vs0mg"},{"bike_id":"a4ac8bad-fa32-4ad7-8f96-a65cc3b705d7","system_id":"levelo_inurba_marseille","lat":43.3068,"lon":5.40116,"is_reserved":false,"is_disabled":false,"rental_uris":{"android":"levelo://app?vid=a4ac8bad-fa32-4ad7-8f96-a65cc3b705d7","ios":"levelo://app?vid=a4ac8bad-fa32-4ad7-8f96-a65cc3b705d7"},"vehicle_type_id":"4","last_reported":1738995090,"current_range_meters":38800,"station_id":"ce4bh112rcd13ifvqda0","pricing_plan_id":"cebpf4jnsgd1na2vs0mg"},{"bike_id":"d5fd2a14-8ff1-4b6e-a72e-8f7d6ba6ec2f","system_id":"levelo_inurba_marseille","lat":43.28281,"lon":5.35074,"is_reserved":false,"is_disabled":false,"rental_uris":{"android":"levelo://app?vid=d5fd2a14-8ff1-4b6e-a72e-8f7d6ba6ec2f","ios":"levelo://app?vid=d5fd2a14-8ff1-4b6e-a72e-8f7d6ba6ec2f"},"vehicle_type_id":"4","last_reported":1738995090,"current_range_meters":27600,"station_id":"ce4bhbp2rcd13ifvqerg","pricing_plan_id":"cebpf4jnsgd1na2vs0mg"},{"bike_id":"e1f727f7-1e0b-4ed1-97d4-d8af8d0d301b","system_id":"levelo_inurba_marseille","lat":43.31897,"lon":5.40718,"is_reserved":false,"is_disabled":false,"rental_uris":{"android":"levelo://app?vid=e1f727f7-1e0b-4ed1-97d4-d8af8d0d301b","ios":"levelo://app?vid=e1f727f7-1e0b-4ed1-97d4-d8af8d0d301b"},"vehicle_type_id":"4","last_reported":1738995090,"current_range_meters":38400,"station_id":"ce4bhq12rcd13ifvqhig","pricing_plan_id":"cebpf4jnsgd1na2vs0mg"},{"bike_id":"f121b4f3-9ce7-4c6a-b725-2596a1176eb8","system_id":"levelo_inurba_marseille","lat":43.26476,"lon":5.39593,"is_reserved":false,"is_disabled":false,"rental_uris":{"android":"levelo://app?vid=f121b4f3-9ce7-4c6a-b725-2596a1176eb8","ios":"levelo://app?vid=f121b4f3-9ce7-4c6a-b725-2596a1176eb8"},"vehicle_type_id":"4","last_reported":1738995090,"current_range_meters":18000,"station_id":"ce4bhi12rcd13ifvqfq0","pricing_plan_id":"cebpf4jnsgd1na2vs0mg"},{"bike_id":"c6f92ca4-91f7-4b27-a97d-0ada5b4e29ae","system_id":"levelo_inurba_marseille","lat":43.24672,"lon":5.38164,"is_reserved":false,"is_disabled":false,"rental_uris":{"android":"levelo://app?vid=c6f92ca4-91f7-4b27-a97d-0ada5b4e29ae","ios":"levelo://app?vid=c6f92ca4-91f7-4b27-a97d-0ada5b4e29ae"},"vehicle_type_id":"4","last_reported":1738995090,"current_range_meters":28000,"station_id":"ce4bhih2rcd13ifvqfr0","pricing_plan_id":"cebpf4jnsgd1na2vs0mg"},{"bike_id":"d8c89a2a-c1a0-45e4-8a21-017ec1912d91","system_id":"levelo_inurba_marseille","lat":43.28453,"lon":5.35881,"is_reserved":false,"is_disabled":false,"rental_uris":{"android":"levelo://app?vid=d8c89a2a-c1a0-45e4-8a21-017ec1912d91","ios":"levelo://app?vid=d8c89a2a-c1a0-45e4-8a21-017ec1912d91"},"vehicle_type_id":"4","last_reported":1738995090,"current_range_meters":30400,"station_id":"ce4bhah2rcd13ifvqei0","pricing_plan_id":"cebpf4jnsgd1na2vs0mg"},{"bike_id":"2bdc30f2-b58a-4dbf-9890-eb5128508cce","system_id":"levelo_inurba_marseille","lat":43.30451,"lon":5.39733,"is_reserved":false,"is_disabled":false,"rental_uris":{"android":"levelo://app?vid=2bdc30f2-b58a-4dbf-9890-eb5128508cce","ios":"levelo://app?vid=2bdc30f2-b58a-4dbf-9890-eb5128508cce"},"vehicle_type_id":"4","last_reported":1738995090,"current_range_meters":38000,"station_id":"ce4bh092rcd13ifvqd20","pricing_plan_id":"cebpf4jnsgd1na2vs0mg"},{"bike_id":"93400e88-5592-48e9-98c5-f8bb87876758","system_id":"levelo_inurba_marseille","lat":43.29533,"lon":5.37509,"is_reserved":false,"is_disabled":true,"rental_uris":{"android":"levelo://app?vid=93400e88-5592-48e9-98c5-f8bb87876758","ios":"levelo://app?vid=93400e88-5592-48e9-98c5-f8bb87876758"},"vehicle_type_id":"4","last_reported":1738995090,"current_range_meters":30400,"station_id":"ce4bgkp2rcd13ifvqbmg","pricing_plan_id":"cebpf4jnsgd1na2vs0mg"},{"bike_id":"f335f4ea-f372-4b4d-97e9-cf4e01ad5b70","system_id":"levelo_inurba_marseille","lat":43.313217,"lon":5.397033,"is_reserved":false,"is_disabled":false,"rental_uris":{"android":"levelo://app?vid=f335f4ea-f372-4b4d-97e9-cf4e01ad5b70","ios":"levelo://app?vid=f335f4ea-f372-4b4d-97e9-cf4e01ad5b70"},"vehicle_type_id":"4","last_reported":1738995090,"current_range_meters":24000,"station_id":"ce4bgvp2rcd13ifvqcu0","pricing_plan_id":"cebpf4jnsgd1na2vs0mg"},{"bike_id":"a72cdeb8-b07a-4fcc-a8c7-f3da7402cd9e","system_id":"levelo_inurba_marseille","lat":43.30925,"lon":5.36865,"is_reserved":false,"is_disabled":false,"rental_uris":{"android":"levelo://app?vid=a72cdeb8-b07a-4fcc-a8c7-f3da7402cd9e","ios":"levelo://app?vid=a72cdeb8-b07a-4fcc-a8c7-f3da7402cd9e"},"vehicle_type_id":"4","last_reported":1738995090,"current_range_meters":16000,"station_id":"ce4bgn92rcd13ifvqbvg","pricing_plan_id":"cebpf4jnsgd1na2vs0mg"},{"bike_id":"08754559-2c8a-4a14-91bb-308f64427a35","system_id":"levelo_inurba_marseille","lat":43.28336,"lon":5.38103,"is_reserved":false,"is_disabled":false,"rental_uris":{"android":"levelo://app?vid=08754559-2c8a-4a14-91bb-308f64427a35","ios":"levelo://app?vid=08754559-2c8a-4a14-91bb-308f64427a35"},"vehicle_type_id":"4","last_reported":1738995090,"current_range_meters":38800,"station_id":"ce4bh412rcd13ifvqdr0","pricing_plan_id":"cebpf4jnsgd1na2vs0mg"},{"bike_id":"eab6a6fa-f488-43a5-80d5-f969b4b2f3f1","system_id":"levelo_inurba_marseille","lat":43.31162,"lon":5.38724,"is_reserved":false,"is_disabled":false,"rental_uris":{"android":"levelo://app?vid=eab6a6fa-f488-43a5-80d5-f969b4b2f3f1","ios":"levelo://app?vid=eab6a6fa-f488-43a5-80d5-f969b4b2f3f1"},"vehicle_type_id":"4","last_reported":1738995090,"current_range_meters":9600,"station_id":"ce4bgv12rcd13ifvqcp0","pricing_plan_id":"cebpf4jnsgd1na2vs0mg"},{"bike_id":"70acda7e-3969-4a99-8155-b52412fc4df4","system_id":"levelo_inurba_marseille","lat":43.30651,"lon":5.40085,"is_reserved":false,"is_disabled":false,"rental_uris":{"android":"levelo://app?vid=70acda7e-3969-4a99-8155-b52412fc4df4","ios":"levelo://app?vid=70acda7e-3969-4a99-8155-b52412fc4df4"},"vehicle_type_id":"4","last_reported":1738995090,"current_range_meters":31200,"station_id":"ce4bh112rcd13ifvqda0","pricing_plan_id":"cebpf4jnsgd1na2vs0mg"},{"bike_id":"14d1ef16-ae4b-4d75-ad2d-2fcb7ead492f","system_id":"levelo_inurba_marseille","lat":43.294163,"lon":5.386369,"is_reserved":false,"is_disabled":false,"rental_uris":{"android":"levelo://app?vid=14d1ef16-ae4b-4d75-ad2d-2fcb7ead492f","ios":"levelo://app?vid=14d1ef16-ae4b-4d75-ad2d-2fcb7ead492f"},"vehicle_type_id":"4","last_reported":1738995090,"current_range_meters":25200,"station_id":"ce4bh012rcd13ifvqd10","pricing_plan_id":"cebpf4jnsgd1na2vs0mg"},{"bike_id":"c5789181-d252-4c46-b75d-908f3a6a38fe","system_id":"levelo_inurba_marseille","lat":43.33726,"lon":5.39187,"is_reserved":false,"is_disabled":false,"rental_uris":{"android":"levelo://app?vid=c5789181-d252-4c46-b75d-908f3a6a38fe","ios":"levelo://app?vid=c5789181-d252-4c46-b75d-908f3a6a38fe"},"vehicle_type_id":"4","last_reported":1738995090,"current_range_meters":38000,"station_id":"ce4bhr92rcd13ifvqhsg","pricing_plan_id":"cebpf4jnsgd1na2vs0mg"},{"bike_id":"ba66be96-1831-451b-b0d3-1cd07f114075","system_id":"levelo_inurba_marseille","lat":43.30298,"lon":5.36884,"is_reserved":false,"is_disabled":false,"rental_uris":{"android":"levelo://app?vid=ba66be96-1831-451b-b0d3-1cd07f114075","ios":"levelo://app?vid=ba66be96-1831-451b-b0d3-1cd07f114075"},"vehicle_type_id":"4","last_reported":1738995090,"current_range_meters":26000,"station_id":"ce4bgqh2rcd13ifvqc5g","pricing_plan_id":"cebpf4jnsgd1na2vs0mg"},{"bike_id":"9d8477cd-4fe5-4083-83b2-c48f97b45cef","system_id":"levelo_inurba_marseille","lat":43.309324,"lon":5.401441,"is_reserved":false,"is_disabled":false,"rental_uris":{"android":"levelo://app?vid=9d8477cd-4fe5-4083-83b2-c48f97b45cef","ios":"levelo://app?vid=9d8477cd-4fe5-4083-83b2-c48f97b45cef"},"vehicle_type_id":"4","last_reported":1738995090,"current_range_meters":24400,"station_id":"ce4bgvp2rcd13ifvqct0","pricing_plan_id":"cebpf4jnsgd1na2vs0mg"},{"bike_id":"b8a288ef-4349-437d-a22a-753084f41b03","system_id":"levelo_inurba_marseille","lat":43.31777,"lon":5.39009,"is_reserved":false,"is_disabled":false,"rental_uris":{"android":"levelo://app?vid=b8a288ef-4349-437d-a22a-753084f41b03","ios":"levelo://app?vid=b8a288ef-4349-437d-a22a-753084f41b03"},"vehicle_type_id":"4","last_reported":1738995090,"current_range_meters":36800,"station_id":"ce4bhqp2rcd13ifvqhng","pricing_plan_id":"cebpf4jnsgd1na2vs0mg"},{"bike_id":"4b346763-af4b-47bb-8f20-016bb4fee202","system_id":"levelo_inurba_marseille","lat":43.27813,"lon":5.40713,"is_reserved":false,"is_disabled":false,"rental_uris":{"android":"levelo://app?vid=4b346763-af4b-47bb-8f20-016bb4fee202","ios":"levelo://app?vid=4b346763-af4b-47bb-8f20-016bb4fee202"},"vehicle_type_id":"4","last_reported":1738995090,"current_range_meters":38400,"station_id":"ce4bhnh2rcd13ifvqgtg","pricing_plan_id":"cebpf4jnsgd1na2vs0mg"},{"bike_id":"b2542839-70e9-4035-8581-0da82c4e947f","system_id":"levelo_inurba_marseille","lat":43.28453,"lon":5.35883,"is_reserved":false,"is_disabled":false,"rental_uris":{"android":"levelo://app?vid=b2542839-70e9-4035-8581-0da82c4e947f","ios":"levelo://app?vid=b2542839-70e9-4035-8581-0da82c4e947f"},"vehicle_type_id":"4","last_reported":1738995090,"current_range_meters":19200,"station_id":"ce4bhah2rcd13ifvqei0","pricing_plan_id":"cebpf4jnsgd1na2vs0mg"},{"bike_id":"3b594c84-c43c-48d4-89e4-083aeef7b4cc","system_id":"levelo_inurba_marseille","lat":43.24539,"lon":5.39529,"is_reserved":false,"is_disabled":false,"rental_uris":{"android":"levelo://app?vid=3b594c84-c43c-48d4-89e4-083aeef7b4cc","ios":"levelo://app?vid=3b594c84-c43c-48d4-89e4-083aeef7b4cc"},"vehicle_type_id":"4","last_reported":1738995090,"current_range_meters":35600,"station_id":"ce4bhlp2rcd13ifvqgjg","pricing_plan_id":"cebpf4jnsgd1na2vs0mg"},{"bike_id":"09710415-4dac-4e4c-a5b2-403eafa59e89","system_id":"levelo_inurba_marseille","lat":43.23956,"lon":5.36635,"is_reserved":false,"is_disabled":false,"rental_uris":{"android":"levelo://app?vid=09710415-4dac-4e4c-a5b2-403eafa59e89","ios":"levelo://app?vid=09710415-4dac-4e4c-a5b2-403eafa59e89"},"vehicle_type_id":"4","last_reported":1738995090,"current_range_meters":38800,"station_id":"ce4bhi12rcd13ifvqfp0","pricing_plan_id":"cebpf4jnsgd1na2vs0mg"},{"bike_id":"c559579c-62e7-486e-bd6f-7f015937f69d","system_id":"levelo_inurba_marseille","lat":43.30925,"lon":5.40142,"is_reserved":false,"is_disabled":false,"rental_uris":{"android":"levelo://app?vid=c559579c-62e7-486e-bd6f-7f015937f69d","ios":"levelo://app?vid=c559579c-62e7-486e-bd6f-7f015937f69d"},"vehicle_type_id":"4","last_reported":1738995090,"current_range_meters":18800,"station_id":"ce4bgvp2rcd13ifvqct0","pricing_plan_id":"cebpf4jnsgd1na2vs0mg"},{"bike_id":"5facc43d-9cd5-48f7-a8dc-3d76ab44e903","system_id":"levelo_inurba_marseille","lat":43.25005,"lon":5.38921,"is_reserved":false,"is_disabled":false,"rental_uris":{"android":"levelo://app?vid=5facc43d-9cd5-48f7-a8dc-3d76ab44e903","ios":"levelo://app?vid=5facc43d-9cd5-48f7-a8dc-3d76ab44e903"},"vehicle_type_id":"4","last_reported":1738995090,"current_range_meters":28000,"station_id":"ce4bhgp2rcd13ifvqfd0","pricing_plan_id":"cebpf4jnsgd1na2vs0mg"},{"bike_id":"da343b45-1f5e-4b05-84db-53e22562acc7","system_id":"levelo_inurba_marseille","lat":43.28341,"lon":5.38644,"is_reserved":false,"is_disabled":false,"rental_uris":{"android":"levelo://app?vid=da343b45-1f5e-4b05-84db-53e22562acc7","ios":"levelo://app?vid=da343b45-1f5e-4b05-84db-53e22562acc7"},"vehicle_type_id":"4","last_reported":1738995090,"current_range_meters":38800,"station_id":"ce4bh492rcd13ifvqdvg","pricing_plan_id":"cebpf4jnsgd1na2vs0mg"},{"bike_id":"33f37d6b-08fe-4642-b4da-79d2133e4243","system_id":"levelo_inurba_marseille","lat":43.27302,"lon":5.42325,"is_reserved":false,"is_disabled":true,"rental_uris":{"android":"levelo://app?vid=33f37d6b-08fe-4642-b4da-79d2133e4243","ios":"levelo://app?vid=33f37d6b-08fe-4642-b4da-79d2133e4243"},"vehicle_type_id":"4","last_reported":1738995090,"current_range_meters":0,"station_id":"","pricing_plan_id":"cebpf4jnsgd1na2vs0mg"},{"bike_id":"118b1d9a-bc00-428d-ac60-6949e2e1ff6b","system_id":"levelo_inurba_marseille","lat":43.248084,"lon":5.374621,"is_reserved":false,"is_disabled":false,"rental_uris":{"android":"levelo://app?vid=118b1d9a-bc00-428d-ac60-6949e2e1ff6b","ios":"levelo://app?vid=118b1d9a-bc00-428d-ac60-6949e2e1ff6b"},"vehicle_type_id":"4","last_reported":1738995090,"current_range_meters":34800,"station_id":"ce4bhgh2rcd13ifvqfb0","pricing_plan_id":"cebpf4jnsgd1na2vs0mg"},{"bike_id":"6c6b85f6-5196-4ca0-aa82-77e7143328d6","system_id":"levelo_inurba_marseille","lat":43.29573,"lon":5.39968,"is_reserved":false,"is_disabled":false,"rental_uris":{"android":"levelo://app?vid=6c6b85f6-5196-4ca0-aa82-77e7143328d6","ios":"levelo://app?vid=6c6b85f6-5196-4ca0-aa82-77e7143328d6"},"vehicle_type_id":"4","last_reported":1738995090,"current_range_meters":38800,"station_id":"ce4bh312rcd13ifvqdj0","pricing_plan_id":"cebpf4jnsgd1na2vs0mg"},{"bike_id":"c1011d45-0e30-48f4-9c83-9de4a4d17063","system_id":"levelo_inurba_marseille","lat":43.29348,"lon":5.42861,"is_reserved":false,"is_disabled":false,"rental_uris":{"android":"levelo://app?vid=c1011d45-0e30-48f4-9c83-9de4a4d17063","ios":"levelo://app?vid=c1011d45-0e30-48f4-9c83-9de4a4d17063"},"vehicle_type_id":"4","last_reported":1738995090,"current_range_meters":19200,"station_id":"","pricing_plan_id":"cebpf4jnsgd1na2vs0mg"},{"bike_id":"1f55eb06-2da6-4b79-8af3-3f81d5c39dc1","system_id":"levelo_inurba_marseille","lat":43.28836,"lon":5.38018,"is_reserved":false,"is_disabled":false,"rental_uris":{"android":"levelo://app?vid=1f55eb06-2da6-4b79-8af3-3f81d5c39dc1","ios":"levelo://app?vid=1f55eb06-2da6-4b79-8af3-3f81d5c39dc1"},"vehicle_type_id":"4","last_reported":1738995090,"current_range_meters":29600,"station_id":"","pricing_plan_id":"cebpf4jnsgd1na2vs0mg"},{"bike_id":"d94da8e2-a1f1-46e4-bb51-ac3d4a761980","system_id":"levelo_inurba_marseille","lat":43.258305,"lon":5.394205,"is_reserved":false,"is_disabled":false,"rental_uris":{"android":"levelo://app?vid=d94da8e2-a1f1-46e4-bb51-ac3d4a761980","ios":"levelo://app?vid=d94da8e2-a1f1-46e4-bb51-ac3d4a761980"},"vehicle_type_id":"4","last_reported":1738995090,"current_range_meters":38000,"station_id":"ce4bhip2rcd13ifvqft0","pricing_plan_id":"cebpf4jnsgd1na2vs0mg"},{"bike_id":"79b23650-8b3f-4072-90b9-4b475957f68a","system_id":"levelo_inurba_marseille","lat":43.290129,"lon":5.356024,"is_reserved":false,"is_disabled":false,"rental_uris":{"android":"levelo://app?vid=79b23650-8b3f-4072-90b9-4b475957f68a","ios":"levelo://app?vid=79b23650-8b3f-4072-90b9-4b475957f68a"},"vehicle_type_id":"4","last_reported":1738995090,"current_range_meters":38800,"station_id":"ce4bhb92rcd13ifvqen0","pricing_plan_id":"cebpf4jnsgd1na2vs0mg"},{"bike_id":"616062e4-19db-444e-bc13-a16a639c15cb","system_id":"levelo_inurba_marseille","lat":43.306626,"lon":5.400903,"is_reserved":false,"is_disabled":true,"rental_uris":{"android":"levelo://app?vid=616062e4-19db-444e-bc13-a16a639c15cb","ios":"levelo://app?vid=616062e4-19db-444e-bc13-a16a639c15cb"},"vehicle_type_id":"4","last_reported":1738995090,"current_range_meters":5600,"station_id":"ce4bh112rcd13ifvqda0","pricing_plan_id":"cebpf4jnsgd1na2vs0mg"},{"bike_id":"adea3fe0-0d5f-493f-bc7a-8db19cd779cc","system_id":"levelo_inurba_marseille","lat":43.26195,"lon":5.37905,"is_reserved":false,"is_disabled":false,"rental_uris":{"android":"levelo://app?vid=adea3fe0-0d5f-493f-bc7a-8db19cd779cc","ios":"levelo://app?vid=adea3fe0-0d5f-493f-bc7a-8db19cd779cc"},"vehicle_type_id":"4","last_reported":1738995090,"current_range_meters":34000,"station_id":"ce4bhjp2rcd13ifvqg90","pricing_plan_id":"cebpf4jnsgd1na2vs0mg"},{"bike_id":"89129120-525a-4cc9-87bc-264adec08a97","system_id":"levelo_inurba_marseille","lat":43.28662,"lon":5.36343,"is_reserved":false,"is_disabled":false,"rental_uris":{"android":"levelo://app?vid=89129120-525a-4cc9-87bc-264adec08a97","ios":"levelo://app?vid=89129120-525a-4cc9-87bc-264adec08a97"},"vehicle_type_id":"4","last_reported":1738995090,"current_range_meters":38000,"station_id":"ce4bhah2rcd13ifvqej0","pricing_plan_id":"cebpf4jnsgd1na2vs0mg"},{"bike_id":"889ef476-f99b-42ff-95f8-28ea11857507","system_id":"levelo_inurba_marseille","lat":43.23956,"lon":5.36639,"is_reserved":false,"is_disabled":false,"rental_uris":{"android":"levelo://app?vid=889ef476-f99b-42ff-95f8-28ea11857507","ios":"levelo://app?vid=889ef476-f99b-42ff-95f8-28ea11857507"},"vehicle_type_id":"4","last_reported":1738995090,"current_range_meters":32800,"station_id":"ce4bhi12rcd13ifvqfp0","pricing_plan_id":"cebpf4jnsgd1na2vs0mg"},{"bike_id":"2e45d347-f2a9-4c8e-b5da-d3e56e0bf649","system_id":"levelo_inurba_marseille","lat":43.232,"lon":5.3996,"is_reserved":false,"is_disabled":false,"rental_uris":{"android":"levelo://app?vid=2e45d347-f2a9-4c8e-b5da-d3e56e0bf649","ios":"levelo://app?vid=2e45d347-f2a9-4c8e-b5da-d3e56e0bf649"},"vehicle_type_id":"4","last_reported":1738995090,"current_range_meters":9600,"station_id":"ce4bhn12rcd13ifvqgqg","pricing_plan_id":"cebpf4jnsgd1na2vs0mg"},{"bike_id":"e343ef99-5997-4c64-80fc-79ef8cbb50b8","system_id":"levelo_inurba_marseille","lat":43.304712,"lon":5.38204,"is_reserved":false,"is_disabled":false,"rental_uris":{"android":"levelo://app?vid=e343ef99-5997-4c64-80fc-79ef8cbb50b8","ios":"levelo://app?vid=e343ef99-5997-4c64-80fc-79ef8cbb50b8"},"vehicle_type_id":"4","last_reported":1738995090,"current_range_meters":24800,"station_id":"","pricing_plan_id":"cebpf4jnsgd1na2vs0mg"},{"bike_id":"aee60cfb-7586-4f94-9113-47cfd9d66739","system_id":"levelo_inurba_marseille","lat":43.28156,"lon":5.42637,"is_reserved":false,"is_disabled":false,"rental_uris":{"android":"levelo://app?vid=aee60cfb-7586-4f94-9113-47cfd9d66739","ios":"levelo://app?vid=aee60cfb-7586-4f94-9113-47cfd9d66739"},"vehicle_type_id":"4","last_reported":1738995090,"current_range_meters":38000,"station_id":"ce4bhnh2rcd13ifvqgug","pricing_plan_id":"cebpf4jnsgd1na2vs0mg"},{"bike_id":"7cf7deec-dc90-4c98-8a4b-eca1733120f6","system_id":"levelo_inurba_marseille","lat":43.28112,"lon":5.3784,"is_reserved":false,"is_disabled":false,"rental_uris":{"android":"levelo://app?vid=7cf7deec-dc90-4c98-8a4b-eca1733120f6","ios":"levelo://app?vid=7cf7deec-dc90-4c98-8a4b-eca1733120f6"},"vehicle_type_id":"4","last_reported":1738995090,"current_range_meters":27600,"station_id":"ce4bha12rcd13ifvqee0","pricing_plan_id":"cebpf4jnsgd1na2vs0mg"},{"bike_id":"48961485-d456-41f9-8eeb-d70756a0114c","system_id":"levelo_inurba_marseille","lat":43.28658,"lon":5.3635,"is_reserved":false,"is_disabled":false,"rental_uris":{"android":"levelo://app?vid=48961485-d456-41f9-8eeb-d70756a0114c","ios":"levelo://app?vid=48961485-d456-41f9-8eeb-d70756a0114c"},"vehicle_type_id":"4","last_reported":1738995090,"current_range_meters":8800,"station_id":"ce4bhah2rcd13ifvqej0","pricing_plan_id":"cebpf4jnsgd1na2vs0mg"},{"bike_id":"fd741a2c-6090-4746-8e0c-a3bcf67c55a8","system_id":"levelo_inurba_marseille","lat":43.2315,"lon":5.43705,"is_reserved":false,"is_disabled":false,"rental_uris":{"android":"levelo://app?vid=fd741a2c-6090-4746-8e0c-a3bcf67c55a8","ios":"levelo://app?vid=fd741a2c-6090-4746-8e0c-a3bcf67c55a8"},"vehicle_type_id":"4","last_reported":1738995090,"current_range_meters":38800,"station_id":"ce4bhmp2rcd13ifvqgog","pricing_plan_id":"cebpf4jnsgd1na2vs0mg"},{"bike_id":"f2df57fd-48fb-42b4-9b53-5e639c9b06ad","system_id":"levelo_inurba_marseille","lat":43.323618,"lon":5.389,"is_reserved":false,"is_disabled":false,"rental_uris":{"android":"levelo://app?vid=f2df57fd-48fb-42b4-9b53-5e639c9b06ad","ios":"levelo://app?vid=f2df57fd-48fb-42b4-9b53-5e639c9b06ad"},"vehicle_type_id":"4","last_reported":1738995090,"current_range_meters":36000,"station_id":"ce4bhqp2rcd13ifvqhog","pricing_plan_id":"cebpf4jnsgd1na2vs0mg"},{"bike_id":"2e5e4b5a-b989-4511-ba1a-a53eaba1410a","system_id":"levelo_inurba_marseille","lat":43.31275,"lon":5.40153,"is_reserved":false,"is_disabled":false,"rental_uris":{"android":"levelo://app?vid=2e5e4b5a-b989-4511-ba1a-a53eaba1410a","ios":"levelo://app?vid=2e5e4b5a-b989-4511-ba1a-a53eaba1410a"},"vehicle_type_id":"4","last_reported":1738995090,"current_range_meters":38800,"station_id":"ce4bh092rcd13ifvqd30","pricing_plan_id":"cebpf4jnsgd1na2vs0mg"},{"bike_id":"0db2bfd7-2ca1-4f77-9597-ebb3b2c72fef","system_id":"levelo_inurba_marseille","lat":43.273723,"lon":5.362626,"is_reserved":false,"is_disabled":false,"rental_uris":{"android":"levelo://app?vid=0db2bfd7-2ca1-4f77-9597-ebb3b2c72fef","ios":"levelo://app?vid=0db2bfd7-2ca1-4f77-9597-ebb3b2c72fef"},"vehicle_type_id":"4","last_reported":1738995090,"current_range_meters":18000,"station_id":"ce4bhbh2rcd13ifvqeo0","pricing_plan_id":"cebpf4jnsgd1na2vs0mg"},{"bike_id":"923d14a3-7acb-42ec-9adf-7bc97fef68bb","system_id":"levelo_inurba_marseille","lat":43.287087,"lon":5.39984,"is_reserved":false,"is_disabled":false,"rental_uris":{"android":"levelo://app?vid=923d14a3-7acb-42ec-9adf-7bc97fef68bb","ios":"levelo://app?vid=923d14a3-7acb-42ec-9adf-7bc97fef68bb"},"vehicle_type_id":"4","last_reported":1738995090,"current_range_meters":37600,"station_id":"ce4bho92rcd13ifvqh3g","pricing_plan_id":"cebpf4jnsgd1na2vs0mg"},{"bike_id":"59db9156-837c-4bef-bdf0-6cb05d00fb23","system_id":"levelo_inurba_marseille","lat":43.24168,"lon":5.36412,"is_reserved":false,"is_disabled":false,"rental_uris":{"android":"levelo://app?vid=59db9156-837c-4bef-bdf0-6cb05d00fb23","ios":"levelo://app?vid=59db9156-837c-4bef-bdf0-6cb05d00fb23"},"vehicle_type_id":"4","last_reported":1738995090,"current_range_meters":28400,"station_id":"cpo36qri1sfpv3e86is0","pricing_plan_id":"cebpf4jnsgd1na2vs0mg"},{"bike_id":"da2d8c01-630b-457d-a9b4-7854372e8eba","system_id":"levelo_inurba_marseille","lat":43.3048,"lon":5.367883,"is_reserved":false,"is_disabled":false,"rental_uris":{"android":"levelo://app?vid=da2d8c01-630b-457d-a9b4-7854372e8eba","ios":"levelo://app?vid=da2d8c01-630b-457d-a9b4-7854372e8eba"},"vehicle_type_id":"4","last_reported":1738995090,"current_range_meters":20000,"station_id":"","pricing_plan_id":"cebpf4jnsgd1na2vs0mg"},{"bike_id":"19c65250-bb22-4e32-b73c-2c8109bbf59a","system_id":"levelo_inurba_marseille","lat":43.30886,"lon":5.39645,"is_reserved":false,"is_disabled":false,"rental_uris":{"android":"levelo://app?vid=19c65250-bb22-4e32-b73c-2c8109bbf59a","ios":"levelo://app?vid=19c65250-bb22-4e32-b73c-2c8109bbf59a"},"vehicle_type_id":"4","last_reported":1738995090,"current_range_meters":29600,"station_id":"ce4bh012rcd13ifvqcv0","pricing_plan_id":"cebpf4jnsgd1na2vs0mg"},{"bike_id":"19c91191-64ee-4803-94d7-14a4a66340df","system_id":"levelo_inurba_marseille","lat":43.31716,"lon":5.4242,"is_reserved":false,"is_disabled":true,"rental_uris":{"android":"levelo://app?vid=19c91191-64ee-4803-94d7-14a4a66340df","ios":"levelo://app?vid=19c91191-64ee-4803-94d7-14a4a66340df"},"vehicle_type_id":"4","last_reported":1738995090,"current_range_meters":0,"station_id":"ce4bhp92rcd13ifvqhbg","pricing_plan_id":"cebpf4jnsgd1na2vs0mg"},{"bike_id":"253b4999-41c5-4f79-8ef7-b17022cf04e3","system_id":"levelo_inurba_marseille","lat":43.33021,"lon":5.39037,"is_reserved":false,"is_disabled":false,"rental_uris":{"android":"levelo://app?vid=253b4999-41c5-4f79-8ef7-b17022cf04e3","ios":"levelo://app?vid=253b4999-41c5-4f79-8ef7-b17022cf04e3"},"vehicle_type_id":"4","last_reported":1738995090,"current_range_meters":36400,"station_id":"ce4bhr92rcd13ifvqhrg","pricing_plan_id":"cebpf4jnsgd1na2vs0mg"},{"bike_id":"426e09ee-9e79-4472-8ad7-7e9f8628bd00","system_id":"levelo_inurba_marseille","lat":43.24662,"lon":5.38201,"is_reserved":false,"is_disabled":false,"rental_uris":{"android":"levelo://app?vid=426e09ee-9e79-4472-8ad7-7e9f8628bd00","ios":"levelo://app?vid=426e09ee-9e79-4472-8ad7-7e9f8628bd00"},"vehicle_type_id":"4","last_reported":1738995090,"current_range_meters":9200,"station_id":"ce4bhih2rcd13ifvqfr0","pricing_plan_id":"cebpf4jnsgd1na2vs0mg"},{"bike_id":"8547559c-754b-48f3-9411-4513b284f897","system_id":"levelo_inurba_marseille","lat":43.31745,"lon":5.39028,"is_reserved":false,"is_disabled":false,"rental_uris":{"android":"levelo://app?vid=8547559c-754b-48f3-9411-4513b284f897","ios":"levelo://app?vid=8547559c-754b-48f3-9411-4513b284f897"},"vehicle_type_id":"4","last_reported":1738995090,"current_range_meters":38800,"station_id":"ce4bhqp2rcd13ifvqhng","pricing_plan_id":"cebpf4jnsgd1na2vs0mg"},{"bike_id":"d3ccc336-bf7a-4574-adec-fe10400120aa","system_id":"levelo_inurba_marseille","lat":43.251139,"lon":5.403234,"is_reserved":false,"is_disabled":false,"rental_uris":{"android":"levelo://app?vid=d3ccc336-bf7a-4574-adec-fe10400120aa","ios":"levelo://app?vid=d3ccc336-bf7a-4574-adec-fe10400120aa"},"vehicle_type_id":"4","last_reported":1738995090,"current_range_meters":26000,"station_id":"ce4bhlh2rcd13ifvqgig","pricing_plan_id":"cebpf4jnsgd1na2vs0mg"},{"bike_id":"7e424a35-8cf7-4c71-b98f-4231461d22a0","system_id":"levelo_inurba_marseille","lat":43.27482,"lon":5.38958,"is_reserved":false,"is_disabled":false,"rental_uris":{"android":"levelo://app?vid=7e424a35-8cf7-4c71-b98f-4231461d22a0","ios":"levelo://app?vid=7e424a35-8cf7-4c71-b98f-4231461d22a0"},"vehicle_type_id":"4","last_reported":1738995090,"current_range_meters":38000,"station_id":"","pricing_plan_id":"cebpf4jnsgd1na2vs0mg"},{"bike_id":"4e0b88b7-802a-44d7-8ca8-f331fc880877","system_id":"levelo_inurba_marseille","lat":43.2455,"lon":5.39526,"is_reserved":false,"is_disabled":false,"rental_uris":{"android":"levelo://app?vid=4e0b88b7-802a-44d7-8ca8-f331fc880877","ios":"levelo://app?vid=4e0b88b7-802a-44d7-8ca8-f331fc880877"},"vehicle_type_id":"4","last_reported":1738995090,"current_range_meters":18000,"station_id":"ce4bhlp2rcd13ifvqgjg","pricing_plan_id":"cebpf4jnsgd1na2vs0mg"},{"bike_id":"63502e7d-71b3-44d6-b82d-6352b6e3809f","system_id":"levelo_inurba_marseille","lat":43.25836,"lon":5.3943,"is_reserved":false,"is_disabled":false,"rental_uris":{"android":"levelo://app?vid=63502e7d-71b3-44d6-b82d-6352b6e3809f","ios":"levelo://app?vid=63502e7d-71b3-44d6-b82d-6352b6e3809f"},"vehicle_type_id":"4","last_reported":1738995090,"current_range_meters":32400,"station_id":"ce4bhip2rcd13ifvqft0","pricing_plan_id":"cebpf4jnsgd1na2vs0mg"},{"bike_id":"cdb401c0-ba13-4a7c-b7fd-1404f1444bbd","system_id":"levelo_inurba_marseille","lat":43.30169,"lon":5.38073,"is_reserved":false,"is_disabled":false,"rental_uris":{"android":"levelo://app?vid=cdb401c0-ba13-4a7c-b7fd-1404f1444bbd","ios":"levelo://app?vid=cdb401c0-ba13-4a7c-b7fd-1404f1444bbd"},"vehicle_type_id":"4","last_reported":1738995090,"current_range_meters":38800,"station_id":"ce4bgjp2rcd13ifvqbh0","pricing_plan_id":"cebpf4jnsgd1na2vs0mg"},{"bike_id":"05ca58bd-9626-4609-b90a-c792e874d98a","system_id":"levelo_inurba_marseille","lat":43.315045,"lon":5.372834,"is_reserved":false,"is_disabled":false,"rental_uris":{"android":"levelo://app?vid=05ca58bd-9626-4609-b90a-c792e874d98a","ios":"levelo://app?vid=05ca58bd-9626-4609-b90a-c792e874d98a"},"vehicle_type_id":"4","last_reported":1738995090,"current_range_meters":38800,"station_id":"ce4bgt12rcd13ifvqcd0","pricing_plan_id":"cebpf4jnsgd1na2vs0mg"},{"bike_id":"90431abe-bdde-4234-a395-af498fe41c2f","system_id":"levelo_inurba_marseille","lat":43.27201,"lon":5.39173,"is_reserved":false,"is_disabled":false,"rental_uris":{"android":"levelo://app?vid=90431abe-bdde-4234-a395-af498fe41c2f","ios":"levelo://app?vid=90431abe-bdde-4234-a395-af498fe41c2f"},"vehicle_type_id":"4","last_reported":1738995090,"current_range_meters":39200,"station_id":"ce4bhhp2rcd13ifvqfm0","pricing_plan_id":"cebpf4jnsgd1na2vs0mg"},{"bike_id":"5d1dacf3-3fa1-40ba-8373-ce163dd2d283","system_id":"levelo_inurba_marseille","lat":43.26192,"lon":5.3792,"is_reserved":false,"is_disabled":false,"rental_uris":{"android":"levelo://app?vid=5d1dacf3-3fa1-40ba-8373-ce163dd2d283","ios":"levelo://app?vid=5d1dacf3-3fa1-40ba-8373-ce163dd2d283"},"vehicle_type_id":"4","last_reported":1738995090,"current_range_meters":38800,"station_id":"ce4bhjp2rcd13ifvqg90","pricing_plan_id":"cebpf4jnsgd1na2vs0mg"},{"bike_id":"e3f35dce-0af2-43a7-8277-a8de7b8f4976","system_id":"levelo_inurba_marseille","lat":43.25115,"lon":5.40299,"is_reserved":false,"is_disabled":false,"rental_uris":{"android":"levelo://app?vid=e3f35dce-0af2-43a7-8277-a8de7b8f4976","ios":"levelo://app?vid=e3f35dce-0af2-43a7-8277-a8de7b8f4976"},"vehicle_type_id":"4","last_reported":1738995090,"current_range_meters":31200,"station_id":"ce4bhlh2rcd13ifvqgig","pricing_plan_id":"cebpf4jnsgd1na2vs0mg"},{"bike_id":"6ff781d1-2621-44d1-b299-83b571f09432","system_id":"levelo_inurba_marseille","lat":43.34071,"lon":5.38514,"is_reserved":false,"is_disabled":false,"rental_uris":{"android":"levelo://app?vid=6ff781d1-2621-44d1-b299-83b571f09432","ios":"levelo://app?vid=6ff781d1-2621-44d1-b299-83b571f09432"},"vehicle_type_id":"4","last_reported":1738995090,"current_range_meters":4400,"station_id":"","pricing_plan_id":"cebpf4jnsgd1na2vs0mg"},{"bike_id":"c87a8640-d577-423d-8f3e-fe30563e3243","system_id":"levelo_inurba_marseille","lat":43.28411,"lon":5.37482,"is_reserved":false,"is_disabled":false,"rental_uris":{"android":"levelo://app?vid=c87a8640-d577-423d-8f3e-fe30563e3243","ios":"levelo://app?vid=c87a8640-d577-423d-8f3e-fe30563e3243"},"vehicle_type_id":"4","last_reported":1738995090,"current_range_meters":11600,"station_id":"ce4bh412rcd13ifvqds0","pricing_plan_id":"cebpf4jnsgd1na2vs0mg"},{"bike_id":"cd287953-6f9b-477d-8fd0-816e7b8aefb1","system_id":"levelo_inurba_marseille","lat":43.29569,"lon":5.39965,"is_reserved":false,"is_disabled":false,"rental_uris":{"android":"levelo://app?vid=cd287953-6f9b-477d-8fd0-816e7b8aefb1","ios":"levelo://app?vid=cd287953-6f9b-477d-8fd0-816e7b8aefb1"},