{"last_updated":1729735883,"ttl":60,"version":"2.2","data":{"bikes":[{"bike_id":"93fd7287-b7ec-4c38-ac80-5c37f66999b7","system_id":"levelo_inurba_marseille","lat":43.2439,"lon":5.37047,"is_reserved":false,"is_disabled":false,"rental_uris":{"android":"levelo://app?vid=93fd7287-b7ec-4c38-ac80-5c37f66999b7","ios":"levelo://app?vid=93fd7287-b7ec-4c38-ac80-5c37f66999b7"},"vehicle_type_id":"4","last_reported":1729735884,"current_range_meters":38800,"station_id":"ce4bhhh2rcd13ifvqfk0","pricing_plan_id":"cebpf4jnsgd1na2vs0mg"},{"bike_id":"5f4c504f-64d7-447b-9c63-fa627168ec7b","system_id":"levelo_inurba_marseille","lat":43.28435,"lon":5.35894,"is_reserved":false,"is_disabled":false,"rental_uris":{"android":"levelo://app?vid=5f4c504f-64d7-447b-9c63-fa627168ec7b","ios":"levelo://app?vid=5f4c504f-64d7-447b-9c63-fa627168ec7b"},"vehicle_type_id":"4","last_reported":1729735884,"current_range_meters":39200,"station_id":"ce4bhah2rcd13ifvqei0","pricing_plan_id":"cebpf4jnsgd1na2vs0mg"},{"bike_id":"6e7189c8-6d34-4945-8fbf-b2a1a37960a8","system_id":"levelo_inurba_marseille","lat":43.31696,"lon":5.37714,"is_reserved":false,"is_disabled":false,"rental_uris":{"android":"levelo://app?vid=6e7189c8-6d34-4945-8fbf-b2a1a37960a8","ios":"levelo://app?vid=6e7189c8-6d34-4945-8fbf-b2a1a37960a8"},"vehicle_type_id":"4","last_reported":1729735884,"current_range_meters":24800,"station_id":"ce4bgth2rcd13ifvqch0","pricing_plan_id":"cebpf4jnsgd1na2vs0mg"},{"bike_id":"684d650b-d1e1-47e4-8a18-a7ba9af19d7e","system_id":"levelo_inurba_marseille","lat":43.24167,"lon":5.39709,"is_reserved":false,"is_disabled":false,"rental_uris":{"android":"levelo://app?vid=684d650b-d1e1-47e4-8a18-a7ba9af19d7e","ios":"levelo://app?vid=684d650b-d1e1-47e4-8a18-a7ba9af19d7e"},"vehicle_type_id":"4","last_reported":1729735884,"current_range_meters":38400,"station_id":"ce4bhn12rcd13ifvqgpg","pricing_plan_id":"cebpf4jnsgd1na2vs0mg"},{"bike_id":"4e718520-217c-4986-8e4a-4dbcae9b7210","system_id":"levelo_inurba_marseille","lat":43.27991,"lon":5.41655,"is_reserved":false,"is_disabled":false,"rental_uris":{"android":"levelo://app?vid=4e718520-217c-4986-8e4a-4dbcae9b7210","ios":"levelo://app?vid=4e718520-217c-4986-8e4a-4dbcae9b7210"},"vehicle_type_id":"4","last_reported":1729735884,"current_range_meters":10800,"station_id":"ce4bho12rcd13ifvqh1g","pricing_plan_id":"cebpf4jnsgd1na2vs0mg"},{"bike_id":"333b6094-ca12-4700-af17-5a8209d0cd44","system_id":"levelo_inurba_marseille","lat":43.29049,"lon":5.39967,"is_reserved":false,"is_disabled":false,"rental_uris":{"android":"levelo://app?vid=333b6094-ca12-4700-af17-5a8209d0cd44","ios":"levelo://app?vid=333b6094-ca12-4700-af17-5a8209d0cd44"},"vehicle_type_id":"4","last_reported":1729735884,"current_range_meters":38000,"station_id":"ce4bh392rcd13ifvqdm0","pricing_plan_id":"cebpf4jnsgd1na2vs0mg"},{"bike_id":"ad149999-cdab-442e-abeb-f4ceecd45694","system_id":"levelo_inurba_marseille","lat":43.30922,"lon":5.40149,"is_reserved":false,"is_disabled":false,"rental_uris":{"android":"levelo://app?vid=ad149999-cdab-442e-abeb-f4ceecd45694","ios":"levelo://app?vid=ad149999-cdab-442e-abeb-f4ceecd45694"},"vehicle_type_id":"4","last_reported":1729735884,"current_range_meters":22000,"station_id":"ce4bgvp2rcd13ifvqct0","pricing_plan_id":"cebpf4jnsgd1na2vs0mg"},{"bike_id":"ab6deddc-46ee-4625-95e6-9d433b6d0dda","system_id":"levelo_inurba_marseille","lat":43.28468,"lon":5.35887,"is_reserved":false,"is_disabled":false,"rental_uris":{"android":"levelo://app?vid=ab6deddc-46ee-4625-95e6-9d433b6d0dda","ios":"levelo://app?vid=ab6deddc-46ee-4625-95e6-9d433b6d0dda"},"vehicle_type_id":"4","last_reported":1729735884,"current_range_meters":24800,"station_id":"ce4bhah2rcd13ifvqei0","pricing_plan_id":"cebpf4jnsgd1na2vs0mg"},{"bike_id":"c06853dc-1ede-4aff-a142-95f5756eb043","system_id":"levelo_inurba_marseille","lat":43.30335,"lon":5.40444,"is_reserved":false,"is_disabled":false,"rental_uris":{"android":"levelo://app?vid=c06853dc-1ede-4aff-a142-95f5756eb043","ios":"levelo://app?vid=c06853dc-1ede-4aff-a142-95f5756eb043"},"vehicle_type_id":"4","last_reported":1729735884,"current_range_meters":38400,"station_id":"ce4bh012rcd13ifvqd10","pricing_plan_id":"cebpf4jnsgd1na2vs0mg"},{"bike_id":"94c12172-b856-41ca-8443-edbd9913356a","system_id":"levelo_inurba_marseille","lat":43.30926,"lon":5.40136,"is_reserved":false,"is_disabled":false,"rental_uris":{"android":"levelo://app?vid=94c12172-b856-41ca-8443-edbd9913356a","ios":"levelo://app?vid=94c12172-b856-41ca-8443-edbd9913356a"},"vehicle_type_id":"4","last_reported":1729735884,"current_range_meters":6800,"station_id":"ce4bgvp2rcd13ifvqct0","pricing_plan_id":"cebpf4jnsgd1na2vs0mg"},{"bike_id":"2fd99663-fe4e-45d1-9615-46edca3be843","system_id":"levelo_inurba_marseille","lat":43.30331,"lon":5.40443,"is_reserved":false,"is_disabled":false,"rental_uris":{"android":"levelo://app?vid=2fd99663-fe4e-45d1-9615-46edca3be843","ios":"levelo://app?vid=2fd99663-fe4e-45d1-9615-46edca3be843"},"vehicle_type_id":"4","last_reported":1729735884,"current_range_meters":30000,"station_id":"ce4bh012rcd13ifvqd10","pricing_plan_id":"cebpf4jnsgd1na2vs0mg"},{"bike_id":"497fc25b-f171-4786-80a0-e1e124b8028f","system_id":"levelo_inurba_marseille","lat":43.30826,"lon":5.38164,"is_reserved":false,"is_disabled":false,"rental_uris":{"android":"levelo://app?vid=497fc25b-f171-4786-80a0-e1e124b8028f","ios":"levelo://app?vid=497fc25b-f171-4786-80a0-e1e124b8028f"},"vehicle_type_id":"4","last_reported":1729735884,"current_range_meters":24400,"station_id":"ce4bgt12rcd13ifvqce0","pricing_plan_id":"cebpf4jnsgd1na2vs0mg"},{"bike_id":"4eb2585b-e0a0-4fa6-b510-c5248c4af062","system_id":"levelo_inurba_marseille","lat":43.29947,"lon":5.39734,"is_reserved":false,"is_disabled":false,"rental_uris":{"android":"levelo://app?vid=4eb2585b-e0a0-4fa6-b510-c5248c4af062","ios":"levelo://app?vid=4eb2585b-e0a0-4fa6-b510-c5248c4af062"},"vehicle_type_id":"4","last_reported":1729735884,"current_range_meters":38800,"station_id":"ce4bh0h2rcd13ifvqd50","pricing_plan_id":"cebpf4jnsgd1na2vs0mg"},{"bike_id":"60950bb2-3a06-412c-9d51-96af53195616","system_id":"levelo_inurba_marseille","lat":43.29075,"lon":5.3814,"is_reserved":false,"is_disabled":false,"rental_uris":{"android":"levelo://app?vid=60950bb2-3a06-412c-9d51-96af53195616","ios":"levelo://app?vid=60950bb2-3a06-412c-9d51-96af53195616"},"vehicle_type_id":"4","last_reported":1729735884,"current_range_meters":36800,"station_id":"ce4bh512rcd13ifvqe2g","pricing_plan_id":"cebpf4jnsgd1na2vs0mg"},{"bike_id":"9f074ccd-7b5d-4615-a0de-1df1963b28b4","system_id":"levelo_inurba_marseille","lat":43.3153,"lon":5.373,"is_reserved":false,"is_disabled":false,"rental_uris":{"android":"levelo://app?vid=9f074ccd-7b5d-4615-a0de-1df1963b28b4","ios":"levelo://app?vid=9f074ccd-7b5d-4615-a0de-1df1963b28b4"},"vehicle_type_id":"4","last_reported":1729735884,"current_range_meters":6800,"station_id":"ce4bgt12rcd13ifvqcd0","pricing_plan_id":"cebpf4jnsgd1na2vs0mg"},{"bike_id":"c39695b1-cee1-48ed-b86d-6df039d5292c","system_id":"levelo_inurba_marseille","lat":43.30513,"lon":5.36703,"is_reserved":false,"is_disabled":false,"rental_uris":{"android":"levelo://app?vid=c39695b1-cee1-48ed-b86d-6df039d5292c","ios":"levelo://app?vid=c39695b1-cee1-48ed-b86d-6df039d5292c"},"vehicle_type_id":"4","last_reported":1729735884,"current_range_meters":38000,"station_id":"ce4bgrp2rcd13ifvqc9g","pricing_plan_id":"cebpf4jnsgd1na2vs0mg"},{"bike_id":"a93517ff-5a1d-4565-bd61-fa3438f9dc6e","system_id":"levelo_inurba_marseille","lat":43.30882,"lon":5.39643,"is_reserved":false,"is_disabled":false,"rental_uris":{"android":"levelo://app?vid=a93517ff-5a1d-4565-bd61-fa3438f9dc6e","ios":"levelo://app?vid=a93517ff-5a1d-4565-bd61-fa3438f9dc6e"},"vehicle_type_id":"4","last_reported":1729735884,"current_range_meters":6000,"station_id":"ce4bh012rcd13ifvqcv0","pricing_plan_id":"cebpf4jnsgd1na2vs0mg"},{"bike_id":"f7674553-c2f7-442c-84e6-6b1b6677d5de","system_id":"levelo_inurba_marseille","lat":43.28719,"lon":5.40002,"is_reserved":false,"is_disabled":false,"rental_uris":{"android":"levelo://app?vid=f7674553-c2f7-442c-84e6-6b1b6677d5de","ios":"levelo://app?vid=f7674553-c2f7-442c-84e6-6b1b6677d5de"},"vehicle_type_id":"4","last_reported":1729735884,"current_range_meters":33200,"station_id":"ce4bho92rcd13ifvqh3g","pricing_plan_id":"cebpf4jnsgd1na2vs0mg"},{"bike_id":"694679e3-89bc-474b-88d4-72f2607e9aa9","system_id":"levelo_inurba_marseille","lat":43.27829,"lon":5.40716,"is_reserved":false,"is_disabled":false,"rental_uris":{"android":"levelo://app?vid=694679e3-89bc-474b-88d4-72f2607e9aa9","ios":"levelo://app?vid=694679e3-89bc-474b-88d4-72f2607e9aa9"},"vehicle_type_id":"4","last_reported":1729735884,"current_range_meters":8000,"station_id":"ce4bhnh2rcd13ifvqgtg","pricing_plan_id":"cebpf4jnsgd1na2vs0mg"},{"bike_id":"cc99ca6d-33d2-4a11-b5ce-f76b4cb06056","system_id":"levelo_inurba_marseille","lat":43.244,"lon":5.3705,"is_reserved":false,"is_disabled":false,"rental_uris":{"android":"levelo://app?vid=cc99ca6d-33d2-4a11-b5ce-f76b4cb06056","ios":"levelo://app?vid=cc99ca6d-33d2-4a11-b5ce-f76b4cb06056"},"vehicle_type_id":"4","last_reported":1729735884,"current_range_meters":25200,"station_id":"ce4bhhh2rcd13ifvqfk0","pricing_plan_id":"cebpf4jnsgd1na2vs0mg"},{"bike_id":"0a1b479d-52cc-43be-b555-b0ec65cfda36","system_id":"levelo_inurba_marseille","lat":43.24067,"lon":5.37765,"is_reserved":false,"is_disabled":false,"rental_uris":{"android":"levelo://app?vid=0a1b479d-52cc-43be-b555-b0ec65cfda36","ios":"levelo://app?vid=0a1b479d-52cc-43be-b555-b0ec65cfda36"},"vehicle_type_id":"4","last_reported":1729735884,"current_range_meters":38800,"station_id":"ce4bhnp2rcd13ifvqgvg","pricing_plan_id":"cebpf4jnsgd1na2vs0mg"},{"bike_id":"aaacc01e-2072-4eb7-84b4-77017c34f869","system_id":"levelo_inurba_marseille","lat":43.28366,"lon":5.38618,"is_reserved":false,"is_disabled":false,"rental_uris":{"android":"levelo://app?vid=aaacc01e-2072-4eb7-84b4-77017c34f869","ios":"levelo://app?vid=aaacc01e-2072-4eb7-84b4-77017c34f869"},"vehicle_type_id":"4","last_reported":1729735884,"current_range_meters":28400,"station_id":"ce4bh492rcd13ifvqdvg","pricing_plan_id":"cebpf4jnsgd1na2vs0mg"},{"bike_id":"e8abdd65-9ed5-453b-8861-ba025c712e6f","system_id":"levelo_inurba_marseille","lat":43.30884,"lon":5.37181,"is_reserved":false,"is_disabled":false,"rental_uris":{"android":"levelo://app?vid=e8abdd65-9ed5-453b-8861-ba025c712e6f","ios":"levelo://app?vid=e8abdd65-9ed5-453b-8861-ba025c712e6f"},"vehicle_type_id":"4","last_reported":1729735884,"current_range_meters":8800,"station_id":"ce4bguh2rcd13ifvqckg","pricing_plan_id":"cebpf4jnsgd1na2vs0mg"},{"bike_id":"c80861ab-e94d-4e79-91dd-39988fbd0a6a","system_id":"levelo_inurba_marseille","lat":43.30954,"lon":5.39029,"is_reserved":false,"is_disabled":false,"rental_uris":{"android":"levelo://app?vid=c80861ab-e94d-4e79-91dd-39988fbd0a6a","ios":"levelo://app?vid=c80861ab-e94d-4e79-91dd-39988fbd0a6a"},"vehicle_type_id":"4","last_reported":1729735884,"current_range_meters":38800,"station_id":"ce4bgup2rcd13ifvqco0","pricing_plan_id":"cebpf4jnsgd1na2vs0mg"},{"bike_id":"6abf3a03-af67-4859-8e11-a67b93278e15","system_id":"levelo_inurba_marseille","lat":43.31995,"lon":5.38148,"is_reserved":false,"is_disabled":false,"rental_uris":{"android":"levelo://app?vid=6abf3a03-af67-4859-8e11-a67b93278e15","ios":"levelo://app?vid=6abf3a03-af67-4859-8e11-a67b93278e15"},"vehicle_type_id":"4","last_reported":1729735884,"current_range_meters":8400,"station_id":"ce4bhr12rcd13ifvqhpg","pricing_plan_id":"cebpf4jnsgd1na2vs0mg"},{"bike_id":"03dd22fb-5c79-41d9-9a45-aa97b9b6fd1f","system_id":"levelo_inurba_marseille","lat":43.28462,"lon":5.35879,"is_reserved":false,"is_disabled":false,"rental_uris":{"android":"levelo://app?vid=03dd22fb-5c79-41d9-9a45-aa97b9b6fd1f","ios":"levelo://app?vid=03dd22fb-5c79-41d9-9a45-aa97b9b6fd1f"},"vehicle_type_id":"4","last_reported":1729735884,"current_range_meters":38800,"station_id":"ce4bhah2rcd13ifvqei0","pricing_plan_id":"cebpf4jnsgd1na2vs0mg"},{"bike_id":"18773a67-aaf4-4d0c-9bc3-2a029c8809da","system_id":"levelo_inurba_marseille","lat":43.33601,"lon":5.41022,"is_reserved":false,"is_disabled":false,"rental_uris":{"android":"levelo://app?vid=18773a67-aaf4-4d0c-9bc3-2a029c8809da","ios":"levelo://app?vid=18773a67-aaf4-4d0c-9bc3-2a029c8809da"},"vehicle_type_id":"4","last_reported":1729735884,"current_range_meters":10800,"station_id":"ce4bhqh2rcd13ifvqhmg","pricing_plan_id":"cebpf4jnsgd1na2vs0mg"},{"bike_id":"cea9d1db-f57d-46d9-b5ea-3e72aa1fb49e","system_id":"levelo_inurba_marseille","lat":43.28449,"lon":5.35889,"is_reserved":false,"is_disabled":false,"rental_uris":{"android":"levelo://app?vid=cea9d1db-f57d-46d9-b5ea-3e72aa1fb49e","ios":"levelo://app?vid=cea9d1db-f57d-46d9-b5ea-3e72aa1fb49e"},"vehicle_type_id":"4","last_reported":1729735884,"current_range_meters":14000,"station_id":"ce4bhah2rcd13ifvqei0","pricing_plan_id":"cebpf4jnsgd1na2vs0mg"},{"bike_id":"c32c8fa1-ca72-4391-80ca-255b828a665b","system_id":"levelo_inurba_marseille","lat":43.31505,"lon":5.37299,"is_reserved":false,"is_disabled":false,"rental_uris":{"android":"levelo://app?vid=c32c8fa1-ca72-4391-80ca-255b828a665b","ios":"levelo://app?vid=c32c8fa1-ca72-4391-80ca-255b828a665b"},"vehicle_type_id":"4","last_reported":1729735884,"current_range_meters":32000,"station_id":"ce4bgt12rcd13ifvqcd0","pricing_plan_id":"cebpf4jnsgd1na2vs0mg"},{"bike_id":"36ec8878-8122-4313-9a7f-14a8878dc458","system_id":"levelo_inurba_marseille","lat":43.33737,"lon":5.37458,"is_reserved":false,"is_disabled":false,"rental_uris":{"android":"levelo://app?vid=36ec8878-8122-4313-9a7f-14a8878dc458","ios":"levelo://app?vid=36ec8878-8122-4313-9a7f-14a8878dc458"},"vehicle_type_id":"4","last_reported":1729735884,"current_range_meters":27200,"station_id":"","pricing_plan_id":"cebpf4jnsgd1na2vs0mg"},{"bike_id":"3ebe64e8-02ed-4213-bfd6-2dedfd110c25","system_id":"levelo_inurba_marseille","lat":43.27834,"lon":5.40716,"is_reserved":false,"is_disabled":false,"rental_uris":{"android":"levelo://app?vid=3ebe64e8-02ed-4213-bfd6-2dedfd110c25","ios":"levelo://app?vid=3ebe64e8-02ed-4213-bfd6-2dedfd110c25"},"vehicle_type_id":"4","last_reported":1729735884,"current_range_meters":20400,"station_id":"ce4bhnh2rcd13ifvqgtg","pricing_plan_id":"cebpf4jnsgd1na2vs0mg"},{"bike_id":"d0255c67-10c1-43b5-84c8-86612096ac8c","system_id":"levelo_inurba_marseille","lat":43.23197,"lon":5.35553,"is_reserved":false,"is_disabled":false,"rental_uris":{"android":"levelo://app?vid=d0255c67-10c1-43b5-84c8-86612096ac8c","ios":"levelo://app?vid=d0255c67-10c1-43b5-84c8-86612096ac8c"},"vehicle_type_id":"4","last_reported":1729735884,"current_range_meters":27200,"station_id":"ce4bhu92rcd13ifvqi70","pricing_plan_id":"cebpf4jnsgd1na2vs0mg"},{"bike_id":"342b8e9e-8728-45a0-9fb0-e3e7103c1a48","system_id":"levelo_inurba_marseille","lat":43.27496,"lon":5.4245,"is_reserved":false,"is_disabled":false,"rental_uris":{"android":"levelo://app?vid=342b8e9e-8728-45a0-9fb0-e3e7103c1a48","ios":"levelo://app?vid=342b8e9e-8728-45a0-9fb0-e3e7103c1a48"},"vehicle_type_id":"4","last_reported":1729735884,"current_range_meters":8800,"station_id":"ce4bhn92rcd13ifvqgrg","pricing_plan_id":"cebpf4jnsgd1na2vs0mg"},{"bike_id":"0579dd22-0eb8-44db-9f4f-c442859c98c5","system_id":"levelo_inurba_marseille","lat":43.30405,"lon":5.39748,"is_reserved":false,"is_disabled":false,"rental_uris":{"android":"levelo://app?vid=0579dd22-0eb8-44db-9f4f-c442859c98c5","ios":"levelo://app?vid=0579dd22-0eb8-44db-9f4f-c442859c98c5"},"vehicle_type_id":"4","last_reported":1729735884,"current_range_meters":38800,"station_id":"ce4bh092rcd13ifvqd20","pricing_plan_id":"cebpf4jnsgd1na2vs0mg"},{"bike_id":"3e6dacef-7721-4fd6-908f-05fbf9bc0354","system_id":"levelo_inurba_marseille","lat":43.23192,"lon":5.35551,"is_reserved":false,"is_disabled":false,"rental_uris":{"android":"levelo://app?vid=3e6dacef-7721-4fd6-908f-05fbf9bc0354","ios":"levelo://app?vid=3e6dacef-7721-4fd6-908f-05fbf9bc0354"},"vehicle_type_id":"4","last_reported":1729735884,"current_range_meters":38000,"station_id":"ce4bhu92rcd13ifvqi70","pricing_plan_id":"cebpf4jnsgd1na2vs0mg"},{"bike_id":"9e533d1b-d25e-439a-bcca-ccd89fb3b0cb","system_id":"levelo_inurba_marseille","lat":43.29176,"lon":5.39312,"is_reserved":false,"is_disabled":false,"rental_uris":{"android":"levelo://app?vid=9e533d1b-d25e-439a-bcca-ccd89fb3b0cb","ios":"levelo://app?vid=9e533d1b-d25e-439a-bcca-ccd89fb3b0cb"},"vehicle_type_id":"4","last_reported":1729735884,"current_range_meters":38000,"station_id":"ce4bh192rcd13ifvqdd0","pricing_plan_id":"cebpf4jnsgd1na2vs0mg"},{"bike_id":"2e1e6313-596d-4bc2-9ce6-3bb4d2c6d1ef","system_id":"levelo_inurba_marseille","lat":43.28357,"lon":5.38645,"is_reserved":false,"is_disabled":false,"rental_uris":{"android":"levelo://app?vid=2e1e6313-596d-4bc2-9ce6-3bb4d2c6d1ef","ios":"levelo://app?vid=2e1e6313-596d-4bc2-9ce6-3bb4d2c6d1ef"},"vehicle_type_id":"4","last_reported":1729735884,"current_range_meters":38800,"station_id":"ce4bh492rcd13ifvqdvg","pricing_plan_id":"cebpf4jnsgd1na2vs0mg"},{"bike_id":"30ddca90-3575-427a-8120-8d09200d175d","system_id":"levelo_inurba_marseille","lat":43.29631,"lon":5.40603,"is_reserved":false,"is_disabled":false,"rental_uris":{"android":"levelo://app?vid=30ddca90-3575-427a-8120-8d09200d175d","ios":"levelo://app?vid=30ddca90-3575-427a-8120-8d09200d175d"},"vehicle_type_id":"4","last_reported":1729735884,"current_range_meters":38000,"station_id":"ce4bh0h2rcd13ifvqd60","pricing_plan_id":"cebpf4jnsgd1na2vs0mg"},{"bike_id":"b8c9a954-8a45-4a7c-9122-e43683fb8fcc","system_id":"levelo_inurba_marseille","lat":43.24644,"lon":5.3891,"is_reserved":false,"is_disabled":false,"rental_uris":{"android":"levelo://app?vid=b8c9a954-8a45-4a7c-9122-e43683fb8fcc","ios":"levelo://app?vid=b8c9a954-8a45-4a7c-9122-e43683fb8fcc"},"vehicle_type_id":"4","last_reported":1729735884,"current_range_meters":38400,"station_id":"ce4bhg12rcd13ifvqf60","pricing_plan_id":"cebpf4jnsgd1na2vs0mg"},{"bike_id":"97ce6431-cdfe-4c86-8575-534875aed7f5","system_id":"levelo_inurba_marseille","lat":43.3053,"lon":5.36659,"is_reserved":false,"is_disabled":false,"rental_uris":{"android":"levelo://app?vid=97ce6431-cdfe-4c86-8575-534875aed7f5","ios":"levelo://app?vid=97ce6431-cdfe-4c86-8575-534875aed7f5"},"vehicle_type_id":"4","last_reported":1729735884,"current_range_meters":9200,"station_id":"","pricing_plan_id":"cebpf4jnsgd1na2vs0mg"},{"bike_id":"bc8c5f05-14d5-4aff-bd18-3ffa8d394552","system_id":"levelo_inurba_marseille","lat":43.30579,"lon":5.37188,"is_reserved":false,"is_disabled":false,"rental_uris":{"android":"levelo://app?vid=bc8c5f05-14d5-4aff-bd18-3ffa8d394552","ios":"levelo://app?vid=bc8c5f05-14d5-4aff-bd18-3ffa8d394552"},"vehicle_type_id":"4","last_reported":1729735884,"current_range_meters":26800,"station_id":"ce4bgqh2rcd13ifvqc4g","pricing_plan_id":"cebpf4jnsgd1na2vs0mg"},{"bike_id":"bc4efb73-4734-4293-a1eb-82c722d0ec12","system_id":"levelo_inurba_marseille","lat":43.25502,"lon":5.37649,"is_reserved":false,"is_disabled":false,"rental_uris":{"android":"levelo://app?vid=bc4efb73-4734-4293-a1eb-82c722d0ec12","ios":"levelo://app?vid=bc4efb73-4734-4293-a1eb-82c722d0ec12"},"vehicle_type_id":"4","last_reported":1729735884,"current_range_meters":38800,"station_id":"ce4bhh12rcd13ifvqff0","pricing_plan_id":"cebpf4jnsgd1na2vs0mg"},{"bike_id":"4e6761e9-7a62-4e39-b016-0258a469d9f7","system_id":"levelo_inurba_marseille","lat":43.25825,"lon":5.3942,"is_reserved":false,"is_disabled":false,"rental_uris":{"android":"levelo://app?vid=4e6761e9-7a62-4e39-b016-0258a469d9f7","ios":"levelo://app?vid=4e6761e9-7a62-4e39-b016-0258a469d9f7"},"vehicle_type_id":"4","last_reported":1729735884,"current_range_meters":32400,"station_id":"ce4bhip2rcd13ifvqft0","pricing_plan_id":"cebpf4jnsgd1na2vs0mg"},{"bike_id":"66b05623-5668-42d4-96b3-2489f31ac472","system_id":"levelo_inurba_marseille","lat":43.26928,"lon":5.40251,"is_reserved":false,"is_disabled":false,"rental_uris":{"android":"levelo://app?vid=66b05623-5668-42d4-96b3-2489f31ac472","ios":"levelo://app?vid=66b05623-5668-42d4-96b3-2489f31ac472"},"vehicle_type_id":"4","last_reported":1729735884,"current_range_meters":38000,"station_id":"cjm6bp8fraef2m0cb0m0","pricing_plan_id":"cebpf4jnsgd1na2vs0mg"},{"bike_id":"ec3ef296-33b2-4830-86e8-b120045b01d6","system_id":"levelo_inurba_marseille","lat":43.30801,"lon":5.3815,"is_reserved":false,"is_disabled":false,"rental_uris":{"android":"levelo://app?vid=ec3ef296-33b2-4830-86e8-b120045b01d6","ios":"levelo://app?vid=ec3ef296-33b2-4830-86e8-b120045b01d6"},"vehicle_type_id":"4","last_reported":1729735884,"current_range_meters":28400,"station_id":"ce4bgt12rcd13ifvqce0","pricing_plan_id":"cebpf4jnsgd1na2vs0mg"},{"bike_id":"9a13bcb8-dcf9-4dab-aa64-a5cf0aab38dc","system_id":"levelo_inurba_marseille","lat":43.27319,"lon":5.39111,"is_reserved":false,"is_disabled":false,"rental_uris":{"android":"levelo://app?vid=9a13bcb8-dcf9-4dab-aa64-a5cf0aab38dc","ios":"levelo://app?vid=9a13bcb8-dcf9-4dab-aa64-a5cf0aab38dc"},"vehicle_type_id":"4","last_reported":1729735884,"current_range_meters":37600,"station_id":"ce4bhgp2rcd13ifvqfe0","pricing_plan_id":"cebpf4jnsgd1na2vs0mg"},{"bike_id":"9119640f-be31-4c54-a6c3-c9532b895405","system_id":"levelo_inurba_marseille","lat":43.28476,"lon":5.3588,"is_reserved":false,"is_disabled":false,"rental_uris":{"android":"levelo://app?vid=9119640f-be31-4c54-a6c3-c9532b895405","ios":"levelo://app?vid=9119640f-be31-4c54-a6c3-c9532b895405"},"vehicle_type_id":"4","last_reported":1729735884,"current_range_meters":38400,"station_id":"ce4bhah2rcd13ifvqei0","pricing_plan_id":"cebpf4jnsgd1na2vs0mg"},{"bike_id":"50eead8a-9f45-4b9d-a3b7-82b8c9936a78","system_id":"levelo_inurba_marseille","lat":43.28842,"lon":5.39337,"is_reserved":false,"is_disabled":false,"rental_uris":{"android":"levelo://app?vid=50eead8a-9f45-4b9d-a3b7-82b8c9936a78","ios":"levelo://app?vid=50eead8a-9f45-4b9d-a3b7-82b8c9936a78"},"vehicle_type_id":"4","last_reported":1729735884,"current_range_meters":36000,"station_id":"ce4bh2p2rcd13ifvqdi0","pricing_plan_id":"cebpf4jnsgd1na2vs0mg"},{"bike_id":"41d3ea68-368c-46bb-90b9-b09d5818628e","system_id":"levelo_inurba_marseille","lat":43.3125,"lon":5.40469,"is_reserved":false,"is_disabled":false,"rental_uris":{"android":"levelo://app?vid=41d3ea68-368c-46bb-90b9-b09d5818628e","ios":"levelo://app?vid=41d3ea68-368c-46bb-90b9-b09d5818628e"},"vehicle_type_id":"4","last_reported":1729735884,"current_range_meters":2800,"station_id":"","pricing_plan_id":"cebpf4jnsgd1na2vs0mg"},{"bike_id":"5b45a137-b80d-4097-a248-185b9f78e8a9","system_id":"levelo_inurba_marseille","lat":43.299561,"lon":5.384829,"is_reserved":false,"is_disabled":false,"rental_uris":{"android":"levelo://app?vid=5b45a137-b80d-4097-a248-185b9f78e8a9","ios":"levelo://app?vid=5b45a137-b80d-4097-a248-185b9f78e8a9"},"vehicle_type_id":"4","last_reported":1729735884,"current_range_meters":11600,"station_id":"ce4bgj92rcd13ifvqbd0","pricing_plan_id":"cebpf4jnsgd1na2vs0mg"},{"bike_id":"219bf5fe-05be-406b-a376-796c51314fd9","system_id":"levelo_inurba_marseille","lat":43.28857,"lon":5.39319,"is_reserved":false,"is_disabled":false,"rental_uris":{"android":"levelo://app?vid=219bf5fe-05be-406b-a376-796c51314fd9","ios":"levelo://app?vid=219bf5fe-05be-406b-a376-796c51314fd9"},"vehicle_type_id":"4","last_reported":1729735884,"current_range_meters":38000,"station_id":"ce4bh2p2rcd13ifvqdi0","pricing_plan_id":"cebpf4jnsgd1na2vs0mg"},{"bike_id":"1d731c4f-aeec-4764-a0cb-ee5c6f2253ec","system_id":"levelo_inurba_marseille","lat":43.30925,"lon":5.40132,"is_reserved":false,"is_disabled":false,"rental_uris":{"android":"levelo://app?vid=1d731c4f-aeec-4764-a0cb-ee5c6f2253ec","ios":"levelo://app?vid=1d731c4f-aeec-4764-a0cb-ee5c6f2253ec"},"vehicle_type_id":"4","last_reported":1729735884,"current_range_meters":33600,"station_id":"ce4bgvp2rcd13ifvqct0","pricing_plan_id":"cebpf4jnsgd1na2vs0mg"},{"bike_id":"b3e7a7d1-421f-4dbc-bb54-1b11448fc6bc","system_id":"levelo_inurba_marseille","lat":43.30928,"lon":5.40154,"is_reserved":false,"is_disabled":false,"rental_uris":{"android":"levelo://app?vid=b3e7a7d1-421f-4dbc-bb54-1b11448fc6bc","ios":"levelo://app?vid=b3e7a7d1-421f-4dbc-bb54-1b11448fc6bc"},"vehicle_type_id":"4","last_reported":1729735884,"current_range_meters":38800,"station_id":"ce4bgvp2rcd13ifvqct0","pricing_plan_id":"cebpf4jnsgd1na2vs0mg"},{"bike_id":"cd6354e7-423c-4302-bcab-707526c66b2b","system_id":"levelo_inurba_marseille","lat":43.28463,"lon":5.38553,"is_reserved":false,"is_disabled":false,"rental_uris":{"android":"levelo://app?vid=cd6354e7-423c-4302-bcab-707526c66b2b","ios":"levelo://app?vid=cd6354e7-423c-4302-bcab-707526c66b2b"},"vehicle_type_id":"4","last_reported":1729735884,"current_range_meters":38800,"station_id":"ce4bh8p2rcd13ifvqeb0","pricing_plan_id":"cebpf4jnsgd1na2vs0mg"},{"bike_id":"89d7dad2-f110-49a2-b81e-0ff960506c0a","system_id":"levelo_inurba_marseille","lat":43.28715,"lon":5.40002,"is_reserved":false,"is_disabled":false,"rental_uris":{"android":"levelo://app?vid=89d7dad2-f110-49a2-b81e-0ff960506c0a","ios":"levelo://app?vid=89d7dad2-f110-49a2-b81e-0ff960506c0a"},"vehicle_type_id":"4","last_reported":1729735884,"current_range_meters":38400,"station_id":"ce4bho92rcd13ifvqh3g","pricing_plan_id":"cebpf4jnsgd1na2vs0mg"},{"bike_id":"f0e16166-8265-4503-882c-ceb2119c9b3c","system_id":"levelo_inurba_marseille","lat":43.24554,"lon":5.39503,"is_reserved":false,"is_disabled":false,"rental_uris":{"android":"levelo://app?vid=f0e16166-8265-4503-882c-ceb2119c9b3c","ios":"levelo://app?vid=f0e16166-8265-4503-882c-ceb2119c9b3c"},"vehicle_type_id":"4","last_reported":1729735884,"current_range_meters":24000,"station_id":"ce4bhlp2rcd13ifvqgjg","pricing_plan_id":"cebpf4jnsgd1na2vs0mg"},{"bike_id":"24c20e40-d0c4-4e46-9a0f-866947a231d3","system_id":"levelo_inurba_marseille","lat":43.28705,"lon":5.374,"is_reserved":false,"is_disabled":false,"rental_uris":{"android":"levelo://app?vid=24c20e40-d0c4-4e46-9a0f-866947a231d3","ios":"levelo://app?vid=24c20e40-d0c4-4e46-9a0f-866947a231d3"},"vehicle_type_id":"4","last_reported":1729735884,"current_range_meters":9600,"station_id":"ce4bh3p2rcd13ifvqdq0","pricing_plan_id":"cebpf4jnsgd1na2vs0mg"},{"bike_id":"67614826-965b-46dd-a77e-57f3194790c7","system_id":"levelo_inurba_marseille","lat":43.30783,"lon":5.37642,"is_reserved":false,"is_disabled":false,"rental_uris":{"android":"levelo://app?vid=67614826-965b-46dd-a77e-57f3194790c7","ios":"levelo://app?vid=67614826-965b-46dd-a77e-57f3194790c7"},"vehicle_type_id":"4","last_reported":1729735884,"current_range_meters":15200,"station_id":"ce4bgv92rcd13ifvqcq0","pricing_plan_id":"cebpf4jnsgd1na2vs0mg"},{"bike_id":"fde709f1-a6ac-4d43-b48e-b44d88b498ae","system_id":"levelo_inurba_marseille","lat":43.2811,"lon":5.37865,"is_reserved":false,"is_disabled":false,"rental_uris":{"android":"levelo://app?vid=fde709f1-a6ac-4d43-b48e-b44d88b498ae","ios":"levelo://app?vid=fde709f1-a6ac-4d43-b48e-b44d88b498ae"},"vehicle_type_id":"4","last_reported":1729735884,"current_range_meters":38800,"station_id":"ce4bha12rcd13ifvqee0","pricing_plan_id":"cebpf4jnsgd1na2vs0mg"},{"bike_id":"aa99f811-363e-46a8-aef9-b5e22fccd73b","system_id":"levelo_inurba_marseille","lat":43.27885,"lon":5.38011,"is_reserved":false,"is_disabled":false,"rental_uris":{"android":"levelo://app?vid=aa99f811-363e-46a8-aef9-b5e22fccd73b","ios":"levelo://app?vid=aa99f811-363e-46a8-aef9-b5e22fccd73b"},"vehicle_type_id":"4","last_reported":1729735884,"current_range_meters":38800,"station_id":"ce4bhf92rcd13ifvqf50","pricing_plan_id":"cebpf4jnsgd1na2vs0mg"},{"bike_id":"e2296e9b-eed6-4fd1-ac02-4223589e07f6","system_id":"levelo_inurba_marseille","lat":43.3058,"lon":5.37225,"is_reserved":false,"is_disabled":false,"rental_uris":{"android":"levelo://app?vid=e2296e9b-eed6-4fd1-ac02-4223589e07f6","ios":"levelo://app?vid=e2296e9b-eed6-4fd1-ac02-4223589e07f6"},"vehicle_type_id":"4","last_reported":1729735884,"current_range_meters":19600,"station_id":"ce4bgqh2rcd13ifvqc4g","pricing_plan_id":"cebpf4jnsgd1na2vs0mg"},{"bike_id":"dc3b8928-c256-45f8-8e82-b6f9c632fafa","system_id":"levelo_inurba_marseille","lat":43.30915,"lon":5.40143,"is_reserved":false,"is_disabled":false,"rental_uris":{"android":"levelo://app?vid=dc3b8928-c256-45f8-8e82-b6f9c632fafa","ios":"levelo://app?vid=dc3b8928-c256-45f8-8e82-b6f9c632fafa"},"vehicle_type_id":"4","last_reported":1729735884,"current_range_meters":24400,"station_id":"ce4bgvp2rcd13ifvqct0","pricing_plan_id":"cebpf4jnsgd1na2vs0mg"},{"bike_id":"119b64b1-f32a-4c33-8e17-0e469ccf420a","system_id":"levelo_inurba_marseille","lat":43.27835,"lon":5.3921,"is_reserved":false,"is_disabled":false,"rental_uris":{"android":"levelo://app?vid=119b64b1-f32a-4c33-8e17-0e469ccf420a","ios":"levelo://app?vid=119b64b1-f32a-4c33-8e17-0e469ccf420a"},"vehicle_type_id":"4","last_reported":1729735884,"current_range_meters":8000,"station_id":"ce4bhjp2rcd13ifvqga0","pricing_plan_id":"cebpf4jnsgd1na2vs0mg"},{"bike_id":"34c2d35f-94a2-453c-b236-1f771fc5b604","system_id":"levelo_inurba_marseille","lat":43.23957,"lon":5.36653,"is_reserved":false,"is_disabled":false,"rental_uris":{"android":"levelo://app?vid=34c2d35f-94a2-453c-b236-1f771fc5b604","ios":"levelo://app?vid=34c2d35f-94a2-453c-b236-1f771fc5b604"},"vehicle_type_id":"4","last_reported":1729735884,"current_range_meters":37600,"station_id":"ce4bhi12rcd13ifvqfp0","pricing_plan_id":"cebpf4jnsgd1na2vs0mg"},{"bike_id":"2763fb51-5aeb-45c6-9c3a-23eb0832edec","system_id":"levelo_inurba_marseille","lat":43.29248,"lon":5.40902,"is_reserved":false,"is_disabled":false,"rental_uris":{"android":"levelo://app?vid=2763fb51-5aeb-45c6-9c3a-23eb0832edec","ios":"levelo://app?vid=2763fb51-5aeb-45c6-9c3a-23eb0832edec"},"vehicle_type_id":"4","last_reported":1729735884,"current_range_meters":37600,"station_id":"ce4bh192rcd13ifvqdc0","pricing_plan_id":"cebpf4jnsgd1na2vs0mg"},{"bike_id":"96d40975-7092-47a9-98a5-5115382e751f","system_id":"levelo_inurba_marseille","lat":43.29291,"lon":5.40919,"is_reserved":false,"is_disabled":false,"rental_uris":{"android":"levelo://app?vid=96d40975-7092-47a9-98a5-5115382e751f","ios":"levelo://app?vid=96d40975-7092-47a9-98a5-5115382e751f"},"vehicle_type_id":"4","last_reported":1729735884,"current_range_meters":37600,"station_id":"ce4bh192rcd13ifvqdc0","pricing_plan_id":"cebpf4jnsgd1na2vs0mg"},{"bike_id":"380cebd2-629c-405c-b64b-401aabe3bd03","system_id":"levelo_inurba_marseille","lat":43.28859,"lon":5.35868,"is_reserved":false,"is_disabled":false,"rental_uris":{"android":"levelo://app?vid=380cebd2-629c-405c-b64b-401aabe3bd03","ios":"levelo://app?vid=380cebd2-629c-405c-b64b-401aabe3bd03"},"vehicle_type_id":"4","last_reported":1729735884,"current_range_meters":36400,"station_id":"ce4bhb12rcd13ifvqem0","pricing_plan_id":"cebpf4jnsgd1na2vs0mg"},{"bike_id":"1e9123ee-e949-4bef-a38d-a2afa6f81d89","system_id":"levelo_inurba_marseille","lat":43.27833,"lon":5.39205,"is_reserved":false,"is_disabled":false,"rental_uris":{"android":"levelo://app?vid=1e9123ee-e949-4bef-a38d-a2afa6f81d89","ios":"levelo://app?vid=1e9123ee-e949-4bef-a38d-a2afa6f81d89"},"vehicle_type_id":"4","last_reported":1729735884,"current_range_meters":6400,"station_id":"ce4bhjp2rcd13ifvqga0","pricing_plan_id":"cebpf4jnsgd1na2vs0mg"},{"bike_id":"2e8e7736-5b0b-4bf8-ba25-255b089e4b92","system_id":"levelo_inurba_marseille","lat":43.28692,"lon":5.39985,"is_reserved":false,"is_disabled":false,"rental_uris":{"android":"levelo://app?vid=2e8e7736-5b0b-4bf8-ba25-255b089e4b92","ios":"levelo://app?vid=2e8e7736-5b0b-4bf8-ba25-255b089e4b92"},"vehicle_type_id":"4","last_reported":1729735884,"current_range_meters":38000,"station_id":"ce4bho92rcd13ifvqh3g","pricing_plan_id":"cebpf4jnsgd1na2vs0mg"},{"bike_id":"fc98b86f-6f66-4864-96d0-5dffffb9adc6","system_id":"levelo_inurba_marseille","lat":43.33764,"lon":5.37436,"is_reserved":false,"is_disabled":false,"rental_uris":{"android":"levelo://app?vid=fc98b86f-6f66-4864-96d0-5dffffb9adc6","ios":"levelo://app?vid=fc98b86f-6f66-4864-96d0-5dffffb9adc6"},"vehicle_type_id":"4","last_reported":1729735884,"current_range_meters":28800,"station_id":"","pricing_plan_id":"cebpf4jnsgd1na2vs0mg"},{"bike_id":"9dfaa351-ad75-4aff-9e9a-7e244dbeff4d","system_id":"levelo_inurba_marseille","lat":43.2834,"lon":5.38105,"is_reserved":false,"is_disabled":false,"rental_uris":{"android":"levelo://app?vid=9dfaa351-ad75-4aff-9e9a-7e244dbeff4d","ios":"levelo://app?vid=9dfaa351-ad75-4aff-9e9a-7e244dbeff4d"},"vehicle_type_id":"4","last_reported":1729735884,"current_range_meters":38000,"station_id":"ce4bh412rcd13ifvqdr0","pricing_plan_id":"cebpf4jnsgd1na2vs0mg"},{"bike_id":"a0867b31-14ba-4b04-b603-d6d8cc117eb0","system_id":"levelo_inurba_marseille","lat":43.32659,"lon":5.40995,"is_reserved":false,"is_disabled":false,"rental_uris":{"android":"levelo://app?vid=a0867b31-14ba-4b04-b603-d6d8cc117eb0","ios":"levelo://app?vid=a0867b31-14ba-4b04-b603-d6d8cc117eb0"},"vehicle_type_id":"4","last_reported":1729735884,"current_range_meters":38800,"station_id":"ce4bhpp2rcd13ifvqhgg","pricing_plan_id":"cebpf4jnsgd1na2vs0mg"},{"bike_id":"b0a71160-4dba-4146-bb1d-3741c34398e9","system_id":"levelo_inurba_marseille","lat":43.30928,"lon":5.40149,"is_reserved":false,"is_disabled":false,"rental_uris":{"android":"levelo://app?vid=b0a71160-4dba-4146-bb1d-3741c34398e9","ios":"levelo://app?vid=b0a71160-4dba-4146-bb1d-3741c34398e9"},"vehicle_type_id":"4","last_reported":1729735884,"current_range_meters":37600,"station_id":"ce4bgvp2rcd13ifvqct0","pricing_plan_id":"cebpf4jnsgd1na2vs0mg"},{"bike_id":"190ab3f4-0dd0-4288-849a-ab444ee4de87","system_id":"levelo_inurba_marseille","lat":43.28566,"lon":5.39513,"is_reserved":false,"is_disabled":false,"rental_uris":{"android":"levelo://app?vid=190ab3f4-0dd0-4288-849a-ab444ee4de87","ios":"levelo://app?vid=190ab3f4-0dd0-4288-849a-ab444ee4de87"},"vehicle_type_id":"4","last_reported":1729735884,"current_range_meters":39200,"station_id":"ce4bh292rcd13ifvqdg0","pricing_plan_id":"cebpf4jnsgd1na2vs0mg"},{"bike_id":"12a11a00-cd1e-442a-8e8b-2c2a06ae2fb4","system_id":"levelo_inurba_marseille","lat":43.31286,"lon":5.40143,"is_reserved":false,"is_disabled":false,"rental_uris":{"android":"levelo://app?vid=12a11a00-cd1e-442a-8e8b-2c2a06ae2fb4","ios":"levelo://app?vid=12a11a00-cd1e-442a-8e8b-2c2a06ae2fb4"},"vehicle_type_id":"4","last_reported":1729735884,"current_range_meters":38800,"station_id":"ce4bh092rcd13ifvqd30","pricing_plan_id":"cebpf4jnsgd1na2vs0mg"},{"bike_id":"809c44b1-81ae-45b7-b674-4ca783b412ed","system_id":"levelo_inurba_marseille","lat":43.29532,"lon":5.39027,"is_reserved":false,"is_disabled":false,"rental_uris":{"android":"levelo://app?vid=809c44b1-81ae-45b7-b674-4ca783b412ed","ios":"levelo://app?vid=809c44b1-81ae-45b7-b674-4ca783b412ed"},"vehicle_type_id":"4","last_reported":1729735884,"current_range_meters":38000,"station_id":"ce4bh3p2rcd13ifvqdp0","pricing_plan_id":"cebpf4jnsgd1na2vs0mg"},{"bike_id":"7aa910a1-32e6-41bf-bc9d-1ee459afbc77","system_id":"levelo_inurba_marseille","lat":43.2844,"lon":5.37516,"is_reserved":false,"is_disabled":false,"rental_uris":{"android":"levelo://app?vid=7aa910a1-32e6-41bf-bc9d-1ee459afbc77","ios":"levelo://app?vid=7aa910a1-32e6-41bf-bc9d-1ee459afbc77"},"vehicle_type_id":"4","last_reported":1729735884,"current_range_meters":18000,"station_id":"ce4bh412rcd13ifvqds0","pricing_plan_id":"cebpf4jnsgd1na2vs0mg"},{"bike_id":"15bf3f86-f551-45cf-aa6e-89d9451c8125","system_id":"levelo_inurba_marseille","lat":43.28468,"lon":5.35888,"is_reserved":false,"is_disabled":false,"rental_uris":{"android":"levelo://app?vid=15bf3f86-f551-45cf-aa6e-89d9451c8125","ios":"levelo://app?vid=15bf3f86-f551-45cf-aa6e-89d9451c8125"},"vehicle_type_id":"4","last_reported":1729735884,"current_range_meters":38800,"station_id":"ce4bhah2rcd13ifvqei0","pricing_plan_id":"cebpf4jnsgd1na2vs0mg"},{"bike_id":"d4e73e0f-35c1-478b-8630-1c59c3f1caea","system_id":"levelo_inurba_marseille","lat":43.31075,"lon":5.38353,"is_reserved":false,"is_disabled":false,"rental_uris":{"android":"levelo://app?vid=d4e73e0f-35c1-478b-8630-1c59c3f1caea","ios":"levelo://app?vid=d4e73e0f-35c1-478b-8630-1c59c3f1caea"},"vehicle_type_id":"4","last_reported":1729735884,"current_range_meters":14400,"station_id":"ce4bgv92rcd13ifvqcr0","pricing_plan_id":"cebpf4jnsgd1na2vs0mg"},{"bike_id":"5933de8d-7245-4fc6-9cfe-72a4f51f3340","system_id":"levelo_inurba_marseille","lat":43.31318,"lon":5.39702,"is_reserved":false,"is_disabled":false,"rental_uris":{"android":"levelo://app?vid=5933de8d-7245-4fc6-9cfe-72a4f51f3340","ios":"levelo://app?vid=5933de8d-7245-4fc6-9cfe-72a4f51f3340"},"vehicle_type_id":"4","last_reported":1729735884,"current_range_meters":39200,"station_id":"ce4bgvp2rcd13ifvqcu0","pricing_plan_id":"cebpf4jnsgd1na2vs0mg"},{"bike_id":"08a41d86-bf74-42d1-b350-4800246eef64","system_id":"levelo_inurba_marseille","lat":43.24173,"lon":5.38793,"is_reserved":false,"is_disabled":false,"rental_uris":{"android":"levelo://app?vid=08a41d86-bf74-42d1-b350-4800246eef64","ios":"levelo://app?vid=08a41d86-bf74-42d1-b350-4800246eef64"},"vehicle_type_id":"4","last_reported":1729735884,"current_range_meters":32800,"station_id":"","pricing_plan_id":"cebpf4jnsgd1na2vs0mg"},{"bike_id":"db69ea4c-1c7d-43a0-b7f1-e0da5b76f2ea","system_id":"levelo_inurba_marseille","lat":43.28432,"lon":5.45963,"is_reserved":false,"is_disabled":false,"rental_uris":{"android":"levelo://app?vid=db69ea4c-1c7d-43a0-b7f1-e0da5b76f2ea","ios":"levelo://app?vid=db69ea4c-1c7d-43a0-b7f1-e0da5b76f2ea"},"vehicle_type_id":"4","last_reported":1729735884,"current_range_meters":10800,"station_id":"","pricing_plan_id":"cebpf4jnsgd1na2vs0mg"},{"bike_id":"d3438caa-62a2-49c4-ac73-4c5ed5b399cd","system_id":"levelo_inurba_marseille","lat":43.30668,"lon":5.40069,"is_reserved":false,"is_disabled":false,"rental_uris":{"android":"levelo://app?vid=d3438caa-62a2-49c4-ac73-4c5ed5b399cd","ios":"levelo://app?vid=d3438caa-62a2-49c4-ac73-4c5ed5b399cd"},"vehicle_type_id":"4","last_reported":1729735884,"current_range_meters":38800,"station_id":"ce4bh112rcd13ifvqda0","pricing_plan_id":"cebpf4jnsgd1na2vs0mg"},{"bike_id":"1cd8084c-ce68-4d27-914c-ee4521a0ba66","system_id":"levelo_inurba_marseille","lat":43.28413,"lon":5.37513,"is_reserved":false,"is_disabled":false,"rental_uris":{"android":"levelo://app?vid=1cd8084c-ce68-4d27-914c-ee4521a0ba66","ios":"levelo://app?vid=1cd8084c-ce68-4d27-914c-ee4521a0ba66"},"vehicle_type_id":"4","last_reported":1729735884,"current_range_meters":4800,"station_id":"ce4bh412rcd13ifvqds0","pricing_plan_id":"cebpf4jnsgd1na2vs0mg"},{"bike_id":"0ae1663c-5bb3-40eb-aebe-2e4d249f3588","system_id":"levelo_inurba_marseille","lat":43.31327,"lon":5.397,"is_reserved":false,"is_disabled":false,"rental_uris":{"android":"levelo://app?vid=0ae1663c-5bb3-40eb-aebe-2e4d249f3588","ios":"levelo://app?vid=0ae1663c-5bb3-40eb-aebe-2e4d249f3588"},"vehicle_type_id":"4","last_reported":1729735884,"current_range_meters":33600,"station_id":"ce4bgvp2rcd13ifvqcu0","pricing_plan_id":"cebpf4jnsgd1na2vs0mg"},{"bike_id":"86869bbe-711e-4293-b1ec-b076c7845480","system_id":"levelo_inurba_marseille","lat":43.23188,"lon":5.39982,"is_reserved":false,"is_disabled":false,"rental_uris":{"android":"levelo://app?vid=86869bbe-711e-4293-b1ec-b076c7845480","ios":"levelo://app?vid=86869bbe-711e-4293-b1ec-b076c7845480"},"vehicle_type_id":"4","last_reported":1729735884,"current_range_meters":38800,"station_id":"ce4bhn12rcd13ifvqgqg","pricing_plan_id":"cebpf4jnsgd1na2vs0mg"},{"bike_id":"1a8a522f-8c9f-4ee6-bfba-536ceb11403e","system_id":"levelo_inurba_marseille","lat":43.28148,"lon":5.42642,"is_reserved":false,"is_disabled":false,"rental_uris":{"android":"levelo://app?vid=1a8a522f-8c9f-4ee6-bfba-536ceb11403e","ios":"levelo://app?vid=1a8a522f-8c9f-4ee6-bfba-536ceb11403e"},"vehicle_type_id":"4","last_reported":1729735884,"current_range_meters":5600,"station_id":"ce4bhnh2rcd13ifvqgug","pricing_plan_id":"cebpf4jnsgd1na2vs0mg"},{"bike_id":"6c76d293-d142-4947-afb2-16eb91851a82","system_id":"levelo_inurba_marseille","lat":43.30935,"lon":5.40138,"is_reserved":false,"is_disabled":false,"rental_uris":{"android":"levelo://app?vid=6c76d293-d142-4947-afb2-16eb91851a82","ios":"levelo://app?vid=6c76d293-d142-4947-afb2-16eb91851a82"},"vehicle_type_id":"4","last_reported":1729735884,"current_range_meters":32400,"station_id":"ce4bgvp2rcd13ifvqct0","pricing_plan_id":"cebpf4jnsgd1na2vs0mg"},{"bike_id":"53eb66b3-3244-460e-b9c2-b5ecf87a638d","system_id":"levelo_inurba_marseille","lat":43.33095,"lon":5.43136,"is_reserved":false,"is_disabled":false,"rental_uris":{"android":"levelo://app?vid=53eb66b3-3244-460e-b9c2-b5ecf87a638d","ios":"levelo://app?vid=53eb66b3-3244-460e-b9c2-b5ecf87a638d"},"vehicle_type_id":"4","last_reported":1729735884,"current_range_meters":22800,"station_id":"","pricing_plan_id":"cebpf4jnsgd1na2vs0mg"},{"bike_id":"18649550-08ee-4931-9cda-b8265bc3c7aa","system_id":"levelo_inurba_marseille","lat":43.26938,"lon":5.40258,"is_reserved":false,"is_disabled":false,"rental_uris":{"android":"levelo://app?vid=18649550-08ee-4931-9cda-b8265bc3c7aa","ios":"levelo://app?vid=18649550-08ee-4931-9cda-b8265bc3c7aa"},"vehicle_type_id":"4","last_reported":1729735884,"current_range_meters":16000,"station_id":"cjm6bp8fraef2m0cb0m0","pricing_plan_id":"cebpf4jnsgd1na2vs0mg"},{"bike_id":"e20330d7-de73-4dd9-93da-c6a470481942","system_id":"levelo_inurba_marseille","lat":43.3108,"lon":5.38351,"is_reserved":false,"is_disabled":false,"rental_uris":{"android":"levelo://app?vid=e20330d7-de73-4dd9-93da-c6a470481942","ios":"levelo://app?vid=e20330d7-de73-4dd9-93da-c6a470481942"},"vehicle_type_id":"4","last_reported":1729735884,"current_range_meters":29600,"station_id":"ce4bgv92rcd13ifvqcr0","pricing_plan_id":"cebpf4jnsgd1na2vs0mg"},{"bike_id":"0525aa25-f88e-48e5-be8a-69e26059c15f","system_id":"levelo_inurba_marseille","lat":43.27942,"lon":5.41032,"is_reserved":false,"is_disabled":false,"rental_uris":{"android":"levelo://app?vid=0525aa25-f88e-48e5-be8a-69e26059c15f","ios":"levelo://app?vid=0525aa25-f88e-48e5-be8a-69e26059c15f"},"vehicle_type_id":"4","last_reported":1729735884,"current_range_meters":15200,"station_id":"ce4bhnp2rcd13ifvqh0g","pricing_plan_id":"cebpf4jnsgd1na2vs0mg"},{"bike_id":"71e623a9-6987-43d4-929e-8d1572fd78e1","system_id":"levelo_inurba_marseille","lat":43.30785,"lon":5.37655,"is_reserved":false,"is_disabled":false,"rental_uris":{"android":"levelo://app?vid=71e623a9-6987-43d4-929e-8d1572fd78e1","ios":"levelo://app?vid=71e623a9-6987-43d4-929e-8d1572fd78e1"},"vehicle_type_id":"4","last_reported":1729735884,"current_range_meters":20800,"station_id":"ce4bgv92rcd13ifvqcq0","pricing_plan_id":"cebpf4jnsgd1na2vs0mg"},{"bike_id":"66a4f883-7fbf-4cd6-a3f9-0c4cdf338648","system_id":"levelo_inurba_marseille","lat":43.30871,"lon":5.39648,"is_reserved":false,"is_disabled":false,"rental_uris":{"android":"levelo://app?vid=66a4f883-7fbf-4cd6-a3f9-0c4cdf338648","ios":"levelo://app?vid=66a4f883-7fbf-4cd6-a3f9-0c4cdf338648"},"vehicle_type_id":"4","last_reported":1729735884,"current_range_meters":28800,"station_id":"ce4bh012rcd13ifvqcv0","pricing_plan_id":"cebpf4jnsgd1na2vs0mg"},{"bike_id":"158bcdbf-dd61-4bdb-af54-9e4b45931736","system_id":"levelo_inurba_marseille","lat":43.28039,"lon":5.36937,"is_reserved":false,"is_disabled":false,"rental_uris":{"android":"levelo://app?vid=158bcdbf-dd61-4bdb-af54-9e4b45931736","ios":"levelo://app?vid=158bcdbf-dd61-4bdb-af54-9e4b45931736"},"vehicle_type_id":"4","last_reported":1729735884,"current_range_meters":38400,"station_id":"ce4bha12rcd13ifvqef0","pricing_plan_id":"cebpf4jnsgd1na2vs0mg"},{"bike_id":"3a8f7674-88fb-4d6e-b15d-6a7a3d976266","system_id":"levelo_inurba_marseille","lat":43.3118,"lon":5.38707,"is_reserved":false,"is_disabled":false,"rental_uris":{"android":"levelo://app?vid=3a8f7674-88fb-4d6e-b15d-6a7a3d976266","ios":"levelo://app?vid=3a8f7674-88fb-4d6e-b15d-6a7a3d976266"},"vehicle_type_id":"4","last_reported":1729735884,"current_range_meters":22000,"station_id":"ce4bgv12rcd13ifvqcp0","pricing_plan_id":"cebpf4jnsgd1na2vs0mg"},{"bike_id":"bad749de-bf98-4b09-b633-ead08e6a97ca","system_id":"levelo_inurba_marseille","lat":43.27046,"lon":5.40271,"is_reserved":false,"is_disabled":false,"rental_uris":{"android":"levelo://app?vid=bad749de-bf98-4b09-b633-ead08e6a97ca","ios":"levelo://app?vid=bad749de-bf98-4b09-b633-ead08e6a97ca"},"vehicle_type_id":"4","last_reported":1729735884,"current_range_meters":3200,"station_id":"ce4bhk92rcd13ifvqgc0","pricing_plan_id":"cebpf4jnsgd1na2vs0mg"},{"bike_id":"32090a56-d013-4d5c-8379-d81e2e46055b","system_id":"levelo_inurba_marseille","lat":43.24675,"lon":5.38155,"is_reserved":false,"is_disabled":false,"rental_uris":{"android":"levelo://app?vid=32090a56-d013-4d5c-8379-d81e2e46055b","ios":"levelo://app?vid=32090a56-d013-4d5c-8379-d81e2e46055b"},"vehicle_type_id":"4","last_reported":1729735884,"current_range_meters":7200,"station_id":"ce4bhih2rcd13ifvqfr0","pricing_plan_id":"cebpf4jnsgd1na2vs0mg"},{"bike_id":"ee56864d-0289-4ab0-b1d9-4e118a6c50f5","system_id":"levelo_inurba_marseille","lat":43.34156,"lon":5.40894,"is_reserved":false,"is_disabled":false,"rental_uris":{"android":"levelo://app?vid=ee56864d-0289-4ab0-b1d9-4e118a6c50f5","ios":"levelo://app?vid=ee56864d-0289-4ab0-b1d9-4e118a6c50f5"},"vehicle_type_id":"4","last_reported":1729735884,"current_range_meters":38800,"station_id":"ce4bhqh2rcd13ifvqhlg","pricing_plan_id":"cebpf4jnsgd1na2vs0mg"},{"bike_id":"03817e17-e2e3-401b-ace0-554729b932d7","system_id":"levelo_inurba_marseille","lat":43.30797,"lon":5.38161,"is_reserved":false,"is_disabled":false,"rental_uris":{"android":"levelo://app?vid=03817e17-e2e3-401b-ace0-554729b932d7","ios":"levelo://app?vid=03817e17-e2e3-401b-ace0-554729b932d7"},"vehicle_type_id":"4","last_reported":1729735884,"current_range_meters":9600,"station_id":"ce4bgt12rcd13ifvqce0","pricing_plan_id":"cebpf4jnsgd1na2vs0mg"},{"bike_id":"ad76eed3-34ae-4b06-b5fd-f650ddab848b","system_id":"levelo_inurba_marseille","lat":43.3087,"lon":5.3963,"is_reserved":false,"is_disabled":false,"rental_uris":{"android":"levelo://app?vid=ad76eed3-34ae-4b06-b5fd-f650ddab848b","ios":"levelo://app?vid=ad76eed3-34ae-4b06-b5fd-f650ddab848b"},"vehicle_type_id":"4","last_reported":1729735884,"current_range_meters":29600,"station_id":"ce4bh012rcd13ifvqcv0","pricing_plan_id":"cebpf4jnsgd1na2vs0mg"},{"bike_id":"7485068c-a88f-4a63-93f1-c517b3ac24fe","system_id":"levelo_inurba_marseille","lat":43.28561,"lon":5.39501,"is_reserved":false,"is_disabled":false,"rental_uris":{"android":"levelo://app?vid=7485068c-a88f-4a63-93f1-c517b3ac24fe","ios":"levelo://app?vid=7485068c-a88f-4a63-93f1-c517b3ac24fe"},"vehicle_type_id":"4","last_reported":1729735884,"current_range_meters":10000,"station_id":"ce4bh292rcd13ifvqdg0","pricing_plan_id":"cebpf4jnsgd1na2vs0mg"},{"bike_id":"3a14a8b6-bb6d-49ce-a05e-f2620ff49d64","system_id":"levelo_inurba_marseille","lat":43.25581,"lon":5.3824,"is_reserved":false,"is_disabled":false,"rental_uris":{"android":"levelo://app?vid=3a14a8b6-bb6d-49ce-a05e-f2620ff49d64","ios":"levelo://app?vid=3a14a8b6-bb6d-49ce-a05e-f2620ff49d64"},"vehicle_type_id":"4","last_reported":1729735884,"current_range_meters":39200,"station_id":"ce4bhih2rcd13ifvqfs0","pricing_plan_id":"cebpf4jnsgd1na2vs0mg"},{"bike_id":"8851e641-2a34-4df4-9c62-4bc8ce7ebb4a","system_id":"levelo_inurba_marseille","lat":43.28693,"lon":5.37411,"is_reserved":false,"is_disabled":false,"rental_uris":{"android":"levelo://app?vid=8851e641-2a34-4df4-9c62-4bc8ce7ebb4a","ios":"levelo://app?vid=8851e641-2a34-4df4-9c62-4bc8ce7ebb4a"},"vehicle_type_id":"4","last_reported":1729735884,"current_range_meters":38000,"station_id":"ce4bh3p2rcd13ifvqdq0","pricing_plan_id":"cebpf4jnsgd1na2vs0mg"},{"bike_id":"2e789050-5f08-4e0d-bf3e-f8f2813b50c2","system_id":"levelo_inurba_marseille","lat":43.30139,"lon":5.37422,"is_reserved":false,"is_disabled":false,"rental_uris":{"android":"levelo://app?vid=2e789050-5f08-4e0d-bf3e-f8f2813b50c2","ios":"levelo://app?vid=2e789050-5f08-4e0d-bf3e-f8f2813b50c2"},"vehicle_type_id":"4","last_reported":1729735884,"current_range_meters":38800,"station_id":"ce4bgs92rcd13ifvqcc0","pricing_plan_id":"cebpf4jnsgd1na2vs0mg"},{"bike_id":"3fdbc46d-c6fa-44a5-ace0-c37da7a74a1a","system_id":"levelo_inurba_marseille","lat":43.25872,"lon":5.39895,"is_reserved":false,"is_disabled":false,"rental_uris":{"android":"levelo://app?vid=3fdbc46d-c6fa-44a5-ace0-c37da7a74a1a","ios":"levelo://app?vid=3fdbc46d-c6fa-44a5-ace0-c37da7a74a1a"},"vehicle_type_id":"4","last_reported":1729735884,"current_range_meters":33200,"station_id":"ce4bhl92rcd13ifvqghg","pricing_plan_id":"cebpf4jnsgd1na2vs0mg"},{"bike_id":"606ae9a4-e252-4838-9386-7e52ddadecec","system_id":"levelo_inurba_marseille","lat":43.28565,"lon":5.39501,"is_reserved":false,"is_disabled":false,"rental_uris":{"android":"levelo://app?vid=606ae9a4-e252-4838-9386-7e52ddadecec","ios":"levelo://app?vid=606ae9a4-e252-4838-9386-7e52ddadecec"},"vehicle_type_id":"4","last_reported":1729735884,"current_range_meters":22000,"station_id":"ce4bh292rcd13ifvqdg0","pricing_plan_id":"cebpf4jnsgd1na2vs0mg"},{"bike_id":"8236bfcb-c909-4bfd-9556-ca9c64355776","system_id":"levelo_inurba_marseille","lat":43.27949,"lon":5.41045,"is_reserved":false,"is_disabled":false,"rental_uris":{"android":"levelo://app?vid=8236bfcb-c909-4bfd-9556-ca9c64355776","ios":"levelo://app?vid=8236bfcb-c909-4bfd-9556-ca9c64355776"},"vehicle_type_id":"4","last_reported":1729735884,"current_range_meters":34800,"station_id":"ce4bhnp2rcd13ifvqh0g","pricing_plan_id":"cebpf4jnsgd1na2vs0mg"},{"bike_id":"53100c54-a4e3-45a7-9427-b292d95b6c16","system_id":"levelo_inurba_marseille","lat":43.30876,"lon":5.37205,"is_reserved":false,"is_disabled":false,"rental_uris":{"android":"levelo://app?vid=53100c54-a4e3-45a7-9427-b292d95b6c16","ios":"levelo://app?vid=53100c54-a4e3-45a7-9427-b292d95b6c16"},"vehicle_type_id":"4","last_reported":1729735884,"current_range_meters":38800,"station_id":"ce4bguh2rcd13ifvqckg","pricing_plan_id":"cebpf4jnsgd1na2vs0mg"},{"bike_id":"e340e507-704a-443b-ad37-cffab1b36c65","system_id":"levelo_inurba_marseille","lat":43.29516,"lon":5.39394,"is_reserved":false,"is_disabled":false,"rental_uris":{"android":"levelo://app?vid=e340e507-704a-443b-ad37-cffab1b36c65","ios":"levelo://app?vid=e340e507-704a-443b-ad37-cffab1b36c65"},"vehicle_type_id":"4","last_reported":1729735884,"current_range_meters":38800,"station_id":"ce4bh292rcd13ifvqdf0","pricing_plan_id":"cebpf4jnsgd1na2vs0mg"},{"bike_id":"ee8aca3a-e9b8-4db2-b237-7fbf12308fde","system_id":"levelo_inurba_marseille","lat":43.3087,"lon":5.39654,"is_reserved":false,"is_disabled":false,"rental_uris":{"android":"levelo://app?vid=ee8aca3a-e9b8-4db2-b237-7fbf12308fde","ios":"levelo://app?vid=ee8aca3a-e9b8-4db2-b237-7fbf12308fde"},"vehicle_type_id":"4","last_reported":1729735884,"current_range_meters":38000,"station_id":"ce4bh012rcd13ifvqcv0","pricing_plan_id":"cebpf4jnsgd1na2vs0mg"},{"bike_id":"60b5ad38-328b-49d2-ab74-b91edfe19bd7","system_id":"levelo_inurba_marseille","lat":43.30885,"lon":5.39652,"is_reserved":false,"is_disabled":false,"rental_uris":{"android":"levelo://app?vid=60b5ad38-328b-49d2-ab74-b91edfe19bd7","ios":"levelo://app?vid=60b5ad38-328b-49d2-ab74-b91edfe19bd7"},"vehicle_type_id":"4","last_reported":1729735884,"current_range_meters":25600,"station_id":"ce4bh012rcd13ifvqcv0","pricing_plan_id":"cebpf4jnsgd1na2vs0mg"},{"bike_id":"6a057a1c-ff49-4b28-b59f-bade3f5ec0a6","system_id":"levelo_inurba_marseille","lat":43.29882,"lon":5.39733,"is_reserved":false,"is_disabled":false,"rental_uris":{"android":"levelo://app?vid=6a057a1c-ff49-4b28-b59f-bade3f5ec0a6","ios":"levelo://app?vid=6a057a1c-ff49-4b28-b59f-bade3f5ec0a6"},"vehicle_type_id":"4","last_reported":1729735884,"current_range_meters":38800,"station_id":"ce4bh0h2rcd13ifvqd50","pricing_plan_id":"cebpf4jnsgd1na2vs0mg"},{"bike_id":"399a9b33-7aba-4d13-9ed9-b18fa087368d","system_id":"levelo_inurba_marseille","lat":43.28734,"lon":5.36084,"is_reserved":false,"is_disabled":false,"rental_uris":{"android":"levelo://app?vid=399a9b33-7aba-4d13-9ed9-b18fa087368d","ios":"levelo://app?vid=399a9b33-7aba-4d13-9ed9-b18fa087368d"},"vehicle_type_id":"4","last_reported":1729735884,"current_range_meters":25200,"station_id":"cki0cbj6b192h4jlfktg","pricing_plan_id":"cebpf4jnsgd1na2vs0mg"},{"bike_id":"22122a4a-c446-4eca-8a65-23a5bec8a8c0","system_id":"levelo_inurba_marseille","lat":43.30252,"lon":5.40081,"is_reserved":false,"is_disabled":false,"rental_uris":{"android":"levelo://app?vid=22122a4a-c446-4eca-8a65-23a5bec8a8c0","ios":"levelo://app?vid=22122a4a-c446-4eca-8a65-23a5bec8a8c0"},"vehicle_type_id":"4","last_reported":1729735884,"current_range_meters":31200,"station_id":"ce4bgvh2rcd13ifvqcs0","pricing_plan_id":"cebpf4jnsgd1na2vs0mg"},{"bike_id":"3b9ec8f1-654f-4f01-8471-7c08eefc1ccd","system_id":"levelo_inurba_marseille","lat":43.26579,"lon":5.39015,"is_reserved":false,"is_disabled":false,"rental_uris":{"android":"levelo://app?vid=3b9ec8f1-654f-4f01-8471-7c08eefc1ccd","ios":"levelo://app?vid=3b9ec8f1-654f-4f01-8471-7c08eefc1ccd"},"vehicle_type_id":"4","last_reported":1729735884,"current_range_meters":33600,"station_id":"ce4bhe12rcd13ifvqf30","pricing_plan_id":"cebpf4jnsgd1na2vs0mg"},{"bike_id":"901c8390-57d3-4c3a-a1aa-a6bc59812b3a","system_id":"levelo_inurba_marseille","lat":43.26969,"lon":5.40252,"is_reserved":false,"is_disabled":false,"rental_uris":{"android":"levelo://app?vid=901c8390-57d3-4c3a-a1aa-a6bc59812b3a","ios":"levelo://app?vid=901c8390-57d3-4c3a-a1aa-a6bc59812b3a"},"vehicle_type_id":"4","last_reported":1729735884,"current_range_meters":37600,"station_id":"cjm6bp8fraef2m0cb0m0","pricing_plan_id":"cebpf4jnsgd1na2vs0mg"},{"bike_id":"12965f57-3a1d-4768-83c5-e018ff17ce98","system_id":"levelo_inurba_marseille","lat":43.24173,"lon":5.39732,"is_reserved":false,"is_disabled":false,"rental_uris":{"android":"levelo://app?vid=12965f57-3a1d-4768-83c5-e018ff17ce98","ios":"levelo://app?vid=12965f57-3a1d-4768-83c5-e018ff17ce98"},"vehicle_type_id":"4","last_reported":1729735884,"current_range_meters":38800,"station_id":"ce4bhn12rcd13ifvqgpg","pricing_plan_id":"cebpf4jnsgd1na2vs0mg"},{"bike_id":"cbd67fc7-6897-4929-bddc-6bb781249d6c","system_id":"levelo_inurba_marseille","lat":43.28471,"lon":5.35882,"is_reserved":false,"is_disabled":false,"rental_uris":{"android":"levelo://app?vid=cbd67fc7-6897-4929-bddc-6bb781249d6c","ios":"levelo://app?vid=cbd67fc7-6897-4929-bddc-6bb781249d6c"},"vehicle_type_id":"4","last_reported":1729735884,"current_range_meters":19200,"station_id":"ce4bhah2rcd13ifvqei0","pricing_plan_id":"cebpf4jnsgd1na2vs0mg"},{"bike_id":"e07b49ee-c33f-4249-918b-2bc035935271","system_id":"levelo_inurba_marseille","lat":43.31155,"lon":5.38712,"is_reserved":false,"is_disabled":false,"rental_uris":{"android":"levelo://app?vid=e07b49ee-c33f-4249-918b-2bc035935271","ios":"levelo://app?vid=e07b49ee-c33f-4249-918b-2bc035935271"},"vehicle_type_id":"4","last_reported":1729735884,"current_range_meters":37600,"station_id":"ce4bgv12rcd13ifvqcp0","pricing_plan_id":"cebpf4jnsgd1na2vs0mg"},{"bike_id":"133018a5-687a-4595-a6b3-d05463345fd5","system_id":"levelo_inurba_marseille","lat":43.27933,"lon":5.41036,"is_reserved":false,"is_disabled":false,"rental_uris":{"android":"levelo://app?vid=133018a5-687a-4595-a6b3-d05463345fd5","ios":"levelo://app?vid=133018a5-687a-4595-a6b3-d05463345fd5"},"vehicle_type_id":"4","last_reported":1729735884,"current_range_meters":38800,"station_id":"ce4bhnp2rcd13ifvqh0g","pricing_plan_id":"cebpf4jnsgd1na2vs0mg"},{"bike_id":"22516433-e256-400e-ba52-60772187b394","system_id":"levelo_inurba_marseille","lat":43.30924,"lon":5.40144,"is_reserved":false,"is_disabled":false,"rental_uris":{"android":"levelo://app?vid=22516433-e256-400e-ba52-60772187b394","ios":"levelo://app?vid=22516433-e256-400e-ba52-60772187b394"},"vehicle_type_id":"4","last_reported":1729735884,"current_range_meters":38800,"station_id":"ce4bgvp2rcd13ifvqct0","pricing_plan_id":"cebpf4jnsgd1na2vs0mg"},{"bike_id":"8b368eb4-d88f-4e27-9a59-f48c296d2a4c","system_id":"levelo_inurba_marseille","lat":43.27971,"lon":5.41648,"is_reserved":false,"is_disabled":false,"rental_uris":{"android":"levelo://app?vid=8b368eb4-d88f-4e27-9a59-f48c296d2a4c","ios":"levelo://app?vid=8b368eb4-d88f-4e27-9a59-f48c296d2a4c"},"vehicle_type_id":"4","last_reported":1729735884,"current_range_meters":24400,"station_id":"ce4bho12rcd13ifvqh1g","pricing_plan_id":"cebpf4jnsgd1na2vs0mg"},{"bike_id":"84a1642f-a00b-4ae1-9856-163f872d7fa4","system_id":"levelo_inurba_marseille","lat":43.28078,"lon":5.39655,"is_reserved":false,"is_disabled":false,"rental_uris":{"android":"levelo://app?vid=84a1642f-a00b-4ae1-9856-163f872d7fa4","ios":"levelo://app?vid=84a1642f-a00b-4ae1-9856-163f872d7fa4"},"vehicle_type_id":"4","last_reported":1729735884,"current_range_meters":38000,"station_id":"ce4bho12rcd13ifvqh2g","pricing_plan_id":"cebpf4jnsgd1na2vs0mg"},{"bike_id":"2427591b-8c3a-40f8-af56-33c7377ac792","system_id":"levelo_inurba_marseille","lat":43.24548,"lon":5.39525,"is_reserved":false,"is_disabled":false,"rental_uris":{"android":"levelo://app?vid=2427591b-8c3a-40f8-af56-33c7377ac792","ios":"levelo://app?vid=2427591b-8c3a-40f8-af56-33c7377ac792"},"vehicle_type_id":"4","last_reported":1729735884,"current_range_meters":6400,"station_id":"ce4bhlp2rcd13ifvqgjg","pricing_plan_id":"cebpf4jnsgd1na2vs0mg"},{"bike_id":"c246f050-1ca2-4896-9426-46adcde35e73","system_id":"levelo_inurba_marseille","lat":43.31333,"lon":5.39719,"is_reserved":false,"is_disabled":false,"rental_uris":{"android":"levelo://app?vid=c246f050-1ca2-4896-9426-46adcde35e73","ios":"levelo://app?vid=c246f050-1ca2-4896-9426-46adcde35e73"},"vehicle_type_id":"4","last_reported":1729735884,"current_range_meters":28000,"station_id":"ce4bgvp2rcd13ifvqcu0","pricing_plan_id":"cebpf4jnsgd1na2vs0mg"},{"bike_id":"513e9df3-7590-42dd-a419-2e9e62f66b47","system_id":"levelo_inurba_marseille","lat":43.31324,"lon":5.39698,"is_reserved":false,"is_disabled":false,"rental_uris":{"android":"levelo://app?vid=513e9df3-7590-42dd-a419-2e9e62f66b47","ios":"levelo://app?vid=513e9df3-7590-42dd-a419-2e9e62f66b47"},"vehicle_type_id":"4","last_reported":1729735884,"current_range_meters":8800,"station_id":"ce4bgvp2rcd13ifvqcu0","pricing_plan_id":"cebpf4jnsgd1na2vs0mg"},{"bike_id":"9c980766-3696-42be-8e1a-d22fb6edb5c5","system_id":"levelo_inurba_marseille","lat":43.30666,"lon":5.38169,"is_reserved":false,"is_disabled":false,"rental_uris":{"android":"levelo://app?vid=9c980766-3696-42be-8e1a-d22fb6edb5c5","ios":"levelo://app?vid=9c980766-3696-42be-8e1a-d22fb6edb5c5"},"vehicle_type_id":"4","last_reported":1729735884,"current_range_meters":30000,"station_id":"","pricing_plan_id":"cebpf4jnsgd1na2vs0mg"},{"bike_id":"3d879563-7515-4e7c-8fcb-591818df3455","system_id":"levelo_inurba_marseille","lat":43.28353,"lon":5.38098,"is_reserved":false,"is_disabled":false,"rental_uris":{"android":"levelo://app?vid=3d879563-7515-4e7c-8fcb-591818df3455","ios":"levelo://app?vid=3d879563-7515-4e7c-8fcb-591818df3455"},"vehicle_type_id":"4","last_reported":1729735884,"current_range_meters":38800,"station_id":"ce4bh412rcd13ifvqdr0","pricing_plan_id":"cebpf4jnsgd1na2vs0mg"},{"bike_id":"8d5b743c-ab08-408d-9aa9-a0f9f3f7ae93","system_id":"levelo_inurba_marseille","lat":43.30805,"lon":5.38163,"is_reserved":false,"is_disabled":false,"rental_uris":{"android":"levelo://app?vid=8d5b743c-ab08-408d-9aa9-a0f9f3f7ae93","ios":"levelo://app?vid=8d5b743c-ab08-408d-9aa9-a0f9f3f7ae93"},"vehicle_type_id":"4","last_reported":1729735884,"current_range_meters":22800,"station_id":"ce4bgt12rcd13ifvqce0","pricing_plan_id":"cebpf4jnsgd1na2vs0mg"},{"bike_id":"fbab0294-1b9d-43dc-b27d-dcc482a2e32b","system_id":"levelo_inurba_marseille","lat":43.31764,"lon":5.39016,"is_reserved":false,"is_disabled":false,"rental_uris":{"android":"levelo://app?vid=fbab0294-1b9d-43dc-b27d-dcc482a2e32b","ios":"levelo://app?vid=fbab0294-1b9d-43dc-b27d-dcc482a2e32b"},"vehicle_type_id":"4","last_reported":1729735884,"current_range_meters":33200,"station_id":"ce4bhqp2rcd13ifvqhng","pricing_plan_id":"cebpf4jnsgd1na2vs0mg"},{"bike_id":"c795749b-6514-4187-b84f-9dd949a143e0","system_id":"levelo_inurba_marseille","lat":43.32658,"lon":5.40999,"is_reserved":false,"is_disabled":false,"rental_uris":{"android":"levelo://app?vid=c795749b-6514-4187-b84f-9dd949a143e0","ios":"levelo://app?vid=c795749b-6514-4187-b84f-9dd949a143e0"},"vehicle_type_id":"4","last_reported":1729735884,"current_range_meters":38800,"station_id":"ce4bhpp2rcd13ifvqhgg","pricing_plan_id":"cebpf4jnsgd1na2vs0mg"},{"bike_id":"580656df-3830-4c81-bc34-c502f76a985d","system_id":"levelo_inurba_marseille","lat":43.31706,"lon":5.37739,"is_reserved":false,"is_disabled":false,"rental_uris":{"android":"levelo://app?vid=580656df-3830-4c81-bc34-c502f76a985d","ios":"levelo://app?vid=580656df-3830-4c81-bc34-c502f76a985d"},"vehicle_type_id":"4","last_reported":1729735884,"current_range_meters":33600,"station_id":"ce4bgth2rcd13ifvqch0","pricing_plan_id":"cebpf4jnsgd1na2vs0mg"},{"bike_id":"08bf31e2-250d-47ff-9d69-01491a94003d","system_id":"levelo_inurba_marseille","lat":43.29032,"lon":5.39972,"is_reserved":false,"is_disabled":false,"rental_uris":{"android":"levelo://app?vid=08bf31e2-250d-47ff-9d69-01491a94003d","ios":"levelo://app?vid=08bf31e2-250d-47ff-9d69-01491a94003d"},"vehicle_type_id":"4","last_reported":1729735884,"current_range_meters":35600,"station_id":"ce4bh392rcd13ifvqdm0","pricing_plan_id":"cebpf4jnsgd1na2vs0mg"},{"bike_id":"1cc96fa8-d98d-455c-8d2b-94b443812498","system_id":"levelo_inurba_marseille","lat":43.29257,"lon":5.40904,"is_reserved":false,"is_disabled":false,"rental_uris":{"android":"levelo://app?vid=1cc96fa8-d98d-455c-8d2b-94b443812498","ios":"levelo://app?vid=1cc96fa8-d98d-455c-8d2b-94b443812498"},"vehicle_type_id":"4","last_reported":1729735884,"current_range_meters":38000,"station_id":"ce4bh192rcd13ifvqdc0","pricing_plan_id":"cebpf4jnsgd1na2vs0mg"},{"bike_id":"df18893b-652a-4978-8f09-21082eee1738","system_id":"levelo_inurba_marseille","lat":43.31077,"lon":5.38335,"is_reserved":false,"is_disabled":false,"rental_uris":{"android":"levelo://app?vid=df18893b-652a-4978-8f09-21082eee1738","ios":"levelo://app?vid=df18893b-652a-4978-8f09-21082eee1738"},"vehicle_type_id":"4","last_reported":1729735884,"current_range_meters":22800,"station_id":"ce4bgv92rcd13ifvqcr0","pricing_plan_id":"cebpf4jnsgd1na2vs0mg"},{"bike_id":"99ca565d-3adb-46aa-a20c-3cf4e732038e","system_id":"levelo_inurba_marseille","lat":43.28867,"lon":5.3929,"is_reserved":false,"is_disabled":false,"rental_uris":{"android":"levelo://app?vid=99ca565d-3adb-46aa-a20c-3cf4e732038e","ios":"levelo://app?vid=99ca565d-3adb-46aa-a20c-3cf4e732038e"},"vehicle_type_id":"4","last_reported":1729735884,"current_range_meters":30000,"station_id":"ce4bh2p2rcd13ifvqdi0","pricing_plan_id":"cebpf4jnsgd1na2vs0mg"},{"bike_id":"557283f1-a9de-4bfb-8a50-374ced1e8f57","system_id":"levelo_inurba_marseille","lat":43.30781,"lon":5.37654,"is_reserved":false,"is_disabled":false,"rental_uris":{"android":"levelo://app?vid=557283f1-a9de-4bfb-8a50-374ced1e8f57","ios":"levelo://app?vid=557283f1-a9de-4bfb-8a50-374ced1e8f57"},"vehicle_type_id":"4","last_reported":1729735884,"current_range_meters":36800,"station_id":"ce4bgv92rcd13ifvqcq0","pricing_plan_id":"cebpf4jnsgd1na2vs0mg"},{"bike_id":"9accfad9-61c7-4ac4-9925-14fda996c74e","system_id":"levelo_inurba_marseille","lat":43.28479,"lon":5.3842,"is_reserved":false,"is_disabled":false,"rental_uris":{"android":"levelo://app?vid=9accfad9-61c7-4ac4-9925-14fda996c74e","ios":"levelo://app?vid=9accfad9-61c7-4ac4-9925-14fda996c74e"},"vehicle_type_id":"4","last_reported":1729735884,"current_range_meters":35200,"station_id":"ce4bh512rcd13ifvqe3g","pricing_plan_id":"cebpf4jnsgd1na2vs0mg"},{"bike_id":"90c3a3ae-e1f9-49f9-8230-c82dc265a457","system_id":"levelo_inurba_marseille","lat":43.32001,"lon":5.38138,"is_reserved":false,"is_disabled":false,"rental_uris":{"android":"levelo://app?vid=90c3a3ae-e1f9-49f9-8230-c82dc265a457","ios":"levelo://app?vid=90c3a3ae-e1f9-49f9-8230-c82dc265a457"},"vehicle_type_id":"4","last_reported":1729735884,"current_range_meters":8400,"station_id":"ce4bhr12rcd13ifvqhpg","pricing_plan_id":"cebpf4jnsgd1na2vs0mg"},{"bike_id":"d43610d4-6ab3-4063-97de-1a3507b8b43a","system_id":"levelo_inurba_marseille","lat":43.26799,"lon":5.40268,"is_reserved":false,"is_disabled":false,"rental_uris":{"android":"levelo://app?vid=d43610d4-6ab3-4063-97de-1a3507b8b43a","ios":"levelo://app?vid=d43610d4-6ab3-4063-97de-1a3507b8b43a"},"vehicle_type_id":"4","last_reported":1729735884,"current_range_meters":28800,"station_id":"ce501612rcd8frsf0b60","pricing_plan_id":"cebpf4jnsgd1na2vs0mg"},{"bike_id":"e6b310af-d763-4708-a97e-f6f2e27c7b8b","system_id":"levelo_inurba_marseille","lat":43.2719,"lon":5.40978,"is_reserved":false,"is_disabled":false,"rental_uris":{"android":"levelo://app?vid=e6b310af-d763-4708-a97e-f6f2e27c7b8b","ios":"levelo://app?vid=e6b310af-d763-4708-a97e-f6f2e27c7b8b"},"vehicle_type_id":"4","last_reported":1729735884,"current_range_meters":9200,"station_id":"ce4bhl12rcd13ifvqgf0","pricing_plan_id":"cebpf4jnsgd1na2vs0mg"},{"bike_id":"29307b0a-20bd-4b38-88dd-bf6801123e99","system_id":"levelo_inurba_marseille","lat":43.24164,"lon":5.39719,"is_reserved":false,"is_disabled":false,"rental_uris":{"android":"levelo://app?vid=29307b0a-20bd-4b38-88dd-bf6801123e99","ios":"levelo://app?vid=29307b0a-20bd-4b38-88dd-bf6801123e99"},"vehicle_type_id":"4","last_reported":1729735884,"current_range_meters":38000,"station_id":"ce4bhn12rcd13ifvqgpg","pricing_plan_id":"cebpf4jnsgd1na2vs0mg"},{"bike_id":"f36ff287-1568-4c08-93bf-292e61a3a499","system_id":"levelo_inurba_marseille","lat":43.30463,"lon":5.37906,"is_reserved":false,"is_disabled":false,"rental_uris":{"android":"levelo://app?vid=f36ff287-1568-4c08-93bf-292e61a3a499","ios":"levelo://app?vid=f36ff287-1568-4c08-93bf-292e61a3a499"},"vehicle_type_id":"4","last_reported":1729735884,"current_range_meters":34800,"station_id":"ce4bgup2rcd13ifvqcn0","pricing_plan_id":"cebpf4jnsgd1na2vs0mg"},{"bike_id":"57dfa82b-35a5-4e19-9a9a-cd2e56a43c86","system_id":"levelo_inurba_marseille","lat":43.30477,"lon":5.37894,"is_reserved":false,"is_disabled":false,"rental_uris":{"android":"levelo://app?vid=57dfa82b-35a5-4e19-9a9a-cd2e56a43c86","ios":"levelo://app?vid=57dfa82b-35a5-4e19-9a9a-cd2e56a43c86"},"vehicle_type_id":"4","last_reported":1729735884,"current_range_meters":16000,"station_id":"ce4bgup2rcd13ifvqcn0","pricing_plan_id":"cebpf4jnsgd1na2vs0mg"},{"bike_id":"87b14e22-9ad1-4d7e-b481-3b435b60c5b6","system_id":"levelo_inurba_marseille","lat":43.26824,"lon":5.40258,"is_reserved":false,"is_disabled":false,"rental_uris":{"android":"levelo://app?vid=87b14e22-9ad1-4d7e-b481-3b435b60c5b6","ios":"levelo://app?vid=87b14e22-9ad1-4d7e-b481-3b435b60c5b6"},"vehicle_type_id":"4","last_reported":1729735884,"current_range_meters":17600,"station_id":"ce501612rcd8frsf0b60","pricing_plan_id":"cebpf4jnsgd1na2vs0mg"},{"bike_id":"2c698a5d-6625-4000-a36c-48e5dbfee679","system_id":"levelo_inurba_marseille","lat":43.2904,"lon":5.35899,"is_reserved":false,"is_disabled":false,"rental_uris":{"android":"levelo://app?vid=2c698a5d-6625-4000-a36c-48e5dbfee679","ios":"levelo://app?vid=2c698a5d-6625-4000-a36c-48e5dbfee679"},"vehicle_type_id":"4","last_reported":1729735884,"current_range_meters":29600,"station_id":"ce4bha92rcd13ifvqeg0","pricing_plan_id":"cebpf4jnsgd1na2vs0mg"},{"bike_id":"53643c73-ebff-4438-9bbc-d1455671aa2b","system_id":"levelo_inurba_marseille","lat":43.31992,"lon":5.3814,"is_reserved":false,"is_disabled":false,"rental_uris":{"android":"levelo://app?vid=53643c73-ebff-4438-9bbc-d1455671aa2b","ios":"levelo://app?vid=53643c73-ebff-4438-9bbc-d1455671aa2b"},"vehicle_type_id":"4","last_reported":1729735884,"current_range_meters":31200,"station_id":"ce4bhr12rcd13ifvqhpg","pricing_plan_id":"cebpf4jnsgd1na2vs0mg"},{"bike_id":"b88bed07-aa41-4e48-8a3a-39b278e9fd91","system_id":"levelo_inurba_marseille","lat":43.26026,"lon":5.37548,"is_reserved":false,"is_disabled":false,"rental_uris":{"android":"levelo://app?vid=b88bed07-aa41-4e48-8a3a-39b278e9fd91","ios":"levelo://app?vid=b88bed07-aa41-4e48-8a3a-39b278e9fd91"},"vehicle_type_id":"4","last_reported":1729735884,"current_range_meters":36000,"station_id":"ce4bhgh2rcd13ifvqfa0","pricing_plan_id":"cebpf4jnsgd1na2vs0mg"},{"bike_id":"a47dab65-0b37-4a65-b586-55e1e3712313","system_id":"levelo_inurba_marseille","lat":43.25081,"lon":5.39515,"is_reserved":false,"is_disabled":false,"rental_uris":{"android":"levelo://app?vid=a47dab65-0b37-4a65-b586-55e1e3712313","ios":"levelo://app?vid=a47dab65-0b37-4a65-b586-55e1e3712313"},"vehicle_type_id":"4","last_reported":1729735884,"current_range_meters":35600,"station_id":"ce4bhm12rcd13ifvqgkg","pricing_plan_id":"cebpf4jnsgd1na2vs0mg"},{"bike_id":"83c1c1bf-7f3e-40f7-8901-caa547648f75","system_id":"levelo_inurba_marseille","lat":43.2925,"lon":5.40913,"is_reserved":false,"is_disabled":false,"rental_uris":{"android":"levelo://app?vid=83c1c1bf-7f3e-40f7-8901-caa547648f75","ios":"levelo://app?vid=83c1c1bf-7f3e-40f7-8901-caa547648f75"},"vehicle_type_id":"4","last_reported":1729735884,"current_range_meters":37600,"station_id":"ce4bh192rcd13ifvqdc0","pricing_plan_id":"cebpf4jnsgd1na2vs0mg"},{"bike_id":"00a8bd9d-eef3-42e3-9e17-61a6e620d1f8","system_id":"levelo_inurba_marseille","lat":43.33021,"lon":5.39043,"is_reserved":false,"is_disabled":false,"rental_uris":{"android":"levelo://app?vid=00a8bd9d-eef3-42e3-9e17-61a6e620d1f8","ios":"levelo://app?vid=00a8bd9d-eef3-42e3-9e17-61a6e620d1f8"},"vehicle_type_id":"4","last_reported":1729735884,"current_range_meters":38800,"station_id":"ce4bhr92rcd13ifvqhrg","pricing_plan_id":"cebpf4jnsgd1na2vs0mg"},{"bike_id":"16c623cf-ab3f-4890-b15b-3153fd350014","system_id":"levelo_inurba_marseille","lat":43.24646,"lon":5.38896,"is_reserved":false,"is_disabled":false,"rental_uris":{"android":"levelo://app?vid=16c623cf-ab3f-4890-b15b-3153fd350014","ios":"levelo://app?vid=16c623cf-ab3f-4890-b15b-3153fd350014"},"vehicle_type_id":"4","last_reported":1729735884,"current_range_meters":28400,"station_id":"ce4bhg12rcd13ifvqf60","pricing_plan_id":"cebpf4jnsgd1na2vs0mg"},{"bike_id":"84bdd819-4ab1-4f82-9b18-7a085349e454","system_id":"levelo_inurba_marseille","lat":43.25582,"lon":5.38225,"is_reserved":false,"is_disabled":false,"rental_uris":{"android":"levelo://app?vid=84bdd819-4ab1-4f82-9b18-7a085349e454","ios":"levelo://app?vid=84bdd819-4ab1-4f82-9b18-7a085349e454"},"vehicle_type_id":"4","last_reported":1729735884,"current_range_meters":37600,"station_id":"ce4bhih2rcd13ifvqfs0","pricing_plan_id":"cebpf4jnsgd1na2vs0mg"},{"bike_id":"f57afd03-c92f-4ffa-9b51-edefd10dccaf","system_id":"levelo_inurba_marseille","lat":43.28703,"lon":5.40004,"is_reserved":false,"is_disabled":false,"rental_uris":{"android":"levelo://app?vid=f57afd03-c92f-4ffa-9b51-edefd10dccaf","ios":"levelo://app?vid=f57afd03-c92f-4ffa-9b51-edefd10dccaf"},"vehicle_type_id":"4","last_reported":1729735884,"current_range_meters":3200,"station_id":"ce4bho92rcd13ifvqh3g","pricing_plan_id":"cebpf4jnsgd1na2vs0mg"},{"bike_id":"b9e25745-609f-490f-b10e-40e4cbe6e867","system_id":"levelo_inurba_marseille","lat":43.29884,"lon":5.43661,"is_reserved":false,"is_disabled":false,"rental_uris":{"android":"levelo://app?vid=b9e25745-609f-490f-b10e-40e4cbe6e867","ios":"levelo://app?vid=b9e25745-609f-490f-b10e-40e4cbe6e867"},"vehicle_type_id":"4","last_reported":1729735884,"current_range_meters":38800,"station_id":"ce4bhpp2rcd13ifvqhfg","pricing_plan_id":"cebpf4jnsgd1na2vs0mg"},{"bike_id":"2253ef0b-04db-4d01-88cd-9eea682746cc","system_id":"levelo_inurba_marseille","lat":43.27999,"lon":5.40029,"is_reserved":false,"is_disabled":false,"rental_uris":{"android":"levelo://app?vid=2253ef0b-04db-4d01-88cd-9eea682746cc","ios":"levelo://app?vid=2253ef0b-04db-4d01-88cd-9eea682746cc"},"vehicle_type_id":"4","last_reported":1729735884,"current_range_meters":38800,"station_id":"ce4bho92rcd13ifvqh4g","pricing_plan_id":"cebpf4jnsgd1na2vs0mg"},{"bike_id":"22ebe0c1-2f94-4163-8713-fcc002d694da","system_id":"levelo_inurba_marseille","lat":43.28342,"lon":5.38105,"is_reserved":false,"is_disabled":false,"rental_uris":{"android":"levelo://app?vid=22ebe0c1-2f94-4163-8713-fcc002d694da","ios":"levelo://app?vid=22ebe0c1-2f94-4163-8713-fcc002d694da"},"vehicle_type_id":"4","last_reported":1729735884,"current_range_meters":38800,"station_id":"ce4bh412rcd13ifvqdr0","pricing_plan_id":"cebpf4jnsgd1na2vs0mg"},{"bike_id":"4fd2f565-ace7-4302-8010-18516f6fa357","system_id":"levelo_inurba_marseille","lat":43.32669,"lon":5.4099,"is_reserved":false,"is_disabled":false,"rental_uris":{"android":"levelo://app?vid=4fd2f565-ace7-4302-8010-18516f6fa357","ios":"levelo://app?vid=4fd2f565-ace7-4302-8010-18516f6fa357"},"vehicle_type_id":"4","last_reported":1729735884,"current_range_meters":37600,"station_id":"ce4bhpp2rcd13ifvqhgg","pricing_plan_id":"cebpf4jnsgd1na2vs0mg"},{"bike_id":"9a5500e7-910d-435f-a360-a01008478b62","system_id":"levelo_inurba_marseille","lat":43.27893,"lon":5.38008,"is_reserved":false,"is_disabled":false,"rental_uris":{"android":"levelo://app?vid=9a5500e7-910d-435f-a360-a01008478b62","ios":"levelo://app?vid=9a5500e7-910d-435f-a360-a01008478b62"},"vehicle_type_id":"4","last_reported":1729735884,"current_range_meters":8000,"station_id":"ce4bhf92rcd13ifvqf50","pricing_plan_id":"cebpf4jnsgd1na2vs0mg"},{"bike_id":"7ea0b9f7-4a6d-47fb-92a8-978540e4b15a","system_id":"levelo_inurba_marseille","lat":43.26926,"lon":5.40251,"is_reserved":false,"is_disabled":false,"rental_uris":{"android":"levelo://app?vid=7ea0b9f7-4a6d-47fb-92a8-978540e4b15a","ios":"levelo://app?vid=7ea0b9f7-4a6d-47fb-92a8-978540e4b15a"},"vehicle_type_id":"4","last_reported":1729735884,"current_range_meters":38800,"station_id":"cjm6bp8fraef2m0cb0m0","pricing_plan_id":"cebpf4jnsgd1na2vs0mg"},{"bike_id":"d4cf968c-16dd-4a45-9621-72c7a48c27cf","system_id":"levelo_inurba_marseille","lat":43.28477,"lon":5.35882,"is_reserved":false,"is_disabled":false,"rental_uris":{"android":"levelo://app?vid=d4cf968c-16dd-4a45-9621-72c7a48c27cf","ios":"levelo://app?vid=d4cf968c-16dd-4a45-9621-72c7a48c27cf"},"vehicle_type_id":"4","last_reported":1729735884,"current_range_meters":16400,"station_id":"ce4bhah2rcd13ifvqei0","pricing_plan_id":"cebpf4jnsgd1na2vs0mg"},{"bike_id":"5d5bbb3f-f738-4f9c-b74e-909d1f45337e","system_id":"levelo_inurba_marseille","lat":43.27827,"lon":5.39202,"is_reserved":false,"is_disabled":false,"rental_uris":{"android":"levelo://app?vid=5d5bbb3f-f738-4f9c-b74e-909d1f45337e","ios":"levelo://app?vid=5d5bbb3f-f738-4f9c-b74e-909d1f45337e"},"vehicle_type_id":"4","last_reported":1729735884,"current_range_meters":38000,"station_id":"ce4bhjp2rcd13ifvqga0","pricing_plan_id":"cebpf4jnsgd1na2vs0mg"},{"bike_id":"2d25ff97-3389-4717-b49b-940736aaa0f0","system_id":"levelo_inurba_marseille","lat":43.30925,"lon":5.40146,"is_reserved":false,"is_disabled":false,"rental_uris":{"android":"levelo://app?vid=2d25ff97-3389-4717-b49b-940736aaa0f0","ios":"levelo://app?vid=2d25ff97-3389-4717-b49b-940736aaa0f0"},"vehicle_type_id":"4","last_reported":1729735884,"current_range_meters":25600,"station_id":"ce4bgvp2rcd13ifvqct0","pricing_plan_id":"cebpf4jnsgd1na2vs0mg"},{"bike_id":"f94a562f-59f2-4ba1-a457-b8508034886e","system_id":"levelo_inurba_marseille","lat":43.27375,"lon":5.36254,"is_reserved":false,"is_disabled":false,"rental_uris":{"android":"levelo://app?vid=f94a562f-59f2-4ba1-a457-b8508034886e","ios":"levelo://app?vid=f94a562f-59f2-4ba1-a457-b8508034886e"},"vehicle_type_id":"4","last_reported":1729735884,"current_range_meters":24400,"station_id":"ce4bhbh2rcd13ifvqeo0","pricing_plan_id":"cebpf4jnsgd1na2vs0mg"},{"bike_id":"6304ec57-e41d-437e-8311-e819942e1bed","system_id":"levelo_inurba_marseille","lat":43.30648,"lon":5.40091,"is_reserved":false,"is_disabled":false,"rental_uris":{"android":"levelo://app?vid=6304ec57-e41d-437e-8311-e819942e1bed","ios":"levelo://app?vid=6304ec57-e41d-437e-8311-e819942e1bed"},"vehicle_type_id":"4","last_reported":1729735884,"current_range_meters":12800,"station_id":"ce4bh112rcd13ifvqda0","pricing_plan_id":"cebpf4jnsgd1na2vs0mg"},{"bike_id":"4ec25af9-2c50-4187-b3b7-1dc66bf6c68a","system_id":"levelo_inurba_marseille","lat":43.28285,"lon":5.40824,"is_reserved":false,"is_disabled":false,"rental_uris":{"android":"levelo://app?vid=4ec25af9-2c50-4187-b3b7-1dc66bf6c68a","ios":"levelo://app?vid=4ec25af9-2c50-4187-b3b7-1dc66bf6c68a"},"vehicle_type_id":"4","last_reported":1729735884,"current_range_meters":9600,"station_id":"","pricing_plan_id":"cebpf4jnsgd1na2vs0mg"},{"bike_id":"85d96a2e-4b28-4067-b73c-35673d495574","system_id":"levelo_inurba_marseille","lat":43.28845,"lon":5.35842,"is_reserved":false,"is_disabled":false,"rental_uris":{"android":"levelo://app?vid=85d96a2e-4b28-4067-b73c-35673d495574","ios":"levelo://app?vid=85d96a2e-4b28-4067-b73c-35673d495574"},"vehicle_type_id":"4","last_reported":1729735884,"current_range_meters":38800,"station_id":"ce4bhb12rcd13ifvqem0","pricing_plan_id":"cebpf4jnsgd1na2vs0mg"},{"bike_id":"fd994004-ac4c-4427-90b4-297ffff0a5e7","system_id":"levelo_inurba_marseille","lat":43.32339,"lon":5.38908,"is_reserved":false,"is_disabled":false,"rental_uris":{"android":"levelo://app?vid=fd994004-ac4c-4427-90b4-297ffff0a5e7","ios":"levelo://app?vid=fd994004-ac4c-4427-90b4-297ffff0a5e7"},"vehicle_type_id":"4","last_reported":1729735884,"current_range_meters":21600,"station_id":"ce4bhqp2rcd13ifvqhog","pricing_plan_id":"cebpf4jnsgd1na2vs0mg"},{"bike_id":"5d732d0c-a180-4271-95ea-2ef2107c6689","system_id":"levelo_inurba_marseille","lat":43.25867,"lon":5.39926,"is_reserved":false,"is_disabled":false,"rental_uris":{"android":"levelo://app?vid=5d732d0c-a180-4271-95ea-2ef2107c6689","ios":"levelo://app?vid=5d732d0c-a180-4271-95ea-2ef2107c6689"},"vehicle_type_id":"4","last_reported":1729735884,"current_range_meters":25600,"station_id":"ce4bhl92rcd13ifvqghg","pricing_plan_id":"cebpf4jnsgd1na2vs0mg"},{"bike_id":"1084d8f9-8014-4f36-960f-827a500d24f2","system_id":"levelo_inurba_marseille","lat":43.28558,"lon":5.39487,"is_reserved":false,"is_disabled":false,"rental_uris":{"android":"levelo://app?vid=1084d8f9-8014-4f36-960f-827a500d24f2","ios":"levelo://app?vid=1084d8f9-8014-4f36-960f-827a500d24f2"},"vehicle_type_id":"4","last_reported":1729735884,"current_range_meters":23200,"station_id":"ce4bh292rcd13ifvqdg0","pricing_plan_id":"cebpf4jnsgd1na2vs0mg"},{"bike_id":"40cb59f2-37b1-49ed-b88b-99133dfc2206","system_id":"levelo_inurba_marseille","lat":43.30945,"lon":5.39029,"is_reserved":false,"is_disabled":false,"rental_uris":{"android":"levelo://app?vid=40cb59f2-37b1-49ed-b88b-99133dfc2206","ios":"levelo://app?vid=40cb59f2-37b1-49ed-b88b-99133dfc2206"},"vehicle_type_id":"4","last_reported":1729735884,"current_range_meters":8800,"station_id":"ce4bgup2rcd13ifvqco0","pricing_plan_id":"cebpf4jnsgd1na2vs0mg"},{"bike_id":"11f4da9f-54d4-4fc3-bb64-30048373bf8c","system_id":"levelo_inurba_marseille","lat":43.23153,"lon":5.43716,"is_reserved":false,"is_disabled":false,"rental_uris":{"android":"levelo://app?vid=11f4da9f-54d4-4fc3-bb64-30048373bf8c","ios":"levelo://app?vid=11f4da9f-54d4-4fc3-bb64-30048373bf8c"},"vehicle_type_id":"4","last_reported":1729735884,"current_range_meters":26800,"station_id":"ce4bhmp2rcd13ifvqgog","pricing_plan_id":"cebpf4jnsgd1na2vs0mg"},{"bike_id":"103ed008-6f4b-4142-8ae0-e6b210d9a427","system_id":"levelo_inurba_marseille","lat":43.22932,"lon":5.35376,"is_reserved":false,"is_disabled":false,"rental_uris":{"android":"levelo://app?vid=103ed008-6f4b-4142-8ae0-e6b210d9a427","ios":"levelo://app?vid=103ed008-6f4b-4142-8ae0-e6b210d9a427"},"vehicle_type_id":"4","last_reported":1729735884,"current_range_meters":13600,"station_id":"cpo3532slgdg3j2ikp40","pricing_plan_id":"cebpf4jnsgd1na2vs0mg"},{"bike_id":"503f7d31-6546-4f3c-93f9-187ede06bd9f","system_id":"levelo_inurba_marseille","lat":43.28413,"lon":5.37511,"is_reserved":false,"is_disabled":false,"rental_uris":{"android":"levelo://app?vid=503f7d31-6546-4f3c-93f9-187ede06bd9f","ios":"levelo://app?vid=503f7d31-6546-4f3c-93f9-187ede06bd9f"},"vehicle_type_id":"4","last_reported":1729735884,"current_range_meters":33200,"station_id":"ce4bh412rcd13ifvqds0","pricing_plan_id":"cebpf4jnsgd1na2vs0mg"},{"bike_id":"fa8da294-671e-4e9a-ad17-e5263743ae7c","system_id":"levelo_inurba_marseille","lat":43.24543,"lon":5.39527,"is_reserved":false,"is_disabled":false,"rental_uris":{"android":"levelo://app?vid=fa8da294-671e-4e9a-ad17-e5263743ae7c","ios":"levelo://app?vid=fa8da294-671e-4e9a-ad17-e5263743ae7c"},"vehicle_type_id":"4","last_reported":1729735884,"current_range_meters":24000,"station_id":"ce4bhlp2rcd13ifvqgjg","pricing_plan_id":"cebpf4jnsgd1na2vs0mg"},{"bike_id":"534d1db3-5c04-4d3e-aefb-da803638f9f8","system_id":"levelo_inurba_marseille","lat":43.28678,"lon":5.36368,"is_reserved":false,"is_disabled":false,"rental_uris":{"android":"levelo://app?vid=534d1db3-5c04-4d3e-aefb-da803638f9f8","ios":"levelo://app?vid=534d1db3-5c04-4d3e-aefb-da803638f9f8"},"vehicle_type_id":"4","last_reported":1729735884,"current_range_meters":16000,"station_id":"ce4bhah2rcd13ifvqej0","pricing_plan_id":"cebpf4jnsgd1na2vs0mg"},{"bike_id":"2bc7b057-bbeb-4b83-a05f-6ed3b979319b","system_id":"levelo_inurba_marseille","lat":43.28732,"lon":5.36074,"is_reserved":false,"is_disabled":false,"rental_uris":{"android":"levelo://app?vid=2bc7b057-bbeb-4b83-a05f-6ed3b979319b","ios":"levelo://app?vid=2bc7b057-bbeb-4b83-a05f-6ed3b979319b"},"vehicle_type_id":"4","last_reported":1729735884,"current_range_meters":25600,"station_id":"cki0cbj6b192h4jlfktg","pricing_plan_id":"cebpf4jnsgd1na2vs0mg"},{"bike_id":"61bc9fdc-13cc-4f71-a31f-ffb08ccd51d2","system_id":"levelo_inurba_marseille","lat":43.30674,"lon":5.40066,"is_reserved":false,"is_disabled":false,"rental_uris":{"android":"levelo://app?vid=61bc9fdc-13cc-4f71-a31f-ffb08ccd51d2","ios":"levelo://app?vid=61bc9fdc-13cc-4f71-a31f-ffb08ccd51d2"},"vehicle_type_id":"4","last_reported":1729735884,"current_range_meters":36400,"station_id":"ce4bh112rcd13ifvqda0","pricing_plan_id":"cebpf4jnsgd1na2vs0mg"},{"bike_id":"efabcb8c-ee14-4cdc-be9a-ea85da1c61a6","system_id":"levelo_inurba_marseille","lat":43.32351,"lon":5.3888,"is_reserved":false,"is_disabled":false,"rental_uris":{"android":"levelo://app?vid=efabcb8c-ee14-4cdc-be9a-ea85da1c61a6","ios":"levelo://app?vid=efabcb8c-ee14-4cdc-be9a-ea85da1c61a6"},"vehicle_type_id":"4","last_reported":1729735884,"current_range_meters":36000,"station_id":"ce4bhqp2rcd13ifvqhog","pricing_plan_id":"cebpf4jnsgd1na2vs0mg"},{"bike_id":"fa6f6ac8-634a-4a36-91e8-75c143cb5939","system_id":"levelo_inurba_marseille","lat":43.31322,"lon":5.39711,"is_reserved":false,"is_disabled":false,"rental_uris":{"android":"levelo://app?vid=fa6f6ac8-634a-4a36-91e8-75c143cb5939","ios":"levelo://app?vid=fa6f6ac8-634a-4a36-91e8-75c143cb5939"},"vehicle_type_id":"4","last_reported":1729735884,"current_range_meters":28000,"station_id":"ce4bgvp2rcd13ifvqcu0","pricing_plan_id":"cebpf4jnsgd1na2vs0mg"},{"bike_id":"ea86be19-4354-4299-8ffb-9b0930336d68","system_id":"levelo_inurba_marseille","lat":43.28409,"lon":5.37517,"is_reserved":false,"is_disabled":false,"rental_uris":{"android":"levelo://app?vid=ea86be19-4354-4299-8ffb-9b0930336d68","ios":"levelo://app?vid=ea86be19-4354-4299-8ffb-9b0930336d68"},"vehicle_type_id":"4","last_reported":1729735884,"current_range_meters":3200,"station_id":"ce4bh412rcd13ifvqds0","pricing_plan_id":"cebpf4jnsgd1na2vs0mg"},{"bike_id":"e93d0849-6889-4c3b-b756-5d2c77aee686","system_id":"levelo_inurba_marseille","lat":43.27985,"lon":5.4166,"is_reserved":false,"is_disabled":false,"rental_uris":{"android":"levelo://app?vid=e93d0849-6889-4c3b-b756-5d2c77aee686","ios":"levelo://app?vid=e93d0849-6889-4c3b-b756-5d2c77aee686"},"vehicle_type_id":"4","last_reported":1729735884,"current_range_meters":38800,"station_id":"ce4bho12rcd13ifvqh1g","pricing_plan_id":"cebpf4jnsgd1na2vs0mg"},{"bike_id":"3a23f1af-30a4-4557-accf-46d9aacc6d5a","system_id":"levelo_inurba_marseille","lat":43.28459,"lon":5.35887,"is_reserved":false,"is_disabled":false,"rental_uris":{"android":"levelo://app?vid=3a23f1af-30a4-4557-accf-46d9aacc6d5a","ios":"levelo://app?vid=3a23f1af-30a4-4557-accf-46d9aacc6d5a"},"vehicle_type_id":"4","last_reported":1729735884,"current_range_meters":30400,"station_id":"ce4bhah2rcd13ifvqei0","pricing_plan_id":"cebpf4jnsgd1na2vs0mg"},{"bike_id":"a6851aa9-407c-426b-b1df-baf16148303d","system_id":"levelo_inurba_marseille","lat":43.29629,"lon":5.40598,"is_reserved":false,"is_disabled":false,"rental_uris":{"android":"levelo://app?vid=a6851aa9-407c-426b-b1df-baf16148303d","ios":"levelo://app?vid=a6851aa9-407c-426b-b1df-baf16148303d"},"vehicle_type_id":"4","last_reported":1729735884,"current_range_meters":28400,"station_id":"ce4bh0h2rcd13ifvqd60","pricing_plan_id":"cebpf4jnsgd1na2vs0mg"},{"bike_id":"c89ce7df-fc83-43a7-9971-2b4baf34d8f2","system_id":"levelo_inurba_marseille","lat":43.31198,"lon":5.3871,"is_reserved":false,"is_disabled":false,"rental_uris":{"android":"levelo://app?vid=c89ce7df-fc83-43a7-9971-2b4baf34d8f2","ios":"levelo://app?vid=c89ce7df-fc83-43a7-9971-2b4baf34d8f2"},"vehicle_type_id":"4","last_reported":1729735884,"current_range_meters":32800,"station_id":"ce4bgv12rcd13ifvqcp0","pricing_plan_id":"cebpf4jnsgd1na2vs0mg"},{"bike_id":"78b3255c-91c8-4ff8-8e93-5ecd48719f38","system_id":"levelo_inurba_marseille","lat":43.31282,"lon":5.40162,"is_reserved":false,"is_disabled":false,"rental_uris":{"android":"levelo://app?vid=78b3255c-91c8-4ff8-8e93-5ecd48719f38","ios":"levelo://app?vid=78b3255c-91c8-4ff8-8e93-5ecd48719f38"},"vehicle_type_id":"4","last_reported":1729735884,"current_range_meters":38800,"station_id":"ce4bh092rcd13ifvqd30","pricing_plan_id":"cebpf4jnsgd1na2vs0mg"},{"bike_id":"9a0af0d7-bb17-4d5c-aa62-31f0b495007a","system_id":"levelo_inurba_marseille","lat":43.24391,"lon":5.37053,"is_reserved":false,"is_disabled":false,"rental_uris":{"android":"levelo://app?vid=9a0af0d7-bb17-4d5c-aa62-31f0b495007a","ios":"levelo://app?vid=9a0af0d7-bb17-4d5c-aa62-31f0b495007a"},"vehicle_type_id":"4","last_reported":1729735884,"current_range_meters":27200,"station_id":"ce4bhhh2rcd13ifvqfk0","pricing_plan_id":"cebpf4jnsgd1na2vs0mg"},{"bike_id":"10ef942d-e564-4c77-a954-c43e0e015bbc","system_id":"levelo_inurba_marseille","lat":43.23186,"lon":5.39983,"is_reserved":false,"is_disabled":false,"rental_uris":{"android":"levelo://app?vid=10ef942d-e564-4c77-a954-c43e0e015bbc","ios":"levelo://app?vid=10ef942d-e564-4c77-a954-c43e0e015bbc"},"vehicle_type_id":"4","last_reported":1729735884,"current_range_meters":14000,"station_id":"ce4bhn12rcd13ifvqgqg","pricing_plan_id":"cebpf4jnsgd1na2vs0mg"},{"bike_id":"4439b8bb-2263-4fec-b135-4b051f3ea948","system_id":"levelo_inurba_marseille","lat":43.30617,"lon":5.37231,"is_reserved":false,"is_disabled":false,"rental_uris":{"android":"levelo://app?vid=4439b8bb-2263-4fec-b135-4b051f3ea948","ios":"levelo://app?vid=4439b8bb-2263-4fec-b135-4b051f3ea948"},"vehicle_type_id":"4","last_reported":1729735884,"current_range_meters":19200,"station_id":"ce4bgqh2rcd13ifvqc4g","pricing_plan_id":"cebpf4jnsgd1na2vs0mg"},{"bike_id":"dbc70d8b-a234-4921-9028-e2139c64d155","system_id":"levelo_inurba_marseille","lat":43.30693,"lon":5.40073,"is_reserved":false,"is_disabled":false,"rental_uris":{"android":"levelo://app?vid=dbc70d8b-a234-4921-9028-e2139c64d155","ios":"levelo://app?vid=dbc70d8b-a234-4921-9028-e2139c64d155"},"vehicle_type_id":"4","last_reported":1729735884,"current_range_meters":37600,"station_id":"","pricing_plan_id":"cebpf4jnsgd1na2vs0mg"},{"bike_id":"0bc90dc2-cf8c-457e-a6aa-9b91de95f992","system_id":"levelo_inurba_marseille","lat":43.22785,"lon":5.41583,"is_reserved":false,"is_disabled":false,"rental_uris":{"android":"levelo://app?vid=0bc90dc2-cf8c-457e-a6aa-9b91de95f992","ios":"levelo://app?vid=0bc90dc2-cf8c-457e-a6aa-9b91de95f992"},"vehicle_type_id":"4","last_reported":1729735884,"current_range_meters":34800,"station_id":"","pricing_plan_id":"cebpf4jnsgd1na2vs0mg"},{"bike_id":"f3631442-88e4-4b99-802a-caff4044a5fa","system_id":"levelo_inurba_marseille","lat":43.2559,"lon":5.38233,"is_reserved":false,"is_disabled":false,"rental_uris":{"android":"levelo://app?vid=f3631442-88e4-4b99-802a-caff4044a5fa","ios":"levelo://app?vid=f3631442-88e4-4b99-802a-caff4044a5fa"},"vehicle_type_id":"4","last_reported":1729735884,"current_range_meters":11200,"station_id":"ce4bhih2rcd13ifvqfs0","pricing_plan_id":"cebpf4jnsgd1na2vs0mg"},{"bike_id":"67bf2a4e-b0b8-45b5-8898-2db548cfe92d","system_id":"levelo_inurba_marseille","lat":43.31323,"lon":5.39714,"is_reserved":false,"is_disabled":false,"rental_uris":{"android":"levelo://app?vid=67bf2a4e-b0b8-45b5-8898-2db548cfe92d","ios":"levelo://app?vid=67bf2a4e-b0b8-45b5-8898-2db548cfe92d"},"vehicle_type_id":"4","last_reported":1729735884,"current_range_meters":35200,"station_id":"ce4bgvp2rcd13ifvqcu0","pricing_plan_id":"cebpf4jnsgd1na2vs0mg"},{"bike_id":"9da1729a-9279-43a4-8c8a-e333b6f1c171","system_id":"levelo_inurba_marseille","lat":43.31535,"lon":5.38036,"is_reserved":false,"is_disabled":false,"rental_uris":{"android":"levelo://app?vid=9da1729a-9279-43a4-8c8a-e333b6f1c171","ios":"levelo://app?vid=9da1729a-9279-43a4-8c8a-e333b6f1c171"},"vehicle_type_id":"4","last_reported":1729735884,"current_range_meters":20000,"station_id":"ce4bhsp2rcd13ifvqi50","pricing_plan_id":"cebpf4jnsgd1na2vs0mg"},{"bike_id":"77f4b066-aec9-4c35-96ec-732b3f9a5964","system_id":"levelo_inurba_marseille","lat":43.27911,"lon":5.38002,"is_reserved":false,"is_disabled":false,"rental_uris":{"android":"levelo://app?vid=77f4b066-aec9-4c35-96ec-732b3f9a5964","ios":"levelo://app?vid=77f4b066-aec9-4c35-96ec-732b3f9a5964"},"vehicle_type_id":"4","last_reported":1729735884,"current_range_meters":35600,"station_id":"ce4bhf92rcd13ifvqf50","pricing_plan_id":"cebpf4jnsgd1na2vs0mg"},{"bike_id":"4246efd7-6801-4b7b-b007-6178b971f023","system_id":"levelo_inurba_marseille","lat":43.2842,"lon":5.39181,"is_reserved":false,"is_disabled":false,"rental_uris":{"android":"levelo://app?vid=4246efd7-6801-4b7b-b007-6178b971f023","ios":"levelo://app?vid=4246efd7-6801-4b7b-b007-6178b971f023"},"vehicle_type_id":"4","last_reported":1729735884,"current_range_meters":39200,"station_id":"ce4bhoh2rcd13ifvqh5g","pricing_plan_id":"cebpf4jnsgd1na2vs0mg"},{"bike_id":"7cefaade-1a0b-49d7-93f3-fffa5802ce05","system_id":"levelo_inurba_marseille","lat":43.33615,"lon":5.41038,"is_reserved":false,"is_disabled":false,"rental_uris":{"android":"levelo://app?vid=7cefaade-1a0b-49d7-93f3-fffa5802ce05","ios":"levelo://app?vid=7cefaade-1a0b-49d7-93f3-fffa5802ce05"},"vehicle_type_id":"4","last_reported":1729735884,"current_range_meters":8800,"station_id":"ce4bhqh2rcd13ifvqhmg","pricing_plan_id":"cebpf4jnsgd1na2vs0mg"},{"bike_id":"7397392f-0476-4392-864a-87abb3fc4e4a","system_id":"levelo_inurba_marseille","lat":43.30869,"lon":5.39646,"is_reserved":false,"is_disabled":false,"rental_uris":{"android":"levelo://app?vid=7397392f-0476-4392-864a-87abb3fc4e4a","ios":"levelo://app?vid=7397392f-0476-4392-864a-87abb3fc4e4a"},"vehicle_type_id":"4","last_reported":1729735884,"current_range_meters":23200,"station_id":"ce4bh012rcd13ifvqcv0","pricing_plan_id":"cebpf4jnsgd1na2vs0mg"},{"bike_id":"a0bfcec4-1019-4422-bc30-2e46cb48cb4e","system_id":"levelo_inurba_marseille","lat":43.33759,"lon":5.37455,"is_reserved":false,"is_disabled":false,"rental_uris":{"android":"levelo://app?vid=a0bfcec4-1019-4422-bc30-2e46cb48cb4e","ios":"levelo://app?vid=a0bfcec4-1019-4422-bc30-2e46cb48cb4e"},"vehicle_type_id":"4","last_reported":1729735884,"current_range_meters":24800,"station_id":"","pricing_plan_id":"cebpf4jnsgd1na2vs0mg"},{"bike_id":"106754a9-7f28-4856-ad68-7916862f566f","system_id":"levelo_inurba_marseille","lat":43.26801,"lon":5.40272,"is_reserved":false,"is_disabled":false,"rental_uris":{"android":"levelo://app?vid=106754a9-7f28-4856-ad68-7916862f566f","ios":"levelo://app?vid=106754a9-7f28-4856-ad68-7916862f566f"},"vehicle_type_id":"4","last_reported":1729735884,"current_range_meters":39200,"station_id":"ce501612rcd8frsf0b60","pricing_plan_id":"cebpf4jnsgd1na2vs0mg"},{"bike_id":"65831b18-6bfb-4f8d-8d3d-30340f302448","system_id":"levelo_inurba_marseille","lat":43.28888,"lon":5.35856,"is_reserved":false,"is_disabled":false,"rental_uris":{"android":"levelo://app?vid=65831b18-6bfb-4f8d-8d3d-30340f302448","ios":"levelo://app?vid=65831b18-6bfb-4f8d-8d3d-30340f302448"},"vehicle_type_id":"4","last_reported":1729735884,"current_range_meters":38800,"station_id":"ce4bhb12rcd13ifvqem0","pricing_plan_id":"cebpf4jnsgd1na2vs0mg"},{"bike_id":"178565c8-00cd-4ad6-b5d9-88108c13e2fe","system_id":"levelo_inurba_marseille","lat":43.28407,"lon":5.37515,"is_reserved":false,"is_disabled":false,"rental_uris":{"android":"levelo://app?vid=178565c8-00cd-4ad6-b5d9-88108c13e2fe","ios":"levelo://app?vid=178565c8-00cd-4ad6-b5d9-88108c13e2fe"},"vehicle_type_id":"4","last_reported":1729735884,"current_range_meters":38800,"station_id":"ce4bh412rcd13ifvqds0","pricing_plan_id":"cebpf4jnsgd1na2vs0mg"},{"bike_id":"080ebaa8-8ec4-48f7-ba07-6807b8a89ed1","system_id":"levelo_inurba_marseille","lat":43.25718,"lon":5.4111,"is_reserved":false,"is_disabled":false,"rental_uris":{"android":"levelo://app?vid=080ebaa8-8ec4-48f7-ba07-6807b8a89ed1","ios":"levelo://app?vid=080ebaa8-8ec4-48f7-ba07-6807b8a89ed1"},"vehicle_type_id":"4","last_reported":1729735884,"current_range_meters":38000,"station_id":"ce4bhkp2rcd13ifvqgd0","pricing_plan_id":"cebpf4jnsgd1na2vs0mg"},{"bike_id":"9cc86360-5eab-45ae-a458-952e8a91e43e","system_id":"levelo_inurba_marseille","lat":43.22929,"lon":5.35375,"is_reserved":false,"is_disabled":false,"rental_uris":{"android":"levelo://app?vid=9cc86360-5eab-45ae-a458-952e8a91e43e","ios":"levelo://app?vid=9cc86360-5eab-45ae-a458-952e8a91e43e"},"vehicle_type_id":"4","last_reported":1729735884,"current_range_meters":18800,"station_id":"cpo3532slgdg3j2ikp40","pricing_plan_id":"cebpf4jnsgd1na2vs0mg"},{"bike_id":"6a59c62a-6469-4803-bb55-4ccaec2d09ea","system_id":"levelo_inurba_marseille","lat":43.29524,"lon":5.3903,"is_reserved":false,"is_disabled":false,"rental_uris":{"android":"levelo://app?vid=6a59c62a-6469-4803-bb55-4ccaec2d09ea","ios":"levelo://app?vid=6a59c62a-6469-4803-bb55-4ccaec2d09ea"},"vehicle_type_id":"4","last_reported":1729735884,"current_range_meters":37600,"station_id":"ce4bh3p2rcd13ifvqdp0","pricing_plan_id":"cebpf4jnsgd1na2vs0mg"},{"bike_id":"8d963c98-7b40-4d2d-baca-f7997ab149f2","system_id":"levelo_inurba_marseille","lat":43.28845,"lon":5.39317,"is_reserved":false,"is_disabled":false,"rental_uris":{"android":"levelo://app?vid=8d963c98-7b40-4d2d-baca-f7997ab149f2","ios":"levelo://app?vid=8d963c98-7b40-4d2d-baca-f7997ab149f2"},"vehicle_type_id":"4","last_reported":1729735884,"current_range_meters":37600,"station_id":"ce4bh2p2rcd13ifvqdi0","pricing_plan_id":"cebpf4jnsgd1na2vs0mg"},{"bike_id":"334339a2-7b68-46ab-84f8-5314e58f57b5","system_id":"levelo_inurba_marseille","lat":43.30802,"lon":5.38157,"is_reserved":false,"is_disabled":false,"rental_uris":{"android":"levelo://app?vid=334339a2-7b68-46ab-84f8-5314e58f57b5","ios":"levelo://app?vid=334339a2-7b68-46ab-84f8-5314e58f57b5"},"vehicle_type_id":"4","last_reported":1729735884,"current_range_meters":37600,"station_id":"ce4bgt12rcd13ifvqce0","pricing_plan_id":"cebpf4jnsgd1na2vs0mg"},{"bike_id":"d4178fde-d9f1-489b-bf7f-8a98157127e4","system_id":"levelo_inurba_marseille","lat":43.29448,"lon":5.39742,"is_reserved":false,"is_disabled":false,"rental_uris":{"android":"levelo://app?vid=d4178fde-d9f1-489b-bf7f-8a98157127e4","ios":"levelo://app?vid=d4178fde-d9f1-489b-bf7f-8a98157127e4"},"vehicle_type_id":"4","last_reported":1729735884,"current_range_meters":38800,"station_id":"ce4bh3h2rcd13ifvqdo0","pricing_plan_id":"cebpf4jnsgd1na2vs0mg"},{"bike_id":"2791bec2-772a-458f-a57f-284af3c571b9","system_id":"levelo_inurba_marseille","lat":43.27613,"lon":5.36121,"is_reserved":false,"is_disabled":false,"rental_uris":{"android":"levelo://app?vid=2791bec2-772a-458f-a57f-284af3c571b9","ios":"levelo://app?vid=2791bec2-772a-458f-a57f-284af3c571b9"},"vehicle_type_id":"4","last_reported":1729735884,"current_range_meters":38800,"station_id":"ce4bgj92rcd13ifvqbe0","pricing_plan_id":"cebpf4jnsgd1na2vs0mg"},{"bike_id":"4a0e8360-a05c-4109-81a9-fc615adb8a72","system_id":"levelo_inurba_marseille","lat":43.3087,"lon":5.39642,"is_reserved":false,"is_disabled":false,"rental_uris":{"android":"levelo://app?vid=4a0e8360-a05c-4109-81a9-fc615adb8a72","ios":"levelo://app?vid=4a0e8360-a05c-4109-81a9-fc615adb8a72"},"vehicle_type_id":"4","last_reported":1729735884,"current_range_meters":18000,"station_id":"ce4bh012rcd13ifvqcv0","pricing_plan_id":"cebpf4jnsgd1na2vs0mg"},{"bike_id":"be230514-183a-4179-859d-7351e13f49e9","system_id":"levelo_inurba_marseille","lat":43.28051,"lon":5.36931,"is_reserved":false,"is_disabled":false,"rental_uris":{"android":"levelo://app?vid=be230514-183a-4179-859d-7351e13f49e9","ios":"levelo://app?vid=be230514-183a-4179-859d-7351e13f49e9"},"vehicle_type_id":"4","last_reported":1729735884,"current_range_meters":34000,"station_id":"ce4bha12rcd13ifvqef0","pricing_plan_id":"cebpf4jnsgd1na2vs0mg"},{"bike_id":"bbb4600c-9366-419c-8bcb-c3c1c4bc5806","system_id":"levelo_inurba_marseille","lat":43.27498,"lon":5.42453,"is_reserved":false,"is_disabled":false,"rental_uris":{"android":"levelo://app?vid=bbb4600c-9366-419c-8bcb-c3c1c4bc5806","ios":"levelo://app?vid=bbb4600c-9366-419c-8bcb-c3c1c4bc5806"},"vehicle_type_id":"4","last_reported":1729735884,"current_range_meters":39200,"station_id":"ce4bhn92rcd13ifvqgrg","pricing_plan_id":"cebpf4jnsgd1na2vs0mg"},{"bike_id":"5fbfa25f-18f4-4163-b216-2ccea5d0ec25","system_id":"levelo_inurba_marseille","lat":43.2656,"lon":5.37274,"is_reserved":false,"is_disabled":false,"rental_uris":{"android":"levelo://app?vid=5fbfa25f-18f4-4163-b216-2ccea5d0ec25","ios":"levelo://app?vid=5fbfa25f-18f4-4163-b216-2ccea5d0ec25"},"vehicle_type_id":"4","last_reported":1729735884,"current_range_meters":6400,"station_id":"ce4bhg12rcd13ifvqf70","pricing_plan_id":"cebpf4jnsgd1na2vs0mg"},{"bike_id":"8d0955dd-8bd4-4746-baaa-693d700c8601","system_id":"levelo_inurba_marseille","lat":43.31888,"lon":5.40726,"is_reserved":false,"is_disabled":false,"rental_uris":{"android":"levelo://app?vid=8d0955dd-8bd4-4746-baaa-693d700c8601","ios":"levelo://app?vid=8d0955dd-8bd4-4746-baaa-693d700c8601"},"vehicle_type_id":"4","last_reported":1729735884,"current_range_meters":29600,"station_id":"ce4bhq12rcd13ifvqhig","pricing_plan_id":"cebpf4jnsgd1na2vs0mg"},{"bike_id":"cfcebfa7-3f59-4d32-a8f1-45e59f6e2f26","system_id":"levelo_inurba_marseille","lat":43.22936,"lon":5.35381,"is_reserved":false,"is_disabled":false,"rental_uris":{"android":"levelo://app?vid=cfcebfa7-3f59-4d32-a8f1-45e59f6e2f26","ios":"levelo://app?vid=cfcebfa7-3f59-4d32-a8f1-45e59f6e2f26"},"vehicle_type_id":"4","last_reported":1729735884,"current_range_meters":33600,"station_id":"cpo3532slgdg3j2ikp40","pricing_plan_id":"cebpf4jnsgd1na2vs0mg"},{"bike_id":"3e381e9b-65a4-436a-a571-b4ba1ee13663","system_id":"levelo_inurba_marseille","lat":43.32477,"lon":5.36566,"is_reserved":false,"is_disabled":false,"rental_uris":{"android":"levelo://app?vid=3e381e9b-65a4-436a-a571-b4ba1ee13663","ios":"levelo://app?vid=3e381e9b-65a4-436a-a571-b4ba1ee13663"},"vehicle_type_id":"4","last_reported":1729735884,"current_range_meters":17200,"station_id":"ce4bhs12rcd13ifvqhvg","pricing_plan_id":"cebpf4jnsgd1na2vs0mg"},{"bike_id":"a3dcf7ee-59f1-4f53-936b-77f32b59962d","system_id":"levelo_inurba_marseille","lat":43.27504,"lon":5.42452,"is_reserved":false,"is_disabled":false,"rental_uris":{"android":"levelo://app?vid=a3dcf7ee-59f1-4f53-936b-77f32b59962d","ios":"levelo://app?vid=a3dcf7ee-59f1-4f53-936b-77f32b59962d"},"vehicle_type_id":"4","last_reported":1729735884,"current_range_meters":36400,"station_id":"ce4bhn92rcd13ifvqgrg","pricing_plan_id":"cebpf4jnsgd1na2vs0mg"},{"bike_id":"3a526fc6-5f14-429c-8829-287dc38ef285","system_id":"levelo_inurba_marseille","lat":43.22932,"lon":5.35373,"is_reserved":false,"is_disabled":false,"rental_uris":{"android":"levelo://app?vid=3a526fc6-5f14-429c-8829-287dc38ef285","ios":"levelo://app?vid=3a526fc6-5f14-429c-8829-287dc38ef285"},"vehicle_type_id":"4","last_reported":1729735884,"current_range_meters":34000,"station_id":"cpo3532slgdg3j2ikp40","pricing_plan_id":"cebpf4jnsgd1na2vs0mg"},