{"last_updated":1762867411,"ttl":60,"version":"2.2","data":{"bikes":[{"bike_id":"d7db12ce-11cc-4c98-8751-ac59baa5d7aa","system_id":"levelo_inurba_marseille","lat":43.337444,"lon":5.374475,"is_reserved":false,"is_disabled":false,"rental_uris":{"android":"levelo://app?vid=d7db12ce-11cc-4c98-8751-ac59baa5d7aa","ios":"levelo://app?vid=d7db12ce-11cc-4c98-8751-ac59baa5d7aa"},"vehicle_type_id":"4","last_reported":1762867411,"current_range_meters":0,"station_id":"","pricing_plan_id":"cebpf4jnsgd1na2vs0mg"},{"bike_id":"5ea448c9-be17-4c9d-b421-2f94a9c03759","system_id":"levelo_inurba_marseille","lat":43.23185,"lon":5.4,"is_reserved":false,"is_disabled":true,"rental_uris":{"android":"levelo://app?vid=5ea448c9-be17-4c9d-b421-2f94a9c03759","ios":"levelo://app?vid=5ea448c9-be17-4c9d-b421-2f94a9c03759"},"vehicle_type_id":"4","last_reported":1762867411,"current_range_meters":2800,"station_id":"ce4bhn12rcd13ifvqgqg","pricing_plan_id":"cebpf4jnsgd1na2vs0mg"},{"bike_id":"67548eb9-677e-4cf8-894f-808d451a981f","system_id":"levelo_inurba_marseille","lat":43.280367,"lon":5.36945,"is_reserved":false,"is_disabled":false,"rental_uris":{"android":"levelo://app?vid=67548eb9-677e-4cf8-894f-808d451a981f","ios":"levelo://app?vid=67548eb9-677e-4cf8-894f-808d451a981f"},"vehicle_type_id":"4","last_reported":1762867411,"current_range_meters":2800,"station_id":"ce4bha12rcd13ifvqef0","pricing_plan_id":"cebpf4jnsgd1na2vs0mg"},{"bike_id":"3ac55e8f-0d41-4491-bdbd-48cc94f76f54","system_id":"levelo_inurba_marseille","lat":43.211963,"lon":5.350707,"is_reserved":false,"is_disabled":true,"rental_uris":{"android":"levelo://app?vid=3ac55e8f-0d41-4491-bdbd-48cc94f76f54","ios":"levelo://app?vid=3ac55e8f-0d41-4491-bdbd-48cc94f76f54"},"vehicle_type_id":"4","last_reported":1762867411,"current_range_meters":2800,"station_id":"st_cvj6sg6p6f1abm77japg","pricing_plan_id":"cebpf4jnsgd1na2vs0mg"},{"bike_id":"36352652-c798-4776-973b-b4c55e1b75b0","system_id":"levelo_inurba_marseille","lat":43.24386,"lon":5.3706,"is_reserved":false,"is_disabled":false,"rental_uris":{"android":"levelo://app?vid=36352652-c798-4776-973b-b4c55e1b75b0","ios":"levelo://app?vid=36352652-c798-4776-973b-b4c55e1b75b0"},"vehicle_type_id":"4","last_reported":1762867411,"current_range_meters":3200,"station_id":"ce4bhhh2rcd13ifvqfk0","pricing_plan_id":"cebpf4jnsgd1na2vs0mg"},{"bike_id":"14625651-8db8-4fcc-b91e-1514ba9c07f7","system_id":"levelo_inurba_marseille","lat":43.290051,"lon":5.356181,"is_reserved":false,"is_disabled":false,"rental_uris":{"android":"levelo://app?vid=14625651-8db8-4fcc-b91e-1514ba9c07f7","ios":"levelo://app?vid=14625651-8db8-4fcc-b91e-1514ba9c07f7"},"vehicle_type_id":"4","last_reported":1762867411,"current_range_meters":3200,"station_id":"ce4bhb92rcd13ifvqen0","pricing_plan_id":"cebpf4jnsgd1na2vs0mg"},{"bike_id":"b22c8aae-0b60-4121-965b-b645da2a635e","system_id":"levelo_inurba_marseille","lat":43.29261,"lon":5.37622,"is_reserved":false,"is_disabled":false,"rental_uris":{"android":"levelo://app?vid=b22c8aae-0b60-4121-965b-b645da2a635e","ios":"levelo://app?vid=b22c8aae-0b60-4121-965b-b645da2a635e"},"vehicle_type_id":"4","last_reported":1762867411,"current_range_meters":3200,"station_id":"ce4bgi12rcd13ifvqb80","pricing_plan_id":"cebpf4jnsgd1na2vs0mg"},{"bike_id":"2ef0988c-b0a1-4074-b85b-4089fd36c92a","system_id":"levelo_inurba_marseille","lat":43.21747,"lon":5.34602,"is_reserved":false,"is_disabled":false,"rental_uris":{"android":"levelo://app?vid=2ef0988c-b0a1-4074-b85b-4089fd36c92a","ios":"levelo://app?vid=2ef0988c-b0a1-4074-b85b-4089fd36c92a"},"vehicle_type_id":"4","last_reported":1762867411,"current_range_meters":3200,"station_id":"st_cvj6r9ubvosntc0bgbag","pricing_plan_id":"cebpf4jnsgd1na2vs0mg"},{"bike_id":"2356f9d5-b809-4cfb-8612-de4fb95a816f","system_id":"levelo_inurba_marseille","lat":43.25508,"lon":5.37655,"is_reserved":false,"is_disabled":false,"rental_uris":{"android":"levelo://app?vid=2356f9d5-b809-4cfb-8612-de4fb95a816f","ios":"levelo://app?vid=2356f9d5-b809-4cfb-8612-de4fb95a816f"},"vehicle_type_id":"4","last_reported":1762867411,"current_range_meters":3200,"station_id":"ce4bhh12rcd13ifvqff0","pricing_plan_id":"cebpf4jnsgd1na2vs0mg"},{"bike_id":"6c4306e4-74fe-46bb-8a0d-b66cd38c2741","system_id":"levelo_inurba_marseille","lat":43.23193,"lon":5.35554,"is_reserved":false,"is_disabled":false,"rental_uris":{"android":"levelo://app?vid=6c4306e4-74fe-46bb-8a0d-b66cd38c2741","ios":"levelo://app?vid=6c4306e4-74fe-46bb-8a0d-b66cd38c2741"},"vehicle_type_id":"4","last_reported":1762867411,"current_range_meters":3600,"station_id":"ce4bhu92rcd13ifvqi70","pricing_plan_id":"cebpf4jnsgd1na2vs0mg"},{"bike_id":"269e7930-7514-47e5-b939-f92ab8ad2ea1","system_id":"levelo_inurba_marseille","lat":43.27913,"lon":5.3802,"is_reserved":false,"is_disabled":false,"rental_uris":{"android":"levelo://app?vid=269e7930-7514-47e5-b939-f92ab8ad2ea1","ios":"levelo://app?vid=269e7930-7514-47e5-b939-f92ab8ad2ea1"},"vehicle_type_id":"4","last_reported":1762867411,"current_range_meters":3600,"station_id":"ce4bhf92rcd13ifvqf50","pricing_plan_id":"cebpf4jnsgd1na2vs0mg"},{"bike_id":"ac0be0b0-60a9-4cb7-bd08-19b488685017","system_id":"levelo_inurba_marseille","lat":43.25749,"lon":5.41922,"is_reserved":false,"is_disabled":false,"rental_uris":{"android":"levelo://app?vid=ac0be0b0-60a9-4cb7-bd08-19b488685017","ios":"levelo://app?vid=ac0be0b0-60a9-4cb7-bd08-19b488685017"},"vehicle_type_id":"4","last_reported":1762867411,"current_range_meters":3600,"station_id":"","pricing_plan_id":"cebpf4jnsgd1na2vs0mg"},{"bike_id":"4f224d3b-ff2e-4db4-b483-d1da599b53fc","system_id":"levelo_inurba_marseille","lat":43.26924,"lon":5.38933,"is_reserved":false,"is_disabled":false,"rental_uris":{"android":"levelo://app?vid=4f224d3b-ff2e-4db4-b483-d1da599b53fc","ios":"levelo://app?vid=4f224d3b-ff2e-4db4-b483-d1da599b53fc"},"vehicle_type_id":"4","last_reported":1762867411,"current_range_meters":4000,"station_id":"ce4bhhh2rcd13ifvqfl0","pricing_plan_id":"cebpf4jnsgd1na2vs0mg"},{"bike_id":"82774535-b147-48c1-8c51-057570d171d8","system_id":"levelo_inurba_marseille","lat":43.24385,"lon":5.37062,"is_reserved":false,"is_disabled":false,"rental_uris":{"android":"levelo://app?vid=82774535-b147-48c1-8c51-057570d171d8","ios":"levelo://app?vid=82774535-b147-48c1-8c51-057570d171d8"},"vehicle_type_id":"4","last_reported":1762867411,"current_range_meters":4000,"station_id":"ce4bhhh2rcd13ifvqfk0","pricing_plan_id":"cebpf4jnsgd1na2vs0mg"},{"bike_id":"d20f726a-ff62-4b5c-9067-7cde13a7faf6","system_id":"levelo_inurba_marseille","lat":43.3045,"lon":5.38902,"is_reserved":false,"is_disabled":false,"rental_uris":{"android":"levelo://app?vid=d20f726a-ff62-4b5c-9067-7cde13a7faf6","ios":"levelo://app?vid=d20f726a-ff62-4b5c-9067-7cde13a7faf6"},"vehicle_type_id":"4","last_reported":1762867411,"current_range_meters":4000,"station_id":"ce4bgk12rcd13ifvqbi0","pricing_plan_id":"cebpf4jnsgd1na2vs0mg"},{"bike_id":"ad1c8150-f69d-4cc2-bcbf-e328de393a66","system_id":"levelo_inurba_marseille","lat":43.33917,"lon":5.41521,"is_reserved":false,"is_disabled":false,"rental_uris":{"android":"levelo://app?vid=ad1c8150-f69d-4cc2-bcbf-e328de393a66","ios":"levelo://app?vid=ad1c8150-f69d-4cc2-bcbf-e328de393a66"},"vehicle_type_id":"4","last_reported":1762867411,"current_range_meters":4000,"station_id":"","pricing_plan_id":"cebpf4jnsgd1na2vs0mg"},{"bike_id":"a7d48197-d208-4793-bec0-59406d41b644","system_id":"levelo_inurba_marseille","lat":43.289527,"lon":5.364038,"is_reserved":false,"is_disabled":false,"rental_uris":{"android":"levelo://app?vid=a7d48197-d208-4793-bec0-59406d41b644","ios":"levelo://app?vid=a7d48197-d208-4793-bec0-59406d41b644"},"vehicle_type_id":"4","last_reported":1762867411,"current_range_meters":4000,"station_id":"ce4bhc92rcd13ifvqetg","pricing_plan_id":"cebpf4jnsgd1na2vs0mg"},{"bike_id":"b7355fb1-ee93-49cc-a64d-b6b39fc68832","system_id":"levelo_inurba_marseille","lat":43.28567,"lon":5.39498,"is_reserved":false,"is_disabled":false,"rental_uris":{"android":"levelo://app?vid=b7355fb1-ee93-49cc-a64d-b6b39fc68832","ios":"levelo://app?vid=b7355fb1-ee93-49cc-a64d-b6b39fc68832"},"vehicle_type_id":"4","last_reported":1762867411,"current_range_meters":4400,"station_id":"ce4bh292rcd13ifvqdg0","pricing_plan_id":"cebpf4jnsgd1na2vs0mg"},{"bike_id":"f0cfd0c6-f315-41b8-8938-c49fa83f12e1","system_id":"levelo_inurba_marseille","lat":43.290065,"lon":5.356148,"is_reserved":false,"is_disabled":false,"rental_uris":{"android":"levelo://app?vid=f0cfd0c6-f315-41b8-8938-c49fa83f12e1","ios":"levelo://app?vid=f0cfd0c6-f315-41b8-8938-c49fa83f12e1"},"vehicle_type_id":"4","last_reported":1762867411,"current_range_meters":4400,"station_id":"ce4bhb92rcd13ifvqen0","pricing_plan_id":"cebpf4jnsgd1na2vs0mg"},{"bike_id":"cc92b1cd-69aa-4b31-b044-e7802fb49ab7","system_id":"levelo_inurba_marseille","lat":43.30279,"lon":5.37706,"is_reserved":false,"is_disabled":false,"rental_uris":{"android":"levelo://app?vid=cc92b1cd-69aa-4b31-b044-e7802fb49ab7","ios":"levelo://app?vid=cc92b1cd-69aa-4b31-b044-e7802fb49ab7"},"vehicle_type_id":"4","last_reported":1762867411,"current_range_meters":4400,"station_id":"ce4bguh2rcd13ifvqcj0","pricing_plan_id":"cebpf4jnsgd1na2vs0mg"},{"bike_id":"2ee5369c-0228-41ef-98a4-063896c4fd2d","system_id":"levelo_inurba_marseille","lat":43.26777,"lon":5.39418,"is_reserved":false,"is_disabled":false,"rental_uris":{"android":"levelo://app?vid=2ee5369c-0228-41ef-98a4-063896c4fd2d","ios":"levelo://app?vid=2ee5369c-0228-41ef-98a4-063896c4fd2d"},"vehicle_type_id":"4","last_reported":1762867411,"current_range_meters":4400,"station_id":"ce4bhh12rcd13ifvqfg0","pricing_plan_id":"cebpf4jnsgd1na2vs0mg"},{"bike_id":"cd4ade1f-411b-485d-b4c6-bc07ee1cb5be","system_id":"levelo_inurba_marseille","lat":43.28999,"lon":5.35616,"is_reserved":false,"is_disabled":false,"rental_uris":{"android":"levelo://app?vid=cd4ade1f-411b-485d-b4c6-bc07ee1cb5be","ios":"levelo://app?vid=cd4ade1f-411b-485d-b4c6-bc07ee1cb5be"},"vehicle_type_id":"4","last_reported":1762867411,"current_range_meters":4400,"station_id":"ce4bhb92rcd13ifvqen0","pricing_plan_id":"cebpf4jnsgd1na2vs0mg"},{"bike_id":"7d2ebfdd-512d-42e3-9fb2-42055a115727","system_id":"levelo_inurba_marseille","lat":43.2937,"lon":5.3785,"is_reserved":false,"is_disabled":false,"rental_uris":{"android":"levelo://app?vid=7d2ebfdd-512d-42e3-9fb2-42055a115727","ios":"levelo://app?vid=7d2ebfdd-512d-42e3-9fb2-42055a115727"},"vehicle_type_id":"4","last_reported":1762867411,"current_range_meters":4800,"station_id":"ce4bgjh2rcd13ifvqbf0","pricing_plan_id":"cebpf4jnsgd1na2vs0mg"},{"bike_id":"832d211b-a3c6-4985-9978-503ace54fb72","system_id":"levelo_inurba_marseille","lat":43.292325,"lon":5.360842,"is_reserved":false,"is_disabled":false,"rental_uris":{"android":"levelo://app?vid=832d211b-a3c6-4985-9978-503ace54fb72","ios":"levelo://app?vid=832d211b-a3c6-4985-9978-503ace54fb72"},"vehicle_type_id":"4","last_reported":1762867411,"current_range_meters":5600,"station_id":"ce4bhbh2rcd13ifvqeqg","pricing_plan_id":"cebpf4jnsgd1na2vs0mg"},{"bike_id":"d711fd67-c44e-400e-a980-039b6203fe2d","system_id":"levelo_inurba_marseille","lat":43.27953,"lon":5.41046,"is_reserved":false,"is_disabled":false,"rental_uris":{"android":"levelo://app?vid=d711fd67-c44e-400e-a980-039b6203fe2d","ios":"levelo://app?vid=d711fd67-c44e-400e-a980-039b6203fe2d"},"vehicle_type_id":"4","last_reported":1762867411,"current_range_meters":5600,"station_id":"ce4bhnp2rcd13ifvqh0g","pricing_plan_id":"cebpf4jnsgd1na2vs0mg"},{"bike_id":"54965217-11dc-4498-84f7-9a27189da4da","system_id":"levelo_inurba_marseille","lat":43.26544,"lon":5.37306,"is_reserved":false,"is_disabled":false,"rental_uris":{"android":"levelo://app?vid=54965217-11dc-4498-84f7-9a27189da4da","ios":"levelo://app?vid=54965217-11dc-4498-84f7-9a27189da4da"},"vehicle_type_id":"4","last_reported":1762867411,"current_range_meters":5600,"station_id":"ce4bhg12rcd13ifvqf70","pricing_plan_id":"cebpf4jnsgd1na2vs0mg"},{"bike_id":"85ed4701-5433-4797-8255-bb385bb4e0cf","system_id":"levelo_inurba_marseille","lat":43.31354,"lon":5.37932,"is_reserved":false,"is_disabled":false,"rental_uris":{"android":"levelo://app?vid=85ed4701-5433-4797-8255-bb385bb4e0cf","ios":"levelo://app?vid=85ed4701-5433-4797-8255-bb385bb4e0cf"},"vehicle_type_id":"4","last_reported":1762867411,"current_range_meters":5600,"station_id":"","pricing_plan_id":"cebpf4jnsgd1na2vs0mg"},{"bike_id":"a2e0f52d-3f1e-4e1e-aadd-748387ad5809","system_id":"levelo_inurba_marseille","lat":43.22858,"lon":5.35267,"is_reserved":false,"is_disabled":false,"rental_uris":{"android":"levelo://app?vid=a2e0f52d-3f1e-4e1e-aadd-748387ad5809","ios":"levelo://app?vid=a2e0f52d-3f1e-4e1e-aadd-748387ad5809"},"vehicle_type_id":"4","last_reported":1762867411,"current_range_meters":5600,"station_id":"ce4bhih2rcd13ifvqfr0","pricing_plan_id":"cebpf4jnsgd1na2vs0mg"},{"bike_id":"e154f026-aee3-4f6f-9162-c9e8c5d87936","system_id":"levelo_inurba_marseille","lat":43.319959,"lon":5.381475,"is_reserved":false,"is_disabled":false,"rental_uris":{"android":"levelo://app?vid=e154f026-aee3-4f6f-9162-c9e8c5d87936","ios":"levelo://app?vid=e154f026-aee3-4f6f-9162-c9e8c5d87936"},"vehicle_type_id":"4","last_reported":1762867411,"current_range_meters":5600,"station_id":"ce4bhr12rcd13ifvqhpg","pricing_plan_id":"cebpf4jnsgd1na2vs0mg"},{"bike_id":"80c1bc7b-11dd-4336-a990-3c7f15a445f7","system_id":"levelo_inurba_marseille","lat":43.295734,"lon":5.375287,"is_reserved":false,"is_disabled":false,"rental_uris":{"android":"levelo://app?vid=80c1bc7b-11dd-4336-a990-3c7f15a445f7","ios":"levelo://app?vid=80c1bc7b-11dd-4336-a990-3c7f15a445f7"},"vehicle_type_id":"4","last_reported":1762867411,"current_range_meters":6000,"station_id":"ce4bgh92rcd13ifvqb50","pricing_plan_id":"cebpf4jnsgd1na2vs0mg"},{"bike_id":"c5aff95c-c272-4c31-b62b-691f8d7eeb24","system_id":"levelo_inurba_marseille","lat":43.30138,"lon":5.37434,"is_reserved":false,"is_disabled":false,"rental_uris":{"android":"levelo://app?vid=c5aff95c-c272-4c31-b62b-691f8d7eeb24","ios":"levelo://app?vid=c5aff95c-c272-4c31-b62b-691f8d7eeb24"},"vehicle_type_id":"4","last_reported":1762867411,"current_range_meters":6000,"station_id":"ce4bgs92rcd13ifvqcc0","pricing_plan_id":"cebpf4jnsgd1na2vs0mg"},{"bike_id":"c182a19c-1571-4d31-b828-f4e2dfe83680","system_id":"levelo_inurba_marseille","lat":43.293072,"lon":5.371823,"is_reserved":false,"is_disabled":false,"rental_uris":{"android":"levelo://app?vid=c182a19c-1571-4d31-b828-f4e2dfe83680","ios":"levelo://app?vid=c182a19c-1571-4d31-b828-f4e2dfe83680"},"vehicle_type_id":"4","last_reported":1762867411,"current_range_meters":6000,"station_id":"ce4bgh92rcd13ifvqb40","pricing_plan_id":"cebpf4jnsgd1na2vs0mg"},{"bike_id":"cf43613f-abb5-47da-b6eb-65d95bbc45d4","system_id":"levelo_inurba_marseille","lat":43.3042,"lon":5.41312,"is_reserved":false,"is_disabled":false,"rental_uris":{"android":"levelo://app?vid=cf43613f-abb5-47da-b6eb-65d95bbc45d4","ios":"levelo://app?vid=cf43613f-abb5-47da-b6eb-65d95bbc45d4"},"vehicle_type_id":"4","last_reported":1762867411,"current_range_meters":6000,"station_id":"ce4bhop2rcd13ifvqh8g","pricing_plan_id":"cebpf4jnsgd1na2vs0mg"},{"bike_id":"4dba09d3-835d-4313-a6d8-3da20a1325dd","system_id":"levelo_inurba_marseille","lat":43.29889,"lon":5.43672,"is_reserved":false,"is_disabled":false,"rental_uris":{"android":"levelo://app?vid=4dba09d3-835d-4313-a6d8-3da20a1325dd","ios":"levelo://app?vid=4dba09d3-835d-4313-a6d8-3da20a1325dd"},"vehicle_type_id":"4","last_reported":1762867411,"current_range_meters":6400,"station_id":"ce4bhpp2rcd13ifvqhfg","pricing_plan_id":"cebpf4jnsgd1na2vs0mg"},{"bike_id":"8fa8b230-f66f-45ca-a74c-526505f75156","system_id":"levelo_inurba_marseille","lat":43.21748,"lon":5.34615,"is_reserved":false,"is_disabled":false,"rental_uris":{"android":"levelo://app?vid=8fa8b230-f66f-45ca-a74c-526505f75156","ios":"levelo://app?vid=8fa8b230-f66f-45ca-a74c-526505f75156"},"vehicle_type_id":"4","last_reported":1762867411,"current_range_meters":6400,"station_id":"st_cvj6r9ubvosntc0bgbag","pricing_plan_id":"cebpf4jnsgd1na2vs0mg"},{"bike_id":"1f5a8b7a-4f85-432e-8a2e-1320e8301faa","system_id":"levelo_inurba_marseille","lat":43.33152,"lon":5.377,"is_reserved":false,"is_disabled":false,"rental_uris":{"android":"levelo://app?vid=1f5a8b7a-4f85-432e-8a2e-1320e8301faa","ios":"levelo://app?vid=1f5a8b7a-4f85-432e-8a2e-1320e8301faa"},"vehicle_type_id":"4","last_reported":1762867411,"current_range_meters":6400,"station_id":"st_d46cu089ee8s73dldbu0","pricing_plan_id":"cebpf4jnsgd1na2vs0mg"},{"bike_id":"3f32305e-ee32-45ae-a55a-01d0376e5092","system_id":"levelo_inurba_marseille","lat":43.29235,"lon":5.36057,"is_reserved":false,"is_disabled":false,"rental_uris":{"android":"levelo://app?vid=3f32305e-ee32-45ae-a55a-01d0376e5092","ios":"levelo://app?vid=3f32305e-ee32-45ae-a55a-01d0376e5092"},"vehicle_type_id":"4","last_reported":1762867411,"current_range_meters":6400,"station_id":"ce4bhbh2rcd13ifvqeqg","pricing_plan_id":"cebpf4jnsgd1na2vs0mg"},{"bike_id":"17ab77d6-f2ef-420b-9e2f-8838b340bbff","system_id":"levelo_inurba_marseille","lat":43.292077,"lon":5.35876,"is_reserved":false,"is_disabled":false,"rental_uris":{"android":"levelo://app?vid=17ab77d6-f2ef-420b-9e2f-8838b340bbff","ios":"levelo://app?vid=17ab77d6-f2ef-420b-9e2f-8838b340bbff"},"vehicle_type_id":"4","last_reported":1762867411,"current_range_meters":6400,"station_id":"ce4bhb12rcd13ifvqel0","pricing_plan_id":"cebpf4jnsgd1na2vs0mg"},{"bike_id":"355d0a72-63a4-43ac-addc-15604eb0aa69","system_id":"levelo_inurba_marseille","lat":43.29919,"lon":5.36389,"is_reserved":false,"is_disabled":false,"rental_uris":{"android":"levelo://app?vid=355d0a72-63a4-43ac-addc-15604eb0aa69","ios":"levelo://app?vid=355d0a72-63a4-43ac-addc-15604eb0aa69"},"vehicle_type_id":"4","last_reported":1762867411,"current_range_meters":6400,"station_id":"","pricing_plan_id":"cebpf4jnsgd1na2vs0mg"},{"bike_id":"74989642-f0eb-4ce1-860a-f25d57a98855","system_id":"levelo_inurba_marseille","lat":43.24075,"lon":5.37758,"is_reserved":false,"is_disabled":false,"rental_uris":{"android":"levelo://app?vid=74989642-f0eb-4ce1-860a-f25d57a98855","ios":"levelo://app?vid=74989642-f0eb-4ce1-860a-f25d57a98855"},"vehicle_type_id":"4","last_reported":1762867411,"current_range_meters":6800,"station_id":"ce4bhnp2rcd13ifvqgvg","pricing_plan_id":"cebpf4jnsgd1na2vs0mg"},{"bike_id":"5c4c716a-838a-4b05-a5aa-0d596dc48da7","system_id":"levelo_inurba_marseille","lat":43.279383,"lon":5.410549,"is_reserved":false,"is_disabled":false,"rental_uris":{"android":"levelo://app?vid=5c4c716a-838a-4b05-a5aa-0d596dc48da7","ios":"levelo://app?vid=5c4c716a-838a-4b05-a5aa-0d596dc48da7"},"vehicle_type_id":"4","last_reported":1762867411,"current_range_meters":6800,"station_id":"","pricing_plan_id":"cebpf4jnsgd1na2vs0mg"},{"bike_id":"f3729b9a-7339-4641-8915-28d8df32d00b","system_id":"levelo_inurba_marseille","lat":43.298,"lon":5.38101,"is_reserved":false,"is_disabled":false,"rental_uris":{"android":"levelo://app?vid=f3729b9a-7339-4641-8915-28d8df32d00b","ios":"levelo://app?vid=f3729b9a-7339-4641-8915-28d8df32d00b"},"vehicle_type_id":"4","last_reported":1762867411,"current_range_meters":6800,"station_id":"ce4bgip2rcd13ifvqbb0","pricing_plan_id":"cebpf4jnsgd1na2vs0mg"},{"bike_id":"f8c8aed6-ec3a-4f40-9750-49d689c3ca05","system_id":"levelo_inurba_marseille","lat":43.286939,"lon":5.399906,"is_reserved":false,"is_disabled":false,"rental_uris":{"android":"levelo://app?vid=f8c8aed6-ec3a-4f40-9750-49d689c3ca05","ios":"levelo://app?vid=f8c8aed6-ec3a-4f40-9750-49d689c3ca05"},"vehicle_type_id":"4","last_reported":1762867411,"current_range_meters":6800,"station_id":"ce4bho92rcd13ifvqh3g","pricing_plan_id":"cebpf4jnsgd1na2vs0mg"},{"bike_id":"a403f6e5-d826-44fd-8e69-15b38e61b2ad","system_id":"levelo_inurba_marseille","lat":43.284152,"lon":5.375062,"is_reserved":false,"is_disabled":false,"rental_uris":{"android":"levelo://app?vid=a403f6e5-d826-44fd-8e69-15b38e61b2ad","ios":"levelo://app?vid=a403f6e5-d826-44fd-8e69-15b38e61b2ad"},"vehicle_type_id":"4","last_reported":1762867411,"current_range_meters":6800,"station_id":"ce4bh412rcd13ifvqds0","pricing_plan_id":"cebpf4jnsgd1na2vs0mg"},{"bike_id":"d4472d86-b09e-4935-bd7a-8abdcc74923f","system_id":"levelo_inurba_marseille","lat":43.28698,"lon":5.37397,"is_reserved":false,"is_disabled":false,"rental_uris":{"android":"levelo://app?vid=d4472d86-b09e-4935-bd7a-8abdcc74923f","ios":"levelo://app?vid=d4472d86-b09e-4935-bd7a-8abdcc74923f"},"vehicle_type_id":"4","last_reported":1762867411,"current_range_meters":7200,"station_id":"ce4bh3p2rcd13ifvqdq0","pricing_plan_id":"cebpf4jnsgd1na2vs0mg"},{"bike_id":"a153bb7a-facf-4d89-8fb0-01e6272ba505","system_id":"levelo_inurba_marseille","lat":43.26974,"lon":5.38819,"is_reserved":false,"is_disabled":false,"rental_uris":{"android":"levelo://app?vid=a153bb7a-facf-4d89-8fb0-01e6272ba505","ios":"levelo://app?vid=a153bb7a-facf-4d89-8fb0-01e6272ba505"},"vehicle_type_id":"4","last_reported":1762867411,"current_range_meters":7200,"station_id":"","pricing_plan_id":"cebpf4jnsgd1na2vs0mg"},{"bike_id":"c620c9fc-398f-4dca-8fdd-2b652311235d","system_id":"levelo_inurba_marseille","lat":43.21195,"lon":5.35073,"is_reserved":false,"is_disabled":true,"rental_uris":{"android":"levelo://app?vid=c620c9fc-398f-4dca-8fdd-2b652311235d","ios":"levelo://app?vid=c620c9fc-398f-4dca-8fdd-2b652311235d"},"vehicle_type_id":"4","last_reported":1762867411,"current_range_meters":7200,"station_id":"st_cvj6sg6p6f1abm77japg","pricing_plan_id":"cebpf4jnsgd1na2vs0mg"},{"bike_id":"3f334cc0-ddac-4cc1-8292-ec4a0639b17c","system_id":"levelo_inurba_marseille","lat":43.28858,"lon":5.42521,"is_reserved":false,"is_disabled":false,"rental_uris":{"android":"levelo://app?vid=3f334cc0-ddac-4cc1-8292-ec4a0639b17c","ios":"levelo://app?vid=3f334cc0-ddac-4cc1-8292-ec4a0639b17c"},"vehicle_type_id":"4","last_reported":1762867411,"current_range_meters":7200,"station_id":"st_d3b462108ojc7389ooeg","pricing_plan_id":"cebpf4jnsgd1na2vs0mg"},{"bike_id":"a3596bad-feb2-44a4-bcc4-377c30607a23","system_id":"levelo_inurba_marseille","lat":43.30133,"lon":5.43118,"is_reserved":false,"is_disabled":false,"rental_uris":{"android":"levelo://app?vid=a3596bad-feb2-44a4-bcc4-377c30607a23","ios":"levelo://app?vid=a3596bad-feb2-44a4-bcc4-377c30607a23"},"vehicle_type_id":"4","last_reported":1762867411,"current_range_meters":7200,"station_id":"st_d3js3co5814s73ftftug","pricing_plan_id":"cebpf4jnsgd1na2vs0mg"},{"bike_id":"ab8c3c26-7f2c-44cb-819f-81becbcc3d6c","system_id":"levelo_inurba_marseille","lat":43.304202,"lon":5.397342,"is_reserved":false,"is_disabled":true,"rental_uris":{"android":"levelo://app?vid=ab8c3c26-7f2c-44cb-819f-81becbcc3d6c","ios":"levelo://app?vid=ab8c3c26-7f2c-44cb-819f-81becbcc3d6c"},"vehicle_type_id":"4","last_reported":1762867411,"current_range_meters":7200,"station_id":"ce4bh092rcd13ifvqd20","pricing_plan_id":"cebpf4jnsgd1na2vs0mg"},{"bike_id":"847a851a-eb3e-4840-b131-8dc4f56bcd3f","system_id":"levelo_inurba_marseille","lat":43.29255,"lon":5.36855,"is_reserved":false,"is_disabled":false,"rental_uris":{"android":"levelo://app?vid=847a851a-eb3e-4840-b131-8dc4f56bcd3f","ios":"levelo://app?vid=847a851a-eb3e-4840-b131-8dc4f56bcd3f"},"vehicle_type_id":"4","last_reported":1762867411,"current_range_meters":7200,"station_id":"ce4bhbp2rcd13ifvqesg","pricing_plan_id":"cebpf4jnsgd1na2vs0mg"},{"bike_id":"d045cc96-28c3-4ce5-b170-9a1b65f34ca8","system_id":"levelo_inurba_marseille","lat":43.21743,"lon":5.34617,"is_reserved":false,"is_disabled":false,"rental_uris":{"android":"levelo://app?vid=d045cc96-28c3-4ce5-b170-9a1b65f34ca8","ios":"levelo://app?vid=d045cc96-28c3-4ce5-b170-9a1b65f34ca8"},"vehicle_type_id":"4","last_reported":1762867411,"current_range_meters":7200,"station_id":"st_cvj6r9ubvosntc0bgbag","pricing_plan_id":"cebpf4jnsgd1na2vs0mg"},{"bike_id":"c466c71b-c79d-4930-8b0b-ef438a6a445e","system_id":"levelo_inurba_marseille","lat":43.295113,"lon":5.375212,"is_reserved":false,"is_disabled":false,"rental_uris":{"android":"levelo://app?vid=c466c71b-c79d-4930-8b0b-ef438a6a445e","ios":"levelo://app?vid=c466c71b-c79d-4930-8b0b-ef438a6a445e"},"vehicle_type_id":"4","last_reported":1762867411,"current_range_meters":7200,"station_id":"ce4bgkp2rcd13ifvqbmg","pricing_plan_id":"cebpf4jnsgd1na2vs0mg"},{"bike_id":"64a20e40-a6fd-48eb-a2d5-705239f93aec","system_id":"levelo_inurba_marseille","lat":43.21195,"lon":5.35069,"is_reserved":false,"is_disabled":false,"rental_uris":{"android":"levelo://app?vid=64a20e40-a6fd-48eb-a2d5-705239f93aec","ios":"levelo://app?vid=64a20e40-a6fd-48eb-a2d5-705239f93aec"},"vehicle_type_id":"4","last_reported":1762867411,"current_range_meters":8000,"station_id":"st_cvj6sg6p6f1abm77japg","pricing_plan_id":"cebpf4jnsgd1na2vs0mg"},{"bike_id":"0ac9890f-bcbb-458a-af41-f8a63cd30cb6","system_id":"levelo_inurba_marseille","lat":43.255862,"lon":5.38234,"is_reserved":false,"is_disabled":false,"rental_uris":{"android":"levelo://app?vid=0ac9890f-bcbb-458a-af41-f8a63cd30cb6","ios":"levelo://app?vid=0ac9890f-bcbb-458a-af41-f8a63cd30cb6"},"vehicle_type_id":"4","last_reported":1762867411,"current_range_meters":8000,"station_id":"ce4bhih2rcd13ifvqfs0","pricing_plan_id":"cebpf4jnsgd1na2vs0mg"},{"bike_id":"d315980f-e55c-4a2b-8743-e45ce3622e8d","system_id":"levelo_inurba_marseille","lat":43.2846,"lon":5.484,"is_reserved":false,"is_disabled":false,"rental_uris":{"android":"levelo://app?vid=d315980f-e55c-4a2b-8743-e45ce3622e8d","ios":"levelo://app?vid=d315980f-e55c-4a2b-8743-e45ce3622e8d"},"vehicle_type_id":"4","last_reported":1762867411,"current_range_meters":8000,"station_id":"st_d3svhcjqgbts73a3dn0g","pricing_plan_id":"cebpf4jnsgd1na2vs0mg"},{"bike_id":"3a99adea-ea9e-4318-b411-9740e461dbd3","system_id":"levelo_inurba_marseille","lat":43.217514,"lon":5.3461,"is_reserved":false,"is_disabled":false,"rental_uris":{"android":"levelo://app?vid=3a99adea-ea9e-4318-b411-9740e461dbd3","ios":"levelo://app?vid=3a99adea-ea9e-4318-b411-9740e461dbd3"},"vehicle_type_id":"4","last_reported":1762867411,"current_range_meters":8000,"station_id":"st_cvj6r9ubvosntc0bgbag","pricing_plan_id":"cebpf4jnsgd1na2vs0mg"},{"bike_id":"cf89d162-dcc8-4c8c-8d9d-49c038cc71ab","system_id":"levelo_inurba_marseille","lat":43.23187,"lon":5.35561,"is_reserved":false,"is_disabled":false,"rental_uris":{"android":"levelo://app?vid=cf89d162-dcc8-4c8c-8d9d-49c038cc71ab","ios":"levelo://app?vid=cf89d162-dcc8-4c8c-8d9d-49c038cc71ab"},"vehicle_type_id":"4","last_reported":1762867411,"current_range_meters":8000,"station_id":"ce4bhu92rcd13ifvqi70","pricing_plan_id":"cebpf4jnsgd1na2vs0mg"},{"bike_id":"99f555dd-b87a-4899-bc4d-afec626c1e28","system_id":"levelo_inurba_marseille","lat":43.28478,"lon":5.48408,"is_reserved":false,"is_disabled":false,"rental_uris":{"android":"levelo://app?vid=99f555dd-b87a-4899-bc4d-afec626c1e28","ios":"levelo://app?vid=99f555dd-b87a-4899-bc4d-afec626c1e28"},"vehicle_type_id":"4","last_reported":1762867411,"current_range_meters":8000,"station_id":"","pricing_plan_id":"cebpf4jnsgd1na2vs0mg"},{"bike_id":"7546e092-b850-4ea3-a980-064e8e7f01f4","system_id":"levelo_inurba_marseille","lat":43.299252,"lon":5.374723,"is_reserved":false,"is_disabled":false,"rental_uris":{"android":"levelo://app?vid=7546e092-b850-4ea3-a980-064e8e7f01f4","ios":"levelo://app?vid=7546e092-b850-4ea3-a980-064e8e7f01f4"},"vehicle_type_id":"4","last_reported":1762867411,"current_range_meters":8000,"station_id":"ce4bgjh2rcd13ifvqbg0","pricing_plan_id":"cebpf4jnsgd1na2vs0mg"},{"bike_id":"abed7bfb-a572-4f83-835e-283e0db6d7ae","system_id":"levelo_inurba_marseille","lat":43.28414,"lon":5.34998,"is_reserved":false,"is_disabled":false,"rental_uris":{"android":"levelo://app?vid=abed7bfb-a572-4f83-835e-283e0db6d7ae","ios":"levelo://app?vid=abed7bfb-a572-4f83-835e-283e0db6d7ae"},"vehicle_type_id":"4","last_reported":1762867411,"current_range_meters":8400,"station_id":"ce4bhbh2rcd13ifvqepg","pricing_plan_id":"cebpf4jnsgd1na2vs0mg"},{"bike_id":"285edc02-c40d-4315-906b-2d38b29ac259","system_id":"levelo_inurba_marseille","lat":43.21728,"lon":5.34619,"is_reserved":false,"is_disabled":false,"rental_uris":{"android":"levelo://app?vid=285edc02-c40d-4315-906b-2d38b29ac259","ios":"levelo://app?vid=285edc02-c40d-4315-906b-2d38b29ac259"},"vehicle_type_id":"4","last_reported":1762867411,"current_range_meters":8400,"station_id":"","pricing_plan_id":"cebpf4jnsgd1na2vs0mg"},{"bike_id":"64b63aef-7c8c-48e6-8d97-7db7ee139095","system_id":"levelo_inurba_marseille","lat":43.21193,"lon":5.35072,"is_reserved":false,"is_disabled":false,"rental_uris":{"android":"levelo://app?vid=64b63aef-7c8c-48e6-8d97-7db7ee139095","ios":"levelo://app?vid=64b63aef-7c8c-48e6-8d97-7db7ee139095"},"vehicle_type_id":"4","last_reported":1762867411,"current_range_meters":8400,"station_id":"st_cvj6sg6p6f1abm77japg","pricing_plan_id":"cebpf4jnsgd1na2vs0mg"},{"bike_id":"fb5f509d-9e43-4785-bec5-80d7a4311eb0","system_id":"levelo_inurba_marseille","lat":43.296204,"lon":5.377264,"is_reserved":false,"is_disabled":false,"rental_uris":{"android":"levelo://app?vid=fb5f509d-9e43-4785-bec5-80d7a4311eb0","ios":"levelo://app?vid=fb5f509d-9e43-4785-bec5-80d7a4311eb0"},"vehicle_type_id":"4","last_reported":1762867411,"current_range_meters":8400,"station_id":"ce4bgi92rcd13ifvqb90","pricing_plan_id":"cebpf4jnsgd1na2vs0mg"},{"bike_id":"1d80f4dd-2352-4315-81af-42c042c7fe37","system_id":"levelo_inurba_marseille","lat":43.28854,"lon":5.39327,"is_reserved":false,"is_disabled":true,"rental_uris":{"android":"levelo://app?vid=1d80f4dd-2352-4315-81af-42c042c7fe37","ios":"levelo://app?vid=1d80f4dd-2352-4315-81af-42c042c7fe37"},"vehicle_type_id":"4","last_reported":1762867411,"current_range_meters":8400,"station_id":"ce4bh2p2rcd13ifvqdi0","pricing_plan_id":"cebpf4jnsgd1na2vs0mg"},{"bike_id":"14baa056-a9e5-4f3a-9fa4-c78651e6aba4","system_id":"levelo_inurba_marseille","lat":43.29262,"lon":5.37622,"is_reserved":false,"is_disabled":false,"rental_uris":{"android":"levelo://app?vid=14baa056-a9e5-4f3a-9fa4-c78651e6aba4","ios":"levelo://app?vid=14baa056-a9e5-4f3a-9fa4-c78651e6aba4"},"vehicle_type_id":"4","last_reported":1762867411,"current_range_meters":8400,"station_id":"ce4bgi12rcd13ifvqb80","pricing_plan_id":"cebpf4jnsgd1na2vs0mg"},{"bike_id":"655749b5-016b-4b14-a7d8-9b231bfcb865","system_id":"levelo_inurba_marseille","lat":43.29036,"lon":5.39965,"is_reserved":false,"is_disabled":false,"rental_uris":{"android":"levelo://app?vid=655749b5-016b-4b14-a7d8-9b231bfcb865","ios":"levelo://app?vid=655749b5-016b-4b14-a7d8-9b231bfcb865"},"vehicle_type_id":"4","last_reported":1762867411,"current_range_meters":8400,"station_id":"ce4bh392rcd13ifvqdm0","pricing_plan_id":"cebpf4jnsgd1na2vs0mg"},{"bike_id":"c0f9fd85-43f7-4dad-9679-7593581a1294","system_id":"levelo_inurba_marseille","lat":43.23193,"lon":5.35555,"is_reserved":false,"is_disabled":false,"rental_uris":{"android":"levelo://app?vid=c0f9fd85-43f7-4dad-9679-7593581a1294","ios":"levelo://app?vid=c0f9fd85-43f7-4dad-9679-7593581a1294"},"vehicle_type_id":"4","last_reported":1762867411,"current_range_meters":8400,"station_id":"ce4bhu92rcd13ifvqi70","pricing_plan_id":"cebpf4jnsgd1na2vs0mg"},{"bike_id":"d38085d7-dc4f-4f41-9147-e54a8e0ecf81","system_id":"levelo_inurba_marseille","lat":43.30793,"lon":5.38166,"is_reserved":false,"is_disabled":false,"rental_uris":{"android":"levelo://app?vid=d38085d7-dc4f-4f41-9147-e54a8e0ecf81","ios":"levelo://app?vid=d38085d7-dc4f-4f41-9147-e54a8e0ecf81"},"vehicle_type_id":"4","last_reported":1762867411,"current_range_meters":8400,"station_id":"ce4bgt12rcd13ifvqce0","pricing_plan_id":"cebpf4jnsgd1na2vs0mg"},{"bike_id":"b2be4fa2-44ee-40dc-acc7-1755c74f1c5d","system_id":"levelo_inurba_marseille","lat":43.297513,"lon":5.411069,"is_reserved":false,"is_disabled":false,"rental_uris":{"android":"levelo://app?vid=b2be4fa2-44ee-40dc-acc7-1755c74f1c5d","ios":"levelo://app?vid=b2be4fa2-44ee-40dc-acc7-1755c74f1c5d"},"vehicle_type_id":"4","last_reported":1762867411,"current_range_meters":8400,"station_id":"","pricing_plan_id":"cebpf4jnsgd1na2vs0mg"},{"bike_id":"7f92d5ca-256c-4d8d-b83c-d76dca3762de","system_id":"levelo_inurba_marseille","lat":43.21196,"lon":5.35075,"is_reserved":false,"is_disabled":false,"rental_uris":{"android":"levelo://app?vid=7f92d5ca-256c-4d8d-b83c-d76dca3762de","ios":"levelo://app?vid=7f92d5ca-256c-4d8d-b83c-d76dca3762de"},"vehicle_type_id":"4","last_reported":1762867411,"current_range_meters":8400,"station_id":"st_cvj6sg6p6f1abm77japg","pricing_plan_id":"cebpf4jnsgd1na2vs0mg"},{"bike_id":"1648104b-81bc-4751-ace2-e97e844cd43d","system_id":"levelo_inurba_marseille","lat":43.284822,"lon":5.483923,"is_reserved":false,"is_disabled":false,"rental_uris":{"android":"levelo://app?vid=1648104b-81bc-4751-ace2-e97e844cd43d","ios":"levelo://app?vid=1648104b-81bc-4751-ace2-e97e844cd43d"},"vehicle_type_id":"4","last_reported":1762867411,"current_range_meters":8400,"station_id":"st_d3svhcjqgbts73a3dn0g","pricing_plan_id":"cebpf4jnsgd1na2vs0mg"},{"bike_id":"349b2ad9-adea-4dd9-9ac9-fffb121b5424","system_id":"levelo_inurba_marseille","lat":43.29892,"lon":5.37537,"is_reserved":false,"is_disabled":false,"rental_uris":{"android":"levelo://app?vid=349b2ad9-adea-4dd9-9ac9-fffb121b5424","ios":"levelo://app?vid=349b2ad9-adea-4dd9-9ac9-fffb121b5424"},"vehicle_type_id":"4","last_reported":1762867411,"current_range_meters":8800,"station_id":"","pricing_plan_id":"cebpf4jnsgd1na2vs0mg"},{"bike_id":"aef4b542-8f89-444a-bf6c-205c18b5a7ab","system_id":"levelo_inurba_marseille","lat":43.22934,"lon":5.35378,"is_reserved":false,"is_disabled":false,"rental_uris":{"android":"levelo://app?vid=aef4b542-8f89-444a-bf6c-205c18b5a7ab","ios":"levelo://app?vid=aef4b542-8f89-444a-bf6c-205c18b5a7ab"},"vehicle_type_id":"4","last_reported":1762867411,"current_range_meters":8800,"station_id":"cpo3532slgdg3j2ikp40","pricing_plan_id":"cebpf4jnsgd1na2vs0mg"},{"bike_id":"cbf939b6-2605-48bf-9a72-5d4233a5d154","system_id":"levelo_inurba_marseille","lat":43.337444,"lon":5.374475,"is_reserved":false,"is_disabled":false,"rental_uris":{"android":"levelo://app?vid=cbf939b6-2605-48bf-9a72-5d4233a5d154","ios":"levelo://app?vid=cbf939b6-2605-48bf-9a72-5d4233a5d154"},"vehicle_type_id":"4","last_reported":1762867411,"current_range_meters":8800,"station_id":"","pricing_plan_id":"cebpf4jnsgd1na2vs0mg"},{"bike_id":"a67be477-51ba-4e25-b10a-eee4d1b7dda9","system_id":"levelo_inurba_marseille","lat":43.307381,"lon":5.368288,"is_reserved":false,"is_disabled":false,"rental_uris":{"android":"levelo://app?vid=a67be477-51ba-4e25-b10a-eee4d1b7dda9","ios":"levelo://app?vid=a67be477-51ba-4e25-b10a-eee4d1b7dda9"},"vehicle_type_id":"4","last_reported":1762867411,"current_range_meters":8800,"station_id":"","pricing_plan_id":"cebpf4jnsgd1na2vs0mg"},{"bike_id":"faf69266-31c1-445b-a96a-4f59093a22b8","system_id":"levelo_inurba_marseille","lat":43.21196,"lon":5.35076,"is_reserved":false,"is_disabled":false,"rental_uris":{"android":"levelo://app?vid=faf69266-31c1-445b-a96a-4f59093a22b8","ios":"levelo://app?vid=faf69266-31c1-445b-a96a-4f59093a22b8"},"vehicle_type_id":"4","last_reported":1762867411,"current_range_meters":8800,"station_id":"st_cvj6sg6p6f1abm77japg","pricing_plan_id":"cebpf4jnsgd1na2vs0mg"},{"bike_id":"a6bdf21f-a1d2-4def-a11f-b6f07d15f833","system_id":"levelo_inurba_marseille","lat":43.30091,"lon":5.38274,"is_reserved":false,"is_disabled":false,"rental_uris":{"android":"levelo://app?vid=a6bdf21f-a1d2-4def-a11f-b6f07d15f833","ios":"levelo://app?vid=a6bdf21f-a1d2-4def-a11f-b6f07d15f833"},"vehicle_type_id":"4","last_reported":1762867411,"current_range_meters":8800,"station_id":"","pricing_plan_id":"cebpf4jnsgd1na2vs0mg"},{"bike_id":"37e11452-c108-437e-9b86-e35cffedc1ff","system_id":"levelo_inurba_marseille","lat":43.28405,"lon":5.3752,"is_reserved":false,"is_disabled":false,"rental_uris":{"android":"levelo://app?vid=37e11452-c108-437e-9b86-e35cffedc1ff","ios":"levelo://app?vid=37e11452-c108-437e-9b86-e35cffedc1ff"},"vehicle_type_id":"4","last_reported":1762867411,"current_range_meters":8800,"station_id":"ce4bh412rcd13ifvqds0","pricing_plan_id":"cebpf4jnsgd1na2vs0mg"},{"bike_id":"f9257489-7993-4dcd-9f30-a013c2dd23d8","system_id":"levelo_inurba_marseille","lat":43.30324,"lon":5.40438,"is_reserved":false,"is_disabled":false,"rental_uris":{"android":"levelo://app?vid=f9257489-7993-4dcd-9f30-a013c2dd23d8","ios":"levelo://app?vid=f9257489-7993-4dcd-9f30-a013c2dd23d8"},"vehicle_type_id":"4","last_reported":1762867411,"current_range_meters":8800,"station_id":"ce4bh012rcd13ifvqd10","pricing_plan_id":"cebpf4jnsgd1na2vs0mg"},{"bike_id":"88c73795-aba4-4e42-9dd4-be7914b96bba","system_id":"levelo_inurba_marseille","lat":43.2976,"lon":5.42777,"is_reserved":false,"is_disabled":false,"rental_uris":{"android":"levelo://app?vid=88c73795-aba4-4e42-9dd4-be7914b96bba","ios":"levelo://app?vid=88c73795-aba4-4e42-9dd4-be7914b96bba"},"vehicle_type_id":"4","last_reported":1762867411,"current_range_meters":8800,"station_id":"st_d3md5207bmas73dh9klg","pricing_plan_id":"cebpf4jnsgd1na2vs0mg"},{"bike_id":"6e6913ab-5565-44c2-bf61-26805575b411","system_id":"levelo_inurba_marseille","lat":43.298136,"lon":5.440616,"is_reserved":false,"is_disabled":false,"rental_uris":{"android":"levelo://app?vid=6e6913ab-5565-44c2-bf61-26805575b411","ios":"levelo://app?vid=6e6913ab-5565-44c2-bf61-26805575b411"},"vehicle_type_id":"4","last_reported":1762867411,"current_range_meters":9200,"station_id":"st_d3jp68qikq2c7381ktn0","pricing_plan_id":"cebpf4jnsgd1na2vs0mg"},{"bike_id":"0db5a8aa-8b3a-4f4d-9542-47bc674e0507","system_id":"levelo_inurba_marseille","lat":43.299389,"lon":5.365559,"is_reserved":false,"is_disabled":false,"rental_uris":{"android":"levelo://app?vid=0db5a8aa-8b3a-4f4d-9542-47bc674e0507","ios":"levelo://app?vid=0db5a8aa-8b3a-4f4d-9542-47bc674e0507"},"vehicle_type_id":"4","last_reported":1762867411,"current_range_meters":9200,"station_id":"ce4bgm92rcd13ifvqbr0","pricing_plan_id":"cebpf4jnsgd1na2vs0mg"},{"bike_id":"ad0a67f6-ced6-4891-89da-36f573830929","system_id":"levelo_inurba_marseille","lat":43.29275,"lon":5.36852,"is_reserved":false,"is_disabled":false,"rental_uris":{"android":"levelo://app?vid=ad0a67f6-ced6-4891-89da-36f573830929","ios":"levelo://app?vid=ad0a67f6-ced6-4891-89da-36f573830929"},"vehicle_type_id":"4","last_reported":1762867411,"current_range_meters":9200,"station_id":"ce4bhbp2rcd13ifvqesg","pricing_plan_id":"cebpf4jnsgd1na2vs0mg"},{"bike_id":"75d51a70-fba8-4320-bd0b-255572c6bbac","system_id":"levelo_inurba_marseille","lat":43.28265,"lon":5.35064,"is_reserved":false,"is_disabled":false,"rental_uris":{"android":"levelo://app?vid=75d51a70-fba8-4320-bd0b-255572c6bbac","ios":"levelo://app?vid=75d51a70-fba8-4320-bd0b-255572c6bbac"},"vehicle_type_id":"4","last_reported":1762867411,"current_range_meters":9200,"station_id":"ce4bhbp2rcd13ifvqerg","pricing_plan_id":"cebpf4jnsgd1na2vs0mg"},{"bike_id":"eb9866b2-7bff-47e0-a8eb-4a3632560d32","system_id":"levelo_inurba_marseille","lat":43.30418,"lon":5.41283,"is_reserved":false,"is_disabled":false,"rental_uris":{"android":"levelo://app?vid=eb9866b2-7bff-47e0-a8eb-4a3632560d32","ios":"levelo://app?vid=eb9866b2-7bff-47e0-a8eb-4a3632560d32"},"vehicle_type_id":"4","last_reported":1762867411,"current_range_meters":9200,"station_id":"ce4bhop2rcd13ifvqh8g","pricing_plan_id":"cebpf4jnsgd1na2vs0mg"},{"bike_id":"d14a3070-960e-421d-b5dc-419b8cc88005","system_id":"levelo_inurba_marseille","lat":43.31562,"lon":5.37649,"is_reserved":false,"is_disabled":false,"rental_uris":{"android":"levelo://app?vid=d14a3070-960e-421d-b5dc-419b8cc88005","ios":"levelo://app?vid=d14a3070-960e-421d-b5dc-419b8cc88005"},"vehicle_type_id":"4","last_reported":1762867411,"current_range_meters":9200,"station_id":"","pricing_plan_id":"cebpf4jnsgd1na2vs0mg"},{"bike_id":"a01d1762-8372-4ac8-8ff6-66a2be9e2827","system_id":"levelo_inurba_marseille","lat":43.28438,"lon":5.39208,"is_reserved":false,"is_disabled":false,"rental_uris":{"android":"levelo://app?vid=a01d1762-8372-4ac8-8ff6-66a2be9e2827","ios":"levelo://app?vid=a01d1762-8372-4ac8-8ff6-66a2be9e2827"},"vehicle_type_id":"4","last_reported":1762867411,"current_range_meters":9600,"station_id":"ce4bhoh2rcd13ifvqh5g","pricing_plan_id":"cebpf4jnsgd1na2vs0mg"},{"bike_id":"c4f30d8e-e873-46d4-a785-3519043a555c","system_id":"levelo_inurba_marseille","lat":43.301468,"lon":5.376337,"is_reserved":false,"is_disabled":false,"rental_uris":{"android":"levelo://app?vid=c4f30d8e-e873-46d4-a785-3519043a555c","ios":"levelo://app?vid=c4f30d8e-e873-46d4-a785-3519043a555c"},"vehicle_type_id":"4","last_reported":1762867411,"current_range_meters":9600,"station_id":"","pricing_plan_id":"cebpf4jnsgd1na2vs0mg"},{"bike_id":"c7a653bf-78a0-4c17-99dd-7da7db86003b","system_id":"levelo_inurba_marseille","lat":43.23971,"lon":5.3663,"is_reserved":false,"is_disabled":false,"rental_uris":{"android":"levelo://app?vid=c7a653bf-78a0-4c17-99dd-7da7db86003b","ios":"levelo://app?vid=c7a653bf-78a0-4c17-99dd-7da7db86003b"},"vehicle_type_id":"4","last_reported":1762867411,"current_range_meters":9600,"station_id":"ce4bhi12rcd13ifvqfp0","pricing_plan_id":"cebpf4jnsgd1na2vs0mg"},{"bike_id":"d4a86094-56fb-4627-b9a3-90b7de619fd0","system_id":"levelo_inurba_marseille","lat":43.28486,"lon":5.48404,"is_reserved":false,"is_disabled":false,"rental_uris":{"android":"levelo://app?vid=d4a86094-56fb-4627-b9a3-90b7de619fd0","ios":"levelo://app?vid=d4a86094-56fb-4627-b9a3-90b7de619fd0"},"vehicle_type_id":"4","last_reported":1762867411,"current_range_meters":9600,"station_id":"","pricing_plan_id":"cebpf4jnsgd1na2vs0mg"},{"bike_id":"5b1982e7-0eb7-4dfc-9df6-df35063bcd63","system_id":"levelo_inurba_marseille","lat":43.27363,"lon":5.36252,"is_reserved":false,"is_disabled":false,"rental_uris":{"android":"levelo://app?vid=5b1982e7-0eb7-4dfc-9df6-df35063bcd63","ios":"levelo://app?vid=5b1982e7-0eb7-4dfc-9df6-df35063bcd63"},"vehicle_type_id":"4","last_reported":1762867411,"current_range_meters":9600,"station_id":"ce4bhbh2rcd13ifvqeo0","pricing_plan_id":"cebpf4jnsgd1na2vs0mg"},{"bike_id":"0a0d87ee-447f-48c7-a9cd-e00ba4e992a2","system_id":"levelo_inurba_marseille","lat":43.28843,"lon":5.42525,"is_reserved":false,"is_disabled":false,"rental_uris":{"android":"levelo://app?vid=0a0d87ee-447f-48c7-a9cd-e00ba4e992a2","ios":"levelo://app?vid=0a0d87ee-447f-48c7-a9cd-e00ba4e992a2"},"vehicle_type_id":"4","last_reported":1762867411,"current_range_meters":9600,"station_id":"st_d3b462108ojc7389ooeg","pricing_plan_id":"cebpf4jnsgd1na2vs0mg"},{"bike_id":"21e33dd0-87b8-4a6a-916b-d090d3bff877","system_id":"levelo_inurba_marseille","lat":43.29438,"lon":5.39748,"is_reserved":false,"is_disabled":false,"rental_uris":{"android":"levelo://app?vid=21e33dd0-87b8-4a6a-916b-d090d3bff877","ios":"levelo://app?vid=21e33dd0-87b8-4a6a-916b-d090d3bff877"},"vehicle_type_id":"4","last_reported":1762867411,"current_range_meters":9600,"station_id":"ce4bh3h2rcd13ifvqdo0","pricing_plan_id":"cebpf4jnsgd1na2vs0mg"},{"bike_id":"4108dc6a-ebe2-4596-bd1a-dfa0ee3e425b","system_id":"levelo_inurba_marseille","lat":43.31073,"lon":5.38357,"is_reserved":false,"is_disabled":false,"rental_uris":{"android":"levelo://app?vid=4108dc6a-ebe2-4596-bd1a-dfa0ee3e425b","ios":"levelo://app?vid=4108dc6a-ebe2-4596-bd1a-dfa0ee3e425b"},"vehicle_type_id":"4","last_reported":1762867411,"current_range_meters":10000,"station_id":"ce4bgv92rcd13ifvqcr0","pricing_plan_id":"cebpf4jnsgd1na2vs0mg"},{"bike_id":"d1075786-ca9e-44d5-bc1a-13d1fcafcd0b","system_id":"levelo_inurba_marseille","lat":43.30607,"lon":5.37231,"is_reserved":false,"is_disabled":false,"rental_uris":{"android":"levelo://app?vid=d1075786-ca9e-44d5-bc1a-13d1fcafcd0b","ios":"levelo://app?vid=d1075786-ca9e-44d5-bc1a-13d1fcafcd0b"},"vehicle_type_id":"4","last_reported":1762867411,"current_range_meters":10000,"station_id":"ce4bgqh2rcd13ifvqc4g","pricing_plan_id":"cebpf4jnsgd1na2vs0mg"},{"bike_id":"ff087dac-12f7-44c4-80e9-1f707a8f5fdd","system_id":"levelo_inurba_marseille","lat":43.25508,"lon":5.37651,"is_reserved":false,"is_disabled":false,"rental_uris":{"android":"levelo://app?vid=ff087dac-12f7-44c4-80e9-1f707a8f5fdd","ios":"levelo://app?vid=ff087dac-12f7-44c4-80e9-1f707a8f5fdd"},"vehicle_type_id":"4","last_reported":1762867411,"current_range_meters":10000,"station_id":"ce4bhh12rcd13ifvqff0","pricing_plan_id":"cebpf4jnsgd1na2vs0mg"},{"bike_id":"6b3f8300-77d8-4683-b7f9-12968c1585e6","system_id":"levelo_inurba_marseille","lat":43.2809,"lon":5.37804,"is_reserved":false,"is_disabled":false,"rental_uris":{"android":"levelo://app?vid=6b3f8300-77d8-4683-b7f9-12968c1585e6","ios":"levelo://app?vid=6b3f8300-77d8-4683-b7f9-12968c1585e6"},"vehicle_type_id":"4","last_reported":1762867411,"current_range_meters":10000,"station_id":"ce4bha12rcd13ifvqee0","pricing_plan_id":"cebpf4jnsgd1na2vs0mg"},{"bike_id":"38060efd-ed0d-4fc8-a558-2a407ef2a801","system_id":"levelo_inurba_marseille","lat":43.317125,"lon":5.43707,"is_reserved":false,"is_disabled":false,"rental_uris":{"android":"levelo://app?vid=38060efd-ed0d-4fc8-a558-2a407ef2a801","ios":"levelo://app?vid=38060efd-ed0d-4fc8-a558-2a407ef2a801"},"vehicle_type_id":"4","last_reported":1762867411,"current_range_meters":10000,"station_id":"ce4bhp92rcd13ifvqhcg","pricing_plan_id":"cebpf4jnsgd1na2vs0mg"},{"bike_id":"4e226879-1039-40de-abb5-4505565eb518","system_id":"levelo_inurba_marseille","lat":43.211912,"lon":5.350769,"is_reserved":false,"is_disabled":false,"rental_uris":{"android":"levelo://app?vid=4e226879-1039-40de-abb5-4505565eb518","ios":"levelo://app?vid=4e226879-1039-40de-abb5-4505565eb518"},"vehicle_type_id":"4","last_reported":1762867411,"current_range_meters":10000,"station_id":"st_cvj5dfep6f1abm77gieg","pricing_plan_id":"cebpf4jnsgd1na2vs0mg"},{"bike_id":"d2e8f11f-4b2f-4529-a0ae-3ac538769ec8","system_id":"levelo_inurba_marseille","lat":43.230671,"lon":5.354894,"is_reserved":false,"is_disabled":false,"rental_uris":{"android":"levelo://app?vid=d2e8f11f-4b2f-4529-a0ae-3ac538769ec8","ios":"levelo://app?vid=d2e8f11f-4b2f-4529-a0ae-3ac538769ec8"},"vehicle_type_id":"4","last_reported":1762867411,"current_range_meters":10800,"station_id":"cpo3342slgdg3j2ifvpg","pricing_plan_id":"cebpf4jnsgd1na2vs0mg"},{"bike_id":"394f6dea-9fad-437e-8e37-97592279c7fd","system_id":"levelo_inurba_marseille","lat":43.276244,"lon":5.361053,"is_reserved":false,"is_disabled":false,"rental_uris":{"android":"levelo://app?vid=394f6dea-9fad-437e-8e37-97592279c7fd","ios":"levelo://app?vid=394f6dea-9fad-437e-8e37-97592279c7fd"},"vehicle_type_id":"4","last_reported":1762867411,"current_range_meters":10800,"station_id":"ce4bgj92rcd13ifvqbe0","pricing_plan_id":"cebpf4jnsgd1na2vs0mg"},{"bike_id":"4b75f4f1-28cd-4ac7-9b5c-b069daf52b29","system_id":"levelo_inurba_marseille","lat":43.31821,"lon":5.37433,"is_reserved":false,"is_disabled":false,"rental_uris":{"android":"levelo://app?vid=4b75f4f1-28cd-4ac7-9b5c-b069daf52b29","ios":"levelo://app?vid=4b75f4f1-28cd-4ac7-9b5c-b069daf52b29"},"vehicle_type_id":"4","last_reported":1762867411,"current_range_meters":10800,"station_id":"","pricing_plan_id":"cebpf4jnsgd1na2vs0mg"},{"bike_id":"53e93bf3-9a03-446c-81ee-fc4f5c7a8597","system_id":"levelo_inurba_marseille","lat":43.26202,"lon":5.37932,"is_reserved":false,"is_disabled":false,"rental_uris":{"android":"levelo://app?vid=53e93bf3-9a03-446c-81ee-fc4f5c7a8597","ios":"levelo://app?vid=53e93bf3-9a03-446c-81ee-fc4f5c7a8597"},"vehicle_type_id":"4","last_reported":1762867411,"current_range_meters":10800,"station_id":"ce4bhjp2rcd13ifvqg90","pricing_plan_id":"cebpf4jnsgd1na2vs0mg"},{"bike_id":"5acfb4f2-ec5e-450f-9319-769d75ee38b3","system_id":"levelo_inurba_marseille","lat":43.28476,"lon":5.484,"is_reserved":false,"is_disabled":false,"rental_uris":{"android":"levelo://app?vid=5acfb4f2-ec5e-450f-9319-769d75ee38b3","ios":"levelo://app?vid=5acfb4f2-ec5e-450f-9319-769d75ee38b3"},"vehicle_type_id":"4","last_reported":1762867411,"current_range_meters":10800,"station_id":"st_d3svhcjqgbts73a3dn0g","pricing_plan_id":"cebpf4jnsgd1na2vs0mg"},{"bike_id":"f83af9c0-8fda-43ee-82eb-a7ff9fef258e","system_id":"levelo_inurba_marseille","lat":43.29001,"lon":5.35614,"is_reserved":false,"is_disabled":false,"rental_uris":{"android":"levelo://app?vid=f83af9c0-8fda-43ee-82eb-a7ff9fef258e","ios":"levelo://app?vid=f83af9c0-8fda-43ee-82eb-a7ff9fef258e"},"vehicle_type_id":"4","last_reported":1762867411,"current_range_meters":11200,"station_id":"ce4bhb92rcd13ifvqen0","pricing_plan_id":"cebpf4jnsgd1na2vs0mg"},{"bike_id":"5369ca34-7723-43dc-a1d0-03c4269b2e4a","system_id":"levelo_inurba_marseille","lat":43.312836,"lon":5.377994,"is_reserved":false,"is_disabled":false,"rental_uris":{"android":"levelo://app?vid=5369ca34-7723-43dc-a1d0-03c4269b2e4a","ios":"levelo://app?vid=5369ca34-7723-43dc-a1d0-03c4269b2e4a"},"vehicle_type_id":"4","last_reported":1762867411,"current_range_meters":11200,"station_id":"","pricing_plan_id":"cebpf4jnsgd1na2vs0mg"},{"bike_id":"ed71783a-d5ea-49c7-9b5d-fadfcb9d180d","system_id":"levelo_inurba_marseille","lat":43.21739,"lon":5.34604,"is_reserved":false,"is_disabled":false,"rental_uris":{"android":"levelo://app?vid=ed71783a-d5ea-49c7-9b5d-fadfcb9d180d","ios":"levelo://app?vid=ed71783a-d5ea-49c7-9b5d-fadfcb9d180d"},"vehicle_type_id":"4","last_reported":1762867411,"current_range_meters":11200,"station_id":"st_cvj6r9ubvosntc0bgbag","pricing_plan_id":"cebpf4jnsgd1na2vs0mg"},{"bike_id":"c37a07d0-759c-4ac5-a3f5-b314b9032f52","system_id":"levelo_inurba_marseille","lat":43.29955,"lon":5.38201,"is_reserved":false,"is_disabled":false,"rental_uris":{"android":"levelo://app?vid=c37a07d0-759c-4ac5-a3f5-b314b9032f52","ios":"levelo://app?vid=c37a07d0-759c-4ac5-a3f5-b314b9032f52"},"vehicle_type_id":"4","last_reported":1762867411,"current_range_meters":11200,"station_id":"","pricing_plan_id":"cebpf4jnsgd1na2vs0mg"},{"bike_id":"5a41be73-ab8f-4aad-9b65-439fc298089b","system_id":"levelo_inurba_marseille","lat":43.21184,"lon":5.35069,"is_reserved":false,"is_disabled":false,"rental_uris":{"android":"levelo://app?vid=5a41be73-ab8f-4aad-9b65-439fc298089b","ios":"levelo://app?vid=5a41be73-ab8f-4aad-9b65-439fc298089b"},"vehicle_type_id":"4","last_reported":1762867411,"current_range_meters":11200,"station_id":"st_cvj6sg6p6f1abm77japg","pricing_plan_id":"cebpf4jnsgd1na2vs0mg"},{"bike_id":"69aff1d4-05e6-4619-92db-0e4a943e4f45","system_id":"levelo_inurba_marseille","lat":43.3047,"lon":5.379119,"is_reserved":false,"is_disabled":true,"rental_uris":{"android":"levelo://app?vid=69aff1d4-05e6-4619-92db-0e4a943e4f45","ios":"levelo://app?vid=69aff1d4-05e6-4619-92db-0e4a943e4f45"},"vehicle_type_id":"4","last_reported":1762867411,"current_range_meters":11200,"station_id":"ce4bgup2rcd13ifvqcn0","pricing_plan_id":"cebpf4jnsgd1na2vs0mg"},{"bike_id":"cc8a2161-50b6-4c54-8dcc-e040ac729c67","system_id":"levelo_inurba_marseille","lat":43.28934,"lon":5.36646,"is_reserved":false,"is_disabled":false,"rental_uris":{"android":"levelo://app?vid=cc8a2161-50b6-4c54-8dcc-e040ac729c67","ios":"levelo://app?vid=cc8a2161-50b6-4c54-8dcc-e040ac729c67"},"vehicle_type_id":"4","last_reported":1762867411,"current_range_meters":11200,"station_id":"ce4bhap2rcd13ifvqek0","pricing_plan_id":"cebpf4jnsgd1na2vs0mg"},{"bike_id":"c5972d04-4f2a-4646-ae90-eb007a82fe19","system_id":"levelo_inurba_marseille","lat":43.23051,"lon":5.35499,"is_reserved":false,"is_disabled":false,"rental_uris":{"android":"levelo://app?vid=c5972d04-4f2a-4646-ae90-eb007a82fe19","ios":"levelo://app?vid=c5972d04-4f2a-4646-ae90-eb007a82fe19"},"vehicle_type_id":"4","last_reported":1762867411,"current_range_meters":11200,"station_id":"cpo3342slgdg3j2ifvpg","pricing_plan_id":"cebpf4jnsgd1na2vs0mg"},{"bike_id":"5bb896f2-dec6-4193-88dc-e86ff5a402fd","system_id":"levelo_inurba_marseille","lat":43.29808,"lon":5.44068,"is_reserved":false,"is_disabled":false,"rental_uris":{"android":"levelo://app?vid=5bb896f2-dec6-4193-88dc-e86ff5a402fd","ios":"levelo://app?vid=5bb896f2-dec6-4193-88dc-e86ff5a402fd"},"vehicle_type_id":"4","last_reported":1762867411,"current_range_meters":11200,"station_id":"st_d3jp68qikq2c7381ktn0","pricing_plan_id":"cebpf4jnsgd1na2vs0mg"},{"bike_id":"ab22ca5b-bc18-49c7-ab4b-2e21f407f0a3","system_id":"levelo_inurba_marseille","lat":43.30421,"lon":5.41284,"is_reserved":false,"is_disabled":false,"rental_uris":{"android":"levelo://app?vid=ab22ca5b-bc18-49c7-ab4b-2e21f407f0a3","ios":"levelo://app?vid=ab22ca5b-bc18-49c7-ab4b-2e21f407f0a3"},"vehicle_type_id":"4","last_reported":1762867411,"current_range_meters":11200,"station_id":"ce4bhop2rcd13ifvqh8g","pricing_plan_id":"cebpf4jnsgd1na2vs0mg"},{"bike_id":"ca05ed51-b1fe-4a8c-a9a8-781302a8fa1b","system_id":"levelo_inurba_marseille","lat":43.28152,"lon":5.42651,"is_reserved":false,"is_disabled":false,"rental_uris":{"android":"levelo://app?vid=ca05ed51-b1fe-4a8c-a9a8-781302a8fa1b","ios":"levelo://app?vid=ca05ed51-b1fe-4a8c-a9a8-781302a8fa1b"},"vehicle_type_id":"4","last_reported":1762867411,"current_range_meters":11200,"station_id":"ce4bhnh2rcd13ifvqgug","pricing_plan_id":"cebpf4jnsgd1na2vs0mg"},{"bike_id":"e0467342-2ee8-4c36-aeb9-27d25d94ead5","system_id":"levelo_inurba_marseille","lat":43.28148,"lon":5.42641,"is_reserved":false,"is_disabled":true,"rental_uris":{"android":"levelo://app?vid=e0467342-2ee8-4c36-aeb9-27d25d94ead5","ios":"levelo://app?vid=e0467342-2ee8-4c36-aeb9-27d25d94ead5"},"vehicle_type_id":"4","last_reported":1762867411,"current_range_meters":11200,"station_id":"ce4bhnh2rcd13ifvqgug","pricing_plan_id":"cebpf4jnsgd1na2vs0mg"},{"bike_id":"1c87c2a8-93f8-4c13-b852-4572e1eb3930","system_id":"levelo_inurba_marseille","lat":43.27067,"lon":5.42281,"is_reserved":false,"is_disabled":false,"rental_uris":{"android":"levelo://app?vid=1c87c2a8-93f8-4c13-b852-4572e1eb3930","ios":"levelo://app?vid=1c87c2a8-93f8-4c13-b852-4572e1eb3930"},"vehicle_type_id":"4","last_reported":1762867411,"current_range_meters":11200,"station_id":"ce4bhk92rcd13ifvqgb0","pricing_plan_id":"cebpf4jnsgd1na2vs0mg"},{"bike_id":"c484d78b-7a8d-499e-916b-1fc6eb27b26d","system_id":"levelo_inurba_marseille","lat":43.27056,"lon":5.4026,"is_reserved":false,"is_disabled":false,"rental_uris":{"android":"levelo://app?vid=c484d78b-7a8d-499e-916b-1fc6eb27b26d","ios":"levelo://app?vid=c484d78b-7a8d-499e-916b-1fc6eb27b26d"},"vehicle_type_id":"4","last_reported":1762867411,"current_range_meters":11600,"station_id":"ce4bhk92rcd13ifvqgc0","pricing_plan_id":"cebpf4jnsgd1na2vs0mg"},{"bike_id":"5f951acd-4387-43e1-8d9a-524f96501bf3","system_id":"levelo_inurba_marseille","lat":43.21751,"lon":5.3461,"is_reserved":false,"is_disabled":false,"rental_uris":{"android":"levelo://app?vid=5f951acd-4387-43e1-8d9a-524f96501bf3","ios":"levelo://app?vid=5f951acd-4387-43e1-8d9a-524f96501bf3"},"vehicle_type_id":"4","last_reported":1762867411,"current_range_meters":11600,"station_id":"st_cvj6r9ubvosntc0bgbag","pricing_plan_id":"cebpf4jnsgd1na2vs0mg"},{"bike_id":"38c922e6-37cd-47dc-af88-f07475112c2a","system_id":"levelo_inurba_marseille","lat":43.32121,"lon":5.38848,"is_reserved":false,"is_disabled":false,"rental_uris":{"android":"levelo://app?vid=38c922e6-37cd-47dc-af88-f07475112c2a","ios":"levelo://app?vid=38c922e6-37cd-47dc-af88-f07475112c2a"},"vehicle_type_id":"4","last_reported":1762867411,"current_range_meters":11600,"station_id":"","pricing_plan_id":"cebpf4jnsgd1na2vs0mg"},{"bike_id":"bcd03af1-0a6f-420f-8cd8-e76f739ecf22","system_id":"levelo_inurba_marseille","lat":43.25562,"lon":5.38241,"is_reserved":false,"is_disabled":false,"rental_uris":{"android":"levelo://app?vid=bcd03af1-0a6f-420f-8cd8-e76f739ecf22","ios":"levelo://app?vid=bcd03af1-0a6f-420f-8cd8-e76f739ecf22"},"vehicle_type_id":"4","last_reported":1762867411,"current_range_meters":11600,"station_id":"ce4bhih2rcd13ifvqfs0","pricing_plan_id":"cebpf4jnsgd1na2vs0mg"},{"bike_id":"312f5281-f9f7-4344-b38b-c410e7b69a9d","system_id":"levelo_inurba_marseille","lat":43.23963,"lon":5.36636,"is_reserved":false,"is_disabled":false,"rental_uris":{"android":"levelo://app?vid=312f5281-f9f7-4344-b38b-c410e7b69a9d","ios":"levelo://app?vid=312f5281-f9f7-4344-b38b-c410e7b69a9d"},"vehicle_type_id":"4","last_reported":1762867411,"current_range_meters":11600,"station_id":"ce4bhi12rcd13ifvqfp0","pricing_plan_id":"cebpf4jnsgd1na2vs0mg"},{"bike_id":"bcec3f19-205d-4d8d-af41-1729aa329635","system_id":"levelo_inurba_marseille","lat":43.27947,"lon":5.41049,"is_reserved":false,"is_disabled":false,"rental_uris":{"android":"levelo://app?vid=bcec3f19-205d-4d8d-af41-1729aa329635","ios":"levelo://app?vid=bcec3f19-205d-4d8d-af41-1729aa329635"},"vehicle_type_id":"4","last_reported":1762867411,"current_range_meters":11600,"station_id":"ce4bhnp2rcd13ifvqh0g","pricing_plan_id":"cebpf4jnsgd1na2vs0mg"},{"bike_id":"a7cebbf6-695a-4589-98de-fe98da536ae1","system_id":"levelo_inurba_marseille","lat":43.309322,"lon":5.401366,"is_reserved":false,"is_disabled":false,"rental_uris":{"android":"levelo://app?vid=a7cebbf6-695a-4589-98de-fe98da536ae1","ios":"levelo://app?vid=a7cebbf6-695a-4589-98de-fe98da536ae1"},"vehicle_type_id":"4","last_reported":1762867411,"current_range_meters":12000,"station_id":"","pricing_plan_id":"cebpf4jnsgd1na2vs0mg"},{"bike_id":"fd8fe60f-b89f-40fa-8afe-1fb06c83c7ff","system_id":"levelo_inurba_marseille","lat":43.24162,"lon":5.36407,"is_reserved":false,"is_disabled":false,"rental_uris":{"android":"levelo://app?vid=fd8fe60f-b89f-40fa-8afe-1fb06c83c7ff","ios":"levelo://app?vid=fd8fe60f-b89f-40fa-8afe-1fb06c83c7ff"},"vehicle_type_id":"4","last_reported":1762867411,"current_range_meters":12000,"station_id":"cpo36qri1sfpv3e86is0","pricing_plan_id":"cebpf4jnsgd1na2vs0mg"},{"bike_id":"a7e0e980-eff3-4a3f-b22b-b658162fe152","system_id":"levelo_inurba_marseille","lat":43.3083,"lon":5.3813,"is_reserved":false,"is_disabled":false,"rental_uris":{"android":"levelo://app?vid=a7e0e980-eff3-4a3f-b22b-b658162fe152","ios":"levelo://app?vid=a7e0e980-eff3-4a3f-b22b-b658162fe152"},"vehicle_type_id":"4","last_reported":1762867411,"current_range_meters":12000,"station_id":"ce4bgt12rcd13ifvqce0","pricing_plan_id":"cebpf4jnsgd1na2vs0mg"},{"bike_id":"a08765e5-c52c-45c9-9cd5-bf6d0b8a23dd","system_id":"levelo_inurba_marseille","lat":43.33157,"lon":5.37687,"is_reserved":false,"is_disabled":false,"rental_uris":{"android":"levelo://app?vid=a08765e5-c52c-45c9-9cd5-bf6d0b8a23dd","ios":"levelo://app?vid=a08765e5-c52c-45c9-9cd5-bf6d0b8a23dd"},"vehicle_type_id":"4","last_reported":1762867411,"current_range_meters":12000,"station_id":"st_d46cu089ee8s73dldbu0","pricing_plan_id":"cebpf4jnsgd1na2vs0mg"},{"bike_id":"d54952de-c2c9-4463-b55a-b35b39e9463c","system_id":"levelo_inurba_marseille","lat":43.298264,"lon":5.440664,"is_reserved":false,"is_disabled":false,"rental_uris":{"android":"levelo://app?vid=d54952de-c2c9-4463-b55a-b35b39e9463c","ios":"levelo://app?vid=d54952de-c2c9-4463-b55a-b35b39e9463c"},"vehicle_type_id":"4","last_reported":1762867411,"current_range_meters":12000,"station_id":"st_d3jp68qikq2c7381ktn0","pricing_plan_id":"cebpf4jnsgd1na2vs0mg"},{"bike_id":"4d90646b-85c5-4b23-a0a3-b98ee409b246","system_id":"levelo_inurba_marseille","lat":43.3107,"lon":5.38355,"is_reserved":false,"is_disabled":false,"rental_uris":{"android":"levelo://app?vid=4d90646b-85c5-4b23-a0a3-b98ee409b246","ios":"levelo://app?vid=4d90646b-85c5-4b23-a0a3-b98ee409b246"},"vehicle_type_id":"4","last_reported":1762867411,"current_range_meters":12000,"station_id":"ce4bgv92rcd13ifvqcr0","pricing_plan_id":"cebpf4jnsgd1na2vs0mg"},{"bike_id":"27015ad6-a8d1-4fce-b123-0142b5771f32","system_id":"levelo_inurba_marseille","lat":43.211979,"lon":5.350757,"is_reserved":false,"is_disabled":false,"rental_uris":{"android":"levelo://app?vid=27015ad6-a8d1-4fce-b123-0142b5771f32","ios":"levelo://app?vid=27015ad6-a8d1-4fce-b123-0142b5771f32"},"vehicle_type_id":"4","last_reported":1762867411,"current_range_meters":12000,"station_id":"","pricing_plan_id":"cebpf4jnsgd1na2vs0mg"},{"bike_id":"86afe567-3f95-483b-8def-2a78a6d1a451","system_id":"levelo_inurba_marseille","lat":43.29778,"lon":5.39333,"is_reserved":false,"is_disabled":false,"rental_uris":{"android":"levelo://app?vid=86afe567-3f95-483b-8def-2a78a6d1a451","ios":"levelo://app?vid=86afe567-3f95-483b-8def-2a78a6d1a451"},"vehicle_type_id":"4","last_reported":1762867411,"current_range_meters":12400,"station_id":"chh1huq6cuj3fo74tm60","pricing_plan_id":"cebpf4jnsgd1na2vs0mg"},{"bike_id":"c0fea017-2183-4bea-8e99-5ce3eb72b868","system_id":"levelo_inurba_marseille","lat":43.316983,"lon":5.377511,"is_reserved":false,"is_disabled":false,"rental_uris":{"android":"levelo://app?vid=c0fea017-2183-4bea-8e99-5ce3eb72b868","ios":"levelo://app?vid=c0fea017-2183-4bea-8e99-5ce3eb72b868"},"vehicle_type_id":"4","last_reported":1762867411,"current_range_meters":12400,"station_id":"ce4bgth2rcd13ifvqch0","pricing_plan_id":"cebpf4jnsgd1na2vs0mg"},{"bike_id":"07aa209c-e097-4068-9f40-30b30be1c6bb","system_id":"levelo_inurba_marseille","lat":43.29299,"lon":5.37449,"is_reserved":false,"is_disabled":false,"rental_uris":{"android":"levelo://app?vid=07aa209c-e097-4068-9f40-30b30be1c6bb","ios":"levelo://app?vid=07aa209c-e097-4068-9f40-30b30be1c6bb"},"vehicle_type_id":"4","last_reported":1762867411,"current_range_meters":12400,"station_id":"ce4bgi12rcd13ifvqb70","pricing_plan_id":"cebpf4jnsgd1na2vs0mg"},{"bike_id":"ad7729f6-15c0-446e-b110-ca56abacc758","system_id":"levelo_inurba_marseille","lat":43.29682,"lon":5.3728,"is_reserved":false,"is_disabled":false,"rental_uris":{"android":"levelo://app?vid=ad7729f6-15c0-446e-b110-ca56abacc758","ios":"levelo://app?vid=ad7729f6-15c0-446e-b110-ca56abacc758"},"vehicle_type_id":"4","last_reported":1762867411,"current_range_meters":12400,"station_id":"ce4bgk12rcd13ifvqbj0","pricing_plan_id":"cebpf4jnsgd1na2vs0mg"},{"bike_id":"ff26b365-5338-4664-9fb6-b17b894830a6","system_id":"levelo_inurba_marseille","lat":43.29852,"lon":5.36291,"is_reserved":false,"is_disabled":false,"rental_uris":{"android":"levelo://app?vid=ff26b365-5338-4664-9fb6-b17b894830a6","ios":"levelo://app?vid=ff26b365-5338-4664-9fb6-b17b894830a6"},"vehicle_type_id":"4","last_reported":1762867411,"current_range_meters":12400,"station_id":"ce4bgpp2rcd13ifvqc3g","pricing_plan_id":"cebpf4jnsgd1na2vs0mg"},{"bike_id":"632413be-1e2d-41b9-a90f-5f33a6ff6c0e","system_id":"levelo_inurba_marseille","lat":43.249975,"lon":5.389236,"is_reserved":false,"is_disabled":false,"rental_uris":{"android":"levelo://app?vid=632413be-1e2d-41b9-a90f-5f33a6ff6c0e","ios":"levelo://app?vid=632413be-1e2d-41b9-a90f-5f33a6ff6c0e"},"vehicle_type_id":"4","last_reported":1762867411,"current_range_meters":12400,"station_id":"ce4bhgp2rcd13ifvqfd0","pricing_plan_id":"cebpf4jnsgd1na2vs0mg"},{"bike_id":"7ac15fb9-21cb-46de-86e5-03b1416a73b9","system_id":"levelo_inurba_marseille","lat":43.28409,"lon":5.3752,"is_reserved":false,"is_disabled":false,"rental_uris":{"android":"levelo://app?vid=7ac15fb9-21cb-46de-86e5-03b1416a73b9","ios":"levelo://app?vid=7ac15fb9-21cb-46de-86e5-03b1416a73b9"},"vehicle_type_id":"4","last_reported":1762867411,"current_range_meters":12400,"station_id":"ce4bh412rcd13ifvqds0","pricing_plan_id":"cebpf4jnsgd1na2vs0mg"},{"bike_id":"71a961e6-e0d3-4ba5-a7f0-41e06706bcd2","system_id":"levelo_inurba_marseille","lat":43.21191,"lon":5.35089,"is_reserved":false,"is_disabled":false,"rental_uris":{"android":"levelo://app?vid=71a961e6-e0d3-4ba5-a7f0-41e06706bcd2","ios":"levelo://app?vid=71a961e6-e0d3-4ba5-a7f0-41e06706bcd2"},"vehicle_type_id":"4","last_reported":1762867411,"current_range_meters":12400,"station_id":"st_cvj6sg6p6f1abm77japg","pricing_plan_id":"cebpf4jnsgd1na2vs0mg"},{"bike_id":"82b35d51-0c35-417c-8a61-22fe88f04d62","system_id":"levelo_inurba_marseille","lat":43.29851,"lon":5.36298,"is_reserved":false,"is_disabled":false,"rental_uris":{"android":"levelo://app?vid=82b35d51-0c35-417c-8a61-22fe88f04d62","ios":"levelo://app?vid=82b35d51-0c35-417c-8a61-22fe88f04d62"},"vehicle_type_id":"4","last_reported":1762867411,"current_range_meters":12800,"station_id":"ce4bgpp2rcd13ifvqc3g","pricing_plan_id":"cebpf4jnsgd1na2vs0mg"},{"bike_id":"4a392cd4-0e9e-4acc-9ed4-f14baadd93d7","system_id":"levelo_inurba_marseille","lat":43.32089,"lon":5.36787,"is_reserved":false,"is_disabled":false,"rental_uris":{"android":"levelo://app?vid=4a392cd4-0e9e-4acc-9ed4-f14baadd93d7","ios":"levelo://app?vid=4a392cd4-0e9e-4acc-9ed4-f14baadd93d7"},"vehicle_type_id":"4","last_reported":1762867411,"current_range_meters":12800,"station_id":"ce4bhrh2rcd13ifvqhug","pricing_plan_id":"cebpf4jnsgd1na2vs0mg"},{"bike_id":"57c05cfb-067f-4510-8cef-283089ad2f2b","system_id":"levelo_inurba_marseille","lat":43.25931,"lon":5.40901,"is_reserved":false,"is_disabled":false,"rental_uris":{"android":"levelo://app?vid=57c05cfb-067f-4510-8cef-283089ad2f2b","ios":"levelo://app?vid=57c05cfb-067f-4510-8cef-283089ad2f2b"},"vehicle_type_id":"4","last_reported":1762867411,"current_range_meters":12800,"station_id":"ce4bhm92rcd13ifvqglg","pricing_plan_id":"cebpf4jnsgd1na2vs0mg"},{"bike_id":"3871ebcf-4a28-4b22-beb9-9220e15dd9fe","system_id":"levelo_inurba_marseille","lat":43.2848,"lon":5.48401,"is_reserved":false,"is_disabled":false,"rental_uris":{"android":"levelo://app?vid=3871ebcf-4a28-4b22-beb9-9220e15dd9fe","ios":"levelo://app?vid=3871ebcf-4a28-4b22-beb9-9220e15dd9fe"},"vehicle_type_id":"4","last_reported":1762867411,"current_range_meters":12800,"station_id":"st_d3svhcjqgbts73a3dn0g","pricing_plan_id":"cebpf4jnsgd1na2vs0mg"},{"bike_id":"c7c4a595-b65e-4015-8494-ba59fa105488","system_id":"levelo_inurba_marseille","lat":43.29837,"lon":5.36269,"is_reserved":false,"is_disabled":false,"rental_uris":{"android":"levelo://app?vid=c7c4a595-b65e-4015-8494-ba59fa105488","ios":"levelo://app?vid=c7c4a595-b65e-4015-8494-ba59fa105488"},"vehicle_type_id":"4","last_reported":1762867411,"current_range_meters":12800,"station_id":"ce4bgpp2rcd13ifvqc3g","pricing_plan_id":"cebpf4jnsgd1na2vs0mg"},{"bike_id":"85c4fa0d-6a45-42a4-9804-853d363fd895","system_id":"levelo_inurba_marseille","lat":43.21746,"lon":5.346,"is_reserved":false,"is_disabled":false,"rental_uris":{"android":"levelo://app?vid=85c4fa0d-6a45-42a4-9804-853d363fd895","ios":"levelo://app?vid=85c4fa0d-6a45-42a4-9804-853d363fd895"},"vehicle_type_id":"4","last_reported":1762867411,"current_range_meters":13600,"station_id":"","pricing_plan_id":"cebpf4jnsgd1na2vs0mg"},{"bike_id":"8d2b0e01-2305-414b-8efe-9c7f34161e31","system_id":"levelo_inurba_marseille","lat":43.21184,"lon":5.35097,"is_reserved":false,"is_disabled":false,"rental_uris":{"android":"levelo://app?vid=8d2b0e01-2305-414b-8efe-9c7f34161e31","ios":"levelo://app?vid=8d2b0e01-2305-414b-8efe-9c7f34161e31"},"vehicle_type_id":"4","last_reported":1762867411,"current_range_meters":13600,"station_id":"st_cvj6sg6p6f1abm77japg","pricing_plan_id":"cebpf4jnsgd1na2vs0mg"},{"bike_id":"1152c84a-a055-4f29-9b92-843214c87d0f","system_id":"levelo_inurba_marseille","lat":43.22562,"lon":5.41636,"is_reserved":false,"is_disabled":false,"rental_uris":{"android":"levelo://app?vid=1152c84a-a055-4f29-9b92-843214c87d0f","ios":"levelo://app?vid=1152c84a-a055-4f29-9b92-843214c87d0f"},"vehicle_type_id":"4","last_reported":1762867411,"current_range_meters":13600,"station_id":"st_d2o4gvlbi1j2169b742g","pricing_plan_id":"cebpf4jnsgd1na2vs0mg"},{"bike_id":"172a1479-a5a8-4a14-96d6-945fbc77b377","system_id":"levelo_inurba_marseille","lat":43.31997,"lon":5.38133,"is_reserved":false,"is_disabled":false,"rental_uris":{"android":"levelo://app?vid=172a1479-a5a8-4a14-96d6-945fbc77b377","ios":"levelo://app?vid=172a1479-a5a8-4a14-96d6-945fbc77b377"},"vehicle_type_id":"4","last_reported":1762867411,"current_range_meters":13600,"station_id":"ce4bhr12rcd13ifvqhpg","pricing_plan_id":"cebpf4jnsgd1na2vs0mg"},{"bike_id":"42bd7eaa-a853-4b82-9d84-352dbc011c2d","system_id":"levelo_inurba_marseille","lat":43.21189,"lon":5.35082,"is_reserved":false,"is_disabled":false,"rental_uris":{"android":"levelo://app?vid=42bd7eaa-a853-4b82-9d84-352dbc011c2d","ios":"levelo://app?vid=42bd7eaa-a853-4b82-9d84-352dbc011c2d"},"vehicle_type_id":"4","last_reported":1762867411,"current_range_meters":13600,"station_id":"st_cvj6sg6p6f1abm77japg","pricing_plan_id":"cebpf4jnsgd1na2vs0mg"},{"bike_id":"c2b13543-ae87-4324-9d0b-473d3cca745c","system_id":"levelo_inurba_marseille","lat":43.24374,"lon":5.37061,"is_reserved":false,"is_disabled":false,"rental_uris":{"android":"levelo://app?vid=c2b13543-ae87-4324-9d0b-473d3cca745c","ios":"levelo://app?vid=c2b13543-ae87-4324-9d0b-473d3cca745c"},"vehicle_type_id":"4","last_reported":1762867411,"current_range_meters":13600,"station_id":"ce4bhhh2rcd13ifvqfk0","pricing_plan_id":"cebpf4jnsgd1na2vs0mg"},{"bike_id":"2efe341f-e10f-4e0b-b005-5ae0b8537a6c","system_id":"levelo_inurba_marseille","lat":43.217435,"lon":5.346037,"is_reserved":false,"is_disabled":false,"rental_uris":{"android":"levelo://app?vid=2efe341f-e10f-4e0b-b005-5ae0b8537a6c","ios":"levelo://app?vid=2efe341f-e10f-4e0b-b005-5ae0b8537a6c"},"vehicle_type_id":"4","last_reported":1762867411,"current_range_meters":13600,"station_id":"","pricing_plan_id":"cebpf4jnsgd1na2vs0mg"},{"bike_id":"2c288f22-f47e-4fb3-a06a-8474839b9241","system_id":"levelo_inurba_marseille","lat":43.29291,"lon":5.37456,"is_reserved":false,"is_disabled":false,"rental_uris":{"android":"levelo://app?vid=2c288f22-f47e-4fb3-a06a-8474839b9241","ios":"levelo://app?vid=2c288f22-f47e-4fb3-a06a-8474839b9241"},"vehicle_type_id":"4","last_reported":1762867411,"current_range_meters":14000,"station_id":"ce4bgi12rcd13ifvqb70","pricing_plan_id":"cebpf4jnsgd1na2vs0mg"},{"bike_id":"2a4a2bfb-88e8-458b-958e-784844578a23","system_id":"levelo_inurba_marseille","lat":43.28531,"lon":5.44109,"is_reserved":false,"is_disabled":false,"rental_uris":{"android":"levelo://app?vid=2a4a2bfb-88e8-458b-958e-784844578a23","ios":"levelo://app?vid=2a4a2bfb-88e8-458b-958e-784844578a23"},"vehicle_type_id":"4","last_reported":1762867411,"current_range_meters":14000,"station_id":"st_d3j3df2ikq2c7380ej80","pricing_plan_id":"cebpf4jnsgd1na2vs0mg"},{"bike_id":"ac571466-1dc3-4aea-b277-4afec8514b82","system_id":"levelo_inurba_marseille","lat":43.2795,"lon":5.41027,"is_reserved":false,"is_disabled":false,"rental_uris":{"android":"levelo://app?vid=ac571466-1dc3-4aea-b277-4afec8514b82","ios":"levelo://app?vid=ac571466-1dc3-4aea-b277-4afec8514b82"},"vehicle_type_id":"4","last_reported":1762867411,"current_range_meters":14000,"station_id":"ce4bhnp2rcd13ifvqh0g","pricing_plan_id":"cebpf4jnsgd1na2vs0mg"},{"bike_id":"fdd36fff-6c9b-464a-bfce-68bcf6ac2d0a","system_id":"levelo_inurba_marseille","lat":43.27917,"lon":5.39581,"is_reserved":false,"is_disabled":false,"rental_uris":{"android":"levelo://app?vid=fdd36fff-6c9b-464a-bfce-68bcf6ac2d0a","ios":"levelo://app?vid=fdd36fff-6c9b-464a-bfce-68bcf6ac2d0a"},"vehicle_type_id":"4","last_reported":1762867411,"current_range_meters":14000,"station_id":"ce4bhf92rcd13ifvqf40","pricing_plan_id":"cebpf4jnsgd1na2vs0mg"},{"bike_id":"722f7e0f-46d9-4be9-997c-6a53c83a7527","system_id":"levelo_inurba_marseille","lat":43.28036,"lon":5.36952,"is_reserved":false,"is_disabled":true,"rental_uris":{"android":"levelo://app?vid=722f7e0f-46d9-4be9-997c-6a53c83a7527","ios":"levelo://app?vid=722f7e0f-46d9-4be9-997c-6a53c83a7527"},"vehicle_type_id":"4","last_reported":1762867411,"current_range_meters":14000,"station_id":"ce4bha12rcd13ifvqef0","pricing_plan_id":"cebpf4jnsgd1na2vs0mg"},{"bike_id":"dc9399a6-68ac-4bce-a28c-89dbbb7d0681","system_id":"levelo_inurba_marseille","lat":43.287799,"lon":5.408153,"is_reserved":false,"is_disabled":true,"rental_uris":{"android":"levelo://app?vid=dc9399a6-68ac-4bce-a28c-89dbbb7d0681","ios":"levelo://app?vid=dc9399a6-68ac-4bce-a28c-89dbbb7d0681"},"vehicle_type_id":"4","last_reported":1762867411,"current_range_meters":14000,"station_id":"","pricing_plan_id":"cebpf4jnsgd1na2vs0mg"},{"bike_id":"0d928e93-920e-45c1-970e-eab40073e7c0","system_id":"levelo_inurba_marseille","lat":43.249934,"lon":5.389354,"is_reserved":false,"is_disabled":false,"rental_uris":{"android":"levelo://app?vid=0d928e93-920e-45c1-970e-eab40073e7c0","ios":"levelo://app?vid=0d928e93-920e-45c1-970e-eab40073e7c0"},"vehicle_type_id":"4","last_reported":1762867411,"current_range_meters":14000,"station_id":"ce4bhgp2rcd13ifvqfd0","pricing_plan_id":"cebpf4jnsgd1na2vs0mg"},{"bike_id":"ef7da20e-44f0-4663-95fa-45897871fb99","system_id":"levelo_inurba_marseille","lat":43.28532,"lon":5.44098,"is_reserved":false,"is_disabled":false,"rental_uris":{"android":"levelo://app?vid=ef7da20e-44f0-4663-95fa-45897871fb99","ios":"levelo://app?vid=ef7da20e-44f0-4663-95fa-45897871fb99"},"vehicle_type_id":"4","last_reported":1762867411,"current_range_meters":14000,"station_id":"st_d3j3df2ikq2c7380ej80","pricing_plan_id":"cebpf4jnsgd1na2vs0mg"},{"bike_id":"5d79d3d2-8302-4150-97d5-df980714ace1","system_id":"levelo_inurba_marseille","lat":43.23191,"lon":5.35566,"is_reserved":false,"is_disabled":false,"rental_uris":{"android":"levelo://app?vid=5d79d3d2-8302-4150-97d5-df980714ace1","ios":"levelo://app?vid=5d79d3d2-8302-4150-97d5-df980714ace1"},"vehicle_type_id":"4","last_reported":1762867411,"current_range_meters":14400,"station_id":"ce4bhu92rcd13ifvqi70","pricing_plan_id":"cebpf4jnsgd1na2vs0mg"},{"bike_id":"21b3123e-f92d-44de-9dd8-7035f5f631dc","system_id":"levelo_inurba_marseille","lat":43.2256,"lon":5.41628,"is_reserved":false,"is_disabled":false,"rental_uris":{"android":"levelo://app?vid=21b3123e-f92d-44de-9dd8-7035f5f631dc","ios":"levelo://app?vid=21b3123e-f92d-44de-9dd8-7035f5f631dc"},"vehicle_type_id":"4","last_reported":1762867411,"current_range_meters":14400,"station_id":"st_d2o4gvlbi1j2169b742g","pricing_plan_id":"cebpf4jnsgd1na2vs0mg"},{"bike_id":"681ec287-cd05-42b9-842e-8c5f41909996","system_id":"levelo_inurba_marseille","lat":43.29293,"lon":5.37464,"is_reserved":false,"is_disabled":false,"rental_uris":{"android":"levelo://app?vid=681ec287-cd05-42b9-842e-8c5f41909996","ios":"levelo://app?vid=681ec287-cd05-42b9-842e-8c5f41909996"},"vehicle_type_id":"4","last_reported":1762867411,"current_range_meters":14400,"station_id":"ce4bgi12rcd13ifvqb70","pricing_plan_id":"cebpf4jnsgd1na2vs0mg"},{"bike_id":"dd3b1a3e-e89a-4574-816e-38c0d413e9a4","system_id":"levelo_inurba_marseille","lat":43.29278,"lon":5.36848,"is_reserved":false,"is_disabled":false,"rental_uris":{"android":"levelo://app?vid=dd3b1a3e-e89a-4574-816e-38c0d413e9a4","ios":"levelo://app?vid=dd3b1a3e-e89a-4574-816e-38c0d413e9a4"},"vehicle_type_id":"4","last_reported":1762867411,"current_range_meters":14400,"station_id":"ce4bhbp2rcd13ifvqesg","pricing_plan_id":"cebpf4jnsgd1na2vs0mg"},{"bike_id":"dbb57a7d-7bf8-4c3a-9ff9-829a6a66d88e","system_id":"levelo_inurba_marseille","lat":43.29363,"lon":5.379371,"is_reserved":false,"is_disabled":false,"rental_uris":{"android":"levelo://app?vid=dbb57a7d-7bf8-4c3a-9ff9-829a6a66d88e","ios":"levelo://app?vid=dbb57a7d-7bf8-4c3a-9ff9-829a6a66d88e"},"vehicle_type_id":"4","last_reported":1762867411,"current_range_meters":14400,"station_id":"ce4bgjh2rcd13ifvqbf0","pricing_plan_id":"cebpf4jnsgd1na2vs0mg"},{"bike_id":"96188fc1-f1b6-4582-92b3-ef5f8e1d591a","system_id":"levelo_inurba_marseille","lat":43.27995,"lon":5.40025,"is_reserved":false,"is_disabled":false,"rental_uris":{"android":"levelo://app?vid=96188fc1-f1b6-4582-92b3-ef5f8e1d591a","ios":"levelo://app?vid=96188fc1-f1b6-4582-92b3-ef5f8e1d591a"},"vehicle_type_id":"4","last_reported":1762867411,"current_range_meters":14400,"station_id":"ce4bho92rcd13ifvqh4g","pricing_plan_id":"cebpf4jnsgd1na2vs0mg"},{"bike_id":"3bddd6ed-57d6-4450-b480-890bc38a07ed","system_id":"levelo_inurba_marseille","lat":43.23963,"lon":5.3663,"is_reserved":false,"is_disabled":false,"rental_uris":{"android":"levelo://app?vid=3bddd6ed-57d6-4450-b480-890bc38a07ed","ios":"levelo://app?vid=3bddd6ed-57d6-4450-b480-890bc38a07ed"},"vehicle_type_id":"4","last_reported":1762867411,"current_range_meters":14800,"station_id":"ce4bhi12rcd13ifvqfp0","pricing_plan_id":"cebpf4jnsgd1na2vs0mg"},{"bike_id":"ebe6be58-f4e1-43a4-918a-89cf0638ec6b","system_id":"levelo_inurba_marseille","lat":43.28616,"lon":5.35093,"is_reserved":false,"is_disabled":false,"rental_uris":{"android":"levelo://app?vid=ebe6be58-f4e1-43a4-918a-89cf0638ec6b","ios":"levelo://app?vid=ebe6be58-f4e1-43a4-918a-89cf0638ec6b"},"vehicle_type_id":"4","last_reported":1762867411,"current_range_meters":14800,"station_id":"ce4bhch2rcd13ifvqeug","pricing_plan_id":"cebpf4jnsgd1na2vs0mg"},{"bike_id":"54c49d07-59a4-4c70-93fd-1dfab7a2b0f1","system_id":"levelo_inurba_marseille","lat":43.290509,"lon":5.35928,"is_reserved":false,"is_disabled":false,"rental_uris":{"android":"levelo://app?vid=54c49d07-59a4-4c70-93fd-1dfab7a2b0f1","ios":"levelo://app?vid=54c49d07-59a4-4c70-93fd-1dfab7a2b0f1"},"vehicle_type_id":"4","last_reported":1762867411,"current_range_meters":14800,"station_id":"ce4bha92rcd13ifvqeg0","pricing_plan_id":"cebpf4jnsgd1na2vs0mg"},{"bike_id":"ac029cc9-31d4-4bcc-b083-2d229e9f9161","system_id":"levelo_inurba_marseille","lat":43.22922,"lon":5.35408,"is_reserved":false,"is_disabled":false,"rental_uris":{"android":"levelo://app?vid=ac029cc9-31d4-4bcc-b083-2d229e9f9161","ios":"levelo://app?vid=ac029cc9-31d4-4bcc-b083-2d229e9f9161"},"vehicle_type_id":"4","last_reported":1762867411,"current_range_meters":15200,"station_id":"cpo3532slgdg3j2ikp40","pricing_plan_id":"cebpf4jnsgd1na2vs0mg"},{"bike_id":"701c63ab-28bd-46cd-b254-f5d95e598b00","system_id":"levelo_inurba_marseille","lat":43.2992,"lon":5.36549,"is_reserved":false,"is_disabled":false,"rental_uris":{"android":"levelo://app?vid=701c63ab-28bd-46cd-b254-f5d95e598b00","ios":"levelo://app?vid=701c63ab-28bd-46cd-b254-f5d95e598b00"},"vehicle_type_id":"4","last_reported":1762867411,"current_range_meters":15200,"station_id":"ce4bgm92rcd13ifvqbr0","pricing_plan_id":"cebpf4jnsgd1na2vs0mg"},{"bike_id":"e13b78db-2231-48a0-b9e0-a153f32a43f4","system_id":"levelo_inurba_marseille","lat":43.23053,"lon":5.35495,"is_reserved":false,"is_disabled":false,"rental_uris":{"android":"levelo://app?vid=e13b78db-2231-48a0-b9e0-a153f32a43f4","ios":"levelo://app?vid=e13b78db-2231-48a0-b9e0-a153f32a43f4"},"vehicle_type_id":"4","last_reported":1762867411,"current_range_meters":15200,"station_id":"cpo3342slgdg3j2ifvpg","pricing_plan_id":"cebpf4jnsgd1na2vs0mg"},{"bike_id":"8784dfbe-12d8-418e-a570-f8b36d552a31","system_id":"levelo_inurba_marseille","lat":43.2737,"lon":5.36258,"is_reserved":false,"is_disabled":false,"rental_uris":{"android":"levelo://app?vid=8784dfbe-12d8-418e-a570-f8b36d552a31","ios":"levelo://app?vid=8784dfbe-12d8-418e-a570-f8b36d552a31"},"vehicle_type_id":"4","last_reported":1762867411,"current_range_meters":15200,"station_id":"ce4bhbh2rcd13ifvqeo0","pricing_plan_id":"cebpf4jnsgd1na2vs0mg"},{"bike_id":"84aade2c-4b39-4bce-814f-cfa3d6ed46f7","system_id":"levelo_inurba_marseille","lat":43.28486,"lon":5.48399,"is_reserved":false,"is_disabled":false,"rental_uris":{"android":"levelo://app?vid=84aade2c-4b39-4bce-814f-cfa3d6ed46f7","ios":"levelo://app?vid=84aade2c-4b39-4bce-814f-cfa3d6ed46f7"},"vehicle_type_id":"4","last_reported":1762867411,"current_range_meters":15200,"station_id":"st_d3svhcjqgbts73a3dn0g","pricing_plan_id":"cebpf4jnsgd1na2vs0mg"},{"bike_id":"a9b2f890-52df-4887-b4ff-9a9ad1efc0a1","system_id":"levelo_inurba_marseille","lat":43.26572,"lon":5.39014,"is_reserved":false,"is_disabled":false,"rental_uris":{"android":"levelo://app?vid=a9b2f890-52df-4887-b4ff-9a9ad1efc0a1","ios":"levelo://app?vid=a9b2f890-52df-4887-b4ff-9a9ad1efc0a1"},"vehicle_type_id":"4","last_reported":1762867411,"current_range_meters":15200,"station_id":"ce4bhe12rcd13ifvqf30","pricing_plan_id":"cebpf4jnsgd1na2vs0mg"},{"bike_id":"28e36cd3-4665-4002-a55e-04a45eaa3992","system_id":"levelo_inurba_marseille","lat":43.33161,"lon":5.37697,"is_reserved":false,"is_disabled":false,"rental_uris":{"android":"levelo://app?vid=28e36cd3-4665-4002-a55e-04a45eaa3992","ios":"levelo://app?vid=28e36cd3-4665-4002-a55e-04a45eaa3992"},"vehicle_type_id":"4","last_reported":1762867411,"current_range_meters":15200,"station_id":"st_d46cu089ee8s73dldbu0","pricing_plan_id":"cebpf4jnsgd1na2vs0mg"},{"bike_id":"88f54c0b-afd5-496b-8d2d-03f61ddbfd9a","system_id":"levelo_inurba_marseille","lat":43.23151,"lon":5.43714,"is_reserved":false,"is_disabled":false,"rental_uris":{"android":"levelo://app?vid=88f54c0b-afd5-496b-8d2d-03f61ddbfd9a","ios":"levelo://app?vid=88f54c0b-afd5-496b-8d2d-03f61ddbfd9a"},"vehicle_type_id":"4","last_reported":1762867411,"current_range_meters":15200,"station_id":"ce4bhmp2rcd13ifvqgog","pricing_plan_id":"cebpf4jnsgd1na2vs0mg"},{"bike_id":"b259621f-2fe6-4b30-92e0-2292fee32f1f","system_id":"levelo_inurba_marseille","lat":43.28044,"lon":5.3695,"is_reserved":false,"is_disabled":true,"rental_uris":{"android":"levelo://app?vid=b259621f-2fe6-4b30-92e0-2292fee32f1f","ios":"levelo://app?vid=b259621f-2fe6-4b30-92e0-2292fee32f1f"},"vehicle_type_id":"4","last_reported":1762867411,"current_range_meters":15200,"station_id":"ce4bha12rcd13ifvqef0","pricing_plan_id":"cebpf4jnsgd1na2vs0mg"},{"bike_id":"3675fcb9-4257-4c23-936c-1064c6107c79","system_id":"levelo_inurba_marseille","lat":43.288721,"lon":5.425153,"is_reserved":false,"is_disabled":false,"rental_uris":{"android":"levelo://app?vid=3675fcb9-4257-4c23-936c-1064c6107c79","ios":"levelo://app?vid=3675fcb9-4257-4c23-936c-1064c6107c79"},"vehicle_type_id":"4","last_reported":1762867411,"current_range_meters":15200,"station_id":"st_d3b462108ojc7389ooeg","pricing_plan_id":"cebpf4jnsgd1na2vs0mg"},{"bike_id":"68a24acd-a9fb-4a3b-9fa4-84e3eef81ada","system_id":"levelo_inurba_marseille","lat":43.28939,"lon":5.36635,"is_reserved":false,"is_disabled":false,"rental_uris":{"android":"levelo://app?vid=68a24acd-a9fb-4a3b-9fa4-84e3eef81ada","ios":"levelo://app?vid=68a24acd-a9fb-4a3b-9fa4-84e3eef81ada"},"vehicle_type_id":"4","last_reported":1762867411,"current_range_meters":16000,"station_id":"ce4bhap2rcd13ifvqek0","pricing_plan_id":"cebpf4jnsgd1na2vs0mg"},{"bike_id":"c47023ab-2905-4a00-af93-ffd0b768cdc9","system_id":"levelo_inurba_marseille","lat":43.288656,"lon":5.425206,"is_reserved":false,"is_disabled":false,"rental_uris":{"android":"levelo://app?vid=c47023ab-2905-4a00-af93-ffd0b768cdc9","ios":"levelo://app?vid=c47023ab-2905-4a00-af93-ffd0b768cdc9"},"vehicle_type_id":"4","last_reported":1762867411,"current_range_meters":16000,"station_id":"st_d3b462108ojc7389ooeg","pricing_plan_id":"cebpf4jnsgd1na2vs0mg"},{"bike_id":"0d99d113-8953-4587-8656-a8ad5dc8d796","system_id":"levelo_inurba_marseille","lat":43.21185,"lon":5.35073,"is_reserved":false,"is_disabled":false,"rental_uris":{"android":"levelo://app?vid=0d99d113-8953-4587-8656-a8ad5dc8d796","ios":"levelo://app?vid=0d99d113-8953-4587-8656-a8ad5dc8d796"},"vehicle_type_id":"4","last_reported":1762867411,"current_range_meters":16000,"station_id":"st_cvj6sg6p6f1abm77japg","pricing_plan_id":"cebpf4jnsgd1na2vs0mg"},{"bike_id":"10832612-bd6d-4d64-947f-699f60d0c3eb","system_id":"levelo_inurba_marseille","lat":43.297665,"lon":5.388979,"is_reserved":false,"is_disabled":false,"rental_uris":{"android":"levelo://app?vid=10832612-bd6d-4d64-947f-699f60d0c3eb","ios":"levelo://app?vid=10832612-bd6d-4d64-947f-699f60d0c3eb"},"vehicle_type_id":"4","last_reported":1762867411,"current_range_meters":16000,"station_id":"","pricing_plan_id":"cebpf4jnsgd1na2vs0mg"},{"bike_id":"c883c507-78d7-4952-ab1a-15ef0511b24c","system_id":"levelo_inurba_marseille","lat":43.30361,"lon":5.41874,"is_reserved":false,"is_disabled":false,"rental_uris":{"android":"levelo://app?vid=c883c507-78d7-4952-ab1a-15ef0511b24c","ios":"levelo://app?vid=c883c507-78d7-4952-ab1a-15ef0511b24c"},"vehicle_type_id":"4","last_reported":1762867411,"current_range_meters":16000,"station_id":"ce4bhop2rcd13ifvqh7g","pricing_plan_id":"cebpf4jnsgd1na2vs0mg"},{"bike_id":"596f11dd-5a3d-4eaa-8110-83997cac3f9f","system_id":"levelo_inurba_marseille","lat":43.2794,"lon":5.4105,"is_reserved":false,"is_disabled":false,"rental_uris":{"android":"levelo://app?vid=596f11dd-5a3d-4eaa-8110-83997cac3f9f","ios":"levelo://app?vid=596f11dd-5a3d-4eaa-8110-83997cac3f9f"},"vehicle_type_id":"4","last_reported":1762867411,"current_range_meters":16000,"station_id":"ce4bhnp2rcd13ifvqh0g","pricing_plan_id":"cebpf4jnsgd1na2vs0mg"},{"bike_id":"d07b902f-e0b8-41cc-b221-714bf2651e15","system_id":"levelo_inurba_marseille","lat":43.28854,"lon":5.42525,"is_reserved":false,"is_disabled":false,"rental_uris":{"android":"levelo://app?vid=d07b902f-e0b8-41cc-b221-714bf2651e15","ios":"levelo://app?vid=d07b902f-e0b8-41cc-b221-714bf2651e15"},"vehicle_type_id":"4","last_reported":1762867411,"current_range_meters":16000,"station_id":"st_d3b462108ojc7389ooeg","pricing_plan_id":"cebpf4jnsgd1na2vs0mg"},{"bike_id":"d0bd55f8-b06d-47de-a1fc-7cad9b15512f","system_id":"levelo_inurba_marseille","lat":43.23058,"lon":5.355,"is_reserved":false,"is_disabled":false,"rental_uris":{"android":"levelo://app?vid=d0bd55f8-b06d-47de-a1fc-7cad9b15512f","ios":"levelo://app?vid=d0bd55f8-b06d-47de-a1fc-7cad9b15512f"},"vehicle_type_id":"4","last_reported":1762867411,"current_range_meters":16400,"station_id":"cpo3342slgdg3j2ifvpg","pricing_plan_id":"cebpf4jnsgd1na2vs0mg"},{"bike_id":"cffcd80f-48aa-4f63-a7e0-403b1afbb4f8","system_id":"levelo_inurba_marseille","lat":43.26782,"lon":5.39521,"is_reserved":false,"is_disabled":false,"rental_uris":{"android":"levelo://app?vid=cffcd80f-48aa-4f63-a7e0-403b1afbb4f8","ios":"levelo://app?vid=cffcd80f-48aa-4f63-a7e0-403b1afbb4f8"},"vehicle_type_id":"4","last_reported":1762867411,"current_range_meters":16400,"station_id":"ce4bhh12rcd13ifvqfg0","pricing_plan_id":"cebpf4jnsgd1na2vs0mg"},{"bike_id":"67f21b4e-7bd4-4f2b-a672-c410c5f88d67","system_id":"levelo_inurba_marseille","lat":43.28531,"lon":5.44098,"is_reserved":false,"is_disabled":false,"rental_uris":{"android":"levelo://app?vid=67f21b4e-7bd4-4f2b-a672-c410c5f88d67","ios":"levelo://app?vid=67f21b4e-7bd4-4f2b-a672-c410c5f88d67"},"vehicle_type_id":"4","last_reported":1762867411,"current_range_meters":16400,"station_id":"st_d3j3df2ikq2c7380ej80","pricing_plan_id":"cebpf4jnsgd1na2vs0mg"},{"bike_id":"2e7f36df-bf38-4d79-9159-82139fa8e88c","system_id":"levelo_inurba_marseille","lat":43.32654,"lon":5.40998,"is_reserved":false,"is_disabled":false,"rental_uris":{"android":"levelo://app?vid=2e7f36df-bf38-4d79-9159-82139fa8e88c","ios":"levelo://app?vid=2e7f36df-bf38-4d79-9159-82139fa8e88c"},"vehicle_type_id":"4","last_reported":1762867411,"current_range_meters":16400,"station_id":"ce4bhpp2rcd13ifvqhgg","pricing_plan_id":"cebpf4jnsgd1na2vs0mg"},{"bike_id":"f09b69fd-4220-4b51-8365-9a85828617f1","system_id":"levelo_inurba_marseille","lat":43.330268,"lon":5.390397,"is_reserved":false,"is_disabled":false,"rental_uris":{"android":"levelo://app?vid=f09b69fd-4220-4b51-8365-9a85828617f1","ios":"levelo://app?vid=f09b69fd-4220-4b51-8365-9a85828617f1"},"vehicle_type_id":"4","last_reported":1762867411,"current_range_meters":16400,"station_id":"ce4bhr92rcd13ifvqhrg","pricing_plan_id":"cebpf4jnsgd1na2vs0mg"},{"bike_id":"43cbbf5b-b692-4aa3-89a6-f4be89d51400","system_id":"levelo_inurba_marseille","lat":43.29526,"lon":5.37508,"is_reserved":false,"is_disabled":false,"rental_uris":{"android":"levelo://app?vid=43cbbf5b-b692-4aa3-89a6-f4be89d51400","ios":"levelo://app?vid=43cbbf5b-b692-4aa3-89a6-f4be89d51400"},"vehicle_type_id":"4","last_reported":1762867411,"current_range_meters":16400,"station_id":"ce4bgkp2rcd13ifvqbmg","pricing_plan_id":"cebpf4jnsgd1na2vs0mg"},{"bike_id":"04c7ac25-3cc5-4719-8396-8cb02b8dfd15","system_id":"levelo_inurba_marseille","lat":43.25085,"lon":5.3952,"is_reserved":false,"is_disabled":false,"rental_uris":{"android":"levelo://app?vid=04c7ac25-3cc5-4719-8396-8cb02b8dfd15","ios":"levelo://app?vid=04c7ac25-3cc5-4719-8396-8cb02b8dfd15"},"vehicle_type_id":"4","last_reported":1762867411,"current_range_meters":16400,"station_id":"ce4bhm12rcd13ifvqgkg","pricing_plan_id":"cebpf4jnsgd1na2vs0mg"},{"bike_id":"c25b371b-2dd3-4d98-89d8-5cb5d64bde04","system_id":"levelo_inurba_marseille","lat":43.22922,"lon":5.35378,"is_reserved":false,"is_disabled":false,"rental_uris":{"android":"levelo://app?vid=c25b371b-2dd3-4d98-89d8-5cb5d64bde04","ios":"levelo://app?vid=c25b371b-2dd3-4d98-89d8-5cb5d64bde04"},"vehicle_type_id":"4","last_reported":1762867411,"current_range_meters":16400,"station_id":"cpo3532slgdg3j2ikp40","pricing_plan_id":"cebpf4jnsgd1na2vs0mg"},{"bike_id":"b078dd21-658e-4712-aac2-5cc674099571","system_id":"levelo_inurba_marseille","lat":43.30144,"lon":5.38778,"is_reserved":false,"is_disabled":false,"rental_uris":{"android":"levelo://app?vid=b078dd21-658e-4712-aac2-5cc674099571","ios":"levelo://app?vid=b078dd21-658e-4712-aac2-5cc674099571"},"vehicle_type_id":"4","last_reported":1762867411,"current_range_meters":16800,"station_id":"ce4bghh2rcd13ifvqb60","pricing_plan_id":"cebpf4jnsgd1na2vs0mg"},{"bike_id":"fdcb4a07-22b8-4d5f-a4aa-d29d66992f86","system_id":"levelo_inurba_marseille","lat":43.28481,"lon":5.48391,"is_reserved":false,"is_disabled":false,"rental_uris":{"android":"levelo://app?vid=fdcb4a07-22b8-4d5f-a4aa-d29d66992f86","ios":"levelo://app?vid=fdcb4a07-22b8-4d5f-a4aa-d29d66992f86"},"vehicle_type_id":"4","last_reported":1762867411,"current_range_meters":16800,"station_id":"st_d3svhcjqgbts73a3dn0g","pricing_plan_id":"cebpf4jnsgd1na2vs0mg"},{"bike_id":"958b6545-b7ff-4c8b-967c-ea2338184bf1","system_id":"levelo_inurba_marseille","lat":43.22563,"lon":5.41621,"is_reserved":false,"is_disabled":false,"rental_uris":{"android":"levelo://app?vid=958b6545-b7ff-4c8b-967c-ea2338184bf1","ios":"levelo://app?vid=958b6545-b7ff-4c8b-967c-ea2338184bf1"},"vehicle_type_id":"4","last_reported":1762867411,"current_range_meters":16800,"station_id":"st_d2o4gvlbi1j2169b742g","pricing_plan_id":"cebpf4jnsgd1na2vs0mg"},{"bike_id":"14c4c79d-54a2-43ff-b01b-d18f58077d1e","system_id":"levelo_inurba_marseille","lat":43.28596,"lon":5.350223,"is_reserved":false,"is_disabled":false,"rental_uris":{"android":"levelo://app?vid=14c4c79d-54a2-43ff-b01b-d18f58077d1e","ios":"levelo://app?vid=14c4c79d-54a2-43ff-b01b-d18f58077d1e"},"vehicle_type_id":"4","last_reported":1762867411,"current_range_meters":16800,"station_id":"","pricing_plan_id":"cebpf4jnsgd1na2vs0mg"},{"bike_id":"8a55e251-1c27-4397-951a-b77cecfc27dd","system_id":"levelo_inurba_marseille","lat":43.24071,"lon":5.3776,"is_reserved":false,"is_disabled":false,"rental_uris":{"android":"levelo://app?vid=8a55e251-1c27-4397-951a-b77cecfc27dd","ios":"levelo://app?vid=8a55e251-1c27-4397-951a-b77cecfc27dd"},"vehicle_type_id":"4","last_reported":1762867411,"current_range_meters":16800,"station_id":"ce4bhnp2rcd13ifvqgvg","pricing_plan_id":"cebpf4jnsgd1na2vs0mg"},{"bike_id":"2be6c73d-0ff7-4fd7-b50d-d5f738d98cb9","system_id":"levelo_inurba_marseille","lat":43.26199,"lon":5.37458,"is_reserved":false,"is_disabled":false,"rental_uris":{"android":"levelo://app?vid=2be6c73d-0ff7-4fd7-b50d-d5f738d98cb9","ios":"levelo://app?vid=2be6c73d-0ff7-4fd7-b50d-d5f738d98cb9"},"vehicle_type_id":"4","last_reported":1762867411,"current_range_meters":16800,"station_id":"ce4bhgp2rcd13ifvqfc0","pricing_plan_id":"cebpf4jnsgd1na2vs0mg"},{"bike_id":"32162483-923a-4e23-8738-bf029245f9f0","system_id":"levelo_inurba_marseille","lat":43.28479,"lon":5.38444,"is_reserved":false,"is_disabled":true,"rental_uris":{"android":"levelo://app?vid=32162483-923a-4e23-8738-bf029245f9f0","ios":"levelo://app?vid=32162483-923a-4e23-8738-bf029245f9f0"},"vehicle_type_id":"4","last_reported":1762867411,"current_range_meters":16800,"station_id":"ce4bh512rcd13ifvqe3g","pricing_plan_id":"cebpf4jnsgd1na2vs0mg"},{"bike_id":"1cf494be-4420-45a6-99ba-de1629a4504a","system_id":"levelo_inurba_marseille","lat":43.29295,"lon":5.37468,"is_reserved":false,"is_disabled":false,"rental_uris":{"android":"levelo://app?vid=1cf494be-4420-45a6-99ba-de1629a4504a","ios":"levelo://app?vid=1cf494be-4420-45a6-99ba-de1629a4504a"},"vehicle_type_id":"4","last_reported":1762867411,"current_range_meters":16800,"station_id":"ce4bgi12rcd13ifvqb70","pricing_plan_id":"cebpf4jnsgd1na2vs0mg"},{"bike_id":"7044058a-0054-455f-a3b2-0773c2b1008e","system_id":"levelo_inurba_marseille","lat":43.295734,"lon":5.375227,"is_reserved":false,"is_disabled":false,"rental_uris":{"android":"levelo://app?vid=7044058a-0054-455f-a3b2-0773c2b1008e","ios":"levelo://app?vid=7044058a-0054-455f-a3b2-0773c2b1008e"},"vehicle_type_id":"4","last_reported":1762867411,"current_range_meters":16800,"station_id":"","pricing_plan_id":"cebpf4jnsgd1na2vs0mg"},{"bike_id":"50b661f0-112f-4780-95bd-167a8c61a238","system_id":"levelo_inurba_marseille","lat":43.21186,"lon":5.35089,"is_reserved":false,"is_disabled":true,"rental_uris":{"android":"levelo://app?vid=50b661f0-112f-4780-95bd-167a8c61a238","ios":"levelo://app?vid=50b661f0-112f-4780-95bd-167a8c61a238"},"vehicle_type_id":"4","last_reported":1762867411,"current_range_meters":16800,"station_id":"st_cvj6sg6p6f1abm77japg","pricing_plan_id":"cebpf4jnsgd1na2vs0mg"},{"bike_id":"8d16fa88-21c5-4a01-9168-df9cb41cb265","system_id":"levelo_inurba_marseille","lat":43.26549,"lon":5.3729,"is_reserved":false,"is_disabled":false,"rental_uris":{"android":"levelo://app?vid=8d16fa88-21c5-4a01-9168-df9cb41cb265","ios":"levelo://app?vid=8d16fa88-21c5-4a01-9168-df9cb41cb265"},"vehicle_type_id":"4","last_reported":1762867411,"current_range_meters":16800,"station_id":"ce4bhg12rcd13ifvqf70","pricing_plan_id":"cebpf4jnsgd1na2vs0mg"},{"bike_id":"11c31477-b65a-47eb-bdaf-7d82bf8606d9","system_id":"levelo_inurba_marseille","lat":43.29001,"lon":5.35611,"is_reserved":false,"is_disabled":false,"rental_uris":{"android":"levelo://app?vid=11c31477-b65a-47eb-bdaf-7d82bf8606d9","ios":"levelo://app?vid=11c31477-b65a-47eb-bdaf-7d82bf8606d9"},"vehicle_type_id":"4","last_reported":1762867411,"current_range_meters":17200,"station_id":"ce4bhb92rcd13ifvqen0","pricing_plan_id":"cebpf4jnsgd1na2vs0mg"},{"bike_id":"81ecdbad-b116-4371-8f79-e464cd3888a1","system_id":"levelo_inurba_marseille","lat":43.21731,"lon":5.34622,"is_reserved":false,"is_disabled":false,"rental_uris":{"android":"levelo://app?vid=81ecdbad-b116-4371-8f79-e464cd3888a1","ios":"levelo://app?vid=81ecdbad-b116-4371-8f79-e464cd3888a1"},"vehicle_type_id":"4","last_reported":1762867411,"current_range_meters":17200,"station_id":"st_cvj6r9ubvosntc0bgbag","pricing_plan_id":"cebpf4jnsgd1na2vs0mg"},{"bike_id":"59092e0b-8e2c-49e1-8126-64ad7629b05f","system_id":"levelo_inurba_marseille","lat":43.24295,"lon":5.39235,"is_reserved":false,"is_disabled":false,"rental_uris":{"android":"levelo://app?vid=59092e0b-8e2c-49e1-8126-64ad7629b05f","ios":"levelo://app?vid=59092e0b-8e2c-49e1-8126-64ad7629b05f"},"vehicle_type_id":"4","last_reported":1762867411,"current_range_meters":17200,"station_id":"","pricing_plan_id":"cebpf4jnsgd1na2vs0mg"},{"bike_id":"e5072903-b867-4d8e-a478-9934ce296bde","system_id":"levelo_inurba_marseille","lat":43.29117,"lon":5.39059,"is_reserved":false,"is_disabled":false,"rental_uris":{"android":"levelo://app?vid=e5072903-b867-4d8e-a478-9934ce296bde","ios":"levelo://app?vid=e5072903-b867-4d8e-a478-9934ce296bde"},"vehicle_type_id":"4","last_reported":1762867411,"current_range_meters":17200,"station_id":"","pricing_plan_id":"cebpf4jnsgd1na2vs0mg"},{"bike_id":"2b337186-5672-4087-8da2-b3ab6d078c9c","system_id":"levelo_inurba_marseille","lat":43.217435,"lon":5.346063,"is_reserved":false,"is_disabled":false,"rental_uris":{"android":"levelo://app?vid=2b337186-5672-4087-8da2-b3ab6d078c9c","ios":"levelo://app?vid=2b337186-5672-4087-8da2-b3ab6d078c9c"},"vehicle_type_id":"4","last_reported":1762867411,"current_range_meters":17200,"station_id":"st_cvj6r9ubvosntc0bgbag","pricing_plan_id":"cebpf4jnsgd1na2vs0mg"},{"bike_id":"194ccba3-e27a-47f2-96d1-c65a50ce720e","system_id":"levelo_inurba_marseille","lat":43.21743,"lon":5.34635,"is_reserved":false,"is_disabled":false,"rental_uris":{"android":"levelo://app?vid=194ccba3-e27a-47f2-96d1-c65a50ce720e","ios":"levelo://app?vid=194ccba3-e27a-47f2-96d1-c65a50ce720e"},"vehicle_type_id":"4","last_reported":1762867411,"current_range_meters":17200,"station_id":"st_cvj6r9ubvosntc0bgbag","pricing_plan_id":"cebpf4jnsgd1na2vs0mg"},{"bike_id":"87f91ed8-5710-43df-8936-cc0666117399","system_id":"levelo_inurba_marseille","lat":43.23777,"lon":5.36634,"is_reserved":false,"is_disabled":false,"rental_uris":{"android":"levelo://app?vid=87f91ed8-5710-43df-8936-cc0666117399","ios":"levelo://app?vid=87f91ed8-5710-43df-8936-cc0666117399"},"vehicle_type_id":"4","last_reported":1762867411,"current_range_meters":17200,"station_id":"st_d3nk18o9ro0c73en2l3g","pricing_plan_id":"cebpf4jnsgd1na2vs0mg"},{"bike_id":"138acbc8-a44a-45ec-9d4e-f41258a8778e","system_id":"levelo_inurba_marseille","lat":43.298183,"lon":5.440579,"is_reserved":false,"is_disabled":false,"rental_uris":{"android":"levelo://app?vid=138acbc8-a44a-45ec-9d4e-f41258a8778e","ios":"levelo://app?vid=138acbc8-a44a-45ec-9d4e-f41258a8778e"},"vehicle_type_id":"4","last_reported":1762867411,"current_range_meters":17200,"station_id":"st_d3jp68qikq2c7381ktn0","pricing_plan_id":"cebpf4jnsgd1na2vs0mg"},{"bike_id":"2c53d192-a331-4753-803e-826d4161d29c","system_id":"levelo_inurba_marseille","lat":43.21744,"lon":5.34598,"is_reserved":false,"is_disabled":false,"rental_uris":{"android":"levelo://app?vid=2c53d192-a331-4753-803e-826d4161d29c","ios":"levelo://app?vid=2c53d192-a331-4753-803e-826d4161d29c"},"vehicle_type_id":"4","last_reported":1762867411,"current_range_meters":17200,"station_id":"st_cvj6r9ubvosntc0bgbag","pricing_plan_id":"cebpf4jnsgd1na2vs0mg"},{"bike_id":"8eb5bd1a-a2a2-4b8a-b727-241a5e891360","system_id":"levelo_inurba_marseille","lat":43.2826,"lon":5.3508,"is_reserved":false,"is_disabled":false,"rental_uris":{"android":"levelo://app?vid=8eb5bd1a-a2a2-4b8a-b727-241a5e891360","ios":"levelo://app?vid=8eb5bd1a-a2a2-4b8a-b727-241a5e891360"},"vehicle_type_id":"4","last_reported":1762867411,"current_range_meters":17200,"station_id":"ce4bhbp2rcd13ifvqerg","pricing_plan_id":"cebpf4jnsgd1na2vs0mg"},{"bike_id":"817e1074-f88d-4cfb-919f-d3f7bd61e5d5","system_id":"levelo_inurba_marseille","lat":43.24389,"lon":5.37058,"is_reserved":false,"is_disabled":false,"rental_uris":{"android":"levelo://app?vid=817e1074-f88d-4cfb-919f-d3f7bd61e5d5","ios":"levelo://app?vid=817e1074-f88d-4cfb-919f-d3f7bd61e5d5"},"vehicle_type_id":"4","last_reported":1762867411,"current_range_meters":17600,"station_id":"ce4bhhh2rcd13ifvqfk0","pricing_plan_id":"cebpf4jnsgd1na2vs0mg"},{"bike_id":"a61066a4-6a60-4b0b-a8e9-f58d280bd888","system_id":"levelo_inurba_marseille","lat":43.25496,"lon":5.37651,"is_reserved":false,"is_disabled":false,"rental_uris":{"android":"levelo://app?vid=a61066a4-6a60-4b0b-a8e9-f58d280bd888","ios":"levelo://app?vid=a61066a4-6a60-4b0b-a8e9-f58d280bd888"},"vehicle_type_id":"4","last_reported":1762867411,"current_range_meters":17600,"station_id":"ce4bhh12rcd13ifvqff0","pricing_plan_id":"cebpf4jnsgd1na2vs0mg"},{"bike_id":"c0f341b8-4ffd-42e9-a749-512db46f9b04","system_id":"levelo_inurba_marseille","lat":43.211947,"lon":5.350663,"is_reserved":false,"is_disabled":false,"rental_uris":{"android":"levelo://app?vid=c0f341b8-4ffd-42e9-a749-512db46f9b04","ios":"levelo://app?vid=c0f341b8-4ffd-42e9-a749-512db46f9b04"},"vehicle_type_id":"4","last_reported":1762867411,"current_range_meters":17600,"station_id":"st_cvj6sg6p6f1abm77japg","pricing_plan_id":"cebpf4jnsgd1na2vs0mg"},{"bike_id":"e73342d4-75e3-4562-8829-caa63cea5708","system_id":"levelo_inurba_marseille","lat":43.27622,"lon":5.36119,"is_reserved":false,"is_disabled":false,"rental_uris":{"android":"levelo://app?vid=e73342d4-75e3-4562-8829-caa63cea5708","ios":"levelo://app?vid=e73342d4-75e3-4562-8829-caa63cea5708"},"vehicle_type_id":"4","last_reported":1762867411,"current_range_meters":17600,"station_id":"ce4bgj92rcd13ifvqbe0","pricing_plan_id":"cebpf4jnsgd1na2vs0mg"},{"bike_id":"ec1ec006-8401-4c9c-a4ad-768db83bea72","system_id":"levelo_inurba_marseille","lat":43.28856,"lon":5.39326,"is_reserved":false,"is_disabled":false,"rental_uris":{"android":"levelo://app?vid=ec1ec006-8401-4c9c-a4ad-768db83bea72","ios":"levelo://app?vid=ec1ec006-8401-4c9c-a4ad-768db83bea72"},"vehicle_type_id":"4","last_reported":1762867411,"current_range_meters":17600,"station_id":"ce4bh2p2rcd13ifvqdi0","pricing_plan_id":"cebpf4jnsgd1na2vs0mg"},{"bike_id":"d97771df-dbfb-46c7-8119-0229eff3a7fd","system_id":"levelo_inurba_marseille","lat":43.337444,"lon":5.374475,"is_reserved":false,"is_disabled":false,"rental_uris":{"android":"levelo://app?vid=d97771df-dbfb-46c7-8119-0229eff3a7fd","ios":"levelo://app?vid=d97771df-dbfb-46c7-8119-0229eff3a7fd"},